{"last_updated":1735647413,"ttl":60,"version":"2.2","data":{"bikes":[{"bike_id":"dfe733a5-4ff0-4b3d-be5f-5f6c47573692","system_id":"levelo_inurba_marseille","lat":43.28003,"lon":5.40004,"is_reserved":false,"is_disabled":false,"rental_uris":{"android":"levelo://app?vid=dfe733a5-4ff0-4b3d-be5f-5f6c47573692","ios":"levelo://app?vid=dfe733a5-4ff0-4b3d-be5f-5f6c47573692"},"vehicle_type_id":"4","last_reported":1735647413,"current_range_meters":22400,"station_id":"ce4bho92rcd13ifvqh4g","pricing_plan_id":"cebpf4jnsgd1na2vs0mg"},{"bike_id":"446d3da9-7829-402c-97cb-ca1dad65cd97","system_id":"levelo_inurba_marseille","lat":43.27183,"lon":5.41002,"is_reserved":false,"is_disabled":false,"rental_uris":{"android":"levelo://app?vid=446d3da9-7829-402c-97cb-ca1dad65cd97","ios":"levelo://app?vid=446d3da9-7829-402c-97cb-ca1dad65cd97"},"vehicle_type_id":"4","last_reported":1735647413,"current_range_meters":29600,"station_id":"ce4bhl12rcd13ifvqgf0","pricing_plan_id":"cebpf4jnsgd1na2vs0mg"},{"bike_id":"6febface-44b5-4638-b160-88b255c07d01","system_id":"levelo_inurba_marseille","lat":43.23182,"lon":5.35563,"is_reserved":false,"is_disabled":false,"rental_uris":{"android":"levelo://app?vid=6febface-44b5-4638-b160-88b255c07d01","ios":"levelo://app?vid=6febface-44b5-4638-b160-88b255c07d01"},"vehicle_type_id":"4","last_reported":1735647413,"current_range_meters":38800,"station_id":"ce4bhu92rcd13ifvqi70","pricing_plan_id":"cebpf4jnsgd1na2vs0mg"},{"bike_id":"0c4d407c-6cb3-4649-ac2d-959dc9dbd1fc","system_id":"levelo_inurba_marseille","lat":43.27954,"lon":5.41042,"is_reserved":false,"is_disabled":false,"rental_uris":{"android":"levelo://app?vid=0c4d407c-6cb3-4649-ac2d-959dc9dbd1fc","ios":"levelo://app?vid=0c4d407c-6cb3-4649-ac2d-959dc9dbd1fc"},"vehicle_type_id":"4","last_reported":1735647413,"current_range_meters":24800,"station_id":"ce4bhnp2rcd13ifvqh0g","pricing_plan_id":"cebpf4jnsgd1na2vs0mg"},{"bike_id":"a0c124c9-3c60-4a2e-a0f3-69bfc4ba35d5","system_id":"levelo_inurba_marseille","lat":43.25566,"lon":5.38253,"is_reserved":false,"is_disabled":false,"rental_uris":{"android":"levelo://app?vid=a0c124c9-3c60-4a2e-a0f3-69bfc4ba35d5","ios":"levelo://app?vid=a0c124c9-3c60-4a2e-a0f3-69bfc4ba35d5"},"vehicle_type_id":"4","last_reported":1735647413,"current_range_meters":6800,"station_id":"ce4bhih2rcd13ifvqfs0","pricing_plan_id":"cebpf4jnsgd1na2vs0mg"},{"bike_id":"3991aac2-ec7f-43c8-801f-23e11845f2d6","system_id":"levelo_inurba_marseille","lat":43.28154,"lon":5.42656,"is_reserved":false,"is_disabled":false,"rental_uris":{"android":"levelo://app?vid=3991aac2-ec7f-43c8-801f-23e11845f2d6","ios":"levelo://app?vid=3991aac2-ec7f-43c8-801f-23e11845f2d6"},"vehicle_type_id":"4","last_reported":1735647413,"current_range_meters":39200,"station_id":"ce4bhnh2rcd13ifvqgug","pricing_plan_id":"cebpf4jnsgd1na2vs0mg"},{"bike_id":"895d13e1-6417-449c-8264-4f4e05516939","system_id":"levelo_inurba_marseille","lat":43.29893,"lon":5.39758,"is_reserved":false,"is_disabled":false,"rental_uris":{"android":"levelo://app?vid=895d13e1-6417-449c-8264-4f4e05516939","ios":"levelo://app?vid=895d13e1-6417-449c-8264-4f4e05516939"},"vehicle_type_id":"4","last_reported":1735647413,"current_range_meters":38800,"station_id":"ce4bh0h2rcd13ifvqd50","pricing_plan_id":"cebpf4jnsgd1na2vs0mg"},{"bike_id":"2561e3aa-bdd3-4bda-8cd5-8d8f3722968c","system_id":"levelo_inurba_marseille","lat":43.22932,"lon":5.35381,"is_reserved":false,"is_disabled":false,"rental_uris":{"android":"levelo://app?vid=2561e3aa-bdd3-4bda-8cd5-8d8f3722968c","ios":"levelo://app?vid=2561e3aa-bdd3-4bda-8cd5-8d8f3722968c"},"vehicle_type_id":"4","last_reported":1735647413,"current_range_meters":8800,"station_id":"cpo3532slgdg3j2ikp40","pricing_plan_id":"cebpf4jnsgd1na2vs0mg"},{"bike_id":"36b7699f-30c6-480c-b617-78216ef92e66","system_id":"levelo_inurba_marseille","lat":43.29532,"lon":5.40765,"is_reserved":false,"is_disabled":false,"rental_uris":{"android":"levelo://app?vid=36b7699f-30c6-480c-b617-78216ef92e66","ios":"levelo://app?vid=36b7699f-30c6-480c-b617-78216ef92e66"},"vehicle_type_id":"4","last_reported":1735647413,"current_range_meters":39200,"station_id":"ce4bh0h2rcd13ifvqd60","pricing_plan_id":"cebpf4jnsgd1na2vs0mg"},{"bike_id":"6f914993-3519-426e-95ac-9f284234fb85","system_id":"levelo_inurba_marseille","lat":43.24179,"lon":5.39726,"is_reserved":false,"is_disabled":false,"rental_uris":{"android":"levelo://app?vid=6f914993-3519-426e-95ac-9f284234fb85","ios":"levelo://app?vid=6f914993-3519-426e-95ac-9f284234fb85"},"vehicle_type_id":"4","last_reported":1735647413,"current_range_meters":8000,"station_id":"ce4bhn12rcd13ifvqgpg","pricing_plan_id":"cebpf4jnsgd1na2vs0mg"},{"bike_id":"0af75a5e-a2b7-4918-bcd2-9ed6265d8500","system_id":"levelo_inurba_marseille","lat":43.29354,"lon":5.37837,"is_reserved":false,"is_disabled":false,"rental_uris":{"android":"levelo://app?vid=0af75a5e-a2b7-4918-bcd2-9ed6265d8500","ios":"levelo://app?vid=0af75a5e-a2b7-4918-bcd2-9ed6265d8500"},"vehicle_type_id":"4","last_reported":1735647413,"current_range_meters":34000,"station_id":"ce4bgjh2rcd13ifvqbf0","pricing_plan_id":"cebpf4jnsgd1na2vs0mg"},{"bike_id":"c3e8cc45-3467-47e1-bf8a-b48869c6d950","system_id":"levelo_inurba_marseille","lat":43.3111,"lon":5.37779,"is_reserved":false,"is_disabled":false,"rental_uris":{"android":"levelo://app?vid=c3e8cc45-3467-47e1-bf8a-b48869c6d950","ios":"levelo://app?vid=c3e8cc45-3467-47e1-bf8a-b48869c6d950"},"vehicle_type_id":"4","last_reported":1735647413,"current_range_meters":8400,"station_id":"ce4bgt92rcd13ifvqcg0","pricing_plan_id":"cebpf4jnsgd1na2vs0mg"},{"bike_id":"bfd1bcc7-601f-4c2a-96ec-975fa09f72c8","system_id":"levelo_inurba_marseille","lat":43.337444,"lon":5.374475,"is_reserved":false,"is_disabled":false,"rental_uris":{"android":"levelo://app?vid=bfd1bcc7-601f-4c2a-96ec-975fa09f72c8","ios":"levelo://app?vid=bfd1bcc7-601f-4c2a-96ec-975fa09f72c8"},"vehicle_type_id":"4","last_reported":1735647413,"current_range_meters":38800,"station_id":"","pricing_plan_id":"cebpf4jnsgd1na2vs0mg"},{"bike_id":"d3d30c5e-be0b-4780-90cc-ff13d0799f61","system_id":"levelo_inurba_marseille","lat":43.26208,"lon":5.37449,"is_reserved":false,"is_disabled":false,"rental_uris":{"android":"levelo://app?vid=d3d30c5e-be0b-4780-90cc-ff13d0799f61","ios":"levelo://app?vid=d3d30c5e-be0b-4780-90cc-ff13d0799f61"},"vehicle_type_id":"4","last_reported":1735647413,"current_range_meters":36800,"station_id":"ce4bhgp2rcd13ifvqfc0","pricing_plan_id":"cebpf4jnsgd1na2vs0mg"},{"bike_id":"34746fd6-7d22-4962-bfa1-605bd86ec832","system_id":"levelo_inurba_marseille","lat":43.25501,"lon":5.37663,"is_reserved":false,"is_disabled":false,"rental_uris":{"android":"levelo://app?vid=34746fd6-7d22-4962-bfa1-605bd86ec832","ios":"levelo://app?vid=34746fd6-7d22-4962-bfa1-605bd86ec832"},"vehicle_type_id":"4","last_reported":1735647413,"current_range_meters":38000,"station_id":"ce4bhh12rcd13ifvqff0","pricing_plan_id":"cebpf4jnsgd1na2vs0mg"},{"bike_id":"a6d96a10-8654-43e1-a269-aa0800b72273","system_id":"levelo_inurba_marseille","lat":43.24388,"lon":5.37061,"is_reserved":false,"is_disabled":false,"rental_uris":{"android":"levelo://app?vid=a6d96a10-8654-43e1-a269-aa0800b72273","ios":"levelo://app?vid=a6d96a10-8654-43e1-a269-aa0800b72273"},"vehicle_type_id":"4","last_reported":1735647413,"current_range_meters":36000,"station_id":"ce4bhhh2rcd13ifvqfk0","pricing_plan_id":"cebpf4jnsgd1na2vs0mg"},{"bike_id":"97cbd5c8-8d4b-42c8-97da-63948062d074","system_id":"levelo_inurba_marseille","lat":43.30153,"lon":5.38088,"is_reserved":false,"is_disabled":false,"rental_uris":{"android":"levelo://app?vid=97cbd5c8-8d4b-42c8-97da-63948062d074","ios":"levelo://app?vid=97cbd5c8-8d4b-42c8-97da-63948062d074"},"vehicle_type_id":"4","last_reported":1735647413,"current_range_meters":28400,"station_id":"ce4bgjp2rcd13ifvqbh0","pricing_plan_id":"cebpf4jnsgd1na2vs0mg"},{"bike_id":"ac9edfbd-2c81-4be2-9272-e6762f5e5829","system_id":"levelo_inurba_marseille","lat":43.29613,"lon":5.37705,"is_reserved":false,"is_disabled":false,"rental_uris":{"android":"levelo://app?vid=ac9edfbd-2c81-4be2-9272-e6762f5e5829","ios":"levelo://app?vid=ac9edfbd-2c81-4be2-9272-e6762f5e5829"},"vehicle_type_id":"4","last_reported":1735647413,"current_range_meters":36400,"station_id":"ce4bgi92rcd13ifvqb90","pricing_plan_id":"cebpf4jnsgd1na2vs0mg"},{"bike_id":"275d1de5-2e1e-451b-853e-c0593d51907d","system_id":"levelo_inurba_marseille","lat":43.29787,"lon":5.38127,"is_reserved":false,"is_disabled":true,"rental_uris":{"android":"levelo://app?vid=275d1de5-2e1e-451b-853e-c0593d51907d","ios":"levelo://app?vid=275d1de5-2e1e-451b-853e-c0593d51907d"},"vehicle_type_id":"4","last_reported":1735647413,"current_range_meters":18800,"station_id":"ce4bgip2rcd13ifvqbb0","pricing_plan_id":"cebpf4jnsgd1na2vs0mg"},{"bike_id":"07abed00-5289-4968-ad13-b97801099ad4","system_id":"levelo_inurba_marseille","lat":43.29179,"lon":5.38598,"is_reserved":false,"is_disabled":false,"rental_uris":{"android":"levelo://app?vid=07abed00-5289-4968-ad13-b97801099ad4","ios":"levelo://app?vid=07abed00-5289-4968-ad13-b97801099ad4"},"vehicle_type_id":"4","last_reported":1735647413,"current_range_meters":30800,"station_id":"","pricing_plan_id":"cebpf4jnsgd1na2vs0mg"},{"bike_id":"af6f9b21-b753-4180-be07-3b2fe4c9f125","system_id":"levelo_inurba_marseille","lat":43.30268,"lon":5.37716,"is_reserved":false,"is_disabled":false,"rental_uris":{"android":"levelo://app?vid=af6f9b21-b753-4180-be07-3b2fe4c9f125","ios":"levelo://app?vid=af6f9b21-b753-4180-be07-3b2fe4c9f125"},"vehicle_type_id":"4","last_reported":1735647413,"current_range_meters":38400,"station_id":"ce4bguh2rcd13ifvqcj0","pricing_plan_id":"cebpf4jnsgd1na2vs0mg"},{"bike_id":"0e5a5f49-bc78-4b22-94c8-1c303a81b9cf","system_id":"levelo_inurba_marseille","lat":43.29531,"lon":5.37514,"is_reserved":false,"is_disabled":false,"rental_uris":{"android":"levelo://app?vid=0e5a5f49-bc78-4b22-94c8-1c303a81b9cf","ios":"levelo://app?vid=0e5a5f49-bc78-4b22-94c8-1c303a81b9cf"},"vehicle_type_id":"4","last_reported":1735647413,"current_range_meters":32800,"station_id":"ce4bgkp2rcd13ifvqbmg","pricing_plan_id":"cebpf4jnsgd1na2vs0mg"},{"bike_id":"f80486c0-769f-4f08-94f5-daaa1ac79068","system_id":"levelo_inurba_marseille","lat":43.24802,"lon":5.37465,"is_reserved":false,"is_disabled":false,"rental_uris":{"android":"levelo://app?vid=f80486c0-769f-4f08-94f5-daaa1ac79068","ios":"levelo://app?vid=f80486c0-769f-4f08-94f5-daaa1ac79068"},"vehicle_type_id":"4","last_reported":1735647413,"current_range_meters":28400,"station_id":"ce4bhgh2rcd13ifvqfb0","pricing_plan_id":"cebpf4jnsgd1na2vs0mg"},{"bike_id":"e8ad4338-1b2d-405f-ba74-99bef8c85993","system_id":"levelo_inurba_marseille","lat":43.27578,"lon":5.38439,"is_reserved":false,"is_disabled":false,"rental_uris":{"android":"levelo://app?vid=e8ad4338-1b2d-405f-ba74-99bef8c85993","ios":"levelo://app?vid=e8ad4338-1b2d-405f-ba74-99bef8c85993"},"vehicle_type_id":"4","last_reported":1735647413,"current_range_meters":16800,"station_id":"ce4bhh92rcd13ifvqfi0","pricing_plan_id":"cebpf4jnsgd1na2vs0mg"},{"bike_id":"88dbc352-3ba1-41d4-8a8f-2f99fdc98f6d","system_id":"levelo_inurba_marseille","lat":43.27051,"lon":5.40283,"is_reserved":false,"is_disabled":false,"rental_uris":{"android":"levelo://app?vid=88dbc352-3ba1-41d4-8a8f-2f99fdc98f6d","ios":"levelo://app?vid=88dbc352-3ba1-41d4-8a8f-2f99fdc98f6d"},"vehicle_type_id":"4","last_reported":1735647413,"current_range_meters":38800,"station_id":"ce4bhk92rcd13ifvqgc0","pricing_plan_id":"cebpf4jnsgd1na2vs0mg"},{"bike_id":"f063b63e-e617-48d9-bc57-50c7f2c228aa","system_id":"levelo_inurba_marseille","lat":43.32295,"lon":5.38263,"is_reserved":false,"is_disabled":false,"rental_uris":{"android":"levelo://app?vid=f063b63e-e617-48d9-bc57-50c7f2c228aa","ios":"levelo://app?vid=f063b63e-e617-48d9-bc57-50c7f2c228aa"},"vehicle_type_id":"4","last_reported":1735647413,"current_range_meters":38000,"station_id":"ce4bhr12rcd13ifvqhqg","pricing_plan_id":"cebpf4jnsgd1na2vs0mg"},{"bike_id":"48c5678b-ec2a-480e-bf26-48997d493918","system_id":"levelo_inurba_marseille","lat":43.27305,"lon":5.39097,"is_reserved":false,"is_disabled":false,"rental_uris":{"android":"levelo://app?vid=48c5678b-ec2a-480e-bf26-48997d493918","ios":"levelo://app?vid=48c5678b-ec2a-480e-bf26-48997d493918"},"vehicle_type_id":"4","last_reported":1735647413,"current_range_meters":8000,"station_id":"ce4bhgp2rcd13ifvqfe0","pricing_plan_id":"cebpf4jnsgd1na2vs0mg"},{"bike_id":"68fe914d-78e4-4773-bb6b-5e8407fd5609","system_id":"levelo_inurba_marseille","lat":43.295301,"lon":5.374932,"is_reserved":false,"is_disabled":false,"rental_uris":{"android":"levelo://app?vid=68fe914d-78e4-4773-bb6b-5e8407fd5609","ios":"levelo://app?vid=68fe914d-78e4-4773-bb6b-5e8407fd5609"},"vehicle_type_id":"4","last_reported":1735647413,"current_range_meters":28800,"station_id":"ce4bgkp2rcd13ifvqbmg","pricing_plan_id":"cebpf4jnsgd1na2vs0mg"},{"bike_id":"328f00ae-9b3d-4a44-a1ce-4982595ebf23","system_id":"levelo_inurba_marseille","lat":43.27813,"lon":5.39218,"is_reserved":false,"is_disabled":false,"rental_uris":{"android":"levelo://app?vid=328f00ae-9b3d-4a44-a1ce-4982595ebf23","ios":"levelo://app?vid=328f00ae-9b3d-4a44-a1ce-4982595ebf23"},"vehicle_type_id":"4","last_reported":1735647413,"current_range_meters":24800,"station_id":"ce4bhjp2rcd13ifvqga0","pricing_plan_id":"cebpf4jnsgd1na2vs0mg"},{"bike_id":"f390e0a7-3d51-4aeb-a1cd-e4aac533a40f","system_id":"levelo_inurba_marseille","lat":43.29789,"lon":5.40423,"is_reserved":false,"is_disabled":false,"rental_uris":{"android":"levelo://app?vid=f390e0a7-3d51-4aeb-a1cd-e4aac533a40f","ios":"levelo://app?vid=f390e0a7-3d51-4aeb-a1cd-e4aac533a40f"},"vehicle_type_id":"4","last_reported":1735647413,"current_range_meters":26800,"station_id":"ce4bh112rcd13ifvqd90","pricing_plan_id":"cebpf4jnsgd1na2vs0mg"},{"bike_id":"883f1bfe-8e9f-4d00-9640-542119895824","system_id":"levelo_inurba_marseille","lat":43.29513,"lon":5.39413,"is_reserved":false,"is_disabled":false,"rental_uris":{"android":"levelo://app?vid=883f1bfe-8e9f-4d00-9640-542119895824","ios":"levelo://app?vid=883f1bfe-8e9f-4d00-9640-542119895824"},"vehicle_type_id":"4","last_reported":1735647413,"current_range_meters":36800,"station_id":"ce4bh292rcd13ifvqdf0","pricing_plan_id":"cebpf4jnsgd1na2vs0mg"},{"bike_id":"37b5c94a-c717-42bf-b960-d5cd6c7e2be3","system_id":"levelo_inurba_marseille","lat":43.295456,"lon":5.422852,"is_reserved":false,"is_disabled":false,"rental_uris":{"android":"levelo://app?vid=37b5c94a-c717-42bf-b960-d5cd6c7e2be3","ios":"levelo://app?vid=37b5c94a-c717-42bf-b960-d5cd6c7e2be3"},"vehicle_type_id":"4","last_reported":1735647413,"current_range_meters":38000,"station_id":"ce4bhph2rcd13ifvqhdg","pricing_plan_id":"cebpf4jnsgd1na2vs0mg"},{"bike_id":"3e90302f-f220-44a8-9d81-4d013e538f37","system_id":"levelo_inurba_marseille","lat":43.23147,"lon":5.4372,"is_reserved":false,"is_disabled":false,"rental_uris":{"android":"levelo://app?vid=3e90302f-f220-44a8-9d81-4d013e538f37","ios":"levelo://app?vid=3e90302f-f220-44a8-9d81-4d013e538f37"},"vehicle_type_id":"4","last_reported":1735647413,"current_range_meters":39200,"station_id":"ce4bhmp2rcd13ifvqgog","pricing_plan_id":"cebpf4jnsgd1na2vs0mg"},{"bike_id":"ff49d49a-53c3-499a-b296-89a67f332a8a","system_id":"levelo_inurba_marseille","lat":43.24165,"lon":5.36398,"is_reserved":false,"is_disabled":false,"rental_uris":{"android":"levelo://app?vid=ff49d49a-53c3-499a-b296-89a67f332a8a","ios":"levelo://app?vid=ff49d49a-53c3-499a-b296-89a67f332a8a"},"vehicle_type_id":"4","last_reported":1735647413,"current_range_meters":36800,"station_id":"cpo36qri1sfpv3e86is0","pricing_plan_id":"cebpf4jnsgd1na2vs0mg"},{"bike_id":"42fbc91b-af76-4ca1-807c-30a385024ffd","system_id":"levelo_inurba_marseille","lat":43.29848,"lon":5.36268,"is_reserved":false,"is_disabled":false,"rental_uris":{"android":"levelo://app?vid=42fbc91b-af76-4ca1-807c-30a385024ffd","ios":"levelo://app?vid=42fbc91b-af76-4ca1-807c-30a385024ffd"},"vehicle_type_id":"4","last_reported":1735647413,"current_range_meters":39200,"station_id":"ce4bgpp2rcd13ifvqc3g","pricing_plan_id":"cebpf4jnsgd1na2vs0mg"},{"bike_id":"d841d641-2f56-46e3-be38-87db9829533f","system_id":"levelo_inurba_marseille","lat":43.27789,"lon":5.40751,"is_reserved":false,"is_disabled":false,"rental_uris":{"android":"levelo://app?vid=d841d641-2f56-46e3-be38-87db9829533f","ios":"levelo://app?vid=d841d641-2f56-46e3-be38-87db9829533f"},"vehicle_type_id":"4","last_reported":1735647413,"current_range_meters":27200,"station_id":"ce4bhnh2rcd13ifvqgtg","pricing_plan_id":"cebpf4jnsgd1na2vs0mg"},{"bike_id":"68ce89d7-2c49-47a3-af51-4cee0b21d337","system_id":"levelo_inurba_marseille","lat":43.27976,"lon":5.38728,"is_reserved":false,"is_disabled":false,"rental_uris":{"android":"levelo://app?vid=68ce89d7-2c49-47a3-af51-4cee0b21d337","ios":"levelo://app?vid=68ce89d7-2c49-47a3-af51-4cee0b21d337"},"vehicle_type_id":"4","last_reported":1735647413,"current_range_meters":35600,"station_id":"ce4bhg12rcd13ifvqf80","pricing_plan_id":"cebpf4jnsgd1na2vs0mg"},{"bike_id":"294c14cb-577f-4c56-859e-2380db7a357a","system_id":"levelo_inurba_marseille","lat":43.23159,"lon":5.43709,"is_reserved":false,"is_disabled":false,"rental_uris":{"android":"levelo://app?vid=294c14cb-577f-4c56-859e-2380db7a357a","ios":"levelo://app?vid=294c14cb-577f-4c56-859e-2380db7a357a"},"vehicle_type_id":"4","last_reported":1735647413,"current_range_meters":38000,"station_id":"ce4bhmp2rcd13ifvqgog","pricing_plan_id":"cebpf4jnsgd1na2vs0mg"},{"bike_id":"01caa74a-f316-4e7e-b2eb-0a06455283e3","system_id":"levelo_inurba_marseille","lat":43.2438,"lon":5.37079,"is_reserved":false,"is_disabled":false,"rental_uris":{"android":"levelo://app?vid=01caa74a-f316-4e7e-b2eb-0a06455283e3","ios":"levelo://app?vid=01caa74a-f316-4e7e-b2eb-0a06455283e3"},"vehicle_type_id":"4","last_reported":1735647413,"current_range_meters":24800,"station_id":"ce4bhhh2rcd13ifvqfk0","pricing_plan_id":"cebpf4jnsgd1na2vs0mg"},{"bike_id":"13f84696-4405-43e0-b0f5-1a61d67abe32","system_id":"levelo_inurba_marseille","lat":43.27819,"lon":5.39213,"is_reserved":false,"is_disabled":false,"rental_uris":{"android":"levelo://app?vid=13f84696-4405-43e0-b0f5-1a61d67abe32","ios":"levelo://app?vid=13f84696-4405-43e0-b0f5-1a61d67abe32"},"vehicle_type_id":"4","last_reported":1735647413,"current_range_meters":14400,"station_id":"ce4bhjp2rcd13ifvqga0","pricing_plan_id":"cebpf4jnsgd1na2vs0mg"},{"bike_id":"6275c667-9408-4738-96cb-6278121ca45a","system_id":"levelo_inurba_marseille","lat":43.27425,"lon":5.39416,"is_reserved":false,"is_disabled":false,"rental_uris":{"android":"levelo://app?vid=6275c667-9408-4738-96cb-6278121ca45a","ios":"levelo://app?vid=6275c667-9408-4738-96cb-6278121ca45a"},"vehicle_type_id":"4","last_reported":1735647413,"current_range_meters":8800,"station_id":"ce4bhdp2rcd13ifvqf20","pricing_plan_id":"cebpf4jnsgd1na2vs0mg"},{"bike_id":"317bbece-85f5-4709-8e50-643ba25a75ff","system_id":"levelo_inurba_marseille","lat":43.337444,"lon":5.374475,"is_reserved":false,"is_disabled":false,"rental_uris":{"android":"levelo://app?vid=317bbece-85f5-4709-8e50-643ba25a75ff","ios":"levelo://app?vid=317bbece-85f5-4709-8e50-643ba25a75ff"},"vehicle_type_id":"4","last_reported":1735647413,"current_range_meters":23200,"station_id":"","pricing_plan_id":"cebpf4jnsgd1na2vs0mg"},{"bike_id":"e7774da4-c308-4bfa-aba8-31efca07b3a0","system_id":"levelo_inurba_marseille","lat":43.337444,"lon":5.374475,"is_reserved":false,"is_disabled":false,"rental_uris":{"android":"levelo://app?vid=e7774da4-c308-4bfa-aba8-31efca07b3a0","ios":"levelo://app?vid=e7774da4-c308-4bfa-aba8-31efca07b3a0"},"vehicle_type_id":"4","last_reported":1735647413,"current_range_meters":38400,"station_id":"","pricing_plan_id":"cebpf4jnsgd1na2vs0mg"},{"bike_id":"8e93d70a-d0ee-4fc3-a7e7-63e94e7a481d","system_id":"levelo_inurba_marseille","lat":43.301394,"lon":5.374229,"is_reserved":false,"is_disabled":false,"rental_uris":{"android":"levelo://app?vid=8e93d70a-d0ee-4fc3-a7e7-63e94e7a481d","ios":"levelo://app?vid=8e93d70a-d0ee-4fc3-a7e7-63e94e7a481d"},"vehicle_type_id":"4","last_reported":1735647413,"current_range_meters":39200,"station_id":"ce4bgs92rcd13ifvqcc0","pricing_plan_id":"cebpf4jnsgd1na2vs0mg"},{"bike_id":"80224094-b3fd-4798-9649-79cd7dfd5312","system_id":"levelo_inurba_marseille","lat":43.28705,"lon":5.39982,"is_reserved":false,"is_disabled":false,"rental_uris":{"android":"levelo://app?vid=80224094-b3fd-4798-9649-79cd7dfd5312","ios":"levelo://app?vid=80224094-b3fd-4798-9649-79cd7dfd5312"},"vehicle_type_id":"4","last_reported":1735647413,"current_range_meters":11600,"station_id":"ce4bho92rcd13ifvqh3g","pricing_plan_id":"cebpf4jnsgd1na2vs0mg"},{"bike_id":"ad09079b-2a66-443a-a13d-b1f84ab569d5","system_id":"levelo_inurba_marseille","lat":43.25011,"lon":5.38937,"is_reserved":false,"is_disabled":false,"rental_uris":{"android":"levelo://app?vid=ad09079b-2a66-443a-a13d-b1f84ab569d5","ios":"levelo://app?vid=ad09079b-2a66-443a-a13d-b1f84ab569d5"},"vehicle_type_id":"4","last_reported":1735647413,"current_range_meters":38800,"station_id":"ce4bhgp2rcd13ifvqfd0","pricing_plan_id":"cebpf4jnsgd1na2vs0mg"},{"bike_id":"6e170d88-b1d0-481f-9bfc-cdf6ec215d70","system_id":"levelo_inurba_marseille","lat":43.29645,"lon":5.37145,"is_reserved":false,"is_disabled":false,"rental_uris":{"android":"levelo://app?vid=6e170d88-b1d0-481f-9bfc-cdf6ec215d70","ios":"levelo://app?vid=6e170d88-b1d0-481f-9bfc-cdf6ec215d70"},"vehicle_type_id":"4","last_reported":1735647413,"current_range_meters":38400,"station_id":"ce4bgnh2rcd13ifvqc0g","pricing_plan_id":"cebpf4jnsgd1na2vs0mg"},{"bike_id":"e1cfc593-6fc6-40f7-9e42-21a1d439f7b1","system_id":"levelo_inurba_marseille","lat":43.28068,"lon":5.39666,"is_reserved":false,"is_disabled":false,"rental_uris":{"android":"levelo://app?vid=e1cfc593-6fc6-40f7-9e42-21a1d439f7b1","ios":"levelo://app?vid=e1cfc593-6fc6-40f7-9e42-21a1d439f7b1"},"vehicle_type_id":"4","last_reported":1735647413,"current_range_meters":28800,"station_id":"ce4bho12rcd13ifvqh2g","pricing_plan_id":"cebpf4jnsgd1na2vs0mg"},{"bike_id":"713a1cc1-0684-4c54-ad69-4b8e0d591463","system_id":"levelo_inurba_marseille","lat":43.29302,"lon":5.37169,"is_reserved":false,"is_disabled":false,"rental_uris":{"android":"levelo://app?vid=713a1cc1-0684-4c54-ad69-4b8e0d591463","ios":"levelo://app?vid=713a1cc1-0684-4c54-ad69-4b8e0d591463"},"vehicle_type_id":"4","last_reported":1735647413,"current_range_meters":38800,"station_id":"ce4bgh92rcd13ifvqb40","pricing_plan_id":"cebpf4jnsgd1na2vs0mg"},{"bike_id":"44f10602-df11-4b33-91aa-2ca115a32615","system_id":"levelo_inurba_marseille","lat":43.29081,"lon":5.37183,"is_reserved":false,"is_disabled":false,"rental_uris":{"android":"levelo://app?vid=44f10602-df11-4b33-91aa-2ca115a32615","ios":"levelo://app?vid=44f10602-df11-4b33-91aa-2ca115a32615"},"vehicle_type_id":"4","last_reported":1735647413,"current_range_meters":33200,"station_id":"ce4bh5p2rcd13ifvqe4g","pricing_plan_id":"cebpf4jnsgd1na2vs0mg"},{"bike_id":"da3075ee-8070-42f9-8350-58e475a60c82","system_id":"levelo_inurba_marseille","lat":43.27438,"lon":5.38638,"is_reserved":false,"is_disabled":false,"rental_uris":{"android":"levelo://app?vid=da3075ee-8070-42f9-8350-58e475a60c82","ios":"levelo://app?vid=da3075ee-8070-42f9-8350-58e475a60c82"},"vehicle_type_id":"4","last_reported":1735647413,"current_range_meters":38800,"station_id":"ce4bhh92rcd13ifvqfi0","pricing_plan_id":"cebpf4jnsgd1na2vs0mg"},{"bike_id":"ddaa3bfb-84cb-4869-a201-30bf8fe7e311","system_id":"levelo_inurba_marseille","lat":43.29367,"lon":5.37843,"is_reserved":false,"is_disabled":false,"rental_uris":{"android":"levelo://app?vid=ddaa3bfb-84cb-4869-a201-30bf8fe7e311","ios":"levelo://app?vid=ddaa3bfb-84cb-4869-a201-30bf8fe7e311"},"vehicle_type_id":"4","last_reported":1735647413,"current_range_meters":39200,"station_id":"ce4bgjh2rcd13ifvqbf0","pricing_plan_id":"cebpf4jnsgd1na2vs0mg"},{"bike_id":"2b32fb23-f2c4-4faa-b906-35b4ddad0b9d","system_id":"levelo_inurba_marseille","lat":43.29073,"lon":5.37169,"is_reserved":false,"is_disabled":false,"rental_uris":{"android":"levelo://app?vid=2b32fb23-f2c4-4faa-b906-35b4ddad0b9d","ios":"levelo://app?vid=2b32fb23-f2c4-4faa-b906-35b4ddad0b9d"},"vehicle_type_id":"4","last_reported":1735647413,"current_range_meters":34800,"station_id":"ce4bh5p2rcd13ifvqe4g","pricing_plan_id":"cebpf4jnsgd1na2vs0mg"},{"bike_id":"07c99ec9-f027-47a4-9b93-3697bcc5f573","system_id":"levelo_inurba_marseille","lat":43.26923,"lon":5.40235,"is_reserved":false,"is_disabled":false,"rental_uris":{"android":"levelo://app?vid=07c99ec9-f027-47a4-9b93-3697bcc5f573","ios":"levelo://app?vid=07c99ec9-f027-47a4-9b93-3697bcc5f573"},"vehicle_type_id":"4","last_reported":1735647413,"current_range_meters":26000,"station_id":"cjm6bp8fraef2m0cb0m0","pricing_plan_id":"cebpf4jnsgd1na2vs0mg"},{"bike_id":"749f111c-214e-4166-b331-0b5d1ae21780","system_id":"levelo_inurba_marseille","lat":43.294373,"lon":5.397388,"is_reserved":false,"is_disabled":false,"rental_uris":{"android":"levelo://app?vid=749f111c-214e-4166-b331-0b5d1ae21780","ios":"levelo://app?vid=749f111c-214e-4166-b331-0b5d1ae21780"},"vehicle_type_id":"4","last_reported":1735647413,"current_range_meters":39200,"station_id":"ce4bh3h2rcd13ifvqdo0","pricing_plan_id":"cebpf4jnsgd1na2vs0mg"},{"bike_id":"c754264e-2257-42b1-89f9-0bf9a740ba42","system_id":"levelo_inurba_marseille","lat":43.27552,"lon":5.38416,"is_reserved":false,"is_disabled":false,"rental_uris":{"android":"levelo://app?vid=c754264e-2257-42b1-89f9-0bf9a740ba42","ios":"levelo://app?vid=c754264e-2257-42b1-89f9-0bf9a740ba42"},"vehicle_type_id":"4","last_reported":1735647413,"current_range_meters":30400,"station_id":"ce4bhh92rcd13ifvqfi0","pricing_plan_id":"cebpf4jnsgd1na2vs0mg"},{"bike_id":"aa1b7729-786d-4861-8241-6fe4aeb79943","system_id":"levelo_inurba_marseille","lat":43.30535,"lon":5.36554,"is_reserved":false,"is_disabled":false,"rental_uris":{"android":"levelo://app?vid=aa1b7729-786d-4861-8241-6fe4aeb79943","ios":"levelo://app?vid=aa1b7729-786d-4861-8241-6fe4aeb79943"},"vehicle_type_id":"4","last_reported":1735647413,"current_range_meters":34000,"station_id":"ce4bgs12rcd13ifvqcag","pricing_plan_id":"cebpf4jnsgd1na2vs0mg"},{"bike_id":"60831e17-813c-45b9-be75-dfa26da5bfc3","system_id":"levelo_inurba_marseille","lat":43.26477,"lon":5.39559,"is_reserved":false,"is_disabled":false,"rental_uris":{"android":"levelo://app?vid=60831e17-813c-45b9-be75-dfa26da5bfc3","ios":"levelo://app?vid=60831e17-813c-45b9-be75-dfa26da5bfc3"},"vehicle_type_id":"4","last_reported":1735647413,"current_range_meters":26000,"station_id":"ce4bhi12rcd13ifvqfq0","pricing_plan_id":"cebpf4jnsgd1na2vs0mg"},{"bike_id":"d3cf745e-2fb5-4573-88e0-67888a5d1ca8","system_id":"levelo_inurba_marseille","lat":43.29262,"lon":5.40165,"is_reserved":false,"is_disabled":false,"rental_uris":{"android":"levelo://app?vid=d3cf745e-2fb5-4573-88e0-67888a5d1ca8","ios":"levelo://app?vid=d3cf745e-2fb5-4573-88e0-67888a5d1ca8"},"vehicle_type_id":"4","last_reported":1735647413,"current_range_meters":27200,"station_id":"ce4bh312rcd13ifvqdk0","pricing_plan_id":"cebpf4jnsgd1na2vs0mg"},{"bike_id":"711375a4-5689-42ea-a27c-d36b9acf3b32","system_id":"levelo_inurba_marseille","lat":43.27215,"lon":5.40966,"is_reserved":false,"is_disabled":false,"rental_uris":{"android":"levelo://app?vid=711375a4-5689-42ea-a27c-d36b9acf3b32","ios":"levelo://app?vid=711375a4-5689-42ea-a27c-d36b9acf3b32"},"vehicle_type_id":"4","last_reported":1735647413,"current_range_meters":19200,"station_id":"ce4bhl12rcd13ifvqgf0","pricing_plan_id":"cebpf4jnsgd1na2vs0mg"},{"bike_id":"9304308d-e450-4eea-993c-bc19dd016857","system_id":"levelo_inurba_marseille","lat":43.29784,"lon":5.37098,"is_reserved":false,"is_disabled":false,"rental_uris":{"android":"levelo://app?vid=9304308d-e450-4eea-993c-bc19dd016857","ios":"levelo://app?vid=9304308d-e450-4eea-993c-bc19dd016857"},"vehicle_type_id":"4","last_reported":1735647413,"current_range_meters":33200,"station_id":"ce4bgop2rcd13ifvqc1g","pricing_plan_id":"cebpf4jnsgd1na2vs0mg"},{"bike_id":"ec0157c7-813b-4754-bf18-cb272bbd89d7","system_id":"levelo_inurba_marseille","lat":43.29442,"lon":5.39768,"is_reserved":false,"is_disabled":false,"rental_uris":{"android":"levelo://app?vid=ec0157c7-813b-4754-bf18-cb272bbd89d7","ios":"levelo://app?vid=ec0157c7-813b-4754-bf18-cb272bbd89d7"},"vehicle_type_id":"4","last_reported":1735647413,"current_range_meters":37600,"station_id":"ce4bh3h2rcd13ifvqdo0","pricing_plan_id":"cebpf4jnsgd1na2vs0mg"},{"bike_id":"8fe303ae-3cee-4d41-b887-00e4cda30a00","system_id":"levelo_inurba_marseille","lat":43.30527,"lon":5.36715,"is_reserved":false,"is_disabled":false,"rental_uris":{"android":"levelo://app?vid=8fe303ae-3cee-4d41-b887-00e4cda30a00","ios":"levelo://app?vid=8fe303ae-3cee-4d41-b887-00e4cda30a00"},"vehicle_type_id":"4","last_reported":1735647413,"current_range_meters":37600,"station_id":"ce4bgrp2rcd13ifvqc9g","pricing_plan_id":"cebpf4jnsgd1na2vs0mg"},{"bike_id":"f5237a56-7c3e-482c-81f6-629b1f9ac345","system_id":"levelo_inurba_marseille","lat":43.29613,"lon":5.37153,"is_reserved":false,"is_disabled":false,"rental_uris":{"android":"levelo://app?vid=f5237a56-7c3e-482c-81f6-629b1f9ac345","ios":"levelo://app?vid=f5237a56-7c3e-482c-81f6-629b1f9ac345"},"vehicle_type_id":"4","last_reported":1735647413,"current_range_meters":38800,"station_id":"ce4bgnh2rcd13ifvqc0g","pricing_plan_id":"cebpf4jnsgd1na2vs0mg"},{"bike_id":"cd85b716-8cf0-4caa-b767-250083b8bce6","system_id":"levelo_inurba_marseille","lat":43.29177,"lon":5.35816,"is_reserved":false,"is_disabled":false,"rental_uris":{"android":"levelo://app?vid=cd85b716-8cf0-4caa-b767-250083b8bce6","ios":"levelo://app?vid=cd85b716-8cf0-4caa-b767-250083b8bce6"},"vehicle_type_id":"4","last_reported":1735647413,"current_range_meters":39200,"station_id":"ce4bhb12rcd13ifvqel0","pricing_plan_id":"cebpf4jnsgd1na2vs0mg"},{"bike_id":"eb181102-3f6d-4793-b1eb-a8f08926a2ec","system_id":"levelo_inurba_marseille","lat":43.29047,"lon":5.39987,"is_reserved":false,"is_disabled":false,"rental_uris":{"android":"levelo://app?vid=eb181102-3f6d-4793-b1eb-a8f08926a2ec","ios":"levelo://app?vid=eb181102-3f6d-4793-b1eb-a8f08926a2ec"},"vehicle_type_id":"4","last_reported":1735647413,"current_range_meters":30400,"station_id":"ce4bh392rcd13ifvqdm0","pricing_plan_id":"cebpf4jnsgd1na2vs0mg"},{"bike_id":"0e2f82cb-6b44-4d96-9b88-3e8aacbe754f","system_id":"levelo_inurba_marseille","lat":43.30147,"lon":5.38093,"is_reserved":false,"is_disabled":false,"rental_uris":{"android":"levelo://app?vid=0e2f82cb-6b44-4d96-9b88-3e8aacbe754f","ios":"levelo://app?vid=0e2f82cb-6b44-4d96-9b88-3e8aacbe754f"},"vehicle_type_id":"4","last_reported":1735647413,"current_range_meters":38800,"station_id":"ce4bgjp2rcd13ifvqbh0","pricing_plan_id":"cebpf4jnsgd1na2vs0mg"},{"bike_id":"e72c6d65-0b04-411e-bf0f-f72d15cad0d7","system_id":"levelo_inurba_marseille","lat":43.337331,"lon":5.391826,"is_reserved":false,"is_disabled":false,"rental_uris":{"android":"levelo://app?vid=e72c6d65-0b04-411e-bf0f-f72d15cad0d7","ios":"levelo://app?vid=e72c6d65-0b04-411e-bf0f-f72d15cad0d7"},"vehicle_type_id":"4","last_reported":1735647413,"current_range_meters":38800,"station_id":"ce4bhr92rcd13ifvqhsg","pricing_plan_id":"cebpf4jnsgd1na2vs0mg"},{"bike_id":"0318585f-c5a5-400a-86f5-94ab09aea594","system_id":"levelo_inurba_marseille","lat":43.26783,"lon":5.39421,"is_reserved":false,"is_disabled":false,"rental_uris":{"android":"levelo://app?vid=0318585f-c5a5-400a-86f5-94ab09aea594","ios":"levelo://app?vid=0318585f-c5a5-400a-86f5-94ab09aea594"},"vehicle_type_id":"4","last_reported":1735647413,"current_range_meters":31200,"station_id":"ce4bhh12rcd13ifvqfg0","pricing_plan_id":"cebpf4jnsgd1na2vs0mg"},{"bike_id":"44c33bee-fe37-4148-9fab-0084162adb4a","system_id":"levelo_inurba_marseille","lat":43.30896,"lon":5.37201,"is_reserved":false,"is_disabled":false,"rental_uris":{"android":"levelo://app?vid=44c33bee-fe37-4148-9fab-0084162adb4a","ios":"levelo://app?vid=44c33bee-fe37-4148-9fab-0084162adb4a"},"vehicle_type_id":"4","last_reported":1735647413,"current_range_meters":29600,"station_id":"ce4bguh2rcd13ifvqckg","pricing_plan_id":"cebpf4jnsgd1na2vs0mg"},{"bike_id":"b7aa1b37-cf76-4a8d-b2e7-a1c0b8584db9","system_id":"levelo_inurba_marseille","lat":43.2902,"lon":5.38133,"is_reserved":false,"is_disabled":false,"rental_uris":{"android":"levelo://app?vid=b7aa1b37-cf76-4a8d-b2e7-a1c0b8584db9","ios":"levelo://app?vid=b7aa1b37-cf76-4a8d-b2e7-a1c0b8584db9"},"vehicle_type_id":"4","last_reported":1735647413,"current_range_meters":31200,"station_id":"ce4bh4p2rcd13ifvqe1g","pricing_plan_id":"cebpf4jnsgd1na2vs0mg"},{"bike_id":"7a922778-1106-4baa-a32b-3f22c6b227b6","system_id":"levelo_inurba_marseille","lat":43.28354,"lon":5.38106,"is_reserved":false,"is_disabled":false,"rental_uris":{"android":"levelo://app?vid=7a922778-1106-4baa-a32b-3f22c6b227b6","ios":"levelo://app?vid=7a922778-1106-4baa-a32b-3f22c6b227b6"},"vehicle_type_id":"4","last_reported":1735647413,"current_range_meters":37600,"station_id":"ce4bh412rcd13ifvqdr0","pricing_plan_id":"cebpf4jnsgd1na2vs0mg"},{"bike_id":"54b47f4d-54ec-4b4d-aded-f8fb3a6e8f5e","system_id":"levelo_inurba_marseille","lat":43.296977,"lon":5.37299,"is_reserved":false,"is_disabled":false,"rental_uris":{"android":"levelo://app?vid=54b47f4d-54ec-4b4d-aded-f8fb3a6e8f5e","ios":"levelo://app?vid=54b47f4d-54ec-4b4d-aded-f8fb3a6e8f5e"},"vehicle_type_id":"4","last_reported":1735647413,"current_range_meters":25600,"station_id":"ce4bgk12rcd13ifvqbj0","pricing_plan_id":"cebpf4jnsgd1na2vs0mg"},{"bike_id":"600329d4-4ce0-4a31-84ad-634d718c7d29","system_id":"levelo_inurba_marseille","lat":43.29284,"lon":5.40168,"is_reserved":false,"is_disabled":false,"rental_uris":{"android":"levelo://app?vid=600329d4-4ce0-4a31-84ad-634d718c7d29","ios":"levelo://app?vid=600329d4-4ce0-4a31-84ad-634d718c7d29"},"vehicle_type_id":"4","last_reported":1735647413,"current_range_meters":33600,"station_id":"ce4bh312rcd13ifvqdk0","pricing_plan_id":"cebpf4jnsgd1na2vs0mg"},{"bike_id":"b5c47d31-d3ab-425d-ba82-4676ee8ceba8","system_id":"levelo_inurba_marseille","lat":43.27816,"lon":5.40714,"is_reserved":false,"is_disabled":false,"rental_uris":{"android":"levelo://app?vid=b5c47d31-d3ab-425d-ba82-4676ee8ceba8","ios":"levelo://app?vid=b5c47d31-d3ab-425d-ba82-4676ee8ceba8"},"vehicle_type_id":"4","last_reported":1735647413,"current_range_meters":18800,"station_id":"ce4bhnh2rcd13ifvqgtg","pricing_plan_id":"cebpf4jnsgd1na2vs0mg"},{"bike_id":"57103b12-06fc-494b-9a1a-1903f8f245d5","system_id":"levelo_inurba_marseille","lat":43.279938,"lon":5.416612,"is_reserved":false,"is_disabled":false,"rental_uris":{"android":"levelo://app?vid=57103b12-06fc-494b-9a1a-1903f8f245d5","ios":"levelo://app?vid=57103b12-06fc-494b-9a1a-1903f8f245d5"},"vehicle_type_id":"4","last_reported":1735647413,"current_range_meters":8000,"station_id":"ce4bho12rcd13ifvqh1g","pricing_plan_id":"cebpf4jnsgd1na2vs0mg"},{"bike_id":"c93a8900-340a-4a6d-ac3e-8882057837af","system_id":"levelo_inurba_marseille","lat":43.27373,"lon":5.36254,"is_reserved":false,"is_disabled":false,"rental_uris":{"android":"levelo://app?vid=c93a8900-340a-4a6d-ac3e-8882057837af","ios":"levelo://app?vid=c93a8900-340a-4a6d-ac3e-8882057837af"},"vehicle_type_id":"4","last_reported":1735647413,"current_range_meters":28000,"station_id":"ce4bhbh2rcd13ifvqeo0","pricing_plan_id":"cebpf4jnsgd1na2vs0mg"},{"bike_id":"ffd394cf-bfd2-430e-a4e1-6d88e800faba","system_id":"levelo_inurba_marseille","lat":43.29635,"lon":5.37716,"is_reserved":false,"is_disabled":false,"rental_uris":{"android":"levelo://app?vid=ffd394cf-bfd2-430e-a4e1-6d88e800faba","ios":"levelo://app?vid=ffd394cf-bfd2-430e-a4e1-6d88e800faba"},"vehicle_type_id":"4","last_reported":1735647413,"current_range_meters":26000,"station_id":"ce4bgi92rcd13ifvqb90","pricing_plan_id":"cebpf4jnsgd1na2vs0mg"},{"bike_id":"dad825e9-c481-4ecb-8e5a-ab3402dc32ab","system_id":"levelo_inurba_marseille","lat":43.30133,"lon":5.37414,"is_reserved":false,"is_disabled":false,"rental_uris":{"android":"levelo://app?vid=dad825e9-c481-4ecb-8e5a-ab3402dc32ab","ios":"levelo://app?vid=dad825e9-c481-4ecb-8e5a-ab3402dc32ab"},"vehicle_type_id":"4","last_reported":1735647413,"current_range_meters":37600,"station_id":"ce4bgs92rcd13ifvqcc0","pricing_plan_id":"cebpf4jnsgd1na2vs0mg"},{"bike_id":"227dff7b-d526-4dc8-8572-bd0fff450cc7","system_id":"levelo_inurba_marseille","lat":43.26942,"lon":5.38644,"is_reserved":false,"is_disabled":false,"rental_uris":{"android":"levelo://app?vid=227dff7b-d526-4dc8-8572-bd0fff450cc7","ios":"levelo://app?vid=227dff7b-d526-4dc8-8572-bd0fff450cc7"},"vehicle_type_id":"4","last_reported":1735647413,"current_range_meters":38800,"station_id":"ce4bhh92rcd13ifvqfh0","pricing_plan_id":"cebpf4jnsgd1na2vs0mg"},{"bike_id":"c445e321-71b2-4f2a-b489-cce94c4974be","system_id":"levelo_inurba_marseille","lat":43.28612,"lon":5.35112,"is_reserved":false,"is_disabled":false,"rental_uris":{"android":"levelo://app?vid=c445e321-71b2-4f2a-b489-cce94c4974be","ios":"levelo://app?vid=c445e321-71b2-4f2a-b489-cce94c4974be"},"vehicle_type_id":"4","last_reported":1735647413,"current_range_meters":21600,"station_id":"ce4bhch2rcd13ifvqeug","pricing_plan_id":"cebpf4jnsgd1na2vs0mg"},{"bike_id":"30a49652-d136-44e4-a4d9-d7c1b83f0627","system_id":"levelo_inurba_marseille","lat":43.337444,"lon":5.374475,"is_reserved":false,"is_disabled":false,"rental_uris":{"android":"levelo://app?vid=30a49652-d136-44e4-a4d9-d7c1b83f0627","ios":"levelo://app?vid=30a49652-d136-44e4-a4d9-d7c1b83f0627"},"vehicle_type_id":"4","last_reported":1735647413,"current_range_meters":19200,"station_id":"","pricing_plan_id":"cebpf4jnsgd1na2vs0mg"},{"bike_id":"4d09da81-c598-4276-bcd1-1d0971ab92b4","system_id":"levelo_inurba_marseille","lat":43.27618,"lon":5.36106,"is_reserved":false,"is_disabled":false,"rental_uris":{"android":"levelo://app?vid=4d09da81-c598-4276-bcd1-1d0971ab92b4","ios":"levelo://app?vid=4d09da81-c598-4276-bcd1-1d0971ab92b4"},"vehicle_type_id":"4","last_reported":1735647413,"current_range_meters":36000,"station_id":"ce4bgj92rcd13ifvqbe0","pricing_plan_id":"cebpf4jnsgd1na2vs0mg"},{"bike_id":"9a716e5d-f84a-4446-8deb-b518e6295159","system_id":"levelo_inurba_marseille","lat":43.33749,"lon":5.37454,"is_reserved":false,"is_disabled":false,"rental_uris":{"android":"levelo://app?vid=9a716e5d-f84a-4446-8deb-b518e6295159","ios":"levelo://app?vid=9a716e5d-f84a-4446-8deb-b518e6295159"},"vehicle_type_id":"4","last_reported":1735647413,"current_range_meters":24400,"station_id":"","pricing_plan_id":"cebpf4jnsgd1na2vs0mg"},{"bike_id":"b8f199fc-2ec3-4cea-89a8-539f8a9d9d79","system_id":"levelo_inurba_marseille","lat":43.29006,"lon":5.38135,"is_reserved":false,"is_disabled":false,"rental_uris":{"android":"levelo://app?vid=b8f199fc-2ec3-4cea-89a8-539f8a9d9d79","ios":"levelo://app?vid=b8f199fc-2ec3-4cea-89a8-539f8a9d9d79"},"vehicle_type_id":"4","last_reported":1735647413,"current_range_meters":38000,"station_id":"ce4bh4p2rcd13ifvqe1g","pricing_plan_id":"cebpf4jnsgd1na2vs0mg"},{"bike_id":"ba4a59e2-f702-4e58-bd28-21ca60887b8d","system_id":"levelo_inurba_marseille","lat":43.34147,"lon":5.40909,"is_reserved":false,"is_disabled":false,"rental_uris":{"android":"levelo://app?vid=ba4a59e2-f702-4e58-bd28-21ca60887b8d","ios":"levelo://app?vid=ba4a59e2-f702-4e58-bd28-21ca60887b8d"},"vehicle_type_id":"4","last_reported":1735647413,"current_range_meters":38000,"station_id":"ce4bhqh2rcd13ifvqhlg","pricing_plan_id":"cebpf4jnsgd1na2vs0mg"},{"bike_id":"c880d37a-eca8-47a1-8687-f714254e6dbc","system_id":"levelo_inurba_marseille","lat":43.29365,"lon":5.37843,"is_reserved":false,"is_disabled":false,"rental_uris":{"android":"levelo://app?vid=c880d37a-eca8-47a1-8687-f714254e6dbc","ios":"levelo://app?vid=c880d37a-eca8-47a1-8687-f714254e6dbc"},"vehicle_type_id":"4","last_reported":1735647413,"current_range_meters":27600,"station_id":"ce4bgjh2rcd13ifvqbf0","pricing_plan_id":"cebpf4jnsgd1na2vs0mg"},{"bike_id":"5d2018aa-7074-4fb0-bd19-46c785b0343c","system_id":"levelo_inurba_marseille","lat":43.27945,"lon":5.41055,"is_reserved":false,"is_disabled":false,"rental_uris":{"android":"levelo://app?vid=5d2018aa-7074-4fb0-bd19-46c785b0343c","ios":"levelo://app?vid=5d2018aa-7074-4fb0-bd19-46c785b0343c"},"vehicle_type_id":"4","last_reported":1735647413,"current_range_meters":37600,"station_id":"ce4bhnp2rcd13ifvqh0g","pricing_plan_id":"cebpf4jnsgd1na2vs0mg"},{"bike_id":"1a5ec376-4c9a-4052-be4f-d201ecab406c","system_id":"levelo_inurba_marseille","lat":43.31388,"lon":5.36714,"is_reserved":false,"is_disabled":false,"rental_uris":{"android":"levelo://app?vid=1a5ec376-4c9a-4052-be4f-d201ecab406c","ios":"levelo://app?vid=1a5ec376-4c9a-4052-be4f-d201ecab406c"},"vehicle_type_id":"4","last_reported":1735647413,"current_range_meters":38800,"station_id":"ce4bgr92rcd13ifvqc6g","pricing_plan_id":"cebpf4jnsgd1na2vs0mg"},{"bike_id":"04124198-973d-462b-b888-29d75c80bef6","system_id":"levelo_inurba_marseille","lat":43.30423,"lon":5.41298,"is_reserved":false,"is_disabled":false,"rental_uris":{"android":"levelo://app?vid=04124198-973d-462b-b888-29d75c80bef6","ios":"levelo://app?vid=04124198-973d-462b-b888-29d75c80bef6"},"vehicle_type_id":"4","last_reported":1735647413,"current_range_meters":30000,"station_id":"ce4bhop2rcd13ifvqh8g","pricing_plan_id":"cebpf4jnsgd1na2vs0mg"},{"bike_id":"a94d6e59-9b11-40c5-ba0e-22d05a10499d","system_id":"levelo_inurba_marseille","lat":43.29252,"lon":5.38446,"is_reserved":false,"is_disabled":false,"rental_uris":{"android":"levelo://app?vid=a94d6e59-9b11-40c5-ba0e-22d05a10499d","ios":"levelo://app?vid=a94d6e59-9b11-40c5-ba0e-22d05a10499d"},"vehicle_type_id":"4","last_reported":1735647413,"current_range_meters":28400,"station_id":"ce4bh692rcd13ifvqea0","pricing_plan_id":"cebpf4jnsgd1na2vs0mg"},{"bike_id":"f0bf88ea-9840-4c72-a789-06c341b44686","system_id":"levelo_inurba_marseille","lat":43.27212,"lon":5.39188,"is_reserved":false,"is_disabled":false,"rental_uris":{"android":"levelo://app?vid=f0bf88ea-9840-4c72-a789-06c341b44686","ios":"levelo://app?vid=f0bf88ea-9840-4c72-a789-06c341b44686"},"vehicle_type_id":"4","last_reported":1735647413,"current_range_meters":9200,"station_id":"ce4bhhp2rcd13ifvqfm0","pricing_plan_id":"cebpf4jnsgd1na2vs0mg"},{"bike_id":"0b1d20ec-042d-46f7-8ee4-0028d8b455e3","system_id":"levelo_inurba_marseille","lat":43.2957,"lon":5.37517,"is_reserved":false,"is_disabled":false,"rental_uris":{"android":"levelo://app?vid=0b1d20ec-042d-46f7-8ee4-0028d8b455e3","ios":"levelo://app?vid=0b1d20ec-042d-46f7-8ee4-0028d8b455e3"},"vehicle_type_id":"4","last_reported":1735647413,"current_range_meters":29600,"station_id":"ce4bgh92rcd13ifvqb50","pricing_plan_id":"cebpf4jnsgd1na2vs0mg"},{"bike_id":"9894eef8-36b4-4053-a884-d7ac819e12bc","system_id":"levelo_inurba_marseille","lat":43.29977,"lon":5.37173,"is_reserved":false,"is_disabled":false,"rental_uris":{"android":"levelo://app?vid=9894eef8-36b4-4053-a884-d7ac819e12bc","ios":"levelo://app?vid=9894eef8-36b4-4053-a884-d7ac819e12bc"},"vehicle_type_id":"4","last_reported":1735647413,"current_range_meters":39200,"station_id":"ce4bgr92rcd13ifvqc7g","pricing_plan_id":"cebpf4jnsgd1na2vs0mg"},{"bike_id":"261f84eb-7209-4691-ba89-1395784a623f","system_id":"levelo_inurba_marseille","lat":43.27531,"lon":5.38401,"is_reserved":false,"is_disabled":false,"rental_uris":{"android":"levelo://app?vid=261f84eb-7209-4691-ba89-1395784a623f","ios":"levelo://app?vid=261f84eb-7209-4691-ba89-1395784a623f"},"vehicle_type_id":"4","last_reported":1735647413,"current_range_meters":33200,"station_id":"ce4bhh92rcd13ifvqfi0","pricing_plan_id":"cebpf4jnsgd1na2vs0mg"},{"bike_id":"33e6896e-780b-43fe-bc59-27865b9c6d24","system_id":"levelo_inurba_marseille","lat":43.2924,"lon":5.40174,"is_reserved":false,"is_disabled":false,"rental_uris":{"android":"levelo://app?vid=33e6896e-780b-43fe-bc59-27865b9c6d24","ios":"levelo://app?vid=33e6896e-780b-43fe-bc59-27865b9c6d24"},"vehicle_type_id":"4","last_reported":1735647413,"current_range_meters":36800,"station_id":"","pricing_plan_id":"cebpf4jnsgd1na2vs0mg"},{"bike_id":"d124b3fa-f3a5-4c6d-bebc-2f7ad1a1004e","system_id":"levelo_inurba_marseille","lat":43.26946,"lon":5.38644,"is_reserved":false,"is_disabled":false,"rental_uris":{"android":"levelo://app?vid=d124b3fa-f3a5-4c6d-bebc-2f7ad1a1004e","ios":"levelo://app?vid=d124b3fa-f3a5-4c6d-bebc-2f7ad1a1004e"},"vehicle_type_id":"4","last_reported":1735647413,"current_range_meters":34800,"station_id":"ce4bhh92rcd13ifvqfh0","pricing_plan_id":"cebpf4jnsgd1na2vs0mg"},{"bike_id":"ea990fc9-5f95-4acd-a2be-29105099e24e","system_id":"levelo_inurba_marseille","lat":43.23063,"lon":5.35489,"is_reserved":false,"is_disabled":false,"rental_uris":{"android":"levelo://app?vid=ea990fc9-5f95-4acd-a2be-29105099e24e","ios":"levelo://app?vid=ea990fc9-5f95-4acd-a2be-29105099e24e"},"vehicle_type_id":"4","last_reported":1735647413,"current_range_meters":35600,"station_id":"cpo3342slgdg3j2ifvpg","pricing_plan_id":"cebpf4jnsgd1na2vs0mg"},{"bike_id":"ccdcc8d7-f0ea-4982-9481-05fb5d8e53f1","system_id":"levelo_inurba_marseille","lat":43.25691,"lon":5.4113,"is_reserved":false,"is_disabled":false,"rental_uris":{"android":"levelo://app?vid=ccdcc8d7-f0ea-4982-9481-05fb5d8e53f1","ios":"levelo://app?vid=ccdcc8d7-f0ea-4982-9481-05fb5d8e53f1"},"vehicle_type_id":"4","last_reported":1735647413,"current_range_meters":34800,"station_id":"ce4bhkp2rcd13ifvqgd0","pricing_plan_id":"cebpf4jnsgd1na2vs0mg"},{"bike_id":"89255d41-724b-4c7c-bb49-a2ec4857dbc1","system_id":"levelo_inurba_marseille","lat":43.29849,"lon":5.36265,"is_reserved":false,"is_disabled":false,"rental_uris":{"android":"levelo://app?vid=89255d41-724b-4c7c-bb49-a2ec4857dbc1","ios":"levelo://app?vid=89255d41-724b-4c7c-bb49-a2ec4857dbc1"},"vehicle_type_id":"4","last_reported":1735647413,"current_range_meters":36800,"station_id":"ce4bgpp2rcd13ifvqc3g","pricing_plan_id":"cebpf4jnsgd1na2vs0mg"},{"bike_id":"56930fb7-f793-4074-80a5-73e65c1b8617","system_id":"levelo_inurba_marseille","lat":43.29351,"lon":5.37859,"is_reserved":false,"is_disabled":false,"rental_uris":{"android":"levelo://app?vid=56930fb7-f793-4074-80a5-73e65c1b8617","ios":"levelo://app?vid=56930fb7-f793-4074-80a5-73e65c1b8617"},"vehicle_type_id":"4","last_reported":1735647413,"current_range_meters":26800,"station_id":"ce4bgjh2rcd13ifvqbf0","pricing_plan_id":"cebpf4jnsgd1na2vs0mg"},{"bike_id":"7f1cb66c-5b2d-4e94-acab-77f14cb723c1","system_id":"levelo_inurba_marseille","lat":43.33106,"lon":5.37931,"is_reserved":false,"is_disabled":false,"rental_uris":{"android":"levelo://app?vid=7f1cb66c-5b2d-4e94-acab-77f14cb723c1","ios":"levelo://app?vid=7f1cb66c-5b2d-4e94-acab-77f14cb723c1"},"vehicle_type_id":"4","last_reported":1735647413,"current_range_meters":32000,"station_id":"","pricing_plan_id":"cebpf4jnsgd1na2vs0mg"},{"bike_id":"49e19ac1-9da1-47f2-921a-89dac4cfdac2","system_id":"levelo_inurba_marseille","lat":43.278328,"lon":5.39206,"is_reserved":false,"is_disabled":false,"rental_uris":{"android":"levelo://app?vid=49e19ac1-9da1-47f2-921a-89dac4cfdac2","ios":"levelo://app?vid=49e19ac1-9da1-47f2-921a-89dac4cfdac2"},"vehicle_type_id":"4","last_reported":1735647413,"current_range_meters":15200,"station_id":"ce4bhjp2rcd13ifvqga0","pricing_plan_id":"cebpf4jnsgd1na2vs0mg"},{"bike_id":"6fe0c686-8ac1-4ca4-9215-5bdce1a7f464","system_id":"levelo_inurba_marseille","lat":43.26554,"lon":5.37303,"is_reserved":false,"is_disabled":false,"rental_uris":{"android":"levelo://app?vid=6fe0c686-8ac1-4ca4-9215-5bdce1a7f464","ios":"levelo://app?vid=6fe0c686-8ac1-4ca4-9215-5bdce1a7f464"},"vehicle_type_id":"4","last_reported":1735647413,"current_range_meters":36000,"station_id":"ce4bhg12rcd13ifvqf70","pricing_plan_id":"cebpf4jnsgd1na2vs0mg"},{"bike_id":"c2c56de4-87e8-4eb7-a2bd-84ad7418d961","system_id":"levelo_inurba_marseille","lat":43.2847,"lon":5.35871,"is_reserved":false,"is_disabled":false,"rental_uris":{"android":"levelo://app?vid=c2c56de4-87e8-4eb7-a2bd-84ad7418d961","ios":"levelo://app?vid=c2c56de4-87e8-4eb7-a2bd-84ad7418d961"},"vehicle_type_id":"4","last_reported":1735647413,"current_range_meters":28000,"station_id":"ce4bhah2rcd13ifvqei0","pricing_plan_id":"cebpf4jnsgd1na2vs0mg"},{"bike_id":"787919a6-8e36-451d-a124-a2df1f05d596","system_id":"levelo_inurba_marseille","lat":43.29272,"lon":5.36852,"is_reserved":false,"is_disabled":false,"rental_uris":{"android":"levelo://app?vid=787919a6-8e36-451d-a124-a2df1f05d596","ios":"levelo://app?vid=787919a6-8e36-451d-a124-a2df1f05d596"},"vehicle_type_id":"4","last_reported":1735647413,"current_range_meters":32400,"station_id":"ce4bhbp2rcd13ifvqesg","pricing_plan_id":"cebpf4jnsgd1na2vs0mg"},{"bike_id":"32afc6cc-1544-4f88-ab5c-34496cc35b04","system_id":"levelo_inurba_marseille","lat":43.23062,"lon":5.35558,"is_reserved":false,"is_disabled":false,"rental_uris":{"android":"levelo://app?vid=32afc6cc-1544-4f88-ab5c-34496cc35b04","ios":"levelo://app?vid=32afc6cc-1544-4f88-ab5c-34496cc35b04"},"vehicle_type_id":"4","last_reported":1735647413,"current_range_meters":17200,"station_id":"cpo3342slgdg3j2ifvpg","pricing_plan_id":"cebpf4jnsgd1na2vs0mg"},{"bike_id":"7261d916-f4d4-4aac-a48e-4cab22c9764b","system_id":"levelo_inurba_marseille","lat":43.27832,"lon":5.40697,"is_reserved":false,"is_disabled":false,"rental_uris":{"android":"levelo://app?vid=7261d916-f4d4-4aac-a48e-4cab22c9764b","ios":"levelo://app?vid=7261d916-f4d4-4aac-a48e-4cab22c9764b"},"vehicle_type_id":"4","last_reported":1735647413,"current_range_meters":27200,"station_id":"ce4bhnh2rcd13ifvqgtg","pricing_plan_id":"cebpf4jnsgd1na2vs0mg"},{"bike_id":"8e399b83-39eb-456b-ab1a-95b6ac2111d6","system_id":"levelo_inurba_marseille","lat":43.30675,"lon":5.40095,"is_reserved":false,"is_disabled":false,"rental_uris":{"android":"levelo://app?vid=8e399b83-39eb-456b-ab1a-95b6ac2111d6","ios":"levelo://app?vid=8e399b83-39eb-456b-ab1a-95b6ac2111d6"},"vehicle_type_id":"4","last_reported":1735647413,"current_range_meters":34000,"station_id":"ce4bh112rcd13ifvqda0","pricing_plan_id":"cebpf4jnsgd1na2vs0mg"},{"bike_id":"3e1b5cd0-9311-4219-b15c-dffdd303c5ed","system_id":"levelo_inurba_marseille","lat":43.3207,"lon":5.41603,"is_reserved":false,"is_disabled":false,"rental_uris":{"android":"levelo://app?vid=3e1b5cd0-9311-4219-b15c-dffdd303c5ed","ios":"levelo://app?vid=3e1b5cd0-9311-4219-b15c-dffdd303c5ed"},"vehicle_type_id":"4","last_reported":1735647413,"current_range_meters":24800,"station_id":"ce4bhq92rcd13ifvqhkg","pricing_plan_id":"cebpf4jnsgd1na2vs0mg"},{"bike_id":"55e5bb48-d03c-42b0-885b-e5af4696496a","system_id":"levelo_inurba_marseille","lat":43.2957,"lon":5.37521,"is_reserved":false,"is_disabled":false,"rental_uris":{"android":"levelo://app?vid=55e5bb48-d03c-42b0-885b-e5af4696496a","ios":"levelo://app?vid=55e5bb48-d03c-42b0-885b-e5af4696496a"},"vehicle_type_id":"4","last_reported":1735647413,"current_range_meters":20000,"station_id":"ce4bgh92rcd13ifvqb50","pricing_plan_id":"cebpf4jnsgd1na2vs0mg"},{"bike_id":"0badbb97-b6ee-42b5-ad88-cb04cc562751","system_id":"levelo_inurba_marseille","lat":43.28156,"lon":5.42643,"is_reserved":false,"is_disabled":false,"rental_uris":{"android":"levelo://app?vid=0badbb97-b6ee-42b5-ad88-cb04cc562751","ios":"levelo://app?vid=0badbb97-b6ee-42b5-ad88-cb04cc562751"},"vehicle_type_id":"4","last_reported":1735647413,"current_range_meters":11200,"station_id":"ce4bhnh2rcd13ifvqgug","pricing_plan_id":"cebpf4jnsgd1na2vs0mg"},{"bike_id":"ce872ff4-1114-4dbb-a1cd-0587f9a75e23","system_id":"levelo_inurba_marseille","lat":43.24786,"lon":5.37465,"is_reserved":false,"is_disabled":false,"rental_uris":{"android":"levelo://app?vid=ce872ff4-1114-4dbb-a1cd-0587f9a75e23","ios":"levelo://app?vid=ce872ff4-1114-4dbb-a1cd-0587f9a75e23"},"vehicle_type_id":"4","last_reported":1735647413,"current_range_meters":38800,"station_id":"ce4bhgh2rcd13ifvqfb0","pricing_plan_id":"cebpf4jnsgd1na2vs0mg"},{"bike_id":"022d826a-d31d-48ef-b07e-f8dd0ceaa746","system_id":"levelo_inurba_marseille","lat":43.25,"lon":5.38942,"is_reserved":false,"is_disabled":false,"rental_uris":{"android":"levelo://app?vid=022d826a-d31d-48ef-b07e-f8dd0ceaa746","ios":"levelo://app?vid=022d826a-d31d-48ef-b07e-f8dd0ceaa746"},"vehicle_type_id":"4","last_reported":1735647413,"current_range_meters":36800,"station_id":"ce4bhgp2rcd13ifvqfd0","pricing_plan_id":"cebpf4jnsgd1na2vs0mg"},{"bike_id":"b4b32194-72fa-499b-a464-e87c46a2d5f0","system_id":"levelo_inurba_marseille","lat":43.25818,"lon":5.394395,"is_reserved":false,"is_disabled":false,"rental_uris":{"android":"levelo://app?vid=b4b32194-72fa-499b-a464-e87c46a2d5f0","ios":"levelo://app?vid=b4b32194-72fa-499b-a464-e87c46a2d5f0"},"vehicle_type_id":"4","last_reported":1735647413,"current_range_meters":22800,"station_id":"ce4bhip2rcd13ifvqft0","pricing_plan_id":"cebpf4jnsgd1na2vs0mg"},{"bike_id":"04e7867a-1371-4222-a6db-9d80083cea73","system_id":"levelo_inurba_marseille","lat":43.2888,"lon":5.35857,"is_reserved":false,"is_disabled":true,"rental_uris":{"android":"levelo://app?vid=04e7867a-1371-4222-a6db-9d80083cea73","ios":"levelo://app?vid=04e7867a-1371-4222-a6db-9d80083cea73"},"vehicle_type_id":"4","last_reported":1735647413,"current_range_meters":35200,"station_id":"ce4bhb12rcd13ifvqem0","pricing_plan_id":"cebpf4jnsgd1na2vs0mg"},{"bike_id":"7254445c-c24d-4fea-b24b-3d5caccf476c","system_id":"levelo_inurba_marseille","lat":43.32355,"lon":5.40632,"is_reserved":false,"is_disabled":false,"rental_uris":{"android":"levelo://app?vid=7254445c-c24d-4fea-b24b-3d5caccf476c","ios":"levelo://app?vid=7254445c-c24d-4fea-b24b-3d5caccf476c"},"vehicle_type_id":"4","last_reported":1735647413,"current_range_meters":38800,"station_id":"ce4bhq92rcd13ifvqhjg","pricing_plan_id":"cebpf4jnsgd1na2vs0mg"},{"bike_id":"97a26378-897a-4cc3-94fc-ef7846cd6637","system_id":"levelo_inurba_marseille","lat":43.31355,"lon":5.367147,"is_reserved":false,"is_disabled":true,"rental_uris":{"android":"levelo://app?vid=97a26378-897a-4cc3-94fc-ef7846cd6637","ios":"levelo://app?vid=97a26378-897a-4cc3-94fc-ef7846cd6637"},"vehicle_type_id":"4","last_reported":1735647413,"current_range_meters":0,"station_id":"ce4bgr92rcd13ifvqc6g","pricing_plan_id":"cebpf4jnsgd1na2vs0mg"},{"bike_id":"84600fa5-9d01-4cb4-8cb6-01480a60ec02","system_id":"levelo_inurba_marseille","lat":43.312314,"lon":5.368635,"is_reserved":false,"is_disabled":false,"rental_uris":{"android":"levelo://app?vid=84600fa5-9d01-4cb4-8cb6-01480a60ec02","ios":"levelo://app?vid=84600fa5-9d01-4cb4-8cb6-01480a60ec02"},"vehicle_type_id":"4","last_reported":1735647413,"current_range_meters":38800,"station_id":"ce4bgl92rcd13ifvqbq0","pricing_plan_id":"cebpf4jnsgd1na2vs0mg"},{"bike_id":"2f7e0e5a-ec63-4d3d-b617-8c6261ee660d","system_id":"levelo_inurba_marseille","lat":43.30143,"lon":5.38096,"is_reserved":false,"is_disabled":false,"rental_uris":{"android":"levelo://app?vid=2f7e0e5a-ec63-4d3d-b617-8c6261ee660d","ios":"levelo://app?vid=2f7e0e5a-ec63-4d3d-b617-8c6261ee660d"},"vehicle_type_id":"4","last_reported":1735647413,"current_range_meters":28400,"station_id":"ce4bgjp2rcd13ifvqbh0","pricing_plan_id":"cebpf4jnsgd1na2vs0mg"},{"bike_id":"35c2c095-e215-44a0-bbc2-feea0af9e5d1","system_id":"levelo_inurba_marseille","lat":43.26675,"lon":5.382904,"is_reserved":false,"is_disabled":false,"rental_uris":{"android":"levelo://app?vid=35c2c095-e215-44a0-bbc2-feea0af9e5d1","ios":"levelo://app?vid=35c2c095-e215-44a0-bbc2-feea0af9e5d1"},"vehicle_type_id":"4","last_reported":1735647413,"current_range_meters":39200,"station_id":"ce4bhg92rcd13ifvqf90","pricing_plan_id":"cebpf4jnsgd1na2vs0mg"},{"bike_id":"0a7259fa-2964-452b-ad9c-f51ab43f9386","system_id":"levelo_inurba_marseille","lat":43.2655,"lon":5.39023,"is_reserved":false,"is_disabled":false,"rental_uris":{"android":"levelo://app?vid=0a7259fa-2964-452b-ad9c-f51ab43f9386","ios":"levelo://app?vid=0a7259fa-2964-452b-ad9c-f51ab43f9386"},"vehicle_type_id":"4","last_reported":1735647413,"current_range_meters":34000,"station_id":"ce4bhe12rcd13ifvqf30","pricing_plan_id":"cebpf4jnsgd1na2vs0mg"},{"bike_id":"c2d2c6b6-2abe-447b-939d-77440e14ad7a","system_id":"levelo_inurba_marseille","lat":43.23192,"lon":5.35554,"is_reserved":false,"is_disabled":false,"rental_uris":{"android":"levelo://app?vid=c2d2c6b6-2abe-447b-939d-77440e14ad7a","ios":"levelo://app?vid=c2d2c6b6-2abe-447b-939d-77440e14ad7a"},"vehicle_type_id":"4","last_reported":1735647413,"current_range_meters":38800,"station_id":"ce4bhu92rcd13ifvqi70","pricing_plan_id":"cebpf4jnsgd1na2vs0mg"},{"bike_id":"ba48c954-cfdc-4161-9476-771c321a4ac6","system_id":"levelo_inurba_marseille","lat":43.239678,"lon":5.366212,"is_reserved":false,"is_disabled":false,"rental_uris":{"android":"levelo://app?vid=ba48c954-cfdc-4161-9476-771c321a4ac6","ios":"levelo://app?vid=ba48c954-cfdc-4161-9476-771c321a4ac6"},"vehicle_type_id":"4","last_reported":1735647413,"current_range_meters":33200,"station_id":"ce4bhi12rcd13ifvqfp0","pricing_plan_id":"cebpf4jnsgd1na2vs0mg"},{"bike_id":"f6c3569e-efa4-4a1c-b75b-94ded8df3e64","system_id":"levelo_inurba_marseille","lat":43.27946,"lon":5.38684,"is_reserved":false,"is_disabled":false,"rental_uris":{"android":"levelo://app?vid=f6c3569e-efa4-4a1c-b75b-94ded8df3e64","ios":"levelo://app?vid=f6c3569e-efa4-4a1c-b75b-94ded8df3e64"},"vehicle_type_id":"4","last_reported":1735647413,"current_range_meters":32800,"station_id":"","pricing_plan_id":"cebpf4jnsgd1na2vs0mg"},{"bike_id":"28bb21b9-e526-418c-8d06-85bc12d7da3f","system_id":"levelo_inurba_marseille","lat":43.27812,"lon":5.40708,"is_reserved":false,"is_disabled":false,"rental_uris":{"android":"levelo://app?vid=28bb21b9-e526-418c-8d06-85bc12d7da3f","ios":"levelo://app?vid=28bb21b9-e526-418c-8d06-85bc12d7da3f"},"vehicle_type_id":"4","last_reported":1735647413,"current_range_meters":38800,"station_id":"ce4bhnh2rcd13ifvqgtg","pricing_plan_id":"cebpf4jnsgd1na2vs0mg"},{"bike_id":"1b6ebad1-297a-48f0-9911-f4462b938642","system_id":"levelo_inurba_marseille","lat":43.32034,"lon":5.36819,"is_reserved":false,"is_disabled":false,"rental_uris":{"android":"levelo://app?vid=1b6ebad1-297a-48f0-9911-f4462b938642","ios":"levelo://app?vid=1b6ebad1-297a-48f0-9911-f4462b938642"},"vehicle_type_id":"4","last_reported":1735647413,"current_range_meters":38000,"station_id":"ce4bhrh2rcd13ifvqhug","pricing_plan_id":"cebpf4jnsgd1na2vs0mg"},{"bike_id":"4c39f437-a5ef-4ec6-98f1-e0f11722d3df","system_id":"levelo_inurba_marseille","lat":43.29624,"lon":5.37711,"is_reserved":false,"is_disabled":false,"rental_uris":{"android":"levelo://app?vid=4c39f437-a5ef-4ec6-98f1-e0f11722d3df","ios":"levelo://app?vid=4c39f437-a5ef-4ec6-98f1-e0f11722d3df"},"vehicle_type_id":"4","last_reported":1735647413,"current_range_meters":12800,"station_id":"ce4bgi92rcd13ifvqb90","pricing_plan_id":"cebpf4jnsgd1na2vs0mg"},{"bike_id":"f85289ae-3b37-4fd2-b2be-465ef9220ba9","system_id":"levelo_inurba_marseille","lat":43.27692,"lon":5.38924,"is_reserved":false,"is_disabled":false,"rental_uris":{"android":"levelo://app?vid=f85289ae-3b37-4fd2-b2be-465ef9220ba9","ios":"levelo://app?vid=f85289ae-3b37-4fd2-b2be-465ef9220ba9"},"vehicle_type_id":"4","last_reported":1735647413,"current_range_meters":27600,"station_id":"ce4bhi12rcd13ifvqfo0","pricing_plan_id":"cebpf4jnsgd1na2vs0mg"},{"bike_id":"3f85ce8b-2fdd-4846-86c7-195e7b202f6b","system_id":"levelo_inurba_marseille","lat":43.266909,"lon":5.382656,"is_reserved":false,"is_disabled":false,"rental_uris":{"android":"levelo://app?vid=3f85ce8b-2fdd-4846-86c7-195e7b202f6b","ios":"levelo://app?vid=3f85ce8b-2fdd-4846-86c7-195e7b202f6b"},"vehicle_type_id":"4","last_reported":1735647413,"current_range_meters":32000,"station_id":"ce4bhg92rcd13ifvqf90","pricing_plan_id":"cebpf4jnsgd1na2vs0mg"},{"bike_id":"46a026f9-f99f-4101-a336-453903df85e5","system_id":"levelo_inurba_marseille","lat":43.267887,"lon":5.394267,"is_reserved":false,"is_disabled":false,"rental_uris":{"android":"levelo://app?vid=46a026f9-f99f-4101-a336-453903df85e5","ios":"levelo://app?vid=46a026f9-f99f-4101-a336-453903df85e5"},"vehicle_type_id":"4","last_reported":1735647413,"current_range_meters":38800,"station_id":"ce4bhh12rcd13ifvqfg0","pricing_plan_id":"cebpf4jnsgd1na2vs0mg"},{"bike_id":"dfd0134d-73ec-4fd9-b561-a804c0959d48","system_id":"levelo_inurba_marseille","lat":43.27436,"lon":5.39419,"is_reserved":false,"is_disabled":false,"rental_uris":{"android":"levelo://app?vid=dfd0134d-73ec-4fd9-b561-a804c0959d48","ios":"levelo://app?vid=dfd0134d-73ec-4fd9-b561-a804c0959d48"},"vehicle_type_id":"4","last_reported":1735647413,"current_range_meters":39200,"station_id":"ce4bhdp2rcd13ifvqf20","pricing_plan_id":"cebpf4jnsgd1na2vs0mg"},{"bike_id":"bf67025f-105f-4c5d-8c1a-1561c1435c13","system_id":"levelo_inurba_marseille","lat":43.27173,"lon":5.41001,"is_reserved":false,"is_disabled":false,"rental_uris":{"android":"levelo://app?vid=bf67025f-105f-4c5d-8c1a-1561c1435c13","ios":"levelo://app?vid=bf67025f-105f-4c5d-8c1a-1561c1435c13"},"vehicle_type_id":"4","last_reported":1735647413,"current_range_meters":24000,"station_id":"ce4bhl12rcd13ifvqgf0","pricing_plan_id":"cebpf4jnsgd1na2vs0mg"},{"bike_id":"e70ce8bb-674e-436b-ab6d-79ca756c291a","system_id":"levelo_inurba_marseille","lat":43.25724,"lon":5.41118,"is_reserved":false,"is_disabled":false,"rental_uris":{"android":"levelo://app?vid=e70ce8bb-674e-436b-ab6d-79ca756c291a","ios":"levelo://app?vid=e70ce8bb-674e-436b-ab6d-79ca756c291a"},"vehicle_type_id":"4","last_reported":1735647413,"current_range_meters":23200,"station_id":"ce4bhkp2rcd13ifvqgd0","pricing_plan_id":"cebpf4jnsgd1na2vs0mg"},{"bike_id":"c1dbeecd-0945-4f8a-941c-fe67a9022fb7","system_id":"levelo_inurba_marseille","lat":43.337444,"lon":5.374475,"is_reserved":false,"is_disabled":false,"rental_uris":{"android":"levelo://app?vid=c1dbeecd-0945-4f8a-941c-fe67a9022fb7","ios":"levelo://app?vid=c1dbeecd-0945-4f8a-941c-fe67a9022fb7"},"vehicle_type_id":"4","last_reported":1735647413,"current_range_meters":24400,"station_id":"","pricing_plan_id":"cebpf4jnsgd1na2vs0mg"},{"bike_id":"1a821a66-e0f6-4530-86b3-250338051818","system_id":"levelo_inurba_marseille","lat":43.270715,"lon":5.422801,"is_reserved":false,"is_disabled":false,"rental_uris":{"android":"levelo://app?vid=1a821a66-e0f6-4530-86b3-250338051818","ios":"levelo://app?vid=1a821a66-e0f6-4530-86b3-250338051818"},"vehicle_type_id":"4","last_reported":1735647413,"current_range_meters":38800,"station_id":"ce4bhk92rcd13ifvqgb0","pricing_plan_id":"cebpf4jnsgd1na2vs0mg"},{"bike_id":"6eb9f526-f6c7-4f54-b3e1-974132b714fa","system_id":"levelo_inurba_marseille","lat":43.25859,"lon":5.39901,"is_reserved":false,"is_disabled":false,"rental_uris":{"android":"levelo://app?vid=6eb9f526-f6c7-4f54-b3e1-974132b714fa","ios":"levelo://app?vid=6eb9f526-f6c7-4f54-b3e1-974132b714fa"},"vehicle_type_id":"4","last_reported":1735647413,"current_range_meters":27200,"station_id":"ce4bhl92rcd13ifvqghg","pricing_plan_id":"cebpf4jnsgd1na2vs0mg"},{"bike_id":"a63d74e4-f257-4d94-9bc6-8b8c030a11c2","system_id":"levelo_inurba_marseille","lat":43.23142,"lon":5.43739,"is_reserved":false,"is_disabled":false,"rental_uris":{"android":"levelo://app?vid=a63d74e4-f257-4d94-9bc6-8b8c030a11c2","ios":"levelo://app?vid=a63d74e4-f257-4d94-9bc6-8b8c030a11c2"},"vehicle_type_id":"4","last_reported":1735647413,"current_range_meters":36800,"station_id":"ce4bhmp2rcd13ifvqgog","pricing_plan_id":"cebpf4jnsgd1na2vs0mg"},{"bike_id":"f5997a88-606e-48c9-933e-041b10894cea","system_id":"levelo_inurba_marseille","lat":43.27067,"lon":5.42279,"is_reserved":false,"is_disabled":false,"rental_uris":{"android":"levelo://app?vid=f5997a88-606e-48c9-933e-041b10894cea","ios":"levelo://app?vid=f5997a88-606e-48c9-933e-041b10894cea"},"vehicle_type_id":"4","last_reported":1735647413,"current_range_meters":24800,"station_id":"ce4bhk92rcd13ifvqgb0","pricing_plan_id":"cebpf4jnsgd1na2vs0mg"},{"bike_id":"3b4402ef-28a9-49fc-9e19-5c9608f1a890","system_id":"levelo_inurba_marseille","lat":43.30373,"lon":5.3677,"is_reserved":false,"is_disabled":false,"rental_uris":{"android":"levelo://app?vid=3b4402ef-28a9-49fc-9e19-5c9608f1a890","ios":"levelo://app?vid=3b4402ef-28a9-49fc-9e19-5c9608f1a890"},"vehicle_type_id":"4","last_reported":1735647413,"current_range_meters":35600,"station_id":"","pricing_plan_id":"cebpf4jnsgd1na2vs0mg"},{"bike_id":"73ca5d84-a6e3-49c9-a8ea-23faa3eb40bb","system_id":"levelo_inurba_marseille","lat":43.30523,"lon":5.36723,"is_reserved":false,"is_disabled":false,"rental_uris":{"android":"levelo://app?vid=73ca5d84-a6e3-49c9-a8ea-23faa3eb40bb","ios":"levelo://app?vid=73ca5d84-a6e3-49c9-a8ea-23faa3eb40bb"},"vehicle_type_id":"4","last_reported":1735647413,"current_range_meters":39200,"station_id":"ce4bgrp2rcd13ifvqc9g","pricing_plan_id":"cebpf4jnsgd1na2vs0mg"},{"bike_id":"f8632b8a-dba7-414c-9580-e3984c6c4549","system_id":"levelo_inurba_marseille","lat":43.295928,"lon":5.36744,"is_reserved":false,"is_disabled":false,"rental_uris":{"android":"levelo://app?vid=f8632b8a-dba7-414c-9580-e3984c6c4549","ios":"levelo://app?vid=f8632b8a-dba7-414c-9580-e3984c6c4549"},"vehicle_type_id":"4","last_reported":1735647413,"current_range_meters":38800,"station_id":"ce4bgph2rcd13ifvqc2g","pricing_plan_id":"cebpf4jnsgd1na2vs0mg"},{"bike_id":"29e22d08-10b1-4400-9d78-16f5f774d15e","system_id":"levelo_inurba_marseille","lat":43.28002,"lon":5.36959,"is_reserved":false,"is_disabled":false,"rental_uris":{"android":"levelo://app?vid=29e22d08-10b1-4400-9d78-16f5f774d15e","ios":"levelo://app?vid=29e22d08-10b1-4400-9d78-16f5f774d15e"},"vehicle_type_id":"4","last_reported":1735647413,"current_range_meters":37600,"station_id":"ce4bha12rcd13ifvqef0","pricing_plan_id":"cebpf4jnsgd1na2vs0mg"},{"bike_id":"dbc25549-89f2-4e1d-87df-8fa80a5742c7","system_id":"levelo_inurba_marseille","lat":43.29557,"lon":5.42289,"is_reserved":false,"is_disabled":false,"rental_uris":{"android":"levelo://app?vid=dbc25549-89f2-4e1d-87df-8fa80a5742c7","ios":"levelo://app?vid=dbc25549-89f2-4e1d-87df-8fa80a5742c7"},"vehicle_type_id":"4","last_reported":1735647413,"current_range_meters":38800,"station_id":"ce4bhph2rcd13ifvqhdg","pricing_plan_id":"cebpf4jnsgd1na2vs0mg"},{"bike_id":"79a9cc94-882c-4645-897a-abb5a5249316","system_id":"levelo_inurba_marseille","lat":43.298743,"lon":5.397463,"is_reserved":false,"is_disabled":false,"rental_uris":{"android":"levelo://app?vid=79a9cc94-882c-4645-897a-abb5a5249316","ios":"levelo://app?vid=79a9cc94-882c-4645-897a-abb5a5249316"},"vehicle_type_id":"4","last_reported":1735647413,"current_range_meters":19600,"station_id":"ce4bh0h2rcd13ifvqd50","pricing_plan_id":"cebpf4jnsgd1na2vs0mg"},{"bike_id":"aa75e992-9e3f-4dca-a7bd-bcdcbc125775","system_id":"levelo_inurba_marseille","lat":43.25485,"lon":5.37666,"is_reserved":false,"is_disabled":false,"rental_uris":{"android":"levelo://app?vid=aa75e992-9e3f-4dca-a7bd-bcdcbc125775","ios":"levelo://app?vid=aa75e992-9e3f-4dca-a7bd-bcdcbc125775"},"vehicle_type_id":"4","last_reported":1735647413,"current_range_meters":39200,"station_id":"ce4bhh12rcd13ifvqff0","pricing_plan_id":"cebpf4jnsgd1na2vs0mg"},{"bike_id":"ad763661-a7bc-4864-97aa-92048d82d284","system_id":"levelo_inurba_marseille","lat":43.29895,"lon":5.39758,"is_reserved":false,"is_disabled":false,"rental_uris":{"android":"levelo://app?vid=ad763661-a7bc-4864-97aa-92048d82d284","ios":"levelo://app?vid=ad763661-a7bc-4864-97aa-92048d82d284"},"vehicle_type_id":"4","last_reported":1735647413,"current_range_meters":37600,"station_id":"ce4bh0h2rcd13ifvqd50","pricing_plan_id":"cebpf4jnsgd1na2vs0mg"},{"bike_id":"1e7e0009-7be7-499a-a4d2-a6c912d4dc6f","system_id":"levelo_inurba_marseille","lat":43.29572,"lon":5.37504,"is_reserved":false,"is_disabled":false,"rental_uris":{"android":"levelo://app?vid=1e7e0009-7be7-499a-a4d2-a6c912d4dc6f","ios":"levelo://app?vid=1e7e0009-7be7-499a-a4d2-a6c912d4dc6f"},"vehicle_type_id":"4","last_reported":1735647413,"current_range_meters":36000,"station_id":"ce4bgh92rcd13ifvqb50","pricing_plan_id":"cebpf4jnsgd1na2vs0mg"},{"bike_id":"0817307b-9f08-448d-87d8-ba6e17fc3cab","system_id":"levelo_inurba_marseille","lat":43.273757,"lon":5.362609,"is_reserved":false,"is_disabled":false,"rental_uris":{"android":"levelo://app?vid=0817307b-9f08-448d-87d8-ba6e17fc3cab","ios":"levelo://app?vid=0817307b-9f08-448d-87d8-ba6e17fc3cab"},"vehicle_type_id":"4","last_reported":1735647413,"current_range_meters":38800,"station_id":"ce4bhbh2rcd13ifvqeo0","pricing_plan_id":"cebpf4jnsgd1na2vs0mg"},{"bike_id":"3bab2653-c962-46e7-8d14-0cb64372ec3d","system_id":"levelo_inurba_marseille","lat":43.32053,"lon":5.41521,"is_reserved":false,"is_disabled":false,"rental_uris":{"android":"levelo://app?vid=3bab2653-c962-46e7-8d14-0cb64372ec3d","ios":"levelo://app?vid=3bab2653-c962-46e7-8d14-0cb64372ec3d"},"vehicle_type_id":"4","last_reported":1735647413,"current_range_meters":16400,"station_id":"ce4bhq92rcd13ifvqhkg","pricing_plan_id":"cebpf4jnsgd1na2vs0mg"},{"bike_id":"3ea149ac-d8ec-4809-9088-684a254397cf","system_id":"levelo_inurba_marseille","lat":43.27305,"lon":5.39087,"is_reserved":false,"is_disabled":false,"rental_uris":{"android":"levelo://app?vid=3ea149ac-d8ec-4809-9088-684a254397cf","ios":"levelo://app?vid=3ea149ac-d8ec-4809-9088-684a254397cf"},"vehicle_type_id":"4","last_reported":1735647413,"current_range_meters":38800,"station_id":"ce4bhgp2rcd13ifvqfe0","pricing_plan_id":"cebpf4jnsgd1na2vs0mg"},{"bike_id":"ae83a455-9c74-46ba-9fad-a38c1495ce25","system_id":"levelo_inurba_marseille","lat":43.29991,"lon":5.37422,"is_reserved":false,"is_disabled":true,"rental_uris":{"android":"levelo://app?vid=ae83a455-9c74-46ba-9fad-a38c1495ce25","ios":"levelo://app?vid=ae83a455-9c74-46ba-9fad-a38c1495ce25"},"vehicle_type_id":"4","last_reported":1735647413,"current_range_meters":0,"station_id":"","pricing_plan_id":"cebpf4jnsgd1na2vs0mg"},{"bike_id":"94e6dee2-3159-449e-9ee5-297188ebe26e","system_id":"levelo_inurba_marseille","lat":43.29936,"lon":5.3746,"is_reserved":false,"is_disabled":false,"rental_uris":{"android":"levelo://app?vid=94e6dee2-3159-449e-9ee5-297188ebe26e","ios":"levelo://app?vid=94e6dee2-3159-449e-9ee5-297188ebe26e"},"vehicle_type_id":"4","last_reported":1735647413,"current_range_meters":26000,"station_id":"ce4bgjh2rcd13ifvqbg0","pricing_plan_id":"cebpf4jnsgd1na2vs0mg"},{"bike_id":"0cb83e0c-3081-4822-a139-26251a91093d","system_id":"levelo_inurba_marseille","lat":43.2971,"lon":5.37701,"is_reserved":false,"is_disabled":false,"rental_uris":{"android":"levelo://app?vid=0cb83e0c-3081-4822-a139-26251a91093d","ios":"levelo://app?vid=0cb83e0c-3081-4822-a139-26251a91093d"},"vehicle_type_id":"4","last_reported":1735647413,"current_range_meters":11200,"station_id":"ce4bgkh2rcd13ifvqbl0","pricing_plan_id":"cebpf4jnsgd1na2vs0mg"},{"bike_id":"abb384d4-50ff-4793-a8c5-8fc16babe629","system_id":"levelo_inurba_marseille","lat":43.301467,"lon":5.374247,"is_reserved":false,"is_disabled":false,"rental_uris":{"android":"levelo://app?vid=abb384d4-50ff-4793-a8c5-8fc16babe629","ios":"levelo://app?vid=abb384d4-50ff-4793-a8c5-8fc16babe629"},"vehicle_type_id":"4","last_reported":1735647413,"current_range_meters":39200,"station_id":"ce4bgs92rcd13ifvqcc0","pricing_plan_id":"cebpf4jnsgd1na2vs0mg"},{"bike_id":"56731e3e-7f36-4713-a4bd-24b5ee5d43d3","system_id":"levelo_inurba_marseille","lat":43.28038,"lon":5.36935,"is_reserved":false,"is_disabled":false,"rental_uris":{"android":"levelo://app?vid=56731e3e-7f36-4713-a4bd-24b5ee5d43d3","ios":"levelo://app?vid=56731e3e-7f36-4713-a4bd-24b5ee5d43d3"},"vehicle_type_id":"4","last_reported":1735647413,"current_range_meters":37600,"station_id":"ce4bha12rcd13ifvqef0","pricing_plan_id":"cebpf4jnsgd1na2vs0mg"},{"bike_id":"aa31cf5e-44f2-4507-84fc-7bf11ac75c84","system_id":"levelo_inurba_marseille","lat":43.257123,"lon":5.411103,"is_reserved":false,"is_disabled":false,"rental_uris":{"android":"levelo://app?vid=aa31cf5e-44f2-4507-84fc-7bf11ac75c84","ios":"levelo://app?vid=aa31cf5e-44f2-4507-84fc-7bf11ac75c84"},"vehicle_type_id":"4","last_reported":1735647413,"current_range_meters":28800,"station_id":"ce4bhkp2rcd13ifvqgd0","pricing_plan_id":"cebpf4jnsgd1na2vs0mg"},{"bike_id":"9f9b9189-51a2-4919-b85d-2ea391597e6d","system_id":"levelo_inurba_marseille","lat":43.30126,"lon":5.37431,"is_reserved":false,"is_disabled":false,"rental_uris":{"android":"levelo://app?vid=9f9b9189-51a2-4919-b85d-2ea391597e6d","ios":"levelo://app?vid=9f9b9189-51a2-4919-b85d-2ea391597e6d"},"vehicle_type_id":"4","last_reported":1735647413,"current_range_meters":31200,"station_id":"ce4bgs92rcd13ifvqcc0","pricing_plan_id":"cebpf4jnsgd1na2vs0mg"},{"bike_id":"73a8b095-bee6-42fb-a11d-f93149228c21","system_id":"levelo_inurba_marseille","lat":43.3058,"lon":5.37255,"is_reserved":false,"is_disabled":false,"rental_uris":{"android":"levelo://app?vid=73a8b095-bee6-42fb-a11d-f93149228c21","ios":"levelo://app?vid=73a8b095-bee6-42fb-a11d-f93149228c21"},"vehicle_type_id":"4","last_reported":1735647413,"current_range_meters":27600,"station_id":"ce4bgqh2rcd13ifvqc4g","pricing_plan_id":"cebpf4jnsgd1na2vs0mg"},{"bike_id":"b04babdb-c19e-4dbc-81a1-b82d01e59471","system_id":"levelo_inurba_marseille","lat":43.29005,"lon":5.38139,"is_reserved":false,"is_disabled":false,"rental_uris":{"android":"levelo://app?vid=b04babdb-c19e-4dbc-81a1-b82d01e59471","ios":"levelo://app?vid=b04babdb-c19e-4dbc-81a1-b82d01e59471"},"vehicle_type_id":"4","last_reported":1735647413,"current_range_meters":36000,"station_id":"ce4bh4p2rcd13ifvqe1g","pricing_plan_id":"cebpf4jnsgd1na2vs0mg"},{"bike_id":"9841b93f-e8a5-4096-a194-738fd19d97be","system_id":"levelo_inurba_marseille","lat":43.2649,"lon":5.39555,"is_reserved":false,"is_disabled":false,"rental_uris":{"android":"levelo://app?vid=9841b93f-e8a5-4096-a194-738fd19d97be","ios":"levelo://app?vid=9841b93f-e8a5-4096-a194-738fd19d97be"},"vehicle_type_id":"4","last_reported":1735647413,"current_range_meters":9600,"station_id":"ce4bhi12rcd13ifvqfq0","pricing_plan_id":"cebpf4jnsgd1na2vs0mg"},{"bike_id":"316dc9b3-b8df-4136-86b6-c2c057b83675","system_id":"levelo_inurba_marseille","lat":43.26478,"lon":5.39594,"is_reserved":false,"is_disabled":false,"rental_uris":{"android":"levelo://app?vid=316dc9b3-b8df-4136-86b6-c2c057b83675","ios":"levelo://app?vid=316dc9b3-b8df-4136-86b6-c2c057b83675"},"vehicle_type_id":"4","last_reported":1735647413,"current_range_meters":11600,"station_id":"ce4bhi12rcd13ifvqfq0","pricing_plan_id":"cebpf4jnsgd1na2vs0mg"},{"bike_id":"4412c89f-d5d2-4820-b6a4-ef8358f97bd2","system_id":"levelo_inurba_marseille","lat":43.28922,"lon":5.38399,"is_reserved":false,"is_disabled":false,"rental_uris":{"android":"levelo://app?vid=4412c89f-d5d2-4820-b6a4-ef8358f97bd2","ios":"levelo://app?vid=4412c89f-d5d2-4820-b6a4-ef8358f97bd2"},"vehicle_type_id":"4","last_reported":1735647413,"current_range_meters":33600,"station_id":"ce4bh612rcd13ifvqe6g","pricing_plan_id":"cebpf4jnsgd1na2vs0mg"},{"bike_id":"e613d054-aaa4-41e3-932f-9df454174d11","system_id":"levelo_inurba_marseille","lat":43.29426,"lon":5.39758,"is_reserved":false,"is_disabled":false,"rental_uris":{"android":"levelo://app?vid=e613d054-aaa4-41e3-932f-9df454174d11","ios":"levelo://app?vid=e613d054-aaa4-41e3-932f-9df454174d11"},"vehicle_type_id":"4","last_reported":1735647413,"current_range_meters":27600,"station_id":"ce4bh3h2rcd13ifvqdo0","pricing_plan_id":"cebpf4jnsgd1na2vs0mg"},{"bike_id":"74bfd52b-7e46-465d-8766-e79667dc7763","system_id":"levelo_inurba_marseille","lat":43.32047,"lon":5.41528,"is_reserved":false,"is_disabled":false,"rental_uris":{"android":"levelo://app?vid=74bfd52b-7e46-465d-8766-e79667dc7763","ios":"levelo://app?vid=74bfd52b-7e46-465d-8766-e79667dc7763"},"vehicle_type_id":"4","last_reported":1735647413,"current_range_meters":39200,"station_id":"ce4bhq92rcd13ifvqhkg","pricing_plan_id":"cebpf4jnsgd1na2vs0mg"},{"bike_id":"04f33fa4-e90d-4bc7-a689-9276a30da226","system_id":"levelo_inurba_marseille","lat":43.29197,"lon":5.39305,"is_reserved":false,"is_disabled":false,"rental_uris":{"android":"levelo://app?vid=04f33fa4-e90d-4bc7-a689-9276a30da226","ios":"levelo://app?vid=04f33fa4-e90d-4bc7-a689-9276a30da226"},"vehicle_type_id":"4","last_reported":1735647413,"current_range_meters":31200,"station_id":"ce4bh192rcd13ifvqdd0","pricing_plan_id":"cebpf4jnsgd1na2vs0mg"},{"bike_id":"df334d50-4421-42a5-a762-fb7f39807cc1","system_id":"levelo_inurba_marseille","lat":43.33779,"lon":5.37419,"is_reserved":false,"is_disabled":false,"rental_uris":{"android":"levelo://app?vid=df334d50-4421-42a5-a762-fb7f39807cc1","ios":"levelo://app?vid=df334d50-4421-42a5-a762-fb7f39807cc1"},"vehicle_type_id":"4","last_reported":1735647413,"current_range_meters":24400,"station_id":"","pricing_plan_id":"cebpf4jnsgd1na2vs0mg"},{"bike_id":"db32cf0d-643f-4166-93d9-c2dd42363683","system_id":"levelo_inurba_marseille","lat":43.30311,"lon":5.36952,"is_reserved":false,"is_disabled":false,"rental_uris":{"android":"levelo://app?vid=db32cf0d-643f-4166-93d9-c2dd42363683","ios":"levelo://app?vid=db32cf0d-643f-4166-93d9-c2dd42363683"},"vehicle_type_id":"4","last_reported":1735647413,"current_range_meters":27600,"station_id":"ce4bgqh2rcd13ifvqc5g","pricing_plan_id":"cebpf4jnsgd1na2vs0mg"},{"bike_id":"b739b481-3700-4025-81ab-8a90aecbf872","system_id":"levelo_inurba_marseille","lat":43.28098,"lon":5.37833,"is_reserved":false,"is_disabled":false,"rental_uris":{"android":"levelo://app?vid=b739b481-3700-4025-81ab-8a90aecbf872","ios":"levelo://app?vid=b739b481-3700-4025-81ab-8a90aecbf872"},"vehicle_type_id":"4","last_reported":1735647413,"current_range_meters":16800,"station_id":"ce4bha12rcd13ifvqee0","pricing_plan_id":"cebpf4jnsgd1na2vs0mg"},{"bike_id":"b0286157-8666-4de5-bcfc-57adf665a11a","system_id":"levelo_inurba_marseille","lat":43.30588,"lon":5.37225,"is_reserved":false,"is_disabled":false,"rental_uris":{"android":"levelo://app?vid=b0286157-8666-4de5-bcfc-57adf665a11a","ios":"levelo://app?vid=b0286157-8666-4de5-bcfc-57adf665a11a"},"vehicle_type_id":"4","last_reported":1735647413,"current_range_meters":38800,"station_id":"ce4bgqh2rcd13ifvqc4g","pricing_plan_id":"cebpf4jnsgd1na2vs0mg"},{"bike_id":"923c8f4c-11ee-4d68-88a4-4f22af762798","system_id":"levelo_inurba_marseille","lat":43.32414,"lon":5.36633,"is_reserved":false,"is_disabled":false,"rental_uris":{"android":"levelo://app?vid=923c8f4c-11ee-4d68-88a4-4f22af762798","ios":"levelo://app?vid=923c8f4c-11ee-4d68-88a4-4f22af762798"},"vehicle_type_id":"4","last_reported":1735647413,"current_range_meters":32000,"station_id":"","pricing_plan_id":"cebpf4jnsgd1na2vs0mg"},{"bike_id":"5367a292-5564-4681-91cd-97babb89fc00","system_id":"levelo_inurba_marseille","lat":43.229223,"lon":5.353771,"is_reserved":false,"is_disabled":false,"rental_uris":{"android":"levelo://app?vid=5367a292-5564-4681-91cd-97babb89fc00","ios":"levelo://app?vid=5367a292-5564-4681-91cd-97babb89fc00"},"vehicle_type_id":"4","last_reported":1735647413,"current_range_meters":28000,"station_id":"cpo3532slgdg3j2ikp40","pricing_plan_id":"cebpf4jnsgd1na2vs0mg"},{"bike_id":"10270a83-d299-4af3-be25-8134f9ffdf75","system_id":"levelo_inurba_marseille","lat":43.296203,"lon":5.371595,"is_reserved":false,"is_disabled":false,"rental_uris":{"android":"levelo://app?vid=10270a83-d299-4af3-be25-8134f9ffdf75","ios":"levelo://app?vid=10270a83-d299-4af3-be25-8134f9ffdf75"},"vehicle_type_id":"4","last_reported":1735647413,"current_range_meters":37600,"station_id":"ce4bgnh2rcd13ifvqc0g","pricing_plan_id":"cebpf4jnsgd1na2vs0mg"},{"bike_id":"0483d5a5-12c2-4b90-8e6c-47d6d5a4b82c","system_id":"levelo_inurba_marseille","lat":43.25822,"lon":5.39428,"is_reserved":false,"is_disabled":false,"rental_uris":{"android":"levelo://app?vid=0483d5a5-12c2-4b90-8e6c-47d6d5a4b82c","ios":"levelo://app?vid=0483d5a5-12c2-4b90-8e6c-47d6d5a4b82c"},"vehicle_type_id":"4","last_reported":1735647413,"current_range_meters":39200,"station_id":"ce4bhip2rcd13ifvqft0","pricing_plan_id":"cebpf4jnsgd1na2vs0mg"},{"bike_id":"523f53b8-d5fa-4c60-a25e-8902b398e89d","system_id":"levelo_inurba_marseille","lat":43.295676,"lon":5.422376,"is_reserved":false,"is_disabled":false,"rental_uris":{"android":"levelo://app?vid=523f53b8-d5fa-4c60-a25e-8902b398e89d","ios":"levelo://app?vid=523f53b8-d5fa-4c60-a25e-8902b398e89d"},"vehicle_type_id":"4","last_reported":1735647413,"current_range_meters":38800,"station_id":"ce4bhph2rcd13ifvqhdg","pricing_plan_id":"cebpf4jnsgd1na2vs0mg"},{"bike_id":"742a68bc-68fb-48aa-aad7-6fa68f68cfb6","system_id":"levelo_inurba_marseille","lat":43.30881,"lon":5.37194,"is_reserved":false,"is_disabled":false,"rental_uris":{"android":"levelo://app?vid=742a68bc-68fb-48aa-aad7-6fa68f68cfb6","ios":"levelo://app?vid=742a68bc-68fb-48aa-aad7-6fa68f68cfb6"},"vehicle_type_id":"4","last_reported":1735647413,"current_range_meters":37600,"station_id":"ce4bguh2rcd13ifvqckg","pricing_plan_id":"cebpf4jnsgd1na2vs0mg"},{"bike_id":"9d0396db-3a53-4433-b30b-73a2f8c31a3f","system_id":"levelo_inurba_marseille","lat":43.29584,"lon":5.36753,"is_reserved":false,"is_disabled":false,"rental_uris":{"android":"levelo://app?vid=9d0396db-3a53-4433-b30b-73a2f8c31a3f","ios":"levelo://app?vid=9d0396db-3a53-4433-b30b-73a2f8c31a3f"},"vehicle_type_id":"4","last_reported":1735647413,"current_range_meters":24000,"station_id":"ce4bgph2rcd13ifvqc2g","pricing_plan_id":"cebpf4jnsgd1na2vs0mg"},{"bike_id":"c6eedc9a-d2e0-4edf-a75c-a45a3178a9ec","system_id":"levelo_inurba_marseille","lat":43.2603,"lon":5.37549,"is_reserved":false,"is_disabled":false,"rental_uris":{"android":"levelo://app?vid=c6eedc9a-d2e0-4edf-a75c-a45a3178a9ec","ios":"levelo://app?vid=c6eedc9a-d2e0-4edf-a75c-a45a3178a9ec"},"vehicle_type_id":"4","last_reported":1735647413,"current_range_meters":32800,"station_id":"ce4bhgh2rcd13ifvqfa0","pricing_plan_id":"cebpf4jnsgd1na2vs0mg"},{"bike_id":"94d38955-21a2-4852-a963-0a3cc1374e49","system_id":"levelo_inurba_marseille","lat":43.23196,"lon":5.3555,"is_reserved":false,"is_disabled":false,"rental_uris":{"android":"levelo://app?vid=94d38955-21a2-4852-a963-0a3cc1374e49","ios":"levelo://app?vid=94d38955-21a2-4852-a963-0a3cc1374e49"},"vehicle_type_id":"4","last_reported":1735647413,"current_range_meters":38000,"station_id":"ce4bhu92rcd13ifvqi70","pricing_plan_id":"cebpf4jnsgd1na2vs0mg"},{"bike_id":"f87ba839-da30-4325-8444-7c8ce841424d","system_id":"levelo_inurba_marseille","lat":43.23194,"lon":5.35553,"is_reserved":false,"is_disabled":false,"rental_uris":{"android":"levelo://app?vid=f87ba839-da30-4325-8444-7c8ce841424d","ios":"levelo://app?vid=f87ba839-da30-4325-8444-7c8ce841424d"},"vehicle_type_id":"4","last_reported":1735647413,"current_range_meters":17200,"station_id":"ce4bhu92rcd13ifvqi70","pricing_plan_id":"cebpf4jnsgd1na2vs0mg"},{"bike_id":"6b4615a1-fcf4-44df-ac10-954f1bf282d6","system_id":"levelo_inurba_marseille","lat":43.29262,"lon":5.40914,"is_reserved":false,"is_disabled":false,"rental_uris":{"android":"levelo://app?vid=6b4615a1-fcf4-44df-ac10-954f1bf282d6","ios":"levelo://app?vid=6b4615a1-fcf4-44df-ac10-954f1bf282d6"},"vehicle_type_id":"4","last_reported":1735647413,"current_range_meters":36800,"station_id":"ce4bh192rcd13ifvqdc0","pricing_plan_id":"cebpf4jnsgd1na2vs0mg"},{"bike_id":"7256fa4a-a5e8-4433-b2b0-a8260fcddd53","system_id":"levelo_inurba_marseille","lat":43.29078,"lon":5.37158,"is_reserved":false,"is_disabled":false,"rental_uris":{"android":"levelo://app?vid=7256fa4a-a5e8-4433-b2b0-a8260fcddd53","ios":"levelo://app?vid=7256fa4a-a5e8-4433-b2b0-a8260fcddd53"},"vehicle_type_id":"4","last_reported":1735647413,"current_range_meters":28800,"station_id":"ce4bh5p2rcd13ifvqe4g","pricing_plan_id":"cebpf4jnsgd1na2vs0mg"},{"bike_id":"647d23b8-4e7c-4423-a02a-d60eef618897","system_id":"levelo_inurba_marseille","lat":43.278084,"lon":5.407151,"is_reserved":false,"is_disabled":false,"rental_uris":{"android":"levelo://app?vid=647d23b8-4e7c-4423-a02a-d60eef618897","ios":"levelo://app?vid=647d23b8-4e7c-4423-a02a-d60eef618897"},"vehicle_type_id":"4","last_reported":1735647413,"current_range_meters":22000,"station_id":"ce4bhnh2rcd13ifvqgtg","pricing_plan_id":"cebpf4jnsgd1na2vs0mg"},{"bike_id":"f42fe8b5-7fec-409b-9870-c5a6a6323787","system_id":"levelo_inurba_marseille","lat":43.30133,"lon":5.37414,"is_reserved":false,"is_disabled":false,"rental_uris":{"android":"levelo://app?vid=f42fe8b5-7fec-409b-9870-c5a6a6323787","ios":"levelo://app?vid=f42fe8b5-7fec-409b-9870-c5a6a6323787"},"vehicle_type_id":"4","last_reported":1735647413,"current_range_meters":27600,"station_id":"ce4bgs92rcd13ifvqcc0","pricing_plan_id":"cebpf4jnsgd1na2vs0mg"},{"bike_id":"fdcb93a4-8a39-475e-8a0d-caf375d10c96","system_id":"levelo_inurba_marseille","lat":43.295672,"lon":5.375,"is_reserved":false,"is_disabled":false,"rental_uris":{"android":"levelo://app?vid=fdcb93a4-8a39-475e-8a0d-caf375d10c96","ios":"levelo://app?vid=fdcb93a4-8a39-475e-8a0d-caf375d10c96"},"vehicle_type_id":"4","last_reported":1735647413,"current_range_meters":36400,"station_id":"ce4bgh92rcd13ifvqb50","pricing_plan_id":"cebpf4jnsgd1na2vs0mg"},{"bike_id":"179f7c7e-cf60-4979-b064-1b4336e1db8c","system_id":"levelo_inurba_marseille","lat":43.27832,"lon":5.39226,"is_reserved":false,"is_disabled":false,"rental_uris":{"android":"levelo://app?vid=179f7c7e-cf60-4979-b064-1b4336e1db8c","ios":"levelo://app?vid=179f7c7e-cf60-4979-b064-1b4336e1db8c"},"vehicle_type_id":"4","last_reported":1735647413,"current_range_meters":37600,"station_id":"ce4bhjp2rcd13ifvqga0","pricing_plan_id":"cebpf4jnsgd1na2vs0mg"},{"bike_id":"827d1f4f-5995-4cc9-bd9c-6e916739c84a","system_id":"levelo_inurba_marseille","lat":43.3095,"lon":5.39028,"is_reserved":false,"is_disabled":false,"rental_uris":{"android":"levelo://app?vid=827d1f4f-5995-4cc9-bd9c-6e916739c84a","ios":"levelo://app?vid=827d1f4f-5995-4cc9-bd9c-6e916739c84a"},"vehicle_type_id":"4","last_reported":1735647413,"current_range_meters":24000,"station_id":"ce4bgup2rcd13ifvqco0","pricing_plan_id":"cebpf4jnsgd1na2vs0mg"},{"bike_id":"c7a5c9c7-3430-4156-9d90-b61acb6089ec","system_id":"levelo_inurba_marseille","lat":43.27408,"lon":5.39412,"is_reserved":false,"is_disabled":false,"rental_uris":{"android":"levelo://app?vid=c7a5c9c7-3430-4156-9d90-b61acb6089ec","ios":"levelo://app?vid=c7a5c9c7-3430-4156-9d90-b61acb6089ec"},"vehicle_type_id":"4","last_reported":1735647413,"current_range_meters":28000,"station_id":"ce4bhdp2rcd13ifvqf20","pricing_plan_id":"cebpf4jnsgd1na2vs0mg"},{"bike_id":"7cee7fa3-8f35-4a1e-b05e-d1a6e4a9e782","system_id":"levelo_inurba_marseille","lat":43.29615,"lon":5.37709,"is_reserved":false,"is_disabled":true,"rental_uris":{"android":"levelo://app?vid=7cee7fa3-8f35-4a1e-b05e-d1a6e4a9e782","ios":"levelo://app?vid=7cee7fa3-8f35-4a1e-b05e-d1a6e4a9e782"},"vehicle_type_id":"4","last_reported":1735647413,"current_range_meters":0,"station_id":"ce4bgi92rcd13ifvqb90","pricing_plan_id":"cebpf4jnsgd1na2vs0mg"},{"bike_id":"241c1b16-80d4-48c5-94d8-8865b0ce5c7e","system_id":"levelo_inurba_marseille","lat":43.24809,"lon":5.37473,"is_reserved":false,"is_disabled":false,"rental_uris":{"android":"levelo://app?vid=241c1b16-80d4-48c5-94d8-8865b0ce5c7e","ios":"levelo://app?vid=241c1b16-80d4-48c5-94d8-8865b0ce5c7e"},"vehicle_type_id":"4","last_reported":1735647413,"current_range_meters":38800,"station_id":"ce4bhgh2rcd13ifvqfb0","pricing_plan_id":"cebpf4jnsgd1na2vs0mg"},{"bike_id":"dac94ecf-3203-4c89-acc0-21c14e979588","system_id":"levelo_inurba_marseille","lat":43.26685,"lon":5.38276,"is_reserved":false,"is_disabled":false,"rental_uris":{"android":"levelo://app?vid=dac94ecf-3203-4c89-acc0-21c14e979588","ios":"levelo://app?vid=dac94ecf-3203-4c89-acc0-21c14e979588"},"vehicle_type_id":"4","last_reported":1735647413,"current_range_meters":16000,"station_id":"ce4bhg92rcd13ifvqf90","pricing_plan_id":"cebpf4jnsgd1na2vs0mg"},{"bike_id":"d0187ed9-1b0c-469e-9167-b3ccc990fe12","system_id":"levelo_inurba_marseille","lat":43.32538,"lon":5.4148,"is_reserved":false,"is_disabled":false,"rental_uris":{"android":"levelo://app?vid=d0187ed9-1b0c-469e-9167-b3ccc990fe12","ios":"levelo://app?vid=d0187ed9-1b0c-469e-9167-b3ccc990fe12"},"vehicle_type_id":"4","last_reported":1735647413,"current_range_meters":38800,"station_id":"ce4bhq12rcd13ifvqhhg","pricing_plan_id":"cebpf4jnsgd1na2vs0mg"},{"bike_id":"9c42c59a-a990-48ee-91ac-32ebebcaabf5","system_id":"levelo_inurba_marseille","lat":43.27565,"lon":5.38459,"is_reserved":false,"is_disabled":false,"rental_uris":{"android":"levelo://app?vid=9c42c59a-a990-48ee-91ac-32ebebcaabf5","ios":"levelo://app?vid=9c42c59a-a990-48ee-91ac-32ebebcaabf5"},"vehicle_type_id":"4","last_reported":1735647413,"current_range_meters":38800,"station_id":"ce4bhh92rcd13ifvqfi0","pricing_plan_id":"cebpf4jnsgd1na2vs0mg"},{"bike_id":"0186eaea-137e-494d-9310-8cef8fb1a501","system_id":"levelo_inurba_marseille","lat":43.31075,"lon":5.3835,"is_reserved":false,"is_disabled":false,"rental_uris":{"android":"levelo://app?vid=0186eaea-137e-494d-9310-8cef8fb1a501","ios":"levelo://app?vid=0186eaea-137e-494d-9310-8cef8fb1a501"},"vehicle_type_id":"4","last_reported":1735647413,"current_range_meters":35600,"station_id":"ce4bgv92rcd13ifvqcr0","pricing_plan_id":"cebpf4jnsgd1na2vs0mg"},{"bike_id":"058dbc98-6f64-4f32-b9b0-2195949715f4","system_id":"levelo_inurba_marseille","lat":43.27806,"lon":5.39227,"is_reserved":false,"is_disabled":false,"rental_uris":{"android":"levelo://app?vid=058dbc98-6f64-4f32-b9b0-2195949715f4","ios":"levelo://app?vid=058dbc98-6f64-4f32-b9b0-2195949715f4"},"vehicle_type_id":"4","last_reported":1735647413,"current_range_meters":5600,"station_id":"ce4bhjp2rcd13ifvqga0","pricing_plan_id":"cebpf4jnsgd1na2vs0mg"},{"bike_id":"477549f8-3ea7-4189-964f-26bca2791d6d","system_id":"levelo_inurba_marseille","lat":43.32559,"lon":5.41457,"is_reserved":false,"is_disabled":false,"rental_uris":{"android":"levelo://app?vid=477549f8-3ea7-4189-964f-26bca2791d6d","ios":"levelo://app?vid=477549f8-3ea7-4189-964f-26bca2791d6d"},"vehicle_type_id":"4","last_reported":1735647413,"current_range_meters":37600,"station_id":"ce4bhq12rcd13ifvqhhg","pricing_plan_id":"cebpf4jnsgd1na2vs0mg"},{"bike_id":"ddaa2fb9-dbb8-4086-8c94-de0ff251173c","system_id":"levelo_inurba_marseille","lat":43.27826,"lon":5.39215,"is_reserved":false,"is_disabled":false,"rental_uris":{"android":"levelo://app?vid=ddaa2fb9-dbb8-4086-8c94-de0ff251173c","ios":"levelo://app?vid=ddaa2fb9-dbb8-4086-8c94-de0ff251173c"},"vehicle_type_id":"4","last_reported":1735647413,"current_range_meters":38000,"station_id":"ce4bhjp2rcd13ifvqga0","pricing_plan_id":"cebpf4jnsgd1na2vs0mg"},{"bike_id":"b5f1cb34-1fef-4806-9758-3cf4cf172f13","system_id":"levelo_inurba_marseille","lat":43.28027,"lon":5.36952,"is_reserved":false,"is_disabled":false,"rental_uris":{"android":"levelo://app?vid=b5f1cb34-1fef-4806-9758-3cf4cf172f13","ios":"levelo://app?vid=b5f1cb34-1fef-4806-9758-3cf4cf172f13"},"vehicle_type_id":"4","last_reported":1735647413,"current_range_meters":38800,"station_id":"ce4bha12rcd13ifvqef0","pricing_plan_id":"cebpf4jnsgd1na2vs0mg"},{"bike_id":"9c1ff583-8c67-46c7-9cc0-403d0e93a126","system_id":"levelo_inurba_marseille","lat":43.28724,"lon":5.36081,"is_reserved":false,"is_disabled":false,"rental_uris":{"android":"levelo://app?vid=9c1ff583-8c67-46c7-9cc0-403d0e93a126","ios":"levelo://app?vid=9c1ff583-8c67-46c7-9cc0-403d0e93a126"},"vehicle_type_id":"4","last_reported":1735647413,"current_range_meters":38400,"station_id":"cki0cbj6b192h4jlfktg","pricing_plan_id":"cebpf4jnsgd1na2vs0mg"},{"bike_id":"2c4b58b6-068c-43ab-b61b-ec70bef7ce49","system_id":"levelo_inurba_marseille","lat":43.30154,"lon":5.39879,"is_reserved":false,"is_disabled":false,"rental_uris":{"android":"levelo://app?vid=2c4b58b6-068c-43ab-b61b-ec70bef7ce49","ios":"levelo://app?vid=2c4b58b6-068c-43ab-b61b-ec70bef7ce49"},"vehicle_type_id":"4","last_reported":1735647413,"current_range_meters":30800,"station_id":"ce4bh0h2rcd13ifvqd40","pricing_plan_id":"cebpf4jnsgd1na2vs0mg"},{"bike_id":"da4e6788-3293-49a8-953a-d603a9db77e9","system_id":"levelo_inurba_marseille","lat":43.26676,"lon":5.38269,"is_reserved":false,"is_disabled":false,"rental_uris":{"android":"levelo://app?vid=da4e6788-3293-49a8-953a-d603a9db77e9","ios":"levelo://app?vid=da4e6788-3293-49a8-953a-d603a9db77e9"},"vehicle_type_id":"4","last_reported":1735647413,"current_range_meters":38000,"station_id":"ce4bhg92rcd13ifvqf90","pricing_plan_id":"cebpf4jnsgd1na2vs0mg"},{"bike_id":"b4ad7508-3e5f-4fca-8741-2498272963d1","system_id":"levelo_inurba_marseille","lat":43.28269,"lon":5.3509,"is_reserved":false,"is_disabled":false,"rental_uris":{"android":"levelo://app?vid=b4ad7508-3e5f-4fca-8741-2498272963d1","ios":"levelo://app?vid=b4ad7508-3e5f-4fca-8741-2498272963d1"},"vehicle_type_id":"4","last_reported":1735647413,"current_range_meters":36800,"station_id":"ce4bhbp2rcd13ifvqerg","pricing_plan_id":"cebpf4jnsgd1na2vs0mg"},{"bike_id":"706a392e-8d8d-4d74-81f4-fba862bc5474","system_id":"levelo_inurba_marseille","lat":43.28149,"lon":5.42661,"is_reserved":false,"is_disabled":false,"rental_uris":{"android":"levelo://app?vid=706a392e-8d8d-4d74-81f4-fba862bc5474","ios":"levelo://app?vid=706a392e-8d8d-4d74-81f4-fba862bc5474"},"vehicle_type_id":"4","last_reported":1735647413,"current_range_meters":28000,"station_id":"ce4bhnh2rcd13ifvqgug","pricing_plan_id":"cebpf4jnsgd1na2vs0mg"},{"bike_id":"fe17c963-ee96-4f5b-8f42-7842d71e406c","system_id":"levelo_inurba_marseille","lat":43.25852,"lon":5.40862,"is_reserved":false,"is_disabled":false,"rental_uris":{"android":"levelo://app?vid=fe17c963-ee96-4f5b-8f42-7842d71e406c","ios":"levelo://app?vid=fe17c963-ee96-4f5b-8f42-7842d71e406c"},"vehicle_type_id":"4","last_reported":1735647413,"current_range_meters":38800,"station_id":"","pricing_plan_id":"cebpf4jnsgd1na2vs0mg"},{"bike_id":"836a2fdc-5c7f-4eaf-8248-358a78ee4601","system_id":"levelo_inurba_marseille","lat":43.26215,"lon":5.3745,"is_reserved":false,"is_disabled":false,"rental_uris":{"android":"levelo://app?vid=836a2fdc-5c7f-4eaf-8248-358a78ee4601","ios":"levelo://app?vid=836a2fdc-5c7f-4eaf-8248-358a78ee4601"},"vehicle_type_id":"4","last_reported":1735647413,"current_range_meters":19600,"station_id":"ce4bhgp2rcd13ifvqfc0","pricing_plan_id":"cebpf4jnsgd1na2vs0mg"},{"bike_id":"9491c45b-577c-4aa6-a7cc-82502b6825b0","system_id":"levelo_inurba_marseille","lat":43.29709,"lon":5.37292,"is_reserved":false,"is_disabled":false,"rental_uris":{"android":"levelo://app?vid=9491c45b-577c-4aa6-a7cc-82502b6825b0","ios":"levelo://app?vid=9491c45b-577c-4aa6-a7cc-82502b6825b0"},"vehicle_type_id":"4","last_reported":1735647413,"current_range_meters":39200,"station_id":"ce4bgk12rcd13ifvqbj0","pricing_plan_id":"cebpf4jnsgd1na2vs0mg"},{"bike_id":"b8feb562-9ac0-4974-8ba7-4af547dd85da","system_id":"levelo_inurba_marseille","lat":43.26062,"lon":5.39405,"is_reserved":false,"is_disabled":false,"rental_uris":{"android":"levelo://app?vid=b8feb562-9ac0-4974-8ba7-4af547dd85da","ios":"levelo://app?vid=b8feb562-9ac0-4974-8ba7-4af547dd85da"},"vehicle_type_id":"4","last_reported":1735647413,"current_range_meters":38000,"station_id":"ce4bhh92rcd13ifvqfj0","pricing_plan_id":"cebpf4jnsgd1na2vs0mg"},{"bike_id":"ad9fdbc8-df9a-4eaf-9354-229a9cd78220","system_id":"levelo_inurba_marseille","lat":43.30439,"lon":5.3889,"is_reserved":false,"is_disabled":false,"rental_uris":{"android":"levelo://app?vid=ad9fdbc8-df9a-4eaf-9354-229a9cd78220","ios":"levelo://app?vid=ad9fdbc8-df9a-4eaf-9354-229a9cd78220"},"vehicle_type_id":"4","last_reported":1735647413,"current_range_meters":30800,"station_id":"ce4bgk12rcd13ifvqbi0","pricing_plan_id":"cebpf4jnsgd1na2vs0mg"},{"bike_id":"a2c981a9-118a-4e0c-9c91-df48407f1dcd","system_id":"levelo_inurba_marseille","lat":43.230574,"lon":5.354946,"is_reserved":false,"is_disabled":false,"rental_uris":{"android":"levelo://app?vid=a2c981a9-118a-4e0c-9c91-df48407f1dcd","ios":"levelo://app?vid=a2c981a9-118a-4e0c-9c91-df48407f1dcd"},"vehicle_type_id":"4","last_reported":1735647413,"current_range_meters":36800,"station_id":"cpo3342slgdg3j2ifvpg","pricing_plan_id":"cebpf4jnsgd1na2vs0mg"},{"bike_id":"aaaef49f-a584-4850-bf91-65f2b54572cc","system_id":"levelo_inurba_marseille","lat":43.29767,"lon":5.38105,"is_reserved":false,"is_disabled":false,"rental_uris":{"android":"levelo://app?vid=aaaef49f-a584-4850-bf91-65f2b54572cc","ios":"levelo://app?vid=aaaef49f-a584-4850-bf91-65f2b54572cc"},"vehicle_type_id":"4","last_reported":1735647413,"current_range_meters":20000,"station_id":"ce4bgip2rcd13ifvqbb0","pricing_plan_id":"cebpf4jnsgd1na2vs0mg"},{"bike_id":"cd94eb7e-0628-465d-8394-6b4b166ba69b","system_id":"levelo_inurba_marseille","lat":43.267965,"lon":5.39413,"is_reserved":false,"is_disabled":false,"rental_uris":{"android":"levelo://app?vid=cd94eb7e-0628-465d-8394-6b4b166ba69b","ios":"levelo://app?vid=cd94eb7e-0628-465d-8394-6b4b166ba69b"},"vehicle_type_id":"4","last_reported":1735647413,"current_range_meters":38800,"station_id":"ce4bhh12rcd13ifvqfg0","pricing_plan_id":"cebpf4jnsgd1na2vs0mg"},{"bike_id":"3fdbca98-341e-4a99-b37b-90394d708c9d","system_id":"levelo_inurba_marseille","lat":43.29351,"lon":5.37869,"is_reserved":false,"is_disabled":false,"rental_uris":{"android":"levelo://app?vid=3fdbca98-341e-4a99-b37b-90394d708c9d","ios":"levelo://app?vid=3fdbca98-341e-4a99-b37b-90394d708c9d"},"vehicle_type_id":"4","last_reported":1735647413,"current_range_meters":32800,"station_id":"ce4bgjh2rcd13ifvqbf0","pricing_plan_id":"cebpf4jnsgd1na2vs0mg"},{"bike_id":"0b70a3fd-cd64-4597-b1e3-c9c4cb5327b0","system_id":"levelo_inurba_marseille","lat":43.25859,"lon":5.39921,"is_reserved":false,"is_disabled":false,"rental_uris":{"android":"levelo://app?vid=0b70a3fd-cd64-4597-b1e3-c9c4cb5327b0","ios":"levelo://app?vid=0b70a3fd-cd64-4597-b1e3-c9c4cb5327b0"},"vehicle_type_id":"4","last_reported":1735647413,"current_range_meters":38800,"station_id":"ce4bhl92rcd13ifvqghg","pricing_plan_id":"cebpf4jnsgd1na2vs0mg"},{"bike_id":"a8732d4d-994b-49c4-bd33-faffa7bee6f5","system_id":"levelo_inurba_marseille","lat":43.27941,"lon":5.38714,"is_reserved":false,"is_disabled":false,"rental_uris":{"android":"levelo://app?vid=a8732d4d-994b-49c4-bd33-faffa7bee6f5","ios":"levelo://app?vid=a8732d4d-994b-49c4-bd33-faffa7bee6f5"},"vehicle_type_id":"4","last_reported":1735647413,"current_range_meters":38800,"station_id":"ce4bhg12rcd13ifvqf80","pricing_plan_id":"cebpf4jnsgd1na2vs0mg"},{"bike_id":"86aa6f0b-a7f6-467a-90c7-6a5aadae74e1","system_id":"levelo_inurba_marseille","lat":43.27191,"lon":5.39216,"is_reserved":false,"is_disabled":false,"rental_uris":{"android":"levelo://app?vid=86aa6f0b-a7f6-467a-90c7-6a5aadae74e1","ios":"levelo://app?vid=86aa6f0b-a7f6-467a-90c7-6a5aadae74e1"},"vehicle_type_id":"4","last_reported":1735647413,"current_range_meters":32800,"station_id":"ce4bhhp2rcd13ifvqfm0","pricing_plan_id":"cebpf4jnsgd1na2vs0mg"},{"bike_id":"62a66a29-bae2-4f50-983e-6ffc57057bae","system_id":"levelo_inurba_marseille","lat":43.25856,"lon":5.39904,"is_reserved":false,"is_disabled":false,"rental_uris":{"android":"levelo://app?vid=62a66a29-bae2-4f50-983e-6ffc57057bae","ios":"levelo://app?vid=62a66a29-bae2-4f50-983e-6ffc57057bae"},"vehicle_type_id":"4","last_reported":1735647413,"current_range_meters":6800,"station_id":"ce4bhl92rcd13ifvqghg","pricing_plan_id":"cebpf4jnsgd1na2vs0mg"},{"bike_id":"3eb06b53-0495-461f-921b-d9f51438e376","system_id":"levelo_inurba_marseille","lat":43.2741,"lon":5.39389,"is_reserved":false,"is_disabled":false,"rental_uris":{"android":"levelo://app?vid=3eb06b53-0495-461f-921b-d9f51438e376","ios":"levelo://app?vid=3eb06b53-0495-461f-921b-d9f51438e376"},"vehicle_type_id":"4","last_reported":1735647413,"current_range_meters":38800,"station_id":"ce4bhdp2rcd13ifvqf20","pricing_plan_id":"cebpf4jnsgd1na2vs0mg"},{"bike_id":"a06e3c0a-750d-4c5c-b0ac-872018e7f41d","system_id":"levelo_inurba_marseille","lat":43.27833,"lon":5.39196,"is_reserved":false,"is_disabled":false,"rental_uris":{"android":"levelo://app?vid=a06e3c0a-750d-4c5c-b0ac-872018e7f41d","ios":"levelo://app?vid=a06e3c0a-750d-4c5c-b0ac-872018e7f41d"},"vehicle_type_id":"4","last_reported":1735647413,"current_range_meters":36800,"station_id":"ce4bhjp2rcd13ifvqga0","pricing_plan_id":"cebpf4jnsgd1na2vs0mg"},{"bike_id":"95368f1e-80ec-45ff-b472-c8673b9e0a03","system_id":"levelo_inurba_marseille","lat":43.24557,"lon":5.39527,"is_reserved":false,"is_disabled":false,"rental_uris":{"android":"levelo://app?vid=95368f1e-80ec-45ff-b472-c8673b9e0a03","ios":"levelo://app?vid=95368f1e-80ec-45ff-b472-c8673b9e0a03"},"vehicle_type_id":"4","last_reported":1735647413,"current_range_meters":30800,"station_id":"ce4bhlp2rcd13ifvqgjg","pricing_plan_id":"cebpf4jnsgd1na2vs0mg"},