{"last_updated":1704305365,"ttl":30,"version":"2.2","data":{"bikes":[{"bike_id":"36495f5e-58cb-4798-9828-73cf54334832","system_id":"levelo_inurba_marseille","lat":43.309039,"lon":5.371797,"is_reserved":false,"is_disabled":false,"rental_uris":{"android":"levelo://app?vid=36495f5e-58cb-4798-9828-73cf54334832","ios":"levelo://app?vid=36495f5e-58cb-4798-9828-73cf54334832"},"vehicle_type_id":"4","last_reported":1704305365,"current_range_meters":22000,"station_id":"ce4bguh2rcd13ifvqckg","pricing_plan_id":"free"},{"bike_id":"8f88df85-2c20-45b3-ad53-5cbfb23ea654","system_id":"levelo_inurba_marseille","lat":43.309039,"lon":5.371797,"is_reserved":false,"is_disabled":false,"rental_uris":{"android":"levelo://app?vid=8f88df85-2c20-45b3-ad53-5cbfb23ea654","ios":"levelo://app?vid=8f88df85-2c20-45b3-ad53-5cbfb23ea654"},"vehicle_type_id":"4","last_reported":1704305365,"current_range_meters":20400,"station_id":"ce4bguh2rcd13ifvqckg","pricing_plan_id":"free"},{"bike_id":"e169b07d-74ce-41e9-a547-bf5526e1a2ab","system_id":"levelo_inurba_marseille","lat":43.305368,"lon":5.367343,"is_reserved":false,"is_disabled":false,"rental_uris":{"android":"levelo://app?vid=e169b07d-74ce-41e9-a547-bf5526e1a2ab","ios":"levelo://app?vid=e169b07d-74ce-41e9-a547-bf5526e1a2ab"},"vehicle_type_id":"4","last_reported":1704305365,"current_range_meters":7600,"station_id":"ce4bgrp2rcd13ifvqc9g","pricing_plan_id":"free"},{"bike_id":"3cb9f262-ed3e-4076-a81c-c9aa6e41b4a4","system_id":"levelo_inurba_marseille","lat":43.305989,"lon":5.37225,"is_reserved":false,"is_disabled":false,"rental_uris":{"android":"levelo://app?vid=3cb9f262-ed3e-4076-a81c-c9aa6e41b4a4","ios":"levelo://app?vid=3cb9f262-ed3e-4076-a81c-c9aa6e41b4a4"},"vehicle_type_id":"4","last_reported":1704305365,"current_range_meters":15600,"station_id":"ce4bgqh2rcd13ifvqc4g","pricing_plan_id":"free"},{"bike_id":"134e05f2-70f4-4ddd-a69e-33ddd6795126","system_id":"levelo_inurba_marseille","lat":43.311125,"lon":5.377624,"is_reserved":false,"is_disabled":false,"rental_uris":{"android":"levelo://app?vid=134e05f2-70f4-4ddd-a69e-33ddd6795126","ios":"levelo://app?vid=134e05f2-70f4-4ddd-a69e-33ddd6795126"},"vehicle_type_id":"4","last_reported":1704305365,"current_range_meters":19200,"station_id":"ce4bgt92rcd13ifvqcg0","pricing_plan_id":"free"},{"bike_id":"ea05a02c-1f0f-46f8-a1a2-2888b64c2b16","system_id":"levelo_inurba_marseille","lat":43.3112,"lon":5.37768,"is_reserved":false,"is_disabled":false,"rental_uris":{"android":"levelo://app?vid=ea05a02c-1f0f-46f8-a1a2-2888b64c2b16","ios":"levelo://app?vid=ea05a02c-1f0f-46f8-a1a2-2888b64c2b16"},"vehicle_type_id":"4","last_reported":1704305365,"current_range_meters":6400,"station_id":"ce4bgt92rcd13ifvqcg0","pricing_plan_id":"free"},{"bike_id":"ccc517b6-d8f6-4564-99c7-caac90d22c9d","system_id":"levelo_inurba_marseille","lat":43.30792,"lon":5.37637,"is_reserved":false,"is_disabled":false,"rental_uris":{"android":"levelo://app?vid=ccc517b6-d8f6-4564-99c7-caac90d22c9d","ios":"levelo://app?vid=ccc517b6-d8f6-4564-99c7-caac90d22c9d"},"vehicle_type_id":"4","last_reported":1704305365,"current_range_meters":16400,"station_id":"ce4bgv92rcd13ifvqcq0","pricing_plan_id":"free"},{"bike_id":"93e39cdc-eeb7-4bbc-8bd1-abdcc5339080","system_id":"levelo_inurba_marseille","lat":43.317075,"lon":5.377367,"is_reserved":false,"is_disabled":false,"rental_uris":{"android":"levelo://app?vid=93e39cdc-eeb7-4bbc-8bd1-abdcc5339080","ios":"levelo://app?vid=93e39cdc-eeb7-4bbc-8bd1-abdcc5339080"},"vehicle_type_id":"4","last_reported":1704305365,"current_range_meters":26000,"station_id":"ce4bgth2rcd13ifvqch0","pricing_plan_id":"free"},{"bike_id":"2e30aac0-b581-49a3-b0b9-45b213286604","system_id":"levelo_inurba_marseille","lat":43.307945,"lon":5.376487,"is_reserved":false,"is_disabled":false,"rental_uris":{"android":"levelo://app?vid=2e30aac0-b581-49a3-b0b9-45b213286604","ios":"levelo://app?vid=2e30aac0-b581-49a3-b0b9-45b213286604"},"vehicle_type_id":"4","last_reported":1704305365,"current_range_meters":7600,"station_id":"ce4bgv92rcd13ifvqcq0","pricing_plan_id":"free"},{"bike_id":"c2775606-fc04-48a8-8700-1cc14f96a7e9","system_id":"levelo_inurba_marseille","lat":43.31064,"lon":5.37878,"is_reserved":false,"is_disabled":false,"rental_uris":{"android":"levelo://app?vid=c2775606-fc04-48a8-8700-1cc14f96a7e9","ios":"levelo://app?vid=c2775606-fc04-48a8-8700-1cc14f96a7e9"},"vehicle_type_id":"4","last_reported":1704305365,"current_range_meters":16000,"station_id":"","pricing_plan_id":"free"},{"bike_id":"c4e90871-bb94-4085-82dc-ccbd997a22ca","system_id":"levelo_inurba_marseille","lat":43.315211,"lon":5.379088,"is_reserved":false,"is_disabled":false,"rental_uris":{"android":"levelo://app?vid=c4e90871-bb94-4085-82dc-ccbd997a22ca","ios":"levelo://app?vid=c4e90871-bb94-4085-82dc-ccbd997a22ca"},"vehicle_type_id":"4","last_reported":1704305365,"current_range_meters":22400,"station_id":"","pricing_plan_id":"free"},{"bike_id":"0ee1696a-f36a-4721-9ddb-6d6b17e251e8","system_id":"levelo_inurba_marseille","lat":43.303046,"lon":5.368981,"is_reserved":false,"is_disabled":false,"rental_uris":{"android":"levelo://app?vid=0ee1696a-f36a-4721-9ddb-6d6b17e251e8","ios":"levelo://app?vid=0ee1696a-f36a-4721-9ddb-6d6b17e251e8"},"vehicle_type_id":"4","last_reported":1704305365,"current_range_meters":12400,"station_id":"ce4bgqh2rcd13ifvqc5g","pricing_plan_id":"free"},{"bike_id":"4810d17d-15f2-4699-980f-89ebf8877f7a","system_id":"levelo_inurba_marseille","lat":43.31524,"lon":5.38035,"is_reserved":false,"is_disabled":false,"rental_uris":{"android":"levelo://app?vid=4810d17d-15f2-4699-980f-89ebf8877f7a","ios":"levelo://app?vid=4810d17d-15f2-4699-980f-89ebf8877f7a"},"vehicle_type_id":"4","last_reported":1704305365,"current_range_meters":29600,"station_id":"ce4bhsp2rcd13ifvqi50","pricing_plan_id":"free"},{"bike_id":"a07874e0-8e6c-486f-9ba3-73cff57a6a79","system_id":"levelo_inurba_marseille","lat":43.308012,"lon":5.381511,"is_reserved":false,"is_disabled":false,"rental_uris":{"android":"levelo://app?vid=a07874e0-8e6c-486f-9ba3-73cff57a6a79","ios":"levelo://app?vid=a07874e0-8e6c-486f-9ba3-73cff57a6a79"},"vehicle_type_id":"4","last_reported":1704305365,"current_range_meters":30400,"station_id":"ce4bgt12rcd13ifvqce0","pricing_plan_id":"free"},{"bike_id":"f3ba6b22-fe10-418e-bae3-9485fb9788f6","system_id":"levelo_inurba_marseille","lat":43.308012,"lon":5.381511,"is_reserved":false,"is_disabled":false,"rental_uris":{"android":"levelo://app?vid=f3ba6b22-fe10-418e-bae3-9485fb9788f6","ios":"levelo://app?vid=f3ba6b22-fe10-418e-bae3-9485fb9788f6"},"vehicle_type_id":"4","last_reported":1704305365,"current_range_meters":12400,"station_id":"ce4bgt12rcd13ifvqce0","pricing_plan_id":"free"},{"bike_id":"9781594a-d619-4d2c-b63f-b0cc77efc10b","system_id":"levelo_inurba_marseille","lat":43.308012,"lon":5.381511,"is_reserved":false,"is_disabled":false,"rental_uris":{"android":"levelo://app?vid=9781594a-d619-4d2c-b63f-b0cc77efc10b","ios":"levelo://app?vid=9781594a-d619-4d2c-b63f-b0cc77efc10b"},"vehicle_type_id":"4","last_reported":1704305365,"current_range_meters":22000,"station_id":"ce4bgt12rcd13ifvqce0","pricing_plan_id":"free"},{"bike_id":"2c9de222-01f9-43f4-bc5d-2dc78df54bce","system_id":"levelo_inurba_marseille","lat":43.308012,"lon":5.381511,"is_reserved":false,"is_disabled":false,"rental_uris":{"android":"levelo://app?vid=2c9de222-01f9-43f4-bc5d-2dc78df54bce","ios":"levelo://app?vid=2c9de222-01f9-43f4-bc5d-2dc78df54bce"},"vehicle_type_id":"4","last_reported":1704305365,"current_range_meters":31600,"station_id":"ce4bgt12rcd13ifvqce0","pricing_plan_id":"free"},{"bike_id":"580ba7d6-a6f0-4b2e-865e-c88ed06683a3","system_id":"levelo_inurba_marseille","lat":43.308012,"lon":5.381511,"is_reserved":false,"is_disabled":false,"rental_uris":{"android":"levelo://app?vid=580ba7d6-a6f0-4b2e-865e-c88ed06683a3","ios":"levelo://app?vid=580ba7d6-a6f0-4b2e-865e-c88ed06683a3"},"vehicle_type_id":"4","last_reported":1704305365,"current_range_meters":26800,"station_id":"ce4bgt12rcd13ifvqce0","pricing_plan_id":"free"},{"bike_id":"5377074b-30e2-4d67-825b-9deb3b1dbed3","system_id":"levelo_inurba_marseille","lat":43.304708,"lon":5.379039,"is_reserved":false,"is_disabled":false,"rental_uris":{"android":"levelo://app?vid=5377074b-30e2-4d67-825b-9deb3b1dbed3","ios":"levelo://app?vid=5377074b-30e2-4d67-825b-9deb3b1dbed3"},"vehicle_type_id":"4","last_reported":1704305365,"current_range_meters":6400,"station_id":"","pricing_plan_id":"free"},{"bike_id":"7d6ad57a-1e6d-44ae-9fe2-72a5d1a45a8f","system_id":"levelo_inurba_marseille","lat":43.304606,"lon":5.379026,"is_reserved":false,"is_disabled":false,"rental_uris":{"android":"levelo://app?vid=7d6ad57a-1e6d-44ae-9fe2-72a5d1a45a8f","ios":"levelo://app?vid=7d6ad57a-1e6d-44ae-9fe2-72a5d1a45a8f"},"vehicle_type_id":"4","last_reported":1704305365,"current_range_meters":27200,"station_id":"ce4bgup2rcd13ifvqcn0","pricing_plan_id":"free"},{"bike_id":"75a7d561-8516-447b-847a-3919bc2c5ab3","system_id":"levelo_inurba_marseille","lat":43.304606,"lon":5.379026,"is_reserved":false,"is_disabled":false,"rental_uris":{"android":"levelo://app?vid=75a7d561-8516-447b-847a-3919bc2c5ab3","ios":"levelo://app?vid=75a7d561-8516-447b-847a-3919bc2c5ab3"},"vehicle_type_id":"4","last_reported":1704305365,"current_range_meters":25600,"station_id":"ce4bgup2rcd13ifvqcn0","pricing_plan_id":"free"},{"bike_id":"688569fa-81a1-4322-8300-c299ae5152f3","system_id":"levelo_inurba_marseille","lat":43.324771,"lon":5.36557,"is_reserved":false,"is_disabled":false,"rental_uris":{"android":"levelo://app?vid=688569fa-81a1-4322-8300-c299ae5152f3","ios":"levelo://app?vid=688569fa-81a1-4322-8300-c299ae5152f3"},"vehicle_type_id":"4","last_reported":1704305365,"current_range_meters":16800,"station_id":"ce4bhs12rcd13ifvqhvg","pricing_plan_id":"free"},{"bike_id":"05033d6b-820d-4c0f-b542-b0a5c6766086","system_id":"levelo_inurba_marseille","lat":43.30274,"lon":5.37692,"is_reserved":false,"is_disabled":false,"rental_uris":{"android":"levelo://app?vid=05033d6b-820d-4c0f-b542-b0a5c6766086","ios":"levelo://app?vid=05033d6b-820d-4c0f-b542-b0a5c6766086"},"vehicle_type_id":"4","last_reported":1704305365,"current_range_meters":18800,"station_id":"","pricing_plan_id":"free"},{"bike_id":"442c1b48-0c9d-41d7-80ff-51493b8682d0","system_id":"levelo_inurba_marseille","lat":43.319935,"lon":5.381699,"is_reserved":false,"is_disabled":false,"rental_uris":{"android":"levelo://app?vid=442c1b48-0c9d-41d7-80ff-51493b8682d0","ios":"levelo://app?vid=442c1b48-0c9d-41d7-80ff-51493b8682d0"},"vehicle_type_id":"4","last_reported":1704305365,"current_range_meters":16400,"station_id":"ce4bhr12rcd13ifvqhpg","pricing_plan_id":"free"},{"bike_id":"2a6911e4-99f7-4853-9039-ac05cf0c6d2a","system_id":"levelo_inurba_marseille","lat":43.319935,"lon":5.381699,"is_reserved":false,"is_disabled":false,"rental_uris":{"android":"levelo://app?vid=2a6911e4-99f7-4853-9039-ac05cf0c6d2a","ios":"levelo://app?vid=2a6911e4-99f7-4853-9039-ac05cf0c6d2a"},"vehicle_type_id":"4","last_reported":1704305365,"current_range_meters":9600,"station_id":"ce4bhr12rcd13ifvqhpg","pricing_plan_id":"free"},{"bike_id":"1c6e55bf-6b0c-4848-96ae-9e712df180c6","system_id":"levelo_inurba_marseille","lat":43.319935,"lon":5.381699,"is_reserved":false,"is_disabled":false,"rental_uris":{"android":"levelo://app?vid=1c6e55bf-6b0c-4848-96ae-9e712df180c6","ios":"levelo://app?vid=1c6e55bf-6b0c-4848-96ae-9e712df180c6"},"vehicle_type_id":"4","last_reported":1704305365,"current_range_meters":1600,"station_id":"ce4bhr12rcd13ifvqhpg","pricing_plan_id":"free"},{"bike_id":"b5276c18-dc60-41dc-a67c-72f7c9b9c022","system_id":"levelo_inurba_marseille","lat":43.313571,"lon":5.384829,"is_reserved":false,"is_disabled":false,"rental_uris":{"android":"levelo://app?vid=b5276c18-dc60-41dc-a67c-72f7c9b9c022","ios":"levelo://app?vid=b5276c18-dc60-41dc-a67c-72f7c9b9c022"},"vehicle_type_id":"4","last_reported":1704305365,"current_range_meters":18800,"station_id":"ce4bgt92rcd13ifvqcf0","pricing_plan_id":"free"},{"bike_id":"703c8fc8-f068-429c-b5a8-a607d296e207","system_id":"levelo_inurba_marseille","lat":43.313571,"lon":5.384829,"is_reserved":false,"is_disabled":false,"rental_uris":{"android":"levelo://app?vid=703c8fc8-f068-429c-b5a8-a607d296e207","ios":"levelo://app?vid=703c8fc8-f068-429c-b5a8-a607d296e207"},"vehicle_type_id":"4","last_reported":1704305365,"current_range_meters":29600,"station_id":"ce4bgt92rcd13ifvqcf0","pricing_plan_id":"free"},{"bike_id":"17504bde-947a-4cd6-98b3-9a4c66aca99b","system_id":"levelo_inurba_marseille","lat":43.313827,"lon":5.385007,"is_reserved":false,"is_disabled":false,"rental_uris":{"android":"levelo://app?vid=17504bde-947a-4cd6-98b3-9a4c66aca99b","ios":"levelo://app?vid=17504bde-947a-4cd6-98b3-9a4c66aca99b"},"vehicle_type_id":"4","last_reported":1704305365,"current_range_meters":16400,"station_id":"ce4bgt92rcd13ifvqcf0","pricing_plan_id":"free"},{"bike_id":"a930e640-78e8-4b58-8411-c4ec23c37477","system_id":"levelo_inurba_marseille","lat":43.29927,"lon":5.36538,"is_reserved":false,"is_disabled":false,"rental_uris":{"android":"levelo://app?vid=a930e640-78e8-4b58-8411-c4ec23c37477","ios":"levelo://app?vid=a930e640-78e8-4b58-8411-c4ec23c37477"},"vehicle_type_id":"4","last_reported":1704305365,"current_range_meters":0,"station_id":"ce4bgm92rcd13ifvqbr0","pricing_plan_id":"free"},{"bike_id":"119966cf-744c-479a-8c5a-a646244a01e8","system_id":"levelo_inurba_marseille","lat":43.311722,"lon":5.387247,"is_reserved":false,"is_disabled":false,"rental_uris":{"android":"levelo://app?vid=119966cf-744c-479a-8c5a-a646244a01e8","ios":"levelo://app?vid=119966cf-744c-479a-8c5a-a646244a01e8"},"vehicle_type_id":"4","last_reported":1704305365,"current_range_meters":4800,"station_id":"ce4bgv12rcd13ifvqcp0","pricing_plan_id":"free"},{"bike_id":"355b9567-2c3e-41c6-b49a-73fc7ab389d4","system_id":"levelo_inurba_marseille","lat":43.305364,"lon":5.384119,"is_reserved":false,"is_disabled":false,"rental_uris":{"android":"levelo://app?vid=355b9567-2c3e-41c6-b49a-73fc7ab389d4","ios":"levelo://app?vid=355b9567-2c3e-41c6-b49a-73fc7ab389d4"},"vehicle_type_id":"4","last_reported":1704305365,"current_range_meters":12000,"station_id":"ce4bgg92rcd13ifvqb30","pricing_plan_id":"free"},{"bike_id":"f53e7a9d-7ee6-4428-85bd-3db5d7cc3975","system_id":"levelo_inurba_marseille","lat":43.322872,"lon":5.382756,"is_reserved":false,"is_disabled":false,"rental_uris":{"android":"levelo://app?vid=f53e7a9d-7ee6-4428-85bd-3db5d7cc3975","ios":"levelo://app?vid=f53e7a9d-7ee6-4428-85bd-3db5d7cc3975"},"vehicle_type_id":"4","last_reported":1704305365,"current_range_meters":24000,"station_id":"ce4bhr12rcd13ifvqhqg","pricing_plan_id":"free"},{"bike_id":"6d90e6d0-18f2-4d59-a7c0-6f5d8f3563c2","system_id":"levelo_inurba_marseille","lat":43.322872,"lon":5.382756,"is_reserved":false,"is_disabled":false,"rental_uris":{"android":"levelo://app?vid=6d90e6d0-18f2-4d59-a7c0-6f5d8f3563c2","ios":"levelo://app?vid=6d90e6d0-18f2-4d59-a7c0-6f5d8f3563c2"},"vehicle_type_id":"4","last_reported":1704305365,"current_range_meters":26000,"station_id":"ce4bhr12rcd13ifvqhqg","pricing_plan_id":"free"},{"bike_id":"b1b531a6-b271-457f-a47c-b5f17d57c6b0","system_id":"levelo_inurba_marseille","lat":43.322872,"lon":5.382756,"is_reserved":false,"is_disabled":false,"rental_uris":{"android":"levelo://app?vid=b1b531a6-b271-457f-a47c-b5f17d57c6b0","ios":"levelo://app?vid=b1b531a6-b271-457f-a47c-b5f17d57c6b0"},"vehicle_type_id":"4","last_reported":1704305365,"current_range_meters":5200,"station_id":"ce4bhr12rcd13ifvqhqg","pricing_plan_id":"free"},{"bike_id":"282990a5-37f6-4baa-8fe8-f98cb5dcf1b9","system_id":"levelo_inurba_marseille","lat":43.322872,"lon":5.382756,"is_reserved":false,"is_disabled":false,"rental_uris":{"android":"levelo://app?vid=282990a5-37f6-4baa-8fe8-f98cb5dcf1b9","ios":"levelo://app?vid=282990a5-37f6-4baa-8fe8-f98cb5dcf1b9"},"vehicle_type_id":"4","last_reported":1704305365,"current_range_meters":16800,"station_id":"ce4bhr12rcd13ifvqhqg","pricing_plan_id":"free"},{"bike_id":"0fd1a754-34d0-4db5-92ef-c7d51180155b","system_id":"levelo_inurba_marseille","lat":43.322872,"lon":5.382756,"is_reserved":false,"is_disabled":false,"rental_uris":{"android":"levelo://app?vid=0fd1a754-34d0-4db5-92ef-c7d51180155b","ios":"levelo://app?vid=0fd1a754-34d0-4db5-92ef-c7d51180155b"},"vehicle_type_id":"4","last_reported":1704305365,"current_range_meters":20400,"station_id":"ce4bhr12rcd13ifvqhqg","pricing_plan_id":"free"},{"bike_id":"b3dc36b5-78bd-4891-ba38-a66f92777aa9","system_id":"levelo_inurba_marseille","lat":43.322872,"lon":5.382756,"is_reserved":false,"is_disabled":false,"rental_uris":{"android":"levelo://app?vid=b3dc36b5-78bd-4891-ba38-a66f92777aa9","ios":"levelo://app?vid=b3dc36b5-78bd-4891-ba38-a66f92777aa9"},"vehicle_type_id":"4","last_reported":1704305365,"current_range_meters":8400,"station_id":"ce4bhr12rcd13ifvqhqg","pricing_plan_id":"free"},{"bike_id":"e344a4f8-37b0-4824-b7de-a9d0470bf846","system_id":"levelo_inurba_marseille","lat":43.322872,"lon":5.382756,"is_reserved":false,"is_disabled":false,"rental_uris":{"android":"levelo://app?vid=e344a4f8-37b0-4824-b7de-a9d0470bf846","ios":"levelo://app?vid=e344a4f8-37b0-4824-b7de-a9d0470bf846"},"vehicle_type_id":"4","last_reported":1704305365,"current_range_meters":30800,"station_id":"ce4bhr12rcd13ifvqhqg","pricing_plan_id":"free"},{"bike_id":"108ce918-b7b7-41d5-968a-6405b5e614b1","system_id":"levelo_inurba_marseille","lat":43.32824,"lon":5.3668,"is_reserved":false,"is_disabled":false,"rental_uris":{"android":"levelo://app?vid=108ce918-b7b7-41d5-968a-6405b5e614b1","ios":"levelo://app?vid=108ce918-b7b7-41d5-968a-6405b5e614b1"},"vehicle_type_id":"4","last_reported":1704305365,"current_range_meters":21600,"station_id":"ce4bhs92rcd13ifvqi0g","pricing_plan_id":"free"},{"bike_id":"0f5b3cdf-df82-42cb-9086-af0f50b1e0fd","system_id":"levelo_inurba_marseille","lat":43.328371,"lon":5.366909,"is_reserved":false,"is_disabled":false,"rental_uris":{"android":"levelo://app?vid=0f5b3cdf-df82-42cb-9086-af0f50b1e0fd","ios":"levelo://app?vid=0f5b3cdf-df82-42cb-9086-af0f50b1e0fd"},"vehicle_type_id":"4","last_reported":1704305365,"current_range_meters":27200,"station_id":"ce4bhs92rcd13ifvqi0g","pricing_plan_id":"free"},{"bike_id":"5f74c51c-6210-4ad0-865c-d637c18269b9","system_id":"levelo_inurba_marseille","lat":43.32834,"lon":5.3668,"is_reserved":false,"is_disabled":false,"rental_uris":{"android":"levelo://app?vid=5f74c51c-6210-4ad0-865c-d637c18269b9","ios":"levelo://app?vid=5f74c51c-6210-4ad0-865c-d637c18269b9"},"vehicle_type_id":"4","last_reported":1704305365,"current_range_meters":27600,"station_id":"ce4bhs92rcd13ifvqi0g","pricing_plan_id":"free"},{"bike_id":"370cccf7-c9ba-46c2-819b-c8e8cacc4c21","system_id":"levelo_inurba_marseille","lat":43.3277,"lon":5.37458,"is_reserved":false,"is_disabled":false,"rental_uris":{"android":"levelo://app?vid=370cccf7-c9ba-46c2-819b-c8e8cacc4c21","ios":"levelo://app?vid=370cccf7-c9ba-46c2-819b-c8e8cacc4c21"},"vehicle_type_id":"4","last_reported":1704305365,"current_range_meters":4000,"station_id":"","pricing_plan_id":"free"},{"bike_id":"2c85187f-93cd-40c5-a28d-dea722565fa6","system_id":"levelo_inurba_marseille","lat":43.295748,"lon":5.37522,"is_reserved":false,"is_disabled":false,"rental_uris":{"android":"levelo://app?vid=2c85187f-93cd-40c5-a28d-dea722565fa6","ios":"levelo://app?vid=2c85187f-93cd-40c5-a28d-dea722565fa6"},"vehicle_type_id":"4","last_reported":1704305365,"current_range_meters":5600,"station_id":"ce4bgh92rcd13ifvqb50","pricing_plan_id":"free"},{"bike_id":"79800263-06f0-48d6-8891-512a264d5db0","system_id":"levelo_inurba_marseille","lat":43.295748,"lon":5.37522,"is_reserved":false,"is_disabled":false,"rental_uris":{"android":"levelo://app?vid=79800263-06f0-48d6-8891-512a264d5db0","ios":"levelo://app?vid=79800263-06f0-48d6-8891-512a264d5db0"},"vehicle_type_id":"4","last_reported":1704305365,"current_range_meters":0,"station_id":"ce4bgh92rcd13ifvqb50","pricing_plan_id":"free"},{"bike_id":"72ca3dba-83b2-47f8-83af-fec2231f387a","system_id":"levelo_inurba_marseille","lat":43.304274,"lon":5.388873,"is_reserved":false,"is_disabled":false,"rental_uris":{"android":"levelo://app?vid=72ca3dba-83b2-47f8-83af-fec2231f387a","ios":"levelo://app?vid=72ca3dba-83b2-47f8-83af-fec2231f387a"},"vehicle_type_id":"4","last_reported":1704305365,"current_range_meters":14400,"station_id":"ce4bgk12rcd13ifvqbi0","pricing_plan_id":"free"},{"bike_id":"48e3e59d-323d-4129-9fc6-5ddac53f963e","system_id":"levelo_inurba_marseille","lat":43.295748,"lon":5.37522,"is_reserved":false,"is_disabled":false,"rental_uris":{"android":"levelo://app?vid=48e3e59d-323d-4129-9fc6-5ddac53f963e","ios":"levelo://app?vid=48e3e59d-323d-4129-9fc6-5ddac53f963e"},"vehicle_type_id":"4","last_reported":1704305365,"current_range_meters":5200,"station_id":"ce4bgh92rcd13ifvqb50","pricing_plan_id":"free"},{"bike_id":"d60802d6-4f47-444a-b234-883690eec05b","system_id":"levelo_inurba_marseille","lat":43.33062,"lon":5.3627,"is_reserved":false,"is_disabled":false,"rental_uris":{"android":"levelo://app?vid=d60802d6-4f47-444a-b234-883690eec05b","ios":"levelo://app?vid=d60802d6-4f47-444a-b234-883690eec05b"},"vehicle_type_id":"4","last_reported":1704305365,"current_range_meters":11200,"station_id":"","pricing_plan_id":"free"},{"bike_id":"102321cf-ee8a-4394-b938-ef5752e25d61","system_id":"levelo_inurba_marseille","lat":43.296277,"lon":5.377108,"is_reserved":false,"is_disabled":false,"rental_uris":{"android":"levelo://app?vid=102321cf-ee8a-4394-b938-ef5752e25d61","ios":"levelo://app?vid=102321cf-ee8a-4394-b938-ef5752e25d61"},"vehicle_type_id":"4","last_reported":1704305365,"current_range_meters":12800,"station_id":"ce4bgi92rcd13ifvqb90","pricing_plan_id":"free"},{"bike_id":"7119845d-00aa-4d9f-be8c-fc97d41f1380","system_id":"levelo_inurba_marseille","lat":43.297594,"lon":5.381134,"is_reserved":false,"is_disabled":false,"rental_uris":{"android":"levelo://app?vid=7119845d-00aa-4d9f-be8c-fc97d41f1380","ios":"levelo://app?vid=7119845d-00aa-4d9f-be8c-fc97d41f1380"},"vehicle_type_id":"4","last_reported":1704305365,"current_range_meters":0,"station_id":"ce4bgip2rcd13ifvqbb0","pricing_plan_id":"free"},{"bike_id":"48d76bcc-775b-43ca-b0cb-71e30d4fabea","system_id":"levelo_inurba_marseille","lat":43.299717,"lon":5.384845,"is_reserved":false,"is_disabled":false,"rental_uris":{"android":"levelo://app?vid=48d76bcc-775b-43ca-b0cb-71e30d4fabea","ios":"levelo://app?vid=48d76bcc-775b-43ca-b0cb-71e30d4fabea"},"vehicle_type_id":"4","last_reported":1704305365,"current_range_meters":4000,"station_id":"ce4bgj92rcd13ifvqbd0","pricing_plan_id":"free"},{"bike_id":"a082d93e-a2f1-41b2-af8f-b1546d9caff3","system_id":"levelo_inurba_marseille","lat":43.304278,"lon":5.388868,"is_reserved":false,"is_disabled":false,"rental_uris":{"android":"levelo://app?vid=a082d93e-a2f1-41b2-af8f-b1546d9caff3","ios":"levelo://app?vid=a082d93e-a2f1-41b2-af8f-b1546d9caff3"},"vehicle_type_id":"4","last_reported":1704305365,"current_range_meters":0,"station_id":"ce4bgk12rcd13ifvqbi0","pricing_plan_id":"free"},{"bike_id":"04ed8e0e-7a56-438b-b07b-1a738d74e538","system_id":"levelo_inurba_marseille","lat":43.29601,"lon":5.381084,"is_reserved":false,"is_disabled":false,"rental_uris":{"android":"levelo://app?vid=04ed8e0e-7a56-438b-b07b-1a738d74e538","ios":"levelo://app?vid=04ed8e0e-7a56-438b-b07b-1a738d74e538"},"vehicle_type_id":"4","last_reported":1704305365,"current_range_meters":27200,"station_id":"ce4bgl12rcd13ifvqbo0","pricing_plan_id":"free"},{"bike_id":"99cb11da-c30e-43fc-9847-49130e30d247","system_id":"levelo_inurba_marseille","lat":43.29601,"lon":5.381084,"is_reserved":false,"is_disabled":false,"rental_uris":{"android":"levelo://app?vid=99cb11da-c30e-43fc-9847-49130e30d247","ios":"levelo://app?vid=99cb11da-c30e-43fc-9847-49130e30d247"},"vehicle_type_id":"4","last_reported":1704305365,"current_range_meters":8000,"station_id":"ce4bgl12rcd13ifvqbo0","pricing_plan_id":"free"},{"bike_id":"fa27da48-3ec3-4d39-9776-ac64ee4cbcf5","system_id":"levelo_inurba_marseille","lat":43.293259,"lon":5.371586,"is_reserved":false,"is_disabled":false,"rental_uris":{"android":"levelo://app?vid=fa27da48-3ec3-4d39-9776-ac64ee4cbcf5","ios":"levelo://app?vid=fa27da48-3ec3-4d39-9776-ac64ee4cbcf5"},"vehicle_type_id":"4","last_reported":1704305365,"current_range_meters":14800,"station_id":"ce4bgh92rcd13ifvqb40","pricing_plan_id":"free"},{"bike_id":"ed01be5c-59bb-464f-85e0-3d282cca177b","system_id":"levelo_inurba_marseille","lat":43.303002,"lon":5.392142,"is_reserved":false,"is_disabled":false,"rental_uris":{"android":"levelo://app?vid=ed01be5c-59bb-464f-85e0-3d282cca177b","ios":"levelo://app?vid=ed01be5c-59bb-464f-85e0-3d282cca177b"},"vehicle_type_id":"4","last_reported":1704305365,"current_range_meters":16000,"station_id":"ce4bgkh2rcd13ifvqbk0","pricing_plan_id":"free"},{"bike_id":"b36cdf6a-31cd-472f-85ac-276f47cfcdd7","system_id":"levelo_inurba_marseille","lat":43.302992,"lon":5.392136,"is_reserved":false,"is_disabled":false,"rental_uris":{"android":"levelo://app?vid=b36cdf6a-31cd-472f-85ac-276f47cfcdd7","ios":"levelo://app?vid=b36cdf6a-31cd-472f-85ac-276f47cfcdd7"},"vehicle_type_id":"4","last_reported":1704305365,"current_range_meters":14000,"station_id":"ce4bgkh2rcd13ifvqbk0","pricing_plan_id":"free"},{"bike_id":"a32d1521-6077-41f5-832c-e2cb666c4c7f","system_id":"levelo_inurba_marseille","lat":43.3059,"lon":5.3936,"is_reserved":false,"is_disabled":false,"rental_uris":{"android":"levelo://app?vid=a32d1521-6077-41f5-832c-e2cb666c4c7f","ios":"levelo://app?vid=a32d1521-6077-41f5-832c-e2cb666c4c7f"},"vehicle_type_id":"4","last_reported":1704305365,"current_range_meters":0,"station_id":"ce4bh0p2rcd13ifvqd80","pricing_plan_id":"free"},{"bike_id":"c9cc4b3e-cc21-464e-84a1-c2c1f8faa0a7","system_id":"levelo_inurba_marseille","lat":43.293009,"lon":5.374584,"is_reserved":false,"is_disabled":false,"rental_uris":{"android":"levelo://app?vid=c9cc4b3e-cc21-464e-84a1-c2c1f8faa0a7","ios":"levelo://app?vid=c9cc4b3e-cc21-464e-84a1-c2c1f8faa0a7"},"vehicle_type_id":"4","last_reported":1704305365,"current_range_meters":17200,"station_id":"ce4bgi12rcd13ifvqb70","pricing_plan_id":"free"},{"bike_id":"841d87f1-853c-4cc4-a6ab-5ce12ca07038","system_id":"levelo_inurba_marseille","lat":43.30187,"lon":5.39099,"is_reserved":false,"is_disabled":false,"rental_uris":{"android":"levelo://app?vid=841d87f1-853c-4cc4-a6ab-5ce12ca07038","ios":"levelo://app?vid=841d87f1-853c-4cc4-a6ab-5ce12ca07038"},"vehicle_type_id":"4","last_reported":1704305365,"current_range_meters":21200,"station_id":"","pricing_plan_id":"free"},{"bike_id":"c2be37e5-6910-4c4d-af78-f40d0ad13264","system_id":"levelo_inurba_marseille","lat":43.300852,"lon":5.390859,"is_reserved":false,"is_disabled":false,"rental_uris":{"android":"levelo://app?vid=c2be37e5-6910-4c4d-af78-f40d0ad13264","ios":"levelo://app?vid=c2be37e5-6910-4c4d-af78-f40d0ad13264"},"vehicle_type_id":"4","last_reported":1704305365,"current_range_meters":14000,"station_id":"ce4bh192rcd13ifvqdb0","pricing_plan_id":"free"},{"bike_id":"bee0d25e-5928-4166-a427-6e32ca8691d8","system_id":"levelo_inurba_marseille","lat":43.292602,"lon":5.37618,"is_reserved":false,"is_disabled":false,"rental_uris":{"android":"levelo://app?vid=bee0d25e-5928-4166-a427-6e32ca8691d8","ios":"levelo://app?vid=bee0d25e-5928-4166-a427-6e32ca8691d8"},"vehicle_type_id":"4","last_reported":1704305365,"current_range_meters":14800,"station_id":"","pricing_plan_id":"free"},{"bike_id":"8f86e043-0dac-4467-b8ef-615961dba736","system_id":"levelo_inurba_marseille","lat":43.29871,"lon":5.389,"is_reserved":false,"is_disabled":false,"rental_uris":{"android":"levelo://app?vid=8f86e043-0dac-4467-b8ef-615961dba736","ios":"levelo://app?vid=8f86e043-0dac-4467-b8ef-615961dba736"},"vehicle_type_id":"4","last_reported":1704305365,"current_range_meters":24800,"station_id":"","pricing_plan_id":"free"},{"bike_id":"511b2196-b442-4360-a6c8-3a549d7d710e","system_id":"levelo_inurba_marseille","lat":43.291675,"lon":5.371583,"is_reserved":false,"is_disabled":false,"rental_uris":{"android":"levelo://app?vid=511b2196-b442-4360-a6c8-3a549d7d710e","ios":"levelo://app?vid=511b2196-b442-4360-a6c8-3a549d7d710e"},"vehicle_type_id":"4","last_reported":1704305365,"current_range_meters":15200,"station_id":"ce4bha92rcd13ifvqeh0","pricing_plan_id":"free"},{"bike_id":"5a1101da-2a5f-43ab-b704-b8734b3dbb65","system_id":"levelo_inurba_marseille","lat":43.291671,"lon":5.371575,"is_reserved":false,"is_disabled":false,"rental_uris":{"android":"levelo://app?vid=5a1101da-2a5f-43ab-b704-b8734b3dbb65","ios":"levelo://app?vid=5a1101da-2a5f-43ab-b704-b8734b3dbb65"},"vehicle_type_id":"4","last_reported":1704305365,"current_range_meters":27600,"station_id":"ce4bha92rcd13ifvqeh0","pricing_plan_id":"free"},{"bike_id":"4a9311c4-4db5-4367-b1f7-d435bd185033","system_id":"levelo_inurba_marseille","lat":43.33191,"lon":5.3807,"is_reserved":false,"is_disabled":false,"rental_uris":{"android":"levelo://app?vid=4a9311c4-4db5-4367-b1f7-d435bd185033","ios":"levelo://app?vid=4a9311c4-4db5-4367-b1f7-d435bd185033"},"vehicle_type_id":"4","last_reported":1704305365,"current_range_meters":10000,"station_id":"","pricing_plan_id":"free"},{"bike_id":"dfebc943-e094-4094-b5b8-1edfe748e45e","system_id":"levelo_inurba_marseille","lat":43.309047,"lon":5.396551,"is_reserved":false,"is_disabled":false,"rental_uris":{"android":"levelo://app?vid=dfebc943-e094-4094-b5b8-1edfe748e45e","ios":"levelo://app?vid=dfebc943-e094-4094-b5b8-1edfe748e45e"},"vehicle_type_id":"4","last_reported":1704305365,"current_range_meters":9200,"station_id":"ce4bh012rcd13ifvqcv0","pricing_plan_id":"free"},{"bike_id":"e2d3f604-e10f-4fb4-80fa-4f63f79ca6db","system_id":"levelo_inurba_marseille","lat":43.313291,"lon":5.396838,"is_reserved":false,"is_disabled":false,"rental_uris":{"android":"levelo://app?vid=e2d3f604-e10f-4fb4-80fa-4f63f79ca6db","ios":"levelo://app?vid=e2d3f604-e10f-4fb4-80fa-4f63f79ca6db"},"vehicle_type_id":"4","last_reported":1704305365,"current_range_meters":16000,"station_id":"ce4bgvp2rcd13ifvqcu0","pricing_plan_id":"free"},{"bike_id":"7b812371-1eb1-42dc-a5b1-d8570736d800","system_id":"levelo_inurba_marseille","lat":43.313294,"lon":5.396861,"is_reserved":false,"is_disabled":false,"rental_uris":{"android":"levelo://app?vid=7b812371-1eb1-42dc-a5b1-d8570736d800","ios":"levelo://app?vid=7b812371-1eb1-42dc-a5b1-d8570736d800"},"vehicle_type_id":"4","last_reported":1704305365,"current_range_meters":22800,"station_id":"ce4bgvp2rcd13ifvqcu0","pricing_plan_id":"free"},{"bike_id":"4a0dd34f-cbba-4f1c-8073-356b945f6d42","system_id":"levelo_inurba_marseille","lat":43.291994,"lon":5.357886,"is_reserved":false,"is_disabled":false,"rental_uris":{"android":"levelo://app?vid=4a0dd34f-cbba-4f1c-8073-356b945f6d42","ios":"levelo://app?vid=4a0dd34f-cbba-4f1c-8073-356b945f6d42"},"vehicle_type_id":"4","last_reported":1704305365,"current_range_meters":12000,"station_id":"ce4bhb12rcd13ifvqel0","pricing_plan_id":"free"},{"bike_id":"db0b473c-b957-4b85-92d4-070515c92a07","system_id":"levelo_inurba_marseille","lat":43.309038,"lon":5.396546,"is_reserved":false,"is_disabled":false,"rental_uris":{"android":"levelo://app?vid=db0b473c-b957-4b85-92d4-070515c92a07","ios":"levelo://app?vid=db0b473c-b957-4b85-92d4-070515c92a07"},"vehicle_type_id":"4","last_reported":1704305365,"current_range_meters":25600,"station_id":"ce4bh012rcd13ifvqcv0","pricing_plan_id":"free"},{"bike_id":"da64c4ef-e9c9-4af7-aba6-4cf29e034f1d","system_id":"levelo_inurba_marseille","lat":43.313291,"lon":5.396838,"is_reserved":false,"is_disabled":false,"rental_uris":{"android":"levelo://app?vid=da64c4ef-e9c9-4af7-aba6-4cf29e034f1d","ios":"levelo://app?vid=da64c4ef-e9c9-4af7-aba6-4cf29e034f1d"},"vehicle_type_id":"4","last_reported":1704305365,"current_range_meters":2800,"station_id":"ce4bgvp2rcd13ifvqcu0","pricing_plan_id":"free"},{"bike_id":"21cde0c2-6d0f-4587-969b-ac7a0c9ae065","system_id":"levelo_inurba_marseille","lat":43.309038,"lon":5.396546,"is_reserved":false,"is_disabled":false,"rental_uris":{"android":"levelo://app?vid=21cde0c2-6d0f-4587-969b-ac7a0c9ae065","ios":"levelo://app?vid=21cde0c2-6d0f-4587-969b-ac7a0c9ae065"},"vehicle_type_id":"4","last_reported":1704305365,"current_range_meters":5600,"station_id":"ce4bh012rcd13ifvqcv0","pricing_plan_id":"free"},{"bike_id":"e26b20ba-30ad-43ba-859a-b09de2b4c356","system_id":"levelo_inurba_marseille","lat":43.309038,"lon":5.396546,"is_reserved":false,"is_disabled":false,"rental_uris":{"android":"levelo://app?vid=e26b20ba-30ad-43ba-859a-b09de2b4c356","ios":"levelo://app?vid=e26b20ba-30ad-43ba-859a-b09de2b4c356"},"vehicle_type_id":"4","last_reported":1704305365,"current_range_meters":12400,"station_id":"ce4bh012rcd13ifvqcv0","pricing_plan_id":"free"},{"bike_id":"52cb9422-bdda-444e-acf8-53ea52ac4c8d","system_id":"levelo_inurba_marseille","lat":43.309047,"lon":5.396551,"is_reserved":false,"is_disabled":false,"rental_uris":{"android":"levelo://app?vid=52cb9422-bdda-444e-acf8-53ea52ac4c8d","ios":"levelo://app?vid=52cb9422-bdda-444e-acf8-53ea52ac4c8d"},"vehicle_type_id":"4","last_reported":1704305365,"current_range_meters":21600,"station_id":"ce4bh012rcd13ifvqcv0","pricing_plan_id":"free"},{"bike_id":"bcfa8101-8549-4290-95ee-c9ef9f526b61","system_id":"levelo_inurba_marseille","lat":43.309038,"lon":5.396546,"is_reserved":false,"is_disabled":false,"rental_uris":{"android":"levelo://app?vid=bcfa8101-8549-4290-95ee-c9ef9f526b61","ios":"levelo://app?vid=bcfa8101-8549-4290-95ee-c9ef9f526b61"},"vehicle_type_id":"4","last_reported":1704305365,"current_range_meters":12800,"station_id":"ce4bh012rcd13ifvqcv0","pricing_plan_id":"free"},{"bike_id":"31361286-2cac-4459-af7c-94abe9b7a69d","system_id":"levelo_inurba_marseille","lat":43.309047,"lon":5.396551,"is_reserved":false,"is_disabled":false,"rental_uris":{"android":"levelo://app?vid=31361286-2cac-4459-af7c-94abe9b7a69d","ios":"levelo://app?vid=31361286-2cac-4459-af7c-94abe9b7a69d"},"vehicle_type_id":"4","last_reported":1704305365,"current_range_meters":16400,"station_id":"ce4bh012rcd13ifvqcv0","pricing_plan_id":"free"},{"bike_id":"5ecfc131-8e39-4684-9206-fec3654bb6db","system_id":"levelo_inurba_marseille","lat":43.309047,"lon":5.396551,"is_reserved":false,"is_disabled":false,"rental_uris":{"android":"levelo://app?vid=5ecfc131-8e39-4684-9206-fec3654bb6db","ios":"levelo://app?vid=5ecfc131-8e39-4684-9206-fec3654bb6db"},"vehicle_type_id":"4","last_reported":1704305365,"current_range_meters":21600,"station_id":"ce4bh012rcd13ifvqcv0","pricing_plan_id":"free"},{"bike_id":"7a4d3688-2af8-44ac-91a9-11c15b1fe6a3","system_id":"levelo_inurba_marseille","lat":43.29539,"lon":5.3855,"is_reserved":false,"is_disabled":false,"rental_uris":{"android":"levelo://app?vid=7a4d3688-2af8-44ac-91a9-11c15b1fe6a3","ios":"levelo://app?vid=7a4d3688-2af8-44ac-91a9-11c15b1fe6a3"},"vehicle_type_id":"4","last_reported":1704305365,"current_range_meters":4000,"station_id":"ce4bgih2rcd13ifvqba0","pricing_plan_id":"free"},{"bike_id":"f664d19a-b358-4cfa-b7de-40d963bc1e94","system_id":"levelo_inurba_marseille","lat":43.29529,"lon":5.385581,"is_reserved":false,"is_disabled":false,"rental_uris":{"android":"levelo://app?vid=f664d19a-b358-4cfa-b7de-40d963bc1e94","ios":"levelo://app?vid=f664d19a-b358-4cfa-b7de-40d963bc1e94"},"vehicle_type_id":"4","last_reported":1704305365,"current_range_meters":28400,"station_id":"ce4bgih2rcd13ifvqba0","pricing_plan_id":"free"},{"bike_id":"d2153e33-db3d-452f-b220-851e0e894086","system_id":"levelo_inurba_marseille","lat":43.290779,"lon":5.371482,"is_reserved":false,"is_disabled":false,"rental_uris":{"android":"levelo://app?vid=d2153e33-db3d-452f-b220-851e0e894086","ios":"levelo://app?vid=d2153e33-db3d-452f-b220-851e0e894086"},"vehicle_type_id":"4","last_reported":1704305365,"current_range_meters":30400,"station_id":"ce4bh5p2rcd13ifvqe4g","pricing_plan_id":"free"},{"bike_id":"e521b6c7-a82a-4b0e-8e88-32e5515d8591","system_id":"levelo_inurba_marseille","lat":43.290631,"lon":5.359244,"is_reserved":false,"is_disabled":false,"rental_uris":{"android":"levelo://app?vid=e521b6c7-a82a-4b0e-8e88-32e5515d8591","ios":"levelo://app?vid=e521b6c7-a82a-4b0e-8e88-32e5515d8591"},"vehicle_type_id":"4","last_reported":1704305365,"current_range_meters":29200,"station_id":"ce4bha92rcd13ifvqeg0","pricing_plan_id":"free"},{"bike_id":"5e9d01a8-b83b-4690-907c-222644b0ea32","system_id":"levelo_inurba_marseille","lat":43.290631,"lon":5.359244,"is_reserved":false,"is_disabled":false,"rental_uris":{"android":"levelo://app?vid=5e9d01a8-b83b-4690-907c-222644b0ea32","ios":"levelo://app?vid=5e9d01a8-b83b-4690-907c-222644b0ea32"},"vehicle_type_id":"4","last_reported":1704305365,"current_range_meters":10400,"station_id":"ce4bha92rcd13ifvqeg0","pricing_plan_id":"free"},{"bike_id":"eae8814e-2b83-4d90-bd89-e7151449f7c4","system_id":"levelo_inurba_marseille","lat":43.294153,"lon":5.386305,"is_reserved":false,"is_disabled":false,"rental_uris":{"android":"levelo://app?vid=eae8814e-2b83-4d90-bd89-e7151449f7c4","ios":"levelo://app?vid=eae8814e-2b83-4d90-bd89-e7151449f7c4"},"vehicle_type_id":"4","last_reported":1704305365,"current_range_meters":25200,"station_id":"ce4bh2h2rcd13ifvqdh0","pricing_plan_id":"free"},{"bike_id":"2de42fad-148e-407b-a869-3c2526395551","system_id":"levelo_inurba_marseille","lat":43.29421,"lon":5.38622,"is_reserved":false,"is_disabled":false,"rental_uris":{"android":"levelo://app?vid=2de42fad-148e-407b-a869-3c2526395551","ios":"levelo://app?vid=2de42fad-148e-407b-a869-3c2526395551"},"vehicle_type_id":"4","last_reported":1704305365,"current_range_meters":13200,"station_id":"ce4bh2h2rcd13ifvqdh0","pricing_plan_id":"free"},{"bike_id":"0c437dcb-5577-4cd3-8d8c-ab3cd599e1f1","system_id":"levelo_inurba_marseille","lat":43.29263,"lon":5.38321,"is_reserved":false,"is_disabled":false,"rental_uris":{"android":"levelo://app?vid=0c437dcb-5577-4cd3-8d8c-ab3cd599e1f1","ios":"levelo://app?vid=0c437dcb-5577-4cd3-8d8c-ab3cd599e1f1"},"vehicle_type_id":"4","last_reported":1704305365,"current_range_meters":21600,"station_id":"","pricing_plan_id":"free"},{"bike_id":"7f800c28-a73d-4573-83de-a207988b058a","system_id":"levelo_inurba_marseille","lat":43.289184,"lon":5.366408,"is_reserved":false,"is_disabled":false,"rental_uris":{"android":"levelo://app?vid=7f800c28-a73d-4573-83de-a207988b058a","ios":"levelo://app?vid=7f800c28-a73d-4573-83de-a207988b058a"},"vehicle_type_id":"4","last_reported":1704305365,"current_range_meters":21200,"station_id":"ce4bhap2rcd13ifvqek0","pricing_plan_id":"free"},{"bike_id":"fc4df2a4-2eda-44ab-b226-75facb68d773","system_id":"levelo_inurba_marseille","lat":43.289468,"lon":5.363719,"is_reserved":false,"is_disabled":false,"rental_uris":{"android":"levelo://app?vid=fc4df2a4-2eda-44ab-b226-75facb68d773","ios":"levelo://app?vid=fc4df2a4-2eda-44ab-b226-75facb68d773"},"vehicle_type_id":"4","last_reported":1704305365,"current_range_meters":29200,"station_id":"ce4bhc92rcd13ifvqetg","pricing_plan_id":"free"},{"bike_id":"1732bd72-8b22-4e38-ae8a-0b41f3245d14","system_id":"levelo_inurba_marseille","lat":43.289184,"lon":5.366408,"is_reserved":false,"is_disabled":false,"rental_uris":{"android":"levelo://app?vid=1732bd72-8b22-4e38-ae8a-0b41f3245d14","ios":"levelo://app?vid=1732bd72-8b22-4e38-ae8a-0b41f3245d14"},"vehicle_type_id":"4","last_reported":1704305365,"current_range_meters":28000,"station_id":"ce4bhap2rcd13ifvqek0","pricing_plan_id":"free"},{"bike_id":"d6c4e73a-d563-4894-b881-3bf4e24bd3aa","system_id":"levelo_inurba_marseille","lat":43.289184,"lon":5.366408,"is_reserved":false,"is_disabled":false,"rental_uris":{"android":"levelo://app?vid=d6c4e73a-d563-4894-b881-3bf4e24bd3aa","ios":"levelo://app?vid=d6c4e73a-d563-4894-b881-3bf4e24bd3aa"},"vehicle_type_id":"4","last_reported":1704305365,"current_range_meters":21600,"station_id":"ce4bhap2rcd13ifvqek0","pricing_plan_id":"free"},{"bike_id":"dfeac2fd-f9ca-43fb-b5ac-cfbe030697c1","system_id":"levelo_inurba_marseille","lat":43.289184,"lon":5.366408,"is_reserved":false,"is_disabled":false,"rental_uris":{"android":"levelo://app?vid=dfeac2fd-f9ca-43fb-b5ac-cfbe030697c1","ios":"levelo://app?vid=dfeac2fd-f9ca-43fb-b5ac-cfbe030697c1"},"vehicle_type_id":"4","last_reported":1704305365,"current_range_meters":26000,"station_id":"ce4bhap2rcd13ifvqek0","pricing_plan_id":"free"},{"bike_id":"76695f70-89fd-42e2-add4-5b317cf2af1b","system_id":"levelo_inurba_marseille","lat":43.289468,"lon":5.363719,"is_reserved":false,"is_disabled":false,"rental_uris":{"android":"levelo://app?vid=76695f70-89fd-42e2-add4-5b317cf2af1b","ios":"levelo://app?vid=76695f70-89fd-42e2-add4-5b317cf2af1b"},"vehicle_type_id":"4","last_reported":1704305365,"current_range_meters":9600,"station_id":"ce4bhc92rcd13ifvqetg","pricing_plan_id":"free"},{"bike_id":"e361ca2a-501d-4d40-85d3-2044fed0a223","system_id":"levelo_inurba_marseille","lat":43.289184,"lon":5.366408,"is_reserved":false,"is_disabled":false,"rental_uris":{"android":"levelo://app?vid=e361ca2a-501d-4d40-85d3-2044fed0a223","ios":"levelo://app?vid=e361ca2a-501d-4d40-85d3-2044fed0a223"},"vehicle_type_id":"4","last_reported":1704305365,"current_range_meters":12800,"station_id":"ce4bhap2rcd13ifvqek0","pricing_plan_id":"free"},{"bike_id":"3ac6be4e-0dde-4e91-97e3-df914697396e","system_id":"levelo_inurba_marseille","lat":43.289468,"lon":5.363719,"is_reserved":false,"is_disabled":false,"rental_uris":{"android":"levelo://app?vid=3ac6be4e-0dde-4e91-97e3-df914697396e","ios":"levelo://app?vid=3ac6be4e-0dde-4e91-97e3-df914697396e"},"vehicle_type_id":"4","last_reported":1704305365,"current_range_meters":16000,"station_id":"ce4bhc92rcd13ifvqetg","pricing_plan_id":"free"},{"bike_id":"68d4e34f-09b6-4c68-b061-1bef05f8cd8e","system_id":"levelo_inurba_marseille","lat":43.292644,"lon":5.384257,"is_reserved":false,"is_disabled":false,"rental_uris":{"android":"levelo://app?vid=68d4e34f-09b6-4c68-b061-1bef05f8cd8e","ios":"levelo://app?vid=68d4e34f-09b6-4c68-b061-1bef05f8cd8e"},"vehicle_type_id":"4","last_reported":1704305365,"current_range_meters":29600,"station_id":"ce4bh692rcd13ifvqea0","pricing_plan_id":"free"},{"bike_id":"c9b750da-7f61-4465-83dd-5a668f41d20f","system_id":"levelo_inurba_marseille","lat":43.292644,"lon":5.384257,"is_reserved":false,"is_disabled":false,"rental_uris":{"android":"levelo://app?vid=c9b750da-7f61-4465-83dd-5a668f41d20f","ios":"levelo://app?vid=c9b750da-7f61-4465-83dd-5a668f41d20f"},"vehicle_type_id":"4","last_reported":1704305365,"current_range_meters":30000,"station_id":"ce4bh692rcd13ifvqea0","pricing_plan_id":"free"},{"bike_id":"011b7eb7-a955-4486-8d16-a4f383b19d00","system_id":"levelo_inurba_marseille","lat":43.292644,"lon":5.384257,"is_reserved":false,"is_disabled":false,"rental_uris":{"android":"levelo://app?vid=011b7eb7-a955-4486-8d16-a4f383b19d00","ios":"levelo://app?vid=011b7eb7-a955-4486-8d16-a4f383b19d00"},"vehicle_type_id":"4","last_reported":1704305365,"current_range_meters":22000,"station_id":"ce4bh692rcd13ifvqea0","pricing_plan_id":"free"},{"bike_id":"233e7b70-1e54-4827-9cda-72cb798a11f7","system_id":"levelo_inurba_marseille","lat":43.292644,"lon":5.384257,"is_reserved":false,"is_disabled":false,"rental_uris":{"android":"levelo://app?vid=233e7b70-1e54-4827-9cda-72cb798a11f7","ios":"levelo://app?vid=233e7b70-1e54-4827-9cda-72cb798a11f7"},"vehicle_type_id":"4","last_reported":1704305365,"current_range_meters":9600,"station_id":"ce4bh692rcd13ifvqea0","pricing_plan_id":"free"},{"bike_id":"7bb06ab6-e483-44f0-a993-0a6b13be89b1","system_id":"levelo_inurba_marseille","lat":43.292644,"lon":5.384257,"is_reserved":false,"is_disabled":false,"rental_uris":{"android":"levelo://app?vid=7bb06ab6-e483-44f0-a993-0a6b13be89b1","ios":"levelo://app?vid=7bb06ab6-e483-44f0-a993-0a6b13be89b1"},"vehicle_type_id":"4","last_reported":1704305365,"current_range_meters":24000,"station_id":"ce4bh692rcd13ifvqea0","pricing_plan_id":"free"},{"bike_id":"3ad40da3-0149-4de2-a4d6-b44977808c06","system_id":"levelo_inurba_marseille","lat":43.292642,"lon":5.384254,"is_reserved":false,"is_disabled":false,"rental_uris":{"android":"levelo://app?vid=3ad40da3-0149-4de2-a4d6-b44977808c06","ios":"levelo://app?vid=3ad40da3-0149-4de2-a4d6-b44977808c06"},"vehicle_type_id":"4","last_reported":1704305365,"current_range_meters":31200,"station_id":"ce4bh692rcd13ifvqea0","pricing_plan_id":"free"},{"bike_id":"99a58fe0-63eb-49af-b0fd-b491ff7c70f7","system_id":"levelo_inurba_marseille","lat":43.29263,"lon":5.38453,"is_reserved":false,"is_disabled":false,"rental_uris":{"android":"levelo://app?vid=99a58fe0-63eb-49af-b0fd-b491ff7c70f7","ios":"levelo://app?vid=99a58fe0-63eb-49af-b0fd-b491ff7c70f7"},"vehicle_type_id":"4","last_reported":1704305365,"current_range_meters":31200,"station_id":"ce4bh692rcd13ifvqea0","pricing_plan_id":"free"},{"bike_id":"9111d7ac-20b3-4b76-9b1b-9a35f64c7f84","system_id":"levelo_inurba_marseille","lat":43.290104,"lon":5.356111,"is_reserved":false,"is_disabled":false,"rental_uris":{"android":"levelo://app?vid=9111d7ac-20b3-4b76-9b1b-9a35f64c7f84","ios":"levelo://app?vid=9111d7ac-20b3-4b76-9b1b-9a35f64c7f84"},"vehicle_type_id":"4","last_reported":1704305365,"current_range_meters":15600,"station_id":"ce4bhb92rcd13ifvqen0","pricing_plan_id":"free"},{"bike_id":"65bb64c0-4232-45e5-a52b-f08d4ddba1ae","system_id":"levelo_inurba_marseille","lat":43.290103,"lon":5.356114,"is_reserved":false,"is_disabled":false,"rental_uris":{"android":"levelo://app?vid=65bb64c0-4232-45e5-a52b-f08d4ddba1ae","ios":"levelo://app?vid=65bb64c0-4232-45e5-a52b-f08d4ddba1ae"},"vehicle_type_id":"4","last_reported":1704305365,"current_range_meters":12000,"station_id":"ce4bhb92rcd13ifvqen0","pricing_plan_id":"free"},{"bike_id":"9e946cda-0625-401e-9b07-dc4715eefa4c","system_id":"levelo_inurba_marseille","lat":43.29105,"lon":5.38136,"is_reserved":false,"is_disabled":false,"rental_uris":{"android":"levelo://app?vid=9e946cda-0625-401e-9b07-dc4715eefa4c","ios":"levelo://app?vid=9e946cda-0625-401e-9b07-dc4715eefa4c"},"vehicle_type_id":"4","last_reported":1704305365,"current_range_meters":19200,"station_id":"ce4bh512rcd13ifvqe2g","pricing_plan_id":"free"},{"bike_id":"335394bc-e6c2-430e-be32-6bce3d2ac587","system_id":"levelo_inurba_marseille","lat":43.290995,"lon":5.381361,"is_reserved":false,"is_disabled":false,"rental_uris":{"android":"levelo://app?vid=335394bc-e6c2-430e-be32-6bce3d2ac587","ios":"levelo://app?vid=335394bc-e6c2-430e-be32-6bce3d2ac587"},"vehicle_type_id":"4","last_reported":1704305365,"current_range_meters":26800,"station_id":"ce4bh512rcd13ifvqe2g","pricing_plan_id":"free"},{"bike_id":"8968a6a4-0332-43ac-9ea1-0763d2b936db","system_id":"levelo_inurba_marseille","lat":43.290995,"lon":5.381361,"is_reserved":false,"is_disabled":false,"rental_uris":{"android":"levelo://app?vid=8968a6a4-0332-43ac-9ea1-0763d2b936db","ios":"levelo://app?vid=8968a6a4-0332-43ac-9ea1-0763d2b936db"},"vehicle_type_id":"4","last_reported":1704305365,"current_range_meters":8400,"station_id":"ce4bh512rcd13ifvqe2g","pricing_plan_id":"free"},{"bike_id":"10247770-883b-40dc-a0ae-be2ee7faed9a","system_id":"levelo_inurba_marseille","lat":43.29804,"lon":5.39338,"is_reserved":false,"is_disabled":false,"rental_uris":{"android":"levelo://app?vid=10247770-883b-40dc-a0ae-be2ee7faed9a","ios":"levelo://app?vid=10247770-883b-40dc-a0ae-be2ee7faed9a"},"vehicle_type_id":"4","last_reported":1704305365,"current_range_meters":6800,"station_id":"chh1huq6cuj3fo74tm60","pricing_plan_id":"free"},{"bike_id":"67557efc-c037-4611-b4d4-7ccfcd6bf9e7","system_id":"levelo_inurba_marseille","lat":43.295169,"lon":5.390426,"is_reserved":false,"is_disabled":false,"rental_uris":{"android":"levelo://app?vid=67557efc-c037-4611-b4d4-7ccfcd6bf9e7","ios":"levelo://app?vid=67557efc-c037-4611-b4d4-7ccfcd6bf9e7"},"vehicle_type_id":"4","last_reported":1704305365,"current_range_meters":29200,"station_id":"ce4bh3p2rcd13ifvqdp0","pricing_plan_id":"free"},{"bike_id":"3b47fb58-219d-4204-80e6-5df2d57adaec","system_id":"levelo_inurba_marseille","lat":43.29794,"lon":5.39339,"is_reserved":false,"is_disabled":false,"rental_uris":{"android":"levelo://app?vid=3b47fb58-219d-4204-80e6-5df2d57adaec","ios":"levelo://app?vid=3b47fb58-219d-4204-80e6-5df2d57adaec"},"vehicle_type_id":"4","last_reported":1704305365,"current_range_meters":18000,"station_id":"chh1huq6cuj3fo74tm60","pricing_plan_id":"free"},{"bike_id":"148aaf6d-5ec8-4301-aa5a-09f26a4ac025","system_id":"levelo_inurba_marseille","lat":43.29785,"lon":5.39331,"is_reserved":false,"is_disabled":false,"rental_uris":{"android":"levelo://app?vid=148aaf6d-5ec8-4301-aa5a-09f26a4ac025","ios":"levelo://app?vid=148aaf6d-5ec8-4301-aa5a-09f26a4ac025"},"vehicle_type_id":"4","last_reported":1704305365,"current_range_meters":10000,"station_id":"chh1huq6cuj3fo74tm60","pricing_plan_id":"free"},{"bike_id":"b9f1870d-91b7-4991-8da2-fb88515c5d8e","system_id":"levelo_inurba_marseille","lat":43.330442,"lon":5.389148,"is_reserved":false,"is_disabled":false,"rental_uris":{"android":"levelo://app?vid=b9f1870d-91b7-4991-8da2-fb88515c5d8e","ios":"levelo://app?vid=b9f1870d-91b7-4991-8da2-fb88515c5d8e"},"vehicle_type_id":"4","last_reported":1704305365,"current_range_meters":18000,"station_id":"ce4bhr92rcd13ifvqhrg","pricing_plan_id":"free"},{"bike_id":"3537c72e-affb-4603-a0d4-44c57db301e5","system_id":"levelo_inurba_marseille","lat":43.330442,"lon":5.389148,"is_reserved":false,"is_disabled":false,"rental_uris":{"android":"levelo://app?vid=3537c72e-affb-4603-a0d4-44c57db301e5","ios":"levelo://app?vid=3537c72e-affb-4603-a0d4-44c57db301e5"},"vehicle_type_id":"4","last_reported":1704305365,"current_range_meters":3600,"station_id":"ce4bhr92rcd13ifvqhrg","pricing_plan_id":"free"},{"bike_id":"a4544299-4117-4ba4-98ad-2dcd1cebe1e8","system_id":"levelo_inurba_marseille","lat":43.330442,"lon":5.389148,"is_reserved":false,"is_disabled":false,"rental_uris":{"android":"levelo://app?vid=a4544299-4117-4ba4-98ad-2dcd1cebe1e8","ios":"levelo://app?vid=a4544299-4117-4ba4-98ad-2dcd1cebe1e8"},"vehicle_type_id":"4","last_reported":1704305365,"current_range_meters":24000,"station_id":"ce4bhr92rcd13ifvqhrg","pricing_plan_id":"free"},{"bike_id":"a45508dc-3e20-4dc2-a3f2-c48092cac22d","system_id":"levelo_inurba_marseille","lat":43.330442,"lon":5.389148,"is_reserved":false,"is_disabled":false,"rental_uris":{"android":"levelo://app?vid=a45508dc-3e20-4dc2-a3f2-c48092cac22d","ios":"levelo://app?vid=a45508dc-3e20-4dc2-a3f2-c48092cac22d"},"vehicle_type_id":"4","last_reported":1704305365,"current_range_meters":6800,"station_id":"ce4bhr92rcd13ifvqhrg","pricing_plan_id":"free"},{"bike_id":"b4dc5f58-d698-47e4-9d04-a65a1aac924a","system_id":"levelo_inurba_marseille","lat":43.330442,"lon":5.389148,"is_reserved":false,"is_disabled":false,"rental_uris":{"android":"levelo://app?vid=b4dc5f58-d698-47e4-9d04-a65a1aac924a","ios":"levelo://app?vid=b4dc5f58-d698-47e4-9d04-a65a1aac924a"},"vehicle_type_id":"4","last_reported":1704305365,"current_range_meters":12800,"station_id":"ce4bhr92rcd13ifvqhrg","pricing_plan_id":"free"},{"bike_id":"30f17bdc-307e-4af5-93a8-40e881cc5560","system_id":"levelo_inurba_marseille","lat":43.297815,"lon":5.393548,"is_reserved":false,"is_disabled":false,"rental_uris":{"android":"levelo://app?vid=30f17bdc-307e-4af5-93a8-40e881cc5560","ios":"levelo://app?vid=30f17bdc-307e-4af5-93a8-40e881cc5560"},"vehicle_type_id":"4","last_reported":1704305365,"current_range_meters":13200,"station_id":"chh1huq6cuj3fo74tm60","pricing_plan_id":"free"},{"bike_id":"17e0637d-515b-4c12-b1fa-5100c99dd871","system_id":"levelo_inurba_marseille","lat":43.2901,"lon":5.381269,"is_reserved":false,"is_disabled":false,"rental_uris":{"android":"levelo://app?vid=17e0637d-515b-4c12-b1fa-5100c99dd871","ios":"levelo://app?vid=17e0637d-515b-4c12-b1fa-5100c99dd871"},"vehicle_type_id":"4","last_reported":1704305365,"current_range_meters":11600,"station_id":"ce4bh4p2rcd13ifvqe1g","pricing_plan_id":"free"},{"bike_id":"bfb9dffb-5724-4ee6-9798-ce264e7aa95e","system_id":"levelo_inurba_marseille","lat":43.312609,"lon":5.401662,"is_reserved":false,"is_disabled":false,"rental_uris":{"android":"levelo://app?vid=bfb9dffb-5724-4ee6-9798-ce264e7aa95e","ios":"levelo://app?vid=bfb9dffb-5724-4ee6-9798-ce264e7aa95e"},"vehicle_type_id":"4","last_reported":1704305365,"current_range_meters":17600,"station_id":"ce4bh092rcd13ifvqd30","pricing_plan_id":"free"},{"bike_id":"c473dc02-8994-4174-a9e4-3a30dad995ff","system_id":"levelo_inurba_marseille","lat":43.33746,"lon":5.37442,"is_reserved":false,"is_disabled":false,"rental_uris":{"android":"levelo://app?vid=c473dc02-8994-4174-a9e4-3a30dad995ff","ios":"levelo://app?vid=c473dc02-8994-4174-a9e4-3a30dad995ff"},"vehicle_type_id":"4","last_reported":1704305365,"current_range_meters":28800,"station_id":"","pricing_plan_id":"free"},{"bike_id":"1ae36bbc-9b8f-4676-8221-1eb9d9d38940","system_id":"levelo_inurba_marseille","lat":43.30642,"lon":5.401031,"is_reserved":false,"is_disabled":false,"rental_uris":{"android":"levelo://app?vid=1ae36bbc-9b8f-4676-8221-1eb9d9d38940","ios":"levelo://app?vid=1ae36bbc-9b8f-4676-8221-1eb9d9d38940"},"vehicle_type_id":"4","last_reported":1704305365,"current_range_meters":14000,"station_id":"ce4bh112rcd13ifvqda0","pricing_plan_id":"free"},{"bike_id":"56eea705-8312-497c-a7a5-2d086e47098a","system_id":"levelo_inurba_marseille","lat":43.312609,"lon":5.401662,"is_reserved":false,"is_disabled":false,"rental_uris":{"android":"levelo://app?vid=56eea705-8312-497c-a7a5-2d086e47098a","ios":"levelo://app?vid=56eea705-8312-497c-a7a5-2d086e47098a"},"vehicle_type_id":"4","last_reported":1704305365,"current_range_meters":22400,"station_id":"ce4bh092rcd13ifvqd30","pricing_plan_id":"free"},{"bike_id":"87ec8c0d-76ac-4cab-ad9f-87edd892726b","system_id":"levelo_inurba_marseille","lat":43.30933,"lon":5.401483,"is_reserved":false,"is_disabled":false,"rental_uris":{"android":"levelo://app?vid=87ec8c0d-76ac-4cab-ad9f-87edd892726b","ios":"levelo://app?vid=87ec8c0d-76ac-4cab-ad9f-87edd892726b"},"vehicle_type_id":"4","last_reported":1704305365,"current_range_meters":0,"station_id":"ce4bgvp2rcd13ifvqct0","pricing_plan_id":"free"},{"bike_id":"2c0d1c7a-52d6-45c8-b950-66774576aada","system_id":"levelo_inurba_marseille","lat":43.33751,"lon":5.37461,"is_reserved":false,"is_disabled":false,"rental_uris":{"android":"levelo://app?vid=2c0d1c7a-52d6-45c8-b950-66774576aada","ios":"levelo://app?vid=2c0d1c7a-52d6-45c8-b950-66774576aada"},"vehicle_type_id":"4","last_reported":1704305365,"current_range_meters":27600,"station_id":"","pricing_plan_id":"free"},{"bike_id":"8436be69-9835-4bbb-8e22-574227ba5ba1","system_id":"levelo_inurba_marseille","lat":43.33755,"lon":5.37446,"is_reserved":false,"is_disabled":false,"rental_uris":{"android":"levelo://app?vid=8436be69-9835-4bbb-8e22-574227ba5ba1","ios":"levelo://app?vid=8436be69-9835-4bbb-8e22-574227ba5ba1"},"vehicle_type_id":"4","last_reported":1704305365,"current_range_meters":29600,"station_id":"","pricing_plan_id":"free"},{"bike_id":"cf21f113-3dc6-4a4d-beda-1c56139d5517","system_id":"levelo_inurba_marseille","lat":43.33758,"lon":5.37457,"is_reserved":false,"is_disabled":false,"rental_uris":{"android":"levelo://app?vid=cf21f113-3dc6-4a4d-beda-1c56139d5517","ios":"levelo://app?vid=cf21f113-3dc6-4a4d-beda-1c56139d5517"},"vehicle_type_id":"4","last_reported":1704305365,"current_range_meters":31200,"station_id":"","pricing_plan_id":"free"},{"bike_id":"d678275e-668b-4e64-ae77-467386b91e4f","system_id":"levelo_inurba_marseille","lat":43.33759,"lon":5.37457,"is_reserved":false,"is_disabled":false,"rental_uris":{"android":"levelo://app?vid=d678275e-668b-4e64-ae77-467386b91e4f","ios":"levelo://app?vid=d678275e-668b-4e64-ae77-467386b91e4f"},"vehicle_type_id":"4","last_reported":1704305365,"current_range_meters":27200,"station_id":"","pricing_plan_id":"free"},{"bike_id":"aeab805d-6589-4a36-b46b-0b59a5b3bea3","system_id":"levelo_inurba_marseille","lat":43.306412,"lon":5.401035,"is_reserved":false,"is_disabled":false,"rental_uris":{"android":"levelo://app?vid=aeab805d-6589-4a36-b46b-0b59a5b3bea3","ios":"levelo://app?vid=aeab805d-6589-4a36-b46b-0b59a5b3bea3"},"vehicle_type_id":"4","last_reported":1704305365,"current_range_meters":0,"station_id":"ce4bh112rcd13ifvqda0","pricing_plan_id":"free"},{"bike_id":"61869b28-2304-40e9-853d-3335bc65c896","system_id":"levelo_inurba_marseille","lat":43.301117,"lon":5.398795,"is_reserved":false,"is_disabled":false,"rental_uris":{"android":"levelo://app?vid=61869b28-2304-40e9-853d-3335bc65c896","ios":"levelo://app?vid=61869b28-2304-40e9-853d-3335bc65c896"},"vehicle_type_id":"4","last_reported":1704305365,"current_range_meters":18000,"station_id":"ce4bh0h2rcd13ifvqd40","pricing_plan_id":"free"},{"bike_id":"f963ecae-ccdf-4b8b-8e48-49346eba778a","system_id":"levelo_inurba_marseille","lat":43.28727,"lon":5.36078,"is_reserved":false,"is_disabled":false,"rental_uris":{"android":"levelo://app?vid=f963ecae-ccdf-4b8b-8e48-49346eba778a","ios":"levelo://app?vid=f963ecae-ccdf-4b8b-8e48-49346eba778a"},"vehicle_type_id":"4","last_reported":1704305365,"current_range_meters":7600,"station_id":"cki0cbj6b192h4jlfktg","pricing_plan_id":"free"},{"bike_id":"b896c28b-8222-419c-94f7-2c9bc6c4b90e","system_id":"levelo_inurba_marseille","lat":43.28674,"lon":5.3635,"is_reserved":false,"is_disabled":false,"rental_uris":{"android":"levelo://app?vid=b896c28b-8222-419c-94f7-2c9bc6c4b90e","ios":"levelo://app?vid=b896c28b-8222-419c-94f7-2c9bc6c4b90e"},"vehicle_type_id":"4","last_reported":1704305365,"current_range_meters":10800,"station_id":"ce4bhah2rcd13ifvqej0","pricing_plan_id":"free"},{"bike_id":"101a1ac2-9e31-49a5-ae3a-ae697a974c7c","system_id":"levelo_inurba_marseille","lat":43.28661,"lon":5.36347,"is_reserved":false,"is_disabled":false,"rental_uris":{"android":"levelo://app?vid=101a1ac2-9e31-49a5-ae3a-ae697a974c7c","ios":"levelo://app?vid=101a1ac2-9e31-49a5-ae3a-ae697a974c7c"},"vehicle_type_id":"4","last_reported":1704305365,"current_range_meters":22800,"station_id":"ce4bhah2rcd13ifvqej0","pricing_plan_id":"free"},{"bike_id":"7276ea27-1dad-4a44-a1d7-8fa31205c513","system_id":"levelo_inurba_marseille","lat":43.286961,"lon":5.373785,"is_reserved":false,"is_disabled":false,"rental_uris":{"android":"levelo://app?vid=7276ea27-1dad-4a44-a1d7-8fa31205c513","ios":"levelo://app?vid=7276ea27-1dad-4a44-a1d7-8fa31205c513"},"vehicle_type_id":"4","last_reported":1704305365,"current_range_meters":10000,"station_id":"ce4bh3p2rcd13ifvqdq0","pricing_plan_id":"free"},{"bike_id":"3a361d87-e9bd-4f25-88f0-2a7c78163e75","system_id":"levelo_inurba_marseille","lat":43.286961,"lon":5.373785,"is_reserved":false,"is_disabled":false,"rental_uris":{"android":"levelo://app?vid=3a361d87-e9bd-4f25-88f0-2a7c78163e75","ios":"levelo://app?vid=3a361d87-e9bd-4f25-88f0-2a7c78163e75"},"vehicle_type_id":"4","last_reported":1704305365,"current_range_meters":15600,"station_id":"ce4bh3p2rcd13ifvqdq0","pricing_plan_id":"free"},{"bike_id":"41f160ee-9d8e-4960-8721-b5dc7ef09b3a","system_id":"levelo_inurba_marseille","lat":43.289307,"lon":5.38406,"is_reserved":false,"is_disabled":false,"rental_uris":{"android":"levelo://app?vid=41f160ee-9d8e-4960-8721-b5dc7ef09b3a","ios":"levelo://app?vid=41f160ee-9d8e-4960-8721-b5dc7ef09b3a"},"vehicle_type_id":"4","last_reported":1704305365,"current_range_meters":30000,"station_id":"ce4bh612rcd13ifvqe6g","pricing_plan_id":"free"},{"bike_id":"72b63d0c-1cd9-47c1-b571-947ed4e058f7","system_id":"levelo_inurba_marseille","lat":43.290345,"lon":5.38646,"is_reserved":false,"is_disabled":false,"rental_uris":{"android":"levelo://app?vid=72b63d0c-1cd9-47c1-b571-947ed4e058f7","ios":"levelo://app?vid=72b63d0c-1cd9-47c1-b571-947ed4e058f7"},"vehicle_type_id":"4","last_reported":1704305365,"current_range_meters":15600,"station_id":"ce4bh4p2rcd13ifvqe0g","pricing_plan_id":"free"},{"bike_id":"f3d17997-493c-4bca-9973-adaad84c80d6","system_id":"levelo_inurba_marseille","lat":43.290336,"lon":5.386425,"is_reserved":false,"is_disabled":false,"rental_uris":{"android":"levelo://app?vid=f3d17997-493c-4bca-9973-adaad84c80d6","ios":"levelo://app?vid=f3d17997-493c-4bca-9973-adaad84c80d6"},"vehicle_type_id":"4","last_reported":1704305365,"current_range_meters":0,"station_id":"ce4bh4p2rcd13ifvqe0g","pricing_plan_id":"free"},{"bike_id":"e1ff0fe8-4407-45a9-8aa6-58a7d8c209ca","system_id":"levelo_inurba_marseille","lat":43.290345,"lon":5.38646,"is_reserved":false,"is_disabled":false,"rental_uris":{"android":"levelo://app?vid=e1ff0fe8-4407-45a9-8aa6-58a7d8c209ca","ios":"levelo://app?vid=e1ff0fe8-4407-45a9-8aa6-58a7d8c209ca"},"vehicle_type_id":"4","last_reported":1704305365,"current_range_meters":26400,"station_id":"ce4bh4p2rcd13ifvqe0g","pricing_plan_id":"free"},{"bike_id":"adea8985-e82c-4127-a01a-49ba1ee2e129","system_id":"levelo_inurba_marseille","lat":43.2999,"lon":5.40102,"is_reserved":false,"is_disabled":false,"rental_uris":{"android":"levelo://app?vid=adea8985-e82c-4127-a01a-49ba1ee2e129","ios":"levelo://app?vid=adea8985-e82c-4127-a01a-49ba1ee2e129"},"vehicle_type_id":"4","last_reported":1704305365,"current_range_meters":0,"station_id":"","pricing_plan_id":"free"},{"bike_id":"66014ab3-c834-41de-9fd7-9050abfbee5a","system_id":"levelo_inurba_marseille","lat":43.29195,"lon":5.39329,"is_reserved":false,"is_disabled":false,"rental_uris":{"android":"levelo://app?vid=66014ab3-c834-41de-9fd7-9050abfbee5a","ios":"levelo://app?vid=66014ab3-c834-41de-9fd7-9050abfbee5a"},"vehicle_type_id":"4","last_reported":1704305365,"current_range_meters":23600,"station_id":"ce4bh192rcd13ifvqdd0","pricing_plan_id":"free"},{"bike_id":"04a80cc4-df17-4a29-96b3-50cc9e178e21","system_id":"levelo_inurba_marseille","lat":43.29192,"lon":5.39326,"is_reserved":false,"is_disabled":false,"rental_uris":{"android":"levelo://app?vid=04a80cc4-df17-4a29-96b3-50cc9e178e21","ios":"levelo://app?vid=04a80cc4-df17-4a29-96b3-50cc9e178e21"},"vehicle_type_id":"4","last_reported":1704305365,"current_range_meters":16000,"station_id":"ce4bh192rcd13ifvqdd0","pricing_plan_id":"free"},{"bike_id":"433287b5-119b-45b2-aaba-c16ca0f4ce3b","system_id":"levelo_inurba_marseille","lat":43.284538,"lon":5.358657,"is_reserved":false,"is_disabled":false,"rental_uris":{"android":"levelo://app?vid=433287b5-119b-45b2-aaba-c16ca0f4ce3b","ios":"levelo://app?vid=433287b5-119b-45b2-aaba-c16ca0f4ce3b"},"vehicle_type_id":"4","last_reported":1704305365,"current_range_meters":23200,"station_id":"ce4bhah2rcd13ifvqei0","pricing_plan_id":"free"},{"bike_id":"21148d89-07ce-4f2d-b946-836e3fe295f3","system_id":"levelo_inurba_marseille","lat":43.284538,"lon":5.358657,"is_reserved":false,"is_disabled":false,"rental_uris":{"android":"levelo://app?vid=21148d89-07ce-4f2d-b946-836e3fe295f3","ios":"levelo://app?vid=21148d89-07ce-4f2d-b946-836e3fe295f3"},"vehicle_type_id":"4","last_reported":1704305365,"current_range_meters":1200,"station_id":"ce4bhah2rcd13ifvqei0","pricing_plan_id":"free"},{"bike_id":"9f7113b3-1728-4c68-81ba-7d16231fba75","system_id":"levelo_inurba_marseille","lat":43.284534,"lon":5.358662,"is_reserved":false,"is_disabled":false,"rental_uris":{"android":"levelo://app?vid=9f7113b3-1728-4c68-81ba-7d16231fba75","ios":"levelo://app?vid=9f7113b3-1728-4c68-81ba-7d16231fba75"},"vehicle_type_id":"4","last_reported":1704305365,"current_range_meters":23600,"station_id":"ce4bhah2rcd13ifvqei0","pricing_plan_id":"free"},{"bike_id":"c9e7ba4d-c3f5-4da0-adaf-4408bb675013","system_id":"levelo_inurba_marseille","lat":43.284538,"lon":5.358657,"is_reserved":false,"is_disabled":false,"rental_uris":{"android":"levelo://app?vid=c9e7ba4d-c3f5-4da0-adaf-4408bb675013","ios":"levelo://app?vid=c9e7ba4d-c3f5-4da0-adaf-4408bb675013"},"vehicle_type_id":"4","last_reported":1704305365,"current_range_meters":14400,"station_id":"ce4bhah2rcd13ifvqei0","pricing_plan_id":"free"},{"bike_id":"f622d547-b232-47d9-b80a-c475d35770ec","system_id":"levelo_inurba_marseille","lat":43.284534,"lon":5.358662,"is_reserved":false,"is_disabled":false,"rental_uris":{"android":"levelo://app?vid=f622d547-b232-47d9-b80a-c475d35770ec","ios":"levelo://app?vid=f622d547-b232-47d9-b80a-c475d35770ec"},"vehicle_type_id":"4","last_reported":1704305365,"current_range_meters":18800,"station_id":"ce4bhah2rcd13ifvqei0","pricing_plan_id":"free"},{"bike_id":"f5e25b60-ea27-4ab9-9928-3cdf9d972625","system_id":"levelo_inurba_marseille","lat":43.294314,"lon":5.397498,"is_reserved":false,"is_disabled":false,"rental_uris":{"android":"levelo://app?vid=f5e25b60-ea27-4ab9-9928-3cdf9d972625","ios":"levelo://app?vid=f5e25b60-ea27-4ab9-9928-3cdf9d972625"},"vehicle_type_id":"4","last_reported":1704305365,"current_range_meters":24400,"station_id":"ce4bh3h2rcd13ifvqdo0","pricing_plan_id":"free"},{"bike_id":"87683641-7624-4067-a8f5-5417c315ce19","system_id":"levelo_inurba_marseille","lat":43.285848,"lon":5.350787,"is_reserved":false,"is_disabled":false,"rental_uris":{"android":"levelo://app?vid=87683641-7624-4067-a8f5-5417c315ce19","ios":"levelo://app?vid=87683641-7624-4067-a8f5-5417c315ce19"},"vehicle_type_id":"4","last_reported":1704305365,"current_range_meters":13600,"station_id":"ce4bhch2rcd13ifvqeug","pricing_plan_id":"free"},{"bike_id":"e41df8c7-2972-46f1-95a6-c26e555d4a97","system_id":"levelo_inurba_marseille","lat":43.285848,"lon":5.350787,"is_reserved":false,"is_disabled":false,"rental_uris":{"android":"levelo://app?vid=e41df8c7-2972-46f1-95a6-c26e555d4a97","ios":"levelo://app?vid=e41df8c7-2972-46f1-95a6-c26e555d4a97"},"vehicle_type_id":"4","last_reported":1704305365,"current_range_meters":16000,"station_id":"ce4bhch2rcd13ifvqeug","pricing_plan_id":"free"},{"bike_id":"73d6d06e-244a-46d2-adc8-e6e586ceb96b","system_id":"levelo_inurba_marseille","lat":43.285848,"lon":5.350787,"is_reserved":false,"is_disabled":false,"rental_uris":{"android":"levelo://app?vid=73d6d06e-244a-46d2-adc8-e6e586ceb96b","ios":"levelo://app?vid=73d6d06e-244a-46d2-adc8-e6e586ceb96b"},"vehicle_type_id":"4","last_reported":1704305365,"current_range_meters":0,"station_id":"ce4bhch2rcd13ifvqeug","pricing_plan_id":"free"},{"bike_id":"9e269188-3c1a-4d97-8cf6-be5fb3c47924","system_id":"levelo_inurba_marseille","lat":43.283998,"lon":5.375062,"is_reserved":false,"is_disabled":false,"rental_uris":{"android":"levelo://app?vid=9e269188-3c1a-4d97-8cf6-be5fb3c47924","ios":"levelo://app?vid=9e269188-3c1a-4d97-8cf6-be5fb3c47924"},"vehicle_type_id":"4","last_reported":1704305365,"current_range_meters":1600,"station_id":"ce4bh412rcd13ifvqds0","pricing_plan_id":"free"},{"bike_id":"ad79288d-8191-42b2-9f70-4b4d2ce64a7d","system_id":"levelo_inurba_marseille","lat":43.283998,"lon":5.375062,"is_reserved":false,"is_disabled":false,"rental_uris":{"android":"levelo://app?vid=ad79288d-8191-42b2-9f70-4b4d2ce64a7d","ios":"levelo://app?vid=ad79288d-8191-42b2-9f70-4b4d2ce64a7d"},"vehicle_type_id":"4","last_reported":1704305365,"current_range_meters":1600,"station_id":"ce4bh412rcd13ifvqds0","pricing_plan_id":"free"},{"bike_id":"4d3a32ec-3e65-4e0a-800c-26b8b71fc7db","system_id":"levelo_inurba_marseille","lat":43.283998,"lon":5.375062,"is_reserved":false,"is_disabled":false,"rental_uris":{"android":"levelo://app?vid=4d3a32ec-3e65-4e0a-800c-26b8b71fc7db","ios":"levelo://app?vid=4d3a32ec-3e65-4e0a-800c-26b8b71fc7db"},"vehicle_type_id":"4","last_reported":1704305365,"current_range_meters":10000,"station_id":"ce4bh412rcd13ifvqds0","pricing_plan_id":"free"},{"bike_id":"ad2a5991-3832-4a27-9d86-9b301a0c299d","system_id":"levelo_inurba_marseille","lat":43.295713,"lon":5.399639,"is_reserved":false,"is_disabled":false,"rental_uris":{"android":"levelo://app?vid=ad2a5991-3832-4a27-9d86-9b301a0c299d","ios":"levelo://app?vid=ad2a5991-3832-4a27-9d86-9b301a0c299d"},"vehicle_type_id":"4","last_reported":1704305365,"current_range_meters":24800,"station_id":"ce4bh312rcd13ifvqdj0","pricing_plan_id":"free"},{"bike_id":"2cd522f0-b7c9-412f-a45c-488043d466d6","system_id":"levelo_inurba_marseille","lat":43.295713,"lon":5.399639,"is_reserved":false,"is_disabled":false,"rental_uris":{"android":"levelo://app?vid=2cd522f0-b7c9-412f-a45c-488043d466d6","ios":"levelo://app?vid=2cd522f0-b7c9-412f-a45c-488043d466d6"},"vehicle_type_id":"4","last_reported":1704305365,"current_range_meters":2800,"station_id":"ce4bh312rcd13ifvqdj0","pricing_plan_id":"free"},{"bike_id":"c33dbb63-2240-4598-ab35-43b1900c88f0","system_id":"levelo_inurba_marseille","lat":43.286595,"lon":5.386795,"is_reserved":false,"is_disabled":false,"rental_uris":{"android":"levelo://app?vid=c33dbb63-2240-4598-ab35-43b1900c88f0","ios":"levelo://app?vid=c33dbb63-2240-4598-ab35-43b1900c88f0"},"vehicle_type_id":"4","last_reported":1704305365,"current_range_meters":14800,"station_id":"ce4bh492rcd13ifvqdug","pricing_plan_id":"free"},{"bike_id":"a8d2ac8a-6a43-4ad2-82c8-a2572e278d36","system_id":"levelo_inurba_marseille","lat":43.286595,"lon":5.386795,"is_reserved":false,"is_disabled":false,"rental_uris":{"android":"levelo://app?vid=a8d2ac8a-6a43-4ad2-82c8-a2572e278d36","ios":"levelo://app?vid=a8d2ac8a-6a43-4ad2-82c8-a2572e278d36"},"vehicle_type_id":"4","last_reported":1704305365,"current_range_meters":24000,"station_id":"ce4bh492rcd13ifvqdug","pricing_plan_id":"free"},{"bike_id":"eec460a8-21c4-47fd-9a26-7963f5f1892d","system_id":"levelo_inurba_marseille","lat":43.284793,"lon":5.384113,"is_reserved":false,"is_disabled":false,"rental_uris":{"android":"levelo://app?vid=eec460a8-21c4-47fd-9a26-7963f5f1892d","ios":"levelo://app?vid=eec460a8-21c4-47fd-9a26-7963f5f1892d"},"vehicle_type_id":"4","last_reported":1704305365,"current_range_meters":28400,"station_id":"ce4bh512rcd13ifvqe3g","pricing_plan_id":"free"},{"bike_id":"af8fcdaf-d55f-4fdf-8e23-3fcaf8a4d627","system_id":"levelo_inurba_marseille","lat":43.284787,"lon":5.384116,"is_reserved":false,"is_disabled":false,"rental_uris":{"android":"levelo://app?vid=af8fcdaf-d55f-4fdf-8e23-3fcaf8a4d627","ios":"levelo://app?vid=af8fcdaf-d55f-4fdf-8e23-3fcaf8a4d627"},"vehicle_type_id":"4","last_reported":1704305365,"current_range_meters":14800,"station_id":"ce4bh512rcd13ifvqe3g","pricing_plan_id":"free"},{"bike_id":"7fe1b9f1-8509-4493-b26b-01e525183fef","system_id":"levelo_inurba_marseille","lat":43.284793,"lon":5.384119,"is_reserved":false,"is_disabled":false,"rental_uris":{"android":"levelo://app?vid=7fe1b9f1-8509-4493-b26b-01e525183fef","ios":"levelo://app?vid=7fe1b9f1-8509-4493-b26b-01e525183fef"},"vehicle_type_id":"4","last_reported":1704305365,"current_range_meters":1200,"station_id":"ce4bh512rcd13ifvqe3g","pricing_plan_id":"free"},{"bike_id":"506b1794-62de-4ed3-850d-ba62696b3a76","system_id":"levelo_inurba_marseille","lat":43.29795,"lon":5.404086,"is_reserved":false,"is_disabled":false,"rental_uris":{"android":"levelo://app?vid=506b1794-62de-4ed3-850d-ba62696b3a76","ios":"levelo://app?vid=506b1794-62de-4ed3-850d-ba62696b3a76"},"vehicle_type_id":"4","last_reported":1704305365,"current_range_meters":27200,"station_id":"ce4bh112rcd13ifvqd90","pricing_plan_id":"free"},{"bike_id":"c79bbec0-5b45-4028-aa88-b3391f12681c","system_id":"levelo_inurba_marseille","lat":43.283494,"lon":5.380945,"is_reserved":false,"is_disabled":false,"rental_uris":{"android":"levelo://app?vid=c79bbec0-5b45-4028-aa88-b3391f12681c","ios":"levelo://app?vid=c79bbec0-5b45-4028-aa88-b3391f12681c"},"vehicle_type_id":"4","last_reported":1704305365,"current_range_meters":1600,"station_id":"ce4bh412rcd13ifvqdr0","pricing_plan_id":"free"},{"bike_id":"a98304e0-e3a2-4748-90c0-981767c54353","system_id":"levelo_inurba_marseille","lat":43.283494,"lon":5.380945,"is_reserved":false,"is_disabled":false,"rental_uris":{"android":"levelo://app?vid=a98304e0-e3a2-4748-90c0-981767c54353","ios":"levelo://app?vid=a98304e0-e3a2-4748-90c0-981767c54353"},"vehicle_type_id":"4","last_reported":1704305365,"current_range_meters":31200,"station_id":"ce4bh412rcd13ifvqdr0","pricing_plan_id":"free"},{"bike_id":"66b4292d-dc98-46df-9b21-8af588de8586","system_id":"levelo_inurba_marseille","lat":43.283498,"lon":5.380948,"is_reserved":false,"is_disabled":false,"rental_uris":{"android":"levelo://app?vid=66b4292d-dc98-46df-9b21-8af588de8586","ios":"levelo://app?vid=66b4292d-dc98-46df-9b21-8af588de8586"},"vehicle_type_id":"4","last_reported":1704305365,"current_range_meters":1200,"station_id":"ce4bh412rcd13ifvqdr0","pricing_plan_id":"free"},{"bike_id":"4cc32faf-c266-4535-bdff-c42098dbefc9","system_id":"levelo_inurba_marseille","lat":43.321473,"lon":5.407925,"is_reserved":false,"is_disabled":false,"rental_uris":{"android":"levelo://app?vid=4cc32faf-c266-4535-bdff-c42098dbefc9","ios":"levelo://app?vid=4cc32faf-c266-4535-bdff-c42098dbefc9"},"vehicle_type_id":"4","last_reported":1704305365,"current_range_meters":18800,"station_id":"","pricing_plan_id":"free"},{"bike_id":"6dec6b5f-e11d-4ba0-9551-b0421749019a","system_id":"levelo_inurba_marseille","lat":43.283498,"lon":5.380948,"is_reserved":false,"is_disabled":false,"rental_uris":{"android":"levelo://app?vid=6dec6b5f-e11d-4ba0-9551-b0421749019a","ios":"levelo://app?vid=6dec6b5f-e11d-4ba0-9551-b0421749019a"},"vehicle_type_id":"4","last_reported":1704305365,"current_range_meters":7600,"station_id":"ce4bh412rcd13ifvqdr0","pricing_plan_id":"free"},{"bike_id":"b8ce5978-6a48-4d88-a427-df208c5283ae","system_id":"levelo_inurba_marseille","lat":43.289363,"lon":5.396322,"is_reserved":false,"is_disabled":false,"rental_uris":{"android":"levelo://app?vid=b8ce5978-6a48-4d88-a427-df208c5283ae","ios":"levelo://app?vid=b8ce5978-6a48-4d88-a427-df208c5283ae"},"vehicle_type_id":"4","last_reported":1704305365,"current_range_meters":16800,"station_id":"ce4bh3h2rcd13ifvqdn0","pricing_plan_id":"free"},{"bike_id":"5832db21-572b-4873-8756-388bd9479c13","system_id":"levelo_inurba_marseille","lat":43.289363,"lon":5.396322,"is_reserved":false,"is_disabled":false,"rental_uris":{"android":"levelo://app?vid=5832db21-572b-4873-8756-388bd9479c13","ios":"levelo://app?vid=5832db21-572b-4873-8756-388bd9479c13"},"vehicle_type_id":"4","last_reported":1704305365,"current_range_meters":26800,"station_id":"ce4bh3h2rcd13ifvqdn0","pricing_plan_id":"free"},{"bike_id":"d4f8d272-3905-4f55-aee3-21e2b3a5d5da","system_id":"levelo_inurba_marseille","lat":43.292724,"lon":5.401131,"is_reserved":false,"is_disabled":false,"rental_uris":{"android":"levelo://app?vid=d4f8d272-3905-4f55-aee3-21e2b3a5d5da","ios":"levelo://app?vid=d4f8d272-3905-4f55-aee3-21e2b3a5d5da"},"vehicle_type_id":"4","last_reported":1704305365,"current_range_meters":28000,"station_id":"ce4bh312rcd13ifvqdk0","pricing_plan_id":"free"},{"bike_id":"84a37b1e-82d7-488a-86fc-6e163a0ab87a","system_id":"levelo_inurba_marseille","lat":43.292724,"lon":5.401131,"is_reserved":false,"is_disabled":false,"rental_uris":{"android":"levelo://app?vid=84a37b1e-82d7-488a-86fc-6e163a0ab87a","ios":"levelo://app?vid=84a37b1e-82d7-488a-86fc-6e163a0ab87a"},"vehicle_type_id":"4","last_reported":1704305365,"current_range_meters":31200,"station_id":"ce4bh312rcd13ifvqdk0","pricing_plan_id":"free"},{"bike_id":"510fd619-84e1-4fa8-847e-adddbcbfe97a","system_id":"levelo_inurba_marseille","lat":43.292724,"lon":5.401131,"is_reserved":false,"is_disabled":false,"rental_uris":{"android":"levelo://app?vid=510fd619-84e1-4fa8-847e-adddbcbfe97a","ios":"levelo://app?vid=510fd619-84e1-4fa8-847e-adddbcbfe97a"},"vehicle_type_id":"4","last_reported":1704305365,"current_range_meters":16400,"station_id":"ce4bh312rcd13ifvqdk0","pricing_plan_id":"free"},{"bike_id":"267baa50-0276-4848-a242-733875f092cc","system_id":"levelo_inurba_marseille","lat":43.290412,"lon":5.399633,"is_reserved":false,"is_disabled":false,"rental_uris":{"android":"levelo://app?vid=267baa50-0276-4848-a242-733875f092cc","ios":"levelo://app?vid=267baa50-0276-4848-a242-733875f092cc"},"vehicle_type_id":"4","last_reported":1704305365,"current_range_meters":4400,"station_id":"ce4bh392rcd13ifvqdm0","pricing_plan_id":"free"},{"bike_id":"371a1bff-0cb3-4787-9864-d898d981e406","system_id":"levelo_inurba_marseille","lat":43.282754,"lon":5.350519,"is_reserved":false,"is_disabled":false,"rental_uris":{"android":"levelo://app?vid=371a1bff-0cb3-4787-9864-d898d981e406","ios":"levelo://app?vid=371a1bff-0cb3-4787-9864-d898d981e406"},"vehicle_type_id":"4","last_reported":1704305365,"current_range_meters":24000,"station_id":"ce4bhbp2rcd13ifvqerg","pricing_plan_id":"free"},{"bike_id":"e902b36a-ed25-455a-92d9-2bd500f575c4","system_id":"levelo_inurba_marseille","lat":43.29041,"lon":5.399634,"is_reserved":false,"is_disabled":false,"rental_uris":{"android":"levelo://app?vid=e902b36a-ed25-455a-92d9-2bd500f575c4","ios":"levelo://app?vid=e902b36a-ed25-455a-92d9-2bd500f575c4"},"vehicle_type_id":"4","last_reported":1704305365,"current_range_meters":26000,"station_id":"ce4bh392rcd13ifvqdm0","pricing_plan_id":"free"},{"bike_id":"0827ab58-d218-4b4a-9c36-b80a4fa50420","system_id":"levelo_inurba_marseille","lat":43.281044,"lon":5.378308,"is_reserved":false,"is_disabled":false,"rental_uris":{"android":"levelo://app?vid=0827ab58-d218-4b4a-9c36-b80a4fa50420","ios":"levelo://app?vid=0827ab58-d218-4b4a-9c36-b80a4fa50420"},"vehicle_type_id":"4","last_reported":1704305365,"current_range_meters":2400,"station_id":"ce4bha12rcd13ifvqee0","pricing_plan_id":"free"},{"bike_id":"d936be3c-6e62-456c-ab64-9134fc14de0a","system_id":"levelo_inurba_marseille","lat":43.281044,"lon":5.378308,"is_reserved":false,"is_disabled":false,"rental_uris":{"android":"levelo://app?vid=d936be3c-6e62-456c-ab64-9134fc14de0a","ios":"levelo://app?vid=d936be3c-6e62-456c-ab64-9134fc14de0a"},"vehicle_type_id":"4","last_reported":1704305365,"current_range_meters":0,"station_id":"ce4bha12rcd13ifvqee0","pricing_plan_id":"free"},{"bike_id":"e89b74f2-c2ac-4030-b7b0-0ee62a4abac1","system_id":"levelo_inurba_marseille","lat":43.296263,"lon":5.40601,"is_reserved":false,"is_disabled":false,"rental_uris":{"android":"levelo://app?vid=e89b74f2-c2ac-4030-b7b0-0ee62a4abac1","ios":"levelo://app?vid=e89b74f2-c2ac-4030-b7b0-0ee62a4abac1"},"vehicle_type_id":"4","last_reported":1704305365,"current_range_meters":5600,"station_id":"ce4bh0h2rcd13ifvqd60","pricing_plan_id":"free"},{"bike_id":"c7672bc4-280e-40e0-a5a0-e35bbd98a162","system_id":"levelo_inurba_marseille","lat":43.285742,"lon":5.395004,"is_reserved":false,"is_disabled":false,"rental_uris":{"android":"levelo://app?vid=c7672bc4-280e-40e0-a5a0-e35bbd98a162","ios":"levelo://app?vid=c7672bc4-280e-40e0-a5a0-e35bbd98a162"},"vehicle_type_id":"4","last_reported":1704305365,"current_range_meters":10800,"station_id":"ce4bh292rcd13ifvqdg0","pricing_plan_id":"free"},{"bike_id":"338e8182-5338-443c-8d3e-44225ddbf0ff","system_id":"levelo_inurba_marseille","lat":43.304188,"lon":5.412904,"is_reserved":false,"is_disabled":false,"rental_uris":{"android":"levelo://app?vid=338e8182-5338-443c-8d3e-44225ddbf0ff","ios":"levelo://app?vid=338e8182-5338-443c-8d3e-44225ddbf0ff"},"vehicle_type_id":"4","last_reported":1704305365,"current_range_meters":21200,"station_id":"ce4bhop2rcd13ifvqh8g","pricing_plan_id":"free"},{"bike_id":"32d85274-39a3-4836-8f4e-393af6d34740","system_id":"levelo_inurba_marseille","lat":43.304188,"lon":5.412904,"is_reserved":false,"is_disabled":false,"rental_uris":{"android":"levelo://app?vid=32d85274-39a3-4836-8f4e-393af6d34740","ios":"levelo://app?vid=32d85274-39a3-4836-8f4e-393af6d34740"},"vehicle_type_id":"4","last_reported":1704305365,"current_range_meters":3600,"station_id":"ce4bhop2rcd13ifvqh8g","pricing_plan_id":"free"},{"bike_id":"7001f7b2-08bc-4b89-826e-286daa0f7ff4","system_id":"levelo_inurba_marseille","lat":43.304188,"lon":5.412904,"is_reserved":false,"is_disabled":false,"rental_uris":{"android":"levelo://app?vid=7001f7b2-08bc-4b89-826e-286daa0f7ff4","ios":"levelo://app?vid=7001f7b2-08bc-4b89-826e-286daa0f7ff4"},"vehicle_type_id":"4","last_reported":1704305365,"current_range_meters":21600,"station_id":"ce4bhop2rcd13ifvqh8g","pricing_plan_id":"free"},{"bike_id":"8b32f731-9a8c-4c2b-9a2a-8108ef4979e2","system_id":"levelo_inurba_marseille","lat":43.304188,"lon":5.412904,"is_reserved":false,"is_disabled":false,"rental_uris":{"android":"levelo://app?vid=8b32f731-9a8c-4c2b-9a2a-8108ef4979e2","ios":"levelo://app?vid=8b32f731-9a8c-4c2b-9a2a-8108ef4979e2"},"vehicle_type_id":"4","last_reported":1704305365,"current_range_meters":28400,"station_id":"ce4bhop2rcd13ifvqh8g","pricing_plan_id":"free"},{"bike_id":"5acb9355-89a2-47b3-87c4-a4f17bb5357e","system_id":"levelo_inurba_marseille","lat":43.279087,"lon":5.380114,"is_reserved":false,"is_disabled":false,"rental_uris":{"android":"levelo://app?vid=5acb9355-89a2-47b3-87c4-a4f17bb5357e","ios":"levelo://app?vid=5acb9355-89a2-47b3-87c4-a4f17bb5357e"},"vehicle_type_id":"4","last_reported":1704305365,"current_range_meters":26000,"station_id":"ce4bhf92rcd13ifvqf50","pricing_plan_id":"free"},{"bike_id":"99b971ef-24e7-4418-a422-06f2333f702f","system_id":"levelo_inurba_marseille","lat":43.320045,"lon":5.415046,"is_reserved":false,"is_disabled":false,"rental_uris":{"android":"levelo://app?vid=99b971ef-24e7-4418-a422-06f2333f702f","ios":"levelo://app?vid=99b971ef-24e7-4418-a422-06f2333f702f"},"vehicle_type_id":"4","last_reported":1704305365,"current_range_meters":18800,"station_id":"ce4bhq92rcd13ifvqhkg","pricing_plan_id":"free"},{"bike_id":"1d7d0b44-395f-4e21-af9d-8af1ed86a5aa","system_id":"levelo_inurba_marseille","lat":43.299579,"lon":5.413255,"is_reserved":false,"is_disabled":false,"rental_uris":{"android":"levelo://app?vid=1d7d0b44-395f-4e21-af9d-8af1ed86a5aa","ios":"levelo://app?vid=1d7d0b44-395f-4e21-af9d-8af1ed86a5aa"},"vehicle_type_id":"4","last_reported":1704305365,"current_range_meters":26400,"station_id":"ce4bhp12rcd13ifvqh9g","pricing_plan_id":"free"},{"bike_id":"fa72c58f-2db4-4f60-8912-244e3fb19e05","system_id":"levelo_inurba_marseille","lat":43.320045,"lon":5.415046,"is_reserved":false,"is_disabled":false,"rental_uris":{"android":"levelo://app?vid=fa72c58f-2db4-4f60-8912-244e3fb19e05","ios":"levelo://app?vid=fa72c58f-2db4-4f60-8912-244e3fb19e05"},"vehicle_type_id":"4","last_reported":1704305365,"current_range_meters":19600,"station_id":"ce4bhq92rcd13ifvqhkg","pricing_plan_id":"free"},{"bike_id":"11fa89a0-5c70-48fd-aca2-9114c937c4b1","system_id":"levelo_inurba_marseille","lat":43.320045,"lon":5.415048,"is_reserved":false,"is_disabled":false,"rental_uris":{"android":"levelo://app?vid=11fa89a0-5c70-48fd-aca2-9114c937c4b1","ios":"levelo://app?vid=11fa89a0-5c70-48fd-aca2-9114c937c4b1"},"vehicle_type_id":"4","last_reported":1704305365,"current_range_meters":800,"station_id":"ce4bhq92rcd13ifvqhkg","pricing_plan_id":"free"},{"bike_id":"d3f25bcc-da64-44bb-8495-bf854b2f447f","system_id":"levelo_inurba_marseille","lat":43.325243,"lon":5.414326,"is_reserved":false,"is_disabled":false,"rental_uris":{"android":"levelo://app?vid=d3f25bcc-da64-44bb-8495-bf854b2f447f","ios":"levelo://app?vid=d3f25bcc-da64-44bb-8495-bf854b2f447f"},"vehicle_type_id":"4","last_reported":1704305365,"current_range_meters":2000,"station_id":"ce4bhq12rcd13ifvqhhg","pricing_plan_id":"free"},{"bike_id":"4c7f4829-27bf-44ad-b4ff-99eba7fde8b1","system_id":"levelo_inurba_marseille","lat":43.292569,"lon":5.409107,"is_reserved":false,"is_disabled":false,"rental_uris":{"android":"levelo://app?vid=4c7f4829-27bf-44ad-b4ff-99eba7fde8b1","ios":"levelo://app?vid=4c7f4829-27bf-44ad-b4ff-99eba7fde8b1"},"vehicle_type_id":"4","last_reported":1704305365,"current_range_meters":24400,"station_id":"ce4bh192rcd13ifvqdc0","pricing_plan_id":"free"},{"bike_id":"50343c6a-938f-4736-84d6-8fdbf4cbee54","system_id":"levelo_inurba_marseille","lat":43.27613,"lon":5.36104,"is_reserved":false,"is_disabled":false,"rental_uris":{"android":"levelo://app?vid=50343c6a-938f-4736-84d6-8fdbf4cbee54","ios":"levelo://app?vid=50343c6a-938f-4736-84d6-8fdbf4cbee54"},"vehicle_type_id":"4","last_reported":1704305365,"current_range_meters":12800,"station_id":"ce4bgj92rcd13ifvqbe0","pricing_plan_id":"free"},{"bike_id":"878989f4-64e5-45eb-97fd-e2c865789826","system_id":"levelo_inurba_marseille","lat":43.280784,"lon":5.396622,"is_reserved":false,"is_disabled":false,"rental_uris":{"android":"levelo://app?vid=878989f4-64e5-45eb-97fd-e2c865789826","ios":"levelo://app?vid=878989f4-64e5-45eb-97fd-e2c865789826"},"vehicle_type_id":"4","last_reported":1704305365,"current_range_meters":24800,"station_id":"ce4bho12rcd13ifvqh2g","pricing_plan_id":"free"},{"bike_id":"8a7d69a0-3a00-43b5-a7ef-6280cd9cfb17","system_id":"levelo_inurba_marseille","lat":43.278401,"lon":5.392152,"is_reserved":false,"is_disabled":false,"rental_uris":{"android":"levelo://app?vid=8a7d69a0-3a00-43b5-a7ef-6280cd9cfb17","ios":"levelo://app?vid=8a7d69a0-3a00-43b5-a7ef-6280cd9cfb17"},"vehicle_type_id":"4","last_reported":1704305365,"current_range_meters":5200,"station_id":"ce4bhjp2rcd13ifvqga0","pricing_plan_id":"free"},{"bike_id":"907ee8b8-eb86-4c5e-a17a-6fe347ded10a","system_id":"levelo_inurba_marseille","lat":43.273613,"lon":5.362705,"is_reserved":false,"is_disabled":false,"rental_uris":{"android":"levelo://app?vid=907ee8b8-eb86-4c5e-a17a-6fe347ded10a","ios":"levelo://app?vid=907ee8b8-eb86-4c5e-a17a-6fe347ded10a"},"vehicle_type_id":"4","last_reported":1704305365,"current_range_meters":0,"station_id":"ce4bhbh2rcd13ifvqeo0","pricing_plan_id":"free"},{"bike_id":"f0eeea5a-9e2c-464f-8c13-6e5c418b877b","system_id":"levelo_inurba_marseille","lat":43.317121,"lon":5.423936,"is_reserved":false,"is_disabled":false,"rental_uris":{"android":"levelo://app?vid=f0eeea5a-9e2c-464f-8c13-6e5c418b877b","ios":"levelo://app?vid=f0eeea5a-9e2c-464f-8c13-6e5c418b877b"},"vehicle_type_id":"4","last_reported":1704305365,"current_range_meters":6800,"station_id":"ce4bhp92rcd13ifvqhbg","pricing_plan_id":"free"},{"bike_id":"4cd6c5e9-b385-4fe7-8022-3b52bb9e1d40","system_id":"levelo_inurba_marseille","lat":43.317121,"lon":5.423936,"is_reserved":false,"is_disabled":false,"rental_uris":{"android":"levelo://app?vid=4cd6c5e9-b385-4fe7-8022-3b52bb9e1d40","ios":"levelo://app?vid=4cd6c5e9-b385-4fe7-8022-3b52bb9e1d40"},"vehicle_type_id":"4","last_reported":1704305365,"current_range_meters":12000,"station_id":"ce4bhp92rcd13ifvqhbg","pricing_plan_id":"free"},{"bike_id":"dba161a3-eca7-47af-a2d7-c8f705dd51be","system_id":"levelo_inurba_marseille","lat":43.317121,"lon":5.423936,"is_reserved":false,"is_disabled":false,"rental_uris":{"android":"levelo://app?vid=dba161a3-eca7-47af-a2d7-c8f705dd51be","ios":"levelo://app?vid=dba161a3-eca7-47af-a2d7-c8f705dd51be"},"vehicle_type_id":"4","last_reported":1704305365,"current_range_meters":2800,"station_id":"ce4bhp92rcd13ifvqhbg","pricing_plan_id":"free"},{"bike_id":"5e3452d0-bbc8-463b-8852-ec98e809d5a0","system_id":"levelo_inurba_marseille","lat":43.317121,"lon":5.423936,"is_reserved":false,"is_disabled":false,"rental_uris":{"android":"levelo://app?vid=5e3452d0-bbc8-463b-8852-ec98e809d5a0","ios":"levelo://app?vid=5e3452d0-bbc8-463b-8852-ec98e809d5a0"},"vehicle_type_id":"4","last_reported":1704305365,"current_range_meters":31600,"station_id":"ce4bhp92rcd13ifvqhbg","pricing_plan_id":"free"},{"bike_id":"d77951a7-3cab-4a7a-920c-f716d44755f3","system_id":"levelo_inurba_marseille","lat":43.317121,"lon":5.423936,"is_reserved":false,"is_disabled":false,"rental_uris":{"android":"levelo://app?vid=d77951a7-3cab-4a7a-920c-f716d44755f3","ios":"levelo://app?vid=d77951a7-3cab-4a7a-920c-f716d44755f3"},"vehicle_type_id":"4","last_reported":1704305365,"current_range_meters":20000,"station_id":"ce4bhp92rcd13ifvqhbg","pricing_plan_id":"free"},{"bike_id":"e920f369-09be-4ca3-951b-777826d116a5","system_id":"levelo_inurba_marseille","lat":43.340804,"lon":5.410219,"is_reserved":false,"is_disabled":false,"rental_uris":{"android":"levelo://app?vid=e920f369-09be-4ca3-951b-777826d116a5","ios":"levelo://app?vid=e920f369-09be-4ca3-951b-777826d116a5"},"vehicle_type_id":"4","last_reported":1704305365,"current_range_meters":31200,"station_id":"ce4bhqh2rcd13ifvqhlg","pricing_plan_id":"free"},{"bike_id":"80514927-1566-4f1d-8fa1-c2b0908e41d0","system_id":"levelo_inurba_marseille","lat":43.304096,"lon":5.425385,"is_reserved":false,"is_disabled":false,"rental_uris":{"android":"levelo://app?vid=80514927-1566-4f1d-8fa1-c2b0908e41d0","ios":"levelo://app?vid=80514927-1566-4f1d-8fa1-c2b0908e41d0"},"vehicle_type_id":"4","last_reported":1704305365,"current_range_meters":0,"station_id":"ce4bhoh2rcd13ifvqh6g","pricing_plan_id":"free"},{"bike_id":"2eb83be1-7a3b-4f0a-a21d-adfaf5c57b60","system_id":"levelo_inurba_marseille","lat":43.295511,"lon":5.422926,"is_reserved":false,"is_disabled":false,"rental_uris":{"android":"levelo://app?vid=2eb83be1-7a3b-4f0a-a21d-adfaf5c57b60","ios":"levelo://app?vid=2eb83be1-7a3b-4f0a-a21d-adfaf5c57b60"},"vehicle_type_id":"4","last_reported":1704305365,"current_range_meters":22800,"station_id":"ce4bhph2rcd13ifvqhdg","pricing_plan_id":"free"},{"bike_id":"273d93cf-5200-45ec-ac56-8c638a4a4194","system_id":"levelo_inurba_marseille","lat":43.27213,"lon":5.39191,"is_reserved":false,"is_disabled":false,"rental_uris":{"android":"levelo://app?vid=273d93cf-5200-45ec-ac56-8c638a4a4194","ios":"levelo://app?vid=273d93cf-5200-45ec-ac56-8c638a4a4194"},"vehicle_type_id":"4","last_reported":1704305365,"current_range_meters":21600,"station_id":"ce4bhhp2rcd13ifvqfm0","pricing_plan_id":"free"},{"bike_id":"9444579e-9cc2-4a0e-af7d-a9a15650eb74","system_id":"levelo_inurba_marseille","lat":43.272118,"lon":5.391758,"is_reserved":false,"is_disabled":false,"rental_uris":{"android":"levelo://app?vid=9444579e-9cc2-4a0e-af7d-a9a15650eb74","ios":"levelo://app?vid=9444579e-9cc2-4a0e-af7d-a9a15650eb74"},"vehicle_type_id":"4","last_reported":1704305365,"current_range_meters":24400,"station_id":"ce4bhhp2rcd13ifvqfm0","pricing_plan_id":"free"},{"bike_id":"d6c8a0e9-7468-400f-b7cd-5ed6e9b0ecb7","system_id":"levelo_inurba_marseille","lat":43.278128,"lon":5.407195,"is_reserved":false,"is_disabled":false,"rental_uris":{"android":"levelo://app?vid=d6c8a0e9-7468-400f-b7cd-5ed6e9b0ecb7","ios":"levelo://app?vid=d6c8a0e9-7468-400f-b7cd-5ed6e9b0ecb7"},"vehicle_type_id":"4","last_reported":1704305365,"current_range_meters":9200,"station_id":"ce4bhnh2rcd13ifvqgtg","pricing_plan_id":"free"},{"bike_id":"5f1de015-53a8-48b6-bfee-be00f696d103","system_id":"levelo_inurba_marseille","lat":43.278128,"lon":5.407195,"is_reserved":false,"is_disabled":false,"rental_uris":{"android":"levelo://app?vid=5f1de015-53a8-48b6-bfee-be00f696d103","ios":"levelo://app?vid=5f1de015-53a8-48b6-bfee-be00f696d103"},"vehicle_type_id":"4","last_reported":1704305365,"current_range_meters":30400,"station_id":"ce4bhnh2rcd13ifvqgtg","pricing_plan_id":"free"},{"bike_id":"37adf14d-cd86-4653-9a94-c4783c422d19","system_id":"levelo_inurba_marseille","lat":43.278128,"lon":5.407195,"is_reserved":false,"is_disabled":false,"rental_uris":{"android":"levelo://app?vid=37adf14d-cd86-4653-9a94-c4783c422d19","ios":"levelo://app?vid=37adf14d-cd86-4653-9a94-c4783c422d19"},"vehicle_type_id":"4","last_reported":1704305365,"current_range_meters":13600,"station_id":"ce4bhnh2rcd13ifvqgtg","pricing_plan_id":"free"},{"bike_id":"941565ec-3eed-4b9e-82c7-6daefa309912","system_id":"levelo_inurba_marseille","lat":43.278128,"lon":5.407195,"is_reserved":false,"is_disabled":false,"rental_uris":{"android":"levelo://app?vid=941565ec-3eed-4b9e-82c7-6daefa309912","ios":"levelo://app?vid=941565ec-3eed-4b9e-82c7-6daefa309912"},"vehicle_type_id":"4","last_reported":1704305365,"current_range_meters":19600,"station_id":"ce4bhnh2rcd13ifvqgtg","pricing_plan_id":"free"},{"bike_id":"20654629-b5ee-4e98-8864-50d0d2be908b","system_id":"levelo_inurba_marseille","lat":43.278128,"lon":5.407195,"is_reserved":false,"is_disabled":false,"rental_uris":{"android":"levelo://app?vid=20654629-b5ee-4e98-8864-50d0d2be908b","ios":"levelo://app?vid=20654629-b5ee-4e98-8864-50d0d2be908b"},"vehicle_type_id":"4","last_reported":1704305365,"current_range_meters":24800,"station_id":"ce4bhnh2rcd13ifvqgtg","pricing_plan_id":"free"},{"bike_id":"53de9f65-fa72-4495-8446-c64a74d00481","system_id":"levelo_inurba_marseille","lat":43.269467,"lon":5.386439,"is_reserved":false,"is_disabled":false,"rental_uris":{"android":"levelo://app?vid=53de9f65-fa72-4495-8446-c64a74d00481","ios":"levelo://app?vid=53de9f65-fa72-4495-8446-c64a74d00481"},"vehicle_type_id":"4","last_reported":1704305365,"current_range_meters":27200,"station_id":"ce4bhh92rcd13ifvqfh0","pricing_plan_id":"free"},{"bike_id":"f7655d05-a37a-4bf1-a7c7-0fcfd1e8693a","system_id":"levelo_inurba_marseille","lat":43.279465,"lon":5.410561,"is_reserved":false,"is_disabled":false,"rental_uris":{"android":"levelo://app?vid=f7655d05-a37a-4bf1-a7c7-0fcfd1e8693a","ios":"levelo://app?vid=f7655d05-a37a-4bf1-a7c7-0fcfd1e8693a"},"vehicle_type_id":"4","last_reported":1704305365,"current_range_meters":27200,"station_id":"ce4bhnp2rcd13ifvqh0g","pricing_plan_id":"free"},{"bike_id":"cf9d2edc-5cf9-431a-8796-d17111e69b6a","system_id":"levelo_inurba_marseille","lat":43.279465,"lon":5.410561,"is_reserved":false,"is_disabled":false,"rental_uris":{"android":"levelo://app?vid=cf9d2edc-5cf9-431a-8796-d17111e69b6a","ios":"levelo://app?vid=cf9d2edc-5cf9-431a-8796-d17111e69b6a"},"vehicle_type_id":"4","last_reported":1704305365,"current_range_meters":0,"station_id":"ce4bhnp2rcd13ifvqh0g","pricing_plan_id":"free"},{"bike_id":"9020eb81-0cfa-496e-997b-828e12c88940","system_id":"levelo_inurba_marseille","lat":43.279465,"lon":5.410561,"is_reserved":false,"is_disabled":false,"rental_uris":{"android":"levelo://app?vid=9020eb81-0cfa-496e-997b-828e12c88940","ios":"levelo://app?vid=9020eb81-0cfa-496e-997b-828e12c88940"},"vehicle_type_id":"4","last_reported":1704305365,"current_range_meters":12000,"station_id":"ce4bhnp2rcd13ifvqh0g","pricing_plan_id":"free"},{"bike_id":"84befb0d-d734-4c56-8395-817e2051692c","system_id":"levelo_inurba_marseille","lat":43.26681,"lon":5.382694,"is_reserved":false,"is_disabled":false,"rental_uris":{"android":"levelo://app?vid=84befb0d-d734-4c56-8395-817e2051692c","ios":"levelo://app?vid=84befb0d-d734-4c56-8395-817e2051692c"},"vehicle_type_id":"4","last_reported":1704305365,"current_range_meters":27200,"station_id":"ce4bhg92rcd13ifvqf90","pricing_plan_id":"free"},{"bike_id":"ab3ab1bc-0676-4392-aa76-6d79e76a20ec","system_id":"levelo_inurba_marseille","lat":43.26557,"lon":5.37283,"is_reserved":false,"is_disabled":false,"rental_uris":{"android":"levelo://app?vid=ab3ab1bc-0676-4392-aa76-6d79e76a20ec","ios":"levelo://app?vid=ab3ab1bc-0676-4392-aa76-6d79e76a20ec"},"vehicle_type_id":"4","last_reported":1704305365,"current_range_meters":21200,"station_id":"ce4bhg12rcd13ifvqf70","pricing_plan_id":"free"},{"bike_id":"c8467f24-6510-4c95-bdcd-ca858533e184","system_id":"levelo_inurba_marseille","lat":43.27996,"lon":5.416624,"is_reserved":false,"is_disabled":false,"rental_uris":{"android":"levelo://app?vid=c8467f24-6510-4c95-bdcd-ca858533e184","ios":"levelo://app?vid=c8467f24-6510-4c95-bdcd-ca858533e184"},"vehicle_type_id":"4","last_reported":1704305365,"current_range_meters":29200,"station_id":"ce4bho12rcd13ifvqh1g","pricing_plan_id":"free"},{"bike_id":"c7570391-77c0-4934-8f66-462cdf05b333","system_id":"levelo_inurba_marseille","lat":43.27996,"lon":5.416624,"is_reserved":false,"is_disabled":false,"rental_uris":{"android":"levelo://app?vid=c7570391-77c0-4934-8f66-462cdf05b333","ios":"levelo://app?vid=c7570391-77c0-4934-8f66-462cdf05b333"},"vehicle_type_id":"4","last_reported":1704305365,"current_range_meters":31200,"station_id":"ce4bho12rcd13ifvqh1g","pricing_plan_id":"free"},{"bike_id":"af8a0da0-4b97-4cb0-bc9a-09edb725ace5","system_id":"levelo_inurba_marseille","lat":43.267966,"lon":5.393976,"is_reserved":false,"is_disabled":false,"rental_uris":{"android":"levelo://app?vid=af8a0da0-4b97-4cb0-bc9a-09edb725ace5","ios":"levelo://app?vid=af8a0da0-4b97-4cb0-bc9a-09edb725ace5"},"vehicle_type_id":"4","last_reported":1704305365,"current_range_meters":16800,"station_id":"ce4bhh12rcd13ifvqfg0","pricing_plan_id":"free"},{"bike_id":"8fccf426-0fbb-4658-9e62-8cf42df4f156","system_id":"levelo_inurba_marseille","lat":43.267966,"lon":5.393976,"is_reserved":false,"is_disabled":false,"rental_uris":{"android":"levelo://app?vid=8fccf426-0fbb-4658-9e62-8cf42df4f156","ios":"levelo://app?vid=8fccf426-0fbb-4658-9e62-8cf42df4f156"},"vehicle_type_id":"4","last_reported":1704305365,"current_range_meters":0,"station_id":"ce4bhh12rcd13ifvqfg0","pricing_plan_id":"free"},{"bike_id":"4e7b82a4-f271-4a72-bdbd-460d1cfbd58d","system_id":"levelo_inurba_marseille","lat":43.27181,"lon":5.404997,"is_reserved":false,"is_disabled":false,"rental_uris":{"android":"levelo://app?vid=4e7b82a4-f271-4a72-bdbd-460d1cfbd58d","ios":"levelo://app?vid=4e7b82a4-f271-4a72-bdbd-460d1cfbd58d"},"vehicle_type_id":"4","last_reported":1704305365,"current_range_meters":800,"station_id":"ce4bhl12rcd13ifvqgf0","pricing_plan_id":"free"},{"bike_id":"c8a147d9-7221-45e7-ac71-c22f39bea382","system_id":"levelo_inurba_marseille","lat":43.308051,"lon":5.43527,"is_reserved":false,"is_disabled":false,"rental_uris":{"android":"levelo://app?vid=c8a147d9-7221-45e7-ac71-c22f39bea382","ios":"levelo://app?vid=c8a147d9-7221-45e7-ac71-c22f39bea382"},"vehicle_type_id":"4","last_reported":1704305365,"current_range_meters":400,"station_id":"ce4bhph2rcd13ifvqheg","pricing_plan_id":"free"},{"bike_id":"e7c9ecba-33b1-453a-8003-a8e1ec8d62a3","system_id":"levelo_inurba_marseille","lat":43.308051,"lon":5.43527,"is_reserved":false,"is_disabled":false,"rental_uris":{"android":"levelo://app?vid=e7c9ecba-33b1-453a-8003-a8e1ec8d62a3","ios":"levelo://app?vid=e7c9ecba-33b1-453a-8003-a8e1ec8d62a3"},"vehicle_type_id":"4","last_reported":1704305365,"current_range_meters":31600,"station_id":"ce4bhph2rcd13ifvqheg","pricing_plan_id":"free"},{"bike_id":"30ed2cb3-897e-4788-bee2-d0718a634754","system_id":"levelo_inurba_marseille","lat":43.308051,"lon":5.43527,"is_reserved":false,"is_disabled":false,"rental_uris":{"android":"levelo://app?vid=30ed2cb3-897e-4788-bee2-d0718a634754","ios":"levelo://app?vid=30ed2cb3-897e-4788-bee2-d0718a634754"},"vehicle_type_id":"4","last_reported":1704305365,"current_range_meters":1600,"station_id":"ce4bhph2rcd13ifvqheg","pricing_plan_id":"free"},{"bike_id":"dac5ea74-92f7-462e-b536-31f322bb01c0","system_id":"levelo_inurba_marseille","lat":43.331893,"lon":5.431791,"is_reserved":false,"is_disabled":false,"rental_uris":{"android":"levelo://app?vid=dac5ea74-92f7-462e-b536-31f322bb01c0","ios":"levelo://app?vid=dac5ea74-92f7-462e-b536-31f322bb01c0"},"vehicle_type_id":"4","last_reported":1704305365,"current_range_meters":0,"station_id":"","pricing_plan_id":"free"},{"bike_id":"efc6577e-927e-45c0-94b7-bad71c4aad93","system_id":"levelo_inurba_marseille","lat":43.26189,"lon":5.37444,"is_reserved":false,"is_disabled":false,"rental_uris":{"android":"levelo://app?vid=efc6577e-927e-45c0-94b7-bad71c4aad93","ios":"levelo://app?vid=efc6577e-927e-45c0-94b7-bad71c4aad93"},"vehicle_type_id":"4","last_reported":1704305365,"current_range_meters":17600,"station_id":"ce4bhgp2rcd13ifvqfc0","pricing_plan_id":"free"},{"bike_id":"a3856c02-83b2-424a-8de2-25198868578b","system_id":"levelo_inurba_marseille","lat":43.31711,"lon":5.43707,"is_reserved":false,"is_disabled":false,"rental_uris":{"android":"levelo://app?vid=a3856c02-83b2-424a-8de2-25198868578b","ios":"levelo://app?vid=a3856c02-83b2-424a-8de2-25198868578b"},"vehicle_type_id":"4","last_reported":1704305365,"current_range_meters":31200,"station_id":"ce4bhp92rcd13ifvqhcg","pricing_plan_id":"free"},{"bike_id":"9b7bbf7d-4e0b-4227-b5a3-3608d809d9ed","system_id":"levelo_inurba_marseille","lat":43.317104,"lon":5.436818,"is_reserved":false,"is_disabled":false,"rental_uris":{"android":"levelo://app?vid=9b7bbf7d-4e0b-4227-b5a3-3608d809d9ed","ios":"levelo://app?vid=9b7bbf7d-4e0b-4227-b5a3-3608d809d9ed"},"vehicle_type_id":"4","last_reported":1704305365,"current_range_meters":12000,"station_id":"ce4bhp92rcd13ifvqhcg","pricing_plan_id":"free"},{"bike_id":"f20caa36-5b40-4ee8-ab9d-d56ce19cf853","system_id":"levelo_inurba_marseille","lat":43.26202,"lon":5.379299,"is_reserved":false,"is_disabled":false,"rental_uris":{"android":"levelo://app?vid=f20caa36-5b40-4ee8-ab9d-d56ce19cf853","ios":"levelo://app?vid=f20caa36-5b40-4ee8-ab9d-d56ce19cf853"},"vehicle_type_id":"4","last_reported":1704305365,"current_range_meters":22400,"station_id":"ce4bhjp2rcd13ifvqg90","pricing_plan_id":"free"},{"bike_id":"8f57b2b0-ebff-4ab1-91df-afa73631a1dc","system_id":"levelo_inurba_marseille","lat":43.262012,"lon":5.379307,"is_reserved":false,"is_disabled":false,"rental_uris":{"android":"levelo://app?vid=8f57b2b0-ebff-4ab1-91df-afa73631a1dc","ios":"levelo://app?vid=8f57b2b0-ebff-4ab1-91df-afa73631a1dc"},