{"last_updated":1762427365,"ttl":60,"version":"2.2","data":{"bikes":[{"bike_id":"9c46a9f5-39cb-461a-ac28-286dc216524b","system_id":"levelo_inurba_marseille","lat":43.337444,"lon":5.374475,"is_reserved":false,"is_disabled":false,"rental_uris":{"android":"levelo://app?vid=9c46a9f5-39cb-461a-ac28-286dc216524b","ios":"levelo://app?vid=9c46a9f5-39cb-461a-ac28-286dc216524b"},"vehicle_type_id":"4","last_reported":1762427365,"current_range_meters":0,"station_id":"","pricing_plan_id":"cebpf4jnsgd1na2vs0mg"},{"bike_id":"ca027186-72c6-4358-8d7a-70b219e6273a","system_id":"levelo_inurba_marseille","lat":43.350981,"lon":5.380879,"is_reserved":false,"is_disabled":false,"rental_uris":{"android":"levelo://app?vid=ca027186-72c6-4358-8d7a-70b219e6273a","ios":"levelo://app?vid=ca027186-72c6-4358-8d7a-70b219e6273a"},"vehicle_type_id":"4","last_reported":1762427365,"current_range_meters":2800,"station_id":"","pricing_plan_id":"cebpf4jnsgd1na2vs0mg"},{"bike_id":"cf558e93-6fcf-4daa-a946-56453f3c9bb3","system_id":"levelo_inurba_marseille","lat":43.241268,"lon":5.378678,"is_reserved":false,"is_disabled":false,"rental_uris":{"android":"levelo://app?vid=cf558e93-6fcf-4daa-a946-56453f3c9bb3","ios":"levelo://app?vid=cf558e93-6fcf-4daa-a946-56453f3c9bb3"},"vehicle_type_id":"4","last_reported":1762427365,"current_range_meters":3200,"station_id":"ce4bhnp2rcd13ifvqgvg","pricing_plan_id":"cebpf4jnsgd1na2vs0mg"},{"bike_id":"87f95d3b-f096-4f65-ad24-e48e0562b781","system_id":"levelo_inurba_marseille","lat":43.30126,"lon":5.39852,"is_reserved":false,"is_disabled":false,"rental_uris":{"android":"levelo://app?vid=87f95d3b-f096-4f65-ad24-e48e0562b781","ios":"levelo://app?vid=87f95d3b-f096-4f65-ad24-e48e0562b781"},"vehicle_type_id":"4","last_reported":1762427365,"current_range_meters":3200,"station_id":"ce4bh0h2rcd13ifvqd40","pricing_plan_id":"cebpf4jnsgd1na2vs0mg"},{"bike_id":"0d5a3c89-2ee1-4d7e-a426-1c7d357ba47f","system_id":"levelo_inurba_marseille","lat":43.274953,"lon":5.424532,"is_reserved":false,"is_disabled":false,"rental_uris":{"android":"levelo://app?vid=0d5a3c89-2ee1-4d7e-a426-1c7d357ba47f","ios":"levelo://app?vid=0d5a3c89-2ee1-4d7e-a426-1c7d357ba47f"},"vehicle_type_id":"4","last_reported":1762427365,"current_range_meters":4000,"station_id":"ce4bhn92rcd13ifvqgrg","pricing_plan_id":"cebpf4jnsgd1na2vs0mg"},{"bike_id":"569a4e39-6cb6-4015-9a22-e873acb2a3f2","system_id":"levelo_inurba_marseille","lat":43.284754,"lon":5.384224,"is_reserved":false,"is_disabled":false,"rental_uris":{"android":"levelo://app?vid=569a4e39-6cb6-4015-9a22-e873acb2a3f2","ios":"levelo://app?vid=569a4e39-6cb6-4015-9a22-e873acb2a3f2"},"vehicle_type_id":"4","last_reported":1762427365,"current_range_meters":4000,"station_id":"ce4bgr92rcd13ifvqc7g","pricing_plan_id":"cebpf4jnsgd1na2vs0mg"},{"bike_id":"e6299803-687a-44f7-ab77-c666f6f13b58","system_id":"levelo_inurba_marseille","lat":43.33613,"lon":5.41059,"is_reserved":false,"is_disabled":false,"rental_uris":{"android":"levelo://app?vid=e6299803-687a-44f7-ab77-c666f6f13b58","ios":"levelo://app?vid=e6299803-687a-44f7-ab77-c666f6f13b58"},"vehicle_type_id":"4","last_reported":1762427365,"current_range_meters":4400,"station_id":"ce4bhqh2rcd13ifvqhmg","pricing_plan_id":"cebpf4jnsgd1na2vs0mg"},{"bike_id":"66cedcb4-fe93-4616-95b1-547c44ca7f61","system_id":"levelo_inurba_marseille","lat":43.290186,"lon":5.381253,"is_reserved":false,"is_disabled":false,"rental_uris":{"android":"levelo://app?vid=66cedcb4-fe93-4616-95b1-547c44ca7f61","ios":"levelo://app?vid=66cedcb4-fe93-4616-95b1-547c44ca7f61"},"vehicle_type_id":"4","last_reported":1762427365,"current_range_meters":4400,"station_id":"ce4bh4p2rcd13ifvqe1g","pricing_plan_id":"cebpf4jnsgd1na2vs0mg"},{"bike_id":"5e6b5e6b-9f8a-43ab-9eb8-b69e41a6c1e6","system_id":"levelo_inurba_marseille","lat":43.225298,"lon":5.348365,"is_reserved":false,"is_disabled":false,"rental_uris":{"android":"levelo://app?vid=5e6b5e6b-9f8a-43ab-9eb8-b69e41a6c1e6","ios":"levelo://app?vid=5e6b5e6b-9f8a-43ab-9eb8-b69e41a6c1e6"},"vehicle_type_id":"4","last_reported":1762427365,"current_range_meters":4400,"station_id":"","pricing_plan_id":"cebpf4jnsgd1na2vs0mg"},{"bike_id":"dc4ed31b-8ead-46e7-badf-604d5ca8cdc2","system_id":"levelo_inurba_marseille","lat":43.28563,"lon":5.39494,"is_reserved":false,"is_disabled":false,"rental_uris":{"android":"levelo://app?vid=dc4ed31b-8ead-46e7-badf-604d5ca8cdc2","ios":"levelo://app?vid=dc4ed31b-8ead-46e7-badf-604d5ca8cdc2"},"vehicle_type_id":"4","last_reported":1762427365,"current_range_meters":4400,"station_id":"ce4bh292rcd13ifvqdg0","pricing_plan_id":"cebpf4jnsgd1na2vs0mg"},{"bike_id":"1b584201-02bf-4ab1-8dd9-7acf8c31a5c4","system_id":"levelo_inurba_marseille","lat":43.32368,"lon":5.38886,"is_reserved":false,"is_disabled":false,"rental_uris":{"android":"levelo://app?vid=1b584201-02bf-4ab1-8dd9-7acf8c31a5c4","ios":"levelo://app?vid=1b584201-02bf-4ab1-8dd9-7acf8c31a5c4"},"vehicle_type_id":"4","last_reported":1762427365,"current_range_meters":4800,"station_id":"ce4bhqp2rcd13ifvqhog","pricing_plan_id":"cebpf4jnsgd1na2vs0mg"},{"bike_id":"43241b2a-4cb5-4e4c-8865-8a8693625499","system_id":"levelo_inurba_marseille","lat":43.31286,"lon":5.37837,"is_reserved":false,"is_disabled":false,"rental_uris":{"android":"levelo://app?vid=43241b2a-4cb5-4e4c-8865-8a8693625499","ios":"levelo://app?vid=43241b2a-4cb5-4e4c-8865-8a8693625499"},"vehicle_type_id":"4","last_reported":1762427365,"current_range_meters":4800,"station_id":"","pricing_plan_id":"cebpf4jnsgd1na2vs0mg"},{"bike_id":"6b97048f-0032-49fe-ac43-a63c955d8b05","system_id":"levelo_inurba_marseille","lat":43.30174,"lon":5.372248,"is_reserved":false,"is_disabled":false,"rental_uris":{"android":"levelo://app?vid=6b97048f-0032-49fe-ac43-a63c955d8b05","ios":"levelo://app?vid=6b97048f-0032-49fe-ac43-a63c955d8b05"},"vehicle_type_id":"4","last_reported":1762427365,"current_range_meters":4800,"station_id":"","pricing_plan_id":"cebpf4jnsgd1na2vs0mg"},{"bike_id":"947d5d2b-1916-4f1b-93b7-349da74f138a","system_id":"levelo_inurba_marseille","lat":43.290183,"lon":5.381258,"is_reserved":false,"is_disabled":false,"rental_uris":{"android":"levelo://app?vid=947d5d2b-1916-4f1b-93b7-349da74f138a","ios":"levelo://app?vid=947d5d2b-1916-4f1b-93b7-349da74f138a"},"vehicle_type_id":"4","last_reported":1762427365,"current_range_meters":5600,"station_id":"","pricing_plan_id":"cebpf4jnsgd1na2vs0mg"},{"bike_id":"04ab6c61-30e4-4142-828d-5c770e5ba066","system_id":"levelo_inurba_marseille","lat":43.28951,"lon":5.39625,"is_reserved":false,"is_disabled":false,"rental_uris":{"android":"levelo://app?vid=04ab6c61-30e4-4142-828d-5c770e5ba066","ios":"levelo://app?vid=04ab6c61-30e4-4142-828d-5c770e5ba066"},"vehicle_type_id":"4","last_reported":1762427365,"current_range_meters":5600,"station_id":"ce4bh3h2rcd13ifvqdn0","pricing_plan_id":"cebpf4jnsgd1na2vs0mg"},{"bike_id":"5f731f76-9d83-42a2-9f7f-71c03353ee11","system_id":"levelo_inurba_marseille","lat":43.226788,"lon":5.415871,"is_reserved":false,"is_disabled":false,"rental_uris":{"android":"levelo://app?vid=5f731f76-9d83-42a2-9f7f-71c03353ee11","ios":"levelo://app?vid=5f731f76-9d83-42a2-9f7f-71c03353ee11"},"vehicle_type_id":"4","last_reported":1762427365,"current_range_meters":5600,"station_id":"ce4bgj92rcd13ifvqbd0","pricing_plan_id":"cebpf4jnsgd1na2vs0mg"},{"bike_id":"cd9c6c8f-813a-4b2c-b0c7-7a3265cb2fa0","system_id":"levelo_inurba_marseille","lat":43.24237,"lon":5.39322,"is_reserved":false,"is_disabled":false,"rental_uris":{"android":"levelo://app?vid=cd9c6c8f-813a-4b2c-b0c7-7a3265cb2fa0","ios":"levelo://app?vid=cd9c6c8f-813a-4b2c-b0c7-7a3265cb2fa0"},"vehicle_type_id":"4","last_reported":1762427365,"current_range_meters":6000,"station_id":"","pricing_plan_id":"cebpf4jnsgd1na2vs0mg"},{"bike_id":"9db23817-100d-4feb-906a-faeaa5a942cd","system_id":"levelo_inurba_marseille","lat":43.30542,"lon":5.3652,"is_reserved":false,"is_disabled":false,"rental_uris":{"android":"levelo://app?vid=9db23817-100d-4feb-906a-faeaa5a942cd","ios":"levelo://app?vid=9db23817-100d-4feb-906a-faeaa5a942cd"},"vehicle_type_id":"4","last_reported":1762427365,"current_range_meters":6000,"station_id":"ce4bgs12rcd13ifvqcag","pricing_plan_id":"cebpf4jnsgd1na2vs0mg"},{"bike_id":"88c6174e-347b-46fd-bb97-b08f443e1027","system_id":"levelo_inurba_marseille","lat":43.30163,"lon":5.38079,"is_reserved":false,"is_disabled":false,"rental_uris":{"android":"levelo://app?vid=88c6174e-347b-46fd-bb97-b08f443e1027","ios":"levelo://app?vid=88c6174e-347b-46fd-bb97-b08f443e1027"},"vehicle_type_id":"4","last_reported":1762427365,"current_range_meters":6000,"station_id":"","pricing_plan_id":"cebpf4jnsgd1na2vs0mg"},{"bike_id":"251f7c2a-303f-44e1-a78a-32dc1bc5f1e9","system_id":"levelo_inurba_marseille","lat":43.261995,"lon":5.37448,"is_reserved":false,"is_disabled":false,"rental_uris":{"android":"levelo://app?vid=251f7c2a-303f-44e1-a78a-32dc1bc5f1e9","ios":"levelo://app?vid=251f7c2a-303f-44e1-a78a-32dc1bc5f1e9"},"vehicle_type_id":"4","last_reported":1762427365,"current_range_meters":6400,"station_id":"ce4bhgp2rcd13ifvqfc0","pricing_plan_id":"cebpf4jnsgd1na2vs0mg"},{"bike_id":"ea4f4b84-78b0-4180-a7f8-ecb8c6182713","system_id":"levelo_inurba_marseille","lat":43.2953,"lon":5.36104,"is_reserved":false,"is_disabled":true,"rental_uris":{"android":"levelo://app?vid=ea4f4b84-78b0-4180-a7f8-ecb8c6182713","ios":"levelo://app?vid=ea4f4b84-78b0-4180-a7f8-ecb8c6182713"},"vehicle_type_id":"4","last_reported":1762427365,"current_range_meters":6400,"station_id":"","pricing_plan_id":"cebpf4jnsgd1na2vs0mg"},{"bike_id":"fbb716d0-dc0e-49d3-8d18-82e32c80eea8","system_id":"levelo_inurba_marseille","lat":43.30419,"lon":5.38883,"is_reserved":false,"is_disabled":false,"rental_uris":{"android":"levelo://app?vid=fbb716d0-dc0e-49d3-8d18-82e32c80eea8","ios":"levelo://app?vid=fbb716d0-dc0e-49d3-8d18-82e32c80eea8"},"vehicle_type_id":"4","last_reported":1762427365,"current_range_meters":6800,"station_id":"ce4bgk12rcd13ifvqbi0","pricing_plan_id":"cebpf4jnsgd1na2vs0mg"},{"bike_id":"36dadbf7-a228-4f6f-8b08-391008b68693","system_id":"levelo_inurba_marseille","lat":43.34545,"lon":5.36848,"is_reserved":false,"is_disabled":false,"rental_uris":{"android":"levelo://app?vid=36dadbf7-a228-4f6f-8b08-391008b68693","ios":"levelo://app?vid=36dadbf7-a228-4f6f-8b08-391008b68693"},"vehicle_type_id":"4","last_reported":1762427365,"current_range_meters":7200,"station_id":"","pricing_plan_id":"cebpf4jnsgd1na2vs0mg"},{"bike_id":"76fb4239-14d1-43ff-83ea-0276c7fd8878","system_id":"levelo_inurba_marseille","lat":43.26939,"lon":5.40246,"is_reserved":false,"is_disabled":false,"rental_uris":{"android":"levelo://app?vid=76fb4239-14d1-43ff-83ea-0276c7fd8878","ios":"levelo://app?vid=76fb4239-14d1-43ff-83ea-0276c7fd8878"},"vehicle_type_id":"4","last_reported":1762427365,"current_range_meters":7200,"station_id":"cjm6bp8fraef2m0cb0m0","pricing_plan_id":"cebpf4jnsgd1na2vs0mg"},{"bike_id":"765b9661-2b24-4c0f-a9fb-732d7409b10c","system_id":"levelo_inurba_marseille","lat":43.21614,"lon":5.34431,"is_reserved":false,"is_disabled":false,"rental_uris":{"android":"levelo://app?vid=765b9661-2b24-4c0f-a9fb-732d7409b10c","ios":"levelo://app?vid=765b9661-2b24-4c0f-a9fb-732d7409b10c"},"vehicle_type_id":"4","last_reported":1762427365,"current_range_meters":7200,"station_id":"","pricing_plan_id":"cebpf4jnsgd1na2vs0mg"},{"bike_id":"e7002296-a724-4792-9c77-9aa7da662e7d","system_id":"levelo_inurba_marseille","lat":43.29752,"lon":5.36248,"is_reserved":false,"is_disabled":false,"rental_uris":{"android":"levelo://app?vid=e7002296-a724-4792-9c77-9aa7da662e7d","ios":"levelo://app?vid=e7002296-a724-4792-9c77-9aa7da662e7d"},"vehicle_type_id":"4","last_reported":1762427365,"current_range_meters":7200,"station_id":"","pricing_plan_id":"cebpf4jnsgd1na2vs0mg"},{"bike_id":"dcd7cc05-09ca-451c-b5c3-aec30ed844a3","system_id":"levelo_inurba_marseille","lat":43.29476,"lon":5.4273,"is_reserved":false,"is_disabled":false,"rental_uris":{"android":"levelo://app?vid=dcd7cc05-09ca-451c-b5c3-aec30ed844a3","ios":"levelo://app?vid=dcd7cc05-09ca-451c-b5c3-aec30ed844a3"},"vehicle_type_id":"4","last_reported":1762427365,"current_range_meters":8000,"station_id":"","pricing_plan_id":"cebpf4jnsgd1na2vs0mg"},{"bike_id":"749cc324-84d4-40c7-923c-1f318d41020d","system_id":"levelo_inurba_marseille","lat":43.29755,"lon":5.38116,"is_reserved":false,"is_disabled":false,"rental_uris":{"android":"levelo://app?vid=749cc324-84d4-40c7-923c-1f318d41020d","ios":"levelo://app?vid=749cc324-84d4-40c7-923c-1f318d41020d"},"vehicle_type_id":"4","last_reported":1762427365,"current_range_meters":8000,"station_id":"","pricing_plan_id":"cebpf4jnsgd1na2vs0mg"},{"bike_id":"3fa7c643-4927-4ee3-8da1-aa3907877685","system_id":"levelo_inurba_marseille","lat":43.24644,"lon":5.43152,"is_reserved":false,"is_disabled":false,"rental_uris":{"android":"levelo://app?vid=3fa7c643-4927-4ee3-8da1-aa3907877685","ios":"levelo://app?vid=3fa7c643-4927-4ee3-8da1-aa3907877685"},"vehicle_type_id":"4","last_reported":1762427365,"current_range_meters":8000,"station_id":"st_d2m6c4gdas8pm72e190g","pricing_plan_id":"cebpf4jnsgd1na2vs0mg"},{"bike_id":"ac3661dd-248f-4b92-ad04-1fbf8e5c6660","system_id":"levelo_inurba_marseille","lat":43.28028,"lon":5.36942,"is_reserved":false,"is_disabled":true,"rental_uris":{"android":"levelo://app?vid=ac3661dd-248f-4b92-ad04-1fbf8e5c6660","ios":"levelo://app?vid=ac3661dd-248f-4b92-ad04-1fbf8e5c6660"},"vehicle_type_id":"4","last_reported":1762427365,"current_range_meters":8000,"station_id":"ce4bha12rcd13ifvqef0","pricing_plan_id":"cebpf4jnsgd1na2vs0mg"},{"bike_id":"02c565c9-e1be-4475-b1a9-b37751cdb830","system_id":"levelo_inurba_marseille","lat":43.343268,"lon":5.348093,"is_reserved":false,"is_disabled":false,"rental_uris":{"android":"levelo://app?vid=02c565c9-e1be-4475-b1a9-b37751cdb830","ios":"levelo://app?vid=02c565c9-e1be-4475-b1a9-b37751cdb830"},"vehicle_type_id":"4","last_reported":1762427365,"current_range_meters":8400,"station_id":"","pricing_plan_id":"cebpf4jnsgd1na2vs0mg"},{"bike_id":"7c9b98c9-8d9e-4df8-913f-6f73074ce695","system_id":"levelo_inurba_marseille","lat":43.24997,"lon":5.3893,"is_reserved":false,"is_disabled":false,"rental_uris":{"android":"levelo://app?vid=7c9b98c9-8d9e-4df8-913f-6f73074ce695","ios":"levelo://app?vid=7c9b98c9-8d9e-4df8-913f-6f73074ce695"},"vehicle_type_id":"4","last_reported":1762427365,"current_range_meters":8400,"station_id":"ce4bhgp2rcd13ifvqfd0","pricing_plan_id":"cebpf4jnsgd1na2vs0mg"},{"bike_id":"845d160e-e7d0-4d48-b3f2-62463652b23c","system_id":"levelo_inurba_marseille","lat":43.2936,"lon":5.37827,"is_reserved":false,"is_disabled":false,"rental_uris":{"android":"levelo://app?vid=845d160e-e7d0-4d48-b3f2-62463652b23c","ios":"levelo://app?vid=845d160e-e7d0-4d48-b3f2-62463652b23c"},"vehicle_type_id":"4","last_reported":1762427365,"current_range_meters":8400,"station_id":"ce4bgjh2rcd13ifvqbf0","pricing_plan_id":"cebpf4jnsgd1na2vs0mg"},{"bike_id":"674ad490-440e-48ad-ac1c-241cb9977735","system_id":"levelo_inurba_marseille","lat":43.276184,"lon":5.361065,"is_reserved":false,"is_disabled":false,"rental_uris":{"android":"levelo://app?vid=674ad490-440e-48ad-ac1c-241cb9977735","ios":"levelo://app?vid=674ad490-440e-48ad-ac1c-241cb9977735"},"vehicle_type_id":"4","last_reported":1762427365,"current_range_meters":8400,"station_id":"ce4bgj92rcd13ifvqbe0","pricing_plan_id":"cebpf4jnsgd1na2vs0mg"},{"bike_id":"94b0c8b8-8f4c-4510-99c3-3125e8372759","system_id":"levelo_inurba_marseille","lat":43.27066,"lon":5.42275,"is_reserved":false,"is_disabled":false,"rental_uris":{"android":"levelo://app?vid=94b0c8b8-8f4c-4510-99c3-3125e8372759","ios":"levelo://app?vid=94b0c8b8-8f4c-4510-99c3-3125e8372759"},"vehicle_type_id":"4","last_reported":1762427365,"current_range_meters":8400,"station_id":"ce4bhk92rcd13ifvqgb0","pricing_plan_id":"cebpf4jnsgd1na2vs0mg"},{"bike_id":"3ed02add-87f3-41d7-bdf1-1cf82493034f","system_id":"levelo_inurba_marseille","lat":43.293176,"lon":5.383272,"is_reserved":false,"is_disabled":false,"rental_uris":{"android":"levelo://app?vid=3ed02add-87f3-41d7-bdf1-1cf82493034f","ios":"levelo://app?vid=3ed02add-87f3-41d7-bdf1-1cf82493034f"},"vehicle_type_id":"4","last_reported":1762427365,"current_range_meters":8400,"station_id":"","pricing_plan_id":"cebpf4jnsgd1na2vs0mg"},{"bike_id":"d3a8c452-bd73-4909-9cfe-f1c0285f3d0c","system_id":"levelo_inurba_marseille","lat":43.28489,"lon":5.48385,"is_reserved":false,"is_disabled":false,"rental_uris":{"android":"levelo://app?vid=d3a8c452-bd73-4909-9cfe-f1c0285f3d0c","ios":"levelo://app?vid=d3a8c452-bd73-4909-9cfe-f1c0285f3d0c"},"vehicle_type_id":"4","last_reported":1762427365,"current_range_meters":8800,"station_id":"","pricing_plan_id":"cebpf4jnsgd1na2vs0mg"},{"bike_id":"571bd3a6-912b-44a3-9841-50c558a61481","system_id":"levelo_inurba_marseille","lat":43.28121,"lon":5.40563,"is_reserved":false,"is_disabled":false,"rental_uris":{"android":"levelo://app?vid=571bd3a6-912b-44a3-9841-50c558a61481","ios":"levelo://app?vid=571bd3a6-912b-44a3-9841-50c558a61481"},"vehicle_type_id":"4","last_reported":1762427365,"current_range_meters":8800,"station_id":"","pricing_plan_id":"cebpf4jnsgd1na2vs0mg"},{"bike_id":"a80322af-ed5b-4292-a927-2fe8792435d5","system_id":"levelo_inurba_marseille","lat":43.294113,"lon":5.384709,"is_reserved":false,"is_disabled":false,"rental_uris":{"android":"levelo://app?vid=a80322af-ed5b-4292-a927-2fe8792435d5","ios":"levelo://app?vid=a80322af-ed5b-4292-a927-2fe8792435d5"},"vehicle_type_id":"4","last_reported":1762427365,"current_range_meters":8800,"station_id":"","pricing_plan_id":"cebpf4jnsgd1na2vs0mg"},{"bike_id":"12105137-9d40-4e30-a243-dec6a5ef268a","system_id":"levelo_inurba_marseille","lat":43.275,"lon":5.42454,"is_reserved":false,"is_disabled":false,"rental_uris":{"android":"levelo://app?vid=12105137-9d40-4e30-a243-dec6a5ef268a","ios":"levelo://app?vid=12105137-9d40-4e30-a243-dec6a5ef268a"},"vehicle_type_id":"4","last_reported":1762427365,"current_range_meters":9200,"station_id":"ce4bhn92rcd13ifvqgrg","pricing_plan_id":"cebpf4jnsgd1na2vs0mg"},{"bike_id":"64f03f8b-d13c-4621-b1dc-3a711ed56916","system_id":"levelo_inurba_marseille","lat":43.284852,"lon":5.384147,"is_reserved":false,"is_disabled":false,"rental_uris":{"android":"levelo://app?vid=64f03f8b-d13c-4621-b1dc-3a711ed56916","ios":"levelo://app?vid=64f03f8b-d13c-4621-b1dc-3a711ed56916"},"vehicle_type_id":"4","last_reported":1762427365,"current_range_meters":9200,"station_id":"ce4bh512rcd13ifvqe3g","pricing_plan_id":"cebpf4jnsgd1na2vs0mg"},{"bike_id":"83c8a884-e0de-47b5-9bee-f8f644bd6fd1","system_id":"levelo_inurba_marseille","lat":43.31221,"lon":5.36856,"is_reserved":false,"is_disabled":false,"rental_uris":{"android":"levelo://app?vid=83c8a884-e0de-47b5-9bee-f8f644bd6fd1","ios":"levelo://app?vid=83c8a884-e0de-47b5-9bee-f8f644bd6fd1"},"vehicle_type_id":"4","last_reported":1762427365,"current_range_meters":9600,"station_id":"ce4bgl92rcd13ifvqbq0","pricing_plan_id":"cebpf4jnsgd1na2vs0mg"},{"bike_id":"63395784-e7fa-4446-90ce-b8847f5223cc","system_id":"levelo_inurba_marseille","lat":43.33019,"lon":5.39045,"is_reserved":false,"is_disabled":false,"rental_uris":{"android":"levelo://app?vid=63395784-e7fa-4446-90ce-b8847f5223cc","ios":"levelo://app?vid=63395784-e7fa-4446-90ce-b8847f5223cc"},"vehicle_type_id":"4","last_reported":1762427365,"current_range_meters":9600,"station_id":"ce4bhr92rcd13ifvqhrg","pricing_plan_id":"cebpf4jnsgd1na2vs0mg"},{"bike_id":"f5c139c1-f011-47bb-9f24-1b1a079e2882","system_id":"levelo_inurba_marseille","lat":43.3373,"lon":5.39184,"is_reserved":false,"is_disabled":false,"rental_uris":{"android":"levelo://app?vid=f5c139c1-f011-47bb-9f24-1b1a079e2882","ios":"levelo://app?vid=f5c139c1-f011-47bb-9f24-1b1a079e2882"},"vehicle_type_id":"4","last_reported":1762427365,"current_range_meters":9600,"station_id":"ce4bhr92rcd13ifvqhsg","pricing_plan_id":"cebpf4jnsgd1na2vs0mg"},{"bike_id":"2b8d7a93-23cc-4c44-a9e8-ba127b0a2a61","system_id":"levelo_inurba_marseille","lat":43.29491,"lon":5.43306,"is_reserved":false,"is_disabled":false,"rental_uris":{"android":"levelo://app?vid=2b8d7a93-23cc-4c44-a9e8-ba127b0a2a61","ios":"levelo://app?vid=2b8d7a93-23cc-4c44-a9e8-ba127b0a2a61"},"vehicle_type_id":"4","last_reported":1762427365,"current_range_meters":9600,"station_id":"st_d3j5ugp08ojc73fj9d10","pricing_plan_id":"cebpf4jnsgd1na2vs0mg"},{"bike_id":"56e80d3a-f356-4628-b882-46a22326be33","system_id":"levelo_inurba_marseille","lat":43.295283,"lon":5.375057,"is_reserved":false,"is_disabled":false,"rental_uris":{"android":"levelo://app?vid=56e80d3a-f356-4628-b882-46a22326be33","ios":"levelo://app?vid=56e80d3a-f356-4628-b882-46a22326be33"},"vehicle_type_id":"4","last_reported":1762427365,"current_range_meters":10000,"station_id":"ce4bgkp2rcd13ifvqbmg","pricing_plan_id":"cebpf4jnsgd1na2vs0mg"},{"bike_id":"c301443d-d9f0-44ba-bd57-a48267ea9286","system_id":"levelo_inurba_marseille","lat":43.29263,"lon":5.38443,"is_reserved":false,"is_disabled":false,"rental_uris":{"android":"levelo://app?vid=c301443d-d9f0-44ba-bd57-a48267ea9286","ios":"levelo://app?vid=c301443d-d9f0-44ba-bd57-a48267ea9286"},"vehicle_type_id":"4","last_reported":1762427365,"current_range_meters":10000,"station_id":"ce4bh692rcd13ifvqea0","pricing_plan_id":"cebpf4jnsgd1na2vs0mg"},{"bike_id":"392adf48-0bd3-40ae-a29f-d7735e3d541d","system_id":"levelo_inurba_marseille","lat":43.25004,"lon":5.38927,"is_reserved":false,"is_disabled":false,"rental_uris":{"android":"levelo://app?vid=392adf48-0bd3-40ae-a29f-d7735e3d541d","ios":"levelo://app?vid=392adf48-0bd3-40ae-a29f-d7735e3d541d"},"vehicle_type_id":"4","last_reported":1762427365,"current_range_meters":10000,"station_id":"ce4bhgp2rcd13ifvqfd0","pricing_plan_id":"cebpf4jnsgd1na2vs0mg"},{"bike_id":"794b0378-7658-40ab-8f57-a84e739e60bf","system_id":"levelo_inurba_marseille","lat":43.24178,"lon":5.39744,"is_reserved":false,"is_disabled":false,"rental_uris":{"android":"levelo://app?vid=794b0378-7658-40ab-8f57-a84e739e60bf","ios":"levelo://app?vid=794b0378-7658-40ab-8f57-a84e739e60bf"},"vehicle_type_id":"4","last_reported":1762427365,"current_range_meters":10000,"station_id":"ce4bhn12rcd13ifvqgpg","pricing_plan_id":"cebpf4jnsgd1na2vs0mg"},{"bike_id":"81dcc136-dea2-46c0-98af-42dbdee92b54","system_id":"levelo_inurba_marseille","lat":43.28495,"lon":5.48391,"is_reserved":false,"is_disabled":false,"rental_uris":{"android":"levelo://app?vid=81dcc136-dea2-46c0-98af-42dbdee92b54","ios":"levelo://app?vid=81dcc136-dea2-46c0-98af-42dbdee92b54"},"vehicle_type_id":"4","last_reported":1762427365,"current_range_meters":10000,"station_id":"","pricing_plan_id":"cebpf4jnsgd1na2vs0mg"},{"bike_id":"72a98681-547d-4960-ae98-985b359b95a3","system_id":"levelo_inurba_marseille","lat":43.28656,"lon":5.36352,"is_reserved":false,"is_disabled":true,"rental_uris":{"android":"levelo://app?vid=72a98681-547d-4960-ae98-985b359b95a3","ios":"levelo://app?vid=72a98681-547d-4960-ae98-985b359b95a3"},"vehicle_type_id":"4","last_reported":1762427365,"current_range_meters":10000,"station_id":"ce4bhah2rcd13ifvqej0","pricing_plan_id":"cebpf4jnsgd1na2vs0mg"},{"bike_id":"bcb3c39b-ec48-48ef-9eac-eb8b71840959","system_id":"levelo_inurba_marseille","lat":43.33757,"lon":5.37464,"is_reserved":false,"is_disabled":false,"rental_uris":{"android":"levelo://app?vid=bcb3c39b-ec48-48ef-9eac-eb8b71840959","ios":"levelo://app?vid=bcb3c39b-ec48-48ef-9eac-eb8b71840959"},"vehicle_type_id":"4","last_reported":1762427365,"current_range_meters":10800,"station_id":"","pricing_plan_id":"cebpf4jnsgd1na2vs0mg"},{"bike_id":"341b8648-1055-4832-9a1f-322572b56071","system_id":"levelo_inurba_marseille","lat":43.312192,"lon":5.368631,"is_reserved":false,"is_disabled":false,"rental_uris":{"android":"levelo://app?vid=341b8648-1055-4832-9a1f-322572b56071","ios":"levelo://app?vid=341b8648-1055-4832-9a1f-322572b56071"},"vehicle_type_id":"4","last_reported":1762427365,"current_range_meters":10800,"station_id":"","pricing_plan_id":"cebpf4jnsgd1na2vs0mg"},{"bike_id":"98a3dabe-08f5-4eb2-9249-41b869cd84f7","system_id":"levelo_inurba_marseille","lat":43.29885,"lon":5.38894,"is_reserved":false,"is_disabled":false,"rental_uris":{"android":"levelo://app?vid=98a3dabe-08f5-4eb2-9249-41b869cd84f7","ios":"levelo://app?vid=98a3dabe-08f5-4eb2-9249-41b869cd84f7"},"vehicle_type_id":"4","last_reported":1762427365,"current_range_meters":10800,"station_id":"ce4bh392rcd13ifvqdl0","pricing_plan_id":"cebpf4jnsgd1na2vs0mg"},{"bike_id":"94b06f3e-9c43-404e-899a-d1e48d6d7a76","system_id":"levelo_inurba_marseille","lat":43.287102,"lon":5.399967,"is_reserved":false,"is_disabled":false,"rental_uris":{"android":"levelo://app?vid=94b06f3e-9c43-404e-899a-d1e48d6d7a76","ios":"levelo://app?vid=94b06f3e-9c43-404e-899a-d1e48d6d7a76"},"vehicle_type_id":"4","last_reported":1762427365,"current_range_meters":11200,"station_id":"ce4bho92rcd13ifvqh3g","pricing_plan_id":"cebpf4jnsgd1na2vs0mg"},{"bike_id":"2c89c3ed-62de-4c74-8e11-a37172c6c77b","system_id":"levelo_inurba_marseille","lat":43.22873,"lon":5.4024,"is_reserved":false,"is_disabled":false,"rental_uris":{"android":"levelo://app?vid=2c89c3ed-62de-4c74-8e11-a37172c6c77b","ios":"levelo://app?vid=2c89c3ed-62de-4c74-8e11-a37172c6c77b"},"vehicle_type_id":"4","last_reported":1762427365,"current_range_meters":11200,"station_id":"","pricing_plan_id":"cebpf4jnsgd1na2vs0mg"},{"bike_id":"b5a19005-e22f-4176-a09a-4d3aac809c5c","system_id":"levelo_inurba_marseille","lat":43.29525,"lon":5.39051,"is_reserved":false,"is_disabled":false,"rental_uris":{"android":"levelo://app?vid=b5a19005-e22f-4176-a09a-4d3aac809c5c","ios":"levelo://app?vid=b5a19005-e22f-4176-a09a-4d3aac809c5c"},"vehicle_type_id":"4","last_reported":1762427365,"current_range_meters":11200,"station_id":"ce4bh3p2rcd13ifvqdp0","pricing_plan_id":"cebpf4jnsgd1na2vs0mg"},{"bike_id":"1fbbddff-813e-4687-9fa7-ec6113731c8c","system_id":"levelo_inurba_marseille","lat":43.30808,"lon":5.38147,"is_reserved":false,"is_disabled":false,"rental_uris":{"android":"levelo://app?vid=1fbbddff-813e-4687-9fa7-ec6113731c8c","ios":"levelo://app?vid=1fbbddff-813e-4687-9fa7-ec6113731c8c"},"vehicle_type_id":"4","last_reported":1762427365,"current_range_meters":11200,"station_id":"ce4bgt12rcd13ifvqce0","pricing_plan_id":"cebpf4jnsgd1na2vs0mg"},{"bike_id":"ab0d1e41-58a9-49a9-b5b9-0c777b5e21a6","system_id":"levelo_inurba_marseille","lat":43.23179,"lon":5.39983,"is_reserved":false,"is_disabled":false,"rental_uris":{"android":"levelo://app?vid=ab0d1e41-58a9-49a9-b5b9-0c777b5e21a6","ios":"levelo://app?vid=ab0d1e41-58a9-49a9-b5b9-0c777b5e21a6"},"vehicle_type_id":"4","last_reported":1762427365,"current_range_meters":11200,"station_id":"ce4bhn12rcd13ifvqgqg","pricing_plan_id":"cebpf4jnsgd1na2vs0mg"},{"bike_id":"a715c0ef-3857-414c-967a-b5d1a542eb13","system_id":"levelo_inurba_marseille","lat":43.22539,"lon":5.34833,"is_reserved":false,"is_disabled":false,"rental_uris":{"android":"levelo://app?vid=a715c0ef-3857-414c-967a-b5d1a542eb13","ios":"levelo://app?vid=a715c0ef-3857-414c-967a-b5d1a542eb13"},"vehicle_type_id":"4","last_reported":1762427365,"current_range_meters":11600,"station_id":"","pricing_plan_id":"cebpf4jnsgd1na2vs0mg"},{"bike_id":"57eca65a-dab1-4980-9cbb-35a91c321ab2","system_id":"levelo_inurba_marseille","lat":43.293126,"lon":5.371618,"is_reserved":false,"is_disabled":false,"rental_uris":{"android":"levelo://app?vid=57eca65a-dab1-4980-9cbb-35a91c321ab2","ios":"levelo://app?vid=57eca65a-dab1-4980-9cbb-35a91c321ab2"},"vehicle_type_id":"4","last_reported":1762427365,"current_range_meters":11600,"station_id":"ce4bgh92rcd13ifvqb40","pricing_plan_id":"cebpf4jnsgd1na2vs0mg"},{"bike_id":"10e50ba9-588a-4d52-9457-57a7b25a2188","system_id":"levelo_inurba_marseille","lat":43.29023,"lon":5.38141,"is_reserved":false,"is_disabled":false,"rental_uris":{"android":"levelo://app?vid=10e50ba9-588a-4d52-9457-57a7b25a2188","ios":"levelo://app?vid=10e50ba9-588a-4d52-9457-57a7b25a2188"},"vehicle_type_id":"4","last_reported":1762427365,"current_range_meters":11600,"station_id":"ce4bh4p2rcd13ifvqe1g","pricing_plan_id":"cebpf4jnsgd1na2vs0mg"},{"bike_id":"7573b0ce-2bea-4f9b-b8d0-df9704e404a1","system_id":"levelo_inurba_marseille","lat":43.337444,"lon":5.374475,"is_reserved":false,"is_disabled":false,"rental_uris":{"android":"levelo://app?vid=7573b0ce-2bea-4f9b-b8d0-df9704e404a1","ios":"levelo://app?vid=7573b0ce-2bea-4f9b-b8d0-df9704e404a1"},"vehicle_type_id":"4","last_reported":1762427365,"current_range_meters":11600,"station_id":"","pricing_plan_id":"cebpf4jnsgd1na2vs0mg"},{"bike_id":"803262bd-cca3-4e47-9039-4bf8a4be85e1","system_id":"levelo_inurba_marseille","lat":43.292,"lon":5.35817,"is_reserved":false,"is_disabled":false,"rental_uris":{"android":"levelo://app?vid=803262bd-cca3-4e47-9039-4bf8a4be85e1","ios":"levelo://app?vid=803262bd-cca3-4e47-9039-4bf8a4be85e1"},"vehicle_type_id":"4","last_reported":1762427365,"current_range_meters":11600,"station_id":"ce4bhb12rcd13ifvqel0","pricing_plan_id":"cebpf4jnsgd1na2vs0mg"},{"bike_id":"1d99f307-5d97-4ed1-a170-da9bc108a5ad","system_id":"levelo_inurba_marseille","lat":43.29707,"lon":5.36606,"is_reserved":false,"is_disabled":false,"rental_uris":{"android":"levelo://app?vid=1d99f307-5d97-4ed1-a170-da9bc108a5ad","ios":"levelo://app?vid=1d99f307-5d97-4ed1-a170-da9bc108a5ad"},"vehicle_type_id":"4","last_reported":1762427365,"current_range_meters":12000,"station_id":"ce4bgn12rcd13ifvqbt0","pricing_plan_id":"cebpf4jnsgd1na2vs0mg"},{"bike_id":"dae30738-204c-4787-a9b5-e056fa94e0c9","system_id":"levelo_inurba_marseille","lat":43.22568,"lon":5.41617,"is_reserved":false,"is_disabled":false,"rental_uris":{"android":"levelo://app?vid=dae30738-204c-4787-a9b5-e056fa94e0c9","ios":"levelo://app?vid=dae30738-204c-4787-a9b5-e056fa94e0c9"},"vehicle_type_id":"4","last_reported":1762427365,"current_range_meters":12000,"station_id":"st_d2o4gvlbi1j2169b742g","pricing_plan_id":"cebpf4jnsgd1na2vs0mg"},{"bike_id":"c88c878c-8bbd-48f5-a7b4-9067bdef03b1","system_id":"levelo_inurba_marseille","lat":43.29748,"lon":5.42793,"is_reserved":false,"is_disabled":false,"rental_uris":{"android":"levelo://app?vid=c88c878c-8bbd-48f5-a7b4-9067bdef03b1","ios":"levelo://app?vid=c88c878c-8bbd-48f5-a7b4-9067bdef03b1"},"vehicle_type_id":"4","last_reported":1762427365,"current_range_meters":12400,"station_id":"st_d3md5207bmas73dh9klg","pricing_plan_id":"cebpf4jnsgd1na2vs0mg"},{"bike_id":"662722a9-0a20-409d-9e29-ea026abf27d5","system_id":"levelo_inurba_marseille","lat":43.28484,"lon":5.38425,"is_reserved":false,"is_disabled":false,"rental_uris":{"android":"levelo://app?vid=662722a9-0a20-409d-9e29-ea026abf27d5","ios":"levelo://app?vid=662722a9-0a20-409d-9e29-ea026abf27d5"},"vehicle_type_id":"4","last_reported":1762427365,"current_range_meters":12400,"station_id":"ce4bh512rcd13ifvqe3g","pricing_plan_id":"cebpf4jnsgd1na2vs0mg"},{"bike_id":"929999a6-b071-4278-81b4-e68a96607eec","system_id":"levelo_inurba_marseille","lat":43.24077,"lon":5.37769,"is_reserved":false,"is_disabled":false,"rental_uris":{"android":"levelo://app?vid=929999a6-b071-4278-81b4-e68a96607eec","ios":"levelo://app?vid=929999a6-b071-4278-81b4-e68a96607eec"},"vehicle_type_id":"4","last_reported":1762427365,"current_range_meters":12400,"station_id":"ce4bhnp2rcd13ifvqgvg","pricing_plan_id":"cebpf4jnsgd1na2vs0mg"},{"bike_id":"ac476264-8637-45e1-ab30-cfbe9efcde98","system_id":"levelo_inurba_marseille","lat":43.27314,"lon":5.39073,"is_reserved":false,"is_disabled":false,"rental_uris":{"android":"levelo://app?vid=ac476264-8637-45e1-ab30-cfbe9efcde98","ios":"levelo://app?vid=ac476264-8637-45e1-ab30-cfbe9efcde98"},"vehicle_type_id":"4","last_reported":1762427365,"current_range_meters":12400,"station_id":"ce4bhgp2rcd13ifvqfe0","pricing_plan_id":"cebpf4jnsgd1na2vs0mg"},{"bike_id":"c7fa03ad-0196-46a1-b737-e2faa248ee07","system_id":"levelo_inurba_marseille","lat":43.307307,"lon":5.424343,"is_reserved":false,"is_disabled":false,"rental_uris":{"android":"levelo://app?vid=c7fa03ad-0196-46a1-b737-e2faa248ee07","ios":"levelo://app?vid=c7fa03ad-0196-46a1-b737-e2faa248ee07"},"vehicle_type_id":"4","last_reported":1762427365,"current_range_meters":12400,"station_id":"","pricing_plan_id":"cebpf4jnsgd1na2vs0mg"},{"bike_id":"521434ae-95f1-407a-a9cc-551dac4b9061","system_id":"levelo_inurba_marseille","lat":43.31363,"lon":5.38488,"is_reserved":false,"is_disabled":false,"rental_uris":{"android":"levelo://app?vid=521434ae-95f1-407a-a9cc-551dac4b9061","ios":"levelo://app?vid=521434ae-95f1-407a-a9cc-551dac4b9061"},"vehicle_type_id":"4","last_reported":1762427365,"current_range_meters":12800,"station_id":"ce4bgt92rcd13ifvqcf0","pricing_plan_id":"cebpf4jnsgd1na2vs0mg"},{"bike_id":"8d00dbca-b5c1-42d2-89ba-f167016578da","system_id":"levelo_inurba_marseille","lat":43.29833,"lon":5.36299,"is_reserved":false,"is_disabled":false,"rental_uris":{"android":"levelo://app?vid=8d00dbca-b5c1-42d2-89ba-f167016578da","ios":"levelo://app?vid=8d00dbca-b5c1-42d2-89ba-f167016578da"},"vehicle_type_id":"4","last_reported":1762427365,"current_range_meters":12800,"station_id":"ce4bgpp2rcd13ifvqc3g","pricing_plan_id":"cebpf4jnsgd1na2vs0mg"},{"bike_id":"04c3a399-c083-486e-885f-acf5b072f279","system_id":"levelo_inurba_marseille","lat":43.24947,"lon":5.40494,"is_reserved":false,"is_disabled":false,"rental_uris":{"android":"levelo://app?vid=04c3a399-c083-486e-885f-acf5b072f279","ios":"levelo://app?vid=04c3a399-c083-486e-885f-acf5b072f279"},"vehicle_type_id":"4","last_reported":1762427365,"current_range_meters":12800,"station_id":"","pricing_plan_id":"cebpf4jnsgd1na2vs0mg"},{"bike_id":"09ed3eb5-c2d4-4c5e-b9d1-44fb102a0a7e","system_id":"levelo_inurba_marseille","lat":43.22567,"lon":5.41631,"is_reserved":false,"is_disabled":false,"rental_uris":{"android":"levelo://app?vid=09ed3eb5-c2d4-4c5e-b9d1-44fb102a0a7e","ios":"levelo://app?vid=09ed3eb5-c2d4-4c5e-b9d1-44fb102a0a7e"},"vehicle_type_id":"4","last_reported":1762427365,"current_range_meters":12800,"station_id":"st_d2o4gvlbi1j2169b742g","pricing_plan_id":"cebpf4jnsgd1na2vs0mg"},{"bike_id":"58b563fa-4d8e-412e-a312-e3020dea96d9","system_id":"levelo_inurba_marseille","lat":43.27057,"lon":5.40263,"is_reserved":false,"is_disabled":false,"rental_uris":{"android":"levelo://app?vid=58b563fa-4d8e-412e-a312-e3020dea96d9","ios":"levelo://app?vid=58b563fa-4d8e-412e-a312-e3020dea96d9"},"vehicle_type_id":"4","last_reported":1762427365,"current_range_meters":12800,"station_id":"ce4bhk92rcd13ifvqgc0","pricing_plan_id":"cebpf4jnsgd1na2vs0mg"},{"bike_id":"5180e33c-da23-4be7-9567-9d1f5ac3f100","system_id":"levelo_inurba_marseille","lat":43.30552,"lon":5.36529,"is_reserved":false,"is_disabled":false,"rental_uris":{"android":"levelo://app?vid=5180e33c-da23-4be7-9567-9d1f5ac3f100","ios":"levelo://app?vid=5180e33c-da23-4be7-9567-9d1f5ac3f100"},"vehicle_type_id":"4","last_reported":1762427365,"current_range_meters":12800,"station_id":"ce4bgs12rcd13ifvqcag","pricing_plan_id":"cebpf4jnsgd1na2vs0mg"},{"bike_id":"d0b0b105-0a96-4a93-973d-2149e05c5d66","system_id":"levelo_inurba_marseille","lat":43.301518,"lon":5.380991,"is_reserved":false,"is_disabled":false,"rental_uris":{"android":"levelo://app?vid=d0b0b105-0a96-4a93-973d-2149e05c5d66","ios":"levelo://app?vid=d0b0b105-0a96-4a93-973d-2149e05c5d66"},"vehicle_type_id":"4","last_reported":1762427365,"current_range_meters":12800,"station_id":"ce4bgjp2rcd13ifvqbh0","pricing_plan_id":"cebpf4jnsgd1na2vs0mg"},{"bike_id":"bd3d6166-ef12-455e-9330-7bbb61173a8e","system_id":"levelo_inurba_marseille","lat":43.29852,"lon":5.36288,"is_reserved":false,"is_disabled":false,"rental_uris":{"android":"levelo://app?vid=bd3d6166-ef12-455e-9330-7bbb61173a8e","ios":"levelo://app?vid=bd3d6166-ef12-455e-9330-7bbb61173a8e"},"vehicle_type_id":"4","last_reported":1762427365,"current_range_meters":13600,"station_id":"ce4bgpp2rcd13ifvqc3g","pricing_plan_id":"cebpf4jnsgd1na2vs0mg"},{"bike_id":"56d34c6d-4b17-45a3-8855-f46cd66b0e07","system_id":"levelo_inurba_marseille","lat":43.24077,"lon":5.37765,"is_reserved":false,"is_disabled":false,"rental_uris":{"android":"levelo://app?vid=56d34c6d-4b17-45a3-8855-f46cd66b0e07","ios":"levelo://app?vid=56d34c6d-4b17-45a3-8855-f46cd66b0e07"},"vehicle_type_id":"4","last_reported":1762427365,"current_range_meters":13600,"station_id":"ce4bhnp2rcd13ifvqgvg","pricing_plan_id":"cebpf4jnsgd1na2vs0mg"},{"bike_id":"bb1b1199-0aff-4e93-9dcc-486912ec5f57","system_id":"levelo_inurba_marseille","lat":43.24172,"lon":5.39725,"is_reserved":false,"is_disabled":false,"rental_uris":{"android":"levelo://app?vid=bb1b1199-0aff-4e93-9dcc-486912ec5f57","ios":"levelo://app?vid=bb1b1199-0aff-4e93-9dcc-486912ec5f57"},"vehicle_type_id":"4","last_reported":1762427365,"current_range_meters":13600,"station_id":"ce4bhn12rcd13ifvqgpg","pricing_plan_id":"cebpf4jnsgd1na2vs0mg"},{"bike_id":"ab9b2bcc-ea75-449d-adbb-4add292d38c4","system_id":"levelo_inurba_marseille","lat":43.34014,"lon":5.38403,"is_reserved":false,"is_disabled":false,"rental_uris":{"android":"levelo://app?vid=ab9b2bcc-ea75-449d-adbb-4add292d38c4","ios":"levelo://app?vid=ab9b2bcc-ea75-449d-adbb-4add292d38c4"},"vehicle_type_id":"4","last_reported":1762427365,"current_range_meters":13600,"station_id":"","pricing_plan_id":"cebpf4jnsgd1na2vs0mg"},{"bike_id":"80263a0e-9653-475d-a31a-06390ffd363c","system_id":"levelo_inurba_marseille","lat":43.24633,"lon":5.43144,"is_reserved":false,"is_disabled":false,"rental_uris":{"android":"levelo://app?vid=80263a0e-9653-475d-a31a-06390ffd363c","ios":"levelo://app?vid=80263a0e-9653-475d-a31a-06390ffd363c"},"vehicle_type_id":"4","last_reported":1762427365,"current_range_meters":13600,"station_id":"st_d2m6c4gdas8pm72e190g","pricing_plan_id":"cebpf4jnsgd1na2vs0mg"},{"bike_id":"59b31ef2-3fe3-46e5-b5a5-685f264695ce","system_id":"levelo_inurba_marseille","lat":43.28479,"lon":5.48398,"is_reserved":false,"is_disabled":false,"rental_uris":{"android":"levelo://app?vid=59b31ef2-3fe3-46e5-b5a5-685f264695ce","ios":"levelo://app?vid=59b31ef2-3fe3-46e5-b5a5-685f264695ce"},"vehicle_type_id":"4","last_reported":1762427365,"current_range_meters":13600,"station_id":"","pricing_plan_id":"cebpf4jnsgd1na2vs0mg"},{"bike_id":"3ffe2c7b-f27f-49bd-95c3-0ecfbf0880d2","system_id":"levelo_inurba_marseille","lat":43.30695,"lon":5.38419,"is_reserved":false,"is_disabled":false,"rental_uris":{"android":"levelo://app?vid=3ffe2c7b-f27f-49bd-95c3-0ecfbf0880d2","ios":"levelo://app?vid=3ffe2c7b-f27f-49bd-95c3-0ecfbf0880d2"},"vehicle_type_id":"4","last_reported":1762427365,"current_range_meters":13600,"station_id":"","pricing_plan_id":"cebpf4jnsgd1na2vs0mg"},{"bike_id":"71967476-752a-4f5e-b222-99c0eea95f39","system_id":"levelo_inurba_marseille","lat":43.32303,"lon":5.38423,"is_reserved":false,"is_disabled":false,"rental_uris":{"android":"levelo://app?vid=71967476-752a-4f5e-b222-99c0eea95f39","ios":"levelo://app?vid=71967476-752a-4f5e-b222-99c0eea95f39"},"vehicle_type_id":"4","last_reported":1762427365,"current_range_meters":13600,"station_id":"","pricing_plan_id":"cebpf4jnsgd1na2vs0mg"},{"bike_id":"309562ed-3b43-444b-8ecd-08e28fd84afa","system_id":"levelo_inurba_marseille","lat":43.24806,"lon":5.37456,"is_reserved":false,"is_disabled":false,"rental_uris":{"android":"levelo://app?vid=309562ed-3b43-444b-8ecd-08e28fd84afa","ios":"levelo://app?vid=309562ed-3b43-444b-8ecd-08e28fd84afa"},"vehicle_type_id":"4","last_reported":1762427365,"current_range_meters":14000,"station_id":"ce4bhgh2rcd13ifvqfb0","pricing_plan_id":"cebpf4jnsgd1na2vs0mg"},{"bike_id":"71780e99-fa28-419a-90c0-bdb3d098d5ca","system_id":"levelo_inurba_marseille","lat":43.3015,"lon":5.38063,"is_reserved":false,"is_disabled":false,"rental_uris":{"android":"levelo://app?vid=71780e99-fa28-419a-90c0-bdb3d098d5ca","ios":"levelo://app?vid=71780e99-fa28-419a-90c0-bdb3d098d5ca"},"vehicle_type_id":"4","last_reported":1762427365,"current_range_meters":14000,"station_id":"ce4bgjp2rcd13ifvqbh0","pricing_plan_id":"cebpf4jnsgd1na2vs0mg"},{"bike_id":"ea3493ac-549f-4563-8ebc-3496272766af","system_id":"levelo_inurba_marseille","lat":43.2622,"lon":5.37919,"is_reserved":false,"is_disabled":false,"rental_uris":{"android":"levelo://app?vid=ea3493ac-549f-4563-8ebc-3496272766af","ios":"levelo://app?vid=ea3493ac-549f-4563-8ebc-3496272766af"},"vehicle_type_id":"4","last_reported":1762427365,"current_range_meters":14000,"station_id":"ce4bhjp2rcd13ifvqg90","pricing_plan_id":"cebpf4jnsgd1na2vs0mg"},{"bike_id":"efb7b722-4f33-4bc3-97b8-5c629ba30431","system_id":"levelo_inurba_marseille","lat":43.29713,"lon":5.37723,"is_reserved":false,"is_disabled":false,"rental_uris":{"android":"levelo://app?vid=efb7b722-4f33-4bc3-97b8-5c629ba30431","ios":"levelo://app?vid=efb7b722-4f33-4bc3-97b8-5c629ba30431"},"vehicle_type_id":"4","last_reported":1762427365,"current_range_meters":14000,"station_id":"ce4bgkh2rcd13ifvqbl0","pricing_plan_id":"cebpf4jnsgd1na2vs0mg"},{"bike_id":"5e3412dd-2232-4a2f-a361-0045d58481df","system_id":"levelo_inurba_marseille","lat":43.33764,"lon":5.37443,"is_reserved":false,"is_disabled":false,"rental_uris":{"android":"levelo://app?vid=5e3412dd-2232-4a2f-a361-0045d58481df","ios":"levelo://app?vid=5e3412dd-2232-4a2f-a361-0045d58481df"},"vehicle_type_id":"4","last_reported":1762427365,"current_range_meters":14000,"station_id":"","pricing_plan_id":"cebpf4jnsgd1na2vs0mg"},{"bike_id":"1be15ad6-0175-4d9f-ac40-15c34d4992fa","system_id":"levelo_inurba_marseille","lat":43.24178,"lon":5.364032,"is_reserved":false,"is_disabled":false,"rental_uris":{"android":"levelo://app?vid=1be15ad6-0175-4d9f-ac40-15c34d4992fa","ios":"levelo://app?vid=1be15ad6-0175-4d9f-ac40-15c34d4992fa"},"vehicle_type_id":"4","last_reported":1762427365,"current_range_meters":14000,"station_id":"cpo36qri1sfpv3e86is0","pricing_plan_id":"cebpf4jnsgd1na2vs0mg"},{"bike_id":"9a7007ab-d863-4c92-a736-9a68d316b6cc","system_id":"levelo_inurba_marseille","lat":43.30146,"lon":5.3742,"is_reserved":false,"is_disabled":false,"rental_uris":{"android":"levelo://app?vid=9a7007ab-d863-4c92-a736-9a68d316b6cc","ios":"levelo://app?vid=9a7007ab-d863-4c92-a736-9a68d316b6cc"},"vehicle_type_id":"4","last_reported":1762427365,"current_range_meters":14400,"station_id":"ce4bgs92rcd13ifvqcc0","pricing_plan_id":"cebpf4jnsgd1na2vs0mg"},{"bike_id":"ab3a4d6b-b442-44b9-8f02-c1c222f445ba","system_id":"levelo_inurba_marseille","lat":43.27449,"lon":5.392682,"is_reserved":false,"is_disabled":false,"rental_uris":{"android":"levelo://app?vid=ab3a4d6b-b442-44b9-8f02-c1c222f445ba","ios":"levelo://app?vid=ab3a4d6b-b442-44b9-8f02-c1c222f445ba"},"vehicle_type_id":"4","last_reported":1762427365,"current_range_meters":14800,"station_id":"","pricing_plan_id":"cebpf4jnsgd1na2vs0mg"},{"bike_id":"dae6cd2e-b107-4311-909a-decb229a2b73","system_id":"levelo_inurba_marseille","lat":43.30362,"lon":5.41887,"is_reserved":false,"is_disabled":false,"rental_uris":{"android":"levelo://app?vid=dae6cd2e-b107-4311-909a-decb229a2b73","ios":"levelo://app?vid=dae6cd2e-b107-4311-909a-decb229a2b73"},"vehicle_type_id":"4","last_reported":1762427365,"current_range_meters":14800,"station_id":"ce4bhop2rcd13ifvqh7g","pricing_plan_id":"cebpf4jnsgd1na2vs0mg"},{"bike_id":"f3080d76-d1d2-442b-a61f-92b9c969ee87","system_id":"levelo_inurba_marseille","lat":43.2926,"lon":5.37604,"is_reserved":false,"is_disabled":false,"rental_uris":{"android":"levelo://app?vid=f3080d76-d1d2-442b-a61f-92b9c969ee87","ios":"levelo://app?vid=f3080d76-d1d2-442b-a61f-92b9c969ee87"},"vehicle_type_id":"4","last_reported":1762427365,"current_range_meters":14800,"station_id":"ce4bgi12rcd13ifvqb80","pricing_plan_id":"cebpf4jnsgd1na2vs0mg"},{"bike_id":"880839ab-93e8-4133-a550-b6816ee5cf48","system_id":"levelo_inurba_marseille","lat":43.25866,"lon":5.39904,"is_reserved":false,"is_disabled":false,"rental_uris":{"android":"levelo://app?vid=880839ab-93e8-4133-a550-b6816ee5cf48","ios":"levelo://app?vid=880839ab-93e8-4133-a550-b6816ee5cf48"},"vehicle_type_id":"4","last_reported":1762427365,"current_range_meters":14800,"station_id":"ce4bhl92rcd13ifvqghg","pricing_plan_id":"cebpf4jnsgd1na2vs0mg"},{"bike_id":"58913ae0-74ea-49b4-8d46-6c500447e71d","system_id":"levelo_inurba_marseille","lat":43.29876,"lon":5.37615,"is_reserved":false,"is_disabled":false,"rental_uris":{"android":"levelo://app?vid=58913ae0-74ea-49b4-8d46-6c500447e71d","ios":"levelo://app?vid=58913ae0-74ea-49b4-8d46-6c500447e71d"},"vehicle_type_id":"4","last_reported":1762427365,"current_range_meters":15200,"station_id":"","pricing_plan_id":"cebpf4jnsgd1na2vs0mg"},{"bike_id":"48c2b0b9-f598-42fb-baa7-44213ce03a52","system_id":"levelo_inurba_marseille","lat":43.231519,"lon":5.437176,"is_reserved":false,"is_disabled":false,"rental_uris":{"android":"levelo://app?vid=48c2b0b9-f598-42fb-baa7-44213ce03a52","ios":"levelo://app?vid=48c2b0b9-f598-42fb-baa7-44213ce03a52"},"vehicle_type_id":"4","last_reported":1762427365,"current_range_meters":15200,"station_id":"ce4bhmp2rcd13ifvqgog","pricing_plan_id":"cebpf4jnsgd1na2vs0mg"},{"bike_id":"d0581743-e06c-4ad1-9f8a-41b25975ba07","system_id":"levelo_inurba_marseille","lat":43.29812,"lon":5.44043,"is_reserved":false,"is_disabled":false,"rental_uris":{"android":"levelo://app?vid=d0581743-e06c-4ad1-9f8a-41b25975ba07","ios":"levelo://app?vid=d0581743-e06c-4ad1-9f8a-41b25975ba07"},"vehicle_type_id":"4","last_reported":1762427365,"current_range_meters":15200,"station_id":"st_d3jp68qikq2c7381ktn0","pricing_plan_id":"cebpf4jnsgd1na2vs0mg"},{"bike_id":"17c4ece0-0e92-4b5a-a4bd-5080bee84007","system_id":"levelo_inurba_marseille","lat":43.28568,"lon":5.39494,"is_reserved":false,"is_disabled":false,"rental_uris":{"android":"levelo://app?vid=17c4ece0-0e92-4b5a-a4bd-5080bee84007","ios":"levelo://app?vid=17c4ece0-0e92-4b5a-a4bd-5080bee84007"},"vehicle_type_id":"4","last_reported":1762427365,"current_range_meters":15200,"station_id":"ce4bh292rcd13ifvqdg0","pricing_plan_id":"cebpf4jnsgd1na2vs0mg"},{"bike_id":"90fb8975-4c34-4228-869a-efb507d720cf","system_id":"levelo_inurba_marseille","lat":43.27493,"lon":5.42455,"is_reserved":false,"is_disabled":false,"rental_uris":{"android":"levelo://app?vid=90fb8975-4c34-4228-869a-efb507d720cf","ios":"levelo://app?vid=90fb8975-4c34-4228-869a-efb507d720cf"},"vehicle_type_id":"4","last_reported":1762427365,"current_range_meters":16000,"station_id":"ce4bhn92rcd13ifvqgrg","pricing_plan_id":"cebpf4jnsgd1na2vs0mg"},{"bike_id":"ef860c1c-3e4f-49da-9f52-3ad2e51b444c","system_id":"levelo_inurba_marseille","lat":43.30553,"lon":5.36553,"is_reserved":false,"is_disabled":false,"rental_uris":{"android":"levelo://app?vid=ef860c1c-3e4f-49da-9f52-3ad2e51b444c","ios":"levelo://app?vid=ef860c1c-3e4f-49da-9f52-3ad2e51b444c"},"vehicle_type_id":"4","last_reported":1762427365,"current_range_meters":16400,"station_id":"ce4bgs12rcd13ifvqcag","pricing_plan_id":"cebpf4jnsgd1na2vs0mg"},{"bike_id":"dec507c1-6699-4a54-9215-69c5203b9f32","system_id":"levelo_inurba_marseille","lat":43.30164,"lon":5.38095,"is_reserved":false,"is_disabled":false,"rental_uris":{"android":"levelo://app?vid=dec507c1-6699-4a54-9215-69c5203b9f32","ios":"levelo://app?vid=dec507c1-6699-4a54-9215-69c5203b9f32"},"vehicle_type_id":"4","last_reported":1762427365,"current_range_meters":16400,"station_id":"ce4bgjp2rcd13ifvqbh0","pricing_plan_id":"cebpf4jnsgd1na2vs0mg"},{"bike_id":"218d47a3-c6e7-4c3c-9685-02a7ebcef396","system_id":"levelo_inurba_marseille","lat":43.25932,"lon":5.409013,"is_reserved":false,"is_disabled":false,"rental_uris":{"android":"levelo://app?vid=218d47a3-c6e7-4c3c-9685-02a7ebcef396","ios":"levelo://app?vid=218d47a3-c6e7-4c3c-9685-02a7ebcef396"},"vehicle_type_id":"4","last_reported":1762427365,"current_range_meters":16400,"station_id":"ce4bhm92rcd13ifvqglg","pricing_plan_id":"cebpf4jnsgd1na2vs0mg"},{"bike_id":"43cfab9e-f547-4304-9999-4a8329474751","system_id":"levelo_inurba_marseille","lat":43.212106,"lon":5.350826,"is_reserved":false,"is_disabled":false,"rental_uris":{"android":"levelo://app?vid=43cfab9e-f547-4304-9999-4a8329474751","ios":"levelo://app?vid=43cfab9e-f547-4304-9999-4a8329474751"},"vehicle_type_id":"4","last_reported":1762427365,"current_range_meters":16400,"station_id":"st_cvj6sg6p6f1abm77japg","pricing_plan_id":"cebpf4jnsgd1na2vs0mg"},{"bike_id":"33ae4984-5f12-485a-9589-62afcaed0591","system_id":"levelo_inurba_marseille","lat":43.29127,"lon":5.40773,"is_reserved":false,"is_disabled":false,"rental_uris":{"android":"levelo://app?vid=33ae4984-5f12-485a-9589-62afcaed0591","ios":"levelo://app?vid=33ae4984-5f12-485a-9589-62afcaed0591"},"vehicle_type_id":"4","last_reported":1762427365,"current_range_meters":16400,"station_id":"","pricing_plan_id":"cebpf4jnsgd1na2vs0mg"},{"bike_id":"7f765d5c-c788-4359-b193-b0c38d9af2c0","system_id":"levelo_inurba_marseille","lat":43.23142,"lon":5.43727,"is_reserved":false,"is_disabled":false,"rental_uris":{"android":"levelo://app?vid=7f765d5c-c788-4359-b193-b0c38d9af2c0","ios":"levelo://app?vid=7f765d5c-c788-4359-b193-b0c38d9af2c0"},"vehicle_type_id":"4","last_reported":1762427365,"current_range_meters":16400,"station_id":"ce4bhmp2rcd13ifvqgog","pricing_plan_id":"cebpf4jnsgd1na2vs0mg"},{"bike_id":"77764e42-37c5-4be3-ac36-e6334b720ab0","system_id":"levelo_inurba_marseille","lat":43.29686,"lon":5.37314,"is_reserved":false,"is_disabled":false,"rental_uris":{"android":"levelo://app?vid=77764e42-37c5-4be3-ac36-e6334b720ab0","ios":"levelo://app?vid=77764e42-37c5-4be3-ac36-e6334b720ab0"},"vehicle_type_id":"4","last_reported":1762427365,"current_range_meters":16400,"station_id":"ce4bgk12rcd13ifvqbj0","pricing_plan_id":"cebpf4jnsgd1na2vs0mg"},{"bike_id":"548d52fc-2f99-49b4-bb3b-df9aacaed4b3","system_id":"levelo_inurba_marseille","lat":43.30782,"lon":5.37649,"is_reserved":false,"is_disabled":false,"rental_uris":{"android":"levelo://app?vid=548d52fc-2f99-49b4-bb3b-df9aacaed4b3","ios":"levelo://app?vid=548d52fc-2f99-49b4-bb3b-df9aacaed4b3"},"vehicle_type_id":"4","last_reported":1762427365,"current_range_meters":16800,"station_id":"ce4bgv92rcd13ifvqcq0","pricing_plan_id":"cebpf4jnsgd1na2vs0mg"},{"bike_id":"f48b29eb-575d-4db6-a3a4-cd1e3710c8ab","system_id":"levelo_inurba_marseille","lat":43.2796,"lon":5.38682,"is_reserved":false,"is_disabled":false,"rental_uris":{"android":"levelo://app?vid=f48b29eb-575d-4db6-a3a4-cd1e3710c8ab","ios":"levelo://app?vid=f48b29eb-575d-4db6-a3a4-cd1e3710c8ab"},"vehicle_type_id":"4","last_reported":1762427365,"current_range_meters":16800,"station_id":"","pricing_plan_id":"cebpf4jnsgd1na2vs0mg"},{"bike_id":"6fdbfd8a-9ba4-443e-9710-b25099ddda81","system_id":"levelo_inurba_marseille","lat":43.23153,"lon":5.43715,"is_reserved":false,"is_disabled":false,"rental_uris":{"android":"levelo://app?vid=6fdbfd8a-9ba4-443e-9710-b25099ddda81","ios":"levelo://app?vid=6fdbfd8a-9ba4-443e-9710-b25099ddda81"},"vehicle_type_id":"4","last_reported":1762427365,"current_range_meters":16800,"station_id":"ce4bhmp2rcd13ifvqgog","pricing_plan_id":"cebpf4jnsgd1na2vs0mg"},{"bike_id":"1c1406c3-ccbf-4c7e-948d-af3d562996c8","system_id":"levelo_inurba_marseille","lat":43.29814,"lon":5.44055,"is_reserved":false,"is_disabled":false,"rental_uris":{"android":"levelo://app?vid=1c1406c3-ccbf-4c7e-948d-af3d562996c8","ios":"levelo://app?vid=1c1406c3-ccbf-4c7e-948d-af3d562996c8"},"vehicle_type_id":"4","last_reported":1762427365,"current_range_meters":16800,"station_id":"st_d3jp68qikq2c7381ktn0","pricing_plan_id":"cebpf4jnsgd1na2vs0mg"},{"bike_id":"319ffc4e-7711-40e6-a5bd-4d90d7a995da","system_id":"levelo_inurba_marseille","lat":43.3109,"lon":5.42436,"is_reserved":false,"is_disabled":false,"rental_uris":{"android":"levelo://app?vid=319ffc4e-7711-40e6-a5bd-4d90d7a995da","ios":"levelo://app?vid=319ffc4e-7711-40e6-a5bd-4d90d7a995da"},"vehicle_type_id":"4","last_reported":1762427365,"current_range_meters":16800,"station_id":"ce4bhp92rcd13ifvqhag","pricing_plan_id":"cebpf4jnsgd1na2vs0mg"},{"bike_id":"6b965bfc-884a-484d-88c5-749454f2331e","system_id":"levelo_inurba_marseille","lat":43.27489,"lon":5.42463,"is_reserved":false,"is_disabled":true,"rental_uris":{"android":"levelo://app?vid=6b965bfc-884a-484d-88c5-749454f2331e","ios":"levelo://app?vid=6b965bfc-884a-484d-88c5-749454f2331e"},"vehicle_type_id":"4","last_reported":1762427365,"current_range_meters":16800,"station_id":"ce4bhn92rcd13ifvqgrg","pricing_plan_id":"cebpf4jnsgd1na2vs0mg"},{"bike_id":"a737b0b8-d8f3-4589-842a-fce029979d54","system_id":"levelo_inurba_marseille","lat":43.23144,"lon":5.43696,"is_reserved":false,"is_disabled":false,"rental_uris":{"android":"levelo://app?vid=a737b0b8-d8f3-4589-842a-fce029979d54","ios":"levelo://app?vid=a737b0b8-d8f3-4589-842a-fce029979d54"},"vehicle_type_id":"4","last_reported":1762427365,"current_range_meters":17200,"station_id":"ce4bhmp2rcd13ifvqgog","pricing_plan_id":"cebpf4jnsgd1na2vs0mg"},{"bike_id":"0fdc33a8-63d2-4eeb-897a-8270e26c8720","system_id":"levelo_inurba_marseille","lat":43.27958,"lon":5.38717,"is_reserved":false,"is_disabled":false,"rental_uris":{"android":"levelo://app?vid=0fdc33a8-63d2-4eeb-897a-8270e26c8720","ios":"levelo://app?vid=0fdc33a8-63d2-4eeb-897a-8270e26c8720"},"vehicle_type_id":"4","last_reported":1762427365,"current_range_meters":17200,"station_id":"ce4bhg12rcd13ifvqf80","pricing_plan_id":"cebpf4jnsgd1na2vs0mg"},{"bike_id":"b2ee5b49-600b-4507-ad32-80e18dcfde19","system_id":"levelo_inurba_marseille","lat":43.24067,"lon":5.37721,"is_reserved":false,"is_disabled":false,"rental_uris":{"android":"levelo://app?vid=b2ee5b49-600b-4507-ad32-80e18dcfde19","ios":"levelo://app?vid=b2ee5b49-600b-4507-ad32-80e18dcfde19"},"vehicle_type_id":"4","last_reported":1762427365,"current_range_meters":17200,"station_id":"ce4bhnp2rcd13ifvqgvg","pricing_plan_id":"cebpf4jnsgd1na2vs0mg"},{"bike_id":"6d138665-3731-44c5-b3c2-cfcb94a7cedf","system_id":"levelo_inurba_marseille","lat":43.2733,"lon":5.3908,"is_reserved":false,"is_disabled":false,"rental_uris":{"android":"levelo://app?vid=6d138665-3731-44c5-b3c2-cfcb94a7cedf","ios":"levelo://app?vid=6d138665-3731-44c5-b3c2-cfcb94a7cedf"},"vehicle_type_id":"4","last_reported":1762427365,"current_range_meters":17200,"station_id":"ce4bhgp2rcd13ifvqfe0","pricing_plan_id":"cebpf4jnsgd1na2vs0mg"},{"bike_id":"06f25dea-ca18-4cca-a251-573298dd6aba","system_id":"levelo_inurba_marseille","lat":43.321091,"lon":5.367962,"is_reserved":false,"is_disabled":false,"rental_uris":{"android":"levelo://app?vid=06f25dea-ca18-4cca-a251-573298dd6aba","ios":"levelo://app?vid=06f25dea-ca18-4cca-a251-573298dd6aba"},"vehicle_type_id":"4","last_reported":1762427365,"current_range_meters":17200,"station_id":"ce4bhrh2rcd13ifvqhug","pricing_plan_id":"cebpf4jnsgd1na2vs0mg"},{"bike_id":"499fa374-f235-487d-9a6d-2db5eec38711","system_id":"levelo_inurba_marseille","lat":43.24387,"lon":5.37063,"is_reserved":false,"is_disabled":false,"rental_uris":{"android":"levelo://app?vid=499fa374-f235-487d-9a6d-2db5eec38711","ios":"levelo://app?vid=499fa374-f235-487d-9a6d-2db5eec38711"},"vehicle_type_id":"4","last_reported":1762427365,"current_range_meters":17200,"station_id":"ce4bhhh2rcd13ifvqfk0","pricing_plan_id":"cebpf4jnsgd1na2vs0mg"},{"bike_id":"d6c949dc-2398-4e3b-8165-620e152674b5","system_id":"levelo_inurba_marseille","lat":43.29027,"lon":5.38133,"is_reserved":false,"is_disabled":false,"rental_uris":{"android":"levelo://app?vid=d6c949dc-2398-4e3b-8165-620e152674b5","ios":"levelo://app?vid=d6c949dc-2398-4e3b-8165-620e152674b5"},"vehicle_type_id":"4","last_reported":1762427365,"current_range_meters":17200,"station_id":"ce4bh4p2rcd13ifvqe1g","pricing_plan_id":"cebpf4jnsgd1na2vs0mg"},{"bike_id":"d4e350b2-17ed-4f06-a4e6-9a77f8576c62","system_id":"levelo_inurba_marseille","lat":43.23125,"lon":5.43733,"is_reserved":false,"is_disabled":false,"rental_uris":{"android":"levelo://app?vid=d4e350b2-17ed-4f06-a4e6-9a77f8576c62","ios":"levelo://app?vid=d4e350b2-17ed-4f06-a4e6-9a77f8576c62"},"vehicle_type_id":"4","last_reported":1762427365,"current_range_meters":17200,"station_id":"ce4bhmp2rcd13ifvqgog","pricing_plan_id":"cebpf4jnsgd1na2vs0mg"},{"bike_id":"5ef84235-eddd-425b-8be4-c31c46a00271","system_id":"levelo_inurba_marseille","lat":43.2417,"lon":5.36404,"is_reserved":false,"is_disabled":false,"rental_uris":{"android":"levelo://app?vid=5ef84235-eddd-425b-8be4-c31c46a00271","ios":"levelo://app?vid=5ef84235-eddd-425b-8be4-c31c46a00271"},"vehicle_type_id":"4","last_reported":1762427365,"current_range_meters":17200,"station_id":"cpo36qri1sfpv3e86is0","pricing_plan_id":"cebpf4jnsgd1na2vs0mg"},{"bike_id":"6f7316b6-7794-4dd2-b5d2-399fa4c4f2b8","system_id":"levelo_inurba_marseille","lat":43.30477,"lon":5.37909,"is_reserved":false,"is_disabled":false,"rental_uris":{"android":"levelo://app?vid=6f7316b6-7794-4dd2-b5d2-399fa4c4f2b8","ios":"levelo://app?vid=6f7316b6-7794-4dd2-b5d2-399fa4c4f2b8"},"vehicle_type_id":"4","last_reported":1762427365,"current_range_meters":17200,"station_id":"ce4bgup2rcd13ifvqcn0","pricing_plan_id":"cebpf4jnsgd1na2vs0mg"},{"bike_id":"8c469623-2e38-46c0-af40-d2bd7c685bdf","system_id":"levelo_inurba_marseille","lat":43.32366,"lon":5.388639,"is_reserved":false,"is_disabled":false,"rental_uris":{"android":"levelo://app?vid=8c469623-2e38-46c0-af40-d2bd7c685bdf","ios":"levelo://app?vid=8c469623-2e38-46c0-af40-d2bd7c685bdf"},"vehicle_type_id":"4","last_reported":1762427365,"current_range_meters":17600,"station_id":"ce4bhqp2rcd13ifvqhog","pricing_plan_id":"cebpf4jnsgd1na2vs0mg"},{"bike_id":"1bfe6d9c-c8f3-407c-a530-c64229d5c671","system_id":"levelo_inurba_marseille","lat":43.26558,"lon":5.37286,"is_reserved":false,"is_disabled":false,"rental_uris":{"android":"levelo://app?vid=1bfe6d9c-c8f3-407c-a530-c64229d5c671","ios":"levelo://app?vid=1bfe6d9c-c8f3-407c-a530-c64229d5c671"},"vehicle_type_id":"4","last_reported":1762427365,"current_range_meters":17600,"station_id":"ce4bhg12rcd13ifvqf70","pricing_plan_id":"cebpf4jnsgd1na2vs0mg"},{"bike_id":"d0132a89-4b97-4e39-91ad-91971f61b41e","system_id":"levelo_inurba_marseille","lat":43.250993,"lon":5.403309,"is_reserved":false,"is_disabled":false,"rental_uris":{"android":"levelo://app?vid=d0132a89-4b97-4e39-91ad-91971f61b41e","ios":"levelo://app?vid=d0132a89-4b97-4e39-91ad-91971f61b41e"},"vehicle_type_id":"4","last_reported":1762427365,"current_range_meters":17600,"station_id":"ce4bhlh2rcd13ifvqgig","pricing_plan_id":"cebpf4jnsgd1na2vs0mg"},{"bike_id":"8aba6a3b-fd13-4733-a719-6d7546477997","system_id":"levelo_inurba_marseille","lat":43.29745,"lon":5.37624,"is_reserved":false,"is_disabled":false,"rental_uris":{"android":"levelo://app?vid=8aba6a3b-fd13-4733-a719-6d7546477997","ios":"levelo://app?vid=8aba6a3b-fd13-4733-a719-6d7546477997"},"vehicle_type_id":"4","last_reported":1762427365,"current_range_meters":17600,"station_id":"ce4bgkh2rcd13ifvqbl0","pricing_plan_id":"cebpf4jnsgd1na2vs0mg"},{"bike_id":"89882961-73f6-4bf2-9d4b-4021203899cc","system_id":"levelo_inurba_marseille","lat":43.240851,"lon":5.377687,"is_reserved":false,"is_disabled":false,"rental_uris":{"android":"levelo://app?vid=89882961-73f6-4bf2-9d4b-4021203899cc","ios":"levelo://app?vid=89882961-73f6-4bf2-9d4b-4021203899cc"},"vehicle_type_id":"4","last_reported":1762427365,"current_range_meters":17600,"station_id":"ce4bhnp2rcd13ifvqgvg","pricing_plan_id":"cebpf4jnsgd1na2vs0mg"},{"bike_id":"b6d6ed38-4c87-427d-b530-709237f9a962","system_id":"levelo_inurba_marseille","lat":43.23152,"lon":5.437,"is_reserved":false,"is_disabled":false,"rental_uris":{"android":"levelo://app?vid=b6d6ed38-4c87-427d-b530-709237f9a962","ios":"levelo://app?vid=b6d6ed38-4c87-427d-b530-709237f9a962"},"vehicle_type_id":"4","last_reported":1762427365,"current_range_meters":17600,"station_id":"ce4bhmp2rcd13ifvqgog","pricing_plan_id":"cebpf4jnsgd1na2vs0mg"},{"bike_id":"ea7c93f5-45ff-40e7-8dd0-c602191b4699","system_id":"levelo_inurba_marseille","lat":43.27054,"lon":5.40266,"is_reserved":false,"is_disabled":false,"rental_uris":{"android":"levelo://app?vid=ea7c93f5-45ff-40e7-8dd0-c602191b4699","ios":"levelo://app?vid=ea7c93f5-45ff-40e7-8dd0-c602191b4699"},"vehicle_type_id":"4","last_reported":1762427365,"current_range_meters":17600,"station_id":"ce4bhk92rcd13ifvqgc0","pricing_plan_id":"cebpf4jnsgd1na2vs0mg"},{"bike_id":"0ab43d90-1272-4d3e-93ca-d153c21b67be","system_id":"levelo_inurba_marseille","lat":43.30496,"lon":5.36614,"is_reserved":false,"is_disabled":false,"rental_uris":{"android":"levelo://app?vid=0ab43d90-1272-4d3e-93ca-d153c21b67be","ios":"levelo://app?vid=0ab43d90-1272-4d3e-93ca-d153c21b67be"},"vehicle_type_id":"4","last_reported":1762427365,"current_range_meters":17600,"station_id":"","pricing_plan_id":"cebpf4jnsgd1na2vs0mg"},{"bike_id":"5a12b886-bc02-4d43-89f6-b7038461e865","system_id":"levelo_inurba_marseille","lat":43.2962,"lon":5.37718,"is_reserved":false,"is_disabled":false,"rental_uris":{"android":"levelo://app?vid=5a12b886-bc02-4d43-89f6-b7038461e865","ios":"levelo://app?vid=5a12b886-bc02-4d43-89f6-b7038461e865"},"vehicle_type_id":"4","last_reported":1762427365,"current_range_meters":17600,"station_id":"ce4bgi92rcd13ifvqb90","pricing_plan_id":"cebpf4jnsgd1na2vs0mg"},{"bike_id":"4e87d557-fc93-49b9-a683-28fb43a9036d","system_id":"levelo_inurba_marseille","lat":43.279752,"lon":5.387476,"is_reserved":false,"is_disabled":false,"rental_uris":{"android":"levelo://app?vid=4e87d557-fc93-49b9-a683-28fb43a9036d","ios":"levelo://app?vid=4e87d557-fc93-49b9-a683-28fb43a9036d"},"vehicle_type_id":"4","last_reported":1762427365,"current_range_meters":18000,"station_id":"ce4bhg12rcd13ifvqf80","pricing_plan_id":"cebpf4jnsgd1na2vs0mg"},{"bike_id":"711b5184-06a1-46c6-b1ad-270408b914a4","system_id":"levelo_inurba_marseille","lat":43.30018,"lon":5.40951,"is_reserved":false,"is_disabled":false,"rental_uris":{"android":"levelo://app?vid=711b5184-06a1-46c6-b1ad-270408b914a4","ios":"levelo://app?vid=711b5184-06a1-46c6-b1ad-270408b914a4"},"vehicle_type_id":"4","last_reported":1762427365,"current_range_meters":18000,"station_id":"","pricing_plan_id":"cebpf4jnsgd1na2vs0mg"},{"bike_id":"07b02f80-e962-43d2-b916-5af4c062b60a","system_id":"levelo_inurba_marseille","lat":43.23151,"lon":5.43719,"is_reserved":false,"is_disabled":false,"rental_uris":{"android":"levelo://app?vid=07b02f80-e962-43d2-b916-5af4c062b60a","ios":"levelo://app?vid=07b02f80-e962-43d2-b916-5af4c062b60a"},"vehicle_type_id":"4","last_reported":1762427365,"current_range_meters":18000,"station_id":"ce4bhmp2rcd13ifvqgog","pricing_plan_id":"cebpf4jnsgd1na2vs0mg"},{"bike_id":"735af335-66bf-4340-87fb-78f795989dcc","system_id":"levelo_inurba_marseille","lat":43.29927,"lon":5.38247,"is_reserved":false,"is_disabled":false,"rental_uris":{"android":"levelo://app?vid=735af335-66bf-4340-87fb-78f795989dcc","ios":"levelo://app?vid=735af335-66bf-4340-87fb-78f795989dcc"},"vehicle_type_id":"4","last_reported":1762427365,"current_range_meters":18000,"station_id":"","pricing_plan_id":"cebpf4jnsgd1na2vs0mg"},{"bike_id":"0767b797-8806-47e8-9164-d5c7e2e97d33","system_id":"levelo_inurba_marseille","lat":43.30145,"lon":5.37417,"is_reserved":false,"is_disabled":false,"rental_uris":{"android":"levelo://app?vid=0767b797-8806-47e8-9164-d5c7e2e97d33","ios":"levelo://app?vid=0767b797-8806-47e8-9164-d5c7e2e97d33"},"vehicle_type_id":"4","last_reported":1762427365,"current_range_meters":18000,"station_id":"ce4bgs92rcd13ifvqcc0","pricing_plan_id":"cebpf4jnsgd1na2vs0mg"},{"bike_id":"d157dc55-3bde-49ff-878c-726ec84fd604","system_id":"levelo_inurba_marseille","lat":43.291962,"lon":5.392911,"is_reserved":false,"is_disabled":false,"rental_uris":{"android":"levelo://app?vid=d157dc55-3bde-49ff-878c-726ec84fd604","ios":"levelo://app?vid=d157dc55-3bde-49ff-878c-726ec84fd604"},"vehicle_type_id":"4","last_reported":1762427365,"current_range_meters":18000,"station_id":"ce4bh192rcd13ifvqdd0","pricing_plan_id":"cebpf4jnsgd1na2vs0mg"},{"bike_id":"acd11f1f-a797-4d8a-ac97-7cfd85277af2","system_id":"levelo_inurba_marseille","lat":43.22931,"lon":5.35384,"is_reserved":false,"is_disabled":false,"rental_uris":{"android":"levelo://app?vid=acd11f1f-a797-4d8a-ac97-7cfd85277af2","ios":"levelo://app?vid=acd11f1f-a797-4d8a-ac97-7cfd85277af2"},"vehicle_type_id":"4","last_reported":1762427365,"current_range_meters":18000,"station_id":"cpo3532slgdg3j2ikp40","pricing_plan_id":"cebpf4jnsgd1na2vs0mg"},{"bike_id":"15b54e6d-22a9-4e87-bca1-10f51918d8f7","system_id":"levelo_inurba_marseille","lat":43.24186,"lon":5.39725,"is_reserved":false,"is_disabled":false,"rental_uris":{"android":"levelo://app?vid=15b54e6d-22a9-4e87-bca1-10f51918d8f7","ios":"levelo://app?vid=15b54e6d-22a9-4e87-bca1-10f51918d8f7"},"vehicle_type_id":"4","last_reported":1762427365,"current_range_meters":18000,"station_id":"ce4bhn12rcd13ifvqgpg","pricing_plan_id":"cebpf4jnsgd1na2vs0mg"},{"bike_id":"93e6a07d-d8bb-454c-bdc6-c18d03370aca","system_id":"levelo_inurba_marseille","lat":43.30301,"lon":5.36967,"is_reserved":false,"is_disabled":false,"rental_uris":{"android":"levelo://app?vid=93e6a07d-d8bb-454c-bdc6-c18d03370aca","ios":"levelo://app?vid=93e6a07d-d8bb-454c-bdc6-c18d03370aca"},"vehicle_type_id":"4","last_reported":1762427365,"current_range_meters":18000,"station_id":"","pricing_plan_id":"cebpf4jnsgd1na2vs0mg"},{"bike_id":"28b54568-250f-48ad-b030-25d760bf4abc","system_id":"levelo_inurba_marseille","lat":43.321122,"lon":5.367802,"is_reserved":false,"is_disabled":false,"rental_uris":{"android":"levelo://app?vid=28b54568-250f-48ad-b030-25d760bf4abc","ios":"levelo://app?vid=28b54568-250f-48ad-b030-25d760bf4abc"},"vehicle_type_id":"4","last_reported":1762427365,"current_range_meters":18000,"station_id":"ce4bhrh2rcd13ifvqhug","pricing_plan_id":"cebpf4jnsgd1na2vs0mg"},{"bike_id":"decad613-875f-4e39-a5cc-a2636a2419c6","system_id":"levelo_inurba_marseille","lat":43.23158,"lon":5.43705,"is_reserved":false,"is_disabled":false,"rental_uris":{"android":"levelo://app?vid=decad613-875f-4e39-a5cc-a2636a2419c6","ios":"levelo://app?vid=decad613-875f-4e39-a5cc-a2636a2419c6"},"vehicle_type_id":"4","last_reported":1762427365,"current_range_meters":18000,"station_id":"ce4bhmp2rcd13ifvqgog","pricing_plan_id":"cebpf4jnsgd1na2vs0mg"},{"bike_id":"5158b380-a628-4750-9931-d1e57f5b20ab","system_id":"levelo_inurba_marseille","lat":43.29793,"lon":5.38115,"is_reserved":false,"is_disabled":false,"rental_uris":{"android":"levelo://app?vid=5158b380-a628-4750-9931-d1e57f5b20ab","ios":"levelo://app?vid=5158b380-a628-4750-9931-d1e57f5b20ab"},"vehicle_type_id":"4","last_reported":1762427365,"current_range_meters":18000,"station_id":"ce4bgip2rcd13ifvqbb0","pricing_plan_id":"cebpf4jnsgd1na2vs0mg"},{"bike_id":"a906c8f7-b25b-4dd8-acc7-fd101c297e0c","system_id":"levelo_inurba_marseille","lat":43.25939,"lon":5.40902,"is_reserved":false,"is_disabled":false,"rental_uris":{"android":"levelo://app?vid=a906c8f7-b25b-4dd8-acc7-fd101c297e0c","ios":"levelo://app?vid=a906c8f7-b25b-4dd8-acc7-fd101c297e0c"},"vehicle_type_id":"4","last_reported":1762427365,"current_range_meters":18000,"station_id":"ce4bhm92rcd13ifvqglg","pricing_plan_id":"cebpf4jnsgd1na2vs0mg"},{"bike_id":"364e7252-6c8d-481d-b075-6ed46540f13b","system_id":"levelo_inurba_marseille","lat":43.26242,"lon":5.39904,"is_reserved":false,"is_disabled":false,"rental_uris":{"android":"levelo://app?vid=364e7252-6c8d-481d-b075-6ed46540f13b","ios":"levelo://app?vid=364e7252-6c8d-481d-b075-6ed46540f13b"},"vehicle_type_id":"4","last_reported":1762427365,"current_range_meters":18800,"station_id":"","pricing_plan_id":"cebpf4jnsgd1na2vs0mg"},{"bike_id":"91195dc3-7219-4139-a8eb-8e52bb6d271e","system_id":"levelo_inurba_marseille","lat":43.231934,"lon":5.355541,"is_reserved":false,"is_disabled":false,"rental_uris":{"android":"levelo://app?vid=91195dc3-7219-4139-a8eb-8e52bb6d271e","ios":"levelo://app?vid=91195dc3-7219-4139-a8eb-8e52bb6d271e"},"vehicle_type_id":"4","last_reported":1762427365,"current_range_meters":18800,"station_id":"ce4bhu92rcd13ifvqi70","pricing_plan_id":"cebpf4jnsgd1na2vs0mg"},{"bike_id":"65d83eaf-428a-43cd-a356-ecaed95948ff","system_id":"levelo_inurba_marseille","lat":43.2485,"lon":5.39775,"is_reserved":false,"is_disabled":false,"rental_uris":{"android":"levelo://app?vid=65d83eaf-428a-43cd-a356-ecaed95948ff","ios":"levelo://app?vid=65d83eaf-428a-43cd-a356-ecaed95948ff"},"vehicle_type_id":"4","last_reported":1762427365,"current_range_meters":18800,"station_id":"","pricing_plan_id":"cebpf4jnsgd1na2vs0mg"},{"bike_id":"329070e8-d502-4a6c-b48c-e60c98fc285b","system_id":"levelo_inurba_marseille","lat":43.31266,"lon":5.38954,"is_reserved":false,"is_disabled":false,"rental_uris":{"android":"levelo://app?vid=329070e8-d502-4a6c-b48c-e60c98fc285b","ios":"levelo://app?vid=329070e8-d502-4a6c-b48c-e60c98fc285b"},"vehicle_type_id":"4","last_reported":1762427365,"current_range_meters":18800,"station_id":"","pricing_plan_id":"cebpf4jnsgd1na2vs0mg"},{"bike_id":"ada7c068-07f5-4885-8cb5-5c4f9b537ace","system_id":"levelo_inurba_marseille","lat":43.23162,"lon":5.43711,"is_reserved":false,"is_disabled":false,"rental_uris":{"android":"levelo://app?vid=ada7c068-07f5-4885-8cb5-5c4f9b537ace","ios":"levelo://app?vid=ada7c068-07f5-4885-8cb5-5c4f9b537ace"},"vehicle_type_id":"4","last_reported":1762427365,"current_range_meters":18800,"station_id":"ce4bhmp2rcd13ifvqgog","pricing_plan_id":"cebpf4jnsgd1na2vs0mg"},{"bike_id":"4db561fa-0133-449c-a0eb-011343a5bd3a","system_id":"levelo_inurba_marseille","lat":43.28861,"lon":5.42513,"is_reserved":false,"is_disabled":false,"rental_uris":{"android":"levelo://app?vid=4db561fa-0133-449c-a0eb-011343a5bd3a","ios":"levelo://app?vid=4db561fa-0133-449c-a0eb-011343a5bd3a"},"vehicle_type_id":"4","last_reported":1762427365,"current_range_meters":18800,"station_id":"st_d3b462108ojc7389ooeg","pricing_plan_id":"cebpf4jnsgd1na2vs0mg"},{"bike_id":"d890247a-d1e4-4d74-969d-76a3eef11230","system_id":"levelo_inurba_marseille","lat":43.23194,"lon":5.35555,"is_reserved":false,"is_disabled":false,"rental_uris":{"android":"levelo://app?vid=d890247a-d1e4-4d74-969d-76a3eef11230","ios":"levelo://app?vid=d890247a-d1e4-4d74-969d-76a3eef11230"},"vehicle_type_id":"4","last_reported":1762427365,"current_range_meters":18800,"station_id":"ce4bhu92rcd13ifvqi70","pricing_plan_id":"cebpf4jnsgd1na2vs0mg"},{"bike_id":"a0780bc9-5bab-46f2-8d08-98e1e3141e80","system_id":"levelo_inurba_marseille","lat":43.309154,"lon":5.368498,"is_reserved":false,"is_disabled":false,"rental_uris":{"android":"levelo://app?vid=a0780bc9-5bab-46f2-8d08-98e1e3141e80","ios":"levelo://app?vid=a0780bc9-5bab-46f2-8d08-98e1e3141e80"},"vehicle_type_id":"4","last_reported":1762427365,"current_range_meters":18800,"station_id":"ce4bgn92rcd13ifvqbvg","pricing_plan_id":"cebpf4jnsgd1na2vs0mg"},{"bike_id":"5ae08f4b-89ce-4c8b-a970-715848f0d8b2","system_id":"levelo_inurba_marseille","lat":43.29783,"lon":5.39337,"is_reserved":false,"is_disabled":false,"rental_uris":{"android":"levelo://app?vid=5ae08f4b-89ce-4c8b-a970-715848f0d8b2","ios":"levelo://app?vid=5ae08f4b-89ce-4c8b-a970-715848f0d8b2"},"vehicle_type_id":"4","last_reported":1762427365,"current_range_meters":18800,"station_id":"chh1huq6cuj3fo74tm60","pricing_plan_id":"cebpf4jnsgd1na2vs0mg"},{"bike_id":"7981b8a8-930e-4d00-9589-7b6562c38465","system_id":"levelo_inurba_marseille","lat":43.29782,"lon":5.37077,"is_reserved":false,"is_disabled":false,"rental_uris":{"android":"levelo://app?vid=7981b8a8-930e-4d00-9589-7b6562c38465","ios":"levelo://app?vid=7981b8a8-930e-4d00-9589-7b6562c38465"},"vehicle_type_id":"4","last_reported":1762427365,"current_range_meters":19200,"station_id":"ce4bgop2rcd13ifvqc1g","pricing_plan_id":"cebpf4jnsgd1na2vs0mg"},{"bike_id":"b095ad1b-f53d-4624-aad8-9ed0f18a183b","system_id":"levelo_inurba_marseille","lat":43.32307,"lon":5.36777,"is_reserved":false,"is_disabled":false,"rental_uris":{"android":"levelo://app?vid=b095ad1b-f53d-4624-aad8-9ed0f18a183b","ios":"levelo://app?vid=b095ad1b-f53d-4624-aad8-9ed0f18a183b"},"vehicle_type_id":"4","last_reported":1762427365,"current_range_meters":19200,"station_id":"","pricing_plan_id":"cebpf4jnsgd1na2vs0mg"},{"bike_id":"50589330-1bfd-41f2-935d-c0b094363007","system_id":"levelo_inurba_marseille","lat":43.30884,"lon":5.39636,"is_reserved":false,"is_disabled":false,"rental_uris":{"android":"levelo://app?vid=50589330-1bfd-41f2-935d-c0b094363007","ios":"levelo://app?vid=50589330-1bfd-41f2-935d-c0b094363007"},"vehicle_type_id":"4","last_reported":1762427365,"current_range_meters":19600,"station_id":"ce4bh012rcd13ifvqcv0","pricing_plan_id":"cebpf4jnsgd1na2vs0mg"},{"bike_id":"55c6a609-9074-4f89-a752-5a65b39a1df5","system_id":"levelo_inurba_marseille","lat":43.32112,"lon":5.36771,"is_reserved":false,"is_disabled":false,"rental_uris":{"android":"levelo://app?vid=55c6a609-9074-4f89-a752-5a65b39a1df5","ios":"levelo://app?vid=55c6a609-9074-4f89-a752-5a65b39a1df5"},"vehicle_type_id":"4","last_reported":1762427365,"current_range_meters":19600,"station_id":"ce4bhrh2rcd13ifvqhug","pricing_plan_id":"cebpf4jnsgd1na2vs0mg"},{"bike_id":"c31ab333-c7bf-45e4-b1db-f5b08cfb9dbd","system_id":"levelo_inurba_marseille","lat":43.30147,"lon":5.37416,"is_reserved":false,"is_disabled":false,"rental_uris":{"android":"levelo://app?vid=c31ab333-c7bf-45e4-b1db-f5b08cfb9dbd","ios":"levelo://app?vid=c31ab333-c7bf-45e4-b1db-f5b08cfb9dbd"},"vehicle_type_id":"4","last_reported":1762427365,"current_range_meters":19600,"station_id":"ce4bgs92rcd13ifvqcc0","pricing_plan_id":"cebpf4jnsgd1na2vs0mg"},{"bike_id":"a88522c2-7f31-460d-8b59-1c10109fed19","system_id":"levelo_inurba_marseille","lat":43.314461,"lon":5.375933,"is_reserved":false,"is_disabled":false,"rental_uris":{"android":"levelo://app?vid=a88522c2-7f31-460d-8b59-1c10109fed19","ios":"levelo://app?vid=a88522c2-7f31-460d-8b59-1c10109fed19"},"vehicle_type_id":"4","last_reported":1762427365,"current_range_meters":19600,"station_id":"","pricing_plan_id":"cebpf4jnsgd1na2vs0mg"},{"bike_id":"818efa4a-2cb8-4754-bcf4-5939eef4d5ca","system_id":"levelo_inurba_marseille","lat":43.29264,"lon":5.38452,"is_reserved":false,"is_disabled":false,"rental_uris":{"android":"levelo://app?vid=818efa4a-2cb8-4754-bcf4-5939eef4d5ca","ios":"levelo://app?vid=818efa4a-2cb8-4754-bcf4-5939eef4d5ca"},"vehicle_type_id":"4","last_reported":1762427365,"current_range_meters":19600,"station_id":"ce4bh692rcd13ifvqea0","pricing_plan_id":"cebpf4jnsgd1na2vs0mg"},{"bike_id":"aa9b409b-c6df-4fe5-932f-a82c17cc1a1b","system_id":"levelo_inurba_marseille","lat":43.30154,"lon":5.38095,"is_reserved":false,"is_disabled":false,"rental_uris":{"android":"levelo://app?vid=aa9b409b-c6df-4fe5-932f-a82c17cc1a1b","ios":"levelo://app?vid=aa9b409b-c6df-4fe5-932f-a82c17cc1a1b"},"vehicle_type_id":"4","last_reported":1762427365,"current_range_meters":19600,"station_id":"ce4bgjp2rcd13ifvqbh0","pricing_plan_id":"cebpf4jnsgd1na2vs0mg"},{"bike_id":"d9217edb-2a77-46d2-8c74-1939f00ab8dd","system_id":"levelo_inurba_marseille","lat":43.25093,"lon":5.39518,"is_reserved":false,"is_disabled":false,"rental_uris":{"android":"levelo://app?vid=d9217edb-2a77-46d2-8c74-1939f00ab8dd","ios":"levelo://app?vid=d9217edb-2a77-46d2-8c74-1939f00ab8dd"},"vehicle_type_id":"4","last_reported":1762427365,"current_range_meters":19600,"station_id":"ce4bhm12rcd13ifvqgkg","pricing_plan_id":"cebpf4jnsgd1na2vs0mg"},{"bike_id":"f737235a-f2f4-4637-9155-2fa5fbbd117d","system_id":"levelo_inurba_marseille","lat":43.256252,"lon":5.382343,"is_reserved":false,"is_disabled":false,"rental_uris":{"android":"levelo://app?vid=f737235a-f2f4-4637-9155-2fa5fbbd117d","ios":"levelo://app?vid=f737235a-f2f4-4637-9155-2fa5fbbd117d"},"vehicle_type_id":"4","last_reported":1762427365,"current_range_meters":19600,"station_id":"ce4bhih2rcd13ifvqfs0","pricing_plan_id":"cebpf4jnsgd1na2vs0mg"},{"bike_id":"2214147d-b2bc-47a5-8262-b29a2f3cbd90","system_id":"levelo_inurba_marseille","lat":43.28865,"lon":5.42511,"is_reserved":false,"is_disabled":false,"rental_uris":{"android":"levelo://app?vid=2214147d-b2bc-47a5-8262-b29a2f3cbd90","ios":"levelo://app?vid=2214147d-b2bc-47a5-8262-b29a2f3cbd90"},"vehicle_type_id":"4","last_reported":1762427365,"current_range_meters":19600,"station_id":"st_d3b462108ojc7389ooeg","pricing_plan_id":"cebpf4jnsgd1na2vs0mg"},{"bike_id":"ba00a797-bc94-42f1-aba8-9bf207fe458c","system_id":"levelo_inurba_marseille","lat":43.30543,"lon":5.365306,"is_reserved":false,"is_disabled":false,"rental_uris":{"android":"levelo://app?vid=ba00a797-bc94-42f1-aba8-9bf207fe458c","ios":"levelo://app?vid=ba00a797-bc94-42f1-aba8-9bf207fe458c"},"vehicle_type_id":"4","last_reported":1762427365,"current_range_meters":19600,"station_id":"ce4bgs12rcd13ifvqcag","pricing_plan_id":"cebpf4jnsgd1na2vs0mg"},{"bike_id":"1c00dc3a-2c98-4d26-a48f-4093630a1fde","system_id":"levelo_inurba_marseille","lat":43.324852,"lon":5.365606,"is_reserved":false,"is_disabled":false,"rental_uris":{"android":"levelo://app?vid=1c00dc3a-2c98-4d26-a48f-4093630a1fde","ios":"levelo://app?vid=1c00dc3a-2c98-4d26-a48f-4093630a1fde"},"vehicle_type_id":"4","last_reported":1762427365,"current_range_meters":20000,"station_id":"ce4bhs12rcd13ifvqhvg","pricing_plan_id":"cebpf4jnsgd1na2vs0mg"},{"bike_id":"88b36161-103b-402d-94fe-dbcca8d1c5ba","system_id":"levelo_inurba_marseille","lat":43.30154,"lon":5.38081,"is_reserved":false,"is_disabled":false,"rental_uris":{"android":"levelo://app?vid=88b36161-103b-402d-94fe-dbcca8d1c5ba","ios":"levelo://app?vid=88b36161-103b-402d-94fe-dbcca8d1c5ba"},"vehicle_type_id":"4","last_reported":1762427365,"current_range_meters":20000,"station_id":"ce4bgjp2rcd13ifvqbh0","pricing_plan_id":"cebpf4jnsgd1na2vs0mg"},{"bike_id":"9599e800-c0f3-4d1c-ae6f-0370f8960f5c","system_id":"levelo_inurba_marseille","lat":43.321053,"lon":5.367601,"is_reserved":false,"is_disabled":false,"rental_uris":{"android":"levelo://app?vid=9599e800-c0f3-4d1c-ae6f-0370f8960f5c","ios":"levelo://app?vid=9599e800-c0f3-4d1c-ae6f-0370f8960f5c"},"vehicle_type_id":"4","last_reported":1762427365,"current_range_meters":20000,"station_id":"ce4bhrh2rcd13ifvqhug","pricing_plan_id":"cebpf4jnsgd1na2vs0mg"},{"bike_id":"439c53c6-f824-45cf-979a-29d4a8e7f60e","system_id":"levelo_inurba_marseille","lat":43.30958,"lon":5.3907,"is_reserved":false,"is_disabled":false,"rental_uris":{"android":"levelo://app?vid=439c53c6-f824-45cf-979a-29d4a8e7f60e","ios":"levelo://app?vid=439c53c6-f824-45cf-979a-29d4a8e7f60e"},"vehicle_type_id":"4","last_reported":1762427365,"current_range_meters":20400,"station_id":"ce4bgup2rcd13ifvqco0","pricing_plan_id":"cebpf4jnsgd1na2vs0mg"},{"bike_id":"15386ba2-3479-4132-96ad-c6e734c56cc5","system_id":"levelo_inurba_marseille","lat":43.31279,"lon":5.40168,"is_reserved":false,"is_disabled":false,"rental_uris":{"android":"levelo://app?vid=15386ba2-3479-4132-96ad-c6e734c56cc5","ios":"levelo://app?vid=15386ba2-3479-4132-96ad-c6e734c56cc5"},"vehicle_type_id":"4","last_reported":1762427365,"current_range_meters":20400,"station_id":"ce4bh092rcd13ifvqd30","pricing_plan_id":"cebpf4jnsgd1na2vs0mg"},{"bike_id":"a7628e15-e703-4ea9-b322-ccb8d1addac4","system_id":"levelo_inurba_marseille","lat":43.31507,"lon":5.37303,"is_reserved":false,"is_disabled":false,"rental_uris":{"android":"levelo://app?vid=a7628e15-e703-4ea9-b322-ccb8d1addac4","ios":"levelo://app?vid=a7628e15-e703-4ea9-b322-ccb8d1addac4"},"vehicle_type_id":"4","last_reported":1762427365,"current_range_meters":20400,"station_id":"ce4bgt12rcd13ifvqcd0","pricing_plan_id":"cebpf4jnsgd1na2vs0mg"},{"bike_id":"2067816a-139d-494d-9279-f9692a346c62","system_id":"levelo_inurba_marseille","lat":43.30483,"lon":5.37894,"is_reserved":false,"is_disabled":false,"rental_uris":{"android":"levelo://app?vid=2067816a-139d-494d-9279-f9692a346c62","ios":"levelo://app?vid=2067816a-139d-494d-9279-f9692a346c62"},"vehicle_type_id":"4","last_reported":1762427365,"current_range_meters":20400,"station_id":"ce4bgup2rcd13ifvqcn0","pricing_plan_id":"cebpf4jnsgd1na2vs0mg"},{"bike_id":"305495de-daf9-4e0a-86da-ea422789951b","system_id":"levelo_inurba_marseille","lat":43.28765,"lon":5.36924,"is_reserved":false,"is_disabled":false,"rental_uris":{"android":"levelo://app?vid=305495de-daf9-4e0a-86da-ea422789951b","ios":"levelo://app?vid=305495de-daf9-4e0a-86da-ea422789951b"},"vehicle_type_id":"4","last_reported":1762427365,"current_range_meters":20400,"station_id":"","pricing_plan_id":"cebpf4jnsgd1na2vs0mg"},{"bike_id":"3a6b939b-8483-4a00-8652-d825cdd856d7","system_id":"levelo_inurba_marseille","lat":43.225535,"lon":5.416303,"is_reserved":false,"is_disabled":false,"rental_uris":{"android":"levelo://app?vid=3a6b939b-8483-4a00-8652-d825cdd856d7","ios":"levelo://app?vid=3a6b939b-8483-4a00-8652-d825cdd856d7"},"vehicle_type_id":"4","last_reported":1762427365,"current_range_meters":20400,"station_id":"st_d2o4gvlbi1j2169b742g","pricing_plan_id":"cebpf4jnsgd1na2vs0mg"},{"bike_id":"e4747408-ea2d-41b1-b25b-fb36abb905af","system_id":"levelo_inurba_marseille","lat":43.26201,"lon":5.37439,"is_reserved":false,"is_disabled":false,"rental_uris":{"android":"levelo://app?vid=e4747408-ea2d-41b1-b25b-fb36abb905af","ios":"levelo://app?vid=e4747408-ea2d-41b1-b25b-fb36abb905af"},"vehicle_type_id":"4","last_reported":1762427365,"current_range_meters":20400,"station_id":"ce4bhgp2rcd13ifvqfc0","pricing_plan_id":"cebpf4jnsgd1na2vs0mg"},{"bike_id":"f6e3e10a-2f87-4907-90e5-4edc077282b3","system_id":"levelo_inurba_marseille","lat":43.33775,"lon":5.37426,"is_reserved":false,"is_disabled":false,"rental_uris":{"android":"levelo://app?vid=f6e3e10a-2f87-4907-90e5-4edc077282b3","ios":"levelo://app?vid=f6e3e10a-2f87-4907-90e5-4edc077282b3"},"vehicle_type_id":"4","last_reported":1762427365,"current_range_meters":20400,"station_id":"","pricing_plan_id":"cebpf4jnsgd1na2vs0mg"},{"bike_id":"310115a0-7bf2-4a4a-9d53-56bf6918e4d0","system_id":"levelo_inurba_marseille","lat":43.28478,"lon":5.48393,"is_reserved":false,"is_disabled":false,"rental_uris":{"android":"levelo://app?vid=310115a0-7bf2-4a4a-9d53-56bf6918e4d0","ios":"levelo://app?vid=310115a0-7bf2-4a4a-9d53-56bf6918e4d0"},"vehicle_type_id":"4","last_reported":1762427365,"current_range_meters":20800,"station_id":"st_d3svhcjqgbts73a3dn0g","pricing_plan_id":"cebpf4jnsgd1na2vs0mg"},{"bike_id":"5c6f506e-fa92-405a-94c0-8a3d50ad5aab","system_id":"levelo_inurba_marseille","lat":43.28443,"lon":5.39209,"is_reserved":false,"is_disabled":false,"rental_uris":{"android":"levelo://app?vid=5c6f506e-fa92-405a-94c0-8a3d50ad5aab","ios":"levelo://app?vid=5c6f506e-fa92-405a-94c0-8a3d50ad5aab"},"vehicle_type_id":"4","last_reported":1762427365,"current_range_meters":20800,"station_id":"ce4bhoh2rcd13ifvqh5g","pricing_plan_id":"cebpf4jnsgd1na2vs0mg"},{"bike_id":"9350f380-0894-488f-93ed-c8c017fa2838","system_id":"levelo_inurba_marseille","lat":43.274949,"lon":5.424472,"is_reserved":false,"is_disabled":false,"rental_uris":{"android":"levelo://app?vid=9350f380-0894-488f-93ed-c8c017fa2838","ios":"levelo://app?vid=9350f380-0894-488f-93ed-c8c017fa2838"},"vehicle_type_id":"4","last_reported":1762427365,"current_range_meters":20800,"station_id":"ce4bhn92rcd13ifvqgrg","pricing_plan_id":"cebpf4jnsgd1na2vs0mg"},{"bike_id":"0e800075-2647-4925-8094-b937d0244889","system_id":"levelo_inurba_marseille","lat":43.28554,"lon":5.401832,"is_reserved":false,"is_disabled":false,"rental_uris":{"android":"levelo://app?vid=0e800075-2647-4925-8094-b937d0244889","ios":"levelo://app?vid=0e800075-2647-4925-8094-b937d0244889"},"vehicle_type_id":"4","last_reported":1762427365,"current_range_meters":20800,"station_id":"","pricing_plan_id":"cebpf4jnsgd1na2vs0mg"},{"bike_id":"adc728c4-7d88-468c-be89-220c19218372","system_id":"levelo_inurba_marseille","lat":43.32345,"lon":5.38314,"is_reserved":false,"is_disabled":false,"rental_uris":{"android":"levelo://app?vid=adc728c4-7d88-468c-be89-220c19218372","ios":"levelo://app?vid=adc728c4-7d88-468c-be89-220c19218372"},"vehicle_type_id":"4","last_reported":1762427365,"current_range_meters":20800,"station_id":"","pricing_plan_id":"cebpf4jnsgd1na2vs0mg"},{"bike_id":"e6268c5b-e960-40fb-a98f-006dda2f66c1","system_id":"levelo_inurba_marseille","lat":43.23133,"lon":5.43732,"is_reserved":false,"is_disabled":false,"rental_uris":{"android":"levelo://app?vid=e6268c5b-e960-40fb-a98f-006dda2f66c1","ios":"levelo://app?vid=e6268c5b-e960-40fb-a98f-006dda2f66c1"},"vehicle_type_id":"4","last_reported":1762427365,"current_range_meters":20800,"station_id":"ce4bhmp2rcd13ifvqgog","pricing_plan_id":"cebpf4jnsgd1na2vs0mg"},{"bike_id":"51c0963b-0704-4d25-b139-177939289c2d","system_id":"levelo_inurba_marseille","lat":43.2407,"lon":5.37742,"is_reserved":false,"is_disabled":false,"rental_uris":{"android":"levelo://app?vid=51c0963b-0704-4d25-b139-177939289c2d","ios":"levelo://app?vid=51c0963b-0704-4d25-b139-177939289c2d"},"vehicle_type_id":"4","last_reported":1762427365,"current_range_meters":20800,"station_id":"ce4bhnp2rcd13ifvqgvg","pricing_plan_id":"cebpf4jnsgd1na2vs0mg"},{"bike_id":"14a9a516-5d6c-4018-94fe-ffcfc99a0213","system_id":"levelo_inurba_marseille","lat":43.30153,"lon":5.37402,"is_reserved":false,"is_disabled":false,"rental_uris":{"android":"levelo://app?vid=14a9a516-5d6c-4018-94fe-ffcfc99a0213","ios":"levelo://app?vid=14a9a516-5d6c-4018-94fe-ffcfc99a0213"},"vehicle_type_id":"4","last_reported":1762427365,"current_range_meters":20800,"station_id":"ce4bgs92rcd13ifvqcc0","pricing_plan_id":"cebpf4jnsgd1na2vs0mg"},{"bike_id":"79606fcb-c57e-4cfd-a218-339376c90dd9","system_id":"levelo_inurba_marseille","lat":43.27203,"lon":5.39173,"is_reserved":false,"is_disabled":true,"rental_uris":{"android":"levelo://app?vid=79606fcb-c57e-4cfd-a218-339376c90dd9","ios":"levelo://app?vid=79606fcb-c57e-4cfd-a218-339376c90dd9"},"vehicle_type_id":"4","last_reported":1762427365,"current_range_meters":20800,"station_id":"ce4bhhp2rcd13ifvqfm0","pricing_plan_id":"cebpf4jnsgd1na2vs0mg"},{"bike_id":"3bb950be-e830-486c-bce8-819a5d4202fd","system_id":"levelo_inurba_marseille","lat":43.25929,"lon":5.40891,"is_reserved":false,"is_disabled":false,"rental_uris":{"android":"levelo://app?vid=3bb950be-e830-486c-bce8-819a5d4202fd","ios":"levelo://app?vid=3bb950be-e830-486c-bce8-819a5d4202fd"},"vehicle_type_id":"4","last_reported":1762427365,"current_range_meters":20800,"station_id":"ce4bhm92rcd13ifvqglg","pricing_plan_id":"cebpf4jnsgd1na2vs0mg"},{"bike_id":"a7fb58cb-cb7e-4b60-82d8-0be69606f953","system_id":"levelo_inurba_marseille","lat":43.28447,"lon":5.39203,"is_reserved":false,"is_disabled":false,"rental_uris":{"android":"levelo://app?vid=a7fb58cb-cb7e-4b60-82d8-0be69606f953","ios":"levelo://app?vid=a7fb58cb-cb7e-4b60-82d8-0be69606f953"},"vehicle_type_id":"4","last_reported":1762427365,"current_range_meters":20800,"station_id":"ce4bhoh2rcd13ifvqh5g","pricing_plan_id":"cebpf4jnsgd1na2vs0mg"},{"bike_id":"57606b66-f9ad-4f30-bf12-9583c24842c0","system_id":"levelo_inurba_marseille","lat":43.29366,"lon":5.37829,"is_reserved":false,"is_disabled":false,"rental_uris":{"android":"levelo://app?vid=57606b66-f9ad-4f30-bf12-9583c24842c0","ios":"levelo://app?vid=57606b66-f9ad-4f30-bf12-9583c24842c0"},"vehicle_type_id":"4","last_reported":1762427365,"current_range_meters":20800,"station_id":"ce4bgjh2rcd13ifvqbf0","pricing_plan_id":"cebpf4jnsgd1na2vs0mg"},{"bike_id":"401209f9-1098-407a-9275-182f209531f6","system_id":"levelo_inurba_marseille","lat":43.2955,"lon":5.42288,"is_reserved":false,"is_disabled":false,"rental_uris":{"android":"levelo://app?vid=401209f9-1098-407a-9275-182f209531f6","ios":"levelo://app?vid=401209f9-1098-407a-9275-182f209531f6"},"vehicle_type_id":"4","last_reported":1762427365,"current_range_meters":20800,"station_id":"ce4bhph2rcd13ifvqhdg","pricing_plan_id":"cebpf4jnsgd1na2vs0mg"},{"bike_id":"41515a08-b388-4193-afc8-6b6c8e2e33b4","system_id":"levelo_inurba_marseille","lat":43.27065,"lon":5.383,"is_reserved":false,"is_disabled":false,"rental_uris":{"android":"levelo://app?vid=41515a08-b388-4193-afc8-6b6c8e2e33b4","ios":"levelo://app?vid=41515a08-b388-4193-afc8-6b6c8e2e33b4"},"vehicle_type_id":"4","last_reported":1762427365,"current_range_meters":20800,"station_id":"st_d3n2fo6cfp8s73cte1j0","pricing_plan_id":"cebpf4jnsgd1na2vs0mg"},{"bike_id":"80a5ba95-f975-4656-b7ea-bd11f22daee6","system_id":"levelo_inurba_marseille","lat":43.28484,"lon":5.38407,"is_reserved":false,"is_disabled":false,"rental_uris":{"android":"levelo://app?vid=80a5ba95-f975-4656-b7ea-bd11f22daee6","ios":"levelo://app?vid=80a5ba95-f975-4656-b7ea-bd11f22daee6"},"vehicle_type_id":"4","last_reported":1762427365,"current_range_meters":21600,"station_id":"ce4bh512rcd13ifvqe3g","pricing_plan_id":"cebpf4jnsgd1na2vs0mg"},{"bike_id":"cc626737-750c-4db0-b285-4329999a7484","system_id":"levelo_inurba_marseille","lat":43.26552,"lon":5.37274,"is_reserved":false,"is_disabled":false,"rental_uris":{"android":"levelo://app?vid=cc626737-750c-4db0-b285-4329999a7484","ios":"levelo://app?vid=cc626737-750c-4db0-b285-4329999a7484"},"vehicle_type_id":"4","last_reported":1762427365,"current_range_meters":21600,"station_id":"ce4bhg12rcd13ifvqf70","pricing_plan_id":"cebpf4jnsgd1na2vs0mg"},{"bike_id":"5209d8a8-f471-47fd-9727-fa8450139952","system_id":"levelo_inurba_marseille","lat":43.29843,"lon":5.36266,"is_reserved":false,"is_disabled":false,"rental_uris":{"android":"levelo://app?vid=5209d8a8-f471-47fd-9727-fa8450139952","ios":"levelo://app?vid=5209d8a8-f471-47fd-9727-fa8450139952"},"vehicle_type_id":"4","last_reported":1762427365,"current_range_meters":21600,"station_id":"ce4bgpp2rcd13ifvqc3g","pricing_plan_id":"cebpf4jnsgd1na2vs0mg"},{"bike_id":"0a693bd9-ea79-409d-9256-4f1db0292c0c","system_id":"levelo_inurba_marseille","lat":43.297071,"lon":5.362925,"is_reserved":false,"is_disabled":false,"rental_uris":{"android":"levelo://app?vid=0a693bd9-ea79-409d-9256-4f1db0292c0c","ios":"levelo://app?vid=0a693bd9-ea79-409d-9256-4f1db0292c0c"},"vehicle_type_id":"4","last_reported":1762427365,"current_range_meters":21600,"station_id":"","pricing_plan_id":"cebpf4jnsgd1na2vs0mg"},{"bike_id":"d28920ec-a8fe-459b-be0c-141cea1e8ddd","system_id":"levelo_inurba_marseille","lat":43.27946,"lon":5.41053,"is_reserved":false,"is_disabled":false,"rental_uris":{"android":"levelo://app?vid=d28920ec-a8fe-459b-be0c-141cea1e8ddd","ios":"levelo://app?vid=d28920ec-a8fe-459b-be0c-141cea1e8ddd"},"vehicle_type_id":"4","last_reported":1762427365,"current_range_meters":21600,"station_id":"ce4bhnp2rcd13ifvqh0g","pricing_plan_id":"cebpf4jnsgd1na2vs0mg"},{"bike_id":"65f6952d-4451-4dc0-807c-5a7102e73f4a","system_id":"levelo_inurba_marseille","lat":43.29979,"lon":5.37168,"is_reserved":false,"is_disabled":false,"rental_uris":{"android":"levelo://app?vid=65f6952d-4451-4dc0-807c-5a7102e73f4a","ios":"levelo://app?vid=65f6952d-4451-4dc0-807c-5a7102e73f4a"},"vehicle_type_id":"4","last_reported":1762427365,"current_range_meters":21600,"station_id":"ce4bgr92rcd13ifvqc7g","pricing_plan_id":"cebpf4jnsgd1na2vs0mg"},{"bike_id":"55692c43-fed9-4863-8d48-710577ace488","system_id":"levelo_inurba_marseille","lat":43.292829,"lon":5.368457,"is_reserved":false,"is_disabled":false,"rental_uris":{"android":"levelo://app?vid=55692c43-fed9-4863-8d48-710577ace488","ios":"levelo://app?vid=55692c43-fed9-4863-8d48-710577ace488"},"vehicle_type_id":"4","last_reported":1762427365,"current_range_meters":21600,"station_id":"ce4bhbp2rcd13ifvqesg","pricing_plan_id":"cebpf4jnsgd1na2vs0mg"},{"bike_id":"a24ecaa7-dc5d-4c8e-a910-6021da3d40da","system_id":"levelo_inurba_marseille","lat":43.22568,"lon":5.41627,"is_reserved":false,"is_disabled":false,"rental_uris":{"android":"levelo://app?vid=a24ecaa7-dc5d-4c8e-a910-6021da3d40da","ios":"levelo://app?vid=a24ecaa7-dc5d-4c8e-a910-6021da3d40da"},"vehicle_type_id":"4","last_reported":1762427365,"current_range_meters":22000,"station_id":"st_d2o4gvlbi1j2169b742g","pricing_plan_id":"cebpf4jnsgd1na2vs0mg"},{"bike_id":"94572d87-99af-4342-9ec3-181e4ad8f0af","system_id":"levelo_inurba_marseille","lat":43.28487,"lon":5.38405,"is_reserved":false,"is_disabled":false,"rental_uris":{"android":"levelo://app?vid=94572d87-99af-4342-9ec3-181e4ad8f0af","ios":"levelo://app?vid=94572d87-99af-4342-9ec3-181e4ad8f0af"},"vehicle_type_id":"4","last_reported":1762427365,"current_range_meters":22000,"station_id":"ce4bh512rcd13ifvqe3g","pricing_plan_id":"cebpf4jnsgd1na2vs0mg"},{"bike_id":"22918fb7-a391-4f35-8c21-8eb60e2ab03f","system_id":"levelo_inurba_marseille","lat":43.225525,"lon":5.41634,"is_reserved":false,"is_disabled":false,"rental_uris":{"android":"levelo://app?vid=22918fb7-a391-4f35-8c21-8eb60e2ab03f","ios":"levelo://app?vid=22918fb7-a391-4f35-8c21-8eb60e2ab03f"},"vehicle_type_id":"4","last_reported":1762427365,"current_range_meters":22000,"station_id":"st_d2o4gvlbi1j2169b742g","pricing_plan_id":"cebpf4jnsgd1na2vs0mg"},{"bike_id":"d3ea1ca0-c0f8-4444-b31c-cab8cdf7e1d1","system_id":"levelo_inurba_marseille","lat":43.24074,"lon":5.37765,"is_reserved":false,"is_disabled":false,"rental_uris":{"android":"levelo://app?vid=d3ea1ca0-c0f8-4444-b31c-cab8cdf7e1d1","ios":"levelo://app?vid=d3ea1ca0-c0f8-4444-b31c-cab8cdf7e1d1"},"vehicle_type_id":"4","last_reported":1762427365,"current_range_meters":22000,"station_id":"ce4bhnp2rcd13ifvqgvg","pricing_plan_id":"cebpf4jnsgd1na2vs0mg"},{"bike_id":"d9406ae0-a7d7-4070-8130-6f1d39eec4aa","system_id":"levelo_inurba_marseille","lat":43.28605,"lon":5.37063,"is_reserved":false,"is_disabled":false,"rental_uris":{"android":"levelo://app?vid=d9406ae0-a7d7-4070-8130-6f1d39eec4aa","ios":"levelo://app?vid=d9406ae0-a7d7-4070-8130-6f1d39eec4aa"},"vehicle_type_id":"4","last_reported":1762427365,"current_range_meters":22000,"station_id":"ce4bht12rcd13ifvqi60","pricing_plan_id":"cebpf4jnsgd1na2vs0mg"},{"bike_id":"45836931-800f-42ce-9822-005d3b5c5b1d","system_id":"levelo_inurba_marseille","lat":43.25714,"lon":5.41091,"is_reserved":false,"is_disabled":false,"rental_uris":{"android":"levelo://app?vid=45836931-800f-42ce-9822-005d3b5c5b1d","ios":"levelo://app?vid=45836931-800f-42ce-9822-005d3b5c5b1d"},"vehicle_type_id":"4","last_reported":1762427365,"current_range_meters":22000,"station_id":"ce4bhkp2rcd13ifvqgd0","pricing_plan_id":"cebpf4jnsgd1na2vs0mg"},{"bike_id":"d975e5c1-3a94-457d-8066-9bb046a73e78","system_id":"levelo_inurba_marseille","lat":43.231829,"lon":5.399863,"is_reserved":false,"is_disabled":false,"rental_uris":{"android":"levelo://app?vid=d975e5c1-3a94-457d-8066-9bb046a73e78","ios":"levelo://app?vid=d975e5c1-3a94-457d-8066-9bb046a73e78"},"vehicle_type_id":"4","last_reported":1762427365,"current_range_meters":22400,"station_id":"ce4bhn12rcd13ifvqgqg","pricing_plan_id":"cebpf4jnsgd1na2vs0mg"},{"bike_id":"c3516986-99ea-4fdb-b596-75d0e23fc37b","system_id":"levelo_inurba_marseille","lat":43.29531,"lon":5.3853,"is_reserved":false,"is_disabled":false,"rental_uris":{"android":"levelo://app?vid=c3516986-99ea-4fdb-b596-75d0e23fc37b","ios":"levelo://app?vid=c3516986-99ea-4fdb-b596-75d0e23fc37b"},"vehicle_type_id":"4","last_reported":1762427365,"current_range_meters":22400,"station_id":"ce4bgih2rcd13ifvqba0","pricing_plan_id":"cebpf4jnsgd1na2vs0mg"},{"bike_id":"1650fb23-80cb-4f0b-8d86-501d882608e5","system_id":"levelo_inurba_marseille","lat":43.27505,"lon":5.42457,"is_reserved":false,"is_disabled":false,"rental_uris":{"android":"levelo://app?vid=1650fb23-80cb-4f0b-8d86-501d882608e5","ios":"levelo://app?vid=1650fb23-80cb-4f0b-8d86-501d882608e5"},"vehicle_type_id":"4","last_reported":1762427365,"current_range_meters":22400,"station_id":"ce4bhn92rcd13ifvqgrg","pricing_plan_id":"cebpf4jnsgd1na2vs0mg"},{"bike_id":"77be7faa-abf3-44ea-a5ae-4f2ccbf24228","system_id":"levelo_inurba_marseille","lat":43.30449,"lon":5.37914,"is_reserved":false,"is_disabled":false,"rental_uris":{"android":"levelo://app?vid=77be7faa-abf3-44ea-a5ae-4f2ccbf24228","ios":"levelo://app?vid=77be7faa-abf3-44ea-a5ae-4f2ccbf24228"},"vehicle_type_id":"4","last_reported":1762427365,"current_range_meters":22400,"station_id":"ce4bgup2rcd13ifvqcn0","pricing_plan_id":"cebpf4jnsgd1na2vs0mg"},{"bike_id":"8edbd335-6405-4e7f-82b9-837eea31165c","system_id":"levelo_inurba_marseille","lat":43.30543,"lon":5.36558,"is_reserved":false,"is_disabled":false,"rental_uris":{"android":"levelo://app?vid=8edbd335-6405-4e7f-82b9-837eea31165c","ios":"levelo://app?vid=8edbd335-6405-4e7f-82b9-837eea31165c"},"vehicle_type_id":"4","last_reported":1762427365,"current_range_meters":22400,"station_id":"ce4bgs12rcd13ifvqcag","pricing_plan_id":"cebpf4jnsgd1na2vs0mg"},{"bike_id":"09742958-d3e6-4ec0-b4f0-504594c894d6","system_id":"levelo_inurba_marseille","lat":43.29275,"lon":5.40144,"is_reserved":false,"is_disabled":false,"rental_uris":{"android":"levelo://app?vid=09742958-d3e6-4ec0-b4f0-504594c894d6","ios":"levelo://app?vid=09742958-d3e6-4ec0-b4f0-504594c894d6"},"vehicle_type_id":"4","last_reported":1762427365,"current_range_meters":22800,"station_id":"ce4bh312rcd13ifvqdk0","pricing_plan_id":"cebpf4jnsgd1na2vs0mg"},{"bike_id":"c67351d1-af47-404c-b2d9-7e01a2354c6b","system_id":"levelo_inurba_marseille","lat":43.29267,"lon":5.38447,"is_reserved":false,"is_disabled":false,"rental_uris":{"android":"levelo://app?vid=c67351d1-af47-404c-b2d9-7e01a2354c6b","ios":"levelo://app?vid=c67351d1-af47-404c-b2d9-7e01a2354c6b"},"vehicle_type_id":"4","last_reported":1762427365,"current_range_meters":22800,"station_id":"ce4bh692rcd13ifvqea0","pricing_plan_id":"cebpf4jnsgd1na2vs0mg"},{"bike_id":"4b18c56b-4410-45b0-bd39-2e4be739c205","system_id":"levelo_inurba_marseille","lat":43.32494,"lon":5.36563,"is_reserved":false,"is_disabled":false,"rental_uris":{"android":"levelo://app?vid=4b18c56b-4410-45b0-bd39-2e4be739c205","ios":"levelo://app?vid=4b18c56b-4410-45b0-bd39-2e4be739c205"},"vehicle_type_id":"4","last_reported":1762427365,"current_range_meters":22800,"station_id":"ce4bhs12rcd13ifvqhvg","pricing_plan_id":"cebpf4jnsgd1na2vs0mg"},{"bike_id":"4125e573-21c6-4351-9ab8-437f36c71e3b","system_id":"levelo_inurba_marseille","lat":43.231466,"lon":5.437152,"is_reserved":false,"is_disabled":false,"rental_uris":{"android":"levelo://app?vid=4125e573-21c6-4351-9ab8-437f36c71e3b","ios":"levelo://app?vid=4125e573-21c6-4351-9ab8-437f36c71e3b"},"vehicle_type_id":"4","last_reported":1762427365,"current_range_meters":22800,"station_id":"ce4bhmp2rcd13ifvqgog","pricing_plan_id":"cebpf4jnsgd1na2vs0mg"},{"bike_id":"b8b0e46b-1f44-42fc-9e93-720bb004defc","system_id":"levelo_inurba_marseille","lat":43.32487,"lon":5.36575,"is_reserved":false,"is_disabled":false,"rental_uris":{"android":"levelo://app?vid=b8b0e46b-1f44-42fc-9e93-720bb004defc","ios":"levelo://app?vid=b8b0e46b-1f44-42fc-9e93-720bb004defc"},"vehicle_type_id":"4","last_reported":1762427365,"current_range_meters":22800,"station_id":"ce4bhs12rcd13ifvqhvg","pricing_plan_id":"cebpf4jnsgd1na2vs0mg"},{"bike_id":"c14ad89c-401e-4d61-927e-d1b441cc94da","system_id":"levelo_inurba_marseille","lat":43.23162,"lon":5.43726,"is_reserved":false,"is_disabled":false,"rental_uris":{"android":"levelo://app?vid=c14ad89c-401e-4d61-927e-d1b441cc94da","ios":"levelo://app?vid=c14ad89c-401e-4d61-927e-d1b441cc94da"},"vehicle_type_id":"4","last_reported":1762427365,"current_range_meters":22800,"station_id":"ce4bhmp2rcd13ifvqgog","pricing_plan_id":"cebpf4jnsgd1na2vs0mg"},{"bike_id":"3e018701-1b6d-4e85-b15a-8ffe410da4bb","system_id":"levelo_inurba_marseille","lat":43.29599,"lon":5.381021,"is_reserved":false,"is_disabled":false,"rental_uris":{"android":"levelo://app?vid=3e018701-1b6d-4e85-b15a-8ffe410da4bb","ios":"levelo://app?vid=3e018701-1b6d-4e85-b15a-8ffe410da4bb"},"vehicle_type_id":"4","last_reported":1762427365,"current_range_meters":23200,"station_id":"ce4bgl92rcd13ifvqbq0","pricing_plan_id":"cebpf4jnsgd1na2vs0mg"},{"bike_id":"a1a27106-1692-4fbc-9e40-7eabeb8f1a4a","system_id":"levelo_inurba_marseille","lat":43.326606,"lon":5.40999,"is_reserved":false,"is_disabled":false,"rental_uris":{"android":"levelo://app?vid=a1a27106-1692-4fbc-9e40-7eabeb8f1a4a","ios":"levelo://app?vid=a1a27106-1692-4fbc-9e40-7eabeb8f1a4a"},"vehicle_type_id":"4","last_reported":1762427365,"current_range_meters":23200,"station_id":"","pricing_plan_id":"cebpf4jnsgd1na2vs0mg"},{"bike_id":"12e57c20-76b2-4cb3-8e8f-c0d10efd3e15","system_id":"levelo_inurba_marseille","lat":43.270664,"lon":5.422685,"is_reserved":false,"is_disabled":false,"rental_uris":{"android":"levelo://app?vid=12e57c20-76b2-4cb3-8e8f-c0d10efd3e15","ios":"levelo://app?vid=12e57c20-76b2-4cb3-8e8f-c0d10efd3e15"},"vehicle_type_id":"4","last_reported":1762427365,"current_range_meters":23200,"station_id":"ce4bhk92rcd13ifvqgb0","pricing_plan_id":"cebpf4jnsgd1na2vs0mg"},{"bike_id":"b2c22c3d-c1ec-4f37-9041-8111ec7602f0","system_id":"levelo_inurba_marseille","lat":43.25944,"lon":5.40893,"is_reserved":false,"is_disabled":false,"rental_uris":{"android":"levelo://app?vid=b2c22c3d-c1ec-4f37-9041-8111ec7602f0","ios":"levelo://app?vid=b2c22c3d-c1ec-4f37-9041-8111ec7602f0"},