{"last_updated":1756311156,"ttl":60,"version":"2.2","data":{"bikes":[{"bike_id":"efc2867f-4aea-44bf-b8f6-793ee36b1e34","system_id":"levelo_inurba_marseille","lat":43.29311,"lon":5.37458,"is_reserved":false,"is_disabled":false,"rental_uris":{"android":"levelo://app?vid=efc2867f-4aea-44bf-b8f6-793ee36b1e34","ios":"levelo://app?vid=efc2867f-4aea-44bf-b8f6-793ee36b1e34"},"vehicle_type_id":"4","last_reported":1756311156,"current_range_meters":2800,"station_id":"ce4bgi12rcd13ifvqb70","pricing_plan_id":"cebpf4jnsgd1na2vs0mg"},{"bike_id":"03be758f-3e6d-4c72-8876-95a4359600d6","system_id":"levelo_inurba_marseille","lat":43.33771,"lon":5.37486,"is_reserved":false,"is_disabled":false,"rental_uris":{"android":"levelo://app?vid=03be758f-3e6d-4c72-8876-95a4359600d6","ios":"levelo://app?vid=03be758f-3e6d-4c72-8876-95a4359600d6"},"vehicle_type_id":"4","last_reported":1756311156,"current_range_meters":2800,"station_id":"","pricing_plan_id":"cebpf4jnsgd1na2vs0mg"},{"bike_id":"236f1a17-bd84-4b8e-977f-7df7d8cf402c","system_id":"levelo_inurba_marseille","lat":43.307969,"lon":5.435254,"is_reserved":false,"is_disabled":true,"rental_uris":{"android":"levelo://app?vid=236f1a17-bd84-4b8e-977f-7df7d8cf402c","ios":"levelo://app?vid=236f1a17-bd84-4b8e-977f-7df7d8cf402c"},"vehicle_type_id":"4","last_reported":1756311156,"current_range_meters":2800,"station_id":"ce4bhph2rcd13ifvqheg","pricing_plan_id":"cebpf4jnsgd1na2vs0mg"},{"bike_id":"4785113a-d011-426c-bd9e-f128f61b0a2b","system_id":"levelo_inurba_marseille","lat":43.28402,"lon":5.37515,"is_reserved":false,"is_disabled":false,"rental_uris":{"android":"levelo://app?vid=4785113a-d011-426c-bd9e-f128f61b0a2b","ios":"levelo://app?vid=4785113a-d011-426c-bd9e-f128f61b0a2b"},"vehicle_type_id":"4","last_reported":1756311156,"current_range_meters":2000,"station_id":"ce4bh412rcd13ifvqds0","pricing_plan_id":"cebpf4jnsgd1na2vs0mg"},{"bike_id":"5952d60e-eda6-4650-aad4-6376002e4cf6","system_id":"levelo_inurba_marseille","lat":43.32107,"lon":5.36772,"is_reserved":false,"is_disabled":false,"rental_uris":{"android":"levelo://app?vid=5952d60e-eda6-4650-aad4-6376002e4cf6","ios":"levelo://app?vid=5952d60e-eda6-4650-aad4-6376002e4cf6"},"vehicle_type_id":"4","last_reported":1756311156,"current_range_meters":2800,"station_id":"ce4bhrh2rcd13ifvqhug","pricing_plan_id":"cebpf4jnsgd1na2vs0mg"},{"bike_id":"f6bd5b86-eb54-487c-8a4e-3da908b177ef","system_id":"levelo_inurba_marseille","lat":43.29743,"lon":5.37123,"is_reserved":false,"is_disabled":false,"rental_uris":{"android":"levelo://app?vid=f6bd5b86-eb54-487c-8a4e-3da908b177ef","ios":"levelo://app?vid=f6bd5b86-eb54-487c-8a4e-3da908b177ef"},"vehicle_type_id":"4","last_reported":1756311156,"current_range_meters":3200,"station_id":"ce4bgop2rcd13ifvqc1g","pricing_plan_id":"cebpf4jnsgd1na2vs0mg"},{"bike_id":"6f2acf80-ee2e-4040-9c0c-eb7c83d2c7f1","system_id":"levelo_inurba_marseille","lat":43.28267,"lon":5.35066,"is_reserved":false,"is_disabled":false,"rental_uris":{"android":"levelo://app?vid=6f2acf80-ee2e-4040-9c0c-eb7c83d2c7f1","ios":"levelo://app?vid=6f2acf80-ee2e-4040-9c0c-eb7c83d2c7f1"},"vehicle_type_id":"4","last_reported":1756311156,"current_range_meters":3200,"station_id":"ce4bhbp2rcd13ifvqerg","pricing_plan_id":"cebpf4jnsgd1na2vs0mg"},{"bike_id":"56d6adf2-a595-443e-accf-860dce3dbca3","system_id":"levelo_inurba_marseille","lat":43.29916,"lon":5.37484,"is_reserved":false,"is_disabled":false,"rental_uris":{"android":"levelo://app?vid=56d6adf2-a595-443e-accf-860dce3dbca3","ios":"levelo://app?vid=56d6adf2-a595-443e-accf-860dce3dbca3"},"vehicle_type_id":"4","last_reported":1756311156,"current_range_meters":3600,"station_id":"ce4bgjh2rcd13ifvqbg0","pricing_plan_id":"cebpf4jnsgd1na2vs0mg"},{"bike_id":"4e2be05b-d143-4a82-b16a-1cd1eeb593c3","system_id":"levelo_inurba_marseille","lat":43.29532,"lon":5.38549,"is_reserved":false,"is_disabled":false,"rental_uris":{"android":"levelo://app?vid=4e2be05b-d143-4a82-b16a-1cd1eeb593c3","ios":"levelo://app?vid=4e2be05b-d143-4a82-b16a-1cd1eeb593c3"},"vehicle_type_id":"4","last_reported":1756311156,"current_range_meters":3600,"station_id":"ce4bgih2rcd13ifvqba0","pricing_plan_id":"cebpf4jnsgd1na2vs0mg"},{"bike_id":"d3463bfd-7ee8-4b33-8d5a-96c07c73e2e6","system_id":"levelo_inurba_marseille","lat":43.279061,"lon":5.380142,"is_reserved":false,"is_disabled":false,"rental_uris":{"android":"levelo://app?vid=d3463bfd-7ee8-4b33-8d5a-96c07c73e2e6","ios":"levelo://app?vid=d3463bfd-7ee8-4b33-8d5a-96c07c73e2e6"},"vehicle_type_id":"4","last_reported":1756311156,"current_range_meters":3200,"station_id":"ce4bhf92rcd13ifvqf50","pricing_plan_id":"cebpf4jnsgd1na2vs0mg"},{"bike_id":"bd2b1d13-c5ae-4ca8-929f-2048f73c8a31","system_id":"levelo_inurba_marseille","lat":43.26555,"lon":5.37287,"is_reserved":false,"is_disabled":false,"rental_uris":{"android":"levelo://app?vid=bd2b1d13-c5ae-4ca8-929f-2048f73c8a31","ios":"levelo://app?vid=bd2b1d13-c5ae-4ca8-929f-2048f73c8a31"},"vehicle_type_id":"4","last_reported":1756311156,"current_range_meters":4000,"station_id":"ce4bhg12rcd13ifvqf70","pricing_plan_id":"cebpf4jnsgd1na2vs0mg"},{"bike_id":"0393e855-8fe3-4192-a6f0-3ee79d6e8398","system_id":"levelo_inurba_marseille","lat":43.24658,"lon":5.38165,"is_reserved":false,"is_disabled":false,"rental_uris":{"android":"levelo://app?vid=0393e855-8fe3-4192-a6f0-3ee79d6e8398","ios":"levelo://app?vid=0393e855-8fe3-4192-a6f0-3ee79d6e8398"},"vehicle_type_id":"4","last_reported":1756311156,"current_range_meters":4000,"station_id":"ce4bhih2rcd13ifvqfr0","pricing_plan_id":"cebpf4jnsgd1na2vs0mg"},{"bike_id":"bdc8974e-750a-4a56-bf36-c656324a3d98","system_id":"levelo_inurba_marseille","lat":43.26553,"lon":5.37289,"is_reserved":false,"is_disabled":false,"rental_uris":{"android":"levelo://app?vid=bdc8974e-750a-4a56-bf36-c656324a3d98","ios":"levelo://app?vid=bdc8974e-750a-4a56-bf36-c656324a3d98"},"vehicle_type_id":"4","last_reported":1756311156,"current_range_meters":4000,"station_id":"","pricing_plan_id":"cebpf4jnsgd1na2vs0mg"},{"bike_id":"3e05bdd9-013b-41a4-8e14-15cbdf303d5e","system_id":"levelo_inurba_marseille","lat":43.2318,"lon":5.3999,"is_reserved":false,"is_disabled":false,"rental_uris":{"android":"levelo://app?vid=3e05bdd9-013b-41a4-8e14-15cbdf303d5e","ios":"levelo://app?vid=3e05bdd9-013b-41a4-8e14-15cbdf303d5e"},"vehicle_type_id":"4","last_reported":1756311156,"current_range_meters":4000,"station_id":"ce4bhn12rcd13ifvqgqg","pricing_plan_id":"cebpf4jnsgd1na2vs0mg"},{"bike_id":"1439b255-a284-4e2d-933e-fc2c6673d4d4","system_id":"levelo_inurba_marseille","lat":43.21753,"lon":5.34597,"is_reserved":false,"is_disabled":false,"rental_uris":{"android":"levelo://app?vid=1439b255-a284-4e2d-933e-fc2c6673d4d4","ios":"levelo://app?vid=1439b255-a284-4e2d-933e-fc2c6673d4d4"},"vehicle_type_id":"4","last_reported":1756311156,"current_range_meters":4800,"station_id":"st_cvj6r9ubvosntc0bgbag","pricing_plan_id":"cebpf4jnsgd1na2vs0mg"},{"bike_id":"368a5a60-1760-410c-bfb4-b5dd85050312","system_id":"levelo_inurba_marseille","lat":43.27968,"lon":5.38745,"is_reserved":false,"is_disabled":false,"rental_uris":{"android":"levelo://app?vid=368a5a60-1760-410c-bfb4-b5dd85050312","ios":"levelo://app?vid=368a5a60-1760-410c-bfb4-b5dd85050312"},"vehicle_type_id":"4","last_reported":1756311156,"current_range_meters":4400,"station_id":"ce4bhg12rcd13ifvqf80","pricing_plan_id":"cebpf4jnsgd1na2vs0mg"},{"bike_id":"6dff096a-6998-4517-984b-20e4e6e26b7f","system_id":"levelo_inurba_marseille","lat":43.29613,"lon":5.37722,"is_reserved":false,"is_disabled":false,"rental_uris":{"android":"levelo://app?vid=6dff096a-6998-4517-984b-20e4e6e26b7f","ios":"levelo://app?vid=6dff096a-6998-4517-984b-20e4e6e26b7f"},"vehicle_type_id":"4","last_reported":1756311156,"current_range_meters":4000,"station_id":"ce4bgi92rcd13ifvqb90","pricing_plan_id":"cebpf4jnsgd1na2vs0mg"},{"bike_id":"8ac4b36f-3798-4cea-8ce0-dc506dceaa1c","system_id":"levelo_inurba_marseille","lat":43.239625,"lon":5.366287,"is_reserved":false,"is_disabled":false,"rental_uris":{"android":"levelo://app?vid=8ac4b36f-3798-4cea-8ce0-dc506dceaa1c","ios":"levelo://app?vid=8ac4b36f-3798-4cea-8ce0-dc506dceaa1c"},"vehicle_type_id":"4","last_reported":1756311156,"current_range_meters":4400,"station_id":"ce4bhi12rcd13ifvqfp0","pricing_plan_id":"cebpf4jnsgd1na2vs0mg"},{"bike_id":"b46639d3-0e19-46be-a590-754abfdbb7c9","system_id":"levelo_inurba_marseille","lat":43.295337,"lon":5.38546,"is_reserved":false,"is_disabled":true,"rental_uris":{"android":"levelo://app?vid=b46639d3-0e19-46be-a590-754abfdbb7c9","ios":"levelo://app?vid=b46639d3-0e19-46be-a590-754abfdbb7c9"},"vehicle_type_id":"4","last_reported":1756311156,"current_range_meters":4400,"station_id":"ce4bgih2rcd13ifvqba0","pricing_plan_id":"cebpf4jnsgd1na2vs0mg"},{"bike_id":"8005181e-a4eb-491e-8400-56217ae58775","system_id":"levelo_inurba_marseille","lat":43.28705,"lon":5.39983,"is_reserved":false,"is_disabled":false,"rental_uris":{"android":"levelo://app?vid=8005181e-a4eb-491e-8400-56217ae58775","ios":"levelo://app?vid=8005181e-a4eb-491e-8400-56217ae58775"},"vehicle_type_id":"4","last_reported":1756311156,"current_range_meters":4000,"station_id":"ce4bho92rcd13ifvqh3g","pricing_plan_id":"cebpf4jnsgd1na2vs0mg"},{"bike_id":"a4bac448-479d-4e19-afaa-78063f76f375","system_id":"levelo_inurba_marseille","lat":43.29258,"lon":5.40909,"is_reserved":false,"is_disabled":false,"rental_uris":{"android":"levelo://app?vid=a4bac448-479d-4e19-afaa-78063f76f375","ios":"levelo://app?vid=a4bac448-479d-4e19-afaa-78063f76f375"},"vehicle_type_id":"4","last_reported":1756311156,"current_range_meters":4800,"station_id":"ce4bh192rcd13ifvqdc0","pricing_plan_id":"cebpf4jnsgd1na2vs0mg"},{"bike_id":"78a9e5cb-d961-434c-91ba-bc2e32666732","system_id":"levelo_inurba_marseille","lat":43.24643,"lon":5.38878,"is_reserved":false,"is_disabled":false,"rental_uris":{"android":"levelo://app?vid=78a9e5cb-d961-434c-91ba-bc2e32666732","ios":"levelo://app?vid=78a9e5cb-d961-434c-91ba-bc2e32666732"},"vehicle_type_id":"4","last_reported":1756311156,"current_range_meters":4800,"station_id":"ce4bhg12rcd13ifvqf60","pricing_plan_id":"cebpf4jnsgd1na2vs0mg"},{"bike_id":"6cbc0aa8-5dc0-4626-825f-317b082caf80","system_id":"levelo_inurba_marseille","lat":43.28705,"lon":5.3998,"is_reserved":false,"is_disabled":false,"rental_uris":{"android":"levelo://app?vid=6cbc0aa8-5dc0-4626-825f-317b082caf80","ios":"levelo://app?vid=6cbc0aa8-5dc0-4626-825f-317b082caf80"},"vehicle_type_id":"4","last_reported":1756311156,"current_range_meters":4800,"station_id":"ce4bho92rcd13ifvqh3g","pricing_plan_id":"cebpf4jnsgd1na2vs0mg"},{"bike_id":"3f77153a-8bc0-4e20-a3d7-3fb04677fad0","system_id":"levelo_inurba_marseille","lat":43.31328,"lon":5.39687,"is_reserved":false,"is_disabled":false,"rental_uris":{"android":"levelo://app?vid=3f77153a-8bc0-4e20-a3d7-3fb04677fad0","ios":"levelo://app?vid=3f77153a-8bc0-4e20-a3d7-3fb04677fad0"},"vehicle_type_id":"4","last_reported":1756311156,"current_range_meters":5600,"station_id":"ce4bgvp2rcd13ifvqcu0","pricing_plan_id":"cebpf4jnsgd1na2vs0mg"},{"bike_id":"ea91f104-18d1-4030-923d-bb23861c92f9","system_id":"levelo_inurba_marseille","lat":43.27325,"lon":5.39075,"is_reserved":false,"is_disabled":false,"rental_uris":{"android":"levelo://app?vid=ea91f104-18d1-4030-923d-bb23861c92f9","ios":"levelo://app?vid=ea91f104-18d1-4030-923d-bb23861c92f9"},"vehicle_type_id":"4","last_reported":1756311156,"current_range_meters":5600,"station_id":"ce4bhgp2rcd13ifvqfe0","pricing_plan_id":"cebpf4jnsgd1na2vs0mg"},{"bike_id":"0f551e0f-375f-4169-a337-2903b4f59623","system_id":"levelo_inurba_marseille","lat":43.284232,"lon":5.349912,"is_reserved":false,"is_disabled":false,"rental_uris":{"android":"levelo://app?vid=0f551e0f-375f-4169-a337-2903b4f59623","ios":"levelo://app?vid=0f551e0f-375f-4169-a337-2903b4f59623"},"vehicle_type_id":"4","last_reported":1756311156,"current_range_meters":5600,"station_id":"ce4bhbh2rcd13ifvqepg","pricing_plan_id":"cebpf4jnsgd1na2vs0mg"},{"bike_id":"3add44d8-49b4-46c3-a778-11b696c2bd26","system_id":"levelo_inurba_marseille","lat":43.211841,"lon":5.350732,"is_reserved":false,"is_disabled":false,"rental_uris":{"android":"levelo://app?vid=3add44d8-49b4-46c3-a778-11b696c2bd26","ios":"levelo://app?vid=3add44d8-49b4-46c3-a778-11b696c2bd26"},"vehicle_type_id":"4","last_reported":1756311156,"current_range_meters":5600,"station_id":"st_cvj6sg6p6f1abm77japg","pricing_plan_id":"cebpf4jnsgd1na2vs0mg"},{"bike_id":"95d2e177-6c6c-4608-b1f1-ff651bf795ca","system_id":"levelo_inurba_marseille","lat":43.26559,"lon":5.37262,"is_reserved":false,"is_disabled":false,"rental_uris":{"android":"levelo://app?vid=95d2e177-6c6c-4608-b1f1-ff651bf795ca","ios":"levelo://app?vid=95d2e177-6c6c-4608-b1f1-ff651bf795ca"},"vehicle_type_id":"4","last_reported":1756311156,"current_range_meters":6000,"station_id":"ce4bhg12rcd13ifvqf70","pricing_plan_id":"cebpf4jnsgd1na2vs0mg"},{"bike_id":"bafd22cb-0a9a-492c-9a12-ecf1c5e043bf","system_id":"levelo_inurba_marseille","lat":43.29875,"lon":5.39717,"is_reserved":false,"is_disabled":false,"rental_uris":{"android":"levelo://app?vid=bafd22cb-0a9a-492c-9a12-ecf1c5e043bf","ios":"levelo://app?vid=bafd22cb-0a9a-492c-9a12-ecf1c5e043bf"},"vehicle_type_id":"4","last_reported":1756311156,"current_range_meters":5600,"station_id":"ce4bh0h2rcd13ifvqd50","pricing_plan_id":"cebpf4jnsgd1na2vs0mg"},{"bike_id":"edc4c588-4db1-4b48-bddb-0eba1d72ba9f","system_id":"levelo_inurba_marseille","lat":43.2119,"lon":5.35077,"is_reserved":false,"is_disabled":false,"rental_uris":{"android":"levelo://app?vid=edc4c588-4db1-4b48-bddb-0eba1d72ba9f","ios":"levelo://app?vid=edc4c588-4db1-4b48-bddb-0eba1d72ba9f"},"vehicle_type_id":"4","last_reported":1756311156,"current_range_meters":6000,"station_id":"st_cvj6sg6p6f1abm77japg","pricing_plan_id":"cebpf4jnsgd1na2vs0mg"},{"bike_id":"b93f6525-8abe-4b70-83be-5f31a0069ca9","system_id":"levelo_inurba_marseille","lat":43.28462,"lon":5.35884,"is_reserved":false,"is_disabled":false,"rental_uris":{"android":"levelo://app?vid=b93f6525-8abe-4b70-83be-5f31a0069ca9","ios":"levelo://app?vid=b93f6525-8abe-4b70-83be-5f31a0069ca9"},"vehicle_type_id":"4","last_reported":1756311156,"current_range_meters":5600,"station_id":"ce4bhah2rcd13ifvqei0","pricing_plan_id":"cebpf4jnsgd1na2vs0mg"},{"bike_id":"54be4df3-cf8e-4246-a9d3-ac779715e798","system_id":"levelo_inurba_marseille","lat":43.28854,"lon":5.35837,"is_reserved":false,"is_disabled":false,"rental_uris":{"android":"levelo://app?vid=54be4df3-cf8e-4246-a9d3-ac779715e798","ios":"levelo://app?vid=54be4df3-cf8e-4246-a9d3-ac779715e798"},"vehicle_type_id":"4","last_reported":1756311156,"current_range_meters":6000,"station_id":"ce4bhb12rcd13ifvqem0","pricing_plan_id":"cebpf4jnsgd1na2vs0mg"},{"bike_id":"eeb42e78-373a-42a8-ad92-d1dc5831d4c3","system_id":"levelo_inurba_marseille","lat":43.24812,"lon":5.37467,"is_reserved":false,"is_disabled":true,"rental_uris":{"android":"levelo://app?vid=eeb42e78-373a-42a8-ad92-d1dc5831d4c3","ios":"levelo://app?vid=eeb42e78-373a-42a8-ad92-d1dc5831d4c3"},"vehicle_type_id":"4","last_reported":1756311156,"current_range_meters":6400,"station_id":"ce4bhgh2rcd13ifvqfb0","pricing_plan_id":"cebpf4jnsgd1na2vs0mg"},{"bike_id":"d9bec615-9a08-451b-82b0-e75914fe74bb","system_id":"levelo_inurba_marseille","lat":43.3361,"lon":5.41019,"is_reserved":false,"is_disabled":false,"rental_uris":{"android":"levelo://app?vid=d9bec615-9a08-451b-82b0-e75914fe74bb","ios":"levelo://app?vid=d9bec615-9a08-451b-82b0-e75914fe74bb"},"vehicle_type_id":"4","last_reported":1756311156,"current_range_meters":6400,"station_id":"ce4bhqh2rcd13ifvqhmg","pricing_plan_id":"cebpf4jnsgd1na2vs0mg"},{"bike_id":"9eddc19c-4d66-4671-81a8-5ffa7a68db07","system_id":"levelo_inurba_marseille","lat":43.21199,"lon":5.35076,"is_reserved":false,"is_disabled":false,"rental_uris":{"android":"levelo://app?vid=9eddc19c-4d66-4671-81a8-5ffa7a68db07","ios":"levelo://app?vid=9eddc19c-4d66-4671-81a8-5ffa7a68db07"},"vehicle_type_id":"4","last_reported":1756311156,"current_range_meters":6400,"station_id":"st_cvj6sg6p6f1abm77japg","pricing_plan_id":"cebpf4jnsgd1na2vs0mg"},{"bike_id":"2e1ee3ba-fbb1-45f8-8ae7-f889092ab9f1","system_id":"levelo_inurba_marseille","lat":43.30564,"lon":5.36485,"is_reserved":false,"is_disabled":false,"rental_uris":{"android":"levelo://app?vid=2e1ee3ba-fbb1-45f8-8ae7-f889092ab9f1","ios":"levelo://app?vid=2e1ee3ba-fbb1-45f8-8ae7-f889092ab9f1"},"vehicle_type_id":"4","last_reported":1756311156,"current_range_meters":6400,"station_id":"","pricing_plan_id":"cebpf4jnsgd1na2vs0mg"},{"bike_id":"76768530-04d2-4baa-964f-4f485cf252a2","system_id":"levelo_inurba_marseille","lat":43.29866,"lon":5.39726,"is_reserved":false,"is_disabled":false,"rental_uris":{"android":"levelo://app?vid=76768530-04d2-4baa-964f-4f485cf252a2","ios":"levelo://app?vid=76768530-04d2-4baa-964f-4f485cf252a2"},"vehicle_type_id":"4","last_reported":1756311156,"current_range_meters":6400,"station_id":"ce4bh0h2rcd13ifvqd50","pricing_plan_id":"cebpf4jnsgd1na2vs0mg"},{"bike_id":"a5d7ae70-6e6a-4ef3-b93c-775c21701b38","system_id":"levelo_inurba_marseille","lat":43.31084,"lon":5.42426,"is_reserved":false,"is_disabled":false,"rental_uris":{"android":"levelo://app?vid=a5d7ae70-6e6a-4ef3-b93c-775c21701b38","ios":"levelo://app?vid=a5d7ae70-6e6a-4ef3-b93c-775c21701b38"},"vehicle_type_id":"4","last_reported":1756311156,"current_range_meters":6800,"station_id":"ce4bhp92rcd13ifvqhag","pricing_plan_id":"cebpf4jnsgd1na2vs0mg"},{"bike_id":"2732b203-8d34-41ae-80bd-b4f151d77aad","system_id":"levelo_inurba_marseille","lat":43.302568,"lon":5.405459,"is_reserved":false,"is_disabled":false,"rental_uris":{"android":"levelo://app?vid=2732b203-8d34-41ae-80bd-b4f151d77aad","ios":"levelo://app?vid=2732b203-8d34-41ae-80bd-b4f151d77aad"},"vehicle_type_id":"4","last_reported":1756311156,"current_range_meters":7200,"station_id":"","pricing_plan_id":"cebpf4jnsgd1na2vs0mg"},{"bike_id":"80b3e157-5814-4756-9d78-1ef4ff6dec0d","system_id":"levelo_inurba_marseille","lat":43.29301,"lon":5.37464,"is_reserved":false,"is_disabled":false,"rental_uris":{"android":"levelo://app?vid=80b3e157-5814-4756-9d78-1ef4ff6dec0d","ios":"levelo://app?vid=80b3e157-5814-4756-9d78-1ef4ff6dec0d"},"vehicle_type_id":"4","last_reported":1756311156,"current_range_meters":7200,"station_id":"ce4bgi12rcd13ifvqb70","pricing_plan_id":"cebpf4jnsgd1na2vs0mg"},{"bike_id":"0d502687-08ef-4491-8893-8a03d8688be8","system_id":"levelo_inurba_marseille","lat":43.2962,"lon":5.36124,"is_reserved":false,"is_disabled":false,"rental_uris":{"android":"levelo://app?vid=0d502687-08ef-4491-8893-8a03d8688be8","ios":"levelo://app?vid=0d502687-08ef-4491-8893-8a03d8688be8"},"vehicle_type_id":"4","last_reported":1756311156,"current_range_meters":7200,"station_id":"","pricing_plan_id":"cebpf4jnsgd1na2vs0mg"},{"bike_id":"51318c3f-a05b-4628-b8ad-f8616f83ec5d","system_id":"levelo_inurba_marseille","lat":43.24387,"lon":5.37055,"is_reserved":false,"is_disabled":false,"rental_uris":{"android":"levelo://app?vid=51318c3f-a05b-4628-b8ad-f8616f83ec5d","ios":"levelo://app?vid=51318c3f-a05b-4628-b8ad-f8616f83ec5d"},"vehicle_type_id":"4","last_reported":1756311156,"current_range_meters":7200,"station_id":"ce4bhhh2rcd13ifvqfk0","pricing_plan_id":"cebpf4jnsgd1na2vs0mg"},{"bike_id":"32b3875e-3ac6-4fd7-b8cf-554bcd6a1900","system_id":"levelo_inurba_marseille","lat":43.29783,"lon":5.39334,"is_reserved":false,"is_disabled":false,"rental_uris":{"android":"levelo://app?vid=32b3875e-3ac6-4fd7-b8cf-554bcd6a1900","ios":"levelo://app?vid=32b3875e-3ac6-4fd7-b8cf-554bcd6a1900"},"vehicle_type_id":"4","last_reported":1756311156,"current_range_meters":8000,"station_id":"chh1huq6cuj3fo74tm60","pricing_plan_id":"cebpf4jnsgd1na2vs0mg"},{"bike_id":"bf3e477a-6441-4bfb-854c-e64d105fc25c","system_id":"levelo_inurba_marseille","lat":43.26024,"lon":5.37552,"is_reserved":false,"is_disabled":false,"rental_uris":{"android":"levelo://app?vid=bf3e477a-6441-4bfb-854c-e64d105fc25c","ios":"levelo://app?vid=bf3e477a-6441-4bfb-854c-e64d105fc25c"},"vehicle_type_id":"4","last_reported":1756311156,"current_range_meters":8000,"station_id":"ce4bhgh2rcd13ifvqfa0","pricing_plan_id":"cebpf4jnsgd1na2vs0mg"},{"bike_id":"adf2858a-f6b9-45fb-b2e7-8d1012726fd7","system_id":"levelo_inurba_marseille","lat":43.21745,"lon":5.34579,"is_reserved":false,"is_disabled":false,"rental_uris":{"android":"levelo://app?vid=adf2858a-f6b9-45fb-b2e7-8d1012726fd7","ios":"levelo://app?vid=adf2858a-f6b9-45fb-b2e7-8d1012726fd7"},"vehicle_type_id":"4","last_reported":1756311156,"current_range_meters":8000,"station_id":"","pricing_plan_id":"cebpf4jnsgd1na2vs0mg"},{"bike_id":"3343f780-2039-4c94-8315-68cd56526e39","system_id":"levelo_inurba_marseille","lat":43.29297,"lon":5.37462,"is_reserved":false,"is_disabled":false,"rental_uris":{"android":"levelo://app?vid=3343f780-2039-4c94-8315-68cd56526e39","ios":"levelo://app?vid=3343f780-2039-4c94-8315-68cd56526e39"},"vehicle_type_id":"4","last_reported":1756311156,"current_range_meters":7200,"station_id":"ce4bgi12rcd13ifvqb70","pricing_plan_id":"cebpf4jnsgd1na2vs0mg"},{"bike_id":"b4355a8b-6620-41c5-aaa4-2b969fb59e8f","system_id":"levelo_inurba_marseille","lat":43.26183,"lon":5.37466,"is_reserved":false,"is_disabled":true,"rental_uris":{"android":"levelo://app?vid=b4355a8b-6620-41c5-aaa4-2b969fb59e8f","ios":"levelo://app?vid=b4355a8b-6620-41c5-aaa4-2b969fb59e8f"},"vehicle_type_id":"4","last_reported":1756311156,"current_range_meters":8000,"station_id":"ce4bhgp2rcd13ifvqfc0","pricing_plan_id":"cebpf4jnsgd1na2vs0mg"},{"bike_id":"7734bfd0-9eac-47a3-a365-f1d5ada09ae2","system_id":"levelo_inurba_marseille","lat":43.28267,"lon":5.35062,"is_reserved":false,"is_disabled":false,"rental_uris":{"android":"levelo://app?vid=7734bfd0-9eac-47a3-a365-f1d5ada09ae2","ios":"levelo://app?vid=7734bfd0-9eac-47a3-a365-f1d5ada09ae2"},"vehicle_type_id":"4","last_reported":1756311156,"current_range_meters":8000,"station_id":"ce4bhbp2rcd13ifvqerg","pricing_plan_id":"cebpf4jnsgd1na2vs0mg"},{"bike_id":"b70678e7-8078-4bc7-b563-6ff92f59e289","system_id":"levelo_inurba_marseille","lat":43.31439,"lon":5.37337,"is_reserved":false,"is_disabled":false,"rental_uris":{"android":"levelo://app?vid=b70678e7-8078-4bc7-b563-6ff92f59e289","ios":"levelo://app?vid=b70678e7-8078-4bc7-b563-6ff92f59e289"},"vehicle_type_id":"4","last_reported":1756311156,"current_range_meters":8400,"station_id":"","pricing_plan_id":"cebpf4jnsgd1na2vs0mg"},{"bike_id":"919403d1-9d41-4322-8f42-253c1dba9d3b","system_id":"levelo_inurba_marseille","lat":43.2175,"lon":5.34596,"is_reserved":false,"is_disabled":false,"rental_uris":{"android":"levelo://app?vid=919403d1-9d41-4322-8f42-253c1dba9d3b","ios":"levelo://app?vid=919403d1-9d41-4322-8f42-253c1dba9d3b"},"vehicle_type_id":"4","last_reported":1756311156,"current_range_meters":8400,"station_id":"st_cvj6r9ubvosntc0bgbag","pricing_plan_id":"cebpf4jnsgd1na2vs0mg"},{"bike_id":"874376d5-cc40-4ea0-afe6-94d890db36e7","system_id":"levelo_inurba_marseille","lat":43.28414,"lon":5.34965,"is_reserved":false,"is_disabled":false,"rental_uris":{"android":"levelo://app?vid=874376d5-cc40-4ea0-afe6-94d890db36e7","ios":"levelo://app?vid=874376d5-cc40-4ea0-afe6-94d890db36e7"},"vehicle_type_id":"4","last_reported":1756311156,"current_range_meters":8400,"station_id":"ce4bhbh2rcd13ifvqepg","pricing_plan_id":"cebpf4jnsgd1na2vs0mg"},{"bike_id":"9c2177b6-a805-4cbd-8004-9e37bfa8d1b5","system_id":"levelo_inurba_marseille","lat":43.287048,"lon":5.373696,"is_reserved":false,"is_disabled":false,"rental_uris":{"android":"levelo://app?vid=9c2177b6-a805-4cbd-8004-9e37bfa8d1b5","ios":"levelo://app?vid=9c2177b6-a805-4cbd-8004-9e37bfa8d1b5"},"vehicle_type_id":"4","last_reported":1756311156,"current_range_meters":8400,"station_id":"ce4bh3p2rcd13ifvqdq0","pricing_plan_id":"cebpf4jnsgd1na2vs0mg"},{"bike_id":"f38aad3c-baf6-4481-821a-e985c764e744","system_id":"levelo_inurba_marseille","lat":43.284132,"lon":5.349691,"is_reserved":false,"is_disabled":false,"rental_uris":{"android":"levelo://app?vid=f38aad3c-baf6-4481-821a-e985c764e744","ios":"levelo://app?vid=f38aad3c-baf6-4481-821a-e985c764e744"},"vehicle_type_id":"4","last_reported":1756311156,"current_range_meters":8400,"station_id":"ce4bhbh2rcd13ifvqepg","pricing_plan_id":"cebpf4jnsgd1na2vs0mg"},{"bike_id":"62a2e4a3-34e8-4936-ba8c-9d719ba46973","system_id":"levelo_inurba_marseille","lat":43.27317,"lon":5.39067,"is_reserved":false,"is_disabled":true,"rental_uris":{"android":"levelo://app?vid=62a2e4a3-34e8-4936-ba8c-9d719ba46973","ios":"levelo://app?vid=62a2e4a3-34e8-4936-ba8c-9d719ba46973"},"vehicle_type_id":"4","last_reported":1756311156,"current_range_meters":8400,"station_id":"ce4bhgp2rcd13ifvqfe0","pricing_plan_id":"cebpf4jnsgd1na2vs0mg"},{"bike_id":"51842e17-ef10-4624-a23e-c8a182427991","system_id":"levelo_inurba_marseille","lat":43.31621,"lon":5.38156,"is_reserved":false,"is_disabled":false,"rental_uris":{"android":"levelo://app?vid=51842e17-ef10-4624-a23e-c8a182427991","ios":"levelo://app?vid=51842e17-ef10-4624-a23e-c8a182427991"},"vehicle_type_id":"4","last_reported":1756311156,"current_range_meters":8400,"station_id":"","pricing_plan_id":"cebpf4jnsgd1na2vs0mg"},{"bike_id":"69a01144-4cb0-4f43-b8a7-d8bba1210d75","system_id":"levelo_inurba_marseille","lat":43.31564,"lon":5.37404,"is_reserved":false,"is_disabled":false,"rental_uris":{"android":"levelo://app?vid=69a01144-4cb0-4f43-b8a7-d8bba1210d75","ios":"levelo://app?vid=69a01144-4cb0-4f43-b8a7-d8bba1210d75"},"vehicle_type_id":"4","last_reported":1756311156,"current_range_meters":8400,"station_id":"","pricing_plan_id":"cebpf4jnsgd1na2vs0mg"},{"bike_id":"759d948a-980f-4eab-bc69-876f1ff95eb8","system_id":"levelo_inurba_marseille","lat":43.28862,"lon":5.39311,"is_reserved":false,"is_disabled":true,"rental_uris":{"android":"levelo://app?vid=759d948a-980f-4eab-bc69-876f1ff95eb8","ios":"levelo://app?vid=759d948a-980f-4eab-bc69-876f1ff95eb8"},"vehicle_type_id":"4","last_reported":1756311156,"current_range_meters":8400,"station_id":"ce4bh2p2rcd13ifvqdi0","pricing_plan_id":"cebpf4jnsgd1na2vs0mg"},{"bike_id":"bce60588-993a-47f4-8d21-6be828a9c618","system_id":"levelo_inurba_marseille","lat":43.276,"lon":5.36077,"is_reserved":false,"is_disabled":false,"rental_uris":{"android":"levelo://app?vid=bce60588-993a-47f4-8d21-6be828a9c618","ios":"levelo://app?vid=bce60588-993a-47f4-8d21-6be828a9c618"},"vehicle_type_id":"4","last_reported":1756311156,"current_range_meters":8400,"station_id":"ce4bgj92rcd13ifvqbe0","pricing_plan_id":"cebpf4jnsgd1na2vs0mg"},{"bike_id":"1d55c7f6-f1a6-484f-9154-db1ad2c67007","system_id":"levelo_inurba_marseille","lat":43.297918,"lon":5.393508,"is_reserved":false,"is_disabled":false,"rental_uris":{"android":"levelo://app?vid=1d55c7f6-f1a6-484f-9154-db1ad2c67007","ios":"levelo://app?vid=1d55c7f6-f1a6-484f-9154-db1ad2c67007"},"vehicle_type_id":"4","last_reported":1756311156,"current_range_meters":8800,"station_id":"chh1huq6cuj3fo74tm60","pricing_plan_id":"cebpf4jnsgd1na2vs0mg"},{"bike_id":"0f2017f4-e5c1-46a2-a7d8-e957ce265a72","system_id":"levelo_inurba_marseille","lat":43.29669,"lon":5.36863,"is_reserved":false,"is_disabled":false,"rental_uris":{"android":"levelo://app?vid=0f2017f4-e5c1-46a2-a7d8-e957ce265a72","ios":"levelo://app?vid=0f2017f4-e5c1-46a2-a7d8-e957ce265a72"},"vehicle_type_id":"4","last_reported":1756311156,"current_range_meters":8800,"station_id":"","pricing_plan_id":"cebpf4jnsgd1na2vs0mg"},{"bike_id":"a7eead0f-66f4-4c5b-9359-13a4e6e0901e","system_id":"levelo_inurba_marseille","lat":43.28265,"lon":5.35056,"is_reserved":false,"is_disabled":false,"rental_uris":{"android":"levelo://app?vid=a7eead0f-66f4-4c5b-9359-13a4e6e0901e","ios":"levelo://app?vid=a7eead0f-66f4-4c5b-9359-13a4e6e0901e"},"vehicle_type_id":"4","last_reported":1756311156,"current_range_meters":8800,"station_id":"ce4bhbp2rcd13ifvqerg","pricing_plan_id":"cebpf4jnsgd1na2vs0mg"},{"bike_id":"1f865916-94c2-4eb6-9ab9-6b42ea1a26b8","system_id":"levelo_inurba_marseille","lat":43.28709,"lon":5.39998,"is_reserved":false,"is_disabled":false,"rental_uris":{"android":"levelo://app?vid=1f865916-94c2-4eb6-9ab9-6b42ea1a26b8","ios":"levelo://app?vid=1f865916-94c2-4eb6-9ab9-6b42ea1a26b8"},"vehicle_type_id":"4","last_reported":1756311156,"current_range_meters":9200,"station_id":"","pricing_plan_id":"cebpf4jnsgd1na2vs0mg"},{"bike_id":"24df2c59-c2ae-4cf6-8d73-b821e9ca9612","system_id":"levelo_inurba_marseille","lat":43.2799,"lon":5.40004,"is_reserved":false,"is_disabled":true,"rental_uris":{"android":"levelo://app?vid=24df2c59-c2ae-4cf6-8d73-b821e9ca9612","ios":"levelo://app?vid=24df2c59-c2ae-4cf6-8d73-b821e9ca9612"},"vehicle_type_id":"4","last_reported":1756311156,"current_range_meters":8800,"station_id":"ce4bho92rcd13ifvqh4g","pricing_plan_id":"cebpf4jnsgd1na2vs0mg"},{"bike_id":"d5c3968f-bb6e-4b49-a739-c561b9c7664b","system_id":"levelo_inurba_marseille","lat":43.29194,"lon":5.35798,"is_reserved":false,"is_disabled":false,"rental_uris":{"android":"levelo://app?vid=d5c3968f-bb6e-4b49-a739-c561b9c7664b","ios":"levelo://app?vid=d5c3968f-bb6e-4b49-a739-c561b9c7664b"},"vehicle_type_id":"4","last_reported":1756311156,"current_range_meters":8800,"station_id":"ce4bhb12rcd13ifvqel0","pricing_plan_id":"cebpf4jnsgd1na2vs0mg"},{"bike_id":"a79b6166-93d1-40ff-986d-a995e819e2c5","system_id":"levelo_inurba_marseille","lat":43.32363,"lon":5.38887,"is_reserved":false,"is_disabled":false,"rental_uris":{"android":"levelo://app?vid=a79b6166-93d1-40ff-986d-a995e819e2c5","ios":"levelo://app?vid=a79b6166-93d1-40ff-986d-a995e819e2c5"},"vehicle_type_id":"4","last_reported":1756311156,"current_range_meters":9200,"station_id":"ce4bhqp2rcd13ifvqhog","pricing_plan_id":"cebpf4jnsgd1na2vs0mg"},{"bike_id":"23c09b6a-8163-465b-b420-f35a21f356ca","system_id":"levelo_inurba_marseille","lat":43.28865,"lon":5.39295,"is_reserved":false,"is_disabled":true,"rental_uris":{"android":"levelo://app?vid=23c09b6a-8163-465b-b420-f35a21f356ca","ios":"levelo://app?vid=23c09b6a-8163-465b-b420-f35a21f356ca"},"vehicle_type_id":"4","last_reported":1756311156,"current_range_meters":9200,"station_id":"ce4bh2p2rcd13ifvqdi0","pricing_plan_id":"cebpf4jnsgd1na2vs0mg"},{"bike_id":"39002f5b-a23e-4630-90a0-e2481b8443c4","system_id":"levelo_inurba_marseille","lat":43.25006,"lon":5.389113,"is_reserved":false,"is_disabled":false,"rental_uris":{"android":"levelo://app?vid=39002f5b-a23e-4630-90a0-e2481b8443c4","ios":"levelo://app?vid=39002f5b-a23e-4630-90a0-e2481b8443c4"},"vehicle_type_id":"4","last_reported":1756311156,"current_range_meters":9200,"station_id":"","pricing_plan_id":"cebpf4jnsgd1na2vs0mg"},{"bike_id":"0e979985-4bba-4b2d-9419-827cff4838ac","system_id":"levelo_inurba_marseille","lat":43.30331,"lon":5.45355,"is_reserved":false,"is_disabled":false,"rental_uris":{"android":"levelo://app?vid=0e979985-4bba-4b2d-9419-827cff4838ac","ios":"levelo://app?vid=0e979985-4bba-4b2d-9419-827cff4838ac"},"vehicle_type_id":"4","last_reported":1756311156,"current_range_meters":9200,"station_id":"","pricing_plan_id":"cebpf4jnsgd1na2vs0mg"},{"bike_id":"f061170e-cc23-458f-b200-ad616a03f760","system_id":"levelo_inurba_marseille","lat":43.30789,"lon":5.37649,"is_reserved":false,"is_disabled":false,"rental_uris":{"android":"levelo://app?vid=f061170e-cc23-458f-b200-ad616a03f760","ios":"levelo://app?vid=f061170e-cc23-458f-b200-ad616a03f760"},"vehicle_type_id":"4","last_reported":1756311156,"current_range_meters":9600,"station_id":"ce4bgv92rcd13ifvqcq0","pricing_plan_id":"cebpf4jnsgd1na2vs0mg"},{"bike_id":"a116a7b9-3d96-47b2-8709-84b2797c2f2a","system_id":"levelo_inurba_marseille","lat":43.28265,"lon":5.35056,"is_reserved":false,"is_disabled":false,"rental_uris":{"android":"levelo://app?vid=a116a7b9-3d96-47b2-8709-84b2797c2f2a","ios":"levelo://app?vid=a116a7b9-3d96-47b2-8709-84b2797c2f2a"},"vehicle_type_id":"4","last_reported":1756311156,"current_range_meters":8000,"station_id":"ce4bhbp2rcd13ifvqerg","pricing_plan_id":"cebpf4jnsgd1na2vs0mg"},{"bike_id":"00f7766a-a965-4911-b058-9fa3a24c1018","system_id":"levelo_inurba_marseille","lat":43.29884,"lon":5.4366,"is_reserved":false,"is_disabled":false,"rental_uris":{"android":"levelo://app?vid=00f7766a-a965-4911-b058-9fa3a24c1018","ios":"levelo://app?vid=00f7766a-a965-4911-b058-9fa3a24c1018"},"vehicle_type_id":"4","last_reported":1756311156,"current_range_meters":9600,"station_id":"ce4bhpp2rcd13ifvqhfg","pricing_plan_id":"cebpf4jnsgd1na2vs0mg"},{"bike_id":"2df13e83-0cf7-45f4-a9d9-203e0ebeecb8","system_id":"levelo_inurba_marseille","lat":43.26554,"lon":5.37284,"is_reserved":false,"is_disabled":false,"rental_uris":{"android":"levelo://app?vid=2df13e83-0cf7-45f4-a9d9-203e0ebeecb8","ios":"levelo://app?vid=2df13e83-0cf7-45f4-a9d9-203e0ebeecb8"},"vehicle_type_id":"4","last_reported":1756311156,"current_range_meters":9600,"station_id":"ce4bhg12rcd13ifvqf70","pricing_plan_id":"cebpf4jnsgd1na2vs0mg"},{"bike_id":"19454ad6-4fe4-4086-8f93-9644740c0c29","system_id":"levelo_inurba_marseille","lat":43.26561,"lon":5.40326,"is_reserved":false,"is_disabled":false,"rental_uris":{"android":"levelo://app?vid=19454ad6-4fe4-4086-8f93-9644740c0c29","ios":"levelo://app?vid=19454ad6-4fe4-4086-8f93-9644740c0c29"},"vehicle_type_id":"4","last_reported":1756311156,"current_range_meters":9600,"station_id":"ce4bhmp2rcd13ifvqgng","pricing_plan_id":"cebpf4jnsgd1na2vs0mg"},{"bike_id":"b433ce9f-e29a-4216-818f-e7d86cb68e56","system_id":"levelo_inurba_marseille","lat":43.28269,"lon":5.35067,"is_reserved":false,"is_disabled":false,"rental_uris":{"android":"levelo://app?vid=b433ce9f-e29a-4216-818f-e7d86cb68e56","ios":"levelo://app?vid=b433ce9f-e29a-4216-818f-e7d86cb68e56"},"vehicle_type_id":"4","last_reported":1756311156,"current_range_meters":9600,"station_id":"ce4bhbp2rcd13ifvqerg","pricing_plan_id":"cebpf4jnsgd1na2vs0mg"},{"bike_id":"9c0f6217-be33-421d-bb03-13b138fc4b62","system_id":"levelo_inurba_marseille","lat":43.29358,"lon":5.37834,"is_reserved":false,"is_disabled":false,"rental_uris":{"android":"levelo://app?vid=9c0f6217-be33-421d-bb03-13b138fc4b62","ios":"levelo://app?vid=9c0f6217-be33-421d-bb03-13b138fc4b62"},"vehicle_type_id":"4","last_reported":1756311156,"current_range_meters":9600,"station_id":"ce4bgjh2rcd13ifvqbf0","pricing_plan_id":"cebpf4jnsgd1na2vs0mg"},{"bike_id":"a6ef8657-5b8a-423b-993f-c3df43dec0a0","system_id":"levelo_inurba_marseille","lat":43.326998,"lon":5.392208,"is_reserved":false,"is_disabled":false,"rental_uris":{"android":"levelo://app?vid=a6ef8657-5b8a-423b-993f-c3df43dec0a0","ios":"levelo://app?vid=a6ef8657-5b8a-423b-993f-c3df43dec0a0"},"vehicle_type_id":"4","last_reported":1756311156,"current_range_meters":9600,"station_id":"","pricing_plan_id":"cebpf4jnsgd1na2vs0mg"},{"bike_id":"eb22dec0-bfff-46be-ac9e-3150673df06e","system_id":"levelo_inurba_marseille","lat":43.26209,"lon":5.37436,"is_reserved":false,"is_disabled":false,"rental_uris":{"android":"levelo://app?vid=eb22dec0-bfff-46be-ac9e-3150673df06e","ios":"levelo://app?vid=eb22dec0-bfff-46be-ac9e-3150673df06e"},"vehicle_type_id":"4","last_reported":1756311156,"current_range_meters":9600,"station_id":"ce4bhgp2rcd13ifvqfc0","pricing_plan_id":"cebpf4jnsgd1na2vs0mg"},{"bike_id":"f008b9f3-e103-4589-a8a2-a52976659831","system_id":"levelo_inurba_marseille","lat":43.28706,"lon":5.39992,"is_reserved":false,"is_disabled":false,"rental_uris":{"android":"levelo://app?vid=f008b9f3-e103-4589-a8a2-a52976659831","ios":"levelo://app?vid=f008b9f3-e103-4589-a8a2-a52976659831"},"vehicle_type_id":"4","last_reported":1756311156,"current_range_meters":9600,"station_id":"ce4bho92rcd13ifvqh3g","pricing_plan_id":"cebpf4jnsgd1na2vs0mg"},{"bike_id":"5bd97bf2-681a-44b8-9da4-6a386f7ab9cc","system_id":"levelo_inurba_marseille","lat":43.28703,"lon":5.39984,"is_reserved":false,"is_disabled":false,"rental_uris":{"android":"levelo://app?vid=5bd97bf2-681a-44b8-9da4-6a386f7ab9cc","ios":"levelo://app?vid=5bd97bf2-681a-44b8-9da4-6a386f7ab9cc"},"vehicle_type_id":"4","last_reported":1756311156,"current_range_meters":9600,"station_id":"ce4bho92rcd13ifvqh3g","pricing_plan_id":"cebpf4jnsgd1na2vs0mg"},{"bike_id":"8398d30a-07a2-4dfd-b539-eca881785e11","system_id":"levelo_inurba_marseille","lat":43.24387,"lon":5.37054,"is_reserved":false,"is_disabled":false,"rental_uris":{"android":"levelo://app?vid=8398d30a-07a2-4dfd-b539-eca881785e11","ios":"levelo://app?vid=8398d30a-07a2-4dfd-b539-eca881785e11"},"vehicle_type_id":"4","last_reported":1756311156,"current_range_meters":9600,"station_id":"ce4bhhh2rcd13ifvqfk0","pricing_plan_id":"cebpf4jnsgd1na2vs0mg"},{"bike_id":"1d7023ef-959e-48df-b075-0a4bd90cc9ae","system_id":"levelo_inurba_marseille","lat":43.27365,"lon":5.36253,"is_reserved":false,"is_disabled":true,"rental_uris":{"android":"levelo://app?vid=1d7023ef-959e-48df-b075-0a4bd90cc9ae","ios":"levelo://app?vid=1d7023ef-959e-48df-b075-0a4bd90cc9ae"},"vehicle_type_id":"4","last_reported":1756311156,"current_range_meters":10000,"station_id":"ce4bhbh2rcd13ifvqeo0","pricing_plan_id":"cebpf4jnsgd1na2vs0mg"},{"bike_id":"870c25d7-c512-436e-97a7-ed5552511e41","system_id":"levelo_inurba_marseille","lat":43.2602,"lon":5.37562,"is_reserved":false,"is_disabled":false,"rental_uris":{"android":"levelo://app?vid=870c25d7-c512-436e-97a7-ed5552511e41","ios":"levelo://app?vid=870c25d7-c512-436e-97a7-ed5552511e41"},"vehicle_type_id":"4","last_reported":1756311156,"current_range_meters":10000,"station_id":"ce4bhgh2rcd13ifvqfa0","pricing_plan_id":"cebpf4jnsgd1na2vs0mg"},{"bike_id":"2a93253d-ada4-45a7-a3e4-d408551e0a33","system_id":"levelo_inurba_marseille","lat":43.26205,"lon":5.37422,"is_reserved":false,"is_disabled":false,"rental_uris":{"android":"levelo://app?vid=2a93253d-ada4-45a7-a3e4-d408551e0a33","ios":"levelo://app?vid=2a93253d-ada4-45a7-a3e4-d408551e0a33"},"vehicle_type_id":"4","last_reported":1756311156,"current_range_meters":10000,"station_id":"ce4bhgp2rcd13ifvqfc0","pricing_plan_id":"cebpf4jnsgd1na2vs0mg"},{"bike_id":"a4c11b20-ed4d-4a0b-8447-d94813bdd5a9","system_id":"levelo_inurba_marseille","lat":43.3059,"lon":5.37226,"is_reserved":false,"is_disabled":false,"rental_uris":{"android":"levelo://app?vid=a4c11b20-ed4d-4a0b-8447-d94813bdd5a9","ios":"levelo://app?vid=a4c11b20-ed4d-4a0b-8447-d94813bdd5a9"},"vehicle_type_id":"4","last_reported":1756311156,"current_range_meters":9600,"station_id":"ce4bgqh2rcd13ifvqc4g","pricing_plan_id":"cebpf4jnsgd1na2vs0mg"},{"bike_id":"1546df9e-d1cb-482b-8d1f-d121540fd829","system_id":"levelo_inurba_marseille","lat":43.21191,"lon":5.35063,"is_reserved":false,"is_disabled":false,"rental_uris":{"android":"levelo://app?vid=1546df9e-d1cb-482b-8d1f-d121540fd829","ios":"levelo://app?vid=1546df9e-d1cb-482b-8d1f-d121540fd829"},"vehicle_type_id":"4","last_reported":1756311156,"current_range_meters":10000,"station_id":"st_cvj6sg6p6f1abm77japg","pricing_plan_id":"cebpf4jnsgd1na2vs0mg"},{"bike_id":"3abe915a-c92f-409a-b33a-50991a2f9faa","system_id":"levelo_inurba_marseille","lat":43.287,"lon":5.39979,"is_reserved":false,"is_disabled":false,"rental_uris":{"android":"levelo://app?vid=3abe915a-c92f-409a-b33a-50991a2f9faa","ios":"levelo://app?vid=3abe915a-c92f-409a-b33a-50991a2f9faa"},"vehicle_type_id":"4","last_reported":1756311156,"current_range_meters":9600,"station_id":"ce4bho92rcd13ifvqh3g","pricing_plan_id":"cebpf4jnsgd1na2vs0mg"},{"bike_id":"16e3c408-ccd9-481e-a98f-d0496904266d","system_id":"levelo_inurba_marseille","lat":43.26551,"lon":5.37281,"is_reserved":false,"is_disabled":false,"rental_uris":{"android":"levelo://app?vid=16e3c408-ccd9-481e-a98f-d0496904266d","ios":"levelo://app?vid=16e3c408-ccd9-481e-a98f-d0496904266d"},"vehicle_type_id":"4","last_reported":1756311156,"current_range_meters":10800,"station_id":"ce4bhg12rcd13ifvqf70","pricing_plan_id":"cebpf4jnsgd1na2vs0mg"},{"bike_id":"20cab691-7c40-4ec9-8e83-f09e3bf5fc54","system_id":"levelo_inurba_marseille","lat":43.3229,"lon":5.38264,"is_reserved":false,"is_disabled":false,"rental_uris":{"android":"levelo://app?vid=20cab691-7c40-4ec9-8e83-f09e3bf5fc54","ios":"levelo://app?vid=20cab691-7c40-4ec9-8e83-f09e3bf5fc54"},"vehicle_type_id":"4","last_reported":1756311156,"current_range_meters":10800,"station_id":"ce4bhr12rcd13ifvqhqg","pricing_plan_id":"cebpf4jnsgd1na2vs0mg"},{"bike_id":"2d0e77b8-c9d8-4e57-b6d3-0a222f73256a","system_id":"levelo_inurba_marseille","lat":43.26189,"lon":5.37453,"is_reserved":false,"is_disabled":true,"rental_uris":{"android":"levelo://app?vid=2d0e77b8-c9d8-4e57-b6d3-0a222f73256a","ios":"levelo://app?vid=2d0e77b8-c9d8-4e57-b6d3-0a222f73256a"},"vehicle_type_id":"4","last_reported":1756311156,"current_range_meters":10800,"station_id":"ce4bhgp2rcd13ifvqfc0","pricing_plan_id":"cebpf4jnsgd1na2vs0mg"},{"bike_id":"e337d582-364a-4312-af91-67d0c81052aa","system_id":"levelo_inurba_marseille","lat":43.32532,"lon":5.36456,"is_reserved":false,"is_disabled":false,"rental_uris":{"android":"levelo://app?vid=e337d582-364a-4312-af91-67d0c81052aa","ios":"levelo://app?vid=e337d582-364a-4312-af91-67d0c81052aa"},"vehicle_type_id":"4","last_reported":1756311156,"current_range_meters":10800,"station_id":"","pricing_plan_id":"cebpf4jnsgd1na2vs0mg"},{"bike_id":"2e2f5884-e4ee-4c99-af10-a613a0816592","system_id":"levelo_inurba_marseille","lat":43.293396,"lon":5.385659,"is_reserved":false,"is_disabled":false,"rental_uris":{"android":"levelo://app?vid=2e2f5884-e4ee-4c99-af10-a613a0816592","ios":"levelo://app?vid=2e2f5884-e4ee-4c99-af10-a613a0816592"},"vehicle_type_id":"4","last_reported":1756311156,"current_range_meters":10800,"station_id":"ce4bh692rcd13ifvqea0","pricing_plan_id":"cebpf4jnsgd1na2vs0mg"},{"bike_id":"d412a35a-8223-4ec4-a0a7-626a0ccec697","system_id":"levelo_inurba_marseille","lat":43.2602,"lon":5.37554,"is_reserved":false,"is_disabled":false,"rental_uris":{"android":"levelo://app?vid=d412a35a-8223-4ec4-a0a7-626a0ccec697","ios":"levelo://app?vid=d412a35a-8223-4ec4-a0a7-626a0ccec697"},"vehicle_type_id":"4","last_reported":1756311156,"current_range_meters":11200,"station_id":"ce4bhgh2rcd13ifvqfa0","pricing_plan_id":"cebpf4jnsgd1na2vs0mg"},{"bike_id":"524e5764-f633-4819-9b1d-e08eca3b69a4","system_id":"levelo_inurba_marseille","lat":43.26026,"lon":5.37558,"is_reserved":false,"is_disabled":false,"rental_uris":{"android":"levelo://app?vid=524e5764-f633-4819-9b1d-e08eca3b69a4","ios":"levelo://app?vid=524e5764-f633-4819-9b1d-e08eca3b69a4"},"vehicle_type_id":"4","last_reported":1756311156,"current_range_meters":11200,"station_id":"ce4bhgh2rcd13ifvqfa0","pricing_plan_id":"cebpf4jnsgd1na2vs0mg"},{"bike_id":"5bce688b-fc81-4596-8277-b66f54be87c1","system_id":"levelo_inurba_marseille","lat":43.33768,"lon":5.37438,"is_reserved":false,"is_disabled":false,"rental_uris":{"android":"levelo://app?vid=5bce688b-fc81-4596-8277-b66f54be87c1","ios":"levelo://app?vid=5bce688b-fc81-4596-8277-b66f54be87c1"},"vehicle_type_id":"4","last_reported":1756311156,"current_range_meters":11200,"station_id":"","pricing_plan_id":"cebpf4jnsgd1na2vs0mg"},{"bike_id":"59881a8c-0772-4a03-b897-76f3aeefa5ff","system_id":"levelo_inurba_marseille","lat":43.24546,"lon":5.39516,"is_reserved":false,"is_disabled":false,"rental_uris":{"android":"levelo://app?vid=59881a8c-0772-4a03-b897-76f3aeefa5ff","ios":"levelo://app?vid=59881a8c-0772-4a03-b897-76f3aeefa5ff"},"vehicle_type_id":"4","last_reported":1756311156,"current_range_meters":11200,"station_id":"ce4bhlp2rcd13ifvqgjg","pricing_plan_id":"cebpf4jnsgd1na2vs0mg"},{"bike_id":"407b373f-ee24-4119-9921-d95d6203a3e5","system_id":"levelo_inurba_marseille","lat":43.26553,"lon":5.37284,"is_reserved":false,"is_disabled":false,"rental_uris":{"android":"levelo://app?vid=407b373f-ee24-4119-9921-d95d6203a3e5","ios":"levelo://app?vid=407b373f-ee24-4119-9921-d95d6203a3e5"},"vehicle_type_id":"4","last_reported":1756311156,"current_range_meters":11200,"station_id":"ce4bhg12rcd13ifvqf70","pricing_plan_id":"cebpf4jnsgd1na2vs0mg"},{"bike_id":"64c06664-1c5d-4f3e-9408-ac6396da34e2","system_id":"levelo_inurba_marseille","lat":43.26208,"lon":5.37433,"is_reserved":false,"is_disabled":false,"rental_uris":{"android":"levelo://app?vid=64c06664-1c5d-4f3e-9408-ac6396da34e2","ios":"levelo://app?vid=64c06664-1c5d-4f3e-9408-ac6396da34e2"},"vehicle_type_id":"4","last_reported":1756311156,"current_range_meters":11600,"station_id":"ce4bhgp2rcd13ifvqfc0","pricing_plan_id":"cebpf4jnsgd1na2vs0mg"},{"bike_id":"b79f626f-4cce-45e0-9b7e-79f3f3a6033f","system_id":"levelo_inurba_marseille","lat":43.246199,"lon":5.431448,"is_reserved":false,"is_disabled":false,"rental_uris":{"android":"levelo://app?vid=b79f626f-4cce-45e0-9b7e-79f3f3a6033f","ios":"levelo://app?vid=b79f626f-4cce-45e0-9b7e-79f3f3a6033f"},"vehicle_type_id":"4","last_reported":1756311156,"current_range_meters":11600,"station_id":"st_d2m6c4gdas8pm72e190g","pricing_plan_id":"cebpf4jnsgd1na2vs0mg"},{"bike_id":"b0110861-cfc4-46d0-b119-f25711481fcc","system_id":"levelo_inurba_marseille","lat":43.26558,"lon":5.37287,"is_reserved":false,"is_disabled":false,"rental_uris":{"android":"levelo://app?vid=b0110861-cfc4-46d0-b119-f25711481fcc","ios":"levelo://app?vid=b0110861-cfc4-46d0-b119-f25711481fcc"},"vehicle_type_id":"4","last_reported":1756311156,"current_range_meters":11600,"station_id":"ce4bhg12rcd13ifvqf70","pricing_plan_id":"cebpf4jnsgd1na2vs0mg"},{"bike_id":"d75ce8b4-aabc-49d5-9ad0-349506f15e71","system_id":"levelo_inurba_marseille","lat":43.24811,"lon":5.37454,"is_reserved":false,"is_disabled":false,"rental_uris":{"android":"levelo://app?vid=d75ce8b4-aabc-49d5-9ad0-349506f15e71","ios":"levelo://app?vid=d75ce8b4-aabc-49d5-9ad0-349506f15e71"},"vehicle_type_id":"4","last_reported":1756311156,"current_range_meters":11200,"station_id":"ce4bhgh2rcd13ifvqfb0","pricing_plan_id":"cebpf4jnsgd1na2vs0mg"},{"bike_id":"777632db-79d7-463a-828f-cf9f7b187141","system_id":"levelo_inurba_marseille","lat":43.30241,"lon":5.40036,"is_reserved":false,"is_disabled":false,"rental_uris":{"android":"levelo://app?vid=777632db-79d7-463a-828f-cf9f7b187141","ios":"levelo://app?vid=777632db-79d7-463a-828f-cf9f7b187141"},"vehicle_type_id":"4","last_reported":1756311156,"current_range_meters":11600,"station_id":"ce4bgvh2rcd13ifvqcs0","pricing_plan_id":"cebpf4jnsgd1na2vs0mg"},{"bike_id":"900573f6-c63d-408e-b858-11a6ab5a1d2c","system_id":"levelo_inurba_marseille","lat":43.26217,"lon":5.3741,"is_reserved":false,"is_disabled":false,"rental_uris":{"android":"levelo://app?vid=900573f6-c63d-408e-b858-11a6ab5a1d2c","ios":"levelo://app?vid=900573f6-c63d-408e-b858-11a6ab5a1d2c"},"vehicle_type_id":"4","last_reported":1756311156,"current_range_meters":11600,"station_id":"","pricing_plan_id":"cebpf4jnsgd1na2vs0mg"},{"bike_id":"4aa04cf0-c98a-4b86-9c20-0afc960e7cd0","system_id":"levelo_inurba_marseille","lat":43.26207,"lon":5.37446,"is_reserved":false,"is_disabled":false,"rental_uris":{"android":"levelo://app?vid=4aa04cf0-c98a-4b86-9c20-0afc960e7cd0","ios":"levelo://app?vid=4aa04cf0-c98a-4b86-9c20-0afc960e7cd0"},"vehicle_type_id":"4","last_reported":1756311156,"current_range_meters":12000,"station_id":"ce4bhgp2rcd13ifvqfc0","pricing_plan_id":"cebpf4jnsgd1na2vs0mg"},{"bike_id":"6327418d-7a53-4b12-87d6-79bf378934ee","system_id":"levelo_inurba_marseille","lat":43.23187,"lon":5.35553,"is_reserved":false,"is_disabled":false,"rental_uris":{"android":"levelo://app?vid=6327418d-7a53-4b12-87d6-79bf378934ee","ios":"levelo://app?vid=6327418d-7a53-4b12-87d6-79bf378934ee"},"vehicle_type_id":"4","last_reported":1756311156,"current_range_meters":12000,"station_id":"ce4bhu92rcd13ifvqi70","pricing_plan_id":"cebpf4jnsgd1na2vs0mg"},{"bike_id":"6f5d82e3-ed64-4a16-8bd7-227621d3353e","system_id":"levelo_inurba_marseille","lat":43.23066,"lon":5.35487,"is_reserved":false,"is_disabled":false,"rental_uris":{"android":"levelo://app?vid=6f5d82e3-ed64-4a16-8bd7-227621d3353e","ios":"levelo://app?vid=6f5d82e3-ed64-4a16-8bd7-227621d3353e"},"vehicle_type_id":"4","last_reported":1756311156,"current_range_meters":12400,"station_id":"cpo3342slgdg3j2ifvpg","pricing_plan_id":"cebpf4jnsgd1na2vs0mg"},{"bike_id":"1e852faa-0778-4e8a-a9c8-6c774f7c3cf4","system_id":"levelo_inurba_marseille","lat":43.26022,"lon":5.37548,"is_reserved":false,"is_disabled":false,"rental_uris":{"android":"levelo://app?vid=1e852faa-0778-4e8a-a9c8-6c774f7c3cf4","ios":"levelo://app?vid=1e852faa-0778-4e8a-a9c8-6c774f7c3cf4"},"vehicle_type_id":"4","last_reported":1756311156,"current_range_meters":12400,"station_id":"ce4bhgh2rcd13ifvqfa0","pricing_plan_id":"cebpf4jnsgd1na2vs0mg"},{"bike_id":"125ccba7-59f4-4b4c-871d-96793028bf9f","system_id":"levelo_inurba_marseille","lat":43.28701,"lon":5.39981,"is_reserved":false,"is_disabled":false,"rental_uris":{"android":"levelo://app?vid=125ccba7-59f4-4b4c-871d-96793028bf9f","ios":"levelo://app?vid=125ccba7-59f4-4b4c-871d-96793028bf9f"},"vehicle_type_id":"4","last_reported":1756311156,"current_range_meters":12800,"station_id":"ce4bho92rcd13ifvqh3g","pricing_plan_id":"cebpf4jnsgd1na2vs0mg"},{"bike_id":"bb0bae74-28a4-44b1-bc3c-047ff82bc77f","system_id":"levelo_inurba_marseille","lat":43.29781,"lon":5.39336,"is_reserved":false,"is_disabled":false,"rental_uris":{"android":"levelo://app?vid=bb0bae74-28a4-44b1-bc3c-047ff82bc77f","ios":"levelo://app?vid=bb0bae74-28a4-44b1-bc3c-047ff82bc77f"},"vehicle_type_id":"4","last_reported":1756311156,"current_range_meters":12800,"station_id":"chh1huq6cuj3fo74tm60","pricing_plan_id":"cebpf4jnsgd1na2vs0mg"},{"bike_id":"e5eabf25-4e1c-476e-b130-9f83cdcfc80c","system_id":"levelo_inurba_marseille","lat":43.29817,"lon":5.41706,"is_reserved":false,"is_disabled":false,"rental_uris":{"android":"levelo://app?vid=e5eabf25-4e1c-476e-b130-9f83cdcfc80c","ios":"levelo://app?vid=e5eabf25-4e1c-476e-b130-9f83cdcfc80c"},"vehicle_type_id":"4","last_reported":1756311156,"current_range_meters":12800,"station_id":"","pricing_plan_id":"cebpf4jnsgd1na2vs0mg"},{"bike_id":"3448e159-471f-45cf-b0bc-dcb672574311","system_id":"levelo_inurba_marseille","lat":43.26178,"lon":5.3748,"is_reserved":false,"is_disabled":true,"rental_uris":{"android":"levelo://app?vid=3448e159-471f-45cf-b0bc-dcb672574311","ios":"levelo://app?vid=3448e159-471f-45cf-b0bc-dcb672574311"},"vehicle_type_id":"4","last_reported":1756311156,"current_range_meters":12800,"station_id":"ce4bhgp2rcd13ifvqfc0","pricing_plan_id":"cebpf4jnsgd1na2vs0mg"},{"bike_id":"851053e8-d3be-4f09-af43-d2598eb82f5e","system_id":"levelo_inurba_marseille","lat":43.26568,"lon":5.37363,"is_reserved":false,"is_disabled":false,"rental_uris":{"android":"levelo://app?vid=851053e8-d3be-4f09-af43-d2598eb82f5e","ios":"levelo://app?vid=851053e8-d3be-4f09-af43-d2598eb82f5e"},"vehicle_type_id":"4","last_reported":1756311156,"current_range_meters":12800,"station_id":"ce4bhg12rcd13ifvqf70","pricing_plan_id":"cebpf4jnsgd1na2vs0mg"},{"bike_id":"264bc3f8-ef1e-4123-a1e8-f00482bb3fa3","system_id":"levelo_inurba_marseille","lat":43.29866,"lon":5.39725,"is_reserved":false,"is_disabled":false,"rental_uris":{"android":"levelo://app?vid=264bc3f8-ef1e-4123-a1e8-f00482bb3fa3","ios":"levelo://app?vid=264bc3f8-ef1e-4123-a1e8-f00482bb3fa3"},"vehicle_type_id":"4","last_reported":1756311156,"current_range_meters":12400,"station_id":"ce4bh0h2rcd13ifvqd50","pricing_plan_id":"cebpf4jnsgd1na2vs0mg"},{"bike_id":"4dbe2178-87c0-4cac-846c-9d5c316fc215","system_id":"levelo_inurba_marseille","lat":43.26207,"lon":5.37925,"is_reserved":false,"is_disabled":false,"rental_uris":{"android":"levelo://app?vid=4dbe2178-87c0-4cac-846c-9d5c316fc215","ios":"levelo://app?vid=4dbe2178-87c0-4cac-846c-9d5c316fc215"},"vehicle_type_id":"4","last_reported":1756311156,"current_range_meters":13600,"station_id":"ce4bhjp2rcd13ifvqg90","pricing_plan_id":"cebpf4jnsgd1na2vs0mg"},{"bike_id":"b5ae0016-67e1-4c37-91cb-4d986fbc09a4","system_id":"levelo_inurba_marseille","lat":43.24632,"lon":5.43141,"is_reserved":false,"is_disabled":false,"rental_uris":{"android":"levelo://app?vid=b5ae0016-67e1-4c37-91cb-4d986fbc09a4","ios":"levelo://app?vid=b5ae0016-67e1-4c37-91cb-4d986fbc09a4"},"vehicle_type_id":"4","last_reported":1756311156,"current_range_meters":13600,"station_id":"st_d2m6c4gdas8pm72e190g","pricing_plan_id":"cebpf4jnsgd1na2vs0mg"},{"bike_id":"deea2183-4297-45dc-b252-5e5dabf475d9","system_id":"levelo_inurba_marseille","lat":43.26198,"lon":5.3745,"is_reserved":false,"is_disabled":false,"rental_uris":{"android":"levelo://app?vid=deea2183-4297-45dc-b252-5e5dabf475d9","ios":"levelo://app?vid=deea2183-4297-45dc-b252-5e5dabf475d9"},"vehicle_type_id":"4","last_reported":1756311156,"current_range_meters":13600,"station_id":"ce4bhgp2rcd13ifvqfc0","pricing_plan_id":"cebpf4jnsgd1na2vs0mg"},{"bike_id":"63bdb7fb-a033-4544-9811-9a85f168f99b","system_id":"levelo_inurba_marseille","lat":43.30883,"lon":5.37193,"is_reserved":false,"is_disabled":false,"rental_uris":{"android":"levelo://app?vid=63bdb7fb-a033-4544-9811-9a85f168f99b","ios":"levelo://app?vid=63bdb7fb-a033-4544-9811-9a85f168f99b"},"vehicle_type_id":"4","last_reported":1756311156,"current_range_meters":12800,"station_id":"ce4bguh2rcd13ifvqckg","pricing_plan_id":"cebpf4jnsgd1na2vs0mg"},{"bike_id":"d9d572f7-d811-4b4d-9ec5-cb85e6210f42","system_id":"levelo_inurba_marseille","lat":43.321158,"lon":5.367705,"is_reserved":false,"is_disabled":false,"rental_uris":{"android":"levelo://app?vid=d9d572f7-d811-4b4d-9ec5-cb85e6210f42","ios":"levelo://app?vid=d9d572f7-d811-4b4d-9ec5-cb85e6210f42"},"vehicle_type_id":"4","last_reported":1756311156,"current_range_meters":13600,"station_id":"ce4bhrh2rcd13ifvqhug","pricing_plan_id":"cebpf4jnsgd1na2vs0mg"},{"bike_id":"e382187c-d74b-49f1-ac85-1f2fd5b5923f","system_id":"levelo_inurba_marseille","lat":43.28156,"lon":5.42637,"is_reserved":false,"is_disabled":false,"rental_uris":{"android":"levelo://app?vid=e382187c-d74b-49f1-ac85-1f2fd5b5923f","ios":"levelo://app?vid=e382187c-d74b-49f1-ac85-1f2fd5b5923f"},"vehicle_type_id":"4","last_reported":1756311156,"current_range_meters":13600,"station_id":"ce4bhnh2rcd13ifvqgug","pricing_plan_id":"cebpf4jnsgd1na2vs0mg"},{"bike_id":"595d5e35-f81a-4776-ac35-73bfb6897d1a","system_id":"levelo_inurba_marseille","lat":43.3154,"lon":5.38012,"is_reserved":false,"is_disabled":false,"rental_uris":{"android":"levelo://app?vid=595d5e35-f81a-4776-ac35-73bfb6897d1a","ios":"levelo://app?vid=595d5e35-f81a-4776-ac35-73bfb6897d1a"},"vehicle_type_id":"4","last_reported":1756311156,"current_range_meters":13600,"station_id":"ce4bhsp2rcd13ifvqi50","pricing_plan_id":"cebpf4jnsgd1na2vs0mg"},{"bike_id":"7cc28ef0-ce86-4a5c-9361-da0ce7ce839d","system_id":"levelo_inurba_marseille","lat":43.29003,"lon":5.35609,"is_reserved":false,"is_disabled":false,"rental_uris":{"android":"levelo://app?vid=7cc28ef0-ce86-4a5c-9361-da0ce7ce839d","ios":"levelo://app?vid=7cc28ef0-ce86-4a5c-9361-da0ce7ce839d"},"vehicle_type_id":"4","last_reported":1756311156,"current_range_meters":13600,"station_id":"ce4bhb92rcd13ifvqen0","pricing_plan_id":"cebpf4jnsgd1na2vs0mg"},{"bike_id":"d4d0a83b-fa1f-49ca-a6ec-c1719bfe76bc","system_id":"levelo_inurba_marseille","lat":43.29262,"lon":5.38446,"is_reserved":false,"is_disabled":false,"rental_uris":{"android":"levelo://app?vid=d4d0a83b-fa1f-49ca-a6ec-c1719bfe76bc","ios":"levelo://app?vid=d4d0a83b-fa1f-49ca-a6ec-c1719bfe76bc"},"vehicle_type_id":"4","last_reported":1756311156,"current_range_meters":14000,"station_id":"ce4bh692rcd13ifvqea0","pricing_plan_id":"cebpf4jnsgd1na2vs0mg"},{"bike_id":"289d577a-cef8-40ea-a18b-c2fef868e0ba","system_id":"levelo_inurba_marseille","lat":43.28415,"lon":5.34999,"is_reserved":false,"is_disabled":false,"rental_uris":{"android":"levelo://app?vid=289d577a-cef8-40ea-a18b-c2fef868e0ba","ios":"levelo://app?vid=289d577a-cef8-40ea-a18b-c2fef868e0ba"},"vehicle_type_id":"4","last_reported":1756311156,"current_range_meters":14000,"station_id":"ce4bhbh2rcd13ifvqepg","pricing_plan_id":"cebpf4jnsgd1na2vs0mg"},{"bike_id":"2d35c570-724e-42d6-9b57-babd6cb61039","system_id":"levelo_inurba_marseille","lat":43.26032,"lon":5.3753,"is_reserved":false,"is_disabled":false,"rental_uris":{"android":"levelo://app?vid=2d35c570-724e-42d6-9b57-babd6cb61039","ios":"levelo://app?vid=2d35c570-724e-42d6-9b57-babd6cb61039"},"vehicle_type_id":"4","last_reported":1756311156,"current_range_meters":14000,"station_id":"ce4bhgh2rcd13ifvqfa0","pricing_plan_id":"cebpf4jnsgd1na2vs0mg"},{"bike_id":"3ce18fbc-ec38-4f9e-9dd9-9a3dee5c503d","system_id":"levelo_inurba_marseille","lat":43.26039,"lon":5.37547,"is_reserved":false,"is_disabled":true,"rental_uris":{"android":"levelo://app?vid=3ce18fbc-ec38-4f9e-9dd9-9a3dee5c503d","ios":"levelo://app?vid=3ce18fbc-ec38-4f9e-9dd9-9a3dee5c503d"},"vehicle_type_id":"4","last_reported":1756311156,"current_range_meters":14000,"station_id":"ce4bhgh2rcd13ifvqfa0","pricing_plan_id":"cebpf4jnsgd1na2vs0mg"},{"bike_id":"da56be69-d1d8-4e58-9211-9f80a01d3f01","system_id":"levelo_inurba_marseille","lat":43.26548,"lon":5.37293,"is_reserved":false,"is_disabled":false,"rental_uris":{"android":"levelo://app?vid=da56be69-d1d8-4e58-9211-9f80a01d3f01","ios":"levelo://app?vid=da56be69-d1d8-4e58-9211-9f80a01d3f01"},"vehicle_type_id":"4","last_reported":1756311156,"current_range_meters":14000,"station_id":"","pricing_plan_id":"cebpf4jnsgd1na2vs0mg"},{"bike_id":"3dff11d5-3872-4ffe-8cce-b5631d6c6058","system_id":"levelo_inurba_marseille","lat":43.33015,"lon":5.39031,"is_reserved":false,"is_disabled":false,"rental_uris":{"android":"levelo://app?vid=3dff11d5-3872-4ffe-8cce-b5631d6c6058","ios":"levelo://app?vid=3dff11d5-3872-4ffe-8cce-b5631d6c6058"},"vehicle_type_id":"4","last_reported":1756311156,"current_range_meters":14000,"station_id":"ce4bhr92rcd13ifvqhrg","pricing_plan_id":"cebpf4jnsgd1na2vs0mg"},{"bike_id":"e1676cf0-344d-48bd-b9d9-f952cc9c95c8","system_id":"levelo_inurba_marseille","lat":43.21756,"lon":5.34594,"is_reserved":false,"is_disabled":false,"rental_uris":{"android":"levelo://app?vid=e1676cf0-344d-48bd-b9d9-f952cc9c95c8","ios":"levelo://app?vid=e1676cf0-344d-48bd-b9d9-f952cc9c95c8"},"vehicle_type_id":"4","last_reported":1756311156,"current_range_meters":14000,"station_id":"st_cvj6r9ubvosntc0bgbag","pricing_plan_id":"cebpf4jnsgd1na2vs0mg"},{"bike_id":"9308f021-ec84-4fe8-8c25-145b6405b7e0","system_id":"levelo_inurba_marseille","lat":43.3055,"lon":5.36691,"is_reserved":false,"is_disabled":true,"rental_uris":{"android":"levelo://app?vid=9308f021-ec84-4fe8-8c25-145b6405b7e0","ios":"levelo://app?vid=9308f021-ec84-4fe8-8c25-145b6405b7e0"},"vehicle_type_id":"4","last_reported":1756311156,"current_range_meters":14000,"station_id":"ce4bgrp2rcd13ifvqc9g","pricing_plan_id":"cebpf4jnsgd1na2vs0mg"},{"bike_id":"685105d1-bcda-4899-9d64-d94adf158a64","system_id":"levelo_inurba_marseille","lat":43.314676,"lon":5.373608,"is_reserved":false,"is_disabled":true,"rental_uris":{"android":"levelo://app?vid=685105d1-bcda-4899-9d64-d94adf158a64","ios":"levelo://app?vid=685105d1-bcda-4899-9d64-d94adf158a64"},"vehicle_type_id":"4","last_reported":1756311156,"current_range_meters":14400,"station_id":"","pricing_plan_id":"cebpf4jnsgd1na2vs0mg"},{"bike_id":"347b31a3-8f7e-4d3a-9398-6ddd7d9dfc62","system_id":"levelo_inurba_marseille","lat":43.29227,"lon":5.36061,"is_reserved":false,"is_disabled":false,"rental_uris":{"android":"levelo://app?vid=347b31a3-8f7e-4d3a-9398-6ddd7d9dfc62","ios":"levelo://app?vid=347b31a3-8f7e-4d3a-9398-6ddd7d9dfc62"},"vehicle_type_id":"4","last_reported":1756311156,"current_range_meters":14400,"station_id":"ce4bhbh2rcd13ifvqeqg","pricing_plan_id":"cebpf4jnsgd1na2vs0mg"},{"bike_id":"cebad23e-ae11-4c97-a677-9b13391b2ee6","system_id":"levelo_inurba_marseille","lat":43.28153,"lon":5.42646,"is_reserved":false,"is_disabled":false,"rental_uris":{"android":"levelo://app?vid=cebad23e-ae11-4c97-a677-9b13391b2ee6","ios":"levelo://app?vid=cebad23e-ae11-4c97-a677-9b13391b2ee6"},"vehicle_type_id":"4","last_reported":1756311156,"current_range_meters":14400,"station_id":"ce4bhnh2rcd13ifvqgug","pricing_plan_id":"cebpf4jnsgd1na2vs0mg"},{"bike_id":"b7ee4414-f1f6-4748-b2c7-6f690de92d81","system_id":"levelo_inurba_marseille","lat":43.21196,"lon":5.3506,"is_reserved":false,"is_disabled":false,"rental_uris":{"android":"levelo://app?vid=b7ee4414-f1f6-4748-b2c7-6f690de92d81","ios":"levelo://app?vid=b7ee4414-f1f6-4748-b2c7-6f690de92d81"},"vehicle_type_id":"4","last_reported":1756311156,"current_range_meters":14400,"station_id":"st_cvj6sg6p6f1abm77japg","pricing_plan_id":"cebpf4jnsgd1na2vs0mg"},{"bike_id":"96207dea-7bbf-4883-ab9a-820d9c447ab3","system_id":"levelo_inurba_marseille","lat":43.28427,"lon":5.349926,"is_reserved":false,"is_disabled":false,"rental_uris":{"android":"levelo://app?vid=96207dea-7bbf-4883-ab9a-820d9c447ab3","ios":"levelo://app?vid=96207dea-7bbf-4883-ab9a-820d9c447ab3"},"vehicle_type_id":"4","last_reported":1756311156,"current_range_meters":14400,"station_id":"ce4bhbh2rcd13ifvqepg","pricing_plan_id":"cebpf4jnsgd1na2vs0mg"},{"bike_id":"63108279-4e9d-4aa1-9504-a12e3d362c13","system_id":"levelo_inurba_marseille","lat":43.27989,"lon":5.41664,"is_reserved":false,"is_disabled":false,"rental_uris":{"android":"levelo://app?vid=63108279-4e9d-4aa1-9504-a12e3d362c13","ios":"levelo://app?vid=63108279-4e9d-4aa1-9504-a12e3d362c13"},"vehicle_type_id":"4","last_reported":1756311156,"current_range_meters":14400,"station_id":"ce4bho12rcd13ifvqh1g","pricing_plan_id":"cebpf4jnsgd1na2vs0mg"},{"bike_id":"2e55c538-508e-4fef-8f5f-62b4ad8b5b85","system_id":"levelo_inurba_marseille","lat":43.21746,"lon":5.34608,"is_reserved":false,"is_disabled":false,"rental_uris":{"android":"levelo://app?vid=2e55c538-508e-4fef-8f5f-62b4ad8b5b85","ios":"levelo://app?vid=2e55c538-508e-4fef-8f5f-62b4ad8b5b85"},"vehicle_type_id":"4","last_reported":1756311156,"current_range_meters":14400,"station_id":"st_cvj6r9ubvosntc0bgbag","pricing_plan_id":"cebpf4jnsgd1na2vs0mg"},{"bike_id":"d952d750-0a35-4958-a38d-c20ac05b43c4","system_id":"levelo_inurba_marseille","lat":43.29376,"lon":5.3784,"is_reserved":false,"is_disabled":false,"rental_uris":{"android":"levelo://app?vid=d952d750-0a35-4958-a38d-c20ac05b43c4","ios":"levelo://app?vid=d952d750-0a35-4958-a38d-c20ac05b43c4"},"vehicle_type_id":"4","last_reported":1756311156,"current_range_meters":14000,"station_id":"ce4bgjh2rcd13ifvqbf0","pricing_plan_id":"cebpf4jnsgd1na2vs0mg"},{"bike_id":"30b13a2f-7373-482c-863e-8040d30dece6","system_id":"levelo_inurba_marseille","lat":43.26192,"lon":5.37454,"is_reserved":false,"is_disabled":false,"rental_uris":{"android":"levelo://app?vid=30b13a2f-7373-482c-863e-8040d30dece6","ios":"levelo://app?vid=30b13a2f-7373-482c-863e-8040d30dece6"},"vehicle_type_id":"4","last_reported":1756311156,"current_range_meters":14400,"station_id":"ce4bhgp2rcd13ifvqfc0","pricing_plan_id":"cebpf4jnsgd1na2vs0mg"},{"bike_id":"ca9d98be-9177-4e2a-927f-ebb4db509313","system_id":"levelo_inurba_marseille","lat":43.2919,"lon":5.35795,"is_reserved":false,"is_disabled":false,"rental_uris":{"android":"levelo://app?vid=ca9d98be-9177-4e2a-927f-ebb4db509313","ios":"levelo://app?vid=ca9d98be-9177-4e2a-927f-ebb4db509313"},"vehicle_type_id":"4","last_reported":1756311156,"current_range_meters":14400,"station_id":"ce4bhb12rcd13ifvqel0","pricing_plan_id":"cebpf4jnsgd1na2vs0mg"},{"bike_id":"db526668-1205-422f-99f2-dc09210cda94","system_id":"levelo_inurba_marseille","lat":43.29255,"lon":5.36855,"is_reserved":false,"is_disabled":false,"rental_uris":{"android":"levelo://app?vid=db526668-1205-422f-99f2-dc09210cda94","ios":"levelo://app?vid=db526668-1205-422f-99f2-dc09210cda94"},"vehicle_type_id":"4","last_reported":1756311156,"current_range_meters":14800,"station_id":"ce4bhbp2rcd13ifvqesg","pricing_plan_id":"cebpf4jnsgd1na2vs0mg"},{"bike_id":"064887b2-9e63-44f9-8778-ad23a8de1c69","system_id":"levelo_inurba_marseille","lat":43.260248,"lon":5.375576,"is_reserved":false,"is_disabled":false,"rental_uris":{"android":"levelo://app?vid=064887b2-9e63-44f9-8778-ad23a8de1c69","ios":"levelo://app?vid=064887b2-9e63-44f9-8778-ad23a8de1c69"},"vehicle_type_id":"4","last_reported":1756311156,"current_range_meters":15200,"station_id":"ce4bhgh2rcd13ifvqfa0","pricing_plan_id":"cebpf4jnsgd1na2vs0mg"},{"bike_id":"f67c8e5e-7af8-4847-a4ce-1e12088b4291","system_id":"levelo_inurba_marseille","lat":43.33026,"lon":5.39247,"is_reserved":false,"is_disabled":false,"rental_uris":{"android":"levelo://app?vid=f67c8e5e-7af8-4847-a4ce-1e12088b4291","ios":"levelo://app?vid=f67c8e5e-7af8-4847-a4ce-1e12088b4291"},"vehicle_type_id":"4","last_reported":1756311156,"current_range_meters":14800,"station_id":"","pricing_plan_id":"cebpf4jnsgd1na2vs0mg"},{"bike_id":"ba860b75-896e-490b-8733-4ebbeeacc9e3","system_id":"levelo_inurba_marseille","lat":43.2657,"lon":5.39002,"is_reserved":false,"is_disabled":false,"rental_uris":{"android":"levelo://app?vid=ba860b75-896e-490b-8733-4ebbeeacc9e3","ios":"levelo://app?vid=ba860b75-896e-490b-8733-4ebbeeacc9e3"},"vehicle_type_id":"4","last_reported":1756311156,"current_range_meters":15200,"station_id":"ce4bhe12rcd13ifvqf30","pricing_plan_id":"cebpf4jnsgd1na2vs0mg"},{"bike_id":"1ead3eee-c052-4307-9f25-b0a932f0b7f7","system_id":"levelo_inurba_marseille","lat":43.26208,"lon":5.37442,"is_reserved":false,"is_disabled":false,"rental_uris":{"android":"levelo://app?vid=1ead3eee-c052-4307-9f25-b0a932f0b7f7","ios":"levelo://app?vid=1ead3eee-c052-4307-9f25-b0a932f0b7f7"},"vehicle_type_id":"4","last_reported":1756311156,"current_range_meters":15200,"station_id":"ce4bhgp2rcd13ifvqfc0","pricing_plan_id":"cebpf4jnsgd1na2vs0mg"},{"bike_id":"5c26a54e-1e97-4ad3-a16d-614ad930b130","system_id":"levelo_inurba_marseille","lat":43.32103,"lon":5.36767,"is_reserved":false,"is_disabled":false,"rental_uris":{"android":"levelo://app?vid=5c26a54e-1e97-4ad3-a16d-614ad930b130","ios":"levelo://app?vid=5c26a54e-1e97-4ad3-a16d-614ad930b130"},"vehicle_type_id":"4","last_reported":1756311156,"current_range_meters":15200,"station_id":"ce4bhrh2rcd13ifvqhug","pricing_plan_id":"cebpf4jnsgd1na2vs0mg"},{"bike_id":"9992d37f-6ee0-4431-98ca-cfe77929f704","system_id":"levelo_inurba_marseille","lat":43.2841,"lon":5.34969,"is_reserved":false,"is_disabled":false,"rental_uris":{"android":"levelo://app?vid=9992d37f-6ee0-4431-98ca-cfe77929f704","ios":"levelo://app?vid=9992d37f-6ee0-4431-98ca-cfe77929f704"},"vehicle_type_id":"4","last_reported":1756311156,"current_range_meters":15200,"station_id":"ce4bhbh2rcd13ifvqepg","pricing_plan_id":"cebpf4jnsgd1na2vs0mg"},{"bike_id":"52f4f38b-4c90-49e9-b7c6-6f29d5adcdf6","system_id":"levelo_inurba_marseille","lat":43.21193,"lon":5.35068,"is_reserved":false,"is_disabled":false,"rental_uris":{"android":"levelo://app?vid=52f4f38b-4c90-49e9-b7c6-6f29d5adcdf6","ios":"levelo://app?vid=52f4f38b-4c90-49e9-b7c6-6f29d5adcdf6"},"vehicle_type_id":"4","last_reported":1756311156,"current_range_meters":15200,"station_id":"st_cvj6sg6p6f1abm77japg","pricing_plan_id":"cebpf4jnsgd1na2vs0mg"},{"bike_id":"814645c9-7af5-4408-879c-1836489b0342","system_id":"levelo_inurba_marseille","lat":43.26553,"lon":5.3728,"is_reserved":false,"is_disabled":false,"rental_uris":{"android":"levelo://app?vid=814645c9-7af5-4408-879c-1836489b0342","ios":"levelo://app?vid=814645c9-7af5-4408-879c-1836489b0342"},"vehicle_type_id":"4","last_reported":1756311156,"current_range_meters":15200,"station_id":"ce4bhg12rcd13ifvqf70","pricing_plan_id":"cebpf4jnsgd1na2vs0mg"},{"bike_id":"dd7083cc-5aa5-45e8-aa01-f809713272d1","system_id":"levelo_inurba_marseille","lat":43.21185,"lon":5.35063,"is_reserved":false,"is_disabled":false,"rental_uris":{"android":"levelo://app?vid=dd7083cc-5aa5-45e8-aa01-f809713272d1","ios":"levelo://app?vid=dd7083cc-5aa5-45e8-aa01-f809713272d1"},"vehicle_type_id":"4","last_reported":1756311156,"current_range_meters":15200,"station_id":"st_cvj6sg6p6f1abm77japg","pricing_plan_id":"cebpf4jnsgd1na2vs0mg"},{"bike_id":"d97476e8-c014-42b7-97e3-eec7f4d817d9","system_id":"levelo_inurba_marseille","lat":43.2871,"lon":5.39973,"is_reserved":false,"is_disabled":false,"rental_uris":{"android":"levelo://app?vid=d97476e8-c014-42b7-97e3-eec7f4d817d9","ios":"levelo://app?vid=d97476e8-c014-42b7-97e3-eec7f4d817d9"},"vehicle_type_id":"4","last_reported":1756311156,"current_range_meters":15200,"station_id":"ce4bho92rcd13ifvqh3g","pricing_plan_id":"cebpf4jnsgd1na2vs0mg"},{"bike_id":"11a38367-deb6-4141-b3c1-0cba6ea43c8d","system_id":"levelo_inurba_marseille","lat":43.28998,"lon":5.35618,"is_reserved":false,"is_disabled":true,"rental_uris":{"android":"levelo://app?vid=11a38367-deb6-4141-b3c1-0cba6ea43c8d","ios":"levelo://app?vid=11a38367-deb6-4141-b3c1-0cba6ea43c8d"},"vehicle_type_id":"4","last_reported":1756311156,"current_range_meters":16000,"station_id":"ce4bhb92rcd13ifvqen0","pricing_plan_id":"cebpf4jnsgd1na2vs0mg"},{"bike_id":"c409c94b-337e-4a5a-85de-964e2f894da3","system_id":"levelo_inurba_marseille","lat":43.258294,"lon":5.394305,"is_reserved":false,"is_disabled":false,"rental_uris":{"android":"levelo://app?vid=c409c94b-337e-4a5a-85de-964e2f894da3","ios":"levelo://app?vid=c409c94b-337e-4a5a-85de-964e2f894da3"},"vehicle_type_id":"4","last_reported":1756311156,"current_range_meters":16000,"station_id":"ce4bhip2rcd13ifvqft0","pricing_plan_id":"cebpf4jnsgd1na2vs0mg"},{"bike_id":"ffd21136-ae47-45ee-8fc5-e7f85ea84802","system_id":"levelo_inurba_marseille","lat":43.298324,"lon":5.382372,"is_reserved":false,"is_disabled":false,"rental_uris":{"android":"levelo://app?vid=ffd21136-ae47-45ee-8fc5-e7f85ea84802","ios":"levelo://app?vid=ffd21136-ae47-45ee-8fc5-e7f85ea84802"},"vehicle_type_id":"4","last_reported":1756311156,"current_range_meters":16000,"station_id":"","pricing_plan_id":"cebpf4jnsgd1na2vs0mg"},{"bike_id":"2069bb10-8fc4-46cb-b293-68ee5a76feb7","system_id":"levelo_inurba_marseille","lat":43.26189,"lon":5.37439,"is_reserved":false,"is_disabled":false,"rental_uris":{"android":"levelo://app?vid=2069bb10-8fc4-46cb-b293-68ee5a76feb7","ios":"levelo://app?vid=2069bb10-8fc4-46cb-b293-68ee5a76feb7"},"vehicle_type_id":"4","last_reported":1756311156,"current_range_meters":16000,"station_id":"ce4bhgp2rcd13ifvqfc0","pricing_plan_id":"cebpf4jnsgd1na2vs0mg"},{"bike_id":"c561b3be-23f4-46ed-8d38-1fc2450f503d","system_id":"levelo_inurba_marseille","lat":43.23649,"lon":5.36213,"is_reserved":false,"is_disabled":false,"rental_uris":{"android":"levelo://app?vid=c561b3be-23f4-46ed-8d38-1fc2450f503d","ios":"levelo://app?vid=c561b3be-23f4-46ed-8d38-1fc2450f503d"},"vehicle_type_id":"4","last_reported":1756311156,"current_range_meters":16000,"station_id":"","pricing_plan_id":"cebpf4jnsgd1na2vs0mg"},{"bike_id":"d4a1c419-c333-431b-a3bc-3aa17f334726","system_id":"levelo_inurba_marseille","lat":43.26203,"lon":5.37446,"is_reserved":false,"is_disabled":false,"rental_uris":{"android":"levelo://app?vid=d4a1c419-c333-431b-a3bc-3aa17f334726","ios":"levelo://app?vid=d4a1c419-c333-431b-a3bc-3aa17f334726"},"vehicle_type_id":"4","last_reported":1756311156,"current_range_meters":16000,"station_id":"ce4bhgp2rcd13ifvqfc0","pricing_plan_id":"cebpf4jnsgd1na2vs0mg"},{"bike_id":"2d17e1e6-edf9-4f1e-b3a3-f75b131f82f9","system_id":"levelo_inurba_marseille","lat":43.29537,"lon":5.38546,"is_reserved":false,"is_disabled":false,"rental_uris":{"android":"levelo://app?vid=2d17e1e6-edf9-4f1e-b3a3-f75b131f82f9","ios":"levelo://app?vid=2d17e1e6-edf9-4f1e-b3a3-f75b131f82f9"},"vehicle_type_id":"4","last_reported":1756311156,"current_range_meters":16000,"station_id":"ce4bgih2rcd13ifvqba0","pricing_plan_id":"cebpf4jnsgd1na2vs0mg"},{"bike_id":"d810acf0-5bd2-4bf1-848d-31cd30d105e6","system_id":"levelo_inurba_marseille","lat":43.269831,"lon":5.392782,"is_reserved":false,"is_disabled":false,"rental_uris":{"android":"levelo://app?vid=d810acf0-5bd2-4bf1-848d-31cd30d105e6","ios":"levelo://app?vid=d810acf0-5bd2-4bf1-848d-31cd30d105e6"},"vehicle_type_id":"4","last_reported":1756311156,"current_range_meters":16400,"station_id":"","pricing_plan_id":"cebpf4jnsgd1na2vs0mg"},{"bike_id":"5dd83fad-2449-4d56-be74-c8599abb9a5e","system_id":"levelo_inurba_marseille","lat":43.26213,"lon":5.37438,"is_reserved":false,"is_disabled":false,"rental_uris":{"android":"levelo://app?vid=5dd83fad-2449-4d56-be74-c8599abb9a5e","ios":"levelo://app?vid=5dd83fad-2449-4d56-be74-c8599abb9a5e"},"vehicle_type_id":"4","last_reported":1756311156,"current_range_meters":16400,"station_id":"ce4bhgp2rcd13ifvqfc0","pricing_plan_id":"cebpf4jnsgd1na2vs0mg"},{"bike_id":"70cca247-d584-47f1-aeaf-6e680135d5b2","system_id":"levelo_inurba_marseille","lat":43.28716,"lon":5.3794,"is_reserved":false,"is_disabled":false,"rental_uris":{"android":"levelo://app?vid=70cca247-d584-47f1-aeaf-6e680135d5b2","ios":"levelo://app?vid=70cca247-d584-47f1-aeaf-6e680135d5b2"},"vehicle_type_id":"4","last_reported":1756311156,"current_range_meters":16400,"station_id":"ce4bh9p2rcd13ifvqec0","pricing_plan_id":"cebpf4jnsgd1na2vs0mg"},{"bike_id":"f6056f81-66f9-410c-aa54-0916b0f9d2cf","system_id":"levelo_inurba_marseille","lat":43.28721,"lon":5.36096,"is_reserved":false,"is_disabled":false,"rental_uris":{"android":"levelo://app?vid=f6056f81-66f9-410c-aa54-0916b0f9d2cf","ios":"levelo://app?vid=f6056f81-66f9-410c-aa54-0916b0f9d2cf"},"vehicle_type_id":"4","last_reported":1756311156,"current_range_meters":16000,"station_id":"cki0cbj6b192h4jlfktg","pricing_plan_id":"cebpf4jnsgd1na2vs0mg"},{"bike_id":"8a4229f8-6e18-49eb-bdda-2468dfb9eaf1","system_id":"levelo_inurba_marseille","lat":43.29267,"lon":5.36831,"is_reserved":false,"is_disabled":false,"rental_uris":{"android":"levelo://app?vid=8a4229f8-6e18-49eb-bdda-2468dfb9eaf1","ios":"levelo://app?vid=8a4229f8-6e18-49eb-bdda-2468dfb9eaf1"},"vehicle_type_id":"4","last_reported":1756311156,"current_range_meters":16400,"station_id":"ce4bhbp2rcd13ifvqesg","pricing_plan_id":"cebpf4jnsgd1na2vs0mg"},{"bike_id":"4390fec5-e5b7-4b30-b7e4-8bd8c36aab99","system_id":"levelo_inurba_marseille","lat":43.26027,"lon":5.37548,"is_reserved":false,"is_disabled":false,"rental_uris":{"android":"levelo://app?vid=4390fec5-e5b7-4b30-b7e4-8bd8c36aab99","ios":"levelo://app?vid=4390fec5-e5b7-4b30-b7e4-8bd8c36aab99"},"vehicle_type_id":"4","last_reported":1756311156,"current_range_meters":16400,"station_id":"ce4bhgh2rcd13ifvqfa0","pricing_plan_id":"cebpf4jnsgd1na2vs0mg"},{"bike_id":"217a5ffd-1098-4e3f-bca4-afdeffff4bab","system_id":"levelo_inurba_marseille","lat":43.29256,"lon":5.40908,"is_reserved":false,"is_disabled":false,"rental_uris":{"android":"levelo://app?vid=217a5ffd-1098-4e3f-bca4-afdeffff4bab","ios":"levelo://app?vid=217a5ffd-1098-4e3f-bca4-afdeffff4bab"},"vehicle_type_id":"4","last_reported":1756311156,"current_range_meters":16400,"station_id":"ce4bh192rcd13ifvqdc0","pricing_plan_id":"cebpf4jnsgd1na2vs0mg"},{"bike_id":"4e9e705b-7667-42c6-adf5-4a09a858987f","system_id":"levelo_inurba_marseille","lat":43.2119,"lon":5.35069,"is_reserved":false,"is_disabled":false,"rental_uris":{"android":"levelo://app?vid=4e9e705b-7667-42c6-adf5-4a09a858987f","ios":"levelo://app?vid=4e9e705b-7667-42c6-adf5-4a09a858987f"},"vehicle_type_id":"4","last_reported":1756311156,"current_range_meters":16400,"station_id":"st_cvj6sg6p6f1abm77japg","pricing_plan_id":"cebpf4jnsgd1na2vs0mg"},{"bike_id":"94c44f36-d45b-48d8-9eb0-02cde482dcfd","system_id":"levelo_inurba_marseille","lat":43.26025,"lon":5.37543,"is_reserved":false,"is_disabled":false,"rental_uris":{"android":"levelo://app?vid=94c44f36-d45b-48d8-9eb0-02cde482dcfd","ios":"levelo://app?vid=94c44f36-d45b-48d8-9eb0-02cde482dcfd"},"vehicle_type_id":"4","last_reported":1756311156,"current_range_meters":16400,"station_id":"ce4bhgh2rcd13ifvqfa0","pricing_plan_id":"cebpf4jnsgd1na2vs0mg"},{"bike_id":"373decc7-6d5f-444a-bd84-6f7db9035c12","system_id":"levelo_inurba_marseille","lat":43.23962,"lon":5.36621,"is_reserved":false,"is_disabled":false,"rental_uris":{"android":"levelo://app?vid=373decc7-6d5f-444a-bd84-6f7db9035c12","ios":"levelo://app?vid=373decc7-6d5f-444a-bd84-6f7db9035c12"},"vehicle_type_id":"4","last_reported":1756311156,"current_range_meters":16400,"station_id":"ce4bhi12rcd13ifvqfp0","pricing_plan_id":"cebpf4jnsgd1na2vs0mg"},{"bike_id":"370e51e2-c121-4206-9402-248a31b8d127","system_id":"levelo_inurba_marseille","lat":43.26556,"lon":5.37286,"is_reserved":false,"is_disabled":false,"rental_uris":{"android":"levelo://app?vid=370e51e2-c121-4206-9402-248a31b8d127","ios":"levelo://app?vid=370e51e2-c121-4206-9402-248a31b8d127"},"vehicle_type_id":"4","last_reported":1756311156,"current_range_meters":16400,"station_id":"ce4bhg12rcd13ifvqf70","pricing_plan_id":"cebpf4jnsgd1na2vs0mg"},{"bike_id":"a029d878-b479-4ed1-b5e6-f040cdc84263","system_id":"levelo_inurba_marseille","lat":43.26555,"lon":5.37279,"is_reserved":false,"is_disabled":false,"rental_uris":{"android":"levelo://app?vid=a029d878-b479-4ed1-b5e6-f040cdc84263","ios":"levelo://app?vid=a029d878-b479-4ed1-b5e6-f040cdc84263"},"vehicle_type_id":"4","last_reported":1756311156,"current_range_meters":16800,"station_id":"ce4bhg12rcd13ifvqf70","pricing_plan_id":"cebpf4jnsgd1na2vs0mg"},{"bike_id":"8a6b2886-f8f1-491e-ab62-1c064c9e6f40","system_id":"levelo_inurba_marseille","lat":43.2841,"lon":5.37509,"is_reserved":false,"is_disabled":false,"rental_uris":{"android":"levelo://app?vid=8a6b2886-f8f1-491e-ab62-1c064c9e6f40","ios":"levelo://app?vid=8a6b2886-f8f1-491e-ab62-1c064c9e6f40"},"vehicle_type_id":"4","last_reported":1756311156,"current_range_meters":16800,"station_id":"ce4bh412rcd13ifvqds0","pricing_plan_id":"cebpf4jnsgd1na2vs0mg"},{"bike_id":"c67682e4-ad86-4b65-b4ef-e774963b7e60","system_id":"levelo_inurba_marseille","lat":43.232014,"lon":5.355438,"is_reserved":false,"is_disabled":false,"rental_uris":{"android":"levelo://app?vid=c67682e4-ad86-4b65-b4ef-e774963b7e60","ios":"levelo://app?vid=c67682e4-ad86-4b65-b4ef-e774963b7e60"},"vehicle_type_id":"4","last_reported":1756311156,"current_range_meters":16800,"station_id":"ce4bhu92rcd13ifvqi70","pricing_plan_id":"cebpf4jnsgd1na2vs0mg"},{"bike_id":"1690bbb5-074b-45cb-992c-aff8c4519bf4","system_id":"levelo_inurba_marseille","lat":43.26555,"lon":5.3728,"is_reserved":false,"is_disabled":false,"rental_uris":{"android":"levelo://app?vid=1690bbb5-074b-45cb-992c-aff8c4519bf4","ios":"levelo://app?vid=1690bbb5-074b-45cb-992c-aff8c4519bf4"},"vehicle_type_id":"4","last_reported":1756311156,"current_range_meters":16800,"station_id":"ce4bhg12rcd13ifvqf70","pricing_plan_id":"cebpf4jnsgd1na2vs0mg"},{"bike_id":"e6c593a6-25b4-4483-b874-06f613c8942f","system_id":"levelo_inurba_marseille","lat":43.21752,"lon":5.34591,"is_reserved":false,"is_disabled":false,"rental_uris":{"android":"levelo://app?vid=e6c593a6-25b4-4483-b874-06f613c8942f","ios":"levelo://app?vid=e6c593a6-25b4-4483-b874-06f613c8942f"},"vehicle_type_id":"4","last_reported":1756311156,"current_range_meters":16800,"station_id":"st_cvj6r9ubvosntc0bgbag","pricing_plan_id":"cebpf4jnsgd1na2vs0mg"},{"bike_id":"651c04c7-c2f3-4258-98c4-2abdeb471500","system_id":"levelo_inurba_marseille","lat":43.26552,"lon":5.37288,"is_reserved":false,"is_disabled":false,"rental_uris":{"android":"levelo://app?vid=651c04c7-c2f3-4258-98c4-2abdeb471500","ios":"levelo://app?vid=651c04c7-c2f3-4258-98c4-2abdeb471500"},"vehicle_type_id":"4","last_reported":1756311156,"current_range_meters":16800,"station_id":"ce4bhg12rcd13ifvqf70","pricing_plan_id":"cebpf4jnsgd1na2vs0mg"},{"bike_id":"ba01da7a-f40a-4d7a-b4af-b963769a5448","system_id":"levelo_inurba_marseille","lat":43.29268,"lon":5.36841,"is_reserved":false,"is_disabled":false,"rental_uris":{"android":"levelo://app?vid=ba01da7a-f40a-4d7a-b4af-b963769a5448","ios":"levelo://app?vid=ba01da7a-f40a-4d7a-b4af-b963769a5448"},"vehicle_type_id":"4","last_reported":1756311156,"current_range_meters":17200,"station_id":"ce4bhbp2rcd13ifvqesg","pricing_plan_id":"cebpf4jnsgd1na2vs0mg"},{"bike_id":"3e1b7de2-dcbe-4860-be16-6397d00e898c","system_id":"levelo_inurba_marseille","lat":43.26568,"lon":5.37283,"is_reserved":false,"is_disabled":false,"rental_uris":{"android":"levelo://app?vid=3e1b7de2-dcbe-4860-be16-6397d00e898c","ios":"levelo://app?vid=3e1b7de2-dcbe-4860-be16-6397d00e898c"},"vehicle_type_id":"4","last_reported":1756311156,"current_range_meters":17200,"station_id":"ce4bhg12rcd13ifvqf70","pricing_plan_id":"cebpf4jnsgd1na2vs0mg"},{"bike_id":"ffe6df59-3fc1-4d81-9326-f6f6418e7718","system_id":"levelo_inurba_marseille","lat":43.2979,"lon":5.37334,"is_reserved":false,"is_disabled":false,"rental_uris":{"android":"levelo://app?vid=ffe6df59-3fc1-4d81-9326-f6f6418e7718","ios":"levelo://app?vid=ffe6df59-3fc1-4d81-9326-f6f6418e7718"},"vehicle_type_id":"4","last_reported":1756311156,"current_range_meters":17200,"station_id":"","pricing_plan_id":"cebpf4jnsgd1na2vs0mg"},{"bike_id":"19bf8938-c3ac-477a-9c27-edd856e98aab","system_id":"levelo_inurba_marseille","lat":43.2811,"lon":5.37869,"is_reserved":false,"is_disabled":false,"rental_uris":{"android":"levelo://app?vid=19bf8938-c3ac-477a-9c27-edd856e98aab","ios":"levelo://app?vid=19bf8938-c3ac-477a-9c27-edd856e98aab"},"vehicle_type_id":"4","last_reported":1756311156,"current_range_meters":17200,"station_id":"ce4bha12rcd13ifvqee0","pricing_plan_id":"cebpf4jnsgd1na2vs0mg"},{"bike_id":"23ae6fed-deff-411b-8b6e-f95e32ccd4d0","system_id":"levelo_inurba_marseille","lat":43.321251,"lon":5.367698,"is_reserved":false,"is_disabled":false,"rental_uris":{"android":"levelo://app?vid=23ae6fed-deff-411b-8b6e-f95e32ccd4d0","ios":"levelo://app?vid=23ae6fed-deff-411b-8b6e-f95e32ccd4d0"},"vehicle_type_id":"4","last_reported":1756311156,"current_range_meters":17200,"station_id":"ce4bhrh2rcd13ifvqhug","pricing_plan_id":"cebpf4jnsgd1na2vs0mg"},{"bike_id":"05d97e45-19dc-4128-88fe-ffa6fa61464f","system_id":"levelo_inurba_marseille","lat":43.26239,"lon":5.37425,"is_reserved":false,"is_disabled":false,"rental_uris":{"android":"levelo://app?vid=05d97e45-19dc-4128-88fe-ffa6fa61464f","ios":"levelo://app?vid=05d97e45-19dc-4128-88fe-ffa6fa61464f"},"vehicle_type_id":"4","last_reported":1756311156,"current_range_meters":17200,"station_id":"ce4bhgp2rcd13ifvqfc0","pricing_plan_id":"cebpf4jnsgd1na2vs0mg"},{"bike_id":"681e3277-3204-4cb5-a9ea-e56c84e84e28","system_id":"levelo_inurba_marseille","lat":43.29264,"lon":5.40904,"is_reserved":false,"is_disabled":false,"rental_uris":{"android":"levelo://app?vid=681e3277-3204-4cb5-a9ea-e56c84e84e28","ios":"levelo://app?vid=681e3277-3204-4cb5-a9ea-e56c84e84e28"},"vehicle_type_id":"4","last_reported":1756311156,"current_range_meters":16800,"station_id":"ce4bh192rcd13ifvqdc0","pricing_plan_id":"cebpf4jnsgd1na2vs0mg"},{"bike_id":"b3e46238-3141-425b-8cdd-ee6fcd250687","system_id":"levelo_inurba_marseille","lat":43.31483,"lon":5.373,"is_reserved":false,"is_disabled":false,"rental_uris":{"android":"levelo://app?vid=b3e46238-3141-425b-8cdd-ee6fcd250687","ios":"levelo://app?vid=b3e46238-3141-425b-8cdd-ee6fcd250687"},"vehicle_type_id":"4","last_reported":1756311156,"current_range_meters":17200,"station_id":"ce4bgt12rcd13ifvqcd0","pricing_plan_id":"cebpf4jnsgd1na2vs0mg"},{"bike_id":"a68a1b6e-c796-4834-a24a-b98de06c232c","system_id":"levelo_inurba_marseille","lat":43.30887,"lon":5.37189,"is_reserved":false,"is_disabled":false,"rental_uris":{"android":"levelo://app?vid=a68a1b6e-c796-4834-a24a-b98de06c232c","ios":"levelo://app?vid=a68a1b6e-c796-4834-a24a-b98de06c232c"},"vehicle_type_id":"4","last_reported":1756311156,"current_range_meters":17200,"station_id":"ce4bguh2rcd13ifvqckg","pricing_plan_id":"cebpf4jnsgd1na2vs0mg"},{"bike_id":"6c6efca6-cf0f-41b6-983d-18e2409ffebf","system_id":"levelo_inurba_marseille","lat":43.24807,"lon":5.37438,"is_reserved":false,"is_disabled":false,"rental_uris":{"android":"levelo://app?vid=6c6efca6-cf0f-41b6-983d-18e2409ffebf","ios":"levelo://app?vid=6c6efca6-cf0f-41b6-983d-18e2409ffebf"},"vehicle_type_id":"4","last_reported":1756311156,"current_range_meters":17200,"station_id":"ce4bhgh2rcd13ifvqfb0","pricing_plan_id":"cebpf4jnsgd1na2vs0mg"},{"bike_id":"8df4d72a-2534-4225-b0d0-5b48bd4c7385","system_id":"levelo_inurba_marseille","lat":43.29421,"lon":5.39723,"is_reserved":false,"is_disabled":false,"rental_uris":{"android":"levelo://app?vid=8df4d72a-2534-4225-b0d0-5b48bd4c7385","ios":"levelo://app?vid=8df4d72a-2534-4225-b0d0-5b48bd4c7385"},"vehicle_type_id":"4","last_reported":1756311156,"current_range_meters":17600,"station_id":"ce4bh3h2rcd13ifvqdo0","pricing_plan_id":"cebpf4jnsgd1na2vs0mg"},{"bike_id":"ec0f9f0d-0796-42ac-9cf5-bb8596cdf342","system_id":"levelo_inurba_marseille","lat":43.21182,"lon":5.35069,"is_reserved":false,"is_disabled":false,"rental_uris":{"android":"levelo://app?vid=ec0f9f0d-0796-42ac-9cf5-bb8596cdf342","ios":"levelo://app?vid=ec0f9f0d-0796-42ac-9cf5-bb8596cdf342"},"vehicle_type_id":"4","last_reported":1756311156,"current_range_meters":17600,"station_id":"","pricing_plan_id":"cebpf4jnsgd1na2vs0mg"},{"bike_id":"ce018c4b-b512-4fad-941e-460562572905","system_id":"levelo_inurba_marseille","lat":43.24952,"lon":5.40479,"is_reserved":false,"is_disabled":false,"rental_uris":{"android":"levelo://app?vid=ce018c4b-b512-4fad-941e-460562572905","ios":"levelo://app?vid=ce018c4b-b512-4fad-941e-460562572905"},"vehicle_type_id":"4","last_reported":1756311156,"current_range_meters":17600,"station_id":"st_d2ngiaodas8pm72gd1h0","pricing_plan_id":"cebpf4jnsgd1na2vs0mg"},{"bike_id":"8b56d8f9-1b26-4ef8-9694-6db3621bd72f","system_id":"levelo_inurba_marseille","lat":43.289215,"lon":5.383905,"is_reserved":false,"is_disabled":false,"rental_uris":{"android":"levelo://app?vid=8b56d8f9-1b26-4ef8-9694-6db3621bd72f","ios":"levelo://app?vid=8b56d8f9-1b26-4ef8-9694-6db3621bd72f"},"vehicle_type_id":"4","last_reported":1756311156,"current_range_meters":17600,"station_id":"ce4bh612rcd13ifvqe6g","pricing_plan_id":"cebpf4jnsgd1na2vs0mg"},{"bike_id":"bb3757ae-2b71-47f8-95c3-9e6ca5ea34d6","system_id":"levelo_inurba_marseille","lat":43.255,"lon":5.3765,"is_reserved":false,"is_disabled":false,"rental_uris":{"android":"levelo://app?vid=bb3757ae-2b71-47f8-95c3-9e6ca5ea34d6","ios":"levelo://app?vid=bb3757ae-2b71-47f8-95c3-9e6ca5ea34d6"},"vehicle_type_id":"4","last_reported":1756311156,"current_range_meters":17600,"station_id":"ce4bhh12rcd13ifvqff0","pricing_plan_id":"cebpf4jnsgd1na2vs0mg"},{"bike_id":"a5111d90-7a2c-4331-ac7f-caad20168099","system_id":"levelo_inurba_marseille","lat":43.261943,"lon":5.374482,"is_reserved":false,"is_disabled":false,"rental_uris":{"android":"levelo://app?vid=a5111d90-7a2c-4331-ac7f-caad20168099","ios":"levelo://app?vid=a5111d90-7a2c-4331-ac7f-caad20168099"},"vehicle_type_id":"4","last_reported":1756311156,"current_range_meters":17600,"station_id":"ce4bhgp2rcd13ifvqfc0","pricing_plan_id":"cebpf4jnsgd1na2vs0mg"},{"bike_id":"2a28a3d2-8764-409c-9054-7da75eb35336","system_id":"levelo_inurba_marseille","lat":43.26194,"lon":5.37928,"is_reserved":false,"is_disabled":false,"rental_uris":{"android":"levelo://app?vid=2a28a3d2-8764-409c-9054-7da75eb35336","ios":"levelo://app?vid=2a28a3d2-8764-409c-9054-7da75eb35336"},"vehicle_type_id":"4","last_reported":1756311156,"current_range_meters":17200,"station_id":"ce4bhjp2rcd13ifvqg90","pricing_plan_id":"cebpf4jnsgd1na2vs0mg"},{"bike_id":"cc8c495c-ceb8-4498-966b-8bb02eed590a","system_id":"levelo_inurba_marseille","lat":43.30136,"lon":5.37408,"is_reserved":false,"is_disabled":false,"rental_uris":{"android":"levelo://app?vid=cc8c495c-ceb8-4498-966b-8bb02eed590a","ios":"levelo://app?vid=cc8c495c-ceb8-4498-966b-8bb02eed590a"},"vehicle_type_id":"4","last_reported":1756311156,"current_range_meters":17600,"station_id":"ce4bgs92rcd13ifvqcc0","pricing_plan_id":"cebpf4jnsgd1na2vs0mg"},{"bike_id":"0b7eb0fe-bc20-4db5-81f4-4b0182053472","system_id":"levelo_inurba_marseille","lat":43.2827,"lon":5.35056,"is_reserved":false,"is_disabled":false,"rental_uris":{"android":"levelo://app?vid=0b7eb0fe-bc20-4db5-81f4-4b0182053472","ios":"levelo://app?vid=0b7eb0fe-bc20-4db5-81f4-4b0182053472"},"vehicle_type_id":"4","last_reported":1756311156,"current_range_meters":17600,"station_id":"ce4bhbp2rcd13ifvqerg","pricing_plan_id":"cebpf4jnsgd1na2vs0mg"},{"bike_id":"2ddde0e2-2088-418b-9262-4b0d6e96e416","system_id":"levelo_inurba_marseille","lat":43.26033,"lon":5.37551,"is_reserved":false,"is_disabled":false,"rental_uris":{"android":"levelo://app?vid=2ddde0e2-2088-418b-9262-4b0d6e96e416","ios":"levelo://app?vid=2ddde0e2-2088-418b-9262-4b0d6e96e416"},"vehicle_type_id":"4","last_reported":1756311156,"current_range_meters":18000,"station_id":"ce4bhgh2rcd13ifvqfa0","pricing_plan_id":"cebpf4jnsgd1na2vs0mg"},{"bike_id":"e1a43927-87d5-46ea-a77e-4a61db905a2b","system_id":"levelo_inurba_marseille","lat":43.23192,"lon":5.35549,"is_reserved":false,"is_disabled":false,"rental_uris":{"android":"levelo://app?vid=e1a43927-87d5-46ea-a77e-4a61db905a2b","ios":"levelo://app?vid=e1a43927-87d5-46ea-a77e-4a61db905a2b"},"vehicle_type_id":"4","last_reported":1756311156,"current_range_meters":18000,"station_id":"ce4bhu92rcd13ifvqi70","pricing_plan_id":"cebpf4jnsgd1na2vs0mg"},{"bike_id":"0758c3bd-dff8-4f81-815f-065ac2e80fcf","system_id":"levelo_inurba_marseille","lat":43.26191,"lon":5.37447,"is_reserved":false,"is_disabled":false,"rental_uris":{"android":"levelo://app?vid=0758c3bd-dff8-4f81-815f-065ac2e80fcf","ios":"levelo://app?vid=0758c3bd-dff8-4f81-815f-065ac2e80fcf"},"vehicle_type_id":"4","last_reported":1756311156,"current_range_meters":18000,"station_id":"ce4bhgp2rcd13ifvqfc0","pricing_plan_id":"cebpf4jnsgd1na2vs0mg"},{"bike_id":"5580a045-958c-447a-9b59-1b8addcab2e8","system_id":"levelo_inurba_marseille","lat":43.24665,"lon":5.381707,"is_reserved":false,"is_disabled":false,"rental_uris":{"android":"levelo://app?vid=5580a045-958c-447a-9b59-1b8addcab2e8","ios":"levelo://app?vid=5580a045-958c-447a-9b59-1b8addcab2e8"},"vehicle_type_id":"4","last_reported":1756311156,"current_range_meters":18000,"station_id":"ce4bhih2rcd13ifvqfr0","pricing_plan_id":"cebpf4jnsgd1na2vs0mg"},{"bike_id":"2b272f13-f889-47a5-8972-8498ac631a20","system_id":"levelo_inurba_marseille","lat":43.26552,"lon":5.37287,"is_reserved":false,"is_disabled":false,"rental_uris":{"android":"levelo://app?vid=2b272f13-f889-47a5-8972-8498ac631a20","ios":"levelo://app?vid=2b272f13-f889-47a5-8972-8498ac631a20"},"vehicle_type_id":"4","last_reported":1756311156,"current_range_meters":18000,"station_id":"ce4bhg12rcd13ifvqf70","pricing_plan_id":"cebpf4jnsgd1na2vs0mg"},{"bike_id":"1091f287-02ee-4a66-888b-59c35fd65791","system_id":"levelo_inurba_marseille","lat":43.23192,"lon":5.35544,"is_reserved":false,"is_disabled":false,"rental_uris":{"android":"levelo://app?vid=1091f287-02ee-4a66-888b-59c35fd65791","ios":"levelo://app?vid=1091f287-02ee-4a66-888b-59c35fd65791"},"vehicle_type_id":"4","last_reported":1756311156,"current_range_meters":18000,"station_id":"ce4bhu92rcd13ifvqi70","pricing_plan_id":"cebpf4jnsgd1na2vs0mg"},{"bike_id":"131927a1-aedf-47d1-a070-2e9836467902","system_id":"levelo_inurba_marseille","lat":43.260361,"lon":5.375446,"is_reserved":false,"is_disabled":false,"rental_uris":{"android":"levelo://app?vid=131927a1-aedf-47d1-a070-2e9836467902","ios":"levelo://app?vid=131927a1-aedf-47d1-a070-2e9836467902"},"vehicle_type_id":"4","last_reported":1756311156,"current_range_meters":18000,"station_id":"ce4bhgh2rcd13ifvqfa0","pricing_plan_id":"cebpf4jnsgd1na2vs0mg"},{"bike_id":"4c3eb88c-ec35-42ea-b9f8-5db23266bcf7","system_id":"levelo_inurba_marseille","lat":43.26209,"lon":5.37931,"is_reserved":false,"is_disabled":false,"rental_uris":{"android":"levelo://app?vid=4c3eb88c-ec35-42ea-b9f8-5db23266bcf7","ios":"levelo://app?vid=4c3eb88c-ec35-42ea-b9f8-5db23266bcf7"},"vehicle_type_id":"4","last_reported":1756311156,"current_range_meters":18000,"station_id":"ce4bhjp2rcd13ifvqg90","pricing_plan_id":"cebpf4jnsgd1na2vs0mg"},{"bike_id":"2c246624-962d-4f72-8341-3c6523db29ef","system_id":"levelo_inurba_marseille","lat":43.2655,"lon":5.37288,"is_reserved":false,"is_disabled":true,"rental_uris":{"android":"levelo://app?vid=2c246624-962d-4f72-8341-3c6523db29ef","ios":"levelo://app?vid=2c246624-962d-4f72-8341-3c6523db29ef"},"vehicle_type_id":"4","last_reported":1756311156,"current_range_meters":18000,"station_id":"ce4bhg12rcd13ifvqf70","pricing_plan_id":"cebpf4jnsgd1na2vs0mg"},{"bike_id":"4644c07e-85fd-4d73-bdd6-133613acb901","system_id":"levelo_inurba_marseille","lat":43.30532,"lon":5.36709,"is_reserved":false,"is_disabled":false,"rental_uris":{"android":"levelo://app?vid=4644c07e-85fd-4d73-bdd6-133613acb901","ios":"levelo://app?vid=4644c07e-85fd-4d73-bdd6-133613acb901"},"vehicle_type_id":"4","last_reported":1756311156,"current_range_meters":17600,"station_id":"ce4bgrp2rcd13ifvqc9g","pricing_plan_id":"cebpf4jnsgd1na2vs0mg"},{"bike_id":"0793473c-7c91-4d1f-8ffb-c00486129b1d","system_id":"levelo_inurba_marseille","lat":43.30095,"lon":5.39075,"is_reserved":false,"is_disabled":true,"rental_uris":{"android":"levelo://app?vid=0793473c-7c91-4d1f-8ffb-c00486129b1d","ios":"levelo://app?vid=0793473c-7c91-4d1f-8ffb-c00486129b1d"},"vehicle_type_id":"4","last_reported":1756311156,"current_range_meters":18000,"station_id":"ce4bh192rcd13ifvqdb0","pricing_plan_id":"cebpf4jnsgd1na2vs0mg"},{"bike_id":"02d7a260-8774-4905-8a79-7f76a300d839","system_id":"levelo_inurba_marseille","lat":43.28705,"lon":5.37385,"is_reserved":false,"is_disabled":false,"rental_uris":{"android":"levelo://app?vid=02d7a260-8774-4905-8a79-7f76a300d839","ios":"levelo://app?vid=02d7a260-8774-4905-8a79-7f76a300d839"},"vehicle_type_id":"4","last_reported":1756311156,"current_range_meters":18000,"station_id":"ce4bh3p2rcd13ifvqdq0","pricing_plan_id":"cebpf4jnsgd1na2vs0mg"},{"bike_id":"7f96cfc7-6b62-4cd3-a164-5a1ee471a17d","system_id":"levelo_inurba_marseille","lat":43.30547,"lon":5.36525,"is_reserved":false,"is_disabled":false,"rental_uris":{"android":"levelo://app?vid=7f96cfc7-6b62-4cd3-a164-5a1ee471a17d","ios":"levelo://app?vid=7f96cfc7-6b62-4cd3-a164-5a1ee471a17d"},"vehicle_type_id":"4","last_reported":1756311156,"current_range_meters":18000,"station_id":"ce4bgs12rcd13ifvqcag","pricing_plan_id":"cebpf4jnsgd1na2vs0mg"},{"bike_id":"01f92d06-2c11-49e0-8fbd-c3d3e9fed8bb","system_id":"levelo_inurba_marseille","lat":43.26183,"lon":5.37457,"is_reserved":false,"is_disabled":false,"rental_uris":{"android":"levelo://app?vid=01f92d06-2c11-49e0-8fbd-c3d3e9fed8bb","ios":"levelo://app?vid=01f92d06-2c11-49e0-8fbd-c3d3e9fed8bb"},"vehicle_type_id":"4","last_reported":1756311156,"current_range_meters":18000,"station_id":"ce4bhgp2rcd13ifvqfc0","pricing_plan_id":"cebpf4jnsgd1na2vs0mg"},{"bike_id":"dc5c52e4-dda7-4e95-a8a1-40d18f8670b8","system_id":"levelo_inurba_marseille","lat":43.265518,"lon":5.37284,"is_reserved":false,"is_disabled":false,"rental_uris":{"android":"levelo://app?vid=dc5c52e4-dda7-4e95-a8a1-40d18f8670b8","ios":"levelo://app?vid=dc5c52e4-dda7-4e95-a8a1-40d18f8670b8"},"vehicle_type_id":"4","last_reported":1756311156,"current_range_meters":18000,"station_id":"ce4bhg12rcd13ifvqf70","pricing_plan_id":"cebpf4jnsgd1na2vs0mg"},{"bike_id":"aaad8acc-f862-48ae-879c-9b0399375cef","system_id":"levelo_inurba_marseille","lat":43.29586,"lon":5.375227,"is_reserved":false,"is_disabled":false,"rental_uris":{"android":"levelo://app?vid=aaad8acc-f862-48ae-879c-9b0399375cef","ios":"levelo://app?vid=aaad8acc-f862-48ae-879c-9b0399375cef"},"vehicle_type_id":"4","last_reported":1756311156,"current_range_meters":18800,"station_id":"","pricing_plan_id":"cebpf4jnsgd1na2vs0mg"},{"bike_id":"b0c8be56-68d2-4bef-9ffb-53930ab17892","system_id":"levelo_inurba_marseille","lat":43.21187,"lon":5.35065,"is_reserved":false,"is_disabled":false,"rental_uris":{"android":"levelo://app?vid=b0c8be56-68d2-4bef-9ffb-53930ab17892","ios":"levelo://app?vid=b0c8be56-68d2-4bef-9ffb-53930ab17892"},"vehicle_type_id":"4","last_reported":1756311156,"current_range_meters":18800,"station_id":"st_cvj6sg6p6f1abm77japg","pricing_plan_id":"cebpf4jnsgd1na2vs0mg"},{"bike_id":"831a2354-0919-4530-8e5a-84c32dcc2c03","system_id":"levelo_inurba_marseille","lat":43.272052,"lon":5.391826,"is_reserved":false,"is_disabled":false,"rental_uris":{"android":"levelo://app?vid=831a2354-0919-4530-8e5a-84c32dcc2c03","ios":"levelo://app?vid=831a2354-0919-4530-8e5a-84c32dcc2c03"},"vehicle_type_id":"4","last_reported":1756311156,"current_range_meters":18800,"station_id":"","pricing_plan_id":"cebpf4jnsgd1na2vs0mg"},{"bike_id":"26c01720-621e-40e9-86c1-3b1dd451288e","system_id":"levelo_inurba_marseille","lat":43.29266,"lon":5.38431,"is_reserved":false,"is_disabled":false,"rental_uris":{"android":"levelo://app?vid=26c01720-621e-40e9-86c1-3b1dd451288e","ios":"levelo://app?vid=26c01720-621e-40e9-86c1-3b1dd451288e"},"vehicle_type_id":"4","last_reported":1756311156,"current_range_meters":18800,"station_id":"ce4bh692rcd13ifvqea0","pricing_plan_id":"cebpf4jnsgd1na2vs0mg"},{"bike_id":"55e20429-b765-471d-ba42-0ab0f31d07c7","system_id":"levelo_inurba_marseille","lat":43.21746,"lon":5.34601,"is_reserved":false,"is_disabled":false,"rental_uris":{"android":"levelo://app?vid=55e20429-b765-471d-ba42-0ab0f31d07c7","ios":"levelo://app?vid=55e20429-b765-471d-ba42-0ab0f31d07c7"},"vehicle_type_id":"4","last_reported":1756311156,"current_range_meters":18800,"station_id":"st_cvj6r9ubvosntc0bgbag","pricing_plan_id":"cebpf4jnsgd1na2vs0mg"},{"bike_id":"07296681-3400-48d5-88e2-c863a00e5bf3","system_id":"levelo_inurba_marseille","lat":43.22925,"lon":5.35373,"is_reserved":false,"is_disabled":false,"rental_uris":{"android":"levelo://app?vid=07296681-3400-48d5-88e2-c863a00e5bf3","ios":"levelo://app?vid=07296681-3400-48d5-88e2-c863a00e5bf3"},"vehicle_type_id":"4","last_reported":1756311156,"current_range_meters":18800,"station_id":"cpo3532slgdg3j2ikp40","pricing_plan_id":"cebpf4jnsgd1na2vs0mg"},{"bike_id":"4e543649-9f93-4669-983e-aa1893e9df48","system_id":"levelo_inurba_marseille","lat":43.2905,"lon":5.35919,"is_reserved":false,"is_disabled":false,"rental_uris":{"android":"levelo://app?vid=4e543649-9f93-4669-983e-aa1893e9df48","ios":"levelo://app?vid=4e543649-9f93-4669-983e-aa1893e9df48"},"vehicle_type_id":"4","last_reported":1756311156,"current_range_meters":18000,"station_id":"ce4bha92rcd13ifvqeg0","pricing_plan_id":"cebpf4jnsgd1na2vs0mg"},{"bike_id":"995d25ab-c970-4872-ad0a-72041eccaad0","system_id":"levelo_inurba_marseille","lat":43.28851,"lon":5.39316,"is_reserved":false,"is_disabled":false,"rental_uris":{"android":"levelo://app?vid=995d25ab-c970-4872-ad0a-72041eccaad0","ios":"levelo://app?vid=995d25ab-c970-4872-ad0a-72041eccaad0"},"vehicle_type_id":"4","last_reported":1756311156,"current_range_meters":18800,"station_id":"ce4bh2p2rcd13ifvqdi0","pricing_plan_id":"cebpf4jnsgd1na2vs0mg"},{"bike_id":"9a8b99fc-b8c9-4dd6-88f3-eb661d73ebd2","system_id":"levelo_inurba_marseille","lat":43.28356,"lon":5.38091,"is_reserved":false,"is_disabled":false,"rental_uris":{"android":"levelo://app?vid=9a8b99fc-b8c9-4dd6-88f3-eb661d73ebd2","ios":"levelo://app?vid=9a8b99fc-b8c9-4dd6-88f3-eb661d73ebd2"},"vehicle_type_id":"4","last_reported":1756311156,"current_range_meters":18800,"station_id":"ce4bh412rcd13ifvqdr0","pricing_plan_id":"cebpf4jnsgd1na2vs0mg"},{"bike_id":"3686e4cb-7a94-43ef-869b-6a3e31419822","system_id":"levelo_inurba_marseille","lat":43.21751,"lon":5.34602,"is_reserved":false,"is_disabled":false,"rental_uris":{"android":"levelo://app?vid=3686e4cb-7a94-43ef-869b-6a3e31419822","ios":"levelo://app?vid=3686e4cb-7a94-43ef-869b-6a3e31419822"},"vehicle_type_id":"4","last_reported":1756311156,"current_range_meters":19200,"station_id":"st_cvj6r9ubvosntc0bgbag","pricing_plan_id":"cebpf4jnsgd1na2vs0mg"},{"bike_id":"20c40bc5-0fe7-4d2a-aeac-3e4dba377090","system_id":"levelo_inurba_marseille","lat":43.314949,"lon":5.373054,"is_reserved":false,"is_disabled":false,"rental_uris":{"android":"levelo://app?vid=20c40bc5-0fe7-4d2a-aeac-3e4dba377090","ios":"levelo://app?vid=20c40bc5-0fe7-4d2a-aeac-3e4dba377090"},"vehicle_type_id":"4","last_reported":1756311156,"current_range_meters":19200,"station_id":"ce4bgt12rcd13ifvqcd0","pricing_plan_id":"cebpf4jnsgd1na2vs0mg"},{"bike_id":"731ff345-1377-45e9-acf9-0825f15b172a","system_id":"levelo_inurba_marseille","lat":43.22923,"lon":5.35358,"is_reserved":false,"is_disabled":false,"rental_uris":{"android":"levelo://app?vid=731ff345-1377-45e9-acf9-0825f15b172a","ios":"levelo://app?vid=731ff345-1377-45e9-acf9-0825f15b172a"},"vehicle_type_id":"4","last_reported":1756311156,"current_range_meters":19200,"station_id":"cpo3532slgdg3j2ikp40","pricing_plan_id":"cebpf4jnsgd1na2vs0mg"},{"bike_id":"491a51e4-1469-463f-b9cc-ff15d2c85312","system_id":"levelo_inurba_marseille","lat":43.29529,"lon":5.38541,"is_reserved":false,"is_disabled":true,"rental_uris":{"android":"levelo://app?vid=491a51e4-1469-463f-b9cc-ff15d2c85312","ios":"levelo://app?vid=491a51e4-1469-463f-b9cc-ff15d2c85312"},