{"last_updated":1751991218,"ttl":60,"version":"2.2","data":{"bikes":[{"bike_id":"cd20cfea-2f2f-444d-a882-a49b6cf370eb","system_id":"levelo_inurba_marseille","lat":43.337444,"lon":5.374475,"is_reserved":false,"is_disabled":true,"rental_uris":{"android":"levelo://app?vid=cd20cfea-2f2f-444d-a882-a49b6cf370eb","ios":"levelo://app?vid=cd20cfea-2f2f-444d-a882-a49b6cf370eb"},"vehicle_type_id":"4","last_reported":1751991218,"current_range_meters":0,"station_id":"","pricing_plan_id":"cebpf4jnsgd1na2vs0mg"},{"bike_id":"3da29fb8-fc97-44c6-b9ac-31dd456b2fd4","system_id":"levelo_inurba_marseille","lat":43.33771,"lon":5.37424,"is_reserved":false,"is_disabled":true,"rental_uris":{"android":"levelo://app?vid=3da29fb8-fc97-44c6-b9ac-31dd456b2fd4","ios":"levelo://app?vid=3da29fb8-fc97-44c6-b9ac-31dd456b2fd4"},"vehicle_type_id":"4","last_reported":1751991218,"current_range_meters":0,"station_id":"","pricing_plan_id":"cebpf4jnsgd1na2vs0mg"},{"bike_id":"01861ad8-a8d7-4be6-816e-651927c87584","system_id":"levelo_inurba_marseille","lat":43.33751,"lon":5.37456,"is_reserved":false,"is_disabled":true,"rental_uris":{"android":"levelo://app?vid=01861ad8-a8d7-4be6-816e-651927c87584","ios":"levelo://app?vid=01861ad8-a8d7-4be6-816e-651927c87584"},"vehicle_type_id":"4","last_reported":1751991218,"current_range_meters":0,"station_id":"","pricing_plan_id":"cebpf4jnsgd1na2vs0mg"},{"bike_id":"3d508917-55ee-42b6-894b-89c2a444dc06","system_id":"levelo_inurba_marseille","lat":43.33826,"lon":5.37475,"is_reserved":false,"is_disabled":true,"rental_uris":{"android":"levelo://app?vid=3d508917-55ee-42b6-894b-89c2a444dc06","ios":"levelo://app?vid=3d508917-55ee-42b6-894b-89c2a444dc06"},"vehicle_type_id":"4","last_reported":1751991218,"current_range_meters":0,"station_id":"","pricing_plan_id":"cebpf4jnsgd1na2vs0mg"},{"bike_id":"06bcf4a2-0341-4992-9b03-ad74e603595c","system_id":"levelo_inurba_marseille","lat":43.296017,"lon":5.37736,"is_reserved":false,"is_disabled":true,"rental_uris":{"android":"levelo://app?vid=06bcf4a2-0341-4992-9b03-ad74e603595c","ios":"levelo://app?vid=06bcf4a2-0341-4992-9b03-ad74e603595c"},"vehicle_type_id":"4","last_reported":1751991218,"current_range_meters":0,"station_id":"ce4bgi92rcd13ifvqb90","pricing_plan_id":"cebpf4jnsgd1na2vs0mg"},{"bike_id":"bc4d5df3-768f-4e1e-b7eb-996073bdce94","system_id":"levelo_inurba_marseille","lat":43.27617,"lon":5.36103,"is_reserved":false,"is_disabled":true,"rental_uris":{"android":"levelo://app?vid=bc4d5df3-768f-4e1e-b7eb-996073bdce94","ios":"levelo://app?vid=bc4d5df3-768f-4e1e-b7eb-996073bdce94"},"vehicle_type_id":"4","last_reported":1751991218,"current_range_meters":0,"station_id":"ce4bgj92rcd13ifvqbe0","pricing_plan_id":"cebpf4jnsgd1na2vs0mg"},{"bike_id":"21bde77f-751a-45da-b088-01e561e8a859","system_id":"levelo_inurba_marseille","lat":43.29921,"lon":5.37465,"is_reserved":false,"is_disabled":true,"rental_uris":{"android":"levelo://app?vid=21bde77f-751a-45da-b088-01e561e8a859","ios":"levelo://app?vid=21bde77f-751a-45da-b088-01e561e8a859"},"vehicle_type_id":"4","last_reported":1751991218,"current_range_meters":0,"station_id":"ce4bgjh2rcd13ifvqbg0","pricing_plan_id":"cebpf4jnsgd1na2vs0mg"},{"bike_id":"0f98c271-24c0-4e9a-a29d-53969636755b","system_id":"levelo_inurba_marseille","lat":43.29784,"lon":5.37093,"is_reserved":false,"is_disabled":true,"rental_uris":{"android":"levelo://app?vid=0f98c271-24c0-4e9a-a29d-53969636755b","ios":"levelo://app?vid=0f98c271-24c0-4e9a-a29d-53969636755b"},"vehicle_type_id":"4","last_reported":1751991218,"current_range_meters":0,"station_id":"ce4bgop2rcd13ifvqc1g","pricing_plan_id":"cebpf4jnsgd1na2vs0mg"},{"bike_id":"bbdbafc5-7950-4893-babe-3069850a834b","system_id":"levelo_inurba_marseille","lat":43.29566,"lon":5.39969,"is_reserved":false,"is_disabled":true,"rental_uris":{"android":"levelo://app?vid=bbdbafc5-7950-4893-babe-3069850a834b","ios":"levelo://app?vid=bbdbafc5-7950-4893-babe-3069850a834b"},"vehicle_type_id":"4","last_reported":1751991218,"current_range_meters":0,"station_id":"ce4bh312rcd13ifvqdj0","pricing_plan_id":"cebpf4jnsgd1na2vs0mg"},{"bike_id":"5188f427-56b6-48eb-8de8-7ae6b3e008e0","system_id":"levelo_inurba_marseille","lat":43.27915,"lon":5.39577,"is_reserved":false,"is_disabled":true,"rental_uris":{"android":"levelo://app?vid=5188f427-56b6-48eb-8de8-7ae6b3e008e0","ios":"levelo://app?vid=5188f427-56b6-48eb-8de8-7ae6b3e008e0"},"vehicle_type_id":"4","last_reported":1751991218,"current_range_meters":0,"station_id":"ce4bhf92rcd13ifvqf40","pricing_plan_id":"cebpf4jnsgd1na2vs0mg"},{"bike_id":"d21d68f5-645a-4c5b-b4f9-47a78a723407","system_id":"levelo_inurba_marseille","lat":43.2784,"lon":5.39202,"is_reserved":false,"is_disabled":true,"rental_uris":{"android":"levelo://app?vid=d21d68f5-645a-4c5b-b4f9-47a78a723407","ios":"levelo://app?vid=d21d68f5-645a-4c5b-b4f9-47a78a723407"},"vehicle_type_id":"4","last_reported":1751991218,"current_range_meters":0,"station_id":"ce4bhjp2rcd13ifvqga0","pricing_plan_id":"cebpf4jnsgd1na2vs0mg"},{"bike_id":"d2abb1cb-883c-4927-85e0-8c7b7848d239","system_id":"levelo_inurba_marseille","lat":43.30426,"lon":5.388963,"is_reserved":false,"is_disabled":true,"rental_uris":{"android":"levelo://app?vid=d2abb1cb-883c-4927-85e0-8c7b7848d239","ios":"levelo://app?vid=d2abb1cb-883c-4927-85e0-8c7b7848d239"},"vehicle_type_id":"4","last_reported":1751991218,"current_range_meters":400,"station_id":"ce4bgk12rcd13ifvqbi0","pricing_plan_id":"cebpf4jnsgd1na2vs0mg"},{"bike_id":"5f635402-999f-4ba8-b162-12a4fe205117","system_id":"levelo_inurba_marseille","lat":43.302172,"lon":5.394731,"is_reserved":false,"is_disabled":true,"rental_uris":{"android":"levelo://app?vid=5f635402-999f-4ba8-b162-12a4fe205117","ios":"levelo://app?vid=5f635402-999f-4ba8-b162-12a4fe205117"},"vehicle_type_id":"4","last_reported":1751991218,"current_range_meters":400,"station_id":"ce4bh0p2rcd13ifvqd70","pricing_plan_id":"cebpf4jnsgd1na2vs0mg"},{"bike_id":"a2502c27-0777-4818-87c7-189b3cddba7d","system_id":"levelo_inurba_marseille","lat":43.27375,"lon":5.3626,"is_reserved":false,"is_disabled":true,"rental_uris":{"android":"levelo://app?vid=a2502c27-0777-4818-87c7-189b3cddba7d","ios":"levelo://app?vid=a2502c27-0777-4818-87c7-189b3cddba7d"},"vehicle_type_id":"4","last_reported":1751991218,"current_range_meters":400,"station_id":"ce4bhbh2rcd13ifvqeo0","pricing_plan_id":"cebpf4jnsgd1na2vs0mg"},{"bike_id":"07776292-a328-471d-a8be-92d2382b012f","system_id":"levelo_inurba_marseille","lat":43.28156,"lon":5.42637,"is_reserved":false,"is_disabled":true,"rental_uris":{"android":"levelo://app?vid=07776292-a328-471d-a8be-92d2382b012f","ios":"levelo://app?vid=07776292-a328-471d-a8be-92d2382b012f"},"vehicle_type_id":"4","last_reported":1751991218,"current_range_meters":400,"station_id":"ce4bhnh2rcd13ifvqgug","pricing_plan_id":"cebpf4jnsgd1na2vs0mg"},{"bike_id":"199f202f-af5b-4e74-8398-078c46525094","system_id":"levelo_inurba_marseille","lat":43.30463,"lon":5.37912,"is_reserved":false,"is_disabled":true,"rental_uris":{"android":"levelo://app?vid=199f202f-af5b-4e74-8398-078c46525094","ios":"levelo://app?vid=199f202f-af5b-4e74-8398-078c46525094"},"vehicle_type_id":"4","last_reported":1751991218,"current_range_meters":1200,"station_id":"ce4bgup2rcd13ifvqcn0","pricing_plan_id":"cebpf4jnsgd1na2vs0mg"},{"bike_id":"c8ce9d2a-09f4-447e-8f29-f510d52c4f58","system_id":"levelo_inurba_marseille","lat":43.30354,"lon":5.4188,"is_reserved":false,"is_disabled":true,"rental_uris":{"android":"levelo://app?vid=c8ce9d2a-09f4-447e-8f29-f510d52c4f58","ios":"levelo://app?vid=c8ce9d2a-09f4-447e-8f29-f510d52c4f58"},"vehicle_type_id":"4","last_reported":1751991218,"current_range_meters":1200,"station_id":"ce4bhop2rcd13ifvqh7g","pricing_plan_id":"cebpf4jnsgd1na2vs0mg"},{"bike_id":"ed290504-6948-4f69-8584-2e2b0286febf","system_id":"levelo_inurba_marseille","lat":43.21192,"lon":5.35074,"is_reserved":false,"is_disabled":true,"rental_uris":{"android":"levelo://app?vid=ed290504-6948-4f69-8584-2e2b0286febf","ios":"levelo://app?vid=ed290504-6948-4f69-8584-2e2b0286febf"},"vehicle_type_id":"4","last_reported":1751991218,"current_range_meters":1200,"station_id":"st_cvj6sg6p6f1abm77japg","pricing_plan_id":"cebpf4jnsgd1na2vs0mg"},{"bike_id":"f019955e-f7a1-4a35-8f42-1fdf08ee12bc","system_id":"levelo_inurba_marseille","lat":43.29718,"lon":5.37809,"is_reserved":false,"is_disabled":true,"rental_uris":{"android":"levelo://app?vid=f019955e-f7a1-4a35-8f42-1fdf08ee12bc","ios":"levelo://app?vid=f019955e-f7a1-4a35-8f42-1fdf08ee12bc"},"vehicle_type_id":"4","last_reported":1751991218,"current_range_meters":1600,"station_id":"","pricing_plan_id":"cebpf4jnsgd1na2vs0mg"},{"bike_id":"b625550a-6329-4132-b2c1-17c2aedef42c","system_id":"levelo_inurba_marseille","lat":43.32289,"lon":5.38268,"is_reserved":false,"is_disabled":true,"rental_uris":{"android":"levelo://app?vid=b625550a-6329-4132-b2c1-17c2aedef42c","ios":"levelo://app?vid=b625550a-6329-4132-b2c1-17c2aedef42c"},"vehicle_type_id":"4","last_reported":1751991218,"current_range_meters":1600,"station_id":"ce4bhr12rcd13ifvqhqg","pricing_plan_id":"cebpf4jnsgd1na2vs0mg"},{"bike_id":"6661cbd2-6ba2-4b46-b15e-1188df0f29d7","system_id":"levelo_inurba_marseille","lat":43.211922,"lon":5.350784,"is_reserved":false,"is_disabled":true,"rental_uris":{"android":"levelo://app?vid=6661cbd2-6ba2-4b46-b15e-1188df0f29d7","ios":"levelo://app?vid=6661cbd2-6ba2-4b46-b15e-1188df0f29d7"},"vehicle_type_id":"4","last_reported":1751991218,"current_range_meters":1600,"station_id":"st_cvj6sg6p6f1abm77japg","pricing_plan_id":"cebpf4jnsgd1na2vs0mg"},{"bike_id":"d79265ad-bdea-410e-b1ff-043ba2b0c382","system_id":"levelo_inurba_marseille","lat":43.304291,"lon":5.388983,"is_reserved":false,"is_disabled":false,"rental_uris":{"android":"levelo://app?vid=d79265ad-bdea-410e-b1ff-043ba2b0c382","ios":"levelo://app?vid=d79265ad-bdea-410e-b1ff-043ba2b0c382"},"vehicle_type_id":"4","last_reported":1751991218,"current_range_meters":2000,"station_id":"ce4bgk12rcd13ifvqbi0","pricing_plan_id":"cebpf4jnsgd1na2vs0mg"},{"bike_id":"95f7110e-5676-42b6-b991-e2f00e8a9e16","system_id":"levelo_inurba_marseille","lat":43.29801,"lon":5.40398,"is_reserved":false,"is_disabled":true,"rental_uris":{"android":"levelo://app?vid=95f7110e-5676-42b6-b991-e2f00e8a9e16","ios":"levelo://app?vid=95f7110e-5676-42b6-b991-e2f00e8a9e16"},"vehicle_type_id":"4","last_reported":1751991218,"current_range_meters":2000,"station_id":"ce4bh112rcd13ifvqd90","pricing_plan_id":"cebpf4jnsgd1na2vs0mg"},{"bike_id":"96c20207-967f-41ec-bdb9-3aac3bd7bfce","system_id":"levelo_inurba_marseille","lat":43.29417,"lon":5.3862,"is_reserved":false,"is_disabled":true,"rental_uris":{"android":"levelo://app?vid=96c20207-967f-41ec-bdb9-3aac3bd7bfce","ios":"levelo://app?vid=96c20207-967f-41ec-bdb9-3aac3bd7bfce"},"vehicle_type_id":"4","last_reported":1751991218,"current_range_meters":2000,"station_id":"ce4bh2h2rcd13ifvqdh0","pricing_plan_id":"cebpf4jnsgd1na2vs0mg"},{"bike_id":"0c6ef98a-9c33-4d2f-b188-1690f070350c","system_id":"levelo_inurba_marseille","lat":43.28706,"lon":5.3739,"is_reserved":false,"is_disabled":true,"rental_uris":{"android":"levelo://app?vid=0c6ef98a-9c33-4d2f-b188-1690f070350c","ios":"levelo://app?vid=0c6ef98a-9c33-4d2f-b188-1690f070350c"},"vehicle_type_id":"4","last_reported":1751991218,"current_range_meters":2000,"station_id":"ce4bh3p2rcd13ifvqdq0","pricing_plan_id":"cebpf4jnsgd1na2vs0mg"},{"bike_id":"47cc12e9-1f9d-4b29-b948-db655857089a","system_id":"levelo_inurba_marseille","lat":43.22516,"lon":5.34774,"is_reserved":false,"is_disabled":true,"rental_uris":{"android":"levelo://app?vid=47cc12e9-1f9d-4b29-b948-db655857089a","ios":"levelo://app?vid=47cc12e9-1f9d-4b29-b948-db655857089a"},"vehicle_type_id":"4","last_reported":1751991218,"current_range_meters":2000,"station_id":"st_cvj5dfep6f1abm77gieg","pricing_plan_id":"cebpf4jnsgd1na2vs0mg"},{"bike_id":"d3426c35-3e62-4418-9d99-3caebf36bd57","system_id":"levelo_inurba_marseille","lat":43.29007,"lon":5.35608,"is_reserved":false,"is_disabled":false,"rental_uris":{"android":"levelo://app?vid=d3426c35-3e62-4418-9d99-3caebf36bd57","ios":"levelo://app?vid=d3426c35-3e62-4418-9d99-3caebf36bd57"},"vehicle_type_id":"4","last_reported":1751991218,"current_range_meters":2800,"station_id":"ce4bhb92rcd13ifvqen0","pricing_plan_id":"cebpf4jnsgd1na2vs0mg"},{"bike_id":"92c40888-1a58-4569-ad35-249ff84f4ba7","system_id":"levelo_inurba_marseille","lat":43.28992,"lon":5.37826,"is_reserved":false,"is_disabled":false,"rental_uris":{"android":"levelo://app?vid=92c40888-1a58-4569-ad35-249ff84f4ba7","ios":"levelo://app?vid=92c40888-1a58-4569-ad35-249ff84f4ba7"},"vehicle_type_id":"4","last_reported":1751991218,"current_range_meters":3200,"station_id":"ce4bh9p2rcd13ifvqed0","pricing_plan_id":"cebpf4jnsgd1na2vs0mg"},{"bike_id":"ff6969fc-5512-4edf-a61d-6936ccb9a278","system_id":"levelo_inurba_marseille","lat":43.330142,"lon":5.36378,"is_reserved":false,"is_disabled":false,"rental_uris":{"android":"levelo://app?vid=ff6969fc-5512-4edf-a61d-6936ccb9a278","ios":"levelo://app?vid=ff6969fc-5512-4edf-a61d-6936ccb9a278"},"vehicle_type_id":"4","last_reported":1751991218,"current_range_meters":3600,"station_id":"","pricing_plan_id":"cebpf4jnsgd1na2vs0mg"},{"bike_id":"491f200e-13c9-4b0a-8834-b214412b86b5","system_id":"levelo_inurba_marseille","lat":43.30247,"lon":5.40046,"is_reserved":false,"is_disabled":false,"rental_uris":{"android":"levelo://app?vid=491f200e-13c9-4b0a-8834-b214412b86b5","ios":"levelo://app?vid=491f200e-13c9-4b0a-8834-b214412b86b5"},"vehicle_type_id":"4","last_reported":1751991218,"current_range_meters":4000,"station_id":"ce4bgvh2rcd13ifvqcs0","pricing_plan_id":"cebpf4jnsgd1na2vs0mg"},{"bike_id":"e562ad4e-a577-4b7b-a74e-7e00b9c0f52f","system_id":"levelo_inurba_marseille","lat":43.22504,"lon":5.3478,"is_reserved":false,"is_disabled":false,"rental_uris":{"android":"levelo://app?vid=e562ad4e-a577-4b7b-a74e-7e00b9c0f52f","ios":"levelo://app?vid=e562ad4e-a577-4b7b-a74e-7e00b9c0f52f"},"vehicle_type_id":"4","last_reported":1751991218,"current_range_meters":4000,"station_id":"st_cvj5dfep6f1abm77gieg","pricing_plan_id":"cebpf4jnsgd1na2vs0mg"},{"bike_id":"7b527f00-f6ea-4963-b59d-8da04a2feedb","system_id":"levelo_inurba_marseille","lat":43.3209,"lon":5.40118,"is_reserved":false,"is_disabled":false,"rental_uris":{"android":"levelo://app?vid=7b527f00-f6ea-4963-b59d-8da04a2feedb","ios":"levelo://app?vid=7b527f00-f6ea-4963-b59d-8da04a2feedb"},"vehicle_type_id":"4","last_reported":1751991218,"current_range_meters":5600,"station_id":"","pricing_plan_id":"cebpf4jnsgd1na2vs0mg"},{"bike_id":"681d2c45-8a35-4b97-b91d-783f49090aff","system_id":"levelo_inurba_marseille","lat":43.301865,"lon":5.397595,"is_reserved":false,"is_disabled":false,"rental_uris":{"android":"levelo://app?vid=681d2c45-8a35-4b97-b91d-783f49090aff","ios":"levelo://app?vid=681d2c45-8a35-4b97-b91d-783f49090aff"},"vehicle_type_id":"4","last_reported":1751991218,"current_range_meters":5600,"station_id":"ce4bgkh2rcd13ifvqbk0","pricing_plan_id":"cebpf4jnsgd1na2vs0mg"},{"bike_id":"625260b8-9f54-487c-a02d-5a2642862a5d","system_id":"levelo_inurba_marseille","lat":43.29613,"lon":5.38098,"is_reserved":false,"is_disabled":false,"rental_uris":{"android":"levelo://app?vid=625260b8-9f54-487c-a02d-5a2642862a5d","ios":"levelo://app?vid=625260b8-9f54-487c-a02d-5a2642862a5d"},"vehicle_type_id":"4","last_reported":1751991218,"current_range_meters":5600,"station_id":"ce4bgl12rcd13ifvqbo0","pricing_plan_id":"cebpf4jnsgd1na2vs0mg"},{"bike_id":"6988d9c0-cbbe-4391-a7c1-5fd1e5e82d4a","system_id":"levelo_inurba_marseille","lat":43.28271,"lon":5.35065,"is_reserved":false,"is_disabled":false,"rental_uris":{"android":"levelo://app?vid=6988d9c0-cbbe-4391-a7c1-5fd1e5e82d4a","ios":"levelo://app?vid=6988d9c0-cbbe-4391-a7c1-5fd1e5e82d4a"},"vehicle_type_id":"4","last_reported":1751991218,"current_range_meters":5600,"station_id":"ce4bhbp2rcd13ifvqerg","pricing_plan_id":"cebpf4jnsgd1na2vs0mg"},{"bike_id":"b5511ebe-8e7d-4a49-9ec7-aff650e72931","system_id":"levelo_inurba_marseille","lat":43.26195,"lon":5.3745,"is_reserved":false,"is_disabled":false,"rental_uris":{"android":"levelo://app?vid=b5511ebe-8e7d-4a49-9ec7-aff650e72931","ios":"levelo://app?vid=b5511ebe-8e7d-4a49-9ec7-aff650e72931"},"vehicle_type_id":"4","last_reported":1751991218,"current_range_meters":6000,"station_id":"ce4bhgp2rcd13ifvqfc0","pricing_plan_id":"cebpf4jnsgd1na2vs0mg"},{"bike_id":"3b22f952-d0bc-4c00-8fd3-7e27b88aea23","system_id":"levelo_inurba_marseille","lat":43.29659,"lon":5.36245,"is_reserved":false,"is_disabled":false,"rental_uris":{"android":"levelo://app?vid=3b22f952-d0bc-4c00-8fd3-7e27b88aea23","ios":"levelo://app?vid=3b22f952-d0bc-4c00-8fd3-7e27b88aea23"},"vehicle_type_id":"4","last_reported":1751991218,"current_range_meters":6400,"station_id":"","pricing_plan_id":"cebpf4jnsgd1na2vs0mg"},{"bike_id":"e97ee5c0-87e5-403c-92ed-929b14d6ff8f","system_id":"levelo_inurba_marseille","lat":43.28351,"lon":5.3854,"is_reserved":false,"is_disabled":false,"rental_uris":{"android":"levelo://app?vid=e97ee5c0-87e5-403c-92ed-929b14d6ff8f","ios":"levelo://app?vid=e97ee5c0-87e5-403c-92ed-929b14d6ff8f"},"vehicle_type_id":"4","last_reported":1751991218,"current_range_meters":6400,"station_id":"","pricing_plan_id":"cebpf4jnsgd1na2vs0mg"},{"bike_id":"88ea42cb-cf0f-4e4a-8442-732645bc4ba5","system_id":"levelo_inurba_marseille","lat":43.31091,"lon":5.36718,"is_reserved":false,"is_disabled":false,"rental_uris":{"android":"levelo://app?vid=88ea42cb-cf0f-4e4a-8442-732645bc4ba5","ios":"levelo://app?vid=88ea42cb-cf0f-4e4a-8442-732645bc4ba5"},"vehicle_type_id":"4","last_reported":1751991218,"current_range_meters":6400,"station_id":"","pricing_plan_id":"cebpf4jnsgd1na2vs0mg"},{"bike_id":"b0a0fb92-dbc1-4dc5-90df-6c91e3ccc399","system_id":"levelo_inurba_marseille","lat":43.28457,"lon":5.35886,"is_reserved":false,"is_disabled":false,"rental_uris":{"android":"levelo://app?vid=b0a0fb92-dbc1-4dc5-90df-6c91e3ccc399","ios":"levelo://app?vid=b0a0fb92-dbc1-4dc5-90df-6c91e3ccc399"},"vehicle_type_id":"4","last_reported":1751991218,"current_range_meters":6400,"station_id":"ce4bhah2rcd13ifvqei0","pricing_plan_id":"cebpf4jnsgd1na2vs0mg"},{"bike_id":"27caa766-5301-4300-8223-619cbbcf30e5","system_id":"levelo_inurba_marseille","lat":43.25585,"lon":5.38234,"is_reserved":false,"is_disabled":false,"rental_uris":{"android":"levelo://app?vid=27caa766-5301-4300-8223-619cbbcf30e5","ios":"levelo://app?vid=27caa766-5301-4300-8223-619cbbcf30e5"},"vehicle_type_id":"4","last_reported":1751991218,"current_range_meters":6400,"station_id":"ce4bhih2rcd13ifvqfs0","pricing_plan_id":"cebpf4jnsgd1na2vs0mg"},{"bike_id":"1b0d4e22-9698-4142-b780-0be19c57aa91","system_id":"levelo_inurba_marseille","lat":43.304294,"lon":5.388998,"is_reserved":false,"is_disabled":false,"rental_uris":{"android":"levelo://app?vid=1b0d4e22-9698-4142-b780-0be19c57aa91","ios":"levelo://app?vid=1b0d4e22-9698-4142-b780-0be19c57aa91"},"vehicle_type_id":"4","last_reported":1751991218,"current_range_meters":6800,"station_id":"ce4bgk12rcd13ifvqbi0","pricing_plan_id":"cebpf4jnsgd1na2vs0mg"},{"bike_id":"23b44140-9f5e-4e60-977d-8c268ff7dc7c","system_id":"levelo_inurba_marseille","lat":43.28664,"lon":5.38668,"is_reserved":false,"is_disabled":false,"rental_uris":{"android":"levelo://app?vid=23b44140-9f5e-4e60-977d-8c268ff7dc7c","ios":"levelo://app?vid=23b44140-9f5e-4e60-977d-8c268ff7dc7c"},"vehicle_type_id":"4","last_reported":1751991218,"current_range_meters":6800,"station_id":"ce4bh492rcd13ifvqdug","pricing_plan_id":"cebpf4jnsgd1na2vs0mg"},{"bike_id":"aa84c30c-7c9c-49bb-b086-1f78593d075f","system_id":"levelo_inurba_marseille","lat":43.34142,"lon":5.40899,"is_reserved":false,"is_disabled":false,"rental_uris":{"android":"levelo://app?vid=aa84c30c-7c9c-49bb-b086-1f78593d075f","ios":"levelo://app?vid=aa84c30c-7c9c-49bb-b086-1f78593d075f"},"vehicle_type_id":"4","last_reported":1751991218,"current_range_meters":6800,"station_id":"ce4bhqh2rcd13ifvqhlg","pricing_plan_id":"cebpf4jnsgd1na2vs0mg"},{"bike_id":"37f2becd-23f9-4f13-a711-38b8024eeec7","system_id":"levelo_inurba_marseille","lat":43.33768,"lon":5.37516,"is_reserved":false,"is_disabled":false,"rental_uris":{"android":"levelo://app?vid=37f2becd-23f9-4f13-a711-38b8024eeec7","ios":"levelo://app?vid=37f2becd-23f9-4f13-a711-38b8024eeec7"},"vehicle_type_id":"4","last_reported":1751991218,"current_range_meters":7200,"station_id":"","pricing_plan_id":"cebpf4jnsgd1na2vs0mg"},{"bike_id":"44cc4f7a-29a8-44ff-b152-df5ebd83ae2d","system_id":"levelo_inurba_marseille","lat":43.24388,"lon":5.37059,"is_reserved":false,"is_disabled":false,"rental_uris":{"android":"levelo://app?vid=44cc4f7a-29a8-44ff-b152-df5ebd83ae2d","ios":"levelo://app?vid=44cc4f7a-29a8-44ff-b152-df5ebd83ae2d"},"vehicle_type_id":"4","last_reported":1751991218,"current_range_meters":7200,"station_id":"ce4bhhh2rcd13ifvqfk0","pricing_plan_id":"cebpf4jnsgd1na2vs0mg"},{"bike_id":"2559f369-82f6-480c-9932-44a941182ad1","system_id":"levelo_inurba_marseille","lat":43.2886,"lon":5.358395,"is_reserved":false,"is_disabled":false,"rental_uris":{"android":"levelo://app?vid=2559f369-82f6-480c-9932-44a941182ad1","ios":"levelo://app?vid=2559f369-82f6-480c-9932-44a941182ad1"},"vehicle_type_id":"4","last_reported":1751991218,"current_range_meters":8000,"station_id":"ce4bhb12rcd13ifvqem0","pricing_plan_id":"cebpf4jnsgd1na2vs0mg"},{"bike_id":"0f1794a0-d27a-483a-a2d8-0c1e5247dca3","system_id":"levelo_inurba_marseille","lat":43.2816,"lon":5.42646,"is_reserved":false,"is_disabled":false,"rental_uris":{"android":"levelo://app?vid=0f1794a0-d27a-483a-a2d8-0c1e5247dca3","ios":"levelo://app?vid=0f1794a0-d27a-483a-a2d8-0c1e5247dca3"},"vehicle_type_id":"4","last_reported":1751991218,"current_range_meters":8000,"station_id":"ce4bhnh2rcd13ifvqgug","pricing_plan_id":"cebpf4jnsgd1na2vs0mg"},{"bike_id":"2ede7031-d0dc-4ee9-ba1e-4797115e89e0","system_id":"levelo_inurba_marseille","lat":43.31713,"lon":5.43708,"is_reserved":false,"is_disabled":false,"rental_uris":{"android":"levelo://app?vid=2ede7031-d0dc-4ee9-ba1e-4797115e89e0","ios":"levelo://app?vid=2ede7031-d0dc-4ee9-ba1e-4797115e89e0"},"vehicle_type_id":"4","last_reported":1751991218,"current_range_meters":8000,"station_id":"ce4bhp92rcd13ifvqhcg","pricing_plan_id":"cebpf4jnsgd1na2vs0mg"},{"bike_id":"b2254882-941e-42b1-be36-ebc1c96e0473","system_id":"levelo_inurba_marseille","lat":43.30001,"lon":5.3641,"is_reserved":false,"is_disabled":false,"rental_uris":{"android":"levelo://app?vid=b2254882-941e-42b1-be36-ebc1c96e0473","ios":"levelo://app?vid=b2254882-941e-42b1-be36-ebc1c96e0473"},"vehicle_type_id":"4","last_reported":1751991218,"current_range_meters":8400,"station_id":"","pricing_plan_id":"cebpf4jnsgd1na2vs0mg"},{"bike_id":"a907014f-6fe1-42b6-a510-68459973e341","system_id":"levelo_inurba_marseille","lat":43.30332,"lon":5.40431,"is_reserved":false,"is_disabled":false,"rental_uris":{"android":"levelo://app?vid=a907014f-6fe1-42b6-a510-68459973e341","ios":"levelo://app?vid=a907014f-6fe1-42b6-a510-68459973e341"},"vehicle_type_id":"4","last_reported":1751991218,"current_range_meters":8400,"station_id":"ce4bh012rcd13ifvqd10","pricing_plan_id":"cebpf4jnsgd1na2vs0mg"},{"bike_id":"c9f05685-0dd8-4bd9-8cda-836606b62771","system_id":"levelo_inurba_marseille","lat":43.28357,"lon":5.38102,"is_reserved":false,"is_disabled":false,"rental_uris":{"android":"levelo://app?vid=c9f05685-0dd8-4bd9-8cda-836606b62771","ios":"levelo://app?vid=c9f05685-0dd8-4bd9-8cda-836606b62771"},"vehicle_type_id":"4","last_reported":1751991218,"current_range_meters":8400,"station_id":"ce4bh412rcd13ifvqdr0","pricing_plan_id":"cebpf4jnsgd1na2vs0mg"},{"bike_id":"2c423baa-ecca-420a-87d7-ad0b7e0b9ebb","system_id":"levelo_inurba_marseille","lat":43.2804,"lon":5.35357,"is_reserved":false,"is_disabled":false,"rental_uris":{"android":"levelo://app?vid=2c423baa-ecca-420a-87d7-ad0b7e0b9ebb","ios":"levelo://app?vid=2c423baa-ecca-420a-87d7-ad0b7e0b9ebb"},"vehicle_type_id":"4","last_reported":1751991218,"current_range_meters":8800,"station_id":"","pricing_plan_id":"cebpf4jnsgd1na2vs0mg"},{"bike_id":"c3640012-9be6-477a-a4a9-50fee5462f75","system_id":"levelo_inurba_marseille","lat":43.30097,"lon":5.39099,"is_reserved":false,"is_disabled":false,"rental_uris":{"android":"levelo://app?vid=c3640012-9be6-477a-a4a9-50fee5462f75","ios":"levelo://app?vid=c3640012-9be6-477a-a4a9-50fee5462f75"},"vehicle_type_id":"4","last_reported":1751991218,"current_range_meters":8800,"station_id":"ce4bh192rcd13ifvqdb0","pricing_plan_id":"cebpf4jnsgd1na2vs0mg"},{"bike_id":"deeacd00-31db-4a01-9f62-5fc2f176c044","system_id":"levelo_inurba_marseille","lat":43.24804,"lon":5.37455,"is_reserved":false,"is_disabled":false,"rental_uris":{"android":"levelo://app?vid=deeacd00-31db-4a01-9f62-5fc2f176c044","ios":"levelo://app?vid=deeacd00-31db-4a01-9f62-5fc2f176c044"},"vehicle_type_id":"4","last_reported":1751991218,"current_range_meters":8800,"station_id":"ce4bhgh2rcd13ifvqfb0","pricing_plan_id":"cebpf4jnsgd1na2vs0mg"},{"bike_id":"8309c5f2-04de-4733-9e54-459189d0db2f","system_id":"levelo_inurba_marseille","lat":43.23152,"lon":5.43724,"is_reserved":false,"is_disabled":false,"rental_uris":{"android":"levelo://app?vid=8309c5f2-04de-4733-9e54-459189d0db2f","ios":"levelo://app?vid=8309c5f2-04de-4733-9e54-459189d0db2f"},"vehicle_type_id":"4","last_reported":1751991218,"current_range_meters":8800,"station_id":"ce4bhmp2rcd13ifvqgog","pricing_plan_id":"cebpf4jnsgd1na2vs0mg"},{"bike_id":"a70cfab5-f447-4d61-b80a-343a49825360","system_id":"levelo_inurba_marseille","lat":43.31692,"lon":5.37615,"is_reserved":false,"is_disabled":false,"rental_uris":{"android":"levelo://app?vid=a70cfab5-f447-4d61-b80a-343a49825360","ios":"levelo://app?vid=a70cfab5-f447-4d61-b80a-343a49825360"},"vehicle_type_id":"4","last_reported":1751991218,"current_range_meters":9200,"station_id":"","pricing_plan_id":"cebpf4jnsgd1na2vs0mg"},{"bike_id":"5dce1cf9-6abb-4d7b-a3c0-97820cc835ee","system_id":"levelo_inurba_marseille","lat":43.299075,"lon":5.384411,"is_reserved":false,"is_disabled":false,"rental_uris":{"android":"levelo://app?vid=5dce1cf9-6abb-4d7b-a3c0-97820cc835ee","ios":"levelo://app?vid=5dce1cf9-6abb-4d7b-a3c0-97820cc835ee"},"vehicle_type_id":"4","last_reported":1751991218,"current_range_meters":9200,"station_id":"ce4bgj92rcd13ifvqbd0","pricing_plan_id":"cebpf4jnsgd1na2vs0mg"},{"bike_id":"bad999cc-ed25-4cfa-9a7f-a430e874bbb4","system_id":"levelo_inurba_marseille","lat":43.25584,"lon":5.38227,"is_reserved":false,"is_disabled":false,"rental_uris":{"android":"levelo://app?vid=bad999cc-ed25-4cfa-9a7f-a430e874bbb4","ios":"levelo://app?vid=bad999cc-ed25-4cfa-9a7f-a430e874bbb4"},"vehicle_type_id":"4","last_reported":1751991218,"current_range_meters":9200,"station_id":"ce4bhih2rcd13ifvqfs0","pricing_plan_id":"cebpf4jnsgd1na2vs0mg"},{"bike_id":"4ff29f89-779a-41cb-ae11-659b00447d74","system_id":"levelo_inurba_marseille","lat":43.22934,"lon":5.35377,"is_reserved":false,"is_disabled":false,"rental_uris":{"android":"levelo://app?vid=4ff29f89-779a-41cb-ae11-659b00447d74","ios":"levelo://app?vid=4ff29f89-779a-41cb-ae11-659b00447d74"},"vehicle_type_id":"4","last_reported":1751991218,"current_range_meters":9600,"station_id":"cpo3532slgdg3j2ikp40","pricing_plan_id":"cebpf4jnsgd1na2vs0mg"},{"bike_id":"3c94d2c6-2996-41de-9e54-fa8af7df6912","system_id":"levelo_inurba_marseille","lat":43.21756,"lon":5.34608,"is_reserved":false,"is_disabled":false,"rental_uris":{"android":"levelo://app?vid=3c94d2c6-2996-41de-9e54-fa8af7df6912","ios":"levelo://app?vid=3c94d2c6-2996-41de-9e54-fa8af7df6912"},"vehicle_type_id":"4","last_reported":1751991218,"current_range_meters":9600,"station_id":"st_cvj6r9ubvosntc0bgbag","pricing_plan_id":"cebpf4jnsgd1na2vs0mg"},{"bike_id":"1dfe2a62-5151-4cd4-bb1b-c713bf0a102e","system_id":"levelo_inurba_marseille","lat":43.28472,"lon":5.35891,"is_reserved":false,"is_disabled":false,"rental_uris":{"android":"levelo://app?vid=1dfe2a62-5151-4cd4-bb1b-c713bf0a102e","ios":"levelo://app?vid=1dfe2a62-5151-4cd4-bb1b-c713bf0a102e"},"vehicle_type_id":"4","last_reported":1751991218,"current_range_meters":10000,"station_id":"ce4bhah2rcd13ifvqei0","pricing_plan_id":"cebpf4jnsgd1na2vs0mg"},{"bike_id":"373f7154-05e4-4923-8d21-eb4b99691656","system_id":"levelo_inurba_marseille","lat":43.315377,"lon":5.38671,"is_reserved":false,"is_disabled":false,"rental_uris":{"android":"levelo://app?vid=373f7154-05e4-4923-8d21-eb4b99691656","ios":"levelo://app?vid=373f7154-05e4-4923-8d21-eb4b99691656"},"vehicle_type_id":"4","last_reported":1751991218,"current_range_meters":10800,"station_id":"","pricing_plan_id":"cebpf4jnsgd1na2vs0mg"},{"bike_id":"673fa981-5032-4ecb-950b-bf4558324cc1","system_id":"levelo_inurba_marseille","lat":43.29375,"lon":5.37865,"is_reserved":false,"is_disabled":false,"rental_uris":{"android":"levelo://app?vid=673fa981-5032-4ecb-950b-bf4558324cc1","ios":"levelo://app?vid=673fa981-5032-4ecb-950b-bf4558324cc1"},"vehicle_type_id":"4","last_reported":1751991218,"current_range_meters":10800,"station_id":"ce4bgjh2rcd13ifvqbf0","pricing_plan_id":"cebpf4jnsgd1na2vs0mg"},{"bike_id":"2a7d25e5-223e-4042-b5fb-213400ff3e9c","system_id":"levelo_inurba_marseille","lat":43.30265,"lon":5.40072,"is_reserved":false,"is_disabled":false,"rental_uris":{"android":"levelo://app?vid=2a7d25e5-223e-4042-b5fb-213400ff3e9c","ios":"levelo://app?vid=2a7d25e5-223e-4042-b5fb-213400ff3e9c"},"vehicle_type_id":"4","last_reported":1751991218,"current_range_meters":10800,"station_id":"ce4bgvh2rcd13ifvqcs0","pricing_plan_id":"cebpf4jnsgd1na2vs0mg"},{"bike_id":"98f46642-8fdc-43be-8379-a5bf33d8441b","system_id":"levelo_inurba_marseille","lat":43.21194,"lon":5.3507,"is_reserved":false,"is_disabled":false,"rental_uris":{"android":"levelo://app?vid=98f46642-8fdc-43be-8379-a5bf33d8441b","ios":"levelo://app?vid=98f46642-8fdc-43be-8379-a5bf33d8441b"},"vehicle_type_id":"4","last_reported":1751991218,"current_range_meters":10800,"station_id":"st_cvj6sg6p6f1abm77japg","pricing_plan_id":"cebpf4jnsgd1na2vs0mg"},{"bike_id":"c2ee7d66-374b-44cd-b9d7-9ad64301293b","system_id":"levelo_inurba_marseille","lat":43.33778,"lon":5.37466,"is_reserved":false,"is_disabled":false,"rental_uris":{"android":"levelo://app?vid=c2ee7d66-374b-44cd-b9d7-9ad64301293b","ios":"levelo://app?vid=c2ee7d66-374b-44cd-b9d7-9ad64301293b"},"vehicle_type_id":"4","last_reported":1751991218,"current_range_meters":11200,"station_id":"","pricing_plan_id":"cebpf4jnsgd1na2vs0mg"},{"bike_id":"84dfa205-0c91-47e0-9035-0ead8a23215b","system_id":"levelo_inurba_marseille","lat":43.29013,"lon":5.35607,"is_reserved":false,"is_disabled":false,"rental_uris":{"android":"levelo://app?vid=84dfa205-0c91-47e0-9035-0ead8a23215b","ios":"levelo://app?vid=84dfa205-0c91-47e0-9035-0ead8a23215b"},"vehicle_type_id":"4","last_reported":1751991218,"current_range_meters":11200,"station_id":"ce4bhb92rcd13ifvqen0","pricing_plan_id":"cebpf4jnsgd1na2vs0mg"},{"bike_id":"e54a69bc-634c-4579-91a1-2ea1e7521c68","system_id":"levelo_inurba_marseille","lat":43.3015,"lon":5.37195,"is_reserved":false,"is_disabled":false,"rental_uris":{"android":"levelo://app?vid=e54a69bc-634c-4579-91a1-2ea1e7521c68","ios":"levelo://app?vid=e54a69bc-634c-4579-91a1-2ea1e7521c68"},"vehicle_type_id":"4","last_reported":1751991218,"current_range_meters":11600,"station_id":"","pricing_plan_id":"cebpf4jnsgd1na2vs0mg"},{"bike_id":"bb216fdb-5084-41b2-808c-c437c2be842d","system_id":"levelo_inurba_marseille","lat":43.28458,"lon":5.35888,"is_reserved":false,"is_disabled":false,"rental_uris":{"android":"levelo://app?vid=bb216fdb-5084-41b2-808c-c437c2be842d","ios":"levelo://app?vid=bb216fdb-5084-41b2-808c-c437c2be842d"},"vehicle_type_id":"4","last_reported":1751991218,"current_range_meters":11600,"station_id":"ce4bhah2rcd13ifvqei0","pricing_plan_id":"cebpf4jnsgd1na2vs0mg"},{"bike_id":"ef37d4e2-0ac0-46be-951e-4995a78ba684","system_id":"levelo_inurba_marseille","lat":43.25511,"lon":5.37629,"is_reserved":false,"is_disabled":false,"rental_uris":{"android":"levelo://app?vid=ef37d4e2-0ac0-46be-951e-4995a78ba684","ios":"levelo://app?vid=ef37d4e2-0ac0-46be-951e-4995a78ba684"},"vehicle_type_id":"4","last_reported":1751991218,"current_range_meters":11600,"station_id":"ce4bhh12rcd13ifvqff0","pricing_plan_id":"cebpf4jnsgd1na2vs0mg"},{"bike_id":"d0c5d792-0761-4141-a0b1-6f288f3c6fc1","system_id":"levelo_inurba_marseille","lat":43.271825,"lon":5.392124,"is_reserved":false,"is_disabled":false,"rental_uris":{"android":"levelo://app?vid=d0c5d792-0761-4141-a0b1-6f288f3c6fc1","ios":"levelo://app?vid=d0c5d792-0761-4141-a0b1-6f288f3c6fc1"},"vehicle_type_id":"4","last_reported":1751991218,"current_range_meters":11600,"station_id":"ce4bhhp2rcd13ifvqfm0","pricing_plan_id":"cebpf4jnsgd1na2vs0mg"},{"bike_id":"9a571d58-f60e-4cd7-9611-6f6d862a13cb","system_id":"levelo_inurba_marseille","lat":43.2871,"lon":5.3999,"is_reserved":false,"is_disabled":false,"rental_uris":{"android":"levelo://app?vid=9a571d58-f60e-4cd7-9611-6f6d862a13cb","ios":"levelo://app?vid=9a571d58-f60e-4cd7-9611-6f6d862a13cb"},"vehicle_type_id":"4","last_reported":1751991218,"current_range_meters":11600,"station_id":"ce4bho92rcd13ifvqh3g","pricing_plan_id":"cebpf4jnsgd1na2vs0mg"},{"bike_id":"6ffc31bf-be63-440b-8353-4ff83386083b","system_id":"levelo_inurba_marseille","lat":43.29839,"lon":5.36405,"is_reserved":false,"is_disabled":false,"rental_uris":{"android":"levelo://app?vid=6ffc31bf-be63-440b-8353-4ff83386083b","ios":"levelo://app?vid=6ffc31bf-be63-440b-8353-4ff83386083b"},"vehicle_type_id":"4","last_reported":1751991218,"current_range_meters":12000,"station_id":"","pricing_plan_id":"cebpf4jnsgd1na2vs0mg"},{"bike_id":"888522e3-39b6-4ff3-ad74-ff6c6f771157","system_id":"levelo_inurba_marseille","lat":43.29493,"lon":5.40264,"is_reserved":false,"is_disabled":false,"rental_uris":{"android":"levelo://app?vid=888522e3-39b6-4ff3-ad74-ff6c6f771157","ios":"levelo://app?vid=888522e3-39b6-4ff3-ad74-ff6c6f771157"},"vehicle_type_id":"4","last_reported":1751991218,"current_range_meters":12000,"station_id":"","pricing_plan_id":"cebpf4jnsgd1na2vs0mg"},{"bike_id":"9b34ca4f-2f67-45a7-80c7-a6fc5200748d","system_id":"levelo_inurba_marseille","lat":43.28693,"lon":5.374,"is_reserved":false,"is_disabled":false,"rental_uris":{"android":"levelo://app?vid=9b34ca4f-2f67-45a7-80c7-a6fc5200748d","ios":"levelo://app?vid=9b34ca4f-2f67-45a7-80c7-a6fc5200748d"},"vehicle_type_id":"4","last_reported":1751991218,"current_range_meters":12000,"station_id":"ce4bh3p2rcd13ifvqdq0","pricing_plan_id":"cebpf4jnsgd1na2vs0mg"},{"bike_id":"84632a2e-a1ab-4ebd-88f3-988ef81582e9","system_id":"levelo_inurba_marseille","lat":43.28852,"lon":5.35859,"is_reserved":false,"is_disabled":false,"rental_uris":{"android":"levelo://app?vid=84632a2e-a1ab-4ebd-88f3-988ef81582e9","ios":"levelo://app?vid=84632a2e-a1ab-4ebd-88f3-988ef81582e9"},"vehicle_type_id":"4","last_reported":1751991218,"current_range_meters":12000,"station_id":"ce4bhb12rcd13ifvqem0","pricing_plan_id":"cebpf4jnsgd1na2vs0mg"},{"bike_id":"b1a6e3b3-fe34-4cec-8082-dfe042dd1679","system_id":"levelo_inurba_marseille","lat":43.28153,"lon":5.42646,"is_reserved":false,"is_disabled":false,"rental_uris":{"android":"levelo://app?vid=b1a6e3b3-fe34-4cec-8082-dfe042dd1679","ios":"levelo://app?vid=b1a6e3b3-fe34-4cec-8082-dfe042dd1679"},"vehicle_type_id":"4","last_reported":1751991218,"current_range_meters":12000,"station_id":"ce4bhnh2rcd13ifvqgug","pricing_plan_id":"cebpf4jnsgd1na2vs0mg"},{"bike_id":"538e1b05-e2a4-4a42-9bc7-7ddbe3e776fc","system_id":"levelo_inurba_marseille","lat":43.3078,"lon":5.37652,"is_reserved":false,"is_disabled":false,"rental_uris":{"android":"levelo://app?vid=538e1b05-e2a4-4a42-9bc7-7ddbe3e776fc","ios":"levelo://app?vid=538e1b05-e2a4-4a42-9bc7-7ddbe3e776fc"},"vehicle_type_id":"4","last_reported":1751991218,"current_range_meters":12400,"station_id":"ce4bgv92rcd13ifvqcq0","pricing_plan_id":"cebpf4jnsgd1na2vs0mg"},{"bike_id":"36e649fc-7b0b-4ae6-aa2f-0849ff821119","system_id":"levelo_inurba_marseille","lat":43.28158,"lon":5.4264,"is_reserved":false,"is_disabled":false,"rental_uris":{"android":"levelo://app?vid=36e649fc-7b0b-4ae6-aa2f-0849ff821119","ios":"levelo://app?vid=36e649fc-7b0b-4ae6-aa2f-0849ff821119"},"vehicle_type_id":"4","last_reported":1751991218,"current_range_meters":12400,"station_id":"ce4bhnh2rcd13ifvqgug","pricing_plan_id":"cebpf4jnsgd1na2vs0mg"},{"bike_id":"0393c95b-c304-46a0-aea2-ea968c67ec1f","system_id":"levelo_inurba_marseille","lat":43.32546,"lon":5.4143,"is_reserved":false,"is_disabled":false,"rental_uris":{"android":"levelo://app?vid=0393c95b-c304-46a0-aea2-ea968c67ec1f","ios":"levelo://app?vid=0393c95b-c304-46a0-aea2-ea968c67ec1f"},"vehicle_type_id":"4","last_reported":1751991218,"current_range_meters":12400,"station_id":"ce4bhq12rcd13ifvqhhg","pricing_plan_id":"cebpf4jnsgd1na2vs0mg"},{"bike_id":"b287377f-3d0b-47ac-86fe-9e0dfc1563de","system_id":"levelo_inurba_marseille","lat":43.22526,"lon":5.34772,"is_reserved":false,"is_disabled":false,"rental_uris":{"android":"levelo://app?vid=b287377f-3d0b-47ac-86fe-9e0dfc1563de","ios":"levelo://app?vid=b287377f-3d0b-47ac-86fe-9e0dfc1563de"},"vehicle_type_id":"4","last_reported":1751991218,"current_range_meters":12400,"station_id":"st_cvj5dfep6f1abm77gieg","pricing_plan_id":"cebpf4jnsgd1na2vs0mg"},{"bike_id":"95150053-c77f-49ce-8976-03fbf21e7971","system_id":"levelo_inurba_marseille","lat":43.3021,"lon":5.39463,"is_reserved":false,"is_disabled":false,"rental_uris":{"android":"levelo://app?vid=95150053-c77f-49ce-8976-03fbf21e7971","ios":"levelo://app?vid=95150053-c77f-49ce-8976-03fbf21e7971"},"vehicle_type_id":"4","last_reported":1751991218,"current_range_meters":12800,"station_id":"ce4bh0p2rcd13ifvqd70","pricing_plan_id":"cebpf4jnsgd1na2vs0mg"},{"bike_id":"e80d7754-0487-40a3-b181-aefc8f074b86","system_id":"levelo_inurba_marseille","lat":43.27838,"lon":5.39205,"is_reserved":false,"is_disabled":false,"rental_uris":{"android":"levelo://app?vid=e80d7754-0487-40a3-b181-aefc8f074b86","ios":"levelo://app?vid=e80d7754-0487-40a3-b181-aefc8f074b86"},"vehicle_type_id":"4","last_reported":1751991218,"current_range_meters":12800,"station_id":"ce4bhjp2rcd13ifvqga0","pricing_plan_id":"cebpf4jnsgd1na2vs0mg"},{"bike_id":"77c63ecf-8ec4-46ab-b695-3fed0ff0fb70","system_id":"levelo_inurba_marseille","lat":43.29891,"lon":5.43667,"is_reserved":false,"is_disabled":false,"rental_uris":{"android":"levelo://app?vid=77c63ecf-8ec4-46ab-b695-3fed0ff0fb70","ios":"levelo://app?vid=77c63ecf-8ec4-46ab-b695-3fed0ff0fb70"},"vehicle_type_id":"4","last_reported":1751991218,"current_range_meters":12800,"station_id":"ce4bhpp2rcd13ifvqhfg","pricing_plan_id":"cebpf4jnsgd1na2vs0mg"},{"bike_id":"64402b76-c405-41bd-ae16-0594501c9aea","system_id":"levelo_inurba_marseille","lat":43.267973,"lon":5.402683,"is_reserved":false,"is_disabled":false,"rental_uris":{"android":"levelo://app?vid=64402b76-c405-41bd-ae16-0594501c9aea","ios":"levelo://app?vid=64402b76-c405-41bd-ae16-0594501c9aea"},"vehicle_type_id":"4","last_reported":1751991218,"current_range_meters":12800,"station_id":"ce501612rcd8frsf0b60","pricing_plan_id":"cebpf4jnsgd1na2vs0mg"},{"bike_id":"d5ef770d-9759-47e3-b3a5-7d2785ef76db","system_id":"levelo_inurba_marseille","lat":43.32929,"lon":5.39031,"is_reserved":false,"is_disabled":false,"rental_uris":{"android":"levelo://app?vid=d5ef770d-9759-47e3-b3a5-7d2785ef76db","ios":"levelo://app?vid=d5ef770d-9759-47e3-b3a5-7d2785ef76db"},"vehicle_type_id":"4","last_reported":1751991218,"current_range_meters":13600,"station_id":"","pricing_plan_id":"cebpf4jnsgd1na2vs0mg"},{"bike_id":"9b530f19-40a8-4f29-ad53-2adf23d2cb26","system_id":"levelo_inurba_marseille","lat":43.29569,"lon":5.37508,"is_reserved":false,"is_disabled":false,"rental_uris":{"android":"levelo://app?vid=9b530f19-40a8-4f29-ad53-2adf23d2cb26","ios":"levelo://app?vid=9b530f19-40a8-4f29-ad53-2adf23d2cb26"},"vehicle_type_id":"4","last_reported":1751991218,"current_range_meters":13600,"station_id":"ce4bgh92rcd13ifvqb50","pricing_plan_id":"cebpf4jnsgd1na2vs0mg"},{"bike_id":"de1baaf8-bdbf-4db2-ac48-c36045728df9","system_id":"levelo_inurba_marseille","lat":43.2953,"lon":5.39033,"is_reserved":false,"is_disabled":false,"rental_uris":{"android":"levelo://app?vid=de1baaf8-bdbf-4db2-ac48-c36045728df9","ios":"levelo://app?vid=de1baaf8-bdbf-4db2-ac48-c36045728df9"},"vehicle_type_id":"4","last_reported":1751991218,"current_range_meters":13600,"station_id":"ce4bh3p2rcd13ifvqdp0","pricing_plan_id":"cebpf4jnsgd1na2vs0mg"},{"bike_id":"1eda6c63-77c1-4647-a72d-11a16343735f","system_id":"levelo_inurba_marseille","lat":43.3042,"lon":5.41279,"is_reserved":false,"is_disabled":false,"rental_uris":{"android":"levelo://app?vid=1eda6c63-77c1-4647-a72d-11a16343735f","ios":"levelo://app?vid=1eda6c63-77c1-4647-a72d-11a16343735f"},"vehicle_type_id":"4","last_reported":1751991218,"current_range_meters":13600,"station_id":"ce4bhop2rcd13ifvqh8g","pricing_plan_id":"cebpf4jnsgd1na2vs0mg"},{"bike_id":"3030cb07-c041-4d87-a253-8c849c24aa85","system_id":"levelo_inurba_marseille","lat":43.32646,"lon":5.36233,"is_reserved":false,"is_disabled":false,"rental_uris":{"android":"levelo://app?vid=3030cb07-c041-4d87-a253-8c849c24aa85","ios":"levelo://app?vid=3030cb07-c041-4d87-a253-8c849c24aa85"},"vehicle_type_id":"4","last_reported":1751991218,"current_range_meters":14000,"station_id":"","pricing_plan_id":"cebpf4jnsgd1na2vs0mg"},{"bike_id":"b3983ff6-3bb4-4c95-be79-31634efe4b99","system_id":"levelo_inurba_marseille","lat":43.29707,"lon":5.3771,"is_reserved":false,"is_disabled":false,"rental_uris":{"android":"levelo://app?vid=b3983ff6-3bb4-4c95-be79-31634efe4b99","ios":"levelo://app?vid=b3983ff6-3bb4-4c95-be79-31634efe4b99"},"vehicle_type_id":"4","last_reported":1751991218,"current_range_meters":14000,"station_id":"ce4bgkh2rcd13ifvqbl0","pricing_plan_id":"cebpf4jnsgd1na2vs0mg"},{"bike_id":"82f40aca-214c-480a-99d7-4df294448107","system_id":"levelo_inurba_marseille","lat":43.254895,"lon":5.376448,"is_reserved":false,"is_disabled":false,"rental_uris":{"android":"levelo://app?vid=82f40aca-214c-480a-99d7-4df294448107","ios":"levelo://app?vid=82f40aca-214c-480a-99d7-4df294448107"},"vehicle_type_id":"4","last_reported":1751991218,"current_range_meters":14000,"station_id":"ce4bhh12rcd13ifvqff0","pricing_plan_id":"cebpf4jnsgd1na2vs0mg"},{"bike_id":"142092c3-f392-44a3-b902-2cf19043ff93","system_id":"levelo_inurba_marseille","lat":43.23065,"lon":5.35491,"is_reserved":false,"is_disabled":false,"rental_uris":{"android":"levelo://app?vid=142092c3-f392-44a3-b902-2cf19043ff93","ios":"levelo://app?vid=142092c3-f392-44a3-b902-2cf19043ff93"},"vehicle_type_id":"4","last_reported":1751991218,"current_range_meters":14000,"station_id":"cpo3342slgdg3j2ifvpg","pricing_plan_id":"cebpf4jnsgd1na2vs0mg"},{"bike_id":"f5c5d48c-b7cf-48a8-84f0-a80044871d04","system_id":"levelo_inurba_marseille","lat":43.264907,"lon":5.395394,"is_reserved":false,"is_disabled":false,"rental_uris":{"android":"levelo://app?vid=f5c5d48c-b7cf-48a8-84f0-a80044871d04","ios":"levelo://app?vid=f5c5d48c-b7cf-48a8-84f0-a80044871d04"},"vehicle_type_id":"4","last_reported":1751991218,"current_range_meters":14400,"station_id":"","pricing_plan_id":"cebpf4jnsgd1na2vs0mg"},{"bike_id":"87c2d236-4978-4760-be77-27d7f5a212e4","system_id":"levelo_inurba_marseille","lat":43.29644,"lon":5.36205,"is_reserved":false,"is_disabled":false,"rental_uris":{"android":"levelo://app?vid=87c2d236-4978-4760-be77-27d7f5a212e4","ios":"levelo://app?vid=87c2d236-4978-4760-be77-27d7f5a212e4"},"vehicle_type_id":"4","last_reported":1751991218,"current_range_meters":14400,"station_id":"","pricing_plan_id":"cebpf4jnsgd1na2vs0mg"},{"bike_id":"bc91ac3b-909c-48b6-951a-ecee23e820fe","system_id":"levelo_inurba_marseille","lat":43.306025,"lon":5.372315,"is_reserved":false,"is_disabled":false,"rental_uris":{"android":"levelo://app?vid=bc91ac3b-909c-48b6-951a-ecee23e820fe","ios":"levelo://app?vid=bc91ac3b-909c-48b6-951a-ecee23e820fe"},"vehicle_type_id":"4","last_reported":1751991218,"current_range_meters":14400,"station_id":"ce4bgqh2rcd13ifvqc4g","pricing_plan_id":"cebpf4jnsgd1na2vs0mg"},{"bike_id":"db600f13-1995-4251-bfa7-00c1b14a14bb","system_id":"levelo_inurba_marseille","lat":43.29972,"lon":5.37181,"is_reserved":false,"is_disabled":false,"rental_uris":{"android":"levelo://app?vid=db600f13-1995-4251-bfa7-00c1b14a14bb","ios":"levelo://app?vid=db600f13-1995-4251-bfa7-00c1b14a14bb"},"vehicle_type_id":"4","last_reported":1751991218,"current_range_meters":14400,"station_id":"ce4bgr92rcd13ifvqc7g","pricing_plan_id":"cebpf4jnsgd1na2vs0mg"},{"bike_id":"1c721664-f644-4fc1-9e3b-ec3d11c9f570","system_id":"levelo_inurba_marseille","lat":43.30807,"lon":5.38144,"is_reserved":false,"is_disabled":false,"rental_uris":{"android":"levelo://app?vid=1c721664-f644-4fc1-9e3b-ec3d11c9f570","ios":"levelo://app?vid=1c721664-f644-4fc1-9e3b-ec3d11c9f570"},"vehicle_type_id":"4","last_reported":1751991218,"current_range_meters":14400,"station_id":"ce4bgt12rcd13ifvqce0","pricing_plan_id":"cebpf4jnsgd1na2vs0mg"},{"bike_id":"79a1f5b6-ba0c-4321-9cf6-db4babc89dc0","system_id":"levelo_inurba_marseille","lat":43.30212,"lon":5.39465,"is_reserved":false,"is_disabled":false,"rental_uris":{"android":"levelo://app?vid=79a1f5b6-ba0c-4321-9cf6-db4babc89dc0","ios":"levelo://app?vid=79a1f5b6-ba0c-4321-9cf6-db4babc89dc0"},"vehicle_type_id":"4","last_reported":1751991218,"current_range_meters":14400,"station_id":"ce4bh0p2rcd13ifvqd70","pricing_plan_id":"cebpf4jnsgd1na2vs0mg"},{"bike_id":"a5e8de3f-2266-4090-ad6c-340a689e0868","system_id":"levelo_inurba_marseille","lat":43.296,"lon":5.38104,"is_reserved":false,"is_disabled":false,"rental_uris":{"android":"levelo://app?vid=a5e8de3f-2266-4090-ad6c-340a689e0868","ios":"levelo://app?vid=a5e8de3f-2266-4090-ad6c-340a689e0868"},"vehicle_type_id":"4","last_reported":1751991218,"current_range_meters":14800,"station_id":"ce4bgl12rcd13ifvqbo0","pricing_plan_id":"cebpf4jnsgd1na2vs0mg"},{"bike_id":"732db02c-a2e8-435f-b9d7-f4a12e26dc4a","system_id":"levelo_inurba_marseille","lat":43.28411,"lon":5.34974,"is_reserved":false,"is_disabled":false,"rental_uris":{"android":"levelo://app?vid=732db02c-a2e8-435f-b9d7-f4a12e26dc4a","ios":"levelo://app?vid=732db02c-a2e8-435f-b9d7-f4a12e26dc4a"},"vehicle_type_id":"4","last_reported":1751991218,"current_range_meters":14800,"station_id":"ce4bhbh2rcd13ifvqepg","pricing_plan_id":"cebpf4jnsgd1na2vs0mg"},{"bike_id":"a7f0466c-6e00-4f6c-9f12-af59e8219af7","system_id":"levelo_inurba_marseille","lat":43.30307,"lon":5.39207,"is_reserved":false,"is_disabled":false,"rental_uris":{"android":"levelo://app?vid=a7f0466c-6e00-4f6c-9f12-af59e8219af7","ios":"levelo://app?vid=a7f0466c-6e00-4f6c-9f12-af59e8219af7"},"vehicle_type_id":"4","last_reported":1751991218,"current_range_meters":15200,"station_id":"ce4bgkh2rcd13ifvqbk0","pricing_plan_id":"cebpf4jnsgd1na2vs0mg"},{"bike_id":"13c84df3-55fc-4465-b582-17389625d267","system_id":"levelo_inurba_marseille","lat":43.26022,"lon":5.4175,"is_reserved":false,"is_disabled":false,"rental_uris":{"android":"levelo://app?vid=13c84df3-55fc-4465-b582-17389625d267","ios":"levelo://app?vid=13c84df3-55fc-4465-b582-17389625d267"},"vehicle_type_id":"4","last_reported":1751991218,"current_range_meters":16000,"station_id":"","pricing_plan_id":"cebpf4jnsgd1na2vs0mg"},{"bike_id":"611061b1-5584-4d44-9ef4-c48249efad9e","system_id":"levelo_inurba_marseille","lat":43.30453,"lon":5.38895,"is_reserved":false,"is_disabled":false,"rental_uris":{"android":"levelo://app?vid=611061b1-5584-4d44-9ef4-c48249efad9e","ios":"levelo://app?vid=611061b1-5584-4d44-9ef4-c48249efad9e"},"vehicle_type_id":"4","last_reported":1751991218,"current_range_meters":16000,"station_id":"ce4bgk12rcd13ifvqbi0","pricing_plan_id":"cebpf4jnsgd1na2vs0mg"},{"bike_id":"9e67f373-3e45-4a09-94d2-d62fed42fd02","system_id":"levelo_inurba_marseille","lat":43.30423,"lon":5.39743,"is_reserved":false,"is_disabled":false,"rental_uris":{"android":"levelo://app?vid=9e67f373-3e45-4a09-94d2-d62fed42fd02","ios":"levelo://app?vid=9e67f373-3e45-4a09-94d2-d62fed42fd02"},"vehicle_type_id":"4","last_reported":1751991218,"current_range_meters":16000,"station_id":"ce4bh092rcd13ifvqd20","pricing_plan_id":"cebpf4jnsgd1na2vs0mg"},{"bike_id":"1aa32158-b363-4be3-83ad-4a6dfc9c643e","system_id":"levelo_inurba_marseille","lat":43.30097,"lon":5.39081,"is_reserved":false,"is_disabled":false,"rental_uris":{"android":"levelo://app?vid=1aa32158-b363-4be3-83ad-4a6dfc9c643e","ios":"levelo://app?vid=1aa32158-b363-4be3-83ad-4a6dfc9c643e"},"vehicle_type_id":"4","last_reported":1751991218,"current_range_meters":16000,"station_id":"ce4bh192rcd13ifvqdb0","pricing_plan_id":"cebpf4jnsgd1na2vs0mg"},{"bike_id":"e07099cc-ccdf-4511-aa53-76cc8d902771","system_id":"levelo_inurba_marseille","lat":43.29015,"lon":5.35615,"is_reserved":false,"is_disabled":false,"rental_uris":{"android":"levelo://app?vid=e07099cc-ccdf-4511-aa53-76cc8d902771","ios":"levelo://app?vid=e07099cc-ccdf-4511-aa53-76cc8d902771"},"vehicle_type_id":"4","last_reported":1751991218,"current_range_meters":16000,"station_id":"ce4bhb92rcd13ifvqen0","pricing_plan_id":"cebpf4jnsgd1na2vs0mg"},{"bike_id":"3c78f3be-0595-4cde-ab3a-21eba194a66a","system_id":"levelo_inurba_marseille","lat":43.21744,"lon":5.34603,"is_reserved":false,"is_disabled":false,"rental_uris":{"android":"levelo://app?vid=3c78f3be-0595-4cde-ab3a-21eba194a66a","ios":"levelo://app?vid=3c78f3be-0595-4cde-ab3a-21eba194a66a"},"vehicle_type_id":"4","last_reported":1751991218,"current_range_meters":16400,"station_id":"","pricing_plan_id":"cebpf4jnsgd1na2vs0mg"},{"bike_id":"e9382ba6-885b-4569-ac88-db909135749e","system_id":"levelo_inurba_marseille","lat":43.296,"lon":5.38101,"is_reserved":false,"is_disabled":false,"rental_uris":{"android":"levelo://app?vid=e9382ba6-885b-4569-ac88-db909135749e","ios":"levelo://app?vid=e9382ba6-885b-4569-ac88-db909135749e"},"vehicle_type_id":"4","last_reported":1751991218,"current_range_meters":16400,"station_id":"ce4bgl12rcd13ifvqbo0","pricing_plan_id":"cebpf4jnsgd1na2vs0mg"},{"bike_id":"6c7d521f-9afe-401d-aee5-426c2decee65","system_id":"levelo_inurba_marseille","lat":43.29964,"lon":5.37174,"is_reserved":false,"is_disabled":false,"rental_uris":{"android":"levelo://app?vid=6c7d521f-9afe-401d-aee5-426c2decee65","ios":"levelo://app?vid=6c7d521f-9afe-401d-aee5-426c2decee65"},"vehicle_type_id":"4","last_reported":1751991218,"current_range_meters":16400,"station_id":"ce4bgr92rcd13ifvqc7g","pricing_plan_id":"cebpf4jnsgd1na2vs0mg"},{"bike_id":"6e078b94-2c1d-4e9e-bd88-2c70a86609b8","system_id":"levelo_inurba_marseille","lat":43.28482,"lon":5.38422,"is_reserved":false,"is_disabled":false,"rental_uris":{"android":"levelo://app?vid=6e078b94-2c1d-4e9e-bd88-2c70a86609b8","ios":"levelo://app?vid=6e078b94-2c1d-4e9e-bd88-2c70a86609b8"},"vehicle_type_id":"4","last_reported":1751991218,"current_range_meters":16400,"station_id":"ce4bh512rcd13ifvqe3g","pricing_plan_id":"cebpf4jnsgd1na2vs0mg"},{"bike_id":"da9e0cc6-b739-410b-895b-cad8f90bf164","system_id":"levelo_inurba_marseille","lat":43.26204,"lon":5.37931,"is_reserved":false,"is_disabled":false,"rental_uris":{"android":"levelo://app?vid=da9e0cc6-b739-410b-895b-cad8f90bf164","ios":"levelo://app?vid=da9e0cc6-b739-410b-895b-cad8f90bf164"},"vehicle_type_id":"4","last_reported":1751991218,"current_range_meters":16400,"station_id":"ce4bhjp2rcd13ifvqg90","pricing_plan_id":"cebpf4jnsgd1na2vs0mg"},{"bike_id":"dfed5170-dd30-4c34-b10d-0827cb5726cb","system_id":"levelo_inurba_marseille","lat":43.23197,"lon":5.39984,"is_reserved":false,"is_disabled":false,"rental_uris":{"android":"levelo://app?vid=dfed5170-dd30-4c34-b10d-0827cb5726cb","ios":"levelo://app?vid=dfed5170-dd30-4c34-b10d-0827cb5726cb"},"vehicle_type_id":"4","last_reported":1751991218,"current_range_meters":16400,"station_id":"ce4bhn12rcd13ifvqgqg","pricing_plan_id":"cebpf4jnsgd1na2vs0mg"},{"bike_id":"ea7df389-5dc0-4c58-88fe-80a5af035925","system_id":"levelo_inurba_marseille","lat":43.29811,"lon":5.36416,"is_reserved":false,"is_disabled":false,"rental_uris":{"android":"levelo://app?vid=ea7df389-5dc0-4c58-88fe-80a5af035925","ios":"levelo://app?vid=ea7df389-5dc0-4c58-88fe-80a5af035925"},"vehicle_type_id":"4","last_reported":1751991218,"current_range_meters":16800,"station_id":"","pricing_plan_id":"cebpf4jnsgd1na2vs0mg"},{"bike_id":"192e5ac3-923c-426c-9ddf-ce223bbf2f38","system_id":"levelo_inurba_marseille","lat":43.27943,"lon":5.41051,"is_reserved":false,"is_disabled":false,"rental_uris":{"android":"levelo://app?vid=192e5ac3-923c-426c-9ddf-ce223bbf2f38","ios":"levelo://app?vid=192e5ac3-923c-426c-9ddf-ce223bbf2f38"},"vehicle_type_id":"4","last_reported":1751991218,"current_range_meters":16800,"station_id":"ce4bhnp2rcd13ifvqh0g","pricing_plan_id":"cebpf4jnsgd1na2vs0mg"},{"bike_id":"d6063153-613a-41d5-a62a-a943c9b6d592","system_id":"levelo_inurba_marseille","lat":43.30158,"lon":5.38098,"is_reserved":false,"is_disabled":false,"rental_uris":{"android":"levelo://app?vid=d6063153-613a-41d5-a62a-a943c9b6d592","ios":"levelo://app?vid=d6063153-613a-41d5-a62a-a943c9b6d592"},"vehicle_type_id":"4","last_reported":1751991218,"current_range_meters":17200,"station_id":"","pricing_plan_id":"cebpf4jnsgd1na2vs0mg"},{"bike_id":"1e112a52-32ff-42af-8077-893c4a6d3611","system_id":"levelo_inurba_marseille","lat":43.28415,"lon":5.34978,"is_reserved":false,"is_disabled":false,"rental_uris":{"android":"levelo://app?vid=1e112a52-32ff-42af-8077-893c4a6d3611","ios":"levelo://app?vid=1e112a52-32ff-42af-8077-893c4a6d3611"},"vehicle_type_id":"4","last_reported":1751991218,"current_range_meters":17200,"station_id":"ce4bhbh2rcd13ifvqepg","pricing_plan_id":"cebpf4jnsgd1na2vs0mg"},{"bike_id":"9959d7fa-4898-43a5-a1ec-b9fed544cad3","system_id":"levelo_inurba_marseille","lat":43.28404,"lon":5.35007,"is_reserved":false,"is_disabled":false,"rental_uris":{"android":"levelo://app?vid=9959d7fa-4898-43a5-a1ec-b9fed544cad3","ios":"levelo://app?vid=9959d7fa-4898-43a5-a1ec-b9fed544cad3"},"vehicle_type_id":"4","last_reported":1751991218,"current_range_meters":17200,"station_id":"ce4bhbh2rcd13ifvqepg","pricing_plan_id":"cebpf4jnsgd1na2vs0mg"},{"bike_id":"ff2bed52-cebe-4bfc-8729-1dfbc52a19af","system_id":"levelo_inurba_marseille","lat":43.2862,"lon":5.35106,"is_reserved":false,"is_disabled":false,"rental_uris":{"android":"levelo://app?vid=ff2bed52-cebe-4bfc-8729-1dfbc52a19af","ios":"levelo://app?vid=ff2bed52-cebe-4bfc-8729-1dfbc52a19af"},"vehicle_type_id":"4","last_reported":1751991218,"current_range_meters":17200,"station_id":"ce4bhch2rcd13ifvqeug","pricing_plan_id":"cebpf4jnsgd1na2vs0mg"},{"bike_id":"95c86ac8-d3fa-4895-b263-36041b930bd9","system_id":"levelo_inurba_marseille","lat":43.25123,"lon":5.40315,"is_reserved":false,"is_disabled":false,"rental_uris":{"android":"levelo://app?vid=95c86ac8-d3fa-4895-b263-36041b930bd9","ios":"levelo://app?vid=95c86ac8-d3fa-4895-b263-36041b930bd9"},"vehicle_type_id":"4","last_reported":1751991218,"current_range_meters":17200,"station_id":"ce4bhlh2rcd13ifvqgig","pricing_plan_id":"cebpf4jnsgd1na2vs0mg"},{"bike_id":"5bed0d45-631d-4b51-bf21-315438cd51cd","system_id":"levelo_inurba_marseille","lat":43.28157,"lon":5.42633,"is_reserved":false,"is_disabled":false,"rental_uris":{"android":"levelo://app?vid=5bed0d45-631d-4b51-bf21-315438cd51cd","ios":"levelo://app?vid=5bed0d45-631d-4b51-bf21-315438cd51cd"},"vehicle_type_id":"4","last_reported":1751991218,"current_range_meters":17200,"station_id":"ce4bhnh2rcd13ifvqgug","pricing_plan_id":"cebpf4jnsgd1na2vs0mg"},{"bike_id":"c8b207bc-eb20-460c-a3a8-8e63e224a201","system_id":"levelo_inurba_marseille","lat":43.3189,"lon":5.40739,"is_reserved":false,"is_disabled":false,"rental_uris":{"android":"levelo://app?vid=c8b207bc-eb20-460c-a3a8-8e63e224a201","ios":"levelo://app?vid=c8b207bc-eb20-460c-a3a8-8e63e224a201"},"vehicle_type_id":"4","last_reported":1751991218,"current_range_meters":17200,"station_id":"ce4bhq12rcd13ifvqhig","pricing_plan_id":"cebpf4jnsgd1na2vs0mg"},{"bike_id":"a74d1421-7a37-499b-b1c4-5e1394842b7e","system_id":"levelo_inurba_marseille","lat":43.3372,"lon":5.39179,"is_reserved":false,"is_disabled":false,"rental_uris":{"android":"levelo://app?vid=a74d1421-7a37-499b-b1c4-5e1394842b7e","ios":"levelo://app?vid=a74d1421-7a37-499b-b1c4-5e1394842b7e"},"vehicle_type_id":"4","last_reported":1751991218,"current_range_meters":17200,"station_id":"ce4bhr92rcd13ifvqhsg","pricing_plan_id":"cebpf4jnsgd1na2vs0mg"},{"bike_id":"10191137-bcbb-44fe-bc35-e37decf3aa1f","system_id":"levelo_inurba_marseille","lat":43.28667,"lon":5.36344,"is_reserved":false,"is_disabled":false,"rental_uris":{"android":"levelo://app?vid=10191137-bcbb-44fe-bc35-e37decf3aa1f","ios":"levelo://app?vid=10191137-bcbb-44fe-bc35-e37decf3aa1f"},"vehicle_type_id":"4","last_reported":1751991218,"current_range_meters":17600,"station_id":"ce4bhah2rcd13ifvqej0","pricing_plan_id":"cebpf4jnsgd1na2vs0mg"},{"bike_id":"f187bca7-730c-495f-b36c-b985f85f6d76","system_id":"levelo_inurba_marseille","lat":43.28624,"lon":5.35099,"is_reserved":false,"is_disabled":false,"rental_uris":{"android":"levelo://app?vid=f187bca7-730c-495f-b36c-b985f85f6d76","ios":"levelo://app?vid=f187bca7-730c-495f-b36c-b985f85f6d76"},"vehicle_type_id":"4","last_reported":1751991218,"current_range_meters":17600,"station_id":"ce4bhch2rcd13ifvqeug","pricing_plan_id":"cebpf4jnsgd1na2vs0mg"},{"bike_id":"15362cd5-d1ae-4a90-8443-370ae9bc1996","system_id":"levelo_inurba_marseille","lat":43.2439,"lon":5.3706,"is_reserved":false,"is_disabled":false,"rental_uris":{"android":"levelo://app?vid=15362cd5-d1ae-4a90-8443-370ae9bc1996","ios":"levelo://app?vid=15362cd5-d1ae-4a90-8443-370ae9bc1996"},"vehicle_type_id":"4","last_reported":1751991218,"current_range_meters":17600,"station_id":"ce4bhhh2rcd13ifvqfk0","pricing_plan_id":"cebpf4jnsgd1na2vs0mg"},{"bike_id":"338a54c6-33be-4b44-83dc-58ef63f4d4b8","system_id":"levelo_inurba_marseille","lat":43.25061,"lon":5.39549,"is_reserved":false,"is_disabled":false,"rental_uris":{"android":"levelo://app?vid=338a54c6-33be-4b44-83dc-58ef63f4d4b8","ios":"levelo://app?vid=338a54c6-33be-4b44-83dc-58ef63f4d4b8"},"vehicle_type_id":"4","last_reported":1751991218,"current_range_meters":17600,"station_id":"ce4bhm12rcd13ifvqgkg","pricing_plan_id":"cebpf4jnsgd1na2vs0mg"},{"bike_id":"1722d797-c74e-443b-be49-4a502a8d53f8","system_id":"levelo_inurba_marseille","lat":43.34142,"lon":5.40902,"is_reserved":false,"is_disabled":false,"rental_uris":{"android":"levelo://app?vid=1722d797-c74e-443b-be49-4a502a8d53f8","ios":"levelo://app?vid=1722d797-c74e-443b-be49-4a502a8d53f8"},"vehicle_type_id":"4","last_reported":1751991218,"current_range_meters":17600,"station_id":"ce4bhqh2rcd13ifvqhlg","pricing_plan_id":"cebpf4jnsgd1na2vs0mg"},{"bike_id":"cd812f06-3254-4dc4-bdab-94ecd7361d33","system_id":"levelo_inurba_marseille","lat":43.21738,"lon":5.34605,"is_reserved":false,"is_disabled":false,"rental_uris":{"android":"levelo://app?vid=cd812f06-3254-4dc4-bdab-94ecd7361d33","ios":"levelo://app?vid=cd812f06-3254-4dc4-bdab-94ecd7361d33"},"vehicle_type_id":"4","last_reported":1751991218,"current_range_meters":17600,"station_id":"st_cvj6r9ubvosntc0bgbag","pricing_plan_id":"cebpf4jnsgd1na2vs0mg"},{"bike_id":"d0f90c24-dd03-411b-9731-55305f76b7c8","system_id":"levelo_inurba_marseille","lat":43.2121,"lon":5.35066,"is_reserved":false,"is_disabled":false,"rental_uris":{"android":"levelo://app?vid=d0f90c24-dd03-411b-9731-55305f76b7c8","ios":"levelo://app?vid=d0f90c24-dd03-411b-9731-55305f76b7c8"},"vehicle_type_id":"4","last_reported":1751991218,"current_range_meters":17600,"station_id":"st_cvj6sg6p6f1abm77japg","pricing_plan_id":"cebpf4jnsgd1na2vs0mg"},{"bike_id":"4975b22d-8c48-452f-bd19-7a9d3ed7c378","system_id":"levelo_inurba_marseille","lat":43.29676,"lon":5.37424,"is_reserved":false,"is_disabled":false,"rental_uris":{"android":"levelo://app?vid=4975b22d-8c48-452f-bd19-7a9d3ed7c378","ios":"levelo://app?vid=4975b22d-8c48-452f-bd19-7a9d3ed7c378"},"vehicle_type_id":"4","last_reported":1751991218,"current_range_meters":18000,"station_id":"","pricing_plan_id":"cebpf4jnsgd1na2vs0mg"},{"bike_id":"ba908210-6b37-4b76-9545-06daa97248a4","system_id":"levelo_inurba_marseille","lat":43.30148,"lon":5.37422,"is_reserved":false,"is_disabled":false,"rental_uris":{"android":"levelo://app?vid=ba908210-6b37-4b76-9545-06daa97248a4","ios":"levelo://app?vid=ba908210-6b37-4b76-9545-06daa97248a4"},"vehicle_type_id":"4","last_reported":1751991218,"current_range_meters":18000,"station_id":"ce4bgs92rcd13ifvqcc0","pricing_plan_id":"cebpf4jnsgd1na2vs0mg"},{"bike_id":"c2b72fe0-bae6-4c7b-ad48-9e771b203dc8","system_id":"levelo_inurba_marseille","lat":43.31356,"lon":5.38471,"is_reserved":false,"is_disabled":false,"rental_uris":{"android":"levelo://app?vid=c2b72fe0-bae6-4c7b-ad48-9e771b203dc8","ios":"levelo://app?vid=c2b72fe0-bae6-4c7b-ad48-9e771b203dc8"},"vehicle_type_id":"4","last_reported":1751991218,"current_range_meters":18000,"station_id":"ce4bgt92rcd13ifvqcf0","pricing_plan_id":"cebpf4jnsgd1na2vs0mg"},{"bike_id":"f06ad9c1-4d2d-477f-9cf5-8a8b31168797","system_id":"levelo_inurba_marseille","lat":43.28707,"lon":5.37383,"is_reserved":false,"is_disabled":false,"rental_uris":{"android":"levelo://app?vid=f06ad9c1-4d2d-477f-9cf5-8a8b31168797","ios":"levelo://app?vid=f06ad9c1-4d2d-477f-9cf5-8a8b31168797"},"vehicle_type_id":"4","last_reported":1751991218,"current_range_meters":18000,"station_id":"ce4bh3p2rcd13ifvqdq0","pricing_plan_id":"cebpf4jnsgd1na2vs0mg"},{"bike_id":"d6543ad0-16d4-4793-8970-3736097362b9","system_id":"levelo_inurba_marseille","lat":43.28629,"lon":5.35089,"is_reserved":false,"is_disabled":false,"rental_uris":{"android":"levelo://app?vid=d6543ad0-16d4-4793-8970-3736097362b9","ios":"levelo://app?vid=d6543ad0-16d4-4793-8970-3736097362b9"},"vehicle_type_id":"4","last_reported":1751991218,"current_range_meters":18000,"station_id":"ce4bhch2rcd13ifvqeug","pricing_plan_id":"cebpf4jnsgd1na2vs0mg"},{"bike_id":"f5c16f07-bc6f-4121-91a7-5ad90eec4f34","system_id":"levelo_inurba_marseille","lat":43.31211,"lon":5.37314,"is_reserved":false,"is_disabled":false,"rental_uris":{"android":"levelo://app?vid=f5c16f07-bc6f-4121-91a7-5ad90eec4f34","ios":"levelo://app?vid=f5c16f07-bc6f-4121-91a7-5ad90eec4f34"},"vehicle_type_id":"4","last_reported":1751991218,"current_range_meters":18800,"station_id":"","pricing_plan_id":"cebpf4jnsgd1na2vs0mg"},{"bike_id":"3c20aa93-b046-4fb6-9611-91bb65df2a25","system_id":"levelo_inurba_marseille","lat":43.3031,"lon":5.39206,"is_reserved":false,"is_disabled":false,"rental_uris":{"android":"levelo://app?vid=3c20aa93-b046-4fb6-9611-91bb65df2a25","ios":"levelo://app?vid=3c20aa93-b046-4fb6-9611-91bb65df2a25"},"vehicle_type_id":"4","last_reported":1751991218,"current_range_meters":18800,"station_id":"ce4bgkh2rcd13ifvqbk0","pricing_plan_id":"cebpf4jnsgd1na2vs0mg"},{"bike_id":"7d8accb1-a6b1-4b24-9530-d8239d8bbf14","system_id":"levelo_inurba_marseille","lat":43.28935,"lon":5.36635,"is_reserved":false,"is_disabled":false,"rental_uris":{"android":"levelo://app?vid=7d8accb1-a6b1-4b24-9530-d8239d8bbf14","ios":"levelo://app?vid=7d8accb1-a6b1-4b24-9530-d8239d8bbf14"},"vehicle_type_id":"4","last_reported":1751991218,"current_range_meters":18800,"station_id":"ce4bhap2rcd13ifvqek0","pricing_plan_id":"cebpf4jnsgd1na2vs0mg"},{"bike_id":"fb605c50-7b0a-4746-855e-89d5e293a54e","system_id":"levelo_inurba_marseille","lat":43.30354,"lon":5.41875,"is_reserved":false,"is_disabled":false,"rental_uris":{"android":"levelo://app?vid=fb605c50-7b0a-4746-855e-89d5e293a54e","ios":"levelo://app?vid=fb605c50-7b0a-4746-855e-89d5e293a54e"},"vehicle_type_id":"4","last_reported":1751991218,"current_range_meters":18800,"station_id":"ce4bhop2rcd13ifvqh7g","pricing_plan_id":"cebpf4jnsgd1na2vs0mg"},{"bike_id":"56eb3fdf-ea87-4fcf-85df-3680fa66363e","system_id":"levelo_inurba_marseille","lat":43.22509,"lon":5.34758,"is_reserved":false,"is_disabled":false,"rental_uris":{"android":"levelo://app?vid=56eb3fdf-ea87-4fcf-85df-3680fa66363e","ios":"levelo://app?vid=56eb3fdf-ea87-4fcf-85df-3680fa66363e"},"vehicle_type_id":"4","last_reported":1751991218,"current_range_meters":18800,"station_id":"st_cvj5dfep6f1abm77gieg","pricing_plan_id":"cebpf4jnsgd1na2vs0mg"},{"bike_id":"19c552da-55bc-46d8-97cb-d1fbabdad01a","system_id":"levelo_inurba_marseille","lat":43.21191,"lon":5.350693,"is_reserved":false,"is_disabled":false,"rental_uris":{"android":"levelo://app?vid=19c552da-55bc-46d8-97cb-d1fbabdad01a","ios":"levelo://app?vid=19c552da-55bc-46d8-97cb-d1fbabdad01a"},"vehicle_type_id":"4","last_reported":1751991218,"current_range_meters":18800,"station_id":"st_cvj6sg6p6f1abm77japg","pricing_plan_id":"cebpf4jnsgd1na2vs0mg"},{"bike_id":"b757ffbb-2b71-4330-9f60-5f8a9d46d16e","system_id":"levelo_inurba_marseille","lat":43.296594,"lon":5.371025,"is_reserved":false,"is_disabled":false,"rental_uris":{"android":"levelo://app?vid=b757ffbb-2b71-4330-9f60-5f8a9d46d16e","ios":"levelo://app?vid=b757ffbb-2b71-4330-9f60-5f8a9d46d16e"},"vehicle_type_id":"4","last_reported":1751991218,"current_range_meters":19200,"station_id":"","pricing_plan_id":"cebpf4jnsgd1na2vs0mg"},{"bike_id":"c09b8ff2-b23c-40bf-b5a6-39620f629949","system_id":"levelo_inurba_marseille","lat":43.30211,"lon":5.39463,"is_reserved":false,"is_disabled":false,"rental_uris":{"android":"levelo://app?vid=c09b8ff2-b23c-40bf-b5a6-39620f629949","ios":"levelo://app?vid=c09b8ff2-b23c-40bf-b5a6-39620f629949"},"vehicle_type_id":"4","last_reported":1751991218,"current_range_meters":19200,"station_id":"ce4bh0p2rcd13ifvqd70","pricing_plan_id":"cebpf4jnsgd1na2vs0mg"},{"bike_id":"29bc516a-cc50-4ccf-9f46-0842b0638d49","system_id":"levelo_inurba_marseille","lat":43.29034,"lon":5.38124,"is_reserved":false,"is_disabled":false,"rental_uris":{"android":"levelo://app?vid=29bc516a-cc50-4ccf-9f46-0842b0638d49","ios":"levelo://app?vid=29bc516a-cc50-4ccf-9f46-0842b0638d49"},"vehicle_type_id":"4","last_reported":1751991218,"current_range_meters":19200,"station_id":"ce4bh4p2rcd13ifvqe1g","pricing_plan_id":"cebpf4jnsgd1na2vs0mg"},{"bike_id":"b20ebbbf-23a3-4f35-a4dd-08a28866ca86","system_id":"levelo_inurba_marseille","lat":43.28458,"lon":5.35893,"is_reserved":false,"is_disabled":false,"rental_uris":{"android":"levelo://app?vid=b20ebbbf-23a3-4f35-a4dd-08a28866ca86","ios":"levelo://app?vid=b20ebbbf-23a3-4f35-a4dd-08a28866ca86"},"vehicle_type_id":"4","last_reported":1751991218,"current_range_meters":19200,"station_id":"ce4bhah2rcd13ifvqei0","pricing_plan_id":"cebpf4jnsgd1na2vs0mg"},{"bike_id":"8ead2330-63ac-4189-9cb5-9aa844410ac7","system_id":"levelo_inurba_marseille","lat":43.27373,"lon":5.36265,"is_reserved":false,"is_disabled":false,"rental_uris":{"android":"levelo://app?vid=8ead2330-63ac-4189-9cb5-9aa844410ac7","ios":"levelo://app?vid=8ead2330-63ac-4189-9cb5-9aa844410ac7"},"vehicle_type_id":"4","last_reported":1751991218,"current_range_meters":19200,"station_id":"ce4bhbh2rcd13ifvqeo0","pricing_plan_id":"cebpf4jnsgd1na2vs0mg"},{"bike_id":"ba0068e6-0b82-457c-b78c-c4a5e3843812","system_id":"levelo_inurba_marseille","lat":43.25582,"lon":5.38226,"is_reserved":false,"is_disabled":false,"rental_uris":{"android":"levelo://app?vid=ba0068e6-0b82-457c-b78c-c4a5e3843812","ios":"levelo://app?vid=ba0068e6-0b82-457c-b78c-c4a5e3843812"},"vehicle_type_id":"4","last_reported":1751991218,"current_range_meters":19200,"station_id":"ce4bhih2rcd13ifvqfs0","pricing_plan_id":"cebpf4jnsgd1na2vs0mg"},{"bike_id":"697d5fc4-b988-4a4e-8323-c1ce5ed61a61","system_id":"levelo_inurba_marseille","lat":43.21187,"lon":5.35074,"is_reserved":false,"is_disabled":false,"rental_uris":{"android":"levelo://app?vid=697d5fc4-b988-4a4e-8323-c1ce5ed61a61","ios":"levelo://app?vid=697d5fc4-b988-4a4e-8323-c1ce5ed61a61"},"vehicle_type_id":"4","last_reported":1751991218,"current_range_meters":19200,"station_id":"st_cvj6sg6p6f1abm77japg","pricing_plan_id":"cebpf4jnsgd1na2vs0mg"},{"bike_id":"b6d9b946-f66a-4c6f-96e5-5d23e176360c","system_id":"levelo_inurba_marseille","lat":43.31315,"lon":5.38172,"is_reserved":false,"is_disabled":false,"rental_uris":{"android":"levelo://app?vid=b6d9b946-f66a-4c6f-96e5-5d23e176360c","ios":"levelo://app?vid=b6d9b946-f66a-4c6f-96e5-5d23e176360c"},"vehicle_type_id":"4","last_reported":1751991218,"current_range_meters":19600,"station_id":"","pricing_plan_id":"cebpf4jnsgd1na2vs0mg"},{"bike_id":"b2caa530-bb19-4cc6-a6bd-61e3e1d7432e","system_id":"levelo_inurba_marseille","lat":43.33763,"lon":5.37461,"is_reserved":false,"is_disabled":false,"rental_uris":{"android":"levelo://app?vid=b2caa530-bb19-4cc6-a6bd-61e3e1d7432e","ios":"levelo://app?vid=b2caa530-bb19-4cc6-a6bd-61e3e1d7432e"},"vehicle_type_id":"4","last_reported":1751991218,"current_range_meters":19600,"station_id":"","pricing_plan_id":"cebpf4jnsgd1na2vs0mg"},{"bike_id":"0c40d8c8-d6a9-4b8b-aeb6-32f5678233f6","system_id":"levelo_inurba_marseille","lat":43.29588,"lon":5.38116,"is_reserved":false,"is_disabled":false,"rental_uris":{"android":"levelo://app?vid=0c40d8c8-d6a9-4b8b-aeb6-32f5678233f6","ios":"levelo://app?vid=0c40d8c8-d6a9-4b8b-aeb6-32f5678233f6"},"vehicle_type_id":"4","last_reported":1751991218,"current_range_meters":19600,"station_id":"ce4bgl12rcd13ifvqbo0","pricing_plan_id":"cebpf4jnsgd1na2vs0mg"},{"bike_id":"fc1ef99f-065c-4c20-96e8-5aefcd366c4a","system_id":"levelo_inurba_marseille","lat":43.30309,"lon":5.3686,"is_reserved":false,"is_disabled":false,"rental_uris":{"android":"levelo://app?vid=fc1ef99f-065c-4c20-96e8-5aefcd366c4a","ios":"levelo://app?vid=fc1ef99f-065c-4c20-96e8-5aefcd366c4a"},"vehicle_type_id":"4","last_reported":1751991218,"current_range_meters":19600,"station_id":"ce4bgqh2rcd13ifvqc5g","pricing_plan_id":"cebpf4jnsgd1na2vs0mg"},{"bike_id":"0ed1d933-050c-4673-b65e-b5be6554e15f","system_id":"levelo_inurba_marseille","lat":43.30261,"lon":5.40076,"is_reserved":false,"is_disabled":false,"rental_uris":{"android":"levelo://app?vid=0ed1d933-050c-4673-b65e-b5be6554e15f","ios":"levelo://app?vid=0ed1d933-050c-4673-b65e-b5be6554e15f"},"vehicle_type_id":"4","last_reported":1751991218,"current_range_meters":19600,"station_id":"ce4bgvh2rcd13ifvqcs0","pricing_plan_id":"cebpf4jnsgd1na2vs0mg"},{"bike_id":"98e3e65f-cf1d-4f58-aa75-7c29d10dd840","system_id":"levelo_inurba_marseille","lat":43.27376,"lon":5.36255,"is_reserved":false,"is_disabled":false,"rental_uris":{"android":"levelo://app?vid=98e3e65f-cf1d-4f58-aa75-7c29d10dd840","ios":"levelo://app?vid=98e3e65f-cf1d-4f58-aa75-7c29d10dd840"},"vehicle_type_id":"4","last_reported":1751991218,"current_range_meters":19600,"station_id":"ce4bhbh2rcd13ifvqeo0","pricing_plan_id":"cebpf4jnsgd1na2vs0mg"},{"bike_id":"69132dd2-52fd-4217-bd67-5dbd4a2171de","system_id":"levelo_inurba_marseille","lat":43.24654,"lon":5.38893,"is_reserved":false,"is_disabled":false,"rental_uris":{"android":"levelo://app?vid=69132dd2-52fd-4217-bd67-5dbd4a2171de","ios":"levelo://app?vid=69132dd2-52fd-4217-bd67-5dbd4a2171de"},"vehicle_type_id":"4","last_reported":1751991218,"current_range_meters":19600,"station_id":"ce4bhg12rcd13ifvqf60","pricing_plan_id":"cebpf4jnsgd1na2vs0mg"},{"bike_id":"5e49e969-ce1e-4cd6-af8a-35d1b3ef77ac","system_id":"levelo_inurba_marseille","lat":43.28156,"lon":5.42647,"is_reserved":false,"is_disabled":false,"rental_uris":{"android":"levelo://app?vid=5e49e969-ce1e-4cd6-af8a-35d1b3ef77ac","ios":"levelo://app?vid=5e49e969-ce1e-4cd6-af8a-35d1b3ef77ac"},"vehicle_type_id":"4","last_reported":1751991218,"current_range_meters":19600,"station_id":"ce4bhnh2rcd13ifvqgug","pricing_plan_id":"cebpf4jnsgd1na2vs0mg"},{"bike_id":"b28aa0a0-791c-4a08-9a16-c7bf6ea0ed5a","system_id":"levelo_inurba_marseille","lat":43.22513,"lon":5.34773,"is_reserved":false,"is_disabled":false,"rental_uris":{"android":"levelo://app?vid=b28aa0a0-791c-4a08-9a16-c7bf6ea0ed5a","ios":"levelo://app?vid=b28aa0a0-791c-4a08-9a16-c7bf6ea0ed5a"},"vehicle_type_id":"4","last_reported":1751991218,"current_range_meters":19600,"station_id":"st_cvj5dfep6f1abm77gieg","pricing_plan_id":"cebpf4jnsgd1na2vs0mg"},{"bike_id":"15286feb-5dfb-498c-a584-add36819e4ef","system_id":"levelo_inurba_marseille","lat":43.21193,"lon":5.35074,"is_reserved":false,"is_disabled":false,"rental_uris":{"android":"levelo://app?vid=15286feb-5dfb-498c-a584-add36819e4ef","ios":"levelo://app?vid=15286feb-5dfb-498c-a584-add36819e4ef"},"vehicle_type_id":"4","last_reported":1751991218,"current_range_meters":19600,"station_id":"st_cvj6sg6p6f1abm77japg","pricing_plan_id":"cebpf4jnsgd1na2vs0mg"},{"bike_id":"1be39311-cfa5-4cbb-b93d-fb0870d6e611","system_id":"levelo_inurba_marseille","lat":43.21189,"lon":5.35073,"is_reserved":false,"is_disabled":false,"rental_uris":{"android":"levelo://app?vid=1be39311-cfa5-4cbb-b93d-fb0870d6e611","ios":"levelo://app?vid=1be39311-cfa5-4cbb-b93d-fb0870d6e611"},"vehicle_type_id":"4","last_reported":1751991218,"current_range_meters":19600,"station_id":"st_cvj6sg6p6f1abm77japg","pricing_plan_id":"cebpf4jnsgd1na2vs0mg"},{"bike_id":"612049b1-6314-40fe-a854-f838189c6783","system_id":"levelo_inurba_marseille","lat":43.29721,"lon":5.36596,"is_reserved":false,"is_disabled":false,"rental_uris":{"android":"levelo://app?vid=612049b1-6314-40fe-a854-f838189c6783","ios":"levelo://app?vid=612049b1-6314-40fe-a854-f838189c6783"},"vehicle_type_id":"4","last_reported":1751991218,"current_range_meters":20000,"station_id":"ce4bgn12rcd13ifvqbt0","pricing_plan_id":"cebpf4jnsgd1na2vs0mg"},{"bike_id":"8cb7b6f3-61fe-40e1-b30e-14451b68683c","system_id":"levelo_inurba_marseille","lat":43.28846,"lon":5.35861,"is_reserved":false,"is_disabled":false,"rental_uris":{"android":"levelo://app?vid=8cb7b6f3-61fe-40e1-b30e-14451b68683c","ios":"levelo://app?vid=8cb7b6f3-61fe-40e1-b30e-14451b68683c"},"vehicle_type_id":"4","last_reported":1751991218,"current_range_meters":20000,"station_id":"ce4bhb12rcd13ifvqem0","pricing_plan_id":"cebpf4jnsgd1na2vs0mg"},{"bike_id":"18bde3a6-1e8b-4785-b203-a55dd84b4c4b","system_id":"levelo_inurba_marseille","lat":43.27913,"lon":5.39577,"is_reserved":false,"is_disabled":false,"rental_uris":{"android":"levelo://app?vid=18bde3a6-1e8b-4785-b203-a55dd84b4c4b","ios":"levelo://app?vid=18bde3a6-1e8b-4785-b203-a55dd84b4c4b"},"vehicle_type_id":"4","last_reported":1751991218,"current_range_meters":20000,"station_id":"ce4bhf92rcd13ifvqf40","pricing_plan_id":"cebpf4jnsgd1na2vs0mg"},{"bike_id":"ecffd032-2c5b-48f6-96be-48cdecc1b6da","system_id":"levelo_inurba_marseille","lat":43.26503,"lon":5.39539,"is_reserved":false,"is_disabled":false,"rental_uris":{"android":"levelo://app?vid=ecffd032-2c5b-48f6-96be-48cdecc1b6da","ios":"levelo://app?vid=ecffd032-2c5b-48f6-96be-48cdecc1b6da"},"vehicle_type_id":"4","last_reported":1751991218,"current_range_meters":20000,"station_id":"ce4bhi12rcd13ifvqfq0","pricing_plan_id":"cebpf4jnsgd1na2vs0mg"},{"bike_id":"320f2a33-deaa-4e0a-a3d5-c39ce8ad680a","system_id":"levelo_inurba_marseille","lat":43.31572,"lon":5.37442,"is_reserved":false,"is_disabled":false,"rental_uris":{"android":"levelo://app?vid=320f2a33-deaa-4e0a-a3d5-c39ce8ad680a","ios":"levelo://app?vid=320f2a33-deaa-4e0a-a3d5-c39ce8ad680a"},"vehicle_type_id":"4","last_reported":1751991218,"current_range_meters":20400,"station_id":"","pricing_plan_id":"cebpf4jnsgd1na2vs0mg"},{"bike_id":"9d301710-f582-4386-b509-d3ab945bfa16","system_id":"levelo_inurba_marseille","lat":43.29968,"lon":5.38494,"is_reserved":false,"is_disabled":false,"rental_uris":{"android":"levelo://app?vid=9d301710-f582-4386-b509-d3ab945bfa16","ios":"levelo://app?vid=9d301710-f582-4386-b509-d3ab945bfa16"},"vehicle_type_id":"4","last_reported":1751991218,"current_range_meters":20400,"station_id":"ce4bgj92rcd13ifvqbd0","pricing_plan_id":"cebpf4jnsgd1na2vs0mg"},{"bike_id":"a939e3bf-dbb3-45fe-9cfe-0b9d3ba0559e","system_id":"levelo_inurba_marseille","lat":43.3043,"lon":5.38889,"is_reserved":false,"is_disabled":false,"rental_uris":{"android":"levelo://app?vid=a939e3bf-dbb3-45fe-9cfe-0b9d3ba0559e","ios":"levelo://app?vid=a939e3bf-dbb3-45fe-9cfe-0b9d3ba0559e"},"vehicle_type_id":"4","last_reported":1751991218,"current_range_meters":20400,"station_id":"ce4bgk12rcd13ifvqbi0","pricing_plan_id":"cebpf4jnsgd1na2vs0mg"},{"bike_id":"34136e20-8bc3-4a64-bb34-0cfb08fa9713","system_id":"levelo_inurba_marseille","lat":43.30932,"lon":5.40128,"is_reserved":false,"is_disabled":false,"rental_uris":{"android":"levelo://app?vid=34136e20-8bc3-4a64-bb34-0cfb08fa9713","ios":"levelo://app?vid=34136e20-8bc3-4a64-bb34-0cfb08fa9713"},"vehicle_type_id":"4","last_reported":1751991218,"current_range_meters":20400,"station_id":"ce4bgvp2rcd13ifvqct0","pricing_plan_id":"cebpf4jnsgd1na2vs0mg"},{"bike_id":"01dd974c-2540-411b-8207-f386517448be","system_id":"levelo_inurba_marseille","lat":43.28654,"lon":5.3635,"is_reserved":false,"is_disabled":false,"rental_uris":{"android":"levelo://app?vid=01dd974c-2540-411b-8207-f386517448be","ios":"levelo://app?vid=01dd974c-2540-411b-8207-f386517448be"},"vehicle_type_id":"4","last_reported":1751991218,"current_range_meters":20400,"station_id":"ce4bhah2rcd13ifvqej0","pricing_plan_id":"cebpf4jnsgd1na2vs0mg"},{"bike_id":"409786ba-b90c-45f2-90bc-2e992447b0a8","system_id":"levelo_inurba_marseille","lat":43.28859,"lon":5.35854,"is_reserved":false,"is_disabled":false,"rental_uris":{"android":"levelo://app?vid=409786ba-b90c-45f2-90bc-2e992447b0a8","ios":"levelo://app?vid=409786ba-b90c-45f2-90bc-2e992447b0a8"},"vehicle_type_id":"4","last_reported":1751991218,"current_range_meters":20400,"station_id":"ce4bhb12rcd13ifvqem0","pricing_plan_id":"cebpf4jnsgd1na2vs0mg"},{"bike_id":"13f5b470-f8cd-4116-99d0-23143cfdf908","system_id":"levelo_inurba_marseille","lat":43.27372,"lon":5.36264,"is_reserved":false,"is_disabled":false,"rental_uris":{"android":"levelo://app?vid=13f5b470-f8cd-4116-99d0-23143cfdf908","ios":"levelo://app?vid=13f5b470-f8cd-4116-99d0-23143cfdf908"},"vehicle_type_id":"4","last_reported":1751991218,"current_range_meters":20400,"station_id":"ce4bhbh2rcd13ifvqeo0","pricing_plan_id":"cebpf4jnsgd1na2vs0mg"},{"bike_id":"fd7d08d0-d8e9-446a-9f54-3e0aa7641460","system_id":"levelo_inurba_marseille","lat":43.24396,"lon":5.37046,"is_reserved":false,"is_disabled":false,"rental_uris":{"android":"levelo://app?vid=fd7d08d0-d8e9-446a-9f54-3e0aa7641460","ios":"levelo://app?vid=fd7d08d0-d8e9-446a-9f54-3e0aa7641460"},"vehicle_type_id":"4","last_reported":1751991218,"current_range_meters":20400,"station_id":"ce4bhhh2rcd13ifvqfk0","pricing_plan_id":"cebpf4jnsgd1na2vs0mg"},{"bike_id":"940f04f4-5dec-4ff8-8d1b-fd8eb1722f45","system_id":"levelo_inurba_marseille","lat":43.274978,"lon":5.424551,"is_reserved":false,"is_disabled":false,"rental_uris":{"android":"levelo://app?vid=940f04f4-5dec-4ff8-8d1b-fd8eb1722f45","ios":"levelo://app?vid=940f04f4-5dec-4ff8-8d1b-fd8eb1722f45"},"vehicle_type_id":"4","last_reported":1751991218,"current_range_meters":20400,"station_id":"ce4bhn92rcd13ifvqgrg","pricing_plan_id":"cebpf4jnsgd1na2vs0mg"},{"bike_id":"306ce1a6-757b-4897-8796-d879ee9a33eb","system_id":"levelo_inurba_marseille","lat":43.29163,"lon":5.40839,"is_reserved":false,"is_disabled":false,"rental_uris":{"android":"levelo://app?vid=306ce1a6-757b-4897-8796-d879ee9a33eb","ios":"levelo://app?vid=306ce1a6-757b-4897-8796-d879ee9a33eb"},"vehicle_type_id":"4","last_reported":1751991218,"current_range_meters":20800,"station_id":"","pricing_plan_id":"cebpf4jnsgd1na2vs0mg"},{"bike_id":"03ae7549-435d-4c2c-8546-0d1df0f4e265","system_id":"levelo_inurba_marseille","lat":43.30799,"lon":5.376357,"is_reserved":false,"is_disabled":false,"rental_uris":{"android":"levelo://app?vid=03ae7549-435d-4c2c-8546-0d1df0f4e265","ios":"levelo://app?vid=03ae7549-435d-4c2c-8546-0d1df0f4e265"},"vehicle_type_id":"4","last_reported":1751991218,"current_range_meters":20800,"station_id":"ce4bgv92rcd13ifvqcq0","pricing_plan_id":"cebpf4jnsgd1na2vs0mg"},{"bike_id":"fba54069-612c-4d18-ad21-a90f45ba55ca","system_id":"levelo_inurba_marseille","lat":43.26583,"lon":5.38995,"is_reserved":false,"is_disabled":false,"rental_uris":{"android":"levelo://app?vid=fba54069-612c-4d18-ad21-a90f45ba55ca","ios":"levelo://app?vid=fba54069-612c-4d18-ad21-a90f45ba55ca"},"vehicle_type_id":"4","last_reported":1751991218,"current_range_meters":20800,"station_id":"ce4bhe12rcd13ifvqf30","pricing_plan_id":"cebpf4jnsgd1na2vs0mg"},{"bike_id":"999f2a33-af15-4ca0-853a-d2550f2d6574","system_id":"levelo_inurba_marseille","lat":43.23447,"lon":5.35928,"is_reserved":false,"is_disabled":false,"rental_uris":{"android":"levelo://app?vid=999f2a33-af15-4ca0-853a-d2550f2d6574","ios":"levelo://app?vid=999f2a33-af15-4ca0-853a-d2550f2d6574"},"vehicle_type_id":"4","last_reported":1751991218,"current_range_meters":21600,"station_id":"","pricing_plan_id":"cebpf4jnsgd1na2vs0mg"},{"bike_id":"a14dbd30-add4-47fd-a9bc-61a0faf60c2c","system_id":"levelo_inurba_marseille","lat":43.29304,"lon":5.37456,"is_reserved":false,"is_disabled":false,"rental_uris":{"android":"levelo://app?vid=a14dbd30-add4-47fd-a9bc-61a0faf60c2c","ios":"levelo://app?vid=a14dbd30-add4-47fd-a9bc-61a0faf60c2c"},"vehicle_type_id":"4","last_reported":1751991218,"current_range_meters":21600,"station_id":"ce4bgi12rcd13ifvqb70","pricing_plan_id":"cebpf4jnsgd1na2vs0mg"},{"bike_id":"eaec1bd0-9ec5-4683-81f9-d999ad9b9dcd","system_id":"levelo_inurba_marseille","lat":43.2927,"lon":5.37622,"is_reserved":false,"is_disabled":false,"rental_uris":{"android":"levelo://app?vid=eaec1bd0-9ec5-4683-81f9-d999ad9b9dcd","ios":"levelo://app?vid=eaec1bd0-9ec5-4683-81f9-d999ad9b9dcd"},"vehicle_type_id":"4","last_reported":1751991218,"current_range_meters":21600,"station_id":"ce4bgi12rcd13ifvqb80","pricing_plan_id":"cebpf4jnsgd1na2vs0mg"},{"bike_id":"027d96f1-16b8-4e6b-a842-c97e9267f4e7","system_id":"levelo_inurba_marseille","lat":43.29523,"lon":5.37499,"is_reserved":false,"is_disabled":false,"rental_uris":{"android":"levelo://app?vid=027d96f1-16b8-4e6b-a842-c97e9267f4e7","ios":"levelo://app?vid=027d96f1-16b8-4e6b-a842-c97e9267f4e7"},"vehicle_type_id":"4","last_reported":1751991218,"current_range_meters":21600,"station_id":"ce4bgkp2rcd13ifvqbmg","pricing_plan_id":"cebpf4jnsgd1na2vs0mg"},{"bike_id":"47fda0f1-b83a-4ee9-a236-59ff0671f73a","system_id":"levelo_inurba_marseille","lat":43.28039,"lon":5.36945,"is_reserved":false,"is_disabled":false,"rental_uris":{"android":"levelo://app?vid=47fda0f1-b83a-4ee9-a236-59ff0671f73a","ios":"levelo://app?vid=47fda0f1-b83a-4ee9-a236-59ff0671f73a"},"vehicle_type_id":"4","last_reported":1751991218,"current_range_meters":21600,"station_id":"ce4bha12rcd13ifvqef0","pricing_plan_id":"cebpf4jnsgd1na2vs0mg"},{"bike_id":"f2235702-00df-4bf2-b9d9-5bcda00cf6a4","system_id":"levelo_inurba_marseille","lat":43.2866,"lon":5.36354,"is_reserved":false,"is_disabled":false,"rental_uris":{"android":"levelo://app?vid=f2235702-00df-4bf2-b9d9-5bcda00cf6a4","ios":"levelo://app?vid=f2235702-00df-4bf2-b9d9-5bcda00cf6a4"},"vehicle_type_id":"4","last_reported":1751991218,"current_range_meters":21600,"station_id":"ce4bhah2rcd13ifvqej0","pricing_plan_id":"cebpf4jnsgd1na2vs0mg"},{"bike_id":"758fe114-0635-427b-b5be-2ef7f3c417c0","system_id":"levelo_inurba_marseille","lat":43.26575,"lon":5.38996,"is_reserved":false,"is_disabled":false,"rental_uris":{"android":"levelo://app?vid=758fe114-0635-427b-b5be-2ef7f3c417c0","ios":"levelo://app?vid=758fe114-0635-427b-b5be-2ef7f3c417c0"},"vehicle_type_id":"4","last_reported":1751991218,"current_range_meters":21600,"station_id":"ce4bhe12rcd13ifvqf30","pricing_plan_id":"cebpf4jnsgd1na2vs0mg"},{"bike_id":"4ebefc5e-d301-44cf-a5bf-6896ae2a3eba","system_id":"levelo_inurba_marseille","lat":43.23964,"lon":5.366384,"is_reserved":false,"is_disabled":false,"rental_uris":{"android":"levelo://app?vid=4ebefc5e-d301-44cf-a5bf-6896ae2a3eba","ios":"levelo://app?vid=4ebefc5e-d301-44cf-a5bf-6896ae2a3eba"},"vehicle_type_id":"4","last_reported":1751991218,"current_range_meters":21600,"station_id":"ce4bhi12rcd13ifvqfp0","pricing_plan_id":"cebpf4jnsgd1na2vs0mg"},{"bike_id":"40fa92fc-f934-431e-b290-17833f63b829","system_id":"levelo_inurba_marseille","lat":43.232097,"lon":5.3556,"is_reserved":false,"is_disabled":false,"rental_uris":{"android":"levelo://app?vid=40fa92fc-f934-431e-b290-17833f63b829","ios":"levelo://app?vid=40fa92fc-f934-431e-b290-17833f63b829"},"vehicle_type_id":"4","last_reported":1751991218,"current_range_meters":21600,"station_id":"ce4bhu92rcd13ifvqi70","pricing_plan_id":"cebpf4jnsgd1na2vs0mg"},{"bike_id":"cfe4010c-2112-4442-8740-784a76333861","system_id":"levelo_inurba_marseille","lat":43.21753,"lon":5.34598,"is_reserved":false,"is_disabled":false,"rental_uris":{"android":"levelo://app?vid=cfe4010c-2112-4442-8740-784a76333861","ios":"levelo://app?vid=cfe4010c-2112-4442-8740-784a76333861"},"vehicle_type_id":"4","last_reported":1751991218,"current_range_meters":21600,"station_id":"st_cvj6r9ubvosntc0bgbag","pricing_plan_id":"cebpf4jnsgd1na2vs0mg"},{"bike_id":"e702c9ca-f477-454c-bd29-8eec97fe1353","system_id":"levelo_inurba_marseille","lat":43.29964,"lon":5.38503,"is_reserved":false,"is_disabled":false,"rental_uris":{"android":"levelo://app?vid=e702c9ca-f477-454c-bd29-8eec97fe1353","ios":"levelo://app?vid=e702c9ca-f477-454c-bd29-8eec97fe1353"},"vehicle_type_id":"4","last_reported":1751991218,"current_range_meters":22000,"station_id":"ce4bgj92rcd13ifvqbd0","pricing_plan_id":"cebpf4jnsgd1na2vs0mg"},{"bike_id":"c166a4a1-e013-4d52-be44-a53daa2d3d12","system_id":"levelo_inurba_marseille","lat":43.2961,"lon":5.38103,"is_reserved":false,"is_disabled":false,"rental_uris":{"android":"levelo://app?vid=c166a4a1-e013-4d52-be44-a53daa2d3d12","ios":"levelo://app?vid=c166a4a1-e013-4d52-be44-a53daa2d3d12"},"vehicle_type_id":"4","last_reported":1751991218,"current_range_meters":22000,"station_id":"ce4bgl12rcd13ifvqbo0","pricing_plan_id":"cebpf4jnsgd1na2vs0mg"},{"bike_id":"7255d9be-cf91-4af5-8029-009ed5c14449","system_id":"levelo_inurba_marseille","lat":43.28461,"lon":5.35882,"is_reserved":false,"is_disabled":false,"rental_uris":{"android":"levelo://app?vid=7255d9be-cf91-4af5-8029-009ed5c14449","ios":"levelo://app?vid=7255d9be-cf91-4af5-8029-009ed5c14449"},"vehicle_type_id":"4","last_reported":1751991218,"current_range_meters":22000,"station_id":"ce4bhah2rcd13ifvqei0","pricing_plan_id":"cebpf4jnsgd1na2vs0mg"},{"bike_id":"ee2269ef-86f9-4a32-af59-df38e7d1caf1","system_id":"levelo_inurba_marseille","lat":43.2922,"lon":5.3608,"is_reserved":false,"is_disabled":false,"rental_uris":{"android":"levelo://app?vid=ee2269ef-86f9-4a32-af59-df38e7d1caf1","ios":"levelo://app?vid=ee2269ef-86f9-4a32-af59-df38e7d1caf1"},"vehicle_type_id":"4","last_reported":1751991218,"current_range_meters":22000,"station_id":"ce4bhbh2rcd13ifvqeqg","pricing_plan_id":"cebpf4jnsgd1na2vs0mg"},{"bike_id":"9021a70c-05ba-40d2-afd4-65126a6dbdcb","system_id":"levelo_inurba_marseille","lat":43.25118,"lon":5.40318,"is_reserved":false,"is_disabled":false,"rental_uris":{"android":"levelo://app?vid=9021a70c-05ba-40d2-afd4-65126a6dbdcb","ios":"levelo://app?vid=9021a70c-05ba-40d2-afd4-65126a6dbdcb"},"vehicle_type_id":"4","last_reported":1751991218,"current_range_meters":22000,"station_id":"ce4bhlh2rcd13ifvqgig","pricing_plan_id":"cebpf4jnsgd1na2vs0mg"},{"bike_id":"c0735136-e0f1-410b-b7bc-03f3deffba27","system_id":"levelo_inurba_marseille","lat":43.21748,"lon":5.346,"is_reserved":false,"is_disabled":false,"rental_uris":{"android":"levelo://app?vid=c0735136-e0f1-410b-b7bc-03f3deffba27","ios":"levelo://app?vid=c0735136-e0f1-410b-b7bc-03f3deffba27"},"vehicle_type_id":"4","last_reported":1751991218,"current_range_meters":22000,"station_id":"st_cvj6r9ubvosntc0bgbag","pricing_plan_id":"cebpf4jnsgd1na2vs0mg"},{"bike_id":"2cff8505-8c7c-4297-af51-7fb0af375659","system_id":"levelo_inurba_marseille","lat":43.29968,"lon":5.38492,"is_reserved":false,"is_disabled":false,"rental_uris":{"android":"levelo://app?vid=2cff8505-8c7c-4297-af51-7fb0af375659","ios":"levelo://app?vid=2cff8505-8c7c-4297-af51-7fb0af375659"},"vehicle_type_id":"4","last_reported":1751991218,"current_range_meters":22400,"station_id":"ce4bgj92rcd13ifvqbd0","pricing_plan_id":"cebpf4jnsgd1na2vs0mg"},{"bike_id":"b00b0d10-9f55-4ebf-8dbe-28360c69466f","system_id":"levelo_inurba_marseille","lat":43.28267,"lon":5.35064,"is_reserved":false,"is_disabled":false,"rental_uris":{"android":"levelo://app?vid=b00b0d10-9f55-4ebf-8dbe-28360c69466f","ios":"levelo://app?vid=b00b0d10-9f55-4ebf-8dbe-28360c69466f"},"vehicle_type_id":"4","last_reported":1751991218,"current_range_meters":22400,"station_id":"ce4bhbp2rcd13ifvqerg","pricing_plan_id":"cebpf4jnsgd1na2vs0mg"},{"bike_id":"87d13c3c-9453-4492-8a8f-f2b4c8e828c6","system_id":"levelo_inurba_marseille","lat":43.26177,"lon":5.37049,"is_reserved":false,"is_disabled":false,"rental_uris":{"android":"levelo://app?vid=87d13c3c-9453-4492-8a8f-f2b4c8e828c6","ios":"levelo://app?vid=87d13c3c-9453-4492-8a8f-f2b4c8e828c6"},"vehicle_type_id":"4","last_reported":1751991218,"current_range_meters":22800,"station_id":"","pricing_plan_id":"cebpf4jnsgd1na2vs0mg"},{"bike_id":"492d0db1-f25c-4abd-bd29-a8096e9dd412","system_id":"levelo_inurba_marseille","lat":43.30057,"lon":5.39112,"is_reserved":false,"is_disabled":false,"rental_uris":{"android":"levelo://app?vid=492d0db1-f25c-4abd-bd29-a8096e9dd412","ios":"levelo://app?vid=492d0db1-f25c-4abd-bd29-a8096e9dd412"},"vehicle_type_id":"4","last_reported":1751991218,"current_range_meters":22800,"station_id":"ce4bh192rcd13ifvqdb0","pricing_plan_id":"cebpf4jnsgd1na2vs0mg"},{"bike_id":"0a6cc7ec-c6e8-4833-9620-bb3812e421f3","system_id":"levelo_inurba_marseille","lat":43.28615,"lon":5.35107,"is_reserved":false,"is_disabled":false,"rental_uris":{"android":"levelo://app?vid=0a6cc7ec-c6e8-4833-9620-bb3812e421f3","ios":"levelo://app?vid=0a6cc7ec-c6e8-4833-9620-bb3812e421f3"},"vehicle_type_id":"4","last_reported":1751991218,"current_range_meters":22800,"station_id":"ce4bhch2rcd13ifvqeug","pricing_plan_id":"cebpf4jnsgd1na2vs0mg"},{"bike_id":"27ce66c3-f7a1-4f8d-8ada-c6cc58b48753","system_id":"levelo_inurba_marseille","lat":43.24804,"lon":5.37453,"is_reserved":false,"is_disabled":false,"rental_uris":{"android":"levelo://app?vid=27ce66c3-f7a1-4f8d-8ada-c6cc58b48753","ios":"levelo://app?vid=27ce66c3-f7a1-4f8d-8ada-c6cc58b48753"},"vehicle_type_id":"4","last_reported":1751991218,"current_range_meters":22800,"station_id":"ce4bhgh2rcd13ifvqfb0","pricing_plan_id":"cebpf4jnsgd1na2vs0mg"},{"bike_id":"6e9716e5-c0d5-438f-b23a-2ef57ecba8cc","system_id":"levelo_inurba_marseille","lat":43.24398,"lon":5.37062,"is_reserved":false,"is_disabled":false,"rental_uris":{"android":"levelo://app?vid=6e9716e5-c0d5-438f-b23a-2ef57ecba8cc","ios":"levelo://app?vid=6e9716e5-c0d5-438f-b23a-2ef57ecba8cc"},"vehicle_type_id":"4","last_reported":1751991218,"current_range_meters":22800,"station_id":"ce4bhhh2rcd13ifvqfk0","pricing_plan_id":"cebpf4jnsgd1na2vs0mg"},{"bike_id":"ef6311b9-c394-4e85-b3f2-bf62d7fa6877","system_id":"levelo_inurba_marseille","lat":43.245477,"lon":5.395235,"is_reserved":false,"is_disabled":false,"rental_uris":{"android":"levelo://app?vid=ef6311b9-c394-4e85-b3f2-bf62d7fa6877","ios":"levelo://app?vid=ef6311b9-c394-4e85-b3f2-bf62d7fa6877"},"vehicle_type_id":"4","last_reported":1751991218,"current_range_meters":22800,"station_id":"ce4bhlp2rcd13ifvqgjg","pricing_plan_id":"cebpf4jnsgd1na2vs0mg"},{"bike_id":"64b4fa4f-0779-4ed7-89cb-2e78d143f36e","system_id":"levelo_inurba_marseille","lat":43.21765,"lon":5.34587,"is_reserved":false,"is_disabled":false,"rental_uris":{"android":"levelo://app?vid=64b4fa4f-0779-4ed7-89cb-2e78d143f36e","ios":"levelo://app?vid=64b4fa4f-0779-4ed7-89cb-2e78d143f36e"},"vehicle_type_id":"4","last_reported":1751991218,"current_range_meters":22800,"station_id":"st_cvj6r9ubvosntc0bgbag","pricing_plan_id":"cebpf4jnsgd1na2vs0mg"},{"bike_id":"7a305d51-5742-4308-b8f1-f89a7aed6968","system_id":"levelo_inurba_marseille","lat":43.32328,"lon":5.36655,"is_reserved":false,"is_disabled":false,"rental_uris":{"android":"levelo://app?vid=7a305d51-5742-4308-b8f1-f89a7aed6968","ios":"levelo://app?vid=7a305d51-5742-4308-b8f1-f89a7aed6968"},"vehicle_type_id":"4","last_reported":1751991218,"current_range_meters":23200,"station_id":"","pricing_plan_id":"cebpf4jnsgd1na2vs0mg"},{"bike_id":"1c843fea-9154-4ab5-a997-10f28de62d5c","system_id":"levelo_inurba_marseille","lat":43.26547,"lon":5.37383,"is_reserved":false,"is_disabled":false,"rental_uris":{"android":"levelo://app?vid=1c843fea-9154-4ab5-a997-10f28de62d5c","ios":"levelo://app?vid=1c843fea-9154-4ab5-a997-10f28de62d5c"},"vehicle_type_id":"4","last_reported":1751991218,"current_range_meters":23200,"station_id":"","pricing_plan_id":"cebpf4jnsgd1na2vs0mg"},{"bike_id":"feaa7e3a-cbe4-4489-be11-8a12d7eec173","system_id":"levelo_inurba_marseille","lat":43.2517,"lon":5.42476,"is_reserved":false,"is_disabled":false,"rental_uris":{"android":"levelo://app?vid=feaa7e3a-cbe4-4489-be11-8a12d7eec173","ios":"levelo://app?vid=feaa7e3a-cbe4-4489-be11-8a12d7eec173"},"vehicle_type_id":"4","last_reported":1751991218,"current_range_meters":23200,"station_id":"","pricing_plan_id":"cebpf4jnsgd1na2vs0mg"},{"bike_id":"56719e97-7c9e-4080-a4a3-5f949589c7df","system_id":"levelo_inurba_marseille","lat":43.30775,"lon":5.37648,"is_reserved":false,"is_disabled":false,"rental_uris":{"android":"levelo://app?vid=56719e97-7c9e-4080-a4a3-5f949589c7df","ios":"levelo://app?vid=56719e97-7c9e-4080-a4a3-5f949589c7df"},"vehicle_type_id":"4","last_reported":1751991218,"current_range_meters":23200,"station_id":"ce4bgv92rcd13ifvqcq0","pricing_plan_id":"cebpf4jnsgd1na2vs0mg"},{"bike_id":"2a6147a1-7ffc-413b-a151-a52bdabf9322","system_id":"levelo_inurba_marseille","lat":43.30661,"lon":5.40078,"is_reserved":false,"is_disabled":false,"rental_uris":{"android":"levelo://app?vid=2a6147a1-7ffc-413b-a151-a52bdabf9322","ios":"levelo://app?vid=2a6147a1-7ffc-413b-a151-a52bdabf9322"},"vehicle_type_id":"4","last_reported":1751991218,"current_range_meters":23200,"station_id":"ce4bh112rcd13ifvqda0","pricing_plan_id":"cebpf4jnsgd1na2vs0mg"},{"bike_id":"81b3d474-b5f2-48ef-a288-f85722873332","system_id":"levelo_inurba_marseille","lat":43.28401,"lon":5.35006,"is_reserved":false,"is_disabled":false,"rental_uris":{"android":"levelo://app?vid=81b3d474-b5f2-48ef-a288-f85722873332","ios":"levelo://app?vid=81b3d474-b5f2-48ef-a288-f85722873332"},"vehicle_type_id":"4","last_reported":1751991218,"current_range_meters":23200,"station_id":"ce4bhbh2rcd13ifvqepg","pricing_plan_id":"cebpf4jnsgd1na2vs0mg"},{"bike_id":"e7605de2-1e05-44f9-9f5e-27070ed2b532","system_id":"levelo_inurba_marseille","lat":43.28301,"lon":5.35044,"is_reserved":false,"is_disabled":false,"rental_uris":{"android":"levelo://app?vid=e7605de2-1e05-44f9-9f5e-27070ed2b532","ios":"levelo://app?vid=e7605de2-1e05-44f9-9f5e-27070ed2b532"},"vehicle_type_id":"4","last_reported":1751991218,"current_range_meters":23200,"station_id":"ce4bhbp2rcd13ifvqerg","pricing_plan_id":"cebpf4jnsgd1na2vs0mg"},{"bike_id":"af11444c-436d-44d1-894f-30d150dbe91c","system_id":"levelo_inurba_marseille","lat":43.26201,"lon":5.37444,"is_reserved":false,"is_disabled":false,"rental_uris":{"android":"levelo://app?vid=af11444c-436d-44d1-894f-30d150dbe91c","ios":"levelo://app?vid=af11444c-436d-44d1-894f-30d150dbe91c"},"vehicle_type_id":"4","last_reported":1751991218,"current_range_meters":23200,"station_id":"ce4bhgp2rcd13ifvqfc0","pricing_plan_id":"cebpf4jnsgd1na2vs0mg"},{"bike_id":"68a7fd71-030c-4840-bd5d-a753cac1451d","system_id":"levelo_inurba_marseille","lat":43.28,"lon":5.40015,"is_reserved":false,"is_disabled":false,"rental_uris":{"android":"levelo://app?vid=68a7fd71-030c-4840-bd5d-a753cac1451d","ios":"levelo://app?vid=68a7fd71-030c-4840-bd5d-a753cac1451d"},"vehicle_type_id":"4","last_reported":1751991218,"current_range_meters":23200,"station_id":"ce4bho92rcd13ifvqh4g","pricing_plan_id":"cebpf4jnsgd1na2vs0mg"},{"bike_id":"9f5e74ce-2459-4c6f-a171-f6d1e8a1ed83","system_id":"levelo_inurba_marseille","lat":43.31874,"lon":5.37541,"is_reserved":false,"is_disabled":false,"rental_uris":{"android":"levelo://app?vid=9f5e74ce-2459-4c6f-a171-f6d1e8a1ed83","ios":"levelo://app?vid=9f5e74ce-2459-4c6f-a171-f6d1e8a1ed83"},"vehicle_type_id":"4","last_reported":1751991218,"current_range_meters":24000,"station_id":"","pricing_plan_id":"cebpf4jnsgd1na2vs0mg"},{"bike_id":"08e9e6df-ac02-4864-a79b-0808db194344","system_id":"levelo_inurba_marseille","lat":43.275947,"lon":5.360904,"is_reserved":false,"is_disabled":false,"rental_uris":{"android":"levelo://app?vid=08e9e6df-ac02-4864-a79b-0808db194344","ios":"levelo://app?vid=08e9e6df-ac02-4864-a79b-0808db194344"},"vehicle_type_id":"4","last_reported":1751991218,"current_range_meters":24000,"station_id":"ce4bgj92rcd13ifvqbe0","pricing_plan_id":"cebpf4jnsgd1na2vs0mg"},{"bike_id":"a92392b7-399e-4d27-9258-b9d9d57b1921","system_id":"levelo_inurba_marseille","lat":43.31273,"lon":5.40168,"is_reserved":false,"is_disabled":false,"rental_uris":{"android":"levelo://app?vid=a92392b7-399e-4d27-9258-b9d9d57b1921","ios":"levelo://app?vid=a92392b7-399e-4d27-9258-b9d9d57b1921"},"vehicle_type_id":"4","last_reported":1751991218,"current_range_meters":24000,"station_id":"ce4bh092rcd13ifvqd30","pricing_plan_id":"cebpf4jnsgd1na2vs0mg"},{"bike_id":"317ee0f1-4a6f-4645-a28a-da8c4f4e38c4","system_id":"levelo_inurba_marseille","lat":43.28467,"lon":5.35879,"is_reserved":false,"is_disabled":false,"rental_uris":{"android":"levelo://app?vid=317ee0f1-4a6f-4645-a28a-da8c4f4e38c4","ios":"levelo://app?vid=317ee0f1-4a6f-4645-a28a-da8c4f4e38c4"},"vehicle_type_id":"4","last_reported":1751991218,"current_range_meters":24000,"station_id":"ce4bhah2rcd13ifvqei0","pricing_plan_id":"cebpf4jnsgd1na2vs0mg"},{"bike_id":"50a7658a-d4b7-4a9f-94be-c4ee3dd322ad","system_id":"levelo_inurba_marseille","lat":43.28419,"lon":5.34971,"is_reserved":false,"is_disabled":false,"rental_uris":{"android":"levelo://app?vid=50a7658a-d4b7-4a9f-94be-c4ee3dd322ad","ios":"levelo://app?vid=50a7658a-d4b7-4a9f-94be-c4ee3dd322ad"},"vehicle_type_id":"4","last_reported":1751991218,"current_range_meters":24000,"station_id":"ce4bhbh2rcd13ifvqepg","pricing_plan_id":"cebpf4jnsgd1na2vs0mg"},{"bike_id":"ca93ad24-d958-42b0-aebd-66a12d92e180","system_id":"levelo_inurba_marseille","lat":43.282676,"lon":5.350885,"is_reserved":false,"is_disabled":false,"rental_uris":{"android":"levelo://app?vid=ca93ad24-d958-42b0-aebd-66a12d92e180","ios":"levelo://app?vid=ca93ad24-d958-42b0-aebd-66a12d92e180"},"vehicle_type_id":"4","last_reported":1751991218,"current_range_meters":24000,"station_id":"ce4bhbp2rcd13ifvqerg","pricing_plan_id":"cebpf4jnsgd1na2vs0mg"},{"bike_id":"fe393e70-3017-4f74-9643-ce2ab31a2adc","system_id":"levelo_inurba_marseille","lat":43.28637,"lon":5.35106,"is_reserved":false,"is_disabled":false,"rental_uris":{"android":"levelo://app?vid=fe393e70-3017-4f74-9643-ce2ab31a2adc","ios":"levelo://app?vid=fe393e70-3017-4f74-9643-ce2ab31a2adc"},"vehicle_type_id":"4","last_reported":1751991218,"current_range_meters":24000,"station_id":"ce4bhch2rcd13ifvqeug","pricing_plan_id":"cebpf4jnsgd1na2vs0mg"},{"bike_id":"3f32eaf6-2059-44f0-87ea-7d0551445ba2","system_id":"levelo_inurba_marseille","lat":43.265738,"lon":5.390196,"is_reserved":false,"is_disabled":false,"rental_uris":{"android":"levelo://app?vid=3f32eaf6-2059-44f0-87ea-7d0551445ba2","ios":"levelo://app?vid=3f32eaf6-2059-44f0-87ea-7d0551445ba2"},"vehicle_type_id":"4","last_reported":1751991218,"current_range_meters":24000,"station_id":"ce4bhe12rcd13ifvqf30","pricing_plan_id":"cebpf4jnsgd1na2vs0mg"},{"bike_id":"f0b731f7-99bf-424d-8ba5-69f829e818e8","system_id":"levelo_inurba_marseille","lat":43.24391,"lon":5.37055,"is_reserved":false,"is_disabled":false,"rental_uris":{"android":"levelo://app?vid=f0b731f7-99bf-424d-8ba5-69f829e818e8","ios":"levelo://app?vid=f0b731f7-99bf-424d-8ba5-69f829e818e8"},"vehicle_type_id":"4","last_reported":1751991218,"current_range_meters":24000,"station_id":"ce4bhhh2rcd13ifvqfk0","pricing_plan_id":"cebpf4jnsgd1na2vs0mg"},{"bike_id":"c5ae2ea2-6040-4b52-a7f8-4155f277e031","system_id":"levelo_inurba_marseille","lat":43.25782,"lon":5.400003,"is_reserved":false,"is_disabled":false,"rental_uris":{"android":"levelo://app?vid=c5ae2ea2-6040-4b52-a7f8-4155f277e031","ios":"levelo://app?vid=c5ae2ea2-6040-4b52-a7f8-4155f277e031"},"vehicle_type_id":"4","last_reported":1751991218,"current_range_meters":24000,"station_id":"ce4bhn12rcd13ifvqgpg","pricing_plan_id":"cebpf4jnsgd1na2vs0mg"},