{"last_updated":1729811371,"ttl":60,"version":"2.2","data":{"bikes":[{"bike_id":"38e93332-d7ca-4607-a597-8ea4f6db744e","system_id":"levelo_inurba_marseille","lat":43.28611,"lon":5.37065,"is_reserved":false,"is_disabled":false,"rental_uris":{"android":"levelo://app?vid=38e93332-d7ca-4607-a597-8ea4f6db744e","ios":"levelo://app?vid=38e93332-d7ca-4607-a597-8ea4f6db744e"},"vehicle_type_id":"4","last_reported":1729811372,"current_range_meters":30000,"station_id":"ce4bht12rcd13ifvqi60","pricing_plan_id":"cebpf4jnsgd1na2vs0mg"},{"bike_id":"1568e98d-3e80-4d3a-913a-84af01bba11e","system_id":"levelo_inurba_marseille","lat":43.28155,"lon":5.42639,"is_reserved":false,"is_disabled":false,"rental_uris":{"android":"levelo://app?vid=1568e98d-3e80-4d3a-913a-84af01bba11e","ios":"levelo://app?vid=1568e98d-3e80-4d3a-913a-84af01bba11e"},"vehicle_type_id":"4","last_reported":1729811372,"current_range_meters":36800,"station_id":"ce4bhnh2rcd13ifvqgug","pricing_plan_id":"cebpf4jnsgd1na2vs0mg"},{"bike_id":"61b97588-8fc4-427c-bd69-2a48858e27dd","system_id":"levelo_inurba_marseille","lat":43.28719,"lon":5.37938,"is_reserved":false,"is_disabled":false,"rental_uris":{"android":"levelo://app?vid=61b97588-8fc4-427c-bd69-2a48858e27dd","ios":"levelo://app?vid=61b97588-8fc4-427c-bd69-2a48858e27dd"},"vehicle_type_id":"4","last_reported":1729811372,"current_range_meters":38800,"station_id":"ce4bh9p2rcd13ifvqec0","pricing_plan_id":"cebpf4jnsgd1na2vs0mg"},{"bike_id":"d23bbd4b-7066-40e8-b2c7-f39cfac6ae26","system_id":"levelo_inurba_marseille","lat":43.28443,"lon":5.39189,"is_reserved":false,"is_disabled":false,"rental_uris":{"android":"levelo://app?vid=d23bbd4b-7066-40e8-b2c7-f39cfac6ae26","ios":"levelo://app?vid=d23bbd4b-7066-40e8-b2c7-f39cfac6ae26"},"vehicle_type_id":"4","last_reported":1729811372,"current_range_meters":3200,"station_id":"ce4bhoh2rcd13ifvqh5g","pricing_plan_id":"cebpf4jnsgd1na2vs0mg"},{"bike_id":"02b88303-f07a-410b-8e09-9fbc37dda972","system_id":"levelo_inurba_marseille","lat":43.31073,"lon":5.38348,"is_reserved":false,"is_disabled":false,"rental_uris":{"android":"levelo://app?vid=02b88303-f07a-410b-8e09-9fbc37dda972","ios":"levelo://app?vid=02b88303-f07a-410b-8e09-9fbc37dda972"},"vehicle_type_id":"4","last_reported":1729811372,"current_range_meters":38800,"station_id":"ce4bgv92rcd13ifvqcr0","pricing_plan_id":"cebpf4jnsgd1na2vs0mg"},{"bike_id":"0305f07b-3d86-40ef-b6b1-15fef9ab5479","system_id":"levelo_inurba_marseille","lat":43.23957,"lon":5.36632,"is_reserved":false,"is_disabled":false,"rental_uris":{"android":"levelo://app?vid=0305f07b-3d86-40ef-b6b1-15fef9ab5479","ios":"levelo://app?vid=0305f07b-3d86-40ef-b6b1-15fef9ab5479"},"vehicle_type_id":"4","last_reported":1729811372,"current_range_meters":38400,"station_id":"ce4bhi12rcd13ifvqfp0","pricing_plan_id":"cebpf4jnsgd1na2vs0mg"},{"bike_id":"5134f3b1-3ef2-40bd-bb7b-0664f2444bbd","system_id":"levelo_inurba_marseille","lat":43.32044,"lon":5.41569,"is_reserved":false,"is_disabled":false,"rental_uris":{"android":"levelo://app?vid=5134f3b1-3ef2-40bd-bb7b-0664f2444bbd","ios":"levelo://app?vid=5134f3b1-3ef2-40bd-bb7b-0664f2444bbd"},"vehicle_type_id":"4","last_reported":1729811372,"current_range_meters":38800,"station_id":"ce4bhq92rcd13ifvqhkg","pricing_plan_id":"cebpf4jnsgd1na2vs0mg"},{"bike_id":"b127b2b4-729c-4a0b-820c-f99fb01ed4db","system_id":"levelo_inurba_marseille","lat":43.24175,"lon":5.39723,"is_reserved":false,"is_disabled":false,"rental_uris":{"android":"levelo://app?vid=b127b2b4-729c-4a0b-820c-f99fb01ed4db","ios":"levelo://app?vid=b127b2b4-729c-4a0b-820c-f99fb01ed4db"},"vehicle_type_id":"4","last_reported":1729811372,"current_range_meters":7200,"station_id":"ce4bhn12rcd13ifvqgpg","pricing_plan_id":"cebpf4jnsgd1na2vs0mg"},{"bike_id":"408d48c7-1ac8-43cc-829a-0b00e4e3a502","system_id":"levelo_inurba_marseille","lat":43.30803,"lon":5.3817,"is_reserved":false,"is_disabled":false,"rental_uris":{"android":"levelo://app?vid=408d48c7-1ac8-43cc-829a-0b00e4e3a502","ios":"levelo://app?vid=408d48c7-1ac8-43cc-829a-0b00e4e3a502"},"vehicle_type_id":"4","last_reported":1729811372,"current_range_meters":7200,"station_id":"ce4bgt12rcd13ifvqce0","pricing_plan_id":"cebpf4jnsgd1na2vs0mg"},{"bike_id":"059dff48-63e8-4f55-94a0-895511511c48","system_id":"levelo_inurba_marseille","lat":43.28481,"lon":5.38427,"is_reserved":false,"is_disabled":false,"rental_uris":{"android":"levelo://app?vid=059dff48-63e8-4f55-94a0-895511511c48","ios":"levelo://app?vid=059dff48-63e8-4f55-94a0-895511511c48"},"vehicle_type_id":"4","last_reported":1729811372,"current_range_meters":26000,"station_id":"ce4bh512rcd13ifvqe3g","pricing_plan_id":"cebpf4jnsgd1na2vs0mg"},{"bike_id":"f8109ec4-3d40-439f-a973-a4245f3f57cb","system_id":"levelo_inurba_marseille","lat":43.31358,"lon":5.38499,"is_reserved":false,"is_disabled":false,"rental_uris":{"android":"levelo://app?vid=f8109ec4-3d40-439f-a973-a4245f3f57cb","ios":"levelo://app?vid=f8109ec4-3d40-439f-a973-a4245f3f57cb"},"vehicle_type_id":"4","last_reported":1729811372,"current_range_meters":27600,"station_id":"ce4bgt92rcd13ifvqcf0","pricing_plan_id":"cebpf4jnsgd1na2vs0mg"},{"bike_id":"15a72434-6c63-4059-a6c9-0dd3a19b7eb4","system_id":"levelo_inurba_marseille","lat":43.24663,"lon":5.38162,"is_reserved":false,"is_disabled":false,"rental_uris":{"android":"levelo://app?vid=15a72434-6c63-4059-a6c9-0dd3a19b7eb4","ios":"levelo://app?vid=15a72434-6c63-4059-a6c9-0dd3a19b7eb4"},"vehicle_type_id":"4","last_reported":1729811372,"current_range_meters":18000,"station_id":"ce4bhih2rcd13ifvqfr0","pricing_plan_id":"cebpf4jnsgd1na2vs0mg"},{"bike_id":"bf0a88b7-2d6b-43c6-b839-758311f688b3","system_id":"levelo_inurba_marseille","lat":43.3012,"lon":5.39868,"is_reserved":false,"is_disabled":false,"rental_uris":{"android":"levelo://app?vid=bf0a88b7-2d6b-43c6-b839-758311f688b3","ios":"levelo://app?vid=bf0a88b7-2d6b-43c6-b839-758311f688b3"},"vehicle_type_id":"4","last_reported":1729811372,"current_range_meters":20800,"station_id":"ce4bh0h2rcd13ifvqd40","pricing_plan_id":"cebpf4jnsgd1na2vs0mg"},{"bike_id":"378a3403-d96c-4cc5-97b0-67102ea47686","system_id":"levelo_inurba_marseille","lat":43.31119,"lon":5.3776,"is_reserved":false,"is_disabled":false,"rental_uris":{"android":"levelo://app?vid=378a3403-d96c-4cc5-97b0-67102ea47686","ios":"levelo://app?vid=378a3403-d96c-4cc5-97b0-67102ea47686"},"vehicle_type_id":"4","last_reported":1729811372,"current_range_meters":32800,"station_id":"ce4bgt92rcd13ifvqcg0","pricing_plan_id":"cebpf4jnsgd1na2vs0mg"},{"bike_id":"d8baf404-58b3-4cf8-bcf7-a6dbe086a9d9","system_id":"levelo_inurba_marseille","lat":43.29052,"lon":5.35909,"is_reserved":false,"is_disabled":false,"rental_uris":{"android":"levelo://app?vid=d8baf404-58b3-4cf8-bcf7-a6dbe086a9d9","ios":"levelo://app?vid=d8baf404-58b3-4cf8-bcf7-a6dbe086a9d9"},"vehicle_type_id":"4","last_reported":1729811372,"current_range_meters":22000,"station_id":"ce4bha92rcd13ifvqeg0","pricing_plan_id":"cebpf4jnsgd1na2vs0mg"},{"bike_id":"1ea44835-5532-4126-817c-6fc155bc3136","system_id":"levelo_inurba_marseille","lat":43.30253,"lon":5.40082,"is_reserved":false,"is_disabled":false,"rental_uris":{"android":"levelo://app?vid=1ea44835-5532-4126-817c-6fc155bc3136","ios":"levelo://app?vid=1ea44835-5532-4126-817c-6fc155bc3136"},"vehicle_type_id":"4","last_reported":1729811372,"current_range_meters":6400,"station_id":"ce4bgvh2rcd13ifvqcs0","pricing_plan_id":"cebpf4jnsgd1na2vs0mg"},{"bike_id":"7a39ac62-f73e-405f-baad-436efacf2521","system_id":"levelo_inurba_marseille","lat":43.27074,"lon":5.42281,"is_reserved":false,"is_disabled":false,"rental_uris":{"android":"levelo://app?vid=7a39ac62-f73e-405f-baad-436efacf2521","ios":"levelo://app?vid=7a39ac62-f73e-405f-baad-436efacf2521"},"vehicle_type_id":"4","last_reported":1729811372,"current_range_meters":32800,"station_id":"ce4bhk92rcd13ifvqgb0","pricing_plan_id":"cebpf4jnsgd1na2vs0mg"},{"bike_id":"a56c1379-1bdb-46ca-856d-3a935259fe62","system_id":"levelo_inurba_marseille","lat":43.29787,"lon":5.39343,"is_reserved":false,"is_disabled":false,"rental_uris":{"android":"levelo://app?vid=a56c1379-1bdb-46ca-856d-3a935259fe62","ios":"levelo://app?vid=a56c1379-1bdb-46ca-856d-3a935259fe62"},"vehicle_type_id":"4","last_reported":1729811372,"current_range_meters":30800,"station_id":"chh1huq6cuj3fo74tm60","pricing_plan_id":"cebpf4jnsgd1na2vs0mg"},{"bike_id":"e130cf78-8420-42ef-935c-589ad91611cf","system_id":"levelo_inurba_marseille","lat":43.32658,"lon":5.40995,"is_reserved":false,"is_disabled":false,"rental_uris":{"android":"levelo://app?vid=e130cf78-8420-42ef-935c-589ad91611cf","ios":"levelo://app?vid=e130cf78-8420-42ef-935c-589ad91611cf"},"vehicle_type_id":"4","last_reported":1729811372,"current_range_meters":38000,"station_id":"ce4bhpp2rcd13ifvqhgg","pricing_plan_id":"cebpf4jnsgd1na2vs0mg"},{"bike_id":"83b93c0d-fd1e-413e-9772-9048be31d163","system_id":"levelo_inurba_marseille","lat":43.31703,"lon":5.37731,"is_reserved":false,"is_disabled":false,"rental_uris":{"android":"levelo://app?vid=83b93c0d-fd1e-413e-9772-9048be31d163","ios":"levelo://app?vid=83b93c0d-fd1e-413e-9772-9048be31d163"},"vehicle_type_id":"4","last_reported":1729811372,"current_range_meters":38800,"station_id":"ce4bgth2rcd13ifvqch0","pricing_plan_id":"cebpf4jnsgd1na2vs0mg"},{"bike_id":"25de1070-8090-4201-95c3-d63385945772","system_id":"levelo_inurba_marseille","lat":43.30433,"lon":5.3889,"is_reserved":false,"is_disabled":false,"rental_uris":{"android":"levelo://app?vid=25de1070-8090-4201-95c3-d63385945772","ios":"levelo://app?vid=25de1070-8090-4201-95c3-d63385945772"},"vehicle_type_id":"4","last_reported":1729811372,"current_range_meters":22800,"station_id":"ce4bgk12rcd13ifvqbi0","pricing_plan_id":"cebpf4jnsgd1na2vs0mg"},{"bike_id":"199178e9-cff7-44d0-aa78-edab9c52e715","system_id":"levelo_inurba_marseille","lat":43.26683,"lon":5.38271,"is_reserved":false,"is_disabled":false,"rental_uris":{"android":"levelo://app?vid=199178e9-cff7-44d0-aa78-edab9c52e715","ios":"levelo://app?vid=199178e9-cff7-44d0-aa78-edab9c52e715"},"vehicle_type_id":"4","last_reported":1729811372,"current_range_meters":37600,"station_id":"ce4bhg92rcd13ifvqf90","pricing_plan_id":"cebpf4jnsgd1na2vs0mg"},{"bike_id":"784dd773-f509-4455-843a-8e8b8177e5e1","system_id":"levelo_inurba_marseille","lat":43.31708,"lon":5.37753,"is_reserved":false,"is_disabled":false,"rental_uris":{"android":"levelo://app?vid=784dd773-f509-4455-843a-8e8b8177e5e1","ios":"levelo://app?vid=784dd773-f509-4455-843a-8e8b8177e5e1"},"vehicle_type_id":"4","last_reported":1729811372,"current_range_meters":14000,"station_id":"ce4bgth2rcd13ifvqch0","pricing_plan_id":"cebpf4jnsgd1na2vs0mg"},{"bike_id":"123bba5e-f5a9-4d52-bf87-981f8dbc6f9b","system_id":"levelo_inurba_marseille","lat":43.28702,"lon":5.39988,"is_reserved":false,"is_disabled":false,"rental_uris":{"android":"levelo://app?vid=123bba5e-f5a9-4d52-bf87-981f8dbc6f9b","ios":"levelo://app?vid=123bba5e-f5a9-4d52-bf87-981f8dbc6f9b"},"vehicle_type_id":"4","last_reported":1729811372,"current_range_meters":16400,"station_id":"ce4bho92rcd13ifvqh3g","pricing_plan_id":"cebpf4jnsgd1na2vs0mg"},{"bike_id":"3c877646-9bd0-4b26-8907-0eb1cd28dfd3","system_id":"levelo_inurba_marseille","lat":43.25119,"lon":5.40316,"is_reserved":false,"is_disabled":false,"rental_uris":{"android":"levelo://app?vid=3c877646-9bd0-4b26-8907-0eb1cd28dfd3","ios":"levelo://app?vid=3c877646-9bd0-4b26-8907-0eb1cd28dfd3"},"vehicle_type_id":"4","last_reported":1729811372,"current_range_meters":26000,"station_id":"ce4bhlh2rcd13ifvqgig","pricing_plan_id":"cebpf4jnsgd1na2vs0mg"},{"bike_id":"13c003de-e52a-4df0-ad66-2577baee70d6","system_id":"levelo_inurba_marseille","lat":43.26547,"lon":5.37289,"is_reserved":false,"is_disabled":false,"rental_uris":{"android":"levelo://app?vid=13c003de-e52a-4df0-ad66-2577baee70d6","ios":"levelo://app?vid=13c003de-e52a-4df0-ad66-2577baee70d6"},"vehicle_type_id":"4","last_reported":1729811372,"current_range_meters":36000,"station_id":"ce4bhg12rcd13ifvqf70","pricing_plan_id":"cebpf4jnsgd1na2vs0mg"},{"bike_id":"4ff35d29-41bb-4249-a10c-ef4088f09d44","system_id":"levelo_inurba_marseille","lat":43.28278,"lon":5.3509,"is_reserved":false,"is_disabled":false,"rental_uris":{"android":"levelo://app?vid=4ff35d29-41bb-4249-a10c-ef4088f09d44","ios":"levelo://app?vid=4ff35d29-41bb-4249-a10c-ef4088f09d44"},"vehicle_type_id":"4","last_reported":1729811372,"current_range_meters":26800,"station_id":"ce4bhbp2rcd13ifvqerg","pricing_plan_id":"cebpf4jnsgd1na2vs0mg"},{"bike_id":"b14469e7-14d7-470d-b35b-6eeab8810b5f","system_id":"levelo_inurba_marseille","lat":43.27058,"lon":5.40265,"is_reserved":false,"is_disabled":false,"rental_uris":{"android":"levelo://app?vid=b14469e7-14d7-470d-b35b-6eeab8810b5f","ios":"levelo://app?vid=b14469e7-14d7-470d-b35b-6eeab8810b5f"},"vehicle_type_id":"4","last_reported":1729811372,"current_range_meters":17200,"station_id":"ce4bhk92rcd13ifvqgc0","pricing_plan_id":"cebpf4jnsgd1na2vs0mg"},{"bike_id":"58ddb80b-166e-4e4e-83db-b9284e31a595","system_id":"levelo_inurba_marseille","lat":43.2418,"lon":5.3973,"is_reserved":false,"is_disabled":false,"rental_uris":{"android":"levelo://app?vid=58ddb80b-166e-4e4e-83db-b9284e31a595","ios":"levelo://app?vid=58ddb80b-166e-4e4e-83db-b9284e31a595"},"vehicle_type_id":"4","last_reported":1729811372,"current_range_meters":38800,"station_id":"ce4bhn12rcd13ifvqgpg","pricing_plan_id":"cebpf4jnsgd1na2vs0mg"},{"bike_id":"78ef7b31-7bf9-4e16-b993-badf485bb606","system_id":"levelo_inurba_marseille","lat":43.29796,"lon":5.40404,"is_reserved":false,"is_disabled":false,"rental_uris":{"android":"levelo://app?vid=78ef7b31-7bf9-4e16-b993-badf485bb606","ios":"levelo://app?vid=78ef7b31-7bf9-4e16-b993-badf485bb606"},"vehicle_type_id":"4","last_reported":1729811372,"current_range_meters":33200,"station_id":"ce4bh112rcd13ifvqd90","pricing_plan_id":"cebpf4jnsgd1na2vs0mg"},{"bike_id":"bf97eae4-8695-45a6-8087-7f8c48b0b7a5","system_id":"levelo_inurba_marseille","lat":43.28706,"lon":5.37384,"is_reserved":false,"is_disabled":false,"rental_uris":{"android":"levelo://app?vid=bf97eae4-8695-45a6-8087-7f8c48b0b7a5","ios":"levelo://app?vid=bf97eae4-8695-45a6-8087-7f8c48b0b7a5"},"vehicle_type_id":"4","last_reported":1729811372,"current_range_meters":33200,"station_id":"ce4bh3p2rcd13ifvqdq0","pricing_plan_id":"cebpf4jnsgd1na2vs0mg"},{"bike_id":"48cb2c43-b968-4ce9-881c-4c0f7ba832c2","system_id":"levelo_inurba_marseille","lat":43.28719,"lon":5.379396,"is_reserved":false,"is_disabled":false,"rental_uris":{"android":"levelo://app?vid=48cb2c43-b968-4ce9-881c-4c0f7ba832c2","ios":"levelo://app?vid=48cb2c43-b968-4ce9-881c-4c0f7ba832c2"},"vehicle_type_id":"4","last_reported":1729811372,"current_range_meters":16400,"station_id":"ce4bh9p2rcd13ifvqec0","pricing_plan_id":"cebpf4jnsgd1na2vs0mg"},{"bike_id":"46e85f9c-1bad-4940-8580-20c0eeba5600","system_id":"levelo_inurba_marseille","lat":43.32338,"lon":5.40628,"is_reserved":false,"is_disabled":false,"rental_uris":{"android":"levelo://app?vid=46e85f9c-1bad-4940-8580-20c0eeba5600","ios":"levelo://app?vid=46e85f9c-1bad-4940-8580-20c0eeba5600"},"vehicle_type_id":"4","last_reported":1729811372,"current_range_meters":38800,"station_id":"ce4bhq92rcd13ifvqhjg","pricing_plan_id":"cebpf4jnsgd1na2vs0mg"},{"bike_id":"ce3eef46-b9e3-41dc-9130-106cb5f09144","system_id":"levelo_inurba_marseille","lat":43.24652,"lon":5.38902,"is_reserved":false,"is_disabled":false,"rental_uris":{"android":"levelo://app?vid=ce3eef46-b9e3-41dc-9130-106cb5f09144","ios":"levelo://app?vid=ce3eef46-b9e3-41dc-9130-106cb5f09144"},"vehicle_type_id":"4","last_reported":1729811372,"current_range_meters":38800,"station_id":"ce4bhg12rcd13ifvqf60","pricing_plan_id":"cebpf4jnsgd1na2vs0mg"},{"bike_id":"82e11e78-df11-4661-b561-16b8cd27d119","system_id":"levelo_inurba_marseille","lat":43.28097,"lon":5.37835,"is_reserved":false,"is_disabled":false,"rental_uris":{"android":"levelo://app?vid=82e11e78-df11-4661-b561-16b8cd27d119","ios":"levelo://app?vid=82e11e78-df11-4661-b561-16b8cd27d119"},"vehicle_type_id":"4","last_reported":1729811372,"current_range_meters":24800,"station_id":"ce4bha12rcd13ifvqee0","pricing_plan_id":"cebpf4jnsgd1na2vs0mg"},{"bike_id":"aab34421-9afa-424c-958a-956f49dfbda9","system_id":"levelo_inurba_marseille","lat":43.29967,"lon":5.38491,"is_reserved":false,"is_disabled":false,"rental_uris":{"android":"levelo://app?vid=aab34421-9afa-424c-958a-956f49dfbda9","ios":"levelo://app?vid=aab34421-9afa-424c-958a-956f49dfbda9"},"vehicle_type_id":"4","last_reported":1729811372,"current_range_meters":17600,"station_id":"ce4bgs12rcd13ifvqcag","pricing_plan_id":"cebpf4jnsgd1na2vs0mg"},{"bike_id":"8d1c0522-fd15-4481-ab3c-a4d59c43a230","system_id":"levelo_inurba_marseille","lat":43.3136,"lon":5.38489,"is_reserved":false,"is_disabled":false,"rental_uris":{"android":"levelo://app?vid=8d1c0522-fd15-4481-ab3c-a4d59c43a230","ios":"levelo://app?vid=8d1c0522-fd15-4481-ab3c-a4d59c43a230"},"vehicle_type_id":"4","last_reported":1729811372,"current_range_meters":19200,"station_id":"ce4bgt92rcd13ifvqcf0","pricing_plan_id":"cebpf4jnsgd1na2vs0mg"},{"bike_id":"97ce6431-cdfe-4c86-8575-534875aed7f5","system_id":"levelo_inurba_marseille","lat":43.3053,"lon":5.36659,"is_reserved":false,"is_disabled":false,"rental_uris":{"android":"levelo://app?vid=97ce6431-cdfe-4c86-8575-534875aed7f5","ios":"levelo://app?vid=97ce6431-cdfe-4c86-8575-534875aed7f5"},"vehicle_type_id":"4","last_reported":1729811372,"current_range_meters":5600,"station_id":"","pricing_plan_id":"cebpf4jnsgd1na2vs0mg"},{"bike_id":"4d217311-81f7-41c2-94f3-1a941de93f8e","system_id":"levelo_inurba_marseille","lat":43.2828,"lon":5.35077,"is_reserved":false,"is_disabled":false,"rental_uris":{"android":"levelo://app?vid=4d217311-81f7-41c2-94f3-1a941de93f8e","ios":"levelo://app?vid=4d217311-81f7-41c2-94f3-1a941de93f8e"},"vehicle_type_id":"4","last_reported":1729811372,"current_range_meters":38800,"station_id":"ce4bhbp2rcd13ifvqerg","pricing_plan_id":"cebpf4jnsgd1na2vs0mg"},{"bike_id":"584ba155-fd9b-4340-8649-f5090abaa5db","system_id":"levelo_inurba_marseille","lat":43.29065,"lon":5.37176,"is_reserved":false,"is_disabled":false,"rental_uris":{"android":"levelo://app?vid=584ba155-fd9b-4340-8649-f5090abaa5db","ios":"levelo://app?vid=584ba155-fd9b-4340-8649-f5090abaa5db"},"vehicle_type_id":"4","last_reported":1729811372,"current_range_meters":37600,"station_id":"ce4bh5p2rcd13ifvqe4g","pricing_plan_id":"cebpf4jnsgd1na2vs0mg"},{"bike_id":"ae543776-75ee-42a8-a677-3e246bf772ec","system_id":"levelo_inurba_marseille","lat":43.31711,"lon":5.43714,"is_reserved":false,"is_disabled":false,"rental_uris":{"android":"levelo://app?vid=ae543776-75ee-42a8-a677-3e246bf772ec","ios":"levelo://app?vid=ae543776-75ee-42a8-a677-3e246bf772ec"},"vehicle_type_id":"4","last_reported":1729811372,"current_range_meters":6800,"station_id":"ce4bhp92rcd13ifvqhcg","pricing_plan_id":"cebpf4jnsgd1na2vs0mg"},{"bike_id":"ab70e7fa-07d0-4cae-9176-ecad8d5f33d9","system_id":"levelo_inurba_marseille","lat":43.28694,"lon":5.37406,"is_reserved":false,"is_disabled":false,"rental_uris":{"android":"levelo://app?vid=ab70e7fa-07d0-4cae-9176-ecad8d5f33d9","ios":"levelo://app?vid=ab70e7fa-07d0-4cae-9176-ecad8d5f33d9"},"vehicle_type_id":"4","last_reported":1729811372,"current_range_meters":30400,"station_id":"ce4bh3p2rcd13ifvqdq0","pricing_plan_id":"cebpf4jnsgd1na2vs0mg"},{"bike_id":"334e9050-29c3-43a0-b2bb-4fc7f06bf291","system_id":"levelo_inurba_marseille","lat":43.2465,"lon":5.38902,"is_reserved":false,"is_disabled":false,"rental_uris":{"android":"levelo://app?vid=334e9050-29c3-43a0-b2bb-4fc7f06bf291","ios":"levelo://app?vid=334e9050-29c3-43a0-b2bb-4fc7f06bf291"},"vehicle_type_id":"4","last_reported":1729811372,"current_range_meters":38800,"station_id":"ce4bhg12rcd13ifvqf60","pricing_plan_id":"cebpf4jnsgd1na2vs0mg"},{"bike_id":"3416557b-1536-448a-ac57-bb27af24b942","system_id":"levelo_inurba_marseille","lat":43.337264,"lon":5.391832,"is_reserved":false,"is_disabled":false,"rental_uris":{"android":"levelo://app?vid=3416557b-1536-448a-ac57-bb27af24b942","ios":"levelo://app?vid=3416557b-1536-448a-ac57-bb27af24b942"},"vehicle_type_id":"4","last_reported":1729811372,"current_range_meters":18000,"station_id":"ce4bhr92rcd13ifvqhsg","pricing_plan_id":"cebpf4jnsgd1na2vs0mg"},{"bike_id":"fc2ed8f0-08f1-4040-919c-3bc9567bc1d2","system_id":"levelo_inurba_marseille","lat":43.28654,"lon":5.36344,"is_reserved":false,"is_disabled":false,"rental_uris":{"android":"levelo://app?vid=fc2ed8f0-08f1-4040-919c-3bc9567bc1d2","ios":"levelo://app?vid=fc2ed8f0-08f1-4040-919c-3bc9567bc1d2"},"vehicle_type_id":"4","last_reported":1729811372,"current_range_meters":38800,"station_id":"ce4bhah2rcd13ifvqej0","pricing_plan_id":"cebpf4jnsgd1na2vs0mg"},{"bike_id":"70e1a8a7-658b-4362-8767-c157d871f93b","system_id":"levelo_inurba_marseille","lat":43.2293,"lon":5.35372,"is_reserved":false,"is_disabled":false,"rental_uris":{"android":"levelo://app?vid=70e1a8a7-658b-4362-8767-c157d871f93b","ios":"levelo://app?vid=70e1a8a7-658b-4362-8767-c157d871f93b"},"vehicle_type_id":"4","last_reported":1729811372,"current_range_meters":36800,"station_id":"cpo3532slgdg3j2ikp40","pricing_plan_id":"cebpf4jnsgd1na2vs0mg"},{"bike_id":"c47ee947-2909-41a5-bbe0-603cbb5c8694","system_id":"levelo_inurba_marseille","lat":43.27958,"lon":5.41048,"is_reserved":false,"is_disabled":false,"rental_uris":{"android":"levelo://app?vid=c47ee947-2909-41a5-bbe0-603cbb5c8694","ios":"levelo://app?vid=c47ee947-2909-41a5-bbe0-603cbb5c8694"},"vehicle_type_id":"4","last_reported":1729811372,"current_range_meters":15200,"station_id":"ce4bhnp2rcd13ifvqh0g","pricing_plan_id":"cebpf4jnsgd1na2vs0mg"},{"bike_id":"8486fe9d-9ef0-4e60-ba73-6eb6a17c52a8","system_id":"levelo_inurba_marseille","lat":43.31559,"lon":5.40571,"is_reserved":false,"is_disabled":false,"rental_uris":{"android":"levelo://app?vid=8486fe9d-9ef0-4e60-ba73-6eb6a17c52a8","ios":"levelo://app?vid=8486fe9d-9ef0-4e60-ba73-6eb6a17c52a8"},"vehicle_type_id":"4","last_reported":1729811372,"current_range_meters":11600,"station_id":"","pricing_plan_id":"cebpf4jnsgd1na2vs0mg"},{"bike_id":"172208e9-70cd-4b52-b8b5-db9312e32f6a","system_id":"levelo_inurba_marseille","lat":43.245409,"lon":5.39521,"is_reserved":false,"is_disabled":false,"rental_uris":{"android":"levelo://app?vid=172208e9-70cd-4b52-b8b5-db9312e32f6a","ios":"levelo://app?vid=172208e9-70cd-4b52-b8b5-db9312e32f6a"},"vehicle_type_id":"4","last_reported":1729811372,"current_range_meters":28000,"station_id":"ce4bhlp2rcd13ifvqgjg","pricing_plan_id":"cebpf4jnsgd1na2vs0mg"},{"bike_id":"dda4a36c-79b5-42cc-bd67-2abe044c6bd4","system_id":"levelo_inurba_marseille","lat":43.28595,"lon":5.35149,"is_reserved":false,"is_disabled":false,"rental_uris":{"android":"levelo://app?vid=dda4a36c-79b5-42cc-bd67-2abe044c6bd4","ios":"levelo://app?vid=dda4a36c-79b5-42cc-bd67-2abe044c6bd4"},"vehicle_type_id":"4","last_reported":1729811372,"current_range_meters":38000,"station_id":"ce4bhch2rcd13ifvqeug","pricing_plan_id":"cebpf4jnsgd1na2vs0mg"},{"bike_id":"cfa1162e-38d1-4330-946a-f72ca06ef79b","system_id":"levelo_inurba_marseille","lat":43.281102,"lon":5.378312,"is_reserved":false,"is_disabled":false,"rental_uris":{"android":"levelo://app?vid=cfa1162e-38d1-4330-946a-f72ca06ef79b","ios":"levelo://app?vid=cfa1162e-38d1-4330-946a-f72ca06ef79b"},"vehicle_type_id":"4","last_reported":1729811372,"current_range_meters":15200,"station_id":"ce4bha12rcd13ifvqee0","pricing_plan_id":"cebpf4jnsgd1na2vs0mg"},{"bike_id":"5c9ca1bc-bff1-43d6-a60c-0d21fe59a63d","system_id":"levelo_inurba_marseille","lat":43.31076,"lon":5.38356,"is_reserved":false,"is_disabled":false,"rental_uris":{"android":"levelo://app?vid=5c9ca1bc-bff1-43d6-a60c-0d21fe59a63d","ios":"levelo://app?vid=5c9ca1bc-bff1-43d6-a60c-0d21fe59a63d"},"vehicle_type_id":"4","last_reported":1729811372,"current_range_meters":33600,"station_id":"ce4bgv92rcd13ifvqcr0","pricing_plan_id":"cebpf4jnsgd1na2vs0mg"},{"bike_id":"f0715fd3-9003-4307-b00b-9a05b5a050b6","system_id":"levelo_inurba_marseille","lat":43.26942,"lon":5.4025,"is_reserved":false,"is_disabled":false,"rental_uris":{"android":"levelo://app?vid=f0715fd3-9003-4307-b00b-9a05b5a050b6","ios":"levelo://app?vid=f0715fd3-9003-4307-b00b-9a05b5a050b6"},"vehicle_type_id":"4","last_reported":1729811372,"current_range_meters":38400,"station_id":"cjm6bp8fraef2m0cb0m0","pricing_plan_id":"cebpf4jnsgd1na2vs0mg"},{"bike_id":"19ce95ff-4cb9-489d-88e8-f0dd6c1bac5d","system_id":"levelo_inurba_marseille","lat":43.2417,"lon":5.39734,"is_reserved":false,"is_disabled":false,"rental_uris":{"android":"levelo://app?vid=19ce95ff-4cb9-489d-88e8-f0dd6c1bac5d","ios":"levelo://app?vid=19ce95ff-4cb9-489d-88e8-f0dd6c1bac5d"},"vehicle_type_id":"4","last_reported":1729811372,"current_range_meters":16000,"station_id":"ce4bhn12rcd13ifvqgpg","pricing_plan_id":"cebpf4jnsgd1na2vs0mg"},{"bike_id":"d6b07a2e-2780-4a49-b6a3-18f516cc0458","system_id":"levelo_inurba_marseille","lat":43.28445,"lon":5.392058,"is_reserved":false,"is_disabled":false,"rental_uris":{"android":"levelo://app?vid=d6b07a2e-2780-4a49-b6a3-18f516cc0458","ios":"levelo://app?vid=d6b07a2e-2780-4a49-b6a3-18f516cc0458"},"vehicle_type_id":"4","last_reported":1729811372,"current_range_meters":39200,"station_id":"ce4bhoh2rcd13ifvqh5g","pricing_plan_id":"cebpf4jnsgd1na2vs0mg"},{"bike_id":"759075f6-19f5-44e8-83e7-108ff66d3ab5","system_id":"levelo_inurba_marseille","lat":43.31329,"lon":5.39701,"is_reserved":false,"is_disabled":false,"rental_uris":{"android":"levelo://app?vid=759075f6-19f5-44e8-83e7-108ff66d3ab5","ios":"levelo://app?vid=759075f6-19f5-44e8-83e7-108ff66d3ab5"},"vehicle_type_id":"4","last_reported":1729811372,"current_range_meters":30000,"station_id":"ce4bgvp2rcd13ifvqcu0","pricing_plan_id":"cebpf4jnsgd1na2vs0mg"},{"bike_id":"8a81d8aa-b8e8-4d59-8aec-731c562b08c0","system_id":"levelo_inurba_marseille","lat":43.24546,"lon":5.39525,"is_reserved":false,"is_disabled":false,"rental_uris":{"android":"levelo://app?vid=8a81d8aa-b8e8-4d59-8aec-731c562b08c0","ios":"levelo://app?vid=8a81d8aa-b8e8-4d59-8aec-731c562b08c0"},"vehicle_type_id":"4","last_reported":1729811372,"current_range_meters":38800,"station_id":"ce4bhlp2rcd13ifvqgjg","pricing_plan_id":"cebpf4jnsgd1na2vs0mg"},{"bike_id":"67449323-dba1-4f5f-94ad-8d67c84bea65","system_id":"levelo_inurba_marseille","lat":43.26941,"lon":5.40254,"is_reserved":false,"is_disabled":false,"rental_uris":{"android":"levelo://app?vid=67449323-dba1-4f5f-94ad-8d67c84bea65","ios":"levelo://app?vid=67449323-dba1-4f5f-94ad-8d67c84bea65"},"vehicle_type_id":"4","last_reported":1729811372,"current_range_meters":18000,"station_id":"cjm6bp8fraef2m0cb0m0","pricing_plan_id":"cebpf4jnsgd1na2vs0mg"},{"bike_id":"75ee64f1-76d9-4853-8e44-c4621da65cda","system_id":"levelo_inurba_marseille","lat":43.28618,"lon":5.35104,"is_reserved":false,"is_disabled":false,"rental_uris":{"android":"levelo://app?vid=75ee64f1-76d9-4853-8e44-c4621da65cda","ios":"levelo://app?vid=75ee64f1-76d9-4853-8e44-c4621da65cda"},"vehicle_type_id":"4","last_reported":1729811372,"current_range_meters":27200,"station_id":"ce4bhch2rcd13ifvqeug","pricing_plan_id":"cebpf4jnsgd1na2vs0mg"},{"bike_id":"b5db9d88-0699-44c3-b53c-11af6517e201","system_id":"levelo_inurba_marseille","lat":43.29876,"lon":5.39736,"is_reserved":false,"is_disabled":false,"rental_uris":{"android":"levelo://app?vid=b5db9d88-0699-44c3-b53c-11af6517e201","ios":"levelo://app?vid=b5db9d88-0699-44c3-b53c-11af6517e201"},"vehicle_type_id":"4","last_reported":1729811372,"current_range_meters":16400,"station_id":"ce4bh0h2rcd13ifvqd50","pricing_plan_id":"cebpf4jnsgd1na2vs0mg"},{"bike_id":"e99b668b-6834-4832-8aab-9b650a016312","system_id":"levelo_inurba_marseille","lat":43.26939,"lon":5.40269,"is_reserved":false,"is_disabled":false,"rental_uris":{"android":"levelo://app?vid=e99b668b-6834-4832-8aab-9b650a016312","ios":"levelo://app?vid=e99b668b-6834-4832-8aab-9b650a016312"},"vehicle_type_id":"4","last_reported":1729811372,"current_range_meters":24000,"station_id":"cjm6bp8fraef2m0cb0m0","pricing_plan_id":"cebpf4jnsgd1na2vs0mg"},{"bike_id":"933557ef-e951-4c8f-adab-063805190575","system_id":"levelo_inurba_marseille","lat":43.27496,"lon":5.42449,"is_reserved":false,"is_disabled":false,"rental_uris":{"android":"levelo://app?vid=933557ef-e951-4c8f-adab-063805190575","ios":"levelo://app?vid=933557ef-e951-4c8f-adab-063805190575"},"vehicle_type_id":"4","last_reported":1729811372,"current_range_meters":25200,"station_id":"ce4bhn92rcd13ifvqgrg","pricing_plan_id":"cebpf4jnsgd1na2vs0mg"},{"bike_id":"b5092dab-0958-4b93-8d9d-8a9df626b28c","system_id":"levelo_inurba_marseille","lat":43.257281,"lon":5.411103,"is_reserved":false,"is_disabled":false,"rental_uris":{"android":"levelo://app?vid=b5092dab-0958-4b93-8d9d-8a9df626b28c","ios":"levelo://app?vid=b5092dab-0958-4b93-8d9d-8a9df626b28c"},"vehicle_type_id":"4","last_reported":1729811372,"current_range_meters":36400,"station_id":"ce4bhkp2rcd13ifvqgd0","pricing_plan_id":"cebpf4jnsgd1na2vs0mg"},{"bike_id":"9435038c-1b3b-43d9-87f4-8e07cec3ad6e","system_id":"levelo_inurba_marseille","lat":43.25492,"lon":5.37646,"is_reserved":false,"is_disabled":false,"rental_uris":{"android":"levelo://app?vid=9435038c-1b3b-43d9-87f4-8e07cec3ad6e","ios":"levelo://app?vid=9435038c-1b3b-43d9-87f4-8e07cec3ad6e"},"vehicle_type_id":"4","last_reported":1729811372,"current_range_meters":30000,"station_id":"ce4bhh12rcd13ifvqff0","pricing_plan_id":"cebpf4jnsgd1na2vs0mg"},{"bike_id":"cb5fc251-329c-4495-95a2-d60053cd30b3","system_id":"levelo_inurba_marseille","lat":43.25586,"lon":5.38226,"is_reserved":false,"is_disabled":false,"rental_uris":{"android":"levelo://app?vid=cb5fc251-329c-4495-95a2-d60053cd30b3","ios":"levelo://app?vid=cb5fc251-329c-4495-95a2-d60053cd30b3"},"vehicle_type_id":"4","last_reported":1729811372,"current_range_meters":38400,"station_id":"ce4bhih2rcd13ifvqfs0","pricing_plan_id":"cebpf4jnsgd1na2vs0mg"},{"bike_id":"797c7c2f-8e5b-4da8-a3dc-43bae184c07f","system_id":"levelo_inurba_marseille","lat":43.29004,"lon":5.35608,"is_reserved":false,"is_disabled":false,"rental_uris":{"android":"levelo://app?vid=797c7c2f-8e5b-4da8-a3dc-43bae184c07f","ios":"levelo://app?vid=797c7c2f-8e5b-4da8-a3dc-43bae184c07f"},"vehicle_type_id":"4","last_reported":1729811372,"current_range_meters":8000,"station_id":"ce4bhb92rcd13ifvqen0","pricing_plan_id":"cebpf4jnsgd1na2vs0mg"},{"bike_id":"be8fbca4-3dcd-4e0e-96d2-8c570f59713c","system_id":"levelo_inurba_marseille","lat":43.32485,"lon":5.36576,"is_reserved":false,"is_disabled":false,"rental_uris":{"android":"levelo://app?vid=be8fbca4-3dcd-4e0e-96d2-8c570f59713c","ios":"levelo://app?vid=be8fbca4-3dcd-4e0e-96d2-8c570f59713c"},"vehicle_type_id":"4","last_reported":1729811372,"current_range_meters":22800,"station_id":"ce4bhs12rcd13ifvqhvg","pricing_plan_id":"cebpf4jnsgd1na2vs0mg"},{"bike_id":"2c83906e-34b2-4de1-a842-6d257980343c","system_id":"levelo_inurba_marseille","lat":43.32338,"lon":5.38845,"is_reserved":false,"is_disabled":false,"rental_uris":{"android":"levelo://app?vid=2c83906e-34b2-4de1-a842-6d257980343c","ios":"levelo://app?vid=2c83906e-34b2-4de1-a842-6d257980343c"},"vehicle_type_id":"4","last_reported":1729811372,"current_range_meters":16400,"station_id":"ce4bhqp2rcd13ifvqhog","pricing_plan_id":"cebpf4jnsgd1na2vs0mg"},{"bike_id":"f6a0b76a-a003-4830-9be9-66274ad91ac1","system_id":"levelo_inurba_marseille","lat":43.28032,"lon":5.36948,"is_reserved":false,"is_disabled":false,"rental_uris":{"android":"levelo://app?vid=f6a0b76a-a003-4830-9be9-66274ad91ac1","ios":"levelo://app?vid=f6a0b76a-a003-4830-9be9-66274ad91ac1"},"vehicle_type_id":"4","last_reported":1729811372,"current_range_meters":39200,"station_id":"ce4bha12rcd13ifvqef0","pricing_plan_id":"cebpf4jnsgd1na2vs0mg"},{"bike_id":"0598bd07-3bee-4d92-93d6-6c1fccfbde94","system_id":"levelo_inurba_marseille","lat":43.287076,"lon":5.37394,"is_reserved":false,"is_disabled":false,"rental_uris":{"android":"levelo://app?vid=0598bd07-3bee-4d92-93d6-6c1fccfbde94","ios":"levelo://app?vid=0598bd07-3bee-4d92-93d6-6c1fccfbde94"},"vehicle_type_id":"4","last_reported":1729811372,"current_range_meters":33200,"station_id":"ce4bh3p2rcd13ifvqdq0","pricing_plan_id":"cebpf4jnsgd1na2vs0mg"},{"bike_id":"a41d3bb8-558d-4841-8839-04a68cf59693","system_id":"levelo_inurba_marseille","lat":43.29252,"lon":5.40913,"is_reserved":false,"is_disabled":false,"rental_uris":{"android":"levelo://app?vid=a41d3bb8-558d-4841-8839-04a68cf59693","ios":"levelo://app?vid=a41d3bb8-558d-4841-8839-04a68cf59693"},"vehicle_type_id":"4","last_reported":1729811372,"current_range_meters":27600,"station_id":"ce4bh192rcd13ifvqdc0","pricing_plan_id":"cebpf4jnsgd1na2vs0mg"},{"bike_id":"1b95b40c-622e-4262-aedf-502366ac096f","system_id":"levelo_inurba_marseille","lat":43.28423,"lon":5.37517,"is_reserved":false,"is_disabled":false,"rental_uris":{"android":"levelo://app?vid=1b95b40c-622e-4262-aedf-502366ac096f","ios":"levelo://app?vid=1b95b40c-622e-4262-aedf-502366ac096f"},"vehicle_type_id":"4","last_reported":1729811372,"current_range_meters":36000,"station_id":"ce4bh412rcd13ifvqds0","pricing_plan_id":"cebpf4jnsgd1na2vs0mg"},{"bike_id":"87ebe34b-a6a0-4a0e-8406-5523611e8f5f","system_id":"levelo_inurba_marseille","lat":43.2843,"lon":5.39198,"is_reserved":false,"is_disabled":false,"rental_uris":{"android":"levelo://app?vid=87ebe34b-a6a0-4a0e-8406-5523611e8f5f","ios":"levelo://app?vid=87ebe34b-a6a0-4a0e-8406-5523611e8f5f"},"vehicle_type_id":"4","last_reported":1729811372,"current_range_meters":39200,"station_id":"ce4bhoh2rcd13ifvqh5g","pricing_plan_id":"cebpf4jnsgd1na2vs0mg"},{"bike_id":"c3e18176-e81d-4aa1-8a56-868d9d37a194","system_id":"levelo_inurba_marseille","lat":43.31721,"lon":5.37753,"is_reserved":false,"is_disabled":false,"rental_uris":{"android":"levelo://app?vid=c3e18176-e81d-4aa1-8a56-868d9d37a194","ios":"levelo://app?vid=c3e18176-e81d-4aa1-8a56-868d9d37a194"},"vehicle_type_id":"4","last_reported":1729811372,"current_range_meters":38400,"station_id":"ce4bgth2rcd13ifvqch0","pricing_plan_id":"cebpf4jnsgd1na2vs0mg"},{"bike_id":"074bc2f0-eb25-4025-8a7a-f99d4dfce244","system_id":"levelo_inurba_marseille","lat":43.30806,"lon":5.43527,"is_reserved":false,"is_disabled":false,"rental_uris":{"android":"levelo://app?vid=074bc2f0-eb25-4025-8a7a-f99d4dfce244","ios":"levelo://app?vid=074bc2f0-eb25-4025-8a7a-f99d4dfce244"},"vehicle_type_id":"4","last_reported":1729811372,"current_range_meters":37600,"station_id":"ce4bhph2rcd13ifvqheg","pricing_plan_id":"cebpf4jnsgd1na2vs0mg"},{"bike_id":"70d78abf-97dd-4b84-9d48-1abe981bdd92","system_id":"levelo_inurba_marseille","lat":43.298734,"lon":5.397263,"is_reserved":false,"is_disabled":false,"rental_uris":{"android":"levelo://app?vid=70d78abf-97dd-4b84-9d48-1abe981bdd92","ios":"levelo://app?vid=70d78abf-97dd-4b84-9d48-1abe981bdd92"},"vehicle_type_id":"4","last_reported":1729811372,"current_range_meters":25600,"station_id":"ce4bh0h2rcd13ifvqd50","pricing_plan_id":"cebpf4jnsgd1na2vs0mg"},{"bike_id":"405ff4c5-9944-404b-b6ae-6ae137886c6a","system_id":"levelo_inurba_marseille","lat":43.313292,"lon":5.396936,"is_reserved":false,"is_disabled":false,"rental_uris":{"android":"levelo://app?vid=405ff4c5-9944-404b-b6ae-6ae137886c6a","ios":"levelo://app?vid=405ff4c5-9944-404b-b6ae-6ae137886c6a"},"vehicle_type_id":"4","last_reported":1729811372,"current_range_meters":38800,"station_id":"ce4bgvp2rcd13ifvqcu0","pricing_plan_id":"cebpf4jnsgd1na2vs0mg"},{"bike_id":"8c0b487c-158c-451f-aeab-0bba11a87c2d","system_id":"levelo_inurba_marseille","lat":43.26805,"lon":5.40266,"is_reserved":false,"is_disabled":false,"rental_uris":{"android":"levelo://app?vid=8c0b487c-158c-451f-aeab-0bba11a87c2d","ios":"levelo://app?vid=8c0b487c-158c-451f-aeab-0bba11a87c2d"},"vehicle_type_id":"4","last_reported":1729811372,"current_range_meters":6400,"station_id":"ce501612rcd8frsf0b60","pricing_plan_id":"cebpf4jnsgd1na2vs0mg"},{"bike_id":"a678a84f-0550-4240-b17d-5b7a54ed58a5","system_id":"levelo_inurba_marseille","lat":43.27814,"lon":5.40705,"is_reserved":false,"is_disabled":false,"rental_uris":{"android":"levelo://app?vid=a678a84f-0550-4240-b17d-5b7a54ed58a5","ios":"levelo://app?vid=a678a84f-0550-4240-b17d-5b7a54ed58a5"},"vehicle_type_id":"4","last_reported":1729811372,"current_range_meters":38400,"station_id":"ce4bhnh2rcd13ifvqgtg","pricing_plan_id":"cebpf4jnsgd1na2vs0mg"},{"bike_id":"4ee39c49-3a64-4f9c-8d35-b22eb8d0cf10","system_id":"levelo_inurba_marseille","lat":43.30244,"lon":5.4007,"is_reserved":false,"is_disabled":false,"rental_uris":{"android":"levelo://app?vid=4ee39c49-3a64-4f9c-8d35-b22eb8d0cf10","ios":"levelo://app?vid=4ee39c49-3a64-4f9c-8d35-b22eb8d0cf10"},"vehicle_type_id":"4","last_reported":1729811372,"current_range_meters":20800,"station_id":"ce4bgvh2rcd13ifvqcs0","pricing_plan_id":"cebpf4jnsgd1na2vs0mg"},{"bike_id":"1d0de681-5b1a-457f-a1ad-8e708b0a8c0f","system_id":"levelo_inurba_marseille","lat":43.29024,"lon":5.38148,"is_reserved":false,"is_disabled":false,"rental_uris":{"android":"levelo://app?vid=1d0de681-5b1a-457f-a1ad-8e708b0a8c0f","ios":"levelo://app?vid=1d0de681-5b1a-457f-a1ad-8e708b0a8c0f"},"vehicle_type_id":"4","last_reported":1729811372,"current_range_meters":36800,"station_id":"ce4bh4p2rcd13ifvqe1g","pricing_plan_id":"cebpf4jnsgd1na2vs0mg"},{"bike_id":"1e5ebc58-345c-4df7-a882-f10636133dc0","system_id":"levelo_inurba_marseille","lat":43.28699,"lon":5.37391,"is_reserved":false,"is_disabled":false,"rental_uris":{"android":"levelo://app?vid=1e5ebc58-345c-4df7-a882-f10636133dc0","ios":"levelo://app?vid=1e5ebc58-345c-4df7-a882-f10636133dc0"},"vehicle_type_id":"4","last_reported":1729811372,"current_range_meters":30000,"station_id":"ce4bh3p2rcd13ifvqdq0","pricing_plan_id":"cebpf4jnsgd1na2vs0mg"},{"bike_id":"08008794-bb04-48f0-9908-2654e5a03c29","system_id":"levelo_inurba_marseille","lat":43.28441,"lon":5.3919,"is_reserved":false,"is_disabled":false,"rental_uris":{"android":"levelo://app?vid=08008794-bb04-48f0-9908-2654e5a03c29","ios":"levelo://app?vid=08008794-bb04-48f0-9908-2654e5a03c29"},"vehicle_type_id":"4","last_reported":1729811372,"current_range_meters":9600,"station_id":"ce4bhoh2rcd13ifvqh5g","pricing_plan_id":"cebpf4jnsgd1na2vs0mg"},{"bike_id":"99de67a5-21b2-46bc-9c8e-59e22dacab68","system_id":"levelo_inurba_marseille","lat":43.2884,"lon":5.35852,"is_reserved":false,"is_disabled":false,"rental_uris":{"android":"levelo://app?vid=99de67a5-21b2-46bc-9c8e-59e22dacab68","ios":"levelo://app?vid=99de67a5-21b2-46bc-9c8e-59e22dacab68"},"vehicle_type_id":"4","last_reported":1729811372,"current_range_meters":34000,"station_id":"ce4bhb12rcd13ifvqem0","pricing_plan_id":"cebpf4jnsgd1na2vs0mg"},{"bike_id":"f8c6f1bc-ea44-4ab8-b33c-f75f82cb071b","system_id":"levelo_inurba_marseille","lat":43.23185,"lon":5.3999,"is_reserved":false,"is_disabled":false,"rental_uris":{"android":"levelo://app?vid=f8c6f1bc-ea44-4ab8-b33c-f75f82cb071b","ios":"levelo://app?vid=f8c6f1bc-ea44-4ab8-b33c-f75f82cb071b"},"vehicle_type_id":"4","last_reported":1729811372,"current_range_meters":4400,"station_id":"ce4bhn12rcd13ifvqgqg","pricing_plan_id":"cebpf4jnsgd1na2vs0mg"},{"bike_id":"595ce506-e3d9-498b-a270-6515326c960b","system_id":"levelo_inurba_marseille","lat":43.30924,"lon":5.40141,"is_reserved":false,"is_disabled":false,"rental_uris":{"android":"levelo://app?vid=595ce506-e3d9-498b-a270-6515326c960b","ios":"levelo://app?vid=595ce506-e3d9-498b-a270-6515326c960b"},"vehicle_type_id":"4","last_reported":1729811372,"current_range_meters":18800,"station_id":"ce4bgvp2rcd13ifvqct0","pricing_plan_id":"cebpf4jnsgd1na2vs0mg"},{"bike_id":"408d3e3e-a8df-4498-ab98-e0fb48f6a4d9","system_id":"levelo_inurba_marseille","lat":43.288494,"lon":5.393202,"is_reserved":false,"is_disabled":false,"rental_uris":{"android":"levelo://app?vid=408d3e3e-a8df-4498-ab98-e0fb48f6a4d9","ios":"levelo://app?vid=408d3e3e-a8df-4498-ab98-e0fb48f6a4d9"},"vehicle_type_id":"4","last_reported":1729811372,"current_range_meters":36000,"station_id":"ce4bh2p2rcd13ifvqdi0","pricing_plan_id":"cebpf4jnsgd1na2vs0mg"},{"bike_id":"35fb7e58-dcce-45e7-9860-5ca2757de52a","system_id":"levelo_inurba_marseille","lat":43.28001,"lon":5.40015,"is_reserved":false,"is_disabled":false,"rental_uris":{"android":"levelo://app?vid=35fb7e58-dcce-45e7-9860-5ca2757de52a","ios":"levelo://app?vid=35fb7e58-dcce-45e7-9860-5ca2757de52a"},"vehicle_type_id":"4","last_reported":1729811372,"current_range_meters":16800,"station_id":"ce4bho92rcd13ifvqh4g","pricing_plan_id":"cebpf4jnsgd1na2vs0mg"},{"bike_id":"9aea2205-03f9-47c9-890a-018da09be1d4","system_id":"levelo_inurba_marseille","lat":43.25865,"lon":5.39896,"is_reserved":false,"is_disabled":false,"rental_uris":{"android":"levelo://app?vid=9aea2205-03f9-47c9-890a-018da09be1d4","ios":"levelo://app?vid=9aea2205-03f9-47c9-890a-018da09be1d4"},"vehicle_type_id":"4","last_reported":1729811372,"current_range_meters":36000,"station_id":"ce4bhl92rcd13ifvqghg","pricing_plan_id":"cebpf4jnsgd1na2vs0mg"},{"bike_id":"c0980280-6ae3-4491-a0ae-8a60f645c403","system_id":"levelo_inurba_marseille","lat":43.26932,"lon":5.38921,"is_reserved":false,"is_disabled":false,"rental_uris":{"android":"levelo://app?vid=c0980280-6ae3-4491-a0ae-8a60f645c403","ios":"levelo://app?vid=c0980280-6ae3-4491-a0ae-8a60f645c403"},"vehicle_type_id":"4","last_reported":1729811372,"current_range_meters":36800,"station_id":"ce4bhhh2rcd13ifvqfl0","pricing_plan_id":"cebpf4jnsgd1na2vs0mg"},{"bike_id":"d2b1bdf2-4357-4fe1-9310-b780934b2159","system_id":"levelo_inurba_marseille","lat":43.32051,"lon":5.41569,"is_reserved":false,"is_disabled":false,"rental_uris":{"android":"levelo://app?vid=d2b1bdf2-4357-4fe1-9310-b780934b2159","ios":"levelo://app?vid=d2b1bdf2-4357-4fe1-9310-b780934b2159"},"vehicle_type_id":"4","last_reported":1729811372,"current_range_meters":38800,"station_id":"ce4bhq92rcd13ifvqhkg","pricing_plan_id":"cebpf4jnsgd1na2vs0mg"},{"bike_id":"d9d46ca5-b2b3-4214-a08d-f30101d778e5","system_id":"levelo_inurba_marseille","lat":43.28454,"lon":5.35881,"is_reserved":false,"is_disabled":false,"rental_uris":{"android":"levelo://app?vid=d9d46ca5-b2b3-4214-a08d-f30101d778e5","ios":"levelo://app?vid=d9d46ca5-b2b3-4214-a08d-f30101d778e5"},"vehicle_type_id":"4","last_reported":1729811372,"current_range_meters":36800,"station_id":"ce4bhah2rcd13ifvqei0","pricing_plan_id":"cebpf4jnsgd1na2vs0mg"},{"bike_id":"86b01cae-e8a8-4061-a15e-f28daeed7cfc","system_id":"levelo_inurba_marseille","lat":43.2792,"lon":5.39585,"is_reserved":false,"is_disabled":false,"rental_uris":{"android":"levelo://app?vid=86b01cae-e8a8-4061-a15e-f28daeed7cfc","ios":"levelo://app?vid=86b01cae-e8a8-4061-a15e-f28daeed7cfc"},"vehicle_type_id":"4","last_reported":1729811372,"current_range_meters":9200,"station_id":"ce4bhf92rcd13ifvqf40","pricing_plan_id":"cebpf4jnsgd1na2vs0mg"},{"bike_id":"4bbe91e4-c603-420a-ba46-ca24bd6e838d","system_id":"levelo_inurba_marseille","lat":43.246542,"lon":5.3816,"is_reserved":false,"is_disabled":false,"rental_uris":{"android":"levelo://app?vid=4bbe91e4-c603-420a-ba46-ca24bd6e838d","ios":"levelo://app?vid=4bbe91e4-c603-420a-ba46-ca24bd6e838d"},"vehicle_type_id":"4","last_reported":1729811372,"current_range_meters":16400,"station_id":"ce4bhih2rcd13ifvqfr0","pricing_plan_id":"cebpf4jnsgd1na2vs0mg"},{"bike_id":"33ff888b-ebfb-4699-b7c9-3a0651441dbd","system_id":"levelo_inurba_marseille","lat":43.28002,"lon":5.40005,"is_reserved":false,"is_disabled":false,"rental_uris":{"android":"levelo://app?vid=33ff888b-ebfb-4699-b7c9-3a0651441dbd","ios":"levelo://app?vid=33ff888b-ebfb-4699-b7c9-3a0651441dbd"},"vehicle_type_id":"4","last_reported":1729811372,"current_range_meters":27600,"station_id":"ce4bho92rcd13ifvqh4g","pricing_plan_id":"cebpf4jnsgd1na2vs0mg"},{"bike_id":"4468208d-a0a9-4302-976f-4b7d3cc8f418","system_id":"levelo_inurba_marseille","lat":43.262056,"lon":5.379244,"is_reserved":false,"is_disabled":false,"rental_uris":{"android":"levelo://app?vid=4468208d-a0a9-4302-976f-4b7d3cc8f418","ios":"levelo://app?vid=4468208d-a0a9-4302-976f-4b7d3cc8f418"},"vehicle_type_id":"4","last_reported":1729811372,"current_range_meters":37600,"station_id":"ce4bhjp2rcd13ifvqg90","pricing_plan_id":"cebpf4jnsgd1na2vs0mg"},{"bike_id":"c25a6afb-084b-4ca5-9e46-023b0837e2ed","system_id":"levelo_inurba_marseille","lat":43.29191,"lon":5.3581,"is_reserved":false,"is_disabled":false,"rental_uris":{"android":"levelo://app?vid=c25a6afb-084b-4ca5-9e46-023b0837e2ed","ios":"levelo://app?vid=c25a6afb-084b-4ca5-9e46-023b0837e2ed"},"vehicle_type_id":"4","last_reported":1729811372,"current_range_meters":24400,"station_id":"ce4bhb12rcd13ifvqel0","pricing_plan_id":"cebpf4jnsgd1na2vs0mg"},{"bike_id":"367fb46e-8d93-4857-a984-b6dd337182aa","system_id":"levelo_inurba_marseille","lat":43.30949,"lon":5.39042,"is_reserved":false,"is_disabled":false,"rental_uris":{"android":"levelo://app?vid=367fb46e-8d93-4857-a984-b6dd337182aa","ios":"levelo://app?vid=367fb46e-8d93-4857-a984-b6dd337182aa"},"vehicle_type_id":"4","last_reported":1729811372,"current_range_meters":16000,"station_id":"ce4bgup2rcd13ifvqco0","pricing_plan_id":"cebpf4jnsgd1na2vs0mg"},{"bike_id":"2e343e52-b2cb-4afc-8921-430bab7d5384","system_id":"levelo_inurba_marseille","lat":43.33026,"lon":5.39038,"is_reserved":false,"is_disabled":false,"rental_uris":{"android":"levelo://app?vid=2e343e52-b2cb-4afc-8921-430bab7d5384","ios":"levelo://app?vid=2e343e52-b2cb-4afc-8921-430bab7d5384"},"vehicle_type_id":"4","last_reported":1729811372,"current_range_meters":26800,"station_id":"ce4bhr92rcd13ifvqhrg","pricing_plan_id":"cebpf4jnsgd1na2vs0mg"},{"bike_id":"597dbb75-6b2b-40db-95c1-d3901d45e50c","system_id":"levelo_inurba_marseille","lat":43.29679,"lon":5.37301,"is_reserved":false,"is_disabled":false,"rental_uris":{"android":"levelo://app?vid=597dbb75-6b2b-40db-95c1-d3901d45e50c","ios":"levelo://app?vid=597dbb75-6b2b-40db-95c1-d3901d45e50c"},"vehicle_type_id":"4","last_reported":1729811372,"current_range_meters":38400,"station_id":"ce4bgk12rcd13ifvqbj0","pricing_plan_id":"cebpf4jnsgd1na2vs0mg"},{"bike_id":"7a954890-7c08-4b24-9544-a93ea50374ab","system_id":"levelo_inurba_marseille","lat":43.284373,"lon":5.39182,"is_reserved":false,"is_disabled":false,"rental_uris":{"android":"levelo://app?vid=7a954890-7c08-4b24-9544-a93ea50374ab","ios":"levelo://app?vid=7a954890-7c08-4b24-9544-a93ea50374ab"},"vehicle_type_id":"4","last_reported":1729811372,"current_range_meters":38000,"station_id":"ce4bhoh2rcd13ifvqh5g","pricing_plan_id":"cebpf4jnsgd1na2vs0mg"},{"bike_id":"532c4b6c-0ae8-49b8-92c5-b66ec2575810","system_id":"levelo_inurba_marseille","lat":43.2558,"lon":5.38244,"is_reserved":false,"is_disabled":false,"rental_uris":{"android":"levelo://app?vid=532c4b6c-0ae8-49b8-92c5-b66ec2575810","ios":"levelo://app?vid=532c4b6c-0ae8-49b8-92c5-b66ec2575810"},"vehicle_type_id":"4","last_reported":1729811372,"current_range_meters":16400,"station_id":"ce4bhih2rcd13ifvqfs0","pricing_plan_id":"cebpf4jnsgd1na2vs0mg"},{"bike_id":"0f3449bb-3bd0-4cfd-88af-5d53ec3e0714","system_id":"levelo_inurba_marseille","lat":43.3132,"lon":5.39711,"is_reserved":false,"is_disabled":false,"rental_uris":{"android":"levelo://app?vid=0f3449bb-3bd0-4cfd-88af-5d53ec3e0714","ios":"levelo://app?vid=0f3449bb-3bd0-4cfd-88af-5d53ec3e0714"},"vehicle_type_id":"4","last_reported":1729811372,"current_range_meters":38800,"station_id":"ce4bgvp2rcd13ifvqcu0","pricing_plan_id":"cebpf4jnsgd1na2vs0mg"},{"bike_id":"4d4a7de4-b295-4ae6-a548-4081541b3c73","system_id":"levelo_inurba_marseille","lat":43.28491,"lon":5.38588,"is_reserved":false,"is_disabled":false,"rental_uris":{"android":"levelo://app?vid=4d4a7de4-b295-4ae6-a548-4081541b3c73","ios":"levelo://app?vid=4d4a7de4-b295-4ae6-a548-4081541b3c73"},"vehicle_type_id":"4","last_reported":1729811372,"current_range_meters":38800,"station_id":"ce4bh8p2rcd13ifvqeb0","pricing_plan_id":"cebpf4jnsgd1na2vs0mg"},{"bike_id":"3a8e17df-a126-4ff8-a519-63a4eb144ab4","system_id":"levelo_inurba_marseille","lat":43.31279,"lon":5.40168,"is_reserved":false,"is_disabled":false,"rental_uris":{"android":"levelo://app?vid=3a8e17df-a126-4ff8-a519-63a4eb144ab4","ios":"levelo://app?vid=3a8e17df-a126-4ff8-a519-63a4eb144ab4"},"vehicle_type_id":"4","last_reported":1729811372,"current_range_meters":15200,"station_id":"ce4bh092rcd13ifvqd30","pricing_plan_id":"cebpf4jnsgd1na2vs0mg"},{"bike_id":"272e819b-db19-4571-879f-b4d908cbfc64","system_id":"levelo_inurba_marseille","lat":43.28908,"lon":5.36101,"is_reserved":false,"is_disabled":false,"rental_uris":{"android":"levelo://app?vid=272e819b-db19-4571-879f-b4d908cbfc64","ios":"levelo://app?vid=272e819b-db19-4571-879f-b4d908cbfc64"},"vehicle_type_id":"4","last_reported":1729811372,"current_range_meters":20800,"station_id":"","pricing_plan_id":"cebpf4jnsgd1na2vs0mg"},{"bike_id":"dda10266-8510-44af-990b-393e41f71b13","system_id":"levelo_inurba_marseille","lat":43.28471,"lon":5.38566,"is_reserved":false,"is_disabled":false,"rental_uris":{"android":"levelo://app?vid=dda10266-8510-44af-990b-393e41f71b13","ios":"levelo://app?vid=dda10266-8510-44af-990b-393e41f71b13"},"vehicle_type_id":"4","last_reported":1729811372,"current_range_meters":36000,"station_id":"ce4bh8p2rcd13ifvqeb0","pricing_plan_id":"cebpf4jnsgd1na2vs0mg"},{"bike_id":"d2964dcf-2ca0-4e8f-ad12-68f06243f6c8","system_id":"levelo_inurba_marseille","lat":43.29005,"lon":5.35612,"is_reserved":false,"is_disabled":false,"rental_uris":{"android":"levelo://app?vid=d2964dcf-2ca0-4e8f-ad12-68f06243f6c8","ios":"levelo://app?vid=d2964dcf-2ca0-4e8f-ad12-68f06243f6c8"},"vehicle_type_id":"4","last_reported":1729811372,"current_range_meters":3200,"station_id":"ce4bhb92rcd13ifvqen0","pricing_plan_id":"cebpf4jnsgd1na2vs0mg"},{"bike_id":"856d115a-8f1b-4d78-a4f5-e6563030d0a3","system_id":"levelo_inurba_marseille","lat":43.23965,"lon":5.36625,"is_reserved":false,"is_disabled":false,"rental_uris":{"android":"levelo://app?vid=856d115a-8f1b-4d78-a4f5-e6563030d0a3","ios":"levelo://app?vid=856d115a-8f1b-4d78-a4f5-e6563030d0a3"},"vehicle_type_id":"4","last_reported":1729811372,"current_range_meters":36400,"station_id":"ce4bhi12rcd13ifvqfp0","pricing_plan_id":"cebpf4jnsgd1na2vs0mg"},{"bike_id":"f5320a39-d764-4ea2-b92f-2e33b9a08e50","system_id":"levelo_inurba_marseille","lat":43.30351,"lon":5.4187,"is_reserved":false,"is_disabled":false,"rental_uris":{"android":"levelo://app?vid=f5320a39-d764-4ea2-b92f-2e33b9a08e50","ios":"levelo://app?vid=f5320a39-d764-4ea2-b92f-2e33b9a08e50"},"vehicle_type_id":"4","last_reported":1729811372,"current_range_meters":37600,"station_id":"ce4bhop2rcd13ifvqh7g","pricing_plan_id":"cebpf4jnsgd1na2vs0mg"},{"bike_id":"97ec9672-eea4-4d9a-8a25-013f09b65b94","system_id":"levelo_inurba_marseille","lat":43.25581,"lon":5.38238,"is_reserved":false,"is_disabled":false,"rental_uris":{"android":"levelo://app?vid=97ec9672-eea4-4d9a-8a25-013f09b65b94","ios":"levelo://app?vid=97ec9672-eea4-4d9a-8a25-013f09b65b94"},"vehicle_type_id":"4","last_reported":1729811372,"current_range_meters":5600,"station_id":"ce4bhih2rcd13ifvqfs0","pricing_plan_id":"cebpf4jnsgd1na2vs0mg"},{"bike_id":"1c94711f-6e8d-4080-84e2-4aabc2656ca2","system_id":"levelo_inurba_marseille","lat":43.31339,"lon":5.39698,"is_reserved":false,"is_disabled":false,"rental_uris":{"android":"levelo://app?vid=1c94711f-6e8d-4080-84e2-4aabc2656ca2","ios":"levelo://app?vid=1c94711f-6e8d-4080-84e2-4aabc2656ca2"},"vehicle_type_id":"4","last_reported":1729811372,"current_range_meters":38800,"station_id":"ce4bgvp2rcd13ifvqcu0","pricing_plan_id":"cebpf4jnsgd1na2vs0mg"},{"bike_id":"bebd8251-2a0e-424a-a2c9-94c8dedde414","system_id":"levelo_inurba_marseille","lat":43.28442,"lon":5.39193,"is_reserved":false,"is_disabled":false,"rental_uris":{"android":"levelo://app?vid=bebd8251-2a0e-424a-a2c9-94c8dedde414","ios":"levelo://app?vid=bebd8251-2a0e-424a-a2c9-94c8dedde414"},"vehicle_type_id":"4","last_reported":1729811372,"current_range_meters":26800,"station_id":"ce4bhoh2rcd13ifvqh5g","pricing_plan_id":"cebpf4jnsgd1na2vs0mg"},{"bike_id":"945febbc-a04e-4982-9383-430e55848664","system_id":"levelo_inurba_marseille","lat":43.28704,"lon":5.39979,"is_reserved":false,"is_disabled":false,"rental_uris":{"android":"levelo://app?vid=945febbc-a04e-4982-9383-430e55848664","ios":"levelo://app?vid=945febbc-a04e-4982-9383-430e55848664"},"vehicle_type_id":"4","last_reported":1729811372,"current_range_meters":37600,"station_id":"ce4bho92rcd13ifvqh3g","pricing_plan_id":"cebpf4jnsgd1na2vs0mg"},{"bike_id":"4cd3f731-1c37-4c35-b840-f05d2119514b","system_id":"levelo_inurba_marseille","lat":43.31169,"lon":5.38725,"is_reserved":false,"is_disabled":false,"rental_uris":{"android":"levelo://app?vid=4cd3f731-1c37-4c35-b840-f05d2119514b","ios":"levelo://app?vid=4cd3f731-1c37-4c35-b840-f05d2119514b"},"vehicle_type_id":"4","last_reported":1729811372,"current_range_meters":20800,"station_id":"ce4bgv12rcd13ifvqcp0","pricing_plan_id":"cebpf4jnsgd1na2vs0mg"},{"bike_id":"07a4dd6a-7a9b-4c2e-af37-7bc6a487b496","system_id":"levelo_inurba_marseille","lat":43.31116,"lon":5.37765,"is_reserved":false,"is_disabled":false,"rental_uris":{"android":"levelo://app?vid=07a4dd6a-7a9b-4c2e-af37-7bc6a487b496","ios":"levelo://app?vid=07a4dd6a-7a9b-4c2e-af37-7bc6a487b496"},"vehicle_type_id":"4","last_reported":1729811372,"current_range_meters":28000,"station_id":"ce4bgt92rcd13ifvqcg0","pricing_plan_id":"cebpf4jnsgd1na2vs0mg"},{"bike_id":"f4f27ae7-654d-4104-aa73-961e6f0fd821","system_id":"levelo_inurba_marseille","lat":43.29259,"lon":5.40901,"is_reserved":false,"is_disabled":false,"rental_uris":{"android":"levelo://app?vid=f4f27ae7-654d-4104-aa73-961e6f0fd821","ios":"levelo://app?vid=f4f27ae7-654d-4104-aa73-961e6f0fd821"},"vehicle_type_id":"4","last_reported":1729811372,"current_range_meters":21600,"station_id":"ce4bh192rcd13ifvqdc0","pricing_plan_id":"cebpf4jnsgd1na2vs0mg"},{"bike_id":"c3935a53-e28c-4337-bded-a6e390322821","system_id":"levelo_inurba_marseille","lat":43.23189,"lon":5.39991,"is_reserved":false,"is_disabled":false,"rental_uris":{"android":"levelo://app?vid=c3935a53-e28c-4337-bded-a6e390322821","ios":"levelo://app?vid=c3935a53-e28c-4337-bded-a6e390322821"},"vehicle_type_id":"4","last_reported":1729811372,"current_range_meters":0,"station_id":"ce4bhn12rcd13ifvqgqg","pricing_plan_id":"cebpf4jnsgd1na2vs0mg"},{"bike_id":"b9351473-5066-4cf3-b0f2-ed32d5beba7b","system_id":"levelo_inurba_marseille","lat":43.2884,"lon":5.39327,"is_reserved":false,"is_disabled":false,"rental_uris":{"android":"levelo://app?vid=b9351473-5066-4cf3-b0f2-ed32d5beba7b","ios":"levelo://app?vid=b9351473-5066-4cf3-b0f2-ed32d5beba7b"},"vehicle_type_id":"4","last_reported":1729811372,"current_range_meters":30800,"station_id":"ce4bh2p2rcd13ifvqdi0","pricing_plan_id":"cebpf4jnsgd1na2vs0mg"},{"bike_id":"225915a2-c8fc-42aa-80b6-e05c1550c0ed","system_id":"levelo_inurba_marseille","lat":43.2512,"lon":5.40316,"is_reserved":false,"is_disabled":false,"rental_uris":{"android":"levelo://app?vid=225915a2-c8fc-42aa-80b6-e05c1550c0ed","ios":"levelo://app?vid=225915a2-c8fc-42aa-80b6-e05c1550c0ed"},"vehicle_type_id":"4","last_reported":1729811372,"current_range_meters":9600,"station_id":"ce4bhlh2rcd13ifvqgig","pricing_plan_id":"cebpf4jnsgd1na2vs0mg"},{"bike_id":"9c980766-3696-42be-8e1a-d22fb6edb5c5","system_id":"levelo_inurba_marseille","lat":43.306545,"lon":5.38174,"is_reserved":false,"is_disabled":false,"rental_uris":{"android":"levelo://app?vid=9c980766-3696-42be-8e1a-d22fb6edb5c5","ios":"levelo://app?vid=9c980766-3696-42be-8e1a-d22fb6edb5c5"},"vehicle_type_id":"4","last_reported":1729811372,"current_range_meters":26800,"station_id":"","pricing_plan_id":"cebpf4jnsgd1na2vs0mg"},{"bike_id":"2ec6d2db-c2fd-4b8e-97e9-3f95f3d71e2f","system_id":"levelo_inurba_marseille","lat":43.26936,"lon":5.40245,"is_reserved":false,"is_disabled":false,"rental_uris":{"android":"levelo://app?vid=2ec6d2db-c2fd-4b8e-97e9-3f95f3d71e2f","ios":"levelo://app?vid=2ec6d2db-c2fd-4b8e-97e9-3f95f3d71e2f"},"vehicle_type_id":"4","last_reported":1729811372,"current_range_meters":19200,"station_id":"cjm6bp8fraef2m0cb0m0","pricing_plan_id":"cebpf4jnsgd1na2vs0mg"},{"bike_id":"6fd4971a-db3f-4826-9ddf-71b29c3b9231","system_id":"levelo_inurba_marseille","lat":43.27818,"lon":5.4071,"is_reserved":false,"is_disabled":false,"rental_uris":{"android":"levelo://app?vid=6fd4971a-db3f-4826-9ddf-71b29c3b9231","ios":"levelo://app?vid=6fd4971a-db3f-4826-9ddf-71b29c3b9231"},"vehicle_type_id":"4","last_reported":1729811372,"current_range_meters":17600,"station_id":"ce4bhnh2rcd13ifvqgtg","pricing_plan_id":"cebpf4jnsgd1na2vs0mg"},{"bike_id":"f9ec36ed-f1e8-4d39-a330-d53d339322cc","system_id":"levelo_inurba_marseille","lat":43.24943,"lon":5.39742,"is_reserved":false,"is_disabled":false,"rental_uris":{"android":"levelo://app?vid=f9ec36ed-f1e8-4d39-a330-d53d339322cc","ios":"levelo://app?vid=f9ec36ed-f1e8-4d39-a330-d53d339322cc"},"vehicle_type_id":"4","last_reported":1729811372,"current_range_meters":19600,"station_id":"","pricing_plan_id":"cebpf4jnsgd1na2vs0mg"},{"bike_id":"52f0e4a5-d535-4f96-b297-18be6815ac33","system_id":"levelo_inurba_marseille","lat":43.337253,"lon":5.391859,"is_reserved":false,"is_disabled":false,"rental_uris":{"android":"levelo://app?vid=52f0e4a5-d535-4f96-b297-18be6815ac33","ios":"levelo://app?vid=52f0e4a5-d535-4f96-b297-18be6815ac33"},"vehicle_type_id":"4","last_reported":1729811372,"current_range_meters":38800,"station_id":"ce4bhr92rcd13ifvqhsg","pricing_plan_id":"cebpf4jnsgd1na2vs0mg"},{"bike_id":"754334dc-7c77-42cd-ae7c-2bd7ea4eeedc","system_id":"levelo_inurba_marseille","lat":43.25089,"lon":5.39516,"is_reserved":false,"is_disabled":false,"rental_uris":{"android":"levelo://app?vid=754334dc-7c77-42cd-ae7c-2bd7ea4eeedc","ios":"levelo://app?vid=754334dc-7c77-42cd-ae7c-2bd7ea4eeedc"},"vehicle_type_id":"4","last_reported":1729811372,"current_range_meters":32000,"station_id":"ce4bhm12rcd13ifvqgkg","pricing_plan_id":"cebpf4jnsgd1na2vs0mg"},{"bike_id":"ddc9d34a-3a18-4656-afac-2c40e00335c6","system_id":"levelo_inurba_marseille","lat":43.26491,"lon":5.39549,"is_reserved":false,"is_disabled":false,"rental_uris":{"android":"levelo://app?vid=ddc9d34a-3a18-4656-afac-2c40e00335c6","ios":"levelo://app?vid=ddc9d34a-3a18-4656-afac-2c40e00335c6"},"vehicle_type_id":"4","last_reported":1729811372,"current_range_meters":10000,"station_id":"ce4bhi12rcd13ifvqfq0","pricing_plan_id":"cebpf4jnsgd1na2vs0mg"},{"bike_id":"75821cfc-60d2-4650-a80a-1e7714262e8c","system_id":"levelo_inurba_marseille","lat":43.24666,"lon":5.38158,"is_reserved":false,"is_disabled":false,"rental_uris":{"android":"levelo://app?vid=75821cfc-60d2-4650-a80a-1e7714262e8c","ios":"levelo://app?vid=75821cfc-60d2-4650-a80a-1e7714262e8c"},"vehicle_type_id":"4","last_reported":1729811372,"current_range_meters":27200,"station_id":"ce4bhih2rcd13ifvqfr0","pricing_plan_id":"cebpf4jnsgd1na2vs0mg"},{"bike_id":"f1e37fcb-e533-421b-97c0-327054c59091","system_id":"levelo_inurba_marseille","lat":43.3026,"lon":5.40083,"is_reserved":false,"is_disabled":false,"rental_uris":{"android":"levelo://app?vid=f1e37fcb-e533-421b-97c0-327054c59091","ios":"levelo://app?vid=f1e37fcb-e533-421b-97c0-327054c59091"},"vehicle_type_id":"4","last_reported":1729811372,"current_range_meters":20400,"station_id":"ce4bgvh2rcd13ifvqcs0","pricing_plan_id":"cebpf4jnsgd1na2vs0mg"},{"bike_id":"b61630d4-f3db-41f1-b3da-75767a8633f7","system_id":"levelo_inurba_marseille","lat":43.32286,"lon":5.38272,"is_reserved":false,"is_disabled":false,"rental_uris":{"android":"levelo://app?vid=b61630d4-f3db-41f1-b3da-75767a8633f7","ios":"levelo://app?vid=b61630d4-f3db-41f1-b3da-75767a8633f7"},"vehicle_type_id":"4","last_reported":1729811372,"current_range_meters":38800,"station_id":"ce4bhr12rcd13ifvqhqg","pricing_plan_id":"cebpf4jnsgd1na2vs0mg"},{"bike_id":"36e763ca-6edc-4e4f-84a0-57df9689e7a9","system_id":"levelo_inurba_marseille","lat":43.28706,"lon":5.39981,"is_reserved":false,"is_disabled":false,"rental_uris":{"android":"levelo://app?vid=36e763ca-6edc-4e4f-84a0-57df9689e7a9","ios":"levelo://app?vid=36e763ca-6edc-4e4f-84a0-57df9689e7a9"},"vehicle_type_id":"4","last_reported":1729811372,"current_range_meters":6800,"station_id":"ce4bho92rcd13ifvqh3g","pricing_plan_id":"cebpf4jnsgd1na2vs0mg"},{"bike_id":"9547fe9f-7da9-478b-9033-f446ea71bb69","system_id":"levelo_inurba_marseille","lat":43.31078,"lon":5.42432,"is_reserved":false,"is_disabled":false,"rental_uris":{"android":"levelo://app?vid=9547fe9f-7da9-478b-9033-f446ea71bb69","ios":"levelo://app?vid=9547fe9f-7da9-478b-9033-f446ea71bb69"},"vehicle_type_id":"4","last_reported":1729811372,"current_range_meters":38800,"station_id":"ce4bhp92rcd13ifvqhag","pricing_plan_id":"cebpf4jnsgd1na2vs0mg"},{"bike_id":"99bb2094-88fa-42cc-a5cf-b8426df07a9f","system_id":"levelo_inurba_marseille","lat":43.28459,"lon":5.35886,"is_reserved":false,"is_disabled":false,"rental_uris":{"android":"levelo://app?vid=99bb2094-88fa-42cc-a5cf-b8426df07a9f","ios":"levelo://app?vid=99bb2094-88fa-42cc-a5cf-b8426df07a9f"},"vehicle_type_id":"4","last_reported":1729811372,"current_range_meters":15200,"station_id":"ce4bhah2rcd13ifvqei0","pricing_plan_id":"cebpf4jnsgd1na2vs0mg"},{"bike_id":"0de09ea7-d428-4e7c-8971-f54aa3edc19b","system_id":"levelo_inurba_marseille","lat":43.298768,"lon":5.397316,"is_reserved":false,"is_disabled":false,"rental_uris":{"android":"levelo://app?vid=0de09ea7-d428-4e7c-8971-f54aa3edc19b","ios":"levelo://app?vid=0de09ea7-d428-4e7c-8971-f54aa3edc19b"},"vehicle_type_id":"4","last_reported":1729811372,"current_range_meters":38800,"station_id":"ce4bh0h2rcd13ifvqd50","pricing_plan_id":"cebpf4jnsgd1na2vs0mg"},{"bike_id":"221e5552-19db-448a-a918-2b8bb19e6034","system_id":"levelo_inurba_marseille","lat":43.27184,"lon":5.40995,"is_reserved":false,"is_disabled":false,"rental_uris":{"android":"levelo://app?vid=221e5552-19db-448a-a918-2b8bb19e6034","ios":"levelo://app?vid=221e5552-19db-448a-a918-2b8bb19e6034"},"vehicle_type_id":"4","last_reported":1729811372,"current_range_meters":24000,"station_id":"ce4bhl12rcd13ifvqgf0","pricing_plan_id":"cebpf4jnsgd1na2vs0mg"},{"bike_id":"feda9bc1-b886-4640-ad92-201ddc16513e","system_id":"levelo_inurba_marseille","lat":43.32297,"lon":5.38274,"is_reserved":false,"is_disabled":false,"rental_uris":{"android":"levelo://app?vid=feda9bc1-b886-4640-ad92-201ddc16513e","ios":"levelo://app?vid=feda9bc1-b886-4640-ad92-201ddc16513e"},"vehicle_type_id":"4","last_reported":1729811372,"current_range_meters":38800,"station_id":"ce4bhr12rcd13ifvqhqg","pricing_plan_id":"cebpf4jnsgd1na2vs0mg"},{"bike_id":"c722abe9-de6f-465f-bba4-4b3bc8fd284c","system_id":"levelo_inurba_marseille","lat":43.292,"lon":5.39348,"is_reserved":false,"is_disabled":false,"rental_uris":{"android":"levelo://app?vid=c722abe9-de6f-465f-bba4-4b3bc8fd284c","ios":"levelo://app?vid=c722abe9-de6f-465f-bba4-4b3bc8fd284c"},"vehicle_type_id":"4","last_reported":1729811372,"current_range_meters":37600,"station_id":"ce4bh192rcd13ifvqdd0","pricing_plan_id":"cebpf4jnsgd1na2vs0mg"},{"bike_id":"519cb06f-1ed5-4586-8a5c-744c25fd3fc6","system_id":"levelo_inurba_marseille","lat":43.26574,"lon":5.39022,"is_reserved":false,"is_disabled":false,"rental_uris":{"android":"levelo://app?vid=519cb06f-1ed5-4586-8a5c-744c25fd3fc6","ios":"levelo://app?vid=519cb06f-1ed5-4586-8a5c-744c25fd3fc6"},"vehicle_type_id":"4","last_reported":1729811372,"current_range_meters":4400,"station_id":"ce4bhe12rcd13ifvqf30","pricing_plan_id":"cebpf4jnsgd1na2vs0mg"},{"bike_id":"efe0b02e-9dcd-4192-8f41-25a0bf494636","system_id":"levelo_inurba_marseille","lat":43.32488,"lon":5.36575,"is_reserved":false,"is_disabled":false,"rental_uris":{"android":"levelo://app?vid=efe0b02e-9dcd-4192-8f41-25a0bf494636","ios":"levelo://app?vid=efe0b02e-9dcd-4192-8f41-25a0bf494636"},"vehicle_type_id":"4","last_reported":1729811372,"current_range_meters":6800,"station_id":"ce4bhs12rcd13ifvqhvg","pricing_plan_id":"cebpf4jnsgd1na2vs0mg"},{"bike_id":"23fb4691-645c-46c3-83cf-1c54445797c5","system_id":"levelo_inurba_marseille","lat":43.27192,"lon":5.40987,"is_reserved":false,"is_disabled":false,"rental_uris":{"android":"levelo://app?vid=23fb4691-645c-46c3-83cf-1c54445797c5","ios":"levelo://app?vid=23fb4691-645c-46c3-83cf-1c54445797c5"},"vehicle_type_id":"4","last_reported":1729811372,"current_range_meters":31200,"station_id":"ce4bhl12rcd13ifvqgf0","pricing_plan_id":"cebpf4jnsgd1na2vs0mg"},{"bike_id":"212337c5-c27c-4ce8-a37e-735a2e6c27ae","system_id":"levelo_inurba_marseille","lat":43.31711,"lon":5.37751,"is_reserved":false,"is_disabled":false,"rental_uris":{"android":"levelo://app?vid=212337c5-c27c-4ce8-a37e-735a2e6c27ae","ios":"levelo://app?vid=212337c5-c27c-4ce8-a37e-735a2e6c27ae"},"vehicle_type_id":"4","last_reported":1729811372,"current_range_meters":39200,"station_id":"ce4bgth2rcd13ifvqch0","pricing_plan_id":"cebpf4jnsgd1na2vs0mg"},{"bike_id":"69b9109b-cc32-41c9-b636-a90207b81c95","system_id":"levelo_inurba_marseille","lat":43.25117,"lon":5.40321,"is_reserved":false,"is_disabled":false,"rental_uris":{"android":"levelo://app?vid=69b9109b-cc32-41c9-b636-a90207b81c95","ios":"levelo://app?vid=69b9109b-cc32-41c9-b636-a90207b81c95"},"vehicle_type_id":"4","last_reported":1729811372,"current_range_meters":28400,"station_id":"ce4bhlh2rcd13ifvqgig","pricing_plan_id":"cebpf4jnsgd1na2vs0mg"},{"bike_id":"1cbe9e54-af71-4be0-a002-74e920d22a24","system_id":"levelo_inurba_marseille","lat":43.30955,"lon":5.39033,"is_reserved":false,"is_disabled":false,"rental_uris":{"android":"levelo://app?vid=1cbe9e54-af71-4be0-a002-74e920d22a24","ios":"levelo://app?vid=1cbe9e54-af71-4be0-a002-74e920d22a24"},"vehicle_type_id":"4","last_reported":1729811372,"current_range_meters":32800,"station_id":"","pricing_plan_id":"cebpf4jnsgd1na2vs0mg"},{"bike_id":"7a86b841-3807-4574-ba92-5397b4d1c9ad","system_id":"levelo_inurba_marseille","lat":43.307976,"lon":5.381528,"is_reserved":false,"is_disabled":false,"rental_uris":{"android":"levelo://app?vid=7a86b841-3807-4574-ba92-5397b4d1c9ad","ios":"levelo://app?vid=7a86b841-3807-4574-ba92-5397b4d1c9ad"},"vehicle_type_id":"4","last_reported":1729811372,"current_range_meters":26000,"station_id":"ce4bgt12rcd13ifvqce0","pricing_plan_id":"cebpf4jnsgd1na2vs0mg"},{"bike_id":"37ebf97c-2882-43e4-b0c4-f01c0ca24482","system_id":"levelo_inurba_marseille","lat":43.25115,"lon":5.40316,"is_reserved":false,"is_disabled":false,"rental_uris":{"android":"levelo://app?vid=37ebf97c-2882-43e4-b0c4-f01c0ca24482","ios":"levelo://app?vid=37ebf97c-2882-43e4-b0c4-f01c0ca24482"},"vehicle_type_id":"4","last_reported":1729811372,"current_range_meters":32800,"station_id":"ce4bhlh2rcd13ifvqgig","pricing_plan_id":"cebpf4jnsgd1na2vs0mg"},{"bike_id":"eee100c6-579c-4b41-8c15-475f6bad8396","system_id":"levelo_inurba_marseille","lat":43.29891,"lon":5.39742,"is_reserved":false,"is_disabled":false,"rental_uris":{"android":"levelo://app?vid=eee100c6-579c-4b41-8c15-475f6bad8396","ios":"levelo://app?vid=eee100c6-579c-4b41-8c15-475f6bad8396"},"vehicle_type_id":"4","last_reported":1729811372,"current_range_meters":36400,"station_id":"ce4bh0h2rcd13ifvqd50","pricing_plan_id":"cebpf4jnsgd1na2vs0mg"},{"bike_id":"078bd3a0-489e-4561-bee2-cbf342061d33","system_id":"levelo_inurba_marseille","lat":43.28706,"lon":5.39989,"is_reserved":false,"is_disabled":false,"rental_uris":{"android":"levelo://app?vid=078bd3a0-489e-4561-bee2-cbf342061d33","ios":"levelo://app?vid=078bd3a0-489e-4561-bee2-cbf342061d33"},"vehicle_type_id":"4","last_reported":1729811372,"current_range_meters":33600,"station_id":"ce4bho92rcd13ifvqh3g","pricing_plan_id":"cebpf4jnsgd1na2vs0mg"},{"bike_id":"924fcd39-f493-460f-8a6d-fe5ac0eb02ca","system_id":"levelo_inurba_marseille","lat":43.28108,"lon":5.3784,"is_reserved":false,"is_disabled":false,"rental_uris":{"android":"levelo://app?vid=924fcd39-f493-460f-8a6d-fe5ac0eb02ca","ios":"levelo://app?vid=924fcd39-f493-460f-8a6d-fe5ac0eb02ca"},"vehicle_type_id":"4","last_reported":1729811372,"current_range_meters":38800,"station_id":"ce4bha12rcd13ifvqee0","pricing_plan_id":"cebpf4jnsgd1na2vs0mg"},{"bike_id":"81404ece-e1af-40c0-996c-dfeda4408051","system_id":"levelo_inurba_marseille","lat":43.30326,"lon":5.40443,"is_reserved":false,"is_disabled":false,"rental_uris":{"android":"levelo://app?vid=81404ece-e1af-40c0-996c-dfeda4408051","ios":"levelo://app?vid=81404ece-e1af-40c0-996c-dfeda4408051"},"vehicle_type_id":"4","last_reported":1729811372,"current_range_meters":36400,"station_id":"ce4bh012rcd13ifvqd10","pricing_plan_id":"cebpf4jnsgd1na2vs0mg"},{"bike_id":"27f07749-69c9-4079-9dec-2b38276cccb0","system_id":"levelo_inurba_marseille","lat":43.23154,"lon":5.43707,"is_reserved":false,"is_disabled":false,"rental_uris":{"android":"levelo://app?vid=27f07749-69c9-4079-9dec-2b38276cccb0","ios":"levelo://app?vid=27f07749-69c9-4079-9dec-2b38276cccb0"},"vehicle_type_id":"4","last_reported":1729811372,"current_range_meters":4400,"station_id":"ce4bhmp2rcd13ifvqgog","pricing_plan_id":"cebpf4jnsgd1na2vs0mg"},{"bike_id":"7691659f-eea1-4b4d-8db5-2728fcde3a23","system_id":"levelo_inurba_marseille","lat":43.29821,"lon":5.37179,"is_reserved":false,"is_disabled":false,"rental_uris":{"android":"levelo://app?vid=7691659f-eea1-4b4d-8db5-2728fcde3a23","ios":"levelo://app?vid=7691659f-eea1-4b4d-8db5-2728fcde3a23"},"vehicle_type_id":"4","last_reported":1729811372,"current_range_meters":27200,"station_id":"ce4bhr12rcd13ifvqhqg","pricing_plan_id":"cebpf4jnsgd1na2vs0mg"},{"bike_id":"e3e5bfd4-aa3a-4dde-ae09-1bddb4754208","system_id":"levelo_inurba_marseille","lat":43.28571,"lon":5.395,"is_reserved":false,"is_disabled":false,"rental_uris":{"android":"levelo://app?vid=e3e5bfd4-aa3a-4dde-ae09-1bddb4754208","ios":"levelo://app?vid=e3e5bfd4-aa3a-4dde-ae09-1bddb4754208"},"vehicle_type_id":"4","last_reported":1729811372,"current_range_meters":9600,"station_id":"ce4bh292rcd13ifvqdg0","pricing_plan_id":"cebpf4jnsgd1na2vs0mg"},{"bike_id":"91479232-2ac0-4400-bb25-e592d9faa594","system_id":"levelo_inurba_marseille","lat":43.28081,"lon":5.39648,"is_reserved":false,"is_disabled":false,"rental_uris":{"android":"levelo://app?vid=91479232-2ac0-4400-bb25-e592d9faa594","ios":"levelo://app?vid=91479232-2ac0-4400-bb25-e592d9faa594"},"vehicle_type_id":"4","last_reported":1729811372,"current_range_meters":30400,"station_id":"ce4bho12rcd13ifvqh2g","pricing_plan_id":"cebpf4jnsgd1na2vs0mg"},{"bike_id":"b3c5c80d-fb10-447a-a7ae-9e83cf2e8853","system_id":"levelo_inurba_marseille","lat":43.27945,"lon":5.41041,"is_reserved":false,"is_disabled":false,"rental_uris":{"android":"levelo://app?vid=b3c5c80d-fb10-447a-a7ae-9e83cf2e8853","ios":"levelo://app?vid=b3c5c80d-fb10-447a-a7ae-9e83cf2e8853"},"vehicle_type_id":"4","last_reported":1729811372,"current_range_meters":27600,"station_id":"ce4bhnp2rcd13ifvqh0g","pricing_plan_id":"cebpf4jnsgd1na2vs0mg"},{"bike_id":"02578664-e44d-44a9-8726-802680ea0dbf","system_id":"levelo_inurba_marseille","lat":43.25084,"lon":5.39522,"is_reserved":false,"is_disabled":false,"rental_uris":{"android":"levelo://app?vid=02578664-e44d-44a9-8726-802680ea0dbf","ios":"levelo://app?vid=02578664-e44d-44a9-8726-802680ea0dbf"},"vehicle_type_id":"4","last_reported":1729811372,"current_range_meters":38800,"station_id":"ce4bhm12rcd13ifvqgkg","pricing_plan_id":"cebpf4jnsgd1na2vs0mg"},{"bike_id":"d9bd67b1-0c85-4cf7-bec8-f00414e9e126","system_id":"levelo_inurba_marseille","lat":43.25873,"lon":5.39907,"is_reserved":false,"is_disabled":false,"rental_uris":{"android":"levelo://app?vid=d9bd67b1-0c85-4cf7-bec8-f00414e9e126","ios":"levelo://app?vid=d9bd67b1-0c85-4cf7-bec8-f00414e9e126"},"vehicle_type_id":"4","last_reported":1729811372,"current_range_meters":38000,"station_id":"ce4bhl92rcd13ifvqghg","pricing_plan_id":"cebpf4jnsgd1na2vs0mg"},{"bike_id":"c5fdd51e-bd68-4e04-98c1-0ab5b1dc801f","system_id":"levelo_inurba_marseille","lat":43.24815,"lon":5.37455,"is_reserved":false,"is_disabled":false,"rental_uris":{"android":"levelo://app?vid=c5fdd51e-bd68-4e04-98c1-0ab5b1dc801f","ios":"levelo://app?vid=c5fdd51e-bd68-4e04-98c1-0ab5b1dc801f"},"vehicle_type_id":"4","last_reported":1729811372,"current_range_meters":26800,"station_id":"ce4bhgh2rcd13ifvqfb0","pricing_plan_id":"cebpf4jnsgd1na2vs0mg"},{"bike_id":"6545591d-710a-4b9c-960f-065870ca224d","system_id":"levelo_inurba_marseille","lat":43.30533,"lon":5.38429,"is_reserved":false,"is_disabled":false,"rental_uris":{"android":"levelo://app?vid=6545591d-710a-4b9c-960f-065870ca224d","ios":"levelo://app?vid=6545591d-710a-4b9c-960f-065870ca224d"},"vehicle_type_id":"4","last_reported":1729811372,"current_range_meters":19600,"station_id":"ce4bgg92rcd13ifvqb30","pricing_plan_id":"cebpf4jnsgd1na2vs0mg"},{"bike_id":"59519303-478b-4b2d-a90c-6f27e032214e","system_id":"levelo_inurba_marseille","lat":43.31282,"lon":5.40167,"is_reserved":false,"is_disabled":false,"rental_uris":{"android":"levelo://app?vid=59519303-478b-4b2d-a90c-6f27e032214e","ios":"levelo://app?vid=59519303-478b-4b2d-a90c-6f27e032214e"},"vehicle_type_id":"4","last_reported":1729811372,"current_range_meters":38800,"station_id":"ce4bh092rcd13ifvqd30","pricing_plan_id":"cebpf4jnsgd1na2vs0mg"},{"bike_id":"f8cecf0c-10de-4472-8dde-c9048ba86d77","system_id":"levelo_inurba_marseille","lat":43.307995,"lon":5.38167,"is_reserved":false,"is_disabled":false,"rental_uris":{"android":"levelo://app?vid=f8cecf0c-10de-4472-8dde-c9048ba86d77","ios":"levelo://app?vid=f8cecf0c-10de-4472-8dde-c9048ba86d77"},"vehicle_type_id":"4","last_reported":1729811372,"current_range_meters":16000,"station_id":"ce4bgt12rcd13ifvqce0","pricing_plan_id":"cebpf4jnsgd1na2vs0mg"},{"bike_id":"3e168155-cea6-43bf-b01c-81821ed7401c","system_id":"levelo_inurba_marseille","lat":43.25119,"lon":5.40313,"is_reserved":false,"is_disabled":false,"rental_uris":{"android":"levelo://app?vid=3e168155-cea6-43bf-b01c-81821ed7401c","ios":"levelo://app?vid=3e168155-cea6-43bf-b01c-81821ed7401c"},"vehicle_type_id":"4","last_reported":1729811372,"current_range_meters":32400,"station_id":"ce4bhlh2rcd13ifvqgig","pricing_plan_id":"cebpf4jnsgd1na2vs0mg"},{"bike_id":"b56c093a-a965-434f-8da6-8b20384b18fe","system_id":"levelo_inurba_marseille","lat":43.28843,"lon":5.39317,"is_reserved":false,"is_disabled":false,"rental_uris":{"android":"levelo://app?vid=b56c093a-a965-434f-8da6-8b20384b18fe","ios":"levelo://app?vid=b56c093a-a965-434f-8da6-8b20384b18fe"},"vehicle_type_id":"4","last_reported":1729811372,"current_range_meters":38800,"station_id":"ce4bh2p2rcd13ifvqdi0","pricing_plan_id":"cebpf4jnsgd1na2vs0mg"},{"bike_id":"e77864e5-aded-4cac-9cc9-79b8a55f0417","system_id":"levelo_inurba_marseille","lat":43.28416,"lon":5.37524,"is_reserved":false,"is_disabled":false,"rental_uris":{"android":"levelo://app?vid=e77864e5-aded-4cac-9cc9-79b8a55f0417","ios":"levelo://app?vid=e77864e5-aded-4cac-9cc9-79b8a55f0417"},"vehicle_type_id":"4","last_reported":1729811372,"current_range_meters":3600,"station_id":"ce4bh412rcd13ifvqds0","pricing_plan_id":"cebpf4jnsgd1na2vs0mg"},{"bike_id":"adb6c389-ce43-47b4-807d-369c494bed23","system_id":"levelo_inurba_marseille","lat":43.30805,"lon":5.38159,"is_reserved":false,"is_disabled":false,"rental_uris":{"android":"levelo://app?vid=adb6c389-ce43-47b4-807d-369c494bed23","ios":"levelo://app?vid=adb6c389-ce43-47b4-807d-369c494bed23"},"vehicle_type_id":"4","last_reported":1729811372,"current_range_meters":31200,"station_id":"ce4bgt12rcd13ifvqce0","pricing_plan_id":"cebpf4jnsgd1na2vs0mg"},{"bike_id":"050117c7-60de-4af1-b7d9-0a099c8f8aba","system_id":"levelo_inurba_marseille","lat":43.25506,"lon":5.37651,"is_reserved":false,"is_disabled":false,"rental_uris":{"android":"levelo://app?vid=050117c7-60de-4af1-b7d9-0a099c8f8aba","ios":"levelo://app?vid=050117c7-60de-4af1-b7d9-0a099c8f8aba"},"vehicle_type_id":"4","last_reported":1729811372,"current_range_meters":9600,"station_id":"ce4bhh12rcd13ifvqff0","pricing_plan_id":"cebpf4jnsgd1na2vs0mg"},{"bike_id":"66f020ae-5526-4ad0-8af9-6a968240ac52","system_id":"levelo_inurba_marseille","lat":43.324878,"lon":5.365772,"is_reserved":false,"is_disabled":false,"rental_uris":{"android":"levelo://app?vid=66f020ae-5526-4ad0-8af9-6a968240ac52","ios":"levelo://app?vid=66f020ae-5526-4ad0-8af9-6a968240ac52"},"vehicle_type_id":"4","last_reported":1729811372,"current_range_meters":38800,"station_id":"ce4bhs12rcd13ifvqhvg","pricing_plan_id":"cebpf4jnsgd1na2vs0mg"},{"bike_id":"6e490ada-941f-4a47-b70c-faae73b36f3c","system_id":"levelo_inurba_marseille","lat":43.2407,"lon":5.37764,"is_reserved":false,"is_disabled":false,"rental_uris":{"android":"levelo://app?vid=6e490ada-941f-4a47-b70c-faae73b36f3c","ios":"levelo://app?vid=6e490ada-941f-4a47-b70c-faae73b36f3c"},"vehicle_type_id":"4","last_reported":1729811372,"current_range_meters":30400,"station_id":"ce4bhnp2rcd13ifvqgvg","pricing_plan_id":"cebpf4jnsgd1na2vs0mg"},{"bike_id":"2ae23244-d39d-44c3-84d6-e47c45252a78","system_id":"levelo_inurba_marseille","lat":43.305495,"lon":5.384265,"is_reserved":false,"is_disabled":false,"rental_uris":{"android":"levelo://app?vid=2ae23244-d39d-44c3-84d6-e47c45252a78","ios":"levelo://app?vid=2ae23244-d39d-44c3-84d6-e47c45252a78"},"vehicle_type_id":"4","last_reported":1729811372,"current_range_meters":34800,"station_id":"ce4bgg92rcd13ifvqb30","pricing_plan_id":"cebpf4jnsgd1na2vs0mg"},{"bike_id":"97ec344c-b798-43c2-b569-284527c7dc58","system_id":"levelo_inurba_marseille","lat":43.32488,"lon":5.36499,"is_reserved":false,"is_disabled":false,"rental_uris":{"android":"levelo://app?vid=97ec344c-b798-43c2-b569-284527c7dc58","ios":"levelo://app?vid=97ec344c-b798-43c2-b569-284527c7dc58"},"vehicle_type_id":"4","last_reported":1729811372,"current_range_meters":5600,"station_id":"ce4bhs12rcd13ifvqhvg","pricing_plan_id":"cebpf4jnsgd1na2vs0mg"},{"bike_id":"dc39f38c-0f7c-43a6-8d93-8ffbc15e2bac","system_id":"levelo_inurba_marseille","lat":43.29866,"lon":5.39739,"is_reserved":false,"is_disabled":false,"rental_uris":{"android":"levelo://app?vid=dc39f38c-0f7c-43a6-8d93-8ffbc15e2bac","ios":"levelo://app?vid=dc39f38c-0f7c-43a6-8d93-8ffbc15e2bac"},"vehicle_type_id":"4","last_reported":1729811372,"current_range_meters":32400,"station_id":"ce4bh0h2rcd13ifvqd50","pricing_plan_id":"cebpf4jnsgd1na2vs0mg"},{"bike_id":"a0673444-95da-4325-b335-f89e4b1c6f29","system_id":"levelo_inurba_marseille","lat":43.31714,"lon":5.43704,"is_reserved":false,"is_disabled":false,"rental_uris":{"android":"levelo://app?vid=a0673444-95da-4325-b335-f89e4b1c6f29","ios":"levelo://app?vid=a0673444-95da-4325-b335-f89e4b1c6f29"},"vehicle_type_id":"4","last_reported":1729811372,"current_range_meters":28400,"station_id":"ce4bhp92rcd13ifvqhcg","pricing_plan_id":"cebpf4jnsgd1na2vs0mg"},{"bike_id":"c56101da-c84b-44f8-a31e-2d5bbaa1541c","system_id":"levelo_inurba_marseille","lat":43.29028,"lon":5.38656,"is_reserved":false,"is_disabled":false,"rental_uris":{"android":"levelo://app?vid=c56101da-c84b-44f8-a31e-2d5bbaa1541c","ios":"levelo://app?vid=c56101da-c84b-44f8-a31e-2d5bbaa1541c"},"vehicle_type_id":"4","last_reported":1729811372,"current_range_meters":5600,"station_id":"ce4bh4p2rcd13ifvqe0g","pricing_plan_id":"cebpf4jnsgd1na2vs0mg"},{"bike_id":"61ca3d06-ff0b-4f8d-9d41-4c8e2f12b7de","system_id":"levelo_inurba_marseille","lat":43.33603,"lon":5.41037,"is_reserved":false,"is_disabled":false,"rental_uris":{"android":"levelo://app?vid=61ca3d06-ff0b-4f8d-9d41-4c8e2f12b7de","ios":"levelo://app?vid=61ca3d06-ff0b-4f8d-9d41-4c8e2f12b7de"},"vehicle_type_id":"4","last_reported":1729811372,"current_range_meters":20800,"station_id":"ce4bhqh2rcd13ifvqhmg","pricing_plan_id":"cebpf4jnsgd1na2vs0mg"},{"bike_id":"f74213e4-2968-4ca1-afed-b6911db4d573","system_id":"levelo_inurba_marseille","lat":43.31711,"lon":5.437,"is_reserved":false,"is_disabled":false,"rental_uris":{"android":"levelo://app?vid=f74213e4-2968-4ca1-afed-b6911db4d573","ios":"levelo://app?vid=f74213e4-2968-4ca1-afed-b6911db4d573"},"vehicle_type_id":"4","last_reported":1729811372,"current_range_meters":2800,"station_id":"ce4bhp92rcd13ifvqhcg","pricing_plan_id":"cebpf4jnsgd1na2vs0mg"},{"bike_id":"fe80c4c5-b946-4e64-8970-ebe5ece9df34","system_id":"levelo_inurba_marseille","lat":43.239659,"lon":5.366319,"is_reserved":false,"is_disabled":false,"rental_uris":{"android":"levelo://app?vid=fe80c4c5-b946-4e64-8970-ebe5ece9df34","ios":"levelo://app?vid=fe80c4c5-b946-4e64-8970-ebe5ece9df34"},"vehicle_type_id":"4","last_reported":1729811372,"current_range_meters":33200,"station_id":"ce4bhi12rcd13ifvqfp0","pricing_plan_id":"cebpf4jnsgd1na2vs0mg"},{"bike_id":"3c810cb3-2f78-4c1e-a372-051092359c4f","system_id":"levelo_inurba_marseille","lat":43.31175,"lon":5.38728,"is_reserved":false,"is_disabled":false,"rental_uris":{"android":"levelo://app?vid=3c810cb3-2f78-4c1e-a372-051092359c4f","ios":"levelo://app?vid=3c810cb3-2f78-4c1e-a372-051092359c4f"},"vehicle_type_id":"4","last_reported":1729811372,"current_range_meters":29600,"station_id":"ce4bgv12rcd13ifvqcp0","pricing_plan_id":"cebpf4jnsgd1na2vs0mg"},{"bike_id":"66c56533-ec0c-42a0-90ba-957ddfa22782","system_id":"levelo_inurba_marseille","lat":43.27058,"lon":5.4026,"is_reserved":false,"is_disabled":false,"rental_uris":{"android":"levelo://app?vid=66c56533-ec0c-42a0-90ba-957ddfa22782","ios":"levelo://app?vid=66c56533-ec0c-42a0-90ba-957ddfa22782"},"vehicle_type_id":"4","last_reported":1729811372,"current_range_meters":27200,"station_id":"ce4bhk92rcd13ifvqgc0","pricing_plan_id":"cebpf4jnsgd1na2vs0mg"},{"bike_id":"0bc90dc2-cf8c-457e-a6aa-9b91de95f992","system_id":"levelo_inurba_marseille","lat":43.2276,"lon":5.41587,"is_reserved":false,"is_disabled":false,"rental_uris":{"android":"levelo://app?vid=0bc90dc2-cf8c-457e-a6aa-9b91de95f992","ios":"levelo://app?vid=0bc90dc2-cf8c-457e-a6aa-9b91de95f992"},"vehicle_type_id":"4","last_reported":1729811372,"current_range_meters":30400,"station_id":"","pricing_plan_id":"cebpf4jnsgd1na2vs0mg"},{"bike_id":"082e2a0f-744d-4193-aa51-84d41e9426e8","system_id":"levelo_inurba_marseille","lat":43.3137,"lon":5.38504,"is_reserved":false,"is_disabled":false,"rental_uris":{"android":"levelo://app?vid=082e2a0f-744d-4193-aa51-84d41e9426e8","ios":"levelo://app?vid=082e2a0f-744d-4193-aa51-84d41e9426e8"},"vehicle_type_id":"4","last_reported":1729811372,"current_range_meters":28400,"station_id":"ce4bgt92rcd13ifvqcf0","pricing_plan_id":"cebpf4jnsgd1na2vs0mg"},{"bike_id":"53ec09e0-0cc6-4418-bb0a-c214a494eb56","system_id":"levelo_inurba_marseille","lat":43.31114,"lon":5.37768,"is_reserved":false,"is_disabled":false,"rental_uris":{"android":"levelo://app?vid=53ec09e0-0cc6-4418-bb0a-c214a494eb56","ios":"levelo://app?vid=53ec09e0-0cc6-4418-bb0a-c214a494eb56"},"vehicle_type_id":"4","last_reported":1729811372,"current_range_meters":29600,"station_id":"ce4bgt92rcd13ifvqcg0","pricing_plan_id":"cebpf4jnsgd1na2vs0mg"},{"bike_id":"28709b84-b83d-46ed-8adb-237970d4384b","system_id":"levelo_inurba_marseille","lat":43.32369,"lon":5.38887,"is_reserved":false,"is_disabled":false,"rental_uris":{"android":"levelo://app?vid=28709b84-b83d-46ed-8adb-237970d4384b","ios":"levelo://app?vid=28709b84-b83d-46ed-8adb-237970d4384b"},"vehicle_type_id":"4","last_reported":1729811372,"current_range_meters":29600,"station_id":"ce4bhqp2rcd13ifvqhog","pricing_plan_id":"cebpf4jnsgd1na2vs0mg"},{"bike_id":"2ad9c399-f2c9-4dc8-92bc-993a657ebe2a","system_id":"levelo_inurba_marseille","lat":43.28478,"lon":5.38423,"is_reserved":false,"is_disabled":false,"rental_uris":{"android":"levelo://app?vid=2ad9c399-f2c9-4dc8-92bc-993a657ebe2a","ios":"levelo://app?vid=2ad9c399-f2c9-4dc8-92bc-993a657ebe2a"},"vehicle_type_id":"4","last_reported":1729811372,"current_range_meters":36400,"station_id":"ce4bh512rcd13ifvqe3g","pricing_plan_id":"cebpf4jnsgd1na2vs0mg"},{"bike_id":"a2473142-94f8-49f6-a40b-21cfc06b5795","system_id":"levelo_inurba_marseille","lat":43.26206,"lon":5.37932,"is_reserved":false,"is_disabled":false,"rental_uris":{"android":"levelo://app?vid=a2473142-94f8-49f6-a40b-21cfc06b5795","ios":"levelo://app?vid=a2473142-94f8-49f6-a40b-21cfc06b5795"},"vehicle_type_id":"4","last_reported":1729811372,"current_range_meters":38000,"station_id":"ce4bhjp2rcd13ifvqg90","pricing_plan_id":"cebpf4jnsgd1na2vs0mg"},{"bike_id":"cff00397-cad6-4cbe-a88b-16b05a6fc286","system_id":"levelo_inurba_marseille","lat":43.30444,"lon":5.38898,"is_reserved":false,"is_disabled":false,"rental_uris":{"android":"levelo://app?vid=cff00397-cad6-4cbe-a88b-16b05a6fc286","ios":"levelo://app?vid=cff00397-cad6-4cbe-a88b-16b05a6fc286"},"vehicle_type_id":"4","last_reported":1729811372,"current_range_meters":38800,"station_id":"ce4bgk12rcd13ifvqbi0","pricing_plan_id":"cebpf4jnsgd1na2vs0mg"},{"bike_id":"3d814bc8-7cde-42dc-be31-b3ae59f20bd8","system_id":"levelo_inurba_marseille","lat":43.30813,"lon":5.39655,"is_reserved":false,"is_disabled":false,"rental_uris":{"android":"levelo://app?vid=3d814bc8-7cde-42dc-be31-b3ae59f20bd8","ios":"levelo://app?vid=3d814bc8-7cde-42dc-be31-b3ae59f20bd8"},"vehicle_type_id":"4","last_reported":1729811372,"current_range_meters":31200,"station_id":"","pricing_plan_id":"cebpf4jnsgd1na2vs0mg"},{"bike_id":"2e45e5a2-d5d1-49cc-8793-cc67bff118cc","system_id":"levelo_inurba_marseille","lat":43.31085,"lon":5.42429,"is_reserved":false,"is_disabled":false,"rental_uris":{"android":"levelo://app?vid=2e45e5a2-d5d1-49cc-8793-cc67bff118cc","ios":"levelo://app?vid=2e45e5a2-d5d1-49cc-8793-cc67bff118cc"},"vehicle_type_id":"4","last_reported":1729811372,"current_range_meters":38800,"station_id":"ce4bhp92rcd13ifvqhag","pricing_plan_id":"cebpf4jnsgd1na2vs0mg"},{"bike_id":"ce42fb7a-0448-4758-8a74-e9e6ef4991ec","system_id":"levelo_inurba_marseille","lat":43.30352,"lon":5.41878,"is_reserved":false,"is_disabled":false,"rental_uris":{"android":"levelo://app?vid=ce42fb7a-0448-4758-8a74-e9e6ef4991ec","ios":"levelo://app?vid=ce42fb7a-0448-4758-8a74-e9e6ef4991ec"},"vehicle_type_id":"4","last_reported":1729811372,"current_range_meters":38400,"station_id":"ce4bhop2rcd13ifvqh7g","pricing_plan_id":"cebpf4jnsgd1na2vs0mg"},{"bike_id":"24f2bad0-f192-4524-b5fb-0acbffa55024","system_id":"levelo_inurba_marseille","lat":43.30444,"lon":5.38895,"is_reserved":false,"is_disabled":false,"rental_uris":{"android":"levelo://app?vid=24f2bad0-f192-4524-b5fb-0acbffa55024","ios":"levelo://app?vid=24f2bad0-f192-4524-b5fb-0acbffa55024"},"vehicle_type_id":"4","last_reported":1729811372,"current_range_meters":36800,"station_id":"ce4bgk12rcd13ifvqbi0","pricing_plan_id":"cebpf4jnsgd1na2vs0mg"},{"bike_id":"e8190fa1-a56a-429a-bf90-dc783abfa114","system_id":"levelo_inurba_marseille","lat":43.28723,"lon":5.37943,"is_reserved":false,"is_disabled":false,"rental_uris":{"android":"levelo://app?vid=e8190fa1-a56a-429a-bf90-dc783abfa114","ios":"levelo://app?vid=e8190fa1-a56a-429a-bf90-dc783abfa114"},"vehicle_type_id":"4","last_reported":1729811372,"current_range_meters":38800,"station_id":"ce4bh9p2rcd13ifvqec0","pricing_plan_id":"cebpf4jnsgd1na2vs0mg"},{"bike_id":"ba329445-b52f-4104-803e-5006327ae862","system_id":"levelo_inurba_marseille","lat":43.29787,"lon":5.37098,"is_reserved":false,"is_disabled":false,"rental_uris":{"android":"levelo://app?vid=ba329445-b52f-4104-803e-5006327ae862","ios":"levelo://app?vid=ba329445-b52f-4104-803e-5006327ae862"},"vehicle_type_id":"4","last_reported":1729811372,"current_range_meters":38400,"station_id":"ce4bgop2rcd13ifvqc1g","pricing_plan_id":"cebpf4jnsgd1na2vs0mg"},{"bike_id":"92e247c8-d1f0-4daf-9793-aa4479a54088","system_id":"levelo_inurba_marseille","lat":43.31073,"lon":5.38348,"is_reserved":false,"is_disabled":false,"rental_uris":{"android":"levelo://app?vid=92e247c8-d1f0-4daf-9793-aa4479a54088","ios":"levelo://app?vid=92e247c8-d1f0-4daf-9793-aa4479a54088"},"vehicle_type_id":"4","last_reported":1729811372,"current_range_meters":38800,"station_id":"ce4bgv92rcd13ifvqcr0","pricing_plan_id":"cebpf4jnsgd1na2vs0mg"},{"bike_id":"e1ab12a6-c82a-4de8-92db-7585cc01f1ec","system_id":"levelo_inurba_marseille","lat":43.299737,"lon":5.371806,"is_reserved":false,"is_disabled":false,"rental_uris":{"android":"levelo://app?vid=e1ab12a6-c82a-4de8-92db-7585cc01f1ec","ios":"levelo://app?vid=e1ab12a6-c82a-4de8-92db-7585cc01f1ec"},"vehicle_type_id":"4","last_reported":1729811372,"current_range_meters":28800,"station_id":"ce4bguh2rcd13ifvqckg","pricing_plan_id":"cebpf4jnsgd1na2vs0mg"},{"bike_id":"7feaf490-af7e-499b-85b5-5873320243c5","system_id":"levelo_inurba_marseille","lat":43.288525,"lon":5.39315,"is_reserved":false,"is_disabled":false,"rental_uris":{"android":"levelo://app?vid=7feaf490-af7e-499b-85b5-5873320243c5","ios":"levelo://app?vid=7feaf490-af7e-499b-85b5-5873320243c5"},"vehicle_type_id":"4","last_reported":1729811372,"current_range_meters":30000,"station_id":"ce4bh2p2rcd13ifvqdi0","pricing_plan_id":"cebpf4jnsgd1na2vs0mg"},{"bike_id":"86b85f9f-69e5-436e-849b-2d27de126d48","system_id":"levelo_inurba_marseille","lat":43.28151,"lon":5.42655,"is_reserved":false,"is_disabled":false,"rental_uris":{"android":"levelo://app?vid=86b85f9f-69e5-436e-849b-2d27de126d48","ios":"levelo://app?vid=86b85f9f-69e5-436e-849b-2d27de126d48"},"vehicle_type_id":"4","last_reported":1729811372,"current_range_meters":37600,"station_id":"ce4bhnh2rcd13ifvqgug","pricing_plan_id":"cebpf4jnsgd1na2vs0mg"},{"bike_id":"36856ec2-b80b-4ae8-abff-10088c18f7e8","system_id":"levelo_inurba_marseille","lat":43.2416,"lon":5.36407,"is_reserved":false,"is_disabled":false,"rental_uris":{"android":"levelo://app?vid=36856ec2-b80b-4ae8-abff-10088c18f7e8","ios":"levelo://app?vid=36856ec2-b80b-4ae8-abff-10088c18f7e8"},"vehicle_type_id":"4","last_reported":1729811372,"current_range_meters":38800,"station_id":"cpo36qri1sfpv3e86is0","pricing_plan_id":"cebpf4jnsgd1na2vs0mg"},{"bike_id":"91c201c9-c2dc-4300-a123-03b2b099ca54","system_id":"levelo_inurba_marseille","lat":43.28439,"lon":5.39188,"is_reserved":false,"is_disabled":false,"rental_uris":{"android":"levelo://app?vid=91c201c9-c2dc-4300-a123-03b2b099ca54","ios":"levelo://app?vid=91c201c9-c2dc-4300-a123-03b2b099ca54"},"vehicle_type_id":"4","last_reported":1729811372,"current_range_meters":38400,"station_id":"ce4bhoh2rcd13ifvqh5g","pricing_plan_id":"cebpf4jnsgd1na2vs0mg"},{"bike_id":"ce024c82-e6ae-459c-bfa6-0cc621f3cbcc","system_id":"levelo_inurba_marseille","lat":43.28277,"lon":5.35078,"is_reserved":false,"is_disabled":false,"rental_uris":{"android":"levelo://app?vid=ce024c82-e6ae-459c-bfa6-0cc621f3cbcc","ios":"levelo://app?vid=ce024c82-e6ae-459c-bfa6-0cc621f3cbcc"},"vehicle_type_id":"4","last_reported":1729811372,"current_range_meters":12400,"station_id":"ce4bhbp2rcd13ifvqerg","pricing_plan_id":"cebpf4jnsgd1na2vs0mg"},{"bike_id":"bd995abb-12e7-47a6-b0b9-e1f25439576a","system_id":"levelo_inurba_marseille","lat":43.25,"lon":5.38926,"is_reserved":false,"is_disabled":false,"rental_uris":{"android":"levelo://app?vid=bd995abb-12e7-47a6-b0b9-e1f25439576a","ios":"levelo://app?vid=bd995abb-12e7-47a6-b0b9-e1f25439576a"},"vehicle_type_id":"4","last_reported":1729811372,"current_range_meters":13600,"station_id":"ce4bhgp2rcd13ifvqfd0","pricing_plan_id":"cebpf4jnsgd1na2vs0mg"},{"bike_id":"d9ebfa44-9372-4017-a5c5-721a24441e7f","system_id":"levelo_inurba_marseille","lat":43.28344,"lon":5.38105,"is_reserved":false,"is_disabled":false,"rental_uris":{"android":"levelo://app?vid=d9ebfa44-9372-4017-a5c5-721a24441e7f","ios":"levelo://app?vid=d9ebfa44-9372-4017-a5c5-721a24441e7f"},"vehicle_type_id":"4","last_reported":1729811372,"current_range_meters":34000,"station_id":"ce4bh412rcd13ifvqdr0","pricing_plan_id":"cebpf4jnsgd1na2vs0mg"},{"bike_id":"97fd9a62-963c-450c-b76b-36e48aba6ce1","system_id":"levelo_inurba_marseille","lat":43.30881,"lon":5.39639,"is_reserved":false,"is_disabled":false,"rental_uris":{"android":"levelo://app?vid=97fd9a62-963c-450c-b76b-36e48aba6ce1","ios":"levelo://app?vid=97fd9a62-963c-450c-b76b-36e48aba6ce1"},"vehicle_type_id":"4","last_reported":1729811372,"current_range_meters":38400,"station_id":"ce4bh012rcd13ifvqcv0","pricing_plan_id":"cebpf4jnsgd1na2vs0mg"},{"bike_id":"a48eda1e-75e8-4499-8b8a-7632b98d3356","system_id":"levelo_inurba_marseille","lat":43.24551,"lon":5.39525,"is_reserved":false,"is_disabled":false,"rental_uris":{"android":"levelo://app?vid=a48eda1e-75e8-4499-8b8a-7632b98d3356","ios":"levelo://app?vid=a48eda1e-75e8-4499-8b8a-7632b98d3356"},"vehicle_type_id":"4","last_reported":1729811372,"current_range_meters":8800,"station_id":"ce4bhlp2rcd13ifvqgjg","pricing_plan_id":"cebpf4jnsgd1na2vs0mg"},{"bike_id":"b3bdd056-bfea-46fe-b113-3460c5612cb7","system_id":"levelo_inurba_marseille","lat":43.287,"lon":5.37392,"is_reserved":false,"is_disabled":false,"rental_uris":{"android":"levelo://app?vid=b3bdd056-bfea-46fe-b113-3460c5612cb7","ios":"levelo://app?vid=b3bdd056-bfea-46fe-b113-3460c5612cb7"},"vehicle_type_id":"4","last_reported":1729811372,"current_range_meters":36000,"station_id":"ce4bh3p2rcd13ifvqdq0","pricing_plan_id":"cebpf4jnsgd1na2vs0mg"},{"bike_id":"031c5151-6166-4e35-88c9-9b4ea040f799","system_id":"levelo_inurba_marseille","lat":43.3081,"lon":5.38168,"is_reserved":false,"is_disabled":false,"rental_uris":{"android":"levelo://app?vid=031c5151-6166-4e35-88c9-9b4ea040f799","ios":"levelo://app?vid=031c5151-6166-4e35-88c9-9b4ea040f799"},"vehicle_type_id":"4","last_reported":1729811372,"current_range_meters":38400,"station_id":"ce4bgt12rcd13ifvqce0","pricing_plan_id":"cebpf4jnsgd1na2vs0mg"},{"bike_id":"d9755953-5b80-4b77-b2f2-d2f29be7f761","system_id":"levelo_inurba_marseille","lat":43.25861,"lon":5.39906,"is_reserved":false,"is_disabled":false,"rental_uris":{"android":"levelo://app?vid=d9755953-5b80-4b77-b2f2-d2f29be7f761","ios":"levelo://app?vid=d9755953-5b80-4b77-b2f2-d2f29be7f761"},"vehicle_type_id":"4","last_reported":1729811372,"current_range_meters":32400,"station_id":"ce4bhl92rcd13ifvqghg","pricing_plan_id":"cebpf4jnsgd1na2vs0mg"},{"bike_id":"365a5e76-e012-4983-b8a9-1a07480bde83","system_id":"levelo_inurba_marseille","lat":43.23192,"lon":5.35559,"is_reserved":false,"is_disabled":false,"rental_uris":{"android":"levelo://app?vid=365a5e76-e012-4983-b8a9-1a07480bde83","ios":"levelo://app?vid=365a5e76-e012-4983-b8a9-1a07480bde83"},"vehicle_type_id":"4","last_reported":1729811372,"current_range_meters":38800,"station_id":"ce4bhu92rcd13ifvqi70","pricing_plan_id":"cebpf4jnsgd1na2vs0mg"},{"bike_id":"176c2bd2-7d0c-4278-833a-48f82a51f6ca","system_id":"levelo_inurba_marseille","lat":43.26201,"lon":5.37932,"is_reserved":false,"is_disabled":false,"rental_uris":{"android":"levelo://app?vid=176c2bd2-7d0c-4278-833a-48f82a51f6ca","ios":"levelo://app?vid=176c2bd2-7d0c-4278-833a-48f82a51f6ca"},"vehicle_type_id":"4","last_reported":1729811372,"current_range_meters":34800,"station_id":"ce4bhjp2rcd13ifvqg90","pricing_plan_id":"cebpf4jnsgd1na2vs0mg"},{"bike_id":"2b4fd668-c6f7-4489-88f7-9f135d725638","system_id":"levelo_inurba_marseille","lat":43.28456,"lon":5.39199,"is_reserved":false,"is_disabled":false,"rental_uris":{"android":"levelo://app?vid=2b4fd668-c6f7-4489-88f7-9f135d725638","ios":"levelo://app?vid=2b4fd668-c6f7-4489-88f7-9f135d725638"},"vehicle_type_id":"4","last_reported":1729811372,"current_range_meters":13600,"station_id":"ce4bhoh2rcd13ifvqh5g","pricing_plan_id":"cebpf4jnsgd1na2vs0mg"},{"bike_id":"87446298-2e5d-4725-8732-c3ce0f11c530","system_id":"levelo_inurba_marseille","lat":43.28354,"lon":5.38113,"is_reserved":false,"is_disabled":false,"rental_uris":{"android":"levelo://app?vid=87446298-2e5d-4725-8732-c3ce0f11c530","ios":"levelo://app?vid=87446298-2e5d-4725-8732-c3ce0f11c530"},"vehicle_type_id":"4","last_reported":1729811372,"current_range_meters":36800,"station_id":"ce4bh412rcd13ifvqdr0","pricing_plan_id":"cebpf4jnsgd1na2vs0mg"},{"bike_id":"6a79141b-22c2-4f73-9d7a-ee7148ee1bbf","system_id":"levelo_inurba_marseille","lat":43.2455,"lon":5.39521,"is_reserved":false,"is_disabled":false,"rental_uris":{"android":"levelo://app?vid=6a79141b-22c2-4f73-9d7a-ee7148ee1bbf","ios":"levelo://app?vid=6a79141b-22c2-4f73-9d7a-ee7148ee1bbf"},"vehicle_type_id":"4","last_reported":1729811372,"current_range_meters":38400,"station_id":"ce4bhlp2rcd13ifvqgjg","pricing_plan_id":"cebpf4jnsgd1na2vs0mg"},{"bike_id":"f417ea0d-341b-4a25-83f2-2b2d63ff817d","system_id":"levelo_inurba_marseille","lat":43.28412,"lon":5.3752,"is_reserved":false,"is_disabled":false,"rental_uris":{"android":"levelo://app?vid=f417ea0d-341b-4a25-83f2-2b2d63ff817d","ios":"levelo://app?vid=f417ea0d-341b-4a25-83f2-2b2d63ff817d"},"vehicle_type_id":"4","last_reported":1729811372,"current_range_meters":33600,"station_id":"ce4bh412rcd13ifvqds0","pricing_plan_id":"cebpf4jnsgd1na2vs0mg"},{"bike_id":"92e68c29-5065-4f0d-85be-f01c074079b5","system_id":"levelo_inurba_marseille","lat":43.27206,"lon":5.39199,"is_reserved":false,"is_disabled":false,"rental_uris":{"android":"levelo://app?vid=92e68c29-5065-4f0d-85be-f01c074079b5","ios":"levelo://app?vid=92e68c29-5065-4f0d-85be-f01c074079b5"},"vehicle_type_id":"4","last_reported":1729811372,"current_range_meters":24000,"station_id":"ce4bhhp2rcd13ifvqfm0","pricing_plan_id":"cebpf4jnsgd1na2vs0mg"},{"bike_id":"512ed7e2-b74d-4cc8-93d7-6789e7dcb178","system_id":"levelo_inurba_marseille","lat":43.27946,"lon":5.41054,"is_reserved":false,"is_disabled":false,"rental_uris":{"android":"levelo://app?vid=512ed7e2-b74d-4cc8-93d7-6789e7dcb178","ios":"levelo://app?vid=512ed7e2-b74d-4cc8-93d7-6789e7dcb178"},"vehicle_type_id":"4","last_reported":1729811372,"current_range_meters":34000,"station_id":"ce4bhnp2rcd13ifvqh0g","pricing_plan_id":"cebpf4jnsgd1na2vs0mg"},{"bike_id":"15ec6d2b-de0a-40c8-9005-27c3cc24fd32","system_id":"levelo_inurba_marseille","lat":43.31182,"lon":5.38712,"is_reserved":false,"is_disabled":false,"rental_uris":{"android":"levelo://app?vid=15ec6d2b-de0a-40c8-9005-27c3cc24fd32","ios":"levelo://app?vid=15ec6d2b-de0a-40c8-9005-27c3cc24fd32"},"vehicle_type_id":"4","last_reported":1729811372,"current_range_meters":30000,"station_id":"ce4bgv12rcd13ifvqcp0","pricing_plan_id":"cebpf4jnsgd1na2vs0mg"},{"bike_id":"62ae50a7-cff4-47ff-8401-e110f2bc4992","system_id":"levelo_inurba_marseille","lat":43.31889,"lon":5.40726,"is_reserved":false,"is_disabled":false,"rental_uris":{"android":"levelo://app?vid=62ae50a7-cff4-47ff-8401-e110f2bc4992","ios":"levelo://app?vid=62ae50a7-cff4-47ff-8401-e110f2bc4992"},"vehicle_type_id":"4","last_reported":1729811372,"current_range_meters":38800,"station_id":"ce4bhq12rcd13ifvqhig","pricing_plan_id":"cebpf4jnsgd1na2vs0mg"},{"bike_id":"8b6e8df2-cc83-4ff3-a9c3-2771fc0c1eba","system_id":"levelo_inurba_marseille","lat":43.29306,"lon":5.37465,"is_reserved":false,"is_disabled":false,"rental_uris":{"android":"levelo://app?vid=8b6e8df2-cc83-4ff3-a9c3-2771fc0c1eba","ios":"levelo://app?vid=8b6e8df2-cc83-4ff3-a9c3-2771fc0c1eba"},"vehicle_type_id":"4","last_reported":1729811372,"current_range_meters":34800,"station_id":"ce4bgi12rcd13ifvqb70","pricing_plan_id":"cebpf4jnsgd1na2vs0mg"},{"bike_id":"9358b87a-8e76-44e1-9c5c-d0358c227e93","system_id":"levelo_inurba_marseille","lat":43.29799,"lon":5.40401,"is_reserved":false,"is_disabled":false,"rental_uris":{"android":"levelo://app?vid=9358b87a-8e76-44e1-9c5c-d0358c227e93","ios":"levelo://app?vid=9358b87a-8e76-44e1-9c5c-d0358c227e93"},"vehicle_type_id":"4","last_reported":1729811372,"current_range_meters":7200,"station_id":"ce4bh112rcd13ifvqd90","pricing_plan_id":"cebpf4jnsgd1na2vs0mg"},{"bike_id":"038812ed-65d2-4e04-8b6e-7b27a2f3b59d","system_id":"levelo_inurba_marseille","lat":43.28616,"lon":5.35106,"is_reserved":false,"is_disabled":false,"rental_uris":{"android":"levelo://app?vid=038812ed-65d2-4e04-8b6e-7b27a2f3b59d","ios":"levelo://app?vid=038812ed-65d2-4e04-8b6e-7b27a2f3b59d"},"vehicle_type_id":"4","last_reported":1729811372,"current_range_meters":35600,"station_id":"ce4bhch2rcd13ifvqeug","pricing_plan_id":"cebpf4jnsgd1na2vs0mg"},{"bike_id":"bd0fb11c-81e7-45db-a3bb-7471afbb37a6","system_id":"levelo_inurba_marseille","lat":43.30541,"lon":5.38435,"is_reserved":false,"is_disabled":false,"rental_uris":{"android":"levelo://app?vid=bd0fb11c-81e7-45db-a3bb-7471afbb37a6","ios":"levelo://app?vid=bd0fb11c-81e7-45db-a3bb-7471afbb37a6"},"vehicle_type_id":"4","last_reported":1729811372,"current_range_meters":36800,"station_id":"ce4bgg92rcd13ifvqb30","pricing_plan_id":"cebpf4jnsgd1na2vs0mg"},{"bike_id":"24151098-48fb-4966-88b0-dd724b4229ec","system_id":"levelo_inurba_marseille","lat":43.28617,"lon":5.35105,"is_reserved":false,"is_disabled":false,"rental_uris":{"android":"levelo://app?vid=24151098-48fb-4966-88b0-dd724b4229ec","ios":"levelo://app?vid=24151098-48fb-4966-88b0-dd724b4229ec"},"vehicle_type_id":"4","last_reported":1729811372,"current_range_meters":36400,"station_id":"ce4bhch2rcd13ifvqeug","pricing_plan_id":"cebpf4jnsgd1na2vs0mg"},