{"last_updated":1762337555,"ttl":60,"version":"2.2","data":{"bikes":[{"bike_id":"b7c5e96f-2666-418c-b8cc-36dfc613348c","system_id":"levelo_inurba_marseille","lat":43.337444,"lon":5.374475,"is_reserved":false,"is_disabled":false,"rental_uris":{"android":"levelo://app?vid=b7c5e96f-2666-418c-b8cc-36dfc613348c","ios":"levelo://app?vid=b7c5e96f-2666-418c-b8cc-36dfc613348c"},"vehicle_type_id":"4","last_reported":1762337555,"current_range_meters":0,"station_id":"","pricing_plan_id":"cebpf4jnsgd1na2vs0mg"},{"bike_id":"9c46a9f5-39cb-461a-ac28-286dc216524b","system_id":"levelo_inurba_marseille","lat":43.337444,"lon":5.374475,"is_reserved":false,"is_disabled":false,"rental_uris":{"android":"levelo://app?vid=9c46a9f5-39cb-461a-ac28-286dc216524b","ios":"levelo://app?vid=9c46a9f5-39cb-461a-ac28-286dc216524b"},"vehicle_type_id":"4","last_reported":1762337555,"current_range_meters":0,"station_id":"","pricing_plan_id":"cebpf4jnsgd1na2vs0mg"},{"bike_id":"2aa95e42-5a8c-4825-81d0-40d356e0168e","system_id":"levelo_inurba_marseille","lat":43.337444,"lon":5.374475,"is_reserved":false,"is_disabled":false,"rental_uris":{"android":"levelo://app?vid=2aa95e42-5a8c-4825-81d0-40d356e0168e","ios":"levelo://app?vid=2aa95e42-5a8c-4825-81d0-40d356e0168e"},"vehicle_type_id":"4","last_reported":1762337555,"current_range_meters":0,"station_id":"","pricing_plan_id":"cebpf4jnsgd1na2vs0mg"},{"bike_id":"23f7c00c-abd3-4b9e-b454-b625ef68ddce","system_id":"levelo_inurba_marseille","lat":43.337444,"lon":5.374475,"is_reserved":false,"is_disabled":false,"rental_uris":{"android":"levelo://app?vid=23f7c00c-abd3-4b9e-b454-b625ef68ddce","ios":"levelo://app?vid=23f7c00c-abd3-4b9e-b454-b625ef68ddce"},"vehicle_type_id":"4","last_reported":1762337555,"current_range_meters":0,"station_id":"","pricing_plan_id":"cebpf4jnsgd1na2vs0mg"},{"bike_id":"a3451d83-9c80-4ffa-96f9-a14c25634465","system_id":"levelo_inurba_marseille","lat":43.337444,"lon":5.374475,"is_reserved":false,"is_disabled":false,"rental_uris":{"android":"levelo://app?vid=a3451d83-9c80-4ffa-96f9-a14c25634465","ios":"levelo://app?vid=a3451d83-9c80-4ffa-96f9-a14c25634465"},"vehicle_type_id":"4","last_reported":1762337555,"current_range_meters":0,"station_id":"","pricing_plan_id":"cebpf4jnsgd1na2vs0mg"},{"bike_id":"19649598-fd0f-4237-a302-8b748132eb30","system_id":"levelo_inurba_marseille","lat":43.337444,"lon":5.374475,"is_reserved":false,"is_disabled":false,"rental_uris":{"android":"levelo://app?vid=19649598-fd0f-4237-a302-8b748132eb30","ios":"levelo://app?vid=19649598-fd0f-4237-a302-8b748132eb30"},"vehicle_type_id":"4","last_reported":1762337555,"current_range_meters":0,"station_id":"","pricing_plan_id":"cebpf4jnsgd1na2vs0mg"},{"bike_id":"79f0199f-1fbb-40b2-9337-191d82b520a7","system_id":"levelo_inurba_marseille","lat":43.337444,"lon":5.374475,"is_reserved":false,"is_disabled":false,"rental_uris":{"android":"levelo://app?vid=79f0199f-1fbb-40b2-9337-191d82b520a7","ios":"levelo://app?vid=79f0199f-1fbb-40b2-9337-191d82b520a7"},"vehicle_type_id":"4","last_reported":1762337555,"current_range_meters":0,"station_id":"","pricing_plan_id":"cebpf4jnsgd1na2vs0mg"},{"bike_id":"34a0d96e-bbf5-4ab6-8de8-a56cc767fd57","system_id":"levelo_inurba_marseille","lat":43.337444,"lon":5.374475,"is_reserved":false,"is_disabled":false,"rental_uris":{"android":"levelo://app?vid=34a0d96e-bbf5-4ab6-8de8-a56cc767fd57","ios":"levelo://app?vid=34a0d96e-bbf5-4ab6-8de8-a56cc767fd57"},"vehicle_type_id":"4","last_reported":1762337555,"current_range_meters":0,"station_id":"","pricing_plan_id":"cebpf4jnsgd1na2vs0mg"},{"bike_id":"30c4756b-2e3a-4ac9-b1fb-aa08283eecaa","system_id":"levelo_inurba_marseille","lat":43.337444,"lon":5.374475,"is_reserved":false,"is_disabled":false,"rental_uris":{"android":"levelo://app?vid=30c4756b-2e3a-4ac9-b1fb-aa08283eecaa","ios":"levelo://app?vid=30c4756b-2e3a-4ac9-b1fb-aa08283eecaa"},"vehicle_type_id":"4","last_reported":1762337555,"current_range_meters":0,"station_id":"","pricing_plan_id":"cebpf4jnsgd1na2vs0mg"},{"bike_id":"cb5b6ee7-3ef8-4299-a38d-cc32f035098b","system_id":"levelo_inurba_marseille","lat":43.337444,"lon":5.374475,"is_reserved":false,"is_disabled":false,"rental_uris":{"android":"levelo://app?vid=cb5b6ee7-3ef8-4299-a38d-cc32f035098b","ios":"levelo://app?vid=cb5b6ee7-3ef8-4299-a38d-cc32f035098b"},"vehicle_type_id":"4","last_reported":1762337555,"current_range_meters":0,"station_id":"","pricing_plan_id":"cebpf4jnsgd1na2vs0mg"},{"bike_id":"0dbf8834-1963-4427-879a-60d5139a1252","system_id":"levelo_inurba_marseille","lat":43.337444,"lon":5.374475,"is_reserved":false,"is_disabled":false,"rental_uris":{"android":"levelo://app?vid=0dbf8834-1963-4427-879a-60d5139a1252","ios":"levelo://app?vid=0dbf8834-1963-4427-879a-60d5139a1252"},"vehicle_type_id":"4","last_reported":1762337555,"current_range_meters":0,"station_id":"","pricing_plan_id":"cebpf4jnsgd1na2vs0mg"},{"bike_id":"c3d3ce5c-8075-4b42-9455-beadd1468f17","system_id":"levelo_inurba_marseille","lat":43.337444,"lon":5.374475,"is_reserved":false,"is_disabled":false,"rental_uris":{"android":"levelo://app?vid=c3d3ce5c-8075-4b42-9455-beadd1468f17","ios":"levelo://app?vid=c3d3ce5c-8075-4b42-9455-beadd1468f17"},"vehicle_type_id":"4","last_reported":1762337555,"current_range_meters":0,"station_id":"","pricing_plan_id":"cebpf4jnsgd1na2vs0mg"},{"bike_id":"2177a091-7ad7-4fcd-ad08-e78406d1a8ef","system_id":"levelo_inurba_marseille","lat":43.337444,"lon":5.374475,"is_reserved":false,"is_disabled":false,"rental_uris":{"android":"levelo://app?vid=2177a091-7ad7-4fcd-ad08-e78406d1a8ef","ios":"levelo://app?vid=2177a091-7ad7-4fcd-ad08-e78406d1a8ef"},"vehicle_type_id":"4","last_reported":1762337555,"current_range_meters":0,"station_id":"","pricing_plan_id":"cebpf4jnsgd1na2vs0mg"},{"bike_id":"ed2dc6ad-7a96-47d2-b4d0-3deee38fd62c","system_id":"levelo_inurba_marseille","lat":43.337444,"lon":5.374475,"is_reserved":false,"is_disabled":false,"rental_uris":{"android":"levelo://app?vid=ed2dc6ad-7a96-47d2-b4d0-3deee38fd62c","ios":"levelo://app?vid=ed2dc6ad-7a96-47d2-b4d0-3deee38fd62c"},"vehicle_type_id":"4","last_reported":1762337555,"current_range_meters":0,"station_id":"","pricing_plan_id":"cebpf4jnsgd1na2vs0mg"},{"bike_id":"42735ee1-244b-4d96-8480-f9806199924f","system_id":"levelo_inurba_marseille","lat":43.337444,"lon":5.374475,"is_reserved":false,"is_disabled":false,"rental_uris":{"android":"levelo://app?vid=42735ee1-244b-4d96-8480-f9806199924f","ios":"levelo://app?vid=42735ee1-244b-4d96-8480-f9806199924f"},"vehicle_type_id":"4","last_reported":1762337555,"current_range_meters":0,"station_id":"","pricing_plan_id":"cebpf4jnsgd1na2vs0mg"},{"bike_id":"0d7ab61a-02ec-456f-ab23-ba92f34594d5","system_id":"levelo_inurba_marseille","lat":43.337444,"lon":5.374475,"is_reserved":false,"is_disabled":false,"rental_uris":{"android":"levelo://app?vid=0d7ab61a-02ec-456f-ab23-ba92f34594d5","ios":"levelo://app?vid=0d7ab61a-02ec-456f-ab23-ba92f34594d5"},"vehicle_type_id":"4","last_reported":1762337555,"current_range_meters":0,"station_id":"","pricing_plan_id":"cebpf4jnsgd1na2vs0mg"},{"bike_id":"f68022fa-eb0a-4aac-8aea-6f2e14d0afb9","system_id":"levelo_inurba_marseille","lat":43.337444,"lon":5.374475,"is_reserved":false,"is_disabled":false,"rental_uris":{"android":"levelo://app?vid=f68022fa-eb0a-4aac-8aea-6f2e14d0afb9","ios":"levelo://app?vid=f68022fa-eb0a-4aac-8aea-6f2e14d0afb9"},"vehicle_type_id":"4","last_reported":1762337555,"current_range_meters":0,"station_id":"","pricing_plan_id":"cebpf4jnsgd1na2vs0mg"},{"bike_id":"386a9781-f1f4-4d33-8679-4d1163c3b9de","system_id":"levelo_inurba_marseille","lat":43.337444,"lon":5.374475,"is_reserved":false,"is_disabled":false,"rental_uris":{"android":"levelo://app?vid=386a9781-f1f4-4d33-8679-4d1163c3b9de","ios":"levelo://app?vid=386a9781-f1f4-4d33-8679-4d1163c3b9de"},"vehicle_type_id":"4","last_reported":1762337555,"current_range_meters":0,"station_id":"","pricing_plan_id":"cebpf4jnsgd1na2vs0mg"},{"bike_id":"4692d694-8a80-47c7-a7c6-1264ca94c6df","system_id":"levelo_inurba_marseille","lat":43.337444,"lon":5.374475,"is_reserved":false,"is_disabled":false,"rental_uris":{"android":"levelo://app?vid=4692d694-8a80-47c7-a7c6-1264ca94c6df","ios":"levelo://app?vid=4692d694-8a80-47c7-a7c6-1264ca94c6df"},"vehicle_type_id":"4","last_reported":1762337555,"current_range_meters":0,"station_id":"","pricing_plan_id":"cebpf4jnsgd1na2vs0mg"},{"bike_id":"4706d18d-408c-4dc1-a44f-b0f99f27bdf0","system_id":"levelo_inurba_marseille","lat":43.337444,"lon":5.374475,"is_reserved":false,"is_disabled":false,"rental_uris":{"android":"levelo://app?vid=4706d18d-408c-4dc1-a44f-b0f99f27bdf0","ios":"levelo://app?vid=4706d18d-408c-4dc1-a44f-b0f99f27bdf0"},"vehicle_type_id":"4","last_reported":1762337555,"current_range_meters":0,"station_id":"","pricing_plan_id":"cebpf4jnsgd1na2vs0mg"},{"bike_id":"abb77335-fe7b-4b75-9b2f-be4bb45cbb0d","system_id":"levelo_inurba_marseille","lat":43.337444,"lon":5.374475,"is_reserved":false,"is_disabled":false,"rental_uris":{"android":"levelo://app?vid=abb77335-fe7b-4b75-9b2f-be4bb45cbb0d","ios":"levelo://app?vid=abb77335-fe7b-4b75-9b2f-be4bb45cbb0d"},"vehicle_type_id":"4","last_reported":1762337555,"current_range_meters":0,"station_id":"","pricing_plan_id":"cebpf4jnsgd1na2vs0mg"},{"bike_id":"4bde9393-6919-41f3-8fef-f4b40f375cc0","system_id":"levelo_inurba_marseille","lat":43.337444,"lon":5.374475,"is_reserved":false,"is_disabled":false,"rental_uris":{"android":"levelo://app?vid=4bde9393-6919-41f3-8fef-f4b40f375cc0","ios":"levelo://app?vid=4bde9393-6919-41f3-8fef-f4b40f375cc0"},"vehicle_type_id":"4","last_reported":1762337555,"current_range_meters":0,"station_id":"","pricing_plan_id":"cebpf4jnsgd1na2vs0mg"},{"bike_id":"51f4e824-5009-4c5b-9283-cfda2d34404c","system_id":"levelo_inurba_marseille","lat":43.337444,"lon":5.374475,"is_reserved":false,"is_disabled":false,"rental_uris":{"android":"levelo://app?vid=51f4e824-5009-4c5b-9283-cfda2d34404c","ios":"levelo://app?vid=51f4e824-5009-4c5b-9283-cfda2d34404c"},"vehicle_type_id":"4","last_reported":1762337555,"current_range_meters":0,"station_id":"","pricing_plan_id":"cebpf4jnsgd1na2vs0mg"},{"bike_id":"d155d58c-f50a-4469-b126-b5af1b8d3f8a","system_id":"levelo_inurba_marseille","lat":43.337444,"lon":5.374475,"is_reserved":false,"is_disabled":false,"rental_uris":{"android":"levelo://app?vid=d155d58c-f50a-4469-b126-b5af1b8d3f8a","ios":"levelo://app?vid=d155d58c-f50a-4469-b126-b5af1b8d3f8a"},"vehicle_type_id":"4","last_reported":1762337555,"current_range_meters":0,"station_id":"","pricing_plan_id":"cebpf4jnsgd1na2vs0mg"},{"bike_id":"16f471c2-a8ed-4e61-ba2a-d83085a9c284","system_id":"levelo_inurba_marseille","lat":43.337444,"lon":5.374475,"is_reserved":false,"is_disabled":false,"rental_uris":{"android":"levelo://app?vid=16f471c2-a8ed-4e61-ba2a-d83085a9c284","ios":"levelo://app?vid=16f471c2-a8ed-4e61-ba2a-d83085a9c284"},"vehicle_type_id":"4","last_reported":1762337555,"current_range_meters":0,"station_id":"","pricing_plan_id":"cebpf4jnsgd1na2vs0mg"},{"bike_id":"b8bd4cc4-f519-43de-b194-2cc2cf75483c","system_id":"levelo_inurba_marseille","lat":43.337444,"lon":5.374475,"is_reserved":false,"is_disabled":false,"rental_uris":{"android":"levelo://app?vid=b8bd4cc4-f519-43de-b194-2cc2cf75483c","ios":"levelo://app?vid=b8bd4cc4-f519-43de-b194-2cc2cf75483c"},"vehicle_type_id":"4","last_reported":1762337555,"current_range_meters":0,"station_id":"","pricing_plan_id":"cebpf4jnsgd1na2vs0mg"},{"bike_id":"591b062c-0423-40a0-9120-f7c30f97e98f","system_id":"levelo_inurba_marseille","lat":43.337444,"lon":5.374475,"is_reserved":false,"is_disabled":false,"rental_uris":{"android":"levelo://app?vid=591b062c-0423-40a0-9120-f7c30f97e98f","ios":"levelo://app?vid=591b062c-0423-40a0-9120-f7c30f97e98f"},"vehicle_type_id":"4","last_reported":1762337555,"current_range_meters":0,"station_id":"","pricing_plan_id":"cebpf4jnsgd1na2vs0mg"},{"bike_id":"8fbb8d57-565e-4232-a867-846a316b3375","system_id":"levelo_inurba_marseille","lat":43.337444,"lon":5.374475,"is_reserved":false,"is_disabled":false,"rental_uris":{"android":"levelo://app?vid=8fbb8d57-565e-4232-a867-846a316b3375","ios":"levelo://app?vid=8fbb8d57-565e-4232-a867-846a316b3375"},"vehicle_type_id":"4","last_reported":1762337555,"current_range_meters":0,"station_id":"","pricing_plan_id":"cebpf4jnsgd1na2vs0mg"},{"bike_id":"e6134458-396f-46c5-87ab-a79cf2b6424c","system_id":"levelo_inurba_marseille","lat":43.337444,"lon":5.374475,"is_reserved":false,"is_disabled":false,"rental_uris":{"android":"levelo://app?vid=e6134458-396f-46c5-87ab-a79cf2b6424c","ios":"levelo://app?vid=e6134458-396f-46c5-87ab-a79cf2b6424c"},"vehicle_type_id":"4","last_reported":1762337555,"current_range_meters":0,"station_id":"","pricing_plan_id":"cebpf4jnsgd1na2vs0mg"},{"bike_id":"0a0d4295-fe5b-4614-b2ca-f5579d5190b0","system_id":"levelo_inurba_marseille","lat":43.337444,"lon":5.374475,"is_reserved":false,"is_disabled":false,"rental_uris":{"android":"levelo://app?vid=0a0d4295-fe5b-4614-b2ca-f5579d5190b0","ios":"levelo://app?vid=0a0d4295-fe5b-4614-b2ca-f5579d5190b0"},"vehicle_type_id":"4","last_reported":1762337555,"current_range_meters":0,"station_id":"","pricing_plan_id":"cebpf4jnsgd1na2vs0mg"},{"bike_id":"91dfed3f-615a-42b2-a64a-fe486533e0e1","system_id":"levelo_inurba_marseille","lat":43.31031,"lon":5.37524,"is_reserved":false,"is_disabled":false,"rental_uris":{"android":"levelo://app?vid=91dfed3f-615a-42b2-a64a-fe486533e0e1","ios":"levelo://app?vid=91dfed3f-615a-42b2-a64a-fe486533e0e1"},"vehicle_type_id":"4","last_reported":1762337555,"current_range_meters":2800,"station_id":"","pricing_plan_id":"cebpf4jnsgd1na2vs0mg"},{"bike_id":"6485b62c-f50c-43f7-adb4-f56ee71c2117","system_id":"levelo_inurba_marseille","lat":43.29617,"lon":5.37124,"is_reserved":false,"is_disabled":false,"rental_uris":{"android":"levelo://app?vid=6485b62c-f50c-43f7-adb4-f56ee71c2117","ios":"levelo://app?vid=6485b62c-f50c-43f7-adb4-f56ee71c2117"},"vehicle_type_id":"4","last_reported":1762337555,"current_range_meters":2800,"station_id":"","pricing_plan_id":"cebpf4jnsgd1na2vs0mg"},{"bike_id":"f0b14cfe-60b3-4573-80a3-1d31373cc742","system_id":"levelo_inurba_marseille","lat":43.27212,"lon":5.391857,"is_reserved":false,"is_disabled":false,"rental_uris":{"android":"levelo://app?vid=f0b14cfe-60b3-4573-80a3-1d31373cc742","ios":"levelo://app?vid=f0b14cfe-60b3-4573-80a3-1d31373cc742"},"vehicle_type_id":"4","last_reported":1762337555,"current_range_meters":3200,"station_id":"ce4bhhp2rcd13ifvqfm0","pricing_plan_id":"cebpf4jnsgd1na2vs0mg"},{"bike_id":"3ed531a7-b742-45bd-8774-6cfc1a37c8bc","system_id":"levelo_inurba_marseille","lat":43.27377,"lon":5.36257,"is_reserved":false,"is_disabled":false,"rental_uris":{"android":"levelo://app?vid=3ed531a7-b742-45bd-8774-6cfc1a37c8bc","ios":"levelo://app?vid=3ed531a7-b742-45bd-8774-6cfc1a37c8bc"},"vehicle_type_id":"4","last_reported":1762337555,"current_range_meters":3600,"station_id":"ce4bhbh2rcd13ifvqeo0","pricing_plan_id":"cebpf4jnsgd1na2vs0mg"},{"bike_id":"e316d8c0-567f-4794-97db-615dfaa55771","system_id":"levelo_inurba_marseille","lat":43.295319,"lon":5.375021,"is_reserved":false,"is_disabled":true,"rental_uris":{"android":"levelo://app?vid=e316d8c0-567f-4794-97db-615dfaa55771","ios":"levelo://app?vid=e316d8c0-567f-4794-97db-615dfaa55771"},"vehicle_type_id":"4","last_reported":1762337555,"current_range_meters":3600,"station_id":"ce4bgkp2rcd13ifvqbmg","pricing_plan_id":"cebpf4jnsgd1na2vs0mg"},{"bike_id":"67842f6f-98fe-4358-b85e-7f04e0f0b59c","system_id":"levelo_inurba_marseille","lat":43.313499,"lon":5.379119,"is_reserved":false,"is_disabled":true,"rental_uris":{"android":"levelo://app?vid=67842f6f-98fe-4358-b85e-7f04e0f0b59c","ios":"levelo://app?vid=67842f6f-98fe-4358-b85e-7f04e0f0b59c"},"vehicle_type_id":"4","last_reported":1762337555,"current_range_meters":3600,"station_id":"","pricing_plan_id":"cebpf4jnsgd1na2vs0mg"},{"bike_id":"a59f75b6-8da6-40b2-871d-14154434d260","system_id":"levelo_inurba_marseille","lat":43.25124,"lon":5.40319,"is_reserved":false,"is_disabled":false,"rental_uris":{"android":"levelo://app?vid=a59f75b6-8da6-40b2-871d-14154434d260","ios":"levelo://app?vid=a59f75b6-8da6-40b2-871d-14154434d260"},"vehicle_type_id":"4","last_reported":1762337555,"current_range_meters":3600,"station_id":"ce4bhlh2rcd13ifvqgig","pricing_plan_id":"cebpf4jnsgd1na2vs0mg"},{"bike_id":"4206fd1c-fca5-4468-81b6-1c50d2a4a589","system_id":"levelo_inurba_marseille","lat":43.29778,"lon":5.43806,"is_reserved":false,"is_disabled":false,"rental_uris":{"android":"levelo://app?vid=4206fd1c-fca5-4468-81b6-1c50d2a4a589","ios":"levelo://app?vid=4206fd1c-fca5-4468-81b6-1c50d2a4a589"},"vehicle_type_id":"4","last_reported":1762337555,"current_range_meters":4000,"station_id":"","pricing_plan_id":"cebpf4jnsgd1na2vs0mg"},{"bike_id":"53dda434-dc8b-4c51-879b-e5cd0d7bf8c7","system_id":"levelo_inurba_marseille","lat":43.31225,"lon":5.36841,"is_reserved":false,"is_disabled":false,"rental_uris":{"android":"levelo://app?vid=53dda434-dc8b-4c51-879b-e5cd0d7bf8c7","ios":"levelo://app?vid=53dda434-dc8b-4c51-879b-e5cd0d7bf8c7"},"vehicle_type_id":"4","last_reported":1762337555,"current_range_meters":4000,"station_id":"ce4bgl92rcd13ifvqbq0","pricing_plan_id":"cebpf4jnsgd1na2vs0mg"},{"bike_id":"3fff9ed6-b883-45c3-b97c-e1c1e8fd4ca2","system_id":"levelo_inurba_marseille","lat":43.285373,"lon":5.440936,"is_reserved":false,"is_disabled":false,"rental_uris":{"android":"levelo://app?vid=3fff9ed6-b883-45c3-b97c-e1c1e8fd4ca2","ios":"levelo://app?vid=3fff9ed6-b883-45c3-b97c-e1c1e8fd4ca2"},"vehicle_type_id":"4","last_reported":1762337555,"current_range_meters":4000,"station_id":"st_d3j3df2ikq2c7380ej80","pricing_plan_id":"cebpf4jnsgd1na2vs0mg"},{"bike_id":"f03d3f0f-99e7-4575-a0fc-f65baa2fd4bc","system_id":"levelo_inurba_marseille","lat":43.240784,"lon":5.377533,"is_reserved":false,"is_disabled":false,"rental_uris":{"android":"levelo://app?vid=f03d3f0f-99e7-4575-a0fc-f65baa2fd4bc","ios":"levelo://app?vid=f03d3f0f-99e7-4575-a0fc-f65baa2fd4bc"},"vehicle_type_id":"4","last_reported":1762337555,"current_range_meters":4400,"station_id":"ce4bhnp2rcd13ifvqgvg","pricing_plan_id":"cebpf4jnsgd1na2vs0mg"},{"bike_id":"84bd883a-edfa-437a-baf8-ed41aa2d6bee","system_id":"levelo_inurba_marseille","lat":43.3096,"lon":5.39046,"is_reserved":false,"is_disabled":false,"rental_uris":{"android":"levelo://app?vid=84bd883a-edfa-437a-baf8-ed41aa2d6bee","ios":"levelo://app?vid=84bd883a-edfa-437a-baf8-ed41aa2d6bee"},"vehicle_type_id":"4","last_reported":1762337555,"current_range_meters":4400,"station_id":"ce4bgup2rcd13ifvqco0","pricing_plan_id":"cebpf4jnsgd1na2vs0mg"},{"bike_id":"c0f46e04-4f88-4801-95c0-3c8eb8460e0b","system_id":"levelo_inurba_marseille","lat":43.30536,"lon":5.36532,"is_reserved":false,"is_disabled":false,"rental_uris":{"android":"levelo://app?vid=c0f46e04-4f88-4801-95c0-3c8eb8460e0b","ios":"levelo://app?vid=c0f46e04-4f88-4801-95c0-3c8eb8460e0b"},"vehicle_type_id":"4","last_reported":1762337555,"current_range_meters":4800,"station_id":"ce4bgs12rcd13ifvqcag","pricing_plan_id":"cebpf4jnsgd1na2vs0mg"},{"bike_id":"5f6387e6-d056-4c73-b779-46bee785c5cf","system_id":"levelo_inurba_marseille","lat":43.28001,"lon":5.41659,"is_reserved":false,"is_disabled":false,"rental_uris":{"android":"levelo://app?vid=5f6387e6-d056-4c73-b779-46bee785c5cf","ios":"levelo://app?vid=5f6387e6-d056-4c73-b779-46bee785c5cf"},"vehicle_type_id":"4","last_reported":1762337555,"current_range_meters":4800,"station_id":"ce4bho12rcd13ifvqh1g","pricing_plan_id":"cebpf4jnsgd1na2vs0mg"},{"bike_id":"909f4426-e5f6-4dc5-ac56-71353b6545aa","system_id":"levelo_inurba_marseille","lat":43.304915,"lon":5.379057,"is_reserved":false,"is_disabled":false,"rental_uris":{"android":"levelo://app?vid=909f4426-e5f6-4dc5-ac56-71353b6545aa","ios":"levelo://app?vid=909f4426-e5f6-4dc5-ac56-71353b6545aa"},"vehicle_type_id":"4","last_reported":1762337555,"current_range_meters":4800,"station_id":"ce4bgup2rcd13ifvqcn0","pricing_plan_id":"cebpf4jnsgd1na2vs0mg"},{"bike_id":"b7274164-d104-4569-8e8d-d56b2a397565","system_id":"levelo_inurba_marseille","lat":43.28483,"lon":5.483858,"is_reserved":false,"is_disabled":false,"rental_uris":{"android":"levelo://app?vid=b7274164-d104-4569-8e8d-d56b2a397565","ios":"levelo://app?vid=b7274164-d104-4569-8e8d-d56b2a397565"},"vehicle_type_id":"4","last_reported":1762337555,"current_range_meters":4800,"station_id":"st_d3svhcjqgbts73a3dn0g","pricing_plan_id":"cebpf4jnsgd1na2vs0mg"},{"bike_id":"565e4048-c739-4d89-a798-a6d0d48e5098","system_id":"levelo_inurba_marseille","lat":43.30555,"lon":5.3655,"is_reserved":false,"is_disabled":false,"rental_uris":{"android":"levelo://app?vid=565e4048-c739-4d89-a798-a6d0d48e5098","ios":"levelo://app?vid=565e4048-c739-4d89-a798-a6d0d48e5098"},"vehicle_type_id":"4","last_reported":1762337555,"current_range_meters":4800,"station_id":"ce4bgs12rcd13ifvqcag","pricing_plan_id":"cebpf4jnsgd1na2vs0mg"},{"bike_id":"6b584dfc-9ae5-43a1-9b6e-c68f93817c95","system_id":"levelo_inurba_marseille","lat":43.27941,"lon":5.41053,"is_reserved":false,"is_disabled":false,"rental_uris":{"android":"levelo://app?vid=6b584dfc-9ae5-43a1-9b6e-c68f93817c95","ios":"levelo://app?vid=6b584dfc-9ae5-43a1-9b6e-c68f93817c95"},"vehicle_type_id":"4","last_reported":1762337555,"current_range_meters":5600,"station_id":"ce4bhnp2rcd13ifvqh0g","pricing_plan_id":"cebpf4jnsgd1na2vs0mg"},{"bike_id":"9055720e-dbd9-47be-9cf3-5829c71874ab","system_id":"levelo_inurba_marseille","lat":43.29968,"lon":5.38495,"is_reserved":false,"is_disabled":false,"rental_uris":{"android":"levelo://app?vid=9055720e-dbd9-47be-9cf3-5829c71874ab","ios":"levelo://app?vid=9055720e-dbd9-47be-9cf3-5829c71874ab"},"vehicle_type_id":"4","last_reported":1762337555,"current_range_meters":5600,"station_id":"ce4bgj92rcd13ifvqbd0","pricing_plan_id":"cebpf4jnsgd1na2vs0mg"},{"bike_id":"735fc2e6-8193-413d-9b5a-70675b12fe54","system_id":"levelo_inurba_marseille","lat":43.27997,"lon":5.40021,"is_reserved":false,"is_disabled":false,"rental_uris":{"android":"levelo://app?vid=735fc2e6-8193-413d-9b5a-70675b12fe54","ios":"levelo://app?vid=735fc2e6-8193-413d-9b5a-70675b12fe54"},"vehicle_type_id":"4","last_reported":1762337555,"current_range_meters":5600,"station_id":"ce4bho92rcd13ifvqh4g","pricing_plan_id":"cebpf4jnsgd1na2vs0mg"},{"bike_id":"a09c6255-01cd-4bcc-b256-155b5ccc16ec","system_id":"levelo_inurba_marseille","lat":43.30464,"lon":5.37906,"is_reserved":false,"is_disabled":false,"rental_uris":{"android":"levelo://app?vid=a09c6255-01cd-4bcc-b256-155b5ccc16ec","ios":"levelo://app?vid=a09c6255-01cd-4bcc-b256-155b5ccc16ec"},"vehicle_type_id":"4","last_reported":1762337555,"current_range_meters":5600,"station_id":"ce4bgup2rcd13ifvqcn0","pricing_plan_id":"cebpf4jnsgd1na2vs0mg"},{"bike_id":"dac4e37b-740a-47de-b415-ef991f144a88","system_id":"levelo_inurba_marseille","lat":43.29621,"lon":5.37168,"is_reserved":false,"is_disabled":false,"rental_uris":{"android":"levelo://app?vid=dac4e37b-740a-47de-b415-ef991f144a88","ios":"levelo://app?vid=dac4e37b-740a-47de-b415-ef991f144a88"},"vehicle_type_id":"4","last_reported":1762337555,"current_range_meters":6000,"station_id":"ce4bgnh2rcd13ifvqc0g","pricing_plan_id":"cebpf4jnsgd1na2vs0mg"},{"bike_id":"49f13488-3a94-4c31-8203-2445daaa2d09","system_id":"levelo_inurba_marseille","lat":43.283346,"lon":5.398162,"is_reserved":false,"is_disabled":false,"rental_uris":{"android":"levelo://app?vid=49f13488-3a94-4c31-8203-2445daaa2d09","ios":"levelo://app?vid=49f13488-3a94-4c31-8203-2445daaa2d09"},"vehicle_type_id":"4","last_reported":1762337555,"current_range_meters":6000,"station_id":"","pricing_plan_id":"cebpf4jnsgd1na2vs0mg"},{"bike_id":"fa03f619-3a46-4a47-92d6-4e4b6a15922a","system_id":"levelo_inurba_marseille","lat":43.29273,"lon":5.40126,"is_reserved":false,"is_disabled":true,"rental_uris":{"android":"levelo://app?vid=fa03f619-3a46-4a47-92d6-4e4b6a15922a","ios":"levelo://app?vid=fa03f619-3a46-4a47-92d6-4e4b6a15922a"},"vehicle_type_id":"4","last_reported":1762337555,"current_range_meters":6000,"station_id":"ce4bh312rcd13ifvqdk0","pricing_plan_id":"cebpf4jnsgd1na2vs0mg"},{"bike_id":"28b85111-1e3c-4e94-9d4a-5a837507bfee","system_id":"levelo_inurba_marseille","lat":43.297209,"lon":5.4265,"is_reserved":false,"is_disabled":false,"rental_uris":{"android":"levelo://app?vid=28b85111-1e3c-4e94-9d4a-5a837507bfee","ios":"levelo://app?vid=28b85111-1e3c-4e94-9d4a-5a837507bfee"},"vehicle_type_id":"4","last_reported":1762337555,"current_range_meters":6400,"station_id":"","pricing_plan_id":"cebpf4jnsgd1na2vs0mg"},{"bike_id":"aa245444-6a34-4efe-9949-e29bca990e53","system_id":"levelo_inurba_marseille","lat":43.21734,"lon":5.345927,"is_reserved":false,"is_disabled":false,"rental_uris":{"android":"levelo://app?vid=aa245444-6a34-4efe-9949-e29bca990e53","ios":"levelo://app?vid=aa245444-6a34-4efe-9949-e29bca990e53"},"vehicle_type_id":"4","last_reported":1762337555,"current_range_meters":6400,"station_id":"st_cvj6r9ubvosntc0bgbag","pricing_plan_id":"cebpf4jnsgd1na2vs0mg"},{"bike_id":"b2edbec7-9959-4a3c-90f0-6e77723c6b7d","system_id":"levelo_inurba_marseille","lat":43.31738,"lon":5.42391,"is_reserved":false,"is_disabled":false,"rental_uris":{"android":"levelo://app?vid=b2edbec7-9959-4a3c-90f0-6e77723c6b7d","ios":"levelo://app?vid=b2edbec7-9959-4a3c-90f0-6e77723c6b7d"},"vehicle_type_id":"4","last_reported":1762337555,"current_range_meters":6400,"station_id":"ce4bhp92rcd13ifvqhbg","pricing_plan_id":"cebpf4jnsgd1na2vs0mg"},{"bike_id":"4814038c-5b41-4692-abd2-7f4cb41153cd","system_id":"levelo_inurba_marseille","lat":43.3117,"lon":5.38715,"is_reserved":false,"is_disabled":false,"rental_uris":{"android":"levelo://app?vid=4814038c-5b41-4692-abd2-7f4cb41153cd","ios":"levelo://app?vid=4814038c-5b41-4692-abd2-7f4cb41153cd"},"vehicle_type_id":"4","last_reported":1762337555,"current_range_meters":6400,"station_id":"ce4bgv12rcd13ifvqcp0","pricing_plan_id":"cebpf4jnsgd1na2vs0mg"},{"bike_id":"2f838315-9d8e-40da-9e79-103124df0adf","system_id":"levelo_inurba_marseille","lat":43.23771,"lon":5.36649,"is_reserved":false,"is_disabled":false,"rental_uris":{"android":"levelo://app?vid=2f838315-9d8e-40da-9e79-103124df0adf","ios":"levelo://app?vid=2f838315-9d8e-40da-9e79-103124df0adf"},"vehicle_type_id":"4","last_reported":1762337555,"current_range_meters":6400,"station_id":"st_d3nk18o9ro0c73en2l3g","pricing_plan_id":"cebpf4jnsgd1na2vs0mg"},{"bike_id":"610496fb-dd48-4b87-b9d3-9e79312f0b9c","system_id":"levelo_inurba_marseille","lat":43.33593,"lon":5.40988,"is_reserved":false,"is_disabled":false,"rental_uris":{"android":"levelo://app?vid=610496fb-dd48-4b87-b9d3-9e79312f0b9c","ios":"levelo://app?vid=610496fb-dd48-4b87-b9d3-9e79312f0b9c"},"vehicle_type_id":"4","last_reported":1762337555,"current_range_meters":6800,"station_id":"ce4bhqh2rcd13ifvqhmg","pricing_plan_id":"cebpf4jnsgd1na2vs0mg"},{"bike_id":"86c0f716-adc6-4d92-acb1-f61051c05c50","system_id":"levelo_inurba_marseille","lat":43.23183,"lon":5.39994,"is_reserved":false,"is_disabled":false,"rental_uris":{"android":"levelo://app?vid=86c0f716-adc6-4d92-acb1-f61051c05c50","ios":"levelo://app?vid=86c0f716-adc6-4d92-acb1-f61051c05c50"},"vehicle_type_id":"4","last_reported":1762337555,"current_range_meters":6800,"station_id":"ce4bhn12rcd13ifvqgqg","pricing_plan_id":"cebpf4jnsgd1na2vs0mg"},{"bike_id":"2a9f3f66-6cab-4774-86fd-de269055156c","system_id":"levelo_inurba_marseille","lat":43.29852,"lon":5.36265,"is_reserved":false,"is_disabled":false,"rental_uris":{"android":"levelo://app?vid=2a9f3f66-6cab-4774-86fd-de269055156c","ios":"levelo://app?vid=2a9f3f66-6cab-4774-86fd-de269055156c"},"vehicle_type_id":"4","last_reported":1762337555,"current_range_meters":6800,"station_id":"ce4bgpp2rcd13ifvqc3g","pricing_plan_id":"cebpf4jnsgd1na2vs0mg"},{"bike_id":"189f5c58-4c8a-45c7-b65c-5e7eef4ba4f6","system_id":"levelo_inurba_marseille","lat":43.27842,"lon":5.39204,"is_reserved":false,"is_disabled":false,"rental_uris":{"android":"levelo://app?vid=189f5c58-4c8a-45c7-b65c-5e7eef4ba4f6","ios":"levelo://app?vid=189f5c58-4c8a-45c7-b65c-5e7eef4ba4f6"},"vehicle_type_id":"4","last_reported":1762337555,"current_range_meters":7200,"station_id":"","pricing_plan_id":"cebpf4jnsgd1na2vs0mg"},{"bike_id":"3800314d-6410-4feb-bd76-28cb0729c673","system_id":"levelo_inurba_marseille","lat":43.3034,"lon":5.40073,"is_reserved":false,"is_disabled":false,"rental_uris":{"android":"levelo://app?vid=3800314d-6410-4feb-bd76-28cb0729c673","ios":"levelo://app?vid=3800314d-6410-4feb-bd76-28cb0729c673"},"vehicle_type_id":"4","last_reported":1762337555,"current_range_meters":7200,"station_id":"","pricing_plan_id":"cebpf4jnsgd1na2vs0mg"},{"bike_id":"11d40e71-4ca5-48fa-8510-84cd0e14098e","system_id":"levelo_inurba_marseille","lat":43.23195,"lon":5.35549,"is_reserved":false,"is_disabled":false,"rental_uris":{"android":"levelo://app?vid=11d40e71-4ca5-48fa-8510-84cd0e14098e","ios":"levelo://app?vid=11d40e71-4ca5-48fa-8510-84cd0e14098e"},"vehicle_type_id":"4","last_reported":1762337555,"current_range_meters":7200,"station_id":"ce4bhu92rcd13ifvqi70","pricing_plan_id":"cebpf4jnsgd1na2vs0mg"},{"bike_id":"5e6ed3c5-083f-4298-af98-8291b64959a8","system_id":"levelo_inurba_marseille","lat":43.31694,"lon":5.40476,"is_reserved":false,"is_disabled":false,"rental_uris":{"android":"levelo://app?vid=5e6ed3c5-083f-4298-af98-8291b64959a8","ios":"levelo://app?vid=5e6ed3c5-083f-4298-af98-8291b64959a8"},"vehicle_type_id":"4","last_reported":1762337555,"current_range_meters":7200,"station_id":"ce4bh012rcd13ifvqd00","pricing_plan_id":"cebpf4jnsgd1na2vs0mg"},{"bike_id":"86cf9704-e11f-4bcb-bcec-dbea741e68d5","system_id":"levelo_inurba_marseille","lat":43.29379,"lon":5.37846,"is_reserved":false,"is_disabled":false,"rental_uris":{"android":"levelo://app?vid=86cf9704-e11f-4bcb-bcec-dbea741e68d5","ios":"levelo://app?vid=86cf9704-e11f-4bcb-bcec-dbea741e68d5"},"vehicle_type_id":"4","last_reported":1762337555,"current_range_meters":7200,"station_id":"ce4bgjh2rcd13ifvqbf0","pricing_plan_id":"cebpf4jnsgd1na2vs0mg"},{"bike_id":"f558d479-ce57-4cf0-a0fa-5a549c753dc8","system_id":"levelo_inurba_marseille","lat":43.23066,"lon":5.35496,"is_reserved":false,"is_disabled":false,"rental_uris":{"android":"levelo://app?vid=f558d479-ce57-4cf0-a0fa-5a549c753dc8","ios":"levelo://app?vid=f558d479-ce57-4cf0-a0fa-5a549c753dc8"},"vehicle_type_id":"4","last_reported":1762337555,"current_range_meters":8000,"station_id":"cpo3342slgdg3j2ifvpg","pricing_plan_id":"cebpf4jnsgd1na2vs0mg"},{"bike_id":"654dc482-8458-4686-a09b-a5e21a822232","system_id":"levelo_inurba_marseille","lat":43.23197,"lon":5.35549,"is_reserved":false,"is_disabled":true,"rental_uris":{"android":"levelo://app?vid=654dc482-8458-4686-a09b-a5e21a822232","ios":"levelo://app?vid=654dc482-8458-4686-a09b-a5e21a822232"},"vehicle_type_id":"4","last_reported":1762337555,"current_range_meters":8000,"station_id":"ce4bhu92rcd13ifvqi70","pricing_plan_id":"cebpf4jnsgd1na2vs0mg"},{"bike_id":"0f5b83b7-6a87-462e-b8b4-5558011e2f85","system_id":"levelo_inurba_marseille","lat":43.33594,"lon":5.41041,"is_reserved":false,"is_disabled":false,"rental_uris":{"android":"levelo://app?vid=0f5b83b7-6a87-462e-b8b4-5558011e2f85","ios":"levelo://app?vid=0f5b83b7-6a87-462e-b8b4-5558011e2f85"},"vehicle_type_id":"4","last_reported":1762337555,"current_range_meters":8000,"station_id":"ce4bhqh2rcd13ifvqhmg","pricing_plan_id":"cebpf4jnsgd1na2vs0mg"},{"bike_id":"62a7cbdc-1473-4213-b423-400b7a94035c","system_id":"levelo_inurba_marseille","lat":43.231532,"lon":5.437158,"is_reserved":false,"is_disabled":false,"rental_uris":{"android":"levelo://app?vid=62a7cbdc-1473-4213-b423-400b7a94035c","ios":"levelo://app?vid=62a7cbdc-1473-4213-b423-400b7a94035c"},"vehicle_type_id":"4","last_reported":1762337555,"current_range_meters":8000,"station_id":"ce4bhmp2rcd13ifvqgog","pricing_plan_id":"cebpf4jnsgd1na2vs0mg"},{"bike_id":"844d4ff5-36ff-43b6-b15e-91e430098692","system_id":"levelo_inurba_marseille","lat":43.245457,"lon":5.395216,"is_reserved":false,"is_disabled":false,"rental_uris":{"android":"levelo://app?vid=844d4ff5-36ff-43b6-b15e-91e430098692","ios":"levelo://app?vid=844d4ff5-36ff-43b6-b15e-91e430098692"},"vehicle_type_id":"4","last_reported":1762337555,"current_range_meters":8000,"station_id":"ce4bhlp2rcd13ifvqgjg","pricing_plan_id":"cebpf4jnsgd1na2vs0mg"},{"bike_id":"aacf42e0-2f18-4200-a64b-11d1f88c92f0","system_id":"levelo_inurba_marseille","lat":43.292671,"lon":5.37626,"is_reserved":false,"is_disabled":true,"rental_uris":{"android":"levelo://app?vid=aacf42e0-2f18-4200-a64b-11d1f88c92f0","ios":"levelo://app?vid=aacf42e0-2f18-4200-a64b-11d1f88c92f0"},"vehicle_type_id":"4","last_reported":1762337555,"current_range_meters":8400,"station_id":"ce4bgi12rcd13ifvqb80","pricing_plan_id":"cebpf4jnsgd1na2vs0mg"},{"bike_id":"ca027186-72c6-4358-8d7a-70b219e6273a","system_id":"levelo_inurba_marseille","lat":43.35164,"lon":5.38436,"is_reserved":false,"is_disabled":false,"rental_uris":{"android":"levelo://app?vid=ca027186-72c6-4358-8d7a-70b219e6273a","ios":"levelo://app?vid=ca027186-72c6-4358-8d7a-70b219e6273a"},"vehicle_type_id":"4","last_reported":1762337555,"current_range_meters":8400,"station_id":"","pricing_plan_id":"cebpf4jnsgd1na2vs0mg"},{"bike_id":"777a2a43-5abf-4f53-95ce-567e131b3144","system_id":"levelo_inurba_marseille","lat":43.30165,"lon":5.38092,"is_reserved":false,"is_disabled":false,"rental_uris":{"android":"levelo://app?vid=777a2a43-5abf-4f53-95ce-567e131b3144","ios":"levelo://app?vid=777a2a43-5abf-4f53-95ce-567e131b3144"},"vehicle_type_id":"4","last_reported":1762337555,"current_range_meters":8400,"station_id":"ce4bgjp2rcd13ifvqbh0","pricing_plan_id":"cebpf4jnsgd1na2vs0mg"},{"bike_id":"341c8253-ea87-40d9-ac2c-0a0c2a78b5f4","system_id":"levelo_inurba_marseille","lat":43.297223,"lon":5.376677,"is_reserved":false,"is_disabled":false,"rental_uris":{"android":"levelo://app?vid=341c8253-ea87-40d9-ac2c-0a0c2a78b5f4","ios":"levelo://app?vid=341c8253-ea87-40d9-ac2c-0a0c2a78b5f4"},"vehicle_type_id":"4","last_reported":1762337555,"current_range_meters":8400,"station_id":"ce4bgkh2rcd13ifvqbl0","pricing_plan_id":"cebpf4jnsgd1na2vs0mg"},{"bike_id":"398fa1cd-6e6f-4f71-b261-f57c4fcde186","system_id":"levelo_inurba_marseille","lat":43.25589,"lon":5.38235,"is_reserved":false,"is_disabled":false,"rental_uris":{"android":"levelo://app?vid=398fa1cd-6e6f-4f71-b261-f57c4fcde186","ios":"levelo://app?vid=398fa1cd-6e6f-4f71-b261-f57c4fcde186"},"vehicle_type_id":"4","last_reported":1762337555,"current_range_meters":8400,"station_id":"ce4bhih2rcd13ifvqfs0","pricing_plan_id":"cebpf4jnsgd1na2vs0mg"},{"bike_id":"59d203e3-8670-4432-bc5c-c7b4f59cc8d9","system_id":"levelo_inurba_marseille","lat":43.211942,"lon":5.350749,"is_reserved":false,"is_disabled":false,"rental_uris":{"android":"levelo://app?vid=59d203e3-8670-4432-bc5c-c7b4f59cc8d9","ios":"levelo://app?vid=59d203e3-8670-4432-bc5c-c7b4f59cc8d9"},"vehicle_type_id":"4","last_reported":1762337555,"current_range_meters":8800,"station_id":"","pricing_plan_id":"cebpf4jnsgd1na2vs0mg"},{"bike_id":"58b9e0a5-957a-43c8-b168-272d9a536430","system_id":"levelo_inurba_marseille","lat":43.29452,"lon":5.37408,"is_reserved":false,"is_disabled":false,"rental_uris":{"android":"levelo://app?vid=58b9e0a5-957a-43c8-b168-272d9a536430","ios":"levelo://app?vid=58b9e0a5-957a-43c8-b168-272d9a536430"},"vehicle_type_id":"4","last_reported":1762337555,"current_range_meters":8800,"station_id":"ce4bgnh2rcd13ifvqc0g","pricing_plan_id":"cebpf4jnsgd1na2vs0mg"},{"bike_id":"d6dec5ae-76b1-412e-a4aa-15470120ca06","system_id":"levelo_inurba_marseille","lat":43.3095,"lon":5.39029,"is_reserved":false,"is_disabled":false,"rental_uris":{"android":"levelo://app?vid=d6dec5ae-76b1-412e-a4aa-15470120ca06","ios":"levelo://app?vid=d6dec5ae-76b1-412e-a4aa-15470120ca06"},"vehicle_type_id":"4","last_reported":1762337555,"current_range_meters":8800,"station_id":"ce4bgup2rcd13ifvqco0","pricing_plan_id":"cebpf4jnsgd1na2vs0mg"},{"bike_id":"8625fd71-52f7-4d25-987b-6e76164035a5","system_id":"levelo_inurba_marseille","lat":43.30788,"lon":5.40539,"is_reserved":false,"is_disabled":false,"rental_uris":{"android":"levelo://app?vid=8625fd71-52f7-4d25-987b-6e76164035a5","ios":"levelo://app?vid=8625fd71-52f7-4d25-987b-6e76164035a5"},"vehicle_type_id":"4","last_reported":1762337555,"current_range_meters":8800,"station_id":"","pricing_plan_id":"cebpf4jnsgd1na2vs0mg"},{"bike_id":"15bd83da-2b8f-4f14-8672-f57860ca4129","system_id":"levelo_inurba_marseille","lat":43.286961,"lon":5.373923,"is_reserved":false,"is_disabled":false,"rental_uris":{"android":"levelo://app?vid=15bd83da-2b8f-4f14-8672-f57860ca4129","ios":"levelo://app?vid=15bd83da-2b8f-4f14-8672-f57860ca4129"},"vehicle_type_id":"4","last_reported":1762337555,"current_range_meters":8800,"station_id":"ce4bh3p2rcd13ifvqdq0","pricing_plan_id":"cebpf4jnsgd1na2vs0mg"},{"bike_id":"49f131d8-1fae-4270-9eb7-996cb0d50b6e","system_id":"levelo_inurba_marseille","lat":43.26549,"lon":5.37286,"is_reserved":false,"is_disabled":false,"rental_uris":{"android":"levelo://app?vid=49f131d8-1fae-4270-9eb7-996cb0d50b6e","ios":"levelo://app?vid=49f131d8-1fae-4270-9eb7-996cb0d50b6e"},"vehicle_type_id":"4","last_reported":1762337555,"current_range_meters":9200,"station_id":"ce4bhg12rcd13ifvqf70","pricing_plan_id":"cebpf4jnsgd1na2vs0mg"},{"bike_id":"68d146d0-a1e1-4df2-bed0-1d4c93812841","system_id":"levelo_inurba_marseille","lat":43.29848,"lon":5.40861,"is_reserved":false,"is_disabled":false,"rental_uris":{"android":"levelo://app?vid=68d146d0-a1e1-4df2-bed0-1d4c93812841","ios":"levelo://app?vid=68d146d0-a1e1-4df2-bed0-1d4c93812841"},"vehicle_type_id":"4","last_reported":1762337555,"current_range_meters":9200,"station_id":"","pricing_plan_id":"cebpf4jnsgd1na2vs0mg"},{"bike_id":"c99f28e1-e537-4360-b0c5-9ae538f63dea","system_id":"levelo_inurba_marseille","lat":43.30471,"lon":5.37915,"is_reserved":false,"is_disabled":false,"rental_uris":{"android":"levelo://app?vid=c99f28e1-e537-4360-b0c5-9ae538f63dea","ios":"levelo://app?vid=c99f28e1-e537-4360-b0c5-9ae538f63dea"},"vehicle_type_id":"4","last_reported":1762337555,"current_range_meters":9200,"station_id":"ce4bgup2rcd13ifvqcn0","pricing_plan_id":"cebpf4jnsgd1na2vs0mg"},{"bike_id":"15874469-da12-40bf-ae9e-6d672af89935","system_id":"levelo_inurba_marseille","lat":43.23185,"lon":5.39973,"is_reserved":false,"is_disabled":false,"rental_uris":{"android":"levelo://app?vid=15874469-da12-40bf-ae9e-6d672af89935","ios":"levelo://app?vid=15874469-da12-40bf-ae9e-6d672af89935"},"vehicle_type_id":"4","last_reported":1762337555,"current_range_meters":9200,"station_id":"ce4bhn12rcd13ifvqgqg","pricing_plan_id":"cebpf4jnsgd1na2vs0mg"},{"bike_id":"d793680a-6308-4d87-bbee-b09c5af6ff46","system_id":"levelo_inurba_marseille","lat":43.27674,"lon":5.3889,"is_reserved":false,"is_disabled":false,"rental_uris":{"android":"levelo://app?vid=d793680a-6308-4d87-bbee-b09c5af6ff46","ios":"levelo://app?vid=d793680a-6308-4d87-bbee-b09c5af6ff46"},"vehicle_type_id":"4","last_reported":1762337555,"current_range_meters":9200,"station_id":"ce4bhi12rcd13ifvqfo0","pricing_plan_id":"cebpf4jnsgd1na2vs0mg"},{"bike_id":"eed78698-4705-4f36-b1cc-c3cc31682f5d","system_id":"levelo_inurba_marseille","lat":43.334022,"lon":5.419555,"is_reserved":false,"is_disabled":false,"rental_uris":{"android":"levelo://app?vid=eed78698-4705-4f36-b1cc-c3cc31682f5d","ios":"levelo://app?vid=eed78698-4705-4f36-b1cc-c3cc31682f5d"},"vehicle_type_id":"4","last_reported":1762337555,"current_range_meters":9200,"station_id":"","pricing_plan_id":"cebpf4jnsgd1na2vs0mg"},{"bike_id":"65e16ea5-693b-4096-ad49-98ef600a231d","system_id":"levelo_inurba_marseille","lat":43.30177,"lon":5.36616,"is_reserved":false,"is_disabled":false,"rental_uris":{"android":"levelo://app?vid=65e16ea5-693b-4096-ad49-98ef600a231d","ios":"levelo://app?vid=65e16ea5-693b-4096-ad49-98ef600a231d"},"vehicle_type_id":"4","last_reported":1762337555,"current_range_meters":9200,"station_id":"ce4bgrh2rcd13ifvqc8g","pricing_plan_id":"cebpf4jnsgd1na2vs0mg"},{"bike_id":"2f1e40ac-a206-4716-ae78-665d98a9dec1","system_id":"levelo_inurba_marseille","lat":43.30723,"lon":5.39232,"is_reserved":false,"is_disabled":false,"rental_uris":{"android":"levelo://app?vid=2f1e40ac-a206-4716-ae78-665d98a9dec1","ios":"levelo://app?vid=2f1e40ac-a206-4716-ae78-665d98a9dec1"},"vehicle_type_id":"4","last_reported":1762337555,"current_range_meters":9200,"station_id":"","pricing_plan_id":"cebpf4jnsgd1na2vs0mg"},{"bike_id":"4a73b701-b6d8-4fdb-b801-2104160a09dc","system_id":"levelo_inurba_marseille","lat":43.26196,"lon":5.37933,"is_reserved":false,"is_disabled":false,"rental_uris":{"android":"levelo://app?vid=4a73b701-b6d8-4fdb-b801-2104160a09dc","ios":"levelo://app?vid=4a73b701-b6d8-4fdb-b801-2104160a09dc"},"vehicle_type_id":"4","last_reported":1762337555,"current_range_meters":9600,"station_id":"ce4bhjp2rcd13ifvqg90","pricing_plan_id":"cebpf4jnsgd1na2vs0mg"},{"bike_id":"c745baa2-7f9c-4c5c-813e-da0e4745b082","system_id":"levelo_inurba_marseille","lat":43.32551,"lon":5.41431,"is_reserved":false,"is_disabled":false,"rental_uris":{"android":"levelo://app?vid=c745baa2-7f9c-4c5c-813e-da0e4745b082","ios":"levelo://app?vid=c745baa2-7f9c-4c5c-813e-da0e4745b082"},"vehicle_type_id":"4","last_reported":1762337555,"current_range_meters":9600,"station_id":"ce4bhq12rcd13ifvqhhg","pricing_plan_id":"cebpf4jnsgd1na2vs0mg"},{"bike_id":"b347e242-385b-4404-8903-48f3d4b8060c","system_id":"levelo_inurba_marseille","lat":43.29971,"lon":5.38482,"is_reserved":false,"is_disabled":false,"rental_uris":{"android":"levelo://app?vid=b347e242-385b-4404-8903-48f3d4b8060c","ios":"levelo://app?vid=b347e242-385b-4404-8903-48f3d4b8060c"},"vehicle_type_id":"4","last_reported":1762337555,"current_range_meters":9600,"station_id":"ce4bgj92rcd13ifvqbd0","pricing_plan_id":"cebpf4jnsgd1na2vs0mg"},{"bike_id":"cd9c6c8f-813a-4b2c-b0c7-7a3265cb2fa0","system_id":"levelo_inurba_marseille","lat":43.242366,"lon":5.393298,"is_reserved":false,"is_disabled":false,"rental_uris":{"android":"levelo://app?vid=cd9c6c8f-813a-4b2c-b0c7-7a3265cb2fa0","ios":"levelo://app?vid=cd9c6c8f-813a-4b2c-b0c7-7a3265cb2fa0"},"vehicle_type_id":"4","last_reported":1762337555,"current_range_meters":9600,"station_id":"","pricing_plan_id":"cebpf4jnsgd1na2vs0mg"},{"bike_id":"93c83996-cc7e-4d57-97b4-4050a057bb56","system_id":"levelo_inurba_marseille","lat":43.29936,"lon":5.36548,"is_reserved":false,"is_disabled":false,"rental_uris":{"android":"levelo://app?vid=93c83996-cc7e-4d57-97b4-4050a057bb56","ios":"levelo://app?vid=93c83996-cc7e-4d57-97b4-4050a057bb56"},"vehicle_type_id":"4","last_reported":1762337555,"current_range_meters":9600,"station_id":"ce4bgm92rcd13ifvqbr0","pricing_plan_id":"cebpf4jnsgd1na2vs0mg"},{"bike_id":"ad483091-7411-4e16-8cc4-09042e8161f5","system_id":"levelo_inurba_marseille","lat":43.273468,"lon":5.385179,"is_reserved":false,"is_disabled":true,"rental_uris":{"android":"levelo://app?vid=ad483091-7411-4e16-8cc4-09042e8161f5","ios":"levelo://app?vid=ad483091-7411-4e16-8cc4-09042e8161f5"},"vehicle_type_id":"4","last_reported":1762337555,"current_range_meters":9600,"station_id":"","pricing_plan_id":"cebpf4jnsgd1na2vs0mg"},{"bike_id":"9c12df61-63fe-42cd-888c-aca92639cdea","system_id":"levelo_inurba_marseille","lat":43.23967,"lon":5.36631,"is_reserved":false,"is_disabled":false,"rental_uris":{"android":"levelo://app?vid=9c12df61-63fe-42cd-888c-aca92639cdea","ios":"levelo://app?vid=9c12df61-63fe-42cd-888c-aca92639cdea"},"vehicle_type_id":"4","last_reported":1762337555,"current_range_meters":10000,"station_id":"ce4bhi12rcd13ifvqfp0","pricing_plan_id":"cebpf4jnsgd1na2vs0mg"},{"bike_id":"e53da245-d0de-406d-804d-eedb07252df2","system_id":"levelo_inurba_marseille","lat":43.337444,"lon":5.374475,"is_reserved":false,"is_disabled":false,"rental_uris":{"android":"levelo://app?vid=e53da245-d0de-406d-804d-eedb07252df2","ios":"levelo://app?vid=e53da245-d0de-406d-804d-eedb07252df2"},"vehicle_type_id":"4","last_reported":1762337555,"current_range_meters":10000,"station_id":"ce4bhb92rcd13ifvqen0","pricing_plan_id":"cebpf4jnsgd1na2vs0mg"},{"bike_id":"17bbf34e-30a3-48ae-89a7-101afb24d19d","system_id":"levelo_inurba_marseille","lat":43.2956,"lon":5.381621,"is_reserved":false,"is_disabled":true,"rental_uris":{"android":"levelo://app?vid=17bbf34e-30a3-48ae-89a7-101afb24d19d","ios":"levelo://app?vid=17bbf34e-30a3-48ae-89a7-101afb24d19d"},"vehicle_type_id":"4","last_reported":1762337555,"current_range_meters":10000,"station_id":"","pricing_plan_id":"cebpf4jnsgd1na2vs0mg"},{"bike_id":"4d0a6398-3ee2-462c-9a88-c39461d9fc09","system_id":"levelo_inurba_marseille","lat":43.29707,"lon":5.36604,"is_reserved":false,"is_disabled":false,"rental_uris":{"android":"levelo://app?vid=4d0a6398-3ee2-462c-9a88-c39461d9fc09","ios":"levelo://app?vid=4d0a6398-3ee2-462c-9a88-c39461d9fc09"},"vehicle_type_id":"4","last_reported":1762337555,"current_range_meters":10000,"station_id":"ce4bgn12rcd13ifvqbt0","pricing_plan_id":"cebpf4jnsgd1na2vs0mg"},{"bike_id":"1af250b1-f20d-43a6-b023-0debb5f25884","system_id":"levelo_inurba_marseille","lat":43.295504,"lon":5.422936,"is_reserved":false,"is_disabled":true,"rental_uris":{"android":"levelo://app?vid=1af250b1-f20d-43a6-b023-0debb5f25884","ios":"levelo://app?vid=1af250b1-f20d-43a6-b023-0debb5f25884"},"vehicle_type_id":"4","last_reported":1762337555,"current_range_meters":10000,"station_id":"ce4bhph2rcd13ifvqhdg","pricing_plan_id":"cebpf4jnsgd1na2vs0mg"},{"bike_id":"28069767-84bb-4c35-b19c-b38cef0c3a3a","system_id":"levelo_inurba_marseille","lat":43.27355,"lon":5.42409,"is_reserved":false,"is_disabled":false,"rental_uris":{"android":"levelo://app?vid=28069767-84bb-4c35-b19c-b38cef0c3a3a","ios":"levelo://app?vid=28069767-84bb-4c35-b19c-b38cef0c3a3a"},"vehicle_type_id":"4","last_reported":1762337555,"current_range_meters":10000,"station_id":"","pricing_plan_id":"cebpf4jnsgd1na2vs0mg"},{"bike_id":"eb18d2a1-f8b3-4279-b380-67bc412ea72d","system_id":"levelo_inurba_marseille","lat":43.27585,"lon":5.38822,"is_reserved":false,"is_disabled":false,"rental_uris":{"android":"levelo://app?vid=eb18d2a1-f8b3-4279-b380-67bc412ea72d","ios":"levelo://app?vid=eb18d2a1-f8b3-4279-b380-67bc412ea72d"},"vehicle_type_id":"4","last_reported":1762337555,"current_range_meters":10000,"station_id":"ce4bhi12rcd13ifvqfo0","pricing_plan_id":"cebpf4jnsgd1na2vs0mg"},{"bike_id":"1d1fb2b7-027c-42b3-b84e-0273eb397ef2","system_id":"levelo_inurba_marseille","lat":43.26575,"lon":5.39016,"is_reserved":false,"is_disabled":false,"rental_uris":{"android":"levelo://app?vid=1d1fb2b7-027c-42b3-b84e-0273eb397ef2","ios":"levelo://app?vid=1d1fb2b7-027c-42b3-b84e-0273eb397ef2"},"vehicle_type_id":"4","last_reported":1762337555,"current_range_meters":10800,"station_id":"ce4bhe12rcd13ifvqf30","pricing_plan_id":"cebpf4jnsgd1na2vs0mg"},{"bike_id":"22058839-1a8d-478b-8ff4-f9b82fd6e500","system_id":"levelo_inurba_marseille","lat":43.254668,"lon":5.377072,"is_reserved":false,"is_disabled":false,"rental_uris":{"android":"levelo://app?vid=22058839-1a8d-478b-8ff4-f9b82fd6e500","ios":"levelo://app?vid=22058839-1a8d-478b-8ff4-f9b82fd6e500"},"vehicle_type_id":"4","last_reported":1762337555,"current_range_meters":10800,"station_id":"ce4bhh12rcd13ifvqff0","pricing_plan_id":"cebpf4jnsgd1na2vs0mg"},{"bike_id":"ab5be0e9-db61-4b7b-a538-548f698e6a40","system_id":"levelo_inurba_marseille","lat":43.28265,"lon":5.35069,"is_reserved":false,"is_disabled":false,"rental_uris":{"android":"levelo://app?vid=ab5be0e9-db61-4b7b-a538-548f698e6a40","ios":"levelo://app?vid=ab5be0e9-db61-4b7b-a538-548f698e6a40"},"vehicle_type_id":"4","last_reported":1762337555,"current_range_meters":10800,"station_id":"ce4bhbp2rcd13ifvqerg","pricing_plan_id":"cebpf4jnsgd1na2vs0mg"},{"bike_id":"36dadbf7-a228-4f6f-8b08-391008b68693","system_id":"levelo_inurba_marseille","lat":43.34553,"lon":5.36839,"is_reserved":false,"is_disabled":false,"rental_uris":{"android":"levelo://app?vid=36dadbf7-a228-4f6f-8b08-391008b68693","ios":"levelo://app?vid=36dadbf7-a228-4f6f-8b08-391008b68693"},"vehicle_type_id":"4","last_reported":1762337555,"current_range_meters":10800,"station_id":"","pricing_plan_id":"cebpf4jnsgd1na2vs0mg"},{"bike_id":"a988e21f-1bf3-41db-9316-4d3703f08d7e","system_id":"levelo_inurba_marseille","lat":43.269405,"lon":5.386465,"is_reserved":false,"is_disabled":false,"rental_uris":{"android":"levelo://app?vid=a988e21f-1bf3-41db-9316-4d3703f08d7e","ios":"levelo://app?vid=a988e21f-1bf3-41db-9316-4d3703f08d7e"},"vehicle_type_id":"4","last_reported":1762337555,"current_range_meters":10800,"station_id":"ce4bhh92rcd13ifvqfh0","pricing_plan_id":"cebpf4jnsgd1na2vs0mg"},{"bike_id":"47de9693-398c-4078-bb2e-bf0d38c76c57","system_id":"levelo_inurba_marseille","lat":43.28508,"lon":5.38801,"is_reserved":false,"is_disabled":false,"rental_uris":{"android":"levelo://app?vid=47de9693-398c-4078-bb2e-bf0d38c76c57","ios":"levelo://app?vid=47de9693-398c-4078-bb2e-bf0d38c76c57"},"vehicle_type_id":"4","last_reported":1762337555,"current_range_meters":10800,"station_id":"","pricing_plan_id":"cebpf4jnsgd1na2vs0mg"},{"bike_id":"eea94ffa-bf81-429f-bdc0-14e3cdce8da3","system_id":"levelo_inurba_marseille","lat":43.26572,"lon":5.39001,"is_reserved":false,"is_disabled":false,"rental_uris":{"android":"levelo://app?vid=eea94ffa-bf81-429f-bdc0-14e3cdce8da3","ios":"levelo://app?vid=eea94ffa-bf81-429f-bdc0-14e3cdce8da3"},"vehicle_type_id":"4","last_reported":1762337555,"current_range_meters":10800,"station_id":"ce4bhe12rcd13ifvqf30","pricing_plan_id":"cebpf4jnsgd1na2vs0mg"},{"bike_id":"1e6622b0-2827-46bd-b3a9-ae6ba2b69a17","system_id":"levelo_inurba_marseille","lat":43.27061,"lon":5.40248,"is_reserved":false,"is_disabled":false,"rental_uris":{"android":"levelo://app?vid=1e6622b0-2827-46bd-b3a9-ae6ba2b69a17","ios":"levelo://app?vid=1e6622b0-2827-46bd-b3a9-ae6ba2b69a17"},"vehicle_type_id":"4","last_reported":1762337555,"current_range_meters":11200,"station_id":"ce4bhk92rcd13ifvqgc0","pricing_plan_id":"cebpf4jnsgd1na2vs0mg"},{"bike_id":"dea6d760-933e-47d2-8c71-6c4dac7d27e4","system_id":"levelo_inurba_marseille","lat":43.30465,"lon":5.37913,"is_reserved":false,"is_disabled":false,"rental_uris":{"android":"levelo://app?vid=dea6d760-933e-47d2-8c71-6c4dac7d27e4","ios":"levelo://app?vid=dea6d760-933e-47d2-8c71-6c4dac7d27e4"},"vehicle_type_id":"4","last_reported":1762337555,"current_range_meters":11200,"station_id":"ce4bgup2rcd13ifvqcn0","pricing_plan_id":"cebpf4jnsgd1na2vs0mg"},{"bike_id":"45c3430f-93bf-4f93-9d9f-df10fc7aeac7","system_id":"levelo_inurba_marseille","lat":43.25586,"lon":5.38231,"is_reserved":false,"is_disabled":false,"rental_uris":{"android":"levelo://app?vid=45c3430f-93bf-4f93-9d9f-df10fc7aeac7","ios":"levelo://app?vid=45c3430f-93bf-4f93-9d9f-df10fc7aeac7"},"vehicle_type_id":"4","last_reported":1762337555,"current_range_meters":11200,"station_id":"ce4bhih2rcd13ifvqfs0","pricing_plan_id":"cebpf4jnsgd1na2vs0mg"},{"bike_id":"69145967-c249-43c4-9122-5eb05d32d73b","system_id":"levelo_inurba_marseille","lat":43.27308,"lon":5.39103,"is_reserved":false,"is_disabled":false,"rental_uris":{"android":"levelo://app?vid=69145967-c249-43c4-9122-5eb05d32d73b","ios":"levelo://app?vid=69145967-c249-43c4-9122-5eb05d32d73b"},"vehicle_type_id":"4","last_reported":1762337555,"current_range_meters":11200,"station_id":"ce4bhgp2rcd13ifvqfe0","pricing_plan_id":"cebpf4jnsgd1na2vs0mg"},{"bike_id":"ea4f4b84-78b0-4180-a7f8-ecb8c6182713","system_id":"levelo_inurba_marseille","lat":43.2953,"lon":5.36104,"is_reserved":false,"is_disabled":true,"rental_uris":{"android":"levelo://app?vid=ea4f4b84-78b0-4180-a7f8-ecb8c6182713","ios":"levelo://app?vid=ea4f4b84-78b0-4180-a7f8-ecb8c6182713"},"vehicle_type_id":"4","last_reported":1762337555,"current_range_meters":11200,"station_id":"","pricing_plan_id":"cebpf4jnsgd1na2vs0mg"},{"bike_id":"ac7d2703-de91-43e1-bd7f-dacd227f269d","system_id":"levelo_inurba_marseille","lat":43.24669,"lon":5.38156,"is_reserved":false,"is_disabled":false,"rental_uris":{"android":"levelo://app?vid=ac7d2703-de91-43e1-bd7f-dacd227f269d","ios":"levelo://app?vid=ac7d2703-de91-43e1-bd7f-dacd227f269d"},"vehicle_type_id":"4","last_reported":1762337555,"current_range_meters":11200,"station_id":"ce4bhih2rcd13ifvqfr0","pricing_plan_id":"cebpf4jnsgd1na2vs0mg"},{"bike_id":"8a80570e-bf7a-4811-b6f7-f7bef821bdac","system_id":"levelo_inurba_marseille","lat":43.309435,"lon":5.390253,"is_reserved":false,"is_disabled":false,"rental_uris":{"android":"levelo://app?vid=8a80570e-bf7a-4811-b6f7-f7bef821bdac","ios":"levelo://app?vid=8a80570e-bf7a-4811-b6f7-f7bef821bdac"},"vehicle_type_id":"4","last_reported":1762337555,"current_range_meters":11600,"station_id":"ce4bgkp2rcd13ifvqbmg","pricing_plan_id":"cebpf4jnsgd1na2vs0mg"},{"bike_id":"db6a2c65-c838-4de7-bcff-af7747b366c1","system_id":"levelo_inurba_marseille","lat":43.25586,"lon":5.38226,"is_reserved":false,"is_disabled":false,"rental_uris":{"android":"levelo://app?vid=db6a2c65-c838-4de7-bcff-af7747b366c1","ios":"levelo://app?vid=db6a2c65-c838-4de7-bcff-af7747b366c1"},"vehicle_type_id":"4","last_reported":1762337555,"current_range_meters":11600,"station_id":"ce4bhih2rcd13ifvqfs0","pricing_plan_id":"cebpf4jnsgd1na2vs0mg"},{"bike_id":"6409001b-50f5-4983-830b-ca3d4844f31e","system_id":"levelo_inurba_marseille","lat":43.25581,"lon":5.3824,"is_reserved":false,"is_disabled":false,"rental_uris":{"android":"levelo://app?vid=6409001b-50f5-4983-830b-ca3d4844f31e","ios":"levelo://app?vid=6409001b-50f5-4983-830b-ca3d4844f31e"},"vehicle_type_id":"4","last_reported":1762337555,"current_range_meters":11600,"station_id":"ce4bhih2rcd13ifvqfs0","pricing_plan_id":"cebpf4jnsgd1na2vs0mg"},{"bike_id":"e7ddbb97-942c-4b8b-b2f1-a156b9be1119","system_id":"levelo_inurba_marseille","lat":43.26574,"lon":5.38994,"is_reserved":false,"is_disabled":false,"rental_uris":{"android":"levelo://app?vid=e7ddbb97-942c-4b8b-b2f1-a156b9be1119","ios":"levelo://app?vid=e7ddbb97-942c-4b8b-b2f1-a156b9be1119"},"vehicle_type_id":"4","last_reported":1762337555,"current_range_meters":11600,"station_id":"ce4bhe12rcd13ifvqf30","pricing_plan_id":"cebpf4jnsgd1na2vs0mg"},{"bike_id":"dceb4beb-6bb5-4225-ae7e-d3c4b9815bbe","system_id":"levelo_inurba_marseille","lat":43.28468,"lon":5.48397,"is_reserved":false,"is_disabled":false,"rental_uris":{"android":"levelo://app?vid=dceb4beb-6bb5-4225-ae7e-d3c4b9815bbe","ios":"levelo://app?vid=dceb4beb-6bb5-4225-ae7e-d3c4b9815bbe"},"vehicle_type_id":"4","last_reported":1762337555,"current_range_meters":12000,"station_id":"st_d3svhcjqgbts73a3dn0g","pricing_plan_id":"cebpf4jnsgd1na2vs0mg"},{"bike_id":"55d2ce84-e8a1-43f1-bb50-3dcab86294eb","system_id":"levelo_inurba_marseille","lat":43.272143,"lon":5.391793,"is_reserved":false,"is_disabled":false,"rental_uris":{"android":"levelo://app?vid=55d2ce84-e8a1-43f1-bb50-3dcab86294eb","ios":"levelo://app?vid=55d2ce84-e8a1-43f1-bb50-3dcab86294eb"},"vehicle_type_id":"4","last_reported":1762337555,"current_range_meters":12000,"station_id":"ce4bhhp2rcd13ifvqfm0","pricing_plan_id":"cebpf4jnsgd1na2vs0mg"},{"bike_id":"bad9875b-e9f1-480f-9cf1-87d54e136afa","system_id":"levelo_inurba_marseille","lat":43.2926,"lon":5.40158,"is_reserved":false,"is_disabled":false,"rental_uris":{"android":"levelo://app?vid=bad9875b-e9f1-480f-9cf1-87d54e136afa","ios":"levelo://app?vid=bad9875b-e9f1-480f-9cf1-87d54e136afa"},"vehicle_type_id":"4","last_reported":1762337555,"current_range_meters":12000,"station_id":"ce4bh312rcd13ifvqdk0","pricing_plan_id":"cebpf4jnsgd1na2vs0mg"},{"bike_id":"46ce7c0a-dc0f-4ef9-a09c-153d97ce8f69","system_id":"levelo_inurba_marseille","lat":43.26551,"lon":5.37284,"is_reserved":false,"is_disabled":false,"rental_uris":{"android":"levelo://app?vid=46ce7c0a-dc0f-4ef9-a09c-153d97ce8f69","ios":"levelo://app?vid=46ce7c0a-dc0f-4ef9-a09c-153d97ce8f69"},"vehicle_type_id":"4","last_reported":1762337555,"current_range_meters":12000,"station_id":"ce4bhg12rcd13ifvqf70","pricing_plan_id":"cebpf4jnsgd1na2vs0mg"},{"bike_id":"d9fd7bb5-fd79-41f8-b907-8d24aff88403","system_id":"levelo_inurba_marseille","lat":43.30262,"lon":5.39929,"is_reserved":false,"is_disabled":false,"rental_uris":{"android":"levelo://app?vid=d9fd7bb5-fd79-41f8-b907-8d24aff88403","ios":"levelo://app?vid=d9fd7bb5-fd79-41f8-b907-8d24aff88403"},"vehicle_type_id":"4","last_reported":1762337555,"current_range_meters":12000,"station_id":"","pricing_plan_id":"cebpf4jnsgd1na2vs0mg"},{"bike_id":"1c65ff7a-5df1-438c-9cb7-2366dd467bad","system_id":"levelo_inurba_marseille","lat":43.30483,"lon":5.37905,"is_reserved":false,"is_disabled":false,"rental_uris":{"android":"levelo://app?vid=1c65ff7a-5df1-438c-9cb7-2366dd467bad","ios":"levelo://app?vid=1c65ff7a-5df1-438c-9cb7-2366dd467bad"},"vehicle_type_id":"4","last_reported":1762337555,"current_range_meters":12000,"station_id":"ce4bgup2rcd13ifvqcn0","pricing_plan_id":"cebpf4jnsgd1na2vs0mg"},{"bike_id":"e7002296-a724-4792-9c77-9aa7da662e7d","system_id":"levelo_inurba_marseille","lat":43.29752,"lon":5.36248,"is_reserved":false,"is_disabled":false,"rental_uris":{"android":"levelo://app?vid=e7002296-a724-4792-9c77-9aa7da662e7d","ios":"levelo://app?vid=e7002296-a724-4792-9c77-9aa7da662e7d"},"vehicle_type_id":"4","last_reported":1762337555,"current_range_meters":12000,"station_id":"","pricing_plan_id":"cebpf4jnsgd1na2vs0mg"},{"bike_id":"56c85e38-643a-4a70-9c37-ffd50f7e9186","system_id":"levelo_inurba_marseille","lat":43.29037,"lon":5.39955,"is_reserved":false,"is_disabled":true,"rental_uris":{"android":"levelo://app?vid=56c85e38-643a-4a70-9c37-ffd50f7e9186","ios":"levelo://app?vid=56c85e38-643a-4a70-9c37-ffd50f7e9186"},"vehicle_type_id":"4","last_reported":1762337555,"current_range_meters":12400,"station_id":"ce4bh392rcd13ifvqdm0","pricing_plan_id":"cebpf4jnsgd1na2vs0mg"},{"bike_id":"4b24dbba-41a5-4ecf-ade9-ac15d69f3a39","system_id":"levelo_inurba_marseille","lat":43.30277,"lon":5.37689,"is_reserved":false,"is_disabled":false,"rental_uris":{"android":"levelo://app?vid=4b24dbba-41a5-4ecf-ade9-ac15d69f3a39","ios":"levelo://app?vid=4b24dbba-41a5-4ecf-ade9-ac15d69f3a39"},"vehicle_type_id":"4","last_reported":1762337555,"current_range_meters":12400,"station_id":"ce4bguh2rcd13ifvqcj0","pricing_plan_id":"cebpf4jnsgd1na2vs0mg"},{"bike_id":"6467a27c-e2ad-48d3-9535-f013fea54b9a","system_id":"levelo_inurba_marseille","lat":43.23146,"lon":5.43703,"is_reserved":false,"is_disabled":false,"rental_uris":{"android":"levelo://app?vid=6467a27c-e2ad-48d3-9535-f013fea54b9a","ios":"levelo://app?vid=6467a27c-e2ad-48d3-9535-f013fea54b9a"},"vehicle_type_id":"4","last_reported":1762337555,"current_range_meters":12400,"station_id":"ce4bhmp2rcd13ifvqgog","pricing_plan_id":"cebpf4jnsgd1na2vs0mg"},{"bike_id":"9d605555-7251-4792-b73d-c7caf1647357","system_id":"levelo_inurba_marseille","lat":43.29721,"lon":5.37685,"is_reserved":false,"is_disabled":false,"rental_uris":{"android":"levelo://app?vid=9d605555-7251-4792-b73d-c7caf1647357","ios":"levelo://app?vid=9d605555-7251-4792-b73d-c7caf1647357"},"vehicle_type_id":"4","last_reported":1762337555,"current_range_meters":12400,"station_id":"ce4bgkh2rcd13ifvqbl0","pricing_plan_id":"cebpf4jnsgd1na2vs0mg"},{"bike_id":"7e8da862-2af0-47cd-9267-b7b5a54bf28d","system_id":"levelo_inurba_marseille","lat":43.229279,"lon":5.353834,"is_reserved":false,"is_disabled":false,"rental_uris":{"android":"levelo://app?vid=7e8da862-2af0-47cd-9267-b7b5a54bf28d","ios":"levelo://app?vid=7e8da862-2af0-47cd-9267-b7b5a54bf28d"},"vehicle_type_id":"4","last_reported":1762337555,"current_range_meters":12400,"station_id":"cpo3532slgdg3j2ikp40","pricing_plan_id":"cebpf4jnsgd1na2vs0mg"},{"bike_id":"13c3ccaa-99d2-4685-a1fa-a15f41ed3f72","system_id":"levelo_inurba_marseille","lat":43.30549,"lon":5.36527,"is_reserved":false,"is_disabled":false,"rental_uris":{"android":"levelo://app?vid=13c3ccaa-99d2-4685-a1fa-a15f41ed3f72","ios":"levelo://app?vid=13c3ccaa-99d2-4685-a1fa-a15f41ed3f72"},"vehicle_type_id":"4","last_reported":1762337555,"current_range_meters":12400,"station_id":"ce4bgs12rcd13ifvqcag","pricing_plan_id":"cebpf4jnsgd1na2vs0mg"},{"bike_id":"7c8c77e6-611f-4f5e-8374-da326e1729a3","system_id":"levelo_inurba_marseille","lat":43.298173,"lon":5.440694,"is_reserved":false,"is_disabled":false,"rental_uris":{"android":"levelo://app?vid=7c8c77e6-611f-4f5e-8374-da326e1729a3","ios":"levelo://app?vid=7c8c77e6-611f-4f5e-8374-da326e1729a3"},"vehicle_type_id":"4","last_reported":1762337555,"current_range_meters":12400,"station_id":"st_d3jp68qikq2c7381ktn0","pricing_plan_id":"cebpf4jnsgd1na2vs0mg"},{"bike_id":"ba2938fb-1ec4-425e-b6e5-c82904ce08fe","system_id":"levelo_inurba_marseille","lat":43.246338,"lon":5.4315,"is_reserved":false,"is_disabled":true,"rental_uris":{"android":"levelo://app?vid=ba2938fb-1ec4-425e-b6e5-c82904ce08fe","ios":"levelo://app?vid=ba2938fb-1ec4-425e-b6e5-c82904ce08fe"},"vehicle_type_id":"4","last_reported":1762337555,"current_range_meters":12400,"station_id":"st_d2m6c4gdas8pm72e190g","pricing_plan_id":"cebpf4jnsgd1na2vs0mg"},{"bike_id":"bcb3be14-071e-4a4c-9583-5555c609ffcc","system_id":"levelo_inurba_marseille","lat":43.295715,"lon":5.36744,"is_reserved":false,"is_disabled":false,"rental_uris":{"android":"levelo://app?vid=bcb3be14-071e-4a4c-9583-5555c609ffcc","ios":"levelo://app?vid=bcb3be14-071e-4a4c-9583-5555c609ffcc"},"vehicle_type_id":"4","last_reported":1762337555,"current_range_meters":12400,"station_id":"ce4bgph2rcd13ifvqc2g","pricing_plan_id":"cebpf4jnsgd1na2vs0mg"},{"bike_id":"15900d44-0dc9-4273-ab27-5c9ef40511e7","system_id":"levelo_inurba_marseille","lat":43.30596,"lon":5.37235,"is_reserved":false,"is_disabled":false,"rental_uris":{"android":"levelo://app?vid=15900d44-0dc9-4273-ab27-5c9ef40511e7","ios":"levelo://app?vid=15900d44-0dc9-4273-ab27-5c9ef40511e7"},"vehicle_type_id":"4","last_reported":1762337555,"current_range_meters":12400,"station_id":"ce4bgqh2rcd13ifvqc4g","pricing_plan_id":"cebpf4jnsgd1na2vs0mg"},{"bike_id":"0e3aee91-b2d2-407f-a8df-b69fa0cb561b","system_id":"levelo_inurba_marseille","lat":43.3061,"lon":5.37221,"is_reserved":false,"is_disabled":false,"rental_uris":{"android":"levelo://app?vid=0e3aee91-b2d2-407f-a8df-b69fa0cb561b","ios":"levelo://app?vid=0e3aee91-b2d2-407f-a8df-b69fa0cb561b"},"vehicle_type_id":"4","last_reported":1762337555,"current_range_meters":12800,"station_id":"ce4bgqh2rcd13ifvqc4g","pricing_plan_id":"cebpf4jnsgd1na2vs0mg"},{"bike_id":"765b9661-2b24-4c0f-a9fb-732d7409b10c","system_id":"levelo_inurba_marseille","lat":43.21629,"lon":5.3443,"is_reserved":false,"is_disabled":false,"rental_uris":{"android":"levelo://app?vid=765b9661-2b24-4c0f-a9fb-732d7409b10c","ios":"levelo://app?vid=765b9661-2b24-4c0f-a9fb-732d7409b10c"},"vehicle_type_id":"4","last_reported":1762337555,"current_range_meters":12800,"station_id":"","pricing_plan_id":"cebpf4jnsgd1na2vs0mg"},{"bike_id":"dae30738-204c-4787-a9b5-e056fa94e0c9","system_id":"levelo_inurba_marseille","lat":43.22562,"lon":5.41638,"is_reserved":false,"is_disabled":false,"rental_uris":{"android":"levelo://app?vid=dae30738-204c-4787-a9b5-e056fa94e0c9","ios":"levelo://app?vid=dae30738-204c-4787-a9b5-e056fa94e0c9"},"vehicle_type_id":"4","last_reported":1762337555,"current_range_meters":12800,"station_id":"st_d2o4gvlbi1j2169b742g","pricing_plan_id":"cebpf4jnsgd1na2vs0mg"},{"bike_id":"d16911f9-0093-4796-bbbd-eb912eeb6174","system_id":"levelo_inurba_marseille","lat":43.25939,"lon":5.40898,"is_reserved":false,"is_disabled":false,"rental_uris":{"android":"levelo://app?vid=d16911f9-0093-4796-bbbd-eb912eeb6174","ios":"levelo://app?vid=d16911f9-0093-4796-bbbd-eb912eeb6174"},"vehicle_type_id":"4","last_reported":1762337555,"current_range_meters":12800,"station_id":"ce4bhm92rcd13ifvqglg","pricing_plan_id":"cebpf4jnsgd1na2vs0mg"},{"bike_id":"c136e79d-4fce-4da3-a166-ed23d2034dec","system_id":"levelo_inurba_marseille","lat":43.29093,"lon":5.38142,"is_reserved":false,"is_disabled":false,"rental_uris":{"android":"levelo://app?vid=c136e79d-4fce-4da3-a166-ed23d2034dec","ios":"levelo://app?vid=c136e79d-4fce-4da3-a166-ed23d2034dec"},"vehicle_type_id":"4","last_reported":1762337555,"current_range_meters":12800,"station_id":"ce4bh512rcd13ifvqe2g","pricing_plan_id":"cebpf4jnsgd1na2vs0mg"},{"bike_id":"bcc138ed-a420-49ce-bd09-2812d40d19ee","system_id":"levelo_inurba_marseille","lat":43.25135,"lon":5.39054,"is_reserved":false,"is_disabled":false,"rental_uris":{"android":"levelo://app?vid=bcc138ed-a420-49ce-bd09-2812d40d19ee","ios":"levelo://app?vid=bcc138ed-a420-49ce-bd09-2812d40d19ee"},"vehicle_type_id":"4","last_reported":1762337555,"current_range_meters":12800,"station_id":"","pricing_plan_id":"cebpf4jnsgd1na2vs0mg"},{"bike_id":"b8950634-601f-4b1a-a8ca-9ac75a365486","system_id":"levelo_inurba_marseille","lat":43.30493,"lon":5.37881,"is_reserved":false,"is_disabled":false,"rental_uris":{"android":"levelo://app?vid=b8950634-601f-4b1a-a8ca-9ac75a365486","ios":"levelo://app?vid=b8950634-601f-4b1a-a8ca-9ac75a365486"},"vehicle_type_id":"4","last_reported":1762337555,"current_range_meters":13600,"station_id":"ce4bgup2rcd13ifvqcn0","pricing_plan_id":"cebpf4jnsgd1na2vs0mg"},{"bike_id":"133d5c47-2b9f-4bfd-b689-058c1693275c","system_id":"levelo_inurba_marseille","lat":43.295205,"lon":5.37506,"is_reserved":false,"is_disabled":false,"rental_uris":{"android":"levelo://app?vid=133d5c47-2b9f-4bfd-b689-058c1693275c","ios":"levelo://app?vid=133d5c47-2b9f-4bfd-b689-058c1693275c"},"vehicle_type_id":"4","last_reported":1762337555,"current_range_meters":13600,"station_id":"ce4bgkp2rcd13ifvqbmg","pricing_plan_id":"cebpf4jnsgd1na2vs0mg"},{"bike_id":"e458a04e-8648-405c-ad83-b53d61f3e64a","system_id":"levelo_inurba_marseille","lat":43.22932,"lon":5.35378,"is_reserved":false,"is_disabled":false,"rental_uris":{"android":"levelo://app?vid=e458a04e-8648-405c-ad83-b53d61f3e64a","ios":"levelo://app?vid=e458a04e-8648-405c-ad83-b53d61f3e64a"},"vehicle_type_id":"4","last_reported":1762337555,"current_range_meters":13600,"station_id":"cpo3532slgdg3j2ikp40","pricing_plan_id":"cebpf4jnsgd1na2vs0mg"},{"bike_id":"bbbb8722-3362-423b-a76e-cb901b684673","system_id":"levelo_inurba_marseille","lat":43.291992,"lon":5.357989,"is_reserved":false,"is_disabled":false,"rental_uris":{"android":"levelo://app?vid=bbbb8722-3362-423b-a76e-cb901b684673","ios":"levelo://app?vid=bbbb8722-3362-423b-a76e-cb901b684673"},"vehicle_type_id":"4","last_reported":1762337555,"current_range_meters":13600,"station_id":"ce4bhb12rcd13ifvqel0","pricing_plan_id":"cebpf4jnsgd1na2vs0mg"},{"bike_id":"d47980af-6a27-4877-b694-0fcefd40990a","system_id":"levelo_inurba_marseille","lat":43.30486,"lon":5.37886,"is_reserved":false,"is_disabled":false,"rental_uris":{"android":"levelo://app?vid=d47980af-6a27-4877-b694-0fcefd40990a","ios":"levelo://app?vid=d47980af-6a27-4877-b694-0fcefd40990a"},"vehicle_type_id":"4","last_reported":1762337555,"current_range_meters":13600,"station_id":"ce4bgup2rcd13ifvqcn0","pricing_plan_id":"cebpf4jnsgd1na2vs0mg"},{"bike_id":"7ba9add8-af54-4430-b5a4-4ac74e5d9cba","system_id":"levelo_inurba_marseille","lat":43.293655,"lon":5.378451,"is_reserved":false,"is_disabled":false,"rental_uris":{"android":"levelo://app?vid=7ba9add8-af54-4430-b5a4-4ac74e5d9cba","ios":"levelo://app?vid=7ba9add8-af54-4430-b5a4-4ac74e5d9cba"},"vehicle_type_id":"4","last_reported":1762337555,"current_range_meters":13600,"station_id":"ce4bgjh2rcd13ifvqbf0","pricing_plan_id":"cebpf4jnsgd1na2vs0mg"},{"bike_id":"ffa09e43-06f0-4fdf-8444-99998243b633","system_id":"levelo_inurba_marseille","lat":43.26684,"lon":5.38269,"is_reserved":false,"is_disabled":false,"rental_uris":{"android":"levelo://app?vid=ffa09e43-06f0-4fdf-8444-99998243b633","ios":"levelo://app?vid=ffa09e43-06f0-4fdf-8444-99998243b633"},"vehicle_type_id":"4","last_reported":1762337555,"current_range_meters":13600,"station_id":"ce4bhg92rcd13ifvqf90","pricing_plan_id":"cebpf4jnsgd1na2vs0mg"},{"bike_id":"389ca07e-e3c9-430f-850d-3a86e9fc776a","system_id":"levelo_inurba_marseille","lat":43.30608,"lon":5.37258,"is_reserved":false,"is_disabled":false,"rental_uris":{"android":"levelo://app?vid=389ca07e-e3c9-430f-850d-3a86e9fc776a","ios":"levelo://app?vid=389ca07e-e3c9-430f-850d-3a86e9fc776a"},"vehicle_type_id":"4","last_reported":1762337555,"current_range_meters":13600,"station_id":"","pricing_plan_id":"cebpf4jnsgd1na2vs0mg"},{"bike_id":"c2ab50fe-a113-42d6-85c2-9be22ea12653","system_id":"levelo_inurba_marseille","lat":43.25928,"lon":5.40912,"is_reserved":false,"is_disabled":false,"rental_uris":{"android":"levelo://app?vid=c2ab50fe-a113-42d6-85c2-9be22ea12653","ios":"levelo://app?vid=c2ab50fe-a113-42d6-85c2-9be22ea12653"},"vehicle_type_id":"4","last_reported":1762337555,"current_range_meters":13600,"station_id":"ce4bhm92rcd13ifvqglg","pricing_plan_id":"cebpf4jnsgd1na2vs0mg"},{"bike_id":"e2104b6a-7e12-4a20-ae1b-cf4b446d5e26","system_id":"levelo_inurba_marseille","lat":43.284783,"lon":5.483997,"is_reserved":false,"is_disabled":false,"rental_uris":{"android":"levelo://app?vid=e2104b6a-7e12-4a20-ae1b-cf4b446d5e26","ios":"levelo://app?vid=e2104b6a-7e12-4a20-ae1b-cf4b446d5e26"},"vehicle_type_id":"4","last_reported":1762337555,"current_range_meters":13600,"station_id":"st_d3svhcjqgbts73a3dn0g","pricing_plan_id":"cebpf4jnsgd1na2vs0mg"},{"bike_id":"bacb9c52-ae0d-48f0-aa92-6c038e31315d","system_id":"levelo_inurba_marseille","lat":43.292769,"lon":5.387639,"is_reserved":false,"is_disabled":false,"rental_uris":{"android":"levelo://app?vid=bacb9c52-ae0d-48f0-aa92-6c038e31315d","ios":"levelo://app?vid=bacb9c52-ae0d-48f0-aa92-6c038e31315d"},"vehicle_type_id":"4","last_reported":1762337555,"current_range_meters":13600,"station_id":"","pricing_plan_id":"cebpf4jnsgd1na2vs0mg"},{"bike_id":"2ecf69a5-dd5a-4797-a967-76411d68b0f1","system_id":"levelo_inurba_marseille","lat":43.25933,"lon":5.40912,"is_reserved":false,"is_disabled":false,"rental_uris":{"android":"levelo://app?vid=2ecf69a5-dd5a-4797-a967-76411d68b0f1","ios":"levelo://app?vid=2ecf69a5-dd5a-4797-a967-76411d68b0f1"},"vehicle_type_id":"4","last_reported":1762337555,"current_range_meters":13600,"station_id":"ce4bhm92rcd13ifvqglg","pricing_plan_id":"cebpf4jnsgd1na2vs0mg"},{"bike_id":"f96d84e9-3ba7-4e75-a8c6-00603bb7726c","system_id":"levelo_inurba_marseille","lat":43.24655,"lon":5.38889,"is_reserved":false,"is_disabled":false,"rental_uris":{"android":"levelo://app?vid=f96d84e9-3ba7-4e75-a8c6-00603bb7726c","ios":"levelo://app?vid=f96d84e9-3ba7-4e75-a8c6-00603bb7726c"},"vehicle_type_id":"4","last_reported":1762337555,"current_range_meters":13600,"station_id":"ce4bhg12rcd13ifvqf60","pricing_plan_id":"cebpf4jnsgd1na2vs0mg"},{"bike_id":"460958aa-abb4-46e7-a2e3-909165861081","system_id":"levelo_inurba_marseille","lat":43.29851,"lon":5.3628,"is_reserved":false,"is_disabled":false,"rental_uris":{"android":"levelo://app?vid=460958aa-abb4-46e7-a2e3-909165861081","ios":"levelo://app?vid=460958aa-abb4-46e7-a2e3-909165861081"},"vehicle_type_id":"4","last_reported":1762337555,"current_range_meters":13600,"station_id":"ce4bgpp2rcd13ifvqc3g","pricing_plan_id":"cebpf4jnsgd1na2vs0mg"},{"bike_id":"5f93c904-b9ec-4f25-8b7b-6c7a835949a0","system_id":"levelo_inurba_marseille","lat":43.25943,"lon":5.40906,"is_reserved":false,"is_disabled":false,"rental_uris":{"android":"levelo://app?vid=5f93c904-b9ec-4f25-8b7b-6c7a835949a0","ios":"levelo://app?vid=5f93c904-b9ec-4f25-8b7b-6c7a835949a0"},"vehicle_type_id":"4","last_reported":1762337555,"current_range_meters":14000,"station_id":"ce4bhm92rcd13ifvqglg","pricing_plan_id":"cebpf4jnsgd1na2vs0mg"},{"bike_id":"19c9b975-7d91-4de5-bc69-401218a946eb","system_id":"levelo_inurba_marseille","lat":43.231583,"lon":5.437073,"is_reserved":false,"is_disabled":false,"rental_uris":{"android":"levelo://app?vid=19c9b975-7d91-4de5-bc69-401218a946eb","ios":"levelo://app?vid=19c9b975-7d91-4de5-bc69-401218a946eb"},"vehicle_type_id":"4","last_reported":1762337555,"current_range_meters":14000,"station_id":"ce4bhmp2rcd13ifvqgog","pricing_plan_id":"cebpf4jnsgd1na2vs0mg"},{"bike_id":"afed0075-9eed-416e-8a5b-ced172ac4b87","system_id":"levelo_inurba_marseille","lat":43.29229,"lon":5.36061,"is_reserved":false,"is_disabled":false,"rental_uris":{"android":"levelo://app?vid=afed0075-9eed-416e-8a5b-ced172ac4b87","ios":"levelo://app?vid=afed0075-9eed-416e-8a5b-ced172ac4b87"},"vehicle_type_id":"4","last_reported":1762337555,"current_range_meters":14000,"station_id":"ce4bhbh2rcd13ifvqeqg","pricing_plan_id":"cebpf4jnsgd1na2vs0mg"},{"bike_id":"39ff4536-acc7-4a18-a283-fc10815fb7ec","system_id":"levelo_inurba_marseille","lat":43.259382,"lon":5.4091,"is_reserved":false,"is_disabled":false,"rental_uris":{"android":"levelo://app?vid=39ff4536-acc7-4a18-a283-fc10815fb7ec","ios":"levelo://app?vid=39ff4536-acc7-4a18-a283-fc10815fb7ec"},"vehicle_type_id":"4","last_reported":1762337555,"current_range_meters":14000,"station_id":"ce4bhm92rcd13ifvqglg","pricing_plan_id":"cebpf4jnsgd1na2vs0mg"},{"bike_id":"ab9b2bcc-ea75-449d-adbb-4add292d38c4","system_id":"levelo_inurba_marseille","lat":43.34778,"lon":5.37356,"is_reserved":false,"is_disabled":false,"rental_uris":{"android":"levelo://app?vid=ab9b2bcc-ea75-449d-adbb-4add292d38c4","ios":"levelo://app?vid=ab9b2bcc-ea75-449d-adbb-4add292d38c4"},"vehicle_type_id":"4","last_reported":1762337555,"current_range_meters":14000,"station_id":"","pricing_plan_id":"cebpf4jnsgd1na2vs0mg"},{"bike_id":"8dcca48b-f36b-4574-ac35-0f04b245352c","system_id":"levelo_inurba_marseille","lat":43.307953,"lon":5.435225,"is_reserved":false,"is_disabled":false,"rental_uris":{"android":"levelo://app?vid=8dcca48b-f36b-4574-ac35-0f04b245352c","ios":"levelo://app?vid=8dcca48b-f36b-4574-ac35-0f04b245352c"},"vehicle_type_id":"4","last_reported":1762337555,"current_range_meters":14000,"station_id":"","pricing_plan_id":"cebpf4jnsgd1na2vs0mg"},{"bike_id":"839b0ee5-7b96-41df-a192-d6fc3a3bebee","system_id":"levelo_inurba_marseille","lat":43.30529,"lon":5.36533,"is_reserved":false,"is_disabled":false,"rental_uris":{"android":"levelo://app?vid=839b0ee5-7b96-41df-a192-d6fc3a3bebee","ios":"levelo://app?vid=839b0ee5-7b96-41df-a192-d6fc3a3bebee"},"vehicle_type_id":"4","last_reported":1762337555,"current_range_meters":14000,"station_id":"ce4bgs12rcd13ifvqcag","pricing_plan_id":"cebpf4jnsgd1na2vs0mg"},{"bike_id":"a887b1cd-286a-477e-b7f7-98653ff5555e","system_id":"levelo_inurba_marseille","lat":43.26707,"lon":5.41209,"is_reserved":false,"is_disabled":false,"rental_uris":{"android":"levelo://app?vid=a887b1cd-286a-477e-b7f7-98653ff5555e","ios":"levelo://app?vid=a887b1cd-286a-477e-b7f7-98653ff5555e"},"vehicle_type_id":"4","last_reported":1762337555,"current_range_meters":14400,"station_id":"","pricing_plan_id":"cebpf4jnsgd1na2vs0mg"},{"bike_id":"2821c9ce-5a17-4c43-af5c-8560dd5fb1f8","system_id":"levelo_inurba_marseille","lat":43.240682,"lon":5.377448,"is_reserved":false,"is_disabled":false,"rental_uris":{"android":"levelo://app?vid=2821c9ce-5a17-4c43-af5c-8560dd5fb1f8","ios":"levelo://app?vid=2821c9ce-5a17-4c43-af5c-8560dd5fb1f8"},"vehicle_type_id":"4","last_reported":1762337555,"current_range_meters":14400,"station_id":"ce4bhnp2rcd13ifvqgvg","pricing_plan_id":"cebpf4jnsgd1na2vs0mg"},{"bike_id":"b9fd5a1b-fd04-4b24-a46a-4d2a6504e33d","system_id":"levelo_inurba_marseille","lat":43.32787,"lon":5.42445,"is_reserved":false,"is_disabled":false,"rental_uris":{"android":"levelo://app?vid=b9fd5a1b-fd04-4b24-a46a-4d2a6504e33d","ios":"levelo://app?vid=b9fd5a1b-fd04-4b24-a46a-4d2a6504e33d"},"vehicle_type_id":"4","last_reported":1762337555,"current_range_meters":14400,"station_id":"","pricing_plan_id":"cebpf4jnsgd1na2vs0mg"},{"bike_id":"ccf319fd-51f0-43ca-8948-67301941b5ee","system_id":"levelo_inurba_marseille","lat":43.26562,"lon":5.39003,"is_reserved":false,"is_disabled":false,"rental_uris":{"android":"levelo://app?vid=ccf319fd-51f0-43ca-8948-67301941b5ee","ios":"levelo://app?vid=ccf319fd-51f0-43ca-8948-67301941b5ee"},"vehicle_type_id":"4","last_reported":1762337555,"current_range_meters":14400,"station_id":"ce4bhe12rcd13ifvqf30","pricing_plan_id":"cebpf4jnsgd1na2vs0mg"},{"bike_id":"9906b2ef-ecc0-454a-b196-f91749292ece","system_id":"levelo_inurba_marseille","lat":43.243883,"lon":5.37057,"is_reserved":false,"is_disabled":false,"rental_uris":{"android":"levelo://app?vid=9906b2ef-ecc0-454a-b196-f91749292ece","ios":"levelo://app?vid=9906b2ef-ecc0-454a-b196-f91749292ece"},"vehicle_type_id":"4","last_reported":1762337555,"current_range_meters":14800,"station_id":"ce4bhhh2rcd13ifvqfk0","pricing_plan_id":"cebpf4jnsgd1na2vs0mg"},{"bike_id":"1b4a955f-9b04-47b6-8346-bcfdc6800fb1","system_id":"levelo_inurba_marseille","lat":43.31755,"lon":5.39027,"is_reserved":false,"is_disabled":false,"rental_uris":{"android":"levelo://app?vid=1b4a955f-9b04-47b6-8346-bcfdc6800fb1","ios":"levelo://app?vid=1b4a955f-9b04-47b6-8346-bcfdc6800fb1"},"vehicle_type_id":"4","last_reported":1762337555,"current_range_meters":15200,"station_id":"ce4bhqp2rcd13ifvqhng","pricing_plan_id":"cebpf4jnsgd1na2vs0mg"},{"bike_id":"bcb3c39b-ec48-48ef-9eac-eb8b71840959","system_id":"levelo_inurba_marseille","lat":43.33757,"lon":5.37464,"is_reserved":false,"is_disabled":false,"rental_uris":{"android":"levelo://app?vid=bcb3c39b-ec48-48ef-9eac-eb8b71840959","ios":"levelo://app?vid=bcb3c39b-ec48-48ef-9eac-eb8b71840959"},"vehicle_type_id":"4","last_reported":1762337555,"current_range_meters":15200,"station_id":"","pricing_plan_id":"cebpf4jnsgd1na2vs0mg"},{"bike_id":"bcac1c24-90fc-4609-baac-34013d616e31","system_id":"levelo_inurba_marseille","lat":43.24166,"lon":5.36389,"is_reserved":false,"is_disabled":false,"rental_uris":{"android":"levelo://app?vid=bcac1c24-90fc-4609-baac-34013d616e31","ios":"levelo://app?vid=bcac1c24-90fc-4609-baac-34013d616e31"},"vehicle_type_id":"4","last_reported":1762337555,"current_range_meters":15200,"station_id":"cpo36qri1sfpv3e86is0","pricing_plan_id":"cebpf4jnsgd1na2vs0mg"},{"bike_id":"4305e2d5-f73c-438a-ae40-db002c02c2c3","system_id":"levelo_inurba_marseille","lat":43.269307,"lon":5.389225,"is_reserved":false,"is_disabled":false,"rental_uris":{"android":"levelo://app?vid=4305e2d5-f73c-438a-ae40-db002c02c2c3","ios":"levelo://app?vid=4305e2d5-f73c-438a-ae40-db002c02c2c3"},"vehicle_type_id":"4","last_reported":1762337555,"current_range_meters":15200,"station_id":"ce4bhhh2rcd13ifvqfl0","pricing_plan_id":"cebpf4jnsgd1na2vs0mg"},{"bike_id":"f0d9df12-d929-4867-899a-101b75134406","system_id":"levelo_inurba_marseille","lat":43.280993,"lon":5.378292,"is_reserved":false,"is_disabled":false,"rental_uris":{"android":"levelo://app?vid=f0d9df12-d929-4867-899a-101b75134406","ios":"levelo://app?vid=f0d9df12-d929-4867-899a-101b75134406"},"vehicle_type_id":"4","last_reported":1762337555,"current_range_meters":16000,"station_id":"ce4bha12rcd13ifvqee0","pricing_plan_id":"cebpf4jnsgd1na2vs0mg"},{"bike_id":"94b06f3e-9c43-404e-899a-d1e48d6d7a76","system_id":"levelo_inurba_marseille","lat":43.287102,"lon":5.399967,"is_reserved":false,"is_disabled":false,"rental_uris":{"android":"levelo://app?vid=94b06f3e-9c43-404e-899a-d1e48d6d7a76","ios":"levelo://app?vid=94b06f3e-9c43-404e-899a-d1e48d6d7a76"},"vehicle_type_id":"4","last_reported":1762337555,"current_range_meters":16000,"station_id":"ce4bho92rcd13ifvqh3g","pricing_plan_id":"cebpf4jnsgd1na2vs0mg"},{"bike_id":"807c44ae-3c36-443d-a1d2-6cc8504d4614","system_id":"levelo_inurba_marseille","lat":43.27969,"lon":5.387328,"is_reserved":false,"is_disabled":true,"rental_uris":{"android":"levelo://app?vid=807c44ae-3c36-443d-a1d2-6cc8504d4614","ios":"levelo://app?vid=807c44ae-3c36-443d-a1d2-6cc8504d4614"},"vehicle_type_id":"4","last_reported":1762337555,"current_range_meters":16000,"station_id":"","pricing_plan_id":"cebpf4jnsgd1na2vs0mg"},{"bike_id":"9f42320e-716a-463d-a0ac-defefad10bcf","system_id":"levelo_inurba_marseille","lat":43.24173,"lon":5.397296,"is_reserved":false,"is_disabled":false,"rental_uris":{"android":"levelo://app?vid=9f42320e-716a-463d-a0ac-defefad10bcf","ios":"levelo://app?vid=9f42320e-716a-463d-a0ac-defefad10bcf"},"vehicle_type_id":"4","last_reported":1762337555,"current_range_meters":16000,"station_id":"ce4bhn12rcd13ifvqgpg","pricing_plan_id":"cebpf4jnsgd1na2vs0mg"},{"bike_id":"42d2792a-88bd-48e5-afe0-4b6400cd337a","system_id":"levelo_inurba_marseille","lat":43.31691,"lon":5.38198,"is_reserved":false,"is_disabled":false,"rental_uris":{"android":"levelo://app?vid=42d2792a-88bd-48e5-afe0-4b6400cd337a","ios":"levelo://app?vid=42d2792a-88bd-48e5-afe0-4b6400cd337a"},"vehicle_type_id":"4","last_reported":1762337555,"current_range_meters":16000,"station_id":"","pricing_plan_id":"cebpf4jnsgd1na2vs0mg"},{"bike_id":"37a4f821-c1ee-4eb7-ad4a-ea811e5ca0ad","system_id":"levelo_inurba_marseille","lat":43.32664,"lon":5.40983,"is_reserved":false,"is_disabled":false,"rental_uris":{"android":"levelo://app?vid=37a4f821-c1ee-4eb7-ad4a-ea811e5ca0ad","ios":"levelo://app?vid=37a4f821-c1ee-4eb7-ad4a-ea811e5ca0ad"},"vehicle_type_id":"4","last_reported":1762337555,"current_range_meters":16000,"station_id":"ce4bhpp2rcd13ifvqhgg","pricing_plan_id":"cebpf4jnsgd1na2vs0mg"},{"bike_id":"0a567e7b-a8c7-4700-b2e5-90b665b67c4d","system_id":"levelo_inurba_marseille","lat":43.2618,"lon":5.40516,"is_reserved":false,"is_disabled":false,"rental_uris":{"android":"levelo://app?vid=0a567e7b-a8c7-4700-b2e5-90b665b67c4d","ios":"levelo://app?vid=0a567e7b-a8c7-4700-b2e5-90b665b67c4d"},"vehicle_type_id":"4","last_reported":1762337555,"current_range_meters":16000,"station_id":"ce4bhmh2rcd13ifvqgmg","pricing_plan_id":"cebpf4jnsgd1na2vs0mg"},{"bike_id":"8dc7779b-3ef6-4e6f-af35-7b777172050f","system_id":"levelo_inurba_marseille","lat":43.257168,"lon":5.410979,"is_reserved":false,"is_disabled":false,"rental_uris":{"android":"levelo://app?vid=8dc7779b-3ef6-4e6f-af35-7b777172050f","ios":"levelo://app?vid=8dc7779b-3ef6-4e6f-af35-7b777172050f"},"vehicle_type_id":"4","last_reported":1762337555,"current_range_meters":16000,"station_id":"ce4bhkp2rcd13ifvqgd0","pricing_plan_id":"cebpf4jnsgd1na2vs0mg"},{"bike_id":"27aefe03-bbd2-43d3-8d72-3a7105da9194","system_id":"levelo_inurba_marseille","lat":43.31356,"lon":5.37911,"is_reserved":false,"is_disabled":false,"rental_uris":{"android":"levelo://app?vid=27aefe03-bbd2-43d3-8d72-3a7105da9194","ios":"levelo://app?vid=27aefe03-bbd2-43d3-8d72-3a7105da9194"},"vehicle_type_id":"4","last_reported":1762337555,"current_range_meters":16000,"station_id":"","pricing_plan_id":"cebpf4jnsgd1na2vs0mg"},{"bike_id":"baf56fd1-d80d-4c2e-a11f-6f0881ce3265","system_id":"levelo_inurba_marseille","lat":43.257171,"lon":5.411023,"is_reserved":false,"is_disabled":false,"rental_uris":{"android":"levelo://app?vid=baf56fd1-d80d-4c2e-a11f-6f0881ce3265","ios":"levelo://app?vid=baf56fd1-d80d-4c2e-a11f-6f0881ce3265"},"vehicle_type_id":"4","last_reported":1762337555,"current_range_meters":16000,"station_id":"","pricing_plan_id":"cebpf4jnsgd1na2vs0mg"},{"bike_id":"ee7b4a2a-327b-4f7c-88c2-d8bb993ed935","system_id":"levelo_inurba_marseille","lat":43.25939,"lon":5.40888,"is_reserved":false,"is_disabled":false,"rental_uris":{"android":"levelo://app?vid=ee7b4a2a-327b-4f7c-88c2-d8bb993ed935","ios":"levelo://app?vid=ee7b4a2a-327b-4f7c-88c2-d8bb993ed935"},"vehicle_type_id":"4","last_reported":1762337555,"current_range_meters":16400,"station_id":"ce4bhm92rcd13ifvqglg","pricing_plan_id":"cebpf4jnsgd1na2vs0mg"},{"bike_id":"cb5be059-9180-494d-834c-f341c2d161fa","system_id":"levelo_inurba_marseille","lat":43.23953,"lon":5.36659,"is_reserved":false,"is_disabled":false,"rental_uris":{"android":"levelo://app?vid=cb5be059-9180-494d-834c-f341c2d161fa","ios":"levelo://app?vid=cb5be059-9180-494d-834c-f341c2d161fa"},"vehicle_type_id":"4","last_reported":1762337555,"current_range_meters":16400,"station_id":"ce4bhi12rcd13ifvqfp0","pricing_plan_id":"cebpf4jnsgd1na2vs0mg"},{"bike_id":"813d84df-d28e-442a-86a4-2693a3f1117d","system_id":"levelo_inurba_marseille","lat":43.23053,"lon":5.35501,"is_reserved":false,"is_disabled":false,"rental_uris":{"android":"levelo://app?vid=813d84df-d28e-442a-86a4-2693a3f1117d","ios":"levelo://app?vid=813d84df-d28e-442a-86a4-2693a3f1117d"},"vehicle_type_id":"4","last_reported":1762337555,"current_range_meters":16400,"station_id":"cpo3342slgdg3j2ifvpg","pricing_plan_id":"cebpf4jnsgd1na2vs0mg"},{"bike_id":"cff64f4e-5f37-43ea-ae7e-1ca574864a38","system_id":"levelo_inurba_marseille","lat":43.32446,"lon":5.42811,"is_reserved":false,"is_disabled":false,"rental_uris":{"android":"levelo://app?vid=cff64f4e-5f37-43ea-ae7e-1ca574864a38","ios":"levelo://app?vid=cff64f4e-5f37-43ea-ae7e-1ca574864a38"},"vehicle_type_id":"4","last_reported":1762337555,"current_range_meters":16400,"station_id":"","pricing_plan_id":"cebpf4jnsgd1na2vs0mg"},{"bike_id":"c6d2dafc-fb2c-4b82-8b78-f3d7d347211b","system_id":"levelo_inurba_marseille","lat":43.32356,"lon":5.36747,"is_reserved":false,"is_disabled":false,"rental_uris":{"android":"levelo://app?vid=c6d2dafc-fb2c-4b82-8b78-f3d7d347211b","ios":"levelo://app?vid=c6d2dafc-fb2c-4b82-8b78-f3d7d347211b"},"vehicle_type_id":"4","last_reported":1762337555,"current_range_meters":16400,"station_id":"ce4bhsh2rcd13ifvqi2g","pricing_plan_id":"cebpf4jnsgd1na2vs0mg"},{"bike_id":"436a350d-721a-4466-b199-e7b08f07fb91","system_id":"levelo_inurba_marseille","lat":43.29006,"lon":5.35621,"is_reserved":false,"is_disabled":false,"rental_uris":{"android":"levelo://app?vid=436a350d-721a-4466-b199-e7b08f07fb91","ios":"levelo://app?vid=436a350d-721a-4466-b199-e7b08f07fb91"},"vehicle_type_id":"4","last_reported":1762337555,"current_range_meters":16400,"station_id":"ce4bhb92rcd13ifvqen0","pricing_plan_id":"cebpf4jnsgd1na2vs0mg"},{"bike_id":"01dac5f4-266b-419a-a9bd-a94574c64697","system_id":"levelo_inurba_marseille","lat":43.26684,"lon":5.38265,"is_reserved":false,"is_disabled":false,"rental_uris":{"android":"levelo://app?vid=01dac5f4-266b-419a-a9bd-a94574c64697","ios":"levelo://app?vid=01dac5f4-266b-419a-a9bd-a94574c64697"},"vehicle_type_id":"4","last_reported":1762337555,"current_range_meters":16400,"station_id":"ce4bhg92rcd13ifvqf90","pricing_plan_id":"cebpf4jnsgd1na2vs0mg"},{"bike_id":"1c7c3644-d6bb-4eff-832b-0f155425662c","system_id":"levelo_inurba_marseille","lat":43.32114,"lon":5.36764,"is_reserved":false,"is_disabled":false,"rental_uris":{"android":"levelo://app?vid=1c7c3644-d6bb-4eff-832b-0f155425662c","ios":"levelo://app?vid=1c7c3644-d6bb-4eff-832b-0f155425662c"},"vehicle_type_id":"4","last_reported":1762337555,"current_range_meters":16400,"station_id":"ce4bhrh2rcd13ifvqhug","pricing_plan_id":"cebpf4jnsgd1na2vs0mg"},{"bike_id":"ca46fdbd-ac89-432a-9c58-507605a7d54c","system_id":"levelo_inurba_marseille","lat":43.29269,"lon":5.37629,"is_reserved":false,"is_disabled":false,"rental_uris":{"android":"levelo://app?vid=ca46fdbd-ac89-432a-9c58-507605a7d54c","ios":"levelo://app?vid=ca46fdbd-ac89-432a-9c58-507605a7d54c"},"vehicle_type_id":"4","last_reported":1762337555,"current_range_meters":16400,"station_id":"ce4bgi12rcd13ifvqb80","pricing_plan_id":"cebpf4jnsgd1na2vs0mg"},{"bike_id":"81dcc136-dea2-46c0-98af-42dbdee92b54","system_id":"levelo_inurba_marseille","lat":43.284807,"lon":5.484067,"is_reserved":false,"is_disabled":false,"rental_uris":{"android":"levelo://app?vid=81dcc136-dea2-46c0-98af-42dbdee92b54","ios":"levelo://app?vid=81dcc136-dea2-46c0-98af-42dbdee92b54"},"vehicle_type_id":"4","last_reported":1762337555,"current_range_meters":16400,"station_id":"","pricing_plan_id":"cebpf4jnsgd1na2vs0mg"},{"bike_id":"9cfba042-289b-4f78-a257-5fbf6fa42267","system_id":"levelo_inurba_marseille","lat":43.290375,"lon":5.39958,"is_reserved":false,"is_disabled":false,"rental_uris":{"android":"levelo://app?vid=9cfba042-289b-4f78-a257-5fbf6fa42267","ios":"levelo://app?vid=9cfba042-289b-4f78-a257-5fbf6fa42267"},"vehicle_type_id":"4","last_reported":1762337555,"current_range_meters":16400,"station_id":"ce4bh392rcd13ifvqdm0","pricing_plan_id":"cebpf4jnsgd1na2vs0mg"},{"bike_id":"8cf54d33-efb5-4166-8509-df2cb57488b1","system_id":"levelo_inurba_marseille","lat":43.334261,"lon":5.400239,"is_reserved":false,"is_disabled":false,"rental_uris":{"android":"levelo://app?vid=8cf54d33-efb5-4166-8509-df2cb57488b1","ios":"levelo://app?vid=8cf54d33-efb5-4166-8509-df2cb57488b1"},"vehicle_type_id":"4","last_reported":1762337555,"current_range_meters":16400,"station_id":"","pricing_plan_id":"cebpf4jnsgd1na2vs0mg"},{"bike_id":"64f63343-4494-416c-90c6-98a294ecb70d","system_id":"levelo_inurba_marseille","lat":43.3096,"lon":5.39038,"is_reserved":false,"is_disabled":false,"rental_uris":{"android":"levelo://app?vid=64f63343-4494-416c-90c6-98a294ecb70d","ios":"levelo://app?vid=64f63343-4494-416c-90c6-98a294ecb70d"},"vehicle_type_id":"4","last_reported":1762337555,"current_range_meters":16800,"station_id":"ce4bgup2rcd13ifvqco0","pricing_plan_id":"cebpf4jnsgd1na2vs0mg"},{"bike_id":"0eb34ef1-bfcb-453e-a29f-e2d86c638ca7","system_id":"levelo_inurba_marseille","lat":43.3054,"lon":5.36557,"is_reserved":false,"is_disabled":false,"rental_uris":{"android":"levelo://app?vid=0eb34ef1-bfcb-453e-a29f-e2d86c638ca7","ios":"levelo://app?vid=0eb34ef1-bfcb-453e-a29f-e2d86c638ca7"},"vehicle_type_id":"4","last_reported":1762337555,"current_range_meters":16800,"station_id":"ce4bgs12rcd13ifvqcag","pricing_plan_id":"cebpf4jnsgd1na2vs0mg"},{"bike_id":"bb1cd34a-9d28-42f5-9d98-311d95fe0011","system_id":"levelo_inurba_marseille","lat":43.270305,"lon":5.401467,"is_reserved":false,"is_disabled":false,"rental_uris":{"android":"levelo://app?vid=bb1cd34a-9d28-42f5-9d98-311d95fe0011","ios":"levelo://app?vid=bb1cd34a-9d28-42f5-9d98-311d95fe0011"},"vehicle_type_id":"4","last_reported":1762337555,"current_range_meters":16800,"station_id":"ce4bhf92rcd13ifvqf40","pricing_plan_id":"cebpf4jnsgd1na2vs0mg"},{"bike_id":"80a32258-b757-4b02-b12c-6aeb36314f57","system_id":"levelo_inurba_marseille","lat":43.29258,"lon":5.36857,"is_reserved":false,"is_disabled":false,"rental_uris":{"android":"levelo://app?vid=80a32258-b757-4b02-b12c-6aeb36314f57","ios":"levelo://app?vid=80a32258-b757-4b02-b12c-6aeb36314f57"},"vehicle_type_id":"4","last_reported":1762337555,"current_range_meters":16800,"station_id":"ce4bhbp2rcd13ifvqesg","pricing_plan_id":"cebpf4jnsgd1na2vs0mg"},{"bike_id":"4b9b61f9-e84c-4648-b6f6-faf53029a4ee","system_id":"levelo_inurba_marseille","lat":43.27063,"lon":5.4227,"is_reserved":false,"is_disabled":false,"rental_uris":{"android":"levelo://app?vid=4b9b61f9-e84c-4648-b6f6-faf53029a4ee","ios":"levelo://app?vid=4b9b61f9-e84c-4648-b6f6-faf53029a4ee"},"vehicle_type_id":"4","last_reported":1762337555,"current_range_meters":17200,"station_id":"ce4bhk92rcd13ifvqgb0","pricing_plan_id":"cebpf4jnsgd1na2vs0mg"},{"bike_id":"d3592742-2942-4019-a22a-c3462f48567b","system_id":"levelo_inurba_marseille","lat":43.28104,"lon":5.37842,"is_reserved":false,"is_disabled":false,"rental_uris":{"android":"levelo://app?vid=d3592742-2942-4019-a22a-c3462f48567b","ios":"levelo://app?vid=d3592742-2942-4019-a22a-c3462f48567b"},"vehicle_type_id":"4","last_reported":1762337555,"current_range_meters":17200,"station_id":"ce4bha12rcd13ifvqee0","pricing_plan_id":"cebpf4jnsgd1na2vs0mg"},{"bike_id":"60018f7e-1baa-4692-aa9d-25a30a3a38ae","system_id":"levelo_inurba_marseille","lat":43.28714,"lon":5.37936,"is_reserved":false,"is_disabled":false,"rental_uris":{"android":"levelo://app?vid=60018f7e-1baa-4692-aa9d-25a30a3a38ae","ios":"levelo://app?vid=60018f7e-1baa-4692-aa9d-25a30a3a38ae"},"vehicle_type_id":"4","last_reported":1762337555,"current_range_meters":17200,"station_id":"ce4bh9p2rcd13ifvqec0","pricing_plan_id":"cebpf4jnsgd1na2vs0mg"},{"bike_id":"a6010974-670e-49c0-b408-8e5fee4c2775","system_id":"levelo_inurba_marseille","lat":43.24162,"lon":5.36404,"is_reserved":false,"is_disabled":false,"rental_uris":{"android":"levelo://app?vid=a6010974-670e-49c0-b408-8e5fee4c2775","ios":"levelo://app?vid=a6010974-670e-49c0-b408-8e5fee4c2775"},"vehicle_type_id":"4","last_reported":1762337555,"current_range_meters":17200,"station_id":"cpo36qri1sfpv3e86is0","pricing_plan_id":"cebpf4jnsgd1na2vs0mg"},{"bike_id":"983ffc7c-b099-496e-8f16-36ff15d6ed53","system_id":"levelo_inurba_marseille","lat":43.2997,"lon":5.38489,"is_reserved":false,"is_disabled":false,"rental_uris":{"android":"levelo://app?vid=983ffc7c-b099-496e-8f16-36ff15d6ed53","ios":"levelo://app?vid=983ffc7c-b099-496e-8f16-36ff15d6ed53"},"vehicle_type_id":"4","last_reported":1762337555,"current_range_meters":17200,"station_id":"ce4bgj92rcd13ifvqbd0","pricing_plan_id":"cebpf4jnsgd1na2vs0mg"},{"bike_id":"8471bcea-3335-4789-9cec-667cd2617349","system_id":"levelo_inurba_marseille","lat":43.31719,"lon":5.424,"is_reserved":false,"is_disabled":false,"rental_uris":{"android":"levelo://app?vid=8471bcea-3335-4789-9cec-667cd2617349","ios":"levelo://app?vid=8471bcea-3335-4789-9cec-667cd2617349"},"vehicle_type_id":"4","last_reported":1762337555,"current_range_meters":17200,"station_id":"ce4bhp92rcd13ifvqhbg","pricing_plan_id":"cebpf4jnsgd1na2vs0mg"},{"bike_id":"183aea80-8dbe-4056-98be-d2037192cb58","system_id":"levelo_inurba_marseille","lat":43.24074,"lon":5.37726,"is_reserved":false,"is_disabled":false,"rental_uris":{"android":"levelo://app?vid=183aea80-8dbe-4056-98be-d2037192cb58","ios":"levelo://app?vid=183aea80-8dbe-4056-98be-d2037192cb58"},"vehicle_type_id":"4","last_reported":1762337555,"current_range_meters":17200,"station_id":"ce4bhnp2rcd13ifvqgvg","pricing_plan_id":"cebpf4jnsgd1na2vs0mg"},{"bike_id":"1f44317c-c421-4e51-bb45-7b71a0186c4d","system_id":"levelo_inurba_marseille","lat":43.290381,"lon":5.375576,"is_reserved":false,"is_disabled":false,"rental_uris":{"android":"levelo://app?vid=1f44317c-c421-4e51-bb45-7b71a0186c4d","ios":"levelo://app?vid=1f44317c-c421-4e51-bb45-7b71a0186c4d"},"vehicle_type_id":"4","last_reported":1762337555,"current_range_meters":17200,"station_id":"ce4bh692rcd13ifvqe90","pricing_plan_id":"cebpf4jnsgd1na2vs0mg"},{"bike_id":"20d78f95-2441-4b87-9761-33869bb4db3f","system_id":"levelo_inurba_marseille","lat":43.30142,"lon":5.38067,"is_reserved":false,"is_disabled":false,"rental_uris":{"android":"levelo://app?vid=20d78f95-2441-4b87-9761-33869bb4db3f","ios":"levelo://app?vid=20d78f95-2441-4b87-9761-33869bb4db3f"},"vehicle_type_id":"4","last_reported":1762337555,"current_range_meters":17200,"station_id":"ce4bgjp2rcd13ifvqbh0","pricing_plan_id":"cebpf4jnsgd1na2vs0mg"},{"bike_id":"e946e9ec-a4d2-434a-b465-1ffc5a3e6b52","system_id":"levelo_inurba_marseille","lat":43.2593,"lon":5.40898,"is_reserved":false,"is_disabled":false,"rental_uris":{"android":"levelo://app?vid=e946e9ec-a4d2-434a-b465-1ffc5a3e6b52","ios":"levelo://app?vid=e946e9ec-a4d2-434a-b465-1ffc5a3e6b52"},"vehicle_type_id":"4","last_reported":1762337555,"current_range_meters":17200,"station_id":"ce4bhm92rcd13ifvqglg","pricing_plan_id":"cebpf4jnsgd1na2vs0mg"},{"bike_id":"f6b63f63-0cf2-4b66-bf94-f3c901d2e9a7","system_id":"levelo_inurba_marseille","lat":43.32488,"lon":5.3656,"is_reserved":false,"is_disabled":false,"rental_uris":{"android":"levelo://app?vid=f6b63f63-0cf2-4b66-bf94-f3c901d2e9a7","ios":"levelo://app?vid=f6b63f63-0cf2-4b66-bf94-f3c901d2e9a7"},"vehicle_type_id":"4","last_reported":1762337555,"current_range_meters":17600,"station_id":"ce4bhs12rcd13ifvqhvg","pricing_plan_id":"cebpf4jnsgd1na2vs0mg"},{"bike_id":"c07c4a6d-a154-40db-afca-28e1a9409f17","system_id":"levelo_inurba_marseille","lat":43.29553,"lon":5.42297,"is_reserved":false,"is_disabled":false,"rental_uris":{"android":"levelo://app?vid=c07c4a6d-a154-40db-afca-28e1a9409f17","ios":"levelo://app?vid=c07c4a6d-a154-40db-afca-28e1a9409f17"},"vehicle_type_id":"4","last_reported":1762337555,"current_range_meters":17600,"station_id":"ce4bhph2rcd13ifvqhdg","pricing_plan_id":"cebpf4jnsgd1na2vs0mg"},{"bike_id":"42c913c0-676e-48e0-a7de-83a06b60d4fd","system_id":"levelo_inurba_marseille","lat":43.24662,"lon":5.38164,"is_reserved":false,"is_disabled":false,"rental_uris":{"android":"levelo://app?vid=42c913c0-676e-48e0-a7de-83a06b60d4fd","ios":"levelo://app?vid=42c913c0-676e-48e0-a7de-83a06b60d4fd"},"vehicle_type_id":"4","last_reported":1762337555,"current_range_meters":17600,"station_id":"ce4bhih2rcd13ifvqfr0","pricing_plan_id":"cebpf4jnsgd1na2vs0mg"},{"bike_id":"ce1c2141-edec-497f-b7e0-3db3a275c2ce","system_id":"levelo_inurba_marseille","lat":43.29748,"lon":5.38075,"is_reserved":false,"is_disabled":false,"rental_uris":{"android":"levelo://app?vid=ce1c2141-edec-497f-b7e0-3db3a275c2ce","ios":"levelo://app?vid=ce1c2141-edec-497f-b7e0-3db3a275c2ce"},"vehicle_type_id":"4","last_reported":1762337555,"current_range_meters":17600,"station_id":"","pricing_plan_id":"cebpf4jnsgd1na2vs0mg"},{"bike_id":"49e101d6-6775-4b5d-afad-ac83bb4ced6b","system_id":"levelo_inurba_marseille","lat":43.23144,"lon":5.43706,"is_reserved":false,"is_disabled":false,"rental_uris":{"android":"levelo://app?vid=49e101d6-6775-4b5d-afad-ac83bb4ced6b","ios":"levelo://app?vid=49e101d6-6775-4b5d-afad-ac83bb4ced6b"},"vehicle_type_id":"4","last_reported":1762337555,"current_range_meters":17600,"station_id":"ce4bhmp2rcd13ifvqgog","pricing_plan_id":"cebpf4jnsgd1na2vs0mg"},{"bike_id":"54f2b277-a252-415f-928c-108cd6e72a19","system_id":"levelo_inurba_marseille","lat":43.302704,"lon":5.377195,"is_reserved":false,"is_disabled":false,"rental_uris":{"android":"levelo://app?vid=54f2b277-a252-415f-928c-108cd6e72a19","ios":"levelo://app?vid=54f2b277-a252-415f-928c-108cd6e72a19"},"vehicle_type_id":"4","last_reported":1762337555,"current_range_meters":17600,"station_id":"ce4bguh2rcd13ifvqcj0","pricing_plan_id":"cebpf4jnsgd1na2vs0mg"},{"bike_id":"cdb34d18-daf3-4f02-8b47-6ae8d62050cb","system_id":"levelo_inurba_marseille","lat":43.32479,"lon":5.36586,"is_reserved":false,"is_disabled":false,"rental_uris":{"android":"levelo://app?vid=cdb34d18-daf3-4f02-8b47-6ae8d62050cb","ios":"levelo://app?vid=cdb34d18-daf3-4f02-8b47-6ae8d62050cb"},"vehicle_type_id":"4","last_reported":1762337555,"current_range_meters":18000,"station_id":"ce4bhs12rcd13ifvqhvg","pricing_plan_id":"cebpf4jnsgd1na2vs0mg"},{"bike_id":"c24c2cd9-54b8-4138-837c-7ca0e65e609b","system_id":"levelo_inurba_marseille","lat":43.29615,"lon":5.37733,"is_reserved":false,"is_disabled":false,"rental_uris":{"android":"levelo://app?vid=c24c2cd9-54b8-4138-837c-7ca0e65e609b","ios":"levelo://app?vid=c24c2cd9-54b8-4138-837c-7ca0e65e609b"},"vehicle_type_id":"4","last_reported":1762337555,"current_range_meters":18000,"station_id":"","pricing_plan_id":"cebpf4jnsgd1na2vs0mg"},{"bike_id":"bdcf7769-01e7-4ab7-80d9-54ca4d70bb14","system_id":"levelo_inurba_marseille","lat":43.30952,"lon":5.39036,"is_reserved":false,"is_disabled":false,"rental_uris":{"android":"levelo://app?vid=bdcf7769-01e7-4ab7-80d9-54ca4d70bb14","ios":"levelo://app?vid=bdcf7769-01e7-4ab7-80d9-54ca4d70bb14"},"vehicle_type_id":"4","last_reported":1762337555,"current_range_meters":18800,"station_id":"ce4bgup2rcd13ifvqco0","pricing_plan_id":"cebpf4jnsgd1na2vs0mg"},{"bike_id":"e035c84c-d3bf-4104-9825-2a3d45c1c0d0","system_id":"levelo_inurba_marseille","lat":43.29799,"lon":5.381,"is_reserved":false,"is_disabled":false,"rental_uris":{"android":"levelo://app?vid=e035c84c-d3bf-4104-9825-2a3d45c1c0d0","ios":"levelo://app?vid=e035c84c-d3bf-4104-9825-2a3d45c1c0d0"},"vehicle_type_id":"4","last_reported":1762337555,"current_range_meters":18800,"station_id":"ce4bgip2rcd13ifvqbb0","pricing_plan_id":"cebpf4jnsgd1na2vs0mg"},{"bike_id":"815e09c2-1796-4a2c-b6b8-df6bd0aac89d","system_id":"levelo_inurba_marseille","lat":43.28607,"lon":5.37058,"is_reserved":false,"is_disabled":false,"rental_uris":{"android":"levelo://app?vid=815e09c2-1796-4a2c-b6b8-df6bd0aac89d","ios":"levelo://app?vid=815e09c2-1796-4a2c-b6b8-df6bd0aac89d"},"vehicle_type_id":"4","last_reported":1762337555,"current_range_meters":18800,"station_id":"ce4bht12rcd13ifvqi60","pricing_plan_id":"cebpf4jnsgd1na2vs0mg"},{"bike_id":"56ab1885-6172-4439-8f62-1f2912aabe43","system_id":"levelo_inurba_marseille","lat":43.29693,"lon":5.38126,"is_reserved":false,"is_disabled":false,"rental_uris":{"android":"levelo://app?vid=56ab1885-6172-4439-8f62-1f2912aabe43","ios":"levelo://app?vid=56ab1885-6172-4439-8f62-1f2912aabe43"},"vehicle_type_id":"4","last_reported":1762337555,"current_range_meters":18800,"station_id":"","pricing_plan_id":"cebpf4jnsgd1na2vs0mg"},{"bike_id":"6635af1a-699e-449f-a72c-7e1155bc5cb4","system_id":"levelo_inurba_marseille","lat":43.2929,"lon":5.36816,"is_reserved":false,"is_disabled":false,"rental_uris":{"android":"levelo://app?vid=6635af1a-699e-449f-a72c-7e1155bc5cb4","ios":"levelo://app?vid=6635af1a-699e-449f-a72c-7e1155bc5cb4"},