{"last_updated":1702624012,"ttl":30,"version":"2.2","data":{"bikes":[{"bike_id":"8bef25e2-ab22-4025-a50c-8f0f6c8031eb","system_id":"levelo_inurba_marseille","lat":43.313391,"lon":5.36706,"is_reserved":false,"is_disabled":false,"rental_uris":{"android":"levelo://app?vid=8bef25e2-ab22-4025-a50c-8f0f6c8031eb","ios":"levelo://app?vid=8bef25e2-ab22-4025-a50c-8f0f6c8031eb"},"vehicle_type_id":"4","last_reported":1702624013,"current_range_meters":26400,"station_id":"ce4bgr92rcd13ifvqc6g","pricing_plan_id":"free"},{"bike_id":"1e4b2a8a-079c-47e6-aed5-2e90b9a3d67e","system_id":"levelo_inurba_marseille","lat":43.313391,"lon":5.36706,"is_reserved":false,"is_disabled":false,"rental_uris":{"android":"levelo://app?vid=1e4b2a8a-079c-47e6-aed5-2e90b9a3d67e","ios":"levelo://app?vid=1e4b2a8a-079c-47e6-aed5-2e90b9a3d67e"},"vehicle_type_id":"4","last_reported":1702624013,"current_range_meters":26800,"station_id":"ce4bgr92rcd13ifvqc6g","pricing_plan_id":"free"},{"bike_id":"1842efdc-df05-41b4-905b-353b389adb22","system_id":"levelo_inurba_marseille","lat":43.312239,"lon":5.368562,"is_reserved":false,"is_disabled":false,"rental_uris":{"android":"levelo://app?vid=1842efdc-df05-41b4-905b-353b389adb22","ios":"levelo://app?vid=1842efdc-df05-41b4-905b-353b389adb22"},"vehicle_type_id":"4","last_reported":1702624013,"current_range_meters":12000,"station_id":"ce4bgl92rcd13ifvqbq0","pricing_plan_id":"free"},{"bike_id":"14a6b72e-352d-49c0-a646-1a6244805d66","system_id":"levelo_inurba_marseille","lat":43.312239,"lon":5.368562,"is_reserved":false,"is_disabled":false,"rental_uris":{"android":"levelo://app?vid=14a6b72e-352d-49c0-a646-1a6244805d66","ios":"levelo://app?vid=14a6b72e-352d-49c0-a646-1a6244805d66"},"vehicle_type_id":"4","last_reported":1702624013,"current_range_meters":30400,"station_id":"ce4bgl92rcd13ifvqbq0","pricing_plan_id":"free"},{"bike_id":"e93a6312-2f78-4452-b96c-a359bba70ebe","system_id":"levelo_inurba_marseille","lat":43.312239,"lon":5.368562,"is_reserved":false,"is_disabled":false,"rental_uris":{"android":"levelo://app?vid=e93a6312-2f78-4452-b96c-a359bba70ebe","ios":"levelo://app?vid=e93a6312-2f78-4452-b96c-a359bba70ebe"},"vehicle_type_id":"4","last_reported":1702624013,"current_range_meters":26800,"station_id":"ce4bgl92rcd13ifvqbq0","pricing_plan_id":"free"},{"bike_id":"f9d04384-ab84-44e2-8be3-122b321edca6","system_id":"levelo_inurba_marseille","lat":43.314811,"lon":5.373103,"is_reserved":false,"is_disabled":false,"rental_uris":{"android":"levelo://app?vid=f9d04384-ab84-44e2-8be3-122b321edca6","ios":"levelo://app?vid=f9d04384-ab84-44e2-8be3-122b321edca6"},"vehicle_type_id":"4","last_reported":1702624013,"current_range_meters":23200,"station_id":"ce4bgt12rcd13ifvqcd0","pricing_plan_id":"free"},{"bike_id":"3f8b821f-e430-4a35-bf14-f8b6e777ea11","system_id":"levelo_inurba_marseille","lat":43.313939,"lon":5.375306,"is_reserved":false,"is_disabled":false,"rental_uris":{"android":"levelo://app?vid=3f8b821f-e430-4a35-bf14-f8b6e777ea11","ios":"levelo://app?vid=3f8b821f-e430-4a35-bf14-f8b6e777ea11"},"vehicle_type_id":"4","last_reported":1702624013,"current_range_meters":800,"station_id":"","pricing_plan_id":"free"},{"bike_id":"dae3d371-2cad-40b1-928f-17d2b34f6615","system_id":"levelo_inurba_marseille","lat":43.30555,"lon":5.3671,"is_reserved":false,"is_disabled":false,"rental_uris":{"android":"levelo://app?vid=dae3d371-2cad-40b1-928f-17d2b34f6615","ios":"levelo://app?vid=dae3d371-2cad-40b1-928f-17d2b34f6615"},"vehicle_type_id":"4","last_reported":1702624013,"current_range_meters":31200,"station_id":"ce4bgrp2rcd13ifvqc9g","pricing_plan_id":"free"},{"bike_id":"a753d17b-a425-4fc2-b70c-ffb7cfc13771","system_id":"levelo_inurba_marseille","lat":43.305712,"lon":5.365641,"is_reserved":false,"is_disabled":false,"rental_uris":{"android":"levelo://app?vid=a753d17b-a425-4fc2-b70c-ffb7cfc13771","ios":"levelo://app?vid=a753d17b-a425-4fc2-b70c-ffb7cfc13771"},"vehicle_type_id":"4","last_reported":1702624013,"current_range_meters":12000,"station_id":"ce4bgs12rcd13ifvqcag","pricing_plan_id":"free"},{"bike_id":"b9a61213-f60b-4899-9f1f-9f5ad9c86497","system_id":"levelo_inurba_marseille","lat":43.305368,"lon":5.367343,"is_reserved":false,"is_disabled":false,"rental_uris":{"android":"levelo://app?vid=b9a61213-f60b-4899-9f1f-9f5ad9c86497","ios":"levelo://app?vid=b9a61213-f60b-4899-9f1f-9f5ad9c86497"},"vehicle_type_id":"4","last_reported":1702624013,"current_range_meters":25600,"station_id":"ce4bgrp2rcd13ifvqc9g","pricing_plan_id":"free"},{"bike_id":"157a8f3a-68c6-4c32-aea5-7295b93ec660","system_id":"levelo_inurba_marseille","lat":43.305368,"lon":5.367343,"is_reserved":false,"is_disabled":false,"rental_uris":{"android":"levelo://app?vid=157a8f3a-68c6-4c32-aea5-7295b93ec660","ios":"levelo://app?vid=157a8f3a-68c6-4c32-aea5-7295b93ec660"},"vehicle_type_id":"4","last_reported":1702624013,"current_range_meters":24000,"station_id":"ce4bgrp2rcd13ifvqc9g","pricing_plan_id":"free"},{"bike_id":"203c13d6-1f55-4a80-93d1-b8667e889f0c","system_id":"levelo_inurba_marseille","lat":43.30545,"lon":5.36699,"is_reserved":false,"is_disabled":false,"rental_uris":{"android":"levelo://app?vid=203c13d6-1f55-4a80-93d1-b8667e889f0c","ios":"levelo://app?vid=203c13d6-1f55-4a80-93d1-b8667e889f0c"},"vehicle_type_id":"4","last_reported":1702624013,"current_range_meters":26400,"station_id":"ce4bgrp2rcd13ifvqc9g","pricing_plan_id":"free"},{"bike_id":"2846a246-6651-4417-9a0a-2f16308d8189","system_id":"levelo_inurba_marseille","lat":43.305368,"lon":5.367343,"is_reserved":false,"is_disabled":false,"rental_uris":{"android":"levelo://app?vid=2846a246-6651-4417-9a0a-2f16308d8189","ios":"levelo://app?vid=2846a246-6651-4417-9a0a-2f16308d8189"},"vehicle_type_id":"4","last_reported":1702624013,"current_range_meters":24400,"station_id":"ce4bgrp2rcd13ifvqc9g","pricing_plan_id":"free"},{"bike_id":"7c13521e-4a84-47bd-9a47-41bfa5e48b5a","system_id":"levelo_inurba_marseille","lat":43.305368,"lon":5.367343,"is_reserved":false,"is_disabled":false,"rental_uris":{"android":"levelo://app?vid=7c13521e-4a84-47bd-9a47-41bfa5e48b5a","ios":"levelo://app?vid=7c13521e-4a84-47bd-9a47-41bfa5e48b5a"},"vehicle_type_id":"4","last_reported":1702624013,"current_range_meters":24000,"station_id":"ce4bgrp2rcd13ifvqc9g","pricing_plan_id":"free"},{"bike_id":"3c323b67-72b0-41be-bed1-dd3103da3bf0","system_id":"levelo_inurba_marseille","lat":43.30542,"lon":5.3672,"is_reserved":false,"is_disabled":false,"rental_uris":{"android":"levelo://app?vid=3c323b67-72b0-41be-bed1-dd3103da3bf0","ios":"levelo://app?vid=3c323b67-72b0-41be-bed1-dd3103da3bf0"},"vehicle_type_id":"4","last_reported":1702624013,"current_range_meters":20800,"station_id":"ce4bgrp2rcd13ifvqc9g","pricing_plan_id":"free"},{"bike_id":"602456bc-d701-4de1-a3ca-a55708f38cae","system_id":"levelo_inurba_marseille","lat":43.305368,"lon":5.367343,"is_reserved":false,"is_disabled":false,"rental_uris":{"android":"levelo://app?vid=602456bc-d701-4de1-a3ca-a55708f38cae","ios":"levelo://app?vid=602456bc-d701-4de1-a3ca-a55708f38cae"},"vehicle_type_id":"4","last_reported":1702624013,"current_range_meters":21200,"station_id":"ce4bgrp2rcd13ifvqc9g","pricing_plan_id":"free"},{"bike_id":"6b648eb3-a2fe-4cdb-a6c9-15272fbe3bef","system_id":"levelo_inurba_marseille","lat":43.305368,"lon":5.367343,"is_reserved":false,"is_disabled":false,"rental_uris":{"android":"levelo://app?vid=6b648eb3-a2fe-4cdb-a6c9-15272fbe3bef","ios":"levelo://app?vid=6b648eb3-a2fe-4cdb-a6c9-15272fbe3bef"},"vehicle_type_id":"4","last_reported":1702624013,"current_range_meters":31200,"station_id":"ce4bgrp2rcd13ifvqc9g","pricing_plan_id":"free"},{"bike_id":"18a9f65f-e97c-40ee-bcc3-1b1c7dd5dd34","system_id":"levelo_inurba_marseille","lat":43.305714,"lon":5.365633,"is_reserved":false,"is_disabled":false,"rental_uris":{"android":"levelo://app?vid=18a9f65f-e97c-40ee-bcc3-1b1c7dd5dd34","ios":"levelo://app?vid=18a9f65f-e97c-40ee-bcc3-1b1c7dd5dd34"},"vehicle_type_id":"4","last_reported":1702624013,"current_range_meters":27200,"station_id":"ce4bgs12rcd13ifvqcag","pricing_plan_id":"free"},{"bike_id":"14e93773-de84-4db5-b826-dff4c80b188c","system_id":"levelo_inurba_marseille","lat":43.305368,"lon":5.367343,"is_reserved":false,"is_disabled":false,"rental_uris":{"android":"levelo://app?vid=14e93773-de84-4db5-b826-dff4c80b188c","ios":"levelo://app?vid=14e93773-de84-4db5-b826-dff4c80b188c"},"vehicle_type_id":"4","last_reported":1702624013,"current_range_meters":20400,"station_id":"ce4bgrp2rcd13ifvqc9g","pricing_plan_id":"free"},{"bike_id":"7906156c-2e10-4a64-b1a7-2d364211b918","system_id":"levelo_inurba_marseille","lat":43.305368,"lon":5.367343,"is_reserved":false,"is_disabled":false,"rental_uris":{"android":"levelo://app?vid=7906156c-2e10-4a64-b1a7-2d364211b918","ios":"levelo://app?vid=7906156c-2e10-4a64-b1a7-2d364211b918"},"vehicle_type_id":"4","last_reported":1702624013,"current_range_meters":29600,"station_id":"ce4bgrp2rcd13ifvqc9g","pricing_plan_id":"free"},{"bike_id":"95c5359e-f913-40bc-92c0-3ea7c91e9cf3","system_id":"levelo_inurba_marseille","lat":43.305706,"lon":5.365654,"is_reserved":false,"is_disabled":false,"rental_uris":{"android":"levelo://app?vid=95c5359e-f913-40bc-92c0-3ea7c91e9cf3","ios":"levelo://app?vid=95c5359e-f913-40bc-92c0-3ea7c91e9cf3"},"vehicle_type_id":"4","last_reported":1702624013,"current_range_meters":30000,"station_id":"ce4bgs12rcd13ifvqcag","pricing_plan_id":"free"},{"bike_id":"955e4ab2-16e5-44e8-a986-a2f50ff96c06","system_id":"levelo_inurba_marseille","lat":43.305382,"lon":5.365389,"is_reserved":false,"is_disabled":false,"rental_uris":{"android":"levelo://app?vid=955e4ab2-16e5-44e8-a986-a2f50ff96c06","ios":"levelo://app?vid=955e4ab2-16e5-44e8-a986-a2f50ff96c06"},"vehicle_type_id":"4","last_reported":1702624013,"current_range_meters":20400,"station_id":"","pricing_plan_id":"free"},{"bike_id":"55285a82-d434-477f-8efb-68044e144c3a","system_id":"levelo_inurba_marseille","lat":43.305368,"lon":5.367343,"is_reserved":false,"is_disabled":false,"rental_uris":{"android":"levelo://app?vid=55285a82-d434-477f-8efb-68044e144c3a","ios":"levelo://app?vid=55285a82-d434-477f-8efb-68044e144c3a"},"vehicle_type_id":"4","last_reported":1702624013,"current_range_meters":29600,"station_id":"ce4bgrp2rcd13ifvqc9g","pricing_plan_id":"free"},{"bike_id":"b56c892c-b465-4528-b14b-20226230facd","system_id":"levelo_inurba_marseille","lat":43.305368,"lon":5.367343,"is_reserved":false,"is_disabled":false,"rental_uris":{"android":"levelo://app?vid=b56c892c-b465-4528-b14b-20226230facd","ios":"levelo://app?vid=b56c892c-b465-4528-b14b-20226230facd"},"vehicle_type_id":"4","last_reported":1702624013,"current_range_meters":31200,"station_id":"ce4bgrp2rcd13ifvqc9g","pricing_plan_id":"free"},{"bike_id":"763c8f79-5050-4eec-a47e-bf27cca6bdb3","system_id":"levelo_inurba_marseille","lat":43.305368,"lon":5.367343,"is_reserved":false,"is_disabled":false,"rental_uris":{"android":"levelo://app?vid=763c8f79-5050-4eec-a47e-bf27cca6bdb3","ios":"levelo://app?vid=763c8f79-5050-4eec-a47e-bf27cca6bdb3"},"vehicle_type_id":"4","last_reported":1702624013,"current_range_meters":25600,"station_id":"ce4bgrp2rcd13ifvqc9g","pricing_plan_id":"free"},{"bike_id":"c2d8b817-2421-443f-9a1e-7a04a9f5de15","system_id":"levelo_inurba_marseille","lat":43.305989,"lon":5.37225,"is_reserved":false,"is_disabled":false,"rental_uris":{"android":"levelo://app?vid=c2d8b817-2421-443f-9a1e-7a04a9f5de15","ios":"levelo://app?vid=c2d8b817-2421-443f-9a1e-7a04a9f5de15"},"vehicle_type_id":"4","last_reported":1702624013,"current_range_meters":28400,"station_id":"ce4bgqh2rcd13ifvqc4g","pricing_plan_id":"free"},{"bike_id":"07694625-03e7-431f-8a04-d1d562452e6e","system_id":"levelo_inurba_marseille","lat":43.311125,"lon":5.377624,"is_reserved":false,"is_disabled":false,"rental_uris":{"android":"levelo://app?vid=07694625-03e7-431f-8a04-d1d562452e6e","ios":"levelo://app?vid=07694625-03e7-431f-8a04-d1d562452e6e"},"vehicle_type_id":"4","last_reported":1702624013,"current_range_meters":14400,"station_id":"ce4bgt92rcd13ifvqcg0","pricing_plan_id":"free"},{"bike_id":"1f0ce392-d0a2-44cc-93b6-f7ef4b84b624","system_id":"levelo_inurba_marseille","lat":43.31124,"lon":5.37764,"is_reserved":false,"is_disabled":false,"rental_uris":{"android":"levelo://app?vid=1f0ce392-d0a2-44cc-93b6-f7ef4b84b624","ios":"levelo://app?vid=1f0ce392-d0a2-44cc-93b6-f7ef4b84b624"},"vehicle_type_id":"4","last_reported":1702624013,"current_range_meters":30800,"station_id":"ce4bgt92rcd13ifvqcg0","pricing_plan_id":"free"},{"bike_id":"1d431a2c-96b6-49b1-b049-ae674e75ee6e","system_id":"levelo_inurba_marseille","lat":43.31122,"lon":5.37764,"is_reserved":false,"is_disabled":false,"rental_uris":{"android":"levelo://app?vid=1d431a2c-96b6-49b1-b049-ae674e75ee6e","ios":"levelo://app?vid=1d431a2c-96b6-49b1-b049-ae674e75ee6e"},"vehicle_type_id":"4","last_reported":1702624013,"current_range_meters":3200,"station_id":"ce4bgt92rcd13ifvqcg0","pricing_plan_id":"free"},{"bike_id":"10935318-da69-4b01-abbc-8c3ceaa2cf60","system_id":"levelo_inurba_marseille","lat":43.311126,"lon":5.377698,"is_reserved":false,"is_disabled":false,"rental_uris":{"android":"levelo://app?vid=10935318-da69-4b01-abbc-8c3ceaa2cf60","ios":"levelo://app?vid=10935318-da69-4b01-abbc-8c3ceaa2cf60"},"vehicle_type_id":"4","last_reported":1702624013,"current_range_meters":22400,"station_id":"ce4bgt92rcd13ifvqcg0","pricing_plan_id":"free"},{"bike_id":"ece65e41-12b4-4fc7-9dc7-9ea59972a9e6","system_id":"levelo_inurba_marseille","lat":43.311107,"lon":5.377696,"is_reserved":false,"is_disabled":false,"rental_uris":{"android":"levelo://app?vid=ece65e41-12b4-4fc7-9dc7-9ea59972a9e6","ios":"levelo://app?vid=ece65e41-12b4-4fc7-9dc7-9ea59972a9e6"},"vehicle_type_id":"4","last_reported":1702624013,"current_range_meters":22000,"station_id":"ce4bgt92rcd13ifvqcg0","pricing_plan_id":"free"},{"bike_id":"c12d4380-e7c6-4ab0-bb8e-1581286903a6","system_id":"levelo_inurba_marseille","lat":43.311151,"lon":5.37773,"is_reserved":false,"is_disabled":false,"rental_uris":{"android":"levelo://app?vid=c12d4380-e7c6-4ab0-bb8e-1581286903a6","ios":"levelo://app?vid=c12d4380-e7c6-4ab0-bb8e-1581286903a6"},"vehicle_type_id":"4","last_reported":1702624013,"current_range_meters":18400,"station_id":"ce4bgt92rcd13ifvqcg0","pricing_plan_id":"free"},{"bike_id":"8a857647-c30f-448f-bacd-a98a148ba0fd","system_id":"levelo_inurba_marseille","lat":43.307945,"lon":5.376487,"is_reserved":false,"is_disabled":false,"rental_uris":{"android":"levelo://app?vid=8a857647-c30f-448f-bacd-a98a148ba0fd","ios":"levelo://app?vid=8a857647-c30f-448f-bacd-a98a148ba0fd"},"vehicle_type_id":"4","last_reported":1702624013,"current_range_meters":30800,"station_id":"ce4bgv92rcd13ifvqcq0","pricing_plan_id":"free"},{"bike_id":"7f0db67f-2154-4cff-9ce8-a577bad8533f","system_id":"levelo_inurba_marseille","lat":43.317075,"lon":5.377367,"is_reserved":false,"is_disabled":false,"rental_uris":{"android":"levelo://app?vid=7f0db67f-2154-4cff-9ce8-a577bad8533f","ios":"levelo://app?vid=7f0db67f-2154-4cff-9ce8-a577bad8533f"},"vehicle_type_id":"4","last_reported":1702624013,"current_range_meters":10800,"station_id":"ce4bgth2rcd13ifvqch0","pricing_plan_id":"free"},{"bike_id":"6a3ae692-8bea-46e0-a1d8-69b8633e148e","system_id":"levelo_inurba_marseille","lat":43.317075,"lon":5.377367,"is_reserved":false,"is_disabled":false,"rental_uris":{"android":"levelo://app?vid=6a3ae692-8bea-46e0-a1d8-69b8633e148e","ios":"levelo://app?vid=6a3ae692-8bea-46e0-a1d8-69b8633e148e"},"vehicle_type_id":"4","last_reported":1702624013,"current_range_meters":31200,"station_id":"ce4bgth2rcd13ifvqch0","pricing_plan_id":"free"},{"bike_id":"3845ae6c-a519-4048-8bf3-1c45927e61ae","system_id":"levelo_inurba_marseille","lat":43.301939,"lon":5.366286,"is_reserved":false,"is_disabled":false,"rental_uris":{"android":"levelo://app?vid=3845ae6c-a519-4048-8bf3-1c45927e61ae","ios":"levelo://app?vid=3845ae6c-a519-4048-8bf3-1c45927e61ae"},"vehicle_type_id":"4","last_reported":1702624013,"current_range_meters":30400,"station_id":"ce4bgrh2rcd13ifvqc8g","pricing_plan_id":"free"},{"bike_id":"c629e642-66a2-427e-b856-e8811587395b","system_id":"levelo_inurba_marseille","lat":43.308012,"lon":5.381511,"is_reserved":false,"is_disabled":false,"rental_uris":{"android":"levelo://app?vid=c629e642-66a2-427e-b856-e8811587395b","ios":"levelo://app?vid=c629e642-66a2-427e-b856-e8811587395b"},"vehicle_type_id":"4","last_reported":1702624013,"current_range_meters":7600,"station_id":"ce4bgt12rcd13ifvqce0","pricing_plan_id":"free"},{"bike_id":"44ae9383-0d11-4308-84c3-ccdec0a11c00","system_id":"levelo_inurba_marseille","lat":43.3081,"lon":5.38152,"is_reserved":false,"is_disabled":false,"rental_uris":{"android":"levelo://app?vid=44ae9383-0d11-4308-84c3-ccdec0a11c00","ios":"levelo://app?vid=44ae9383-0d11-4308-84c3-ccdec0a11c00"},"vehicle_type_id":"4","last_reported":1702624013,"current_range_meters":25600,"station_id":"ce4bgt12rcd13ifvqce0","pricing_plan_id":"free"},{"bike_id":"0c997572-7b26-41cf-8a82-8e30fd00af70","system_id":"levelo_inurba_marseille","lat":43.30799,"lon":5.38161,"is_reserved":false,"is_disabled":false,"rental_uris":{"android":"levelo://app?vid=0c997572-7b26-41cf-8a82-8e30fd00af70","ios":"levelo://app?vid=0c997572-7b26-41cf-8a82-8e30fd00af70"},"vehicle_type_id":"4","last_reported":1702624013,"current_range_meters":28400,"station_id":"ce4bgt12rcd13ifvqce0","pricing_plan_id":"free"},{"bike_id":"caecc2a7-0017-4f9b-9550-d6bd573d9b19","system_id":"levelo_inurba_marseille","lat":43.304606,"lon":5.379026,"is_reserved":false,"is_disabled":false,"rental_uris":{"android":"levelo://app?vid=caecc2a7-0017-4f9b-9550-d6bd573d9b19","ios":"levelo://app?vid=caecc2a7-0017-4f9b-9550-d6bd573d9b19"},"vehicle_type_id":"4","last_reported":1702624013,"current_range_meters":4800,"station_id":"ce4bgup2rcd13ifvqcn0","pricing_plan_id":"free"},{"bike_id":"b14283a1-2b2a-4440-845a-1aea25deb76a","system_id":"levelo_inurba_marseille","lat":43.304606,"lon":5.379026,"is_reserved":false,"is_disabled":false,"rental_uris":{"android":"levelo://app?vid=b14283a1-2b2a-4440-845a-1aea25deb76a","ios":"levelo://app?vid=b14283a1-2b2a-4440-845a-1aea25deb76a"},"vehicle_type_id":"4","last_reported":1702624013,"current_range_meters":22400,"station_id":"ce4bgup2rcd13ifvqcn0","pricing_plan_id":"free"},{"bike_id":"bee9a57b-287b-4ff1-ac42-a51df3662b2d","system_id":"levelo_inurba_marseille","lat":43.304606,"lon":5.379026,"is_reserved":false,"is_disabled":false,"rental_uris":{"android":"levelo://app?vid=bee9a57b-287b-4ff1-ac42-a51df3662b2d","ios":"levelo://app?vid=bee9a57b-287b-4ff1-ac42-a51df3662b2d"},"vehicle_type_id":"4","last_reported":1702624013,"current_range_meters":17200,"station_id":"ce4bgup2rcd13ifvqcn0","pricing_plan_id":"free"},{"bike_id":"0724afb8-3c2f-44e6-8721-4c6541786285","system_id":"levelo_inurba_marseille","lat":43.304606,"lon":5.379026,"is_reserved":false,"is_disabled":false,"rental_uris":{"android":"levelo://app?vid=0724afb8-3c2f-44e6-8721-4c6541786285","ios":"levelo://app?vid=0724afb8-3c2f-44e6-8721-4c6541786285"},"vehicle_type_id":"4","last_reported":1702624013,"current_range_meters":26000,"station_id":"ce4bgup2rcd13ifvqcn0","pricing_plan_id":"free"},{"bike_id":"4593980f-e4e6-4719-abec-7c6e2c9dc076","system_id":"levelo_inurba_marseille","lat":43.302784,"lon":5.377158,"is_reserved":false,"is_disabled":false,"rental_uris":{"android":"levelo://app?vid=4593980f-e4e6-4719-abec-7c6e2c9dc076","ios":"levelo://app?vid=4593980f-e4e6-4719-abec-7c6e2c9dc076"},"vehicle_type_id":"4","last_reported":1702624013,"current_range_meters":24000,"station_id":"ce4bguh2rcd13ifvqcj0","pricing_plan_id":"free"},{"bike_id":"004b1fb3-59cb-4f3f-a86f-9eed61f550f6","system_id":"levelo_inurba_marseille","lat":43.302784,"lon":5.377158,"is_reserved":false,"is_disabled":false,"rental_uris":{"android":"levelo://app?vid=004b1fb3-59cb-4f3f-a86f-9eed61f550f6","ios":"levelo://app?vid=004b1fb3-59cb-4f3f-a86f-9eed61f550f6"},"vehicle_type_id":"4","last_reported":1702624013,"current_range_meters":25600,"station_id":"ce4bguh2rcd13ifvqcj0","pricing_plan_id":"free"},{"bike_id":"05817496-728e-4895-80c3-e16341ea410a","system_id":"levelo_inurba_marseille","lat":43.304606,"lon":5.379026,"is_reserved":false,"is_disabled":false,"rental_uris":{"android":"levelo://app?vid=05817496-728e-4895-80c3-e16341ea410a","ios":"levelo://app?vid=05817496-728e-4895-80c3-e16341ea410a"},"vehicle_type_id":"4","last_reported":1702624013,"current_range_meters":14000,"station_id":"ce4bgup2rcd13ifvqcn0","pricing_plan_id":"free"},{"bike_id":"703b063e-f86b-46c9-acb0-e8859b28ce87","system_id":"levelo_inurba_marseille","lat":43.302784,"lon":5.377158,"is_reserved":false,"is_disabled":false,"rental_uris":{"android":"levelo://app?vid=703b063e-f86b-46c9-acb0-e8859b28ce87","ios":"levelo://app?vid=703b063e-f86b-46c9-acb0-e8859b28ce87"},"vehicle_type_id":"4","last_reported":1702624013,"current_range_meters":5600,"station_id":"ce4bguh2rcd13ifvqcj0","pricing_plan_id":"free"},{"bike_id":"67210e0e-ef00-4570-878e-3dc8f2e39262","system_id":"levelo_inurba_marseille","lat":43.301429,"lon":5.37413,"is_reserved":false,"is_disabled":false,"rental_uris":{"android":"levelo://app?vid=67210e0e-ef00-4570-878e-3dc8f2e39262","ios":"levelo://app?vid=67210e0e-ef00-4570-878e-3dc8f2e39262"},"vehicle_type_id":"4","last_reported":1702624013,"current_range_meters":27600,"station_id":"ce4bgs92rcd13ifvqcc0","pricing_plan_id":"free"},{"bike_id":"fdcd74e0-5fce-436e-805d-ade6ef010660","system_id":"levelo_inurba_marseille","lat":43.319935,"lon":5.381699,"is_reserved":false,"is_disabled":false,"rental_uris":{"android":"levelo://app?vid=fdcd74e0-5fce-436e-805d-ade6ef010660","ios":"levelo://app?vid=fdcd74e0-5fce-436e-805d-ade6ef010660"},"vehicle_type_id":"4","last_reported":1702624013,"current_range_meters":0,"station_id":"ce4bhr12rcd13ifvqhpg","pricing_plan_id":"free"},{"bike_id":"b0e552da-e00e-4b10-a83d-28288d1d2db9","system_id":"levelo_inurba_marseille","lat":43.297794,"lon":5.370888,"is_reserved":false,"is_disabled":false,"rental_uris":{"android":"levelo://app?vid=b0e552da-e00e-4b10-a83d-28288d1d2db9","ios":"levelo://app?vid=b0e552da-e00e-4b10-a83d-28288d1d2db9"},"vehicle_type_id":"4","last_reported":1702624013,"current_range_meters":16000,"station_id":"ce4bgop2rcd13ifvqc1g","pricing_plan_id":"free"},{"bike_id":"6e6d7446-def2-4d6e-a230-3d00ffb6859d","system_id":"levelo_inurba_marseille","lat":43.298433,"lon":5.362774,"is_reserved":false,"is_disabled":false,"rental_uris":{"android":"levelo://app?vid=6e6d7446-def2-4d6e-a230-3d00ffb6859d","ios":"levelo://app?vid=6e6d7446-def2-4d6e-a230-3d00ffb6859d"},"vehicle_type_id":"4","last_reported":1702624013,"current_range_meters":24000,"station_id":"ce4bgpp2rcd13ifvqc3g","pricing_plan_id":"free"},{"bike_id":"a50b0a9c-a7a2-4d6d-86a8-5dd7e66b86bb","system_id":"levelo_inurba_marseille","lat":43.298433,"lon":5.362774,"is_reserved":false,"is_disabled":false,"rental_uris":{"android":"levelo://app?vid=a50b0a9c-a7a2-4d6d-86a8-5dd7e66b86bb","ios":"levelo://app?vid=a50b0a9c-a7a2-4d6d-86a8-5dd7e66b86bb"},"vehicle_type_id":"4","last_reported":1702624013,"current_range_meters":24800,"station_id":"ce4bgpp2rcd13ifvqc3g","pricing_plan_id":"free"},{"bike_id":"74c91466-1b45-4db0-9dd2-ba2fe8c6946c","system_id":"levelo_inurba_marseille","lat":43.298433,"lon":5.362774,"is_reserved":false,"is_disabled":false,"rental_uris":{"android":"levelo://app?vid=74c91466-1b45-4db0-9dd2-ba2fe8c6946c","ios":"levelo://app?vid=74c91466-1b45-4db0-9dd2-ba2fe8c6946c"},"vehicle_type_id":"4","last_reported":1702624013,"current_range_meters":24000,"station_id":"ce4bgpp2rcd13ifvqc3g","pricing_plan_id":"free"},{"bike_id":"e5ab0212-1b3e-40b5-a5e8-ef4be0bdaff2","system_id":"levelo_inurba_marseille","lat":43.298433,"lon":5.362774,"is_reserved":false,"is_disabled":false,"rental_uris":{"android":"levelo://app?vid=e5ab0212-1b3e-40b5-a5e8-ef4be0bdaff2","ios":"levelo://app?vid=e5ab0212-1b3e-40b5-a5e8-ef4be0bdaff2"},"vehicle_type_id":"4","last_reported":1702624013,"current_range_meters":27600,"station_id":"ce4bgpp2rcd13ifvqc3g","pricing_plan_id":"free"},{"bike_id":"e8416776-5809-4d8d-8244-11dbee1b6cd2","system_id":"levelo_inurba_marseille","lat":43.29911,"lon":5.37454,"is_reserved":false,"is_disabled":false,"rental_uris":{"android":"levelo://app?vid=e8416776-5809-4d8d-8244-11dbee1b6cd2","ios":"levelo://app?vid=e8416776-5809-4d8d-8244-11dbee1b6cd2"},"vehicle_type_id":"4","last_reported":1702624013,"current_range_meters":26000,"station_id":"ce4bgjh2rcd13ifvqbg0","pricing_plan_id":"free"},{"bike_id":"0eea8a30-88a6-46e7-9a8c-2c6a74a10c02","system_id":"levelo_inurba_marseille","lat":43.32331,"lon":5.38213,"is_reserved":false,"is_disabled":false,"rental_uris":{"android":"levelo://app?vid=0eea8a30-88a6-46e7-9a8c-2c6a74a10c02","ios":"levelo://app?vid=0eea8a30-88a6-46e7-9a8c-2c6a74a10c02"},"vehicle_type_id":"4","last_reported":1702624013,"current_range_meters":1200,"station_id":"","pricing_plan_id":"free"},{"bike_id":"f263b1ac-e428-4b18-9973-9d9d32c4d8f1","system_id":"levelo_inurba_marseille","lat":43.328371,"lon":5.366909,"is_reserved":false,"is_disabled":false,"rental_uris":{"android":"levelo://app?vid=f263b1ac-e428-4b18-9973-9d9d32c4d8f1","ios":"levelo://app?vid=f263b1ac-e428-4b18-9973-9d9d32c4d8f1"},"vehicle_type_id":"4","last_reported":1702624013,"current_range_meters":21600,"station_id":"ce4bhs92rcd13ifvqi0g","pricing_plan_id":"free"},{"bike_id":"ab40ce93-5b15-4ca5-a612-24f56f7b280c","system_id":"levelo_inurba_marseille","lat":43.328293,"lon":5.366763,"is_reserved":false,"is_disabled":false,"rental_uris":{"android":"levelo://app?vid=ab40ce93-5b15-4ca5-a612-24f56f7b280c","ios":"levelo://app?vid=ab40ce93-5b15-4ca5-a612-24f56f7b280c"},"vehicle_type_id":"4","last_reported":1702624013,"current_range_meters":23200,"station_id":"ce4bhs92rcd13ifvqi0g","pricing_plan_id":"free"},{"bike_id":"54009a14-f96d-46cd-87dc-156aab800157","system_id":"levelo_inurba_marseille","lat":43.328306,"lon":5.366791,"is_reserved":false,"is_disabled":false,"rental_uris":{"android":"levelo://app?vid=54009a14-f96d-46cd-87dc-156aab800157","ios":"levelo://app?vid=54009a14-f96d-46cd-87dc-156aab800157"},"vehicle_type_id":"4","last_reported":1702624013,"current_range_meters":11600,"station_id":"ce4bhs92rcd13ifvqi0g","pricing_plan_id":"free"},{"bike_id":"3820336d-b7d1-4f04-9e77-c9faf4daf3f9","system_id":"levelo_inurba_marseille","lat":43.299028,"lon":5.381509,"is_reserved":false,"is_disabled":false,"rental_uris":{"android":"levelo://app?vid=3820336d-b7d1-4f04-9e77-c9faf4daf3f9","ios":"levelo://app?vid=3820336d-b7d1-4f04-9e77-c9faf4daf3f9"},"vehicle_type_id":"4","last_reported":1702624013,"current_range_meters":21600,"station_id":"ce4bgj12rcd13ifvqbc0","pricing_plan_id":"free"},{"bike_id":"abc5b0e7-0e45-49bb-8bf8-e5b1a13eb048","system_id":"levelo_inurba_marseille","lat":43.29713,"lon":5.37696,"is_reserved":false,"is_disabled":false,"rental_uris":{"android":"levelo://app?vid=abc5b0e7-0e45-49bb-8bf8-e5b1a13eb048","ios":"levelo://app?vid=abc5b0e7-0e45-49bb-8bf8-e5b1a13eb048"},"vehicle_type_id":"4","last_reported":1702624013,"current_range_meters":27600,"station_id":"ce4bgkh2rcd13ifvqbl0","pricing_plan_id":"free"},{"bike_id":"2142410d-9e31-4fe3-9970-47d53e1043e5","system_id":"levelo_inurba_marseille","lat":43.317557,"lon":5.390173,"is_reserved":false,"is_disabled":false,"rental_uris":{"android":"levelo://app?vid=2142410d-9e31-4fe3-9970-47d53e1043e5","ios":"levelo://app?vid=2142410d-9e31-4fe3-9970-47d53e1043e5"},"vehicle_type_id":"4","last_reported":1702624013,"current_range_meters":30800,"station_id":"ce4bhqp2rcd13ifvqhng","pricing_plan_id":"free"},{"bike_id":"7a417860-fb24-418a-a018-fc21aa41743f","system_id":"levelo_inurba_marseille","lat":43.29805,"lon":5.38084,"is_reserved":false,"is_disabled":false,"rental_uris":{"android":"levelo://app?vid=7a417860-fb24-418a-a018-fc21aa41743f","ios":"levelo://app?vid=7a417860-fb24-418a-a018-fc21aa41743f"},"vehicle_type_id":"4","last_reported":1702624013,"current_range_meters":12400,"station_id":"ce4bgip2rcd13ifvqbb0","pricing_plan_id":"free"},{"bike_id":"a2ccc7ea-e2ba-48b8-823c-6920518c57b3","system_id":"levelo_inurba_marseille","lat":43.29797,"lon":5.38078,"is_reserved":false,"is_disabled":false,"rental_uris":{"android":"levelo://app?vid=a2ccc7ea-e2ba-48b8-823c-6920518c57b3","ios":"levelo://app?vid=a2ccc7ea-e2ba-48b8-823c-6920518c57b3"},"vehicle_type_id":"4","last_reported":1702624013,"current_range_meters":26800,"station_id":"","pricing_plan_id":"free"},{"bike_id":"87058afc-7720-44af-9c06-7708e147af9b","system_id":"levelo_inurba_marseille","lat":43.29798,"lon":5.38084,"is_reserved":false,"is_disabled":false,"rental_uris":{"android":"levelo://app?vid=87058afc-7720-44af-9c06-7708e147af9b","ios":"levelo://app?vid=87058afc-7720-44af-9c06-7708e147af9b"},"vehicle_type_id":"4","last_reported":1702624013,"current_range_meters":17200,"station_id":"ce4bgip2rcd13ifvqbb0","pricing_plan_id":"free"},{"bike_id":"aa09074c-0b8d-4a01-a6f0-644e1be0b304","system_id":"levelo_inurba_marseille","lat":43.29801,"lon":5.38091,"is_reserved":false,"is_disabled":false,"rental_uris":{"android":"levelo://app?vid=aa09074c-0b8d-4a01-a6f0-644e1be0b304","ios":"levelo://app?vid=aa09074c-0b8d-4a01-a6f0-644e1be0b304"},"vehicle_type_id":"4","last_reported":1702624013,"current_range_meters":7200,"station_id":"","pricing_plan_id":"free"},{"bike_id":"ad2ef697-6dfe-43a1-9b52-727486a4bb74","system_id":"levelo_inurba_marseille","lat":43.2981,"lon":5.381104,"is_reserved":false,"is_disabled":false,"rental_uris":{"android":"levelo://app?vid=ad2ef697-6dfe-43a1-9b52-727486a4bb74","ios":"levelo://app?vid=ad2ef697-6dfe-43a1-9b52-727486a4bb74"},"vehicle_type_id":"4","last_reported":1702624013,"current_range_meters":28800,"station_id":"ce4bgip2rcd13ifvqbb0","pricing_plan_id":"free"},{"bike_id":"88e10ae8-cad0-4aa0-9f96-2efce9340013","system_id":"levelo_inurba_marseille","lat":43.29799,"lon":5.38089,"is_reserved":false,"is_disabled":false,"rental_uris":{"android":"levelo://app?vid=88e10ae8-cad0-4aa0-9f96-2efce9340013","ios":"levelo://app?vid=88e10ae8-cad0-4aa0-9f96-2efce9340013"},"vehicle_type_id":"4","last_reported":1702624013,"current_range_meters":28800,"station_id":"ce4bgip2rcd13ifvqbb0","pricing_plan_id":"free"},{"bike_id":"ddf8883f-3b8e-4236-9270-32f97039c391","system_id":"levelo_inurba_marseille","lat":43.29805,"lon":5.38103,"is_reserved":false,"is_disabled":false,"rental_uris":{"android":"levelo://app?vid=ddf8883f-3b8e-4236-9270-32f97039c391","ios":"levelo://app?vid=ddf8883f-3b8e-4236-9270-32f97039c391"},"vehicle_type_id":"4","last_reported":1702624013,"current_range_meters":30800,"station_id":"ce4bgip2rcd13ifvqbb0","pricing_plan_id":"free"},{"bike_id":"e705596c-ad39-425b-98e9-8f41a35833ec","system_id":"levelo_inurba_marseille","lat":43.29799,"lon":5.38095,"is_reserved":false,"is_disabled":false,"rental_uris":{"android":"levelo://app?vid=e705596c-ad39-425b-98e9-8f41a35833ec","ios":"levelo://app?vid=e705596c-ad39-425b-98e9-8f41a35833ec"},"vehicle_type_id":"4","last_reported":1702624013,"current_range_meters":30000,"station_id":"","pricing_plan_id":"free"},{"bike_id":"9a8ab95c-363b-4489-9692-58e2f5b06010","system_id":"levelo_inurba_marseille","lat":43.29798,"lon":5.38101,"is_reserved":false,"is_disabled":false,"rental_uris":{"android":"levelo://app?vid=9a8ab95c-363b-4489-9692-58e2f5b06010","ios":"levelo://app?vid=9a8ab95c-363b-4489-9692-58e2f5b06010"},"vehicle_type_id":"4","last_reported":1702624013,"current_range_meters":19600,"station_id":"ce4bgip2rcd13ifvqbb0","pricing_plan_id":"free"},{"bike_id":"c0801df0-577a-4c33-976f-c3136f82c372","system_id":"levelo_inurba_marseille","lat":43.304274,"lon":5.388873,"is_reserved":false,"is_disabled":false,"rental_uris":{"android":"levelo://app?vid=c0801df0-577a-4c33-976f-c3136f82c372","ios":"levelo://app?vid=c0801df0-577a-4c33-976f-c3136f82c372"},"vehicle_type_id":"4","last_reported":1702624013,"current_range_meters":30000,"station_id":"ce4bgk12rcd13ifvqbi0","pricing_plan_id":"free"},{"bike_id":"92d85706-4d6c-4aee-9e0e-accf3fff13a0","system_id":"levelo_inurba_marseille","lat":43.296263,"lon":5.377094,"is_reserved":false,"is_disabled":false,"rental_uris":{"android":"levelo://app?vid=92d85706-4d6c-4aee-9e0e-accf3fff13a0","ios":"levelo://app?vid=92d85706-4d6c-4aee-9e0e-accf3fff13a0"},"vehicle_type_id":"4","last_reported":1702624013,"current_range_meters":26000,"station_id":"ce4bgi92rcd13ifvqb90","pricing_plan_id":"free"},{"bike_id":"2173f9f5-e651-48ac-b28c-c1b3939f90ba","system_id":"levelo_inurba_marseille","lat":43.296263,"lon":5.377094,"is_reserved":false,"is_disabled":false,"rental_uris":{"android":"levelo://app?vid=2173f9f5-e651-48ac-b28c-c1b3939f90ba","ios":"levelo://app?vid=2173f9f5-e651-48ac-b28c-c1b3939f90ba"},"vehicle_type_id":"4","last_reported":1702624013,"current_range_meters":30000,"station_id":"ce4bgi92rcd13ifvqb90","pricing_plan_id":"free"},{"bike_id":"f36034b5-eaf3-4790-aa1a-8a18541d82cf","system_id":"levelo_inurba_marseille","lat":43.296263,"lon":5.377094,"is_reserved":false,"is_disabled":false,"rental_uris":{"android":"levelo://app?vid=f36034b5-eaf3-4790-aa1a-8a18541d82cf","ios":"levelo://app?vid=f36034b5-eaf3-4790-aa1a-8a18541d82cf"},"vehicle_type_id":"4","last_reported":1702624013,"current_range_meters":29600,"station_id":"ce4bgi92rcd13ifvqb90","pricing_plan_id":"free"},{"bike_id":"4a7b87e0-c91b-49fc-8283-4ca09ef90c20","system_id":"levelo_inurba_marseille","lat":43.296108,"lon":5.377024,"is_reserved":false,"is_disabled":false,"rental_uris":{"android":"levelo://app?vid=4a7b87e0-c91b-49fc-8283-4ca09ef90c20","ios":"levelo://app?vid=4a7b87e0-c91b-49fc-8283-4ca09ef90c20"},"vehicle_type_id":"4","last_reported":1702624013,"current_range_meters":30800,"station_id":"ce4bgi92rcd13ifvqb90","pricing_plan_id":"free"},{"bike_id":"69c3f803-0b23-4bc2-83a6-df41d6d07f0e","system_id":"levelo_inurba_marseille","lat":43.29601,"lon":5.381084,"is_reserved":false,"is_disabled":false,"rental_uris":{"android":"levelo://app?vid=69c3f803-0b23-4bc2-83a6-df41d6d07f0e","ios":"levelo://app?vid=69c3f803-0b23-4bc2-83a6-df41d6d07f0e"},"vehicle_type_id":"4","last_reported":1702624013,"current_range_meters":26000,"station_id":"ce4bgl12rcd13ifvqbo0","pricing_plan_id":"free"},{"bike_id":"17c15dc3-dd52-40df-8584-e418114cc6ab","system_id":"levelo_inurba_marseille","lat":43.305994,"lon":5.393687,"is_reserved":false,"is_disabled":false,"rental_uris":{"android":"levelo://app?vid=17c15dc3-dd52-40df-8584-e418114cc6ab","ios":"levelo://app?vid=17c15dc3-dd52-40df-8584-e418114cc6ab"},"vehicle_type_id":"4","last_reported":1702624013,"current_range_meters":10000,"station_id":"ce4bh0p2rcd13ifvqd80","pricing_plan_id":"free"},{"bike_id":"1354e84a-53fd-4e22-ba70-94e1358d0773","system_id":"levelo_inurba_marseille","lat":43.305994,"lon":5.393687,"is_reserved":false,"is_disabled":false,"rental_uris":{"android":"levelo://app?vid=1354e84a-53fd-4e22-ba70-94e1358d0773","ios":"levelo://app?vid=1354e84a-53fd-4e22-ba70-94e1358d0773"},"vehicle_type_id":"4","last_reported":1702624013,"current_range_meters":18400,"station_id":"ce4bh0p2rcd13ifvqd80","pricing_plan_id":"free"},{"bike_id":"274e49f8-b009-4789-acbe-1630b3113b5a","system_id":"levelo_inurba_marseille","lat":43.309038,"lon":5.396546,"is_reserved":false,"is_disabled":false,"rental_uris":{"android":"levelo://app?vid=274e49f8-b009-4789-acbe-1630b3113b5a","ios":"levelo://app?vid=274e49f8-b009-4789-acbe-1630b3113b5a"},"vehicle_type_id":"4","last_reported":1702624013,"current_range_meters":28800,"station_id":"ce4bh012rcd13ifvqcv0","pricing_plan_id":"free"},{"bike_id":"999953a7-8874-4fc4-a7c9-7244c8658d7d","system_id":"levelo_inurba_marseille","lat":43.29529,"lon":5.385581,"is_reserved":false,"is_disabled":false,"rental_uris":{"android":"levelo://app?vid=999953a7-8874-4fc4-a7c9-7244c8658d7d","ios":"levelo://app?vid=999953a7-8874-4fc4-a7c9-7244c8658d7d"},"vehicle_type_id":"4","last_reported":1702624013,"current_range_meters":26400,"station_id":"ce4bgih2rcd13ifvqba0","pricing_plan_id":"free"},{"bike_id":"3c46a9dc-c30a-40c8-9efc-923023c2bad3","system_id":"levelo_inurba_marseille","lat":43.297595,"lon":5.390512,"is_reserved":false,"is_disabled":false,"rental_uris":{"android":"levelo://app?vid=3c46a9dc-c30a-40c8-9efc-923023c2bad3","ios":"levelo://app?vid=3c46a9dc-c30a-40c8-9efc-923023c2bad3"},"vehicle_type_id":"4","last_reported":1702624013,"current_range_meters":6400,"station_id":"","pricing_plan_id":"free"},{"bike_id":"865063d4-9fef-445f-89c9-c119ca7ef479","system_id":"levelo_inurba_marseille","lat":43.289741,"lon":5.378306,"is_reserved":false,"is_disabled":false,"rental_uris":{"android":"levelo://app?vid=865063d4-9fef-445f-89c9-c119ca7ef479","ios":"levelo://app?vid=865063d4-9fef-445f-89c9-c119ca7ef479"},"vehicle_type_id":"4","last_reported":1702624013,"current_range_meters":14800,"station_id":"ce4bh9p2rcd13ifvqed0","pricing_plan_id":"free"},{"bike_id":"0827172c-a2a3-44e2-8c28-8aa7c694f5fb","system_id":"levelo_inurba_marseille","lat":43.289743,"lon":5.378304,"is_reserved":false,"is_disabled":false,"rental_uris":{"android":"levelo://app?vid=0827172c-a2a3-44e2-8c28-8aa7c694f5fb","ios":"levelo://app?vid=0827172c-a2a3-44e2-8c28-8aa7c694f5fb"},"vehicle_type_id":"4","last_reported":1702624013,"current_range_meters":15200,"station_id":"ce4bh9p2rcd13ifvqed0","pricing_plan_id":"free"},{"bike_id":"99fa3924-b3f0-4c11-9199-3348136ed40c","system_id":"levelo_inurba_marseille","lat":43.2901,"lon":5.381269,"is_reserved":false,"is_disabled":false,"rental_uris":{"android":"levelo://app?vid=99fa3924-b3f0-4c11-9199-3348136ed40c","ios":"levelo://app?vid=99fa3924-b3f0-4c11-9199-3348136ed40c"},"vehicle_type_id":"4","last_reported":1702624013,"current_range_meters":20800,"station_id":"ce4bh4p2rcd13ifvqe1g","pricing_plan_id":"free"},{"bike_id":"ecd8fa07-3ec4-4577-b903-62013c9a7fb8","system_id":"levelo_inurba_marseille","lat":43.28856,"lon":5.358371,"is_reserved":false,"is_disabled":false,"rental_uris":{"android":"levelo://app?vid=ecd8fa07-3ec4-4577-b903-62013c9a7fb8","ios":"levelo://app?vid=ecd8fa07-3ec4-4577-b903-62013c9a7fb8"},"vehicle_type_id":"4","last_reported":1702624013,"current_range_meters":25200,"station_id":"ce4bhb12rcd13ifvqem0","pricing_plan_id":"free"},{"bike_id":"0c6c45be-1cc5-485b-8b1a-f1e8276f1e6d","system_id":"levelo_inurba_marseille","lat":43.337444,"lon":5.374475,"is_reserved":false,"is_disabled":false,"rental_uris":{"android":"levelo://app?vid=0c6c45be-1cc5-485b-8b1a-f1e8276f1e6d","ios":"levelo://app?vid=0c6c45be-1cc5-485b-8b1a-f1e8276f1e6d"},"vehicle_type_id":"4","last_reported":1702624013,"current_range_meters":26800,"station_id":"","pricing_plan_id":"free"},{"bike_id":"744fc1b9-c81a-409c-a522-80e2ac8dc9ec","system_id":"levelo_inurba_marseille","lat":43.309318,"lon":5.40152,"is_reserved":false,"is_disabled":false,"rental_uris":{"android":"levelo://app?vid=744fc1b9-c81a-409c-a522-80e2ac8dc9ec","ios":"levelo://app?vid=744fc1b9-c81a-409c-a522-80e2ac8dc9ec"},"vehicle_type_id":"4","last_reported":1702624013,"current_range_meters":28000,"station_id":"ce4bgvp2rcd13ifvqct0","pricing_plan_id":"free"},{"bike_id":"930bba3a-4350-44cf-bb9b-310a6cbdb5ef","system_id":"levelo_inurba_marseille","lat":43.33764,"lon":5.37491,"is_reserved":false,"is_disabled":false,"rental_uris":{"android":"levelo://app?vid=930bba3a-4350-44cf-bb9b-310a6cbdb5ef","ios":"levelo://app?vid=930bba3a-4350-44cf-bb9b-310a6cbdb5ef"},"vehicle_type_id":"4","last_reported":1702624013,"current_range_meters":29600,"station_id":"","pricing_plan_id":"free"},{"bike_id":"30a0f38c-2445-4b3f-98a9-36deb5f47324","system_id":"levelo_inurba_marseille","lat":43.302759,"lon":5.400793,"is_reserved":false,"is_disabled":false,"rental_uris":{"android":"levelo://app?vid=30a0f38c-2445-4b3f-98a9-36deb5f47324","ios":"levelo://app?vid=30a0f38c-2445-4b3f-98a9-36deb5f47324"},"vehicle_type_id":"4","last_reported":1702624013,"current_range_meters":22800,"station_id":"ce4bgvh2rcd13ifvqcs0","pricing_plan_id":"free"},{"bike_id":"da88bf12-6587-42ac-9939-2022e0b315dc","system_id":"levelo_inurba_marseille","lat":43.302759,"lon":5.400793,"is_reserved":false,"is_disabled":false,"rental_uris":{"android":"levelo://app?vid=da88bf12-6587-42ac-9939-2022e0b315dc","ios":"levelo://app?vid=da88bf12-6587-42ac-9939-2022e0b315dc"},"vehicle_type_id":"4","last_reported":1702624013,"current_range_meters":22400,"station_id":"ce4bgvh2rcd13ifvqcs0","pricing_plan_id":"free"},{"bike_id":"6778ae0b-dafb-4411-b546-f362a2f6f117","system_id":"levelo_inurba_marseille","lat":43.30258,"lon":5.40079,"is_reserved":false,"is_disabled":false,"rental_uris":{"android":"levelo://app?vid=6778ae0b-dafb-4411-b546-f362a2f6f117","ios":"levelo://app?vid=6778ae0b-dafb-4411-b546-f362a2f6f117"},"vehicle_type_id":"4","last_reported":1702624013,"current_range_meters":24800,"station_id":"ce4bgvh2rcd13ifvqcs0","pricing_plan_id":"free"},{"bike_id":"67179659-313c-4e82-9f49-6516ca8f4194","system_id":"levelo_inurba_marseille","lat":43.287184,"lon":5.37937,"is_reserved":false,"is_disabled":false,"rental_uris":{"android":"levelo://app?vid=67179659-313c-4e82-9f49-6516ca8f4194","ios":"levelo://app?vid=67179659-313c-4e82-9f49-6516ca8f4194"},"vehicle_type_id":"4","last_reported":1702624013,"current_range_meters":29200,"station_id":"ce4bh9p2rcd13ifvqec0","pricing_plan_id":"free"},{"bike_id":"7fa6f851-c0f4-467b-a993-61ff49863a0a","system_id":"levelo_inurba_marseille","lat":43.287185,"lon":5.379373,"is_reserved":false,"is_disabled":false,"rental_uris":{"android":"levelo://app?vid=7fa6f851-c0f4-467b-a993-61ff49863a0a","ios":"levelo://app?vid=7fa6f851-c0f4-467b-a993-61ff49863a0a"},"vehicle_type_id":"4","last_reported":1702624013,"current_range_meters":25200,"station_id":"ce4bh9p2rcd13ifvqec0","pricing_plan_id":"free"},{"bike_id":"fcb060b7-a9b3-42f7-9984-8cb96c0796ef","system_id":"levelo_inurba_marseille","lat":43.31688,"lon":5.40468,"is_reserved":false,"is_disabled":false,"rental_uris":{"android":"levelo://app?vid=fcb060b7-a9b3-42f7-9984-8cb96c0796ef","ios":"levelo://app?vid=fcb060b7-a9b3-42f7-9984-8cb96c0796ef"},"vehicle_type_id":"4","last_reported":1702624013,"current_range_meters":22000,"station_id":"ce4bh012rcd13ifvqd00","pricing_plan_id":"free"},{"bike_id":"3acbe5c6-6468-446a-903f-c5e4037630e9","system_id":"levelo_inurba_marseille","lat":43.31686,"lon":5.40471,"is_reserved":false,"is_disabled":false,"rental_uris":{"android":"levelo://app?vid=3acbe5c6-6468-446a-903f-c5e4037630e9","ios":"levelo://app?vid=3acbe5c6-6468-446a-903f-c5e4037630e9"},"vehicle_type_id":"4","last_reported":1702624013,"current_range_meters":19600,"station_id":"ce4bh012rcd13ifvqd00","pricing_plan_id":"free"},{"bike_id":"8b2626ee-de9f-4dac-868a-88e73098a8b7","system_id":"levelo_inurba_marseille","lat":43.31686,"lon":5.40471,"is_reserved":false,"is_disabled":false,"rental_uris":{"android":"levelo://app?vid=8b2626ee-de9f-4dac-868a-88e73098a8b7","ios":"levelo://app?vid=8b2626ee-de9f-4dac-868a-88e73098a8b7"},"vehicle_type_id":"4","last_reported":1702624013,"current_range_meters":8400,"station_id":"ce4bh012rcd13ifvqd00","pricing_plan_id":"free"},{"bike_id":"99f71e1f-7efb-44e3-9906-12f885eaab04","system_id":"levelo_inurba_marseille","lat":43.291994,"lon":5.392907,"is_reserved":false,"is_disabled":false,"rental_uris":{"android":"levelo://app?vid=99f71e1f-7efb-44e3-9906-12f885eaab04","ios":"levelo://app?vid=99f71e1f-7efb-44e3-9906-12f885eaab04"},"vehicle_type_id":"4","last_reported":1702624013,"current_range_meters":14000,"station_id":"ce4bh192rcd13ifvqdd0","pricing_plan_id":"free"},{"bike_id":"c47c913e-c77a-46a8-8429-4da220002bce","system_id":"levelo_inurba_marseille","lat":43.285856,"lon":5.350771,"is_reserved":false,"is_disabled":false,"rental_uris":{"android":"levelo://app?vid=c47c913e-c77a-46a8-8429-4da220002bce","ios":"levelo://app?vid=c47c913e-c77a-46a8-8429-4da220002bce"},"vehicle_type_id":"4","last_reported":1702624013,"current_range_meters":22800,"station_id":"ce4bhch2rcd13ifvqeug","pricing_plan_id":"free"},{"bike_id":"f9ef1fc9-15e6-402a-925f-e7a5b926a7ba","system_id":"levelo_inurba_marseille","lat":43.283998,"lon":5.375062,"is_reserved":false,"is_disabled":false,"rental_uris":{"android":"levelo://app?vid=f9ef1fc9-15e6-402a-925f-e7a5b926a7ba","ios":"levelo://app?vid=f9ef1fc9-15e6-402a-925f-e7a5b926a7ba"},"vehicle_type_id":"4","last_reported":1702624013,"current_range_meters":14800,"station_id":"ce4bh412rcd13ifvqds0","pricing_plan_id":"free"},{"bike_id":"e0ea7db2-50ff-4288-84b3-10347a9f307d","system_id":"levelo_inurba_marseille","lat":43.283998,"lon":5.375062,"is_reserved":false,"is_disabled":false,"rental_uris":{"android":"levelo://app?vid=e0ea7db2-50ff-4288-84b3-10347a9f307d","ios":"levelo://app?vid=e0ea7db2-50ff-4288-84b3-10347a9f307d"},"vehicle_type_id":"4","last_reported":1702624013,"current_range_meters":16800,"station_id":"ce4bh412rcd13ifvqds0","pricing_plan_id":"free"},{"bike_id":"2aa4b6db-b4ed-446a-b314-6112834b4b88","system_id":"levelo_inurba_marseille","lat":43.295713,"lon":5.399639,"is_reserved":false,"is_disabled":false,"rental_uris":{"android":"levelo://app?vid=2aa4b6db-b4ed-446a-b314-6112834b4b88","ios":"levelo://app?vid=2aa4b6db-b4ed-446a-b314-6112834b4b88"},"vehicle_type_id":"4","last_reported":1702624013,"current_range_meters":28400,"station_id":"ce4bh312rcd13ifvqdj0","pricing_plan_id":"free"},{"bike_id":"2ff22ac9-6726-4b7d-918a-c1f22a5b3de9","system_id":"levelo_inurba_marseille","lat":43.295713,"lon":5.399639,"is_reserved":false,"is_disabled":false,"rental_uris":{"android":"levelo://app?vid=2ff22ac9-6726-4b7d-918a-c1f22a5b3de9","ios":"levelo://app?vid=2ff22ac9-6726-4b7d-918a-c1f22a5b3de9"},"vehicle_type_id":"4","last_reported":1702624013,"current_range_meters":28800,"station_id":"ce4bh312rcd13ifvqdj0","pricing_plan_id":"free"},{"bike_id":"8ce68d5a-0015-4f11-941d-7c3fc03dbe3b","system_id":"levelo_inurba_marseille","lat":43.319179,"lon":5.407725,"is_reserved":false,"is_disabled":false,"rental_uris":{"android":"levelo://app?vid=8ce68d5a-0015-4f11-941d-7c3fc03dbe3b","ios":"levelo://app?vid=8ce68d5a-0015-4f11-941d-7c3fc03dbe3b"},"vehicle_type_id":"4","last_reported":1702624013,"current_range_meters":28000,"station_id":"ce4bhq12rcd13ifvqhig","pricing_plan_id":"free"},{"bike_id":"1ab5cd54-43c0-49fa-a466-54df9f902037","system_id":"levelo_inurba_marseille","lat":43.323464,"lon":5.406297,"is_reserved":false,"is_disabled":false,"rental_uris":{"android":"levelo://app?vid=1ab5cd54-43c0-49fa-a466-54df9f902037","ios":"levelo://app?vid=1ab5cd54-43c0-49fa-a466-54df9f902037"},"vehicle_type_id":"4","last_reported":1702624013,"current_range_meters":31600,"station_id":"ce4bhq92rcd13ifvqhjg","pricing_plan_id":"free"},{"bike_id":"41f7c2ab-6ae9-416d-bdc9-69f9f84af943","system_id":"levelo_inurba_marseille","lat":43.323464,"lon":5.406297,"is_reserved":false,"is_disabled":false,"rental_uris":{"android":"levelo://app?vid=41f7c2ab-6ae9-416d-bdc9-69f9f84af943","ios":"levelo://app?vid=41f7c2ab-6ae9-416d-bdc9-69f9f84af943"},"vehicle_type_id":"4","last_reported":1702624013,"current_range_meters":31600,"station_id":"ce4bhq92rcd13ifvqhjg","pricing_plan_id":"free"},{"bike_id":"705f5f48-9a36-4b1d-9b2c-f39f9b70ff68","system_id":"levelo_inurba_marseille","lat":43.323464,"lon":5.406297,"is_reserved":false,"is_disabled":false,"rental_uris":{"android":"levelo://app?vid=705f5f48-9a36-4b1d-9b2c-f39f9b70ff68","ios":"levelo://app?vid=705f5f48-9a36-4b1d-9b2c-f39f9b70ff68"},"vehicle_type_id":"4","last_reported":1702624013,"current_range_meters":6000,"station_id":"ce4bhq92rcd13ifvqhjg","pricing_plan_id":"free"},{"bike_id":"afa41159-582e-43fe-92d6-abdd8b6cd713","system_id":"levelo_inurba_marseille","lat":43.297946,"lon":5.404063,"is_reserved":false,"is_disabled":false,"rental_uris":{"android":"levelo://app?vid=afa41159-582e-43fe-92d6-abdd8b6cd713","ios":"levelo://app?vid=afa41159-582e-43fe-92d6-abdd8b6cd713"},"vehicle_type_id":"4","last_reported":1702624013,"current_range_meters":28000,"station_id":"ce4bh112rcd13ifvqd90","pricing_plan_id":"free"},{"bike_id":"812d08fa-9520-40f2-8cac-a5c448b989d4","system_id":"levelo_inurba_marseille","lat":43.283498,"lon":5.380948,"is_reserved":false,"is_disabled":false,"rental_uris":{"android":"levelo://app?vid=812d08fa-9520-40f2-8cac-a5c448b989d4","ios":"levelo://app?vid=812d08fa-9520-40f2-8cac-a5c448b989d4"},"vehicle_type_id":"4","last_reported":1702624013,"current_range_meters":24000,"station_id":"ce4bh412rcd13ifvqdr0","pricing_plan_id":"free"},{"bike_id":"72f09491-43a7-49b5-861b-74a9972e70bc","system_id":"levelo_inurba_marseille","lat":43.288501,"lon":5.393087,"is_reserved":false,"is_disabled":false,"rental_uris":{"android":"levelo://app?vid=72f09491-43a7-49b5-861b-74a9972e70bc","ios":"levelo://app?vid=72f09491-43a7-49b5-861b-74a9972e70bc"},"vehicle_type_id":"4","last_reported":1702624013,"current_range_meters":28400,"station_id":"ce4bh2p2rcd13ifvqdi0","pricing_plan_id":"free"},{"bike_id":"d3b0e2c8-9b9a-4c9f-8c5c-012833398ed1","system_id":"levelo_inurba_marseille","lat":43.288501,"lon":5.393087,"is_reserved":false,"is_disabled":false,"rental_uris":{"android":"levelo://app?vid=d3b0e2c8-9b9a-4c9f-8c5c-012833398ed1","ios":"levelo://app?vid=d3b0e2c8-9b9a-4c9f-8c5c-012833398ed1"},"vehicle_type_id":"4","last_reported":1702624013,"current_range_meters":30400,"station_id":"ce4bh2p2rcd13ifvqdi0","pricing_plan_id":"free"},{"bike_id":"3e9e0caa-42df-4211-b068-95db7bdff388","system_id":"levelo_inurba_marseille","lat":43.283494,"lon":5.380945,"is_reserved":false,"is_disabled":false,"rental_uris":{"android":"levelo://app?vid=3e9e0caa-42df-4211-b068-95db7bdff388","ios":"levelo://app?vid=3e9e0caa-42df-4211-b068-95db7bdff388"},"vehicle_type_id":"4","last_reported":1702624013,"current_range_meters":28400,"station_id":"ce4bh412rcd13ifvqdr0","pricing_plan_id":"free"},{"bike_id":"6eaea01d-3d48-47dd-a1ec-483ba68f736e","system_id":"levelo_inurba_marseille","lat":43.283494,"lon":5.380945,"is_reserved":false,"is_disabled":false,"rental_uris":{"android":"levelo://app?vid=6eaea01d-3d48-47dd-a1ec-483ba68f736e","ios":"levelo://app?vid=6eaea01d-3d48-47dd-a1ec-483ba68f736e"},"vehicle_type_id":"4","last_reported":1702624013,"current_range_meters":16000,"station_id":"ce4bh412rcd13ifvqdr0","pricing_plan_id":"free"},{"bike_id":"7f2a044b-5950-4d0b-bc1d-50be2ed536cd","system_id":"levelo_inurba_marseille","lat":43.283498,"lon":5.380948,"is_reserved":false,"is_disabled":false,"rental_uris":{"android":"levelo://app?vid=7f2a044b-5950-4d0b-bc1d-50be2ed536cd","ios":"levelo://app?vid=7f2a044b-5950-4d0b-bc1d-50be2ed536cd"},"vehicle_type_id":"4","last_reported":1702624013,"current_range_meters":15600,"station_id":"ce4bh412rcd13ifvqdr0","pricing_plan_id":"free"},{"bike_id":"7fe7a697-c456-4d13-88c0-2b7fbb0e9ad4","system_id":"levelo_inurba_marseille","lat":43.284221,"lon":5.349896,"is_reserved":false,"is_disabled":false,"rental_uris":{"android":"levelo://app?vid=7fe7a697-c456-4d13-88c0-2b7fbb0e9ad4","ios":"levelo://app?vid=7fe7a697-c456-4d13-88c0-2b7fbb0e9ad4"},"vehicle_type_id":"4","last_reported":1702624013,"current_range_meters":26000,"station_id":"ce4bhbh2rcd13ifvqepg","pricing_plan_id":"free"},{"bike_id":"85c1341b-f670-4be1-8b5e-ba24726febc3","system_id":"levelo_inurba_marseille","lat":43.292724,"lon":5.401131,"is_reserved":false,"is_disabled":false,"rental_uris":{"android":"levelo://app?vid=85c1341b-f670-4be1-8b5e-ba24726febc3","ios":"levelo://app?vid=85c1341b-f670-4be1-8b5e-ba24726febc3"},"vehicle_type_id":"4","last_reported":1702624013,"current_range_meters":24800,"station_id":"ce4bh312rcd13ifvqdk0","pricing_plan_id":"free"},{"bike_id":"314753ed-e1f7-4a09-9fb6-7a850cee9242","system_id":"levelo_inurba_marseille","lat":43.292724,"lon":5.401131,"is_reserved":false,"is_disabled":false,"rental_uris":{"android":"levelo://app?vid=314753ed-e1f7-4a09-9fb6-7a850cee9242","ios":"levelo://app?vid=314753ed-e1f7-4a09-9fb6-7a850cee9242"},"vehicle_type_id":"4","last_reported":1702624013,"current_range_meters":31200,"station_id":"ce4bh312rcd13ifvqdk0","pricing_plan_id":"free"},{"bike_id":"f833b102-ec26-4af7-a87b-aabd058ab9e1","system_id":"levelo_inurba_marseille","lat":43.282744,"lon":5.350533,"is_reserved":false,"is_disabled":false,"rental_uris":{"android":"levelo://app?vid=f833b102-ec26-4af7-a87b-aabd058ab9e1","ios":"levelo://app?vid=f833b102-ec26-4af7-a87b-aabd058ab9e1"},"vehicle_type_id":"4","last_reported":1702624013,"current_range_meters":26400,"station_id":"ce4bhbp2rcd13ifvqerg","pricing_plan_id":"free"},{"bike_id":"bea3cd5a-76b2-41e2-bf93-e4630ff309b1","system_id":"levelo_inurba_marseille","lat":43.290365,"lon":5.39972,"is_reserved":false,"is_disabled":false,"rental_uris":{"android":"levelo://app?vid=bea3cd5a-76b2-41e2-bf93-e4630ff309b1","ios":"levelo://app?vid=bea3cd5a-76b2-41e2-bf93-e4630ff309b1"},"vehicle_type_id":"4","last_reported":1702624013,"current_range_meters":20800,"station_id":"ce4bh392rcd13ifvqdm0","pricing_plan_id":"free"},{"bike_id":"8522e4a9-f338-4beb-9535-8af409ad46c8","system_id":"levelo_inurba_marseille","lat":43.29041,"lon":5.399634,"is_reserved":false,"is_disabled":false,"rental_uris":{"android":"levelo://app?vid=8522e4a9-f338-4beb-9535-8af409ad46c8","ios":"levelo://app?vid=8522e4a9-f338-4beb-9535-8af409ad46c8"},"vehicle_type_id":"4","last_reported":1702624013,"current_range_meters":20800,"station_id":"ce4bh392rcd13ifvqdm0","pricing_plan_id":"free"},{"bike_id":"496b83a6-528e-4544-8738-29b0db1355a9","system_id":"levelo_inurba_marseille","lat":43.281044,"lon":5.378308,"is_reserved":false,"is_disabled":false,"rental_uris":{"android":"levelo://app?vid=496b83a6-528e-4544-8738-29b0db1355a9","ios":"levelo://app?vid=496b83a6-528e-4544-8738-29b0db1355a9"},"vehicle_type_id":"4","last_reported":1702624013,"current_range_meters":26800,"station_id":"ce4bha12rcd13ifvqee0","pricing_plan_id":"free"},{"bike_id":"718b7827-3901-42ac-8f65-21f5dfb10cb6","system_id":"levelo_inurba_marseille","lat":43.281044,"lon":5.378308,"is_reserved":false,"is_disabled":false,"rental_uris":{"android":"levelo://app?vid=718b7827-3901-42ac-8f65-21f5dfb10cb6","ios":"levelo://app?vid=718b7827-3901-42ac-8f65-21f5dfb10cb6"},"vehicle_type_id":"4","last_reported":1702624013,"current_range_meters":4400,"station_id":"ce4bha12rcd13ifvqee0","pricing_plan_id":"free"},{"bike_id":"a504b27d-6e8a-48d0-866f-304fb1963ec6","system_id":"levelo_inurba_marseille","lat":43.326623,"lon":5.40985,"is_reserved":false,"is_disabled":false,"rental_uris":{"android":"levelo://app?vid=a504b27d-6e8a-48d0-866f-304fb1963ec6","ios":"levelo://app?vid=a504b27d-6e8a-48d0-866f-304fb1963ec6"},"vehicle_type_id":"4","last_reported":1702624013,"current_range_meters":1200,"station_id":"ce4bhpp2rcd13ifvqhgg","pricing_plan_id":"free"},{"bike_id":"a2db5b98-f7ff-445c-8bfc-006abb56b600","system_id":"levelo_inurba_marseille","lat":43.304188,"lon":5.412904,"is_reserved":false,"is_disabled":false,"rental_uris":{"android":"levelo://app?vid=a2db5b98-f7ff-445c-8bfc-006abb56b600","ios":"levelo://app?vid=a2db5b98-f7ff-445c-8bfc-006abb56b600"},"vehicle_type_id":"4","last_reported":1702624013,"current_range_meters":0,"station_id":"ce4bhop2rcd13ifvqh8g","pricing_plan_id":"free"},{"bike_id":"70280a88-e879-419f-ac69-3b586ae65c60","system_id":"levelo_inurba_marseille","lat":43.30417,"lon":5.41282,"is_reserved":false,"is_disabled":false,"rental_uris":{"android":"levelo://app?vid=70280a88-e879-419f-ac69-3b586ae65c60","ios":"levelo://app?vid=70280a88-e879-419f-ac69-3b586ae65c60"},"vehicle_type_id":"4","last_reported":1702624013,"current_range_meters":26400,"station_id":"ce4bhop2rcd13ifvqh8g","pricing_plan_id":"free"},{"bike_id":"0b8b3447-5cee-4ce3-909f-c9cba0d5bfb1","system_id":"levelo_inurba_marseille","lat":43.304227,"lon":5.412845,"is_reserved":false,"is_disabled":false,"rental_uris":{"android":"levelo://app?vid=0b8b3447-5cee-4ce3-909f-c9cba0d5bfb1","ios":"levelo://app?vid=0b8b3447-5cee-4ce3-909f-c9cba0d5bfb1"},"vehicle_type_id":"4","last_reported":1702624013,"current_range_meters":21200,"station_id":"","pricing_plan_id":"free"},{"bike_id":"157fe418-22e6-479e-a96d-7b5f7e6cf4bb","system_id":"levelo_inurba_marseille","lat":43.30423,"lon":5.412862,"is_reserved":false,"is_disabled":false,"rental_uris":{"android":"levelo://app?vid=157fe418-22e6-479e-a96d-7b5f7e6cf4bb","ios":"levelo://app?vid=157fe418-22e6-479e-a96d-7b5f7e6cf4bb"},"vehicle_type_id":"4","last_reported":1702624013,"current_range_meters":31200,"station_id":"ce4bhop2rcd13ifvqh8g","pricing_plan_id":"free"},{"bike_id":"846dafa0-598f-4789-939c-acd53b4e0ffa","system_id":"levelo_inurba_marseille","lat":43.304188,"lon":5.412904,"is_reserved":false,"is_disabled":false,"rental_uris":{"android":"levelo://app?vid=846dafa0-598f-4789-939c-acd53b4e0ffa","ios":"levelo://app?vid=846dafa0-598f-4789-939c-acd53b4e0ffa"},"vehicle_type_id":"4","last_reported":1702624013,"current_range_meters":19200,"station_id":"ce4bhop2rcd13ifvqh8g","pricing_plan_id":"free"},{"bike_id":"16e35e61-0d29-460d-a592-ee400d072ad7","system_id":"levelo_inurba_marseille","lat":43.30418,"lon":5.41287,"is_reserved":false,"is_disabled":false,"rental_uris":{"android":"levelo://app?vid=16e35e61-0d29-460d-a592-ee400d072ad7","ios":"levelo://app?vid=16e35e61-0d29-460d-a592-ee400d072ad7"},"vehicle_type_id":"4","last_reported":1702624013,"current_range_meters":23200,"station_id":"ce4bhop2rcd13ifvqh8g","pricing_plan_id":"free"},{"bike_id":"c99de67d-4722-47ad-9289-1378328c61a0","system_id":"levelo_inurba_marseille","lat":43.304188,"lon":5.412904,"is_reserved":false,"is_disabled":false,"rental_uris":{"android":"levelo://app?vid=c99de67d-4722-47ad-9289-1378328c61a0","ios":"levelo://app?vid=c99de67d-4722-47ad-9289-1378328c61a0"},"vehicle_type_id":"4","last_reported":1702624013,"current_range_meters":30800,"station_id":"ce4bhop2rcd13ifvqh8g","pricing_plan_id":"free"},{"bike_id":"f0b660fe-ffe6-4fff-b427-62679a5d8e72","system_id":"levelo_inurba_marseille","lat":43.292743,"lon":5.407177,"is_reserved":false,"is_disabled":false,"rental_uris":{"android":"levelo://app?vid=f0b660fe-ffe6-4fff-b427-62679a5d8e72","ios":"levelo://app?vid=f0b660fe-ffe6-4fff-b427-62679a5d8e72"},"vehicle_type_id":"4","last_reported":1702624013,"current_range_meters":2400,"station_id":"","pricing_plan_id":"free"},{"bike_id":"be434152-63b3-4fb8-a952-63cd714c3ce2","system_id":"levelo_inurba_marseille","lat":43.320045,"lon":5.415048,"is_reserved":false,"is_disabled":false,"rental_uris":{"android":"levelo://app?vid=be434152-63b3-4fb8-a952-63cd714c3ce2","ios":"levelo://app?vid=be434152-63b3-4fb8-a952-63cd714c3ce2"},"vehicle_type_id":"4","last_reported":1702624013,"current_range_meters":27200,"station_id":"ce4bhq92rcd13ifvqhkg","pricing_plan_id":"free"},{"bike_id":"8cabf520-42aa-4ba0-a318-3c82f05974c2","system_id":"levelo_inurba_marseille","lat":43.320045,"lon":5.415046,"is_reserved":false,"is_disabled":false,"rental_uris":{"android":"levelo://app?vid=8cabf520-42aa-4ba0-a318-3c82f05974c2","ios":"levelo://app?vid=8cabf520-42aa-4ba0-a318-3c82f05974c2"},"vehicle_type_id":"4","last_reported":1702624013,"current_range_meters":7200,"station_id":"ce4bhq92rcd13ifvqhkg","pricing_plan_id":"free"},{"bike_id":"f20cc8b3-2651-49c7-95c5-be9c6e7d6503","system_id":"levelo_inurba_marseille","lat":43.299577,"lon":5.413277,"is_reserved":false,"is_disabled":false,"rental_uris":{"android":"levelo://app?vid=f20cc8b3-2651-49c7-95c5-be9c6e7d6503","ios":"levelo://app?vid=f20cc8b3-2651-49c7-95c5-be9c6e7d6503"},"vehicle_type_id":"4","last_reported":1702624013,"current_range_meters":28000,"station_id":"ce4bhp12rcd13ifvqh9g","pricing_plan_id":"free"},{"bike_id":"2f0f8504-1fe7-4b71-aa2a-cfdb89109a4c","system_id":"levelo_inurba_marseille","lat":43.279742,"lon":5.38744,"is_reserved":false,"is_disabled":false,"rental_uris":{"android":"levelo://app?vid=2f0f8504-1fe7-4b71-aa2a-cfdb89109a4c","ios":"levelo://app?vid=2f0f8504-1fe7-4b71-aa2a-cfdb89109a4c"},"vehicle_type_id":"4","last_reported":1702624013,"current_range_meters":30800,"station_id":"ce4bhg12rcd13ifvqf80","pricing_plan_id":"free"},{"bike_id":"6cc39eb8-2ecc-4757-9bed-fc6558c91693","system_id":"levelo_inurba_marseille","lat":43.320045,"lon":5.415046,"is_reserved":false,"is_disabled":false,"rental_uris":{"android":"levelo://app?vid=6cc39eb8-2ecc-4757-9bed-fc6558c91693","ios":"levelo://app?vid=6cc39eb8-2ecc-4757-9bed-fc6558c91693"},"vehicle_type_id":"4","last_reported":1702624013,"current_range_meters":31200,"station_id":"ce4bhq92rcd13ifvqhkg","pricing_plan_id":"free"},{"bike_id":"20f82c7a-33c4-45ee-b123-465b50a5beb0","system_id":"levelo_inurba_marseille","lat":43.292571,"lon":5.409107,"is_reserved":false,"is_disabled":false,"rental_uris":{"android":"levelo://app?vid=20f82c7a-33c4-45ee-b123-465b50a5beb0","ios":"levelo://app?vid=20f82c7a-33c4-45ee-b123-465b50a5beb0"},"vehicle_type_id":"4","last_reported":1702624013,"current_range_meters":31200,"station_id":"ce4bh192rcd13ifvqdc0","pricing_plan_id":"free"},{"bike_id":"4d7d5924-3c1f-4d0b-a566-7719408380b9","system_id":"levelo_inurba_marseille","lat":43.292569,"lon":5.409107,"is_reserved":false,"is_disabled":false,"rental_uris":{"android":"levelo://app?vid=4d7d5924-3c1f-4d0b-a566-7719408380b9","ios":"levelo://app?vid=4d7d5924-3c1f-4d0b-a566-7719408380b9"},"vehicle_type_id":"4","last_reported":1702624013,"current_range_meters":31200,"station_id":"ce4bh192rcd13ifvqdc0","pricing_plan_id":"free"},{"bike_id":"da460447-23c3-4df0-b725-57a6cfaf5ee5","system_id":"levelo_inurba_marseille","lat":43.29255,"lon":5.40907,"is_reserved":false,"is_disabled":false,"rental_uris":{"android":"levelo://app?vid=da460447-23c3-4df0-b725-57a6cfaf5ee5","ios":"levelo://app?vid=da460447-23c3-4df0-b725-57a6cfaf5ee5"},"vehicle_type_id":"4","last_reported":1702624013,"current_range_meters":3200,"station_id":"ce4bh192rcd13ifvqdc0","pricing_plan_id":"free"},{"bike_id":"f7b590a9-38e0-4875-b5cb-89d09c44fda7","system_id":"levelo_inurba_marseille","lat":43.276194,"lon":5.361152,"is_reserved":false,"is_disabled":false,"rental_uris":{"android":"levelo://app?vid=f7b590a9-38e0-4875-b5cb-89d09c44fda7","ios":"levelo://app?vid=f7b590a9-38e0-4875-b5cb-89d09c44fda7"},"vehicle_type_id":"4","last_reported":1702624013,"current_range_meters":30400,"station_id":"ce4bgj92rcd13ifvqbe0","pricing_plan_id":"free"},{"bike_id":"72da60ac-c4be-4e45-ba40-8b7f74c7f23d","system_id":"levelo_inurba_marseille","lat":43.325233,"lon":5.414318,"is_reserved":false,"is_disabled":false,"rental_uris":{"android":"levelo://app?vid=72da60ac-c4be-4e45-ba40-8b7f74c7f23d","ios":"levelo://app?vid=72da60ac-c4be-4e45-ba40-8b7f74c7f23d"},"vehicle_type_id":"4","last_reported":1702624013,"current_range_meters":28400,"station_id":"ce4bhq12rcd13ifvqhhg","pricing_plan_id":"free"},{"bike_id":"66e41cb8-7bfc-48af-ae65-90d7a52058e9","system_id":"levelo_inurba_marseille","lat":43.27619,"lon":5.36107,"is_reserved":false,"is_disabled":false,"rental_uris":{"android":"levelo://app?vid=66e41cb8-7bfc-48af-ae65-90d7a52058e9","ios":"levelo://app?vid=66e41cb8-7bfc-48af-ae65-90d7a52058e9"},"vehicle_type_id":"4","last_reported":1702624013,"current_range_meters":13200,"station_id":"ce4bgj92rcd13ifvqbe0","pricing_plan_id":"free"},{"bike_id":"6be6e30d-a1a4-4274-a12e-04437af1d297","system_id":"levelo_inurba_marseille","lat":43.276179,"lon":5.361009,"is_reserved":false,"is_disabled":false,"rental_uris":{"android":"levelo://app?vid=6be6e30d-a1a4-4274-a12e-04437af1d297","ios":"levelo://app?vid=6be6e30d-a1a4-4274-a12e-04437af1d297"},"vehicle_type_id":"4","last_reported":1702624013,"current_range_meters":30800,"station_id":"ce4bgj92rcd13ifvqbe0","pricing_plan_id":"free"},{"bike_id":"e1ffabc8-4ff6-4a2f-95bb-9126ed9c1f44","system_id":"levelo_inurba_marseille","lat":43.303837,"lon":5.418724,"is_reserved":false,"is_disabled":false,"rental_uris":{"android":"levelo://app?vid=e1ffabc8-4ff6-4a2f-95bb-9126ed9c1f44","ios":"levelo://app?vid=e1ffabc8-4ff6-4a2f-95bb-9126ed9c1f44"},"vehicle_type_id":"4","last_reported":1702624013,"current_range_meters":10400,"station_id":"ce4bhop2rcd13ifvqh7g","pricing_plan_id":"free"},{"bike_id":"8dd7f3b2-fac2-4f40-8d56-9a0ca7caf5b3","system_id":"levelo_inurba_marseille","lat":43.335759,"lon":5.4103,"is_reserved":false,"is_disabled":false,"rental_uris":{"android":"levelo://app?vid=8dd7f3b2-fac2-4f40-8d56-9a0ca7caf5b3","ios":"levelo://app?vid=8dd7f3b2-fac2-4f40-8d56-9a0ca7caf5b3"},"vehicle_type_id":"4","last_reported":1702624013,"current_range_meters":8800,"station_id":"ce4bhqh2rcd13ifvqhmg","pricing_plan_id":"free"},{"bike_id":"98b1ea02-0ceb-4303-ac50-6ce24a7d6c07","system_id":"levelo_inurba_marseille","lat":43.336148,"lon":5.410349,"is_reserved":false,"is_disabled":false,"rental_uris":{"android":"levelo://app?vid=98b1ea02-0ceb-4303-ac50-6ce24a7d6c07","ios":"levelo://app?vid=98b1ea02-0ceb-4303-ac50-6ce24a7d6c07"},"vehicle_type_id":"4","last_reported":1702624013,"current_range_meters":23200,"station_id":"ce4bhqh2rcd13ifvqhmg","pricing_plan_id":"free"},{"bike_id":"6b7532ad-8312-48ab-b533-e85f2bff77d4","system_id":"levelo_inurba_marseille","lat":43.276769,"lon":5.388787,"is_reserved":false,"is_disabled":false,"rental_uris":{"android":"levelo://app?vid=6b7532ad-8312-48ab-b533-e85f2bff77d4","ios":"levelo://app?vid=6b7532ad-8312-48ab-b533-e85f2bff77d4"},"vehicle_type_id":"4","last_reported":1702624013,"current_range_meters":18800,"station_id":"ce4bhi12rcd13ifvqfo0","pricing_plan_id":"free"},{"bike_id":"12b41b3b-a68a-4920-866b-21cd1a15d4ff","system_id":"levelo_inurba_marseille","lat":43.317121,"lon":5.423936,"is_reserved":false,"is_disabled":false,"rental_uris":{"android":"levelo://app?vid=12b41b3b-a68a-4920-866b-21cd1a15d4ff","ios":"levelo://app?vid=12b41b3b-a68a-4920-866b-21cd1a15d4ff"},"vehicle_type_id":"4","last_reported":1702624013,"current_range_meters":31200,"station_id":"ce4bhp92rcd13ifvqhbg","pricing_plan_id":"free"},{"bike_id":"435c43fc-4889-44ab-9b05-535635f4a017","system_id":"levelo_inurba_marseille","lat":43.340804,"lon":5.410219,"is_reserved":false,"is_disabled":false,"rental_uris":{"android":"levelo://app?vid=435c43fc-4889-44ab-9b05-535635f4a017","ios":"levelo://app?vid=435c43fc-4889-44ab-9b05-535635f4a017"},"vehicle_type_id":"4","last_reported":1702624013,"current_range_meters":25200,"station_id":"ce4bhqh2rcd13ifvqhlg","pricing_plan_id":"free"},{"bike_id":"bef127eb-ad09-4148-acb9-c2e1f27e433e","system_id":"levelo_inurba_marseille","lat":43.340804,"lon":5.410219,"is_reserved":false,"is_disabled":false,"rental_uris":{"android":"levelo://app?vid=bef127eb-ad09-4148-acb9-c2e1f27e433e","ios":"levelo://app?vid=bef127eb-ad09-4148-acb9-c2e1f27e433e"},"vehicle_type_id":"4","last_reported":1702624013,"current_range_meters":22000,"station_id":"ce4bhqh2rcd13ifvqhlg","pricing_plan_id":"free"},{"bike_id":"3ca2c2d2-99b0-4aa6-a05d-e30f02e6a7fb","system_id":"levelo_inurba_marseille","lat":43.276092,"lon":5.395289,"is_reserved":false,"is_disabled":false,"rental_uris":{"android":"levelo://app?vid=3ca2c2d2-99b0-4aa6-a05d-e30f02e6a7fb","ios":"levelo://app?vid=3ca2c2d2-99b0-4aa6-a05d-e30f02e6a7fb"},"vehicle_type_id":"4","last_reported":1702624013,"current_range_meters":28800,"station_id":"","pricing_plan_id":"free"},{"bike_id":"726d2b3e-2ff6-4769-9980-f89e19f7bba0","system_id":"levelo_inurba_marseille","lat":43.274099,"lon":5.394019,"is_reserved":false,"is_disabled":false,"rental_uris":{"android":"levelo://app?vid=726d2b3e-2ff6-4769-9980-f89e19f7bba0","ios":"levelo://app?vid=726d2b3e-2ff6-4769-9980-f89e19f7bba0"},"vehicle_type_id":"4","last_reported":1702624013,"current_range_meters":26000,"station_id":"ce4bhdp2rcd13ifvqf20","pricing_plan_id":"free"},{"bike_id":"3ee6b74b-5db0-4580-98a7-fc79a9e0df6a","system_id":"levelo_inurba_marseille","lat":43.304144,"lon":5.425363,"is_reserved":false,"is_disabled":false,"rental_uris":{"android":"levelo://app?vid=3ee6b74b-5db0-4580-98a7-fc79a9e0df6a","ios":"levelo://app?vid=3ee6b74b-5db0-4580-98a7-fc79a9e0df6a"},"vehicle_type_id":"4","last_reported":1702624013,"current_range_meters":21600,"station_id":"ce4bhoh2rcd13ifvqh6g","pricing_plan_id":"free"},{"bike_id":"5d3f594c-9b0e-418e-807f-31b01190d134","system_id":"levelo_inurba_marseille","lat":43.295523,"lon":5.422926,"is_reserved":false,"is_disabled":false,"rental_uris":{"android":"levelo://app?vid=5d3f594c-9b0e-418e-807f-31b01190d134","ios":"levelo://app?vid=5d3f594c-9b0e-418e-807f-31b01190d134"},"vehicle_type_id":"4","last_reported":1702624013,"current_range_meters":29600,"station_id":"ce4bhph2rcd13ifvqhdg","pricing_plan_id":"free"},{"bike_id":"94984fc3-6575-498f-bb52-e6c05e1c5e4b","system_id":"levelo_inurba_marseille","lat":43.295523,"lon":5.422926,"is_reserved":false,"is_disabled":false,"rental_uris":{"android":"levelo://app?vid=94984fc3-6575-498f-bb52-e6c05e1c5e4b","ios":"levelo://app?vid=94984fc3-6575-498f-bb52-e6c05e1c5e4b"},"vehicle_type_id":"4","last_reported":1702624013,"current_range_meters":22400,"station_id":"ce4bhph2rcd13ifvqhdg","pricing_plan_id":"free"},{"bike_id":"9128feaf-36b8-4e63-849f-ccc68f896dc0","system_id":"levelo_inurba_marseille","lat":43.295523,"lon":5.422926,"is_reserved":false,"is_disabled":false,"rental_uris":{"android":"levelo://app?vid=9128feaf-36b8-4e63-849f-ccc68f896dc0","ios":"levelo://app?vid=9128feaf-36b8-4e63-849f-ccc68f896dc0"},"vehicle_type_id":"4","last_reported":1702624013,"current_range_meters":31600,"station_id":"ce4bhph2rcd13ifvqhdg","pricing_plan_id":"free"},{"bike_id":"a389eb3a-22bd-48d7-922a-d466e9ddbd28","system_id":"levelo_inurba_marseille","lat":43.29557,"lon":5.42281,"is_reserved":false,"is_disabled":false,"rental_uris":{"android":"levelo://app?vid=a389eb3a-22bd-48d7-922a-d466e9ddbd28","ios":"levelo://app?vid=a389eb3a-22bd-48d7-922a-d466e9ddbd28"},"vehicle_type_id":"4","last_reported":1702624013,"current_range_meters":0,"station_id":"ce4bhph2rcd13ifvqhdg","pricing_plan_id":"free"},{"bike_id":"04b3d846-1da3-4e37-aa5f-d8bcc257dd52","system_id":"levelo_inurba_marseille","lat":43.274528,"lon":5.39732,"is_reserved":false,"is_disabled":false,"rental_uris":{"android":"levelo://app?vid=04b3d846-1da3-4e37-aa5f-d8bcc257dd52","ios":"levelo://app?vid=04b3d846-1da3-4e37-aa5f-d8bcc257dd52"},"vehicle_type_id":"4","last_reported":1702624013,"current_range_meters":0,"station_id":"","pricing_plan_id":"free"},{"bike_id":"0fdd36e0-a97d-4931-83bd-dc41afbd80cb","system_id":"levelo_inurba_marseille","lat":43.295511,"lon":5.422792,"is_reserved":false,"is_disabled":false,"rental_uris":{"android":"levelo://app?vid=0fdd36e0-a97d-4931-83bd-dc41afbd80cb","ios":"levelo://app?vid=0fdd36e0-a97d-4931-83bd-dc41afbd80cb"},"vehicle_type_id":"4","last_reported":1702624013,"current_range_meters":26800,"station_id":"ce4bhph2rcd13ifvqhdg","pricing_plan_id":"free"},{"bike_id":"a7863f6b-776e-4daa-b931-d7ecbe1a71ad","system_id":"levelo_inurba_marseille","lat":43.29553,"lon":5.422824,"is_reserved":false,"is_disabled":false,"rental_uris":{"android":"levelo://app?vid=a7863f6b-776e-4daa-b931-d7ecbe1a71ad","ios":"levelo://app?vid=a7863f6b-776e-4daa-b931-d7ecbe1a71ad"},"vehicle_type_id":"4","last_reported":1702624013,"current_range_meters":22400,"station_id":"ce4bhph2rcd13ifvqhdg","pricing_plan_id":"free"},{"bike_id":"1d2472e2-350f-44fa-a627-38e6bb5829da","system_id":"levelo_inurba_marseille","lat":43.295539,"lon":5.422831,"is_reserved":false,"is_disabled":false,"rental_uris":{"android":"levelo://app?vid=1d2472e2-350f-44fa-a627-38e6bb5829da","ios":"levelo://app?vid=1d2472e2-350f-44fa-a627-38e6bb5829da"},"vehicle_type_id":"4","last_reported":1702624013,"current_range_meters":24800,"station_id":"ce4bhph2rcd13ifvqhdg","pricing_plan_id":"free"},{"bike_id":"44b5f216-a7b6-4c19-8600-d0fc7a6dee0a","system_id":"levelo_inurba_marseille","lat":43.295523,"lon":5.422926,"is_reserved":false,"is_disabled":false,"rental_uris":{"android":"levelo://app?vid=44b5f216-a7b6-4c19-8600-d0fc7a6dee0a","ios":"levelo://app?vid=44b5f216-a7b6-4c19-8600-d0fc7a6dee0a"},"vehicle_type_id":"4","last_reported":1702624013,"current_range_meters":24000,"station_id":"ce4bhph2rcd13ifvqhdg","pricing_plan_id":"free"},{"bike_id":"69f8ad0f-2459-47c5-93c3-15dea485ac8b","system_id":"levelo_inurba_marseille","lat":43.295529,"lon":5.422884,"is_reserved":false,"is_disabled":false,"rental_uris":{"android":"levelo://app?vid=69f8ad0f-2459-47c5-93c3-15dea485ac8b","ios":"levelo://app?vid=69f8ad0f-2459-47c5-93c3-15dea485ac8b"},"vehicle_type_id":"4","last_reported":1702624013,"current_range_meters":26400,"station_id":"ce4bhph2rcd13ifvqhdg","pricing_plan_id":"free"},{"bike_id":"9d9cc9cf-94d9-4301-92ae-c1d29b5e8d65","system_id":"levelo_inurba_marseille","lat":43.272116,"lon":5.391747,"is_reserved":false,"is_disabled":false,"rental_uris":{"android":"levelo://app?vid=9d9cc9cf-94d9-4301-92ae-c1d29b5e8d65","ios":"levelo://app?vid=9d9cc9cf-94d9-4301-92ae-c1d29b5e8d65"},"vehicle_type_id":"4","last_reported":1702624013,"current_range_meters":18400,"station_id":"ce4bhhp2rcd13ifvqfm0","pricing_plan_id":"free"},{"bike_id":"fc10e7a2-ec87-4e2b-bf4a-451521878895","system_id":"levelo_inurba_marseille","lat":43.278127,"lon":5.40709,"is_reserved":false,"is_disabled":false,"rental_uris":{"android":"levelo://app?vid=fc10e7a2-ec87-4e2b-bf4a-451521878895","ios":"levelo://app?vid=fc10e7a2-ec87-4e2b-bf4a-451521878895"},"vehicle_type_id":"4","last_reported":1702624013,"current_range_meters":31200,"station_id":"ce4bhnh2rcd13ifvqgtg","pricing_plan_id":"free"},{"bike_id":"13136e7b-17d5-41a3-baf1-84312a187446","system_id":"levelo_inurba_marseille","lat":43.278128,"lon":5.407195,"is_reserved":false,"is_disabled":false,"rental_uris":{"android":"levelo://app?vid=13136e7b-17d5-41a3-baf1-84312a187446","ios":"levelo://app?vid=13136e7b-17d5-41a3-baf1-84312a187446"},"vehicle_type_id":"4","last_reported":1702624013,"current_range_meters":31600,"station_id":"ce4bhnh2rcd13ifvqgtg","pricing_plan_id":"free"},{"bike_id":"744d0915-676f-445e-8051-ce5abddae6b8","system_id":"levelo_inurba_marseille","lat":43.278128,"lon":5.407195,"is_reserved":false,"is_disabled":false,"rental_uris":{"android":"levelo://app?vid=744d0915-676f-445e-8051-ce5abddae6b8","ios":"levelo://app?vid=744d0915-676f-445e-8051-ce5abddae6b8"},"vehicle_type_id":"4","last_reported":1702624013,"current_range_meters":30400,"station_id":"ce4bhnh2rcd13ifvqgtg","pricing_plan_id":"free"},{"bike_id":"9295d241-3ede-4962-8e94-0b2831dbd578","system_id":"levelo_inurba_marseille","lat":43.27813,"lon":5.40712,"is_reserved":false,"is_disabled":false,"rental_uris":{"android":"levelo://app?vid=9295d241-3ede-4962-8e94-0b2831dbd578","ios":"levelo://app?vid=9295d241-3ede-4962-8e94-0b2831dbd578"},"vehicle_type_id":"4","last_reported":1702624013,"current_range_meters":31200,"station_id":"ce4bhnh2rcd13ifvqgtg","pricing_plan_id":"free"},{"bike_id":"9ed8a8b0-adcb-4301-a90b-ada718e24e35","system_id":"levelo_inurba_marseille","lat":43.278128,"lon":5.407195,"is_reserved":false,"is_disabled":false,"rental_uris":{"android":"levelo://app?vid=9ed8a8b0-adcb-4301-a90b-ada718e24e35","ios":"levelo://app?vid=9ed8a8b0-adcb-4301-a90b-ada718e24e35"},"vehicle_type_id":"4","last_reported":1702624013,"current_range_meters":28000,"station_id":"ce4bhnh2rcd13ifvqgtg","pricing_plan_id":"free"},{"bike_id":"cf31a53e-dc23-4b88-b22b-12438dc29d2b","system_id":"levelo_inurba_marseille","lat":43.2781,"lon":5.40709,"is_reserved":false,"is_disabled":false,"rental_uris":{"android":"levelo://app?vid=cf31a53e-dc23-4b88-b22b-12438dc29d2b","ios":"levelo://app?vid=cf31a53e-dc23-4b88-b22b-12438dc29d2b"},"vehicle_type_id":"4","last_reported":1702624013,"current_range_meters":23600,"station_id":"ce4bhnh2rcd13ifvqgtg","pricing_plan_id":"free"},{"bike_id":"08d8e6ae-8e0e-443e-b173-796da3012d88","system_id":"levelo_inurba_marseille","lat":43.278128,"lon":5.407195,"is_reserved":false,"is_disabled":false,"rental_uris":{"android":"levelo://app?vid=08d8e6ae-8e0e-443e-b173-796da3012d88","ios":"levelo://app?vid=08d8e6ae-8e0e-443e-b173-796da3012d88"},"vehicle_type_id":"4","last_reported":1702624013,"current_range_meters":25200,"station_id":"ce4bhnh2rcd13ifvqgtg","pricing_plan_id":"free"},{"bike_id":"aaf0a2da-6559-483e-b877-95aab8f7a9d9","system_id":"levelo_inurba_marseille","lat":43.27816,"lon":5.4072,"is_reserved":false,"is_disabled":false,"rental_uris":{"android":"levelo://app?vid=aaf0a2da-6559-483e-b877-95aab8f7a9d9","ios":"levelo://app?vid=aaf0a2da-6559-483e-b877-95aab8f7a9d9"},"vehicle_type_id":"4","last_reported":1702624013,"current_range_meters":23600,"station_id":"ce4bhnh2rcd13ifvqgtg","pricing_plan_id":"free"},{"bike_id":"6baecf9e-750f-4685-ba33-d33fd9cbfd22","system_id":"levelo_inurba_marseille","lat":43.278128,"lon":5.407195,"is_reserved":false,"is_disabled":false,"rental_uris":{"android":"levelo://app?vid=6baecf9e-750f-4685-ba33-d33fd9cbfd22","ios":"levelo://app?vid=6baecf9e-750f-4685-ba33-d33fd9cbfd22"},"vehicle_type_id":"4","last_reported":1702624013,"current_range_meters":31200,"station_id":"ce4bhnh2rcd13ifvqgtg","pricing_plan_id":"free"},{"bike_id":"d74a1bd2-55ab-42f1-8334-7d3bbfb6c27a","system_id":"levelo_inurba_marseille","lat":43.278128,"lon":5.407195,"is_reserved":false,"is_disabled":false,"rental_uris":{"android":"levelo://app?vid=d74a1bd2-55ab-42f1-8334-7d3bbfb6c27a","ios":"levelo://app?vid=d74a1bd2-55ab-42f1-8334-7d3bbfb6c27a"},"vehicle_type_id":"4","last_reported":1702624013,"current_range_meters":31200,"station_id":"ce4bhnh2rcd13ifvqgtg","pricing_plan_id":"free"},{"bike_id":"d7422665-f6ef-41b1-a095-f9fee737a826","system_id":"levelo_inurba_marseille","lat":43.269467,"lon":5.386439,"is_reserved":false,"is_disabled":false,"rental_uris":{"android":"levelo://app?vid=d7422665-f6ef-41b1-a095-f9fee737a826","ios":"levelo://app?vid=d7422665-f6ef-41b1-a095-f9fee737a826"},"vehicle_type_id":"4","last_reported":1702624013,"current_range_meters":22000,"station_id":"ce4bhh92rcd13ifvqfh0","pricing_plan_id":"free"},{"bike_id":"06662d04-a66b-4f91-8a9c-6c65e2c5c5c5","system_id":"levelo_inurba_marseille","lat":43.26956,"lon":5.38637,"is_reserved":false,"is_disabled":false,"rental_uris":{"android":"levelo://app?vid=06662d04-a66b-4f91-8a9c-6c65e2c5c5c5","ios":"levelo://app?vid=06662d04-a66b-4f91-8a9c-6c65e2c5c5c5"},"vehicle_type_id":"4","last_reported":1702624013,"current_range_meters":24000,"station_id":"ce4bhh92rcd13ifvqfh0","pricing_plan_id":"free"},{"bike_id":"9f1e2c73-df35-4242-8fe4-e27e5eda3a4a","system_id":"levelo_inurba_marseille","lat":43.269467,"lon":5.386439,"is_reserved":false,"is_disabled":false,"rental_uris":{"android":"levelo://app?vid=9f1e2c73-df35-4242-8fe4-e27e5eda3a4a","ios":"levelo://app?vid=9f1e2c73-df35-4242-8fe4-e27e5eda3a4a"},"vehicle_type_id":"4","last_reported":1702624013,"current_range_meters":25600,"station_id":"ce4bhh92rcd13ifvqfh0","pricing_plan_id":"free"},{"bike_id":"dbd26003-0288-4b5b-92ef-48b1f870ad92","system_id":"levelo_inurba_marseille","lat":43.269467,"lon":5.386439,"is_reserved":false,"is_disabled":false,"rental_uris":{"android":"levelo://app?vid=dbd26003-0288-4b5b-92ef-48b1f870ad92","ios":"levelo://app?vid=dbd26003-0288-4b5b-92ef-48b1f870ad92"},"vehicle_type_id":"4","last_reported":1702624013,"current_range_meters":31600,"station_id":"ce4bhh92rcd13ifvqfh0","pricing_plan_id":"free"},{"bike_id":"16acbb47-2db0-4477-9fe5-a45c12a081f7","system_id":"levelo_inurba_marseille","lat":43.269413,"lon":5.38637,"is_reserved":false,"is_disabled":false,"rental_uris":{"android":"levelo://app?vid=16acbb47-2db0-4477-9fe5-a45c12a081f7","ios":"levelo://app?vid=16acbb47-2db0-4477-9fe5-a45c12a081f7"},"vehicle_type_id":"4","last_reported":1702624013,"current_range_meters":24800,"station_id":"ce4bhh92rcd13ifvqfh0","pricing_plan_id":"free"},{"bike_id":"76cc33b1-f4ee-42ff-bc97-311a175184c3","system_id":"levelo_inurba_marseille","lat":43.27948,"lon":5.41042,"is_reserved":false,"is_disabled":false,"rental_uris":{"android":"levelo://app?vid=76cc33b1-f4ee-42ff-bc97-311a175184c3","ios":"levelo://app?vid=76cc33b1-f4ee-42ff-bc97-311a175184c3"},"vehicle_type_id":"4","last_reported":1702624013,"current_range_meters":31200,"station_id":"ce4bhnp2rcd13ifvqh0g","pricing_plan_id":"free"},{"bike_id":"6b444dde-bd65-49d4-8634-df1d9d44d86b","system_id":"levelo_inurba_marseille","lat":43.313098,"lon":5.43123,"is_reserved":false,"is_disabled":false,"rental_uris":{"android":"levelo://app?vid=6b444dde-bd65-49d4-8634-df1d9d44d86b","ios":"levelo://app?vid=6b444dde-bd65-49d4-8634-df1d9d44d86b"},"vehicle_type_id":"4","last_reported":1702624013,"current_range_meters":18800,"station_id":"","pricing_plan_id":"free"},{"bike_id":"2100e8c0-501c-42c1-aebf-724a93a2a23c","system_id":"levelo_inurba_marseille","lat":43.27742,"lon":5.41018,"is_reserved":false,"is_disabled":false,"rental_uris":{"android":"levelo://app?vid=2100e8c0-501c-42c1-aebf-724a93a2a23c","ios":"levelo://app?vid=2100e8c0-501c-42c1-aebf-724a93a2a23c"},"vehicle_type_id":"4","last_reported":1702624013,"current_range_meters":2000,"station_id":"","pricing_plan_id":"free"},{"bike_id":"233e4d84-6e5c-4e53-ae5b-241ab43f5062","system_id":"levelo_inurba_marseille","lat":43.268196,"lon":5.389236,"is_reserved":false,"is_disabled":false,"rental_uris":{"android":"levelo://app?vid=233e4d84-6e5c-4e53-ae5b-241ab43f5062","ios":"levelo://app?vid=233e4d84-6e5c-4e53-ae5b-241ab43f5062"},"vehicle_type_id":"4","last_reported":1702624013,"current_range_meters":4800,"station_id":"","pricing_plan_id":"free"},{"bike_id":"755ae30b-5029-4a03-81c1-07858cce1b74","system_id":"levelo_inurba_marseille","lat":43.267966,"lon":5.393976,"is_reserved":false,"is_disabled":false,"rental_uris":{"android":"levelo://app?vid=755ae30b-5029-4a03-81c1-07858cce1b74","ios":"levelo://app?vid=755ae30b-5029-4a03-81c1-07858cce1b74"},"vehicle_type_id":"4","last_reported":1702624013,"current_range_meters":25200,"station_id":"ce4bhh12rcd13ifvqfg0","pricing_plan_id":"free"},{"bike_id":"4e5080f8-9ba4-4fa9-ac82-695727aac9e8","system_id":"levelo_inurba_marseille","lat":43.265743,"lon":5.390063,"is_reserved":false,"is_disabled":false,"rental_uris":{"android":"levelo://app?vid=4e5080f8-9ba4-4fa9-ac82-695727aac9e8","ios":"levelo://app?vid=4e5080f8-9ba4-4fa9-ac82-695727aac9e8"},"vehicle_type_id":"4","last_reported":1702624013,"current_range_meters":30800,"station_id":"ce4bhe12rcd13ifvqf30","pricing_plan_id":"free"},{"bike_id":"7804508e-8d1b-423e-a2c3-fdbcee1a6de3","system_id":"levelo_inurba_marseille","lat":43.265571,"lon":5.390032,"is_reserved":false,"is_disabled":false,"rental_uris":{"android":"levelo://app?vid=7804508e-8d1b-423e-a2c3-fdbcee1a6de3","ios":"levelo://app?vid=7804508e-8d1b-423e-a2c3-fdbcee1a6de3"},"vehicle_type_id":"4","last_reported":1702624013,"current_range_meters":19200,"station_id":"ce4bhe12rcd13ifvqf30","pricing_plan_id":"free"},{"bike_id":"e1e5d341-4781-449a-b316-4d7519b7d553","system_id":"levelo_inurba_marseille","lat":43.265571,"lon":5.390032,"is_reserved":false,"is_disabled":false,"rental_uris":{"android":"levelo://app?vid=e1e5d341-4781-449a-b316-4d7519b7d553","ios":"levelo://app?vid=e1e5d341-4781-449a-b316-4d7519b7d553"},"vehicle_type_id":"4","last_reported":1702624013,"current_range_meters":30400,"station_id":"ce4bhe12rcd13ifvqf30","pricing_plan_id":"free"},{"bike_id":"31edc603-b67c-4b91-aade-5189057a131a","system_id":"levelo_inurba_marseille","lat":43.26565,"lon":5.39015,"is_reserved":false,"is_disabled":false,"rental_uris":{"android":"levelo://app?vid=31edc603-b67c-4b91-aade-5189057a131a","ios":"levelo://app?vid=31edc603-b67c-4b91-aade-5189057a131a"},"vehicle_type_id":"4","last_reported":1702624013,"current_range_meters":31200,"station_id":"ce4bhe12rcd13ifvqf30","pricing_plan_id":"free"},{"bike_id":"e5a3c02d-4ab2-488c-8184-192d1d7f8c15","system_id":"levelo_inurba_marseille","lat":43.2694,"lon":5.40248,"is_reserved":false,"is_disabled":false,"rental_uris":{"android":"levelo://app?vid=e5a3c02d-4ab2-488c-8184-192d1d7f8c15","ios":"levelo://app?vid=e5a3c02d-4ab2-488c-8184-192d1d7f8c15"},"vehicle_type_id":"4","last_reported":1702624013,"current_range_meters":18400,"station_id":"cjm6bp8fraef2m0cb0m0","pricing_plan_id":"free"},{"bike_id":"58b7ffe3-528d-4a0b-8000-38f813ae35b3","system_id":"levelo_inurba_marseille","lat":43.317104,"lon":5.436818,"is_reserved":false,"is_disabled":false,"rental_uris":{"android":"levelo://app?vid=58b7ffe3-528d-4a0b-8000-38f813ae35b3","ios":"levelo://app?vid=58b7ffe3-528d-4a0b-8000-38f813ae35b3"},"vehicle_type_id":"4","last_reported":1702624013,"current_range_meters":31200,"station_id":"ce4bhp92rcd13ifvqhcg","pricing_plan_id":"free"},{"bike_id":"dcd51afc-e0ea-40ce-a3ed-c5c9a2a1a2ae","system_id":"levelo_inurba_marseille","lat":43.317104,"lon":5.436818,"is_reserved":false,"is_disabled":false,"rental_uris":{"android":"levelo://app?vid=dcd51afc-e0ea-40ce-a3ed-c5c9a2a1a2ae","ios":"levelo://app?vid=dcd51afc-e0ea-40ce-a3ed-c5c9a2a1a2ae"},"vehicle_type_id":"4","last_reported":1702624013,"current_range_meters":29600,"station_id":"ce4bhp92rcd13ifvqhcg","pricing_plan_id":"free"},{"bike_id":"e08cb7a0-f6bd-4a79-b1de-9d6a715917f8","system_id":"levelo_inurba_marseille","lat":43.29896,"lon":5.43657,"is_reserved":false,"is_disabled":false,"rental_uris":{"android":"levelo://app?vid=e08cb7a0-f6bd-4a79-b1de-9d6a715917f8","ios":"levelo://app?vid=e08cb7a0-f6bd-4a79-b1de-9d6a715917f8"},"vehicle_type_id":"4","last_reported":1702624013,"current_range_meters":12800,"station_id":"ce4bhpp2rcd13ifvqhfg","pricing_plan_id":"free"},{"bike_id":"4510633c-6100-41ad-9855-e4f0def2a04e","system_id":"levelo_inurba_marseille","lat":43.299013,"lon":5.436651,"is_reserved":false,"is_disabled":false,"rental_uris":{"android":"levelo://app?vid=4510633c-6100-41ad-9855-e4f0def2a04e","ios":"levelo://app?vid=4510633c-6100-41ad-9855-e4f0def2a04e"},"vehicle_type_id":"4","last_reported":1702624013,"current_range_meters":21200,"station_id":"ce4bhpp2rcd13ifvqhfg","pricing_plan_id":"free"},{"bike_id":"281cc086-7c8f-44e0-abbe-0ddc559b2c6b","system_id":"levelo_inurba_marseille","lat":43.281548,"lon":5.42643,"is_reserved":false,"is_disabled":false,"rental_uris":{"android":"levelo://app?vid=281cc086-7c8f-44e0-abbe-0ddc559b2c6b","ios":"levelo://app?vid=281cc086-7c8f-44e0-abbe-0ddc559b2c6b"},"vehicle_type_id":"4","last_reported":1702624013,"current_range_meters":27200,"station_id":"ce4bhnh2rcd13ifvqgug","pricing_plan_id":"free"},{"bike_id":"58480613-cc73-4361-9d94-04f619291aaf","system_id":"levelo_inurba_marseille","lat":43.281548,"lon":5.42643,"is_reserved":false,"is_disabled":false,"rental_uris":{"android":"levelo://app?vid=58480613-cc73-4361-9d94-04f619291aaf","ios":"levelo://app?vid=58480613-cc73-4361-9d94-04f619291aaf"},"vehicle_type_id":"4","last_reported":1702624013,"current_range_meters":22000,"station_id":"ce4bhnh2rcd13ifvqgug","pricing_plan_id":"free"},{"bike_id":"47c09f4d-b026-488b-88bd-d86fe61e55ad","system_id":"levelo_inurba_marseille","lat":43.281548,"lon":5.42643,"is_reserved":false,"is_disabled":false,"rental_uris":{"android":"levelo://app?vid=47c09f4d-b026-488b-88bd-d86fe61e55ad","ios":"levelo://app?vid=47c09f4d-b026-488b-88bd-d86fe61e55ad"},"vehicle_type_id":"4","last_reported":1702624013,"current_range_meters":31600,"station_id":"ce4bhnh2rcd13ifvqgug","pricing_plan_id":"free"},{"bike_id":"495a8bf3-b2f1-4db2-825b-e854ad9e0fb1","system_id":"levelo_inurba_marseille","lat":43.281548,"lon":5.42643,"is_reserved":false,"is_disabled":false,"rental_uris":{"android":"levelo://app?vid=495a8bf3-b2f1-4db2-825b-e854ad9e0fb1","ios":"levelo://app?vid=495a8bf3-b2f1-4db2-825b-e854ad9e0fb1"},"vehicle_type_id":"4","last_reported":1702624013,"current_range_meters":18000,"station_id":"ce4bhnh2rcd13ifvqgug","pricing_plan_id":"free"},{"bike_id":"c6ad59c2-72b2-4f1b-a631-10cc0955876a","system_id":"levelo_inurba_marseille","lat":43.281548,"lon":5.42643,"is_reserved":false,"is_disabled":false,"rental_uris":{"android":"levelo://app?vid=c6ad59c2-72b2-4f1b-a631-10cc0955876a","ios":"levelo://app?vid=c6ad59c2-72b2-4f1b-a631-10cc0955876a"},"vehicle_type_id":"4","last_reported":1702624013,"current_range_meters":26400,"station_id":"ce4bhnh2rcd13ifvqgug","pricing_plan_id":"free"},{"bike_id":"e1a4e7f2-d6c9-431f-9be0-2c76848eb849","system_id":"levelo_inurba_marseille","lat":43.281548,"lon":5.42643,"is_reserved":false,"is_disabled":false,"rental_uris":{"android":"levelo://app?vid=e1a4e7f2-d6c9-431f-9be0-2c76848eb849","ios":"levelo://app?vid=e1a4e7f2-d6c9-431f-9be0-2c76848eb849"},"vehicle_type_id":"4","last_reported":1702624013,"current_range_meters":30400,"station_id":"ce4bhnh2rcd13ifvqgug","pricing_plan_id":"free"},{"bike_id":"1cb60a24-c2be-43f6-9a9b-c8b6a5d9e10f","system_id":"levelo_inurba_marseille","lat":43.2607,"lon":5.393983,"is_reserved":false,"is_disabled":false,"rental_uris":{"android":"levelo://app?vid=1cb60a24-c2be-43f6-9a9b-c8b6a5d9e10f","ios":"levelo://app?vid=1cb60a24-c2be-43f6-9a9b-c8b6a5d9e10f"},"vehicle_type_id":"4","last_reported":1702624013,"current_range_meters":31200,"station_id":"ce4bhh92rcd13ifvqfj0","pricing_plan_id":"free"},{"bike_id":"9e66cd7f-9609-47c0-80d4-664c070fb529","system_id":"levelo_inurba_marseille","lat":43.2607,"lon":5.393983,"is_reserved":false,"is_disabled":false,"rental_uris":{"android":"levelo://app?vid=9e66cd7f-9609-47c0-80d4-664c070fb529","ios":"levelo://app?vid=9e66cd7f-9609-47c0-80d4-664c070fb529"},"vehicle_type_id":"4","last_reported":1702624013,"current_range_meters":31200,"station_id":"ce4bhh92rcd13ifvqfj0","pricing_plan_id":"free"},{"bike_id":"71d22008-58cd-4fdb-9628-c29cfd859068","system_id":"levelo_inurba_marseille","lat":43.2607,"lon":5.393983,"is_reserved":false,"is_disabled":false,"rental_uris":{"android":"levelo://app?vid=71d22008-58cd-4fdb-9628-c29cfd859068","ios":"levelo://app?vid=71d22008-58cd-4fdb-9628-c29cfd859068"},"vehicle_type_id":"4","last_reported":1702624013,"current_range_meters":29200,"station_id":"ce4bhh92rcd13ifvqfj0","pricing_plan_id":"free"},{"bike_id":"b7f78f65-61c3-4007-9ea6-d806be775392","system_id":"levelo_inurba_marseille","lat":43.2607,"lon":5.393983,"is_reserved":false,"is_disabled":false,"rental_uris":{"android":"levelo://app?vid=b7f78f65-61c3-4007-9ea6-d806be775392","ios":"levelo://app?vid=b7f78f65-61c3-4007-9ea6-d806be775392"},"vehicle_type_id":"4","last_reported":1702624013,"current_range_meters":20000,"station_id":"ce4bhh92rcd13ifvqfj0","pricing_plan_id":"free"},{"bike_id":"5a7aad06-a599-40eb-87c0-e5cd41ac6735","system_id":"levelo_inurba_marseille","lat":43.260539,"lon":5.394015,"is_reserved":false,"is_disabled":false,"rental_uris":{"android":"levelo://app?vid=5a7aad06-a599-40eb-87c0-e5cd41ac6735","ios":"levelo://app?vid=5a7aad06-a599-40eb-87c0-e5cd41ac6735"},"vehicle_type_id":"4","last_reported":1702624013,"current_range_meters":23600,"station_id":"","pricing_plan_id":"free"},{"bike_id":"61759779-3102-4335-85bb-471201d8436f","system_id":"levelo_inurba_marseille","lat":43.275028,"lon":5.424534,"is_reserved":false,"is_disabled":false,"rental_uris":{"android":"levelo://app?vid=61759779-3102-4335-85bb-471201d8436f","ios":"levelo://app?vid=61759779-3102-4335-85bb-471201d8436f"},"vehicle_type_id":"4","last_reported":1702624013,"current_range_meters":27200,"station_id":"ce4bhn92rcd13ifvqgrg","pricing_plan_id":"free"},{"bike_id":"f8a376cc-e9e8-40b4-b8cb-d28bb47eafca","system_id":"levelo_inurba_marseille","lat":43.275028,"lon":5.424534,"is_reserved":false,"is_disabled":false,"rental_uris":{"android":"levelo://app?vid=f8a376cc-e9e8-40b4-b8cb-d28bb47eafca","ios":"levelo://app?vid=f8a376cc-e9e8-40b4-b8cb-d28bb47eafca"},"vehicle_type_id":"4","last_reported":1702624013,"current_range_meters":22000,"station_id":"ce4bhn92rcd13ifvqgrg","pricing_plan_id":"free"},{"bike_id":"af6bc09a-5c6d-4955-b057-42d5653b1f8c","system_id":"levelo_inurba_marseille","lat":43.275028,"lon":5.424534,"is_reserved":false,"is_disabled":false,"rental_uris":{"android":"levelo://app?vid=af6bc09a-5c6d-4955-b057-42d5653b1f8c","ios":"levelo://app?vid=af6bc09a-5c6d-4955-b057-42d5653b1f8c"},"vehicle_type_id":"4","last_reported":1702624013,"current_range_meters":19600,"station_id":"ce4bhn92rcd13ifvqgrg","pricing_plan_id":"free"},{"bike_id":"7f1d355d-d0e0-455c-acdb-1d3fb2975bf5","system_id":"levelo_inurba_marseille","lat":43.275028,"lon":5.424534,"is_reserved":false,"is_disabled":false,"rental_uris":{"android":"levelo://app?vid=7f1d355d-d0e0-455c-acdb-1d3fb2975bf5","ios":"levelo://app?vid=7f1d355d-d0e0-455c-acdb-1d3fb2975bf5"},"vehicle_type_id":"4","last_reported":1702624013,"current_range_meters":22400,"station_id":"ce4bhn92rcd13ifvqgrg","pricing_plan_id":"free"},{"bike_id":"6b439d36-410c-4b80-ad9e-8b4f882cb7c1","system_id":"levelo_inurba_marseille","lat":43.274977,"lon":5.424477,"is_reserved":false,"is_disabled":false,"rental_uris":{"android":"levelo://app?vid=6b439d36-410c-4b80-ad9e-8b4f882cb7c1","ios":"levelo://app?vid=6b439d36-410c-4b80-ad9e-8b4f882cb7c1"},"vehicle_type_id":"4","last_reported":1702624013,"current_range_meters":20400,"station_id":"ce4bhn92rcd13ifvqgrg","pricing_plan_id":"free"},{"bike_id":"8eb11b68-350f-4238-9580-eb2604e67bf8","system_id":"levelo_inurba_marseille","lat":43.275028,"lon":5.424534,"is_reserved":false,"is_disabled":false,"rental_uris":{"android":"levelo://app?vid=8eb11b68-350f-4238-9580-eb2604e67bf8","ios":"levelo://app?vid=8eb11b68-350f-4238-9580-eb2604e67bf8"},"vehicle_type_id":"4","last_reported":1702624013,"current_range_meters":10800,"station_id":"ce4bhn92rcd13ifvqgrg","pricing_plan_id":"free"},{"bike_id":"786ce9a3-131e-40d4-85f8-31d935c8c652","system_id":"levelo_inurba_marseille","lat":43.275028,"lon":5.424534,"is_reserved":false,"is_disabled":false,"rental_uris":{"android":"levelo://app?vid=786ce9a3-131e-40d4-85f8-31d935c8c652","ios":"levelo://app?vid=786ce9a3-131e-40d4-85f8-31d935c8c652"},"vehicle_type_id":"4","last_reported":1702624013,"current_range_meters":26400,"station_id":"ce4bhn92rcd13ifvqgrg","pricing_plan_id":"free"},{"bike_id":"bcbedf1b-83ff-489c-86dd-65f1f37a8571","system_id":"levelo_inurba_marseille","lat":43.274974,"lon":5.424496,"is_reserved":false,"is_disabled":false,"rental_uris":{"android":"levelo://app?vid=bcbedf1b-83ff-489c-86dd-65f1f37a8571","ios":"levelo://app?vid=bcbedf1b-83ff-489c-86dd-65f1f37a8571"},"vehicle_type_id":"4","last_reported":1702624013,"current_range_meters":21600,"station_id":"ce4bhph2rcd13ifvqhdg","pricing_plan_id":"free"},{"bike_id":"50c47490-41fa-4dea-ad5f-eaaa77656fe5","system_id":"levelo_inurba_marseille","lat":43.27497,"lon":5.42451,"is_reserved":false,"is_disabled":false,"rental_uris":{"android":"levelo://app?vid=50c47490-41fa-4dea-ad5f-eaaa77656fe5","ios":"levelo://app?vid=50c47490-41fa-4dea-ad5f-eaaa77656fe5"},"vehicle_type_id":"4","last_reported":1702624013,"current_range_meters":27600,"station_id":"ce4bhn92rcd13ifvqgrg","pricing_plan_id":"free"},{"bike_id":"6e4175cd-fa82-49de-ad3e-4aef09d19e8d","system_id":"levelo_inurba_marseille","lat":43.275028,"lon":5.424534,"is_reserved":false,"is_disabled":false,"rental_uris":{"android":"levelo://app?vid=6e4175cd-fa82-49de-ad3e-4aef09d19e8d","ios":"levelo://app?vid=6e4175cd-fa82-49de-ad3e-4aef09d19e8d"},"vehicle_type_id":"4","last_reported":1702624013,"current_range_meters":28800,"station_id":"ce4bhn92rcd13ifvqgrg","pricing_plan_id":"free"},{"bike_id":"7a3b8a2b-9eaf-4ce3-9206-95378878fe92","system_id":"levelo_inurba_marseille","lat":43.275028,"lon":5.424534,"is_reserved":false,"is_disabled":false,"rental_uris":{"android":"levelo://app?vid=7a3b8a2b-9eaf-4ce3-9206-95378878fe92","ios":"levelo://app?vid=7a3b8a2b-9eaf-4ce3-9206-95378878fe92"},"vehicle_type_id":"4","last_reported":1702624013,"current_range_meters":29200,"station_id":"ce4bhn92rcd13ifvqgrg","pricing_plan_id":"free"},{"bike_id":"0b41f3a7-2efa-462f-b0bd-2fee3739c3ce","system_id":"levelo_inurba_marseille","lat":43.275028,"lon":5.424534,"is_reserved":false,"is_disabled":false,"rental_uris":{"android":"levelo://app?vid=0b41f3a7-2efa-462f-b0bd-2fee3739c3ce","ios":"levelo://app?vid=0b41f3a7-2efa-462f-b0bd-2fee3739c3ce"},"vehicle_type_id":"4","last_reported":1702624013,"current_range_meters":31600,"station_id":"ce4bhn92rcd13ifvqgrg","pricing_plan_id":"free"},{"bike_id":"0b97faa1-4662-41ea-8290-3f9ba87b7f5b","system_id":"levelo_inurba_marseille","lat":43.255823,"lon":5.382377,"is_reserved":false,"is_disabled":false,"rental_uris":{"android":"levelo://app?vid=0b97faa1-4662-41ea-8290-3f9ba87b7f5b","ios":"levelo://app?vid=0b97faa1-4662-41ea-8290-3f9ba87b7f5b"},"vehicle_type_id":"4","last_reported":1702624013,"current_range_meters":30800,"station_id":"ce4bhih2rcd13ifvqfs0","pricing_plan_id":"free"},{"bike_id":"0d1be242-faf0-4ca0-a58c-d5a7746a619a","system_id":"levelo_inurba_marseille","lat":43.255756,"lon":5.382303,"is_reserved":false,"is_disabled":false,"rental_uris":{"android":"levelo://app?vid=0d1be242-faf0-4ca0-a58c-d5a7746a619a","ios":"levelo://app?vid=0d1be242-faf0-4ca0-a58c-d5a7746a619a"},"vehicle_type_id":"4","last_reported":1702624013,"current_range_meters":15200,"station_id":"ce4bhih2rcd13ifvqfs0","pricing_plan_id":"free"},{"bike_id":"3933faa4-c42d-4b16-aabf-af34ab821f03","system_id":"levelo_inurba_marseille","lat":43.25573,"lon":5.382327,"is_reserved":false,"is_disabled":false,"rental_uris":{"android":"levelo://app?vid=3933faa4-c42d-4b16-aabf-af34ab821f03","ios":"levelo://app?vid=3933faa4-c42d-4b16-aabf-af34ab821f03"},"vehicle_type_id":"4","last_reported":1702624013,"current_range_meters":14800,"station_id":"ce4bhih2rcd13ifvqfs0","pricing_plan_id":"free"},{"bike_id":"92078985-8db4-4336-8ded-912e691a0deb","system_id":"levelo_inurba_marseille","lat":43.25573,"lon":5.38237,"is_reserved":false,"is_disabled":false,"rental_uris":{"android":"levelo://app?vid=92078985-8db4-4336-8ded-912e691a0deb","ios":"levelo://app?vid=92078985-8db4-4336-8ded-912e691a0deb"},"vehicle_type_id":"4","last_reported":1702624013,"current_range_meters":28800,"station_id":"ce4bhih2rcd13ifvqfs0","pricing_plan_id":"free"},{"bike_id":"eb51775d-e0fb-4c47-896b-b998110b41b9","system_id":"levelo_inurba_marseille","lat":43.270721,"lon":5.422764,"is_reserved":false,"is_disabled":false,"rental_uris":{"android":"levelo://app?vid=eb51775d-e0fb-4c47-896b-b998110b41b9","ios":"levelo://app?vid=eb51775d-e0fb-4c47-896b-b998110b41b9"},"vehicle_type_id":"4","last_reported":1702624013,"current_range_meters":30000,"station_id":"ce4bhk92rcd13ifvqgb0","pricing_plan_id":"free"},{"bike_id":"9eab2ad3-b819-4722-94d5-fe78d66a3bbf","system_id":"levelo_inurba_marseille","lat":43.27071,"lon":5.4228,"is_reserved":false,"is_disabled":false,"rental_uris":{"android":"levelo://app?vid=9eab2ad3-b819-4722-94d5-fe78d66a3bbf","ios":"levelo://app?vid=9eab2ad3-b819-4722-94d5-fe78d66a3bbf"},"vehicle_type_id":"4","last_reported":1702624013,"current_range_meters":31200,"station_id":"ce4bhk92rcd13ifvqgb0","pricing_plan_id":"free"},{"bike_id":"6a584946-6562-4c2f-93ff-f4866f7e060c","system_id":"levelo_inurba_marseille","lat":43.270681,"lon":5.42276,"is_reserved":false,"is_disabled":false,"rental_uris":{"android":"levelo://app?vid=6a584946-6562-4c2f-93ff-f4866f7e060c","ios":"levelo://app?vid=6a584946-6562-4c2f-93ff-f4866f7e060c"},"vehicle_type_id":"4","last_reported":1702624013,"current_range_meters":30400,"station_id":"ce4bhk92rcd13ifvqgb0","pricing_plan_id":"free"},{"bike_id":"bf00c963-87a8-4dbf-9e07-6d1e519079be","system_id":"levelo_inurba_marseille","lat":43.270658,"lon":5.422761,"is_reserved":false,"is_disabled":false,"rental_uris":{"android":"levelo://app?vid=bf00c963-87a8-4dbf-9e07-6d1e519079be","ios":"levelo://app?vid=bf00c963-87a8-4dbf-9e07-6d1e519079be"},"vehicle_type_id":"4","last_reported":1702624013,"current_range_meters":30400,"station_id":"ce4bhk92rcd13ifvqgb0","pricing_plan_id":"free"},{"bike_id":"c0b7e2c9-11e1-4137-a1e4-02ab9743605b","system_id":"levelo_inurba_marseille","lat":43.258658,"lon":5.398935,"is_reserved":false,"is_disabled":false,"rental_uris":{"android":"levelo://app?vid=c0b7e2c9-11e1-4137-a1e4-02ab9743605b","ios":"levelo://app?vid=c0b7e2c9-11e1-4137-a1e4-02ab9743605b"},"vehicle_type_id":"4","last_reported":1702624013,"current_range_meters":25600,"station_id":"ce4bhl92rcd13ifvqghg","pricing_plan_id":"free"},{"bike_id":"f8e6d2b7-0c2e-4f1e-b547-506daa9fa7f8","system_id":"levelo_inurba_marseille","lat":43.258658,"lon":5.398935,"is_reserved":false,"is_disabled":false,"rental_uris":{"android":"levelo://app?vid=f8e6d2b7-0c2e-4f1e-b547-506daa9fa7f8","ios":"levelo://app?vid=f8e6d2b7-0c2e-4f1e-b547-506daa9fa7f8"},"vehicle_type_id":"4","last_reported":1702624013,"current_range_meters":16000,"station_id":"ce4bhl92rcd13ifvqghg","pricing_plan_id":"free"},{"bike_id":"03bc1e3f-e9ac-4782-8cfd-d76be499a5e5","system_id":"levelo_inurba_marseille","lat":43.250009,"lon":5.389195,"is_reserved":false,"is_disabled":false,"rental_uris":{"android":"levelo://app?vid=03bc1e3f-e9ac-4782-8cfd-d76be499a5e5","ios":"levelo://app?vid=03bc1e3f-e9ac-4782-8cfd-d76be499a5e5"},