{"last_updated":1727925328,"ttl":60,"version":"2.2","data":{"bikes":[{"bike_id":"56edf063-4465-4465-8fba-a922b551198c","system_id":"levelo_inurba_marseille","lat":43.28464,"lon":5.35891,"is_reserved":false,"is_disabled":false,"rental_uris":{"android":"levelo://app?vid=56edf063-4465-4465-8fba-a922b551198c","ios":"levelo://app?vid=56edf063-4465-4465-8fba-a922b551198c"},"vehicle_type_id":"4","last_reported":1727925328,"current_range_meters":9200,"station_id":"ce4bhah2rcd13ifvqei0","pricing_plan_id":"cebpf4jnsgd1na2vs0mg"},{"bike_id":"8bc0aa01-1d61-49ab-973d-784704f64634","system_id":"levelo_inurba_marseille","lat":43.30127,"lon":5.36531,"is_reserved":false,"is_disabled":false,"rental_uris":{"android":"levelo://app?vid=8bc0aa01-1d61-49ab-973d-784704f64634","ios":"levelo://app?vid=8bc0aa01-1d61-49ab-973d-784704f64634"},"vehicle_type_id":"4","last_reported":1727925328,"current_range_meters":8800,"station_id":"","pricing_plan_id":"cebpf4jnsgd1na2vs0mg"},{"bike_id":"f3d69886-ec02-41c3-9429-f0f4f53135da","system_id":"levelo_inurba_marseille","lat":43.25822,"lon":5.39436,"is_reserved":false,"is_disabled":false,"rental_uris":{"android":"levelo://app?vid=f3d69886-ec02-41c3-9429-f0f4f53135da","ios":"levelo://app?vid=f3d69886-ec02-41c3-9429-f0f4f53135da"},"vehicle_type_id":"4","last_reported":1727925328,"current_range_meters":38800,"station_id":"ce4bhip2rcd13ifvqft0","pricing_plan_id":"cebpf4jnsgd1na2vs0mg"},{"bike_id":"933b1eb4-8ec3-4beb-aff3-18f5a49975fe","system_id":"levelo_inurba_marseille","lat":43.26947,"lon":5.40245,"is_reserved":false,"is_disabled":false,"rental_uris":{"android":"levelo://app?vid=933b1eb4-8ec3-4beb-aff3-18f5a49975fe","ios":"levelo://app?vid=933b1eb4-8ec3-4beb-aff3-18f5a49975fe"},"vehicle_type_id":"4","last_reported":1727925328,"current_range_meters":24000,"station_id":"cjm6bp8fraef2m0cb0m0","pricing_plan_id":"cebpf4jnsgd1na2vs0mg"},{"bike_id":"9fcb4fa3-22c0-447c-9c4b-cd3b15a26793","system_id":"levelo_inurba_marseille","lat":43.31173,"lon":5.38724,"is_reserved":false,"is_disabled":false,"rental_uris":{"android":"levelo://app?vid=9fcb4fa3-22c0-447c-9c4b-cd3b15a26793","ios":"levelo://app?vid=9fcb4fa3-22c0-447c-9c4b-cd3b15a26793"},"vehicle_type_id":"4","last_reported":1727925328,"current_range_meters":35600,"station_id":"ce4bgv12rcd13ifvqcp0","pricing_plan_id":"cebpf4jnsgd1na2vs0mg"},{"bike_id":"ff95fd71-a032-4106-b338-dfc900b7311c","system_id":"levelo_inurba_marseille","lat":43.28156,"lon":5.42631,"is_reserved":false,"is_disabled":false,"rental_uris":{"android":"levelo://app?vid=ff95fd71-a032-4106-b338-dfc900b7311c","ios":"levelo://app?vid=ff95fd71-a032-4106-b338-dfc900b7311c"},"vehicle_type_id":"4","last_reported":1727925328,"current_range_meters":24000,"station_id":"ce4bhnh2rcd13ifvqgug","pricing_plan_id":"cebpf4jnsgd1na2vs0mg"},{"bike_id":"bf960b4b-9944-4777-88ed-2a8cd51cb17d","system_id":"levelo_inurba_marseille","lat":43.27983,"lon":5.41655,"is_reserved":false,"is_disabled":false,"rental_uris":{"android":"levelo://app?vid=bf960b4b-9944-4777-88ed-2a8cd51cb17d","ios":"levelo://app?vid=bf960b4b-9944-4777-88ed-2a8cd51cb17d"},"vehicle_type_id":"4","last_reported":1727925328,"current_range_meters":33200,"station_id":"ce4bho12rcd13ifvqh1g","pricing_plan_id":"cebpf4jnsgd1na2vs0mg"},{"bike_id":"b8bbb257-f279-4012-9af6-cc850a384c48","system_id":"levelo_inurba_marseille","lat":43.284155,"lon":5.349913,"is_reserved":false,"is_disabled":false,"rental_uris":{"android":"levelo://app?vid=b8bbb257-f279-4012-9af6-cc850a384c48","ios":"levelo://app?vid=b8bbb257-f279-4012-9af6-cc850a384c48"},"vehicle_type_id":"4","last_reported":1727925328,"current_range_meters":38800,"station_id":"ce4bhbh2rcd13ifvqepg","pricing_plan_id":"cebpf4jnsgd1na2vs0mg"},{"bike_id":"b8d32f9e-42f8-4564-8290-6be3e340ccec","system_id":"levelo_inurba_marseille","lat":43.2803,"lon":5.36953,"is_reserved":false,"is_disabled":false,"rental_uris":{"android":"levelo://app?vid=b8d32f9e-42f8-4564-8290-6be3e340ccec","ios":"levelo://app?vid=b8d32f9e-42f8-4564-8290-6be3e340ccec"},"vehicle_type_id":"4","last_reported":1727925328,"current_range_meters":10000,"station_id":"ce4bha12rcd13ifvqef0","pricing_plan_id":"cebpf4jnsgd1na2vs0mg"},{"bike_id":"dfa316ed-31fe-4eb7-ae98-3312a562d760","system_id":"levelo_inurba_marseille","lat":43.27188,"lon":5.41,"is_reserved":false,"is_disabled":false,"rental_uris":{"android":"levelo://app?vid=dfa316ed-31fe-4eb7-ae98-3312a562d760","ios":"levelo://app?vid=dfa316ed-31fe-4eb7-ae98-3312a562d760"},"vehicle_type_id":"4","last_reported":1727925328,"current_range_meters":37600,"station_id":"ce4bhl12rcd13ifvqgf0","pricing_plan_id":"cebpf4jnsgd1na2vs0mg"},{"bike_id":"df4ec099-b188-48ab-96c7-11a1ce7c7011","system_id":"levelo_inurba_marseille","lat":43.24655,"lon":5.38889,"is_reserved":false,"is_disabled":false,"rental_uris":{"android":"levelo://app?vid=df4ec099-b188-48ab-96c7-11a1ce7c7011","ios":"levelo://app?vid=df4ec099-b188-48ab-96c7-11a1ce7c7011"},"vehicle_type_id":"4","last_reported":1727925328,"current_range_meters":11200,"station_id":"ce4bhg12rcd13ifvqf60","pricing_plan_id":"cebpf4jnsgd1na2vs0mg"},{"bike_id":"9ade3805-4c4b-4f13-84dc-cbed8d16c5b1","system_id":"levelo_inurba_marseille","lat":43.27987,"lon":5.40026,"is_reserved":false,"is_disabled":false,"rental_uris":{"android":"levelo://app?vid=9ade3805-4c4b-4f13-84dc-cbed8d16c5b1","ios":"levelo://app?vid=9ade3805-4c4b-4f13-84dc-cbed8d16c5b1"},"vehicle_type_id":"4","last_reported":1727925328,"current_range_meters":34000,"station_id":"ce4bho92rcd13ifvqh4g","pricing_plan_id":"cebpf4jnsgd1na2vs0mg"},{"bike_id":"a955c07c-7411-4978-bdef-3a223f18e310","system_id":"levelo_inurba_marseille","lat":43.288513,"lon":5.358609,"is_reserved":false,"is_disabled":false,"rental_uris":{"android":"levelo://app?vid=a955c07c-7411-4978-bdef-3a223f18e310","ios":"levelo://app?vid=a955c07c-7411-4978-bdef-3a223f18e310"},"vehicle_type_id":"4","last_reported":1727925328,"current_range_meters":39200,"station_id":"ce4bhb12rcd13ifvqem0","pricing_plan_id":"cebpf4jnsgd1na2vs0mg"},{"bike_id":"ff89b7e6-8dbb-4502-ae6b-954b46feae02","system_id":"levelo_inurba_marseille","lat":43.25005,"lon":5.38917,"is_reserved":false,"is_disabled":false,"rental_uris":{"android":"levelo://app?vid=ff89b7e6-8dbb-4502-ae6b-954b46feae02","ios":"levelo://app?vid=ff89b7e6-8dbb-4502-ae6b-954b46feae02"},"vehicle_type_id":"4","last_reported":1727925328,"current_range_meters":38400,"station_id":"ce4bhgp2rcd13ifvqfd0","pricing_plan_id":"cebpf4jnsgd1na2vs0mg"},{"bike_id":"bc41810d-3fc6-4e9c-bcc1-3b1d7bce3ce2","system_id":"levelo_inurba_marseille","lat":43.23179,"lon":5.39987,"is_reserved":false,"is_disabled":false,"rental_uris":{"android":"levelo://app?vid=bc41810d-3fc6-4e9c-bcc1-3b1d7bce3ce2","ios":"levelo://app?vid=bc41810d-3fc6-4e9c-bcc1-3b1d7bce3ce2"},"vehicle_type_id":"4","last_reported":1727925328,"current_range_meters":25600,"station_id":"ce4bhn12rcd13ifvqgqg","pricing_plan_id":"cebpf4jnsgd1na2vs0mg"},{"bike_id":"4b6721b8-1a28-4ce5-a9fa-1b893f7f0ac0","system_id":"levelo_inurba_marseille","lat":43.32478,"lon":5.36557,"is_reserved":false,"is_disabled":false,"rental_uris":{"android":"levelo://app?vid=4b6721b8-1a28-4ce5-a9fa-1b893f7f0ac0","ios":"levelo://app?vid=4b6721b8-1a28-4ce5-a9fa-1b893f7f0ac0"},"vehicle_type_id":"4","last_reported":1727925328,"current_range_meters":38800,"station_id":"ce4bhs12rcd13ifvqhvg","pricing_plan_id":"cebpf4jnsgd1na2vs0mg"},{"bike_id":"56991410-d98c-48b7-8ffa-26c899931d2b","system_id":"levelo_inurba_marseille","lat":43.28031,"lon":5.36944,"is_reserved":false,"is_disabled":false,"rental_uris":{"android":"levelo://app?vid=56991410-d98c-48b7-8ffa-26c899931d2b","ios":"levelo://app?vid=56991410-d98c-48b7-8ffa-26c899931d2b"},"vehicle_type_id":"4","last_reported":1727925328,"current_range_meters":38800,"station_id":"ce4bha12rcd13ifvqef0","pricing_plan_id":"cebpf4jnsgd1na2vs0mg"},{"bike_id":"3321b570-086d-4091-a24d-ba1d97ba7ad9","system_id":"levelo_inurba_marseille","lat":43.27992,"lon":5.41659,"is_reserved":false,"is_disabled":false,"rental_uris":{"android":"levelo://app?vid=3321b570-086d-4091-a24d-ba1d97ba7ad9","ios":"levelo://app?vid=3321b570-086d-4091-a24d-ba1d97ba7ad9"},"vehicle_type_id":"4","last_reported":1727925328,"current_range_meters":12800,"station_id":"ce4bho12rcd13ifvqh1g","pricing_plan_id":"cebpf4jnsgd1na2vs0mg"},{"bike_id":"86873f50-3180-432b-a397-255b3d30a905","system_id":"levelo_inurba_marseille","lat":43.29034,"lon":5.35927,"is_reserved":false,"is_disabled":false,"rental_uris":{"android":"levelo://app?vid=86873f50-3180-432b-a397-255b3d30a905","ios":"levelo://app?vid=86873f50-3180-432b-a397-255b3d30a905"},"vehicle_type_id":"4","last_reported":1727925328,"current_range_meters":36800,"station_id":"ce4bha92rcd13ifvqeg0","pricing_plan_id":"cebpf4jnsgd1na2vs0mg"},{"bike_id":"a55fd103-df0f-40ea-9c6b-3f6ab24d0c8e","system_id":"levelo_inurba_marseille","lat":43.31762,"lon":5.39017,"is_reserved":false,"is_disabled":false,"rental_uris":{"android":"levelo://app?vid=a55fd103-df0f-40ea-9c6b-3f6ab24d0c8e","ios":"levelo://app?vid=a55fd103-df0f-40ea-9c6b-3f6ab24d0c8e"},"vehicle_type_id":"4","last_reported":1727925328,"current_range_meters":36800,"station_id":"ce4bhqp2rcd13ifvqhng","pricing_plan_id":"cebpf4jnsgd1na2vs0mg"},{"bike_id":"49431cdf-3845-482f-8f51-ad441197da5e","system_id":"levelo_inurba_marseille","lat":43.29279,"lon":5.4012,"is_reserved":false,"is_disabled":false,"rental_uris":{"android":"levelo://app?vid=49431cdf-3845-482f-8f51-ad441197da5e","ios":"levelo://app?vid=49431cdf-3845-482f-8f51-ad441197da5e"},"vehicle_type_id":"4","last_reported":1727925328,"current_range_meters":12000,"station_id":"ce4bh312rcd13ifvqdk0","pricing_plan_id":"cebpf4jnsgd1na2vs0mg"},{"bike_id":"7847914c-9fdc-45f7-95ef-72636d564249","system_id":"levelo_inurba_marseille","lat":43.29277,"lon":5.40134,"is_reserved":false,"is_disabled":false,"rental_uris":{"android":"levelo://app?vid=7847914c-9fdc-45f7-95ef-72636d564249","ios":"levelo://app?vid=7847914c-9fdc-45f7-95ef-72636d564249"},"vehicle_type_id":"4","last_reported":1727925328,"current_range_meters":38800,"station_id":"ce4bh312rcd13ifvqdk0","pricing_plan_id":"cebpf4jnsgd1na2vs0mg"},{"bike_id":"5f3c68c4-2b6c-4d2e-9835-dd9f6f06394a","system_id":"levelo_inurba_marseille","lat":43.30174,"lon":5.3663,"is_reserved":false,"is_disabled":false,"rental_uris":{"android":"levelo://app?vid=5f3c68c4-2b6c-4d2e-9835-dd9f6f06394a","ios":"levelo://app?vid=5f3c68c4-2b6c-4d2e-9835-dd9f6f06394a"},"vehicle_type_id":"4","last_reported":1727925328,"current_range_meters":39200,"station_id":"ce4bgrh2rcd13ifvqc8g","pricing_plan_id":"cebpf4jnsgd1na2vs0mg"},{"bike_id":"1883d4ee-8a25-4b1e-8ea6-4e0ed1c933c1","system_id":"levelo_inurba_marseille","lat":43.30779,"lon":5.37653,"is_reserved":false,"is_disabled":false,"rental_uris":{"android":"levelo://app?vid=1883d4ee-8a25-4b1e-8ea6-4e0ed1c933c1","ios":"levelo://app?vid=1883d4ee-8a25-4b1e-8ea6-4e0ed1c933c1"},"vehicle_type_id":"4","last_reported":1727925328,"current_range_meters":36800,"station_id":"ce4bgv92rcd13ifvqcq0","pricing_plan_id":"cebpf4jnsgd1na2vs0mg"},{"bike_id":"bcaea9c3-9142-4dc7-b0fc-7111ac2210db","system_id":"levelo_inurba_marseille","lat":43.26938,"lon":5.402575,"is_reserved":false,"is_disabled":false,"rental_uris":{"android":"levelo://app?vid=bcaea9c3-9142-4dc7-b0fc-7111ac2210db","ios":"levelo://app?vid=bcaea9c3-9142-4dc7-b0fc-7111ac2210db"},"vehicle_type_id":"4","last_reported":1727925328,"current_range_meters":28000,"station_id":"cjm6bp8fraef2m0cb0m0","pricing_plan_id":"cebpf4jnsgd1na2vs0mg"},{"bike_id":"f730a887-ab52-460a-884b-3e5ce7ef04f6","system_id":"levelo_inurba_marseille","lat":43.33022,"lon":5.39041,"is_reserved":false,"is_disabled":false,"rental_uris":{"android":"levelo://app?vid=f730a887-ab52-460a-884b-3e5ce7ef04f6","ios":"levelo://app?vid=f730a887-ab52-460a-884b-3e5ce7ef04f6"},"vehicle_type_id":"4","last_reported":1727925328,"current_range_meters":19600,"station_id":"ce4bhr92rcd13ifvqhrg","pricing_plan_id":"cebpf4jnsgd1na2vs0mg"},{"bike_id":"25454cee-75e1-4829-863e-96eae8fc3747","system_id":"levelo_inurba_marseille","lat":43.34143,"lon":5.40906,"is_reserved":false,"is_disabled":false,"rental_uris":{"android":"levelo://app?vid=25454cee-75e1-4829-863e-96eae8fc3747","ios":"levelo://app?vid=25454cee-75e1-4829-863e-96eae8fc3747"},"vehicle_type_id":"4","last_reported":1727925328,"current_range_meters":39200,"station_id":"ce4bhqh2rcd13ifvqhlg","pricing_plan_id":"cebpf4jnsgd1na2vs0mg"},{"bike_id":"6252736a-9bb6-42e9-81fa-0830ee833060","system_id":"levelo_inurba_marseille","lat":43.24803,"lon":5.3746,"is_reserved":false,"is_disabled":false,"rental_uris":{"android":"levelo://app?vid=6252736a-9bb6-42e9-81fa-0830ee833060","ios":"levelo://app?vid=6252736a-9bb6-42e9-81fa-0830ee833060"},"vehicle_type_id":"4","last_reported":1727925328,"current_range_meters":38800,"station_id":"ce4bhgh2rcd13ifvqfb0","pricing_plan_id":"cebpf4jnsgd1na2vs0mg"},{"bike_id":"d49d90db-e06a-4015-a8fe-bd419d6e7155","system_id":"levelo_inurba_marseille","lat":43.292536,"lon":5.409118,"is_reserved":false,"is_disabled":false,"rental_uris":{"android":"levelo://app?vid=d49d90db-e06a-4015-a8fe-bd419d6e7155","ios":"levelo://app?vid=d49d90db-e06a-4015-a8fe-bd419d6e7155"},"vehicle_type_id":"4","last_reported":1727925328,"current_range_meters":36400,"station_id":"ce4bh192rcd13ifvqdc0","pricing_plan_id":"cebpf4jnsgd1na2vs0mg"},{"bike_id":"976b0247-357e-451c-88dc-97d5e6b73f42","system_id":"levelo_inurba_marseille","lat":43.28853,"lon":5.35852,"is_reserved":false,"is_disabled":false,"rental_uris":{"android":"levelo://app?vid=976b0247-357e-451c-88dc-97d5e6b73f42","ios":"levelo://app?vid=976b0247-357e-451c-88dc-97d5e6b73f42"},"vehicle_type_id":"4","last_reported":1727925328,"current_range_meters":25200,"station_id":"ce4bhb12rcd13ifvqem0","pricing_plan_id":"cebpf4jnsgd1na2vs0mg"},{"bike_id":"4742c689-0d3e-45a9-b482-2c8459a45220","system_id":"levelo_inurba_marseille","lat":43.29223,"lon":5.36054,"is_reserved":false,"is_disabled":false,"rental_uris":{"android":"levelo://app?vid=4742c689-0d3e-45a9-b482-2c8459a45220","ios":"levelo://app?vid=4742c689-0d3e-45a9-b482-2c8459a45220"},"vehicle_type_id":"4","last_reported":1727925328,"current_range_meters":38800,"station_id":"ce4bhbh2rcd13ifvqeqg","pricing_plan_id":"cebpf4jnsgd1na2vs0mg"},{"bike_id":"77fd400a-80bd-4b8b-a1e1-0e1d04436689","system_id":"levelo_inurba_marseille","lat":43.29851,"lon":5.39747,"is_reserved":false,"is_disabled":false,"rental_uris":{"android":"levelo://app?vid=77fd400a-80bd-4b8b-a1e1-0e1d04436689","ios":"levelo://app?vid=77fd400a-80bd-4b8b-a1e1-0e1d04436689"},"vehicle_type_id":"4","last_reported":1727925328,"current_range_meters":38800,"station_id":"ce4bh0h2rcd13ifvqd50","pricing_plan_id":"cebpf4jnsgd1na2vs0mg"},{"bike_id":"98b76816-00e9-4c3f-9a79-d1fda17a0060","system_id":"levelo_inurba_marseille","lat":43.28459,"lon":5.35896,"is_reserved":false,"is_disabled":false,"rental_uris":{"android":"levelo://app?vid=98b76816-00e9-4c3f-9a79-d1fda17a0060","ios":"levelo://app?vid=98b76816-00e9-4c3f-9a79-d1fda17a0060"},"vehicle_type_id":"4","last_reported":1727925328,"current_range_meters":6000,"station_id":"ce4bhah2rcd13ifvqei0","pricing_plan_id":"cebpf4jnsgd1na2vs0mg"},{"bike_id":"cf2deed3-5bfe-45ad-b669-5f0b5685af6b","system_id":"levelo_inurba_marseille","lat":43.29881,"lon":5.39734,"is_reserved":false,"is_disabled":false,"rental_uris":{"android":"levelo://app?vid=cf2deed3-5bfe-45ad-b669-5f0b5685af6b","ios":"levelo://app?vid=cf2deed3-5bfe-45ad-b669-5f0b5685af6b"},"vehicle_type_id":"4","last_reported":1727925328,"current_range_meters":37600,"station_id":"ce4bh0h2rcd13ifvqd50","pricing_plan_id":"cebpf4jnsgd1na2vs0mg"},{"bike_id":"3925884f-ef42-41cd-8cb4-e1beb9b3508a","system_id":"levelo_inurba_marseille","lat":43.27808,"lon":5.40705,"is_reserved":false,"is_disabled":false,"rental_uris":{"android":"levelo://app?vid=3925884f-ef42-41cd-8cb4-e1beb9b3508a","ios":"levelo://app?vid=3925884f-ef42-41cd-8cb4-e1beb9b3508a"},"vehicle_type_id":"4","last_reported":1727925328,"current_range_meters":25200,"station_id":"ce4bhnh2rcd13ifvqgtg","pricing_plan_id":"cebpf4jnsgd1na2vs0mg"},{"bike_id":"78f485d1-bf5b-445b-a57f-ee387d423c2a","system_id":"levelo_inurba_marseille","lat":43.24651,"lon":5.38893,"is_reserved":false,"is_disabled":false,"rental_uris":{"android":"levelo://app?vid=78f485d1-bf5b-445b-a57f-ee387d423c2a","ios":"levelo://app?vid=78f485d1-bf5b-445b-a57f-ee387d423c2a"},"vehicle_type_id":"4","last_reported":1727925328,"current_range_meters":37600,"station_id":"ce4bhg12rcd13ifvqf60","pricing_plan_id":"cebpf4jnsgd1na2vs0mg"},{"bike_id":"af501c78-7631-4860-acb5-122e74b9c092","system_id":"levelo_inurba_marseille","lat":43.25007,"lon":5.38931,"is_reserved":false,"is_disabled":false,"rental_uris":{"android":"levelo://app?vid=af501c78-7631-4860-acb5-122e74b9c092","ios":"levelo://app?vid=af501c78-7631-4860-acb5-122e74b9c092"},"vehicle_type_id":"4","last_reported":1727925328,"current_range_meters":16400,"station_id":"ce4bhgp2rcd13ifvqfd0","pricing_plan_id":"cebpf4jnsgd1na2vs0mg"},{"bike_id":"158a5b6c-f517-44b7-a254-b66b400db11e","system_id":"levelo_inurba_marseille","lat":43.2718,"lon":5.40997,"is_reserved":false,"is_disabled":false,"rental_uris":{"android":"levelo://app?vid=158a5b6c-f517-44b7-a254-b66b400db11e","ios":"levelo://app?vid=158a5b6c-f517-44b7-a254-b66b400db11e"},"vehicle_type_id":"4","last_reported":1727925328,"current_range_meters":28400,"station_id":"ce4bhl12rcd13ifvqgf0","pricing_plan_id":"cebpf4jnsgd1na2vs0mg"},{"bike_id":"78214315-b255-43ae-97a7-efe857b1e91d","system_id":"levelo_inurba_marseille","lat":43.31224,"lon":5.36858,"is_reserved":false,"is_disabled":false,"rental_uris":{"android":"levelo://app?vid=78214315-b255-43ae-97a7-efe857b1e91d","ios":"levelo://app?vid=78214315-b255-43ae-97a7-efe857b1e91d"},"vehicle_type_id":"4","last_reported":1727925328,"current_range_meters":37600,"station_id":"ce4bgl92rcd13ifvqbq0","pricing_plan_id":"cebpf4jnsgd1na2vs0mg"},{"bike_id":"59f1bb81-6a4b-4063-b7a2-5fc8ce8aa2a6","system_id":"levelo_inurba_marseille","lat":43.31328,"lon":5.39705,"is_reserved":false,"is_disabled":false,"rental_uris":{"android":"levelo://app?vid=59f1bb81-6a4b-4063-b7a2-5fc8ce8aa2a6","ios":"levelo://app?vid=59f1bb81-6a4b-4063-b7a2-5fc8ce8aa2a6"},"vehicle_type_id":"4","last_reported":1727925328,"current_range_meters":38800,"station_id":"ce4bgvp2rcd13ifvqcu0","pricing_plan_id":"cebpf4jnsgd1na2vs0mg"},{"bike_id":"baf545b0-7fa5-41ff-9fdc-e94b60c0513e","system_id":"levelo_inurba_marseille","lat":43.27822,"lon":5.407259,"is_reserved":false,"is_disabled":false,"rental_uris":{"android":"levelo://app?vid=baf545b0-7fa5-41ff-9fdc-e94b60c0513e","ios":"levelo://app?vid=baf545b0-7fa5-41ff-9fdc-e94b60c0513e"},"vehicle_type_id":"4","last_reported":1727925328,"current_range_meters":34000,"station_id":"ce4bhnh2rcd13ifvqgtg","pricing_plan_id":"cebpf4jnsgd1na2vs0mg"},{"bike_id":"e892a682-8f0d-45b4-9511-6f7eaf94e86f","system_id":"levelo_inurba_marseille","lat":43.28945,"lon":5.39635,"is_reserved":false,"is_disabled":false,"rental_uris":{"android":"levelo://app?vid=e892a682-8f0d-45b4-9511-6f7eaf94e86f","ios":"levelo://app?vid=e892a682-8f0d-45b4-9511-6f7eaf94e86f"},"vehicle_type_id":"4","last_reported":1727925328,"current_range_meters":24800,"station_id":"ce4bh3h2rcd13ifvqdn0","pricing_plan_id":"cebpf4jnsgd1na2vs0mg"},{"bike_id":"68fcdcd9-c69d-4d53-a155-31919b0b9c9b","system_id":"levelo_inurba_marseille","lat":43.26683,"lon":5.38266,"is_reserved":false,"is_disabled":false,"rental_uris":{"android":"levelo://app?vid=68fcdcd9-c69d-4d53-a155-31919b0b9c9b","ios":"levelo://app?vid=68fcdcd9-c69d-4d53-a155-31919b0b9c9b"},"vehicle_type_id":"4","last_reported":1727925328,"current_range_meters":21600,"station_id":"ce4bhg92rcd13ifvqf90","pricing_plan_id":"cebpf4jnsgd1na2vs0mg"},{"bike_id":"d759565f-ffea-4886-b601-509e18c9f792","system_id":"levelo_inurba_marseille","lat":43.28705,"lon":5.39976,"is_reserved":false,"is_disabled":false,"rental_uris":{"android":"levelo://app?vid=d759565f-ffea-4886-b601-509e18c9f792","ios":"levelo://app?vid=d759565f-ffea-4886-b601-509e18c9f792"},"vehicle_type_id":"4","last_reported":1727925328,"current_range_meters":38800,"station_id":"ce4bho92rcd13ifvqh3g","pricing_plan_id":"cebpf4jnsgd1na2vs0mg"},{"bike_id":"a5bc78e8-0ff4-4da0-acba-f17ca5d6e61c","system_id":"levelo_inurba_marseille","lat":43.28033,"lon":5.36955,"is_reserved":false,"is_disabled":false,"rental_uris":{"android":"levelo://app?vid=a5bc78e8-0ff4-4da0-acba-f17ca5d6e61c","ios":"levelo://app?vid=a5bc78e8-0ff4-4da0-acba-f17ca5d6e61c"},"vehicle_type_id":"4","last_reported":1727925328,"current_range_meters":38800,"station_id":"ce4bha12rcd13ifvqef0","pricing_plan_id":"cebpf4jnsgd1na2vs0mg"},{"bike_id":"de3e6020-9925-4b34-92c3-9580aac719a6","system_id":"levelo_inurba_marseille","lat":43.33605,"lon":5.41032,"is_reserved":false,"is_disabled":false,"rental_uris":{"android":"levelo://app?vid=de3e6020-9925-4b34-92c3-9580aac719a6","ios":"levelo://app?vid=de3e6020-9925-4b34-92c3-9580aac719a6"},"vehicle_type_id":"4","last_reported":1727925328,"current_range_meters":9200,"station_id":"ce4bhqh2rcd13ifvqhmg","pricing_plan_id":"cebpf4jnsgd1na2vs0mg"},{"bike_id":"eab14701-760b-40ca-a470-42d4cb1245b3","system_id":"levelo_inurba_marseille","lat":43.30355,"lon":5.41878,"is_reserved":false,"is_disabled":false,"rental_uris":{"android":"levelo://app?vid=eab14701-760b-40ca-a470-42d4cb1245b3","ios":"levelo://app?vid=eab14701-760b-40ca-a470-42d4cb1245b3"},"vehicle_type_id":"4","last_reported":1727925328,"current_range_meters":37600,"station_id":"ce4bhop2rcd13ifvqh7g","pricing_plan_id":"cebpf4jnsgd1na2vs0mg"},{"bike_id":"7abba7f8-027c-47e5-bdf4-c0b33099bbee","system_id":"levelo_inurba_marseille","lat":43.31325,"lon":5.39699,"is_reserved":false,"is_disabled":false,"rental_uris":{"android":"levelo://app?vid=7abba7f8-027c-47e5-bdf4-c0b33099bbee","ios":"levelo://app?vid=7abba7f8-027c-47e5-bdf4-c0b33099bbee"},"vehicle_type_id":"4","last_reported":1727925328,"current_range_meters":26800,"station_id":"ce4bgvp2rcd13ifvqcu0","pricing_plan_id":"cebpf4jnsgd1na2vs0mg"},{"bike_id":"ea1188b7-ac96-4afd-9344-ae967a924877","system_id":"levelo_inurba_marseille","lat":43.31534,"lon":5.38034,"is_reserved":false,"is_disabled":false,"rental_uris":{"android":"levelo://app?vid=ea1188b7-ac96-4afd-9344-ae967a924877","ios":"levelo://app?vid=ea1188b7-ac96-4afd-9344-ae967a924877"},"vehicle_type_id":"4","last_reported":1727925328,"current_range_meters":32400,"station_id":"ce4bhsp2rcd13ifvqi50","pricing_plan_id":"cebpf4jnsgd1na2vs0mg"},{"bike_id":"c9db3f60-427c-4925-8b51-d81989497936","system_id":"levelo_inurba_marseille","lat":43.28708,"lon":5.37384,"is_reserved":false,"is_disabled":false,"rental_uris":{"android":"levelo://app?vid=c9db3f60-427c-4925-8b51-d81989497936","ios":"levelo://app?vid=c9db3f60-427c-4925-8b51-d81989497936"},"vehicle_type_id":"4","last_reported":1727925328,"current_range_meters":38800,"station_id":"ce4bh3p2rcd13ifvqdq0","pricing_plan_id":"cebpf4jnsgd1na2vs0mg"},{"bike_id":"700f43df-a81e-46fd-b7d8-6beab4a2c0a8","system_id":"levelo_inurba_marseille","lat":43.311731,"lon":5.387212,"is_reserved":false,"is_disabled":false,"rental_uris":{"android":"levelo://app?vid=700f43df-a81e-46fd-b7d8-6beab4a2c0a8","ios":"levelo://app?vid=700f43df-a81e-46fd-b7d8-6beab4a2c0a8"},"vehicle_type_id":"4","last_reported":1727925328,"current_range_meters":38400,"station_id":"ce4bgv12rcd13ifvqcp0","pricing_plan_id":"cebpf4jnsgd1na2vs0mg"},{"bike_id":"91a34acf-7ef7-4662-b769-c1b781cebd21","system_id":"levelo_inurba_marseille","lat":43.3229,"lon":5.38266,"is_reserved":false,"is_disabled":false,"rental_uris":{"android":"levelo://app?vid=91a34acf-7ef7-4662-b769-c1b781cebd21","ios":"levelo://app?vid=91a34acf-7ef7-4662-b769-c1b781cebd21"},"vehicle_type_id":"4","last_reported":1727925328,"current_range_meters":35600,"station_id":"ce4bhr12rcd13ifvqhqg","pricing_plan_id":"cebpf4jnsgd1na2vs0mg"},{"bike_id":"1788357e-4d2c-46b7-a391-26a4e6c6111c","system_id":"levelo_inurba_marseille","lat":43.30933,"lon":5.4015,"is_reserved":false,"is_disabled":false,"rental_uris":{"android":"levelo://app?vid=1788357e-4d2c-46b7-a391-26a4e6c6111c","ios":"levelo://app?vid=1788357e-4d2c-46b7-a391-26a4e6c6111c"},"vehicle_type_id":"4","last_reported":1727925328,"current_range_meters":22800,"station_id":"ce4bgvp2rcd13ifvqct0","pricing_plan_id":"cebpf4jnsgd1na2vs0mg"},{"bike_id":"83f9c5b0-03dc-4f07-9024-f86cd68fcfc1","system_id":"levelo_inurba_marseille","lat":43.26944,"lon":5.38653,"is_reserved":false,"is_disabled":false,"rental_uris":{"android":"levelo://app?vid=83f9c5b0-03dc-4f07-9024-f86cd68fcfc1","ios":"levelo://app?vid=83f9c5b0-03dc-4f07-9024-f86cd68fcfc1"},"vehicle_type_id":"4","last_reported":1727925328,"current_range_meters":38400,"station_id":"ce4bhh92rcd13ifvqfh0","pricing_plan_id":"cebpf4jnsgd1na2vs0mg"},{"bike_id":"1a092ddf-d495-48af-acc4-5588274e43d7","system_id":"levelo_inurba_marseille","lat":43.28847,"lon":5.35852,"is_reserved":false,"is_disabled":false,"rental_uris":{"android":"levelo://app?vid=1a092ddf-d495-48af-acc4-5588274e43d7","ios":"levelo://app?vid=1a092ddf-d495-48af-acc4-5588274e43d7"},"vehicle_type_id":"4","last_reported":1727925328,"current_range_meters":39200,"station_id":"ce4bhb12rcd13ifvqem0","pricing_plan_id":"cebpf4jnsgd1na2vs0mg"},{"bike_id":"26b21c5b-d888-47bb-863e-31bd08a7f79a","system_id":"levelo_inurba_marseille","lat":43.31179,"lon":5.38716,"is_reserved":false,"is_disabled":false,"rental_uris":{"android":"levelo://app?vid=26b21c5b-d888-47bb-863e-31bd08a7f79a","ios":"levelo://app?vid=26b21c5b-d888-47bb-863e-31bd08a7f79a"},"vehicle_type_id":"4","last_reported":1727925328,"current_range_meters":38000,"station_id":"ce4bgv12rcd13ifvqcp0","pricing_plan_id":"cebpf4jnsgd1na2vs0mg"},{"bike_id":"e34719e5-db86-4a98-940a-e0cee84c6f53","system_id":"levelo_inurba_marseille","lat":43.289198,"lon":5.383933,"is_reserved":false,"is_disabled":false,"rental_uris":{"android":"levelo://app?vid=e34719e5-db86-4a98-940a-e0cee84c6f53","ios":"levelo://app?vid=e34719e5-db86-4a98-940a-e0cee84c6f53"},"vehicle_type_id":"4","last_reported":1727925328,"current_range_meters":38400,"station_id":"ce4bh612rcd13ifvqe6g","pricing_plan_id":"cebpf4jnsgd1na2vs0mg"},{"bike_id":"24d92f51-0476-4c2e-838c-c91673ebb0c9","system_id":"levelo_inurba_marseille","lat":43.28155,"lon":5.42641,"is_reserved":false,"is_disabled":false,"rental_uris":{"android":"levelo://app?vid=24d92f51-0476-4c2e-838c-c91673ebb0c9","ios":"levelo://app?vid=24d92f51-0476-4c2e-838c-c91673ebb0c9"},"vehicle_type_id":"4","last_reported":1727925328,"current_range_meters":38000,"station_id":"ce4bhnh2rcd13ifvqgug","pricing_plan_id":"cebpf4jnsgd1na2vs0mg"},{"bike_id":"149ff410-e6d0-4c7a-9459-cc82bab3c39f","system_id":"levelo_inurba_marseille","lat":43.30805,"lon":5.38155,"is_reserved":false,"is_disabled":false,"rental_uris":{"android":"levelo://app?vid=149ff410-e6d0-4c7a-9459-cc82bab3c39f","ios":"levelo://app?vid=149ff410-e6d0-4c7a-9459-cc82bab3c39f"},"vehicle_type_id":"4","last_reported":1727925328,"current_range_meters":38800,"station_id":"ce4bgt12rcd13ifvqce0","pricing_plan_id":"cebpf4jnsgd1na2vs0mg"},{"bike_id":"b7046bd9-0899-4f40-956c-57be7242e42a","system_id":"levelo_inurba_marseille","lat":43.2917,"lon":5.3692,"is_reserved":false,"is_disabled":false,"rental_uris":{"android":"levelo://app?vid=b7046bd9-0899-4f40-956c-57be7242e42a","ios":"levelo://app?vid=b7046bd9-0899-4f40-956c-57be7242e42a"},"vehicle_type_id":"4","last_reported":1727925328,"current_range_meters":33600,"station_id":"","pricing_plan_id":"cebpf4jnsgd1na2vs0mg"},{"bike_id":"32f6824e-5471-4d07-9784-8341224d62c6","system_id":"levelo_inurba_marseille","lat":43.28847,"lon":5.35844,"is_reserved":false,"is_disabled":false,"rental_uris":{"android":"levelo://app?vid=32f6824e-5471-4d07-9784-8341224d62c6","ios":"levelo://app?vid=32f6824e-5471-4d07-9784-8341224d62c6"},"vehicle_type_id":"4","last_reported":1727925328,"current_range_meters":18000,"station_id":"ce4bhb12rcd13ifvqem0","pricing_plan_id":"cebpf4jnsgd1na2vs0mg"},{"bike_id":"0d38caac-4e1b-4bc6-8634-fba8549655ca","system_id":"levelo_inurba_marseille","lat":43.32112,"lon":5.36769,"is_reserved":false,"is_disabled":false,"rental_uris":{"android":"levelo://app?vid=0d38caac-4e1b-4bc6-8634-fba8549655ca","ios":"levelo://app?vid=0d38caac-4e1b-4bc6-8634-fba8549655ca"},"vehicle_type_id":"4","last_reported":1727925328,"current_range_meters":37600,"station_id":"ce4bhrh2rcd13ifvqhug","pricing_plan_id":"cebpf4jnsgd1na2vs0mg"},{"bike_id":"e2c709ab-362f-4f28-8df2-e58b4fabe9a9","system_id":"levelo_inurba_marseille","lat":43.281081,"lon":5.378481,"is_reserved":false,"is_disabled":false,"rental_uris":{"android":"levelo://app?vid=e2c709ab-362f-4f28-8df2-e58b4fabe9a9","ios":"levelo://app?vid=e2c709ab-362f-4f28-8df2-e58b4fabe9a9"},"vehicle_type_id":"4","last_reported":1727925328,"current_range_meters":8400,"station_id":"ce4bha12rcd13ifvqee0","pricing_plan_id":"cebpf4jnsgd1na2vs0mg"},{"bike_id":"c000849c-5bdd-4942-9148-10e6e205fcbc","system_id":"levelo_inurba_marseille","lat":43.311743,"lon":5.387129,"is_reserved":false,"is_disabled":false,"rental_uris":{"android":"levelo://app?vid=c000849c-5bdd-4942-9148-10e6e205fcbc","ios":"levelo://app?vid=c000849c-5bdd-4942-9148-10e6e205fcbc"},"vehicle_type_id":"4","last_reported":1727925328,"current_range_meters":38800,"station_id":"ce4bgv12rcd13ifvqcp0","pricing_plan_id":"cebpf4jnsgd1na2vs0mg"},{"bike_id":"928a629e-8e97-4aa4-be5e-ab44717b40f3","system_id":"levelo_inurba_marseille","lat":43.28703,"lon":5.3998,"is_reserved":false,"is_disabled":false,"rental_uris":{"android":"levelo://app?vid=928a629e-8e97-4aa4-be5e-ab44717b40f3","ios":"levelo://app?vid=928a629e-8e97-4aa4-be5e-ab44717b40f3"},"vehicle_type_id":"4","last_reported":1727925328,"current_range_meters":25600,"station_id":"ce4bho92rcd13ifvqh3g","pricing_plan_id":"cebpf4jnsgd1na2vs0mg"},{"bike_id":"52dde9e0-786d-479b-9441-b79f0f0b59c9","system_id":"levelo_inurba_marseille","lat":43.27325,"lon":5.39097,"is_reserved":false,"is_disabled":false,"rental_uris":{"android":"levelo://app?vid=52dde9e0-786d-479b-9441-b79f0f0b59c9","ios":"levelo://app?vid=52dde9e0-786d-479b-9441-b79f0f0b59c9"},"vehicle_type_id":"4","last_reported":1727925328,"current_range_meters":27600,"station_id":"ce4bhgp2rcd13ifvqfe0","pricing_plan_id":"cebpf4jnsgd1na2vs0mg"},{"bike_id":"5193785c-263c-401d-a7b6-51f84a49819f","system_id":"levelo_inurba_marseille","lat":43.29554,"lon":5.42282,"is_reserved":false,"is_disabled":false,"rental_uris":{"android":"levelo://app?vid=5193785c-263c-401d-a7b6-51f84a49819f","ios":"levelo://app?vid=5193785c-263c-401d-a7b6-51f84a49819f"},"vehicle_type_id":"4","last_reported":1727925328,"current_range_meters":38800,"station_id":"ce4bhph2rcd13ifvqhdg","pricing_plan_id":"cebpf4jnsgd1na2vs0mg"},{"bike_id":"e44f7360-cba0-46f8-982b-60e2cc13de75","system_id":"levelo_inurba_marseille","lat":43.31754,"lon":5.39019,"is_reserved":false,"is_disabled":false,"rental_uris":{"android":"levelo://app?vid=e44f7360-cba0-46f8-982b-60e2cc13de75","ios":"levelo://app?vid=e44f7360-cba0-46f8-982b-60e2cc13de75"},"vehicle_type_id":"4","last_reported":1727925328,"current_range_meters":38800,"station_id":"ce4bhqp2rcd13ifvqhng","pricing_plan_id":"cebpf4jnsgd1na2vs0mg"},{"bike_id":"5d1a6024-a964-4811-b99b-ce409a4cb4b2","system_id":"levelo_inurba_marseille","lat":43.2862,"lon":5.35103,"is_reserved":false,"is_disabled":false,"rental_uris":{"android":"levelo://app?vid=5d1a6024-a964-4811-b99b-ce409a4cb4b2","ios":"levelo://app?vid=5d1a6024-a964-4811-b99b-ce409a4cb4b2"},"vehicle_type_id":"4","last_reported":1727925328,"current_range_meters":38000,"station_id":"ce4bhch2rcd13ifvqeug","pricing_plan_id":"cebpf4jnsgd1na2vs0mg"},{"bike_id":"9eee32ff-4f3c-409c-873a-d4ee1dd4f7d6","system_id":"levelo_inurba_marseille","lat":43.29193,"lon":5.39303,"is_reserved":false,"is_disabled":false,"rental_uris":{"android":"levelo://app?vid=9eee32ff-4f3c-409c-873a-d4ee1dd4f7d6","ios":"levelo://app?vid=9eee32ff-4f3c-409c-873a-d4ee1dd4f7d6"},"vehicle_type_id":"4","last_reported":1727925328,"current_range_meters":21600,"station_id":"ce4bh192rcd13ifvqdd0","pricing_plan_id":"cebpf4jnsgd1na2vs0mg"},{"bike_id":"499cb64c-6fb8-4407-89d8-a118e3c5c28d","system_id":"levelo_inurba_marseille","lat":43.28001,"lon":5.40004,"is_reserved":false,"is_disabled":false,"rental_uris":{"android":"levelo://app?vid=499cb64c-6fb8-4407-89d8-a118e3c5c28d","ios":"levelo://app?vid=499cb64c-6fb8-4407-89d8-a118e3c5c28d"},"vehicle_type_id":"4","last_reported":1727925328,"current_range_meters":22800,"station_id":"ce4bho92rcd13ifvqh4g","pricing_plan_id":"cebpf4jnsgd1na2vs0mg"},{"bike_id":"506e55c5-b8fd-4962-aa7f-acad910ad64e","system_id":"levelo_inurba_marseille","lat":43.28695,"lon":5.37398,"is_reserved":false,"is_disabled":false,"rental_uris":{"android":"levelo://app?vid=506e55c5-b8fd-4962-aa7f-acad910ad64e","ios":"levelo://app?vid=506e55c5-b8fd-4962-aa7f-acad910ad64e"},"vehicle_type_id":"4","last_reported":1727925328,"current_range_meters":39200,"station_id":"ce4bh3p2rcd13ifvqdq0","pricing_plan_id":"cebpf4jnsgd1na2vs0mg"},{"bike_id":"8702e71e-0df6-4670-9eca-d63438fb2fd8","system_id":"levelo_inurba_marseille","lat":43.30887,"lon":5.39639,"is_reserved":false,"is_disabled":false,"rental_uris":{"android":"levelo://app?vid=8702e71e-0df6-4670-9eca-d63438fb2fd8","ios":"levelo://app?vid=8702e71e-0df6-4670-9eca-d63438fb2fd8"},"vehicle_type_id":"4","last_reported":1727925328,"current_range_meters":33600,"station_id":"ce4bh012rcd13ifvqcv0","pricing_plan_id":"cebpf4jnsgd1na2vs0mg"},{"bike_id":"ffa926d7-93d2-402b-a4a7-a01d8985b329","system_id":"levelo_inurba_marseille","lat":43.27998,"lon":5.40028,"is_reserved":false,"is_disabled":false,"rental_uris":{"android":"levelo://app?vid=ffa926d7-93d2-402b-a4a7-a01d8985b329","ios":"levelo://app?vid=ffa926d7-93d2-402b-a4a7-a01d8985b329"},"vehicle_type_id":"4","last_reported":1727925328,"current_range_meters":14400,"station_id":"ce4bho92rcd13ifvqh4g","pricing_plan_id":"cebpf4jnsgd1na2vs0mg"},{"bike_id":"012f8305-fce2-4582-954b-85deb454c741","system_id":"levelo_inurba_marseille","lat":43.28845,"lon":5.35851,"is_reserved":false,"is_disabled":false,"rental_uris":{"android":"levelo://app?vid=012f8305-fce2-4582-954b-85deb454c741","ios":"levelo://app?vid=012f8305-fce2-4582-954b-85deb454c741"},"vehicle_type_id":"4","last_reported":1727925328,"current_range_meters":38800,"station_id":"ce4bhb12rcd13ifvqem0","pricing_plan_id":"cebpf4jnsgd1na2vs0mg"},{"bike_id":"0bbecbc4-d4ad-4e16-983e-c92a83b35860","system_id":"levelo_inurba_marseille","lat":43.26681,"lon":5.38265,"is_reserved":false,"is_disabled":false,"rental_uris":{"android":"levelo://app?vid=0bbecbc4-d4ad-4e16-983e-c92a83b35860","ios":"levelo://app?vid=0bbecbc4-d4ad-4e16-983e-c92a83b35860"},"vehicle_type_id":"4","last_reported":1727925328,"current_range_meters":32400,"station_id":"ce4bhg92rcd13ifvqf90","pricing_plan_id":"cebpf4jnsgd1na2vs0mg"},{"bike_id":"8f181795-3aeb-4156-971d-e32d9f5f03a5","system_id":"levelo_inurba_marseille","lat":43.28868,"lon":5.36083,"is_reserved":false,"is_disabled":false,"rental_uris":{"android":"levelo://app?vid=8f181795-3aeb-4156-971d-e32d9f5f03a5","ios":"levelo://app?vid=8f181795-3aeb-4156-971d-e32d9f5f03a5"},"vehicle_type_id":"4","last_reported":1727925328,"current_range_meters":29600,"station_id":"","pricing_plan_id":"cebpf4jnsgd1na2vs0mg"},{"bike_id":"ab0ec3d3-4f39-4c45-bb5f-ebeb07cb01d2","system_id":"levelo_inurba_marseille","lat":43.27811,"lon":5.40712,"is_reserved":false,"is_disabled":false,"rental_uris":{"android":"levelo://app?vid=ab0ec3d3-4f39-4c45-bb5f-ebeb07cb01d2","ios":"levelo://app?vid=ab0ec3d3-4f39-4c45-bb5f-ebeb07cb01d2"},"vehicle_type_id":"4","last_reported":1727925328,"current_range_meters":36000,"station_id":"ce4bhnh2rcd13ifvqgtg","pricing_plan_id":"cebpf4jnsgd1na2vs0mg"},{"bike_id":"12924d24-3cc0-4103-9cc5-36dfbf266a2c","system_id":"levelo_inurba_marseille","lat":43.27902,"lon":5.38006,"is_reserved":false,"is_disabled":false,"rental_uris":{"android":"levelo://app?vid=12924d24-3cc0-4103-9cc5-36dfbf266a2c","ios":"levelo://app?vid=12924d24-3cc0-4103-9cc5-36dfbf266a2c"},"vehicle_type_id":"4","last_reported":1727925328,"current_range_meters":37600,"station_id":"ce4bhf92rcd13ifvqf50","pricing_plan_id":"cebpf4jnsgd1na2vs0mg"},{"bike_id":"7bfb5721-baf3-4893-bbf9-7c8112a113a1","system_id":"levelo_inurba_marseille","lat":43.279961,"lon":5.400111,"is_reserved":false,"is_disabled":false,"rental_uris":{"android":"levelo://app?vid=7bfb5721-baf3-4893-bbf9-7c8112a113a1","ios":"levelo://app?vid=7bfb5721-baf3-4893-bbf9-7c8112a113a1"},"vehicle_type_id":"4","last_reported":1727925328,"current_range_meters":36400,"station_id":"ce4bho92rcd13ifvqh4g","pricing_plan_id":"cebpf4jnsgd1na2vs0mg"},{"bike_id":"9bb1827b-7858-47e7-aca0-f7469a633994","system_id":"levelo_inurba_marseille","lat":43.30318,"lon":5.40443,"is_reserved":false,"is_disabled":false,"rental_uris":{"android":"levelo://app?vid=9bb1827b-7858-47e7-aca0-f7469a633994","ios":"levelo://app?vid=9bb1827b-7858-47e7-aca0-f7469a633994"},"vehicle_type_id":"4","last_reported":1727925328,"current_range_meters":34000,"station_id":"ce4bh012rcd13ifvqd10","pricing_plan_id":"cebpf4jnsgd1na2vs0mg"},{"bike_id":"563e6912-b751-4068-8cd9-50117235c071","system_id":"levelo_inurba_marseille","lat":43.284641,"lon":5.358912,"is_reserved":false,"is_disabled":false,"rental_uris":{"android":"levelo://app?vid=563e6912-b751-4068-8cd9-50117235c071","ios":"levelo://app?vid=563e6912-b751-4068-8cd9-50117235c071"},"vehicle_type_id":"4","last_reported":1727925328,"current_range_meters":33600,"station_id":"ce4bhah2rcd13ifvqei0","pricing_plan_id":"cebpf4jnsgd1na2vs0mg"},{"bike_id":"c28aadbf-2763-4c15-b0ea-1af098ca2508","system_id":"levelo_inurba_marseille","lat":43.32541,"lon":5.41445,"is_reserved":false,"is_disabled":false,"rental_uris":{"android":"levelo://app?vid=c28aadbf-2763-4c15-b0ea-1af098ca2508","ios":"levelo://app?vid=c28aadbf-2763-4c15-b0ea-1af098ca2508"},"vehicle_type_id":"4","last_reported":1727925328,"current_range_meters":38800,"station_id":"ce4bhq12rcd13ifvqhhg","pricing_plan_id":"cebpf4jnsgd1na2vs0mg"},{"bike_id":"1f8d1e3d-9d2a-4e06-afd4-5fea70da48f3","system_id":"levelo_inurba_marseille","lat":43.24668,"lon":5.3816,"is_reserved":false,"is_disabled":false,"rental_uris":{"android":"levelo://app?vid=1f8d1e3d-9d2a-4e06-afd4-5fea70da48f3","ios":"levelo://app?vid=1f8d1e3d-9d2a-4e06-afd4-5fea70da48f3"},"vehicle_type_id":"4","last_reported":1727925328,"current_range_meters":38800,"station_id":"ce4bhih2rcd13ifvqfr0","pricing_plan_id":"cebpf4jnsgd1na2vs0mg"},{"bike_id":"720575a9-1c2c-4181-b3f7-c1b39f8bdabb","system_id":"levelo_inurba_marseille","lat":43.28695,"lon":5.39981,"is_reserved":false,"is_disabled":false,"rental_uris":{"android":"levelo://app?vid=720575a9-1c2c-4181-b3f7-c1b39f8bdabb","ios":"levelo://app?vid=720575a9-1c2c-4181-b3f7-c1b39f8bdabb"},"vehicle_type_id":"4","last_reported":1727925328,"current_range_meters":38800,"station_id":"ce4bho92rcd13ifvqh3g","pricing_plan_id":"cebpf4jnsgd1na2vs0mg"},{"bike_id":"2a5e89a5-010d-4243-bd8f-a53188703acb","system_id":"levelo_inurba_marseille","lat":43.31687,"lon":5.40461,"is_reserved":false,"is_disabled":false,"rental_uris":{"android":"levelo://app?vid=2a5e89a5-010d-4243-bd8f-a53188703acb","ios":"levelo://app?vid=2a5e89a5-010d-4243-bd8f-a53188703acb"},"vehicle_type_id":"4","last_reported":1727925328,"current_range_meters":32400,"station_id":"ce4bh012rcd13ifvqd00","pricing_plan_id":"cebpf4jnsgd1na2vs0mg"},{"bike_id":"f13ae62b-0d02-4c4a-bd54-f8d021796470","system_id":"levelo_inurba_marseille","lat":43.30434,"lon":5.38896,"is_reserved":false,"is_disabled":false,"rental_uris":{"android":"levelo://app?vid=f13ae62b-0d02-4c4a-bd54-f8d021796470","ios":"levelo://app?vid=f13ae62b-0d02-4c4a-bd54-f8d021796470"},"vehicle_type_id":"4","last_reported":1727925328,"current_range_meters":34000,"station_id":"ce4bgk12rcd13ifvqbi0","pricing_plan_id":"cebpf4jnsgd1na2vs0mg"},{"bike_id":"195f133d-6470-494b-8a0f-746667db7fd4","system_id":"levelo_inurba_marseille","lat":43.28441,"lon":5.37516,"is_reserved":false,"is_disabled":false,"rental_uris":{"android":"levelo://app?vid=195f133d-6470-494b-8a0f-746667db7fd4","ios":"levelo://app?vid=195f133d-6470-494b-8a0f-746667db7fd4"},"vehicle_type_id":"4","last_reported":1727925328,"current_range_meters":38800,"station_id":"ce4bh412rcd13ifvqds0","pricing_plan_id":"cebpf4jnsgd1na2vs0mg"},{"bike_id":"ded6ed03-6670-4556-b0c7-cc18513cb314","system_id":"levelo_inurba_marseille","lat":43.26501,"lon":5.39543,"is_reserved":false,"is_disabled":false,"rental_uris":{"android":"levelo://app?vid=ded6ed03-6670-4556-b0c7-cc18513cb314","ios":"levelo://app?vid=ded6ed03-6670-4556-b0c7-cc18513cb314"},"vehicle_type_id":"4","last_reported":1727925328,"current_range_meters":8000,"station_id":"ce4bhi12rcd13ifvqfq0","pricing_plan_id":"cebpf4jnsgd1na2vs0mg"},{"bike_id":"b38ec9cf-9d09-463d-8afa-4c60bb107aed","system_id":"levelo_inurba_marseille","lat":43.27993,"lon":5.41654,"is_reserved":false,"is_disabled":false,"rental_uris":{"android":"levelo://app?vid=b38ec9cf-9d09-463d-8afa-4c60bb107aed","ios":"levelo://app?vid=b38ec9cf-9d09-463d-8afa-4c60bb107aed"},"vehicle_type_id":"4","last_reported":1727925328,"current_range_meters":27200,"station_id":"ce4bho12rcd13ifvqh1g","pricing_plan_id":"cebpf4jnsgd1na2vs0mg"},{"bike_id":"8b324eaf-db0e-4f63-abfa-425c372857cb","system_id":"levelo_inurba_marseille","lat":43.30779,"lon":5.37658,"is_reserved":false,"is_disabled":false,"rental_uris":{"android":"levelo://app?vid=8b324eaf-db0e-4f63-abfa-425c372857cb","ios":"levelo://app?vid=8b324eaf-db0e-4f63-abfa-425c372857cb"},"vehicle_type_id":"4","last_reported":1727925328,"current_range_meters":35600,"station_id":"ce4bgv92rcd13ifvqcq0","pricing_plan_id":"cebpf4jnsgd1na2vs0mg"},{"bike_id":"3e55463a-ac46-4231-9101-abcd2156792a","system_id":"levelo_inurba_marseille","lat":43.30792,"lon":5.43542,"is_reserved":false,"is_disabled":false,"rental_uris":{"android":"levelo://app?vid=3e55463a-ac46-4231-9101-abcd2156792a","ios":"levelo://app?vid=3e55463a-ac46-4231-9101-abcd2156792a"},"vehicle_type_id":"4","last_reported":1727925328,"current_range_meters":37600,"station_id":"ce4bhph2rcd13ifvqheg","pricing_plan_id":"cebpf4jnsgd1na2vs0mg"},{"bike_id":"7669e898-8a13-4450-9eb1-3d0a2ad43f20","system_id":"levelo_inurba_marseille","lat":43.28104,"lon":5.37856,"is_reserved":false,"is_disabled":false,"rental_uris":{"android":"levelo://app?vid=7669e898-8a13-4450-9eb1-3d0a2ad43f20","ios":"levelo://app?vid=7669e898-8a13-4450-9eb1-3d0a2ad43f20"},"vehicle_type_id":"4","last_reported":1727925328,"current_range_meters":38800,"station_id":"ce4bha12rcd13ifvqee0","pricing_plan_id":"cebpf4jnsgd1na2vs0mg"},{"bike_id":"65e7b6b0-2911-4a20-a5c1-7d9c323667da","system_id":"levelo_inurba_marseille","lat":43.3255,"lon":5.41439,"is_reserved":false,"is_disabled":false,"rental_uris":{"android":"levelo://app?vid=65e7b6b0-2911-4a20-a5c1-7d9c323667da","ios":"levelo://app?vid=65e7b6b0-2911-4a20-a5c1-7d9c323667da"},"vehicle_type_id":"4","last_reported":1727925328,"current_range_meters":38000,"station_id":"ce4bhq12rcd13ifvqhhg","pricing_plan_id":"cebpf4jnsgd1na2vs0mg"},{"bike_id":"3a26ba89-6186-4721-97e2-c557cb8cacfc","system_id":"levelo_inurba_marseille","lat":43.26947,"lon":5.40248,"is_reserved":false,"is_disabled":false,"rental_uris":{"android":"levelo://app?vid=3a26ba89-6186-4721-97e2-c557cb8cacfc","ios":"levelo://app?vid=3a26ba89-6186-4721-97e2-c557cb8cacfc"},"vehicle_type_id":"4","last_reported":1727925328,"current_range_meters":33600,"station_id":"cjm6bp8fraef2m0cb0m0","pricing_plan_id":"cebpf4jnsgd1na2vs0mg"},{"bike_id":"5d8041cf-19b6-4f04-b6db-837ad2e405c1","system_id":"levelo_inurba_marseille","lat":43.28461,"lon":5.35894,"is_reserved":false,"is_disabled":false,"rental_uris":{"android":"levelo://app?vid=5d8041cf-19b6-4f04-b6db-837ad2e405c1","ios":"levelo://app?vid=5d8041cf-19b6-4f04-b6db-837ad2e405c1"},"vehicle_type_id":"4","last_reported":1727925328,"current_range_meters":19600,"station_id":"ce4bhah2rcd13ifvqei0","pricing_plan_id":"cebpf4jnsgd1na2vs0mg"},{"bike_id":"790fb5cb-5cf5-4d60-aa2d-73132565f7cd","system_id":"levelo_inurba_marseille","lat":43.31489,"lon":5.3731,"is_reserved":false,"is_disabled":false,"rental_uris":{"android":"levelo://app?vid=790fb5cb-5cf5-4d60-aa2d-73132565f7cd","ios":"levelo://app?vid=790fb5cb-5cf5-4d60-aa2d-73132565f7cd"},"vehicle_type_id":"4","last_reported":1727925328,"current_range_meters":6800,"station_id":"ce4bgt12rcd13ifvqcd0","pricing_plan_id":"cebpf4jnsgd1na2vs0mg"},{"bike_id":"54ee485c-6ab8-4ad2-81b0-e28e15ba2b83","system_id":"levelo_inurba_marseille","lat":43.282714,"lon":5.350694,"is_reserved":false,"is_disabled":false,"rental_uris":{"android":"levelo://app?vid=54ee485c-6ab8-4ad2-81b0-e28e15ba2b83","ios":"levelo://app?vid=54ee485c-6ab8-4ad2-81b0-e28e15ba2b83"},"vehicle_type_id":"4","last_reported":1727925328,"current_range_meters":8800,"station_id":"ce4bhbp2rcd13ifvqerg","pricing_plan_id":"cebpf4jnsgd1na2vs0mg"},{"bike_id":"a787ad9f-0044-4839-a952-1ca23f7069fc","system_id":"levelo_inurba_marseille","lat":43.31723,"lon":5.4241,"is_reserved":false,"is_disabled":false,"rental_uris":{"android":"levelo://app?vid=a787ad9f-0044-4839-a952-1ca23f7069fc","ios":"levelo://app?vid=a787ad9f-0044-4839-a952-1ca23f7069fc"},"vehicle_type_id":"4","last_reported":1727925328,"current_range_meters":7200,"station_id":"ce4bhp92rcd13ifvqhbg","pricing_plan_id":"cebpf4jnsgd1na2vs0mg"},{"bike_id":"fab07bf1-09c2-4882-a9c1-73b120270859","system_id":"levelo_inurba_marseille","lat":43.26554,"lon":5.39016,"is_reserved":false,"is_disabled":false,"rental_uris":{"android":"levelo://app?vid=fab07bf1-09c2-4882-a9c1-73b120270859","ios":"levelo://app?vid=fab07bf1-09c2-4882-a9c1-73b120270859"},"vehicle_type_id":"4","last_reported":1727925328,"current_range_meters":37600,"station_id":"ce4bhe12rcd13ifvqf30","pricing_plan_id":"cebpf4jnsgd1na2vs0mg"},{"bike_id":"e1fb70b2-3a3b-495a-b1e8-acda54a54945","system_id":"levelo_inurba_marseille","lat":43.28847,"lon":5.3585,"is_reserved":false,"is_disabled":false,"rental_uris":{"android":"levelo://app?vid=e1fb70b2-3a3b-495a-b1e8-acda54a54945","ios":"levelo://app?vid=e1fb70b2-3a3b-495a-b1e8-acda54a54945"},"vehicle_type_id":"4","last_reported":1727925328,"current_range_meters":9200,"station_id":"ce4bhb12rcd13ifvqem0","pricing_plan_id":"cebpf4jnsgd1na2vs0mg"},{"bike_id":"aa7aa3cf-3b2b-4dac-903b-b7fe53322712","system_id":"levelo_inurba_marseille","lat":43.31063,"lon":5.3834,"is_reserved":false,"is_disabled":false,"rental_uris":{"android":"levelo://app?vid=aa7aa3cf-3b2b-4dac-903b-b7fe53322712","ios":"levelo://app?vid=aa7aa3cf-3b2b-4dac-903b-b7fe53322712"},"vehicle_type_id":"4","last_reported":1727925328,"current_range_meters":22400,"station_id":"ce4bgv92rcd13ifvqcr0","pricing_plan_id":"cebpf4jnsgd1na2vs0mg"},{"bike_id":"508b3170-34e3-430c-b754-dd4ea96fae6e","system_id":"levelo_inurba_marseille","lat":43.28729,"lon":5.36085,"is_reserved":false,"is_disabled":false,"rental_uris":{"android":"levelo://app?vid=508b3170-34e3-430c-b754-dd4ea96fae6e","ios":"levelo://app?vid=508b3170-34e3-430c-b754-dd4ea96fae6e"},"vehicle_type_id":"4","last_reported":1727925328,"current_range_meters":39200,"station_id":"cki0cbj6b192h4jlfktg","pricing_plan_id":"cebpf4jnsgd1na2vs0mg"},{"bike_id":"592d12b1-3bd9-492f-87f5-3f039b93ef4b","system_id":"levelo_inurba_marseille","lat":43.31713,"lon":5.37729,"is_reserved":false,"is_disabled":false,"rental_uris":{"android":"levelo://app?vid=592d12b1-3bd9-492f-87f5-3f039b93ef4b","ios":"levelo://app?vid=592d12b1-3bd9-492f-87f5-3f039b93ef4b"},"vehicle_type_id":"4","last_reported":1727925328,"current_range_meters":38000,"station_id":"ce4bgth2rcd13ifvqch0","pricing_plan_id":"cebpf4jnsgd1na2vs0mg"},{"bike_id":"34035cb3-8ff9-4eb1-a981-e0964c96626b","system_id":"levelo_inurba_marseille","lat":43.2306,"lon":5.35492,"is_reserved":false,"is_disabled":false,"rental_uris":{"android":"levelo://app?vid=34035cb3-8ff9-4eb1-a981-e0964c96626b","ios":"levelo://app?vid=34035cb3-8ff9-4eb1-a981-e0964c96626b"},"vehicle_type_id":"4","last_reported":1727925328,"current_range_meters":36000,"station_id":"cpo3342slgdg3j2ifvpg","pricing_plan_id":"cebpf4jnsgd1na2vs0mg"},{"bike_id":"ba76bde8-4837-48f2-a654-89f03ceb034e","system_id":"levelo_inurba_marseille","lat":43.28032,"lon":5.36946,"is_reserved":false,"is_disabled":false,"rental_uris":{"android":"levelo://app?vid=ba76bde8-4837-48f2-a654-89f03ceb034e","ios":"levelo://app?vid=ba76bde8-4837-48f2-a654-89f03ceb034e"},"vehicle_type_id":"4","last_reported":1727925328,"current_range_meters":19600,"station_id":"ce4bha12rcd13ifvqef0","pricing_plan_id":"cebpf4jnsgd1na2vs0mg"},{"bike_id":"64dc80aa-3c56-4860-abae-517dc9e34990","system_id":"levelo_inurba_marseille","lat":43.28411,"lon":5.3751,"is_reserved":false,"is_disabled":false,"rental_uris":{"android":"levelo://app?vid=64dc80aa-3c56-4860-abae-517dc9e34990","ios":"levelo://app?vid=64dc80aa-3c56-4860-abae-517dc9e34990"},"vehicle_type_id":"4","last_reported":1727925328,"current_range_meters":3200,"station_id":"ce4bh412rcd13ifvqds0","pricing_plan_id":"cebpf4jnsgd1na2vs0mg"},{"bike_id":"e37eb050-aec1-4959-aa63-8219d0b7cd60","system_id":"levelo_inurba_marseille","lat":43.27812,"lon":5.40719,"is_reserved":false,"is_disabled":false,"rental_uris":{"android":"levelo://app?vid=e37eb050-aec1-4959-aa63-8219d0b7cd60","ios":"levelo://app?vid=e37eb050-aec1-4959-aa63-8219d0b7cd60"},"vehicle_type_id":"4","last_reported":1727925328,"current_range_meters":22800,"station_id":"ce4bhnh2rcd13ifvqgtg","pricing_plan_id":"cebpf4jnsgd1na2vs0mg"},{"bike_id":"123ff6ed-4385-4a10-999b-eb298bcab43c","system_id":"levelo_inurba_marseille","lat":43.33019,"lon":5.39037,"is_reserved":false,"is_disabled":false,"rental_uris":{"android":"levelo://app?vid=123ff6ed-4385-4a10-999b-eb298bcab43c","ios":"levelo://app?vid=123ff6ed-4385-4a10-999b-eb298bcab43c"},"vehicle_type_id":"4","last_reported":1727925328,"current_range_meters":38800,"station_id":"ce4bhr92rcd13ifvqhrg","pricing_plan_id":"cebpf4jnsgd1na2vs0mg"},{"bike_id":"a9fb0711-9ff1-467a-971b-ce61ada1f3b0","system_id":"levelo_inurba_marseille","lat":43.28845,"lon":5.35848,"is_reserved":false,"is_disabled":false,"rental_uris":{"android":"levelo://app?vid=a9fb0711-9ff1-467a-971b-ce61ada1f3b0","ios":"levelo://app?vid=a9fb0711-9ff1-467a-971b-ce61ada1f3b0"},"vehicle_type_id":"4","last_reported":1727925328,"current_range_meters":38400,"station_id":"ce4bhb12rcd13ifvqem0","pricing_plan_id":"cebpf4jnsgd1na2vs0mg"},{"bike_id":"64e20bcb-fdaf-4190-a780-c5d3ba0792ae","system_id":"levelo_inurba_marseille","lat":43.29793,"lon":5.40413,"is_reserved":false,"is_disabled":false,"rental_uris":{"android":"levelo://app?vid=64e20bcb-fdaf-4190-a780-c5d3ba0792ae","ios":"levelo://app?vid=64e20bcb-fdaf-4190-a780-c5d3ba0792ae"},"vehicle_type_id":"4","last_reported":1727925328,"current_range_meters":38000,"station_id":"ce4bh112rcd13ifvqd90","pricing_plan_id":"cebpf4jnsgd1na2vs0mg"},{"bike_id":"e42c7e34-1ef1-4d2d-b74a-39a52bccab55","system_id":"levelo_inurba_marseille","lat":43.24985,"lon":5.38935,"is_reserved":false,"is_disabled":false,"rental_uris":{"android":"levelo://app?vid=e42c7e34-1ef1-4d2d-b74a-39a52bccab55","ios":"levelo://app?vid=e42c7e34-1ef1-4d2d-b74a-39a52bccab55"},"vehicle_type_id":"4","last_reported":1727925328,"current_range_meters":31200,"station_id":"ce4bhgp2rcd13ifvqfd0","pricing_plan_id":"cebpf4jnsgd1na2vs0mg"},{"bike_id":"4600ed92-a9fd-4038-9dd3-2f7f99ae9d9b","system_id":"levelo_inurba_marseille","lat":43.24649,"lon":5.38897,"is_reserved":false,"is_disabled":false,"rental_uris":{"android":"levelo://app?vid=4600ed92-a9fd-4038-9dd3-2f7f99ae9d9b","ios":"levelo://app?vid=4600ed92-a9fd-4038-9dd3-2f7f99ae9d9b"},"vehicle_type_id":"4","last_reported":1727925328,"current_range_meters":24800,"station_id":"ce4bhg12rcd13ifvqf60","pricing_plan_id":"cebpf4jnsgd1na2vs0mg"},{"bike_id":"ad9bd38c-6e21-41e8-8513-132c1c15c21b","system_id":"levelo_inurba_marseille","lat":43.29901,"lon":5.43671,"is_reserved":false,"is_disabled":false,"rental_uris":{"android":"levelo://app?vid=ad9bd38c-6e21-41e8-8513-132c1c15c21b","ios":"levelo://app?vid=ad9bd38c-6e21-41e8-8513-132c1c15c21b"},"vehicle_type_id":"4","last_reported":1727925328,"current_range_meters":20000,"station_id":"ce4bhpp2rcd13ifvqhfg","pricing_plan_id":"cebpf4jnsgd1na2vs0mg"},{"bike_id":"8acb8a62-24a9-468c-99ca-565a01689086","system_id":"levelo_inurba_marseille","lat":43.29246,"lon":5.40913,"is_reserved":false,"is_disabled":false,"rental_uris":{"android":"levelo://app?vid=8acb8a62-24a9-468c-99ca-565a01689086","ios":"levelo://app?vid=8acb8a62-24a9-468c-99ca-565a01689086"},"vehicle_type_id":"4","last_reported":1727925328,"current_range_meters":30400,"station_id":"ce4bh192rcd13ifvqdc0","pricing_plan_id":"cebpf4jnsgd1na2vs0mg"},{"bike_id":"2cb30948-6f1d-479f-a4a2-1b9088c2c486","system_id":"levelo_inurba_marseille","lat":43.284379,"lon":5.391859,"is_reserved":false,"is_disabled":false,"rental_uris":{"android":"levelo://app?vid=2cb30948-6f1d-479f-a4a2-1b9088c2c486","ios":"levelo://app?vid=2cb30948-6f1d-479f-a4a2-1b9088c2c486"},"vehicle_type_id":"4","last_reported":1727925328,"current_range_meters":30800,"station_id":"ce4bhoh2rcd13ifvqh5g","pricing_plan_id":"cebpf4jnsgd1na2vs0mg"},{"bike_id":"e2ee5292-25c5-4711-9098-7259007f2d74","system_id":"levelo_inurba_marseille","lat":43.31117,"lon":5.37771,"is_reserved":false,"is_disabled":false,"rental_uris":{"android":"levelo://app?vid=e2ee5292-25c5-4711-9098-7259007f2d74","ios":"levelo://app?vid=e2ee5292-25c5-4711-9098-7259007f2d74"},"vehicle_type_id":"4","last_reported":1727925328,"current_range_meters":17200,"station_id":"ce4bgt92rcd13ifvqcg0","pricing_plan_id":"cebpf4jnsgd1na2vs0mg"},{"bike_id":"9a2d3eb4-5bb0-446a-b10a-38f2501ad9e5","system_id":"levelo_inurba_marseille","lat":43.28081,"lon":5.39655,"is_reserved":false,"is_disabled":false,"rental_uris":{"android":"levelo://app?vid=9a2d3eb4-5bb0-446a-b10a-38f2501ad9e5","ios":"levelo://app?vid=9a2d3eb4-5bb0-446a-b10a-38f2501ad9e5"},"vehicle_type_id":"4","last_reported":1727925328,"current_range_meters":38800,"station_id":"ce4bho12rcd13ifvqh2g","pricing_plan_id":"cebpf4jnsgd1na2vs0mg"},{"bike_id":"a68a6235-7e79-4685-a3aa-e9eae8b74673","system_id":"levelo_inurba_marseille","lat":43.31754,"lon":5.390121,"is_reserved":false,"is_disabled":false,"rental_uris":{"android":"levelo://app?vid=a68a6235-7e79-4685-a3aa-e9eae8b74673","ios":"levelo://app?vid=a68a6235-7e79-4685-a3aa-e9eae8b74673"},"vehicle_type_id":"4","last_reported":1727925328,"current_range_meters":38400,"station_id":"ce4bhqp2rcd13ifvqhng","pricing_plan_id":"cebpf4jnsgd1na2vs0mg"},{"bike_id":"a292cc6b-0b15-4b33-8f09-f41be692a4eb","system_id":"levelo_inurba_marseille","lat":43.24394,"lon":5.3707,"is_reserved":false,"is_disabled":false,"rental_uris":{"android":"levelo://app?vid=a292cc6b-0b15-4b33-8f09-f41be692a4eb","ios":"levelo://app?vid=a292cc6b-0b15-4b33-8f09-f41be692a4eb"},"vehicle_type_id":"4","last_reported":1727925328,"current_range_meters":38800,"station_id":"ce4bhhh2rcd13ifvqfk0","pricing_plan_id":"cebpf4jnsgd1na2vs0mg"},{"bike_id":"16064f74-3613-4fe2-9a57-457e6e8d81c5","system_id":"levelo_inurba_marseille","lat":43.3171,"lon":5.43699,"is_reserved":false,"is_disabled":false,"rental_uris":{"android":"levelo://app?vid=16064f74-3613-4fe2-9a57-457e6e8d81c5","ios":"levelo://app?vid=16064f74-3613-4fe2-9a57-457e6e8d81c5"},"vehicle_type_id":"4","last_reported":1727925328,"current_range_meters":39200,"station_id":"ce4bhp92rcd13ifvqhcg","pricing_plan_id":"cebpf4jnsgd1na2vs0mg"},{"bike_id":"d9c2381b-f5b4-4f9c-adb6-506d987db672","system_id":"levelo_inurba_marseille","lat":43.28657,"lon":5.3635,"is_reserved":false,"is_disabled":false,"rental_uris":{"android":"levelo://app?vid=d9c2381b-f5b4-4f9c-adb6-506d987db672","ios":"levelo://app?vid=d9c2381b-f5b4-4f9c-adb6-506d987db672"},"vehicle_type_id":"4","last_reported":1727925328,"current_range_meters":7200,"station_id":"ce4bhah2rcd13ifvqej0","pricing_plan_id":"cebpf4jnsgd1na2vs0mg"},{"bike_id":"32fc2753-529a-4d3f-9dea-dc7b52e35d15","system_id":"levelo_inurba_marseille","lat":43.306431,"lon":5.400766,"is_reserved":false,"is_disabled":false,"rental_uris":{"android":"levelo://app?vid=32fc2753-529a-4d3f-9dea-dc7b52e35d15","ios":"levelo://app?vid=32fc2753-529a-4d3f-9dea-dc7b52e35d15"},"vehicle_type_id":"4","last_reported":1727925328,"current_range_meters":37600,"station_id":"ce4bh112rcd13ifvqda0","pricing_plan_id":"cebpf4jnsgd1na2vs0mg"},{"bike_id":"3cf74a3f-8222-4d03-b2e6-c9d25d38cf35","system_id":"levelo_inurba_marseille","lat":43.25005,"lon":5.38928,"is_reserved":false,"is_disabled":false,"rental_uris":{"android":"levelo://app?vid=3cf74a3f-8222-4d03-b2e6-c9d25d38cf35","ios":"levelo://app?vid=3cf74a3f-8222-4d03-b2e6-c9d25d38cf35"},"vehicle_type_id":"4","last_reported":1727925328,"current_range_meters":38000,"station_id":"ce4bhgp2rcd13ifvqfd0","pricing_plan_id":"cebpf4jnsgd1na2vs0mg"},{"bike_id":"df35103d-0afb-4a29-bcb0-3d33b933f0f7","system_id":"levelo_inurba_marseille","lat":43.30553,"lon":5.36695,"is_reserved":false,"is_disabled":false,"rental_uris":{"android":"levelo://app?vid=df35103d-0afb-4a29-bcb0-3d33b933f0f7","ios":"levelo://app?vid=df35103d-0afb-4a29-bcb0-3d33b933f0f7"},"vehicle_type_id":"4","last_reported":1727925328,"current_range_meters":38800,"station_id":"ce4bgrp2rcd13ifvqc9g","pricing_plan_id":"cebpf4jnsgd1na2vs0mg"},{"bike_id":"734a8f00-2cca-4391-9762-11ecc8542eea","system_id":"levelo_inurba_marseille","lat":43.2871,"lon":5.39991,"is_reserved":false,"is_disabled":false,"rental_uris":{"android":"levelo://app?vid=734a8f00-2cca-4391-9762-11ecc8542eea","ios":"levelo://app?vid=734a8f00-2cca-4391-9762-11ecc8542eea"},"vehicle_type_id":"4","last_reported":1727925328,"current_range_meters":9600,"station_id":"ce4bho92rcd13ifvqh3g","pricing_plan_id":"cebpf4jnsgd1na2vs0mg"},{"bike_id":"50fd90fe-2219-4f2e-9ba5-06d593c1eb24","system_id":"levelo_inurba_marseille","lat":43.30803,"lon":5.38159,"is_reserved":false,"is_disabled":false,"rental_uris":{"android":"levelo://app?vid=50fd90fe-2219-4f2e-9ba5-06d593c1eb24","ios":"levelo://app?vid=50fd90fe-2219-4f2e-9ba5-06d593c1eb24"},"vehicle_type_id":"4","last_reported":1727925328,"current_range_meters":38000,"station_id":"ce4bgt12rcd13ifvqce0","pricing_plan_id":"cebpf4jnsgd1na2vs0mg"},{"bike_id":"de302269-fdda-4ef3-9935-87f4834e17d5","system_id":"levelo_inurba_marseille","lat":43.25929,"lon":5.40915,"is_reserved":false,"is_disabled":false,"rental_uris":{"android":"levelo://app?vid=de302269-fdda-4ef3-9935-87f4834e17d5","ios":"levelo://app?vid=de302269-fdda-4ef3-9935-87f4834e17d5"},"vehicle_type_id":"4","last_reported":1727925328,"current_range_meters":10800,"station_id":"ce4bhm92rcd13ifvqglg","pricing_plan_id":"cebpf4jnsgd1na2vs0mg"},{"bike_id":"0c96b1bb-428c-438b-9e93-a7688a1db556","system_id":"levelo_inurba_marseille","lat":43.317632,"lon":5.390177,"is_reserved":false,"is_disabled":false,"rental_uris":{"android":"levelo://app?vid=0c96b1bb-428c-438b-9e93-a7688a1db556","ios":"levelo://app?vid=0c96b1bb-428c-438b-9e93-a7688a1db556"},"vehicle_type_id":"4","last_reported":1727925328,"current_range_meters":37600,"station_id":"ce4bhqp2rcd13ifvqhng","pricing_plan_id":"cebpf4jnsgd1na2vs0mg"},{"bike_id":"5903311c-739a-4031-8184-58a01e82a451","system_id":"levelo_inurba_marseille","lat":43.30928,"lon":5.40149,"is_reserved":false,"is_disabled":false,"rental_uris":{"android":"levelo://app?vid=5903311c-739a-4031-8184-58a01e82a451","ios":"levelo://app?vid=5903311c-739a-4031-8184-58a01e82a451"},"vehicle_type_id":"4","last_reported":1727925328,"current_range_meters":38800,"station_id":"ce4bgvp2rcd13ifvqct0","pricing_plan_id":"cebpf4jnsgd1na2vs0mg"},{"bike_id":"ef533dc3-c49c-49e1-91dd-5eecd6f5cee8","system_id":"levelo_inurba_marseille","lat":43.30779,"lon":5.3765,"is_reserved":false,"is_disabled":false,"rental_uris":{"android":"levelo://app?vid=ef533dc3-c49c-49e1-91dd-5eecd6f5cee8","ios":"levelo://app?vid=ef533dc3-c49c-49e1-91dd-5eecd6f5cee8"},"vehicle_type_id":"4","last_reported":1727925328,"current_range_meters":38800,"station_id":"ce4bgv92rcd13ifvqcq0","pricing_plan_id":"cebpf4jnsgd1na2vs0mg"},{"bike_id":"5bd58d62-3e59-4583-9f27-c2849b27bd5c","system_id":"levelo_inurba_marseille","lat":43.24176,"lon":5.39729,"is_reserved":false,"is_disabled":false,"rental_uris":{"android":"levelo://app?vid=5bd58d62-3e59-4583-9f27-c2849b27bd5c","ios":"levelo://app?vid=5bd58d62-3e59-4583-9f27-c2849b27bd5c"},"vehicle_type_id":"4","last_reported":1727925328,"current_range_meters":36000,"station_id":"ce4bhn12rcd13ifvqgpg","pricing_plan_id":"cebpf4jnsgd1na2vs0mg"},{"bike_id":"bceeceef-28be-4631-befc-7ca2509a7015","system_id":"levelo_inurba_marseille","lat":43.28861,"lon":5.35836,"is_reserved":false,"is_disabled":false,"rental_uris":{"android":"levelo://app?vid=bceeceef-28be-4631-befc-7ca2509a7015","ios":"levelo://app?vid=bceeceef-28be-4631-befc-7ca2509a7015"},"vehicle_type_id":"4","last_reported":1727925328,"current_range_meters":24800,"station_id":"ce4bhb12rcd13ifvqem0","pricing_plan_id":"cebpf4jnsgd1na2vs0mg"},{"bike_id":"e7ae0dc0-5598-4e02-a871-08c8b439b884","system_id":"levelo_inurba_marseille","lat":43.26939,"lon":5.40252,"is_reserved":false,"is_disabled":false,"rental_uris":{"android":"levelo://app?vid=e7ae0dc0-5598-4e02-a871-08c8b439b884","ios":"levelo://app?vid=e7ae0dc0-5598-4e02-a871-08c8b439b884"},"vehicle_type_id":"4","last_reported":1727925328,"current_range_meters":30400,"station_id":"cjm6bp8fraef2m0cb0m0","pricing_plan_id":"cebpf4jnsgd1na2vs0mg"},{"bike_id":"48d2fe06-7dd5-41c5-b20a-3fa66b6138ba","system_id":"levelo_inurba_marseille","lat":43.31356,"lon":5.38508,"is_reserved":false,"is_disabled":false,"rental_uris":{"android":"levelo://app?vid=48d2fe06-7dd5-41c5-b20a-3fa66b6138ba","ios":"levelo://app?vid=48d2fe06-7dd5-41c5-b20a-3fa66b6138ba"},"vehicle_type_id":"4","last_reported":1727925328,"current_range_meters":38400,"station_id":"ce4bgt92rcd13ifvqcf0","pricing_plan_id":"cebpf4jnsgd1na2vs0mg"},{"bike_id":"5ab8bb2d-3e12-40fd-98ed-82966c4862f1","system_id":"levelo_inurba_marseille","lat":43.320383,"lon":5.415475,"is_reserved":false,"is_disabled":false,"rental_uris":{"android":"levelo://app?vid=5ab8bb2d-3e12-40fd-98ed-82966c4862f1","ios":"levelo://app?vid=5ab8bb2d-3e12-40fd-98ed-82966c4862f1"},"vehicle_type_id":"4","last_reported":1727925328,"current_range_meters":38800,"station_id":"ce4bhq92rcd13ifvqhkg","pricing_plan_id":"cebpf4jnsgd1na2vs0mg"},{"bike_id":"45616239-f887-4b93-960c-cb4018bee533","system_id":"levelo_inurba_marseille","lat":43.3137,"lon":5.385,"is_reserved":false,"is_disabled":false,"rental_uris":{"android":"levelo://app?vid=45616239-f887-4b93-960c-cb4018bee533","ios":"levelo://app?vid=45616239-f887-4b93-960c-cb4018bee533"},"vehicle_type_id":"4","last_reported":1727925328,"current_range_meters":8000,"station_id":"ce4bgt92rcd13ifvqcf0","pricing_plan_id":"cebpf4jnsgd1na2vs0mg"},{"bike_id":"56541361-4447-4de9-b386-73b376944d02","system_id":"levelo_inurba_marseille","lat":43.28702,"lon":5.37391,"is_reserved":false,"is_disabled":false,"rental_uris":{"android":"levelo://app?vid=56541361-4447-4de9-b386-73b376944d02","ios":"levelo://app?vid=56541361-4447-4de9-b386-73b376944d02"},"vehicle_type_id":"4","last_reported":1727925328,"current_range_meters":38400,"station_id":"ce4bh3p2rcd13ifvqdq0","pricing_plan_id":"cebpf4jnsgd1na2vs0mg"},{"bike_id":"43f49d82-631b-4935-835c-5bba04851cb5","system_id":"levelo_inurba_marseille","lat":43.31527,"lon":5.38035,"is_reserved":false,"is_disabled":false,"rental_uris":{"android":"levelo://app?vid=43f49d82-631b-4935-835c-5bba04851cb5","ios":"levelo://app?vid=43f49d82-631b-4935-835c-5bba04851cb5"},"vehicle_type_id":"4","last_reported":1727925328,"current_range_meters":38400,"station_id":"ce4bhsp2rcd13ifvqi50","pricing_plan_id":"cebpf4jnsgd1na2vs0mg"},{"bike_id":"335c7a89-1d55-4ce1-b241-42587a78fd1b","system_id":"levelo_inurba_marseille","lat":43.25585,"lon":5.38237,"is_reserved":false,"is_disabled":false,"rental_uris":{"android":"levelo://app?vid=335c7a89-1d55-4ce1-b241-42587a78fd1b","ios":"levelo://app?vid=335c7a89-1d55-4ce1-b241-42587a78fd1b"},"vehicle_type_id":"4","last_reported":1727925328,"current_range_meters":38800,"station_id":"ce4bhih2rcd13ifvqfs0","pricing_plan_id":"cebpf4jnsgd1na2vs0mg"},{"bike_id":"89de8b30-dee7-40bc-9995-cbd806707f09","system_id":"levelo_inurba_marseille","lat":43.30429,"lon":5.38894,"is_reserved":false,"is_disabled":false,"rental_uris":{"android":"levelo://app?vid=89de8b30-dee7-40bc-9995-cbd806707f09","ios":"levelo://app?vid=89de8b30-dee7-40bc-9995-cbd806707f09"},"vehicle_type_id":"4","last_reported":1727925328,"current_range_meters":37600,"station_id":"ce4bgk12rcd13ifvqbi0","pricing_plan_id":"cebpf4jnsgd1na2vs0mg"},{"bike_id":"24d405d8-d4b8-45f4-b763-bdf578f4da9b","system_id":"levelo_inurba_marseille","lat":43.29261,"lon":5.40902,"is_reserved":false,"is_disabled":false,"rental_uris":{"android":"levelo://app?vid=24d405d8-d4b8-45f4-b763-bdf578f4da9b","ios":"levelo://app?vid=24d405d8-d4b8-45f4-b763-bdf578f4da9b"},"vehicle_type_id":"4","last_reported":1727925328,"current_range_meters":6400,"station_id":"ce4bh192rcd13ifvqdc0","pricing_plan_id":"cebpf4jnsgd1na2vs0mg"},{"bike_id":"df81b8be-bc2a-4833-b316-2db6ce688d25","system_id":"levelo_inurba_marseille","lat":43.30782,"lon":5.3766,"is_reserved":false,"is_disabled":false,"rental_uris":{"android":"levelo://app?vid=df81b8be-bc2a-4833-b316-2db6ce688d25","ios":"levelo://app?vid=df81b8be-bc2a-4833-b316-2db6ce688d25"},"vehicle_type_id":"4","last_reported":1727925328,"current_range_meters":24800,"station_id":"ce4bgv92rcd13ifvqcq0","pricing_plan_id":"cebpf4jnsgd1na2vs0mg"},{"bike_id":"fd871d04-a680-42cb-a3fb-3fd47f40406d","system_id":"levelo_inurba_marseille","lat":43.26493,"lon":5.39557,"is_reserved":false,"is_disabled":false,"rental_uris":{"android":"levelo://app?vid=fd871d04-a680-42cb-a3fb-3fd47f40406d","ios":"levelo://app?vid=fd871d04-a680-42cb-a3fb-3fd47f40406d"},"vehicle_type_id":"4","last_reported":1727925328,"current_range_meters":34800,"station_id":"ce4bhi12rcd13ifvqfq0","pricing_plan_id":"cebpf4jnsgd1na2vs0mg"},{"bike_id":"a981706a-1e93-4cb5-82c3-0f855ab7a1f6","system_id":"levelo_inurba_marseille","lat":43.27812,"lon":5.40711,"is_reserved":false,"is_disabled":false,"rental_uris":{"android":"levelo://app?vid=a981706a-1e93-4cb5-82c3-0f855ab7a1f6","ios":"levelo://app?vid=a981706a-1e93-4cb5-82c3-0f855ab7a1f6"},"vehicle_type_id":"4","last_reported":1727925328,"current_range_meters":31200,"station_id":"ce4bhnh2rcd13ifvqgtg","pricing_plan_id":"cebpf4jnsgd1na2vs0mg"},{"bike_id":"b482df99-7ee8-4eea-8d8b-1d22667db679","system_id":"levelo_inurba_marseille","lat":43.29343,"lon":5.42841,"is_reserved":false,"is_disabled":false,"rental_uris":{"android":"levelo://app?vid=b482df99-7ee8-4eea-8d8b-1d22667db679","ios":"levelo://app?vid=b482df99-7ee8-4eea-8d8b-1d22667db679"},"vehicle_type_id":"4","last_reported":1727925328,"current_range_meters":18000,"station_id":"","pricing_plan_id":"cebpf4jnsgd1na2vs0mg"},{"bike_id":"a55c725a-9129-4efc-8da2-729024ee5734","system_id":"levelo_inurba_marseille","lat":43.31896,"lon":5.40745,"is_reserved":false,"is_disabled":false,"rental_uris":{"android":"levelo://app?vid=a55c725a-9129-4efc-8da2-729024ee5734","ios":"levelo://app?vid=a55c725a-9129-4efc-8da2-729024ee5734"},"vehicle_type_id":"4","last_reported":1727925328,"current_range_meters":38400,"station_id":"ce4bhq12rcd13ifvqhig","pricing_plan_id":"cebpf4jnsgd1na2vs0mg"},{"bike_id":"6ff24b42-9160-487d-92f8-33f8e63bd813","system_id":"levelo_inurba_marseille","lat":43.27327,"lon":5.3911,"is_reserved":false,"is_disabled":false,"rental_uris":{"android":"levelo://app?vid=6ff24b42-9160-487d-92f8-33f8e63bd813","ios":"levelo://app?vid=6ff24b42-9160-487d-92f8-33f8e63bd813"},"vehicle_type_id":"4","last_reported":1727925328,"current_range_meters":28000,"station_id":"ce4bhgp2rcd13ifvqfe0","pricing_plan_id":"cebpf4jnsgd1na2vs0mg"},{"bike_id":"06923303-6f5c-4517-9e3e-a22a202abf46","system_id":"levelo_inurba_marseille","lat":43.30882,"lon":5.39648,"is_reserved":false,"is_disabled":false,"rental_uris":{"android":"levelo://app?vid=06923303-6f5c-4517-9e3e-a22a202abf46","ios":"levelo://app?vid=06923303-6f5c-4517-9e3e-a22a202abf46"},"vehicle_type_id":"4","last_reported":1727925328,"current_range_meters":35200,"station_id":"ce4bh012rcd13ifvqcv0","pricing_plan_id":"cebpf4jnsgd1na2vs0mg"},{"bike_id":"2cc81f27-2967-4413-8a3a-1aab9ee706d3","system_id":"levelo_inurba_marseille","lat":43.31724,"lon":5.42406,"is_reserved":false,"is_disabled":false,"rental_uris":{"android":"levelo://app?vid=2cc81f27-2967-4413-8a3a-1aab9ee706d3","ios":"levelo://app?vid=2cc81f27-2967-4413-8a3a-1aab9ee706d3"},"vehicle_type_id":"4","last_reported":1727925328,"current_range_meters":38800,"station_id":"ce4bhp92rcd13ifvqhbg","pricing_plan_id":"cebpf4jnsgd1na2vs0mg"},{"bike_id":"2396aba7-c99b-4b8e-97f0-cc89734783f1","system_id":"levelo_inurba_marseille","lat":43.26204,"lon":5.37919,"is_reserved":false,"is_disabled":false,"rental_uris":{"android":"levelo://app?vid=2396aba7-c99b-4b8e-97f0-cc89734783f1","ios":"levelo://app?vid=2396aba7-c99b-4b8e-97f0-cc89734783f1"},"vehicle_type_id":"4","last_reported":1727925328,"current_range_meters":28000,"station_id":"ce4bhjp2rcd13ifvqg90","pricing_plan_id":"cebpf4jnsgd1na2vs0mg"},{"bike_id":"e146ad62-4f4b-4aaf-a6f4-3dc7cee5ad03","system_id":"levelo_inurba_marseille","lat":43.25116,"lon":5.40323,"is_reserved":false,"is_disabled":false,"rental_uris":{"android":"levelo://app?vid=e146ad62-4f4b-4aaf-a6f4-3dc7cee5ad03","ios":"levelo://app?vid=e146ad62-4f4b-4aaf-a6f4-3dc7cee5ad03"},"vehicle_type_id":"4","last_reported":1727925328,"current_range_meters":36000,"station_id":"ce4bhlh2rcd13ifvqgig","pricing_plan_id":"cebpf4jnsgd1na2vs0mg"},{"bike_id":"786c53af-afa9-47b0-a1b1-5d330f6015d9","system_id":"levelo_inurba_marseille","lat":43.28849,"lon":5.35844,"is_reserved":false,"is_disabled":false,"rental_uris":{"android":"levelo://app?vid=786c53af-afa9-47b0-a1b1-5d330f6015d9","ios":"levelo://app?vid=786c53af-afa9-47b0-a1b1-5d330f6015d9"},"vehicle_type_id":"4","last_reported":1727925328,"current_range_meters":26000,"station_id":"ce4bhb12rcd13ifvqem0","pricing_plan_id":"cebpf4jnsgd1na2vs0mg"},{"bike_id":"0ed9de7d-aa21-4211-ae93-47394a9486c4","system_id":"levelo_inurba_marseille","lat":43.28263,"lon":5.35064,"is_reserved":false,"is_disabled":false,"rental_uris":{"android":"levelo://app?vid=0ed9de7d-aa21-4211-ae93-47394a9486c4","ios":"levelo://app?vid=0ed9de7d-aa21-4211-ae93-47394a9486c4"},"vehicle_type_id":"4","last_reported":1727925328,"current_range_meters":38800,"station_id":"ce4bhbp2rcd13ifvqerg","pricing_plan_id":"cebpf4jnsgd1na2vs0mg"},{"bike_id":"53c6fe7a-c5f0-4c29-bdb6-08c6c7db5c71","system_id":"levelo_inurba_marseille","lat":43.32073,"lon":5.36758,"is_reserved":false,"is_disabled":false,"rental_uris":{"android":"levelo://app?vid=53c6fe7a-c5f0-4c29-bdb6-08c6c7db5c71","ios":"levelo://app?vid=53c6fe7a-c5f0-4c29-bdb6-08c6c7db5c71"},"vehicle_type_id":"4","last_reported":1727925328,"current_range_meters":12000,"station_id":"ce4bhrh2rcd13ifvqhug","pricing_plan_id":"cebpf4jnsgd1na2vs0mg"},{"bike_id":"6b32807b-ae22-4b34-9796-2fc06a7fd84d","system_id":"levelo_inurba_marseille","lat":43.31366,"lon":5.38495,"is_reserved":false,"is_disabled":false,"rental_uris":{"android":"levelo://app?vid=6b32807b-ae22-4b34-9796-2fc06a7fd84d","ios":"levelo://app?vid=6b32807b-ae22-4b34-9796-2fc06a7fd84d"},"vehicle_type_id":"4","last_reported":1727925328,"current_range_meters":37600,"station_id":"ce4bgt92rcd13ifvqcf0","pricing_plan_id":"cebpf4jnsgd1na2vs0mg"},{"bike_id":"fdffcd2a-b482-44df-942d-cfe2a397ea62","system_id":"levelo_inurba_marseille","lat":43.28358,"lon":5.38103,"is_reserved":false,"is_disabled":false,"rental_uris":{"android":"levelo://app?vid=fdffcd2a-b482-44df-942d-cfe2a397ea62","ios":"levelo://app?vid=fdffcd2a-b482-44df-942d-cfe2a397ea62"},"vehicle_type_id":"4","last_reported":1727925328,"current_range_meters":15200,"station_id":"","pricing_plan_id":"cebpf4jnsgd1na2vs0mg"},{"bike_id":"e95c44e3-8353-4e31-8a0a-4b78de08c376","system_id":"levelo_inurba_marseille","lat":43.31173,"lon":5.38718,"is_reserved":false,"is_disabled":false,"rental_uris":{"android":"levelo://app?vid=e95c44e3-8353-4e31-8a0a-4b78de08c376","ios":"levelo://app?vid=e95c44e3-8353-4e31-8a0a-4b78de08c376"},"vehicle_type_id":"4","last_reported":1727925328,"current_range_meters":24400,"station_id":"ce4bgv12rcd13ifvqcp0","pricing_plan_id":"cebpf4jnsgd1na2vs0mg"},{"bike_id":"6ce60676-3f86-4aaa-a5df-572436c32ad4","system_id":"levelo_inurba_marseille","lat":43.23195,"lon":5.35555,"is_reserved":false,"is_disabled":false,"rental_uris":{"android":"levelo://app?vid=6ce60676-3f86-4aaa-a5df-572436c32ad4","ios":"levelo://app?vid=6ce60676-3f86-4aaa-a5df-572436c32ad4"},"vehicle_type_id":"4","last_reported":1727925328,"current_range_meters":22400,"station_id":"ce4bhu92rcd13ifvqi70","pricing_plan_id":"cebpf4jnsgd1na2vs0mg"},{"bike_id":"6a8178a3-fd76-4731-8f30-7d25bc176586","system_id":"levelo_inurba_marseille","lat":43.25868,"lon":5.39903,"is_reserved":false,"is_disabled":false,"rental_uris":{"android":"levelo://app?vid=6a8178a3-fd76-4731-8f30-7d25bc176586","ios":"levelo://app?vid=6a8178a3-fd76-4731-8f30-7d25bc176586"},"vehicle_type_id":"4","last_reported":1727925328,"current_range_meters":30000,"station_id":"ce4bhl92rcd13ifvqghg","pricing_plan_id":"cebpf4jnsgd1na2vs0mg"},{"bike_id":"1def21d1-435f-4803-8b06-3978ff507c93","system_id":"levelo_inurba_marseille","lat":43.33729,"lon":5.39185,"is_reserved":false,"is_disabled":false,"rental_uris":{"android":"levelo://app?vid=1def21d1-435f-4803-8b06-3978ff507c93","ios":"levelo://app?vid=1def21d1-435f-4803-8b06-3978ff507c93"},"vehicle_type_id":"4","last_reported":1727925328,"current_range_meters":38800,"station_id":"ce4bhr92rcd13ifvqhsg","pricing_plan_id":"cebpf4jnsgd1na2vs0mg"},{"bike_id":"e726e3e6-6d3c-409a-8031-ffb19dbca9fc","system_id":"levelo_inurba_marseille","lat":43.31692,"lon":5.40465,"is_reserved":false,"is_disabled":false,"rental_uris":{"android":"levelo://app?vid=e726e3e6-6d3c-409a-8031-ffb19dbca9fc","ios":"levelo://app?vid=e726e3e6-6d3c-409a-8031-ffb19dbca9fc"},"vehicle_type_id":"4","last_reported":1727925328,"current_range_meters":38800,"station_id":"ce4bh012rcd13ifvqd00","pricing_plan_id":"cebpf4jnsgd1na2vs0mg"},{"bike_id":"06628443-07e2-4b30-a691-cb684c31ea43","system_id":"levelo_inurba_marseille","lat":43.23966,"lon":5.36644,"is_reserved":false,"is_disabled":false,"rental_uris":{"android":"levelo://app?vid=06628443-07e2-4b30-a691-cb684c31ea43","ios":"levelo://app?vid=06628443-07e2-4b30-a691-cb684c31ea43"},"vehicle_type_id":"4","last_reported":1727925328,"current_range_meters":38800,"station_id":"ce4bhi12rcd13ifvqfp0","pricing_plan_id":"cebpf4jnsgd1na2vs0mg"},{"bike_id":"e08f994a-560a-4d82-9e2b-bae6d27d58c9","system_id":"levelo_inurba_marseille","lat":43.2512,"lon":5.40326,"is_reserved":false,"is_disabled":false,"rental_uris":{"android":"levelo://app?vid=e08f994a-560a-4d82-9e2b-bae6d27d58c9","ios":"levelo://app?vid=e08f994a-560a-4d82-9e2b-bae6d27d58c9"},"vehicle_type_id":"4","last_reported":1727925328,"current_range_meters":38800,"station_id":"ce4bhlh2rcd13ifvqgig","pricing_plan_id":"cebpf4jnsgd1na2vs0mg"},{"bike_id":"15bc2474-416b-4ea7-ae8a-edd4eaaadae5","system_id":"levelo_inurba_marseille","lat":43.31531,"lon":5.38041,"is_reserved":false,"is_disabled":false,"rental_uris":{"android":"levelo://app?vid=15bc2474-416b-4ea7-ae8a-edd4eaaadae5","ios":"levelo://app?vid=15bc2474-416b-4ea7-ae8a-edd4eaaadae5"},"vehicle_type_id":"4","last_reported":1727925328,"current_range_meters":6800,"station_id":"ce4bhsp2rcd13ifvqi50","pricing_plan_id":"cebpf4jnsgd1na2vs0mg"},{"bike_id":"ac73cba3-67ac-49e6-9911-c708fff7cfd4","system_id":"levelo_inurba_marseille","lat":43.330208,"lon":5.39036,"is_reserved":false,"is_disabled":false,"rental_uris":{"android":"levelo://app?vid=ac73cba3-67ac-49e6-9911-c708fff7cfd4","ios":"levelo://app?vid=ac73cba3-67ac-49e6-9911-c708fff7cfd4"},"vehicle_type_id":"4","last_reported":1727925328,"current_range_meters":38000,"station_id":"ce4bhr92rcd13ifvqhrg","pricing_plan_id":"cebpf4jnsgd1na2vs0mg"},{"bike_id":"ca23c6a9-96c0-4a71-99e6-daa0b5177f4d","system_id":"levelo_inurba_marseille","lat":43.28931,"lon":5.384,"is_reserved":false,"is_disabled":false,"rental_uris":{"android":"levelo://app?vid=ca23c6a9-96c0-4a71-99e6-daa0b5177f4d","ios":"levelo://app?vid=ca23c6a9-96c0-4a71-99e6-daa0b5177f4d"},"vehicle_type_id":"4","last_reported":1727925328,"current_range_meters":38800,"station_id":"ce4bh612rcd13ifvqe6g","pricing_plan_id":"cebpf4jnsgd1na2vs0mg"},{"bike_id":"7f57a063-b902-43c6-82a9-632084807c72","system_id":"levelo_inurba_marseille","lat":43.28934,"lon":5.36398,"is_reserved":false,"is_disabled":false,"rental_uris":{"android":"levelo://app?vid=7f57a063-b902-43c6-82a9-632084807c72","ios":"levelo://app?vid=7f57a063-b902-43c6-82a9-632084807c72"},"vehicle_type_id":"4","last_reported":1727925328,"current_range_meters":38800,"station_id":"ce4bhc92rcd13ifvqetg","pricing_plan_id":"cebpf4jnsgd1na2vs0mg"},{"bike_id":"52919348-68a3-4d50-a4fd-b98befc7396b","system_id":"levelo_inurba_marseille","lat":43.31117,"lon":5.37779,"is_reserved":false,"is_disabled":false,"rental_uris":{"android":"levelo://app?vid=52919348-68a3-4d50-a4fd-b98befc7396b","ios":"levelo://app?vid=52919348-68a3-4d50-a4fd-b98befc7396b"},"vehicle_type_id":"4","last_reported":1727925328,"current_range_meters":38800,"station_id":"ce4bgt92rcd13ifvqcg0","pricing_plan_id":"cebpf4jnsgd1na2vs0mg"},{"bike_id":"6a761229-3c92-441b-bc03-51a8f126d929","system_id":"levelo_inurba_marseille","lat":43.30636,"lon":5.40098,"is_reserved":false,"is_disabled":false,"rental_uris":{"android":"levelo://app?vid=6a761229-3c92-441b-bc03-51a8f126d929","ios":"levelo://app?vid=6a761229-3c92-441b-bc03-51a8f126d929"},"vehicle_type_id":"4","last_reported":1727925328,"current_range_meters":39200,"station_id":"ce4bh112rcd13ifvqda0","pricing_plan_id":"cebpf4jnsgd1na2vs0mg"},{"bike_id":"1afa427e-14c3-4790-839f-347e738fba63","system_id":"levelo_inurba_marseille","lat":43.29198,"lon":5.35803,"is_reserved":false,"is_disabled":false,"rental_uris":{"android":"levelo://app?vid=1afa427e-14c3-4790-839f-347e738fba63","ios":"levelo://app?vid=1afa427e-14c3-4790-839f-347e738fba63"},"vehicle_type_id":"4","last_reported":1727925328,"current_range_meters":37600,"station_id":"ce4bhb12rcd13ifvqel0","pricing_plan_id":"cebpf4jnsgd1na2vs0mg"},{"bike_id":"3f52831f-d1ca-4522-99f2-ca762dcd1821","system_id":"levelo_inurba_marseille","lat":43.317587,"lon":5.390181,"is_reserved":false,"is_disabled":false,"rental_uris":{"android":"levelo://app?vid=3f52831f-d1ca-4522-99f2-ca762dcd1821","ios":"levelo://app?vid=3f52831f-d1ca-4522-99f2-ca762dcd1821"},"vehicle_type_id":"4","last_reported":1727925328,"current_range_meters":37600,"station_id":"ce4bhqp2rcd13ifvqhng","pricing_plan_id":"cebpf4jnsgd1na2vs0mg"},{"bike_id":"1edc7b98-f3bf-4931-bd48-3a6026d28bdc","system_id":"levelo_inurba_marseille","lat":43.282405,"lon":5.394959,"is_reserved":false,"is_disabled":false,"rental_uris":{"android":"levelo://app?vid=1edc7b98-f3bf-4931-bd48-3a6026d28bdc","ios":"levelo://app?vid=1edc7b98-f3bf-4931-bd48-3a6026d28bdc"},"vehicle_type_id":"4","last_reported":1727925328,"current_range_meters":18000,"station_id":"","pricing_plan_id":"cebpf4jnsgd1na2vs0mg"},{"bike_id":"c9bcc9ec-20e5-4c17-8296-b338afd0a143","system_id":"levelo_inurba_marseille","lat":43.28411,"lon":5.37523,"is_reserved":false,"is_disabled":false,"rental_uris":{"android":"levelo://app?vid=c9bcc9ec-20e5-4c17-8296-b338afd0a143","ios":"levelo://app?vid=c9bcc9ec-20e5-4c17-8296-b338afd0a143"},"vehicle_type_id":"4","last_reported":1727925328,"current_range_meters":14000,"station_id":"ce4bh412rcd13ifvqds0","pricing_plan_id":"cebpf4jnsgd1na2vs0mg"},{"bike_id":"88f6b72c-f048-4d55-8593-a5609d8eb13f","system_id":"levelo_inurba_marseille","lat":43.31702,"lon":5.40473,"is_reserved":false,"is_disabled":false,"rental_uris":{"android":"levelo://app?vid=88f6b72c-f048-4d55-8593-a5609d8eb13f","ios":"levelo://app?vid=88f6b72c-f048-4d55-8593-a5609d8eb13f"},"vehicle_type_id":"4","last_reported":1727925328,"current_range_meters":38800,"station_id":"ce4bh012rcd13ifvqd00","pricing_plan_id":"cebpf4jnsgd1na2vs0mg"},{"bike_id":"655618eb-a8ef-4e7c-97c0-fecd3d9fbd1a","system_id":"levelo_inurba_marseille","lat":43.29939,"lon":5.36559,"is_reserved":false,"is_disabled":false,"rental_uris":{"android":"levelo://app?vid=655618eb-a8ef-4e7c-97c0-fecd3d9fbd1a","ios":"levelo://app?vid=655618eb-a8ef-4e7c-97c0-fecd3d9fbd1a"},"vehicle_type_id":"4","last_reported":1727925328,"current_range_meters":23200,"station_id":"ce4bgm92rcd13ifvqbr0","pricing_plan_id":"cebpf4jnsgd1na2vs0mg"},{"bike_id":"8eba8700-4522-463d-bcb5-aa0653ad1026","system_id":"levelo_inurba_marseille","lat":43.32366,"lon":5.38886,"is_reserved":false,"is_disabled":false,"rental_uris":{"android":"levelo://app?vid=8eba8700-4522-463d-bcb5-aa0653ad1026","ios":"levelo://app?vid=8eba8700-4522-463d-bcb5-aa0653ad1026"},"vehicle_type_id":"4","last_reported":1727925328,"current_range_meters":27600,"station_id":"ce4bhqp2rcd13ifvqhog","pricing_plan_id":"cebpf4jnsgd1na2vs0mg"},{"bike_id":"b06966ea-e45c-4a46-8541-5de2c44635b8","system_id":"levelo_inurba_marseille","lat":43.31333,"lon":5.39696,"is_reserved":false,"is_disabled":false,"rental_uris":{"android":"levelo://app?vid=b06966ea-e45c-4a46-8541-5de2c44635b8","ios":"levelo://app?vid=b06966ea-e45c-4a46-8541-5de2c44635b8"},"vehicle_type_id":"4","last_reported":1727925328,"current_range_meters":2000,"station_id":"ce4bgvp2rcd13ifvqcu0","pricing_plan_id":"cebpf4jnsgd1na2vs0mg"},{"bike_id":"74925788-746e-4704-86a3-45ee3bc0ed44","system_id":"levelo_inurba_marseille","lat":43.27985,"lon":5.41659,"is_reserved":false,"is_disabled":false,"rental_uris":{"android":"levelo://app?vid=74925788-746e-4704-86a3-45ee3bc0ed44","ios":"levelo://app?vid=74925788-746e-4704-86a3-45ee3bc0ed44"},"vehicle_type_id":"4","last_reported":1727925328,"current_range_meters":3600,"station_id":"ce4bho12rcd13ifvqh1g","pricing_plan_id":"cebpf4jnsgd1na2vs0mg"},{"bike_id":"d42c1e2f-0120-49d8-8ab6-4a4676c0c0e0","system_id":"levelo_inurba_marseille","lat":43.31319,"lon":5.39699,"is_reserved":false,"is_disabled":false,"rental_uris":{"android":"levelo://app?vid=d42c1e2f-0120-49d8-8ab6-4a4676c0c0e0","ios":"levelo://app?vid=d42c1e2f-0120-49d8-8ab6-4a4676c0c0e0"},"vehicle_type_id":"4","last_reported":1727925328,"current_range_meters":24400,"station_id":"ce4bgvp2rcd13ifvqcu0","pricing_plan_id":"cebpf4jnsgd1na2vs0mg"},{"bike_id":"635eb5e1-962a-48c0-a621-f69ce6106b10","system_id":"levelo_inurba_marseille","lat":43.2904,"lon":5.39974,"is_reserved":false,"is_disabled":false,"rental_uris":{"android":"levelo://app?vid=635eb5e1-962a-48c0-a621-f69ce6106b10","ios":"levelo://app?vid=635eb5e1-962a-48c0-a621-f69ce6106b10"},"vehicle_type_id":"4","last_reported":1727925328,"current_range_meters":38800,"station_id":"ce4bh392rcd13ifvqdm0","pricing_plan_id":"cebpf4jnsgd1na2vs0mg"},{"bike_id":"ab451926-c35c-47e4-9099-c417e33038cb","system_id":"levelo_inurba_marseille","lat":43.31168,"lon":5.38725,"is_reserved":false,"is_disabled":false,"rental_uris":{"android":"levelo://app?vid=ab451926-c35c-47e4-9099-c417e33038cb","ios":"levelo://app?vid=ab451926-c35c-47e4-9099-c417e33038cb"},"vehicle_type_id":"4","last_reported":1727925328,"current_range_meters":37600,"station_id":"ce4bgv12rcd13ifvqcp0","pricing_plan_id":"cebpf4jnsgd1na2vs0mg"},{"bike_id":"12037d13-758e-43ef-a009-730e5bca6f7d","system_id":"levelo_inurba_marseille","lat":43.23178,"lon":5.39995,"is_reserved":false,"is_disabled":false,"rental_uris":{"android":"levelo://app?vid=12037d13-758e-43ef-a009-730e5bca6f7d","ios":"levelo://app?vid=12037d13-758e-43ef-a009-730e5bca6f7d"},"vehicle_type_id":"4","last_reported":1727925328,"current_range_meters":27600,"station_id":"ce4bhn12rcd13ifvqgqg","pricing_plan_id":"cebpf4jnsgd1na2vs0mg"},{"bike_id":"0679c212-7bea-4de2-83cb-36518d2c30db","system_id":"levelo_inurba_marseille","lat":43.27562,"lon":5.3843,"is_reserved":false,"is_disabled":false,"rental_uris":{"android":"levelo://app?vid=0679c212-7bea-4de2-83cb-36518d2c30db","ios":"levelo://app?vid=0679c212-7bea-4de2-83cb-36518d2c30db"},"vehicle_type_id":"4","last_reported":1727925328,"current_range_meters":22000,"station_id":"ce4bhh92rcd13ifvqfi0","pricing_plan_id":"cebpf4jnsgd1na2vs0mg"},{"bike_id":"44a0c29e-f923-49c6-ab58-518e409e8b20","system_id":"levelo_inurba_marseille","lat":43.28652,"lon":5.36359,"is_reserved":false,"is_disabled":false,"rental_uris":{"android":"levelo://app?vid=44a0c29e-f923-49c6-ab58-518e409e8b20","ios":"levelo://app?vid=44a0c29e-f923-49c6-ab58-518e409e8b20"},"vehicle_type_id":"4","last_reported":1727925328,"current_range_meters":17600,"station_id":"ce4bhah2rcd13ifvqej0","pricing_plan_id":"cebpf4jnsgd1na2vs0mg"},{"bike_id":"e1a289e3-9a3b-48ca-8adb-3428ce215cfc","system_id":"levelo_inurba_marseille","lat":43.26204,"lon":5.37927,"is_reserved":false,"is_disabled":false,"rental_uris":{"android":"levelo://app?vid=e1a289e3-9a3b-48ca-8adb-3428ce215cfc","ios":"levelo://app?vid=e1a289e3-9a3b-48ca-8adb-3428ce215cfc"},"vehicle_type_id":"4","last_reported":1727925328,"current_range_meters":38000,"station_id":"ce4bhjp2rcd13ifvqg90","pricing_plan_id":"cebpf4jnsgd1na2vs0mg"},{"bike_id":"211017c6-0c0e-45a6-a868-97b9fedaea9b","system_id":"levelo_inurba_marseille","lat":43.29793,"lon":5.37103,"is_reserved":false,"is_disabled":false,"rental_uris":{"android":"levelo://app?vid=211017c6-0c0e-45a6-a868-97b9fedaea9b","ios":"levelo://app?vid=211017c6-0c0e-45a6-a868-97b9fedaea9b"},"vehicle_type_id":"4","last_reported":1727925328,"current_range_meters":28000,"station_id":"ce4bgop2rcd13ifvqc1g","pricing_plan_id":"cebpf4jnsgd1na2vs0mg"},{"bike_id":"9fa1a744-7c05-4131-85df-e161733c36ce","system_id":"levelo_inurba_marseille","lat":43.28445,"lon":5.39208,"is_reserved":false,"is_disabled":false,"rental_uris":{"android":"levelo://app?vid=9fa1a744-7c05-4131-85df-e161733c36ce","ios":"levelo://app?vid=9fa1a744-7c05-4131-85df-e161733c36ce"},"vehicle_type_id":"4","last_reported":1727925328,"current_range_meters":30800,"station_id":"ce4bhoh2rcd13ifvqh5g","pricing_plan_id":"cebpf4jnsgd1na2vs0mg"},{"bike_id":"f9a001dd-dda8-4793-9023-c66ab8dc3b99","system_id":"levelo_inurba_marseille","lat":43.31707,"lon":5.37734,"is_reserved":false,"is_disabled":false,"rental_uris":{"android":"levelo://app?vid=f9a001dd-dda8-4793-9023-c66ab8dc3b99","ios":"levelo://app?vid=f9a001dd-dda8-4793-9023-c66ab8dc3b99"},"vehicle_type_id":"4","last_reported":1727925328,"current_range_meters":38800,"station_id":"ce4bgth2rcd13ifvqch0","pricing_plan_id":"cebpf4jnsgd1na2vs0mg"},{"bike_id":"ea1ab378-9264-4590-80d3-df62e3711856","system_id":"levelo_inurba_marseille","lat":43.29024,"lon":5.37557,"is_reserved":false,"is_disabled":false,"rental_uris":{"android":"levelo://app?vid=ea1ab378-9264-4590-80d3-df62e3711856","ios":"levelo://app?vid=ea1ab378-9264-4590-80d3-df62e3711856"},"vehicle_type_id":"4","last_reported":1727925328,"current_range_meters":38800,"station_id":"ce4bh692rcd13ifvqe90","pricing_plan_id":"cebpf4jnsgd1na2vs0mg"},{"bike_id":"48842a5b-c5bf-4751-8ac3-44c25278ff49","system_id":"levelo_inurba_marseille","lat":43.28104,"lon":5.37849,"is_reserved":false,"is_disabled":false,"rental_uris":{"android":"levelo://app?vid=48842a5b-c5bf-4751-8ac3-44c25278ff49","ios":"levelo://app?vid=48842a5b-c5bf-4751-8ac3-44c25278ff49"},"vehicle_type_id":"4","last_reported":1727925328,"current_range_meters":38400,"station_id":"ce4bha12rcd13ifvqee0","pricing_plan_id":"cebpf4jnsgd1na2vs0mg"},{"bike_id":"2b769238-5ec5-4162-b52b-987ddf715384","system_id":"levelo_inurba_marseille","lat":43.30801,"lon":5.43523,"is_reserved":false,"is_disabled":false,"rental_uris":{"android":"levelo://app?vid=2b769238-5ec5-4162-b52b-987ddf715384","ios":"levelo://app?vid=2b769238-5ec5-4162-b52b-987ddf715384"},"vehicle_type_id":"4","last_reported":1727925328,"current_range_meters":16000,"station_id":"ce4bhph2rcd13ifvqheg","pricing_plan_id":"cebpf4jnsgd1na2vs0mg"},{"bike_id":"1efcd17a-aa5b-4fdf-b9e7-7220e43dfa50","system_id":"levelo_inurba_marseille","lat":43.28701,"lon":5.37397,"is_reserved":false,"is_disabled":false,"rental_uris":{"android":"levelo://app?vid=1efcd17a-aa5b-4fdf-b9e7-7220e43dfa50","ios":"levelo://app?vid=1efcd17a-aa5b-4fdf-b9e7-7220e43dfa50"},"vehicle_type_id":"4","last_reported":1727925328,"current_range_meters":24800,"station_id":"ce4bh3p2rcd13ifvqdq0","pricing_plan_id":"cebpf4jnsgd1na2vs0mg"},{"bike_id":"27df8249-41f3-4add-9eaa-d179639b7650","system_id":"levelo_inurba_marseille","lat":43.29558,"lon":5.42281,"is_reserved":false,"is_disabled":false,"rental_uris":{"android":"levelo://app?vid=27df8249-41f3-4add-9eaa-d179639b7650","ios":"levelo://app?vid=27df8249-41f3-4add-9eaa-d179639b7650"},"vehicle_type_id":"4","last_reported":1727925328,"current_range_meters":37600,"station_id":"ce4bhph2rcd13ifvqhdg","pricing_plan_id":"cebpf4jnsgd1na2vs0mg"},{"bike_id":"c8e4ff73-620c-4248-92f7-758d5098242c","system_id":"levelo_inurba_marseille","lat":43.22928,"lon":5.35353,"is_reserved":false,"is_disabled":false,"rental_uris":{"android":"levelo://app?vid=c8e4ff73-620c-4248-92f7-758d5098242c","ios":"levelo://app?vid=c8e4ff73-620c-4248-92f7-758d5098242c"},"vehicle_type_id":"4","last_reported":1727925328,"current_range_meters":28800,"station_id":"cpo3532slgdg3j2ikp40","pricing_plan_id":"cebpf4jnsgd1na2vs0mg"},{"bike_id":"1b6ff049-6d1f-47c9-b2e0-e855181a8541","system_id":"levelo_inurba_marseille","lat":43.25,"lon":5.38946,"is_reserved":false,"is_disabled":false,"rental_uris":{"android":"levelo://app?vid=1b6ff049-6d1f-47c9-b2e0-e855181a8541","ios":"levelo://app?vid=1b6ff049-6d1f-47c9-b2e0-e855181a8541"},"vehicle_type_id":"4","last_reported":1727925328,"current_range_meters":31200,"station_id":"ce4bhgp2rcd13ifvqfd0","pricing_plan_id":"cebpf4jnsgd1na2vs0mg"},{"bike_id":"d352c41d-bf04-497c-aad3-ce4c41ad7330","system_id":"levelo_inurba_marseille","lat":43.31265,"lon":5.4017,"is_reserved":false,"is_disabled":false,"rental_uris":{"android":"levelo://app?vid=d352c41d-bf04-497c-aad3-ce4c41ad7330","ios":"levelo://app?vid=d352c41d-bf04-497c-aad3-ce4c41ad7330"},"vehicle_type_id":"4","last_reported":1727925328,"current_range_meters":30000,"station_id":"ce4bh092rcd13ifvqd30","pricing_plan_id":"cebpf4jnsgd1na2vs0mg"},{"bike_id":"f05d9877-a5b6-4981-9c11-066c48dfc371","system_id":"levelo_inurba_marseille","lat":43.30426,"lon":5.38892,"is_reserved":false,"is_disabled":false,"rental_uris":{"android":"levelo://app?vid=f05d9877-a5b6-4981-9c11-066c48dfc371","ios":"levelo://app?vid=f05d9877-a5b6-4981-9c11-066c48dfc371"},"vehicle_type_id":"4","last_reported":1727925328,"current_range_meters":38800,"station_id":"ce4bgk12rcd13ifvqbi0","pricing_plan_id":"cebpf4jnsgd1na2vs0mg"},{"bike_id":"7b2cafb3-d9de-4afe-afd1-36c5a69ba90c","system_id":"levelo_inurba_marseille","lat":43.30461,"lon":5.37902,"is_reserved":false,"is_disabled":false,"rental_uris":{"android":"levelo://app?vid=7b2cafb3-d9de-4afe-afd1-36c5a69ba90c","ios":"levelo://app?vid=7b2cafb3-d9de-4afe-afd1-36c5a69ba90c"},"vehicle_type_id":"4","last_reported":1727925328,"current_range_meters":24800,"station_id":"ce4bgup2rcd13ifvqcn0","pricing_plan_id":"cebpf4jnsgd1na2vs0mg"},{"bike_id":"2594a4cc-f2ee-4bcf-bf05-a460950beb76","system_id":"levelo_inurba_marseille","lat":43.24995,"lon":5.389364,"is_reserved":false,"is_disabled":false,"rental_uris":{"android":"levelo://app?vid=2594a4cc-f2ee-4bcf-bf05-a460950beb76","ios":"levelo://app?vid=2594a4cc-f2ee-4bcf-bf05-a460950beb76"},"vehicle_type_id":"4","last_reported":1727925328,"current_range_meters":38800,"station_id":"ce4bhgp2rcd13ifvqfd0","pricing_plan_id":"cebpf4jnsgd1na2vs0mg"},{"bike_id":"c0a90da5-a861-44ad-94da-7a6f66057ff9","system_id":"levelo_inurba_marseille","lat":43.28856,"lon":5.3933,"is_reserved":false,"is_disabled":false,"rental_uris":{"android":"levelo://app?vid=c0a90da5-a861-44ad-94da-7a6f66057ff9","ios":"levelo://app?vid=c0a90da5-a861-44ad-94da-7a6f66057ff9"},"vehicle_type_id":"4","last_reported":1727925328,"current_range_meters":10800,"station_id":"ce4bh2p2rcd13ifvqdi0","pricing_plan_id":"cebpf4jnsgd1na2vs0mg"},{"bike_id":"5925458a-e7ba-442a-919b-c2f0453c8280","system_id":"levelo_inurba_marseille","lat":43.309364,"lon":5.401486,"is_reserved":false,"is_disabled":false,"rental_uris":{"android":"levelo://app?vid=5925458a-e7ba-442a-919b-c2f0453c8280","ios":"levelo://app?vid=5925458a-e7ba-442a-919b-c2f0453c8280"},"vehicle_type_id":"4","last_reported":1727925328,"current_range_meters":38800,"station_id":"ce4bgvp2rcd13ifvqct0","pricing_plan_id":"cebpf4jnsgd1na2vs0mg"},{"bike_id":"bfa9c1df-d83e-4b1d-ba4b-17d2b9e2b715","system_id":"levelo_inurba_marseille","lat":43.2811,"lon":5.37845,"is_reserved":false,"is_disabled":false,"rental_uris":{"android":"levelo://app?vid=bfa9c1df-d83e-4b1d-ba4b-17d2b9e2b715","ios":"levelo://app?vid=bfa9c1df-d83e-4b1d-ba4b-17d2b9e2b715"},"vehicle_type_id":"4","last_reported":1727925328,"current_range_meters":38800,"station_id":"ce4bha12rcd13ifvqee0","pricing_plan_id":"cebpf4jnsgd1na2vs0mg"},{"bike_id":"ada97698-d425-48f5-978b-22bfa2249aae","system_id":"levelo_inurba_marseille","lat":43.32655,"lon":5.40994,"is_reserved":false,"is_disabled":false,"rental_uris":{"android":"levelo://app?vid=ada97698-d425-48f5-978b-22bfa2249aae","ios":"levelo://app?vid=ada97698-d425-48f5-978b-22bfa2249aae"},"vehicle_type_id":"4","last_reported":1727925328,"current_range_meters":32000,"station_id":"ce4bhpp2rcd13ifvqhgg","pricing_plan_id":"cebpf4jnsgd1na2vs0mg"},{"bike_id":"151fdf4d-fb88-40c5-95db-88049874738d","system_id":"levelo_inurba_marseille","lat":43.31268,"lon":5.40162,"is_reserved":false,"is_disabled":false,"rental_uris":{"android":"levelo://app?vid=151fdf4d-fb88-40c5-95db-88049874738d","ios":"levelo://app?vid=151fdf4d-fb88-40c5-95db-88049874738d"},"vehicle_type_id":"4","last_reported":1727925328,"current_range_meters":39200,"station_id":"ce4bh092rcd13ifvqd30","pricing_plan_id":"cebpf4jnsgd1na2vs0mg"},{"bike_id":"172a6de4-8031-4f2d-9c53-d6f795f45d7e","system_id":"levelo_inurba_marseille","lat":43.286647,"lon":5.363531,"is_reserved":false,"is_disabled":false,"rental_uris":{"android":"levelo://app?vid=172a6de4-8031-4f2d-9c53-d6f795f45d7e","ios":"levelo://app?vid=172a6de4-8031-4f2d-9c53-d6f795f45d7e"},"vehicle_type_id":"4","last_reported":1727925328,"current_range_meters":38800,"station_id":"ce4bhah2rcd13ifvqej0","pricing_plan_id":"cebpf4jnsgd1na2vs0mg"},{"bike_id":"7fd5c868-bea5-4230-9b9e-49d10e465616","system_id":"levelo_inurba_marseille","lat":43.309596,"lon":5.39046,"is_reserved":false,"is_disabled":false,"rental_uris":{"android":"levelo://app?vid=7fd5c868-bea5-4230-9b9e-49d10e465616","ios":"levelo://app?vid=7fd5c868-bea5-4230-9b9e-49d10e465616"},"vehicle_type_id":"4","last_reported":1727925328,"current_range_meters":38400,"station_id":"ce4bgup2rcd13ifvqco0","pricing_plan_id":"cebpf4jnsgd1na2vs0mg"},{"bike_id":"d3db97a8-628e-40cf-8a8d-91828292eef9","system_id":"levelo_inurba_marseille","lat":43.30802,"lon":5.38158,"is_reserved":false,"is_disabled":false,"rental_uris":{"android":"levelo://app?vid=d3db97a8-628e-40cf-8a8d-91828292eef9","ios":"levelo://app?vid=d3db97a8-628e-40cf-8a8d-91828292eef9"},"vehicle_type_id":"4","last_reported":1727925328,"current_range_meters":38000,"station_id":"ce4bgt12rcd13ifvqce0","pricing_plan_id":"cebpf4jnsgd1na2vs0mg"},{"bike_id":"635ad047-e3fb-48ce-a122-984ad3b3630b","system_id":"levelo_inurba_marseille","lat":43.29041,"lon":5.39969,"is_reserved":false,"is_disabled":false,"rental_uris":{"android":"levelo://app?vid=635ad047-e3fb-48ce-a122-984ad3b3630b","ios":"levelo://app?vid=635ad047-e3fb-48ce-a122-984ad3b3630b"},"vehicle_type_id":"4","last_reported":1727925328,"current_range_meters":38800,"station_id":"ce4bh392rcd13ifvqdm0","pricing_plan_id":"cebpf4jnsgd1na2vs0mg"},{"bike_id":"aca3585a-5230-4eb3-a65e-727c519285cd","system_id":"levelo_inurba_marseille","lat":43.32659,"lon":5.40994,"is_reserved":false,"is_disabled":false,"rental_uris":{"android":"levelo://app?vid=aca3585a-5230-4eb3-a65e-727c519285cd","ios":"levelo://app?vid=aca3585a-5230-4eb3-a65e-727c519285cd"},"vehicle_type_id":"4","last_reported":1727925328,"current_range_meters":14000,"station_id":"ce4bhpp2rcd13ifvqhgg","pricing_plan_id":"cebpf4jnsgd1na2vs0mg"},{"bike_id":"f5c5f330-437b-4cb5-a872-f73111964e32","system_id":"levelo_inurba_marseille","lat":43.30892,"lon":5.37209,"is_reserved":false,"is_disabled":false,"rental_uris":{"android":"levelo://app?vid=f5c5f330-437b-4cb5-a872-f73111964e32","ios":"levelo://app?vid=f5c5f330-437b-4cb5-a872-f73111964e32"},"vehicle_type_id":"4","last_reported":1727925328,"current_range_meters":38000,"station_id":"ce4bguh2rcd13ifvqckg","pricing_plan_id":"cebpf4jnsgd1na2vs0mg"},{"bike_id":"ff464913-1fa5-4b84-8f98-d98241a96c46","system_id":"levelo_inurba_marseille","lat":43.31486,"lon":5.37305,"is_reserved":false,"is_disabled":false,"rental_uris":{"android":"levelo://app?vid=ff464913-1fa5-4b84-8f98-d98241a96c46","ios":"levelo://app?vid=ff464913-1fa5-4b84-8f98-d98241a96c46"},"vehicle_type_id":"4","last_reported":1727925328,"current_range_meters":38800,"station_id":"ce4bgt12rcd13ifvqcd0","pricing_plan_id":"cebpf4jnsgd1na2vs0mg"},{"bike_id":"d5999978-d9a1-49d6-b871-bb50b8c8a2b4","system_id":"levelo_inurba_marseille","lat":43.31998,"lon":5.38155,"is_reserved":false,"is_disabled":false,"rental_uris":{"android":"levelo://app?vid=d5999978-d9a1-49d6-b871-bb50b8c8a2b4","ios":"levelo://app?vid=d5999978-d9a1-49d6-b871-bb50b8c8a2b4"},"vehicle_type_id":"4","last_reported":1727925328,"current_range_meters":20000,"station_id":"ce4bhr12rcd13ifvqhpg","pricing_plan_id":"cebpf4jnsgd1na2vs0mg"},{"bike_id":"a118ad49-13ea-478e-a5ef-94d4a25429ab","system_id":"levelo_inurba_marseille","lat":43.27182,"lon":5.40997,"is_reserved":false,"is_disabled":false,"rental_uris":{"android":"levelo://app?vid=a118ad49-13ea-478e-a5ef-94d4a25429ab","ios":"levelo://app?vid=a118ad49-13ea-478e-a5ef-94d4a25429ab"},"vehicle_type_id":"4","last_reported":1727925328,"current_range_meters":26000,"station_id":"ce4bhl12rcd13ifvqgf0","pricing_plan_id":"cebpf4jnsgd1na2vs0mg"},{"bike_id":"df1234b7-a348-4ad2-ac0b-e86007921f8d","system_id":"levelo_inurba_marseille","lat":43.24173,"lon":5.36399,"is_reserved":false,"is_disabled":false,"rental_uris":{"android":"levelo://app?vid=df1234b7-a348-4ad2-ac0b-e86007921f8d","ios":"levelo://app?vid=df1234b7-a348-4ad2-ac0b-e86007921f8d"},"vehicle_type_id":"4","last_reported":1727925328,"current_range_meters":38400,"station_id":"cpo36qri1sfpv3e86is0","pricing_plan_id":"cebpf4jnsgd1na2vs0mg"},{"bike_id":"ce6b7830-516a-4b83-9ce9-8364e4d95410","system_id":"levelo_inurba_marseille","lat":43.27066,"lon":5.40259,"is_reserved":false,"is_disabled":false,"rental_uris":{"android":"levelo://app?vid=ce6b7830-516a-4b83-9ce9-8364e4d95410","ios":"levelo://app?vid=ce6b7830-516a-4b83-9ce9-8364e4d95410"},"vehicle_type_id":"4","last_reported":1727925328,"current_range_meters":26000,"station_id":"ce4bhk92rcd13ifvqgc0","pricing_plan_id":"cebpf4jnsgd1na2vs0mg"},{"bike_id":"a3969bf8-ed2b-42e4-af3b-344de102db4b","system_id":"levelo_inurba_marseille","lat":43.33612,"lon":5.41026,"is_reserved":false,"is_disabled":false,"rental_uris":{"android":"levelo://app?vid=a3969bf8-ed2b-42e4-af3b-344de102db4b","ios":"levelo://app?vid=a3969bf8-ed2b-42e4-af3b-344de102db4b"},"vehicle_type_id":"4","last_reported":1727925328,"current_range_meters":8400,"station_id":"ce4bhqh2rcd13ifvqhmg","pricing_plan_id":"cebpf4jnsgd1na2vs0mg"},{"bike_id":"0ad9f8f8-ca80-42a4-9f55-c0ac3f6ded09","system_id":"levelo_inurba_marseille","lat":43.280775,"lon":5.396471,"is_reserved":false,"is_disabled":false,"rental_uris":{"android":"levelo://app?vid=0ad9f8f8-ca80-42a4-9f55-c0ac3f6ded09","ios":"levelo://app?vid=0ad9f8f8-ca80-42a4-9f55-c0ac3f6ded09"},"vehicle_type_id":"4","last_reported":1727925328,"current_range_meters":35600,"station_id":"ce4bho12rcd13ifvqh2g","pricing_plan_id":"cebpf4jnsgd1na2vs0mg"},{"bike_id":"e71bbc4c-7f88-4838-94b5-33583847a530","system_id":"levelo_inurba_marseille","lat":43.2963,"lon":5.40601,"is_reserved":false,"is_disabled":false,"rental_uris":{"android":"levelo://app?vid=e71bbc4c-7f88-4838-94b5-33583847a530","ios":"levelo://app?vid=e71bbc4c-7f88-4838-94b5-33583847a530"},