{"last_updated":1738235303,"ttl":60,"version":"2.2","data":{"bikes":[{"bike_id":"0d72069c-12f4-4000-a8ca-84be6d2ccbcd","system_id":"levelo_inurba_marseille","lat":43.2985,"lon":5.36334,"is_reserved":false,"is_disabled":false,"rental_uris":{"android":"levelo://app?vid=0d72069c-12f4-4000-a8ca-84be6d2ccbcd","ios":"levelo://app?vid=0d72069c-12f4-4000-a8ca-84be6d2ccbcd"},"vehicle_type_id":"4","last_reported":1738235303,"current_range_meters":38400,"station_id":"ce4bgpp2rcd13ifvqc3g","pricing_plan_id":"cebpf4jnsgd1na2vs0mg"},{"bike_id":"454cf1c5-bc52-435a-af7c-21ac9107c607","system_id":"levelo_inurba_marseille","lat":43.29771,"lon":5.37071,"is_reserved":false,"is_disabled":false,"rental_uris":{"android":"levelo://app?vid=454cf1c5-bc52-435a-af7c-21ac9107c607","ios":"levelo://app?vid=454cf1c5-bc52-435a-af7c-21ac9107c607"},"vehicle_type_id":"4","last_reported":1738235303,"current_range_meters":38000,"station_id":"ce4bgop2rcd13ifvqc1g","pricing_plan_id":"cebpf4jnsgd1na2vs0mg"},{"bike_id":"2a814825-5d2f-4409-83f7-0bfed0cb49c1","system_id":"levelo_inurba_marseille","lat":43.28425,"lon":5.34977,"is_reserved":false,"is_disabled":false,"rental_uris":{"android":"levelo://app?vid=2a814825-5d2f-4409-83f7-0bfed0cb49c1","ios":"levelo://app?vid=2a814825-5d2f-4409-83f7-0bfed0cb49c1"},"vehicle_type_id":"4","last_reported":1738235303,"current_range_meters":25200,"station_id":"ce4bhbh2rcd13ifvqepg","pricing_plan_id":"cebpf4jnsgd1na2vs0mg"},{"bike_id":"d5cf08a4-1592-4f3d-bc72-d13107fd268a","system_id":"levelo_inurba_marseille","lat":43.26781,"lon":5.39416,"is_reserved":false,"is_disabled":false,"rental_uris":{"android":"levelo://app?vid=d5cf08a4-1592-4f3d-bc72-d13107fd268a","ios":"levelo://app?vid=d5cf08a4-1592-4f3d-bc72-d13107fd268a"},"vehicle_type_id":"4","last_reported":1738235303,"current_range_meters":20800,"station_id":"ce4bhh12rcd13ifvqfg0","pricing_plan_id":"cebpf4jnsgd1na2vs0mg"},{"bike_id":"f7f8117f-03ef-415e-85c6-2eeaf165e4f2","system_id":"levelo_inurba_marseille","lat":43.26191,"lon":5.4044,"is_reserved":false,"is_disabled":true,"rental_uris":{"android":"levelo://app?vid=f7f8117f-03ef-415e-85c6-2eeaf165e4f2","ios":"levelo://app?vid=f7f8117f-03ef-415e-85c6-2eeaf165e4f2"},"vehicle_type_id":"4","last_reported":1738235303,"current_range_meters":26000,"station_id":"ce4bhmh2rcd13ifvqgmg","pricing_plan_id":"cebpf4jnsgd1na2vs0mg"},{"bike_id":"a1f35ef3-1537-44e1-aee6-d5927f53380c","system_id":"levelo_inurba_marseille","lat":43.28484,"lon":5.38408,"is_reserved":false,"is_disabled":false,"rental_uris":{"android":"levelo://app?vid=a1f35ef3-1537-44e1-aee6-d5927f53380c","ios":"levelo://app?vid=a1f35ef3-1537-44e1-aee6-d5927f53380c"},"vehicle_type_id":"4","last_reported":1738235303,"current_range_meters":8800,"station_id":"ce4bh512rcd13ifvqe3g","pricing_plan_id":"cebpf4jnsgd1na2vs0mg"},{"bike_id":"c638a1eb-b4d3-4a47-88f5-4ffd2e894e36","system_id":"levelo_inurba_marseille","lat":43.28103,"lon":5.37838,"is_reserved":false,"is_disabled":false,"rental_uris":{"android":"levelo://app?vid=c638a1eb-b4d3-4a47-88f5-4ffd2e894e36","ios":"levelo://app?vid=c638a1eb-b4d3-4a47-88f5-4ffd2e894e36"},"vehicle_type_id":"4","last_reported":1738235303,"current_range_meters":30400,"station_id":"ce4bha12rcd13ifvqee0","pricing_plan_id":"cebpf4jnsgd1na2vs0mg"},{"bike_id":"2da04e03-3c1a-4fc0-b454-ee332fd6af5e","system_id":"levelo_inurba_marseille","lat":43.29583,"lon":5.36741,"is_reserved":false,"is_disabled":false,"rental_uris":{"android":"levelo://app?vid=2da04e03-3c1a-4fc0-b454-ee332fd6af5e","ios":"levelo://app?vid=2da04e03-3c1a-4fc0-b454-ee332fd6af5e"},"vehicle_type_id":"4","last_reported":1738235303,"current_range_meters":19200,"station_id":"ce4bgph2rcd13ifvqc2g","pricing_plan_id":"cebpf4jnsgd1na2vs0mg"},{"bike_id":"9ebdc35e-1568-45ff-aa52-2363402d7b82","system_id":"levelo_inurba_marseille","lat":43.29293,"lon":5.37186,"is_reserved":false,"is_disabled":false,"rental_uris":{"android":"levelo://app?vid=9ebdc35e-1568-45ff-aa52-2363402d7b82","ios":"levelo://app?vid=9ebdc35e-1568-45ff-aa52-2363402d7b82"},"vehicle_type_id":"4","last_reported":1738235303,"current_range_meters":33600,"station_id":"ce4bgh92rcd13ifvqb40","pricing_plan_id":"cebpf4jnsgd1na2vs0mg"},{"bike_id":"6ff3c280-4bf0-4285-940a-a16255eeaa86","system_id":"levelo_inurba_marseille","lat":43.29015,"lon":5.35612,"is_reserved":false,"is_disabled":false,"rental_uris":{"android":"levelo://app?vid=6ff3c280-4bf0-4285-940a-a16255eeaa86","ios":"levelo://app?vid=6ff3c280-4bf0-4285-940a-a16255eeaa86"},"vehicle_type_id":"4","last_reported":1738235303,"current_range_meters":39200,"station_id":"ce4bhb92rcd13ifvqen0","pricing_plan_id":"cebpf4jnsgd1na2vs0mg"},{"bike_id":"adc2855c-ce96-4ab1-9132-d4c82e18f627","system_id":"levelo_inurba_marseille","lat":43.26499,"lon":5.39561,"is_reserved":false,"is_disabled":false,"rental_uris":{"android":"levelo://app?vid=adc2855c-ce96-4ab1-9132-d4c82e18f627","ios":"levelo://app?vid=adc2855c-ce96-4ab1-9132-d4c82e18f627"},"vehicle_type_id":"4","last_reported":1738235303,"current_range_meters":28800,"station_id":"ce4bhi12rcd13ifvqfq0","pricing_plan_id":"cebpf4jnsgd1na2vs0mg"},{"bike_id":"bbf5cc05-253b-474e-91e3-9d2d5200c1ec","system_id":"levelo_inurba_marseille","lat":43.30307,"lon":5.37696,"is_reserved":false,"is_disabled":false,"rental_uris":{"android":"levelo://app?vid=bbf5cc05-253b-474e-91e3-9d2d5200c1ec","ios":"levelo://app?vid=bbf5cc05-253b-474e-91e3-9d2d5200c1ec"},"vehicle_type_id":"4","last_reported":1738235303,"current_range_meters":38800,"station_id":"ce4bguh2rcd13ifvqcj0","pricing_plan_id":"cebpf4jnsgd1na2vs0mg"},{"bike_id":"8af94119-2421-4ba4-8919-501ab8454054","system_id":"levelo_inurba_marseille","lat":43.27246,"lon":5.39187,"is_reserved":false,"is_disabled":false,"rental_uris":{"android":"levelo://app?vid=8af94119-2421-4ba4-8919-501ab8454054","ios":"levelo://app?vid=8af94119-2421-4ba4-8919-501ab8454054"},"vehicle_type_id":"4","last_reported":1738235303,"current_range_meters":39200,"station_id":"ce4bhhp2rcd13ifvqfm0","pricing_plan_id":"cebpf4jnsgd1na2vs0mg"},{"bike_id":"dc71ee2b-bb7e-4248-aad2-5a4617bf84fd","system_id":"levelo_inurba_marseille","lat":43.28567,"lon":5.3951,"is_reserved":false,"is_disabled":false,"rental_uris":{"android":"levelo://app?vid=dc71ee2b-bb7e-4248-aad2-5a4617bf84fd","ios":"levelo://app?vid=dc71ee2b-bb7e-4248-aad2-5a4617bf84fd"},"vehicle_type_id":"4","last_reported":1738235303,"current_range_meters":32000,"station_id":"ce4bh292rcd13ifvqdg0","pricing_plan_id":"cebpf4jnsgd1na2vs0mg"},{"bike_id":"a9a12b57-7eb7-49fb-ba95-6c00f1b23d00","system_id":"levelo_inurba_marseille","lat":43.27488,"lon":5.38447,"is_reserved":false,"is_disabled":false,"rental_uris":{"android":"levelo://app?vid=a9a12b57-7eb7-49fb-ba95-6c00f1b23d00","ios":"levelo://app?vid=a9a12b57-7eb7-49fb-ba95-6c00f1b23d00"},"vehicle_type_id":"4","last_reported":1738235303,"current_range_meters":20800,"station_id":"ce4bha12rcd13ifvqee0","pricing_plan_id":"cebpf4jnsgd1na2vs0mg"},{"bike_id":"79b7a714-6899-43f0-a0e6-1e9b5234e282","system_id":"levelo_inurba_marseille","lat":43.29543,"lon":5.42275,"is_reserved":false,"is_disabled":false,"rental_uris":{"android":"levelo://app?vid=79b7a714-6899-43f0-a0e6-1e9b5234e282","ios":"levelo://app?vid=79b7a714-6899-43f0-a0e6-1e9b5234e282"},"vehicle_type_id":"4","last_reported":1738235303,"current_range_meters":36800,"station_id":"ce4bhph2rcd13ifvqhdg","pricing_plan_id":"cebpf4jnsgd1na2vs0mg"},{"bike_id":"056d4c88-75c5-415a-a7d7-0626740da3e0","system_id":"levelo_inurba_marseille","lat":43.2749,"lon":5.42468,"is_reserved":false,"is_disabled":false,"rental_uris":{"android":"levelo://app?vid=056d4c88-75c5-415a-a7d7-0626740da3e0","ios":"levelo://app?vid=056d4c88-75c5-415a-a7d7-0626740da3e0"},"vehicle_type_id":"4","last_reported":1738235303,"current_range_meters":32400,"station_id":"ce4bhn92rcd13ifvqgrg","pricing_plan_id":"cebpf4jnsgd1na2vs0mg"},{"bike_id":"86eb3850-c40f-4491-91f4-1f64cf4fd57e","system_id":"levelo_inurba_marseille","lat":43.287,"lon":5.37385,"is_reserved":false,"is_disabled":false,"rental_uris":{"android":"levelo://app?vid=86eb3850-c40f-4491-91f4-1f64cf4fd57e","ios":"levelo://app?vid=86eb3850-c40f-4491-91f4-1f64cf4fd57e"},"vehicle_type_id":"4","last_reported":1738235303,"current_range_meters":31200,"station_id":"ce4bh3p2rcd13ifvqdq0","pricing_plan_id":"cebpf4jnsgd1na2vs0mg"},{"bike_id":"8d29d491-636b-452f-a04a-639f15c1d0f5","system_id":"levelo_inurba_marseille","lat":43.32483,"lon":5.36565,"is_reserved":false,"is_disabled":false,"rental_uris":{"android":"levelo://app?vid=8d29d491-636b-452f-a04a-639f15c1d0f5","ios":"levelo://app?vid=8d29d491-636b-452f-a04a-639f15c1d0f5"},"vehicle_type_id":"4","last_reported":1738235303,"current_range_meters":36400,"station_id":"ce4bhs12rcd13ifvqhvg","pricing_plan_id":"cebpf4jnsgd1na2vs0mg"},{"bike_id":"9bd21267-26f6-4122-9567-2f0b5d4f790f","system_id":"levelo_inurba_marseille","lat":43.32369,"lon":5.38904,"is_reserved":false,"is_disabled":false,"rental_uris":{"android":"levelo://app?vid=9bd21267-26f6-4122-9567-2f0b5d4f790f","ios":"levelo://app?vid=9bd21267-26f6-4122-9567-2f0b5d4f790f"},"vehicle_type_id":"4","last_reported":1738235303,"current_range_meters":38800,"station_id":"ce4bhqp2rcd13ifvqhog","pricing_plan_id":"cebpf4jnsgd1na2vs0mg"},{"bike_id":"873a4520-b3ea-4ae4-b5ed-62ad08141256","system_id":"levelo_inurba_marseille","lat":43.30549,"lon":5.36533,"is_reserved":false,"is_disabled":false,"rental_uris":{"android":"levelo://app?vid=873a4520-b3ea-4ae4-b5ed-62ad08141256","ios":"levelo://app?vid=873a4520-b3ea-4ae4-b5ed-62ad08141256"},"vehicle_type_id":"4","last_reported":1738235303,"current_range_meters":39200,"station_id":"ce4bgs12rcd13ifvqcag","pricing_plan_id":"cebpf4jnsgd1na2vs0mg"},{"bike_id":"e6bb7558-e08d-4cdb-8653-ec3b4d783252","system_id":"levelo_inurba_marseille","lat":43.31356,"lon":5.36695,"is_reserved":false,"is_disabled":false,"rental_uris":{"android":"levelo://app?vid=e6bb7558-e08d-4cdb-8653-ec3b4d783252","ios":"levelo://app?vid=e6bb7558-e08d-4cdb-8653-ec3b4d783252"},"vehicle_type_id":"4","last_reported":1738235303,"current_range_meters":38800,"station_id":"ce4bgr92rcd13ifvqc6g","pricing_plan_id":"cebpf4jnsgd1na2vs0mg"},{"bike_id":"3c0ccaa8-03d1-4771-8040-8935aa7423ec","system_id":"levelo_inurba_marseille","lat":43.28955,"lon":5.39636,"is_reserved":false,"is_disabled":false,"rental_uris":{"android":"levelo://app?vid=3c0ccaa8-03d1-4771-8040-8935aa7423ec","ios":"levelo://app?vid=3c0ccaa8-03d1-4771-8040-8935aa7423ec"},"vehicle_type_id":"4","last_reported":1738235303,"current_range_meters":33600,"station_id":"ce4bh3h2rcd13ifvqdn0","pricing_plan_id":"cebpf4jnsgd1na2vs0mg"},{"bike_id":"09e5ddb2-5ded-4084-b331-34c11b36e04b","system_id":"levelo_inurba_marseille","lat":43.26957,"lon":5.38638,"is_reserved":false,"is_disabled":false,"rental_uris":{"android":"levelo://app?vid=09e5ddb2-5ded-4084-b331-34c11b36e04b","ios":"levelo://app?vid=09e5ddb2-5ded-4084-b331-34c11b36e04b"},"vehicle_type_id":"4","last_reported":1738235303,"current_range_meters":32000,"station_id":"ce4bhh92rcd13ifvqfh0","pricing_plan_id":"cebpf4jnsgd1na2vs0mg"},{"bike_id":"1c63fa7b-8bb3-4da5-8267-9c40ab75cc0b","system_id":"levelo_inurba_marseille","lat":43.33727,"lon":5.3919,"is_reserved":false,"is_disabled":false,"rental_uris":{"android":"levelo://app?vid=1c63fa7b-8bb3-4da5-8267-9c40ab75cc0b","ios":"levelo://app?vid=1c63fa7b-8bb3-4da5-8267-9c40ab75cc0b"},"vehicle_type_id":"4","last_reported":1738235303,"current_range_meters":38800,"station_id":"ce4bhr92rcd13ifvqhsg","pricing_plan_id":"cebpf4jnsgd1na2vs0mg"},{"bike_id":"9c8a8ec1-4403-4fc5-a467-c5d82c1e7d03","system_id":"levelo_inurba_marseille","lat":43.26202,"lon":5.37448,"is_reserved":false,"is_disabled":false,"rental_uris":{"android":"levelo://app?vid=9c8a8ec1-4403-4fc5-a467-c5d82c1e7d03","ios":"levelo://app?vid=9c8a8ec1-4403-4fc5-a467-c5d82c1e7d03"},"vehicle_type_id":"4","last_reported":1738235303,"current_range_meters":36800,"station_id":"ce4bhgp2rcd13ifvqfc0","pricing_plan_id":"cebpf4jnsgd1na2vs0mg"},{"bike_id":"c51b0cb6-07eb-4994-ac2a-608b77bd9b97","system_id":"levelo_inurba_marseille","lat":43.30344,"lon":5.41918,"is_reserved":false,"is_disabled":false,"rental_uris":{"android":"levelo://app?vid=c51b0cb6-07eb-4994-ac2a-608b77bd9b97","ios":"levelo://app?vid=c51b0cb6-07eb-4994-ac2a-608b77bd9b97"},"vehicle_type_id":"4","last_reported":1738235303,"current_range_meters":38800,"station_id":"ce4bhop2rcd13ifvqh7g","pricing_plan_id":"cebpf4jnsgd1na2vs0mg"},{"bike_id":"1cd1f9ee-4bae-4683-b0e0-908033806d90","system_id":"levelo_inurba_marseille","lat":43.30513,"lon":5.36715,"is_reserved":false,"is_disabled":false,"rental_uris":{"android":"levelo://app?vid=1cd1f9ee-4bae-4683-b0e0-908033806d90","ios":"levelo://app?vid=1cd1f9ee-4bae-4683-b0e0-908033806d90"},"vehicle_type_id":"4","last_reported":1738235303,"current_range_meters":26000,"station_id":"ce4bgrp2rcd13ifvqc9g","pricing_plan_id":"cebpf4jnsgd1na2vs0mg"},{"bike_id":"cc47836a-b908-432f-8e0e-2f793407f141","system_id":"levelo_inurba_marseille","lat":43.22922,"lon":5.35385,"is_reserved":false,"is_disabled":false,"rental_uris":{"android":"levelo://app?vid=cc47836a-b908-432f-8e0e-2f793407f141","ios":"levelo://app?vid=cc47836a-b908-432f-8e0e-2f793407f141"},"vehicle_type_id":"4","last_reported":1738235303,"current_range_meters":16800,"station_id":"cpo3532slgdg3j2ikp40","pricing_plan_id":"cebpf4jnsgd1na2vs0mg"},{"bike_id":"5d4915e0-4a9f-4c36-821a-8bde58abc3cd","system_id":"levelo_inurba_marseille","lat":43.25126,"lon":5.40342,"is_reserved":false,"is_disabled":false,"rental_uris":{"android":"levelo://app?vid=5d4915e0-4a9f-4c36-821a-8bde58abc3cd","ios":"levelo://app?vid=5d4915e0-4a9f-4c36-821a-8bde58abc3cd"},"vehicle_type_id":"4","last_reported":1738235303,"current_range_meters":38800,"station_id":"ce4bhlh2rcd13ifvqgig","pricing_plan_id":"cebpf4jnsgd1na2vs0mg"},{"bike_id":"2874b144-35d9-4148-b5a2-14bd3ecb2547","system_id":"levelo_inurba_marseille","lat":43.31428,"lon":5.3697,"is_reserved":false,"is_disabled":false,"rental_uris":{"android":"levelo://app?vid=2874b144-35d9-4148-b5a2-14bd3ecb2547","ios":"levelo://app?vid=2874b144-35d9-4148-b5a2-14bd3ecb2547"},"vehicle_type_id":"4","last_reported":1738235303,"current_range_meters":36800,"station_id":"","pricing_plan_id":"cebpf4jnsgd1na2vs0mg"},{"bike_id":"a18667b7-7dd1-4163-9cf3-adff1c419d2f","system_id":"levelo_inurba_marseille","lat":43.32109,"lon":5.36757,"is_reserved":false,"is_disabled":false,"rental_uris":{"android":"levelo://app?vid=a18667b7-7dd1-4163-9cf3-adff1c419d2f","ios":"levelo://app?vid=a18667b7-7dd1-4163-9cf3-adff1c419d2f"},"vehicle_type_id":"4","last_reported":1738235303,"current_range_meters":33600,"station_id":"ce4bhrh2rcd13ifvqhug","pricing_plan_id":"cebpf4jnsgd1na2vs0mg"},{"bike_id":"7fbc607b-e12b-47bd-a53f-1c18ac62adfd","system_id":"levelo_inurba_marseille","lat":43.27824,"lon":5.40706,"is_reserved":false,"is_disabled":false,"rental_uris":{"android":"levelo://app?vid=7fbc607b-e12b-47bd-a53f-1c18ac62adfd","ios":"levelo://app?vid=7fbc607b-e12b-47bd-a53f-1c18ac62adfd"},"vehicle_type_id":"4","last_reported":1738235303,"current_range_meters":15200,"station_id":"ce4bhnh2rcd13ifvqgtg","pricing_plan_id":"cebpf4jnsgd1na2vs0mg"},{"bike_id":"21b52f6a-4d72-4210-8710-c5cde09123c4","system_id":"levelo_inurba_marseille","lat":43.273215,"lon":5.390919,"is_reserved":false,"is_disabled":false,"rental_uris":{"android":"levelo://app?vid=21b52f6a-4d72-4210-8710-c5cde09123c4","ios":"levelo://app?vid=21b52f6a-4d72-4210-8710-c5cde09123c4"},"vehicle_type_id":"4","last_reported":1738235303,"current_range_meters":39200,"station_id":"ce4bhgp2rcd13ifvqfe0","pricing_plan_id":"cebpf4jnsgd1na2vs0mg"},{"bike_id":"f34fcd93-0f66-400a-8f07-aa08bfa23861","system_id":"levelo_inurba_marseille","lat":43.25932,"lon":5.40903,"is_reserved":false,"is_disabled":false,"rental_uris":{"android":"levelo://app?vid=f34fcd93-0f66-400a-8f07-aa08bfa23861","ios":"levelo://app?vid=f34fcd93-0f66-400a-8f07-aa08bfa23861"},"vehicle_type_id":"4","last_reported":1738235303,"current_range_meters":3200,"station_id":"ce4bhm92rcd13ifvqglg","pricing_plan_id":"cebpf4jnsgd1na2vs0mg"},{"bike_id":"cb885ab5-c2c0-49b8-9a6d-9c8ff83cfe0a","system_id":"levelo_inurba_marseille","lat":43.27118,"lon":5.4222,"is_reserved":false,"is_disabled":false,"rental_uris":{"android":"levelo://app?vid=cb885ab5-c2c0-49b8-9a6d-9c8ff83cfe0a","ios":"levelo://app?vid=cb885ab5-c2c0-49b8-9a6d-9c8ff83cfe0a"},"vehicle_type_id":"4","last_reported":1738235303,"current_range_meters":20000,"station_id":"ce4bhlh2rcd13ifvqgig","pricing_plan_id":"cebpf4jnsgd1na2vs0mg"},{"bike_id":"606053f9-3da2-4594-b4df-8e24b5fa812c","system_id":"levelo_inurba_marseille","lat":43.26935,"lon":5.40252,"is_reserved":false,"is_disabled":false,"rental_uris":{"android":"levelo://app?vid=606053f9-3da2-4594-b4df-8e24b5fa812c","ios":"levelo://app?vid=606053f9-3da2-4594-b4df-8e24b5fa812c"},"vehicle_type_id":"4","last_reported":1738235303,"current_range_meters":39200,"station_id":"cjm6bp8fraef2m0cb0m0","pricing_plan_id":"cebpf4jnsgd1na2vs0mg"},{"bike_id":"d56a711b-69d4-4adc-9e37-c0433b6c7d4b","system_id":"levelo_inurba_marseille","lat":43.27983,"lon":5.38706,"is_reserved":false,"is_disabled":false,"rental_uris":{"android":"levelo://app?vid=d56a711b-69d4-4adc-9e37-c0433b6c7d4b","ios":"levelo://app?vid=d56a711b-69d4-4adc-9e37-c0433b6c7d4b"},"vehicle_type_id":"4","last_reported":1738235303,"current_range_meters":28000,"station_id":"ce4bhg12rcd13ifvqf80","pricing_plan_id":"cebpf4jnsgd1na2vs0mg"},{"bike_id":"c42b668b-c3bd-4e99-9b63-ab0e837f2f09","system_id":"levelo_inurba_marseille","lat":43.27552,"lon":5.3843,"is_reserved":false,"is_disabled":false,"rental_uris":{"android":"levelo://app?vid=c42b668b-c3bd-4e99-9b63-ab0e837f2f09","ios":"levelo://app?vid=c42b668b-c3bd-4e99-9b63-ab0e837f2f09"},"vehicle_type_id":"4","last_reported":1738235303,"current_range_meters":37600,"station_id":"ce4bhh92rcd13ifvqfi0","pricing_plan_id":"cebpf4jnsgd1na2vs0mg"},{"bike_id":"c52ee0d8-fc14-4a91-ad24-eeec1e8e0625","system_id":"levelo_inurba_marseille","lat":43.26197,"lon":5.3747,"is_reserved":false,"is_disabled":false,"rental_uris":{"android":"levelo://app?vid=c52ee0d8-fc14-4a91-ad24-eeec1e8e0625","ios":"levelo://app?vid=c52ee0d8-fc14-4a91-ad24-eeec1e8e0625"},"vehicle_type_id":"4","last_reported":1738235303,"current_range_meters":39200,"station_id":"ce4bhgp2rcd13ifvqfc0","pricing_plan_id":"cebpf4jnsgd1na2vs0mg"},{"bike_id":"8d123c00-501a-4fc9-8fbd-4703db9f9957","system_id":"levelo_inurba_marseille","lat":43.26784,"lon":5.39418,"is_reserved":false,"is_disabled":false,"rental_uris":{"android":"levelo://app?vid=8d123c00-501a-4fc9-8fbd-4703db9f9957","ios":"levelo://app?vid=8d123c00-501a-4fc9-8fbd-4703db9f9957"},"vehicle_type_id":"4","last_reported":1738235303,"current_range_meters":38800,"station_id":"ce4bhh12rcd13ifvqfg0","pricing_plan_id":"cebpf4jnsgd1na2vs0mg"},{"bike_id":"970ebb06-ca9e-4f28-b8ba-dc0f942d608c","system_id":"levelo_inurba_marseille","lat":43.297116,"lon":5.376911,"is_reserved":false,"is_disabled":false,"rental_uris":{"android":"levelo://app?vid=970ebb06-ca9e-4f28-b8ba-dc0f942d608c","ios":"levelo://app?vid=970ebb06-ca9e-4f28-b8ba-dc0f942d608c"},"vehicle_type_id":"4","last_reported":1738235303,"current_range_meters":30000,"station_id":"ce4bgkh2rcd13ifvqbl0","pricing_plan_id":"cebpf4jnsgd1na2vs0mg"},{"bike_id":"720742d2-419d-457a-ab4d-f4f9f5327356","system_id":"levelo_inurba_marseille","lat":43.27919,"lon":5.39587,"is_reserved":false,"is_disabled":false,"rental_uris":{"android":"levelo://app?vid=720742d2-419d-457a-ab4d-f4f9f5327356","ios":"levelo://app?vid=720742d2-419d-457a-ab4d-f4f9f5327356"},"vehicle_type_id":"4","last_reported":1738235303,"current_range_meters":38800,"station_id":"ce4bhf92rcd13ifvqf40","pricing_plan_id":"cebpf4jnsgd1na2vs0mg"},{"bike_id":"453585c5-bced-4df3-8e5f-e20a1531ad15","system_id":"levelo_inurba_marseille","lat":43.27506,"lon":5.42449,"is_reserved":false,"is_disabled":false,"rental_uris":{"android":"levelo://app?vid=453585c5-bced-4df3-8e5f-e20a1531ad15","ios":"levelo://app?vid=453585c5-bced-4df3-8e5f-e20a1531ad15"},"vehicle_type_id":"4","last_reported":1738235303,"current_range_meters":5600,"station_id":"ce4bhn92rcd13ifvqgrg","pricing_plan_id":"cebpf4jnsgd1na2vs0mg"},{"bike_id":"9f7cbc3c-6e0b-4442-8c70-64c0b2a1452e","system_id":"levelo_inurba_marseille","lat":43.230553,"lon":5.355012,"is_reserved":false,"is_disabled":false,"rental_uris":{"android":"levelo://app?vid=9f7cbc3c-6e0b-4442-8c70-64c0b2a1452e","ios":"levelo://app?vid=9f7cbc3c-6e0b-4442-8c70-64c0b2a1452e"},"vehicle_type_id":"4","last_reported":1738235303,"current_range_meters":12400,"station_id":"cpo3342slgdg3j2ifvpg","pricing_plan_id":"cebpf4jnsgd1na2vs0mg"},{"bike_id":"c8a3a0ed-dff2-4f3c-87dc-2e6b47b1ad28","system_id":"levelo_inurba_marseille","lat":43.337444,"lon":5.374475,"is_reserved":false,"is_disabled":true,"rental_uris":{"android":"levelo://app?vid=c8a3a0ed-dff2-4f3c-87dc-2e6b47b1ad28","ios":"levelo://app?vid=c8a3a0ed-dff2-4f3c-87dc-2e6b47b1ad28"},"vehicle_type_id":"4","last_reported":1738235303,"current_range_meters":0,"station_id":"","pricing_plan_id":"cebpf4jnsgd1na2vs0mg"},{"bike_id":"7247902a-635d-4f06-9cf7-f11e089c2d38","system_id":"levelo_inurba_marseille","lat":43.2694,"lon":5.40258,"is_reserved":false,"is_disabled":false,"rental_uris":{"android":"levelo://app?vid=7247902a-635d-4f06-9cf7-f11e089c2d38","ios":"levelo://app?vid=7247902a-635d-4f06-9cf7-f11e089c2d38"},"vehicle_type_id":"4","last_reported":1738235303,"current_range_meters":35200,"station_id":"cjm6bp8fraef2m0cb0m0","pricing_plan_id":"cebpf4jnsgd1na2vs0mg"},{"bike_id":"9ee34e81-9c2c-4044-8c45-7a4ec30a22d1","system_id":"levelo_inurba_marseille","lat":43.289313,"lon":5.383957,"is_reserved":false,"is_disabled":false,"rental_uris":{"android":"levelo://app?vid=9ee34e81-9c2c-4044-8c45-7a4ec30a22d1","ios":"levelo://app?vid=9ee34e81-9c2c-4044-8c45-7a4ec30a22d1"},"vehicle_type_id":"4","last_reported":1738235303,"current_range_meters":37600,"station_id":"ce4bh612rcd13ifvqe6g","pricing_plan_id":"cebpf4jnsgd1na2vs0mg"},{"bike_id":"d6b02c53-f0cf-4b2a-a86f-01340b4cf04e","system_id":"levelo_inurba_marseille","lat":43.313673,"lon":5.385058,"is_reserved":false,"is_disabled":false,"rental_uris":{"android":"levelo://app?vid=d6b02c53-f0cf-4b2a-a86f-01340b4cf04e","ios":"levelo://app?vid=d6b02c53-f0cf-4b2a-a86f-01340b4cf04e"},"vehicle_type_id":"4","last_reported":1738235303,"current_range_meters":11200,"station_id":"ce4bgt92rcd13ifvqcf0","pricing_plan_id":"cebpf4jnsgd1na2vs0mg"},{"bike_id":"ecc7d736-8dcc-4521-8ca5-10a9af95cf48","system_id":"levelo_inurba_marseille","lat":43.25931,"lon":5.40924,"is_reserved":false,"is_disabled":false,"rental_uris":{"android":"levelo://app?vid=ecc7d736-8dcc-4521-8ca5-10a9af95cf48","ios":"levelo://app?vid=ecc7d736-8dcc-4521-8ca5-10a9af95cf48"},"vehicle_type_id":"4","last_reported":1738235303,"current_range_meters":26800,"station_id":"ce4bhm92rcd13ifvqglg","pricing_plan_id":"cebpf4jnsgd1na2vs0mg"},{"bike_id":"05e57a95-2c98-4ceb-9388-74d754669e55","system_id":"levelo_inurba_marseille","lat":43.25881,"lon":5.39899,"is_reserved":false,"is_disabled":false,"rental_uris":{"android":"levelo://app?vid=05e57a95-2c98-4ceb-9388-74d754669e55","ios":"levelo://app?vid=05e57a95-2c98-4ceb-9388-74d754669e55"},"vehicle_type_id":"4","last_reported":1738235303,"current_range_meters":22400,"station_id":"ce4bhl92rcd13ifvqghg","pricing_plan_id":"cebpf4jnsgd1na2vs0mg"},{"bike_id":"32802d31-82e5-49aa-928e-45336ddb5e58","system_id":"levelo_inurba_marseille","lat":43.25024,"lon":5.38943,"is_reserved":false,"is_disabled":false,"rental_uris":{"android":"levelo://app?vid=32802d31-82e5-49aa-928e-45336ddb5e58","ios":"levelo://app?vid=32802d31-82e5-49aa-928e-45336ddb5e58"},"vehicle_type_id":"4","last_reported":1738235303,"current_range_meters":33200,"station_id":"ce4bhgp2rcd13ifvqfd0","pricing_plan_id":"cebpf4jnsgd1na2vs0mg"},{"bike_id":"d06240a3-8895-42e8-9212-5c068d44e9d2","system_id":"levelo_inurba_marseille","lat":43.28612,"lon":5.35107,"is_reserved":false,"is_disabled":false,"rental_uris":{"android":"levelo://app?vid=d06240a3-8895-42e8-9212-5c068d44e9d2","ios":"levelo://app?vid=d06240a3-8895-42e8-9212-5c068d44e9d2"},"vehicle_type_id":"4","last_reported":1738235303,"current_range_meters":30000,"station_id":"ce4bhch2rcd13ifvqeug","pricing_plan_id":"cebpf4jnsgd1na2vs0mg"},{"bike_id":"56fbb610-bdd1-4d3f-9177-a3f66a95c10b","system_id":"levelo_inurba_marseille","lat":43.27212,"lon":5.39183,"is_reserved":false,"is_disabled":false,"rental_uris":{"android":"levelo://app?vid=56fbb610-bdd1-4d3f-9177-a3f66a95c10b","ios":"levelo://app?vid=56fbb610-bdd1-4d3f-9177-a3f66a95c10b"},"vehicle_type_id":"4","last_reported":1738235303,"current_range_meters":8400,"station_id":"ce4bhhp2rcd13ifvqfm0","pricing_plan_id":"cebpf4jnsgd1na2vs0mg"},{"bike_id":"ab82d8aa-253d-4958-9348-5279da82b25d","system_id":"levelo_inurba_marseille","lat":43.296242,"lon":5.377148,"is_reserved":false,"is_disabled":false,"rental_uris":{"android":"levelo://app?vid=ab82d8aa-253d-4958-9348-5279da82b25d","ios":"levelo://app?vid=ab82d8aa-253d-4958-9348-5279da82b25d"},"vehicle_type_id":"4","last_reported":1738235303,"current_range_meters":38000,"station_id":"ce4bgi92rcd13ifvqb90","pricing_plan_id":"cebpf4jnsgd1na2vs0mg"},{"bike_id":"d83bde17-7dfd-44a5-9362-2f2133404fdc","system_id":"levelo_inurba_marseille","lat":43.3045,"lon":5.38895,"is_reserved":false,"is_disabled":true,"rental_uris":{"android":"levelo://app?vid=d83bde17-7dfd-44a5-9362-2f2133404fdc","ios":"levelo://app?vid=d83bde17-7dfd-44a5-9362-2f2133404fdc"},"vehicle_type_id":"4","last_reported":1738235303,"current_range_meters":1200,"station_id":"ce4bgk12rcd13ifvqbi0","pricing_plan_id":"cebpf4jnsgd1na2vs0mg"},{"bike_id":"1dbd7473-5367-48f5-8075-df1eb7d34a92","system_id":"levelo_inurba_marseille","lat":43.3061,"lon":5.3722,"is_reserved":false,"is_disabled":false,"rental_uris":{"android":"levelo://app?vid=1dbd7473-5367-48f5-8075-df1eb7d34a92","ios":"levelo://app?vid=1dbd7473-5367-48f5-8075-df1eb7d34a92"},"vehicle_type_id":"4","last_reported":1738235303,"current_range_meters":36800,"station_id":"ce4bgqh2rcd13ifvqc4g","pricing_plan_id":"cebpf4jnsgd1na2vs0mg"},{"bike_id":"c7b7da6b-f6b4-4989-8cde-53b2ceb0ada7","system_id":"levelo_inurba_marseille","lat":43.26557,"lon":5.37303,"is_reserved":false,"is_disabled":false,"rental_uris":{"android":"levelo://app?vid=c7b7da6b-f6b4-4989-8cde-53b2ceb0ada7","ios":"levelo://app?vid=c7b7da6b-f6b4-4989-8cde-53b2ceb0ada7"},"vehicle_type_id":"4","last_reported":1738235303,"current_range_meters":37600,"station_id":"ce4bhg12rcd13ifvqf70","pricing_plan_id":"cebpf4jnsgd1na2vs0mg"},{"bike_id":"9838cc78-2b53-49d3-ae13-82df62c4fd64","system_id":"levelo_inurba_marseille","lat":43.28412,"lon":5.40934,"is_reserved":false,"is_disabled":true,"rental_uris":{"android":"levelo://app?vid=9838cc78-2b53-49d3-ae13-82df62c4fd64","ios":"levelo://app?vid=9838cc78-2b53-49d3-ae13-82df62c4fd64"},"vehicle_type_id":"4","last_reported":1738235303,"current_range_meters":0,"station_id":"","pricing_plan_id":"cebpf4jnsgd1na2vs0mg"},{"bike_id":"01b09b24-35b0-4997-84bb-a5f9f7dc7468","system_id":"levelo_inurba_marseille","lat":43.27304,"lon":5.3913,"is_reserved":false,"is_disabled":false,"rental_uris":{"android":"levelo://app?vid=01b09b24-35b0-4997-84bb-a5f9f7dc7468","ios":"levelo://app?vid=01b09b24-35b0-4997-84bb-a5f9f7dc7468"},"vehicle_type_id":"4","last_reported":1738235303,"current_range_meters":21600,"station_id":"ce4bhgp2rcd13ifvqfe0","pricing_plan_id":"cebpf4jnsgd1na2vs0mg"},{"bike_id":"0b1f4817-4c30-44b7-9201-5f8be66aeb19","system_id":"levelo_inurba_marseille","lat":43.2803,"lon":5.369516,"is_reserved":false,"is_disabled":false,"rental_uris":{"android":"levelo://app?vid=0b1f4817-4c30-44b7-9201-5f8be66aeb19","ios":"levelo://app?vid=0b1f4817-4c30-44b7-9201-5f8be66aeb19"},"vehicle_type_id":"4","last_reported":1738235303,"current_range_meters":39200,"station_id":"ce4bha12rcd13ifvqef0","pricing_plan_id":"cebpf4jnsgd1na2vs0mg"},{"bike_id":"16e2c309-fe3f-49bf-8662-c80333f7fce4","system_id":"levelo_inurba_marseille","lat":43.27323,"lon":5.39097,"is_reserved":false,"is_disabled":false,"rental_uris":{"android":"levelo://app?vid=16e2c309-fe3f-49bf-8662-c80333f7fce4","ios":"levelo://app?vid=16e2c309-fe3f-49bf-8662-c80333f7fce4"},"vehicle_type_id":"4","last_reported":1738235303,"current_range_meters":8400,"station_id":"ce4bhgp2rcd13ifvqfe0","pricing_plan_id":"cebpf4jnsgd1na2vs0mg"},{"bike_id":"1ccd41be-bad7-49e4-a474-044ebff9e373","system_id":"levelo_inurba_marseille","lat":43.30163,"lon":5.38092,"is_reserved":false,"is_disabled":false,"rental_uris":{"android":"levelo://app?vid=1ccd41be-bad7-49e4-a474-044ebff9e373","ios":"levelo://app?vid=1ccd41be-bad7-49e4-a474-044ebff9e373"},"vehicle_type_id":"4","last_reported":1738235303,"current_range_meters":18000,"station_id":"ce4bgjp2rcd13ifvqbh0","pricing_plan_id":"cebpf4jnsgd1na2vs0mg"},{"bike_id":"612c9f64-7a27-4c55-ba7a-b8b28905b7c7","system_id":"levelo_inurba_marseille","lat":43.2799,"lon":5.4167,"is_reserved":false,"is_disabled":false,"rental_uris":{"android":"levelo://app?vid=612c9f64-7a27-4c55-ba7a-b8b28905b7c7","ios":"levelo://app?vid=612c9f64-7a27-4c55-ba7a-b8b28905b7c7"},"vehicle_type_id":"4","last_reported":1738235303,"current_range_meters":35600,"station_id":"ce4bho12rcd13ifvqh1g","pricing_plan_id":"cebpf4jnsgd1na2vs0mg"},{"bike_id":"a6b336c6-34d6-4b26-bccf-abefa3771ff1","system_id":"levelo_inurba_marseille","lat":43.23144,"lon":5.43719,"is_reserved":false,"is_disabled":false,"rental_uris":{"android":"levelo://app?vid=a6b336c6-34d6-4b26-bccf-abefa3771ff1","ios":"levelo://app?vid=a6b336c6-34d6-4b26-bccf-abefa3771ff1"},"vehicle_type_id":"4","last_reported":1738235303,"current_range_meters":38800,"station_id":"ce4bhmp2rcd13ifvqgog","pricing_plan_id":"cebpf4jnsgd1na2vs0mg"},{"bike_id":"9cf3b402-ec4c-4eaa-b9bc-cf0f3fab02ac","system_id":"levelo_inurba_marseille","lat":43.31405,"lon":5.36772,"is_reserved":false,"is_disabled":false,"rental_uris":{"android":"levelo://app?vid=9cf3b402-ec4c-4eaa-b9bc-cf0f3fab02ac","ios":"levelo://app?vid=9cf3b402-ec4c-4eaa-b9bc-cf0f3fab02ac"},"vehicle_type_id":"4","last_reported":1738235303,"current_range_meters":38800,"station_id":"ce4bgr92rcd13ifvqc6g","pricing_plan_id":"cebpf4jnsgd1na2vs0mg"},{"bike_id":"51af85aa-edd2-4caf-8117-370fb26b4c7a","system_id":"levelo_inurba_marseille","lat":43.27915,"lon":5.38008,"is_reserved":false,"is_disabled":false,"rental_uris":{"android":"levelo://app?vid=51af85aa-edd2-4caf-8117-370fb26b4c7a","ios":"levelo://app?vid=51af85aa-edd2-4caf-8117-370fb26b4c7a"},"vehicle_type_id":"4","last_reported":1738235303,"current_range_meters":37600,"station_id":"ce4bhf92rcd13ifvqf50","pricing_plan_id":"cebpf4jnsgd1na2vs0mg"},{"bike_id":"4487981e-35de-45fa-89dc-c9471979b027","system_id":"levelo_inurba_marseille","lat":43.24654,"lon":5.38887,"is_reserved":false,"is_disabled":false,"rental_uris":{"android":"levelo://app?vid=4487981e-35de-45fa-89dc-c9471979b027","ios":"levelo://app?vid=4487981e-35de-45fa-89dc-c9471979b027"},"vehicle_type_id":"4","last_reported":1738235303,"current_range_meters":3600,"station_id":"ce4bhg12rcd13ifvqf60","pricing_plan_id":"cebpf4jnsgd1na2vs0mg"},{"bike_id":"8316cb10-023d-4bec-a7d1-c688e60191c8","system_id":"levelo_inurba_marseille","lat":43.28148,"lon":5.42666,"is_reserved":false,"is_disabled":false,"rental_uris":{"android":"levelo://app?vid=8316cb10-023d-4bec-a7d1-c688e60191c8","ios":"levelo://app?vid=8316cb10-023d-4bec-a7d1-c688e60191c8"},"vehicle_type_id":"4","last_reported":1738235303,"current_range_meters":10800,"station_id":"ce4bhnh2rcd13ifvqgug","pricing_plan_id":"cebpf4jnsgd1na2vs0mg"},{"bike_id":"1a3cbbd3-c7e9-4a3d-a591-84649e5ceff9","system_id":"levelo_inurba_marseille","lat":43.26194,"lon":5.37437,"is_reserved":false,"is_disabled":false,"rental_uris":{"android":"levelo://app?vid=1a3cbbd3-c7e9-4a3d-a591-84649e5ceff9","ios":"levelo://app?vid=1a3cbbd3-c7e9-4a3d-a591-84649e5ceff9"},"vehicle_type_id":"4","last_reported":1738235303,"current_range_meters":38800,"station_id":"ce4bhgp2rcd13ifvqfc0","pricing_plan_id":"cebpf4jnsgd1na2vs0mg"},{"bike_id":"43cda217-14ed-4801-819f-f1965303a677","system_id":"levelo_inurba_marseille","lat":43.29524,"lon":5.42285,"is_reserved":false,"is_disabled":false,"rental_uris":{"android":"levelo://app?vid=43cda217-14ed-4801-819f-f1965303a677","ios":"levelo://app?vid=43cda217-14ed-4801-819f-f1965303a677"},"vehicle_type_id":"4","last_reported":1738235303,"current_range_meters":15200,"station_id":"ce4bhph2rcd13ifvqhdg","pricing_plan_id":"cebpf4jnsgd1na2vs0mg"},{"bike_id":"9e00aafe-aeb8-46b9-b8bb-14707274ee0e","system_id":"levelo_inurba_marseille","lat":43.30557,"lon":5.36536,"is_reserved":false,"is_disabled":false,"rental_uris":{"android":"levelo://app?vid=9e00aafe-aeb8-46b9-b8bb-14707274ee0e","ios":"levelo://app?vid=9e00aafe-aeb8-46b9-b8bb-14707274ee0e"},"vehicle_type_id":"4","last_reported":1738235303,"current_range_meters":39200,"station_id":"ce4bgs12rcd13ifvqcag","pricing_plan_id":"cebpf4jnsgd1na2vs0mg"},{"bike_id":"63713935-ff9d-47be-91c3-758217614fb0","system_id":"levelo_inurba_marseille","lat":43.29617,"lon":5.37712,"is_reserved":false,"is_disabled":false,"rental_uris":{"android":"levelo://app?vid=63713935-ff9d-47be-91c3-758217614fb0","ios":"levelo://app?vid=63713935-ff9d-47be-91c3-758217614fb0"},"vehicle_type_id":"4","last_reported":1738235303,"current_range_meters":26800,"station_id":"ce4bgi92rcd13ifvqb90","pricing_plan_id":"cebpf4jnsgd1na2vs0mg"},{"bike_id":"d979d8d2-ec65-47af-9229-e4270aab279a","system_id":"levelo_inurba_marseille","lat":43.23071,"lon":5.3549,"is_reserved":false,"is_disabled":false,"rental_uris":{"android":"levelo://app?vid=d979d8d2-ec65-47af-9229-e4270aab279a","ios":"levelo://app?vid=d979d8d2-ec65-47af-9229-e4270aab279a"},"vehicle_type_id":"4","last_reported":1738235303,"current_range_meters":14800,"station_id":"cpo3342slgdg3j2ifvpg","pricing_plan_id":"cebpf4jnsgd1na2vs0mg"},{"bike_id":"6d794ab4-8a41-420e-9684-1f49d9f4dedb","system_id":"levelo_inurba_marseille","lat":43.26202,"lon":5.37438,"is_reserved":false,"is_disabled":false,"rental_uris":{"android":"levelo://app?vid=6d794ab4-8a41-420e-9684-1f49d9f4dedb","ios":"levelo://app?vid=6d794ab4-8a41-420e-9684-1f49d9f4dedb"},"vehicle_type_id":"4","last_reported":1738235303,"current_range_meters":39200,"station_id":"ce4bhgp2rcd13ifvqfc0","pricing_plan_id":"cebpf4jnsgd1na2vs0mg"},{"bike_id":"f10d9b40-8520-41ee-b039-cd6e7d066065","system_id":"levelo_inurba_marseille","lat":43.26211,"lon":5.3744,"is_reserved":false,"is_disabled":false,"rental_uris":{"android":"levelo://app?vid=f10d9b40-8520-41ee-b039-cd6e7d066065","ios":"levelo://app?vid=f10d9b40-8520-41ee-b039-cd6e7d066065"},"vehicle_type_id":"4","last_reported":1738235303,"current_range_meters":38000,"station_id":"ce4bhgp2rcd13ifvqfc0","pricing_plan_id":"cebpf4jnsgd1na2vs0mg"},{"bike_id":"faacd275-9dfb-4d15-8976-1d844f8ae75f","system_id":"levelo_inurba_marseille","lat":43.29534,"lon":5.3855,"is_reserved":false,"is_disabled":false,"rental_uris":{"android":"levelo://app?vid=faacd275-9dfb-4d15-8976-1d844f8ae75f","ios":"levelo://app?vid=faacd275-9dfb-4d15-8976-1d844f8ae75f"},"vehicle_type_id":"4","last_reported":1738235303,"current_range_meters":35200,"station_id":"ce4bgih2rcd13ifvqba0","pricing_plan_id":"cebpf4jnsgd1na2vs0mg"},{"bike_id":"efa3b269-1ce7-4216-a455-a1a22b13d3d5","system_id":"levelo_inurba_marseille","lat":43.31486,"lon":5.37309,"is_reserved":false,"is_disabled":false,"rental_uris":{"android":"levelo://app?vid=efa3b269-1ce7-4216-a455-a1a22b13d3d5","ios":"levelo://app?vid=efa3b269-1ce7-4216-a455-a1a22b13d3d5"},"vehicle_type_id":"4","last_reported":1738235303,"current_range_meters":38000,"station_id":"ce4bgt12rcd13ifvqcd0","pricing_plan_id":"cebpf4jnsgd1na2vs0mg"},{"bike_id":"e18968ad-2f35-4200-bb0b-9ff1d852931b","system_id":"levelo_inurba_marseille","lat":43.30551,"lon":5.36539,"is_reserved":false,"is_disabled":false,"rental_uris":{"android":"levelo://app?vid=e18968ad-2f35-4200-bb0b-9ff1d852931b","ios":"levelo://app?vid=e18968ad-2f35-4200-bb0b-9ff1d852931b"},"vehicle_type_id":"4","last_reported":1738235303,"current_range_meters":38400,"station_id":"ce4bgs12rcd13ifvqcag","pricing_plan_id":"cebpf4jnsgd1na2vs0mg"},{"bike_id":"4103f9ea-dc49-40ff-a855-96e33d24e922","system_id":"levelo_inurba_marseille","lat":43.26935,"lon":5.40253,"is_reserved":false,"is_disabled":false,"rental_uris":{"android":"levelo://app?vid=4103f9ea-dc49-40ff-a855-96e33d24e922","ios":"levelo://app?vid=4103f9ea-dc49-40ff-a855-96e33d24e922"},"vehicle_type_id":"4","last_reported":1738235303,"current_range_meters":28000,"station_id":"cjm6bp8fraef2m0cb0m0","pricing_plan_id":"cebpf4jnsgd1na2vs0mg"},{"bike_id":"28fe63c8-8f1f-4ef0-b5b6-e46078c21448","system_id":"levelo_inurba_marseille","lat":43.25838,"lon":5.39456,"is_reserved":false,"is_disabled":false,"rental_uris":{"android":"levelo://app?vid=28fe63c8-8f1f-4ef0-b5b6-e46078c21448","ios":"levelo://app?vid=28fe63c8-8f1f-4ef0-b5b6-e46078c21448"},"vehicle_type_id":"4","last_reported":1738235303,"current_range_meters":39200,"station_id":"ce4bhip2rcd13ifvqft0","pricing_plan_id":"cebpf4jnsgd1na2vs0mg"},{"bike_id":"7d6260ec-6d8c-4d5b-8950-1a493871014c","system_id":"levelo_inurba_marseille","lat":43.29921,"lon":5.437,"is_reserved":false,"is_disabled":false,"rental_uris":{"android":"levelo://app?vid=7d6260ec-6d8c-4d5b-8950-1a493871014c","ios":"levelo://app?vid=7d6260ec-6d8c-4d5b-8950-1a493871014c"},"vehicle_type_id":"4","last_reported":1738235303,"current_range_meters":34800,"station_id":"","pricing_plan_id":"cebpf4jnsgd1na2vs0mg"},{"bike_id":"cd809f94-5358-4489-9b94-66123c0ec66d","system_id":"levelo_inurba_marseille","lat":43.27961,"lon":5.38697,"is_reserved":false,"is_disabled":false,"rental_uris":{"android":"levelo://app?vid=cd809f94-5358-4489-9b94-66123c0ec66d","ios":"levelo://app?vid=cd809f94-5358-4489-9b94-66123c0ec66d"},"vehicle_type_id":"4","last_reported":1738235303,"current_range_meters":15200,"station_id":"ce4bhg12rcd13ifvqf80","pricing_plan_id":"cebpf4jnsgd1na2vs0mg"},{"bike_id":"258d57eb-761c-4e62-b4ee-327b18c96366","system_id":"levelo_inurba_marseille","lat":43.27059,"lon":5.42305,"is_reserved":false,"is_disabled":false,"rental_uris":{"android":"levelo://app?vid=258d57eb-761c-4e62-b4ee-327b18c96366","ios":"levelo://app?vid=258d57eb-761c-4e62-b4ee-327b18c96366"},"vehicle_type_id":"4","last_reported":1738235303,"current_range_meters":38800,"station_id":"ce4bhk92rcd13ifvqgb0","pricing_plan_id":"cebpf4jnsgd1na2vs0mg"},{"bike_id":"79dc36a2-2967-4cc7-bd0f-6a8c14dc3709","system_id":"levelo_inurba_marseille","lat":43.298471,"lon":5.362854,"is_reserved":false,"is_disabled":false,"rental_uris":{"android":"levelo://app?vid=79dc36a2-2967-4cc7-bd0f-6a8c14dc3709","ios":"levelo://app?vid=79dc36a2-2967-4cc7-bd0f-6a8c14dc3709"},"vehicle_type_id":"4","last_reported":1738235303,"current_range_meters":18800,"station_id":"ce4bgpp2rcd13ifvqc3g","pricing_plan_id":"cebpf4jnsgd1na2vs0mg"},{"bike_id":"eefc525c-9394-472c-9a07-edfaa88e8928","system_id":"levelo_inurba_marseille","lat":43.25,"lon":5.38946,"is_reserved":false,"is_disabled":false,"rental_uris":{"android":"levelo://app?vid=eefc525c-9394-472c-9a07-edfaa88e8928","ios":"levelo://app?vid=eefc525c-9394-472c-9a07-edfaa88e8928"},"vehicle_type_id":"4","last_reported":1738235303,"current_range_meters":27600,"station_id":"ce4bhgp2rcd13ifvqfd0","pricing_plan_id":"cebpf4jnsgd1na2vs0mg"},{"bike_id":"f820163d-435a-4c98-9dfc-775bb5d39aac","system_id":"levelo_inurba_marseille","lat":43.2313,"lon":5.4372,"is_reserved":false,"is_disabled":false,"rental_uris":{"android":"levelo://app?vid=f820163d-435a-4c98-9dfc-775bb5d39aac","ios":"levelo://app?vid=f820163d-435a-4c98-9dfc-775bb5d39aac"},"vehicle_type_id":"4","last_reported":1738235303,"current_range_meters":9200,"station_id":"ce4bhmp2rcd13ifvqgog","pricing_plan_id":"cebpf4jnsgd1na2vs0mg"},{"bike_id":"d8b1c3f9-ff6e-4179-8423-4ba0d2a2af0e","system_id":"levelo_inurba_marseille","lat":43.33714,"lon":5.39168,"is_reserved":false,"is_disabled":false,"rental_uris":{"android":"levelo://app?vid=d8b1c3f9-ff6e-4179-8423-4ba0d2a2af0e","ios":"levelo://app?vid=d8b1c3f9-ff6e-4179-8423-4ba0d2a2af0e"},"vehicle_type_id":"4","last_reported":1738235303,"current_range_meters":38800,"station_id":"ce4bhr92rcd13ifvqhsg","pricing_plan_id":"cebpf4jnsgd1na2vs0mg"},{"bike_id":"8fbfaa87-4997-43f3-8d71-b30fc64a490f","system_id":"levelo_inurba_marseille","lat":43.337266,"lon":5.391844,"is_reserved":false,"is_disabled":false,"rental_uris":{"android":"levelo://app?vid=8fbfaa87-4997-43f3-8d71-b30fc64a490f","ios":"levelo://app?vid=8fbfaa87-4997-43f3-8d71-b30fc64a490f"},"vehicle_type_id":"4","last_reported":1738235303,"current_range_meters":38800,"station_id":"ce4bhr92rcd13ifvqhsg","pricing_plan_id":"cebpf4jnsgd1na2vs0mg"},{"bike_id":"40480e75-e0f3-44fe-870b-eeb01551f182","system_id":"levelo_inurba_marseille","lat":43.32559,"lon":5.41449,"is_reserved":false,"is_disabled":false,"rental_uris":{"android":"levelo://app?vid=40480e75-e0f3-44fe-870b-eeb01551f182","ios":"levelo://app?vid=40480e75-e0f3-44fe-870b-eeb01551f182"},"vehicle_type_id":"4","last_reported":1738235303,"current_range_meters":38800,"station_id":"ce4bhq12rcd13ifvqhhg","pricing_plan_id":"cebpf4jnsgd1na2vs0mg"},{"bike_id":"ccb6318c-6994-46f1-b382-d420e97e4a87","system_id":"levelo_inurba_marseille","lat":43.27215,"lon":5.39206,"is_reserved":false,"is_disabled":false,"rental_uris":{"android":"levelo://app?vid=ccb6318c-6994-46f1-b382-d420e97e4a87","ios":"levelo://app?vid=ccb6318c-6994-46f1-b382-d420e97e4a87"},"vehicle_type_id":"4","last_reported":1738235303,"current_range_meters":34800,"station_id":"ce4bhhp2rcd13ifvqfm0","pricing_plan_id":"cebpf4jnsgd1na2vs0mg"},{"bike_id":"c6b22e63-3112-4b18-a4bd-a7ccda40bad7","system_id":"levelo_inurba_marseille","lat":43.29922,"lon":5.38166,"is_reserved":false,"is_disabled":false,"rental_uris":{"android":"levelo://app?vid=c6b22e63-3112-4b18-a4bd-a7ccda40bad7","ios":"levelo://app?vid=c6b22e63-3112-4b18-a4bd-a7ccda40bad7"},"vehicle_type_id":"4","last_reported":1738235303,"current_range_meters":25600,"station_id":"ce4bgj12rcd13ifvqbc0","pricing_plan_id":"cebpf4jnsgd1na2vs0mg"},{"bike_id":"96b5e6b9-a95d-4079-8341-e0cf58ac7815","system_id":"levelo_inurba_marseille","lat":43.30881,"lon":5.39657,"is_reserved":false,"is_disabled":false,"rental_uris":{"android":"levelo://app?vid=96b5e6b9-a95d-4079-8341-e0cf58ac7815","ios":"levelo://app?vid=96b5e6b9-a95d-4079-8341-e0cf58ac7815"},"vehicle_type_id":"4","last_reported":1738235303,"current_range_meters":37600,"station_id":"ce4bh012rcd13ifvqcv0","pricing_plan_id":"cebpf4jnsgd1na2vs0mg"},{"bike_id":"b56534f8-577f-4250-914f-e0db70a64414","system_id":"levelo_inurba_marseille","lat":43.32473,"lon":5.36553,"is_reserved":false,"is_disabled":false,"rental_uris":{"android":"levelo://app?vid=b56534f8-577f-4250-914f-e0db70a64414","ios":"levelo://app?vid=b56534f8-577f-4250-914f-e0db70a64414"},"vehicle_type_id":"4","last_reported":1738235303,"current_range_meters":9200,"station_id":"ce4bhs12rcd13ifvqhvg","pricing_plan_id":"cebpf4jnsgd1na2vs0mg"},{"bike_id":"76c1d001-12fa-466c-9c95-3b28f0bb5ce4","system_id":"levelo_inurba_marseille","lat":43.28567,"lon":5.39497,"is_reserved":false,"is_disabled":false,"rental_uris":{"android":"levelo://app?vid=76c1d001-12fa-466c-9c95-3b28f0bb5ce4","ios":"levelo://app?vid=76c1d001-12fa-466c-9c95-3b28f0bb5ce4"},"vehicle_type_id":"4","last_reported":1738235303,"current_range_meters":38800,"station_id":"ce4bh292rcd13ifvqdg0","pricing_plan_id":"cebpf4jnsgd1na2vs0mg"},{"bike_id":"3c9c9088-9c27-4609-bc62-8218c0dc2be8","system_id":"levelo_inurba_marseille","lat":43.232,"lon":5.35556,"is_reserved":false,"is_disabled":false,"rental_uris":{"android":"levelo://app?vid=3c9c9088-9c27-4609-bc62-8218c0dc2be8","ios":"levelo://app?vid=3c9c9088-9c27-4609-bc62-8218c0dc2be8"},"vehicle_type_id":"4","last_reported":1738235303,"current_range_meters":38800,"station_id":"ce4bhu92rcd13ifvqi70","pricing_plan_id":"cebpf4jnsgd1na2vs0mg"},{"bike_id":"74d02cdc-602f-4946-b7e3-a706778d83b5","system_id":"levelo_inurba_marseille","lat":43.298736,"lon":5.397375,"is_reserved":false,"is_disabled":false,"rental_uris":{"android":"levelo://app?vid=74d02cdc-602f-4946-b7e3-a706778d83b5","ios":"levelo://app?vid=74d02cdc-602f-4946-b7e3-a706778d83b5"},"vehicle_type_id":"4","last_reported":1738235303,"current_range_meters":12000,"station_id":"ce4bh0h2rcd13ifvqd50","pricing_plan_id":"cebpf4jnsgd1na2vs0mg"},{"bike_id":"9a6334c1-2529-46f5-9be3-482365ba227d","system_id":"levelo_inurba_marseille","lat":43.30154,"lon":5.380858,"is_reserved":false,"is_disabled":false,"rental_uris":{"android":"levelo://app?vid=9a6334c1-2529-46f5-9be3-482365ba227d","ios":"levelo://app?vid=9a6334c1-2529-46f5-9be3-482365ba227d"},"vehicle_type_id":"4","last_reported":1738235303,"current_range_meters":30000,"station_id":"ce4bgjp2rcd13ifvqbh0","pricing_plan_id":"cebpf4jnsgd1na2vs0mg"},{"bike_id":"fa2f1c21-3bfc-46ef-bcba-588774df180a","system_id":"levelo_inurba_marseille","lat":43.25875,"lon":5.39901,"is_reserved":false,"is_disabled":false,"rental_uris":{"android":"levelo://app?vid=fa2f1c21-3bfc-46ef-bcba-588774df180a","ios":"levelo://app?vid=fa2f1c21-3bfc-46ef-bcba-588774df180a"},"vehicle_type_id":"4","last_reported":1738235303,"current_range_meters":38400,"station_id":"ce4bhl92rcd13ifvqghg","pricing_plan_id":"cebpf4jnsgd1na2vs0mg"},{"bike_id":"bb6390c0-60fb-42b3-a544-cdbf1d86734d","system_id":"levelo_inurba_marseille","lat":43.26794,"lon":5.40274,"is_reserved":false,"is_disabled":true,"rental_uris":{"android":"levelo://app?vid=bb6390c0-60fb-42b3-a544-cdbf1d86734d","ios":"levelo://app?vid=bb6390c0-60fb-42b3-a544-cdbf1d86734d"},"vehicle_type_id":"4","last_reported":1738235303,"current_range_meters":37600,"station_id":"ce501612rcd8frsf0b60","pricing_plan_id":"cebpf4jnsgd1na2vs0mg"},{"bike_id":"a5aa450d-9f62-459d-aeea-36f763e16bed","system_id":"levelo_inurba_marseille","lat":43.30134,"lon":5.37435,"is_reserved":false,"is_disabled":false,"rental_uris":{"android":"levelo://app?vid=a5aa450d-9f62-459d-aeea-36f763e16bed","ios":"levelo://app?vid=a5aa450d-9f62-459d-aeea-36f763e16bed"},"vehicle_type_id":"4","last_reported":1738235303,"current_range_meters":30800,"station_id":"ce4bgs92rcd13ifvqcc0","pricing_plan_id":"cebpf4jnsgd1na2vs0mg"},{"bike_id":"b7c33046-b29e-49ef-8335-86a90c111b3b","system_id":"levelo_inurba_marseille","lat":43.29579,"lon":5.39975,"is_reserved":false,"is_disabled":false,"rental_uris":{"android":"levelo://app?vid=b7c33046-b29e-49ef-8335-86a90c111b3b","ios":"levelo://app?vid=b7c33046-b29e-49ef-8335-86a90c111b3b"},"vehicle_type_id":"4","last_reported":1738235303,"current_range_meters":17600,"station_id":"ce4bh312rcd13ifvqdj0","pricing_plan_id":"cebpf4jnsgd1na2vs0mg"},{"bike_id":"e74f24e1-add2-4635-a51d-5692fff267ad","system_id":"levelo_inurba_marseille","lat":43.30311,"lon":5.3772,"is_reserved":false,"is_disabled":false,"rental_uris":{"android":"levelo://app?vid=e74f24e1-add2-4635-a51d-5692fff267ad","ios":"levelo://app?vid=e74f24e1-add2-4635-a51d-5692fff267ad"},"vehicle_type_id":"4","last_reported":1738235303,"current_range_meters":32400,"station_id":"ce4bguh2rcd13ifvqcj0","pricing_plan_id":"cebpf4jnsgd1na2vs0mg"},{"bike_id":"48e84fda-87e8-4bfd-8e51-60aadd772dc3","system_id":"levelo_inurba_marseille","lat":43.29616,"lon":5.37728,"is_reserved":false,"is_disabled":false,"rental_uris":{"android":"levelo://app?vid=48e84fda-87e8-4bfd-8e51-60aadd772dc3","ios":"levelo://app?vid=48e84fda-87e8-4bfd-8e51-60aadd772dc3"},"vehicle_type_id":"4","last_reported":1738235303,"current_range_meters":11200,"station_id":"ce4bgi92rcd13ifvqb90","pricing_plan_id":"cebpf4jnsgd1na2vs0mg"},{"bike_id":"4bda7966-69c2-47cb-977b-16fd1a71e330","system_id":"levelo_inurba_marseille","lat":43.26215,"lon":5.37437,"is_reserved":false,"is_disabled":false,"rental_uris":{"android":"levelo://app?vid=4bda7966-69c2-47cb-977b-16fd1a71e330","ios":"levelo://app?vid=4bda7966-69c2-47cb-977b-16fd1a71e330"},"vehicle_type_id":"4","last_reported":1738235303,"current_range_meters":16800,"station_id":"ce4bhgp2rcd13ifvqfc0","pricing_plan_id":"cebpf4jnsgd1na2vs0mg"},{"bike_id":"9ba7b20b-b074-4f7d-abd9-d06c5316c8f6","system_id":"levelo_inurba_marseille","lat":43.2871,"lon":5.3999,"is_reserved":false,"is_disabled":false,"rental_uris":{"android":"levelo://app?vid=9ba7b20b-b074-4f7d-abd9-d06c5316c8f6","ios":"levelo://app?vid=9ba7b20b-b074-4f7d-abd9-d06c5316c8f6"},"vehicle_type_id":"4","last_reported":1738235303,"current_range_meters":9600,"station_id":"ce4bho92rcd13ifvqh3g","pricing_plan_id":"cebpf4jnsgd1na2vs0mg"},{"bike_id":"e0dc609a-5623-4aab-ae18-92aec8b8e8f3","system_id":"levelo_inurba_marseille","lat":43.29262,"lon":5.38447,"is_reserved":false,"is_disabled":true,"rental_uris":{"android":"levelo://app?vid=e0dc609a-5623-4aab-ae18-92aec8b8e8f3","ios":"levelo://app?vid=e0dc609a-5623-4aab-ae18-92aec8b8e8f3"},"vehicle_type_id":"4","last_reported":1738235303,"current_range_meters":0,"station_id":"ce4bh692rcd13ifvqea0","pricing_plan_id":"cebpf4jnsgd1na2vs0mg"},{"bike_id":"48ef0d7b-d749-4f49-b249-d3442fce7618","system_id":"levelo_inurba_marseille","lat":43.29904,"lon":5.38146,"is_reserved":false,"is_disabled":false,"rental_uris":{"android":"levelo://app?vid=48ef0d7b-d749-4f49-b249-d3442fce7618","ios":"levelo://app?vid=48ef0d7b-d749-4f49-b249-d3442fce7618"},"vehicle_type_id":"4","last_reported":1738235303,"current_range_meters":38800,"station_id":"ce4bgj12rcd13ifvqbc0","pricing_plan_id":"cebpf4jnsgd1na2vs0mg"},{"bike_id":"5e995bf7-c9ed-4dac-99cc-dd1f81921bd9","system_id":"levelo_inurba_marseille","lat":43.26939,"lon":5.40253,"is_reserved":false,"is_disabled":false,"rental_uris":{"android":"levelo://app?vid=5e995bf7-c9ed-4dac-99cc-dd1f81921bd9","ios":"levelo://app?vid=5e995bf7-c9ed-4dac-99cc-dd1f81921bd9"},"vehicle_type_id":"4","last_reported":1738235303,"current_range_meters":38800,"station_id":"cjm6bp8fraef2m0cb0m0","pricing_plan_id":"cebpf4jnsgd1na2vs0mg"},{"bike_id":"9061c30b-f0f7-46e3-8477-d3c2c36b1f53","system_id":"levelo_inurba_marseille","lat":43.28022,"lon":5.36956,"is_reserved":false,"is_disabled":true,"rental_uris":{"android":"levelo://app?vid=9061c30b-f0f7-46e3-8477-d3c2c36b1f53","ios":"levelo://app?vid=9061c30b-f0f7-46e3-8477-d3c2c36b1f53"},"vehicle_type_id":"4","last_reported":1738235303,"current_range_meters":37600,"station_id":"ce4bha12rcd13ifvqef0","pricing_plan_id":"cebpf4jnsgd1na2vs0mg"},{"bike_id":"fba05ad0-85c5-4e7a-a917-4b9c8e256fa2","system_id":"levelo_inurba_marseille","lat":43.31207,"lon":5.36866,"is_reserved":false,"is_disabled":false,"rental_uris":{"android":"levelo://app?vid=fba05ad0-85c5-4e7a-a917-4b9c8e256fa2","ios":"levelo://app?vid=fba05ad0-85c5-4e7a-a917-4b9c8e256fa2"},"vehicle_type_id":"4","last_reported":1738235303,"current_range_meters":38000,"station_id":"ce4bgl92rcd13ifvqbq0","pricing_plan_id":"cebpf4jnsgd1na2vs0mg"},{"bike_id":"130bf937-e208-41ef-ad5f-8c76870100f3","system_id":"levelo_inurba_marseille","lat":43.29804,"lon":5.38105,"is_reserved":false,"is_disabled":false,"rental_uris":{"android":"levelo://app?vid=130bf937-e208-41ef-ad5f-8c76870100f3","ios":"levelo://app?vid=130bf937-e208-41ef-ad5f-8c76870100f3"},"vehicle_type_id":"4","last_reported":1738235303,"current_range_meters":38000,"station_id":"ce4bgip2rcd13ifvqbb0","pricing_plan_id":"cebpf4jnsgd1na2vs0mg"},{"bike_id":"ab2c796a-c23b-4a3a-9534-777b873d6a05","system_id":"levelo_inurba_marseille","lat":43.24177,"lon":5.3641,"is_reserved":false,"is_disabled":false,"rental_uris":{"android":"levelo://app?vid=ab2c796a-c23b-4a3a-9534-777b873d6a05","ios":"levelo://app?vid=ab2c796a-c23b-4a3a-9534-777b873d6a05"},"vehicle_type_id":"4","last_reported":1738235303,"current_range_meters":38800,"station_id":"cpo36qri1sfpv3e86is0","pricing_plan_id":"cebpf4jnsgd1na2vs0mg"},{"bike_id":"052e71f8-8a18-4745-b108-b864fdb89cd2","system_id":"levelo_inurba_marseille","lat":43.32012,"lon":5.38139,"is_reserved":false,"is_disabled":false,"rental_uris":{"android":"levelo://app?vid=052e71f8-8a18-4745-b108-b864fdb89cd2","ios":"levelo://app?vid=052e71f8-8a18-4745-b108-b864fdb89cd2"},"vehicle_type_id":"4","last_reported":1738235303,"current_range_meters":38000,"station_id":"ce4bhr12rcd13ifvqhpg","pricing_plan_id":"cebpf4jnsgd1na2vs0mg"},{"bike_id":"3441e8db-3853-4f3e-baf2-d7fc68ee345c","system_id":"levelo_inurba_marseille","lat":43.30174,"lon":5.38066,"is_reserved":false,"is_disabled":false,"rental_uris":{"android":"levelo://app?vid=3441e8db-3853-4f3e-baf2-d7fc68ee345c","ios":"levelo://app?vid=3441e8db-3853-4f3e-baf2-d7fc68ee345c"},"vehicle_type_id":"4","last_reported":1738235303,"current_range_meters":12400,"station_id":"ce4bgjp2rcd13ifvqbh0","pricing_plan_id":"cebpf4jnsgd1na2vs0mg"},{"bike_id":"25d9b708-f153-4798-b002-e06013bf2bed","system_id":"levelo_inurba_marseille","lat":43.29367,"lon":5.37838,"is_reserved":false,"is_disabled":false,"rental_uris":{"android":"levelo://app?vid=25d9b708-f153-4798-b002-e06013bf2bed","ios":"levelo://app?vid=25d9b708-f153-4798-b002-e06013bf2bed"},"vehicle_type_id":"4","last_reported":1738235303,"current_range_meters":2000,"station_id":"ce4bgjh2rcd13ifvqbf0","pricing_plan_id":"cebpf4jnsgd1na2vs0mg"},{"bike_id":"c2cf120a-c6eb-4fdd-a373-943473eea38d","system_id":"levelo_inurba_marseille","lat":43.24557,"lon":5.39534,"is_reserved":false,"is_disabled":false,"rental_uris":{"android":"levelo://app?vid=c2cf120a-c6eb-4fdd-a373-943473eea38d","ios":"levelo://app?vid=c2cf120a-c6eb-4fdd-a373-943473eea38d"},"vehicle_type_id":"4","last_reported":1738235303,"current_range_meters":38800,"station_id":"ce4bhlp2rcd13ifvqgjg","pricing_plan_id":"cebpf4jnsgd1na2vs0mg"},{"bike_id":"b141262b-93fe-4963-a788-03ad7c9b2213","system_id":"levelo_inurba_marseille","lat":43.26553,"lon":5.37326,"is_reserved":false,"is_disabled":false,"rental_uris":{"android":"levelo://app?vid=b141262b-93fe-4963-a788-03ad7c9b2213","ios":"levelo://app?vid=b141262b-93fe-4963-a788-03ad7c9b2213"},"vehicle_type_id":"4","last_reported":1738235303,"current_range_meters":19200,"station_id":"ce4bhg12rcd13ifvqf70","pricing_plan_id":"cebpf4jnsgd1na2vs0mg"},{"bike_id":"615a0747-8d06-4fbf-b735-2ce44cc12594","system_id":"levelo_inurba_marseille","lat":43.32369,"lon":5.38892,"is_reserved":false,"is_disabled":false,"rental_uris":{"android":"levelo://app?vid=615a0747-8d06-4fbf-b735-2ce44cc12594","ios":"levelo://app?vid=615a0747-8d06-4fbf-b735-2ce44cc12594"},"vehicle_type_id":"4","last_reported":1738235303,"current_range_meters":16400,"station_id":"ce4bhqp2rcd13ifvqhog","pricing_plan_id":"cebpf4jnsgd1na2vs0mg"},{"bike_id":"940d189d-6721-4f82-bae1-5a9e9e8ab03b","system_id":"levelo_inurba_marseille","lat":43.3087,"lon":5.36862,"is_reserved":false,"is_disabled":false,"rental_uris":{"android":"levelo://app?vid=940d189d-6721-4f82-bae1-5a9e9e8ab03b","ios":"levelo://app?vid=940d189d-6721-4f82-bae1-5a9e9e8ab03b"},"vehicle_type_id":"4","last_reported":1738235303,"current_range_meters":21600,"station_id":"","pricing_plan_id":"cebpf4jnsgd1na2vs0mg"},{"bike_id":"2e3861bb-eccb-4118-b23d-52a7e935e074","system_id":"levelo_inurba_marseille","lat":43.27314,"lon":5.39086,"is_reserved":false,"is_disabled":true,"rental_uris":{"android":"levelo://app?vid=2e3861bb-eccb-4118-b23d-52a7e935e074","ios":"levelo://app?vid=2e3861bb-eccb-4118-b23d-52a7e935e074"},"vehicle_type_id":"4","last_reported":1738235303,"current_range_meters":16800,"station_id":"ce4bhgp2rcd13ifvqfe0","pricing_plan_id":"cebpf4jnsgd1na2vs0mg"},{"bike_id":"3afe2907-14fe-40b0-8ce8-247215ed16c8","system_id":"levelo_inurba_marseille","lat":43.26938,"lon":5.38945,"is_reserved":false,"is_disabled":true,"rental_uris":{"android":"levelo://app?vid=3afe2907-14fe-40b0-8ce8-247215ed16c8","ios":"levelo://app?vid=3afe2907-14fe-40b0-8ce8-247215ed16c8"},"vehicle_type_id":"4","last_reported":1738235303,"current_range_meters":0,"station_id":"ce4bhhh2rcd13ifvqfl0","pricing_plan_id":"cebpf4jnsgd1na2vs0mg"},{"bike_id":"e8e1f7c6-d773-4c38-bfcc-4a6d773355ce","system_id":"levelo_inurba_marseille","lat":43.2293,"lon":5.3537,"is_reserved":false,"is_disabled":false,"rental_uris":{"android":"levelo://app?vid=e8e1f7c6-d773-4c38-bfcc-4a6d773355ce","ios":"levelo://app?vid=e8e1f7c6-d773-4c38-bfcc-4a6d773355ce"},"vehicle_type_id":"4","last_reported":1738235303,"current_range_meters":38800,"station_id":"cpo3532slgdg3j2ikp40","pricing_plan_id":"cebpf4jnsgd1na2vs0mg"},{"bike_id":"35a524ca-ecaa-439a-9ef1-bbe552d6f0e3","system_id":"levelo_inurba_marseille","lat":43.32369,"lon":5.38892,"is_reserved":false,"is_disabled":false,"rental_uris":{"android":"levelo://app?vid=35a524ca-ecaa-439a-9ef1-bbe552d6f0e3","ios":"levelo://app?vid=35a524ca-ecaa-439a-9ef1-bbe552d6f0e3"},"vehicle_type_id":"4","last_reported":1738235303,"current_range_meters":22400,"station_id":"ce4bhqp2rcd13ifvqhog","pricing_plan_id":"cebpf4jnsgd1na2vs0mg"},{"bike_id":"53437eb2-94d6-4366-99aa-c458a391e6a5","system_id":"levelo_inurba_marseille","lat":43.295812,"lon":5.367404,"is_reserved":false,"is_disabled":false,"rental_uris":{"android":"levelo://app?vid=53437eb2-94d6-4366-99aa-c458a391e6a5","ios":"levelo://app?vid=53437eb2-94d6-4366-99aa-c458a391e6a5"},"vehicle_type_id":"4","last_reported":1738235303,"current_range_meters":34000,"station_id":"ce4bgph2rcd13ifvqc2g","pricing_plan_id":"cebpf4jnsgd1na2vs0mg"},{"bike_id":"1d1bc79e-5a7a-435e-91f3-73234fa7b584","system_id":"levelo_inurba_marseille","lat":43.29312,"lon":5.37445,"is_reserved":false,"is_disabled":false,"rental_uris":{"android":"levelo://app?vid=1d1bc79e-5a7a-435e-91f3-73234fa7b584","ios":"levelo://app?vid=1d1bc79e-5a7a-435e-91f3-73234fa7b584"},"vehicle_type_id":"4","last_reported":1738235303,"current_range_meters":27600,"station_id":"ce4bgi12rcd13ifvqb70","pricing_plan_id":"cebpf4jnsgd1na2vs0mg"},{"bike_id":"7b6d01c3-b9c6-4cae-b2e7-64fcc0baeeaa","system_id":"levelo_inurba_marseille","lat":43.25567,"lon":5.38243,"is_reserved":false,"is_disabled":false,"rental_uris":{"android":"levelo://app?vid=7b6d01c3-b9c6-4cae-b2e7-64fcc0baeeaa","ios":"levelo://app?vid=7b6d01c3-b9c6-4cae-b2e7-64fcc0baeeaa"},"vehicle_type_id":"4","last_reported":1738235303,"current_range_meters":18000,"station_id":"ce4bhih2rcd13ifvqfs0","pricing_plan_id":"cebpf4jnsgd1na2vs0mg"},{"bike_id":"260c3224-c3e5-4a9a-a5e4-8a6ee28f69e2","system_id":"levelo_inurba_marseille","lat":43.2811,"lon":5.37894,"is_reserved":false,"is_disabled":false,"rental_uris":{"android":"levelo://app?vid=260c3224-c3e5-4a9a-a5e4-8a6ee28f69e2","ios":"levelo://app?vid=260c3224-c3e5-4a9a-a5e4-8a6ee28f69e2"},"vehicle_type_id":"4","last_reported":1738235303,"current_range_meters":30000,"station_id":"","pricing_plan_id":"cebpf4jnsgd1na2vs0mg"},{"bike_id":"d779a66a-a000-4b02-80ac-21b7ea5b1407","system_id":"levelo_inurba_marseille","lat":43.25934,"lon":5.40903,"is_reserved":false,"is_disabled":false,"rental_uris":{"android":"levelo://app?vid=d779a66a-a000-4b02-80ac-21b7ea5b1407","ios":"levelo://app?vid=d779a66a-a000-4b02-80ac-21b7ea5b1407"},"vehicle_type_id":"4","last_reported":1738235303,"current_range_meters":35600,"station_id":"ce4bhm92rcd13ifvqglg","pricing_plan_id":"cebpf4jnsgd1na2vs0mg"},{"bike_id":"dcc09b49-a81a-42a9-a8e6-ed8eb579a833","system_id":"levelo_inurba_marseille","lat":43.31074,"lon":5.42463,"is_reserved":false,"is_disabled":false,"rental_uris":{"android":"levelo://app?vid=dcc09b49-a81a-42a9-a8e6-ed8eb579a833","ios":"levelo://app?vid=dcc09b49-a81a-42a9-a8e6-ed8eb579a833"},"vehicle_type_id":"4","last_reported":1738235303,"current_range_meters":4400,"station_id":"ce4bhp92rcd13ifvqhag","pricing_plan_id":"cebpf4jnsgd1na2vs0mg"},{"bike_id":"dff83902-6cfe-46db-8997-6c5f54adf90f","system_id":"levelo_inurba_marseille","lat":43.25492,"lon":5.37647,"is_reserved":false,"is_disabled":false,"rental_uris":{"android":"levelo://app?vid=dff83902-6cfe-46db-8997-6c5f54adf90f","ios":"levelo://app?vid=dff83902-6cfe-46db-8997-6c5f54adf90f"},"vehicle_type_id":"4","last_reported":1738235303,"current_range_meters":38000,"station_id":"ce4bhh12rcd13ifvqff0","pricing_plan_id":"cebpf4jnsgd1na2vs0mg"},{"bike_id":"280e8339-ab12-463d-b796-5ae1dc3dbb90","system_id":"levelo_inurba_marseille","lat":43.26034,"lon":5.39397,"is_reserved":false,"is_disabled":true,"rental_uris":{"android":"levelo://app?vid=280e8339-ab12-463d-b796-5ae1dc3dbb90","ios":"levelo://app?vid=280e8339-ab12-463d-b796-5ae1dc3dbb90"},"vehicle_type_id":"4","last_reported":1738235303,"current_range_meters":0,"station_id":"ce4bhh92rcd13ifvqfj0","pricing_plan_id":"cebpf4jnsgd1na2vs0mg"},{"bike_id":"1c7a384f-10e8-4fbc-9897-df5823efdac1","system_id":"levelo_inurba_marseille","lat":43.26955,"lon":5.38633,"is_reserved":false,"is_disabled":false,"rental_uris":{"android":"levelo://app?vid=1c7a384f-10e8-4fbc-9897-df5823efdac1","ios":"levelo://app?vid=1c7a384f-10e8-4fbc-9897-df5823efdac1"},"vehicle_type_id":"4","last_reported":1738235303,"current_range_meters":22800,"station_id":"ce4bhh92rcd13ifvqfh0","pricing_plan_id":"cebpf4jnsgd1na2vs0mg"},{"bike_id":"c1d1ce73-8f8f-42c4-8303-66858ad4f592","system_id":"levelo_inurba_marseille","lat":43.27495,"lon":5.42457,"is_reserved":false,"is_disabled":true,"rental_uris":{"android":"levelo://app?vid=c1d1ce73-8f8f-42c4-8303-66858ad4f592","ios":"levelo://app?vid=c1d1ce73-8f8f-42c4-8303-66858ad4f592"},"vehicle_type_id":"4","last_reported":1738235303,"current_range_meters":24400,"station_id":"ce4bhn92rcd13ifvqgrg","pricing_plan_id":"cebpf4jnsgd1na2vs0mg"},{"bike_id":"43be6554-feb6-4825-b3f4-6a5d2a2b4ee5","system_id":"levelo_inurba_marseille","lat":43.23158,"lon":5.4371,"is_reserved":false,"is_disabled":false,"rental_uris":{"android":"levelo://app?vid=43be6554-feb6-4825-b3f4-6a5d2a2b4ee5","ios":"levelo://app?vid=43be6554-feb6-4825-b3f4-6a5d2a2b4ee5"},"vehicle_type_id":"4","last_reported":1738235303,"current_range_meters":14000,"station_id":"ce4bhmp2rcd13ifvqgog","pricing_plan_id":"cebpf4jnsgd1na2vs0mg"},{"bike_id":"71f34f72-d3b7-46a5-9bd4-1fe057b3152f","system_id":"levelo_inurba_marseille","lat":43.22943,"lon":5.35384,"is_reserved":false,"is_disabled":false,"rental_uris":{"android":"levelo://app?vid=71f34f72-d3b7-46a5-9bd4-1fe057b3152f","ios":"levelo://app?vid=71f34f72-d3b7-46a5-9bd4-1fe057b3152f"},"vehicle_type_id":"4","last_reported":1738235303,"current_range_meters":38800,"station_id":"cpo3532slgdg3j2ikp40","pricing_plan_id":"cebpf4jnsgd1na2vs0mg"},{"bike_id":"66c12baa-9477-443c-ad62-ceeda86c1e58","system_id":"levelo_inurba_marseille","lat":43.25875,"lon":5.39907,"is_reserved":false,"is_disabled":false,"rental_uris":{"android":"levelo://app?vid=66c12baa-9477-443c-ad62-ceeda86c1e58","ios":"levelo://app?vid=66c12baa-9477-443c-ad62-ceeda86c1e58"},"vehicle_type_id":"4","last_reported":1738235303,"current_range_meters":38800,"station_id":"ce4bhl92rcd13ifvqghg","pricing_plan_id":"cebpf4jnsgd1na2vs0mg"},{"bike_id":"20029bdd-9f9c-4ff9-86e4-5ba6ed30f46a","system_id":"levelo_inurba_marseille","lat":43.23148,"lon":5.43705,"is_reserved":false,"is_disabled":true,"rental_uris":{"android":"levelo://app?vid=20029bdd-9f9c-4ff9-86e4-5ba6ed30f46a","ios":"levelo://app?vid=20029bdd-9f9c-4ff9-86e4-5ba6ed30f46a"},"vehicle_type_id":"4","last_reported":1738235303,"current_range_meters":0,"station_id":"ce4bhmp2rcd13ifvqgog","pricing_plan_id":"cebpf4jnsgd1na2vs0mg"},{"bike_id":"7a60242d-918e-4c18-baaa-0a5b2f8f4ccf","system_id":"levelo_inurba_marseille","lat":43.26761,"lon":5.39428,"is_reserved":false,"is_disabled":false,"rental_uris":{"android":"levelo://app?vid=7a60242d-918e-4c18-baaa-0a5b2f8f4ccf","ios":"levelo://app?vid=7a60242d-918e-4c18-baaa-0a5b2f8f4ccf"},"vehicle_type_id":"4","last_reported":1738235303,"current_range_meters":38800,"station_id":"ce4bhh12rcd13ifvqfg0","pricing_plan_id":"cebpf4jnsgd1na2vs0mg"},{"bike_id":"a335131c-b12c-433f-9f2c-1edb5549eb18","system_id":"levelo_inurba_marseille","lat":43.301663,"lon":5.380754,"is_reserved":false,"is_disabled":false,"rental_uris":{"android":"levelo://app?vid=a335131c-b12c-433f-9f2c-1edb5549eb18","ios":"levelo://app?vid=a335131c-b12c-433f-9f2c-1edb5549eb18"},"vehicle_type_id":"4","last_reported":1738235303,"current_range_meters":22800,"station_id":"ce4bgjp2rcd13ifvqbh0","pricing_plan_id":"cebpf4jnsgd1na2vs0mg"},{"bike_id":"fc493e82-527a-46d8-b087-bf5736e17696","system_id":"levelo_inurba_marseille","lat":43.30794,"lon":5.38161,"is_reserved":false,"is_disabled":false,"rental_uris":{"android":"levelo://app?vid=fc493e82-527a-46d8-b087-bf5736e17696","ios":"levelo://app?vid=fc493e82-527a-46d8-b087-bf5736e17696"},"vehicle_type_id":"4","last_reported":1738235303,"current_range_meters":20400,"station_id":"ce4bgt12rcd13ifvqce0","pricing_plan_id":"cebpf4jnsgd1na2vs0mg"},{"bike_id":"ba76b9c6-65c8-4110-a3be-6da78bd08098","system_id":"levelo_inurba_marseille","lat":43.3055,"lon":5.3652,"is_reserved":false,"is_disabled":false,"rental_uris":{"android":"levelo://app?vid=ba76b9c6-65c8-4110-a3be-6da78bd08098","ios":"levelo://app?vid=ba76b9c6-65c8-4110-a3be-6da78bd08098"},"vehicle_type_id":"4","last_reported":1738235303,"current_range_meters":8800,"station_id":"ce4bgs12rcd13ifvqcag","pricing_plan_id":"cebpf4jnsgd1na2vs0mg"},{"bike_id":"4e81ce69-69b5-4cf8-bc6e-250461601931","system_id":"levelo_inurba_marseille","lat":43.3031,"lon":5.37689,"is_reserved":false,"is_disabled":false,"rental_uris":{"android":"levelo://app?vid=4e81ce69-69b5-4cf8-bc6e-250461601931","ios":"levelo://app?vid=4e81ce69-69b5-4cf8-bc6e-250461601931"},"vehicle_type_id":"4","last_reported":1738235303,"current_range_meters":11600,"station_id":"ce4bguh2rcd13ifvqcj0","pricing_plan_id":"cebpf4jnsgd1na2vs0mg"},{"bike_id":"c491f201-a33a-4aa6-b7e8-0346c5a24748","system_id":"levelo_inurba_marseille","lat":43.29875,"lon":5.39763,"is_reserved":false,"is_disabled":false,"rental_uris":{"android":"levelo://app?vid=c491f201-a33a-4aa6-b7e8-0346c5a24748","ios":"levelo://app?vid=c491f201-a33a-4aa6-b7e8-0346c5a24748"},"vehicle_type_id":"4","last_reported":1738235303,"current_range_meters":10000,"station_id":"ce4bh0h2rcd13ifvqd50","pricing_plan_id":"cebpf4jnsgd1na2vs0mg"},{"bike_id":"18bfafca-3420-4d10-ac87-224f5826758a","system_id":"levelo_inurba_marseille","lat":43.25114,"lon":5.40324,"is_reserved":false,"is_disabled":false,"rental_uris":{"android":"levelo://app?vid=18bfafca-3420-4d10-ac87-224f5826758a","ios":"levelo://app?vid=18bfafca-3420-4d10-ac87-224f5826758a"},"vehicle_type_id":"4","last_reported":1738235303,"current_range_meters":30000,"station_id":"ce4bhlh2rcd13ifvqgig","pricing_plan_id":"cebpf4jnsgd1na2vs0mg"},{"bike_id":"dd0fa045-e66d-403a-833b-7e1ca0b95b2c","system_id":"levelo_inurba_marseille","lat":43.27671,"lon":5.38871,"is_reserved":false,"is_disabled":false,"rental_uris":{"android":"levelo://app?vid=dd0fa045-e66d-403a-833b-7e1ca0b95b2c","ios":"levelo://app?vid=dd0fa045-e66d-403a-833b-7e1ca0b95b2c"},"vehicle_type_id":"4","last_reported":1738235303,"current_range_meters":39200,"station_id":"ce4bhi12rcd13ifvqfo0","pricing_plan_id":"cebpf4jnsgd1na2vs0mg"},{"bike_id":"45fd4a2a-a5dc-4b7e-962f-4641aedb60dd","system_id":"levelo_inurba_marseille","lat":43.27987,"lon":5.41665,"is_reserved":false,"is_disabled":false,"rental_uris":{"android":"levelo://app?vid=45fd4a2a-a5dc-4b7e-962f-4641aedb60dd","ios":"levelo://app?vid=45fd4a2a-a5dc-4b7e-962f-4641aedb60dd"},"vehicle_type_id":"4","last_reported":1738235303,"current_range_meters":33600,"station_id":"ce4bho12rcd13ifvqh1g","pricing_plan_id":"cebpf4jnsgd1na2vs0mg"},{"bike_id":"6ad1b9cb-53f6-4b4e-abc2-e4ac91bb2469","system_id":"levelo_inurba_marseille","lat":43.29735,"lon":5.37341,"is_reserved":false,"is_disabled":false,"rental_uris":{"android":"levelo://app?vid=6ad1b9cb-53f6-4b4e-abc2-e4ac91bb2469","ios":"levelo://app?vid=6ad1b9cb-53f6-4b4e-abc2-e4ac91bb2469"},"vehicle_type_id":"4","last_reported":1738235303,"current_range_meters":38000,"station_id":"ce4bgk12rcd13ifvqbj0","pricing_plan_id":"cebpf4jnsgd1na2vs0mg"},{"bike_id":"595cf55f-af34-4fbb-bd2d-b511b20cb2ef","system_id":"levelo_inurba_marseille","lat":43.27615,"lon":5.36116,"is_reserved":false,"is_disabled":false,"rental_uris":{"android":"levelo://app?vid=595cf55f-af34-4fbb-bd2d-b511b20cb2ef","ios":"levelo://app?vid=595cf55f-af34-4fbb-bd2d-b511b20cb2ef"},"vehicle_type_id":"4","last_reported":1738235303,"current_range_meters":8000,"station_id":"ce4bgj92rcd13ifvqbe0","pricing_plan_id":"cebpf4jnsgd1na2vs0mg"},{"bike_id":"ed930863-f8d6-454c-9be5-1cc1dea54134","system_id":"levelo_inurba_marseille","lat":43.285,"lon":5.3856,"is_reserved":false,"is_disabled":false,"rental_uris":{"android":"levelo://app?vid=ed930863-f8d6-454c-9be5-1cc1dea54134","ios":"levelo://app?vid=ed930863-f8d6-454c-9be5-1cc1dea54134"},"vehicle_type_id":"4","last_reported":1738235303,"current_range_meters":38800,"station_id":"ce4bh8p2rcd13ifvqeb0","pricing_plan_id":"cebpf4jnsgd1na2vs0mg"},{"bike_id":"ec184c8f-729e-40bc-b163-773aef833942","system_id":"levelo_inurba_marseille","lat":43.30529,"lon":5.36559,"is_reserved":false,"is_disabled":false,"rental_uris":{"android":"levelo://app?vid=ec184c8f-729e-40bc-b163-773aef833942","ios":"levelo://app?vid=ec184c8f-729e-40bc-b163-773aef833942"},"vehicle_type_id":"4","last_reported":1738235303,"current_range_meters":38800,"station_id":"ce4bgs12rcd13ifvqcag","pricing_plan_id":"cebpf4jnsgd1na2vs0mg"},{"bike_id":"01ec46d8-93d3-4495-8c47-385093de8227","system_id":"levelo_inurba_marseille","lat":43.29309,"lon":5.37453,"is_reserved":false,"is_disabled":false,"rental_uris":{"android":"levelo://app?vid=01ec46d8-93d3-4495-8c47-385093de8227","ios":"levelo://app?vid=01ec46d8-93d3-4495-8c47-385093de8227"},"vehicle_type_id":"4","last_reported":1738235303,"current_range_meters":36800,"station_id":"ce4bgi12rcd13ifvqb70","pricing_plan_id":"cebpf4jnsgd1na2vs0mg"},{"bike_id":"69311afe-3d11-4d33-bd7f-5a46e643a98b","system_id":"levelo_inurba_marseille","lat":43.27075,"lon":5.40332,"is_reserved":false,"is_disabled":false,"rental_uris":{"android":"levelo://app?vid=69311afe-3d11-4d33-bd7f-5a46e643a98b","ios":"levelo://app?vid=69311afe-3d11-4d33-bd7f-5a46e643a98b"},"vehicle_type_id":"4","last_reported":1738235303,"current_range_meters":16400,"station_id":"ce4bhk92rcd13ifvqgc0","pricing_plan_id":"cebpf4jnsgd1na2vs0mg"},{"bike_id":"2571a167-9c0b-445b-9c75-e3de1ba062a0","system_id":"levelo_inurba_marseille","lat":43.26073,"lon":5.39389,"is_reserved":false,"is_disabled":false,"rental_uris":{"android":"levelo://app?vid=2571a167-9c0b-445b-9c75-e3de1ba062a0","ios":"levelo://app?vid=2571a167-9c0b-445b-9c75-e3de1ba062a0"},"vehicle_type_id":"4","last_reported":1738235303,"current_range_meters":38800,"station_id":"ce4bhhp2rcd13ifvqfm0","pricing_plan_id":"cebpf4jnsgd1na2vs0mg"},{"bike_id":"ddd46040-8311-4f5c-89c2-37543ac9c47d","system_id":"levelo_inurba_marseille","lat":43.30353,"lon":5.41881,"is_reserved":false,"is_disabled":false,"rental_uris":{"android":"levelo://app?vid=ddd46040-8311-4f5c-89c2-37543ac9c47d","ios":"levelo://app?vid=ddd46040-8311-4f5c-89c2-37543ac9c47d"},"vehicle_type_id":"4","last_reported":1738235303,"current_range_meters":28400,"station_id":"ce4bhop2rcd13ifvqh7g","pricing_plan_id":"cebpf4jnsgd1na2vs0mg"},{"bike_id":"875f91a5-4c73-42d2-986e-cd89f19e8a5d","system_id":"levelo_inurba_marseille","lat":43.30161,"lon":5.37433,"is_reserved":false,"is_disabled":false,"rental_uris":{"android":"levelo://app?vid=875f91a5-4c73-42d2-986e-cd89f19e8a5d","ios":"levelo://app?vid=875f91a5-4c73-42d2-986e-cd89f19e8a5d"},"vehicle_type_id":"4","last_reported":1738235303,"current_range_meters":27600,"station_id":"ce4bgs92rcd13ifvqcc0","pricing_plan_id":"cebpf4jnsgd1na2vs0mg"},{"bike_id":"7b1f9fa5-4fc5-480e-be3b-47b384eae9a9","system_id":"levelo_inurba_marseille","lat":43.23964,"lon":5.36626,"is_reserved":false,"is_disabled":false,"rental_uris":{"android":"levelo://app?vid=7b1f9fa5-4fc5-480e-be3b-47b384eae9a9","ios":"levelo://app?vid=7b1f9fa5-4fc5-480e-be3b-47b384eae9a9"},"vehicle_type_id":"4","last_reported":1738235303,"current_range_meters":38800,"station_id":"ce4bhi12rcd13ifvqfp0","pricing_plan_id":"cebpf4jnsgd1na2vs0mg"},{"bike_id":"1af203ab-771e-4433-8937-d15f0f9964af","system_id":"levelo_inurba_marseille","lat":43.28686,"lon":5.39997,"is_reserved":false,"is_disabled":true,"rental_uris":{"android":"levelo://app?vid=1af203ab-771e-4433-8937-d15f0f9964af","ios":"levelo://app?vid=1af203ab-771e-4433-8937-d15f0f9964af"},"vehicle_type_id":"4","last_reported":1738235303,"current_range_meters":400,"station_id":"ce4bho92rcd13ifvqh3g","pricing_plan_id":"cebpf4jnsgd1na2vs0mg"},{"bike_id":"3b52da6d-9c8f-4194-8227-fabd9d5490b1","system_id":"levelo_inurba_marseille","lat":43.26573,"lon":5.39018,"is_reserved":false,"is_disabled":false,"rental_uris":{"android":"levelo://app?vid=3b52da6d-9c8f-4194-8227-fabd9d5490b1","ios":"levelo://app?vid=3b52da6d-9c8f-4194-8227-fabd9d5490b1"},"vehicle_type_id":"4","last_reported":1738235303,"current_range_meters":36800,"station_id":"ce4bhe12rcd13ifvqf30","pricing_plan_id":"cebpf4jnsgd1na2vs0mg"},{"bike_id":"1fd0a7be-ca62-475c-82f2-378674288d1f","system_id":"levelo_inurba_marseille","lat":43.262162,"lon":5.404608,"is_reserved":false,"is_disabled":false,"rental_uris":{"android":"levelo://app?vid=1fd0a7be-ca62-475c-82f2-378674288d1f","ios":"levelo://app?vid=1fd0a7be-ca62-475c-82f2-378674288d1f"},"vehicle_type_id":"4","last_reported":1738235303,"current_range_meters":36400,"station_id":"ce4bhmh2rcd13ifvqgmg","pricing_plan_id":"cebpf4jnsgd1na2vs0mg"},{"bike_id":"f9d35a32-65b2-4842-bd83-8cbe10324274","system_id":"levelo_inurba_marseille","lat":43.28628,"lon":5.35137,"is_reserved":false,"is_disabled":false,"rental_uris":{"android":"levelo://app?vid=f9d35a32-65b2-4842-bd83-8cbe10324274","ios":"levelo://app?vid=f9d35a32-65b2-4842-bd83-8cbe10324274"},"vehicle_type_id":"4","last_reported":1738235303,"current_range_meters":18000,"station_id":"ce4bhch2rcd13ifvqeug","pricing_plan_id":"cebpf4jnsgd1na2vs0mg"},{"bike_id":"258c223c-46d6-47bb-80c4-3b4c4df01fd5","system_id":"levelo_inurba_marseille","lat":43.2927,"lon":5.3845,"is_reserved":false,"is_disabled":true,"rental_uris":{"android":"levelo://app?vid=258c223c-46d6-47bb-80c4-3b4c4df01fd5","ios":"levelo://app?vid=258c223c-46d6-47bb-80c4-3b4c4df01fd5"},"vehicle_type_id":"4","last_reported":1738235303,"current_range_meters":0,"station_id":"ce4bh692rcd13ifvqea0","pricing_plan_id":"cebpf4jnsgd1na2vs0mg"},{"bike_id":"57ea5f77-abf9-41ff-8ffe-e281a2630bfe","system_id":"levelo_inurba_marseille","lat":43.28093,"lon":5.39679,"is_reserved":false,"is_disabled":true,"rental_uris":{"android":"levelo://app?vid=57ea5f77-abf9-41ff-8ffe-e281a2630bfe","ios":"levelo://app?vid=57ea5f77-abf9-41ff-8ffe-e281a2630bfe"},"vehicle_type_id":"4","last_reported":1738235303,"current_range_meters":38800,"station_id":"ce4bho12rcd13ifvqh2g","pricing_plan_id":"cebpf4jnsgd1na2vs0mg"},{"bike_id":"5caf3e5e-5d0b-405a-9416-aa245efd9c0c","system_id":"levelo_inurba_marseille","lat":43.24662,"lon":5.38163,"is_reserved":false,"is_disabled":false,"rental_uris":{"android":"levelo://app?vid=5caf3e5e-5d0b-405a-9416-aa245efd9c0c","ios":"levelo://app?vid=5caf3e5e-5d0b-405a-9416-aa245efd9c0c"},"vehicle_type_id":"4","last_reported":1738235303,"current_range_meters":17200,"station_id":"ce4bhih2rcd13ifvqfr0","pricing_plan_id":"cebpf4jnsgd1na2vs0mg"},{"bike_id":"64327807-234a-4dc3-890c-3e31ba707495","system_id":"levelo_inurba_marseille","lat":43.2656,"lon":5.37299,"is_reserved":false,"is_disabled":false,"rental_uris":{"android":"levelo://app?vid=64327807-234a-4dc3-890c-3e31ba707495","ios":"levelo://app?vid=64327807-234a-4dc3-890c-3e31ba707495"},"vehicle_type_id":"4","last_reported":1738235303,"current_range_meters":14000,"station_id":"ce4bhg12rcd13ifvqf70","pricing_plan_id":"cebpf4jnsgd1na2vs0mg"},{"bike_id":"f081e2c4-cf90-49e4-9b76-65331aefabc3","system_id":"levelo_inurba_marseille","lat":43.29896,"lon":5.39778,"is_reserved":false,"is_disabled":false,"rental_uris":{"android":"levelo://app?vid=f081e2c4-cf90-49e4-9b76-65331aefabc3","ios":"levelo://app?vid=f081e2c4-cf90-49e4-9b76-65331aefabc3"},"vehicle_type_id":"4","last_reported":1738235303,"current_range_meters":38800,"station_id":"ce4bh0h2rcd13ifvqd50","pricing_plan_id":"cebpf4jnsgd1na2vs0mg"},{"bike_id":"e526cf57-283f-4156-ac37-21078135e89c","system_id":"levelo_inurba_marseille","lat":43.31324,"lon":5.3969,"is_reserved":false,"is_disabled":false,"rental_uris":{"android":"levelo://app?vid=e526cf57-283f-4156-ac37-21078135e89c","ios":"levelo://app?vid=e526cf57-283f-4156-ac37-21078135e89c"},"vehicle_type_id":"4","last_reported":1738235303,"current_range_meters":39200,"station_id":"ce4bgvp2rcd13ifvqcu0","pricing_plan_id":"cebpf4jnsgd1na2vs0mg"},{"bike_id":"fa5777be-2f8d-4d60-9884-6ef6eaf71fca","system_id":"levelo_inurba_marseille","lat":43.3137,"lon":5.3849,"is_reserved":false,"is_disabled":false,"rental_uris":{"android":"levelo://app?vid=fa5777be-2f8d-4d60-9884-6ef6eaf71fca","ios":"levelo://app?vid=fa5777be-2f8d-4d60-9884-6ef6eaf71fca"},"vehicle_type_id":"4","last_reported":1738235303,"current_range_meters":34000,"station_id":"ce4bgt92rcd13ifvqcf0","pricing_plan_id":"cebpf4jnsgd1na2vs0mg"},{"bike_id":"d9269dca-11c1-4f87-8ac4-f69b6f325b66","system_id":"levelo_inurba_marseille","lat":43.30102,"lon":5.39079,"is_reserved":false,"is_disabled":false,"rental_uris":{"android":"levelo://app?vid=d9269dca-11c1-4f87-8ac4-f69b6f325b66","ios":"levelo://app?vid=d9269dca-11c1-4f87-8ac4-f69b6f325b66"},"vehicle_type_id":"4","last_reported":1738235303,"current_range_meters":38400,"station_id":"ce4bh192rcd13ifvqdb0","pricing_plan_id":"cebpf4jnsgd1na2vs0mg"},{"bike_id":"077a1a4b-e81b-448a-b493-44b5cab4879b","system_id":"levelo_inurba_marseille","lat":43.29225,"lon":5.36077,"is_reserved":false,"is_disabled":false,"rental_uris":{"android":"levelo://app?vid=077a1a4b-e81b-448a-b493-44b5cab4879b","ios":"levelo://app?vid=077a1a4b-e81b-448a-b493-44b5cab4879b"},"vehicle_type_id":"4","last_reported":1738235303,"current_range_meters":5600,"station_id":"ce4bhbh2rcd13ifvqeqg","pricing_plan_id":"cebpf4jnsgd1na2vs0mg"},{"bike_id":"3efda29f-e123-4ef7-b95b-b7762a3d7d88","system_id":"levelo_inurba_marseille","lat":43.25073,"lon":5.39522,"is_reserved":false,"is_disabled":false,"rental_uris":{"android":"levelo://app?vid=3efda29f-e123-4ef7-b95b-b7762a3d7d88","ios":"levelo://app?vid=3efda29f-e123-4ef7-b95b-b7762a3d7d88"},"vehicle_type_id":"4","last_reported":1738235303,"current_range_meters":17200,"station_id":"ce4bhm12rcd13ifvqgkg","pricing_plan_id":"cebpf4jnsgd1na2vs0mg"},{"bike_id":"9607a805-ec1f-40d0-bc0d-56e526d9afc5","system_id":"levelo_inurba_marseille","lat":43.24994,"lon":5.38948,"is_reserved":false,"is_disabled":false,"rental_uris":{"android":"levelo://app?vid=9607a805-ec1f-40d0-bc0d-56e526d9afc5","ios":"levelo://app?vid=9607a805-ec1f-40d0-bc0d-56e526d9afc5"},"vehicle_type_id":"4","last_reported":1738235303,"current_range_meters":24000,"station_id":"ce4bhgp2rcd13ifvqfd0","pricing_plan_id":"cebpf4jnsgd1na2vs0mg"},{"bike_id":"88e6f0ef-88ea-4713-9523-b839cdc40d4f","system_id":"levelo_inurba_marseille","lat":43.29745,"lon":5.37689,"is_reserved":false,"is_disabled":false,"rental_uris":{"android":"levelo://app?vid=88e6f0ef-88ea-4713-9523-b839cdc40d4f","ios":"levelo://app?vid=88e6f0ef-88ea-4713-9523-b839cdc40d4f"},"vehicle_type_id":"4","last_reported":1738235303,"current_range_meters":30800,"station_id":"ce4bgkh2rcd13ifvqbl0","pricing_plan_id":"cebpf4jnsgd1na2vs0mg"},{"bike_id":"2fc9d09d-d157-4807-bde5-e14d1bdabb1e","system_id":"levelo_inurba_marseille","lat":43.29799,"lon":5.38124,"is_reserved":false,"is_disabled":false,"rental_uris":{"android":"levelo://app?vid=2fc9d09d-d157-4807-bde5-e14d1bdabb1e","ios":"levelo://app?vid=2fc9d09d-d157-4807-bde5-e14d1bdabb1e"},"vehicle_type_id":"4","last_reported":1738235303,"current_range_meters":38800,"station_id":"ce4bgip2rcd13ifvqbb0","pricing_plan_id":"cebpf4jnsgd1na2vs0mg"},{"bike_id":"c72f0b9f-d72a-436c-b2c2-bae178edf944","system_id":"levelo_inurba_marseille","lat":43.27995,"lon":5.41724,"is_reserved":false,"is_disabled":false,"rental_uris":{"android":"levelo://app?vid=c72f0b9f-d72a-436c-b2c2-bae178edf944","ios":"levelo://app?vid=c72f0b9f-d72a-436c-b2c2-bae178edf944"},"vehicle_type_id":"4","last_reported":1738235303,"current_range_meters":7200,"station_id":"","pricing_plan_id":"cebpf4jnsgd1na2vs0mg"},{"bike_id":"8382186f-0d25-40e6-beca-2632cc8590f2","system_id":"levelo_inurba_marseille","lat":43.29526,"lon":5.4229,"is_reserved":false,"is_disabled":true,"rental_uris":{"android":"levelo://app?vid=8382186f-0d25-40e6-beca-2632cc8590f2","ios":"levelo://app?vid=8382186f-0d25-40e6-beca-2632cc8590f2"},"vehicle_type_id":"4","last_reported":1738235303,"current_range_meters":9200,"station_id":"ce4bhph2rcd13ifvqhdg","pricing_plan_id":"cebpf4jnsgd1na2vs0mg"},{"bike_id":"fcf27e35-89da-4ca6-8099-806739591978","system_id":"levelo_inurba_marseille","lat":43.31168,"lon":5.38707,"is_reserved":false,"is_disabled":false,"rental_uris":{"android":"levelo://app?vid=fcf27e35-89da-4ca6-8099-806739591978","ios":"levelo://app?vid=fcf27e35-89da-4ca6-8099-806739591978"},"vehicle_type_id":"4","last_reported":1738235303,"current_range_meters":30800,"station_id":"ce4bgv12rcd13ifvqcp0","pricing_plan_id":"cebpf4jnsgd1na2vs0mg"},{"bike_id":"61dac7aa-feca-4489-a1ff-9d579146f587","system_id":"levelo_inurba_marseille","lat":43.28708,"lon":5.39992,"is_reserved":false,"is_disabled":false,"rental_uris":{"android":"levelo://app?vid=61dac7aa-feca-4489-a1ff-9d579146f587","ios":"levelo://app?vid=61dac7aa-feca-4489-a1ff-9d579146f587"},"vehicle_type_id":"4","last_reported":1738235303,"current_range_meters":33600,"station_id":"ce4bho92rcd13ifvqh3g","pricing_plan_id":"cebpf4jnsgd1na2vs0mg"},{"bike_id":"36c48a9d-c951-4834-a99e-3a233885d648","system_id":"levelo_inurba_marseille","lat":43.30882,"lon":5.39641,"is_reserved":false,"is_disabled":false,"rental_uris":{"android":"levelo://app?vid=36c48a9d-c951-4834-a99e-3a233885d648","ios":"levelo://app?vid=36c48a9d-c951-4834-a99e-3a233885d648"},"vehicle_type_id":"4","last_reported":1738235303,"current_range_meters":37600,"station_id":"ce4bh012rcd13ifvqcv0","pricing_plan_id":"cebpf4jnsgd1na2vs0mg"},{"bike_id":"41c30c24-c860-4562-8ea3-9d02ce647a6e","system_id":"levelo_inurba_marseille","lat":43.2668,"lon":5.38248,"is_reserved":false,"is_disabled":false,"rental_uris":{"android":"levelo://app?vid=41c30c24-c860-4562-8ea3-9d02ce647a6e","ios":"levelo://app?vid=41c30c24-c860-4562-8ea3-9d02ce647a6e"},"vehicle_type_id":"4","last_reported":1738235303,"current_range_meters":30000,"station_id":"ce4bhg92rcd13ifvqf90","pricing_plan_id":"cebpf4jnsgd1na2vs0mg"},{"bike_id":"ccfbd024-ae69-4c2e-848c-a8428e5be0c6","system_id":"levelo_inurba_marseille","lat":43.29309,"lon":5.37166,"is_reserved":false,"is_disabled":false,"rental_uris":{"android":"levelo://app?vid=ccfbd024-ae69-4c2e-848c-a8428e5be0c6","ios":"levelo://app?vid=ccfbd024-ae69-4c2e-848c-a8428e5be0c6"},"vehicle_type_id":"4","last_reported":1738235303,"current_range_meters":38800,"station_id":"ce4bgh92rcd13ifvqb40","pricing_plan_id":"cebpf4jnsgd1na2vs0mg"},{"bike_id":"bda855eb-f306-4766-b531-a26a641533cf","system_id":"levelo_inurba_marseille","lat":43.23964,"lon":5.36636,"is_reserved":false,"is_disabled":false,"rental_uris":{"android":"levelo://app?vid=bda855eb-f306-4766-b531-a26a641533cf","ios":"levelo://app?vid=bda855eb-f306-4766-b531-a26a641533cf"},"vehicle_type_id":"4","last_reported":1738235303,"current_range_meters":10800,"station_id":"ce4bhi12rcd13ifvqfp0","pricing_plan_id":"cebpf4jnsgd1na2vs0mg"},{"bike_id":"32d9a329-7366-4eb8-8d55-73b5c99c70c3","system_id":"levelo_inurba_marseille","lat":43.23204,"lon":5.35555,"is_reserved":false,"is_disabled":false,"rental_uris":{"android":"levelo://app?vid=32d9a329-7366-4eb8-8d55-73b5c99c70c3","ios":"levelo://app?vid=32d9a329-7366-4eb8-8d55-73b5c99c70c3"},"vehicle_type_id":"4","last_reported":1738235303,"current_range_meters":39200,"station_id":"ce4bhu92rcd13ifvqi70","pricing_plan_id":"cebpf4jnsgd1na2vs0mg"},{"bike_id":"e9e12897-6b7d-4c9d-b500-907d28471123","system_id":"levelo_inurba_marseille","lat":43.3054,"lon":5.36716,"is_reserved":false,"is_disabled":false,"rental_uris":{"android":"levelo://app?vid=e9e12897-6b7d-4c9d-b500-907d28471123","ios":"levelo://app?vid=e9e12897-6b7d-4c9d-b500-907d28471123"},"vehicle_type_id":"4","last_reported":1738235303,"current_range_meters":11600,"station_id":"ce4bgrp2rcd13ifvqc9g","pricing_plan_id":"cebpf4jnsgd1na2vs0mg"},{"bike_id":"f2cd1694-cbcf-4b6f-9463-8b28ee8d6f4b","system_id":"levelo_inurba_marseille","lat":43.230564,"lon":5.354928,"is_reserved":false,"is_disabled":false,"rental_uris":{"android":"levelo://app?vid=f2cd1694-cbcf-4b6f-9463-8b28ee8d6f4b","ios":"levelo://app?vid=f2cd1694-cbcf-4b6f-9463-8b28ee8d6f4b"},"vehicle_type_id":"4","last_reported":1738235303,"current_range_meters":18000,"station_id":"cpo3342slgdg3j2ifvpg","pricing_plan_id":"cebpf4jnsgd1na2vs0mg"},{"bike_id":"0a2fd205-d616-4064-aa75-d4d529957d90","system_id":"levelo_inurba_marseille","lat":43.230625,"lon":5.354851,"is_reserved":false,"is_disabled":false,"rental_uris":{"android":"levelo://app?vid=0a2fd205-d616-4064-aa75-d4d529957d90","ios":"levelo://app?vid=0a2fd205-d616-4064-aa75-d4d529957d90"},"vehicle_type_id":"4","last_reported":1738235303,"current_range_meters":25200,"station_id":"cpo3342slgdg3j2ifvpg","pricing_plan_id":"cebpf4jnsgd1na2vs0mg"},{"bike_id":"9c22f907-4f2a-4fd8-a69e-385c5063cb1c","system_id":"levelo_inurba_marseille","lat":43.25917,"lon":5.40888,"is_reserved":false,"is_disabled":false,"rental_uris":{"android":"levelo://app?vid=9c22f907-4f2a-4fd8-a69e-385c5063cb1c","ios":"levelo://app?vid=9c22f907-4f2a-4fd8-a69e-385c5063cb1c"},"vehicle_type_id":"4","last_reported":1738235303,"current_range_meters":26800,"station_id":"ce4bhm92rcd13ifvqglg","pricing_plan_id":"cebpf4jnsgd1na2vs0mg"},{"bike_id":"851692c4-6ece-4a71-ba19-f442921d2278","system_id":"levelo_inurba_marseille","lat":43.298916,"lon":5.436674,"is_reserved":false,"is_disabled":false,"rental_uris":{"android":"levelo://app?vid=851692c4-6ece-4a71-ba19-f442921d2278","ios":"levelo://app?vid=851692c4-6ece-4a71-ba19-f442921d2278"},"vehicle_type_id":"4","last_reported":1738235303,"current_range_meters":38800,"station_id":"ce4bhpp2rcd13ifvqhfg","pricing_plan_id":"cebpf4jnsgd1na2vs0mg"},{"bike_id":"478bb8c8-b920-41b2-9b13-22266349dac7","system_id":"levelo_inurba_marseille","lat":43.27056,"lon":5.40274,"is_reserved":false,"is_disabled":false,"rental_uris":{"android":"levelo://app?vid=478bb8c8-b920-41b2-9b13-22266349dac7","ios":"levelo://app?vid=478bb8c8-b920-41b2-9b13-22266349dac7"},"vehicle_type_id":"4","last_reported":1738235303,"current_range_meters":32800,"station_id":"ce4bhk92rcd13ifvqgc0","pricing_plan_id":"cebpf4jnsgd1na2vs0mg"},{"bike_id":"5d85446d-a1e3-4da3-9e1b-711954a91272","system_id":"levelo_inurba_marseille","lat":43.32491,"lon":5.36566,"is_reserved":false,"is_disabled":true,"rental_uris":{"android":"levelo://app?vid=5d85446d-a1e3-4da3-9e1b-711954a91272","ios":"levelo://app?vid=5d85446d-a1e3-4da3-9e1b-711954a91272"},"vehicle_type_id":"4","last_reported":1738235303,"current_range_meters":38800,"station_id":"ce4bhs12rcd13ifvqhvg","pricing_plan_id":"cebpf4jnsgd1na2vs0mg"},{"bike_id":"34e3749f-cff7-4566-8532-255b8417c7ce","system_id":"levelo_inurba_marseille","lat":43.2767,"lon":5.3888,"is_reserved":false,"is_disabled":false,"rental_uris":{"android":"levelo://app?vid=34e3749f-cff7-4566-8532-255b8417c7ce","ios":"levelo://app?vid=34e3749f-cff7-4566-8532-255b8417c7ce"},"vehicle_type_id":"4","last_reported":1738235303,"current_range_meters":17600,"station_id":"ce4bhi12rcd13ifvqfo0","pricing_plan_id":"cebpf4jnsgd1na2vs0mg"},{"bike_id":"da356978-beb5-48b9-8dff-1c9f1529e01a","system_id":"levelo_inurba_marseille","lat":43.25732,"lon":5.41054,"is_reserved":false,"is_disabled":false,"rental_uris":{"android":"levelo://app?vid=da356978-beb5-48b9-8dff-1c9f1529e01a","ios":"levelo://app?vid=da356978-beb5-48b9-8dff-1c9f1529e01a"},"vehicle_type_id":"4","last_reported":1738235303,"current_range_meters":16000,"station_id":"ce4bhkp2rcd13ifvqgd0","pricing_plan_id":"cebpf4jnsgd1na2vs0mg"},{"bike_id":"803e03d8-7d2e-4feb-ac46-774902d16dee","system_id":"levelo_inurba_marseille","lat":43.33731,"lon":5.37442,"is_reserved":false,"is_disabled":true,"rental_uris":{"android":"levelo://app?vid=803e03d8-7d2e-4feb-ac46-774902d16dee","ios":"levelo://app?vid=803e03d8-7d2e-4feb-ac46-774902d16dee"},"vehicle_type_id":"4","last_reported":1738235303,"current_range_meters":29600,"station_id":"","pricing_plan_id":"cebpf4jnsgd1na2vs0mg"},{"bike_id":"c886be44-6937-47bb-a1fb-cecd254a9495","system_id":"levelo_inurba_marseille","lat":43.26221,"lon":5.40475,"is_reserved":false,"is_disabled":false,"rental_uris":{"android":"levelo://app?vid=c886be44-6937-47bb-a1fb-cecd254a9495","ios":"levelo://app?vid=c886be44-6937-47bb-a1fb-cecd254a9495"},"vehicle_type_id":"4","last_reported":1738235303,"current_range_meters":36800,"station_id":"ce4bhmh2rcd13ifvqgmg","pricing_plan_id":"cebpf4jnsgd1na2vs0mg"},{"bike_id":"012b484d-8568-41a5-9a44-e6e3f3ea5cf1","system_id":"levelo_inurba_marseille","lat":43.303511,"lon":5.418663,"is_reserved":false,"is_disabled":false,"rental_uris":{"android":"levelo://app?vid=012b484d-8568-41a5-9a44-e6e3f3ea5cf1","ios":"levelo://app?vid=012b484d-8568-41a5-9a44-e6e3f3ea5cf1"},"vehicle_type_id":"4","last_reported":1738235303,"current_range_meters":26800,"station_id":"ce4bhop2rcd13ifvqh7g","pricing_plan_id":"cebpf4jnsgd1na2vs0mg"},{"bike_id":"f751521e-9fd1-4c68-b0aa-b71b2190168b","system_id":"levelo_inurba_marseille","lat":43.31713,"lon":5.37761,"is_reserved":false,"is_disabled":false,"rental_uris":{"android":"levelo://app?vid=f751521e-9fd1-4c68-b0aa-b71b2190168b","ios":"levelo://app?vid=f751521e-9fd1-4c68-b0aa-b71b2190168b"},"vehicle_type_id":"4","last_reported":1738235303,"current_range_meters":32800,"station_id":"ce4bgth2rcd13ifvqch0","pricing_plan_id":"cebpf4jnsgd1na2vs0mg"},{"bike_id":"bc6caab0-381b-4cff-85cc-4b280eaeec74","system_id":"levelo_inurba_marseille","lat":43.28105,"lon":5.37848,"is_reserved":false,"is_disabled":false,"rental_uris":{"android":"levelo://app?vid=bc6caab0-381b-4cff-85cc-4b280eaeec74","ios":"levelo://app?vid=bc6caab0-381b-4cff-85cc-4b280eaeec74"},"vehicle_type_id":"4","last_reported":1738235303,"current_range_meters":31200,"station_id":"ce4bha12rcd13ifvqee0","pricing_plan_id":"cebpf4jnsgd1na2vs0mg"},{"bike_id":"4d7b2321-a8a5-44b5-935c-f312bb8e5e6b","system_id":"levelo_inurba_marseille","lat":43.30952,"lon":5.3902,"is_reserved":false,"is_disabled":false,"rental_uris":{"android":"levelo://app?vid=4d7b2321-a8a5-44b5-935c-f312bb8e5e6b","ios":"levelo://app?vid=4d7b2321-a8a5-44b5-935c-f312bb8e5e6b"},"vehicle_type_id":"4","last_reported":1738235303,"current_range_meters":25200,"station_id":"ce4bgup2rcd13ifvqco0","pricing_plan_id":"cebpf4jnsgd1na2vs0mg"},{"bike_id":"d7b055ae-afa4-45de-a5d1-2d3de46a980e","system_id":"levelo_inurba_marseille","lat":43.33022,"lon":5.39043,"is_reserved":false,"is_disabled":false,"rental_uris":{"android":"levelo://app?vid=d7b055ae-afa4-45de-a5d1-2d3de46a980e","ios":"levelo://app?vid=d7b055ae-afa4-45de-a5d1-2d3de46a980e"},"vehicle_type_id":"4","last_reported":1738235303,"current_range_meters":38800,"station_id":"ce4bhr92rcd13ifvqhrg","pricing_plan_id":"cebpf4jnsgd1na2vs0mg"},{"bike_id":"6d9e87fb-cb99-4e92-8d64-65c5fe3e7e00","system_id":"levelo_inurba_marseille","lat":43.29308,"lon":5.3717,"is_reserved":false,"is_disabled":false,"rental_uris":{"android":"levelo://app?vid=6d9e87fb-cb99-4e92-8d64-65c5fe3e7e00","ios":"levelo://app?vid=6d9e87fb-cb99-4e92-8d64-65c5fe3e7e00"},"vehicle_type_id":"4","last_reported":1738235303,"current_range_meters":36400,"station_id":"ce4bgh92rcd13ifvqb40","pricing_plan_id":"cebpf4jnsgd1na2vs0mg"},{"bike_id":"a49dd13b-456a-4b27-93b4-de7b5c7021ca","system_id":"levelo_inurba_marseille","lat":43.29526,"lon":5.39407,"is_reserved":false,"is_disabled":false,"rental_uris":{"android":"levelo://app?vid=a49dd13b-456a-4b27-93b4-de7b5c7021ca","ios":"levelo://app?vid=a49dd13b-456a-4b27-93b4-de7b5c7021ca"},"vehicle_type_id":"4","last_reported":1738235303,"current_range_meters":38000,"station_id":"ce4bh292rcd13ifvqdf0","pricing_plan_id":"cebpf4jnsgd1na2vs0mg"},{"bike_id":"9555b069-d025-4c71-917c-d077a57b4bc6","system_id":"levelo_inurba_marseille","lat":43.28479,"lon":5.38424,"is_reserved":false,"is_disabled":false,"rental_uris":{"android":"levelo://app?vid=9555b069-d025-4c71-917c-d077a57b4bc6","ios":"levelo://app?vid=9555b069-d025-4c71-917c-d077a57b4bc6"},"vehicle_type_id":"4","last_reported":1738235303,"current_range_meters":11200,"station_id":"ce4bh512rcd13ifvqe3g","pricing_plan_id":"cebpf4jnsgd1na2vs0mg"},{"bike_id":"1eedbc56-d358-4051-bf2a-244cd8cf52d4","system_id":"levelo_inurba_marseille","lat":43.28155,"lon":5.42675,"is_reserved":false,"is_disabled":false,"rental_uris":{"android":"levelo://app?vid=1eedbc56-d358-4051-bf2a-244cd8cf52d4","ios":"levelo://app?vid=1eedbc56-d358-4051-bf2a-244cd8cf52d4"},"vehicle_type_id":"4","last_reported":1738235303,"current_range_meters":6000,"station_id":"ce4bhnh2rcd13ifvqgug","pricing_plan_id":"cebpf4jnsgd1na2vs0mg"},{"bike_id":"3cab5ce9-fa36-4f37-a4fd-aa59591df4d1","system_id":"levelo_inurba_marseille","lat":43.28425,"lon":5.34985,"is_reserved":false,"is_disabled":true,"rental_uris":{"android":"levelo://app?vid=3cab5ce9-fa36-4f37-a4fd-aa59591df4d1","ios":"levelo://app?vid=3cab5ce9-fa36-4f37-a4fd-aa59591df4d1"},"vehicle_type_id":"4","last_reported":1738235303,"current_range_meters":27200,"station_id":"ce4bhbh2rcd13ifvqepg","pricing_plan_id":"cebpf4jnsgd1na2vs0mg"},{"bike_id":"d994d4a0-0318-4f4e-9986-d94426f50c25","system_id":"levelo_inurba_marseille","lat":43.26207,"lon":5.37443,"is_reserved":false,"is_disabled":false,"rental_uris":{"android":"levelo://app?vid=d994d4a0-0318-4f4e-9986-d94426f50c25","ios":"levelo://app?vid=d994d4a0-0318-4f4e-9986-d94426f50c25"},"vehicle_type_id":"4","last_reported":1738235303,"current_range_meters":39200,"station_id":"ce4bhgp2rcd13ifvqfc0","pricing_plan_id":"cebpf4jnsgd1na2vs0mg"},{"bike_id":"85af6c92-372c-4cd2-84da-c4ec61fa470d","system_id":"levelo_inurba_marseille","lat":43.25647,"lon":5.41314,"is_reserved":false,"is_disabled":true,"rental_uris":{"android":"levelo://app?vid=85af6c92-372c-4cd2-84da-c4ec61fa470d","ios":"levelo://app?vid=85af6c92-372c-4cd2-84da-c4ec61fa470d"},"vehicle_type_id":"4","last_reported":1738235303,"current_range_meters":36000,"station_id":"","pricing_plan_id":"cebpf4jnsgd1na2vs0mg"},{"bike_id":"37a661ef-f39a-4f49-853d-0534c5874695","system_id":"levelo_inurba_marseille","lat":43.29579,"lon":5.37519,"is_reserved":false,"is_disabled":false,"rental_uris":{"android":"levelo://app?vid=37a661ef-f39a-4f49-853d-0534c5874695","ios":"levelo://app?vid=37a661ef-f39a-4f49-853d-0534c5874695"},"vehicle_type_id":"4","last_reported":1738235303,"current_range_meters":38800,"station_id":"ce4bgh92rcd13ifvqb50","pricing_plan_id":"cebpf4jnsgd1na2vs0mg"},{"bike_id":"285535cc-273c-4f32-ad7c-624554572969","system_id":"levelo_inurba_marseille","lat":43.28378,"lon":5.38632,"is_reserved":false,"is_disabled":false,"rental_uris":{"android":"levelo://app?vid=285535cc-273c-4f32-ad7c-624554572969","ios":"levelo://app?vid=285535cc-273c-4f32-ad7c-624554572969"},"vehicle_type_id":"4","last_reported":1738235303,"current_range_meters":30400,"station_id":"ce4bh492rcd13ifvqdvg","pricing_plan_id":"cebpf4jnsgd1na2vs0mg"},{"bike_id":"c9b91323-d6af-4bea-bc46-7e62ec329ac1","system_id":"levelo_inurba_marseille","lat":43.25928,"lon":5.40901,"is_reserved":false,"is_disabled":false,"rental_uris":{"android":"levelo://app?vid=c9b91323-d6af-4bea-bc46-7e62ec329ac1","ios":"levelo://app?vid=c9b91323-d6af-4bea-bc46-7e62ec329ac1"},"vehicle_type_id":"4","last_reported":1738235303,"current_range_meters":22800,"station_id":"ce4bhm92rcd13ifvqglg","pricing_plan_id":"cebpf4jnsgd1na2vs0mg"},{"bike_id":"6630ca91-ca35-4e81-9c54-578b49e543d0","system_id":"levelo_inurba_marseille","lat":43.27805,"lon":5.40719,"is_reserved":false,"is_disabled":false,"rental_uris":{"android":"levelo://app?vid=6630ca91-ca35-4e81-9c54-578b49e543d0","ios":"levelo://app?vid=6630ca91-ca35-4e81-9c54-578b49e543d0"},"vehicle_type_id":"4","last_reported":1738235303,"current_range_meters":25600,"station_id":"ce4bhnh2rcd13ifvqgtg","pricing_plan_id":"cebpf4jnsgd1na2vs0mg"},{"bike_id":"2c03adb6-a474-42c2-b922-a59913154522","system_id":"levelo_inurba_marseille","lat":43.274879,"lon":5.424686,"is_reserved":false,"is_disabled":true,"rental_uris":{"android":"levelo://app?vid=2c03adb6-a474-42c2-b922-a59913154522","ios":"levelo://app?vid=2c03adb6-a474-42c2-b922-a59913154522"},"vehicle_type_id":"4","last_reported":1738235303,"current_range_meters":24800,"station_id":"ce4bhn92rcd13ifvqgrg","pricing_plan_id":"cebpf4jnsgd1na2vs0mg"},{"bike_id":"ff0b922d-3380-49e4-bbeb-3adfa486e523","system_id":"levelo_inurba_marseille","lat":43.259529,"lon":5.409126,"is_reserved":false,"is_disabled":false,"rental_uris":{"android":"levelo://app?vid=ff0b922d-3380-49e4-bbeb-3adfa486e523","ios":"levelo://app?vid=ff0b922d-3380-49e4-bbeb-3adfa486e523"},"vehicle_type_id":"4","last_reported":1738235303,"current_range_meters":17600,"station_id":"ce4bhm92rcd13ifvqglg","pricing_plan_id":"cebpf4jnsgd1na2vs0mg"},{"bike_id":"ae8472a9-7abb-4263-a72b-f107c08a7acc","system_id":"levelo_inurba_marseille","lat":43.24991,"lon":5.38946,"is_reserved":false,"is_disabled":false,"rental_uris":{"android":"levelo://app?vid=ae8472a9-7abb-4263-a72b-f107c08a7acc","ios":"levelo://app?vid=ae8472a9-7abb-4263-a72b-f107c08a7acc"},"vehicle_type_id":"4","last_reported":1738235303,"current_range_meters":28000,"station_id":"ce4bhgp2rcd13ifvqfd0","pricing_plan_id":"cebpf4jnsgd1na2vs0mg"},{"bike_id":"32eb613b-b1d9-43ce-ba43-6576daf47a1e","system_id":"levelo_inurba_marseille","lat":43.2316,"lon":5.43771,"is_reserved":false,"is_disabled":false,"rental_uris":{"android":"levelo://app?vid=32eb613b-b1d9-43ce-ba43-6576daf47a1e","ios":"levelo://app?vid=32eb613b-b1d9-43ce-ba43-6576daf47a1e"},"vehicle_type_id":"4","last_reported":1738235303,"current_range_meters":39200,"station_id":"ce4bhmp2rcd13ifvqgog","pricing_plan_id":"cebpf4jnsgd1na2vs0mg"},{"bike_id":"3d98c6ce-e80d-46e8-b577-648cd8c28632","system_id":"levelo_inurba_marseille","lat":43.34699,"lon":5.34741,"is_reserved":false,"is_disabled":true,"rental_uris":{"android":"levelo://app?vid=3d98c6ce-e80d-46e8-b577-648cd8c28632","ios":"levelo://app?vid=3d98c6ce-e80d-46e8-b577-648cd8c28632"},"vehicle_type_id":"4","last_reported":1738235303,"current_range_meters":0,"station_id":"","pricing_plan_id":"cebpf4jnsgd1na2vs0mg"},{"bike_id":"b2d3914a-2726-4877-b012-9841012fd019","system_id":"levelo_inurba_marseille","lat":43.28699,"lon":5.39982,"is_reserved":false,"is_disabled":false,"rental_uris":{"android":"levelo://app?vid=b2d3914a-2726-4877-b012-9841012fd019","ios":"levelo://app?vid=b2d3914a-2726-4877-b012-9841012fd019"},"vehicle_type_id":"4","last_reported":1738235303,"current_range_meters":36000,"station_id":"ce4bho92rcd13ifvqh3g","pricing_plan_id":"cebpf4jnsgd1na2vs0mg"},{"bike_id":"6f98862b-a882-42a8-976d-ac1c45b588e1","system_id":"levelo_inurba_marseille","lat":43.25494,"lon":5.3764,"is_reserved":false,"is_disabled":true,"rental_uris":{"android":"levelo://app?vid=6f98862b-a882-42a8-976d-ac1c45b588e1","ios":"levelo://app?vid=6f98862b-a882-42a8-976d-ac1c45b588e1"},"vehicle_type_id":"4","last_reported":1738235303,"current_range_meters":38400,"station_id":"ce4bhh12rcd13ifvqff0","pricing_plan_id":"cebpf4jnsgd1na2vs0mg"},{"bike_id":"71de7062-054a-45f8-a97a-b889ad4a92fd","system_id":"levelo_inurba_marseille","lat":43.30133,"lon":5.38099,"is_reserved":false,"is_disabled":false,"rental_uris":{"android":"levelo://app?vid=71de7062-054a-45f8-a97a-b889ad4a92fd","ios":"levelo://app?vid=71de7062-054a-45f8-a97a-b889ad4a92fd"},"vehicle_type_id":"4","last_reported":1738235303,"current_range_meters":7200,"station_id":"ce4bgjp2rcd13ifvqbh0","pricing_plan_id":"cebpf4jnsgd1na2vs0mg"},{"bike_id":"fc663a12-b480-4fff-aef9-514bcea67f09","system_id":"levelo_inurba_marseille","lat":43.30621,"lon":5.37227,"is_reserved":false,"is_disabled":false,"rental_uris":{"android":"levelo://app?vid=fc663a12-b480-4fff-aef9-514bcea67f09","ios":"levelo://app?vid=fc663a12-b480-4fff-aef9-514bcea67f09"},"vehicle_type_id":"4","last_reported":1738235303,"current_range_meters":24000,"station_id":"ce4bgqh2rcd13ifvqc4g","pricing_plan_id":"cebpf4jnsgd1na2vs0mg"},