{"last_updated":1748891301,"ttl":60,"version":"2.2","data":{"bikes":[{"bike_id":"5736accb-991c-4877-a612-8be882a83c2f","system_id":"levelo_inurba_marseille","lat":43.33771,"lon":5.37424,"is_reserved":false,"is_disabled":true,"rental_uris":{"android":"levelo://app?vid=5736accb-991c-4877-a612-8be882a83c2f","ios":"levelo://app?vid=5736accb-991c-4877-a612-8be882a83c2f"},"vehicle_type_id":"4","last_reported":1748891301,"current_range_meters":0,"station_id":"","pricing_plan_id":"cebpf4jnsgd1na2vs0mg"},{"bike_id":"55a5c057-4e97-4693-8616-8ebd3dc507dc","system_id":"levelo_inurba_marseille","lat":43.337499,"lon":5.374469,"is_reserved":false,"is_disabled":true,"rental_uris":{"android":"levelo://app?vid=55a5c057-4e97-4693-8616-8ebd3dc507dc","ios":"levelo://app?vid=55a5c057-4e97-4693-8616-8ebd3dc507dc"},"vehicle_type_id":"4","last_reported":1748891301,"current_range_meters":0,"station_id":"","pricing_plan_id":"cebpf4jnsgd1na2vs0mg"},{"bike_id":"58872a66-6d13-4e73-8bc3-e26429814b74","system_id":"levelo_inurba_marseille","lat":43.337444,"lon":5.374475,"is_reserved":false,"is_disabled":true,"rental_uris":{"android":"levelo://app?vid=58872a66-6d13-4e73-8bc3-e26429814b74","ios":"levelo://app?vid=58872a66-6d13-4e73-8bc3-e26429814b74"},"vehicle_type_id":"4","last_reported":1748891301,"current_range_meters":0,"station_id":"","pricing_plan_id":"cebpf4jnsgd1na2vs0mg"},{"bike_id":"aedab83c-b9e3-4c27-91f4-79f4c3b37920","system_id":"levelo_inurba_marseille","lat":43.337444,"lon":5.374475,"is_reserved":false,"is_disabled":true,"rental_uris":{"android":"levelo://app?vid=aedab83c-b9e3-4c27-91f4-79f4c3b37920","ios":"levelo://app?vid=aedab83c-b9e3-4c27-91f4-79f4c3b37920"},"vehicle_type_id":"4","last_reported":1748891301,"current_range_meters":0,"station_id":"","pricing_plan_id":"cebpf4jnsgd1na2vs0mg"},{"bike_id":"0e5c7fc5-efe6-4da0-bbfc-434e48e22be5","system_id":"levelo_inurba_marseille","lat":43.31935,"lon":5.44191,"is_reserved":false,"is_disabled":true,"rental_uris":{"android":"levelo://app?vid=0e5c7fc5-efe6-4da0-bbfc-434e48e22be5","ios":"levelo://app?vid=0e5c7fc5-efe6-4da0-bbfc-434e48e22be5"},"vehicle_type_id":"4","last_reported":1748891301,"current_range_meters":0,"station_id":"","pricing_plan_id":"cebpf4jnsgd1na2vs0mg"},{"bike_id":"6e7e5163-991a-4d7d-9c2b-4faf721e9959","system_id":"levelo_inurba_marseille","lat":43.279125,"lon":5.353235,"is_reserved":false,"is_disabled":true,"rental_uris":{"android":"levelo://app?vid=6e7e5163-991a-4d7d-9c2b-4faf721e9959","ios":"levelo://app?vid=6e7e5163-991a-4d7d-9c2b-4faf721e9959"},"vehicle_type_id":"4","last_reported":1748891301,"current_range_meters":0,"station_id":"","pricing_plan_id":"cebpf4jnsgd1na2vs0mg"},{"bike_id":"c96c6fc4-cad1-4c13-8507-0b951fec7f8b","system_id":"levelo_inurba_marseille","lat":43.30794,"lon":5.39202,"is_reserved":false,"is_disabled":true,"rental_uris":{"android":"levelo://app?vid=c96c6fc4-cad1-4c13-8507-0b951fec7f8b","ios":"levelo://app?vid=c96c6fc4-cad1-4c13-8507-0b951fec7f8b"},"vehicle_type_id":"4","last_reported":1748891301,"current_range_meters":0,"station_id":"","pricing_plan_id":"cebpf4jnsgd1na2vs0mg"},{"bike_id":"6f6e93c7-2908-4d58-b0a7-39c44f30c9fb","system_id":"levelo_inurba_marseille","lat":43.3149,"lon":5.37308,"is_reserved":false,"is_disabled":true,"rental_uris":{"android":"levelo://app?vid=6f6e93c7-2908-4d58-b0a7-39c44f30c9fb","ios":"levelo://app?vid=6f6e93c7-2908-4d58-b0a7-39c44f30c9fb"},"vehicle_type_id":"4","last_reported":1748891301,"current_range_meters":0,"station_id":"ce4bgt12rcd13ifvqcd0","pricing_plan_id":"cebpf4jnsgd1na2vs0mg"},{"bike_id":"ff2595d8-5854-40df-8064-ac264533a1f7","system_id":"levelo_inurba_marseille","lat":43.30789,"lon":5.37639,"is_reserved":false,"is_disabled":true,"rental_uris":{"android":"levelo://app?vid=ff2595d8-5854-40df-8064-ac264533a1f7","ios":"levelo://app?vid=ff2595d8-5854-40df-8064-ac264533a1f7"},"vehicle_type_id":"4","last_reported":1748891301,"current_range_meters":0,"station_id":"ce4bgv92rcd13ifvqcq0","pricing_plan_id":"cebpf4jnsgd1na2vs0mg"},{"bike_id":"f447ceb0-a6e1-498b-be6f-07886c965c70","system_id":"levelo_inurba_marseille","lat":43.31078,"lon":5.38355,"is_reserved":false,"is_disabled":true,"rental_uris":{"android":"levelo://app?vid=f447ceb0-a6e1-498b-be6f-07886c965c70","ios":"levelo://app?vid=f447ceb0-a6e1-498b-be6f-07886c965c70"},"vehicle_type_id":"4","last_reported":1748891301,"current_range_meters":0,"station_id":"ce4bgv92rcd13ifvqcr0","pricing_plan_id":"cebpf4jnsgd1na2vs0mg"},{"bike_id":"b4d300e2-881a-447b-afdd-ffcccc0160ea","system_id":"levelo_inurba_marseille","lat":43.30927,"lon":5.4014,"is_reserved":false,"is_disabled":true,"rental_uris":{"android":"levelo://app?vid=b4d300e2-881a-447b-afdd-ffcccc0160ea","ios":"levelo://app?vid=b4d300e2-881a-447b-afdd-ffcccc0160ea"},"vehicle_type_id":"4","last_reported":1748891301,"current_range_meters":0,"station_id":"ce4bgvp2rcd13ifvqct0","pricing_plan_id":"cebpf4jnsgd1na2vs0mg"},{"bike_id":"20d95ecd-469e-416f-9a76-da5441c3815f","system_id":"levelo_inurba_marseille","lat":43.31326,"lon":5.39699,"is_reserved":false,"is_disabled":true,"rental_uris":{"android":"levelo://app?vid=20d95ecd-469e-416f-9a76-da5441c3815f","ios":"levelo://app?vid=20d95ecd-469e-416f-9a76-da5441c3815f"},"vehicle_type_id":"4","last_reported":1748891301,"current_range_meters":0,"station_id":"ce4bgvp2rcd13ifvqcu0","pricing_plan_id":"cebpf4jnsgd1na2vs0mg"},{"bike_id":"0cb8dc3d-d38b-4878-b5e9-590134d30ddf","system_id":"levelo_inurba_marseille","lat":43.31713,"lon":5.43695,"is_reserved":false,"is_disabled":true,"rental_uris":{"android":"levelo://app?vid=0cb8dc3d-d38b-4878-b5e9-590134d30ddf","ios":"levelo://app?vid=0cb8dc3d-d38b-4878-b5e9-590134d30ddf"},"vehicle_type_id":"4","last_reported":1748891301,"current_range_meters":0,"station_id":"ce4bhp92rcd13ifvqhcg","pricing_plan_id":"cebpf4jnsgd1na2vs0mg"},{"bike_id":"d3de4d40-ae1b-492f-afa5-d99ae19ff1f6","system_id":"levelo_inurba_marseille","lat":43.32541,"lon":5.41426,"is_reserved":false,"is_disabled":true,"rental_uris":{"android":"levelo://app?vid=d3de4d40-ae1b-492f-afa5-d99ae19ff1f6","ios":"levelo://app?vid=d3de4d40-ae1b-492f-afa5-d99ae19ff1f6"},"vehicle_type_id":"4","last_reported":1748891301,"current_range_meters":0,"station_id":"ce4bhq12rcd13ifvqhhg","pricing_plan_id":"cebpf4jnsgd1na2vs0mg"},{"bike_id":"47e25e50-60f5-49c9-90e1-64d30b8bbeda","system_id":"levelo_inurba_marseille","lat":43.276123,"lon":5.361042,"is_reserved":false,"is_disabled":true,"rental_uris":{"android":"levelo://app?vid=47e25e50-60f5-49c9-90e1-64d30b8bbeda","ios":"levelo://app?vid=47e25e50-60f5-49c9-90e1-64d30b8bbeda"},"vehicle_type_id":"4","last_reported":1748891301,"current_range_meters":400,"station_id":"ce4bgj92rcd13ifvqbe0","pricing_plan_id":"cebpf4jnsgd1na2vs0mg"},{"bike_id":"35dcaedc-4d1d-4041-9f0a-8cacfbe3d6fa","system_id":"levelo_inurba_marseille","lat":43.304211,"lon":5.412855,"is_reserved":false,"is_disabled":true,"rental_uris":{"android":"levelo://app?vid=35dcaedc-4d1d-4041-9f0a-8cacfbe3d6fa","ios":"levelo://app?vid=35dcaedc-4d1d-4041-9f0a-8cacfbe3d6fa"},"vehicle_type_id":"4","last_reported":1748891301,"current_range_meters":400,"station_id":"ce4bhop2rcd13ifvqh8g","pricing_plan_id":"cebpf4jnsgd1na2vs0mg"},{"bike_id":"7ae28148-36fa-49e7-bbdb-5e6cccc65fa6","system_id":"levelo_inurba_marseille","lat":43.33226,"lon":5.3795,"is_reserved":false,"is_disabled":true,"rental_uris":{"android":"levelo://app?vid=7ae28148-36fa-49e7-bbdb-5e6cccc65fa6","ios":"levelo://app?vid=7ae28148-36fa-49e7-bbdb-5e6cccc65fa6"},"vehicle_type_id":"4","last_reported":1748891301,"current_range_meters":1200,"station_id":"","pricing_plan_id":"cebpf4jnsgd1na2vs0mg"},{"bike_id":"de1fb28a-9efb-433d-bca3-8d6699fa7911","system_id":"levelo_inurba_marseille","lat":43.23202,"lon":5.35546,"is_reserved":false,"is_disabled":true,"rental_uris":{"android":"levelo://app?vid=de1fb28a-9efb-433d-bca3-8d6699fa7911","ios":"levelo://app?vid=de1fb28a-9efb-433d-bca3-8d6699fa7911"},"vehicle_type_id":"4","last_reported":1748891301,"current_range_meters":1200,"station_id":"ce4bhu92rcd13ifvqi70","pricing_plan_id":"cebpf4jnsgd1na2vs0mg"},{"bike_id":"856921fa-71f2-4879-a42b-58fd6d7b6a14","system_id":"levelo_inurba_marseille","lat":43.320069,"lon":5.394663,"is_reserved":false,"is_disabled":true,"rental_uris":{"android":"levelo://app?vid=856921fa-71f2-4879-a42b-58fd6d7b6a14","ios":"levelo://app?vid=856921fa-71f2-4879-a42b-58fd6d7b6a14"},"vehicle_type_id":"4","last_reported":1748891301,"current_range_meters":1600,"station_id":"","pricing_plan_id":"cebpf4jnsgd1na2vs0mg"},{"bike_id":"e6666197-2b00-44a8-949b-80ef026f2c75","system_id":"levelo_inurba_marseille","lat":43.27958,"lon":5.4103,"is_reserved":false,"is_disabled":true,"rental_uris":{"android":"levelo://app?vid=e6666197-2b00-44a8-949b-80ef026f2c75","ios":"levelo://app?vid=e6666197-2b00-44a8-949b-80ef026f2c75"},"vehicle_type_id":"4","last_reported":1748891301,"current_range_meters":1600,"station_id":"ce4bhnp2rcd13ifvqh0g","pricing_plan_id":"cebpf4jnsgd1na2vs0mg"},{"bike_id":"31c8343c-6943-4929-8eac-2052905c9d71","system_id":"levelo_inurba_marseille","lat":43.30473,"lon":5.37902,"is_reserved":false,"is_disabled":true,"rental_uris":{"android":"levelo://app?vid=31c8343c-6943-4929-8eac-2052905c9d71","ios":"levelo://app?vid=31c8343c-6943-4929-8eac-2052905c9d71"},"vehicle_type_id":"4","last_reported":1748891301,"current_range_meters":2800,"station_id":"ce4bgup2rcd13ifvqcn0","pricing_plan_id":"cebpf4jnsgd1na2vs0mg"},{"bike_id":"98ef48b3-2017-4920-ba4e-06ab554f8056","system_id":"levelo_inurba_marseille","lat":43.28724,"lon":5.36081,"is_reserved":false,"is_disabled":false,"rental_uris":{"android":"levelo://app?vid=98ef48b3-2017-4920-ba4e-06ab554f8056","ios":"levelo://app?vid=98ef48b3-2017-4920-ba4e-06ab554f8056"},"vehicle_type_id":"4","last_reported":1748891301,"current_range_meters":2800,"station_id":"cki0cbj6b192h4jlfktg","pricing_plan_id":"cebpf4jnsgd1na2vs0mg"},{"bike_id":"207d65bb-0b03-4566-a986-0a5999310a0b","system_id":"levelo_inurba_marseille","lat":43.27571,"lon":5.38428,"is_reserved":false,"is_disabled":false,"rental_uris":{"android":"levelo://app?vid=207d65bb-0b03-4566-a986-0a5999310a0b","ios":"levelo://app?vid=207d65bb-0b03-4566-a986-0a5999310a0b"},"vehicle_type_id":"4","last_reported":1748891301,"current_range_meters":3200,"station_id":"ce4bhh92rcd13ifvqfi0","pricing_plan_id":"cebpf4jnsgd1na2vs0mg"},{"bike_id":"6606e340-151a-4801-a18a-ffdaa1a24529","system_id":"levelo_inurba_marseille","lat":43.32353,"lon":5.38214,"is_reserved":false,"is_disabled":false,"rental_uris":{"android":"levelo://app?vid=6606e340-151a-4801-a18a-ffdaa1a24529","ios":"levelo://app?vid=6606e340-151a-4801-a18a-ffdaa1a24529"},"vehicle_type_id":"4","last_reported":1748891301,"current_range_meters":3600,"station_id":"","pricing_plan_id":"cebpf4jnsgd1na2vs0mg"},{"bike_id":"63654ba2-e25a-4a00-aa98-0f96bd43e5c7","system_id":"levelo_inurba_marseille","lat":43.28994,"lon":5.3559,"is_reserved":false,"is_disabled":false,"rental_uris":{"android":"levelo://app?vid=63654ba2-e25a-4a00-aa98-0f96bd43e5c7","ios":"levelo://app?vid=63654ba2-e25a-4a00-aa98-0f96bd43e5c7"},"vehicle_type_id":"4","last_reported":1748891301,"current_range_meters":3600,"station_id":"ce4bhb92rcd13ifvqen0","pricing_plan_id":"cebpf4jnsgd1na2vs0mg"},{"bike_id":"9e2ca4be-b53d-43de-a866-1dbecbaf46a6","system_id":"levelo_inurba_marseille","lat":43.33722,"lon":5.3918,"is_reserved":false,"is_disabled":false,"rental_uris":{"android":"levelo://app?vid=9e2ca4be-b53d-43de-a866-1dbecbaf46a6","ios":"levelo://app?vid=9e2ca4be-b53d-43de-a866-1dbecbaf46a6"},"vehicle_type_id":"4","last_reported":1748891301,"current_range_meters":4000,"station_id":"ce4bhr92rcd13ifvqhsg","pricing_plan_id":"cebpf4jnsgd1na2vs0mg"},{"bike_id":"bff91e46-d50f-47f4-abcc-a302e9440288","system_id":"levelo_inurba_marseille","lat":43.330905,"lon":5.389595,"is_reserved":false,"is_disabled":false,"rental_uris":{"android":"levelo://app?vid=bff91e46-d50f-47f4-abcc-a302e9440288","ios":"levelo://app?vid=bff91e46-d50f-47f4-abcc-a302e9440288"},"vehicle_type_id":"4","last_reported":1748891301,"current_range_meters":4400,"station_id":"","pricing_plan_id":"cebpf4jnsgd1na2vs0mg"},{"bike_id":"22dffa4b-d820-4624-a137-9cec6f7901b7","system_id":"levelo_inurba_marseille","lat":43.310737,"lon":5.38342,"is_reserved":false,"is_disabled":false,"rental_uris":{"android":"levelo://app?vid=22dffa4b-d820-4624-a137-9cec6f7901b7","ios":"levelo://app?vid=22dffa4b-d820-4624-a137-9cec6f7901b7"},"vehicle_type_id":"4","last_reported":1748891301,"current_range_meters":4400,"station_id":"ce4bgv92rcd13ifvqcr0","pricing_plan_id":"cebpf4jnsgd1na2vs0mg"},{"bike_id":"aadb95fc-d156-41e0-9614-75d762b11d28","system_id":"levelo_inurba_marseille","lat":43.319645,"lon":5.440405,"is_reserved":false,"is_disabled":false,"rental_uris":{"android":"levelo://app?vid=aadb95fc-d156-41e0-9614-75d762b11d28","ios":"levelo://app?vid=aadb95fc-d156-41e0-9614-75d762b11d28"},"vehicle_type_id":"4","last_reported":1748891301,"current_range_meters":4800,"station_id":"","pricing_plan_id":"cebpf4jnsgd1na2vs0mg"},{"bike_id":"3f6feb1b-fcd2-4ae5-aee3-7a2b922fb959","system_id":"levelo_inurba_marseille","lat":43.30892,"lon":5.39636,"is_reserved":false,"is_disabled":false,"rental_uris":{"android":"levelo://app?vid=3f6feb1b-fcd2-4ae5-aee3-7a2b922fb959","ios":"levelo://app?vid=3f6feb1b-fcd2-4ae5-aee3-7a2b922fb959"},"vehicle_type_id":"4","last_reported":1748891301,"current_range_meters":4800,"station_id":"ce4bh012rcd13ifvqcv0","pricing_plan_id":"cebpf4jnsgd1na2vs0mg"},{"bike_id":"a9d466d1-6ecf-44cd-8d9a-61374a4e4992","system_id":"levelo_inurba_marseille","lat":43.29035,"lon":5.39958,"is_reserved":false,"is_disabled":false,"rental_uris":{"android":"levelo://app?vid=a9d466d1-6ecf-44cd-8d9a-61374a4e4992","ios":"levelo://app?vid=a9d466d1-6ecf-44cd-8d9a-61374a4e4992"},"vehicle_type_id":"4","last_reported":1748891301,"current_range_meters":4800,"station_id":"ce4bh392rcd13ifvqdm0","pricing_plan_id":"cebpf4jnsgd1na2vs0mg"},{"bike_id":"bb7250b9-d0ce-4035-896b-ff7c53720627","system_id":"levelo_inurba_marseille","lat":43.28279,"lon":5.3506,"is_reserved":false,"is_disabled":false,"rental_uris":{"android":"levelo://app?vid=bb7250b9-d0ce-4035-896b-ff7c53720627","ios":"levelo://app?vid=bb7250b9-d0ce-4035-896b-ff7c53720627"},"vehicle_type_id":"4","last_reported":1748891301,"current_range_meters":4800,"station_id":"ce4bhbp2rcd13ifvqerg","pricing_plan_id":"cebpf4jnsgd1na2vs0mg"},{"bike_id":"8033c027-4d01-4761-95a4-b04c20640fad","system_id":"levelo_inurba_marseille","lat":43.21755,"lon":5.34593,"is_reserved":false,"is_disabled":false,"rental_uris":{"android":"levelo://app?vid=8033c027-4d01-4761-95a4-b04c20640fad","ios":"levelo://app?vid=8033c027-4d01-4761-95a4-b04c20640fad"},"vehicle_type_id":"4","last_reported":1748891301,"current_range_meters":5600,"station_id":"","pricing_plan_id":"cebpf4jnsgd1na2vs0mg"},{"bike_id":"3bb92c33-91d8-4f88-8f2c-672c7868f4ad","system_id":"levelo_inurba_marseille","lat":43.32897,"lon":5.40538,"is_reserved":false,"is_disabled":false,"rental_uris":{"android":"levelo://app?vid=3bb92c33-91d8-4f88-8f2c-672c7868f4ad","ios":"levelo://app?vid=3bb92c33-91d8-4f88-8f2c-672c7868f4ad"},"vehicle_type_id":"4","last_reported":1748891301,"current_range_meters":5600,"station_id":"","pricing_plan_id":"cebpf4jnsgd1na2vs0mg"},{"bike_id":"bfc5ef3f-b45a-4475-9ae4-9a0465f66e15","system_id":"levelo_inurba_marseille","lat":43.25115,"lon":5.39367,"is_reserved":false,"is_disabled":false,"rental_uris":{"android":"levelo://app?vid=bfc5ef3f-b45a-4475-9ae4-9a0465f66e15","ios":"levelo://app?vid=bfc5ef3f-b45a-4475-9ae4-9a0465f66e15"},"vehicle_type_id":"4","last_reported":1748891301,"current_range_meters":5600,"station_id":"","pricing_plan_id":"cebpf4jnsgd1na2vs0mg"},{"bike_id":"9b83bab8-534e-49f6-996d-cbc1a7860f9e","system_id":"levelo_inurba_marseille","lat":43.30329,"lon":5.40436,"is_reserved":false,"is_disabled":false,"rental_uris":{"android":"levelo://app?vid=9b83bab8-534e-49f6-996d-cbc1a7860f9e","ios":"levelo://app?vid=9b83bab8-534e-49f6-996d-cbc1a7860f9e"},"vehicle_type_id":"4","last_reported":1748891301,"current_range_meters":5600,"station_id":"ce4bh012rcd13ifvqd10","pricing_plan_id":"cebpf4jnsgd1na2vs0mg"},{"bike_id":"036a3f84-6c04-4f85-bd69-c60fcc1a093a","system_id":"levelo_inurba_marseille","lat":43.33319,"lon":5.39805,"is_reserved":false,"is_disabled":false,"rental_uris":{"android":"levelo://app?vid=036a3f84-6c04-4f85-bd69-c60fcc1a093a","ios":"levelo://app?vid=036a3f84-6c04-4f85-bd69-c60fcc1a093a"},"vehicle_type_id":"4","last_reported":1748891301,"current_range_meters":6400,"station_id":"","pricing_plan_id":"cebpf4jnsgd1na2vs0mg"},{"bike_id":"3c9f3559-1947-4094-8ac2-e4cf6de4ae61","system_id":"levelo_inurba_marseille","lat":43.30952,"lon":5.39027,"is_reserved":false,"is_disabled":false,"rental_uris":{"android":"levelo://app?vid=3c9f3559-1947-4094-8ac2-e4cf6de4ae61","ios":"levelo://app?vid=3c9f3559-1947-4094-8ac2-e4cf6de4ae61"},"vehicle_type_id":"4","last_reported":1748891301,"current_range_meters":6800,"station_id":"ce4bgup2rcd13ifvqco0","pricing_plan_id":"cebpf4jnsgd1na2vs0mg"},{"bike_id":"fdc9e6d7-0aea-4fbb-a915-671ca02df341","system_id":"levelo_inurba_marseille","lat":43.31322,"lon":5.39685,"is_reserved":false,"is_disabled":false,"rental_uris":{"android":"levelo://app?vid=fdc9e6d7-0aea-4fbb-a915-671ca02df341","ios":"levelo://app?vid=fdc9e6d7-0aea-4fbb-a915-671ca02df341"},"vehicle_type_id":"4","last_reported":1748891301,"current_range_meters":6800,"station_id":"ce4bgvp2rcd13ifvqcu0","pricing_plan_id":"cebpf4jnsgd1na2vs0mg"},{"bike_id":"77563c89-0ac2-4043-bd50-220ab97bc1f7","system_id":"levelo_inurba_marseille","lat":43.32279,"lon":5.38247,"is_reserved":false,"is_disabled":false,"rental_uris":{"android":"levelo://app?vid=77563c89-0ac2-4043-bd50-220ab97bc1f7","ios":"levelo://app?vid=77563c89-0ac2-4043-bd50-220ab97bc1f7"},"vehicle_type_id":"4","last_reported":1748891301,"current_range_meters":6800,"station_id":"ce4bhr12rcd13ifvqhqg","pricing_plan_id":"cebpf4jnsgd1na2vs0mg"},{"bike_id":"bb9df8e7-97b0-42c5-8087-cf95de0a52c4","system_id":"levelo_inurba_marseille","lat":43.25721,"lon":5.41113,"is_reserved":false,"is_disabled":false,"rental_uris":{"android":"levelo://app?vid=bb9df8e7-97b0-42c5-8087-cf95de0a52c4","ios":"levelo://app?vid=bb9df8e7-97b0-42c5-8087-cf95de0a52c4"},"vehicle_type_id":"4","last_reported":1748891301,"current_range_meters":7200,"station_id":"ce4bhkp2rcd13ifvqgd0","pricing_plan_id":"cebpf4jnsgd1na2vs0mg"},{"bike_id":"2bc21ab9-eddb-4043-b353-a456dae648f2","system_id":"levelo_inurba_marseille","lat":43.28739,"lon":5.36074,"is_reserved":false,"is_disabled":false,"rental_uris":{"android":"levelo://app?vid=2bc21ab9-eddb-4043-b353-a456dae648f2","ios":"levelo://app?vid=2bc21ab9-eddb-4043-b353-a456dae648f2"},"vehicle_type_id":"4","last_reported":1748891301,"current_range_meters":7200,"station_id":"cki0cbj6b192h4jlfktg","pricing_plan_id":"cebpf4jnsgd1na2vs0mg"},{"bike_id":"5dead81c-52cf-467b-885d-461d40fb80a5","system_id":"levelo_inurba_marseille","lat":43.25086,"lon":5.40966,"is_reserved":false,"is_disabled":false,"rental_uris":{"android":"levelo://app?vid=5dead81c-52cf-467b-885d-461d40fb80a5","ios":"levelo://app?vid=5dead81c-52cf-467b-885d-461d40fb80a5"},"vehicle_type_id":"4","last_reported":1748891301,"current_range_meters":8000,"station_id":"","pricing_plan_id":"cebpf4jnsgd1na2vs0mg"},{"bike_id":"7490d5dc-735e-4375-8341-6d53750855b2","system_id":"levelo_inurba_marseille","lat":43.290296,"lon":5.37831,"is_reserved":false,"is_disabled":false,"rental_uris":{"android":"levelo://app?vid=7490d5dc-735e-4375-8341-6d53750855b2","ios":"levelo://app?vid=7490d5dc-735e-4375-8341-6d53750855b2"},"vehicle_type_id":"4","last_reported":1748891301,"current_range_meters":8000,"station_id":"","pricing_plan_id":"cebpf4jnsgd1na2vs0mg"},{"bike_id":"0b3654db-33dc-4a56-850c-0b6b7ac0b481","system_id":"levelo_inurba_marseille","lat":43.23084,"lon":5.40177,"is_reserved":false,"is_disabled":false,"rental_uris":{"android":"levelo://app?vid=0b3654db-33dc-4a56-850c-0b6b7ac0b481","ios":"levelo://app?vid=0b3654db-33dc-4a56-850c-0b6b7ac0b481"},"vehicle_type_id":"4","last_reported":1748891301,"current_range_meters":8000,"station_id":"","pricing_plan_id":"cebpf4jnsgd1na2vs0mg"},{"bike_id":"fac0ef01-828b-49b3-b318-25b7b8030671","system_id":"levelo_inurba_marseille","lat":43.26233,"lon":5.40453,"is_reserved":false,"is_disabled":false,"rental_uris":{"android":"levelo://app?vid=fac0ef01-828b-49b3-b318-25b7b8030671","ios":"levelo://app?vid=fac0ef01-828b-49b3-b318-25b7b8030671"},"vehicle_type_id":"4","last_reported":1748891301,"current_range_meters":8000,"station_id":"ce4bhmh2rcd13ifvqgmg","pricing_plan_id":"cebpf4jnsgd1na2vs0mg"},{"bike_id":"c00a4779-7442-49ef-9f4c-2a6af0baf955","system_id":"levelo_inurba_marseille","lat":43.33027,"lon":5.39038,"is_reserved":false,"is_disabled":false,"rental_uris":{"android":"levelo://app?vid=c00a4779-7442-49ef-9f4c-2a6af0baf955","ios":"levelo://app?vid=c00a4779-7442-49ef-9f4c-2a6af0baf955"},"vehicle_type_id":"4","last_reported":1748891301,"current_range_meters":8000,"station_id":"ce4bhr92rcd13ifvqhrg","pricing_plan_id":"cebpf4jnsgd1na2vs0mg"},{"bike_id":"d72d5a5e-a033-4555-a5b7-2e9b101d2f01","system_id":"levelo_inurba_marseille","lat":43.24338,"lon":5.41139,"is_reserved":false,"is_disabled":false,"rental_uris":{"android":"levelo://app?vid=d72d5a5e-a033-4555-a5b7-2e9b101d2f01","ios":"levelo://app?vid=d72d5a5e-a033-4555-a5b7-2e9b101d2f01"},"vehicle_type_id":"4","last_reported":1748891301,"current_range_meters":8400,"station_id":"","pricing_plan_id":"cebpf4jnsgd1na2vs0mg"},{"bike_id":"85307610-4e7a-449d-b5f7-bfed5de6a2a0","system_id":"levelo_inurba_marseille","lat":43.29532,"lon":5.38539,"is_reserved":false,"is_disabled":false,"rental_uris":{"android":"levelo://app?vid=85307610-4e7a-449d-b5f7-bfed5de6a2a0","ios":"levelo://app?vid=85307610-4e7a-449d-b5f7-bfed5de6a2a0"},"vehicle_type_id":"4","last_reported":1748891301,"current_range_meters":8400,"station_id":"ce4bgih2rcd13ifvqba0","pricing_plan_id":"cebpf4jnsgd1na2vs0mg"},{"bike_id":"b2f87877-e2df-4515-a23d-fa380a900377","system_id":"levelo_inurba_marseille","lat":43.27172,"lon":5.40994,"is_reserved":false,"is_disabled":false,"rental_uris":{"android":"levelo://app?vid=b2f87877-e2df-4515-a23d-fa380a900377","ios":"levelo://app?vid=b2f87877-e2df-4515-a23d-fa380a900377"},"vehicle_type_id":"4","last_reported":1748891301,"current_range_meters":8400,"station_id":"ce4bhl12rcd13ifvqgf0","pricing_plan_id":"cebpf4jnsgd1na2vs0mg"},{"bike_id":"b4b9b875-295b-4683-a8b8-2aa290bed009","system_id":"levelo_inurba_marseille","lat":43.2979,"lon":5.39336,"is_reserved":false,"is_disabled":false,"rental_uris":{"android":"levelo://app?vid=b4b9b875-295b-4683-a8b8-2aa290bed009","ios":"levelo://app?vid=b4b9b875-295b-4683-a8b8-2aa290bed009"},"vehicle_type_id":"4","last_reported":1748891301,"current_range_meters":8400,"station_id":"chh1huq6cuj3fo74tm60","pricing_plan_id":"cebpf4jnsgd1na2vs0mg"},{"bike_id":"5e8d8644-2de8-41d8-9b52-4991ebb3c151","system_id":"levelo_inurba_marseille","lat":43.29851,"lon":5.36263,"is_reserved":false,"is_disabled":false,"rental_uris":{"android":"levelo://app?vid=5e8d8644-2de8-41d8-9b52-4991ebb3c151","ios":"levelo://app?vid=5e8d8644-2de8-41d8-9b52-4991ebb3c151"},"vehicle_type_id":"4","last_reported":1748891301,"current_range_meters":8800,"station_id":"ce4bgpp2rcd13ifvqc3g","pricing_plan_id":"cebpf4jnsgd1na2vs0mg"},{"bike_id":"5d7ebe1f-cb13-42ef-840f-f205bd67842f","system_id":"levelo_inurba_marseille","lat":43.28042,"lon":5.36941,"is_reserved":false,"is_disabled":false,"rental_uris":{"android":"levelo://app?vid=5d7ebe1f-cb13-42ef-840f-f205bd67842f","ios":"levelo://app?vid=5d7ebe1f-cb13-42ef-840f-f205bd67842f"},"vehicle_type_id":"4","last_reported":1748891301,"current_range_meters":8800,"station_id":"ce4bha12rcd13ifvqef0","pricing_plan_id":"cebpf4jnsgd1na2vs0mg"},{"bike_id":"da1dc72c-55fc-44a7-8db1-28de381939e4","system_id":"levelo_inurba_marseille","lat":43.31707,"lon":5.43709,"is_reserved":false,"is_disabled":false,"rental_uris":{"android":"levelo://app?vid=da1dc72c-55fc-44a7-8db1-28de381939e4","ios":"levelo://app?vid=da1dc72c-55fc-44a7-8db1-28de381939e4"},"vehicle_type_id":"4","last_reported":1748891301,"current_range_meters":8800,"station_id":"ce4bhp92rcd13ifvqhcg","pricing_plan_id":"cebpf4jnsgd1na2vs0mg"},{"bike_id":"afe42cf5-b493-4fb7-b710-2b3f0a107bae","system_id":"levelo_inurba_marseille","lat":43.31747,"lon":5.38778,"is_reserved":false,"is_disabled":false,"rental_uris":{"android":"levelo://app?vid=afe42cf5-b493-4fb7-b710-2b3f0a107bae","ios":"levelo://app?vid=afe42cf5-b493-4fb7-b710-2b3f0a107bae"},"vehicle_type_id":"4","last_reported":1748891301,"current_range_meters":9200,"station_id":"","pricing_plan_id":"cebpf4jnsgd1na2vs0mg"},{"bike_id":"b18a9f95-07da-4640-bacd-a8b15f00156a","system_id":"levelo_inurba_marseille","lat":43.23184,"lon":5.39982,"is_reserved":false,"is_disabled":false,"rental_uris":{"android":"levelo://app?vid=b18a9f95-07da-4640-bacd-a8b15f00156a","ios":"levelo://app?vid=b18a9f95-07da-4640-bacd-a8b15f00156a"},"vehicle_type_id":"4","last_reported":1748891301,"current_range_meters":9200,"station_id":"ce4bhn12rcd13ifvqgqg","pricing_plan_id":"cebpf4jnsgd1na2vs0mg"},{"bike_id":"3d198ff6-05f2-45a8-865d-e7c57a757d18","system_id":"levelo_inurba_marseille","lat":43.32334,"lon":5.4062,"is_reserved":false,"is_disabled":false,"rental_uris":{"android":"levelo://app?vid=3d198ff6-05f2-45a8-865d-e7c57a757d18","ios":"levelo://app?vid=3d198ff6-05f2-45a8-865d-e7c57a757d18"},"vehicle_type_id":"4","last_reported":1748891301,"current_range_meters":9200,"station_id":"ce4bhq92rcd13ifvqhjg","pricing_plan_id":"cebpf4jnsgd1na2vs0mg"},{"bike_id":"1a1dd11c-f987-40bb-9ad3-48fb9037aec6","system_id":"levelo_inurba_marseille","lat":43.30419,"lon":5.38866,"is_reserved":false,"is_disabled":false,"rental_uris":{"android":"levelo://app?vid=1a1dd11c-f987-40bb-9ad3-48fb9037aec6","ios":"levelo://app?vid=1a1dd11c-f987-40bb-9ad3-48fb9037aec6"},"vehicle_type_id":"4","last_reported":1748891301,"current_range_meters":9600,"station_id":"ce4bgk12rcd13ifvqbi0","pricing_plan_id":"cebpf4jnsgd1na2vs0mg"},{"bike_id":"172bab79-05f7-43cc-ae8c-07e41e166ad8","system_id":"levelo_inurba_marseille","lat":43.30323,"lon":5.36906,"is_reserved":false,"is_disabled":false,"rental_uris":{"android":"levelo://app?vid=172bab79-05f7-43cc-ae8c-07e41e166ad8","ios":"levelo://app?vid=172bab79-05f7-43cc-ae8c-07e41e166ad8"},"vehicle_type_id":"4","last_reported":1748891301,"current_range_meters":9600,"station_id":"ce4bgqh2rcd13ifvqc5g","pricing_plan_id":"cebpf4jnsgd1na2vs0mg"},{"bike_id":"1b2dbb69-6f3d-4182-bf73-0119755a8252","system_id":"levelo_inurba_marseille","lat":43.29008,"lon":5.35608,"is_reserved":false,"is_disabled":false,"rental_uris":{"android":"levelo://app?vid=1b2dbb69-6f3d-4182-bf73-0119755a8252","ios":"levelo://app?vid=1b2dbb69-6f3d-4182-bf73-0119755a8252"},"vehicle_type_id":"4","last_reported":1748891301,"current_range_meters":9600,"station_id":"ce4bhb92rcd13ifvqen0","pricing_plan_id":"cebpf4jnsgd1na2vs0mg"},{"bike_id":"24b5a71f-fabf-4fa6-9fec-f2c7385ad3aa","system_id":"levelo_inurba_marseille","lat":43.330295,"lon":5.39041,"is_reserved":false,"is_disabled":false,"rental_uris":{"android":"levelo://app?vid=24b5a71f-fabf-4fa6-9fec-f2c7385ad3aa","ios":"levelo://app?vid=24b5a71f-fabf-4fa6-9fec-f2c7385ad3aa"},"vehicle_type_id":"4","last_reported":1748891301,"current_range_meters":9600,"station_id":"ce4bhr92rcd13ifvqhrg","pricing_plan_id":"cebpf4jnsgd1na2vs0mg"},{"bike_id":"97e26f49-59b5-42f2-9c96-b0a272cfdd20","system_id":"levelo_inurba_marseille","lat":43.29726,"lon":5.3662,"is_reserved":false,"is_disabled":false,"rental_uris":{"android":"levelo://app?vid=97e26f49-59b5-42f2-9c96-b0a272cfdd20","ios":"levelo://app?vid=97e26f49-59b5-42f2-9c96-b0a272cfdd20"},"vehicle_type_id":"4","last_reported":1748891301,"current_range_meters":10000,"station_id":"ce4bgn12rcd13ifvqbt0","pricing_plan_id":"cebpf4jnsgd1na2vs0mg"},{"bike_id":"b98b1bb6-7ad7-4d72-af24-a1adcc6d5073","system_id":"levelo_inurba_marseille","lat":43.29035,"lon":5.38117,"is_reserved":false,"is_disabled":false,"rental_uris":{"android":"levelo://app?vid=b98b1bb6-7ad7-4d72-af24-a1adcc6d5073","ios":"levelo://app?vid=b98b1bb6-7ad7-4d72-af24-a1adcc6d5073"},"vehicle_type_id":"4","last_reported":1748891301,"current_range_meters":10000,"station_id":"ce4bh4p2rcd13ifvqe1g","pricing_plan_id":"cebpf4jnsgd1na2vs0mg"},{"bike_id":"a0888236-4e90-4aeb-b880-7b9acc4d2d36","system_id":"levelo_inurba_marseille","lat":43.33023,"lon":5.39043,"is_reserved":false,"is_disabled":false,"rental_uris":{"android":"levelo://app?vid=a0888236-4e90-4aeb-b880-7b9acc4d2d36","ios":"levelo://app?vid=a0888236-4e90-4aeb-b880-7b9acc4d2d36"},"vehicle_type_id":"4","last_reported":1748891301,"current_range_meters":10000,"station_id":"ce4bhr92rcd13ifvqhrg","pricing_plan_id":"cebpf4jnsgd1na2vs0mg"},{"bike_id":"115107e2-3ca0-4a2a-9f49-38bcd9fd8dcd","system_id":"levelo_inurba_marseille","lat":43.28351,"lon":5.38109,"is_reserved":false,"is_disabled":false,"rental_uris":{"android":"levelo://app?vid=115107e2-3ca0-4a2a-9f49-38bcd9fd8dcd","ios":"levelo://app?vid=115107e2-3ca0-4a2a-9f49-38bcd9fd8dcd"},"vehicle_type_id":"4","last_reported":1748891301,"current_range_meters":10800,"station_id":"ce4bh412rcd13ifvqdr0","pricing_plan_id":"cebpf4jnsgd1na2vs0mg"},{"bike_id":"00317cf0-1448-410b-a93c-b530ba2cfb25","system_id":"levelo_inurba_marseille","lat":43.2572,"lon":5.4111,"is_reserved":false,"is_disabled":false,"rental_uris":{"android":"levelo://app?vid=00317cf0-1448-410b-a93c-b530ba2cfb25","ios":"levelo://app?vid=00317cf0-1448-410b-a93c-b530ba2cfb25"},"vehicle_type_id":"4","last_reported":1748891301,"current_range_meters":10800,"station_id":"ce4bhkp2rcd13ifvqgd0","pricing_plan_id":"cebpf4jnsgd1na2vs0mg"},{"bike_id":"04951297-3161-4e20-8346-015dea6cbf96","system_id":"levelo_inurba_marseille","lat":43.31171,"lon":5.38707,"is_reserved":false,"is_disabled":false,"rental_uris":{"android":"levelo://app?vid=04951297-3161-4e20-8346-015dea6cbf96","ios":"levelo://app?vid=04951297-3161-4e20-8346-015dea6cbf96"},"vehicle_type_id":"4","last_reported":1748891301,"current_range_meters":11200,"station_id":"ce4bgv12rcd13ifvqcp0","pricing_plan_id":"cebpf4jnsgd1na2vs0mg"},{"bike_id":"6457604d-7985-4a8c-b33d-d2225ffa1435","system_id":"levelo_inurba_marseille","lat":43.27904,"lon":5.38033,"is_reserved":false,"is_disabled":false,"rental_uris":{"android":"levelo://app?vid=6457604d-7985-4a8c-b33d-d2225ffa1435","ios":"levelo://app?vid=6457604d-7985-4a8c-b33d-d2225ffa1435"},"vehicle_type_id":"4","last_reported":1748891301,"current_range_meters":11200,"station_id":"ce4bhf92rcd13ifvqf50","pricing_plan_id":"cebpf4jnsgd1na2vs0mg"},{"bike_id":"81177c2b-d302-4b7d-bd49-f4171f2a319f","system_id":"levelo_inurba_marseille","lat":43.23152,"lon":5.43721,"is_reserved":false,"is_disabled":false,"rental_uris":{"android":"levelo://app?vid=81177c2b-d302-4b7d-bd49-f4171f2a319f","ios":"levelo://app?vid=81177c2b-d302-4b7d-bd49-f4171f2a319f"},"vehicle_type_id":"4","last_reported":1748891301,"current_range_meters":11200,"station_id":"ce4bhmp2rcd13ifvqgog","pricing_plan_id":"cebpf4jnsgd1na2vs0mg"},{"bike_id":"4808fe1b-b0b0-4f13-bacf-2941d6f4a4ee","system_id":"levelo_inurba_marseille","lat":43.28078,"lon":5.39656,"is_reserved":false,"is_disabled":false,"rental_uris":{"android":"levelo://app?vid=4808fe1b-b0b0-4f13-bacf-2941d6f4a4ee","ios":"levelo://app?vid=4808fe1b-b0b0-4f13-bacf-2941d6f4a4ee"},"vehicle_type_id":"4","last_reported":1748891301,"current_range_meters":11200,"station_id":"ce4bho12rcd13ifvqh2g","pricing_plan_id":"cebpf4jnsgd1na2vs0mg"},{"bike_id":"fd3ed52f-cfa3-4912-98b0-fd8ff58bea22","system_id":"levelo_inurba_marseille","lat":43.31225,"lon":5.36859,"is_reserved":false,"is_disabled":false,"rental_uris":{"android":"levelo://app?vid=fd3ed52f-cfa3-4912-98b0-fd8ff58bea22","ios":"levelo://app?vid=fd3ed52f-cfa3-4912-98b0-fd8ff58bea22"},"vehicle_type_id":"4","last_reported":1748891301,"current_range_meters":11600,"station_id":"ce4bgl92rcd13ifvqbq0","pricing_plan_id":"cebpf4jnsgd1na2vs0mg"},{"bike_id":"5beb33ac-ffc0-44bb-b5e9-a5626ec40b93","system_id":"levelo_inurba_marseille","lat":43.31166,"lon":5.38723,"is_reserved":false,"is_disabled":false,"rental_uris":{"android":"levelo://app?vid=5beb33ac-ffc0-44bb-b5e9-a5626ec40b93","ios":"levelo://app?vid=5beb33ac-ffc0-44bb-b5e9-a5626ec40b93"},"vehicle_type_id":"4","last_reported":1748891301,"current_range_meters":11600,"station_id":"ce4bgv12rcd13ifvqcp0","pricing_plan_id":"cebpf4jnsgd1na2vs0mg"},{"bike_id":"24cfdf3a-7dea-41b4-a6b7-9627efa4161d","system_id":"levelo_inurba_marseille","lat":43.30642,"lon":5.401,"is_reserved":false,"is_disabled":false,"rental_uris":{"android":"levelo://app?vid=24cfdf3a-7dea-41b4-a6b7-9627efa4161d","ios":"levelo://app?vid=24cfdf3a-7dea-41b4-a6b7-9627efa4161d"},"vehicle_type_id":"4","last_reported":1748891301,"current_range_meters":11600,"station_id":"ce4bh112rcd13ifvqda0","pricing_plan_id":"cebpf4jnsgd1na2vs0mg"},{"bike_id":"8b4df10e-d146-4e22-b903-6ed999065411","system_id":"levelo_inurba_marseille","lat":43.29199,"lon":5.3933,"is_reserved":false,"is_disabled":false,"rental_uris":{"android":"levelo://app?vid=8b4df10e-d146-4e22-b903-6ed999065411","ios":"levelo://app?vid=8b4df10e-d146-4e22-b903-6ed999065411"},"vehicle_type_id":"4","last_reported":1748891301,"current_range_meters":11600,"station_id":"ce4bh192rcd13ifvqdd0","pricing_plan_id":"cebpf4jnsgd1na2vs0mg"},{"bike_id":"b52dee39-22ab-4ae8-b243-66048c1ec666","system_id":"levelo_inurba_marseille","lat":43.29034,"lon":5.38133,"is_reserved":false,"is_disabled":false,"rental_uris":{"android":"levelo://app?vid=b52dee39-22ab-4ae8-b243-66048c1ec666","ios":"levelo://app?vid=b52dee39-22ab-4ae8-b243-66048c1ec666"},"vehicle_type_id":"4","last_reported":1748891301,"current_range_meters":11600,"station_id":"ce4bh4p2rcd13ifvqe1g","pricing_plan_id":"cebpf4jnsgd1na2vs0mg"},{"bike_id":"083915ae-5f23-4e9c-9f95-89fa5d903bb5","system_id":"levelo_inurba_marseille","lat":43.273761,"lon":5.362562,"is_reserved":false,"is_disabled":false,"rental_uris":{"android":"levelo://app?vid=083915ae-5f23-4e9c-9f95-89fa5d903bb5","ios":"levelo://app?vid=083915ae-5f23-4e9c-9f95-89fa5d903bb5"},"vehicle_type_id":"4","last_reported":1748891301,"current_range_meters":11600,"station_id":"ce4bhbh2rcd13ifvqeo0","pricing_plan_id":"cebpf4jnsgd1na2vs0mg"},{"bike_id":"9873ea8e-c2af-49bc-9f62-b61d54c33967","system_id":"levelo_inurba_marseille","lat":43.28975,"lon":5.36383,"is_reserved":false,"is_disabled":false,"rental_uris":{"android":"levelo://app?vid=9873ea8e-c2af-49bc-9f62-b61d54c33967","ios":"levelo://app?vid=9873ea8e-c2af-49bc-9f62-b61d54c33967"},"vehicle_type_id":"4","last_reported":1748891301,"current_range_meters":11600,"station_id":"ce4bhc92rcd13ifvqetg","pricing_plan_id":"cebpf4jnsgd1na2vs0mg"},{"bike_id":"0e265079-603b-4b16-bb16-50ff7d63d104","system_id":"levelo_inurba_marseille","lat":43.28622,"lon":5.3509,"is_reserved":false,"is_disabled":false,"rental_uris":{"android":"levelo://app?vid=0e265079-603b-4b16-bb16-50ff7d63d104","ios":"levelo://app?vid=0e265079-603b-4b16-bb16-50ff7d63d104"},"vehicle_type_id":"4","last_reported":1748891301,"current_range_meters":11600,"station_id":"ce4bhch2rcd13ifvqeug","pricing_plan_id":"cebpf4jnsgd1na2vs0mg"},{"bike_id":"7cc939c8-73ec-4d74-8ddc-5c63cf34185f","system_id":"levelo_inurba_marseille","lat":43.30759,"lon":5.42424,"is_reserved":false,"is_disabled":false,"rental_uris":{"android":"levelo://app?vid=7cc939c8-73ec-4d74-8ddc-5c63cf34185f","ios":"levelo://app?vid=7cc939c8-73ec-4d74-8ddc-5c63cf34185f"},"vehicle_type_id":"4","last_reported":1748891301,"current_range_meters":11600,"station_id":"st_cvj6ca6bvosntc0bfgr0","pricing_plan_id":"cebpf4jnsgd1na2vs0mg"},{"bike_id":"f9ba8850-482d-43cd-93c6-da015477c7af","system_id":"levelo_inurba_marseille","lat":43.28612,"lon":5.38267,"is_reserved":false,"is_disabled":false,"rental_uris":{"android":"levelo://app?vid=f9ba8850-482d-43cd-93c6-da015477c7af","ios":"levelo://app?vid=f9ba8850-482d-43cd-93c6-da015477c7af"},"vehicle_type_id":"4","last_reported":1748891301,"current_range_meters":12000,"station_id":"","pricing_plan_id":"cebpf4jnsgd1na2vs0mg"},{"bike_id":"6c842597-662d-4008-b404-86e67251dde8","system_id":"levelo_inurba_marseille","lat":43.2823,"lon":5.39044,"is_reserved":false,"is_disabled":false,"rental_uris":{"android":"levelo://app?vid=6c842597-662d-4008-b404-86e67251dde8","ios":"levelo://app?vid=6c842597-662d-4008-b404-86e67251dde8"},"vehicle_type_id":"4","last_reported":1748891301,"current_range_meters":12000,"station_id":"","pricing_plan_id":"cebpf4jnsgd1na2vs0mg"},{"bike_id":"14ebe50f-f087-42c1-92a2-b76b150e1640","system_id":"levelo_inurba_marseille","lat":43.31331,"lon":5.39687,"is_reserved":false,"is_disabled":false,"rental_uris":{"android":"levelo://app?vid=14ebe50f-f087-42c1-92a2-b76b150e1640","ios":"levelo://app?vid=14ebe50f-f087-42c1-92a2-b76b150e1640"},"vehicle_type_id":"4","last_reported":1748891301,"current_range_meters":12000,"station_id":"ce4bgvp2rcd13ifvqcu0","pricing_plan_id":"cebpf4jnsgd1na2vs0mg"},{"bike_id":"a495d672-7064-40ea-8494-c2fc5f05973f","system_id":"levelo_inurba_marseille","lat":43.29261,"lon":5.40904,"is_reserved":false,"is_disabled":false,"rental_uris":{"android":"levelo://app?vid=a495d672-7064-40ea-8494-c2fc5f05973f","ios":"levelo://app?vid=a495d672-7064-40ea-8494-c2fc5f05973f"},"vehicle_type_id":"4","last_reported":1748891301,"current_range_meters":12000,"station_id":"ce4bh192rcd13ifvqdc0","pricing_plan_id":"cebpf4jnsgd1na2vs0mg"},{"bike_id":"db454d57-a90b-4f8b-b2f7-82cbfa21aa8f","system_id":"levelo_inurba_marseille","lat":43.28573,"lon":5.39492,"is_reserved":false,"is_disabled":false,"rental_uris":{"android":"levelo://app?vid=db454d57-a90b-4f8b-b2f7-82cbfa21aa8f","ios":"levelo://app?vid=db454d57-a90b-4f8b-b2f7-82cbfa21aa8f"},"vehicle_type_id":"4","last_reported":1748891301,"current_range_meters":12000,"station_id":"ce4bh292rcd13ifvqdg0","pricing_plan_id":"cebpf4jnsgd1na2vs0mg"},{"bike_id":"a007ecf5-1b1b-41a2-b252-c82fee949023","system_id":"levelo_inurba_marseille","lat":43.29029,"lon":5.39967,"is_reserved":false,"is_disabled":false,"rental_uris":{"android":"levelo://app?vid=a007ecf5-1b1b-41a2-b252-c82fee949023","ios":"levelo://app?vid=a007ecf5-1b1b-41a2-b252-c82fee949023"},"vehicle_type_id":"4","last_reported":1748891301,"current_range_meters":12000,"station_id":"ce4bh392rcd13ifvqdm0","pricing_plan_id":"cebpf4jnsgd1na2vs0mg"},{"bike_id":"cd693c4f-7556-46d4-b51d-98253789afd6","system_id":"levelo_inurba_marseille","lat":43.2842,"lon":5.37517,"is_reserved":false,"is_disabled":false,"rental_uris":{"android":"levelo://app?vid=cd693c4f-7556-46d4-b51d-98253789afd6","ios":"levelo://app?vid=cd693c4f-7556-46d4-b51d-98253789afd6"},"vehicle_type_id":"4","last_reported":1748891301,"current_range_meters":12000,"station_id":"ce4bh412rcd13ifvqds0","pricing_plan_id":"cebpf4jnsgd1na2vs0mg"},{"bike_id":"6060549f-f072-4ec6-941d-b7a4686fef7a","system_id":"levelo_inurba_marseille","lat":43.25108,"lon":5.40328,"is_reserved":false,"is_disabled":false,"rental_uris":{"android":"levelo://app?vid=6060549f-f072-4ec6-941d-b7a4686fef7a","ios":"levelo://app?vid=6060549f-f072-4ec6-941d-b7a4686fef7a"},"vehicle_type_id":"4","last_reported":1748891301,"current_range_meters":12000,"station_id":"ce4bhlh2rcd13ifvqgig","pricing_plan_id":"cebpf4jnsgd1na2vs0mg"},{"bike_id":"f1c8c7e1-3f34-4d38-a503-caa580ebde75","system_id":"levelo_inurba_marseille","lat":43.22503,"lon":5.34778,"is_reserved":false,"is_disabled":false,"rental_uris":{"android":"levelo://app?vid=f1c8c7e1-3f34-4d38-a503-caa580ebde75","ios":"levelo://app?vid=f1c8c7e1-3f34-4d38-a503-caa580ebde75"},"vehicle_type_id":"4","last_reported":1748891301,"current_range_meters":12000,"station_id":"st_cvj5dfep6f1abm77gieg","pricing_plan_id":"cebpf4jnsgd1na2vs0mg"},{"bike_id":"ce8f22fd-7999-46d2-ad78-a303bff58205","system_id":"levelo_inurba_marseille","lat":43.30148,"lon":5.38782,"is_reserved":false,"is_disabled":false,"rental_uris":{"android":"levelo://app?vid=ce8f22fd-7999-46d2-ad78-a303bff58205","ios":"levelo://app?vid=ce8f22fd-7999-46d2-ad78-a303bff58205"},"vehicle_type_id":"4","last_reported":1748891301,"current_range_meters":12400,"station_id":"ce4bghh2rcd13ifvqb60","pricing_plan_id":"cebpf4jnsgd1na2vs0mg"},{"bike_id":"b39b9eeb-8fc1-429e-8b4f-b7ed59498779","system_id":"levelo_inurba_marseille","lat":43.30948,"lon":5.39038,"is_reserved":false,"is_disabled":false,"rental_uris":{"android":"levelo://app?vid=b39b9eeb-8fc1-429e-8b4f-b7ed59498779","ios":"levelo://app?vid=b39b9eeb-8fc1-429e-8b4f-b7ed59498779"},"vehicle_type_id":"4","last_reported":1748891301,"current_range_meters":12400,"station_id":"ce4bgup2rcd13ifvqco0","pricing_plan_id":"cebpf4jnsgd1na2vs0mg"},{"bike_id":"f50d430a-2621-48a4-a7f9-7c737b03fce7","system_id":"levelo_inurba_marseille","lat":43.26058,"lon":5.39394,"is_reserved":false,"is_disabled":false,"rental_uris":{"android":"levelo://app?vid=f50d430a-2621-48a4-a7f9-7c737b03fce7","ios":"levelo://app?vid=f50d430a-2621-48a4-a7f9-7c737b03fce7"},"vehicle_type_id":"4","last_reported":1748891301,"current_range_meters":12400,"station_id":"ce4bhh92rcd13ifvqfj0","pricing_plan_id":"cebpf4jnsgd1na2vs0mg"},{"bike_id":"abe24bc7-b7c0-419d-844a-df06a6bb3ee9","system_id":"levelo_inurba_marseille","lat":43.29965,"lon":5.37181,"is_reserved":false,"is_disabled":false,"rental_uris":{"android":"levelo://app?vid=abe24bc7-b7c0-419d-844a-df06a6bb3ee9","ios":"levelo://app?vid=abe24bc7-b7c0-419d-844a-df06a6bb3ee9"},"vehicle_type_id":"4","last_reported":1748891301,"current_range_meters":12800,"station_id":"ce4bgr92rcd13ifvqc7g","pricing_plan_id":"cebpf4jnsgd1na2vs0mg"},{"bike_id":"20f489ce-1213-41ff-b00a-d6103b01b6cf","system_id":"levelo_inurba_marseille","lat":43.30147,"lon":5.39869,"is_reserved":false,"is_disabled":false,"rental_uris":{"android":"levelo://app?vid=20f489ce-1213-41ff-b00a-d6103b01b6cf","ios":"levelo://app?vid=20f489ce-1213-41ff-b00a-d6103b01b6cf"},"vehicle_type_id":"4","last_reported":1748891301,"current_range_meters":12800,"station_id":"ce4bh0h2rcd13ifvqd40","pricing_plan_id":"cebpf4jnsgd1na2vs0mg"},{"bike_id":"cfd8a61b-5b9f-4b59-b997-bf8355304b02","system_id":"levelo_inurba_marseille","lat":43.28842,"lon":5.35851,"is_reserved":false,"is_disabled":false,"rental_uris":{"android":"levelo://app?vid=cfd8a61b-5b9f-4b59-b997-bf8355304b02","ios":"levelo://app?vid=cfd8a61b-5b9f-4b59-b997-bf8355304b02"},"vehicle_type_id":"4","last_reported":1748891301,"current_range_meters":12800,"station_id":"ce4bhb12rcd13ifvqem0","pricing_plan_id":"cebpf4jnsgd1na2vs0mg"},{"bike_id":"5b0c04c7-3e5d-4981-ba91-7d65704822b2","system_id":"levelo_inurba_marseille","lat":43.279059,"lon":5.38006,"is_reserved":false,"is_disabled":false,"rental_uris":{"android":"levelo://app?vid=5b0c04c7-3e5d-4981-ba91-7d65704822b2","ios":"levelo://app?vid=5b0c04c7-3e5d-4981-ba91-7d65704822b2"},"vehicle_type_id":"4","last_reported":1748891301,"current_range_meters":12800,"station_id":"ce4bhf92rcd13ifvqf50","pricing_plan_id":"cebpf4jnsgd1na2vs0mg"},{"bike_id":"0b8bd718-7f25-42e3-b1f9-711d0c0433b0","system_id":"levelo_inurba_marseille","lat":43.29975,"lon":5.41317,"is_reserved":false,"is_disabled":false,"rental_uris":{"android":"levelo://app?vid=0b8bd718-7f25-42e3-b1f9-711d0c0433b0","ios":"levelo://app?vid=0b8bd718-7f25-42e3-b1f9-711d0c0433b0"},"vehicle_type_id":"4","last_reported":1748891301,"current_range_meters":12800,"station_id":"ce4bhp12rcd13ifvqh9g","pricing_plan_id":"cebpf4jnsgd1na2vs0mg"},{"bike_id":"9502e981-ce46-4b9a-8b7e-98a2e5d8fb57","system_id":"levelo_inurba_marseille","lat":43.32341,"lon":5.40619,"is_reserved":false,"is_disabled":false,"rental_uris":{"android":"levelo://app?vid=9502e981-ce46-4b9a-8b7e-98a2e5d8fb57","ios":"levelo://app?vid=9502e981-ce46-4b9a-8b7e-98a2e5d8fb57"},"vehicle_type_id":"4","last_reported":1748891301,"current_range_meters":12800,"station_id":"ce4bhq92rcd13ifvqhjg","pricing_plan_id":"cebpf4jnsgd1na2vs0mg"},{"bike_id":"fa62253e-e4db-42d1-9a63-6ab16922bf00","system_id":"levelo_inurba_marseille","lat":43.32008,"lon":5.368159,"is_reserved":false,"is_disabled":false,"rental_uris":{"android":"levelo://app?vid=fa62253e-e4db-42d1-9a63-6ab16922bf00","ios":"levelo://app?vid=fa62253e-e4db-42d1-9a63-6ab16922bf00"},"vehicle_type_id":"4","last_reported":1748891301,"current_range_meters":13600,"station_id":"","pricing_plan_id":"cebpf4jnsgd1na2vs0mg"},{"bike_id":"a7047fcd-71af-45de-9710-594d62b61377","system_id":"levelo_inurba_marseille","lat":43.30642,"lon":5.40073,"is_reserved":false,"is_disabled":false,"rental_uris":{"android":"levelo://app?vid=a7047fcd-71af-45de-9710-594d62b61377","ios":"levelo://app?vid=a7047fcd-71af-45de-9710-594d62b61377"},"vehicle_type_id":"4","last_reported":1748891301,"current_range_meters":13600,"station_id":"ce4bh112rcd13ifvqda0","pricing_plan_id":"cebpf4jnsgd1na2vs0mg"},{"bike_id":"2302605a-99d9-4544-95d0-991333eead1c","system_id":"levelo_inurba_marseille","lat":43.29281,"lon":5.38436,"is_reserved":false,"is_disabled":false,"rental_uris":{"android":"levelo://app?vid=2302605a-99d9-4544-95d0-991333eead1c","ios":"levelo://app?vid=2302605a-99d9-4544-95d0-991333eead1c"},"vehicle_type_id":"4","last_reported":1748891301,"current_range_meters":13600,"station_id":"ce4bh692rcd13ifvqea0","pricing_plan_id":"cebpf4jnsgd1na2vs0mg"},{"bike_id":"a90480e9-88c3-4c75-9768-b6e4da5bfc09","system_id":"levelo_inurba_marseille","lat":43.28642,"lon":5.35069,"is_reserved":false,"is_disabled":false,"rental_uris":{"android":"levelo://app?vid=a90480e9-88c3-4c75-9768-b6e4da5bfc09","ios":"levelo://app?vid=a90480e9-88c3-4c75-9768-b6e4da5bfc09"},"vehicle_type_id":"4","last_reported":1748891301,"current_range_meters":13600,"station_id":"ce4bhch2rcd13ifvqeug","pricing_plan_id":"cebpf4jnsgd1na2vs0mg"},{"bike_id":"3082751b-d3f4-42ac-b6c0-bf946931c7e5","system_id":"levelo_inurba_marseille","lat":43.21191,"lon":5.3507,"is_reserved":false,"is_disabled":false,"rental_uris":{"android":"levelo://app?vid=3082751b-d3f4-42ac-b6c0-bf946931c7e5","ios":"levelo://app?vid=3082751b-d3f4-42ac-b6c0-bf946931c7e5"},"vehicle_type_id":"4","last_reported":1748891301,"current_range_meters":13600,"station_id":"st_cvj6sg6p6f1abm77japg","pricing_plan_id":"cebpf4jnsgd1na2vs0mg"},{"bike_id":"2e454d1b-7315-4339-b29b-5b569ba90d7a","system_id":"levelo_inurba_marseille","lat":43.282279,"lon":5.390657,"is_reserved":false,"is_disabled":false,"rental_uris":{"android":"levelo://app?vid=2e454d1b-7315-4339-b29b-5b569ba90d7a","ios":"levelo://app?vid=2e454d1b-7315-4339-b29b-5b569ba90d7a"},"vehicle_type_id":"4","last_reported":1748891301,"current_range_meters":14000,"station_id":"","pricing_plan_id":"cebpf4jnsgd1na2vs0mg"},{"bike_id":"b9f111af-5490-4e7a-8550-a8876a43d2c3","system_id":"levelo_inurba_marseille","lat":43.30897,"lon":5.39621,"is_reserved":false,"is_disabled":false,"rental_uris":{"android":"levelo://app?vid=b9f111af-5490-4e7a-8550-a8876a43d2c3","ios":"levelo://app?vid=b9f111af-5490-4e7a-8550-a8876a43d2c3"},"vehicle_type_id":"4","last_reported":1748891301,"current_range_meters":14000,"station_id":"ce4bh012rcd13ifvqcv0","pricing_plan_id":"cebpf4jnsgd1na2vs0mg"},{"bike_id":"f5cb770c-864c-402a-9473-5c3f691aa53d","system_id":"levelo_inurba_marseille","lat":43.295305,"lon":5.39039,"is_reserved":false,"is_disabled":false,"rental_uris":{"android":"levelo://app?vid=f5cb770c-864c-402a-9473-5c3f691aa53d","ios":"levelo://app?vid=f5cb770c-864c-402a-9473-5c3f691aa53d"},"vehicle_type_id":"4","last_reported":1748891301,"current_range_meters":14000,"station_id":"ce4bh3p2rcd13ifvqdp0","pricing_plan_id":"cebpf4jnsgd1na2vs0mg"},{"bike_id":"132751d0-a1d2-4547-8139-b08ba3b87187","system_id":"levelo_inurba_marseille","lat":43.32343,"lon":5.40618,"is_reserved":false,"is_disabled":false,"rental_uris":{"android":"levelo://app?vid=132751d0-a1d2-4547-8139-b08ba3b87187","ios":"levelo://app?vid=132751d0-a1d2-4547-8139-b08ba3b87187"},"vehicle_type_id":"4","last_reported":1748891301,"current_range_meters":14000,"station_id":"ce4bhq92rcd13ifvqhjg","pricing_plan_id":"cebpf4jnsgd1na2vs0mg"},{"bike_id":"45d9f80f-e143-4ccb-8fcb-fa9d13bc6d1a","system_id":"levelo_inurba_marseille","lat":43.28725,"lon":5.36086,"is_reserved":false,"is_disabled":false,"rental_uris":{"android":"levelo://app?vid=45d9f80f-e143-4ccb-8fcb-fa9d13bc6d1a","ios":"levelo://app?vid=45d9f80f-e143-4ccb-8fcb-fa9d13bc6d1a"},"vehicle_type_id":"4","last_reported":1748891301,"current_range_meters":14000,"station_id":"cki0cbj6b192h4jlfktg","pricing_plan_id":"cebpf4jnsgd1na2vs0mg"},{"bike_id":"a33c9ded-afda-47fd-87fa-ac593a798cfa","system_id":"levelo_inurba_marseille","lat":43.26869,"lon":5.38855,"is_reserved":false,"is_disabled":false,"rental_uris":{"android":"levelo://app?vid=a33c9ded-afda-47fd-87fa-ac593a798cfa","ios":"levelo://app?vid=a33c9ded-afda-47fd-87fa-ac593a798cfa"},"vehicle_type_id":"4","last_reported":1748891301,"current_range_meters":14400,"station_id":"","pricing_plan_id":"cebpf4jnsgd1na2vs0mg"},{"bike_id":"cc2ccf29-b579-4ce4-9787-d87fb43c2382","system_id":"levelo_inurba_marseille","lat":43.2953,"lon":5.38539,"is_reserved":false,"is_disabled":false,"rental_uris":{"android":"levelo://app?vid=cc2ccf29-b579-4ce4-9787-d87fb43c2382","ios":"levelo://app?vid=cc2ccf29-b579-4ce4-9787-d87fb43c2382"},"vehicle_type_id":"4","last_reported":1748891301,"current_range_meters":14400,"station_id":"ce4bgih2rcd13ifvqba0","pricing_plan_id":"cebpf4jnsgd1na2vs0mg"},{"bike_id":"ff892b5b-85f7-4b2e-a31c-f91a7729170a","system_id":"levelo_inurba_marseille","lat":43.30604,"lon":5.37234,"is_reserved":false,"is_disabled":false,"rental_uris":{"android":"levelo://app?vid=ff892b5b-85f7-4b2e-a31c-f91a7729170a","ios":"levelo://app?vid=ff892b5b-85f7-4b2e-a31c-f91a7729170a"},"vehicle_type_id":"4","last_reported":1748891301,"current_range_meters":14400,"station_id":"ce4bgqh2rcd13ifvqc4g","pricing_plan_id":"cebpf4jnsgd1na2vs0mg"},{"bike_id":"54066e3d-5511-49fd-bf2a-9f2750ee22d9","system_id":"levelo_inurba_marseille","lat":43.30935,"lon":5.40128,"is_reserved":false,"is_disabled":false,"rental_uris":{"android":"levelo://app?vid=54066e3d-5511-49fd-bf2a-9f2750ee22d9","ios":"levelo://app?vid=54066e3d-5511-49fd-bf2a-9f2750ee22d9"},"vehicle_type_id":"4","last_reported":1748891301,"current_range_meters":14400,"station_id":"ce4bgvp2rcd13ifvqct0","pricing_plan_id":"cebpf4jnsgd1na2vs0mg"},{"bike_id":"3217bca0-eca5-48b9-889b-e7329da08508","system_id":"levelo_inurba_marseille","lat":43.2926,"lon":5.3844,"is_reserved":false,"is_disabled":false,"rental_uris":{"android":"levelo://app?vid=3217bca0-eca5-48b9-889b-e7329da08508","ios":"levelo://app?vid=3217bca0-eca5-48b9-889b-e7329da08508"},"vehicle_type_id":"4","last_reported":1748891301,"current_range_meters":14400,"station_id":"ce4bh692rcd13ifvqea0","pricing_plan_id":"cebpf4jnsgd1na2vs0mg"},{"bike_id":"4cb65288-83f5-43b7-b669-cd1b42db0937","system_id":"levelo_inurba_marseille","lat":43.29017,"lon":5.35604,"is_reserved":false,"is_disabled":false,"rental_uris":{"android":"levelo://app?vid=4cb65288-83f5-43b7-b669-cd1b42db0937","ios":"levelo://app?vid=4cb65288-83f5-43b7-b669-cd1b42db0937"},"vehicle_type_id":"4","last_reported":1748891301,"current_range_meters":14800,"station_id":"ce4bhb92rcd13ifvqen0","pricing_plan_id":"cebpf4jnsgd1na2vs0mg"},{"bike_id":"8a3df9e9-52cf-4cc9-b0b8-7d633d41edf2","system_id":"levelo_inurba_marseille","lat":43.25109,"lon":5.40319,"is_reserved":false,"is_disabled":false,"rental_uris":{"android":"levelo://app?vid=8a3df9e9-52cf-4cc9-b0b8-7d633d41edf2","ios":"levelo://app?vid=8a3df9e9-52cf-4cc9-b0b8-7d633d41edf2"},"vehicle_type_id":"4","last_reported":1748891301,"current_range_meters":14800,"station_id":"ce4bhlh2rcd13ifvqgig","pricing_plan_id":"cebpf4jnsgd1na2vs0mg"},{"bike_id":"b8b09c5a-9099-4234-ae20-c919e9f82aac","system_id":"levelo_inurba_marseille","lat":43.23151,"lon":5.43709,"is_reserved":false,"is_disabled":false,"rental_uris":{"android":"levelo://app?vid=b8b09c5a-9099-4234-ae20-c919e9f82aac","ios":"levelo://app?vid=b8b09c5a-9099-4234-ae20-c919e9f82aac"},"vehicle_type_id":"4","last_reported":1748891301,"current_range_meters":14800,"station_id":"ce4bhmp2rcd13ifvqgog","pricing_plan_id":"cebpf4jnsgd1na2vs0mg"},{"bike_id":"d144d0a6-8442-4d6c-b649-3639d789aa9f","system_id":"levelo_inurba_marseille","lat":43.2928,"lon":5.36837,"is_reserved":false,"is_disabled":false,"rental_uris":{"android":"levelo://app?vid=d144d0a6-8442-4d6c-b649-3639d789aa9f","ios":"levelo://app?vid=d144d0a6-8442-4d6c-b649-3639d789aa9f"},"vehicle_type_id":"4","last_reported":1748891301,"current_range_meters":15200,"station_id":"","pricing_plan_id":"cebpf4jnsgd1na2vs0mg"},{"bike_id":"9755df39-9d22-4d00-b1f5-fe8f410fcfdb","system_id":"levelo_inurba_marseille","lat":43.3095,"lon":5.39034,"is_reserved":false,"is_disabled":false,"rental_uris":{"android":"levelo://app?vid=9755df39-9d22-4d00-b1f5-fe8f410fcfdb","ios":"levelo://app?vid=9755df39-9d22-4d00-b1f5-fe8f410fcfdb"},"vehicle_type_id":"4","last_reported":1748891301,"current_range_meters":15200,"station_id":"ce4bgup2rcd13ifvqco0","pricing_plan_id":"cebpf4jnsgd1na2vs0mg"},{"bike_id":"ca0b3444-318f-4cd4-973f-dcffb61c7ad1","system_id":"levelo_inurba_marseille","lat":43.2845,"lon":5.3589,"is_reserved":false,"is_disabled":false,"rental_uris":{"android":"levelo://app?vid=ca0b3444-318f-4cd4-973f-dcffb61c7ad1","ios":"levelo://app?vid=ca0b3444-318f-4cd4-973f-dcffb61c7ad1"},"vehicle_type_id":"4","last_reported":1748891301,"current_range_meters":15200,"station_id":"ce4bhah2rcd13ifvqei0","pricing_plan_id":"cebpf4jnsgd1na2vs0mg"},{"bike_id":"7bcd976b-4b97-42d8-be87-08d4dbb890de","system_id":"levelo_inurba_marseille","lat":43.23177,"lon":5.39985,"is_reserved":false,"is_disabled":false,"rental_uris":{"android":"levelo://app?vid=7bcd976b-4b97-42d8-be87-08d4dbb890de","ios":"levelo://app?vid=7bcd976b-4b97-42d8-be87-08d4dbb890de"},"vehicle_type_id":"4","last_reported":1748891301,"current_range_meters":15200,"station_id":"ce4bhn12rcd13ifvqgqg","pricing_plan_id":"cebpf4jnsgd1na2vs0mg"},{"bike_id":"8127a8db-d017-45dc-8d0a-aa8e55e1d78c","system_id":"levelo_inurba_marseille","lat":43.28157,"lon":5.4264,"is_reserved":false,"is_disabled":false,"rental_uris":{"android":"levelo://app?vid=8127a8db-d017-45dc-8d0a-aa8e55e1d78c","ios":"levelo://app?vid=8127a8db-d017-45dc-8d0a-aa8e55e1d78c"},"vehicle_type_id":"4","last_reported":1748891301,"current_range_meters":15200,"station_id":"ce4bhnh2rcd13ifvqgug","pricing_plan_id":"cebpf4jnsgd1na2vs0mg"},{"bike_id":"709973ac-3f98-44fb-ac4a-fce80363bc49","system_id":"levelo_inurba_marseille","lat":43.29301,"lon":5.37465,"is_reserved":false,"is_disabled":false,"rental_uris":{"android":"levelo://app?vid=709973ac-3f98-44fb-ac4a-fce80363bc49","ios":"levelo://app?vid=709973ac-3f98-44fb-ac4a-fce80363bc49"},"vehicle_type_id":"4","last_reported":1748891301,"current_range_meters":16000,"station_id":"ce4bgi12rcd13ifvqb70","pricing_plan_id":"cebpf4jnsgd1na2vs0mg"},{"bike_id":"cb2218f4-4ecc-4f4d-b25f-2d67b255c565","system_id":"levelo_inurba_marseille","lat":43.283569,"lon":5.381069,"is_reserved":false,"is_disabled":false,"rental_uris":{"android":"levelo://app?vid=cb2218f4-4ecc-4f4d-b25f-2d67b255c565","ios":"levelo://app?vid=cb2218f4-4ecc-4f4d-b25f-2d67b255c565"},"vehicle_type_id":"4","last_reported":1748891301,"current_range_meters":16000,"station_id":"ce4bh412rcd13ifvqdr0","pricing_plan_id":"cebpf4jnsgd1na2vs0mg"},{"bike_id":"fb223d78-6a35-44bd-9bb1-79d5abaefe53","system_id":"levelo_inurba_marseille","lat":43.29104,"lon":5.38146,"is_reserved":false,"is_disabled":false,"rental_uris":{"android":"levelo://app?vid=fb223d78-6a35-44bd-9bb1-79d5abaefe53","ios":"levelo://app?vid=fb223d78-6a35-44bd-9bb1-79d5abaefe53"},"vehicle_type_id":"4","last_reported":1748891301,"current_range_meters":16000,"station_id":"ce4bh512rcd13ifvqe2g","pricing_plan_id":"cebpf4jnsgd1na2vs0mg"},{"bike_id":"ab5b7cb0-79ef-4eba-b631-c07080efb97a","system_id":"levelo_inurba_marseille","lat":43.29263,"lon":5.38435,"is_reserved":false,"is_disabled":false,"rental_uris":{"android":"levelo://app?vid=ab5b7cb0-79ef-4eba-b631-c07080efb97a","ios":"levelo://app?vid=ab5b7cb0-79ef-4eba-b631-c07080efb97a"},"vehicle_type_id":"4","last_reported":1748891301,"current_range_meters":16000,"station_id":"ce4bh692rcd13ifvqea0","pricing_plan_id":"cebpf4jnsgd1na2vs0mg"},{"bike_id":"cf9a9959-303f-40f9-b57e-3ca93b1edd13","system_id":"levelo_inurba_marseille","lat":43.28845,"lon":5.35835,"is_reserved":false,"is_disabled":false,"rental_uris":{"android":"levelo://app?vid=cf9a9959-303f-40f9-b57e-3ca93b1edd13","ios":"levelo://app?vid=cf9a9959-303f-40f9-b57e-3ca93b1edd13"},"vehicle_type_id":"4","last_reported":1748891301,"current_range_meters":16000,"station_id":"ce4bhb12rcd13ifvqem0","pricing_plan_id":"cebpf4jnsgd1na2vs0mg"},{"bike_id":"ee60cc4e-f47d-4c21-ab0d-ce3d47ec061d","system_id":"levelo_inurba_marseille","lat":43.27558,"lon":5.38433,"is_reserved":false,"is_disabled":false,"rental_uris":{"android":"levelo://app?vid=ee60cc4e-f47d-4c21-ab0d-ce3d47ec061d","ios":"levelo://app?vid=ee60cc4e-f47d-4c21-ab0d-ce3d47ec061d"},"vehicle_type_id":"4","last_reported":1748891301,"current_range_meters":16000,"station_id":"ce4bhh92rcd13ifvqfi0","pricing_plan_id":"cebpf4jnsgd1na2vs0mg"},{"bike_id":"98d1d76e-4f30-4abc-a043-19e8cb9be672","system_id":"levelo_inurba_marseille","lat":43.24664,"lon":5.38161,"is_reserved":false,"is_disabled":false,"rental_uris":{"android":"levelo://app?vid=98d1d76e-4f30-4abc-a043-19e8cb9be672","ios":"levelo://app?vid=98d1d76e-4f30-4abc-a043-19e8cb9be672"},"vehicle_type_id":"4","last_reported":1748891301,"current_range_meters":16000,"station_id":"ce4bhih2rcd13ifvqfr0","pricing_plan_id":"cebpf4jnsgd1na2vs0mg"},{"bike_id":"392aba08-8c80-4f58-bd27-a0f1e97f2380","system_id":"levelo_inurba_marseille","lat":43.34164,"lon":5.40878,"is_reserved":false,"is_disabled":false,"rental_uris":{"android":"levelo://app?vid=392aba08-8c80-4f58-bd27-a0f1e97f2380","ios":"levelo://app?vid=392aba08-8c80-4f58-bd27-a0f1e97f2380"},"vehicle_type_id":"4","last_reported":1748891301,"current_range_meters":16000,"station_id":"ce4bhqh2rcd13ifvqhlg","pricing_plan_id":"cebpf4jnsgd1na2vs0mg"},{"bike_id":"285fd70a-f5d2-4401-91f2-40ae573b0726","system_id":"levelo_inurba_marseille","lat":43.29273,"lon":5.38432,"is_reserved":false,"is_disabled":false,"rental_uris":{"android":"levelo://app?vid=285fd70a-f5d2-4401-91f2-40ae573b0726","ios":"levelo://app?vid=285fd70a-f5d2-4401-91f2-40ae573b0726"},"vehicle_type_id":"4","last_reported":1748891301,"current_range_meters":16400,"station_id":"ce4bh692rcd13ifvqea0","pricing_plan_id":"cebpf4jnsgd1na2vs0mg"},{"bike_id":"6fba7938-0a5f-481c-a48a-b189e1b1d948","system_id":"levelo_inurba_marseille","lat":43.29266,"lon":5.3843,"is_reserved":false,"is_disabled":false,"rental_uris":{"android":"levelo://app?vid=6fba7938-0a5f-481c-a48a-b189e1b1d948","ios":"levelo://app?vid=6fba7938-0a5f-481c-a48a-b189e1b1d948"},"vehicle_type_id":"4","last_reported":1748891301,"current_range_meters":16400,"station_id":"ce4bh692rcd13ifvqea0","pricing_plan_id":"cebpf4jnsgd1na2vs0mg"},{"bike_id":"521c6f3a-8939-4405-8c15-22a406266e07","system_id":"levelo_inurba_marseille","lat":43.27919,"lon":5.39577,"is_reserved":false,"is_disabled":false,"rental_uris":{"android":"levelo://app?vid=521c6f3a-8939-4405-8c15-22a406266e07","ios":"levelo://app?vid=521c6f3a-8939-4405-8c15-22a406266e07"},"vehicle_type_id":"4","last_reported":1748891301,"current_range_meters":16400,"station_id":"ce4bhf92rcd13ifvqf40","pricing_plan_id":"cebpf4jnsgd1na2vs0mg"},{"bike_id":"f40c42d0-7cc5-413f-875f-e15cd0659f45","system_id":"levelo_inurba_marseille","lat":43.25712,"lon":5.41113,"is_reserved":false,"is_disabled":false,"rental_uris":{"android":"levelo://app?vid=f40c42d0-7cc5-413f-875f-e15cd0659f45","ios":"levelo://app?vid=f40c42d0-7cc5-413f-875f-e15cd0659f45"},"vehicle_type_id":"4","last_reported":1748891301,"current_range_meters":16400,"station_id":"ce4bhkp2rcd13ifvqgd0","pricing_plan_id":"cebpf4jnsgd1na2vs0mg"},{"bike_id":"2fe8a36a-c689-4d01-b189-968976dfb9e4","system_id":"levelo_inurba_marseille","lat":43.31757,"lon":5.39017,"is_reserved":false,"is_disabled":false,"rental_uris":{"android":"levelo://app?vid=2fe8a36a-c689-4d01-b189-968976dfb9e4","ios":"levelo://app?vid=2fe8a36a-c689-4d01-b189-968976dfb9e4"},"vehicle_type_id":"4","last_reported":1748891301,"current_range_meters":16400,"station_id":"ce4bhqp2rcd13ifvqhng","pricing_plan_id":"cebpf4jnsgd1na2vs0mg"},{"bike_id":"82762f70-216b-4762-9e82-daaa45d19a35","system_id":"levelo_inurba_marseille","lat":43.241702,"lon":5.364022,"is_reserved":false,"is_disabled":false,"rental_uris":{"android":"levelo://app?vid=82762f70-216b-4762-9e82-daaa45d19a35","ios":"levelo://app?vid=82762f70-216b-4762-9e82-daaa45d19a35"},"vehicle_type_id":"4","last_reported":1748891301,"current_range_meters":16400,"station_id":"cpo36qri1sfpv3e86is0","pricing_plan_id":"cebpf4jnsgd1na2vs0mg"},{"bike_id":"d49a2615-15e8-4507-88a9-895e64abb2c0","system_id":"levelo_inurba_marseille","lat":43.31496,"lon":5.37306,"is_reserved":false,"is_disabled":false,"rental_uris":{"android":"levelo://app?vid=d49a2615-15e8-4507-88a9-895e64abb2c0","ios":"levelo://app?vid=d49a2615-15e8-4507-88a9-895e64abb2c0"},"vehicle_type_id":"4","last_reported":1748891301,"current_range_meters":16800,"station_id":"ce4bgt12rcd13ifvqcd0","pricing_plan_id":"cebpf4jnsgd1na2vs0mg"},{"bike_id":"667c34cd-57b7-4207-b615-fd66ddd9efe2","system_id":"levelo_inurba_marseille","lat":43.29532,"lon":5.39035,"is_reserved":false,"is_disabled":false,"rental_uris":{"android":"levelo://app?vid=667c34cd-57b7-4207-b615-fd66ddd9efe2","ios":"levelo://app?vid=667c34cd-57b7-4207-b615-fd66ddd9efe2"},"vehicle_type_id":"4","last_reported":1748891301,"current_range_meters":16800,"station_id":"ce4bh3p2rcd13ifvqdp0","pricing_plan_id":"cebpf4jnsgd1na2vs0mg"},{"bike_id":"7b537ce6-5f0c-43ab-81c7-49b9c75e1391","system_id":"levelo_inurba_marseille","lat":43.28937,"lon":5.36635,"is_reserved":false,"is_disabled":false,"rental_uris":{"android":"levelo://app?vid=7b537ce6-5f0c-43ab-81c7-49b9c75e1391","ios":"levelo://app?vid=7b537ce6-5f0c-43ab-81c7-49b9c75e1391"},"vehicle_type_id":"4","last_reported":1748891301,"current_range_meters":16800,"station_id":"ce4bhap2rcd13ifvqek0","pricing_plan_id":"cebpf4jnsgd1na2vs0mg"},{"bike_id":"d76f67b2-801c-439c-b042-145ebe9176f8","system_id":"levelo_inurba_marseille","lat":43.29247,"lon":5.36872,"is_reserved":false,"is_disabled":false,"rental_uris":{"android":"levelo://app?vid=d76f67b2-801c-439c-b042-145ebe9176f8","ios":"levelo://app?vid=d76f67b2-801c-439c-b042-145ebe9176f8"},"vehicle_type_id":"4","last_reported":1748891301,"current_range_meters":16800,"station_id":"ce4bhbp2rcd13ifvqesg","pricing_plan_id":"cebpf4jnsgd1na2vs0mg"},{"bike_id":"be37cc48-431d-4b6d-8b16-08b50146c95c","system_id":"levelo_inurba_marseille","lat":43.26056,"lon":5.39377,"is_reserved":false,"is_disabled":false,"rental_uris":{"android":"levelo://app?vid=be37cc48-431d-4b6d-8b16-08b50146c95c","ios":"levelo://app?vid=be37cc48-431d-4b6d-8b16-08b50146c95c"},"vehicle_type_id":"4","last_reported":1748891301,"current_range_meters":16800,"station_id":"ce4bhh92rcd13ifvqfj0","pricing_plan_id":"cebpf4jnsgd1na2vs0mg"},{"bike_id":"2c241985-99f0-462e-94c3-238a67ecf4f7","system_id":"levelo_inurba_marseille","lat":43.25859,"lon":5.39904,"is_reserved":false,"is_disabled":false,"rental_uris":{"android":"levelo://app?vid=2c241985-99f0-462e-94c3-238a67ecf4f7","ios":"levelo://app?vid=2c241985-99f0-462e-94c3-238a67ecf4f7"},"vehicle_type_id":"4","last_reported":1748891301,"current_range_meters":16800,"station_id":"ce4bhl92rcd13ifvqghg","pricing_plan_id":"cebpf4jnsgd1na2vs0mg"},{"bike_id":"99988137-a01e-4352-b091-4036405e8571","system_id":"levelo_inurba_marseille","lat":43.30218,"lon":5.39465,"is_reserved":false,"is_disabled":false,"rental_uris":{"android":"levelo://app?vid=99988137-a01e-4352-b091-4036405e8571","ios":"levelo://app?vid=99988137-a01e-4352-b091-4036405e8571"},"vehicle_type_id":"4","last_reported":1748891301,"current_range_meters":17200,"station_id":"ce4bh0p2rcd13ifvqd70","pricing_plan_id":"cebpf4jnsgd1na2vs0mg"},{"bike_id":"79cf3479-0b46-4bc3-9a57-b3c719361fe9","system_id":"levelo_inurba_marseille","lat":43.30647,"lon":5.40101,"is_reserved":false,"is_disabled":false,"rental_uris":{"android":"levelo://app?vid=79cf3479-0b46-4bc3-9a57-b3c719361fe9","ios":"levelo://app?vid=79cf3479-0b46-4bc3-9a57-b3c719361fe9"},"vehicle_type_id":"4","last_reported":1748891301,"current_range_meters":17200,"station_id":"ce4bh112rcd13ifvqda0","pricing_plan_id":"cebpf4jnsgd1na2vs0mg"},{"bike_id":"c82b5027-8222-4a9f-a8f4-a0a1a2eef0c3","system_id":"levelo_inurba_marseille","lat":43.2895,"lon":5.36618,"is_reserved":false,"is_disabled":false,"rental_uris":{"android":"levelo://app?vid=c82b5027-8222-4a9f-a8f4-a0a1a2eef0c3","ios":"levelo://app?vid=c82b5027-8222-4a9f-a8f4-a0a1a2eef0c3"},"vehicle_type_id":"4","last_reported":1748891301,"current_range_meters":17200,"station_id":"ce4bhap2rcd13ifvqek0","pricing_plan_id":"cebpf4jnsgd1na2vs0mg"},{"bike_id":"25ce0f47-de9d-4e1d-8f73-064fa852fcec","system_id":"levelo_inurba_marseille","lat":43.27374,"lon":5.36269,"is_reserved":false,"is_disabled":false,"rental_uris":{"android":"levelo://app?vid=25ce0f47-de9d-4e1d-8f73-064fa852fcec","ios":"levelo://app?vid=25ce0f47-de9d-4e1d-8f73-064fa852fcec"},"vehicle_type_id":"4","last_reported":1748891301,"current_range_meters":17200,"station_id":"ce4bhbh2rcd13ifvqeo0","pricing_plan_id":"cebpf4jnsgd1na2vs0mg"},{"bike_id":"62ebcf99-52d8-4ec8-a1af-b944e399c355","system_id":"levelo_inurba_marseille","lat":43.27378,"lon":5.36246,"is_reserved":false,"is_disabled":false,"rental_uris":{"android":"levelo://app?vid=62ebcf99-52d8-4ec8-a1af-b944e399c355","ios":"levelo://app?vid=62ebcf99-52d8-4ec8-a1af-b944e399c355"},"vehicle_type_id":"4","last_reported":1748891301,"current_range_meters":17200,"station_id":"ce4bhbh2rcd13ifvqeo0","pricing_plan_id":"cebpf4jnsgd1na2vs0mg"},{"bike_id":"827e0f1c-6ea8-4dff-a1f6-0cb7c3b49974","system_id":"levelo_inurba_marseille","lat":43.27907,"lon":5.38008,"is_reserved":false,"is_disabled":false,"rental_uris":{"android":"levelo://app?vid=827e0f1c-6ea8-4dff-a1f6-0cb7c3b49974","ios":"levelo://app?vid=827e0f1c-6ea8-4dff-a1f6-0cb7c3b49974"},"vehicle_type_id":"4","last_reported":1748891301,"current_range_meters":17200,"station_id":"ce4bhf92rcd13ifvqf50","pricing_plan_id":"cebpf4jnsgd1na2vs0mg"},{"bike_id":"206735aa-cc71-47f7-9c67-d08fbdf682ee","system_id":"levelo_inurba_marseille","lat":43.25121,"lon":5.40306,"is_reserved":false,"is_disabled":false,"rental_uris":{"android":"levelo://app?vid=206735aa-cc71-47f7-9c67-d08fbdf682ee","ios":"levelo://app?vid=206735aa-cc71-47f7-9c67-d08fbdf682ee"},"vehicle_type_id":"4","last_reported":1748891301,"current_range_meters":17200,"station_id":"ce4bhlh2rcd13ifvqgig","pricing_plan_id":"cebpf4jnsgd1na2vs0mg"},{"bike_id":"56ebd079-5325-4146-a252-c6e09bfabc00","system_id":"levelo_inurba_marseille","lat":43.318968,"lon":5.407346,"is_reserved":false,"is_disabled":false,"rental_uris":{"android":"levelo://app?vid=56ebd079-5325-4146-a252-c6e09bfabc00","ios":"levelo://app?vid=56ebd079-5325-4146-a252-c6e09bfabc00"},"vehicle_type_id":"4","last_reported":1748891301,"current_range_meters":17200,"station_id":"ce4bhq12rcd13ifvqhig","pricing_plan_id":"cebpf4jnsgd1na2vs0mg"},{"bike_id":"b7557344-82f1-4a35-96d4-b128a1446f19","system_id":"levelo_inurba_marseille","lat":43.32376,"lon":5.38888,"is_reserved":false,"is_disabled":false,"rental_uris":{"android":"levelo://app?vid=b7557344-82f1-4a35-96d4-b128a1446f19","ios":"levelo://app?vid=b7557344-82f1-4a35-96d4-b128a1446f19"},"vehicle_type_id":"4","last_reported":1748891301,"current_range_meters":17200,"station_id":"ce4bhqp2rcd13ifvqhog","pricing_plan_id":"cebpf4jnsgd1na2vs0mg"},{"bike_id":"a082cfc8-70c0-4316-b58b-8dca0406cb1a","system_id":"levelo_inurba_marseille","lat":43.25463,"lon":5.41848,"is_reserved":false,"is_disabled":false,"rental_uris":{"android":"levelo://app?vid=a082cfc8-70c0-4316-b58b-8dca0406cb1a","ios":"levelo://app?vid=a082cfc8-70c0-4316-b58b-8dca0406cb1a"},"vehicle_type_id":"4","last_reported":1748891301,"current_range_meters":17600,"station_id":"","pricing_plan_id":"cebpf4jnsgd1na2vs0mg"},{"bike_id":"f3254fa9-5ad1-4846-bfd4-4f8bc3692f7a","system_id":"levelo_inurba_marseille","lat":43.32616,"lon":5.42511,"is_reserved":false,"is_disabled":false,"rental_uris":{"android":"levelo://app?vid=f3254fa9-5ad1-4846-bfd4-4f8bc3692f7a","ios":"levelo://app?vid=f3254fa9-5ad1-4846-bfd4-4f8bc3692f7a"},"vehicle_type_id":"4","last_reported":1748891301,"current_range_meters":17600,"station_id":"","pricing_plan_id":"cebpf4jnsgd1na2vs0mg"},{"bike_id":"e31c84f5-c44b-48e2-adf2-52a2beace6c7","system_id":"levelo_inurba_marseille","lat":43.31722,"lon":5.37456,"is_reserved":false,"is_disabled":false,"rental_uris":{"android":"levelo://app?vid=e31c84f5-c44b-48e2-adf2-52a2beace6c7","ios":"levelo://app?vid=e31c84f5-c44b-48e2-adf2-52a2beace6c7"},"vehicle_type_id":"4","last_reported":1748891301,"current_range_meters":17600,"station_id":"","pricing_plan_id":"cebpf4jnsgd1na2vs0mg"},{"bike_id":"cd8f664d-99f7-494e-bb71-bde6d35949fe","system_id":"levelo_inurba_marseille","lat":43.30938,"lon":5.40137,"is_reserved":false,"is_disabled":false,"rental_uris":{"android":"levelo://app?vid=cd8f664d-99f7-494e-bb71-bde6d35949fe","ios":"levelo://app?vid=cd8f664d-99f7-494e-bb71-bde6d35949fe"},"vehicle_type_id":"4","last_reported":1748891301,"current_range_meters":17600,"station_id":"ce4bgvp2rcd13ifvqct0","pricing_plan_id":"cebpf4jnsgd1na2vs0mg"},{"bike_id":"e4a4f2e6-4427-4ee3-9200-c5f638b5fe70","system_id":"levelo_inurba_marseille","lat":43.31327,"lon":5.397,"is_reserved":false,"is_disabled":false,"rental_uris":{"android":"levelo://app?vid=e4a4f2e6-4427-4ee3-9200-c5f638b5fe70","ios":"levelo://app?vid=e4a4f2e6-4427-4ee3-9200-c5f638b5fe70"},"vehicle_type_id":"4","last_reported":1748891301,"current_range_meters":17600,"station_id":"ce4bgvp2rcd13ifvqcu0","pricing_plan_id":"cebpf4jnsgd1na2vs0mg"},{"bike_id":"37bb9d36-2d72-43d2-86ad-a712780cacba","system_id":"levelo_inurba_marseille","lat":43.301386,"lon":5.398736,"is_reserved":false,"is_disabled":false,"rental_uris":{"android":"levelo://app?vid=37bb9d36-2d72-43d2-86ad-a712780cacba","ios":"levelo://app?vid=37bb9d36-2d72-43d2-86ad-a712780cacba"},"vehicle_type_id":"4","last_reported":1748891301,"current_range_meters":17600,"station_id":"ce4bh0h2rcd13ifvqd40","pricing_plan_id":"cebpf4jnsgd1na2vs0mg"},{"bike_id":"6dee6e09-340a-4dcb-8235-67fdebee54cb","system_id":"levelo_inurba_marseille","lat":43.27169,"lon":5.40983,"is_reserved":false,"is_disabled":false,"rental_uris":{"android":"levelo://app?vid=6dee6e09-340a-4dcb-8235-67fdebee54cb","ios":"levelo://app?vid=6dee6e09-340a-4dcb-8235-67fdebee54cb"},"vehicle_type_id":"4","last_reported":1748891301,"current_range_meters":17600,"station_id":"ce4bhl12rcd13ifvqgf0","pricing_plan_id":"cebpf4jnsgd1na2vs0mg"},{"bike_id":"f50e322c-0576-4a1a-b220-45bc992acee4","system_id":"levelo_inurba_marseille","lat":43.27815,"lon":5.40709,"is_reserved":false,"is_disabled":false,"rental_uris":{"android":"levelo://app?vid=f50e322c-0576-4a1a-b220-45bc992acee4","ios":"levelo://app?vid=f50e322c-0576-4a1a-b220-45bc992acee4"},"vehicle_type_id":"4","last_reported":1748891301,"current_range_meters":17600,"station_id":"ce4bhnh2rcd13ifvqgtg","pricing_plan_id":"cebpf4jnsgd1na2vs0mg"},{"bike_id":"dba232dd-05ec-4177-8fee-3d3dc476d851","system_id":"levelo_inurba_marseille","lat":43.27965,"lon":5.41653,"is_reserved":false,"is_disabled":false,"rental_uris":{"android":"levelo://app?vid=dba232dd-05ec-4177-8fee-3d3dc476d851","ios":"levelo://app?vid=dba232dd-05ec-4177-8fee-3d3dc476d851"},"vehicle_type_id":"4","last_reported":1748891301,"current_range_meters":17600,"station_id":"ce4bho12rcd13ifvqh1g","pricing_plan_id":"cebpf4jnsgd1na2vs0mg"},{"bike_id":"1cb7c0a1-48f8-49ab-9106-52040059037c","system_id":"levelo_inurba_marseille","lat":43.23056,"lon":5.35495,"is_reserved":false,"is_disabled":false,"rental_uris":{"android":"levelo://app?vid=1cb7c0a1-48f8-49ab-9106-52040059037c","ios":"levelo://app?vid=1cb7c0a1-48f8-49ab-9106-52040059037c"},"vehicle_type_id":"4","last_reported":1748891301,"current_range_meters":17600,"station_id":"cpo3342slgdg3j2ifvpg","pricing_plan_id":"cebpf4jnsgd1na2vs0mg"},{"bike_id":"6db8da9d-ed27-45cf-9935-6e37c99d0be9","system_id":"levelo_inurba_marseille","lat":43.262288,"lon":5.40148,"is_reserved":false,"is_disabled":false,"rental_uris":{"android":"levelo://app?vid=6db8da9d-ed27-45cf-9935-6e37c99d0be9","ios":"levelo://app?vid=6db8da9d-ed27-45cf-9935-6e37c99d0be9"},"vehicle_type_id":"4","last_reported":1748891301,"current_range_meters":18000,"station_id":"","pricing_plan_id":"cebpf4jnsgd1na2vs0mg"},{"bike_id":"0f0d65cc-be99-4922-a014-b5d5077c4212","system_id":"levelo_inurba_marseille","lat":43.297089,"lon":5.366119,"is_reserved":false,"is_disabled":false,"rental_uris":{"android":"levelo://app?vid=0f0d65cc-be99-4922-a014-b5d5077c4212","ios":"levelo://app?vid=0f0d65cc-be99-4922-a014-b5d5077c4212"},"vehicle_type_id":"4","last_reported":1748891301,"current_range_meters":18000,"station_id":"ce4bgn12rcd13ifvqbt0","pricing_plan_id":"cebpf4jnsgd1na2vs0mg"},{"bike_id":"50cd880b-4949-4042-96dd-d59bd3fcf55b","system_id":"levelo_inurba_marseille","lat":43.28669,"lon":5.38666,"is_reserved":false,"is_disabled":false,"rental_uris":{"android":"levelo://app?vid=50cd880b-4949-4042-96dd-d59bd3fcf55b","ios":"levelo://app?vid=50cd880b-4949-4042-96dd-d59bd3fcf55b"},"vehicle_type_id":"4","last_reported":1748891301,"current_range_meters":18000,"station_id":"ce4bh492rcd13ifvqdug","pricing_plan_id":"cebpf4jnsgd1na2vs0mg"},{"bike_id":"7ef506f5-dade-43a8-8e8d-31c3d24a171a","system_id":"levelo_inurba_marseille","lat":43.2827,"lon":5.35061,"is_reserved":false,"is_disabled":false,"rental_uris":{"android":"levelo://app?vid=7ef506f5-dade-43a8-8e8d-31c3d24a171a","ios":"levelo://app?vid=7ef506f5-dade-43a8-8e8d-31c3d24a171a"},"vehicle_type_id":"4","last_reported":1748891301,"current_range_meters":18000,"station_id":"ce4bhbp2rcd13ifvqerg","pricing_plan_id":"cebpf4jnsgd1na2vs0mg"},{"bike_id":"028a3a02-9e21-4c5e-839d-a685fda56cce","system_id":"levelo_inurba_marseille","lat":43.27432,"lon":5.39418,"is_reserved":false,"is_disabled":false,"rental_uris":{"android":"levelo://app?vid=028a3a02-9e21-4c5e-839d-a685fda56cce","ios":"levelo://app?vid=028a3a02-9e21-4c5e-839d-a685fda56cce"},"vehicle_type_id":"4","last_reported":1748891301,"current_range_meters":18000,"station_id":"ce4bhdp2rcd13ifvqf20","pricing_plan_id":"cebpf4jnsgd1na2vs0mg"},{"bike_id":"859fcab1-74b2-40a1-b9e6-866c899a681e","system_id":"levelo_inurba_marseille","lat":43.279956,"lon":5.400091,"is_reserved":false,"is_disabled":false,"rental_uris":{"android":"levelo://app?vid=859fcab1-74b2-40a1-b9e6-866c899a681e","ios":"levelo://app?vid=859fcab1-74b2-40a1-b9e6-866c899a681e"},"vehicle_type_id":"4","last_reported":1748891301,"current_range_meters":18000,"station_id":"ce4bho92rcd13ifvqh4g","pricing_plan_id":"cebpf4jnsgd1na2vs0mg"},{"bike_id":"1c0d1be6-a5fc-47ef-9364-f57695611439","system_id":"levelo_inurba_marseille","lat":43.33128,"lon":5.41397,"is_reserved":false,"is_disabled":false,"rental_uris":{"android":"levelo://app?vid=1c0d1be6-a5fc-47ef-9364-f57695611439","ios":"levelo://app?vid=1c0d1be6-a5fc-47ef-9364-f57695611439"},"vehicle_type_id":"4","last_reported":1748891301,"current_range_meters":18800,"station_id":"","pricing_plan_id":"cebpf4jnsgd1na2vs0mg"},{"bike_id":"dfd56778-7dbf-42c7-9dc3-4380a4b3cfbc","system_id":"levelo_inurba_marseille","lat":43.29802,"lon":5.38098,"is_reserved":false,"is_disabled":false,"rental_uris":{"android":"levelo://app?vid=dfd56778-7dbf-42c7-9dc3-4380a4b3cfbc","ios":"levelo://app?vid=dfd56778-7dbf-42c7-9dc3-4380a4b3cfbc"},"vehicle_type_id":"4","last_reported":1748891301,"current_range_meters":18800,"station_id":"ce4bgip2rcd13ifvqbb0","pricing_plan_id":"cebpf4jnsgd1na2vs0mg"},{"bike_id":"05d79a84-39e8-4c20-923b-51b1f1dae499","system_id":"levelo_inurba_marseille","lat":43.29602,"lon":5.38111,"is_reserved":false,"is_disabled":false,"rental_uris":{"android":"levelo://app?vid=05d79a84-39e8-4c20-923b-51b1f1dae499","ios":"levelo://app?vid=05d79a84-39e8-4c20-923b-51b1f1dae499"},"vehicle_type_id":"4","last_reported":1748891301,"current_range_meters":18800,"station_id":"ce4bgl12rcd13ifvqbo0","pricing_plan_id":"cebpf4jnsgd1na2vs0mg"},{"bike_id":"615111c7-a102-4d21-b5e5-2fda5d73f668","system_id":"levelo_inurba_marseille","lat":43.302286,"lon":5.40069,"is_reserved":false,"is_disabled":false,"rental_uris":{"android":"levelo://app?vid=615111c7-a102-4d21-b5e5-2fda5d73f668","ios":"levelo://app?vid=615111c7-a102-4d21-b5e5-2fda5d73f668"},"vehicle_type_id":"4","last_reported":1748891301,"current_range_meters":18800,"station_id":"ce4bgvh2rcd13ifvqcs0","pricing_plan_id":"cebpf4jnsgd1na2vs0mg"},{"bike_id":"25465dbd-04fe-425d-b5ab-9742ca029e48","system_id":"levelo_inurba_marseille","lat":43.29267,"lon":5.40889,"is_reserved":false,"is_disabled":false,"rental_uris":{"android":"levelo://app?vid=25465dbd-04fe-425d-b5ab-9742ca029e48","ios":"levelo://app?vid=25465dbd-04fe-425d-b5ab-9742ca029e48"},"vehicle_type_id":"4","last_reported":1748891301,"current_range_meters":18800,"station_id":"ce4bh192rcd13ifvqdc0","pricing_plan_id":"cebpf4jnsgd1na2vs0mg"},{"bike_id":"e504d028-81d5-4fdd-b505-e1a9127c4754","system_id":"levelo_inurba_marseille","lat":43.29039,"lon":5.3757,"is_reserved":false,"is_disabled":false,"rental_uris":{"android":"levelo://app?vid=e504d028-81d5-4fdd-b505-e1a9127c4754","ios":"levelo://app?vid=e504d028-81d5-4fdd-b505-e1a9127c4754"},"vehicle_type_id":"4","last_reported":1748891301,"current_range_meters":18800,"station_id":"ce4bh692rcd13ifvqe90","pricing_plan_id":"cebpf4jnsgd1na2vs0mg"},{"bike_id":"52815b2c-5295-4b36-bbbd-098a77e83b63","system_id":"levelo_inurba_marseille","lat":43.29015,"lon":5.35605,"is_reserved":false,"is_disabled":false,"rental_uris":{"android":"levelo://app?vid=52815b2c-5295-4b36-bbbd-098a77e83b63","ios":"levelo://app?vid=52815b2c-5295-4b36-bbbd-098a77e83b63"},"vehicle_type_id":"4","last_reported":1748891301,"current_range_meters":18800,"station_id":"ce4bhb92rcd13ifvqen0","pricing_plan_id":"cebpf4jnsgd1na2vs0mg"},{"bike_id":"a1bc7c0e-4e66-4b42-a1c3-d0c07ce1d655","system_id":"levelo_inurba_marseille","lat":43.26062,"lon":5.39373,"is_reserved":false,"is_disabled":false,"rental_uris":{"android":"levelo://app?vid=a1bc7c0e-4e66-4b42-a1c3-d0c07ce1d655","ios":"levelo://app?vid=a1bc7c0e-4e66-4b42-a1c3-d0c07ce1d655"},"vehicle_type_id":"4","last_reported":1748891301,"current_range_meters":18800,"station_id":"ce4bhh92rcd13ifvqfj0","pricing_plan_id":"cebpf4jnsgd1na2vs0mg"},{"bike_id":"8e45c534-9f38-4aaf-bfc0-20831aa0c778","system_id":"levelo_inurba_marseille","lat":43.26062,"lon":5.39384,"is_reserved":false,"is_disabled":false,"rental_uris":{"android":"levelo://app?vid=8e45c534-9f38-4aaf-bfc0-20831aa0c778","ios":"levelo://app?vid=8e45c534-9f38-4aaf-bfc0-20831aa0c778"},"vehicle_type_id":"4","last_reported":1748891301,"current_range_meters":18800,"station_id":"ce4bhh92rcd13ifvqfj0","pricing_plan_id":"cebpf4jnsgd1na2vs0mg"},{"bike_id":"e073c3b9-579e-431b-8c54-b6a28caa0933","system_id":"levelo_inurba_marseille","lat":43.229342,"lon":5.353852,"is_reserved":false,"is_disabled":false,"rental_uris":{"android":"levelo://app?vid=e073c3b9-579e-431b-8c54-b6a28caa0933","ios":"levelo://app?vid=e073c3b9-579e-431b-8c54-b6a28caa0933"},"vehicle_type_id":"4","last_reported":1748891301,"current_range_meters":18800,"station_id":"cpo3532slgdg3j2ikp40","pricing_plan_id":"cebpf4jnsgd1na2vs0mg"},{"bike_id":"4e17c123-8236-4a02-a8a2-a61cdc625d7e","system_id":"levelo_inurba_marseille","lat":43.30525,"lon":5.37129,"is_reserved":false,"is_disabled":false,"rental_uris":{"android":"levelo://app?vid=4e17c123-8236-4a02-a8a2-a61cdc625d7e","ios":"levelo://app?vid=4e17c123-8236-4a02-a8a2-a61cdc625d7e"},"vehicle_type_id":"4","last_reported":1748891301,"current_range_meters":19200,"station_id":"","pricing_plan_id":"cebpf4jnsgd1na2vs0mg"},{"bike_id":"cea11b51-a114-4b0a-a759-98f8499e3daa","system_id":"levelo_inurba_marseille","lat":43.30138,"lon":5.38789,"is_reserved":false,"is_disabled":false,"rental_uris":{"android":"levelo://app?vid=cea11b51-a114-4b0a-a759-98f8499e3daa","ios":"levelo://app?vid=cea11b51-a114-4b0a-a759-98f8499e3daa"},"vehicle_type_id":"4","last_reported":1748891301,"current_range_meters":19200,"station_id":"ce4bghh2rcd13ifvqb60","pricing_plan_id":"cebpf4jnsgd1na2vs0mg"},{"bike_id":"8b2630dc-df3f-4fdb-b956-2b639bcae928","system_id":"levelo_inurba_marseille","lat":43.30211,"lon":5.39464,"is_reserved":false,"is_disabled":false,"rental_uris":{"android":"levelo://app?vid=8b2630dc-df3f-4fdb-b956-2b639bcae928","ios":"levelo://app?vid=8b2630dc-df3f-4fdb-b956-2b639bcae928"},"vehicle_type_id":"4","last_reported":1748891301,"current_range_meters":19200,"station_id":"ce4bh0p2rcd13ifvqd70","pricing_plan_id":"cebpf4jnsgd1na2vs0mg"},{"bike_id":"c6f3eed0-d076-4090-956c-7de96d675ffb","system_id":"levelo_inurba_marseille","lat":43.28576,"lon":5.39493,"is_reserved":false,"is_disabled":false,"rental_uris":{"android":"levelo://app?vid=c6f3eed0-d076-4090-956c-7de96d675ffb","ios":"levelo://app?vid=c6f3eed0-d076-4090-956c-7de96d675ffb"},"vehicle_type_id":"4","last_reported":1748891301,"current_range_meters":19200,"station_id":"ce4bh292rcd13ifvqdg0","pricing_plan_id":"cebpf4jnsgd1na2vs0mg"},{"bike_id":"c0cad2c2-8cac-4295-9ba2-57b6ecc9ca20","system_id":"levelo_inurba_marseille","lat":43.24669,"lon":5.38157,"is_reserved":false,"is_disabled":false,"rental_uris":{"android":"levelo://app?vid=c0cad2c2-8cac-4295-9ba2-57b6ecc9ca20","ios":"levelo://app?vid=c0cad2c2-8cac-4295-9ba2-57b6ecc9ca20"},"vehicle_type_id":"4","last_reported":1748891301,"current_range_meters":19200,"station_id":"ce4bhih2rcd13ifvqfr0","pricing_plan_id":"cebpf4jnsgd1na2vs0mg"},{"bike_id":"03c8c524-d600-4d9e-aa7f-f80a900da483","system_id":"levelo_inurba_marseille","lat":43.279445,"lon":5.410498,"is_reserved":false,"is_disabled":false,"rental_uris":{"android":"levelo://app?vid=03c8c524-d600-4d9e-aa7f-f80a900da483","ios":"levelo://app?vid=03c8c524-d600-4d9e-aa7f-f80a900da483"},"vehicle_type_id":"4","last_reported":1748891301,"current_range_meters":19200,"station_id":"ce4bhnp2rcd13ifvqh0g","pricing_plan_id":"cebpf4jnsgd1na2vs0mg"},{"bike_id":"09d65852-8a75-4e17-98c3-bce99dbc5aa4","system_id":"levelo_inurba_marseille","lat":43.28454,"lon":5.39192,"is_reserved":false,"is_disabled":false,"rental_uris":{"android":"levelo://app?vid=09d65852-8a75-4e17-98c3-bce99dbc5aa4","ios":"levelo://app?vid=09d65852-8a75-4e17-98c3-bce99dbc5aa4"},"vehicle_type_id":"4","last_reported":1748891301,"current_range_meters":19200,"station_id":"ce4bhoh2rcd13ifvqh5g","pricing_plan_id":"cebpf4jnsgd1na2vs0mg"},{"bike_id":"5b536054-600d-4e23-8558-f74f4f3ec365","system_id":"levelo_inurba_marseille","lat":43.330247,"lon":5.390423,"is_reserved":false,"is_disabled":false,"rental_uris":{"android":"levelo://app?vid=5b536054-600d-4e23-8558-f74f4f3ec365","ios":"levelo://app?vid=5b536054-600d-4e23-8558-f74f4f3ec365"},"vehicle_type_id":"4","last_reported":1748891301,"current_range_meters":19200,"station_id":"ce4bhr92rcd13ifvqhrg","pricing_plan_id":"cebpf4jnsgd1na2vs0mg"},{"bike_id":"cc213320-e870-4fb0-82e8-75eb66bf4936","system_id":"levelo_inurba_marseille","lat":43.294098,"lon":5.386278,"is_reserved":false,"is_disabled":false,"rental_uris":{"android":"levelo://app?vid=cc213320-e870-4fb0-82e8-75eb66bf4936","ios":"levelo://app?vid=cc213320-e870-4fb0-82e8-75eb66bf4936"},"vehicle_type_id":"4","last_reported":1748891301,"current_range_meters":19600,"station_id":"ce4bh2h2rcd13ifvqdh0","pricing_plan_id":"cebpf4jnsgd1na2vs0mg"},{"bike_id":"4b8b6b82-1649-48a5-8568-c6d2a474a21c","system_id":"levelo_inurba_marseille","lat":43.2869,"lon":5.37321,"is_reserved":false,"is_disabled":false,"rental_uris":{"android":"levelo://app?vid=4b8b6b82-1649-48a5-8568-c6d2a474a21c","ios":"levelo://app?vid=4b8b6b82-1649-48a5-8568-c6d2a474a21c"},"vehicle_type_id":"4","last_reported":1748891301,"current_range_meters":19600,"station_id":"ce4bh3p2rcd13ifvqdq0","pricing_plan_id":"cebpf4jnsgd1na2vs0mg"},{"bike_id":"620beafd-65d2-408b-8d01-7d4585b2d7c4","system_id":"levelo_inurba_marseille","lat":43.273791,"lon":5.362533,"is_reserved":false,"is_disabled":false,"rental_uris":{"android":"levelo://app?vid=620beafd-65d2-408b-8d01-7d4585b2d7c4","ios":"levelo://app?vid=620beafd-65d2-408b-8d01-7d4585b2d7c4"},"vehicle_type_id":"4","last_reported":1748891301,"current_range_meters":19600,"station_id":"ce4bhbh2rcd13ifvqeo0","pricing_plan_id":"cebpf4jnsgd1na2vs0mg"},{"bike_id":"63739e37-248c-4b3d-88ee-45b4d48fec55","system_id":"levelo_inurba_marseille","lat":43.27376,"lon":5.36259,"is_reserved":false,"is_disabled":false,"rental_uris":{"android":"levelo://app?vid=63739e37-248c-4b3d-88ee-45b4d48fec55","ios":"levelo://app?vid=63739e37-248c-4b3d-88ee-45b4d48fec55"},"vehicle_type_id":"4","last_reported":1748891301,"current_range_meters":19600,"station_id":"ce4bhbh2rcd13ifvqeo0","pricing_plan_id":"cebpf4jnsgd1na2vs0mg"},{"bike_id":"54766665-ebb3-444f-820e-109750a94747","system_id":"levelo_inurba_marseille","lat":43.23203,"lon":5.39968,"is_reserved":false,"is_disabled":false,"rental_uris":{"android":"levelo://app?vid=54766665-ebb3-444f-820e-109750a94747","ios":"levelo://app?vid=54766665-ebb3-444f-820e-109750a94747"},"vehicle_type_id":"4","last_reported":1748891301,"current_range_meters":19600,"station_id":"ce4bhn12rcd13ifvqgqg","pricing_plan_id":"cebpf4jnsgd1na2vs0mg"},{"bike_id":"93527699-8938-420a-af22-f96f89858f71","system_id":"levelo_inurba_marseille","lat":43.28151,"lon":5.4264,"is_reserved":false,"is_disabled":false,"rental_uris":{"android":"levelo://app?vid=93527699-8938-420a-af22-f96f89858f71","ios":"levelo://app?vid=93527699-8938-420a-af22-f96f89858f71"},"vehicle_type_id":"4","last_reported":1748891301,"current_range_meters":19600,"station_id":"ce4bhnh2rcd13ifvqgug","pricing_plan_id":"cebpf4jnsgd1na2vs0mg"},{"bike_id":"2a804f07-ef43-4ee0-aa11-f4b6cb9df5af","system_id":"levelo_inurba_marseille","lat":43.29786,"lon":5.39349,"is_reserved":false,"is_disabled":false,"rental_uris":{"android":"levelo://app?vid=2a804f07-ef43-4ee0-aa11-f4b6cb9df5af","ios":"levelo://app?vid=2a804f07-ef43-4ee0-aa11-f4b6cb9df5af"},"vehicle_type_id":"4","last_reported":1748891301,"current_range_meters":19600,"station_id":"chh1huq6cuj3fo74tm60","pricing_plan_id":"cebpf4jnsgd1na2vs0mg"},{"bike_id":"211d17a0-c262-4168-b2ba-30cde1dcb270","system_id":"levelo_inurba_marseille","lat":43.28698,"lon":5.36093,"is_reserved":false,"is_disabled":false,"rental_uris":{"android":"levelo://app?vid=211d17a0-c262-4168-b2ba-30cde1dcb270","ios":"levelo://app?vid=211d17a0-c262-4168-b2ba-30cde1dcb270"},"vehicle_type_id":"4","last_reported":1748891301,"current_range_meters":19600,"station_id":"cki0cbj6b192h4jlfktg","pricing_plan_id":"cebpf4jnsgd1na2vs0mg"},{"bike_id":"f2943fc3-116e-4937-9166-7a5713444027","system_id":"levelo_inurba_marseille","lat":43.29631,"lon":5.37707,"is_reserved":false,"is_disabled":false,"rental_uris":{"android":"levelo://app?vid=f2943fc3-116e-4937-9166-7a5713444027","ios":"levelo://app?vid=f2943fc3-116e-4937-9166-7a5713444027"},"vehicle_type_id":"4","last_reported":1748891301,"current_range_meters":20000,"station_id":"ce4bgi92rcd13ifvqb90","pricing_plan_id":"cebpf4jnsgd1na2vs0mg"},{"bike_id":"978c4ccd-961d-4198-b464-0b2ec2f17cfd","system_id":"levelo_inurba_marseille","lat":43.30954,"lon":5.39024,"is_reserved":false,"is_disabled":false,"rental_uris":{"android":"levelo://app?vid=978c4ccd-961d-4198-b464-0b2ec2f17cfd","ios":"levelo://app?vid=978c4ccd-961d-4198-b464-0b2ec2f17cfd"},"vehicle_type_id":"4","last_reported":1748891301,"current_range_meters":20000,"station_id":"ce4bgup2rcd13ifvqco0","pricing_plan_id":"cebpf4jnsgd1na2vs0mg"},{"bike_id":"7b64bcd3-ccda-41f9-8072-f18e0fb136de","system_id":"levelo_inurba_marseille","lat":43.30244,"lon":5.40053,"is_reserved":false,"is_disabled":false,"rental_uris":{"android":"levelo://app?vid=7b64bcd3-ccda-41f9-8072-f18e0fb136de","ios":"levelo://app?vid=7b64bcd3-ccda-41f9-8072-f18e0fb136de"},"vehicle_type_id":"4","last_reported":1748891301,"current_range_meters":20000,"station_id":"ce4bgvh2rcd13ifvqcs0","pricing_plan_id":"cebpf4jnsgd1na2vs0mg"},{"bike_id":"551c4797-96c7-4a8c-a270-ae3fab99bf10","system_id":"levelo_inurba_marseille","lat":43.30896,"lon":5.3966,"is_reserved":false,"is_disabled":false,"rental_uris":{"android":"levelo://app?vid=551c4797-96c7-4a8c-a270-ae3fab99bf10","ios":"levelo://app?vid=551c4797-96c7-4a8c-a270-ae3fab99bf10"},"vehicle_type_id":"4","last_reported":1748891301,"current_range_meters":20000,"station_id":"ce4bh012rcd13ifvqcv0","pricing_plan_id":"cebpf4jnsgd1na2vs0mg"},{"bike_id":"1cacf557-d039-4560-a226-d7ca583b654c","system_id":"levelo_inurba_marseille","lat":43.29888,"lon":5.38886,"is_reserved":false,"is_disabled":false,"rental_uris":{"android":"levelo://app?vid=1cacf557-d039-4560-a226-d7ca583b654c","ios":"levelo://app?vid=1cacf557-d039-4560-a226-d7ca583b654c"},"vehicle_type_id":"4","last_reported":1748891301,"current_range_meters":20000,"station_id":"ce4bh392rcd13ifvqdl0","pricing_plan_id":"cebpf4jnsgd1na2vs0mg"},{"bike_id":"f76fef82-f050-49ee-893b-b71824e9c659","system_id":"levelo_inurba_marseille","lat":43.28704,"lon":5.37391,"is_reserved":false,"is_disabled":false,"rental_uris":{"android":"levelo://app?vid=f76fef82-f050-49ee-893b-b71824e9c659","ios":"levelo://app?vid=f76fef82-f050-49ee-893b-b71824e9c659"},"vehicle_type_id":"4","last_reported":1748891301,"current_range_meters":20000,"station_id":"ce4bh3p2rcd13ifvqdq0","pricing_plan_id":"cebpf4jnsgd1na2vs0mg"},{"bike_id":"f9f2301d-17d4-4f91-90ba-ac31d892389a","system_id":"levelo_inurba_marseille","lat":43.29036,"lon":5.37568,"is_reserved":false,"is_disabled":false,"rental_uris":{"android":"levelo://app?vid=f9f2301d-17d4-4f91-90ba-ac31d892389a","ios":"levelo://app?vid=f9f2301d-17d4-4f91-90ba-ac31d892389a"},"vehicle_type_id":"4","last_reported":1748891301,"current_range_meters":20000,"station_id":"ce4bh692rcd13ifvqe90","pricing_plan_id":"cebpf4jnsgd1na2vs0mg"},{"bike_id":"a742659b-7c5c-402c-b351-2c9fbde50787","system_id":"levelo_inurba_marseille","lat":43.29274,"lon":5.36851,"is_reserved":false,"is_disabled":false,"rental_uris":{"android":"levelo://app?vid=a742659b-7c5c-402c-b351-2c9fbde50787","ios":"levelo://app?vid=a742659b-7c5c-402c-b351-2c9fbde50787"},"vehicle_type_id":"4","last_reported":1748891301,"current_range_meters":20000,"station_id":"ce4bhbp2rcd13ifvqesg","pricing_plan_id":"cebpf4jnsgd1na2vs0mg"},{"bike_id":"02d113a3-91be-4fa4-9f2f-be27de4eb1a0","system_id":"levelo_inurba_marseille","lat":43.26518,"lon":5.39524,"is_reserved":false,"is_disabled":false,"rental_uris":{"android":"levelo://app?vid=02d113a3-91be-4fa4-9f2f-be27de4eb1a0","ios":"levelo://app?vid=02d113a3-91be-4fa4-9f2f-be27de4eb1a0"},"vehicle_type_id":"4","last_reported":1748891301,"current_range_meters":20000,"station_id":"ce4bhi12rcd13ifvqfq0","pricing_plan_id":"cebpf4jnsgd1na2vs0mg"},{"bike_id":"22f839c0-7837-49f4-b4b1-6cd233d79363","system_id":"levelo_inurba_marseille","lat":43.29901,"lon":5.43668,"is_reserved":false,"is_disabled":false,"rental_uris":{"android":"levelo://app?vid=22f839c0-7837-49f4-b4b1-6cd233d79363","ios":"levelo://app?vid=22f839c0-7837-49f4-b4b1-6cd233d79363"},"vehicle_type_id":"4","last_reported":1748891301,"current_range_meters":20000,"station_id":"ce4bhpp2rcd13ifvqhfg","pricing_plan_id":"cebpf4jnsgd1na2vs0mg"},{"bike_id":"bae57be5-cdae-42d5-be07-b232b26642d0","system_id":"levelo_inurba_marseille","lat":43.32339,"lon":5.4062,"is_reserved":false,"is_disabled":false,"rental_uris":{"android":"levelo://app?vid=bae57be5-cdae-42d5-be07-b232b26642d0","ios":"levelo://app?vid=bae57be5-cdae-42d5-be07-b232b26642d0"},"vehicle_type_id":"4","last_reported":1748891301,"current_range_meters":20000,"station_id":"ce4bhq92rcd13ifvqhjg","pricing_plan_id":"cebpf4jnsgd1na2vs0mg"},{"bike_id":"cb9b60e7-a7b2-451a-bf97-613c3ad11001","system_id":"levelo_inurba_marseille","lat":43.32,"lon":5.38161,"is_reserved":false,"is_disabled":false,"rental_uris":{"android":"levelo://app?vid=cb9b60e7-a7b2-451a-bf97-613c3ad11001","ios":"levelo://app?vid=cb9b60e7-a7b2-451a-bf97-613c3ad11001"},"vehicle_type_id":"4","last_reported":1748891301,"current_range_meters":20000,"station_id":"ce4bhr12rcd13ifvqhpg","pricing_plan_id":"cebpf4jnsgd1na2vs0mg"},{"bike_id":"f0d34e7f-8103-46e9-a438-c85d36f28543","system_id":"levelo_inurba_marseille","lat":43.27867,"lon":5.35425,"is_reserved":false,"is_disabled":false,"rental_uris":{"android":"levelo://app?vid=f0d34e7f-8103-46e9-a438-c85d36f28543","ios":"levelo://app?vid=f0d34e7f-8103-46e9-a438-c85d36f28543"},"vehicle_type_id":"4","last_reported":1748891301,"current_range_meters":20400,"station_id":"","pricing_plan_id":"cebpf4jnsgd1na2vs0mg"},{"bike_id":"bcc5528a-9551-4b46-892b-7b41f150f877","system_id":"levelo_inurba_marseille","lat":43.30306,"lon":5.37692,"is_reserved":false,"is_disabled":false,"rental_uris":{"android":"levelo://app?vid=bcc5528a-9551-4b46-892b-7b41f150f877","ios":"levelo://app?vid=bcc5528a-9551-4b46-892b-7b41f150f877"},"vehicle_type_id":"4","last_reported":1748891301,"current_range_meters":20400,"station_id":"ce4bguh2rcd13ifvqcj0","pricing_plan_id":"cebpf4jnsgd1na2vs0mg"},{"bike_id":"e4ca73c6-0a89-4955-be9c-1c3590e76c12","system_id":"levelo_inurba_marseille","lat":43.28669,"lon":5.38649,"is_reserved":false,"is_disabled":false,"rental_uris":{"android":"levelo://app?vid=e4ca73c6-0a89-4955-be9c-1c3590e76c12","ios":"levelo://app?vid=e4ca73c6-0a89-4955-be9c-1c3590e76c12"},"vehicle_type_id":"4","last_reported":1748891301,"current_range_meters":20400,"station_id":"ce4bh492rcd13ifvqdug","pricing_plan_id":"cebpf4jnsgd1na2vs0mg"},{"bike_id":"549377c2-872f-481d-9866-fa5d22982b8f","system_id":"levelo_inurba_marseille","lat":43.292483,"lon":5.384437,"is_reserved":false,"is_disabled":false,"rental_uris":{"android":"levelo://app?vid=549377c2-872f-481d-9866-fa5d22982b8f","ios":"levelo://app?vid=549377c2-872f-481d-9866-fa5d22982b8f"},"vehicle_type_id":"4","last_reported":1748891301,"current_range_meters":20400,"station_id":"ce4bh692rcd13ifvqea0","pricing_plan_id":"cebpf4jnsgd1na2vs0mg"},{"bike_id":"fb596a8f-b4d3-43a2-8ca3-55a861bd54ea","system_id":"levelo_inurba_marseille","lat":43.28852,"lon":5.35853,"is_reserved":false,"is_disabled":false,"rental_uris":{"android":"levelo://app?vid=fb596a8f-b4d3-43a2-8ca3-55a861bd54ea","ios":"levelo://app?vid=fb596a8f-b4d3-43a2-8ca3-55a861bd54ea"},"vehicle_type_id":"4","last_reported":1748891301,"current_range_meters":20400,"station_id":"ce4bhb12rcd13ifvqem0","pricing_plan_id":"cebpf4jnsgd1na2vs0mg"},{"bike_id":"162c63b0-a440-4bb3-9062-46e5f466940d","system_id":"levelo_inurba_marseille","lat":43.27377,"lon":5.36247,"is_reserved":false,"is_disabled":false,"rental_uris":{"android":"levelo://app?vid=162c63b0-a440-4bb3-9062-46e5f466940d","ios":"levelo://app?vid=162c63b0-a440-4bb3-9062-46e5f466940d"},"vehicle_type_id":"4","last_reported":1748891301,"current_range_meters":20400,"station_id":"ce4bhbh2rcd13ifvqeo0","pricing_plan_id":"cebpf4jnsgd1na2vs0mg"},{"bike_id":"8af64125-078e-4094-9f7a-6aad8507da27","system_id":"levelo_inurba_marseille","lat":43.24663,"lon":5.38166,"is_reserved":false,"is_disabled":false,"rental_uris":{"android":"levelo://app?vid=8af64125-078e-4094-9f7a-6aad8507da27","ios":"levelo://app?vid=8af64125-078e-4094-9f7a-6aad8507da27"},"vehicle_type_id":"4","last_reported":1748891301,"current_range_meters":20400,"station_id":"ce4bhih2rcd13ifvqfr0","pricing_plan_id":"cebpf4jnsgd1na2vs0mg"},{"bike_id":"dc46d49f-d728-48d1-b049-c15fbbef65a6","system_id":"levelo_inurba_marseille","lat":43.29311,"lon":5.3718,"is_reserved":false,"is_disabled":false,"rental_uris":{"android":"levelo://app?vid=dc46d49f-d728-48d1-b049-c15fbbef65a6","ios":"levelo://app?vid=dc46d49f-d728-48d1-b049-c15fbbef65a6"},"vehicle_type_id":"4","last_reported":1748891301,"current_range_meters":20800,"station_id":"ce4bgh92rcd13ifvqb40","pricing_plan_id":"cebpf4jnsgd1na2vs0mg"},{"bike_id":"05b93b69-3283-43d0-ad74-eabfae225afc","system_id":"levelo_inurba_marseille","lat":43.29794,"lon":5.38109,"is_reserved":false,"is_disabled":false,"rental_uris":{"android":"levelo://app?vid=05b93b69-3283-43d0-ad74-eabfae225afc","ios":"levelo://app?vid=05b93b69-3283-43d0-ad74-eabfae225afc"},"vehicle_type_id":"4","last_reported":1748891301,"current_range_meters":20800,"station_id":"ce4bgip2rcd13ifvqbb0","pricing_plan_id":"cebpf4jnsgd1na2vs0mg"},{"bike_id":"50afdb6d-9661-46b8-a33b-aef0cb162e5c","system_id":"levelo_inurba_marseille","lat":43.29588,"lon":5.38088,"is_reserved":false,"is_disabled":false,"rental_uris":{"android":"levelo://app?vid=50afdb6d-9661-46b8-a33b-aef0cb162e5c","ios":"levelo://app?vid=50afdb6d-9661-46b8-a33b-aef0cb162e5c"},"vehicle_type_id":"4","last_reported":1748891301,"current_range_meters":20800,"station_id":"ce4bgl12rcd13ifvqbo0","pricing_plan_id":"cebpf4jnsgd1na2vs0mg"},{"bike_id":"c4704f11-508e-4aaf-bea9-474c3265ad65","system_id":"levelo_inurba_marseille","lat":43.30263,"lon":5.40062,"is_reserved":false,"is_disabled":false,"rental_uris":{"android":"levelo://app?vid=c4704f11-508e-4aaf-bea9-474c3265ad65","ios":"levelo://app?vid=c4704f11-508e-4aaf-bea9-474c3265ad65"},"vehicle_type_id":"4","last_reported":1748891301,"current_range_meters":20800,"station_id":"ce4bgvh2rcd13ifvqcs0","pricing_plan_id":"cebpf4jnsgd1na2vs0mg"},{"bike_id":"d479e294-054e-4d1a-8934-faf0d8eeabfd","system_id":"levelo_inurba_marseille","lat":43.28152,"lon":5.42641,"is_reserved":false,"is_disabled":false,"rental_uris":{"android":"levelo://app?vid=d479e294-054e-4d1a-8934-faf0d8eeabfd","ios":"levelo://app?vid=d479e294-054e-4d1a-8934-faf0d8eeabfd"},"vehicle_type_id":"4","last_reported":1748891301,"current_range_meters":20800,"station_id":"ce4bhnh2rcd13ifvqgug","pricing_plan_id":"cebpf4jnsgd1na2vs0mg"},{"bike_id":"3a34f44a-3404-41e3-8487-938b6456a170","system_id":"levelo_inurba_marseille","lat":43.29788,"lon":5.39348,"is_reserved":false,"is_disabled":false,"rental_uris":{"android":"levelo://app?vid=3a34f44a-3404-41e3-8487-938b6456a170","ios":"levelo://app?vid=3a34f44a-3404-41e3-8487-938b6456a170"},"vehicle_type_id":"4","last_reported":1748891301,"current_range_meters":20800,"station_id":"chh1huq6cuj3fo74tm60","pricing_plan_id":"cebpf4jnsgd1na2vs0mg"},{"bike_id":"5a414f02-8496-4c71-868c-6b34abfc7825","system_id":"levelo_inurba_marseille","lat":43.30802,"lon":5.38145,"is_reserved":false,"is_disabled":false,"rental_uris":{"android":"levelo://app?vid=5a414f02-8496-4c71-868c-6b34abfc7825","ios":"levelo://app?vid=5a414f02-8496-4c71-868c-6b34abfc7825"},"vehicle_type_id":"4","last_reported":1748891301,"current_range_meters":21600,"station_id":"ce4bgt12rcd13ifvqce0","pricing_plan_id":"cebpf4jnsgd1na2vs0mg"},{"bike_id":"de55d88d-5db4-48dc-be07-98d1dc1a7a9b","system_id":"levelo_inurba_marseille","lat":43.30939,"lon":5.40139,"is_reserved":false,"is_disabled":false,"rental_uris":{"android":"levelo://app?vid=de55d88d-5db4-48dc-be07-98d1dc1a7a9b","ios":"levelo://app?vid=de55d88d-5db4-48dc-be07-98d1dc1a7a9b"},"vehicle_type_id":"4","last_reported":1748891301,"current_range_meters":21600,"station_id":"ce4bgvp2rcd13ifvqct0","pricing_plan_id":"cebpf4jnsgd1na2vs0mg"},{"bike_id":"990be351-24ef-493f-877a-5eea076a42bb","system_id":"levelo_inurba_marseille","lat":43.29258,"lon":5.40906,"is_reserved":false,"is_disabled":false,"rental_uris":{"android":"levelo://app?vid=990be351-24ef-493f-877a-5eea076a42bb","ios":"levelo://app?vid=990be351-24ef-493f-877a-5eea076a42bb"},"vehicle_type_id":"4","last_reported":1748891301,"current_range_meters":21600,"station_id":"ce4bh192rcd13ifvqdc0","pricing_plan_id":"cebpf4jnsgd1na2vs0mg"},{"bike_id":"d0a38fbf-480a-44f9-8c88-81888fc6618a","system_id":"levelo_inurba_marseille","lat":43.29433,"lon":5.38616,"is_reserved":false,"is_disabled":false,"rental_uris":{"android":"levelo://app?vid=d0a38fbf-480a-44f9-8c88-81888fc6618a","ios":"levelo://app?vid=d0a38fbf-480a-44f9-8c88-81888fc6618a"},"vehicle_type_id":"4","last_reported":1748891301,"current_range_meters":21600,"station_id":"ce4bh2h2rcd13ifvqdh0","pricing_plan_id":"cebpf4jnsgd1na2vs0mg"},