{"last_updated":1757942402,"ttl":60,"version":"2.2","data":{"bikes":[{"bike_id":"a24c4696-920b-4645-847f-87e0b46915a6","system_id":"levelo_inurba_marseille","lat":43.32502,"lon":5.42472,"is_reserved":false,"is_disabled":false,"rental_uris":{"android":"levelo://app?vid=a24c4696-920b-4645-847f-87e0b46915a6","ios":"levelo://app?vid=a24c4696-920b-4645-847f-87e0b46915a6"},"vehicle_type_id":"4","last_reported":1757942402,"current_range_meters":2800,"station_id":"","pricing_plan_id":"cebpf4jnsgd1na2vs0mg"},{"bike_id":"7bf7b41f-3824-4fd5-9c0d-d834d2c1df7e","system_id":"levelo_inurba_marseille","lat":43.29274,"lon":5.36841,"is_reserved":false,"is_disabled":false,"rental_uris":{"android":"levelo://app?vid=7bf7b41f-3824-4fd5-9c0d-d834d2c1df7e","ios":"levelo://app?vid=7bf7b41f-3824-4fd5-9c0d-d834d2c1df7e"},"vehicle_type_id":"4","last_reported":1757942402,"current_range_meters":2800,"station_id":"ce4bhbp2rcd13ifvqesg","pricing_plan_id":"cebpf4jnsgd1na2vs0mg"},{"bike_id":"dbb97fbe-8989-4056-95dc-33181795018c","system_id":"levelo_inurba_marseille","lat":43.24169,"lon":5.36388,"is_reserved":false,"is_disabled":false,"rental_uris":{"android":"levelo://app?vid=dbb97fbe-8989-4056-95dc-33181795018c","ios":"levelo://app?vid=dbb97fbe-8989-4056-95dc-33181795018c"},"vehicle_type_id":"4","last_reported":1757942402,"current_range_meters":2800,"station_id":"cpo36qri1sfpv3e86is0","pricing_plan_id":"cebpf4jnsgd1na2vs0mg"},{"bike_id":"22170e4f-b90d-4627-b309-41d0850ea832","system_id":"levelo_inurba_marseille","lat":43.30384,"lon":5.42493,"is_reserved":false,"is_disabled":false,"rental_uris":{"android":"levelo://app?vid=22170e4f-b90d-4627-b309-41d0850ea832","ios":"levelo://app?vid=22170e4f-b90d-4627-b309-41d0850ea832"},"vehicle_type_id":"4","last_reported":1757942402,"current_range_meters":2800,"station_id":"ce4bhoh2rcd13ifvqh6g","pricing_plan_id":"cebpf4jnsgd1na2vs0mg"},{"bike_id":"84be000e-b186-4e60-8aaa-b7a0f42a7175","system_id":"levelo_inurba_marseille","lat":43.337639,"lon":5.374332,"is_reserved":false,"is_disabled":false,"rental_uris":{"android":"levelo://app?vid=84be000e-b186-4e60-8aaa-b7a0f42a7175","ios":"levelo://app?vid=84be000e-b186-4e60-8aaa-b7a0f42a7175"},"vehicle_type_id":"4","last_reported":1757942402,"current_range_meters":3200,"station_id":"","pricing_plan_id":"cebpf4jnsgd1na2vs0mg"},{"bike_id":"17df66ec-edaa-48b1-80fa-d864183fab5e","system_id":"levelo_inurba_marseille","lat":43.30887,"lon":5.39656,"is_reserved":false,"is_disabled":false,"rental_uris":{"android":"levelo://app?vid=17df66ec-edaa-48b1-80fa-d864183fab5e","ios":"levelo://app?vid=17df66ec-edaa-48b1-80fa-d864183fab5e"},"vehicle_type_id":"4","last_reported":1757942402,"current_range_meters":3200,"station_id":"ce4bh012rcd13ifvqcv0","pricing_plan_id":"cebpf4jnsgd1na2vs0mg"},{"bike_id":"8a1c985d-8abf-4ba0-95d4-d11dd91d05c0","system_id":"levelo_inurba_marseille","lat":43.29578,"lon":5.375254,"is_reserved":false,"is_disabled":false,"rental_uris":{"android":"levelo://app?vid=8a1c985d-8abf-4ba0-95d4-d11dd91d05c0","ios":"levelo://app?vid=8a1c985d-8abf-4ba0-95d4-d11dd91d05c0"},"vehicle_type_id":"4","last_reported":1757942402,"current_range_meters":3200,"station_id":"","pricing_plan_id":"cebpf4jnsgd1na2vs0mg"},{"bike_id":"01f98a16-a70b-4e4f-a5a3-29c4bd2319d0","system_id":"levelo_inurba_marseille","lat":43.29533,"lon":5.39399,"is_reserved":false,"is_disabled":false,"rental_uris":{"android":"levelo://app?vid=01f98a16-a70b-4e4f-a5a3-29c4bd2319d0","ios":"levelo://app?vid=01f98a16-a70b-4e4f-a5a3-29c4bd2319d0"},"vehicle_type_id":"4","last_reported":1757942402,"current_range_meters":3200,"station_id":"ce4bh292rcd13ifvqdf0","pricing_plan_id":"cebpf4jnsgd1na2vs0mg"},{"bike_id":"a9f8476b-1b67-46c5-83a5-712814d41ddf","system_id":"levelo_inurba_marseille","lat":43.31111,"lon":5.37776,"is_reserved":false,"is_disabled":false,"rental_uris":{"android":"levelo://app?vid=a9f8476b-1b67-46c5-83a5-712814d41ddf","ios":"levelo://app?vid=a9f8476b-1b67-46c5-83a5-712814d41ddf"},"vehicle_type_id":"4","last_reported":1757942402,"current_range_meters":1200,"station_id":"ce4bgt92rcd13ifvqcg0","pricing_plan_id":"cebpf4jnsgd1na2vs0mg"},{"bike_id":"696b6413-d319-4181-96ae-52408e14baea","system_id":"levelo_inurba_marseille","lat":43.29211,"lon":5.39321,"is_reserved":false,"is_disabled":false,"rental_uris":{"android":"levelo://app?vid=696b6413-d319-4181-96ae-52408e14baea","ios":"levelo://app?vid=696b6413-d319-4181-96ae-52408e14baea"},"vehicle_type_id":"4","last_reported":1757942402,"current_range_meters":3600,"station_id":"ce4bh192rcd13ifvqdd0","pricing_plan_id":"cebpf4jnsgd1na2vs0mg"},{"bike_id":"46abccb2-8643-462f-83c6-11d19b9f7030","system_id":"levelo_inurba_marseille","lat":43.280932,"lon":5.388494,"is_reserved":false,"is_disabled":false,"rental_uris":{"android":"levelo://app?vid=46abccb2-8643-462f-83c6-11d19b9f7030","ios":"levelo://app?vid=46abccb2-8643-462f-83c6-11d19b9f7030"},"vehicle_type_id":"4","last_reported":1757942402,"current_range_meters":3600,"station_id":"","pricing_plan_id":"cebpf4jnsgd1na2vs0mg"},{"bike_id":"ab434f32-5686-4953-9e3d-5bde950e00aa","system_id":"levelo_inurba_marseille","lat":43.25585,"lon":5.38233,"is_reserved":false,"is_disabled":false,"rental_uris":{"android":"levelo://app?vid=ab434f32-5686-4953-9e3d-5bde950e00aa","ios":"levelo://app?vid=ab434f32-5686-4953-9e3d-5bde950e00aa"},"vehicle_type_id":"4","last_reported":1757942402,"current_range_meters":5600,"station_id":"ce4bhih2rcd13ifvqfs0","pricing_plan_id":"cebpf4jnsgd1na2vs0mg"},{"bike_id":"43d99d9b-ad9d-4150-9a7f-0d7b91682b13","system_id":"levelo_inurba_marseille","lat":43.28356,"lon":5.38636,"is_reserved":false,"is_disabled":false,"rental_uris":{"android":"levelo://app?vid=43d99d9b-ad9d-4150-9a7f-0d7b91682b13","ios":"levelo://app?vid=43d99d9b-ad9d-4150-9a7f-0d7b91682b13"},"vehicle_type_id":"4","last_reported":1757942402,"current_range_meters":4000,"station_id":"ce4bh492rcd13ifvqdvg","pricing_plan_id":"cebpf4jnsgd1na2vs0mg"},{"bike_id":"4891d751-b66c-4a3d-89d5-78926b795844","system_id":"levelo_inurba_marseille","lat":43.337444,"lon":5.374475,"is_reserved":false,"is_disabled":false,"rental_uris":{"android":"levelo://app?vid=4891d751-b66c-4a3d-89d5-78926b795844","ios":"levelo://app?vid=4891d751-b66c-4a3d-89d5-78926b795844"},"vehicle_type_id":"4","last_reported":1757942402,"current_range_meters":4000,"station_id":"","pricing_plan_id":"cebpf4jnsgd1na2vs0mg"},{"bike_id":"9a45254c-c77a-469d-8fa3-a3fa05a580ba","system_id":"levelo_inurba_marseille","lat":43.27166,"lon":5.38672,"is_reserved":false,"is_disabled":false,"rental_uris":{"android":"levelo://app?vid=9a45254c-c77a-469d-8fa3-a3fa05a580ba","ios":"levelo://app?vid=9a45254c-c77a-469d-8fa3-a3fa05a580ba"},"vehicle_type_id":"4","last_reported":1757942402,"current_range_meters":4000,"station_id":"","pricing_plan_id":"cebpf4jnsgd1na2vs0mg"},{"bike_id":"e8eb0399-c2a2-4d37-b18c-eb97e6008e7c","system_id":"levelo_inurba_marseille","lat":43.317603,"lon":5.390166,"is_reserved":false,"is_disabled":false,"rental_uris":{"android":"levelo://app?vid=e8eb0399-c2a2-4d37-b18c-eb97e6008e7c","ios":"levelo://app?vid=e8eb0399-c2a2-4d37-b18c-eb97e6008e7c"},"vehicle_type_id":"4","last_reported":1757942402,"current_range_meters":4000,"station_id":"ce4bhqp2rcd13ifvqhng","pricing_plan_id":"cebpf4jnsgd1na2vs0mg"},{"bike_id":"7c3c994a-dc1e-44a3-bdcc-191ea39a17ae","system_id":"levelo_inurba_marseille","lat":43.21211,"lon":5.35055,"is_reserved":false,"is_disabled":false,"rental_uris":{"android":"levelo://app?vid=7c3c994a-dc1e-44a3-bdcc-191ea39a17ae","ios":"levelo://app?vid=7c3c994a-dc1e-44a3-bdcc-191ea39a17ae"},"vehicle_type_id":"4","last_reported":1757942402,"current_range_meters":4000,"station_id":"st_cvj6sg6p6f1abm77japg","pricing_plan_id":"cebpf4jnsgd1na2vs0mg"},{"bike_id":"d7744eb3-0d15-4b11-a4a5-4d9a7af59482","system_id":"levelo_inurba_marseille","lat":43.28713,"lon":5.36086,"is_reserved":false,"is_disabled":false,"rental_uris":{"android":"levelo://app?vid=d7744eb3-0d15-4b11-a4a5-4d9a7af59482","ios":"levelo://app?vid=d7744eb3-0d15-4b11-a4a5-4d9a7af59482"},"vehicle_type_id":"4","last_reported":1757942402,"current_range_meters":4400,"station_id":"cki0cbj6b192h4jlfktg","pricing_plan_id":"cebpf4jnsgd1na2vs0mg"},{"bike_id":"2ff43f59-58ce-41b3-a2b1-318781c29a36","system_id":"levelo_inurba_marseille","lat":43.31317,"lon":5.36751,"is_reserved":false,"is_disabled":false,"rental_uris":{"android":"levelo://app?vid=2ff43f59-58ce-41b3-a2b1-318781c29a36","ios":"levelo://app?vid=2ff43f59-58ce-41b3-a2b1-318781c29a36"},"vehicle_type_id":"4","last_reported":1757942402,"current_range_meters":4400,"station_id":"ce4bgr92rcd13ifvqc6g","pricing_plan_id":"cebpf4jnsgd1na2vs0mg"},{"bike_id":"ec170221-4099-4c4e-bcd3-cb3706974249","system_id":"levelo_inurba_marseille","lat":43.22919,"lon":5.35383,"is_reserved":false,"is_disabled":false,"rental_uris":{"android":"levelo://app?vid=ec170221-4099-4c4e-bcd3-cb3706974249","ios":"levelo://app?vid=ec170221-4099-4c4e-bcd3-cb3706974249"},"vehicle_type_id":"4","last_reported":1757942402,"current_range_meters":4400,"station_id":"cpo3532slgdg3j2ikp40","pricing_plan_id":"cebpf4jnsgd1na2vs0mg"},{"bike_id":"6cb2cfd2-08ea-4e54-8b88-6873d830d99d","system_id":"levelo_inurba_marseille","lat":43.30565,"lon":5.36554,"is_reserved":false,"is_disabled":false,"rental_uris":{"android":"levelo://app?vid=6cb2cfd2-08ea-4e54-8b88-6873d830d99d","ios":"levelo://app?vid=6cb2cfd2-08ea-4e54-8b88-6873d830d99d"},"vehicle_type_id":"4","last_reported":1757942402,"current_range_meters":4400,"station_id":"ce4bgs12rcd13ifvqcag","pricing_plan_id":"cebpf4jnsgd1na2vs0mg"},{"bike_id":"1e8bc690-96a9-4d5f-8eb9-5267a8eb5419","system_id":"levelo_inurba_marseille","lat":43.313324,"lon":5.396963,"is_reserved":false,"is_disabled":false,"rental_uris":{"android":"levelo://app?vid=1e8bc690-96a9-4d5f-8eb9-5267a8eb5419","ios":"levelo://app?vid=1e8bc690-96a9-4d5f-8eb9-5267a8eb5419"},"vehicle_type_id":"4","last_reported":1757942402,"current_range_meters":4800,"station_id":"ce4bgvp2rcd13ifvqcu0","pricing_plan_id":"cebpf4jnsgd1na2vs0mg"},{"bike_id":"d765e876-dc94-417e-ad8c-0ac49bf5261a","system_id":"levelo_inurba_marseille","lat":43.3359,"lon":5.36129,"is_reserved":false,"is_disabled":false,"rental_uris":{"android":"levelo://app?vid=d765e876-dc94-417e-ad8c-0ac49bf5261a","ios":"levelo://app?vid=d765e876-dc94-417e-ad8c-0ac49bf5261a"},"vehicle_type_id":"4","last_reported":1757942402,"current_range_meters":4800,"station_id":"","pricing_plan_id":"cebpf4jnsgd1na2vs0mg"},{"bike_id":"55d59e02-f5a5-4e1a-9360-556e842fa2a4","system_id":"levelo_inurba_marseille","lat":43.33764,"lon":5.37496,"is_reserved":false,"is_disabled":false,"rental_uris":{"android":"levelo://app?vid=55d59e02-f5a5-4e1a-9360-556e842fa2a4","ios":"levelo://app?vid=55d59e02-f5a5-4e1a-9360-556e842fa2a4"},"vehicle_type_id":"4","last_reported":1757942402,"current_range_meters":4800,"station_id":"","pricing_plan_id":"cebpf4jnsgd1na2vs0mg"},{"bike_id":"484bffae-1a3b-4bc3-9591-800118c9dc4a","system_id":"levelo_inurba_marseille","lat":43.30133,"lon":5.39867,"is_reserved":false,"is_disabled":false,"rental_uris":{"android":"levelo://app?vid=484bffae-1a3b-4bc3-9591-800118c9dc4a","ios":"levelo://app?vid=484bffae-1a3b-4bc3-9591-800118c9dc4a"},"vehicle_type_id":"4","last_reported":1757942402,"current_range_meters":4800,"station_id":"","pricing_plan_id":"cebpf4jnsgd1na2vs0mg"},{"bike_id":"d9a1471e-9b20-4975-999a-7e10ecd9588b","system_id":"levelo_inurba_marseille","lat":43.24169,"lon":5.36397,"is_reserved":false,"is_disabled":false,"rental_uris":{"android":"levelo://app?vid=d9a1471e-9b20-4975-999a-7e10ecd9588b","ios":"levelo://app?vid=d9a1471e-9b20-4975-999a-7e10ecd9588b"},"vehicle_type_id":"4","last_reported":1757942402,"current_range_meters":4800,"station_id":"cpo36qri1sfpv3e86is0","pricing_plan_id":"cebpf4jnsgd1na2vs0mg"},{"bike_id":"f314a77a-15e2-4af6-b5c4-c5ddee67c264","system_id":"levelo_inurba_marseille","lat":43.248069,"lon":5.374597,"is_reserved":false,"is_disabled":false,"rental_uris":{"android":"levelo://app?vid=f314a77a-15e2-4af6-b5c4-c5ddee67c264","ios":"levelo://app?vid=f314a77a-15e2-4af6-b5c4-c5ddee67c264"},"vehicle_type_id":"4","last_reported":1757942402,"current_range_meters":4800,"station_id":"ce4bhgh2rcd13ifvqfb0","pricing_plan_id":"cebpf4jnsgd1na2vs0mg"},{"bike_id":"d5c98035-fc72-4062-a3ec-13203f68e8ed","system_id":"levelo_inurba_marseille","lat":43.28858,"lon":5.42512,"is_reserved":false,"is_disabled":false,"rental_uris":{"android":"levelo://app?vid=d5c98035-fc72-4062-a3ec-13203f68e8ed","ios":"levelo://app?vid=d5c98035-fc72-4062-a3ec-13203f68e8ed"},"vehicle_type_id":"4","last_reported":1757942402,"current_range_meters":4800,"station_id":"","pricing_plan_id":"cebpf4jnsgd1na2vs0mg"},{"bike_id":"02dbb44c-70e3-4a7a-b86e-6159cc35ba47","system_id":"levelo_inurba_marseille","lat":43.29587,"lon":5.38689,"is_reserved":false,"is_disabled":false,"rental_uris":{"android":"levelo://app?vid=02dbb44c-70e3-4a7a-b86e-6159cc35ba47","ios":"levelo://app?vid=02dbb44c-70e3-4a7a-b86e-6159cc35ba47"},"vehicle_type_id":"4","last_reported":1757942402,"current_range_meters":4800,"station_id":"ce4bgih2rcd13ifvqba0","pricing_plan_id":"cebpf4jnsgd1na2vs0mg"},{"bike_id":"00f18c92-dc8f-44a4-b63b-5cf88d84d2da","system_id":"levelo_inurba_marseille","lat":43.29025,"lon":5.3813,"is_reserved":false,"is_disabled":false,"rental_uris":{"android":"levelo://app?vid=00f18c92-dc8f-44a4-b63b-5cf88d84d2da","ios":"levelo://app?vid=00f18c92-dc8f-44a4-b63b-5cf88d84d2da"},"vehicle_type_id":"4","last_reported":1757942402,"current_range_meters":4800,"station_id":"ce4bh4p2rcd13ifvqe1g","pricing_plan_id":"cebpf4jnsgd1na2vs0mg"},{"bike_id":"f62be469-1f2e-4e16-825b-77a636b3d543","system_id":"levelo_inurba_marseille","lat":43.33764,"lon":5.37448,"is_reserved":false,"is_disabled":false,"rental_uris":{"android":"levelo://app?vid=f62be469-1f2e-4e16-825b-77a636b3d543","ios":"levelo://app?vid=f62be469-1f2e-4e16-825b-77a636b3d543"},"vehicle_type_id":"4","last_reported":1757942402,"current_range_meters":4800,"station_id":"","pricing_plan_id":"cebpf4jnsgd1na2vs0mg"},{"bike_id":"64fd3338-9664-4eab-9d69-526a809f8c3c","system_id":"levelo_inurba_marseille","lat":43.33801,"lon":5.36684,"is_reserved":false,"is_disabled":false,"rental_uris":{"android":"levelo://app?vid=64fd3338-9664-4eab-9d69-526a809f8c3c","ios":"levelo://app?vid=64fd3338-9664-4eab-9d69-526a809f8c3c"},"vehicle_type_id":"4","last_reported":1757942402,"current_range_meters":5600,"station_id":"","pricing_plan_id":"cebpf4jnsgd1na2vs0mg"},{"bike_id":"046ba709-b940-4fa3-9690-1d81db536e4b","system_id":"levelo_inurba_marseille","lat":43.225635,"lon":5.416238,"is_reserved":false,"is_disabled":false,"rental_uris":{"android":"levelo://app?vid=046ba709-b940-4fa3-9690-1d81db536e4b","ios":"levelo://app?vid=046ba709-b940-4fa3-9690-1d81db536e4b"},"vehicle_type_id":"4","last_reported":1757942402,"current_range_meters":6000,"station_id":"st_d2o4gvlbi1j2169b742g","pricing_plan_id":"cebpf4jnsgd1na2vs0mg"},{"bike_id":"ab852d69-c9c7-4b8b-8557-2d9cd55cc38b","system_id":"levelo_inurba_marseille","lat":43.30057,"lon":5.37814,"is_reserved":false,"is_disabled":false,"rental_uris":{"android":"levelo://app?vid=ab852d69-c9c7-4b8b-8557-2d9cd55cc38b","ios":"levelo://app?vid=ab852d69-c9c7-4b8b-8557-2d9cd55cc38b"},"vehicle_type_id":"4","last_reported":1757942402,"current_range_meters":6000,"station_id":"","pricing_plan_id":"cebpf4jnsgd1na2vs0mg"},{"bike_id":"d3fc4105-ef49-4e80-87ec-1c7bc355d1b6","system_id":"levelo_inurba_marseille","lat":43.25588,"lon":5.38234,"is_reserved":false,"is_disabled":false,"rental_uris":{"android":"levelo://app?vid=d3fc4105-ef49-4e80-87ec-1c7bc355d1b6","ios":"levelo://app?vid=d3fc4105-ef49-4e80-87ec-1c7bc355d1b6"},"vehicle_type_id":"4","last_reported":1757942402,"current_range_meters":5600,"station_id":"ce4bhih2rcd13ifvqfs0","pricing_plan_id":"cebpf4jnsgd1na2vs0mg"},{"bike_id":"595fcf91-2e66-4c2b-8a3c-21ddb133f196","system_id":"levelo_inurba_marseille","lat":43.21759,"lon":5.34598,"is_reserved":false,"is_disabled":true,"rental_uris":{"android":"levelo://app?vid=595fcf91-2e66-4c2b-8a3c-21ddb133f196","ios":"levelo://app?vid=595fcf91-2e66-4c2b-8a3c-21ddb133f196"},"vehicle_type_id":"4","last_reported":1757942402,"current_range_meters":6000,"station_id":"st_cvj6r9ubvosntc0bgbag","pricing_plan_id":"cebpf4jnsgd1na2vs0mg"},{"bike_id":"4cb0db80-2ec8-4c60-90f4-1f2f7c32e83e","system_id":"levelo_inurba_marseille","lat":43.23965,"lon":5.36638,"is_reserved":false,"is_disabled":false,"rental_uris":{"android":"levelo://app?vid=4cb0db80-2ec8-4c60-90f4-1f2f7c32e83e","ios":"levelo://app?vid=4cb0db80-2ec8-4c60-90f4-1f2f7c32e83e"},"vehicle_type_id":"4","last_reported":1757942402,"current_range_meters":6400,"station_id":"ce4bhi12rcd13ifvqfp0","pricing_plan_id":"cebpf4jnsgd1na2vs0mg"},{"bike_id":"77d7686f-88d2-47c7-b3dc-d829cc7c2a19","system_id":"levelo_inurba_marseille","lat":43.30257,"lon":5.40081,"is_reserved":false,"is_disabled":false,"rental_uris":{"android":"levelo://app?vid=77d7686f-88d2-47c7-b3dc-d829cc7c2a19","ios":"levelo://app?vid=77d7686f-88d2-47c7-b3dc-d829cc7c2a19"},"vehicle_type_id":"4","last_reported":1757942402,"current_range_meters":6400,"station_id":"ce4bgvh2rcd13ifvqcs0","pricing_plan_id":"cebpf4jnsgd1na2vs0mg"},{"bike_id":"c5cba6d7-e282-4417-a818-5fc0802dcb08","system_id":"levelo_inurba_marseille","lat":43.33761,"lon":5.3745,"is_reserved":false,"is_disabled":false,"rental_uris":{"android":"levelo://app?vid=c5cba6d7-e282-4417-a818-5fc0802dcb08","ios":"levelo://app?vid=c5cba6d7-e282-4417-a818-5fc0802dcb08"},"vehicle_type_id":"4","last_reported":1757942402,"current_range_meters":6400,"station_id":"","pricing_plan_id":"cebpf4jnsgd1na2vs0mg"},{"bike_id":"a97c54bb-a557-422e-a557-c24d3d71715c","system_id":"levelo_inurba_marseille","lat":43.2408,"lon":5.37762,"is_reserved":false,"is_disabled":false,"rental_uris":{"android":"levelo://app?vid=a97c54bb-a557-422e-a557-c24d3d71715c","ios":"levelo://app?vid=a97c54bb-a557-422e-a557-c24d3d71715c"},"vehicle_type_id":"4","last_reported":1757942402,"current_range_meters":6400,"station_id":"ce4bhnp2rcd13ifvqgvg","pricing_plan_id":"cebpf4jnsgd1na2vs0mg"},{"bike_id":"d9c11a94-d122-4240-b95b-24fdee8810ac","system_id":"levelo_inurba_marseille","lat":43.28275,"lon":5.39904,"is_reserved":false,"is_disabled":false,"rental_uris":{"android":"levelo://app?vid=d9c11a94-d122-4240-b95b-24fdee8810ac","ios":"levelo://app?vid=d9c11a94-d122-4240-b95b-24fdee8810ac"},"vehicle_type_id":"4","last_reported":1757942402,"current_range_meters":6800,"station_id":"","pricing_plan_id":"cebpf4jnsgd1na2vs0mg"},{"bike_id":"bfd918c2-ba66-42ea-b794-0f327c9cf544","system_id":"levelo_inurba_marseille","lat":43.290371,"lon":5.375681,"is_reserved":false,"is_disabled":false,"rental_uris":{"android":"levelo://app?vid=bfd918c2-ba66-42ea-b794-0f327c9cf544","ios":"levelo://app?vid=bfd918c2-ba66-42ea-b794-0f327c9cf544"},"vehicle_type_id":"4","last_reported":1757942402,"current_range_meters":6400,"station_id":"ce4bh692rcd13ifvqe90","pricing_plan_id":"cebpf4jnsgd1na2vs0mg"},{"bike_id":"b08fa04f-bac5-4b8a-be64-d8d1550bb09f","system_id":"levelo_inurba_marseille","lat":43.27945,"lon":5.387,"is_reserved":false,"is_disabled":false,"rental_uris":{"android":"levelo://app?vid=b08fa04f-bac5-4b8a-be64-d8d1550bb09f","ios":"levelo://app?vid=b08fa04f-bac5-4b8a-be64-d8d1550bb09f"},"vehicle_type_id":"4","last_reported":1757942402,"current_range_meters":6800,"station_id":"ce4bhg12rcd13ifvqf80","pricing_plan_id":"cebpf4jnsgd1na2vs0mg"},{"bike_id":"5c1e55d9-decd-426f-89d8-b98a558f3809","system_id":"levelo_inurba_marseille","lat":43.31707,"lon":5.40475,"is_reserved":false,"is_disabled":true,"rental_uris":{"android":"levelo://app?vid=5c1e55d9-decd-426f-89d8-b98a558f3809","ios":"levelo://app?vid=5c1e55d9-decd-426f-89d8-b98a558f3809"},"vehicle_type_id":"4","last_reported":1757942402,"current_range_meters":7200,"station_id":"","pricing_plan_id":"cebpf4jnsgd1na2vs0mg"},{"bike_id":"94913471-d409-4238-8c97-86babf05a69b","system_id":"levelo_inurba_marseille","lat":43.29585,"lon":5.36744,"is_reserved":false,"is_disabled":false,"rental_uris":{"android":"levelo://app?vid=94913471-d409-4238-8c97-86babf05a69b","ios":"levelo://app?vid=94913471-d409-4238-8c97-86babf05a69b"},"vehicle_type_id":"4","last_reported":1757942402,"current_range_meters":7200,"station_id":"ce4bgph2rcd13ifvqc2g","pricing_plan_id":"cebpf4jnsgd1na2vs0mg"},{"bike_id":"55a0b79f-a63a-4017-b3f4-73235bdc91d9","system_id":"levelo_inurba_marseille","lat":43.28038,"lon":5.36945,"is_reserved":false,"is_disabled":true,"rental_uris":{"android":"levelo://app?vid=55a0b79f-a63a-4017-b3f4-73235bdc91d9","ios":"levelo://app?vid=55a0b79f-a63a-4017-b3f4-73235bdc91d9"},"vehicle_type_id":"4","last_reported":1757942402,"current_range_meters":7200,"station_id":"ce4bha12rcd13ifvqef0","pricing_plan_id":"cebpf4jnsgd1na2vs0mg"},{"bike_id":"041673b2-1e99-4d1c-9a1b-5cd2a86c452c","system_id":"levelo_inurba_marseille","lat":43.293393,"lon":5.401661,"is_reserved":false,"is_disabled":false,"rental_uris":{"android":"levelo://app?vid=041673b2-1e99-4d1c-9a1b-5cd2a86c452c","ios":"levelo://app?vid=041673b2-1e99-4d1c-9a1b-5cd2a86c452c"},"vehicle_type_id":"4","last_reported":1757942402,"current_range_meters":7200,"station_id":"","pricing_plan_id":"cebpf4jnsgd1na2vs0mg"},{"bike_id":"30e85da9-4a4e-420a-bc64-cfe1eeea89eb","system_id":"levelo_inurba_marseille","lat":43.2835,"lon":5.37633,"is_reserved":false,"is_disabled":false,"rental_uris":{"android":"levelo://app?vid=30e85da9-4a4e-420a-bc64-cfe1eeea89eb","ios":"levelo://app?vid=30e85da9-4a4e-420a-bc64-cfe1eeea89eb"},"vehicle_type_id":"4","last_reported":1757942402,"current_range_meters":7200,"station_id":"","pricing_plan_id":"cebpf4jnsgd1na2vs0mg"},{"bike_id":"cf15dd72-628a-41fb-bd20-648d07c1789b","system_id":"levelo_inurba_marseille","lat":43.29032,"lon":5.35602,"is_reserved":false,"is_disabled":false,"rental_uris":{"android":"levelo://app?vid=cf15dd72-628a-41fb-bd20-648d07c1789b","ios":"levelo://app?vid=cf15dd72-628a-41fb-bd20-648d07c1789b"},"vehicle_type_id":"4","last_reported":1757942402,"current_range_meters":8000,"station_id":"ce4bhb92rcd13ifvqen0","pricing_plan_id":"cebpf4jnsgd1na2vs0mg"},{"bike_id":"7e1f450a-8fab-4fae-a265-be69667392ab","system_id":"levelo_inurba_marseille","lat":43.297166,"lon":5.37655,"is_reserved":false,"is_disabled":false,"rental_uris":{"android":"levelo://app?vid=7e1f450a-8fab-4fae-a265-be69667392ab","ios":"levelo://app?vid=7e1f450a-8fab-4fae-a265-be69667392ab"},"vehicle_type_id":"4","last_reported":1757942402,"current_range_meters":8000,"station_id":"","pricing_plan_id":"cebpf4jnsgd1na2vs0mg"},{"bike_id":"56fa3e33-56e5-4cd4-a988-95981d6fc344","system_id":"levelo_inurba_marseille","lat":43.21698,"lon":5.34633,"is_reserved":false,"is_disabled":false,"rental_uris":{"android":"levelo://app?vid=56fa3e33-56e5-4cd4-a988-95981d6fc344","ios":"levelo://app?vid=56fa3e33-56e5-4cd4-a988-95981d6fc344"},"vehicle_type_id":"4","last_reported":1757942402,"current_range_meters":8000,"station_id":"","pricing_plan_id":"cebpf4jnsgd1na2vs0mg"},{"bike_id":"4f9bd625-ea72-423e-9234-f59f397dfa3c","system_id":"levelo_inurba_marseille","lat":43.21196,"lon":5.35072,"is_reserved":false,"is_disabled":false,"rental_uris":{"android":"levelo://app?vid=4f9bd625-ea72-423e-9234-f59f397dfa3c","ios":"levelo://app?vid=4f9bd625-ea72-423e-9234-f59f397dfa3c"},"vehicle_type_id":"4","last_reported":1757942402,"current_range_meters":8000,"station_id":"st_cvj6sg6p6f1abm77japg","pricing_plan_id":"cebpf4jnsgd1na2vs0mg"},{"bike_id":"80fcd77e-5a11-4a73-aab4-eaf69d7fc147","system_id":"levelo_inurba_marseille","lat":43.30881,"lon":5.3718,"is_reserved":false,"is_disabled":false,"rental_uris":{"android":"levelo://app?vid=80fcd77e-5a11-4a73-aab4-eaf69d7fc147","ios":"levelo://app?vid=80fcd77e-5a11-4a73-aab4-eaf69d7fc147"},"vehicle_type_id":"4","last_reported":1757942402,"current_range_meters":8000,"station_id":"ce4bguh2rcd13ifvqckg","pricing_plan_id":"cebpf4jnsgd1na2vs0mg"},{"bike_id":"c37933c6-f301-4e72-ae28-b86236887c46","system_id":"levelo_inurba_marseille","lat":43.21743,"lon":5.3461,"is_reserved":false,"is_disabled":false,"rental_uris":{"android":"levelo://app?vid=c37933c6-f301-4e72-ae28-b86236887c46","ios":"levelo://app?vid=c37933c6-f301-4e72-ae28-b86236887c46"},"vehicle_type_id":"4","last_reported":1757942402,"current_range_meters":8000,"station_id":"","pricing_plan_id":"cebpf4jnsgd1na2vs0mg"},{"bike_id":"90b99ccf-2b3c-4d75-9e45-7dd3a550aac1","system_id":"levelo_inurba_marseille","lat":43.23569,"lon":5.39891,"is_reserved":false,"is_disabled":true,"rental_uris":{"android":"levelo://app?vid=90b99ccf-2b3c-4d75-9e45-7dd3a550aac1","ios":"levelo://app?vid=90b99ccf-2b3c-4d75-9e45-7dd3a550aac1"},"vehicle_type_id":"4","last_reported":1757942402,"current_range_meters":8000,"station_id":"","pricing_plan_id":"cebpf4jnsgd1na2vs0mg"},{"bike_id":"82c5a1d2-073a-427d-91d2-866454c1195a","system_id":"levelo_inurba_marseille","lat":43.28468,"lon":5.3842,"is_reserved":false,"is_disabled":false,"rental_uris":{"android":"levelo://app?vid=82c5a1d2-073a-427d-91d2-866454c1195a","ios":"levelo://app?vid=82c5a1d2-073a-427d-91d2-866454c1195a"},"vehicle_type_id":"4","last_reported":1757942402,"current_range_meters":8000,"station_id":"ce4bh512rcd13ifvqe3g","pricing_plan_id":"cebpf4jnsgd1na2vs0mg"},{"bike_id":"92328f20-9c61-4621-aefd-c280af7d31a0","system_id":"levelo_inurba_marseille","lat":43.28861,"lon":5.42524,"is_reserved":false,"is_disabled":false,"rental_uris":{"android":"levelo://app?vid=92328f20-9c61-4621-aefd-c280af7d31a0","ios":"levelo://app?vid=92328f20-9c61-4621-aefd-c280af7d31a0"},"vehicle_type_id":"4","last_reported":1757942402,"current_range_meters":8000,"station_id":"","pricing_plan_id":"cebpf4jnsgd1na2vs0mg"},{"bike_id":"18ad662e-80f9-48f5-9a47-75907aa2e7ea","system_id":"levelo_inurba_marseille","lat":43.30058,"lon":5.38331,"is_reserved":false,"is_disabled":false,"rental_uris":{"android":"levelo://app?vid=18ad662e-80f9-48f5-9a47-75907aa2e7ea","ios":"levelo://app?vid=18ad662e-80f9-48f5-9a47-75907aa2e7ea"},"vehicle_type_id":"4","last_reported":1757942402,"current_range_meters":8400,"station_id":"","pricing_plan_id":"cebpf4jnsgd1na2vs0mg"},{"bike_id":"63dc62fd-5ee0-4e25-81ba-e1b746a9ac24","system_id":"levelo_inurba_marseille","lat":43.28101,"lon":5.37852,"is_reserved":false,"is_disabled":false,"rental_uris":{"android":"levelo://app?vid=63dc62fd-5ee0-4e25-81ba-e1b746a9ac24","ios":"levelo://app?vid=63dc62fd-5ee0-4e25-81ba-e1b746a9ac24"},"vehicle_type_id":"4","last_reported":1757942402,"current_range_meters":8400,"station_id":"ce4bha12rcd13ifvqee0","pricing_plan_id":"cebpf4jnsgd1na2vs0mg"},{"bike_id":"a9b5c687-1119-4dae-9e85-4e36ddd552c1","system_id":"levelo_inurba_marseille","lat":43.21749,"lon":5.34601,"is_reserved":false,"is_disabled":false,"rental_uris":{"android":"levelo://app?vid=a9b5c687-1119-4dae-9e85-4e36ddd552c1","ios":"levelo://app?vid=a9b5c687-1119-4dae-9e85-4e36ddd552c1"},"vehicle_type_id":"4","last_reported":1757942402,"current_range_meters":8400,"station_id":"st_cvj6r9ubvosntc0bgbag","pricing_plan_id":"cebpf4jnsgd1na2vs0mg"},{"bike_id":"1bae9424-2a0d-4c2d-a0e5-65d9bf088c8c","system_id":"levelo_inurba_marseille","lat":43.21751,"lon":5.34606,"is_reserved":false,"is_disabled":false,"rental_uris":{"android":"levelo://app?vid=1bae9424-2a0d-4c2d-a0e5-65d9bf088c8c","ios":"levelo://app?vid=1bae9424-2a0d-4c2d-a0e5-65d9bf088c8c"},"vehicle_type_id":"4","last_reported":1757942402,"current_range_meters":8400,"station_id":"st_cvj6r9ubvosntc0bgbag","pricing_plan_id":"cebpf4jnsgd1na2vs0mg"},{"bike_id":"bfb86ab7-e75e-4c1e-ad0b-7ed37235ce24","system_id":"levelo_inurba_marseille","lat":43.310809,"lon":5.424326,"is_reserved":false,"is_disabled":false,"rental_uris":{"android":"levelo://app?vid=bfb86ab7-e75e-4c1e-ad0b-7ed37235ce24","ios":"levelo://app?vid=bfb86ab7-e75e-4c1e-ad0b-7ed37235ce24"},"vehicle_type_id":"4","last_reported":1757942402,"current_range_meters":8000,"station_id":"ce4bhp92rcd13ifvqhag","pricing_plan_id":"cebpf4jnsgd1na2vs0mg"},{"bike_id":"dc23065f-2816-4ec7-85cd-d2646599500f","system_id":"levelo_inurba_marseille","lat":43.29187,"lon":5.39307,"is_reserved":false,"is_disabled":false,"rental_uris":{"android":"levelo://app?vid=dc23065f-2816-4ec7-85cd-d2646599500f","ios":"levelo://app?vid=dc23065f-2816-4ec7-85cd-d2646599500f"},"vehicle_type_id":"4","last_reported":1757942402,"current_range_meters":8000,"station_id":"ce4bh192rcd13ifvqdd0","pricing_plan_id":"cebpf4jnsgd1na2vs0mg"},{"bike_id":"a3b46d54-afe2-4978-a510-ce7a4806d34c","system_id":"levelo_inurba_marseille","lat":43.29846,"lon":5.36278,"is_reserved":false,"is_disabled":false,"rental_uris":{"android":"levelo://app?vid=a3b46d54-afe2-4978-a510-ce7a4806d34c","ios":"levelo://app?vid=a3b46d54-afe2-4978-a510-ce7a4806d34c"},"vehicle_type_id":"4","last_reported":1757942402,"current_range_meters":8400,"station_id":"ce4bgpp2rcd13ifvqc3g","pricing_plan_id":"cebpf4jnsgd1na2vs0mg"},{"bike_id":"467826ca-423e-456f-9757-8f02e5b26370","system_id":"levelo_inurba_marseille","lat":43.24635,"lon":5.43148,"is_reserved":false,"is_disabled":false,"rental_uris":{"android":"levelo://app?vid=467826ca-423e-456f-9757-8f02e5b26370","ios":"levelo://app?vid=467826ca-423e-456f-9757-8f02e5b26370"},"vehicle_type_id":"4","last_reported":1757942402,"current_range_meters":8800,"station_id":"st_d2m6c4gdas8pm72e190g","pricing_plan_id":"cebpf4jnsgd1na2vs0mg"},{"bike_id":"83147e21-1248-46bb-9a1b-40fe7620ffc3","system_id":"levelo_inurba_marseille","lat":43.30067,"lon":5.37803,"is_reserved":false,"is_disabled":false,"rental_uris":{"android":"levelo://app?vid=83147e21-1248-46bb-9a1b-40fe7620ffc3","ios":"levelo://app?vid=83147e21-1248-46bb-9a1b-40fe7620ffc3"},"vehicle_type_id":"4","last_reported":1757942402,"current_range_meters":9200,"station_id":"","pricing_plan_id":"cebpf4jnsgd1na2vs0mg"},{"bike_id":"5a12eed5-7687-4ffb-9311-d8c98d6562c7","system_id":"levelo_inurba_marseille","lat":43.286735,"lon":5.386801,"is_reserved":false,"is_disabled":false,"rental_uris":{"android":"levelo://app?vid=5a12eed5-7687-4ffb-9311-d8c98d6562c7","ios":"levelo://app?vid=5a12eed5-7687-4ffb-9311-d8c98d6562c7"},"vehicle_type_id":"4","last_reported":1757942402,"current_range_meters":9200,"station_id":"","pricing_plan_id":"cebpf4jnsgd1na2vs0mg"},{"bike_id":"fbd0328c-4ce4-4080-b126-d2d47d815fa6","system_id":"levelo_inurba_marseille","lat":43.21747,"lon":5.34595,"is_reserved":false,"is_disabled":false,"rental_uris":{"android":"levelo://app?vid=fbd0328c-4ce4-4080-b126-d2d47d815fa6","ios":"levelo://app?vid=fbd0328c-4ce4-4080-b126-d2d47d815fa6"},"vehicle_type_id":"4","last_reported":1757942402,"current_range_meters":9200,"station_id":"st_cvj6r9ubvosntc0bgbag","pricing_plan_id":"cebpf4jnsgd1na2vs0mg"},{"bike_id":"dd32f779-e928-424d-999f-b730cf475fa7","system_id":"levelo_inurba_marseille","lat":43.21755,"lon":5.34597,"is_reserved":false,"is_disabled":false,"rental_uris":{"android":"levelo://app?vid=dd32f779-e928-424d-999f-b730cf475fa7","ios":"levelo://app?vid=dd32f779-e928-424d-999f-b730cf475fa7"},"vehicle_type_id":"4","last_reported":1757942402,"current_range_meters":9600,"station_id":"st_cvj6r9ubvosntc0bgbag","pricing_plan_id":"cebpf4jnsgd1na2vs0mg"},{"bike_id":"2d600a9c-7d9f-4648-bc6f-c325819b14e0","system_id":"levelo_inurba_marseille","lat":43.31695,"lon":5.40458,"is_reserved":false,"is_disabled":false,"rental_uris":{"android":"levelo://app?vid=2d600a9c-7d9f-4648-bc6f-c325819b14e0","ios":"levelo://app?vid=2d600a9c-7d9f-4648-bc6f-c325819b14e0"},"vehicle_type_id":"4","last_reported":1757942402,"current_range_meters":9200,"station_id":"ce4bh012rcd13ifvqd00","pricing_plan_id":"cebpf4jnsgd1na2vs0mg"},{"bike_id":"8cf69331-da50-4d69-8267-0931da6ff448","system_id":"levelo_inurba_marseille","lat":43.22934,"lon":5.353763,"is_reserved":false,"is_disabled":false,"rental_uris":{"android":"levelo://app?vid=8cf69331-da50-4d69-8267-0931da6ff448","ios":"levelo://app?vid=8cf69331-da50-4d69-8267-0931da6ff448"},"vehicle_type_id":"4","last_reported":1757942402,"current_range_meters":9600,"station_id":"cpo3532slgdg3j2ikp40","pricing_plan_id":"cebpf4jnsgd1na2vs0mg"},{"bike_id":"85db8ab9-6b24-4c23-8762-109e948df9cd","system_id":"levelo_inurba_marseille","lat":43.30595,"lon":5.40473,"is_reserved":false,"is_disabled":false,"rental_uris":{"android":"levelo://app?vid=85db8ab9-6b24-4c23-8762-109e948df9cd","ios":"levelo://app?vid=85db8ab9-6b24-4c23-8762-109e948df9cd"},"vehicle_type_id":"4","last_reported":1757942402,"current_range_meters":9600,"station_id":"","pricing_plan_id":"cebpf4jnsgd1na2vs0mg"},{"bike_id":"2b266c15-b01a-4875-8676-163068b5a11c","system_id":"levelo_inurba_marseille","lat":43.2961,"lon":5.37725,"is_reserved":false,"is_disabled":false,"rental_uris":{"android":"levelo://app?vid=2b266c15-b01a-4875-8676-163068b5a11c","ios":"levelo://app?vid=2b266c15-b01a-4875-8676-163068b5a11c"},"vehicle_type_id":"4","last_reported":1757942402,"current_range_meters":9200,"station_id":"ce4bgi92rcd13ifvqb90","pricing_plan_id":"cebpf4jnsgd1na2vs0mg"},{"bike_id":"6d193661-7927-4699-96a9-97782e65ad41","system_id":"levelo_inurba_marseille","lat":43.337684,"lon":5.374381,"is_reserved":false,"is_disabled":false,"rental_uris":{"android":"levelo://app?vid=6d193661-7927-4699-96a9-97782e65ad41","ios":"levelo://app?vid=6d193661-7927-4699-96a9-97782e65ad41"},"vehicle_type_id":"4","last_reported":1757942402,"current_range_meters":9600,"station_id":"","pricing_plan_id":"cebpf4jnsgd1na2vs0mg"},{"bike_id":"d03a11a6-1a51-4eb0-8d9f-25d998e1098f","system_id":"levelo_inurba_marseille","lat":43.22929,"lon":5.35378,"is_reserved":false,"is_disabled":false,"rental_uris":{"android":"levelo://app?vid=d03a11a6-1a51-4eb0-8d9f-25d998e1098f","ios":"levelo://app?vid=d03a11a6-1a51-4eb0-8d9f-25d998e1098f"},"vehicle_type_id":"4","last_reported":1757942402,"current_range_meters":10000,"station_id":"cpo3532slgdg3j2ikp40","pricing_plan_id":"cebpf4jnsgd1na2vs0mg"},{"bike_id":"6bbba332-807f-492c-8346-f21e90fead3d","system_id":"levelo_inurba_marseille","lat":43.25501,"lon":5.3765,"is_reserved":false,"is_disabled":false,"rental_uris":{"android":"levelo://app?vid=6bbba332-807f-492c-8346-f21e90fead3d","ios":"levelo://app?vid=6bbba332-807f-492c-8346-f21e90fead3d"},"vehicle_type_id":"4","last_reported":1757942402,"current_range_meters":10000,"station_id":"ce4bhh12rcd13ifvqff0","pricing_plan_id":"cebpf4jnsgd1na2vs0mg"},{"bike_id":"f75319f4-d3a6-440f-9c89-5af7f4acd041","system_id":"levelo_inurba_marseille","lat":43.22579,"lon":5.41594,"is_reserved":false,"is_disabled":false,"rental_uris":{"android":"levelo://app?vid=f75319f4-d3a6-440f-9c89-5af7f4acd041","ios":"levelo://app?vid=f75319f4-d3a6-440f-9c89-5af7f4acd041"},"vehicle_type_id":"4","last_reported":1757942402,"current_range_meters":10000,"station_id":"st_d2o4gvlbi1j2169b742g","pricing_plan_id":"cebpf4jnsgd1na2vs0mg"},{"bike_id":"d349475c-c1fc-4a41-904b-f798bd65cfdf","system_id":"levelo_inurba_marseille","lat":43.26702,"lon":5.38256,"is_reserved":false,"is_disabled":false,"rental_uris":{"android":"levelo://app?vid=d349475c-c1fc-4a41-904b-f798bd65cfdf","ios":"levelo://app?vid=d349475c-c1fc-4a41-904b-f798bd65cfdf"},"vehicle_type_id":"4","last_reported":1757942402,"current_range_meters":10000,"station_id":"ce4bhg92rcd13ifvqf90","pricing_plan_id":"cebpf4jnsgd1na2vs0mg"},{"bike_id":"e8930cfa-2c36-4dbf-ab3e-6afdedf38824","system_id":"levelo_inurba_marseille","lat":43.22573,"lon":5.41627,"is_reserved":false,"is_disabled":false,"rental_uris":{"android":"levelo://app?vid=e8930cfa-2c36-4dbf-ab3e-6afdedf38824","ios":"levelo://app?vid=e8930cfa-2c36-4dbf-ab3e-6afdedf38824"},"vehicle_type_id":"4","last_reported":1757942402,"current_range_meters":10000,"station_id":"st_d2o4gvlbi1j2169b742g","pricing_plan_id":"cebpf4jnsgd1na2vs0mg"},{"bike_id":"c02292d5-264a-4ae9-bd69-9d20d0cdb9c8","system_id":"levelo_inurba_marseille","lat":43.30087,"lon":5.39074,"is_reserved":false,"is_disabled":false,"rental_uris":{"android":"levelo://app?vid=c02292d5-264a-4ae9-bd69-9d20d0cdb9c8","ios":"levelo://app?vid=c02292d5-264a-4ae9-bd69-9d20d0cdb9c8"},"vehicle_type_id":"4","last_reported":1757942402,"current_range_meters":9600,"station_id":"ce4bh192rcd13ifvqdb0","pricing_plan_id":"cebpf4jnsgd1na2vs0mg"},{"bike_id":"4d6e6605-7f16-44fa-a19a-c138ee7cb360","system_id":"levelo_inurba_marseille","lat":43.33799,"lon":5.37446,"is_reserved":false,"is_disabled":false,"rental_uris":{"android":"levelo://app?vid=4d6e6605-7f16-44fa-a19a-c138ee7cb360","ios":"levelo://app?vid=4d6e6605-7f16-44fa-a19a-c138ee7cb360"},"vehicle_type_id":"4","last_reported":1757942402,"current_range_meters":10000,"station_id":"","pricing_plan_id":"cebpf4jnsgd1na2vs0mg"},{"bike_id":"e71b7f01-2bfa-4f59-9ab8-4aa7afe879af","system_id":"levelo_inurba_marseille","lat":43.32334,"lon":5.40596,"is_reserved":false,"is_disabled":false,"rental_uris":{"android":"levelo://app?vid=e71b7f01-2bfa-4f59-9ab8-4aa7afe879af","ios":"levelo://app?vid=e71b7f01-2bfa-4f59-9ab8-4aa7afe879af"},"vehicle_type_id":"4","last_reported":1757942402,"current_range_meters":10000,"station_id":"ce4bhq92rcd13ifvqhjg","pricing_plan_id":"cebpf4jnsgd1na2vs0mg"},{"bike_id":"4b89ad18-a85a-4cf5-a107-a46d8823374f","system_id":"levelo_inurba_marseille","lat":43.22558,"lon":5.41628,"is_reserved":false,"is_disabled":false,"rental_uris":{"android":"levelo://app?vid=4b89ad18-a85a-4cf5-a107-a46d8823374f","ios":"levelo://app?vid=4b89ad18-a85a-4cf5-a107-a46d8823374f"},"vehicle_type_id":"4","last_reported":1757942402,"current_range_meters":10000,"station_id":"st_d2o4gvlbi1j2169b742g","pricing_plan_id":"cebpf4jnsgd1na2vs0mg"},{"bike_id":"08badff3-9fe6-40c3-9bc0-615a88e72a36","system_id":"levelo_inurba_marseille","lat":43.255931,"lon":5.382526,"is_reserved":false,"is_disabled":false,"rental_uris":{"android":"levelo://app?vid=08badff3-9fe6-40c3-9bc0-615a88e72a36","ios":"levelo://app?vid=08badff3-9fe6-40c3-9bc0-615a88e72a36"},"vehicle_type_id":"4","last_reported":1757942402,"current_range_meters":10000,"station_id":"cpo36qri1sfpv3e86is0","pricing_plan_id":"cebpf4jnsgd1na2vs0mg"},{"bike_id":"94aa1074-4a0d-4fdb-9316-d19b5b1b7ad3","system_id":"levelo_inurba_marseille","lat":43.23193,"lon":5.35556,"is_reserved":false,"is_disabled":false,"rental_uris":{"android":"levelo://app?vid=94aa1074-4a0d-4fdb-9316-d19b5b1b7ad3","ios":"levelo://app?vid=94aa1074-4a0d-4fdb-9316-d19b5b1b7ad3"},"vehicle_type_id":"4","last_reported":1757942402,"current_range_meters":10000,"station_id":"ce4bhu92rcd13ifvqi70","pricing_plan_id":"cebpf4jnsgd1na2vs0mg"},{"bike_id":"61cde1c0-77f2-409c-b444-f6f76a45c140","system_id":"levelo_inurba_marseille","lat":43.32116,"lon":5.36783,"is_reserved":false,"is_disabled":false,"rental_uris":{"android":"levelo://app?vid=61cde1c0-77f2-409c-b444-f6f76a45c140","ios":"levelo://app?vid=61cde1c0-77f2-409c-b444-f6f76a45c140"},"vehicle_type_id":"4","last_reported":1757942402,"current_range_meters":10800,"station_id":"ce4bhrh2rcd13ifvqhug","pricing_plan_id":"cebpf4jnsgd1na2vs0mg"},{"bike_id":"98ea1dee-cd3c-4c3f-9176-196dd81fbd1e","system_id":"levelo_inurba_marseille","lat":43.28714,"lon":5.36095,"is_reserved":false,"is_disabled":false,"rental_uris":{"android":"levelo://app?vid=98ea1dee-cd3c-4c3f-9176-196dd81fbd1e","ios":"levelo://app?vid=98ea1dee-cd3c-4c3f-9176-196dd81fbd1e"},"vehicle_type_id":"4","last_reported":1757942402,"current_range_meters":10800,"station_id":"cki0cbj6b192h4jlfktg","pricing_plan_id":"cebpf4jnsgd1na2vs0mg"},{"bike_id":"0d37ad78-0473-4d34-a560-c0e23fa5a0e7","system_id":"levelo_inurba_marseille","lat":43.30888,"lon":5.37182,"is_reserved":false,"is_disabled":false,"rental_uris":{"android":"levelo://app?vid=0d37ad78-0473-4d34-a560-c0e23fa5a0e7","ios":"levelo://app?vid=0d37ad78-0473-4d34-a560-c0e23fa5a0e7"},"vehicle_type_id":"4","last_reported":1757942402,"current_range_meters":10000,"station_id":"ce4bguh2rcd13ifvqckg","pricing_plan_id":"cebpf4jnsgd1na2vs0mg"},{"bike_id":"34654931-8a04-4b03-ae50-3a2a0bfd30d8","system_id":"levelo_inurba_marseille","lat":43.292789,"lon":5.368416,"is_reserved":false,"is_disabled":false,"rental_uris":{"android":"levelo://app?vid=34654931-8a04-4b03-ae50-3a2a0bfd30d8","ios":"levelo://app?vid=34654931-8a04-4b03-ae50-3a2a0bfd30d8"},"vehicle_type_id":"4","last_reported":1757942402,"current_range_meters":10800,"station_id":"ce4bgt12rcd13ifvqcd0","pricing_plan_id":"cebpf4jnsgd1na2vs0mg"},{"bike_id":"52380827-ba9e-4806-84cb-5f5c2e27a521","system_id":"levelo_inurba_marseille","lat":43.28716,"lon":5.37939,"is_reserved":false,"is_disabled":false,"rental_uris":{"android":"levelo://app?vid=52380827-ba9e-4806-84cb-5f5c2e27a521","ios":"levelo://app?vid=52380827-ba9e-4806-84cb-5f5c2e27a521"},"vehicle_type_id":"4","last_reported":1757942402,"current_range_meters":10000,"station_id":"ce4bh9p2rcd13ifvqec0","pricing_plan_id":"cebpf4jnsgd1na2vs0mg"},{"bike_id":"a60903b8-1ef4-452f-8849-1914f6aa8b44","system_id":"levelo_inurba_marseille","lat":43.29912,"lon":5.37465,"is_reserved":false,"is_disabled":false,"rental_uris":{"android":"levelo://app?vid=a60903b8-1ef4-452f-8849-1914f6aa8b44","ios":"levelo://app?vid=a60903b8-1ef4-452f-8849-1914f6aa8b44"},"vehicle_type_id":"4","last_reported":1757942402,"current_range_meters":10800,"station_id":"ce4bgjh2rcd13ifvqbg0","pricing_plan_id":"cebpf4jnsgd1na2vs0mg"},{"bike_id":"138a4cc6-0fc2-4c05-b087-29106e6d0053","system_id":"levelo_inurba_marseille","lat":43.28407,"lon":5.34979,"is_reserved":false,"is_disabled":false,"rental_uris":{"android":"levelo://app?vid=138a4cc6-0fc2-4c05-b087-29106e6d0053","ios":"levelo://app?vid=138a4cc6-0fc2-4c05-b087-29106e6d0053"},"vehicle_type_id":"4","last_reported":1757942402,"current_range_meters":10800,"station_id":"ce4bhbh2rcd13ifvqepg","pricing_plan_id":"cebpf4jnsgd1na2vs0mg"},{"bike_id":"6b3a8be5-4f4e-4161-bc82-441f9f95456e","system_id":"levelo_inurba_marseille","lat":43.28423,"lon":5.34984,"is_reserved":false,"is_disabled":false,"rental_uris":{"android":"levelo://app?vid=6b3a8be5-4f4e-4161-bc82-441f9f95456e","ios":"levelo://app?vid=6b3a8be5-4f4e-4161-bc82-441f9f95456e"},"vehicle_type_id":"4","last_reported":1757942402,"current_range_meters":6800,"station_id":"ce4bhbh2rcd13ifvqepg","pricing_plan_id":"cebpf4jnsgd1na2vs0mg"},{"bike_id":"a1a7c330-9c91-4448-aab3-ddf55233bb0d","system_id":"levelo_inurba_marseille","lat":43.28422,"lon":5.34978,"is_reserved":false,"is_disabled":false,"rental_uris":{"android":"levelo://app?vid=a1a7c330-9c91-4448-aab3-ddf55233bb0d","ios":"levelo://app?vid=a1a7c330-9c91-4448-aab3-ddf55233bb0d"},"vehicle_type_id":"4","last_reported":1757942402,"current_range_meters":11200,"station_id":"ce4bhbh2rcd13ifvqepg","pricing_plan_id":"cebpf4jnsgd1na2vs0mg"},{"bike_id":"1a48f573-0b5e-41e8-87c5-d67c59011561","system_id":"levelo_inurba_marseille","lat":43.29389,"lon":5.37319,"is_reserved":false,"is_disabled":false,"rental_uris":{"android":"levelo://app?vid=1a48f573-0b5e-41e8-87c5-d67c59011561","ios":"levelo://app?vid=1a48f573-0b5e-41e8-87c5-d67c59011561"},"vehicle_type_id":"4","last_reported":1757942402,"current_range_meters":11200,"station_id":"","pricing_plan_id":"cebpf4jnsgd1na2vs0mg"},{"bike_id":"752a8a32-4b4f-4a8d-b81a-207a7eb22564","system_id":"levelo_inurba_marseille","lat":43.29519,"lon":5.37509,"is_reserved":false,"is_disabled":false,"rental_uris":{"android":"levelo://app?vid=752a8a32-4b4f-4a8d-b81a-207a7eb22564","ios":"levelo://app?vid=752a8a32-4b4f-4a8d-b81a-207a7eb22564"},"vehicle_type_id":"4","last_reported":1757942402,"current_range_meters":11200,"station_id":"ce4bgkp2rcd13ifvqbmg","pricing_plan_id":"cebpf4jnsgd1na2vs0mg"},{"bike_id":"97706d3f-f9d6-47c3-953b-bd71c07a3fc3","system_id":"levelo_inurba_marseille","lat":43.25933,"lon":5.40875,"is_reserved":false,"is_disabled":false,"rental_uris":{"android":"levelo://app?vid=97706d3f-f9d6-47c3-953b-bd71c07a3fc3","ios":"levelo://app?vid=97706d3f-f9d6-47c3-953b-bd71c07a3fc3"},"vehicle_type_id":"4","last_reported":1757942402,"current_range_meters":11200,"station_id":"ce4bhm92rcd13ifvqglg","pricing_plan_id":"cebpf4jnsgd1na2vs0mg"},{"bike_id":"8028c46d-8f0f-414c-b893-d41b8873e6f4","system_id":"levelo_inurba_marseille","lat":43.293275,"lon":5.371745,"is_reserved":false,"is_disabled":false,"rental_uris":{"android":"levelo://app?vid=8028c46d-8f0f-414c-b893-d41b8873e6f4","ios":"levelo://app?vid=8028c46d-8f0f-414c-b893-d41b8873e6f4"},"vehicle_type_id":"4","last_reported":1757942402,"current_range_meters":11600,"station_id":"ce4bgh92rcd13ifvqb40","pricing_plan_id":"cebpf4jnsgd1na2vs0mg"},{"bike_id":"a7f9cdb6-3767-48e0-9e78-99b8089dd641","system_id":"levelo_inurba_marseille","lat":43.29263,"lon":5.37636,"is_reserved":false,"is_disabled":false,"rental_uris":{"android":"levelo://app?vid=a7f9cdb6-3767-48e0-9e78-99b8089dd641","ios":"levelo://app?vid=a7f9cdb6-3767-48e0-9e78-99b8089dd641"},"vehicle_type_id":"4","last_reported":1757942402,"current_range_meters":11600,"station_id":"ce4bgi12rcd13ifvqb80","pricing_plan_id":"cebpf4jnsgd1na2vs0mg"},{"bike_id":"b2fba456-5a3b-40c6-8765-ad84661db187","system_id":"levelo_inurba_marseille","lat":43.257205,"lon":5.411136,"is_reserved":false,"is_disabled":false,"rental_uris":{"android":"levelo://app?vid=b2fba456-5a3b-40c6-8765-ad84661db187","ios":"levelo://app?vid=b2fba456-5a3b-40c6-8765-ad84661db187"},"vehicle_type_id":"4","last_reported":1757942402,"current_range_meters":11600,"station_id":"ce4bhkp2rcd13ifvqgd0","pricing_plan_id":"cebpf4jnsgd1na2vs0mg"},{"bike_id":"e4e0215d-305f-4c87-9b9c-0fa6f0b11187","system_id":"levelo_inurba_marseille","lat":43.29916,"lon":5.37465,"is_reserved":false,"is_disabled":false,"rental_uris":{"android":"levelo://app?vid=e4e0215d-305f-4c87-9b9c-0fa6f0b11187","ios":"levelo://app?vid=e4e0215d-305f-4c87-9b9c-0fa6f0b11187"},"vehicle_type_id":"4","last_reported":1757942402,"current_range_meters":11600,"station_id":"ce4bgjh2rcd13ifvqbg0","pricing_plan_id":"cebpf4jnsgd1na2vs0mg"},{"bike_id":"6eb5d964-184e-49d3-8fe3-fd71f45352e0","system_id":"levelo_inurba_marseille","lat":43.24632,"lon":5.43143,"is_reserved":false,"is_disabled":false,"rental_uris":{"android":"levelo://app?vid=6eb5d964-184e-49d3-8fe3-fd71f45352e0","ios":"levelo://app?vid=6eb5d964-184e-49d3-8fe3-fd71f45352e0"},"vehicle_type_id":"4","last_reported":1757942402,"current_range_meters":11600,"station_id":"st_d2m6c4gdas8pm72e190g","pricing_plan_id":"cebpf4jnsgd1na2vs0mg"},{"bike_id":"57127154-7e15-4346-89ed-ab9d76ef9c2c","system_id":"levelo_inurba_marseille","lat":43.28838,"lon":5.36326,"is_reserved":false,"is_disabled":false,"rental_uris":{"android":"levelo://app?vid=57127154-7e15-4346-89ed-ab9d76ef9c2c","ios":"levelo://app?vid=57127154-7e15-4346-89ed-ab9d76ef9c2c"},"vehicle_type_id":"4","last_reported":1757942402,"current_range_meters":11600,"station_id":"","pricing_plan_id":"cebpf4jnsgd1na2vs0mg"},{"bike_id":"3735f40a-061e-4986-b1b1-709c328c5137","system_id":"levelo_inurba_marseille","lat":43.28685,"lon":5.39973,"is_reserved":false,"is_disabled":false,"rental_uris":{"android":"levelo://app?vid=3735f40a-061e-4986-b1b1-709c328c5137","ios":"levelo://app?vid=3735f40a-061e-4986-b1b1-709c328c5137"},"vehicle_type_id":"4","last_reported":1757942402,"current_range_meters":12000,"station_id":"ce4bho92rcd13ifvqh3g","pricing_plan_id":"cebpf4jnsgd1na2vs0mg"},{"bike_id":"e7a329bd-ed66-4ac7-aaba-63f2810ddd86","system_id":"levelo_inurba_marseille","lat":43.31859,"lon":5.37206,"is_reserved":false,"is_disabled":false,"rental_uris":{"android":"levelo://app?vid=e7a329bd-ed66-4ac7-aaba-63f2810ddd86","ios":"levelo://app?vid=e7a329bd-ed66-4ac7-aaba-63f2810ddd86"},"vehicle_type_id":"4","last_reported":1757942402,"current_range_meters":12000,"station_id":"","pricing_plan_id":"cebpf4jnsgd1na2vs0mg"},{"bike_id":"95f93d1c-ccab-4152-a3a6-64c8439570ec","system_id":"levelo_inurba_marseille","lat":43.29978,"lon":5.38487,"is_reserved":false,"is_disabled":false,"rental_uris":{"android":"levelo://app?vid=95f93d1c-ccab-4152-a3a6-64c8439570ec","ios":"levelo://app?vid=95f93d1c-ccab-4152-a3a6-64c8439570ec"},"vehicle_type_id":"4","last_reported":1757942402,"current_range_meters":12000,"station_id":"ce4bgj92rcd13ifvqbd0","pricing_plan_id":"cebpf4jnsgd1na2vs0mg"},{"bike_id":"f76f96e0-696d-4245-be5a-6d9a77533a14","system_id":"levelo_inurba_marseille","lat":43.29875,"lon":5.39729,"is_reserved":false,"is_disabled":false,"rental_uris":{"android":"levelo://app?vid=f76f96e0-696d-4245-be5a-6d9a77533a14","ios":"levelo://app?vid=f76f96e0-696d-4245-be5a-6d9a77533a14"},"vehicle_type_id":"4","last_reported":1757942402,"current_range_meters":12000,"station_id":"ce4bh0h2rcd13ifvqd50","pricing_plan_id":"cebpf4jnsgd1na2vs0mg"},{"bike_id":"e55ae905-9410-44da-8e6c-dadab4fedc17","system_id":"levelo_inurba_marseille","lat":43.21754,"lon":5.34607,"is_reserved":false,"is_disabled":false,"rental_uris":{"android":"levelo://app?vid=e55ae905-9410-44da-8e6c-dadab4fedc17","ios":"levelo://app?vid=e55ae905-9410-44da-8e6c-dadab4fedc17"},"vehicle_type_id":"4","last_reported":1757942402,"current_range_meters":12000,"station_id":"st_cvj6r9ubvosntc0bgbag","pricing_plan_id":"cebpf4jnsgd1na2vs0mg"},{"bike_id":"5b71f0be-4481-4d84-a923-5ef3de65d795","system_id":"levelo_inurba_marseille","lat":43.281453,"lon":5.349113,"is_reserved":false,"is_disabled":false,"rental_uris":{"android":"levelo://app?vid=5b71f0be-4481-4d84-a923-5ef3de65d795","ios":"levelo://app?vid=5b71f0be-4481-4d84-a923-5ef3de65d795"},"vehicle_type_id":"4","last_reported":1757942402,"current_range_meters":12000,"station_id":"ce4bgip2rcd13ifvqbb0","pricing_plan_id":"cebpf4jnsgd1na2vs0mg"},{"bike_id":"944ea2a6-5bea-4d9a-970b-669091a09825","system_id":"levelo_inurba_marseille","lat":43.30535,"lon":5.36526,"is_reserved":false,"is_disabled":false,"rental_uris":{"android":"levelo://app?vid=944ea2a6-5bea-4d9a-970b-669091a09825","ios":"levelo://app?vid=944ea2a6-5bea-4d9a-970b-669091a09825"},"vehicle_type_id":"4","last_reported":1757942402,"current_range_meters":12000,"station_id":"ce4bgs12rcd13ifvqcag","pricing_plan_id":"cebpf4jnsgd1na2vs0mg"},{"bike_id":"44e4f993-415f-4ed7-a74b-425d8c222583","system_id":"levelo_inurba_marseille","lat":43.30148,"lon":5.37402,"is_reserved":false,"is_disabled":false,"rental_uris":{"android":"levelo://app?vid=44e4f993-415f-4ed7-a74b-425d8c222583","ios":"levelo://app?vid=44e4f993-415f-4ed7-a74b-425d8c222583"},"vehicle_type_id":"4","last_reported":1757942402,"current_range_meters":12400,"station_id":"ce4bgs92rcd13ifvqcc0","pricing_plan_id":"cebpf4jnsgd1na2vs0mg"},{"bike_id":"0c6fe877-1024-4901-84e8-0fbaefe45584","system_id":"levelo_inurba_marseille","lat":43.3343,"lon":5.40044,"is_reserved":false,"is_disabled":false,"rental_uris":{"android":"levelo://app?vid=0c6fe877-1024-4901-84e8-0fbaefe45584","ios":"levelo://app?vid=0c6fe877-1024-4901-84e8-0fbaefe45584"},"vehicle_type_id":"4","last_reported":1757942402,"current_range_meters":12400,"station_id":"","pricing_plan_id":"cebpf4jnsgd1na2vs0mg"},{"bike_id":"c52cd515-0047-48c4-a604-555028fe1e1f","system_id":"levelo_inurba_marseille","lat":43.24651,"lon":5.38895,"is_reserved":false,"is_disabled":false,"rental_uris":{"android":"levelo://app?vid=c52cd515-0047-48c4-a604-555028fe1e1f","ios":"levelo://app?vid=c52cd515-0047-48c4-a604-555028fe1e1f"},"vehicle_type_id":"4","last_reported":1757942402,"current_range_meters":12400,"station_id":"ce4bhg12rcd13ifvqf60","pricing_plan_id":"cebpf4jnsgd1na2vs0mg"},{"bike_id":"38d5c4e5-4122-442e-a981-bae96c3ce2b0","system_id":"levelo_inurba_marseille","lat":43.27377,"lon":5.36252,"is_reserved":false,"is_disabled":false,"rental_uris":{"android":"levelo://app?vid=38d5c4e5-4122-442e-a981-bae96c3ce2b0","ios":"levelo://app?vid=38d5c4e5-4122-442e-a981-bae96c3ce2b0"},"vehicle_type_id":"4","last_reported":1757942402,"current_range_meters":12400,"station_id":"ce4bhbh2rcd13ifvqeo0","pricing_plan_id":"cebpf4jnsgd1na2vs0mg"},{"bike_id":"30d92779-838e-460b-bf7a-6371f6646707","system_id":"levelo_inurba_marseille","lat":43.21218,"lon":5.35055,"is_reserved":false,"is_disabled":true,"rental_uris":{"android":"levelo://app?vid=30d92779-838e-460b-bf7a-6371f6646707","ios":"levelo://app?vid=30d92779-838e-460b-bf7a-6371f6646707"},"vehicle_type_id":"4","last_reported":1757942402,"current_range_meters":12400,"station_id":"st_cvj6sg6p6f1abm77japg","pricing_plan_id":"cebpf4jnsgd1na2vs0mg"},{"bike_id":"60df5be0-868d-496d-a7cc-2e097de1a47a","system_id":"levelo_inurba_marseille","lat":43.22552,"lon":5.41642,"is_reserved":false,"is_disabled":false,"rental_uris":{"android":"levelo://app?vid=60df5be0-868d-496d-a7cc-2e097de1a47a","ios":"levelo://app?vid=60df5be0-868d-496d-a7cc-2e097de1a47a"},"vehicle_type_id":"4","last_reported":1757942402,"current_range_meters":12400,"station_id":"st_d2o4gvlbi1j2169b742g","pricing_plan_id":"cebpf4jnsgd1na2vs0mg"},{"bike_id":"a5780ec2-b6b0-4add-805f-61f0d1c6be75","system_id":"levelo_inurba_marseille","lat":43.28265,"lon":5.35074,"is_reserved":false,"is_disabled":false,"rental_uris":{"android":"levelo://app?vid=a5780ec2-b6b0-4add-805f-61f0d1c6be75","ios":"levelo://app?vid=a5780ec2-b6b0-4add-805f-61f0d1c6be75"},"vehicle_type_id":"4","last_reported":1757942402,"current_range_meters":12400,"station_id":"ce4bhbp2rcd13ifvqerg","pricing_plan_id":"cebpf4jnsgd1na2vs0mg"},{"bike_id":"03a632f1-6cf9-48d9-8d0d-cdc6b623de20","system_id":"levelo_inurba_marseille","lat":43.259403,"lon":5.409085,"is_reserved":false,"is_disabled":false,"rental_uris":{"android":"levelo://app?vid=03a632f1-6cf9-48d9-8d0d-cdc6b623de20","ios":"levelo://app?vid=03a632f1-6cf9-48d9-8d0d-cdc6b623de20"},"vehicle_type_id":"4","last_reported":1757942402,"current_range_meters":12400,"station_id":"ce4bhm92rcd13ifvqglg","pricing_plan_id":"cebpf4jnsgd1na2vs0mg"},{"bike_id":"dffd10e4-20e1-46a5-8b95-575631d67614","system_id":"levelo_inurba_marseille","lat":43.294314,"lon":5.397506,"is_reserved":false,"is_disabled":false,"rental_uris":{"android":"levelo://app?vid=dffd10e4-20e1-46a5-8b95-575631d67614","ios":"levelo://app?vid=dffd10e4-20e1-46a5-8b95-575631d67614"},"vehicle_type_id":"4","last_reported":1757942402,"current_range_meters":12800,"station_id":"ce4bh3h2rcd13ifvqdo0","pricing_plan_id":"cebpf4jnsgd1na2vs0mg"},{"bike_id":"4d941a7b-ef9f-405b-ad46-bfb9dc7c4f47","system_id":"levelo_inurba_marseille","lat":43.24802,"lon":5.37454,"is_reserved":false,"is_disabled":false,"rental_uris":{"android":"levelo://app?vid=4d941a7b-ef9f-405b-ad46-bfb9dc7c4f47","ios":"levelo://app?vid=4d941a7b-ef9f-405b-ad46-bfb9dc7c4f47"},"vehicle_type_id":"4","last_reported":1757942402,"current_range_meters":12800,"station_id":"ce4bhgh2rcd13ifvqfb0","pricing_plan_id":"cebpf4jnsgd1na2vs0mg"},{"bike_id":"90bf7e82-7875-4944-a1da-1f72fbad8eac","system_id":"levelo_inurba_marseille","lat":43.24807,"lon":5.37457,"is_reserved":false,"is_disabled":false,"rental_uris":{"android":"levelo://app?vid=90bf7e82-7875-4944-a1da-1f72fbad8eac","ios":"levelo://app?vid=90bf7e82-7875-4944-a1da-1f72fbad8eac"},"vehicle_type_id":"4","last_reported":1757942402,"current_range_meters":12800,"station_id":"ce4bhgh2rcd13ifvqfb0","pricing_plan_id":"cebpf4jnsgd1na2vs0mg"},{"bike_id":"184c75ba-a2ae-4bc5-b888-4c430b804879","system_id":"levelo_inurba_marseille","lat":43.2843,"lon":5.34976,"is_reserved":false,"is_disabled":false,"rental_uris":{"android":"levelo://app?vid=184c75ba-a2ae-4bc5-b888-4c430b804879","ios":"levelo://app?vid=184c75ba-a2ae-4bc5-b888-4c430b804879"},"vehicle_type_id":"4","last_reported":1757942402,"current_range_meters":12800,"station_id":"ce4bhbh2rcd13ifvqepg","pricing_plan_id":"cebpf4jnsgd1na2vs0mg"},{"bike_id":"322c1f5a-85db-4ef6-bcd4-1b5c417c8ee0","system_id":"levelo_inurba_marseille","lat":43.3377,"lon":5.37488,"is_reserved":false,"is_disabled":false,"rental_uris":{"android":"levelo://app?vid=322c1f5a-85db-4ef6-bcd4-1b5c417c8ee0","ios":"levelo://app?vid=322c1f5a-85db-4ef6-bcd4-1b5c417c8ee0"},"vehicle_type_id":"4","last_reported":1757942402,"current_range_meters":12800,"station_id":"","pricing_plan_id":"cebpf4jnsgd1na2vs0mg"},{"bike_id":"0c8a5ee9-75d3-4533-a64f-ca12b739cb3a","system_id":"levelo_inurba_marseille","lat":43.24085,"lon":5.37748,"is_reserved":false,"is_disabled":false,"rental_uris":{"android":"levelo://app?vid=0c8a5ee9-75d3-4533-a64f-ca12b739cb3a","ios":"levelo://app?vid=0c8a5ee9-75d3-4533-a64f-ca12b739cb3a"},"vehicle_type_id":"4","last_reported":1757942402,"current_range_meters":12800,"station_id":"ce4bhnp2rcd13ifvqgvg","pricing_plan_id":"cebpf4jnsgd1na2vs0mg"},{"bike_id":"411d7c5a-6423-4e30-9504-3c73f67b963f","system_id":"levelo_inurba_marseille","lat":43.33772,"lon":5.37423,"is_reserved":false,"is_disabled":false,"rental_uris":{"android":"levelo://app?vid=411d7c5a-6423-4e30-9504-3c73f67b963f","ios":"levelo://app?vid=411d7c5a-6423-4e30-9504-3c73f67b963f"},"vehicle_type_id":"4","last_reported":1757942402,"current_range_meters":12800,"station_id":"","pricing_plan_id":"cebpf4jnsgd1na2vs0mg"},{"bike_id":"a0af35ec-39e3-4a19-916f-7c9c3c487e0d","system_id":"levelo_inurba_marseille","lat":43.30533,"lon":5.36543,"is_reserved":false,"is_disabled":false,"rental_uris":{"android":"levelo://app?vid=a0af35ec-39e3-4a19-916f-7c9c3c487e0d","ios":"levelo://app?vid=a0af35ec-39e3-4a19-916f-7c9c3c487e0d"},"vehicle_type_id":"4","last_reported":1757942402,"current_range_meters":13600,"station_id":"ce4bgs12rcd13ifvqcag","pricing_plan_id":"cebpf4jnsgd1na2vs0mg"},{"bike_id":"9b9a6aca-d8ba-4892-a70c-a46cb142c2a2","system_id":"levelo_inurba_marseille","lat":43.313486,"lon":5.367224,"is_reserved":false,"is_disabled":false,"rental_uris":{"android":"levelo://app?vid=9b9a6aca-d8ba-4892-a70c-a46cb142c2a2","ios":"levelo://app?vid=9b9a6aca-d8ba-4892-a70c-a46cb142c2a2"},"vehicle_type_id":"4","last_reported":1757942402,"current_range_meters":14000,"station_id":"ce4bgr92rcd13ifvqc6g","pricing_plan_id":"cebpf4jnsgd1na2vs0mg"},{"bike_id":"fd78db3d-4867-408c-adac-32888fda54c1","system_id":"levelo_inurba_marseille","lat":43.31467,"lon":5.37258,"is_reserved":false,"is_disabled":false,"rental_uris":{"android":"levelo://app?vid=fd78db3d-4867-408c-adac-32888fda54c1","ios":"levelo://app?vid=fd78db3d-4867-408c-adac-32888fda54c1"},"vehicle_type_id":"4","last_reported":1757942402,"current_range_meters":13600,"station_id":"ce4bgt12rcd13ifvqcd0","pricing_plan_id":"cebpf4jnsgd1na2vs0mg"},{"bike_id":"9c75fbba-265d-4518-b67d-a730fc236080","system_id":"levelo_inurba_marseille","lat":43.28936,"lon":5.36639,"is_reserved":false,"is_disabled":false,"rental_uris":{"android":"levelo://app?vid=9c75fbba-265d-4518-b67d-a730fc236080","ios":"levelo://app?vid=9c75fbba-265d-4518-b67d-a730fc236080"},"vehicle_type_id":"4","last_reported":1757942402,"current_range_meters":14000,"station_id":"ce4bhap2rcd13ifvqek0","pricing_plan_id":"cebpf4jnsgd1na2vs0mg"},{"bike_id":"aad3a8d2-b3e0-44b1-9a07-09679194dd7e","system_id":"levelo_inurba_marseille","lat":43.3019,"lon":5.39448,"is_reserved":false,"is_disabled":false,"rental_uris":{"android":"levelo://app?vid=aad3a8d2-b3e0-44b1-9a07-09679194dd7e","ios":"levelo://app?vid=aad3a8d2-b3e0-44b1-9a07-09679194dd7e"},"vehicle_type_id":"4","last_reported":1757942402,"current_range_meters":14400,"station_id":"ce4bh0p2rcd13ifvqd70","pricing_plan_id":"cebpf4jnsgd1na2vs0mg"},{"bike_id":"eedba324-7da9-4cd8-b45d-955e870bf47f","system_id":"levelo_inurba_marseille","lat":43.28853,"lon":5.35848,"is_reserved":false,"is_disabled":false,"rental_uris":{"android":"levelo://app?vid=eedba324-7da9-4cd8-b45d-955e870bf47f","ios":"levelo://app?vid=eedba324-7da9-4cd8-b45d-955e870bf47f"},"vehicle_type_id":"4","last_reported":1757942402,"current_range_meters":14000,"station_id":"ce4bhb12rcd13ifvqem0","pricing_plan_id":"cebpf4jnsgd1na2vs0mg"},{"bike_id":"52d207e7-51c6-46f8-93cd-b7416abb2e3d","system_id":"levelo_inurba_marseille","lat":43.30924,"lon":5.36823,"is_reserved":false,"is_disabled":false,"rental_uris":{"android":"levelo://app?vid=52d207e7-51c6-46f8-93cd-b7416abb2e3d","ios":"levelo://app?vid=52d207e7-51c6-46f8-93cd-b7416abb2e3d"},"vehicle_type_id":"4","last_reported":1757942402,"current_range_meters":14000,"station_id":"ce4bgn92rcd13ifvqbvg","pricing_plan_id":"cebpf4jnsgd1na2vs0mg"},{"bike_id":"41de12a2-5382-4da2-9751-1300a8df4dc1","system_id":"levelo_inurba_marseille","lat":43.22553,"lon":5.41633,"is_reserved":false,"is_disabled":false,"rental_uris":{"android":"levelo://app?vid=41de12a2-5382-4da2-9751-1300a8df4dc1","ios":"levelo://app?vid=41de12a2-5382-4da2-9751-1300a8df4dc1"},"vehicle_type_id":"4","last_reported":1757942402,"current_range_meters":14000,"station_id":"st_d2o4gvlbi1j2169b742g","pricing_plan_id":"cebpf4jnsgd1na2vs0mg"},{"bike_id":"d7520664-81b2-41e6-8d9b-110f5bae4ffb","system_id":"levelo_inurba_marseille","lat":43.29188,"lon":5.35804,"is_reserved":false,"is_disabled":false,"rental_uris":{"android":"levelo://app?vid=d7520664-81b2-41e6-8d9b-110f5bae4ffb","ios":"levelo://app?vid=d7520664-81b2-41e6-8d9b-110f5bae4ffb"},"vehicle_type_id":"4","last_reported":1757942402,"current_range_meters":13600,"station_id":"ce4bhb12rcd13ifvqel0","pricing_plan_id":"cebpf4jnsgd1na2vs0mg"},{"bike_id":"4199e61c-96f2-46e9-aded-7515329fc385","system_id":"levelo_inurba_marseille","lat":43.23163,"lon":5.43705,"is_reserved":false,"is_disabled":false,"rental_uris":{"android":"levelo://app?vid=4199e61c-96f2-46e9-aded-7515329fc385","ios":"levelo://app?vid=4199e61c-96f2-46e9-aded-7515329fc385"},"vehicle_type_id":"4","last_reported":1757942402,"current_range_meters":14000,"station_id":"ce4bhmp2rcd13ifvqgog","pricing_plan_id":"cebpf4jnsgd1na2vs0mg"},{"bike_id":"f408876b-75cd-4096-b39d-1967bfe1b005","system_id":"levelo_inurba_marseille","lat":43.33783,"lon":5.37426,"is_reserved":false,"is_disabled":false,"rental_uris":{"android":"levelo://app?vid=f408876b-75cd-4096-b39d-1967bfe1b005","ios":"levelo://app?vid=f408876b-75cd-4096-b39d-1967bfe1b005"},"vehicle_type_id":"4","last_reported":1757942402,"current_range_meters":14000,"station_id":"","pricing_plan_id":"cebpf4jnsgd1na2vs0mg"},{"bike_id":"a155e67d-bec0-4326-ae57-c035ef5e1c81","system_id":"levelo_inurba_marseille","lat":43.29896,"lon":5.43675,"is_reserved":false,"is_disabled":false,"rental_uris":{"android":"levelo://app?vid=a155e67d-bec0-4326-ae57-c035ef5e1c81","ios":"levelo://app?vid=a155e67d-bec0-4326-ae57-c035ef5e1c81"},"vehicle_type_id":"4","last_reported":1757942402,"current_range_meters":14400,"station_id":"ce4bhpp2rcd13ifvqhfg","pricing_plan_id":"cebpf4jnsgd1na2vs0mg"},{"bike_id":"650a7aa5-58e3-4da4-a6c5-8472f81c2091","system_id":"levelo_inurba_marseille","lat":43.29004,"lon":5.35609,"is_reserved":false,"is_disabled":false,"rental_uris":{"android":"levelo://app?vid=650a7aa5-58e3-4da4-a6c5-8472f81c2091","ios":"levelo://app?vid=650a7aa5-58e3-4da4-a6c5-8472f81c2091"},"vehicle_type_id":"4","last_reported":1757942402,"current_range_meters":15200,"station_id":"ce4bhb92rcd13ifvqen0","pricing_plan_id":"cebpf4jnsgd1na2vs0mg"},{"bike_id":"354803e4-5879-4aeb-b4ea-e35421599887","system_id":"levelo_inurba_marseille","lat":43.275,"lon":5.4245,"is_reserved":false,"is_disabled":false,"rental_uris":{"android":"levelo://app?vid=354803e4-5879-4aeb-b4ea-e35421599887","ios":"levelo://app?vid=354803e4-5879-4aeb-b4ea-e35421599887"},"vehicle_type_id":"4","last_reported":1757942402,"current_range_meters":14400,"station_id":"ce4bhn92rcd13ifvqgrg","pricing_plan_id":"cebpf4jnsgd1na2vs0mg"},{"bike_id":"088693c6-0a9a-45c3-b85d-0b3971b1e68f","system_id":"levelo_inurba_marseille","lat":43.3054,"lon":5.36528,"is_reserved":false,"is_disabled":false,"rental_uris":{"android":"levelo://app?vid=088693c6-0a9a-45c3-b85d-0b3971b1e68f","ios":"levelo://app?vid=088693c6-0a9a-45c3-b85d-0b3971b1e68f"},"vehicle_type_id":"4","last_reported":1757942402,"current_range_meters":14400,"station_id":"ce4bgs12rcd13ifvqcag","pricing_plan_id":"cebpf4jnsgd1na2vs0mg"},{"bike_id":"f7c56a48-db06-4ee3-9b90-45854a625eac","system_id":"levelo_inurba_marseille","lat":43.25941,"lon":5.40908,"is_reserved":false,"is_disabled":false,"rental_uris":{"android":"levelo://app?vid=f7c56a48-db06-4ee3-9b90-45854a625eac","ios":"levelo://app?vid=f7c56a48-db06-4ee3-9b90-45854a625eac"},"vehicle_type_id":"4","last_reported":1757942402,"current_range_meters":14400,"station_id":"ce4bhm92rcd13ifvqglg","pricing_plan_id":"cebpf4jnsgd1na2vs0mg"},{"bike_id":"e3b13244-4ad8-44d7-83ea-1f99cf6ddb7e","system_id":"levelo_inurba_marseille","lat":43.29003,"lon":5.35619,"is_reserved":false,"is_disabled":false,"rental_uris":{"android":"levelo://app?vid=e3b13244-4ad8-44d7-83ea-1f99cf6ddb7e","ios":"levelo://app?vid=e3b13244-4ad8-44d7-83ea-1f99cf6ddb7e"},"vehicle_type_id":"4","last_reported":1757942402,"current_range_meters":14400,"station_id":"ce4bhb92rcd13ifvqen0","pricing_plan_id":"cebpf4jnsgd1na2vs0mg"},{"bike_id":"91e25597-0445-428b-982a-813572df2a9f","system_id":"levelo_inurba_marseille","lat":43.229363,"lon":5.353506,"is_reserved":false,"is_disabled":false,"rental_uris":{"android":"levelo://app?vid=91e25597-0445-428b-982a-813572df2a9f","ios":"levelo://app?vid=91e25597-0445-428b-982a-813572df2a9f"},"vehicle_type_id":"4","last_reported":1757942402,"current_range_meters":14400,"station_id":"cpo3532slgdg3j2ikp40","pricing_plan_id":"cebpf4jnsgd1na2vs0mg"},{"bike_id":"e00bf060-2c01-48f5-9e86-32ade4425466","system_id":"levelo_inurba_marseille","lat":43.34141,"lon":5.40906,"is_reserved":false,"is_disabled":false,"rental_uris":{"android":"levelo://app?vid=e00bf060-2c01-48f5-9e86-32ade4425466","ios":"levelo://app?vid=e00bf060-2c01-48f5-9e86-32ade4425466"},"vehicle_type_id":"4","last_reported":1757942402,"current_range_meters":16400,"station_id":"ce4bhqh2rcd13ifvqhlg","pricing_plan_id":"cebpf4jnsgd1na2vs0mg"},{"bike_id":"d352386b-fa38-41d4-a418-05ab678845a6","system_id":"levelo_inurba_marseille","lat":43.28222,"lon":5.39031,"is_reserved":false,"is_disabled":false,"rental_uris":{"android":"levelo://app?vid=d352386b-fa38-41d4-a418-05ab678845a6","ios":"levelo://app?vid=d352386b-fa38-41d4-a418-05ab678845a6"},"vehicle_type_id":"4","last_reported":1757942402,"current_range_meters":14800,"station_id":"ce4bhn92rcd13ifvqgsg","pricing_plan_id":"cebpf4jnsgd1na2vs0mg"},{"bike_id":"9a11ee46-ebe0-4ebe-934e-c0ab97ca2a19","system_id":"levelo_inurba_marseille","lat":43.30532,"lon":5.36694,"is_reserved":false,"is_disabled":false,"rental_uris":{"android":"levelo://app?vid=9a11ee46-ebe0-4ebe-934e-c0ab97ca2a19","ios":"levelo://app?vid=9a11ee46-ebe0-4ebe-934e-c0ab97ca2a19"},"vehicle_type_id":"4","last_reported":1757942402,"current_range_meters":14400,"station_id":"ce4bgrp2rcd13ifvqc9g","pricing_plan_id":"cebpf4jnsgd1na2vs0mg"},{"bike_id":"76c36f25-2dc3-44c6-b289-ec20304fb3c0","system_id":"levelo_inurba_marseille","lat":43.28253,"lon":5.35023,"is_reserved":false,"is_disabled":false,"rental_uris":{"android":"levelo://app?vid=76c36f25-2dc3-44c6-b289-ec20304fb3c0","ios":"levelo://app?vid=76c36f25-2dc3-44c6-b289-ec20304fb3c0"},"vehicle_type_id":"4","last_reported":1757942402,"current_range_meters":14800,"station_id":"ce4bhbp2rcd13ifvqerg","pricing_plan_id":"cebpf4jnsgd1na2vs0mg"},{"bike_id":"b3c26a34-b3c7-46a6-a86f-6a20bc0fe30f","system_id":"levelo_inurba_marseille","lat":43.22915,"lon":5.35379,"is_reserved":false,"is_disabled":false,"rental_uris":{"android":"levelo://app?vid=b3c26a34-b3c7-46a6-a86f-6a20bc0fe30f","ios":"levelo://app?vid=b3c26a34-b3c7-46a6-a86f-6a20bc0fe30f"},"vehicle_type_id":"4","last_reported":1757942402,"current_range_meters":14800,"station_id":"cpo3532slgdg3j2ikp40","pricing_plan_id":"cebpf4jnsgd1na2vs0mg"},{"bike_id":"e824d254-16a6-4ae4-983a-05af083f4c81","system_id":"levelo_inurba_marseille","lat":43.21753,"lon":5.34607,"is_reserved":false,"is_disabled":false,"rental_uris":{"android":"levelo://app?vid=e824d254-16a6-4ae4-983a-05af083f4c81","ios":"levelo://app?vid=e824d254-16a6-4ae4-983a-05af083f4c81"},"vehicle_type_id":"4","last_reported":1757942402,"current_range_meters":15200,"station_id":"","pricing_plan_id":"cebpf4jnsgd1na2vs0mg"},{"bike_id":"d73ebff0-d957-41dc-a638-29b88edc4926","system_id":"levelo_inurba_marseille","lat":43.22548,"lon":5.41585,"is_reserved":false,"is_disabled":false,"rental_uris":{"android":"levelo://app?vid=d73ebff0-d957-41dc-a638-29b88edc4926","ios":"levelo://app?vid=d73ebff0-d957-41dc-a638-29b88edc4926"},"vehicle_type_id":"4","last_reported":1757942402,"current_range_meters":15200,"station_id":"st_d2o4gvlbi1j2169b742g","pricing_plan_id":"cebpf4jnsgd1na2vs0mg"},{"bike_id":"7c6d9800-27e8-47df-92b4-cde9f7ee2987","system_id":"levelo_inurba_marseille","lat":43.25089,"lon":5.39509,"is_reserved":false,"is_disabled":false,"rental_uris":{"android":"levelo://app?vid=7c6d9800-27e8-47df-92b4-cde9f7ee2987","ios":"levelo://app?vid=7c6d9800-27e8-47df-92b4-cde9f7ee2987"},"vehicle_type_id":"4","last_reported":1757942402,"current_range_meters":15200,"station_id":"ce4bhm12rcd13ifvqgkg","pricing_plan_id":"cebpf4jnsgd1na2vs0mg"},{"bike_id":"969c6344-5562-4253-8cf9-497bda6c9a36","system_id":"levelo_inurba_marseille","lat":43.29572,"lon":5.39962,"is_reserved":false,"is_disabled":false,"rental_uris":{"android":"levelo://app?vid=969c6344-5562-4253-8cf9-497bda6c9a36","ios":"levelo://app?vid=969c6344-5562-4253-8cf9-497bda6c9a36"},"vehicle_type_id":"4","last_reported":1757942402,"current_range_meters":15200,"station_id":"ce4bh312rcd13ifvqdj0","pricing_plan_id":"cebpf4jnsgd1na2vs0mg"},{"bike_id":"ea4693de-86b3-41b2-926a-c1ac20480be1","system_id":"levelo_inurba_marseille","lat":43.31348,"lon":5.36679,"is_reserved":false,"is_disabled":false,"rental_uris":{"android":"levelo://app?vid=ea4693de-86b3-41b2-926a-c1ac20480be1","ios":"levelo://app?vid=ea4693de-86b3-41b2-926a-c1ac20480be1"},"vehicle_type_id":"4","last_reported":1757942402,"current_range_meters":15200,"station_id":"ce4bgr92rcd13ifvqc6g","pricing_plan_id":"cebpf4jnsgd1na2vs0mg"},{"bike_id":"c07e7a2d-d8a6-4efd-8723-e965be4d1a74","system_id":"levelo_inurba_marseille","lat":43.21752,"lon":5.34613,"is_reserved":false,"is_disabled":false,"rental_uris":{"android":"levelo://app?vid=c07e7a2d-d8a6-4efd-8723-e965be4d1a74","ios":"levelo://app?vid=c07e7a2d-d8a6-4efd-8723-e965be4d1a74"},"vehicle_type_id":"4","last_reported":1757942402,"current_range_meters":15200,"station_id":"","pricing_plan_id":"cebpf4jnsgd1na2vs0mg"},{"bike_id":"428910aa-8429-4f4f-a442-e6b1962e86a6","system_id":"levelo_inurba_marseille","lat":43.28269,"lon":5.35074,"is_reserved":false,"is_disabled":false,"rental_uris":{"android":"levelo://app?vid=428910aa-8429-4f4f-a442-e6b1962e86a6","ios":"levelo://app?vid=428910aa-8429-4f4f-a442-e6b1962e86a6"},"vehicle_type_id":"4","last_reported":1757942402,"current_range_meters":16000,"station_id":"ce4bhbp2rcd13ifvqerg","pricing_plan_id":"cebpf4jnsgd1na2vs0mg"},{"bike_id":"288b59e3-f2fc-417a-bba7-4d58c7938b2c","system_id":"levelo_inurba_marseille","lat":43.299683,"lon":5.384884,"is_reserved":false,"is_disabled":false,"rental_uris":{"android":"levelo://app?vid=288b59e3-f2fc-417a-bba7-4d58c7938b2c","ios":"levelo://app?vid=288b59e3-f2fc-417a-bba7-4d58c7938b2c"},"vehicle_type_id":"4","last_reported":1757942402,"current_range_meters":16000,"station_id":"ce4bgj92rcd13ifvqbd0","pricing_plan_id":"cebpf4jnsgd1na2vs0mg"},{"bike_id":"7ecb3b74-cd48-439e-9829-a8ee5b1bb1c1","system_id":"levelo_inurba_marseille","lat":43.29008,"lon":5.35616,"is_reserved":false,"is_disabled":false,"rental_uris":{"android":"levelo://app?vid=7ecb3b74-cd48-439e-9829-a8ee5b1bb1c1","ios":"levelo://app?vid=7ecb3b74-cd48-439e-9829-a8ee5b1bb1c1"},"vehicle_type_id":"4","last_reported":1757942402,"current_range_meters":16000,"station_id":"ce4bhb92rcd13ifvqen0","pricing_plan_id":"cebpf4jnsgd1na2vs0mg"},{"bike_id":"00753446-6c6f-43f8-9dc0-3a2a32cc870b","system_id":"levelo_inurba_marseille","lat":43.27999,"lon":5.41649,"is_reserved":false,"is_disabled":false,"rental_uris":{"android":"levelo://app?vid=00753446-6c6f-43f8-9dc0-3a2a32cc870b","ios":"levelo://app?vid=00753446-6c6f-43f8-9dc0-3a2a32cc870b"},"vehicle_type_id":"4","last_reported":1757942402,"current_range_meters":16000,"station_id":"ce4bho12rcd13ifvqh1g","pricing_plan_id":"cebpf4jnsgd1na2vs0mg"},{"bike_id":"78cd6473-15e0-4aaf-bef3-08e1fb3ff7de","system_id":"levelo_inurba_marseille","lat":43.30929,"lon":5.40144,"is_reserved":false,"is_disabled":false,"rental_uris":{"android":"levelo://app?vid=78cd6473-15e0-4aaf-bef3-08e1fb3ff7de","ios":"levelo://app?vid=78cd6473-15e0-4aaf-bef3-08e1fb3ff7de"},"vehicle_type_id":"4","last_reported":1757942402,"current_range_meters":16000,"station_id":"ce4bgvp2rcd13ifvqct0","pricing_plan_id":"cebpf4jnsgd1na2vs0mg"},{"bike_id":"7f6bbc40-be55-44e2-bc07-15054787079b","system_id":"levelo_inurba_marseille","lat":43.27497,"lon":5.42453,"is_reserved":false,"is_disabled":false,"rental_uris":{"android":"levelo://app?vid=7f6bbc40-be55-44e2-bc07-15054787079b","ios":"levelo://app?vid=7f6bbc40-be55-44e2-bc07-15054787079b"},"vehicle_type_id":"4","last_reported":1757942402,"current_range_meters":16000,"station_id":"ce4bhn92rcd13ifvqgrg","pricing_plan_id":"cebpf4jnsgd1na2vs0mg"},{"bike_id":"8ef8bf7d-8a91-4724-8c2e-ddeef723e28a","system_id":"levelo_inurba_marseille","lat":43.27031,"lon":5.37899,"is_reserved":false,"is_disabled":false,"rental_uris":{"android":"levelo://app?vid=8ef8bf7d-8a91-4724-8c2e-ddeef723e28a","ios":"levelo://app?vid=8ef8bf7d-8a91-4724-8c2e-ddeef723e28a"},"vehicle_type_id":"4","last_reported":1757942402,"current_range_meters":16000,"station_id":"","pricing_plan_id":"cebpf4jnsgd1na2vs0mg"},{"bike_id":"a333d9ec-a9a7-4617-ac2f-4224c0d88af6","system_id":"levelo_inurba_marseille","lat":43.27496,"lon":5.42459,"is_reserved":false,"is_disabled":false,"rental_uris":{"android":"levelo://app?vid=a333d9ec-a9a7-4617-ac2f-4224c0d88af6","ios":"levelo://app?vid=a333d9ec-a9a7-4617-ac2f-4224c0d88af6"},"vehicle_type_id":"4","last_reported":1757942402,"current_range_meters":16000,"station_id":"ce4bhn92rcd13ifvqgrg","pricing_plan_id":"cebpf4jnsgd1na2vs0mg"},{"bike_id":"8d428476-019f-44c0-8478-70de72b747fd","system_id":"levelo_inurba_marseille","lat":43.25604,"lon":5.38206,"is_reserved":false,"is_disabled":false,"rental_uris":{"android":"levelo://app?vid=8d428476-019f-44c0-8478-70de72b747fd","ios":"levelo://app?vid=8d428476-019f-44c0-8478-70de72b747fd"},"vehicle_type_id":"4","last_reported":1757942402,"current_range_meters":16000,"station_id":"ce4bhih2rcd13ifvqfs0","pricing_plan_id":"cebpf4jnsgd1na2vs0mg"},{"bike_id":"bcbe7a5e-7784-4d13-96dc-77fd6597b4e4","system_id":"levelo_inurba_marseille","lat":43.21214,"lon":5.35061,"is_reserved":false,"is_disabled":true,"rental_uris":{"android":"levelo://app?vid=bcbe7a5e-7784-4d13-96dc-77fd6597b4e4","ios":"levelo://app?vid=bcbe7a5e-7784-4d13-96dc-77fd6597b4e4"},"vehicle_type_id":"4","last_reported":1757942402,"current_range_meters":16000,"station_id":"st_cvj6sg6p6f1abm77japg","pricing_plan_id":"cebpf4jnsgd1na2vs0mg"},{"bike_id":"1f2466bd-1862-472d-b33d-2462c5e8e5fc","system_id":"levelo_inurba_marseille","lat":43.299529,"lon":5.384996,"is_reserved":false,"is_disabled":false,"rental_uris":{"android":"levelo://app?vid=1f2466bd-1862-472d-b33d-2462c5e8e5fc","ios":"levelo://app?vid=1f2466bd-1862-472d-b33d-2462c5e8e5fc"},"vehicle_type_id":"4","last_reported":1757942402,"current_range_meters":16000,"station_id":"ce4bgj92rcd13ifvqbd0","pricing_plan_id":"cebpf4jnsgd1na2vs0mg"},{"bike_id":"c8cf71ab-2cba-487d-b0aa-fba68c18bfaa","system_id":"levelo_inurba_marseille","lat":43.27491,"lon":5.42449,"is_reserved":false,"is_disabled":false,"rental_uris":{"android":"levelo://app?vid=c8cf71ab-2cba-487d-b0aa-fba68c18bfaa","ios":"levelo://app?vid=c8cf71ab-2cba-487d-b0aa-fba68c18bfaa"},"vehicle_type_id":"4","last_reported":1757942402,"current_range_meters":16400,"station_id":"ce4bhn92rcd13ifvqgrg","pricing_plan_id":"cebpf4jnsgd1na2vs0mg"},{"bike_id":"45aa68e9-5349-4f76-813c-12a255b8e182","system_id":"levelo_inurba_marseille","lat":43.30543,"lon":5.36556,"is_reserved":false,"is_disabled":false,"rental_uris":{"android":"levelo://app?vid=45aa68e9-5349-4f76-813c-12a255b8e182","ios":"levelo://app?vid=45aa68e9-5349-4f76-813c-12a255b8e182"},"vehicle_type_id":"4","last_reported":1757942402,"current_range_meters":16400,"station_id":"ce4bgs12rcd13ifvqcag","pricing_plan_id":"cebpf4jnsgd1na2vs0mg"},{"bike_id":"4cb8a1b3-dbd1-4f4e-9044-cf9d5c5be89a","system_id":"levelo_inurba_marseille","lat":43.28617,"lon":5.35108,"is_reserved":false,"is_disabled":false,"rental_uris":{"android":"levelo://app?vid=4cb8a1b3-dbd1-4f4e-9044-cf9d5c5be89a","ios":"levelo://app?vid=4cb8a1b3-dbd1-4f4e-9044-cf9d5c5be89a"},"vehicle_type_id":"4","last_reported":1757942402,"current_range_meters":16400,"station_id":"ce4bhch2rcd13ifvqeug","pricing_plan_id":"cebpf4jnsgd1na2vs0mg"},{"bike_id":"13a349dd-bc28-4e1d-b513-b22a61d84b91","system_id":"levelo_inurba_marseille","lat":43.21765,"lon":5.34597,"is_reserved":false,"is_disabled":false,"rental_uris":{"android":"levelo://app?vid=13a349dd-bc28-4e1d-b513-b22a61d84b91","ios":"levelo://app?vid=13a349dd-bc28-4e1d-b513-b22a61d84b91"},"vehicle_type_id":"4","last_reported":1757942402,"current_range_meters":16400,"station_id":"st_cvj6r9ubvosntc0bgbag","pricing_plan_id":"cebpf4jnsgd1na2vs0mg"},{"bike_id":"4cdeab6f-cf5a-457f-b306-53133de37607","system_id":"levelo_inurba_marseille","lat":43.29519,"lon":5.39051,"is_reserved":false,"is_disabled":false,"rental_uris":{"android":"levelo://app?vid=4cdeab6f-cf5a-457f-b306-53133de37607","ios":"levelo://app?vid=4cdeab6f-cf5a-457f-b306-53133de37607"},"vehicle_type_id":"4","last_reported":1757942402,"current_range_meters":16800,"station_id":"ce4bh3p2rcd13ifvqdp0","pricing_plan_id":"cebpf4jnsgd1na2vs0mg"},{"bike_id":"4d0da910-152b-448e-9786-b400d7fabfca","system_id":"levelo_inurba_marseille","lat":43.29206,"lon":5.36065,"is_reserved":false,"is_disabled":false,"rental_uris":{"android":"levelo://app?vid=4d0da910-152b-448e-9786-b400d7fabfca","ios":"levelo://app?vid=4d0da910-152b-448e-9786-b400d7fabfca"},"vehicle_type_id":"4","last_reported":1757942402,"current_range_meters":16400,"station_id":"ce4bhbh2rcd13ifvqeqg","pricing_plan_id":"cebpf4jnsgd1na2vs0mg"},{"bike_id":"3dbaea07-3afd-403d-8367-7bfa92596a01","system_id":"levelo_inurba_marseille","lat":43.21755,"lon":5.34605,"is_reserved":false,"is_disabled":false,"rental_uris":{"android":"levelo://app?vid=3dbaea07-3afd-403d-8367-7bfa92596a01","ios":"levelo://app?vid=3dbaea07-3afd-403d-8367-7bfa92596a01"},"vehicle_type_id":"4","last_reported":1757942402,"current_range_meters":16400,"station_id":"st_cvj6r9ubvosntc0bgbag","pricing_plan_id":"cebpf4jnsgd1na2vs0mg"},{"bike_id":"415844cb-3c23-42bc-87b2-fc39fa3d65bb","system_id":"levelo_inurba_marseille","lat":43.21195,"lon":5.35075,"is_reserved":false,"is_disabled":false,"rental_uris":{"android":"levelo://app?vid=415844cb-3c23-42bc-87b2-fc39fa3d65bb","ios":"levelo://app?vid=415844cb-3c23-42bc-87b2-fc39fa3d65bb"},"vehicle_type_id":"4","last_reported":1757942402,"current_range_meters":16400,"station_id":"st_cvj6sg6p6f1abm77japg","pricing_plan_id":"cebpf4jnsgd1na2vs0mg"},{"bike_id":"5d5b51f8-15be-4825-804c-c2485c6a00ac","system_id":"levelo_inurba_marseille","lat":43.259401,"lon":5.408878,"is_reserved":false,"is_disabled":false,"rental_uris":{"android":"levelo://app?vid=5d5b51f8-15be-4825-804c-c2485c6a00ac","ios":"levelo://app?vid=5d5b51f8-15be-4825-804c-c2485c6a00ac"},"vehicle_type_id":"4","last_reported":1757942402,"current_range_meters":16800,"station_id":"ce4bhm92rcd13ifvqglg","pricing_plan_id":"cebpf4jnsgd1na2vs0mg"},{"bike_id":"b575a595-f932-4230-9ca7-6937f4a43d90","system_id":"levelo_inurba_marseille","lat":43.21744,"lon":5.34598,"is_reserved":false,"is_disabled":false,"rental_uris":{"android":"levelo://app?vid=b575a595-f932-4230-9ca7-6937f4a43d90","ios":"levelo://app?vid=b575a595-f932-4230-9ca7-6937f4a43d90"},"vehicle_type_id":"4","last_reported":1757942402,"current_range_meters":16800,"station_id":"st_cvj6r9ubvosntc0bgbag","pricing_plan_id":"cebpf4jnsgd1na2vs0mg"},{"bike_id":"1dc49266-a82c-4bf1-a6ca-13044a197eb5","system_id":"levelo_inurba_marseille","lat":43.28499,"lon":5.3855,"is_reserved":false,"is_disabled":false,"rental_uris":{"android":"levelo://app?vid=1dc49266-a82c-4bf1-a6ca-13044a197eb5","ios":"levelo://app?vid=1dc49266-a82c-4bf1-a6ca-13044a197eb5"},"vehicle_type_id":"4","last_reported":1757942402,"current_range_meters":16800,"station_id":"ce4bh8p2rcd13ifvqeb0","pricing_plan_id":"cebpf4jnsgd1na2vs0mg"},{"bike_id":"8d613b22-7965-4dc4-91f5-0ad0c5e455d9","system_id":"levelo_inurba_marseille","lat":43.2988,"lon":5.38914,"is_reserved":false,"is_disabled":false,"rental_uris":{"android":"levelo://app?vid=8d613b22-7965-4dc4-91f5-0ad0c5e455d9","ios":"levelo://app?vid=8d613b22-7965-4dc4-91f5-0ad0c5e455d9"},"vehicle_type_id":"4","last_reported":1757942402,"current_range_meters":16800,"station_id":"ce4bh392rcd13ifvqdl0","pricing_plan_id":"cebpf4jnsgd1na2vs0mg"},{"bike_id":"031067d3-35da-460c-90f2-493dba46d293","system_id":"levelo_inurba_marseille","lat":43.282618,"lon":5.350536,"is_reserved":false,"is_disabled":false,"rental_uris":{"android":"levelo://app?vid=031067d3-35da-460c-90f2-493dba46d293","ios":"levelo://app?vid=031067d3-35da-460c-90f2-493dba46d293"},"vehicle_type_id":"4","last_reported":1757942402,"current_range_meters":16800,"station_id":"ce4bhbp2rcd13ifvqerg","pricing_plan_id":"cebpf4jnsgd1na2vs0mg"},{"bike_id":"3b00473d-3d18-4529-b64e-5f55f88e43e3","system_id":"levelo_inurba_marseille","lat":43.28421,"lon":5.34977,"is_reserved":false,"is_disabled":false,"rental_uris":{"android":"levelo://app?vid=3b00473d-3d18-4529-b64e-5f55f88e43e3","ios":"levelo://app?vid=3b00473d-3d18-4529-b64e-5f55f88e43e3"},"vehicle_type_id":"4","last_reported":1757942402,"current_range_meters":16800,"station_id":"ce4bhbh2rcd13ifvqepg","pricing_plan_id":"cebpf4jnsgd1na2vs0mg"},{"bike_id":"0665a94b-b79e-4f7a-9d6b-725bc773208c","system_id":"levelo_inurba_marseille","lat":43.275053,"lon":5.424582,"is_reserved":false,"is_disabled":false,"rental_uris":{"android":"levelo://app?vid=0665a94b-b79e-4f7a-9d6b-725bc773208c","ios":"levelo://app?vid=0665a94b-b79e-4f7a-9d6b-725bc773208c"},"vehicle_type_id":"4","last_reported":1757942402,"current_range_meters":16800,"station_id":"ce4bhn92rcd13ifvqgrg","pricing_plan_id":"cebpf4jnsgd1na2vs0mg"},{"bike_id":"94bc4c11-ba02-4f02-822a-62cd5e5a7512","system_id":"levelo_inurba_marseille","lat":43.27266,"lon":5.39107,"is_reserved":false,"is_disabled":false,"rental_uris":{"android":"levelo://app?vid=94bc4c11-ba02-4f02-822a-62cd5e5a7512","ios":"levelo://app?vid=94bc4c11-ba02-4f02-822a-62cd5e5a7512"},"vehicle_type_id":"4","last_reported":1757942402,"current_range_meters":17200,"station_id":"","pricing_plan_id":"cebpf4jnsgd1na2vs0mg"},{"bike_id":"a73fb388-b834-4afc-b9c9-f1c01a61d03e","system_id":"levelo_inurba_marseille","lat":43.29606,"lon":5.37723,"is_reserved":false,"is_disabled":false,"rental_uris":{"android":"levelo://app?vid=a73fb388-b834-4afc-b9c9-f1c01a61d03e","ios":"levelo://app?vid=a73fb388-b834-4afc-b9c9-f1c01a61d03e"},"vehicle_type_id":"4","last_reported":1757942402,"current_range_meters":17200,"station_id":"ce4bgi92rcd13ifvqb90","pricing_plan_id":"cebpf4jnsgd1na2vs0mg"},{"bike_id":"6aba9023-c340-4f87-b04f-b0eac7fe4dba","system_id":"levelo_inurba_marseille","lat":43.26768,"lon":5.39462,"is_reserved":false,"is_disabled":false,"rental_uris":{"android":"levelo://app?vid=6aba9023-c340-4f87-b04f-b0eac7fe4dba","ios":"levelo://app?vid=6aba9023-c340-4f87-b04f-b0eac7fe4dba"},"vehicle_type_id":"4","last_reported":1757942402,"current_range_meters":17200,"station_id":"","pricing_plan_id":"cebpf4jnsgd1na2vs0mg"},{"bike_id":"2f6bd3df-cde2-4644-860c-699c6c0d0281","system_id":"levelo_inurba_marseille","lat":43.30941,"lon":5.40159,"is_reserved":false,"is_disabled":false,"rental_uris":{"android":"levelo://app?vid=2f6bd3df-cde2-4644-860c-699c6c0d0281","ios":"levelo://app?vid=2f6bd3df-cde2-4644-860c-699c6c0d0281"},"vehicle_type_id":"4","last_reported":1757942402,"current_range_meters":17200,"station_id":"ce4bgvp2rcd13ifvqct0","pricing_plan_id":"cebpf4jnsgd1na2vs0mg"},{"bike_id":"d65f75b9-094f-49f5-bcd2-6e6f6ec47582","system_id":"levelo_inurba_marseille","lat":43.29964,"lon":5.384932,"is_reserved":false,"is_disabled":false,"rental_uris":{"android":"levelo://app?vid=d65f75b9-094f-49f5-bcd2-6e6f6ec47582","ios":"levelo://app?vid=d65f75b9-094f-49f5-bcd2-6e6f6ec47582"},"vehicle_type_id":"4","last_reported":1757942402,"current_range_meters":17200,"station_id":"ce4bgj92rcd13ifvqbd0","pricing_plan_id":"cebpf4jnsgd1na2vs0mg"},{"bike_id":"c4051c11-1f83-4e1f-a87e-359e06917b23","system_id":"levelo_inurba_marseille","lat":43.24653,"lon":5.38896,"is_reserved":false,"is_disabled":false,"rental_uris":{"android":"levelo://app?vid=c4051c11-1f83-4e1f-a87e-359e06917b23","ios":"levelo://app?vid=c4051c11-1f83-4e1f-a87e-359e06917b23"},"vehicle_type_id":"4","last_reported":1757942402,"current_range_meters":17200,"station_id":"ce4bhg12rcd13ifvqf60","pricing_plan_id":"cebpf4jnsgd1na2vs0mg"},{"bike_id":"2086b182-2329-435c-9292-1474db2324e2","system_id":"levelo_inurba_marseille","lat":43.29282,"lon":5.36849,"is_reserved":false,"is_disabled":false,"rental_uris":{"android":"levelo://app?vid=2086b182-2329-435c-9292-1474db2324e2","ios":"levelo://app?vid=2086b182-2329-435c-9292-1474db2324e2"},"vehicle_type_id":"4","last_reported":1757942402,"current_range_meters":17600,"station_id":"ce4bhbp2rcd13ifvqesg","pricing_plan_id":"cebpf4jnsgd1na2vs0mg"},{"bike_id":"140de48f-be2c-4740-a4ce-ed7444aba6d4","system_id":"levelo_inurba_marseille","lat":43.27938,"lon":5.41047,"is_reserved":false,"is_disabled":false,"rental_uris":{"android":"levelo://app?vid=140de48f-be2c-4740-a4ce-ed7444aba6d4","ios":"levelo://app?vid=140de48f-be2c-4740-a4ce-ed7444aba6d4"},"vehicle_type_id":"4","last_reported":1757942402,"current_range_meters":17600,"station_id":"ce4bhnp2rcd13ifvqh0g","pricing_plan_id":"cebpf4jnsgd1na2vs0mg"},{"bike_id":"4fc7eb91-f005-431e-879a-e66d4e99f988","system_id":"levelo_inurba_marseille","lat":43.27564,"lon":5.38417,"is_reserved":false,"is_disabled":false,"rental_uris":{"android":"levelo://app?vid=4fc7eb91-f005-431e-879a-e66d4e99f988","ios":"levelo://app?vid=4fc7eb91-f005-431e-879a-e66d4e99f988"},"vehicle_type_id":"4","last_reported":1757942402,"current_range_meters":17200,"station_id":"ce4bhh92rcd13ifvqfi0","pricing_plan_id":"cebpf4jnsgd1na2vs0mg"},{"bike_id":"1674baec-ba72-4f4c-b0a9-4abcb37d6a3d","system_id":"levelo_inurba_marseille","lat":43.28105,"lon":5.37844,"is_reserved":false,"is_disabled":false,"rental_uris":{"android":"levelo://app?vid=1674baec-ba72-4f4c-b0a9-4abcb37d6a3d","ios":"levelo://app?vid=1674baec-ba72-4f4c-b0a9-4abcb37d6a3d"},"vehicle_type_id":"4","last_reported":1757942402,"current_range_meters":17200,"station_id":"ce4bha12rcd13ifvqee0","pricing_plan_id":"cebpf4jnsgd1na2vs0mg"},{"bike_id":"2657ef55-7954-46db-820b-bf83aad3f9ee","system_id":"levelo_inurba_marseille","lat":43.28705,"lon":5.37395,"is_reserved":false,"is_disabled":false,"rental_uris":{"android":"levelo://app?vid=2657ef55-7954-46db-820b-bf83aad3f9ee","ios":"levelo://app?vid=2657ef55-7954-46db-820b-bf83aad3f9ee"},"vehicle_type_id":"4","last_reported":1757942402,"current_range_meters":17600,"station_id":"ce4bh3p2rcd13ifvqdq0","pricing_plan_id":"cebpf4jnsgd1na2vs0mg"},{"bike_id":"0c451dfc-35a5-482d-9ac6-fa3d922a2820","system_id":"levelo_inurba_marseille","lat":43.26937,"lon":5.38664,"is_reserved":false,"is_disabled":false,"rental_uris":{"android":"levelo://app?vid=0c451dfc-35a5-482d-9ac6-fa3d922a2820","ios":"levelo://app?vid=0c451dfc-35a5-482d-9ac6-fa3d922a2820"},"vehicle_type_id":"4","last_reported":1757942402,"current_range_meters":17600,"station_id":"ce4bhh92rcd13ifvqfh0","pricing_plan_id":"cebpf4jnsgd1na2vs0mg"},{"bike_id":"78c4d63e-ddd9-4dbd-9a54-6d3e729398f2","system_id":"levelo_inurba_marseille","lat":43.31345,"lon":5.36737,"is_reserved":false,"is_disabled":false,"rental_uris":{"android":"levelo://app?vid=78c4d63e-ddd9-4dbd-9a54-6d3e729398f2","ios":"levelo://app?vid=78c4d63e-ddd9-4dbd-9a54-6d3e729398f2"},"vehicle_type_id":"4","last_reported":1757942402,"current_range_meters":17600,"station_id":"ce4bgr92rcd13ifvqc6g","pricing_plan_id":"cebpf4jnsgd1na2vs0mg"},{"bike_id":"e73470b2-f46f-4f87-989f-53f8372e4317","system_id":"levelo_inurba_marseille","lat":43.339035,"lon":5.391572,"is_reserved":false,"is_disabled":false,"rental_uris":{"android":"levelo://app?vid=e73470b2-f46f-4f87-989f-53f8372e4317","ios":"levelo://app?vid=e73470b2-f46f-4f87-989f-53f8372e4317"},"vehicle_type_id":"4","last_reported":1757942402,"current_range_meters":17600,"station_id":"","pricing_plan_id":"cebpf4jnsgd1na2vs0mg"},{"bike_id":"b7d210d5-3161-4ab9-9bb1-d84a72ad0b98","system_id":"levelo_inurba_marseille","lat":43.28135,"lon":5.37878,"is_reserved":false,"is_disabled":false,"rental_uris":{"android":"levelo://app?vid=b7d210d5-3161-4ab9-9bb1-d84a72ad0b98","ios":"levelo://app?vid=b7d210d5-3161-4ab9-9bb1-d84a72ad0b98"},"vehicle_type_id":"4","last_reported":1757942402,"current_range_meters":17600,"station_id":"","pricing_plan_id":"cebpf4jnsgd1na2vs0mg"},{"bike_id":"d06d078b-9778-4fb3-a0a3-697b3db6db6c","system_id":"levelo_inurba_marseille","lat":43.229242,"lon":5.35388,"is_reserved":false,"is_disabled":false,"rental_uris":{"android":"levelo://app?vid=d06d078b-9778-4fb3-a0a3-697b3db6db6c","ios":"levelo://app?vid=d06d078b-9778-4fb3-a0a3-697b3db6db6c"},"vehicle_type_id":"4","last_reported":1757942402,"current_range_meters":18000,"station_id":"cpo3532slgdg3j2ikp40","pricing_plan_id":"cebpf4jnsgd1na2vs0mg"},{"bike_id":"2c732d0a-1304-421a-8801-9da8db04b4f0","system_id":"levelo_inurba_marseille","lat":43.29005,"lon":5.35617,"is_reserved":false,"is_disabled":true,"rental_uris":{"android":"levelo://app?vid=2c732d0a-1304-421a-8801-9da8db04b4f0","ios":"levelo://app?vid=2c732d0a-1304-421a-8801-9da8db04b4f0"},"vehicle_type_id":"4","last_reported":1757942402,"current_range_meters":18000,"station_id":"ce4bhb92rcd13ifvqen0","pricing_plan_id":"cebpf4jnsgd1na2vs0mg"},{"bike_id":"b2d3db12-d005-404f-a9f1-c61a32301ddc","system_id":"levelo_inurba_marseille","lat":43.29686,"lon":5.37704,"is_reserved":false,"is_disabled":false,"rental_uris":{"android":"levelo://app?vid=b2d3db12-d005-404f-a9f1-c61a32301ddc","ios":"levelo://app?vid=b2d3db12-d005-404f-a9f1-c61a32301ddc"},"vehicle_type_id":"4","last_reported":1757942402,"current_range_meters":18000,"station_id":"ce4bgkh2rcd13ifvqbl0","pricing_plan_id":"cebpf4jnsgd1na2vs0mg"},{"bike_id":"4fd1c216-e4cd-40d4-bac5-bd7a225b3c2e","system_id":"levelo_inurba_marseille","lat":43.29098,"lon":5.38334,"is_reserved":false,"is_disabled":false,"rental_uris":{"android":"levelo://app?vid=4fd1c216-e4cd-40d4-bac5-bd7a225b3c2e","ios":"levelo://app?vid=4fd1c216-e4cd-40d4-bac5-bd7a225b3c2e"},"vehicle_type_id":"4","last_reported":1757942402,"current_range_meters":18000,"station_id":"","pricing_plan_id":"cebpf4jnsgd1na2vs0mg"},{"bike_id":"a2207526-f478-4f65-85e4-9a97cdcd57f3","system_id":"levelo_inurba_marseille","lat":43.27552,"lon":5.42418,"is_reserved":false,"is_disabled":false,"rental_uris":{"android":"levelo://app?vid=a2207526-f478-4f65-85e4-9a97cdcd57f3","ios":"levelo://app?vid=a2207526-f478-4f65-85e4-9a97cdcd57f3"},"vehicle_type_id":"4","last_reported":1757942402,"current_range_meters":18000,"station_id":"","pricing_plan_id":"cebpf4jnsgd1na2vs0mg"},{"bike_id":"7a9ee153-8e56-475d-8c58-ee985489dfe5","system_id":"levelo_inurba_marseille","lat":43.2841,"lon":5.34982,"is_reserved":false,"is_disabled":false,"rental_uris":{"android":"levelo://app?vid=7a9ee153-8e56-475d-8c58-ee985489dfe5","ios":"levelo://app?vid=7a9ee153-8e56-475d-8c58-ee985489dfe5"},"vehicle_type_id":"4","last_reported":1757942402,"current_range_meters":18000,"station_id":"ce4bhbh2rcd13ifvqepg","pricing_plan_id":"cebpf4jnsgd1na2vs0mg"},{"bike_id":"7dc89c00-bbe9-44a4-85f5-5c4da73aea2d","system_id":"levelo_inurba_marseille","lat":43.21768,"lon":5.3458,"is_reserved":false,"is_disabled":false,"rental_uris":{"android":"levelo://app?vid=7dc89c00-bbe9-44a4-85f5-5c4da73aea2d","ios":"levelo://app?vid=7dc89c00-bbe9-44a4-85f5-5c4da73aea2d"},"vehicle_type_id":"4","last_reported":1757942402,"current_range_meters":18000,"station_id":"st_cvj6r9ubvosntc0bgbag","pricing_plan_id":"cebpf4jnsgd1na2vs0mg"},{"bike_id":"9f03ecca-31f7-4479-af01-adbb1998d3e9","system_id":"levelo_inurba_marseille","lat":43.23174,"lon":5.43703,"is_reserved":false,"is_disabled":false,"rental_uris":{"android":"levelo://app?vid=9f03ecca-31f7-4479-af01-adbb1998d3e9","ios":"levelo://app?vid=9f03ecca-31f7-4479-af01-adbb1998d3e9"},"vehicle_type_id":"4","last_reported":1757942402,"current_range_meters":18000,"station_id":"ce4bhmp2rcd13ifvqgog","pricing_plan_id":"cebpf4jnsgd1na2vs0mg"},{"bike_id":"96ee9b57-cff5-4252-a08f-6a37cf344cd3","system_id":"levelo_inurba_marseille","lat":43.27066,"lon":5.42288,"is_reserved":false,"is_disabled":false,"rental_uris":{"android":"levelo://app?vid=96ee9b57-cff5-4252-a08f-6a37cf344cd3","ios":"levelo://app?vid=96ee9b57-cff5-4252-a08f-6a37cf344cd3"},"vehicle_type_id":"4","last_reported":1757942402,"current_range_meters":18000,"station_id":"ce4bhk92rcd13ifvqgb0","pricing_plan_id":"cebpf4jnsgd1na2vs0mg"},{"bike_id":"7401f904-c7a5-4420-9a38-b32c76084c39","system_id":"levelo_inurba_marseille","lat":43.28275,"lon":5.35065,"is_reserved":false,"is_disabled":true,"rental_uris":{"android":"levelo://app?vid=7401f904-c7a5-4420-9a38-b32c76084c39","ios":"levelo://app?vid=7401f904-c7a5-4420-9a38-b32c76084c39"},"vehicle_type_id":"4","last_reported":1757942402,"current_range_meters":18000,"station_id":"ce4bhbp2rcd13ifvqerg","pricing_plan_id":"cebpf4jnsgd1na2vs0mg"},{"bike_id":"976a0d28-cac1-409e-9c54-686e01b7c2eb","system_id":"levelo_inurba_marseille","lat":43.22578,"lon":5.41637,"is_reserved":false,"is_disabled":false,"rental_uris":{"android":"levelo://app?vid=976a0d28-cac1-409e-9c54-686e01b7c2eb","ios":"levelo://app?vid=976a0d28-cac1-409e-9c54-686e01b7c2eb"},"vehicle_type_id":"4","last_reported":1757942402,"current_range_meters":18000,"station_id":"st_d2o4gvlbi1j2169b742g","pricing_plan_id":"cebpf4jnsgd1na2vs0mg"},{"bike_id":"3b26aa0d-3679-4b4c-9b55-1096f6d08a9d","system_id":"levelo_inurba_marseille","lat":43.313031,"lon":5.393831,"is_reserved":false,"is_disabled":false,"rental_uris":{"android":"levelo://app?vid=3b26aa0d-3679-4b4c-9b55-1096f6d08a9d","ios":"levelo://app?vid=3b26aa0d-3679-4b4c-9b55-1096f6d08a9d"},"vehicle_type_id":"4","last_reported":1757942402,"current_range_meters":18000,"station_id":"","pricing_plan_id":"cebpf4jnsgd1na2vs0mg"},{"bike_id":"fb2ae43e-4d62-4192-9f81-5c2347cf1f6a","system_id":"levelo_inurba_marseille","lat":43.25585,"lon":5.38267,"is_reserved":false,"is_disabled":false,"rental_uris":{"android":"levelo://app?vid=fb2ae43e-4d62-4192-9f81-5c2347cf1f6a","ios":"levelo://app?vid=fb2ae43e-4d62-4192-9f81-5c2347cf1f6a"},"vehicle_type_id":"4","last_reported":1757942402,"current_range_meters":18000,"station_id":"ce4bhih2rcd13ifvqfs0","pricing_plan_id":"cebpf4jnsgd1na2vs0mg"},{"bike_id":"769f5263-3012-4ef1-ac63-60c854dda2db","system_id":"levelo_inurba_marseille","lat":43.27496,"lon":5.42448,"is_reserved":false,"is_disabled":false,"rental_uris":{"android":"levelo://app?vid=769f5263-3012-4ef1-ac63-60c854dda2db","ios":"levelo://app?vid=769f5263-3012-4ef1-ac63-60c854dda2db"},"vehicle_type_id":"4","last_reported":1757942402,"current_range_meters":18000,"station_id":"ce4bhn92rcd13ifvqgrg","pricing_plan_id":"cebpf4jnsgd1na2vs0mg"},{"bike_id":"ccf90f60-197b-478a-a817-7d0ea36793bf","system_id":"levelo_inurba_marseille","lat":43.27425,"lon":5.39422,"is_reserved":false,"is_disabled":false,"rental_uris":{"android":"levelo://app?vid=ccf90f60-197b-478a-a817-7d0ea36793bf","ios":"levelo://app?vid=ccf90f60-197b-478a-a817-7d0ea36793bf"},"vehicle_type_id":"4","last_reported":1757942402,"current_range_meters":18000,"station_id":"ce4bhdp2rcd13ifvqf20","pricing_plan_id":"cebpf4jnsgd1na2vs0mg"},{"bike_id":"921ff5bf-eb9d-4b59-9c86-c405e972b901","system_id":"levelo_inurba_marseille","lat":43.25959,"lon":5.40874,"is_reserved":false,"is_disabled":false,"rental_uris":{"android":"levelo://app?vid=921ff5bf-eb9d-4b59-9c86-c405e972b901","ios":"levelo://app?vid=921ff5bf-eb9d-4b59-9c86-c405e972b901"},"vehicle_type_id":"4","last_reported":1757942402,"current_range_meters":18000,"station_id":"ce4bhm92rcd13ifvqglg","pricing_plan_id":"cebpf4jnsgd1na2vs0mg"},{"bike_id":"0ec22504-4f53-4a7d-8664-2802d447c65f","system_id":"levelo_inurba_marseille","lat":43.21743,"lon":5.34596,"is_reserved":false,"is_disabled":false,"rental_uris":{"android":"levelo://app?vid=0ec22504-4f53-4a7d-8664-2802d447c65f","ios":"levelo://app?vid=0ec22504-4f53-4a7d-8664-2802d447c65f"},"vehicle_type_id":"4","last_reported":1757942402,"current_range_meters":18000,"station_id":"st_cvj6r9ubvosntc0bgbag","pricing_plan_id":"cebpf4jnsgd1na2vs0mg"},{"bike_id":"85bdc9f3-8c46-4082-8c42-39b542d7bf11","system_id":"levelo_inurba_marseille","lat":43.2842,"lon":5.37493,"is_reserved":false,"is_disabled":false,"rental_uris":{"android":"levelo://app?vid=85bdc9f3-8c46-4082-8c42-39b542d7bf11","ios":"levelo://app?vid=85bdc9f3-8c46-4082-8c42-39b542d7bf11"},"vehicle_type_id":"4","last_reported":1757942402,"current_range_meters":18000,"station_id":"ce4bh412rcd13ifvqds0","pricing_plan_id":"cebpf4jnsgd1na2vs0mg"},{"bike_id":"55bb4097-5945-43c3-9523-e1a26d231a0c","system_id":"levelo_inurba_marseille","lat":43.26177,"lon":5.37395,"is_reserved":false,"is_disabled":false,"rental_uris":{"android":"levelo://app?vid=55bb4097-5945-43c3-9523-e1a26d231a0c","ios":"levelo://app?vid=55bb4097-5945-43c3-9523-e1a26d231a0c"},"vehicle_type_id":"4","last_reported":1757942402,"current_range_meters":18800,"station_id":"ce4bhgp2rcd13ifvqfc0","pricing_plan_id":"cebpf4jnsgd1na2vs0mg"},{"bike_id":"eb7cc917-6832-4011-8ed0-0ea12e66e244","system_id":"levelo_inurba_marseille","lat":43.32479,"lon":5.36581,"is_reserved":false,"is_disabled":false,"rental_uris":{"android":"levelo://app?vid=eb7cc917-6832-4011-8ed0-0ea12e66e244","ios":"levelo://app?vid=eb7cc917-6832-4011-8ed0-0ea12e66e244"},"vehicle_type_id":"4","last_reported":1757942402,"current_range_meters":18800,"station_id":"ce4bhs12rcd13ifvqhvg","pricing_plan_id":"cebpf4jnsgd1na2vs0mg"},{"bike_id":"aa57e526-5f5c-4592-be59-9f1fb7af4549","system_id":"levelo_inurba_marseille","lat":43.32123,"lon":5.36775,"is_reserved":false,"is_disabled":false,"rental_uris":{"android":"levelo://app?vid=aa57e526-5f5c-4592-be59-9f1fb7af4549","ios":"levelo://app?vid=aa57e526-5f5c-4592-be59-9f1fb7af4549"},"vehicle_type_id":"4","last_reported":1757942402,"current_range_meters":18800,"station_id":"ce4bhrh2rcd13ifvqhug","pricing_plan_id":"cebpf4jnsgd1na2vs0mg"},{"bike_id":"9f377d41-bc1f-4b5e-97e1-05dbf85e36c9","system_id":"levelo_inurba_marseille","lat":43.29849,"lon":5.36276,"is_reserved":false,"is_disabled":false,"rental_uris":{"android":"levelo://app?vid=9f377d41-bc1f-4b5e-97e1-05dbf85e36c9","ios":"levelo://app?vid=9f377d41-bc1f-4b5e-97e1-05dbf85e36c9"},"vehicle_type_id":"4","last_reported":1757942402,"current_range_meters":18800,"station_id":"ce4bgpp2rcd13ifvqc3g","pricing_plan_id":"cebpf4jnsgd1na2vs0mg"},{"bike_id":"b1182963-b9c4-4fff-b950-e76aa9d44dff","system_id":"levelo_inurba_marseille","lat":43.25937,"lon":5.40903,"is_reserved":false,"is_disabled":false,"rental_uris":{"android":"levelo://app?vid=b1182963-b9c4-4fff-b950-e76aa9d44dff","ios":"levelo://app?vid=b1182963-b9c4-4fff-b950-e76aa9d44dff"},"vehicle_type_id":"4","last_reported":1757942402,"current_range_meters":18800,"station_id":"ce4bhm92rcd13ifvqglg","pricing_plan_id":"cebpf4jnsgd1na2vs0mg"},{"bike_id":"511f6c29-3390-4042-b48e-75a4d61a54e0","system_id":"levelo_inurba_marseille","lat":43.320286,"lon":5.367569,"is_reserved":false,"is_disabled":false,"rental_uris":{"android":"levelo://app?vid=511f6c29-3390-4042-b48e-75a4d61a54e0","ios":"levelo://app?vid=511f6c29-3390-4042-b48e-75a4d61a54e0"},"vehicle_type_id":"4","last_reported":1757942402,"current_range_meters":18800,"station_id":"","pricing_plan_id":"cebpf4jnsgd1na2vs0mg"},{"bike_id":"98082af4-c334-4810-94aa-8ca92b41a103","system_id":"levelo_inurba_marseille","lat":43.30529,"lon":5.36534,"is_reserved":false,"is_disabled":false,"rental_uris":{"android":"levelo://app?vid=98082af4-c334-4810-94aa-8ca92b41a103","ios":"levelo://app?vid=98082af4-c334-4810-94aa-8ca92b41a103"},"vehicle_type_id":"4","last_reported":1757942402,"current_range_meters":18800,"station_id":"ce4bgs12rcd13ifvqcag","pricing_plan_id":"cebpf4jnsgd1na2vs0mg"},