{"last_updated":1691348654,"ttl":30,"version":"2.2","data":{"bikes":[{"bike_id":"e5d5033d-a4b5-4236-b610-bd2262aabc85","system_id":"levelo_inurba_marseille","lat":43.31341,"lon":5.367098,"is_reserved":false,"is_disabled":false,"rental_uris":{"android":"levelo://app?vid=e5d5033d-a4b5-4236-b610-bd2262aabc85","ios":"levelo://app?vid=e5d5033d-a4b5-4236-b610-bd2262aabc85"},"vehicle_type_id":"4","last_reported":1691348654,"current_range_meters":22800,"station_id":"ce4bgr92rcd13ifvqc6g","pricing_plan_id":"free"},{"bike_id":"8ee750b7-bb17-42f8-8cd1-13fe11413758","system_id":"levelo_inurba_marseille","lat":43.31341,"lon":5.367098,"is_reserved":false,"is_disabled":false,"rental_uris":{"android":"levelo://app?vid=8ee750b7-bb17-42f8-8cd1-13fe11413758","ios":"levelo://app?vid=8ee750b7-bb17-42f8-8cd1-13fe11413758"},"vehicle_type_id":"4","last_reported":1691348654,"current_range_meters":27200,"station_id":"ce4bgr92rcd13ifvqc6g","pricing_plan_id":"free"},{"bike_id":"f2b1424f-3f15-4662-9a2f-2bee2c3499f6","system_id":"levelo_inurba_marseille","lat":43.313391,"lon":5.36706,"is_reserved":false,"is_disabled":false,"rental_uris":{"android":"levelo://app?vid=f2b1424f-3f15-4662-9a2f-2bee2c3499f6","ios":"levelo://app?vid=f2b1424f-3f15-4662-9a2f-2bee2c3499f6"},"vehicle_type_id":"4","last_reported":1691348654,"current_range_meters":28800,"station_id":"ce4bgr92rcd13ifvqc6g","pricing_plan_id":"free"},{"bike_id":"58734183-fbb9-4227-8fe3-e6c489de409f","system_id":"levelo_inurba_marseille","lat":43.31341,"lon":5.367098,"is_reserved":false,"is_disabled":false,"rental_uris":{"android":"levelo://app?vid=58734183-fbb9-4227-8fe3-e6c489de409f","ios":"levelo://app?vid=58734183-fbb9-4227-8fe3-e6c489de409f"},"vehicle_type_id":"4","last_reported":1691348654,"current_range_meters":31200,"station_id":"ce4bgr92rcd13ifvqc6g","pricing_plan_id":"free"},{"bike_id":"541950ff-1c90-4e88-bc5a-d090ca0b97fc","system_id":"levelo_inurba_marseille","lat":43.313391,"lon":5.36706,"is_reserved":false,"is_disabled":false,"rental_uris":{"android":"levelo://app?vid=541950ff-1c90-4e88-bc5a-d090ca0b97fc","ios":"levelo://app?vid=541950ff-1c90-4e88-bc5a-d090ca0b97fc"},"vehicle_type_id":"4","last_reported":1691348654,"current_range_meters":8400,"station_id":"ce4bgr92rcd13ifvqc6g","pricing_plan_id":"free"},{"bike_id":"d248b7df-946c-4e6a-af7e-0a3f02cb4872","system_id":"levelo_inurba_marseille","lat":43.31341,"lon":5.367098,"is_reserved":false,"is_disabled":false,"rental_uris":{"android":"levelo://app?vid=d248b7df-946c-4e6a-af7e-0a3f02cb4872","ios":"levelo://app?vid=d248b7df-946c-4e6a-af7e-0a3f02cb4872"},"vehicle_type_id":"4","last_reported":1691348654,"current_range_meters":31200,"station_id":"ce4bgr92rcd13ifvqc6g","pricing_plan_id":"free"},{"bike_id":"7f85eaf3-0ebc-4171-b1f6-1c306e23633e","system_id":"levelo_inurba_marseille","lat":43.31341,"lon":5.367098,"is_reserved":false,"is_disabled":false,"rental_uris":{"android":"levelo://app?vid=7f85eaf3-0ebc-4171-b1f6-1c306e23633e","ios":"levelo://app?vid=7f85eaf3-0ebc-4171-b1f6-1c306e23633e"},"vehicle_type_id":"4","last_reported":1691348654,"current_range_meters":9600,"station_id":"ce4bgr92rcd13ifvqc6g","pricing_plan_id":"free"},{"bike_id":"dc4f77c7-1cb3-40e3-aeab-c9218f21a0e3","system_id":"levelo_inurba_marseille","lat":43.31703,"lon":5.36886,"is_reserved":false,"is_disabled":false,"rental_uris":{"android":"levelo://app?vid=dc4f77c7-1cb3-40e3-aeab-c9218f21a0e3","ios":"levelo://app?vid=dc4f77c7-1cb3-40e3-aeab-c9218f21a0e3"},"vehicle_type_id":"4","last_reported":1691348654,"current_range_meters":3600,"station_id":"","pricing_plan_id":"free"},{"bike_id":"e0d37231-105a-4005-9556-12551ad25ceb","system_id":"levelo_inurba_marseille","lat":43.314811,"lon":5.373103,"is_reserved":false,"is_disabled":false,"rental_uris":{"android":"levelo://app?vid=e0d37231-105a-4005-9556-12551ad25ceb","ios":"levelo://app?vid=e0d37231-105a-4005-9556-12551ad25ceb"},"vehicle_type_id":"4","last_reported":1691348654,"current_range_meters":12000,"station_id":"ce4bgt12rcd13ifvqcd0","pricing_plan_id":"free"},{"bike_id":"c572c439-b4d2-43fa-94fc-882a2395a581","system_id":"levelo_inurba_marseille","lat":43.314811,"lon":5.373103,"is_reserved":false,"is_disabled":false,"rental_uris":{"android":"levelo://app?vid=c572c439-b4d2-43fa-94fc-882a2395a581","ios":"levelo://app?vid=c572c439-b4d2-43fa-94fc-882a2395a581"},"vehicle_type_id":"4","last_reported":1691348654,"current_range_meters":13600,"station_id":"ce4bgt12rcd13ifvqcd0","pricing_plan_id":"free"},{"bike_id":"31b00e4f-682c-40a6-b1f9-e2330604b2bd","system_id":"levelo_inurba_marseille","lat":43.309039,"lon":5.371797,"is_reserved":false,"is_disabled":false,"rental_uris":{"android":"levelo://app?vid=31b00e4f-682c-40a6-b1f9-e2330604b2bd","ios":"levelo://app?vid=31b00e4f-682c-40a6-b1f9-e2330604b2bd"},"vehicle_type_id":"4","last_reported":1691348654,"current_range_meters":17600,"station_id":"ce4bguh2rcd13ifvqckg","pricing_plan_id":"free"},{"bike_id":"1d1de439-1768-4c13-82ea-2107f5f46f86","system_id":"levelo_inurba_marseille","lat":43.309039,"lon":5.371797,"is_reserved":false,"is_disabled":false,"rental_uris":{"android":"levelo://app?vid=1d1de439-1768-4c13-82ea-2107f5f46f86","ios":"levelo://app?vid=1d1de439-1768-4c13-82ea-2107f5f46f86"},"vehicle_type_id":"4","last_reported":1691348654,"current_range_meters":0,"station_id":"ce4bguh2rcd13ifvqckg","pricing_plan_id":"free"},{"bike_id":"5dfe8a48-95b6-4983-8f53-06c772f1c295","system_id":"levelo_inurba_marseille","lat":43.305706,"lon":5.365654,"is_reserved":false,"is_disabled":false,"rental_uris":{"android":"levelo://app?vid=5dfe8a48-95b6-4983-8f53-06c772f1c295","ios":"levelo://app?vid=5dfe8a48-95b6-4983-8f53-06c772f1c295"},"vehicle_type_id":"4","last_reported":1691348654,"current_range_meters":4800,"station_id":"ce4bgs12rcd13ifvqcag","pricing_plan_id":"free"},{"bike_id":"f20ea888-8740-440b-bfeb-8eb2a7c1f652","system_id":"levelo_inurba_marseille","lat":43.305989,"lon":5.37225,"is_reserved":false,"is_disabled":false,"rental_uris":{"android":"levelo://app?vid=f20ea888-8740-440b-bfeb-8eb2a7c1f652","ios":"levelo://app?vid=f20ea888-8740-440b-bfeb-8eb2a7c1f652"},"vehicle_type_id":"4","last_reported":1691348654,"current_range_meters":31200,"station_id":"ce4bgqh2rcd13ifvqc4g","pricing_plan_id":"free"},{"bike_id":"fd52d5f8-52fb-4082-98d6-9b26a5ccfc45","system_id":"levelo_inurba_marseille","lat":43.311125,"lon":5.377624,"is_reserved":false,"is_disabled":false,"rental_uris":{"android":"levelo://app?vid=fd52d5f8-52fb-4082-98d6-9b26a5ccfc45","ios":"levelo://app?vid=fd52d5f8-52fb-4082-98d6-9b26a5ccfc45"},"vehicle_type_id":"4","last_reported":1691348654,"current_range_meters":18000,"station_id":"ce4bgt92rcd13ifvqcg0","pricing_plan_id":"free"},{"bike_id":"82266953-5851-4458-aea9-2a51f3622b19","system_id":"levelo_inurba_marseille","lat":43.311125,"lon":5.377624,"is_reserved":false,"is_disabled":false,"rental_uris":{"android":"levelo://app?vid=82266953-5851-4458-aea9-2a51f3622b19","ios":"levelo://app?vid=82266953-5851-4458-aea9-2a51f3622b19"},"vehicle_type_id":"4","last_reported":1691348654,"current_range_meters":2800,"station_id":"ce4bgt92rcd13ifvqcg0","pricing_plan_id":"free"},{"bike_id":"b4034d78-bba3-4ba4-83a9-634ca640b0d8","system_id":"levelo_inurba_marseille","lat":43.30818,"lon":5.37667,"is_reserved":false,"is_disabled":false,"rental_uris":{"android":"levelo://app?vid=b4034d78-bba3-4ba4-83a9-634ca640b0d8","ios":"levelo://app?vid=b4034d78-bba3-4ba4-83a9-634ca640b0d8"},"vehicle_type_id":"4","last_reported":1691348654,"current_range_meters":0,"station_id":"ce4bgv92rcd13ifvqcq0","pricing_plan_id":"free"},{"bike_id":"0803cc15-400e-4cb3-ae55-d5337b170330","system_id":"levelo_inurba_marseille","lat":43.30787,"lon":5.37645,"is_reserved":false,"is_disabled":false,"rental_uris":{"android":"levelo://app?vid=0803cc15-400e-4cb3-ae55-d5337b170330","ios":"levelo://app?vid=0803cc15-400e-4cb3-ae55-d5337b170330"},"vehicle_type_id":"4","last_reported":1691348654,"current_range_meters":6800,"station_id":"ce4bgv92rcd13ifvqcq0","pricing_plan_id":"free"},{"bike_id":"25e896f1-dc34-4113-bb66-26c623e95e3b","system_id":"levelo_inurba_marseille","lat":43.30774,"lon":5.37645,"is_reserved":false,"is_disabled":false,"rental_uris":{"android":"levelo://app?vid=25e896f1-dc34-4113-bb66-26c623e95e3b","ios":"levelo://app?vid=25e896f1-dc34-4113-bb66-26c623e95e3b"},"vehicle_type_id":"4","last_reported":1691348654,"current_range_meters":0,"station_id":"ce4bgv92rcd13ifvqcq0","pricing_plan_id":"free"},{"bike_id":"d8ae0135-41c1-4367-87e8-1148b49f8079","system_id":"levelo_inurba_marseille","lat":43.30782,"lon":5.37655,"is_reserved":false,"is_disabled":false,"rental_uris":{"android":"levelo://app?vid=d8ae0135-41c1-4367-87e8-1148b49f8079","ios":"levelo://app?vid=d8ae0135-41c1-4367-87e8-1148b49f8079"},"vehicle_type_id":"4","last_reported":1691348654,"current_range_meters":400,"station_id":"ce4bgv92rcd13ifvqcq0","pricing_plan_id":"free"},{"bike_id":"a8964167-d15b-454f-b8bc-aff2a7c44962","system_id":"levelo_inurba_marseille","lat":43.30786,"lon":5.37661,"is_reserved":false,"is_disabled":false,"rental_uris":{"android":"levelo://app?vid=a8964167-d15b-454f-b8bc-aff2a7c44962","ios":"levelo://app?vid=a8964167-d15b-454f-b8bc-aff2a7c44962"},"vehicle_type_id":"4","last_reported":1691348654,"current_range_meters":13200,"station_id":"ce4bgv92rcd13ifvqcq0","pricing_plan_id":"free"},{"bike_id":"60c833ce-bd4e-4545-8b51-8490188212bc","system_id":"levelo_inurba_marseille","lat":43.317075,"lon":5.377367,"is_reserved":false,"is_disabled":false,"rental_uris":{"android":"levelo://app?vid=60c833ce-bd4e-4545-8b51-8490188212bc","ios":"levelo://app?vid=60c833ce-bd4e-4545-8b51-8490188212bc"},"vehicle_type_id":"4","last_reported":1691348654,"current_range_meters":26800,"station_id":"ce4bgth2rcd13ifvqch0","pricing_plan_id":"free"},{"bike_id":"28d24041-e8d9-4bb7-90d9-4fd8467f24ab","system_id":"levelo_inurba_marseille","lat":43.317075,"lon":5.377367,"is_reserved":false,"is_disabled":false,"rental_uris":{"android":"levelo://app?vid=28d24041-e8d9-4bb7-90d9-4fd8467f24ab","ios":"levelo://app?vid=28d24041-e8d9-4bb7-90d9-4fd8467f24ab"},"vehicle_type_id":"4","last_reported":1691348654,"current_range_meters":19200,"station_id":"ce4bgth2rcd13ifvqch0","pricing_plan_id":"free"},{"bike_id":"5eeaf945-5eb1-4d48-b98f-ae356fdf31ed","system_id":"levelo_inurba_marseille","lat":43.317075,"lon":5.377367,"is_reserved":false,"is_disabled":false,"rental_uris":{"android":"levelo://app?vid=5eeaf945-5eb1-4d48-b98f-ae356fdf31ed","ios":"levelo://app?vid=5eeaf945-5eb1-4d48-b98f-ae356fdf31ed"},"vehicle_type_id":"4","last_reported":1691348654,"current_range_meters":28800,"station_id":"ce4bgth2rcd13ifvqch0","pricing_plan_id":"free"},{"bike_id":"8c19fac9-0322-484f-8e7d-9982d5b54555","system_id":"levelo_inurba_marseille","lat":43.31528,"lon":5.38021,"is_reserved":false,"is_disabled":false,"rental_uris":{"android":"levelo://app?vid=8c19fac9-0322-484f-8e7d-9982d5b54555","ios":"levelo://app?vid=8c19fac9-0322-484f-8e7d-9982d5b54555"},"vehicle_type_id":"4","last_reported":1691348654,"current_range_meters":400,"station_id":"ce4bhsp2rcd13ifvqi50","pricing_plan_id":"free"},{"bike_id":"da7192df-cc92-4a60-b7af-bedaf31de69b","system_id":"levelo_inurba_marseille","lat":43.3154,"lon":5.38025,"is_reserved":false,"is_disabled":false,"rental_uris":{"android":"levelo://app?vid=da7192df-cc92-4a60-b7af-bedaf31de69b","ios":"levelo://app?vid=da7192df-cc92-4a60-b7af-bedaf31de69b"},"vehicle_type_id":"4","last_reported":1691348654,"current_range_meters":14400,"station_id":"ce4bhsp2rcd13ifvqi50","pricing_plan_id":"free"},{"bike_id":"07af0649-9c2d-4844-b5dc-b726a8bebba2","system_id":"levelo_inurba_marseille","lat":43.31538,"lon":5.38045,"is_reserved":false,"is_disabled":false,"rental_uris":{"android":"levelo://app?vid=07af0649-9c2d-4844-b5dc-b726a8bebba2","ios":"levelo://app?vid=07af0649-9c2d-4844-b5dc-b726a8bebba2"},"vehicle_type_id":"4","last_reported":1691348654,"current_range_meters":1200,"station_id":"ce4bhsp2rcd13ifvqi50","pricing_plan_id":"free"},{"bike_id":"591f6645-e51f-4be2-968a-8b5e60b81911","system_id":"levelo_inurba_marseille","lat":43.301939,"lon":5.366286,"is_reserved":false,"is_disabled":false,"rental_uris":{"android":"levelo://app?vid=591f6645-e51f-4be2-968a-8b5e60b81911","ios":"levelo://app?vid=591f6645-e51f-4be2-968a-8b5e60b81911"},"vehicle_type_id":"4","last_reported":1691348654,"current_range_meters":800,"station_id":"ce4bgrh2rcd13ifvqc8g","pricing_plan_id":"free"},{"bike_id":"16d87e72-56f1-42f7-b3fb-074e5fa6ea97","system_id":"levelo_inurba_marseille","lat":43.302784,"lon":5.377158,"is_reserved":false,"is_disabled":false,"rental_uris":{"android":"levelo://app?vid=16d87e72-56f1-42f7-b3fb-074e5fa6ea97","ios":"levelo://app?vid=16d87e72-56f1-42f7-b3fb-074e5fa6ea97"},"vehicle_type_id":"4","last_reported":1691348654,"current_range_meters":31200,"station_id":"ce4bguh2rcd13ifvqcj0","pricing_plan_id":"free"},{"bike_id":"91c1e68c-072c-41ed-ab7d-e40ec14976ba","system_id":"levelo_inurba_marseille","lat":43.31987,"lon":5.38144,"is_reserved":false,"is_disabled":false,"rental_uris":{"android":"levelo://app?vid=91c1e68c-072c-41ed-ab7d-e40ec14976ba","ios":"levelo://app?vid=91c1e68c-072c-41ed-ab7d-e40ec14976ba"},"vehicle_type_id":"4","last_reported":1691348654,"current_range_meters":31200,"station_id":"ce4bhr12rcd13ifvqhpg","pricing_plan_id":"free"},{"bike_id":"f1d54d2a-d1d7-40c4-9446-93e6905afa66","system_id":"levelo_inurba_marseille","lat":43.31988,"lon":5.38145,"is_reserved":false,"is_disabled":false,"rental_uris":{"android":"levelo://app?vid=f1d54d2a-d1d7-40c4-9446-93e6905afa66","ios":"levelo://app?vid=f1d54d2a-d1d7-40c4-9446-93e6905afa66"},"vehicle_type_id":"4","last_reported":1691348654,"current_range_meters":30400,"station_id":"ce4bhr12rcd13ifvqhpg","pricing_plan_id":"free"},{"bike_id":"6cd8239f-e390-4e3d-80c8-9e6728a1155e","system_id":"levelo_inurba_marseille","lat":43.31996,"lon":5.38148,"is_reserved":false,"is_disabled":false,"rental_uris":{"android":"levelo://app?vid=6cd8239f-e390-4e3d-80c8-9e6728a1155e","ios":"levelo://app?vid=6cd8239f-e390-4e3d-80c8-9e6728a1155e"},"vehicle_type_id":"4","last_reported":1691348654,"current_range_meters":30000,"station_id":"ce4bhr12rcd13ifvqhpg","pricing_plan_id":"free"},{"bike_id":"04fdd430-749a-4bb6-bb72-f108fb3d8da7","system_id":"levelo_inurba_marseille","lat":43.31983,"lon":5.38162,"is_reserved":false,"is_disabled":false,"rental_uris":{"android":"levelo://app?vid=04fdd430-749a-4bb6-bb72-f108fb3d8da7","ios":"levelo://app?vid=04fdd430-749a-4bb6-bb72-f108fb3d8da7"},"vehicle_type_id":"4","last_reported":1691348654,"current_range_meters":22800,"station_id":"ce4bhr12rcd13ifvqhpg","pricing_plan_id":"free"},{"bike_id":"4d7d4c19-8461-4a8e-a573-d5b2ac05aff3","system_id":"levelo_inurba_marseille","lat":43.319935,"lon":5.381699,"is_reserved":false,"is_disabled":false,"rental_uris":{"android":"levelo://app?vid=4d7d4c19-8461-4a8e-a573-d5b2ac05aff3","ios":"levelo://app?vid=4d7d4c19-8461-4a8e-a573-d5b2ac05aff3"},"vehicle_type_id":"4","last_reported":1691348654,"current_range_meters":25600,"station_id":"ce4bhr12rcd13ifvqhpg","pricing_plan_id":"free"},{"bike_id":"6099e017-02a5-43a9-b4e0-3688526986e2","system_id":"levelo_inurba_marseille","lat":43.319935,"lon":5.381699,"is_reserved":false,"is_disabled":false,"rental_uris":{"android":"levelo://app?vid=6099e017-02a5-43a9-b4e0-3688526986e2","ios":"levelo://app?vid=6099e017-02a5-43a9-b4e0-3688526986e2"},"vehicle_type_id":"4","last_reported":1691348654,"current_range_meters":10000,"station_id":"ce4bhr12rcd13ifvqhpg","pricing_plan_id":"free"},{"bike_id":"4cf6564a-8b20-4393-b8bb-308c98ecd71e","system_id":"levelo_inurba_marseille","lat":43.313571,"lon":5.384829,"is_reserved":false,"is_disabled":false,"rental_uris":{"android":"levelo://app?vid=4cf6564a-8b20-4393-b8bb-308c98ecd71e","ios":"levelo://app?vid=4cf6564a-8b20-4393-b8bb-308c98ecd71e"},"vehicle_type_id":"4","last_reported":1691348654,"current_range_meters":30800,"station_id":"ce4bgt92rcd13ifvqcf0","pricing_plan_id":"free"},{"bike_id":"cb041cce-5265-441f-93f6-83ea168a4be9","system_id":"levelo_inurba_marseille","lat":43.313571,"lon":5.384829,"is_reserved":false,"is_disabled":false,"rental_uris":{"android":"levelo://app?vid=cb041cce-5265-441f-93f6-83ea168a4be9","ios":"levelo://app?vid=cb041cce-5265-441f-93f6-83ea168a4be9"},"vehicle_type_id":"4","last_reported":1691348654,"current_range_meters":20800,"station_id":"ce4bgt92rcd13ifvqcf0","pricing_plan_id":"free"},{"bike_id":"c445b907-2b5b-42a7-97ca-c6df5f843d41","system_id":"levelo_inurba_marseille","lat":43.313571,"lon":5.384829,"is_reserved":false,"is_disabled":false,"rental_uris":{"android":"levelo://app?vid=c445b907-2b5b-42a7-97ca-c6df5f843d41","ios":"levelo://app?vid=c445b907-2b5b-42a7-97ca-c6df5f843d41"},"vehicle_type_id":"4","last_reported":1691348654,"current_range_meters":15600,"station_id":"ce4bgt92rcd13ifvqcf0","pricing_plan_id":"free"},{"bike_id":"ce05ed39-f7b1-413c-a336-b0b47f2b0d7d","system_id":"levelo_inurba_marseille","lat":43.313571,"lon":5.384829,"is_reserved":false,"is_disabled":false,"rental_uris":{"android":"levelo://app?vid=ce05ed39-f7b1-413c-a336-b0b47f2b0d7d","ios":"levelo://app?vid=ce05ed39-f7b1-413c-a336-b0b47f2b0d7d"},"vehicle_type_id":"4","last_reported":1691348654,"current_range_meters":3200,"station_id":"ce4bgt92rcd13ifvqcf0","pricing_plan_id":"free"},{"bike_id":"30f813c3-7b12-4b4e-b8d3-e07b25417ce0","system_id":"levelo_inurba_marseille","lat":43.313571,"lon":5.384829,"is_reserved":false,"is_disabled":false,"rental_uris":{"android":"levelo://app?vid=30f813c3-7b12-4b4e-b8d3-e07b25417ce0","ios":"levelo://app?vid=30f813c3-7b12-4b4e-b8d3-e07b25417ce0"},"vehicle_type_id":"4","last_reported":1691348654,"current_range_meters":10400,"station_id":"ce4bgt92rcd13ifvqcf0","pricing_plan_id":"free"},{"bike_id":"0de5e59d-80d6-4fff-8a31-5be77dc8be46","system_id":"levelo_inurba_marseille","lat":43.313571,"lon":5.384829,"is_reserved":false,"is_disabled":false,"rental_uris":{"android":"levelo://app?vid=0de5e59d-80d6-4fff-8a31-5be77dc8be46","ios":"levelo://app?vid=0de5e59d-80d6-4fff-8a31-5be77dc8be46"},"vehicle_type_id":"4","last_reported":1691348654,"current_range_meters":19600,"station_id":"ce4bgt92rcd13ifvqcf0","pricing_plan_id":"free"},{"bike_id":"4c10e217-e7ec-49aa-a400-a11616b53b29","system_id":"levelo_inurba_marseille","lat":43.313571,"lon":5.384829,"is_reserved":false,"is_disabled":false,"rental_uris":{"android":"levelo://app?vid=4c10e217-e7ec-49aa-a400-a11616b53b29","ios":"levelo://app?vid=4c10e217-e7ec-49aa-a400-a11616b53b29"},"vehicle_type_id":"4","last_reported":1691348654,"current_range_meters":24800,"station_id":"ce4bgt92rcd13ifvqcf0","pricing_plan_id":"free"},{"bike_id":"ca175e9f-dd3a-41a1-bc0a-b3047eba9d76","system_id":"levelo_inurba_marseille","lat":43.31353,"lon":5.38494,"is_reserved":false,"is_disabled":false,"rental_uris":{"android":"levelo://app?vid=ca175e9f-dd3a-41a1-bc0a-b3047eba9d76","ios":"levelo://app?vid=ca175e9f-dd3a-41a1-bc0a-b3047eba9d76"},"vehicle_type_id":"4","last_reported":1691348654,"current_range_meters":24000,"station_id":"ce4bgt92rcd13ifvqcf0","pricing_plan_id":"free"},{"bike_id":"9c209795-e7c8-4bed-9625-0a632b85d23d","system_id":"levelo_inurba_marseille","lat":43.313571,"lon":5.384829,"is_reserved":false,"is_disabled":false,"rental_uris":{"android":"levelo://app?vid=9c209795-e7c8-4bed-9625-0a632b85d23d","ios":"levelo://app?vid=9c209795-e7c8-4bed-9625-0a632b85d23d"},"vehicle_type_id":"4","last_reported":1691348654,"current_range_meters":12800,"station_id":"ce4bgt92rcd13ifvqcf0","pricing_plan_id":"free"},{"bike_id":"cdb897fb-1e90-4bb4-b96f-ec1237df29b5","system_id":"levelo_inurba_marseille","lat":43.313571,"lon":5.384829,"is_reserved":false,"is_disabled":false,"rental_uris":{"android":"levelo://app?vid=cdb897fb-1e90-4bb4-b96f-ec1237df29b5","ios":"levelo://app?vid=cdb897fb-1e90-4bb4-b96f-ec1237df29b5"},"vehicle_type_id":"4","last_reported":1691348654,"current_range_meters":19600,"station_id":"ce4bgt92rcd13ifvqcf0","pricing_plan_id":"free"},{"bike_id":"05d492d6-f027-4871-8ba8-4e1b872492af","system_id":"levelo_inurba_marseille","lat":43.313571,"lon":5.384829,"is_reserved":false,"is_disabled":false,"rental_uris":{"android":"levelo://app?vid=05d492d6-f027-4871-8ba8-4e1b872492af","ios":"levelo://app?vid=05d492d6-f027-4871-8ba8-4e1b872492af"},"vehicle_type_id":"4","last_reported":1691348654,"current_range_meters":28000,"station_id":"ce4bgt92rcd13ifvqcf0","pricing_plan_id":"free"},{"bike_id":"f0c12671-9bf0-417a-9ca4-49ad0fd6451a","system_id":"levelo_inurba_marseille","lat":43.313571,"lon":5.384829,"is_reserved":false,"is_disabled":false,"rental_uris":{"android":"levelo://app?vid=f0c12671-9bf0-417a-9ca4-49ad0fd6451a","ios":"levelo://app?vid=f0c12671-9bf0-417a-9ca4-49ad0fd6451a"},"vehicle_type_id":"4","last_reported":1691348654,"current_range_meters":5200,"station_id":"ce4bgt92rcd13ifvqcf0","pricing_plan_id":"free"},{"bike_id":"3d2802d9-1249-49f1-9a2a-cbb67c6fd32c","system_id":"levelo_inurba_marseille","lat":43.313571,"lon":5.384829,"is_reserved":false,"is_disabled":false,"rental_uris":{"android":"levelo://app?vid=3d2802d9-1249-49f1-9a2a-cbb67c6fd32c","ios":"levelo://app?vid=3d2802d9-1249-49f1-9a2a-cbb67c6fd32c"},"vehicle_type_id":"4","last_reported":1691348654,"current_range_meters":14000,"station_id":"ce4bgt92rcd13ifvqcf0","pricing_plan_id":"free"},{"bike_id":"bd8ab4c1-a1a0-4c50-98da-df8ae96c3e92","system_id":"levelo_inurba_marseille","lat":43.313571,"lon":5.384829,"is_reserved":false,"is_disabled":false,"rental_uris":{"android":"levelo://app?vid=bd8ab4c1-a1a0-4c50-98da-df8ae96c3e92","ios":"levelo://app?vid=bd8ab4c1-a1a0-4c50-98da-df8ae96c3e92"},"vehicle_type_id":"4","last_reported":1691348654,"current_range_meters":4400,"station_id":"ce4bgt92rcd13ifvqcf0","pricing_plan_id":"free"},{"bike_id":"9f022b54-aefc-476f-baba-b9fed297a681","system_id":"levelo_inurba_marseille","lat":43.31361,"lon":5.38498,"is_reserved":false,"is_disabled":false,"rental_uris":{"android":"levelo://app?vid=9f022b54-aefc-476f-baba-b9fed297a681","ios":"levelo://app?vid=9f022b54-aefc-476f-baba-b9fed297a681"},"vehicle_type_id":"4","last_reported":1691348654,"current_range_meters":11600,"station_id":"ce4bgt92rcd13ifvqcf0","pricing_plan_id":"free"},{"bike_id":"21c505f5-3040-4f60-bafe-14f7d867ba27","system_id":"levelo_inurba_marseille","lat":43.31361,"lon":5.38501,"is_reserved":false,"is_disabled":false,"rental_uris":{"android":"levelo://app?vid=21c505f5-3040-4f60-bafe-14f7d867ba27","ios":"levelo://app?vid=21c505f5-3040-4f60-bafe-14f7d867ba27"},"vehicle_type_id":"4","last_reported":1691348654,"current_range_meters":20800,"station_id":"ce4bgt92rcd13ifvqcf0","pricing_plan_id":"free"},{"bike_id":"443d626a-c69d-4a53-a190-1ce1eac4d187","system_id":"levelo_inurba_marseille","lat":43.30544,"lon":5.38417,"is_reserved":false,"is_disabled":false,"rental_uris":{"android":"levelo://app?vid=443d626a-c69d-4a53-a190-1ce1eac4d187","ios":"levelo://app?vid=443d626a-c69d-4a53-a190-1ce1eac4d187"},"vehicle_type_id":"4","last_reported":1691348654,"current_range_meters":3600,"station_id":"ce4bgg92rcd13ifvqb30","pricing_plan_id":"free"},{"bike_id":"c7305394-eb4d-4133-98ab-8a845c9b6ac8","system_id":"levelo_inurba_marseille","lat":43.305364,"lon":5.384119,"is_reserved":false,"is_disabled":false,"rental_uris":{"android":"levelo://app?vid=c7305394-eb4d-4133-98ab-8a845c9b6ac8","ios":"levelo://app?vid=c7305394-eb4d-4133-98ab-8a845c9b6ac8"},"vehicle_type_id":"4","last_reported":1691348654,"current_range_meters":5600,"station_id":"ce4bgg92rcd13ifvqb30","pricing_plan_id":"free"},{"bike_id":"5d6507fc-8929-4bf6-9368-7fb42aa40743","system_id":"levelo_inurba_marseille","lat":43.305364,"lon":5.384119,"is_reserved":false,"is_disabled":false,"rental_uris":{"android":"levelo://app?vid=5d6507fc-8929-4bf6-9368-7fb42aa40743","ios":"levelo://app?vid=5d6507fc-8929-4bf6-9368-7fb42aa40743"},"vehicle_type_id":"4","last_reported":1691348654,"current_range_meters":1200,"station_id":"ce4bgg92rcd13ifvqb30","pricing_plan_id":"free"},{"bike_id":"85d0d0f0-cc63-46dd-9cf7-0a8ff7db717c","system_id":"levelo_inurba_marseille","lat":43.305364,"lon":5.384119,"is_reserved":false,"is_disabled":false,"rental_uris":{"android":"levelo://app?vid=85d0d0f0-cc63-46dd-9cf7-0a8ff7db717c","ios":"levelo://app?vid=85d0d0f0-cc63-46dd-9cf7-0a8ff7db717c"},"vehicle_type_id":"4","last_reported":1691348654,"current_range_meters":9200,"station_id":"ce4bgg92rcd13ifvqb30","pricing_plan_id":"free"},{"bike_id":"60458e3d-12db-40c4-a0f1-d166ba70b84c","system_id":"levelo_inurba_marseille","lat":43.298433,"lon":5.362774,"is_reserved":false,"is_disabled":false,"rental_uris":{"android":"levelo://app?vid=60458e3d-12db-40c4-a0f1-d166ba70b84c","ios":"levelo://app?vid=60458e3d-12db-40c4-a0f1-d166ba70b84c"},"vehicle_type_id":"4","last_reported":1691348654,"current_range_meters":400,"station_id":"ce4bgpp2rcd13ifvqc3g","pricing_plan_id":"free"},{"bike_id":"100d4acd-bb48-49eb-9fd2-324d88fdb78f","system_id":"levelo_inurba_marseille","lat":43.298433,"lon":5.362774,"is_reserved":false,"is_disabled":false,"rental_uris":{"android":"levelo://app?vid=100d4acd-bb48-49eb-9fd2-324d88fdb78f","ios":"levelo://app?vid=100d4acd-bb48-49eb-9fd2-324d88fdb78f"},"vehicle_type_id":"4","last_reported":1691348654,"current_range_meters":1600,"station_id":"ce4bgpp2rcd13ifvqc3g","pricing_plan_id":"free"},{"bike_id":"a081ec24-ddfb-4bf8-a1b5-fdbeace5e463","system_id":"levelo_inurba_marseille","lat":43.311722,"lon":5.387247,"is_reserved":false,"is_disabled":false,"rental_uris":{"android":"levelo://app?vid=a081ec24-ddfb-4bf8-a1b5-fdbeace5e463","ios":"levelo://app?vid=a081ec24-ddfb-4bf8-a1b5-fdbeace5e463"},"vehicle_type_id":"4","last_reported":1691348654,"current_range_meters":30400,"station_id":"ce4bgv12rcd13ifvqcp0","pricing_plan_id":"free"},{"bike_id":"0c66187a-2d52-40ef-bcad-00d514b4f48b","system_id":"levelo_inurba_marseille","lat":43.311722,"lon":5.387247,"is_reserved":false,"is_disabled":false,"rental_uris":{"android":"levelo://app?vid=0c66187a-2d52-40ef-bcad-00d514b4f48b","ios":"levelo://app?vid=0c66187a-2d52-40ef-bcad-00d514b4f48b"},"vehicle_type_id":"4","last_reported":1691348654,"current_range_meters":20400,"station_id":"ce4bgv12rcd13ifvqcp0","pricing_plan_id":"free"},{"bike_id":"922bf99c-99d0-4fc7-83eb-42b5819d9920","system_id":"levelo_inurba_marseille","lat":43.305364,"lon":5.384119,"is_reserved":false,"is_disabled":false,"rental_uris":{"android":"levelo://app?vid=922bf99c-99d0-4fc7-83eb-42b5819d9920","ios":"levelo://app?vid=922bf99c-99d0-4fc7-83eb-42b5819d9920"},"vehicle_type_id":"4","last_reported":1691348654,"current_range_meters":16400,"station_id":"ce4bgg92rcd13ifvqb30","pricing_plan_id":"free"},{"bike_id":"eaefffa0-b4ec-4764-b25a-c4b3f841696f","system_id":"levelo_inurba_marseille","lat":43.298433,"lon":5.362774,"is_reserved":false,"is_disabled":false,"rental_uris":{"android":"levelo://app?vid=eaefffa0-b4ec-4764-b25a-c4b3f841696f","ios":"levelo://app?vid=eaefffa0-b4ec-4764-b25a-c4b3f841696f"},"vehicle_type_id":"4","last_reported":1691348654,"current_range_meters":4800,"station_id":"ce4bgpp2rcd13ifvqc3g","pricing_plan_id":"free"},{"bike_id":"65fccf9c-eea6-4774-993f-f13ab6eae2fe","system_id":"levelo_inurba_marseille","lat":43.311722,"lon":5.387247,"is_reserved":false,"is_disabled":false,"rental_uris":{"android":"levelo://app?vid=65fccf9c-eea6-4774-993f-f13ab6eae2fe","ios":"levelo://app?vid=65fccf9c-eea6-4774-993f-f13ab6eae2fe"},"vehicle_type_id":"4","last_reported":1691348654,"current_range_meters":13200,"station_id":"ce4bgv12rcd13ifvqcp0","pricing_plan_id":"free"},{"bike_id":"0e061815-8e60-48df-b54f-1843fd07d9b0","system_id":"levelo_inurba_marseille","lat":43.31179,"lon":5.38706,"is_reserved":false,"is_disabled":false,"rental_uris":{"android":"levelo://app?vid=0e061815-8e60-48df-b54f-1843fd07d9b0","ios":"levelo://app?vid=0e061815-8e60-48df-b54f-1843fd07d9b0"},"vehicle_type_id":"4","last_reported":1691348654,"current_range_meters":28800,"station_id":"ce4bgv12rcd13ifvqcp0","pricing_plan_id":"free"},{"bike_id":"a8574a97-dcff-4068-872b-ba3d683c022f","system_id":"levelo_inurba_marseille","lat":43.311722,"lon":5.387247,"is_reserved":false,"is_disabled":false,"rental_uris":{"android":"levelo://app?vid=a8574a97-dcff-4068-872b-ba3d683c022f","ios":"levelo://app?vid=a8574a97-dcff-4068-872b-ba3d683c022f"},"vehicle_type_id":"4","last_reported":1691348654,"current_range_meters":18400,"station_id":"ce4bgv12rcd13ifvqcp0","pricing_plan_id":"free"},{"bike_id":"7e9f143b-b6d2-41ec-9f4d-e3f76cf5df43","system_id":"levelo_inurba_marseille","lat":43.311722,"lon":5.387247,"is_reserved":false,"is_disabled":false,"rental_uris":{"android":"levelo://app?vid=7e9f143b-b6d2-41ec-9f4d-e3f76cf5df43","ios":"levelo://app?vid=7e9f143b-b6d2-41ec-9f4d-e3f76cf5df43"},"vehicle_type_id":"4","last_reported":1691348654,"current_range_meters":10000,"station_id":"ce4bgv12rcd13ifvqcp0","pricing_plan_id":"free"},{"bike_id":"fe5ea4a5-9611-403f-b19f-81f3e46d72f6","system_id":"levelo_inurba_marseille","lat":43.299243,"lon":5.37481,"is_reserved":false,"is_disabled":false,"rental_uris":{"android":"levelo://app?vid=fe5ea4a5-9611-403f-b19f-81f3e46d72f6","ios":"levelo://app?vid=fe5ea4a5-9611-403f-b19f-81f3e46d72f6"},"vehicle_type_id":"4","last_reported":1691348654,"current_range_meters":1600,"station_id":"ce4bgjh2rcd13ifvqbg0","pricing_plan_id":"free"},{"bike_id":"439193f3-d3e1-4de8-8e1e-7f6254ea6745","system_id":"levelo_inurba_marseille","lat":43.3021,"lon":5.38094,"is_reserved":false,"is_disabled":false,"rental_uris":{"android":"levelo://app?vid=439193f3-d3e1-4de8-8e1e-7f6254ea6745","ios":"levelo://app?vid=439193f3-d3e1-4de8-8e1e-7f6254ea6745"},"vehicle_type_id":"4","last_reported":1691348654,"current_range_meters":26000,"station_id":"","pricing_plan_id":"free"},{"bike_id":"00e6d519-1f49-4192-a254-69cd7c01a6f3","system_id":"levelo_inurba_marseille","lat":43.311722,"lon":5.387247,"is_reserved":false,"is_disabled":false,"rental_uris":{"android":"levelo://app?vid=00e6d519-1f49-4192-a254-69cd7c01a6f3","ios":"levelo://app?vid=00e6d519-1f49-4192-a254-69cd7c01a6f3"},"vehicle_type_id":"4","last_reported":1691348654,"current_range_meters":28800,"station_id":"ce4bgv12rcd13ifvqcp0","pricing_plan_id":"free"},{"bike_id":"b5ef013b-8233-4cad-b512-9fd2f3493497","system_id":"levelo_inurba_marseille","lat":43.311722,"lon":5.387247,"is_reserved":false,"is_disabled":false,"rental_uris":{"android":"levelo://app?vid=b5ef013b-8233-4cad-b512-9fd2f3493497","ios":"levelo://app?vid=b5ef013b-8233-4cad-b512-9fd2f3493497"},"vehicle_type_id":"4","last_reported":1691348654,"current_range_meters":10800,"station_id":"ce4bgv12rcd13ifvqcp0","pricing_plan_id":"free"},{"bike_id":"416e0657-5ae6-4cda-b945-714fc9a00407","system_id":"levelo_inurba_marseille","lat":43.299243,"lon":5.37481,"is_reserved":false,"is_disabled":false,"rental_uris":{"android":"levelo://app?vid=416e0657-5ae6-4cda-b945-714fc9a00407","ios":"levelo://app?vid=416e0657-5ae6-4cda-b945-714fc9a00407"},"vehicle_type_id":"4","last_reported":1691348654,"current_range_meters":26000,"station_id":"ce4bgjh2rcd13ifvqbg0","pricing_plan_id":"free"},{"bike_id":"3a39a4b0-c811-49c2-8d55-2af833b5f926","system_id":"levelo_inurba_marseille","lat":43.311722,"lon":5.387247,"is_reserved":false,"is_disabled":false,"rental_uris":{"android":"levelo://app?vid=3a39a4b0-c811-49c2-8d55-2af833b5f926","ios":"levelo://app?vid=3a39a4b0-c811-49c2-8d55-2af833b5f926"},"vehicle_type_id":"4","last_reported":1691348654,"current_range_meters":10800,"station_id":"ce4bgv12rcd13ifvqcp0","pricing_plan_id":"free"},{"bike_id":"3235488a-5abe-4f27-a56a-50e7b9989127","system_id":"levelo_inurba_marseille","lat":43.32285,"lon":5.38262,"is_reserved":false,"is_disabled":false,"rental_uris":{"android":"levelo://app?vid=3235488a-5abe-4f27-a56a-50e7b9989127","ios":"levelo://app?vid=3235488a-5abe-4f27-a56a-50e7b9989127"},"vehicle_type_id":"4","last_reported":1691348654,"current_range_meters":28000,"station_id":"ce4bhr12rcd13ifvqhqg","pricing_plan_id":"free"},{"bike_id":"446f93cb-2bbc-44af-b33b-7d301008bfa5","system_id":"levelo_inurba_marseille","lat":43.32286,"lon":5.38262,"is_reserved":false,"is_disabled":false,"rental_uris":{"android":"levelo://app?vid=446f93cb-2bbc-44af-b33b-7d301008bfa5","ios":"levelo://app?vid=446f93cb-2bbc-44af-b33b-7d301008bfa5"},"vehicle_type_id":"4","last_reported":1691348654,"current_range_meters":27200,"station_id":"ce4bhr12rcd13ifvqhqg","pricing_plan_id":"free"},{"bike_id":"30537d43-af02-4a10-b928-7b9b8cf633d2","system_id":"levelo_inurba_marseille","lat":43.3061,"lon":5.38587,"is_reserved":false,"is_disabled":false,"rental_uris":{"android":"levelo://app?vid=30537d43-af02-4a10-b928-7b9b8cf633d2","ios":"levelo://app?vid=30537d43-af02-4a10-b928-7b9b8cf633d2"},"vehicle_type_id":"4","last_reported":1691348654,"current_range_meters":30400,"station_id":"ce4bgg92rcd13ifvqb30","pricing_plan_id":"free"},{"bike_id":"92ccfcda-14ab-40d6-8611-154ba7071f12","system_id":"levelo_inurba_marseille","lat":43.32282,"lon":5.38275,"is_reserved":false,"is_disabled":false,"rental_uris":{"android":"levelo://app?vid=92ccfcda-14ab-40d6-8611-154ba7071f12","ios":"levelo://app?vid=92ccfcda-14ab-40d6-8611-154ba7071f12"},"vehicle_type_id":"4","last_reported":1691348654,"current_range_meters":14800,"station_id":"ce4bhr12rcd13ifvqhqg","pricing_plan_id":"free"},{"bike_id":"2b46b559-1836-48b9-a6a2-624ad3d92c97","system_id":"levelo_inurba_marseille","lat":43.32289,"lon":5.38267,"is_reserved":false,"is_disabled":false,"rental_uris":{"android":"levelo://app?vid=2b46b559-1836-48b9-a6a2-624ad3d92c97","ios":"levelo://app?vid=2b46b559-1836-48b9-a6a2-624ad3d92c97"},"vehicle_type_id":"4","last_reported":1691348654,"current_range_meters":27200,"station_id":"ce4bhr12rcd13ifvqhqg","pricing_plan_id":"free"},{"bike_id":"54af0d74-1de2-450f-8445-78b5259f2d29","system_id":"levelo_inurba_marseille","lat":43.309589,"lon":5.390258,"is_reserved":false,"is_disabled":false,"rental_uris":{"android":"levelo://app?vid=54af0d74-1de2-450f-8445-78b5259f2d29","ios":"levelo://app?vid=54af0d74-1de2-450f-8445-78b5259f2d29"},"vehicle_type_id":"4","last_reported":1691348654,"current_range_meters":22800,"station_id":"ce4bgup2rcd13ifvqco0","pricing_plan_id":"free"},{"bike_id":"41ef94bf-eaa4-4904-b2df-e3787718ca5d","system_id":"levelo_inurba_marseille","lat":43.31482,"lon":5.38783,"is_reserved":false,"is_disabled":false,"rental_uris":{"android":"levelo://app?vid=41ef94bf-eaa4-4904-b2df-e3787718ca5d","ios":"levelo://app?vid=41ef94bf-eaa4-4904-b2df-e3787718ca5d"},"vehicle_type_id":"4","last_reported":1691348654,"current_range_meters":18400,"station_id":"","pricing_plan_id":"free"},{"bike_id":"c17a40b5-082b-47ab-af23-2ddbccb368d3","system_id":"levelo_inurba_marseille","lat":43.32825,"lon":5.36691,"is_reserved":false,"is_disabled":false,"rental_uris":{"android":"levelo://app?vid=c17a40b5-082b-47ab-af23-2ddbccb368d3","ios":"levelo://app?vid=c17a40b5-082b-47ab-af23-2ddbccb368d3"},"vehicle_type_id":"4","last_reported":1691348654,"current_range_meters":3200,"station_id":"ce4bhs92rcd13ifvqi0g","pricing_plan_id":"free"},{"bike_id":"1bde9b36-d98e-4187-ba99-bffb46e74f58","system_id":"levelo_inurba_marseille","lat":43.328371,"lon":5.366909,"is_reserved":false,"is_disabled":false,"rental_uris":{"android":"levelo://app?vid=1bde9b36-d98e-4187-ba99-bffb46e74f58","ios":"levelo://app?vid=1bde9b36-d98e-4187-ba99-bffb46e74f58"},"vehicle_type_id":"4","last_reported":1691348654,"current_range_meters":11200,"station_id":"ce4bhs92rcd13ifvqi0g","pricing_plan_id":"free"},{"bike_id":"9263aba1-2fd2-4494-8a37-d5d0a062433a","system_id":"levelo_inurba_marseille","lat":43.32828,"lon":5.36677,"is_reserved":false,"is_disabled":false,"rental_uris":{"android":"levelo://app?vid=9263aba1-2fd2-4494-8a37-d5d0a062433a","ios":"levelo://app?vid=9263aba1-2fd2-4494-8a37-d5d0a062433a"},"vehicle_type_id":"4","last_reported":1691348654,"current_range_meters":1200,"station_id":"ce4bhs92rcd13ifvqi0g","pricing_plan_id":"free"},{"bike_id":"6a5c9287-6ab2-48fd-9cf1-66f1b3d9c1bf","system_id":"levelo_inurba_marseille","lat":43.32828,"lon":5.36675,"is_reserved":false,"is_disabled":false,"rental_uris":{"android":"levelo://app?vid=6a5c9287-6ab2-48fd-9cf1-66f1b3d9c1bf","ios":"levelo://app?vid=6a5c9287-6ab2-48fd-9cf1-66f1b3d9c1bf"},"vehicle_type_id":"4","last_reported":1691348654,"current_range_meters":4800,"station_id":"ce4bhs92rcd13ifvqi0g","pricing_plan_id":"free"},{"bike_id":"a87afb56-1815-4c8a-b2a9-994cf8900bcc","system_id":"levelo_inurba_marseille","lat":43.32829,"lon":5.36668,"is_reserved":false,"is_disabled":false,"rental_uris":{"android":"levelo://app?vid=a87afb56-1815-4c8a-b2a9-994cf8900bcc","ios":"levelo://app?vid=a87afb56-1815-4c8a-b2a9-994cf8900bcc"},"vehicle_type_id":"4","last_reported":1691348654,"current_range_meters":10800,"station_id":"ce4bhs92rcd13ifvqi0g","pricing_plan_id":"free"},{"bike_id":"5836a1e4-4588-49af-9855-adde616cd7f7","system_id":"levelo_inurba_marseille","lat":43.32832,"lon":5.36678,"is_reserved":false,"is_disabled":false,"rental_uris":{"android":"levelo://app?vid=5836a1e4-4588-49af-9855-adde616cd7f7","ios":"levelo://app?vid=5836a1e4-4588-49af-9855-adde616cd7f7"},"vehicle_type_id":"4","last_reported":1691348654,"current_range_meters":18000,"station_id":"ce4bhs92rcd13ifvqi0g","pricing_plan_id":"free"},{"bike_id":"dd789220-e7b5-42c1-b9dc-dc4243148021","system_id":"levelo_inurba_marseille","lat":43.297163,"lon":5.365866,"is_reserved":false,"is_disabled":false,"rental_uris":{"android":"levelo://app?vid=dd789220-e7b5-42c1-b9dc-dc4243148021","ios":"levelo://app?vid=dd789220-e7b5-42c1-b9dc-dc4243148021"},"vehicle_type_id":"4","last_reported":1691348654,"current_range_meters":31200,"station_id":"ce4bgn12rcd13ifvqbt0","pricing_plan_id":"free"},{"bike_id":"a4e6a5ca-032e-4403-b9fd-03bd1fe7679b","system_id":"levelo_inurba_marseille","lat":43.29722,"lon":5.37688,"is_reserved":false,"is_disabled":false,"rental_uris":{"android":"levelo://app?vid=a4e6a5ca-032e-4403-b9fd-03bd1fe7679b","ios":"levelo://app?vid=a4e6a5ca-032e-4403-b9fd-03bd1fe7679b"},"vehicle_type_id":"4","last_reported":1691348654,"current_range_meters":4000,"station_id":"ce4bgkh2rcd13ifvqbl0","pricing_plan_id":"free"},{"bike_id":"f13e0115-6645-4025-a2e5-7ef4ad4e9d07","system_id":"levelo_inurba_marseille","lat":43.3095,"lon":5.39022,"is_reserved":false,"is_disabled":false,"rental_uris":{"android":"levelo://app?vid=f13e0115-6645-4025-a2e5-7ef4ad4e9d07","ios":"levelo://app?vid=f13e0115-6645-4025-a2e5-7ef4ad4e9d07"},"vehicle_type_id":"4","last_reported":1691348654,"current_range_meters":0,"station_id":"ce4bgup2rcd13ifvqco0","pricing_plan_id":"free"},{"bike_id":"86aff1de-16df-4163-93d8-79a00d25c12b","system_id":"levelo_inurba_marseille","lat":43.296921,"lon":5.376579,"is_reserved":false,"is_disabled":false,"rental_uris":{"android":"levelo://app?vid=86aff1de-16df-4163-93d8-79a00d25c12b","ios":"levelo://app?vid=86aff1de-16df-4163-93d8-79a00d25c12b"},"vehicle_type_id":"4","last_reported":1691348654,"current_range_meters":2400,"station_id":"ce4bgkh2rcd13ifvqbl0","pricing_plan_id":"free"},{"bike_id":"f0b1921d-8fc5-42f6-8214-26455e772ce5","system_id":"levelo_inurba_marseille","lat":43.30959,"lon":5.39041,"is_reserved":false,"is_disabled":false,"rental_uris":{"android":"levelo://app?vid=f0b1921d-8fc5-42f6-8214-26455e772ce5","ios":"levelo://app?vid=f0b1921d-8fc5-42f6-8214-26455e772ce5"},"vehicle_type_id":"4","last_reported":1691348654,"current_range_meters":24800,"station_id":"ce4bgup2rcd13ifvqco0","pricing_plan_id":"free"},{"bike_id":"3eaf808e-4609-4000-964d-aa5fa318f15d","system_id":"levelo_inurba_marseille","lat":43.31759,"lon":5.39006,"is_reserved":false,"is_disabled":false,"rental_uris":{"android":"levelo://app?vid=3eaf808e-4609-4000-964d-aa5fa318f15d","ios":"levelo://app?vid=3eaf808e-4609-4000-964d-aa5fa318f15d"},"vehicle_type_id":"4","last_reported":1691348654,"current_range_meters":14800,"station_id":"ce4bhqp2rcd13ifvqhng","pricing_plan_id":"free"},{"bike_id":"05bb8437-81b1-49ab-a150-9c37195299b6","system_id":"levelo_inurba_marseille","lat":43.317557,"lon":5.390173,"is_reserved":false,"is_disabled":false,"rental_uris":{"android":"levelo://app?vid=05bb8437-81b1-49ab-a150-9c37195299b6","ios":"levelo://app?vid=05bb8437-81b1-49ab-a150-9c37195299b6"},"vehicle_type_id":"4","last_reported":1691348654,"current_range_meters":4400,"station_id":"ce4bhqp2rcd13ifvqhng","pricing_plan_id":"free"},{"bike_id":"a3162c51-d736-4fe2-89f3-581a0b8b0f7d","system_id":"levelo_inurba_marseille","lat":43.317557,"lon":5.390173,"is_reserved":false,"is_disabled":false,"rental_uris":{"android":"levelo://app?vid=a3162c51-d736-4fe2-89f3-581a0b8b0f7d","ios":"levelo://app?vid=a3162c51-d736-4fe2-89f3-581a0b8b0f7d"},"vehicle_type_id":"4","last_reported":1691348654,"current_range_meters":30000,"station_id":"ce4bhqp2rcd13ifvqhng","pricing_plan_id":"free"},{"bike_id":"fb5d1b63-b2f2-4d34-b700-b062bf6b4e69","system_id":"levelo_inurba_marseille","lat":43.317557,"lon":5.390173,"is_reserved":false,"is_disabled":false,"rental_uris":{"android":"levelo://app?vid=fb5d1b63-b2f2-4d34-b700-b062bf6b4e69","ios":"levelo://app?vid=fb5d1b63-b2f2-4d34-b700-b062bf6b4e69"},"vehicle_type_id":"4","last_reported":1691348654,"current_range_meters":31200,"station_id":"ce4bhqp2rcd13ifvqhng","pricing_plan_id":"free"},{"bike_id":"a4df99ce-0488-49dd-a888-94686f562e88","system_id":"levelo_inurba_marseille","lat":43.295748,"lon":5.37522,"is_reserved":false,"is_disabled":false,"rental_uris":{"android":"levelo://app?vid=a4df99ce-0488-49dd-a888-94686f562e88","ios":"levelo://app?vid=a4df99ce-0488-49dd-a888-94686f562e88"},"vehicle_type_id":"4","last_reported":1691348654,"current_range_meters":32000,"station_id":"ce4bgh92rcd13ifvqb50","pricing_plan_id":"free"},{"bike_id":"9cc79af2-63be-4391-8cac-6c0cc90f1911","system_id":"levelo_inurba_marseille","lat":43.295748,"lon":5.37522,"is_reserved":false,"is_disabled":false,"rental_uris":{"android":"levelo://app?vid=9cc79af2-63be-4391-8cac-6c0cc90f1911","ios":"levelo://app?vid=9cc79af2-63be-4391-8cac-6c0cc90f1911"},"vehicle_type_id":"4","last_reported":1691348654,"current_range_meters":0,"station_id":"ce4bgh92rcd13ifvqb50","pricing_plan_id":"free"},{"bike_id":"21075198-9df2-459d-bda0-c3e4d8663ed5","system_id":"levelo_inurba_marseille","lat":43.299822,"lon":5.384781,"is_reserved":false,"is_disabled":false,"rental_uris":{"android":"levelo://app?vid=21075198-9df2-459d-bda0-c3e4d8663ed5","ios":"levelo://app?vid=21075198-9df2-459d-bda0-c3e4d8663ed5"},"vehicle_type_id":"4","last_reported":1691348654,"current_range_meters":19600,"station_id":"ce4bgj92rcd13ifvqbd0","pricing_plan_id":"free"},{"bike_id":"2c428d5d-1c97-412b-8352-85e560ea450e","system_id":"levelo_inurba_marseille","lat":43.295279,"lon":5.375048,"is_reserved":false,"is_disabled":false,"rental_uris":{"android":"levelo://app?vid=2c428d5d-1c97-412b-8352-85e560ea450e","ios":"levelo://app?vid=2c428d5d-1c97-412b-8352-85e560ea450e"},"vehicle_type_id":"4","last_reported":1691348654,"current_range_meters":14400,"station_id":"ce4bgkp2rcd13ifvqbmg","pricing_plan_id":"free"},{"bike_id":"96274efa-55c2-4a2e-a51f-316f7433fb21","system_id":"levelo_inurba_marseille","lat":43.299691,"lon":5.384913,"is_reserved":false,"is_disabled":false,"rental_uris":{"android":"levelo://app?vid=96274efa-55c2-4a2e-a51f-316f7433fb21","ios":"levelo://app?vid=96274efa-55c2-4a2e-a51f-316f7433fb21"},"vehicle_type_id":"4","last_reported":1691348654,"current_range_meters":2800,"station_id":"ce4bgj92rcd13ifvqbd0","pricing_plan_id":"free"},{"bike_id":"153806a9-c106-4acb-8efe-f81ba29b58d3","system_id":"levelo_inurba_marseille","lat":43.32369,"lon":5.38874,"is_reserved":false,"is_disabled":false,"rental_uris":{"android":"levelo://app?vid=153806a9-c106-4acb-8efe-f81ba29b58d3","ios":"levelo://app?vid=153806a9-c106-4acb-8efe-f81ba29b58d3"},"vehicle_type_id":"4","last_reported":1691348654,"current_range_meters":18800,"station_id":"ce4bhqp2rcd13ifvqhog","pricing_plan_id":"free"},{"bike_id":"5f1c231d-5549-420b-a974-1b1406435a60","system_id":"levelo_inurba_marseille","lat":43.32367,"lon":5.388836,"is_reserved":false,"is_disabled":false,"rental_uris":{"android":"levelo://app?vid=5f1c231d-5549-420b-a974-1b1406435a60","ios":"levelo://app?vid=5f1c231d-5549-420b-a974-1b1406435a60"},"vehicle_type_id":"4","last_reported":1691348654,"current_range_meters":16000,"station_id":"ce4bhqp2rcd13ifvqhog","pricing_plan_id":"free"},{"bike_id":"51a94a8b-791c-4738-b220-ee8689f99230","system_id":"levelo_inurba_marseille","lat":43.32366,"lon":5.38879,"is_reserved":false,"is_disabled":false,"rental_uris":{"android":"levelo://app?vid=51a94a8b-791c-4738-b220-ee8689f99230","ios":"levelo://app?vid=51a94a8b-791c-4738-b220-ee8689f99230"},"vehicle_type_id":"4","last_reported":1691348654,"current_range_meters":26800,"station_id":"ce4bhqp2rcd13ifvqhog","pricing_plan_id":"free"},{"bike_id":"e34957c4-c8e2-432e-8235-d14f4b027443","system_id":"levelo_inurba_marseille","lat":43.32367,"lon":5.388836,"is_reserved":false,"is_disabled":false,"rental_uris":{"android":"levelo://app?vid=e34957c4-c8e2-432e-8235-d14f4b027443","ios":"levelo://app?vid=e34957c4-c8e2-432e-8235-d14f4b027443"},"vehicle_type_id":"4","last_reported":1691348654,"current_range_meters":12400,"station_id":"ce4bhqp2rcd13ifvqhog","pricing_plan_id":"free"},{"bike_id":"31c4ebe8-2a4f-41b7-966a-7ad502ff3d8a","system_id":"levelo_inurba_marseille","lat":43.32367,"lon":5.388836,"is_reserved":false,"is_disabled":false,"rental_uris":{"android":"levelo://app?vid=31c4ebe8-2a4f-41b7-966a-7ad502ff3d8a","ios":"levelo://app?vid=31c4ebe8-2a4f-41b7-966a-7ad502ff3d8a"},"vehicle_type_id":"4","last_reported":1691348654,"current_range_meters":14000,"station_id":"ce4bhqp2rcd13ifvqhog","pricing_plan_id":"free"},{"bike_id":"6be534a9-96c6-4989-b3bb-e9dea76376c4","system_id":"levelo_inurba_marseille","lat":43.32373,"lon":5.38882,"is_reserved":false,"is_disabled":false,"rental_uris":{"android":"levelo://app?vid=6be534a9-96c6-4989-b3bb-e9dea76376c4","ios":"levelo://app?vid=6be534a9-96c6-4989-b3bb-e9dea76376c4"},"vehicle_type_id":"4","last_reported":1691348654,"current_range_meters":26400,"station_id":"ce4bhqp2rcd13ifvqhog","pricing_plan_id":"free"},{"bike_id":"ffc6ee64-d104-48cc-b855-43970220193b","system_id":"levelo_inurba_marseille","lat":43.29602,"lon":5.381084,"is_reserved":false,"is_disabled":false,"rental_uris":{"android":"levelo://app?vid=ffc6ee64-d104-48cc-b855-43970220193b","ios":"levelo://app?vid=ffc6ee64-d104-48cc-b855-43970220193b"},"vehicle_type_id":"4","last_reported":1691348654,"current_range_meters":24000,"station_id":"ce4bgl12rcd13ifvqbo0","pricing_plan_id":"free"},{"bike_id":"4faa7e30-8092-47fb-b5b1-8dacbce8f43c","system_id":"levelo_inurba_marseille","lat":43.29602,"lon":5.381084,"is_reserved":false,"is_disabled":false,"rental_uris":{"android":"levelo://app?vid=4faa7e30-8092-47fb-b5b1-8dacbce8f43c","ios":"levelo://app?vid=4faa7e30-8092-47fb-b5b1-8dacbce8f43c"},"vehicle_type_id":"4","last_reported":1691348654,"current_range_meters":3600,"station_id":"ce4bgl12rcd13ifvqbo0","pricing_plan_id":"free"},{"bike_id":"173c3c12-12e8-4043-9982-52559099fc49","system_id":"levelo_inurba_marseille","lat":43.29601,"lon":5.381084,"is_reserved":false,"is_disabled":false,"rental_uris":{"android":"levelo://app?vid=173c3c12-12e8-4043-9982-52559099fc49","ios":"levelo://app?vid=173c3c12-12e8-4043-9982-52559099fc49"},"vehicle_type_id":"4","last_reported":1691348654,"current_range_meters":26000,"station_id":"ce4bgl12rcd13ifvqbo0","pricing_plan_id":"free"},{"bike_id":"d0db7eca-be29-41d0-be78-1e15ea42a458","system_id":"levelo_inurba_marseille","lat":43.29602,"lon":5.381084,"is_reserved":false,"is_disabled":false,"rental_uris":{"android":"levelo://app?vid=d0db7eca-be29-41d0-be78-1e15ea42a458","ios":"levelo://app?vid=d0db7eca-be29-41d0-be78-1e15ea42a458"},"vehicle_type_id":"4","last_reported":1691348654,"current_range_meters":7600,"station_id":"ce4bgl12rcd13ifvqbo0","pricing_plan_id":"free"},{"bike_id":"48615de5-4a84-4eb3-b19f-2a068db54355","system_id":"levelo_inurba_marseille","lat":43.29602,"lon":5.381084,"is_reserved":false,"is_disabled":false,"rental_uris":{"android":"levelo://app?vid=48615de5-4a84-4eb3-b19f-2a068db54355","ios":"levelo://app?vid=48615de5-4a84-4eb3-b19f-2a068db54355"},"vehicle_type_id":"4","last_reported":1691348654,"current_range_meters":13600,"station_id":"ce4bgl12rcd13ifvqbo0","pricing_plan_id":"free"},{"bike_id":"bc7b57ae-2a7e-405c-ac9f-c0fa69f9d193","system_id":"levelo_inurba_marseille","lat":43.293249,"lon":5.371578,"is_reserved":false,"is_disabled":false,"rental_uris":{"android":"levelo://app?vid=bc7b57ae-2a7e-405c-ac9f-c0fa69f9d193","ios":"levelo://app?vid=bc7b57ae-2a7e-405c-ac9f-c0fa69f9d193"},"vehicle_type_id":"4","last_reported":1691348654,"current_range_meters":18000,"station_id":"ce4bgh92rcd13ifvqb40","pricing_plan_id":"free"},{"bike_id":"749d5d0b-b3a8-4f22-ab09-7c391213134d","system_id":"levelo_inurba_marseille","lat":43.292749,"lon":5.368398,"is_reserved":false,"is_disabled":false,"rental_uris":{"android":"levelo://app?vid=749d5d0b-b3a8-4f22-ab09-7c391213134d","ios":"levelo://app?vid=749d5d0b-b3a8-4f22-ab09-7c391213134d"},"vehicle_type_id":"4","last_reported":1691348654,"current_range_meters":13200,"station_id":"ce4bhbp2rcd13ifvqesg","pricing_plan_id":"free"},{"bike_id":"dbe406a0-e31d-4174-932b-0d8d584d17c2","system_id":"levelo_inurba_marseille","lat":43.29273,"lon":5.36839,"is_reserved":false,"is_disabled":false,"rental_uris":{"android":"levelo://app?vid=dbe406a0-e31d-4174-932b-0d8d584d17c2","ios":"levelo://app?vid=dbe406a0-e31d-4174-932b-0d8d584d17c2"},"vehicle_type_id":"4","last_reported":1691348654,"current_range_meters":10400,"station_id":"ce4bhbp2rcd13ifvqesg","pricing_plan_id":"free"},{"bike_id":"6fdadc51-7d07-4395-a521-59e470768ea7","system_id":"levelo_inurba_marseille","lat":43.29272,"lon":5.36851,"is_reserved":false,"is_disabled":false,"rental_uris":{"android":"levelo://app?vid=6fdadc51-7d07-4395-a521-59e470768ea7","ios":"levelo://app?vid=6fdadc51-7d07-4395-a521-59e470768ea7"},"vehicle_type_id":"4","last_reported":1691348654,"current_range_meters":3600,"station_id":"","pricing_plan_id":"free"},{"bike_id":"cc20f0ea-7a22-46e7-816f-8df723115ee9","system_id":"levelo_inurba_marseille","lat":43.293009,"lon":5.374584,"is_reserved":false,"is_disabled":false,"rental_uris":{"android":"levelo://app?vid=cc20f0ea-7a22-46e7-816f-8df723115ee9","ios":"levelo://app?vid=cc20f0ea-7a22-46e7-816f-8df723115ee9"},"vehicle_type_id":"4","last_reported":1691348654,"current_range_meters":14400,"station_id":"ce4bgi12rcd13ifvqb70","pricing_plan_id":"free"},{"bike_id":"00d60519-0704-4af1-87a0-66102b934a7c","system_id":"levelo_inurba_marseille","lat":43.30301,"lon":5.39203,"is_reserved":false,"is_disabled":false,"rental_uris":{"android":"levelo://app?vid=00d60519-0704-4af1-87a0-66102b934a7c","ios":"levelo://app?vid=00d60519-0704-4af1-87a0-66102b934a7c"},"vehicle_type_id":"4","last_reported":1691348654,"current_range_meters":0,"station_id":"ce4bgkh2rcd13ifvqbk0","pricing_plan_id":"free"},{"bike_id":"b6f3aa1c-cf36-4149-9085-77edcfc8b1ec","system_id":"levelo_inurba_marseille","lat":43.292311,"lon":5.360731,"is_reserved":false,"is_disabled":false,"rental_uris":{"android":"levelo://app?vid=b6f3aa1c-cf36-4149-9085-77edcfc8b1ec","ios":"levelo://app?vid=b6f3aa1c-cf36-4149-9085-77edcfc8b1ec"},"vehicle_type_id":"4","last_reported":1691348654,"current_range_meters":3200,"station_id":"ce4bhbh2rcd13ifvqeqg","pricing_plan_id":"free"},{"bike_id":"08efd498-2e81-4816-877d-e9f8d7063bdd","system_id":"levelo_inurba_marseille","lat":43.292311,"lon":5.360731,"is_reserved":false,"is_disabled":false,"rental_uris":{"android":"levelo://app?vid=08efd498-2e81-4816-877d-e9f8d7063bdd","ios":"levelo://app?vid=08efd498-2e81-4816-877d-e9f8d7063bdd"},"vehicle_type_id":"4","last_reported":1691348654,"current_range_meters":16000,"station_id":"ce4bhbh2rcd13ifvqeqg","pricing_plan_id":"free"},{"bike_id":"5258a679-247d-4560-88c1-e7ad3a232d90","system_id":"levelo_inurba_marseille","lat":43.29218,"lon":5.36058,"is_reserved":false,"is_disabled":false,"rental_uris":{"android":"levelo://app?vid=5258a679-247d-4560-88c1-e7ad3a232d90","ios":"levelo://app?vid=5258a679-247d-4560-88c1-e7ad3a232d90"},"vehicle_type_id":"4","last_reported":1691348654,"current_range_meters":15200,"station_id":"ce4bhbh2rcd13ifvqeqg","pricing_plan_id":"free"},{"bike_id":"9fa8cf78-0b02-487f-b1c4-1bfefe5b391d","system_id":"levelo_inurba_marseille","lat":43.292311,"lon":5.360731,"is_reserved":false,"is_disabled":false,"rental_uris":{"android":"levelo://app?vid=9fa8cf78-0b02-487f-b1c4-1bfefe5b391d","ios":"levelo://app?vid=9fa8cf78-0b02-487f-b1c4-1bfefe5b391d"},"vehicle_type_id":"4","last_reported":1691348654,"current_range_meters":3600,"station_id":"ce4bhbh2rcd13ifvqeqg","pricing_plan_id":"free"},{"bike_id":"963baf87-a1d8-4fda-b269-71144d5916c2","system_id":"levelo_inurba_marseille","lat":43.29169,"lon":5.37151,"is_reserved":false,"is_disabled":false,"rental_uris":{"android":"levelo://app?vid=963baf87-a1d8-4fda-b269-71144d5916c2","ios":"levelo://app?vid=963baf87-a1d8-4fda-b269-71144d5916c2"},"vehicle_type_id":"4","last_reported":1691348654,"current_range_meters":6000,"station_id":"ce4bha92rcd13ifvqeh0","pricing_plan_id":"free"},{"bike_id":"f7a71622-2eff-4e50-9635-17eee39a3801","system_id":"levelo_inurba_marseille","lat":43.309038,"lon":5.396546,"is_reserved":false,"is_disabled":false,"rental_uris":{"android":"levelo://app?vid=f7a71622-2eff-4e50-9635-17eee39a3801","ios":"levelo://app?vid=f7a71622-2eff-4e50-9635-17eee39a3801"},"vehicle_type_id":"4","last_reported":1691348654,"current_range_meters":12400,"station_id":"ce4bh012rcd13ifvqcv0","pricing_plan_id":"free"},{"bike_id":"0da880af-0ecf-4351-aaef-58f60430fe9d","system_id":"levelo_inurba_marseille","lat":43.309038,"lon":5.396546,"is_reserved":false,"is_disabled":false,"rental_uris":{"android":"levelo://app?vid=0da880af-0ecf-4351-aaef-58f60430fe9d","ios":"levelo://app?vid=0da880af-0ecf-4351-aaef-58f60430fe9d"},"vehicle_type_id":"4","last_reported":1691348654,"current_range_meters":22400,"station_id":"ce4bh012rcd13ifvqcv0","pricing_plan_id":"free"},{"bike_id":"2286223b-4a30-490b-ad50-ae548a7e92fb","system_id":"levelo_inurba_marseille","lat":43.30883,"lon":5.39651,"is_reserved":false,"is_disabled":false,"rental_uris":{"android":"levelo://app?vid=2286223b-4a30-490b-ad50-ae548a7e92fb","ios":"levelo://app?vid=2286223b-4a30-490b-ad50-ae548a7e92fb"},"vehicle_type_id":"4","last_reported":1691348654,"current_range_meters":0,"station_id":"ce4bh012rcd13ifvqcv0","pricing_plan_id":"free"},{"bike_id":"4fd0d704-5bf4-4c2b-862a-a79138292021","system_id":"levelo_inurba_marseille","lat":43.309038,"lon":5.396546,"is_reserved":false,"is_disabled":false,"rental_uris":{"android":"levelo://app?vid=4fd0d704-5bf4-4c2b-862a-a79138292021","ios":"levelo://app?vid=4fd0d704-5bf4-4c2b-862a-a79138292021"},"vehicle_type_id":"4","last_reported":1691348654,"current_range_meters":14400,"station_id":"ce4bh012rcd13ifvqcv0","pricing_plan_id":"free"},{"bike_id":"0740eadc-4e28-4bbe-930f-461bd795ebc0","system_id":"levelo_inurba_marseille","lat":43.309038,"lon":5.396546,"is_reserved":false,"is_disabled":false,"rental_uris":{"android":"levelo://app?vid=0740eadc-4e28-4bbe-930f-461bd795ebc0","ios":"levelo://app?vid=0740eadc-4e28-4bbe-930f-461bd795ebc0"},"vehicle_type_id":"4","last_reported":1691348654,"current_range_meters":18000,"station_id":"ce4bh012rcd13ifvqcv0","pricing_plan_id":"free"},{"bike_id":"5ba1a013-d2ef-4a53-8ff0-88021e19d71a","system_id":"levelo_inurba_marseille","lat":43.309038,"lon":5.396546,"is_reserved":false,"is_disabled":false,"rental_uris":{"android":"levelo://app?vid=5ba1a013-d2ef-4a53-8ff0-88021e19d71a","ios":"levelo://app?vid=5ba1a013-d2ef-4a53-8ff0-88021e19d71a"},"vehicle_type_id":"4","last_reported":1691348654,"current_range_meters":8400,"station_id":"ce4bh012rcd13ifvqcv0","pricing_plan_id":"free"},{"bike_id":"3444dd32-7134-4cc4-af4d-64e4c6fc359d","system_id":"levelo_inurba_marseille","lat":43.29529,"lon":5.385581,"is_reserved":false,"is_disabled":false,"rental_uris":{"android":"levelo://app?vid=3444dd32-7134-4cc4-af4d-64e4c6fc359d","ios":"levelo://app?vid=3444dd32-7134-4cc4-af4d-64e4c6fc359d"},"vehicle_type_id":"4","last_reported":1691348654,"current_range_meters":21200,"station_id":"ce4bgih2rcd13ifvqba0","pricing_plan_id":"free"},{"bike_id":"53e37c7e-089c-4b13-8974-8db0e93fef08","system_id":"levelo_inurba_marseille","lat":43.29529,"lon":5.385581,"is_reserved":false,"is_disabled":false,"rental_uris":{"android":"levelo://app?vid=53e37c7e-089c-4b13-8974-8db0e93fef08","ios":"levelo://app?vid=53e37c7e-089c-4b13-8974-8db0e93fef08"},"vehicle_type_id":"4","last_reported":1691348654,"current_range_meters":5600,"station_id":"ce4bgih2rcd13ifvqba0","pricing_plan_id":"free"},{"bike_id":"5edefe44-e256-4b44-ac43-af5bcdbe2131","system_id":"levelo_inurba_marseille","lat":43.284787,"lon":5.384116,"is_reserved":false,"is_disabled":false,"rental_uris":{"android":"levelo://app?vid=5edefe44-e256-4b44-ac43-af5bcdbe2131","ios":"levelo://app?vid=5edefe44-e256-4b44-ac43-af5bcdbe2131"},"vehicle_type_id":"4","last_reported":1691348654,"current_range_meters":10400,"station_id":"ce4bh512rcd13ifvqe3g","pricing_plan_id":"free"},{"bike_id":"7939e313-13fe-4b2c-9070-cf03bf9365e9","system_id":"levelo_inurba_marseille","lat":43.294153,"lon":5.386305,"is_reserved":false,"is_disabled":false,"rental_uris":{"android":"levelo://app?vid=7939e313-13fe-4b2c-9070-cf03bf9365e9","ios":"levelo://app?vid=7939e313-13fe-4b2c-9070-cf03bf9365e9"},"vehicle_type_id":"4","last_reported":1691348654,"current_range_meters":18000,"station_id":"ce4bh2h2rcd13ifvqdh0","pricing_plan_id":"free"},{"bike_id":"24fb04dc-e21b-4767-a485-2b95b0fb5332","system_id":"levelo_inurba_marseille","lat":43.294162,"lon":5.386292,"is_reserved":false,"is_disabled":false,"rental_uris":{"android":"levelo://app?vid=24fb04dc-e21b-4767-a485-2b95b0fb5332","ios":"levelo://app?vid=24fb04dc-e21b-4767-a485-2b95b0fb5332"},"vehicle_type_id":"4","last_reported":1691348654,"current_range_meters":17200,"station_id":"ce4bh2h2rcd13ifvqdh0","pricing_plan_id":"free"},{"bike_id":"60d6f644-90c7-4179-846d-33dbcccd0593","system_id":"levelo_inurba_marseille","lat":43.294153,"lon":5.386305,"is_reserved":false,"is_disabled":false,"rental_uris":{"android":"levelo://app?vid=60d6f644-90c7-4179-846d-33dbcccd0593","ios":"levelo://app?vid=60d6f644-90c7-4179-846d-33dbcccd0593"},"vehicle_type_id":"4","last_reported":1691348654,"current_range_meters":20400,"station_id":"ce4bh2h2rcd13ifvqdh0","pricing_plan_id":"free"},{"bike_id":"7e6e9ce1-5271-4a63-9eda-9775f8da9cc8","system_id":"levelo_inurba_marseille","lat":43.290327,"lon":5.375711,"is_reserved":false,"is_disabled":false,"rental_uris":{"android":"levelo://app?vid=7e6e9ce1-5271-4a63-9eda-9775f8da9cc8","ios":"levelo://app?vid=7e6e9ce1-5271-4a63-9eda-9775f8da9cc8"},"vehicle_type_id":"4","last_reported":1691348654,"current_range_meters":6800,"station_id":"ce4bh692rcd13ifvqe90","pricing_plan_id":"free"},{"bike_id":"a16b77be-d00b-4298-bb34-cf8791ed8aaa","system_id":"levelo_inurba_marseille","lat":43.294162,"lon":5.386292,"is_reserved":false,"is_disabled":false,"rental_uris":{"android":"levelo://app?vid=a16b77be-d00b-4298-bb34-cf8791ed8aaa","ios":"levelo://app?vid=a16b77be-d00b-4298-bb34-cf8791ed8aaa"},"vehicle_type_id":"4","last_reported":1691348654,"current_range_meters":18400,"station_id":"ce4bh2h2rcd13ifvqdh0","pricing_plan_id":"free"},{"bike_id":"ec1cd6eb-1b35-4c15-b368-01b2d90bf865","system_id":"levelo_inurba_marseille","lat":43.29031,"lon":5.37559,"is_reserved":false,"is_disabled":false,"rental_uris":{"android":"levelo://app?vid=ec1cd6eb-1b35-4c15-b368-01b2d90bf865","ios":"levelo://app?vid=ec1cd6eb-1b35-4c15-b368-01b2d90bf865"},"vehicle_type_id":"4","last_reported":1691348654,"current_range_meters":28400,"station_id":"","pricing_plan_id":"free"},{"bike_id":"c1a5fb1e-e6bb-4e80-b098-f796f6ea22f9","system_id":"levelo_inurba_marseille","lat":43.28941,"lon":5.36632,"is_reserved":false,"is_disabled":false,"rental_uris":{"android":"levelo://app?vid=c1a5fb1e-e6bb-4e80-b098-f796f6ea22f9","ios":"levelo://app?vid=c1a5fb1e-e6bb-4e80-b098-f796f6ea22f9"},"vehicle_type_id":"4","last_reported":1691348654,"current_range_meters":30000,"station_id":"ce4bhap2rcd13ifvqek0","pricing_plan_id":"free"},{"bike_id":"f2f153f6-eb47-4938-aacb-c956f921e203","system_id":"levelo_inurba_marseille","lat":43.289468,"lon":5.363719,"is_reserved":false,"is_disabled":false,"rental_uris":{"android":"levelo://app?vid=f2f153f6-eb47-4938-aacb-c956f921e203","ios":"levelo://app?vid=f2f153f6-eb47-4938-aacb-c956f921e203"},"vehicle_type_id":"4","last_reported":1691348654,"current_range_meters":2000,"station_id":"ce4bhc92rcd13ifvqetg","pricing_plan_id":"free"},{"bike_id":"dcd1f181-773d-43cf-b417-237580323c2f","system_id":"levelo_inurba_marseille","lat":43.292644,"lon":5.384257,"is_reserved":false,"is_disabled":false,"rental_uris":{"android":"levelo://app?vid=dcd1f181-773d-43cf-b417-237580323c2f","ios":"levelo://app?vid=dcd1f181-773d-43cf-b417-237580323c2f"},"vehicle_type_id":"4","last_reported":1691348654,"current_range_meters":22400,"station_id":"ce4bh692rcd13ifvqea0","pricing_plan_id":"free"},{"bike_id":"52bcaee6-0412-40e6-92da-625f3e296f49","system_id":"levelo_inurba_marseille","lat":43.2927,"lon":5.38436,"is_reserved":false,"is_disabled":false,"rental_uris":{"android":"levelo://app?vid=52bcaee6-0412-40e6-92da-625f3e296f49","ios":"levelo://app?vid=52bcaee6-0412-40e6-92da-625f3e296f49"},"vehicle_type_id":"4","last_reported":1691348654,"current_range_meters":20400,"station_id":"ce4bh692rcd13ifvqea0","pricing_plan_id":"free"},{"bike_id":"25c3368f-9345-43a8-b5fc-18b46b493d4c","system_id":"levelo_inurba_marseille","lat":43.292644,"lon":5.384257,"is_reserved":false,"is_disabled":false,"rental_uris":{"android":"levelo://app?vid=25c3368f-9345-43a8-b5fc-18b46b493d4c","ios":"levelo://app?vid=25c3368f-9345-43a8-b5fc-18b46b493d4c"},"vehicle_type_id":"4","last_reported":1691348654,"current_range_meters":26400,"station_id":"ce4bh692rcd13ifvqea0","pricing_plan_id":"free"},{"bike_id":"bab25099-d5ae-4cef-a8c4-0f82829bc7cf","system_id":"levelo_inurba_marseille","lat":43.292644,"lon":5.384257,"is_reserved":false,"is_disabled":false,"rental_uris":{"android":"levelo://app?vid=bab25099-d5ae-4cef-a8c4-0f82829bc7cf","ios":"levelo://app?vid=bab25099-d5ae-4cef-a8c4-0f82829bc7cf"},"vehicle_type_id":"4","last_reported":1691348654,"current_range_meters":3600,"station_id":"ce4bh692rcd13ifvqea0","pricing_plan_id":"free"},{"bike_id":"581f2f45-e0a7-4e05-a2ea-dcc0638c473d","system_id":"levelo_inurba_marseille","lat":43.292644,"lon":5.384257,"is_reserved":false,"is_disabled":false,"rental_uris":{"android":"levelo://app?vid=581f2f45-e0a7-4e05-a2ea-dcc0638c473d","ios":"levelo://app?vid=581f2f45-e0a7-4e05-a2ea-dcc0638c473d"},"vehicle_type_id":"4","last_reported":1691348654,"current_range_meters":2800,"station_id":"ce4bh692rcd13ifvqea0","pricing_plan_id":"free"},{"bike_id":"5a50af30-ee25-40fd-b54f-e5ba6d99d2cc","system_id":"levelo_inurba_marseille","lat":43.29262,"lon":5.38426,"is_reserved":false,"is_disabled":false,"rental_uris":{"android":"levelo://app?vid=5a50af30-ee25-40fd-b54f-e5ba6d99d2cc","ios":"levelo://app?vid=5a50af30-ee25-40fd-b54f-e5ba6d99d2cc"},"vehicle_type_id":"4","last_reported":1691348654,"current_range_meters":24400,"station_id":"ce4bh692rcd13ifvqea0","pricing_plan_id":"free"},{"bike_id":"0eb34be1-7e2d-433e-85f9-f1614c6c8127","system_id":"levelo_inurba_marseille","lat":43.29265,"lon":5.38437,"is_reserved":false,"is_disabled":false,"rental_uris":{"android":"levelo://app?vid=0eb34be1-7e2d-433e-85f9-f1614c6c8127","ios":"levelo://app?vid=0eb34be1-7e2d-433e-85f9-f1614c6c8127"},"vehicle_type_id":"4","last_reported":1691348654,"current_range_meters":14800,"station_id":"ce4bh692rcd13ifvqea0","pricing_plan_id":"free"},{"bike_id":"e0299b0e-122c-4ae5-b9aa-e65aa9252132","system_id":"levelo_inurba_marseille","lat":43.29265,"lon":5.3844,"is_reserved":false,"is_disabled":false,"rental_uris":{"android":"levelo://app?vid=e0299b0e-122c-4ae5-b9aa-e65aa9252132","ios":"levelo://app?vid=e0299b0e-122c-4ae5-b9aa-e65aa9252132"},"vehicle_type_id":"4","last_reported":1691348654,"current_range_meters":17600,"station_id":"ce4bh692rcd13ifvqea0","pricing_plan_id":"free"},{"bike_id":"00239cbe-8791-443b-a332-d1b2718dbebb","system_id":"levelo_inurba_marseille","lat":43.292644,"lon":5.384257,"is_reserved":false,"is_disabled":false,"rental_uris":{"android":"levelo://app?vid=00239cbe-8791-443b-a332-d1b2718dbebb","ios":"levelo://app?vid=00239cbe-8791-443b-a332-d1b2718dbebb"},"vehicle_type_id":"4","last_reported":1691348654,"current_range_meters":30000,"station_id":"ce4bh692rcd13ifvqea0","pricing_plan_id":"free"},{"bike_id":"8a433abc-499e-49bc-9031-61ff94aef3a1","system_id":"levelo_inurba_marseille","lat":43.29261,"lon":5.38435,"is_reserved":false,"is_disabled":false,"rental_uris":{"android":"levelo://app?vid=8a433abc-499e-49bc-9031-61ff94aef3a1","ios":"levelo://app?vid=8a433abc-499e-49bc-9031-61ff94aef3a1"},"vehicle_type_id":"4","last_reported":1691348654,"current_range_meters":22800,"station_id":"ce4bh692rcd13ifvqea0","pricing_plan_id":"free"},{"bike_id":"6ffc97da-5c25-4f47-bc18-fc7c382c1c9e","system_id":"levelo_inurba_marseille","lat":43.292644,"lon":5.384257,"is_reserved":false,"is_disabled":false,"rental_uris":{"android":"levelo://app?vid=6ffc97da-5c25-4f47-bc18-fc7c382c1c9e","ios":"levelo://app?vid=6ffc97da-5c25-4f47-bc18-fc7c382c1c9e"},"vehicle_type_id":"4","last_reported":1691348654,"current_range_meters":1200,"station_id":"ce4bh692rcd13ifvqea0","pricing_plan_id":"free"},{"bike_id":"f5674a0f-3ff5-457f-8498-35666c22d9b5","system_id":"levelo_inurba_marseille","lat":43.29263,"lon":5.38441,"is_reserved":false,"is_disabled":false,"rental_uris":{"android":"levelo://app?vid=f5674a0f-3ff5-457f-8498-35666c22d9b5","ios":"levelo://app?vid=f5674a0f-3ff5-457f-8498-35666c22d9b5"},"vehicle_type_id":"4","last_reported":1691348654,"current_range_meters":26400,"station_id":"ce4bh692rcd13ifvqea0","pricing_plan_id":"free"},{"bike_id":"bb7c297e-2221-49b6-bd63-a053674e2500","system_id":"levelo_inurba_marseille","lat":43.292644,"lon":5.384257,"is_reserved":false,"is_disabled":false,"rental_uris":{"android":"levelo://app?vid=bb7c297e-2221-49b6-bd63-a053674e2500","ios":"levelo://app?vid=bb7c297e-2221-49b6-bd63-a053674e2500"},"vehicle_type_id":"4","last_reported":1691348654,"current_range_meters":6800,"station_id":"ce4bh692rcd13ifvqea0","pricing_plan_id":"free"},{"bike_id":"502c5fad-6e63-4e41-93aa-41800af92615","system_id":"levelo_inurba_marseille","lat":43.29256,"lon":5.38437,"is_reserved":false,"is_disabled":false,"rental_uris":{"android":"levelo://app?vid=502c5fad-6e63-4e41-93aa-41800af92615","ios":"levelo://app?vid=502c5fad-6e63-4e41-93aa-41800af92615"},"vehicle_type_id":"4","last_reported":1691348654,"current_range_meters":25200,"station_id":"ce4bh692rcd13ifvqea0","pricing_plan_id":"free"},{"bike_id":"f67edc25-bcc7-41fb-8431-1add679b0933","system_id":"levelo_inurba_marseille","lat":43.33044,"lon":5.38912,"is_reserved":false,"is_disabled":false,"rental_uris":{"android":"levelo://app?vid=f67edc25-bcc7-41fb-8431-1add679b0933","ios":"levelo://app?vid=f67edc25-bcc7-41fb-8431-1add679b0933"},"vehicle_type_id":"4","last_reported":1691348654,"current_range_meters":9600,"station_id":"ce4bhr92rcd13ifvqhrg","pricing_plan_id":"free"},{"bike_id":"b4884c58-bba5-4a4b-85b8-384daf0c2e9d","system_id":"levelo_inurba_marseille","lat":43.33043,"lon":5.38914,"is_reserved":false,"is_disabled":false,"rental_uris":{"android":"levelo://app?vid=b4884c58-bba5-4a4b-85b8-384daf0c2e9d","ios":"levelo://app?vid=b4884c58-bba5-4a4b-85b8-384daf0c2e9d"},"vehicle_type_id":"4","last_reported":1691348654,"current_range_meters":6800,"station_id":"ce4bhr92rcd13ifvqhrg","pricing_plan_id":"free"},{"bike_id":"d778d652-0031-4a49-b4da-b998fb19aa69","system_id":"levelo_inurba_marseille","lat":43.33041,"lon":5.38918,"is_reserved":false,"is_disabled":false,"rental_uris":{"android":"levelo://app?vid=d778d652-0031-4a49-b4da-b998fb19aa69","ios":"levelo://app?vid=d778d652-0031-4a49-b4da-b998fb19aa69"},"vehicle_type_id":"4","last_reported":1691348654,"current_range_meters":28000,"station_id":"ce4bhr92rcd13ifvqhrg","pricing_plan_id":"free"},{"bike_id":"5d076f7f-6db3-4466-9d14-85a9c89d4d29","system_id":"levelo_inurba_marseille","lat":43.33042,"lon":5.38917,"is_reserved":false,"is_disabled":false,"rental_uris":{"android":"levelo://app?vid=5d076f7f-6db3-4466-9d14-85a9c89d4d29","ios":"levelo://app?vid=5d076f7f-6db3-4466-9d14-85a9c89d4d29"},"vehicle_type_id":"4","last_reported":1691348654,"current_range_meters":5200,"station_id":"ce4bhr92rcd13ifvqhrg","pricing_plan_id":"free"},{"bike_id":"95088295-7d1d-43b0-b86a-6809e11b8750","system_id":"levelo_inurba_marseille","lat":43.290104,"lon":5.356111,"is_reserved":false,"is_disabled":false,"rental_uris":{"android":"levelo://app?vid=95088295-7d1d-43b0-b86a-6809e11b8750","ios":"levelo://app?vid=95088295-7d1d-43b0-b86a-6809e11b8750"},"vehicle_type_id":"4","last_reported":1691348654,"current_range_meters":23200,"station_id":"ce4bhb92rcd13ifvqen0","pricing_plan_id":"free"},{"bike_id":"ff1a5478-a8e0-4402-ab2b-3b18468a8756","system_id":"levelo_inurba_marseille","lat":43.33043,"lon":5.38919,"is_reserved":false,"is_disabled":false,"rental_uris":{"android":"levelo://app?vid=ff1a5478-a8e0-4402-ab2b-3b18468a8756","ios":"levelo://app?vid=ff1a5478-a8e0-4402-ab2b-3b18468a8756"},"vehicle_type_id":"4","last_reported":1691348654,"current_range_meters":16000,"station_id":"ce4bhr92rcd13ifvqhrg","pricing_plan_id":"free"},{"bike_id":"1a619caf-4910-4559-b87b-52fbdf8be120","system_id":"levelo_inurba_marseille","lat":43.33044,"lon":5.38919,"is_reserved":false,"is_disabled":false,"rental_uris":{"android":"levelo://app?vid=1a619caf-4910-4559-b87b-52fbdf8be120","ios":"levelo://app?vid=1a619caf-4910-4559-b87b-52fbdf8be120"},"vehicle_type_id":"4","last_reported":1691348654,"current_range_meters":23600,"station_id":"ce4bhr92rcd13ifvqhrg","pricing_plan_id":"free"},{"bike_id":"0ad39b2d-5ea7-4993-88d6-88a772550ebb","system_id":"levelo_inurba_marseille","lat":43.33045,"lon":5.38918,"is_reserved":false,"is_disabled":false,"rental_uris":{"android":"levelo://app?vid=0ad39b2d-5ea7-4993-88d6-88a772550ebb","ios":"levelo://app?vid=0ad39b2d-5ea7-4993-88d6-88a772550ebb"},"vehicle_type_id":"4","last_reported":1691348654,"current_range_meters":11200,"station_id":"ce4bhr92rcd13ifvqhrg","pricing_plan_id":"free"},{"bike_id":"132357af-7e1e-499a-ba3e-67111202f1ef","system_id":"levelo_inurba_marseille","lat":43.33043,"lon":5.38922,"is_reserved":false,"is_disabled":false,"rental_uris":{"android":"levelo://app?vid=132357af-7e1e-499a-ba3e-67111202f1ef","ios":"levelo://app?vid=132357af-7e1e-499a-ba3e-67111202f1ef"},"vehicle_type_id":"4","last_reported":1691348654,"current_range_meters":6800,"station_id":"ce4bhr92rcd13ifvqhrg","pricing_plan_id":"free"},{"bike_id":"a6bada1d-9bd5-4c5e-b66a-f1d8a9247bea","system_id":"levelo_inurba_marseille","lat":43.33045,"lon":5.3892,"is_reserved":false,"is_disabled":false,"rental_uris":{"android":"levelo://app?vid=a6bada1d-9bd5-4c5e-b66a-f1d8a9247bea","ios":"levelo://app?vid=a6bada1d-9bd5-4c5e-b66a-f1d8a9247bea"},"vehicle_type_id":"4","last_reported":1691348654,"current_range_meters":30400,"station_id":"ce4bhr92rcd13ifvqhrg","pricing_plan_id":"free"},{"bike_id":"a076b5d9-50e9-42be-b564-6ee0a5d67a3d","system_id":"levelo_inurba_marseille","lat":43.290104,"lon":5.356111,"is_reserved":false,"is_disabled":false,"rental_uris":{"android":"levelo://app?vid=a076b5d9-50e9-42be-b564-6ee0a5d67a3d","ios":"levelo://app?vid=a076b5d9-50e9-42be-b564-6ee0a5d67a3d"},"vehicle_type_id":"4","last_reported":1691348654,"current_range_meters":31200,"station_id":"ce4bhb92rcd13ifvqen0","pricing_plan_id":"free"},{"bike_id":"05bf2cc0-c80b-4d3b-9303-5cea93148e89","system_id":"levelo_inurba_marseille","lat":43.290995,"lon":5.381361,"is_reserved":false,"is_disabled":false,"rental_uris":{"android":"levelo://app?vid=05bf2cc0-c80b-4d3b-9303-5cea93148e89","ios":"levelo://app?vid=05bf2cc0-c80b-4d3b-9303-5cea93148e89"},"vehicle_type_id":"4","last_reported":1691348654,"current_range_meters":31200,"station_id":"ce4bh512rcd13ifvqe2g","pricing_plan_id":"free"},{"bike_id":"c49047e5-3cb2-4261-9264-c8aa10a23f7b","system_id":"levelo_inurba_marseille","lat":43.290104,"lon":5.356111,"is_reserved":false,"is_disabled":false,"rental_uris":{"android":"levelo://app?vid=c49047e5-3cb2-4261-9264-c8aa10a23f7b","ios":"levelo://app?vid=c49047e5-3cb2-4261-9264-c8aa10a23f7b"},"vehicle_type_id":"4","last_reported":1691348654,"current_range_meters":24000,"station_id":"ce4bhb92rcd13ifvqen0","pricing_plan_id":"free"},{"bike_id":"7d8c68ae-52b7-44c2-b179-74952fe11f03","system_id":"levelo_inurba_marseille","lat":43.297815,"lon":5.393548,"is_reserved":false,"is_disabled":false,"rental_uris":{"android":"levelo://app?vid=7d8c68ae-52b7-44c2-b179-74952fe11f03","ios":"levelo://app?vid=7d8c68ae-52b7-44c2-b179-74952fe11f03"},"vehicle_type_id":"4","last_reported":1691348654,"current_range_meters":2800,"station_id":"chh1huq6cuj3fo74tm60","pricing_plan_id":"free"},{"bike_id":"3d948ba6-a6be-4182-b875-45c5e76f6400","system_id":"levelo_inurba_marseille","lat":43.295169,"lon":5.390426,"is_reserved":false,"is_disabled":false,"rental_uris":{"android":"levelo://app?vid=3d948ba6-a6be-4182-b875-45c5e76f6400","ios":"levelo://app?vid=3d948ba6-a6be-4182-b875-45c5e76f6400"},"vehicle_type_id":"4","last_reported":1691348654,"current_range_meters":30800,"station_id":"ce4bh3p2rcd13ifvqdp0","pricing_plan_id":"free"},{"bike_id":"08b7a66c-0123-4e9b-995f-bae8ead7b523","system_id":"levelo_inurba_marseille","lat":43.295169,"lon":5.390426,"is_reserved":false,"is_disabled":false,"rental_uris":{"android":"levelo://app?vid=08b7a66c-0123-4e9b-995f-bae8ead7b523","ios":"levelo://app?vid=08b7a66c-0123-4e9b-995f-bae8ead7b523"},"vehicle_type_id":"4","last_reported":1691348654,"current_range_meters":30400,"station_id":"ce4bh3p2rcd13ifvqdp0","pricing_plan_id":"free"},{"bike_id":"34bf518d-0509-42e7-baa0-a1e4eaf4f06b","system_id":"levelo_inurba_marseille","lat":43.295169,"lon":5.390426,"is_reserved":false,"is_disabled":false,"rental_uris":{"android":"levelo://app?vid=34bf518d-0509-42e7-baa0-a1e4eaf4f06b","ios":"levelo://app?vid=34bf518d-0509-42e7-baa0-a1e4eaf4f06b"},"vehicle_type_id":"4","last_reported":1691348654,"current_range_meters":18400,"station_id":"ce4bh3p2rcd13ifvqdp0","pricing_plan_id":"free"},{"bike_id":"733a69d8-86e1-4aaa-a895-c48245e23e12","system_id":"levelo_inurba_marseille","lat":43.295169,"lon":5.390426,"is_reserved":false,"is_disabled":false,"rental_uris":{"android":"levelo://app?vid=733a69d8-86e1-4aaa-a895-c48245e23e12","ios":"levelo://app?vid=733a69d8-86e1-4aaa-a895-c48245e23e12"},"vehicle_type_id":"4","last_reported":1691348654,"current_range_meters":4400,"station_id":"ce4bh3p2rcd13ifvqdp0","pricing_plan_id":"free"},{"bike_id":"12d408f2-4833-406f-9ca1-0505ddef83d9","system_id":"levelo_inurba_marseille","lat":43.288497,"lon":5.393089,"is_reserved":false,"is_disabled":false,"rental_uris":{"android":"levelo://app?vid=12d408f2-4833-406f-9ca1-0505ddef83d9","ios":"levelo://app?vid=12d408f2-4833-406f-9ca1-0505ddef83d9"},"vehicle_type_id":"4","last_reported":1691348654,"current_range_meters":8800,"station_id":"ce4bh2p2rcd13ifvqdi0","pricing_plan_id":"free"},{"bike_id":"1a52cc63-69ac-4634-9831-3e7509dff179","system_id":"levelo_inurba_marseille","lat":43.28856,"lon":5.358371,"is_reserved":false,"is_disabled":false,"rental_uris":{"android":"levelo://app?vid=1a52cc63-69ac-4634-9831-3e7509dff179","ios":"levelo://app?vid=1a52cc63-69ac-4634-9831-3e7509dff179"},"vehicle_type_id":"4","last_reported":1691348654,"current_range_meters":16800,"station_id":"ce4bhb12rcd13ifvqem0","pricing_plan_id":"free"},{"bike_id":"058a343a-e421-48a4-8468-d850ac51f5c4","system_id":"levelo_inurba_marseille","lat":43.31274,"lon":5.40162,"is_reserved":false,"is_disabled":false,"rental_uris":{"android":"levelo://app?vid=058a343a-e421-48a4-8468-d850ac51f5c4","ios":"levelo://app?vid=058a343a-e421-48a4-8468-d850ac51f5c4"},"vehicle_type_id":"4","last_reported":1691348654,"current_range_meters":0,"station_id":"ce4bh092rcd13ifvqd30","pricing_plan_id":"free"},{"bike_id":"69c051df-300e-4a9d-ba48-7f7345b50599","system_id":"levelo_inurba_marseille","lat":43.31279,"lon":5.40164,"is_reserved":false,"is_disabled":false,"rental_uris":{"android":"levelo://app?vid=69c051df-300e-4a9d-ba48-7f7345b50599","ios":"levelo://app?vid=69c051df-300e-4a9d-ba48-7f7345b50599"},"vehicle_type_id":"4","last_reported":1691348654,"current_range_meters":15200,"station_id":"ce4bh092rcd13ifvqd30","pricing_plan_id":"free"},{"bike_id":"4da0af2e-00ab-410e-9cb4-a0ad283257f3","system_id":"levelo_inurba_marseille","lat":43.312609,"lon":5.401662,"is_reserved":false,"is_disabled":false,"rental_uris":{"android":"levelo://app?vid=4da0af2e-00ab-410e-9cb4-a0ad283257f3","ios":"levelo://app?vid=4da0af2e-00ab-410e-9cb4-a0ad283257f3"},"vehicle_type_id":"4","last_reported":1691348654,"current_range_meters":4400,"station_id":"ce4bh092rcd13ifvqd30","pricing_plan_id":"free"},{"bike_id":"56f06eb7-274d-47cb-b2e1-0aecff013fa1","system_id":"levelo_inurba_marseille","lat":43.3093,"lon":5.40137,"is_reserved":false,"is_disabled":false,"rental_uris":{"android":"levelo://app?vid=56f06eb7-274d-47cb-b2e1-0aecff013fa1","ios":"levelo://app?vid=56f06eb7-274d-47cb-b2e1-0aecff013fa1"},"vehicle_type_id":"4","last_reported":1691348654,"current_range_meters":6400,"station_id":"ce4bgvp2rcd13ifvqct0","pricing_plan_id":"free"},{"bike_id":"1a06c586-e060-46e4-8c3e-928687f65bc3","system_id":"levelo_inurba_marseille","lat":43.309371,"lon":5.401449,"is_reserved":false,"is_disabled":false,"rental_uris":{"android":"levelo://app?vid=1a06c586-e060-46e4-8c3e-928687f65bc3","ios":"levelo://app?vid=1a06c586-e060-46e4-8c3e-928687f65bc3"},"vehicle_type_id":"4","last_reported":1691348654,"current_range_meters":13600,"station_id":"ce4bgvp2rcd13ifvqct0","pricing_plan_id":"free"},{"bike_id":"0ebd7cc3-0ed5-45e5-a06f-18cd3017813a","system_id":"levelo_inurba_marseille","lat":43.337587,"lon":5.374694,"is_reserved":false,"is_disabled":false,"rental_uris":{"android":"levelo://app?vid=0ebd7cc3-0ed5-45e5-a06f-18cd3017813a","ios":"levelo://app?vid=0ebd7cc3-0ed5-45e5-a06f-18cd3017813a"},"vehicle_type_id":"4","last_reported":1691348654,"current_range_meters":30000,"station_id":"","pricing_plan_id":"free"},{"bike_id":"1a066735-e91f-4e00-b84e-60eed4a3d40a","system_id":"levelo_inurba_marseille","lat":43.30642,"lon":5.401031,"is_reserved":false,"is_disabled":false,"rental_uris":{"android":"levelo://app?vid=1a066735-e91f-4e00-b84e-60eed4a3d40a","ios":"levelo://app?vid=1a066735-e91f-4e00-b84e-60eed4a3d40a"},"vehicle_type_id":"4","last_reported":1691348654,"current_range_meters":24400,"station_id":"ce4bh112rcd13ifvqda0","pricing_plan_id":"free"},{"bike_id":"11a042ce-b839-46b1-a9fb-a8b0b52778b5","system_id":"levelo_inurba_marseille","lat":43.30648,"lon":5.40095,"is_reserved":false,"is_disabled":false,"rental_uris":{"android":"levelo://app?vid=11a042ce-b839-46b1-a9fb-a8b0b52778b5","ios":"levelo://app?vid=11a042ce-b839-46b1-a9fb-a8b0b52778b5"},"vehicle_type_id":"4","last_reported":1691348654,"current_range_meters":17600,"station_id":"ce4bh112rcd13ifvqda0","pricing_plan_id":"free"},{"bike_id":"38a2974b-2a4b-4b6b-ba49-7ccf88d4eb7e","system_id":"levelo_inurba_marseille","lat":43.30642,"lon":5.401031,"is_reserved":false,"is_disabled":false,"rental_uris":{"android":"levelo://app?vid=38a2974b-2a4b-4b6b-ba49-7ccf88d4eb7e","ios":"levelo://app?vid=38a2974b-2a4b-4b6b-ba49-7ccf88d4eb7e"},"vehicle_type_id":"4","last_reported":1691348654,"current_range_meters":400,"station_id":"ce4bh112rcd13ifvqda0","pricing_plan_id":"free"},{"bike_id":"0823cc33-79de-4e3a-8b8f-1e9cd3414ce2","system_id":"levelo_inurba_marseille","lat":43.301117,"lon":5.398795,"is_reserved":false,"is_disabled":false,"rental_uris":{"android":"levelo://app?vid=0823cc33-79de-4e3a-8b8f-1e9cd3414ce2","ios":"levelo://app?vid=0823cc33-79de-4e3a-8b8f-1e9cd3414ce2"},"vehicle_type_id":"4","last_reported":1691348654,"current_range_meters":18000,"station_id":"ce4bh0h2rcd13ifvqd40","pricing_plan_id":"free"},{"bike_id":"842c27d7-3475-4c62-979e-e8c00fce117e","system_id":"levelo_inurba_marseille","lat":43.30646,"lon":5.40098,"is_reserved":false,"is_disabled":false,"rental_uris":{"android":"levelo://app?vid=842c27d7-3475-4c62-979e-e8c00fce117e","ios":"levelo://app?vid=842c27d7-3475-4c62-979e-e8c00fce117e"},"vehicle_type_id":"4","last_reported":1691348654,"current_range_meters":16400,"station_id":"ce4bh112rcd13ifvqda0","pricing_plan_id":"free"},{"bike_id":"17587659-ccd1-4261-b54d-a84349c7081a","system_id":"levelo_inurba_marseille","lat":43.30645,"lon":5.40099,"is_reserved":false,"is_disabled":false,"rental_uris":{"android":"levelo://app?vid=17587659-ccd1-4261-b54d-a84349c7081a","ios":"levelo://app?vid=17587659-ccd1-4261-b54d-a84349c7081a"},"vehicle_type_id":"4","last_reported":1691348654,"current_range_meters":25600,"station_id":"ce4bh112rcd13ifvqda0","pricing_plan_id":"free"},{"bike_id":"faaf23f4-481f-4429-bbb3-bf14958bc5a5","system_id":"levelo_inurba_marseille","lat":43.301117,"lon":5.398795,"is_reserved":false,"is_disabled":false,"rental_uris":{"android":"levelo://app?vid=faaf23f4-481f-4429-bbb3-bf14958bc5a5","ios":"levelo://app?vid=faaf23f4-481f-4429-bbb3-bf14958bc5a5"},"vehicle_type_id":"4","last_reported":1691348654,"current_range_meters":20400,"station_id":"ce4bh0h2rcd13ifvqd40","pricing_plan_id":"free"},{"bike_id":"61dc2a69-657e-402e-bf8f-563e9a4dab03","system_id":"levelo_inurba_marseille","lat":43.30638,"lon":5.40098,"is_reserved":false,"is_disabled":false,"rental_uris":{"android":"levelo://app?vid=61dc2a69-657e-402e-bf8f-563e9a4dab03","ios":"levelo://app?vid=61dc2a69-657e-402e-bf8f-563e9a4dab03"},"vehicle_type_id":"4","last_reported":1691348654,"current_range_meters":6800,"station_id":"ce4bh112rcd13ifvqda0","pricing_plan_id":"free"},{"bike_id":"4768a6e0-4853-424c-8af0-6026fcfea283","system_id":"levelo_inurba_marseille","lat":43.30642,"lon":5.401031,"is_reserved":false,"is_disabled":false,"rental_uris":{"android":"levelo://app?vid=4768a6e0-4853-424c-8af0-6026fcfea283","ios":"levelo://app?vid=4768a6e0-4853-424c-8af0-6026fcfea283"},"vehicle_type_id":"4","last_reported":1691348654,"current_range_meters":0,"station_id":"ce4bh112rcd13ifvqda0","pricing_plan_id":"free"},{"bike_id":"e544d58d-384f-475d-aa49-9fbae001e87d","system_id":"levelo_inurba_marseille","lat":43.301117,"lon":5.398795,"is_reserved":false,"is_disabled":false,"rental_uris":{"android":"levelo://app?vid=e544d58d-384f-475d-aa49-9fbae001e87d","ios":"levelo://app?vid=e544d58d-384f-475d-aa49-9fbae001e87d"},"vehicle_type_id":"4","last_reported":1691348654,"current_range_meters":8000,"station_id":"ce4bh0h2rcd13ifvqd40","pricing_plan_id":"free"},{"bike_id":"76ffec4d-4d93-4b41-8518-56c98bd9d27f","system_id":"levelo_inurba_marseille","lat":43.301117,"lon":5.398795,"is_reserved":false,"is_disabled":false,"rental_uris":{"android":"levelo://app?vid=76ffec4d-4d93-4b41-8518-56c98bd9d27f","ios":"levelo://app?vid=76ffec4d-4d93-4b41-8518-56c98bd9d27f"},"vehicle_type_id":"4","last_reported":1691348654,"current_range_meters":5200,"station_id":"ce4bh0h2rcd13ifvqd40","pricing_plan_id":"free"},{"bike_id":"5df14df3-ac79-45e4-9f44-b564d760d039","system_id":"levelo_inurba_marseille","lat":43.301117,"lon":5.398795,"is_reserved":false,"is_disabled":false,"rental_uris":{"android":"levelo://app?vid=5df14df3-ac79-45e4-9f44-b564d760d039","ios":"levelo://app?vid=5df14df3-ac79-45e4-9f44-b564d760d039"},"vehicle_type_id":"4","last_reported":1691348654,"current_range_meters":8000,"station_id":"ce4bh0h2rcd13ifvqd40","pricing_plan_id":"free"},{"bike_id":"0385b329-fb35-4c89-b47e-c29dd8d668ed","system_id":"levelo_inurba_marseille","lat":43.286961,"lon":5.373785,"is_reserved":false,"is_disabled":false,"rental_uris":{"android":"levelo://app?vid=0385b329-fb35-4c89-b47e-c29dd8d668ed","ios":"levelo://app?vid=0385b329-fb35-4c89-b47e-c29dd8d668ed"},"vehicle_type_id":"4","last_reported":1691348654,"current_range_meters":27600,"station_id":"ce4bh3p2rcd13ifvqdq0","pricing_plan_id":"free"},{"bike_id":"75199276-b705-4ad7-b6a9-49aeaa84628a","system_id":"levelo_inurba_marseille","lat":43.286591,"lon":5.363346,"is_reserved":false,"is_disabled":false,"rental_uris":{"android":"levelo://app?vid=75199276-b705-4ad7-b6a9-49aeaa84628a","ios":"levelo://app?vid=75199276-b705-4ad7-b6a9-49aeaa84628a"},"vehicle_type_id":"4","last_reported":1691348654,"current_range_meters":31200,"station_id":"ce4bhah2rcd13ifvqej0","pricing_plan_id":"free"},{"bike_id":"cd8d1bb6-4306-47dc-bd36-561135cb93d3","system_id":"levelo_inurba_marseille","lat":43.298681,"lon":5.397225,"is_reserved":false,"is_disabled":false,"rental_uris":{"android":"levelo://app?vid=cd8d1bb6-4306-47dc-bd36-561135cb93d3","ios":"levelo://app?vid=cd8d1bb6-4306-47dc-bd36-561135cb93d3"},"vehicle_type_id":"4","last_reported":1691348654,"current_range_meters":25200,"station_id":"ce4bh0h2rcd13ifvqd50","pricing_plan_id":"free"},{"bike_id":"a4915fa9-56e9-4880-a3c0-7b16dfde38d9","system_id":"levelo_inurba_marseille","lat":43.295194,"lon":5.39397,"is_reserved":false,"is_disabled":false,"rental_uris":{"android":"levelo://app?vid=a4915fa9-56e9-4880-a3c0-7b16dfde38d9","ios":"levelo://app?vid=a4915fa9-56e9-4880-a3c0-7b16dfde38d9"},"vehicle_type_id":"4","last_reported":1691348654,"current_range_meters":8800,"station_id":"ce4bh292rcd13ifvqdf0","pricing_plan_id":"free"},{"bike_id":"7b9e2d57-7c2f-4652-8ec0-ee4d147afe24","system_id":"levelo_inurba_marseille","lat":43.302548,"lon":5.400568,"is_reserved":false,"is_disabled":false,"rental_uris":{"android":"levelo://app?vid=7b9e2d57-7c2f-4652-8ec0-ee4d147afe24","ios":"levelo://app?vid=7b9e2d57-7c2f-4652-8ec0-ee4d147afe24"},"vehicle_type_id":"4","last_reported":1691348654,"current_range_meters":6000,"station_id":"","pricing_plan_id":"free"},{"bike_id":"1accdc45-0180-4750-979a-d025efd3a71e","system_id":"levelo_inurba_marseille","lat":43.290336,"lon":5.386425,"is_reserved":false,"is_disabled":false,"rental_uris":{"android":"levelo://app?vid=1accdc45-0180-4750-979a-d025efd3a71e","ios":"levelo://app?vid=1accdc45-0180-4750-979a-d025efd3a71e"},"vehicle_type_id":"4","last_reported":1691348654,"current_range_meters":0,"station_id":"ce4bh4p2rcd13ifvqe0g","pricing_plan_id":"free"},{"bike_id":"ed43ec9f-796a-407f-ae6a-4ec5196e4566","system_id":"levelo_inurba_marseille","lat":43.30253,"lon":5.40072,"is_reserved":false,"is_disabled":false,"rental_uris":{"android":"levelo://app?vid=ed43ec9f-796a-407f-ae6a-4ec5196e4566","ios":"levelo://app?vid=ed43ec9f-796a-407f-ae6a-4ec5196e4566"},"vehicle_type_id":"4","last_reported":1691348654,"current_range_meters":1600,"station_id":"ce4bgvh2rcd13ifvqcs0","pricing_plan_id":"free"},{"bike_id":"bd74f050-edb3-4149-b3ef-882cb790fea3","system_id":"levelo_inurba_marseille","lat":43.286039,"lon":5.370679,"is_reserved":false,"is_disabled":false,"rental_uris":{"android":"levelo://app?vid=bd74f050-edb3-4149-b3ef-882cb790fea3","ios":"levelo://app?vid=bd74f050-edb3-4149-b3ef-882cb790fea3"},"vehicle_type_id":"4","last_reported":1691348654,"current_range_meters":14400,"station_id":"ce4bht12rcd13ifvqi60","pricing_plan_id":"free"},{"bike_id":"be834103-7eb6-4077-8dd3-b5f01a07caf5","system_id":"levelo_inurba_marseille","lat":43.286039,"lon":5.370679,"is_reserved":false,"is_disabled":false,"rental_uris":{"android":"levelo://app?vid=be834103-7eb6-4077-8dd3-b5f01a07caf5","ios":"levelo://app?vid=be834103-7eb6-4077-8dd3-b5f01a07caf5"},"vehicle_type_id":"4","last_reported":1691348654,"current_range_meters":26400,"station_id":"ce4bht12rcd13ifvqi60","pricing_plan_id":"free"},{"bike_id":"6c044695-bcf7-4451-843c-f16a7935adaf","system_id":"levelo_inurba_marseille","lat":43.28613,"lon":5.37061,"is_reserved":false,"is_disabled":false,"rental_uris":{"android":"levelo://app?vid=6c044695-bcf7-4451-843c-f16a7935adaf","ios":"levelo://app?vid=6c044695-bcf7-4451-843c-f16a7935adaf"},"vehicle_type_id":"4","last_reported":1691348654,"current_range_meters":24800,"station_id":"ce4bht12rcd13ifvqi60","pricing_plan_id":"free"},{"bike_id":"ae1f0ebe-567d-4cdf-bb9b-eba1edcab34d","system_id":"levelo_inurba_marseille","lat":43.286039,"lon":5.370679,"is_reserved":false,"is_disabled":false,"rental_uris":{"android":"levelo://app?vid=ae1f0ebe-567d-4cdf-bb9b-eba1edcab34d","ios":"levelo://app?vid=ae1f0ebe-567d-4cdf-bb9b-eba1edcab34d"},"vehicle_type_id":"4","last_reported":1691348654,"current_range_meters":6800,"station_id":"ce4bht12rcd13ifvqi60","pricing_plan_id":"free"},{"bike_id":"92a8b8ad-f702-4d33-84b4-cf6c39aae1f1","system_id":"levelo_inurba_marseille","lat":43.286039,"lon":5.370679,"is_reserved":false,"is_disabled":false,"rental_uris":{"android":"levelo://app?vid=92a8b8ad-f702-4d33-84b4-cf6c39aae1f1","ios":"levelo://app?vid=92a8b8ad-f702-4d33-84b4-cf6c39aae1f1"},"vehicle_type_id":"4","last_reported":1691348654,"current_range_meters":10800,"station_id":"ce4bht12rcd13ifvqi60","pricing_plan_id":"free"},{"bike_id":"ff7c1d74-c55f-497e-ac70-9101d97df80c","system_id":"levelo_inurba_marseille","lat":43.286039,"lon":5.370679,"is_reserved":false,"is_disabled":false,"rental_uris":{"android":"levelo://app?vid=ff7c1d74-c55f-497e-ac70-9101d97df80c","ios":"levelo://app?vid=ff7c1d74-c55f-497e-ac70-9101d97df80c"},"vehicle_type_id":"4","last_reported":1691348654,"current_range_meters":29600,"station_id":"ce4bht12rcd13ifvqi60","pricing_plan_id":"free"},{"bike_id":"e0cf2847-de27-4aff-9fe8-506cd17b52a7","system_id":"levelo_inurba_marseille","lat":43.286039,"lon":5.370679,"is_reserved":false,"is_disabled":false,"rental_uris":{"android":"levelo://app?vid=e0cf2847-de27-4aff-9fe8-506cd17b52a7","ios":"levelo://app?vid=e0cf2847-de27-4aff-9fe8-506cd17b52a7"},"vehicle_type_id":"4","last_reported":1691348654,"current_range_meters":12800,"station_id":"ce4bht12rcd13ifvqi60","pricing_plan_id":"free"},{"bike_id":"24457305-36fd-4cc0-85c0-349f453f944b","system_id":"levelo_inurba_marseille","lat":43.286039,"lon":5.370679,"is_reserved":false,"is_disabled":false,"rental_uris":{"android":"levelo://app?vid=24457305-36fd-4cc0-85c0-349f453f944b","ios":"levelo://app?vid=24457305-36fd-4cc0-85c0-349f453f944b"},"vehicle_type_id":"4","last_reported":1691348654,"current_range_meters":24000,"station_id":"ce4bht12rcd13ifvqi60","pricing_plan_id":"free"},{"bike_id":"d6e82fbd-84f4-4886-8ac9-7045ae34fa17","system_id":"levelo_inurba_marseille","lat":43.28608,"lon":5.3706,"is_reserved":false,"is_disabled":false,"rental_uris":{"android":"levelo://app?vid=d6e82fbd-84f4-4886-8ac9-7045ae34fa17","ios":"levelo://app?vid=d6e82fbd-84f4-4886-8ac9-7045ae34fa17"},"vehicle_type_id":"4","last_reported":1691348654,"current_range_meters":14400,"station_id":"ce4bht12rcd13ifvqi60","pricing_plan_id":"free"},{"bike_id":"7c448207-1ffe-4f77-a2fd-5f083d2b0cd7","system_id":"levelo_inurba_marseille","lat":43.28607,"lon":5.37062,"is_reserved":false,"is_disabled":false,"rental_uris":{"android":"levelo://app?vid=7c448207-1ffe-4f77-a2fd-5f083d2b0cd7","ios":"levelo://app?vid=7c448207-1ffe-4f77-a2fd-5f083d2b0cd7"},"vehicle_type_id":"4","last_reported":1691348654,"current_range_meters":23200,"station_id":"ce4bht12rcd13ifvqi60","pricing_plan_id":"free"},{"bike_id":"ae86323a-13d3-492d-95a3-35c03f5a74fc","system_id":"levelo_inurba_marseille","lat":43.28606,"lon":5.37066,"is_reserved":false,"is_disabled":false,"rental_uris":{"android":"levelo://app?vid=ae86323a-13d3-492d-95a3-35c03f5a74fc","ios":"levelo://app?vid=ae86323a-13d3-492d-95a3-35c03f5a74fc"},"vehicle_type_id":"4","last_reported":1691348654,"current_range_meters":1200,"station_id":"ce4bht12rcd13ifvqi60","pricing_plan_id":"free"},{"bike_id":"9ebb3355-bb41-4d7c-a98d-6cca55b06609","system_id":"levelo_inurba_marseille","lat":43.286039,"lon":5.370679,"is_reserved":false,"is_disabled":false,"rental_uris":{"android":"levelo://app?vid=9ebb3355-bb41-4d7c-a98d-6cca55b06609","ios":"levelo://app?vid=9ebb3355-bb41-4d7c-a98d-6cca55b06609"},"vehicle_type_id":"4","last_reported":1691348654,"current_range_meters":0,"station_id":"ce4bht12rcd13ifvqi60","pricing_plan_id":"free"},{"bike_id":"c5a6f821-36b5-4062-bf5d-daeed284b3a5","system_id":"levelo_inurba_marseille","lat":43.287184,"lon":5.37937,"is_reserved":false,"is_disabled":false,"rental_uris":{"android":"levelo://app?vid=c5a6f821-36b5-4062-bf5d-daeed284b3a5","ios":"levelo://app?vid=c5a6f821-36b5-4062-bf5d-daeed284b3a5"},"vehicle_type_id":"4","last_reported":1691348654,"current_range_meters":18000,"station_id":"ce4bh9p2rcd13ifvqec0","pricing_plan_id":"free"},{"bike_id":"1f7ad203-3c84-4ddf-b2b1-5c110354413e","system_id":"levelo_inurba_marseille","lat":43.287185,"lon":5.379373,"is_reserved":false,"is_disabled":false,"rental_uris":{"android":"levelo://app?vid=1f7ad203-3c84-4ddf-b2b1-5c110354413e","ios":"levelo://app?vid=1f7ad203-3c84-4ddf-b2b1-5c110354413e"},"vehicle_type_id":"4","last_reported":1691348654,"current_range_meters":12400,"station_id":"ce4bh9p2rcd13ifvqec0","pricing_plan_id":"free"},{"bike_id":"2215d72d-b17a-4a66-8f10-6e09a521210d","system_id":"levelo_inurba_marseille","lat":43.287185,"lon":5.379373,"is_reserved":false,"is_disabled":false,"rental_uris":{"android":"levelo://app?vid=2215d72d-b17a-4a66-8f10-6e09a521210d","ios":"levelo://app?vid=2215d72d-b17a-4a66-8f10-6e09a521210d"},"vehicle_type_id":"4","last_reported":1691348654,"current_range_meters":25600,"station_id":"ce4bh9p2rcd13ifvqec0","pricing_plan_id":"free"},{"bike_id":"85954b97-fc0b-431d-a182-ec00003169d7","system_id":"levelo_inurba_marseille","lat":43.287184,"lon":5.37937,"is_reserved":false,"is_disabled":false,"rental_uris":{"android":"levelo://app?vid=85954b97-fc0b-431d-a182-ec00003169d7","ios":"levelo://app?vid=85954b97-fc0b-431d-a182-ec00003169d7"},"vehicle_type_id":"4","last_reported":1691348654,"current_range_meters":19200,"station_id":"ce4bh9p2rcd13ifvqec0","pricing_plan_id":"free"},{"bike_id":"3469bcbb-0d5b-4b5e-90d8-cf1f39cc4405","system_id":"levelo_inurba_marseille","lat":43.31647,"lon":5.40438,"is_reserved":false,"is_disabled":false,"rental_uris":{"android":"levelo://app?vid=3469bcbb-0d5b-4b5e-90d8-cf1f39cc4405","ios":"levelo://app?vid=3469bcbb-0d5b-4b5e-90d8-cf1f39cc4405"},"vehicle_type_id":"4","last_reported":1691348654,"current_range_meters":18800,"station_id":"ce4bh012rcd13ifvqd00","pricing_plan_id":"free"},{"bike_id":"446f5286-11ed-4dfb-9b32-7dc23c9e192c","system_id":"levelo_inurba_marseille","lat":43.291994,"lon":5.392907,"is_reserved":false,"is_disabled":false,"rental_uris":{"android":"levelo://app?vid=446f5286-11ed-4dfb-9b32-7dc23c9e192c","ios":"levelo://app?vid=446f5286-11ed-4dfb-9b32-7dc23c9e192c"},"vehicle_type_id":"4","last_reported":1691348654,"current_range_meters":12800,"station_id":"ce4bh192rcd13ifvqdd0","pricing_plan_id":"free"},{"bike_id":"76dd570d-768c-4453-8442-ee80cdb02822","system_id":"levelo_inurba_marseille","lat":43.291994,"lon":5.392907,"is_reserved":false,"is_disabled":false,"rental_uris":{"android":"levelo://app?vid=76dd570d-768c-4453-8442-ee80cdb02822","ios":"levelo://app?vid=76dd570d-768c-4453-8442-ee80cdb02822"},"vehicle_type_id":"4","last_reported":1691348654,"current_range_meters":14400,"station_id":"ce4bh192rcd13ifvqdd0","pricing_plan_id":"free"},{"bike_id":"0bc72139-2fa8-496d-834e-ade126575b59","system_id":"levelo_inurba_marseille","lat":43.291994,"lon":5.392907,"is_reserved":false,"is_disabled":false,"rental_uris":{"android":"levelo://app?vid=0bc72139-2fa8-496d-834e-ade126575b59","ios":"levelo://app?vid=0bc72139-2fa8-496d-834e-ade126575b59"},"vehicle_type_id":"4","last_reported":1691348654,"current_range_meters":20000,"station_id":"ce4bh192rcd13ifvqdd0","pricing_plan_id":"free"},{"bike_id":"f7c6232b-2de8-4d78-8dd3-84050f600908","system_id":"levelo_inurba_marseille","lat":43.284538,"lon":5.358657,"is_reserved":false,"is_disabled":false,"rental_uris":{"android":"levelo://app?vid=f7c6232b-2de8-4d78-8dd3-84050f600908","ios":"levelo://app?vid=f7c6232b-2de8-4d78-8dd3-84050f600908"},"vehicle_type_id":"4","last_reported":1691348654,"current_range_meters":16000,"station_id":"ce4bhah2rcd13ifvqei0","pricing_plan_id":"free"},{"bike_id":"587c31b9-c885-4adc-a214-9320d3f735e4","system_id":"levelo_inurba_marseille","lat":43.284538,"lon":5.358657,"is_reserved":false,"is_disabled":false,"rental_uris":{"android":"levelo://app?vid=587c31b9-c885-4adc-a214-9320d3f735e4","ios":"levelo://app?vid=587c31b9-c885-4adc-a214-9320d3f735e4"},"vehicle_type_id":"4","last_reported":1691348654,"current_range_meters":14800,"station_id":"ce4bhah2rcd13ifvqei0","pricing_plan_id":"free"},{"bike_id":"bb69b90e-f6f4-49ee-9d47-6d26390c9f6c","system_id":"levelo_inurba_marseille","lat":43.284538,"lon":5.358657,"is_reserved":false,"is_disabled":false,"rental_uris":{"android":"levelo://app?vid=bb69b90e-f6f4-49ee-9d47-6d26390c9f6c","ios":"levelo://app?vid=bb69b90e-f6f4-49ee-9d47-6d26390c9f6c"},"vehicle_type_id":"4","last_reported":1691348654,"current_range_meters":0,"station_id":"ce4bhah2rcd13ifvqei0","pricing_plan_id":"free"},{"bike_id":"c09ca22e-011a-4518-8533-90549ce9ccac","system_id":"levelo_inurba_marseille","lat":43.284538,"lon":5.358657,"is_reserved":false,"is_disabled":false,"rental_uris":{"android":"levelo://app?vid=c09ca22e-011a-4518-8533-90549ce9ccac","ios":"levelo://app?vid=c09ca22e-011a-4518-8533-90549ce9ccac"},"vehicle_type_id":"4","last_reported":1691348654,"current_range_meters":1600,"station_id":"ce4bhah2rcd13ifvqei0","pricing_plan_id":"free"},{"bike_id":"2c3455e2-b250-4b1f-9265-7e5c5f71eb62","system_id":"levelo_inurba_marseille","lat":43.284538,"lon":5.358657,"is_reserved":false,"is_disabled":false,"rental_uris":{"android":"levelo://app?vid=2c3455e2-b250-4b1f-9265-7e5c5f71eb62","ios":"levelo://app?vid=2c3455e2-b250-4b1f-9265-7e5c5f71eb62"},"vehicle_type_id":"4","last_reported":1691348654,"current_range_meters":19600,"station_id":"ce4bhah2rcd13ifvqei0","pricing_plan_id":"free"},{"bike_id":"21f939ff-8d04-4678-a78e-e5e2b75863ad","system_id":"levelo_inurba_marseille","lat":43.284538,"lon":5.358657,"is_reserved":false,"is_disabled":false,"rental_uris":{"android":"levelo://app?vid=21f939ff-8d04-4678-a78e-e5e2b75863ad","ios":"levelo://app?vid=21f939ff-8d04-4678-a78e-e5e2b75863ad"},"vehicle_type_id":"4","last_reported":1691348654,"current_range_meters":14400,"station_id":"ce4bhah2rcd13ifvqei0","pricing_plan_id":"free"},{"bike_id":"7b78d55e-e99c-4fa7-968a-c672d6912f00","system_id":"levelo_inurba_marseille","lat":43.28463,"lon":5.35878,"is_reserved":false,"is_disabled":false,"rental_uris":{"android":"levelo://app?vid=7b78d55e-e99c-4fa7-968a-c672d6912f00","ios":"levelo://app?vid=7b78d55e-e99c-4fa7-968a-c672d6912f00"},"vehicle_type_id":"4","last_reported":1691348654,"current_range_meters":31600,"station_id":"ce4bhah2rcd13ifvqei0","pricing_plan_id":"free"},{"bike_id":"5e7e38ce-da4c-467c-b137-6b58212848d6","system_id":"levelo_inurba_marseille","lat":43.284538,"lon":5.358657,"is_reserved":false,"is_disabled":false,"rental_uris":{"android":"levelo://app?vid=5e7e38ce-da4c-467c-b137-6b58212848d6","ios":"levelo://app?vid=5e7e38ce-da4c-467c-b137-6b58212848d6"},"vehicle_type_id":"4","last_reported":1691348654,"current_range_meters":20000,"station_id":"ce4bhah2rcd13ifvqei0","pricing_plan_id":"free"},{"bike_id":"eaeb9f23-336d-4d3b-8ddb-6ba50a842601","system_id":"levelo_inurba_marseille","lat":43.284538,"lon":5.358657,"is_reserved":false,"is_disabled":false,"rental_uris":{"android":"levelo://app?vid=eaeb9f23-336d-4d3b-8ddb-6ba50a842601","ios":"levelo://app?vid=eaeb9f23-336d-4d3b-8ddb-6ba50a842601"},"vehicle_type_id":"4","last_reported":1691348654,"current_range_meters":8400,"station_id":"ce4bhah2rcd13ifvqei0","pricing_plan_id":"free"},{"bike_id":"1d6527c5-4f13-48de-a877-af866b857929","system_id":"levelo_inurba_marseille","lat":43.2846,"lon":5.35877,"is_reserved":false,"is_disabled":false,"rental_uris":{"android":"levelo://app?vid=1d6527c5-4f13-48de-a877-af866b857929","ios":"levelo://app?vid=1d6527c5-4f13-48de-a877-af866b857929"},"vehicle_type_id":"4","last_reported":1691348654,"current_range_meters":31600,"station_id":"ce4bhah2rcd13ifvqei0","pricing_plan_id":"free"},