{"last_updated":1687608772,"ttl":30,"version":"2.2","data":{"bikes":[{"bike_id":"e0533316-dd1b-4187-944d-40456902eb3e","system_id":"levelo_inurba_marseille","lat":43.31341,"lon":5.367098,"is_reserved":false,"is_disabled":false,"rental_uris":{"android":"levelo://app?vid=e0533316-dd1b-4187-944d-40456902eb3e","ios":"levelo://app?vid=e0533316-dd1b-4187-944d-40456902eb3e"},"vehicle_type_id":"4","last_reported":1687608773,"current_range_meters":25600,"station_id":"ce4bgr92rcd13ifvqc6g","pricing_plan_id":"free"},{"bike_id":"693691e2-5fd1-4244-9f0e-360fc9ed9a65","system_id":"levelo_inurba_marseille","lat":43.3127,"lon":5.3683,"is_reserved":false,"is_disabled":false,"rental_uris":{"android":"levelo://app?vid=693691e2-5fd1-4244-9f0e-360fc9ed9a65","ios":"levelo://app?vid=693691e2-5fd1-4244-9f0e-360fc9ed9a65"},"vehicle_type_id":"4","last_reported":1687608773,"current_range_meters":23200,"station_id":"","pricing_plan_id":"free"},{"bike_id":"06310f1c-4cc8-49c6-a574-6b33fca387cc","system_id":"levelo_inurba_marseille","lat":43.31315,"lon":5.37256,"is_reserved":false,"is_disabled":false,"rental_uris":{"android":"levelo://app?vid=06310f1c-4cc8-49c6-a574-6b33fca387cc","ios":"levelo://app?vid=06310f1c-4cc8-49c6-a574-6b33fca387cc"},"vehicle_type_id":"4","last_reported":1687608773,"current_range_meters":6800,"station_id":"","pricing_plan_id":"free"},{"bike_id":"6c4d55c3-2b93-4b21-93fa-7f0e3955da12","system_id":"levelo_inurba_marseille","lat":43.308614,"lon":5.372098,"is_reserved":false,"is_disabled":false,"rental_uris":{"android":"levelo://app?vid=6c4d55c3-2b93-4b21-93fa-7f0e3955da12","ios":"levelo://app?vid=6c4d55c3-2b93-4b21-93fa-7f0e3955da12"},"vehicle_type_id":"4","last_reported":1687608773,"current_range_meters":28800,"station_id":"ce4bguh2rcd13ifvqckg","pricing_plan_id":"free"},{"bike_id":"cea6724d-b1c5-4c63-8ea5-1974535703d7","system_id":"levelo_inurba_marseille","lat":43.305368,"lon":5.367343,"is_reserved":false,"is_disabled":false,"rental_uris":{"android":"levelo://app?vid=cea6724d-b1c5-4c63-8ea5-1974535703d7","ios":"levelo://app?vid=cea6724d-b1c5-4c63-8ea5-1974535703d7"},"vehicle_type_id":"4","last_reported":1687608773,"current_range_meters":5600,"station_id":"ce4bgrp2rcd13ifvqc9g","pricing_plan_id":"free"},{"bike_id":"d7f0d6f4-f25d-4666-98dc-e252d48cc379","system_id":"levelo_inurba_marseille","lat":43.305714,"lon":5.365633,"is_reserved":false,"is_disabled":false,"rental_uris":{"android":"levelo://app?vid=d7f0d6f4-f25d-4666-98dc-e252d48cc379","ios":"levelo://app?vid=d7f0d6f4-f25d-4666-98dc-e252d48cc379"},"vehicle_type_id":"4","last_reported":1687608773,"current_range_meters":26000,"station_id":"ce4bgs12rcd13ifvqcag","pricing_plan_id":"free"},{"bike_id":"7057b57e-610e-4ed7-8a48-551f4f82b7e0","system_id":"levelo_inurba_marseille","lat":43.30536,"lon":5.36551,"is_reserved":false,"is_disabled":false,"rental_uris":{"android":"levelo://app?vid=7057b57e-610e-4ed7-8a48-551f4f82b7e0","ios":"levelo://app?vid=7057b57e-610e-4ed7-8a48-551f4f82b7e0"},"vehicle_type_id":"4","last_reported":1687608773,"current_range_meters":17600,"station_id":"ce4bgs12rcd13ifvqcag","pricing_plan_id":"free"},{"bike_id":"cadb2279-3938-42b3-a73c-32ed68b39ca6","system_id":"levelo_inurba_marseille","lat":43.305706,"lon":5.365654,"is_reserved":false,"is_disabled":false,"rental_uris":{"android":"levelo://app?vid=cadb2279-3938-42b3-a73c-32ed68b39ca6","ios":"levelo://app?vid=cadb2279-3938-42b3-a73c-32ed68b39ca6"},"vehicle_type_id":"4","last_reported":1687608773,"current_range_meters":19600,"station_id":"ce4bgs12rcd13ifvqcag","pricing_plan_id":"free"},{"bike_id":"719c0130-a4db-43df-be52-28338359eed8","system_id":"levelo_inurba_marseille","lat":43.30531,"lon":5.36531,"is_reserved":false,"is_disabled":false,"rental_uris":{"android":"levelo://app?vid=719c0130-a4db-43df-be52-28338359eed8","ios":"levelo://app?vid=719c0130-a4db-43df-be52-28338359eed8"},"vehicle_type_id":"4","last_reported":1687608773,"current_range_meters":17200,"station_id":"","pricing_plan_id":"free"},{"bike_id":"a62a0728-8de8-4e94-8958-5c1d77536818","system_id":"levelo_inurba_marseille","lat":43.305706,"lon":5.365654,"is_reserved":false,"is_disabled":false,"rental_uris":{"android":"levelo://app?vid=a62a0728-8de8-4e94-8958-5c1d77536818","ios":"levelo://app?vid=a62a0728-8de8-4e94-8958-5c1d77536818"},"vehicle_type_id":"4","last_reported":1687608773,"current_range_meters":26400,"station_id":"ce4bgs12rcd13ifvqcag","pricing_plan_id":"free"},{"bike_id":"8c6a7e00-9c68-4254-910e-3bb38fc39131","system_id":"levelo_inurba_marseille","lat":43.305706,"lon":5.365654,"is_reserved":false,"is_disabled":false,"rental_uris":{"android":"levelo://app?vid=8c6a7e00-9c68-4254-910e-3bb38fc39131","ios":"levelo://app?vid=8c6a7e00-9c68-4254-910e-3bb38fc39131"},"vehicle_type_id":"4","last_reported":1687608773,"current_range_meters":30800,"station_id":"ce4bgs12rcd13ifvqcag","pricing_plan_id":"free"},{"bike_id":"eaf55685-04cc-476e-8fbd-7e85abca6f37","system_id":"levelo_inurba_marseille","lat":43.305989,"lon":5.37225,"is_reserved":false,"is_disabled":false,"rental_uris":{"android":"levelo://app?vid=eaf55685-04cc-476e-8fbd-7e85abca6f37","ios":"levelo://app?vid=eaf55685-04cc-476e-8fbd-7e85abca6f37"},"vehicle_type_id":"4","last_reported":1687608773,"current_range_meters":29600,"station_id":"ce4bgqh2rcd13ifvqc4g","pricing_plan_id":"free"},{"bike_id":"4f0805dc-ed48-4cc0-ad16-e1343a9c1a45","system_id":"levelo_inurba_marseille","lat":43.305989,"lon":5.37225,"is_reserved":false,"is_disabled":false,"rental_uris":{"android":"levelo://app?vid=4f0805dc-ed48-4cc0-ad16-e1343a9c1a45","ios":"levelo://app?vid=4f0805dc-ed48-4cc0-ad16-e1343a9c1a45"},"vehicle_type_id":"4","last_reported":1687608773,"current_range_meters":28800,"station_id":"ce4bgqh2rcd13ifvqc4g","pricing_plan_id":"free"},{"bike_id":"5f946428-3993-4585-8cb9-38b86547d562","system_id":"levelo_inurba_marseille","lat":43.305989,"lon":5.37225,"is_reserved":false,"is_disabled":false,"rental_uris":{"android":"levelo://app?vid=5f946428-3993-4585-8cb9-38b86547d562","ios":"levelo://app?vid=5f946428-3993-4585-8cb9-38b86547d562"},"vehicle_type_id":"4","last_reported":1687608773,"current_range_meters":15600,"station_id":"ce4bgqh2rcd13ifvqc4g","pricing_plan_id":"free"},{"bike_id":"adacf0c6-a6a4-4c84-8d73-27bc60fec4db","system_id":"levelo_inurba_marseille","lat":43.311125,"lon":5.377624,"is_reserved":false,"is_disabled":false,"rental_uris":{"android":"levelo://app?vid=adacf0c6-a6a4-4c84-8d73-27bc60fec4db","ios":"levelo://app?vid=adacf0c6-a6a4-4c84-8d73-27bc60fec4db"},"vehicle_type_id":"4","last_reported":1687608773,"current_range_meters":25200,"station_id":"ce4bgt92rcd13ifvqcg0","pricing_plan_id":"free"},{"bike_id":"6950c6e4-674b-4594-ba88-29013b18bfe6","system_id":"levelo_inurba_marseille","lat":43.317075,"lon":5.377367,"is_reserved":false,"is_disabled":false,"rental_uris":{"android":"levelo://app?vid=6950c6e4-674b-4594-ba88-29013b18bfe6","ios":"levelo://app?vid=6950c6e4-674b-4594-ba88-29013b18bfe6"},"vehicle_type_id":"4","last_reported":1687608773,"current_range_meters":30400,"station_id":"ce4bgth2rcd13ifvqch0","pricing_plan_id":"free"},{"bike_id":"adbca1f0-5878-41e5-8af5-4f6447a6da6f","system_id":"levelo_inurba_marseille","lat":43.32036,"lon":5.37445,"is_reserved":false,"is_disabled":false,"rental_uris":{"android":"levelo://app?vid=adbca1f0-5878-41e5-8af5-4f6447a6da6f","ios":"levelo://app?vid=adbca1f0-5878-41e5-8af5-4f6447a6da6f"},"vehicle_type_id":"4","last_reported":1687608773,"current_range_meters":27200,"station_id":"","pricing_plan_id":"free"},{"bike_id":"0c01d09c-9df1-4942-b459-b6862fbe25fe","system_id":"levelo_inurba_marseille","lat":43.3181,"lon":5.38007,"is_reserved":false,"is_disabled":false,"rental_uris":{"android":"levelo://app?vid=0c01d09c-9df1-4942-b459-b6862fbe25fe","ios":"levelo://app?vid=0c01d09c-9df1-4942-b459-b6862fbe25fe"},"vehicle_type_id":"4","last_reported":1687608773,"current_range_meters":27200,"station_id":"","pricing_plan_id":"free"},{"bike_id":"da4d9fb1-86e0-4c62-b429-2a8c6ffe7dcf","system_id":"levelo_inurba_marseille","lat":43.304606,"lon":5.379026,"is_reserved":false,"is_disabled":false,"rental_uris":{"android":"levelo://app?vid=da4d9fb1-86e0-4c62-b429-2a8c6ffe7dcf","ios":"levelo://app?vid=da4d9fb1-86e0-4c62-b429-2a8c6ffe7dcf"},"vehicle_type_id":"4","last_reported":1687608773,"current_range_meters":6400,"station_id":"ce4bgup2rcd13ifvqcn0","pricing_plan_id":"free"},{"bike_id":"74a8e353-2503-471a-ae48-0c19f3ffbdcd","system_id":"levelo_inurba_marseille","lat":43.304606,"lon":5.379026,"is_reserved":false,"is_disabled":false,"rental_uris":{"android":"levelo://app?vid=74a8e353-2503-471a-ae48-0c19f3ffbdcd","ios":"levelo://app?vid=74a8e353-2503-471a-ae48-0c19f3ffbdcd"},"vehicle_type_id":"4","last_reported":1687608773,"current_range_meters":29200,"station_id":"ce4bgup2rcd13ifvqcn0","pricing_plan_id":"free"},{"bike_id":"1f373ac8-a75e-4a2b-8475-f2eb09b6535b","system_id":"levelo_inurba_marseille","lat":43.30463,"lon":5.37904,"is_reserved":false,"is_disabled":false,"rental_uris":{"android":"levelo://app?vid=1f373ac8-a75e-4a2b-8475-f2eb09b6535b","ios":"levelo://app?vid=1f373ac8-a75e-4a2b-8475-f2eb09b6535b"},"vehicle_type_id":"4","last_reported":1687608773,"current_range_meters":29200,"station_id":"ce4bgup2rcd13ifvqcn0","pricing_plan_id":"free"},{"bike_id":"fd333aa3-c077-4a2d-ba7d-06c3d9f4b919","system_id":"levelo_inurba_marseille","lat":43.304606,"lon":5.379026,"is_reserved":false,"is_disabled":false,"rental_uris":{"android":"levelo://app?vid=fd333aa3-c077-4a2d-ba7d-06c3d9f4b919","ios":"levelo://app?vid=fd333aa3-c077-4a2d-ba7d-06c3d9f4b919"},"vehicle_type_id":"4","last_reported":1687608773,"current_range_meters":20000,"station_id":"ce4bgup2rcd13ifvqcn0","pricing_plan_id":"free"},{"bike_id":"388b99fc-8590-48a5-b5e8-4e62559f8827","system_id":"levelo_inurba_marseille","lat":43.31471,"lon":5.38389,"is_reserved":false,"is_disabled":false,"rental_uris":{"android":"levelo://app?vid=388b99fc-8590-48a5-b5e8-4e62559f8827","ios":"levelo://app?vid=388b99fc-8590-48a5-b5e8-4e62559f8827"},"vehicle_type_id":"4","last_reported":1687608773,"current_range_meters":19600,"station_id":"","pricing_plan_id":"free"},{"bike_id":"6f8deb40-9051-4dd7-82ec-022e8461dd46","system_id":"levelo_inurba_marseille","lat":43.299222,"lon":5.365554,"is_reserved":false,"is_disabled":false,"rental_uris":{"android":"levelo://app?vid=6f8deb40-9051-4dd7-82ec-022e8461dd46","ios":"levelo://app?vid=6f8deb40-9051-4dd7-82ec-022e8461dd46"},"vehicle_type_id":"4","last_reported":1687608773,"current_range_meters":400,"station_id":"ce4bgm92rcd13ifvqbr0","pricing_plan_id":"free"},{"bike_id":"1570593c-4544-4433-87ba-6412e582553a","system_id":"levelo_inurba_marseille","lat":43.299222,"lon":5.365554,"is_reserved":false,"is_disabled":false,"rental_uris":{"android":"levelo://app?vid=1570593c-4544-4433-87ba-6412e582553a","ios":"levelo://app?vid=1570593c-4544-4433-87ba-6412e582553a"},"vehicle_type_id":"4","last_reported":1687608773,"current_range_meters":31200,"station_id":"ce4bgm92rcd13ifvqbr0","pricing_plan_id":"free"},{"bike_id":"dea20459-ffd9-4f18-ba33-370531abdc4e","system_id":"levelo_inurba_marseille","lat":43.299222,"lon":5.365554,"is_reserved":false,"is_disabled":false,"rental_uris":{"android":"levelo://app?vid=dea20459-ffd9-4f18-ba33-370531abdc4e","ios":"levelo://app?vid=dea20459-ffd9-4f18-ba33-370531abdc4e"},"vehicle_type_id":"4","last_reported":1687608773,"current_range_meters":12800,"station_id":"ce4bgm92rcd13ifvqbr0","pricing_plan_id":"free"},{"bike_id":"7c69d7b4-a856-4eb2-ac10-41fc2886a0f1","system_id":"levelo_inurba_marseille","lat":43.299222,"lon":5.365554,"is_reserved":false,"is_disabled":false,"rental_uris":{"android":"levelo://app?vid=7c69d7b4-a856-4eb2-ac10-41fc2886a0f1","ios":"levelo://app?vid=7c69d7b4-a856-4eb2-ac10-41fc2886a0f1"},"vehicle_type_id":"4","last_reported":1687608773,"current_range_meters":21200,"station_id":"ce4bgm92rcd13ifvqbr0","pricing_plan_id":"free"},{"bike_id":"a53c4653-da84-44cd-8276-1be89ef504a0","system_id":"levelo_inurba_marseille","lat":43.299222,"lon":5.365554,"is_reserved":false,"is_disabled":false,"rental_uris":{"android":"levelo://app?vid=a53c4653-da84-44cd-8276-1be89ef504a0","ios":"levelo://app?vid=a53c4653-da84-44cd-8276-1be89ef504a0"},"vehicle_type_id":"4","last_reported":1687608773,"current_range_meters":12800,"station_id":"ce4bgm92rcd13ifvqbr0","pricing_plan_id":"free"},{"bike_id":"a9b6b6b6-0c80-4d2e-8640-39d70ad3717c","system_id":"levelo_inurba_marseille","lat":43.298433,"lon":5.362774,"is_reserved":false,"is_disabled":false,"rental_uris":{"android":"levelo://app?vid=a9b6b6b6-0c80-4d2e-8640-39d70ad3717c","ios":"levelo://app?vid=a9b6b6b6-0c80-4d2e-8640-39d70ad3717c"},"vehicle_type_id":"4","last_reported":1687608773,"current_range_meters":9200,"station_id":"ce4bgpp2rcd13ifvqc3g","pricing_plan_id":"free"},{"bike_id":"99bfd911-37a6-4364-a85d-0e8d6620ad38","system_id":"levelo_inurba_marseille","lat":43.298433,"lon":5.362774,"is_reserved":false,"is_disabled":false,"rental_uris":{"android":"levelo://app?vid=99bfd911-37a6-4364-a85d-0e8d6620ad38","ios":"levelo://app?vid=99bfd911-37a6-4364-a85d-0e8d6620ad38"},"vehicle_type_id":"4","last_reported":1687608773,"current_range_meters":31600,"station_id":"ce4bgpp2rcd13ifvqc3g","pricing_plan_id":"free"},{"bike_id":"9dd470bb-271b-42a8-8545-95220f04e68b","system_id":"levelo_inurba_marseille","lat":43.311722,"lon":5.387247,"is_reserved":false,"is_disabled":false,"rental_uris":{"android":"levelo://app?vid=9dd470bb-271b-42a8-8545-95220f04e68b","ios":"levelo://app?vid=9dd470bb-271b-42a8-8545-95220f04e68b"},"vehicle_type_id":"4","last_reported":1687608773,"current_range_meters":28800,"station_id":"ce4bgv12rcd13ifvqcp0","pricing_plan_id":"free"},{"bike_id":"1580a472-182f-4d91-8a6c-4c3a23a9c034","system_id":"levelo_inurba_marseille","lat":43.302,"lon":5.3821,"is_reserved":false,"is_disabled":false,"rental_uris":{"android":"levelo://app?vid=1580a472-182f-4d91-8a6c-4c3a23a9c034","ios":"levelo://app?vid=1580a472-182f-4d91-8a6c-4c3a23a9c034"},"vehicle_type_id":"4","last_reported":1687608773,"current_range_meters":17600,"station_id":"","pricing_plan_id":"free"},{"bike_id":"dd41ba81-9716-41ad-bf2f-fd5f1f31dcaa","system_id":"levelo_inurba_marseille","lat":43.328371,"lon":5.366909,"is_reserved":false,"is_disabled":false,"rental_uris":{"android":"levelo://app?vid=dd41ba81-9716-41ad-bf2f-fd5f1f31dcaa","ios":"levelo://app?vid=dd41ba81-9716-41ad-bf2f-fd5f1f31dcaa"},"vehicle_type_id":"4","last_reported":1687608773,"current_range_meters":27200,"station_id":"ce4bhs92rcd13ifvqi0g","pricing_plan_id":"free"},{"bike_id":"fa80e9cd-f31a-45d0-9ce7-3d96d492f473","system_id":"levelo_inurba_marseille","lat":43.328371,"lon":5.366909,"is_reserved":false,"is_disabled":false,"rental_uris":{"android":"levelo://app?vid=fa80e9cd-f31a-45d0-9ce7-3d96d492f473","ios":"levelo://app?vid=fa80e9cd-f31a-45d0-9ce7-3d96d492f473"},"vehicle_type_id":"4","last_reported":1687608773,"current_range_meters":17600,"station_id":"ce4bhs92rcd13ifvqi0g","pricing_plan_id":"free"},{"bike_id":"95a91c18-4e58-4f07-b039-80067af6d5c7","system_id":"levelo_inurba_marseille","lat":43.32826,"lon":5.36691,"is_reserved":false,"is_disabled":false,"rental_uris":{"android":"levelo://app?vid=95a91c18-4e58-4f07-b039-80067af6d5c7","ios":"levelo://app?vid=95a91c18-4e58-4f07-b039-80067af6d5c7"},"vehicle_type_id":"4","last_reported":1687608773,"current_range_meters":29600,"station_id":"ce4bhs92rcd13ifvqi0g","pricing_plan_id":"free"},{"bike_id":"f0c49d04-749f-4a18-8823-5f643fcb68d5","system_id":"levelo_inurba_marseille","lat":43.328371,"lon":5.366909,"is_reserved":false,"is_disabled":false,"rental_uris":{"android":"levelo://app?vid=f0c49d04-749f-4a18-8823-5f643fcb68d5","ios":"levelo://app?vid=f0c49d04-749f-4a18-8823-5f643fcb68d5"},"vehicle_type_id":"4","last_reported":1687608773,"current_range_meters":30000,"station_id":"ce4bhs92rcd13ifvqi0g","pricing_plan_id":"free"},{"bike_id":"f968b818-c67a-4852-a038-f1f0176621c2","system_id":"levelo_inurba_marseille","lat":43.32826,"lon":5.36689,"is_reserved":false,"is_disabled":false,"rental_uris":{"android":"levelo://app?vid=f968b818-c67a-4852-a038-f1f0176621c2","ios":"levelo://app?vid=f968b818-c67a-4852-a038-f1f0176621c2"},"vehicle_type_id":"4","last_reported":1687608773,"current_range_meters":19200,"station_id":"ce4bhs92rcd13ifvqi0g","pricing_plan_id":"free"},{"bike_id":"ce9487af-76bc-41bd-a9cf-1f83771f0d31","system_id":"levelo_inurba_marseille","lat":43.328371,"lon":5.366909,"is_reserved":false,"is_disabled":false,"rental_uris":{"android":"levelo://app?vid=ce9487af-76bc-41bd-a9cf-1f83771f0d31","ios":"levelo://app?vid=ce9487af-76bc-41bd-a9cf-1f83771f0d31"},"vehicle_type_id":"4","last_reported":1687608773,"current_range_meters":0,"station_id":"ce4bhs92rcd13ifvqi0g","pricing_plan_id":"free"},{"bike_id":"cbdd73a9-8831-4dab-9e8d-2ce4e630f6d2","system_id":"levelo_inurba_marseille","lat":43.328371,"lon":5.366909,"is_reserved":false,"is_disabled":false,"rental_uris":{"android":"levelo://app?vid=cbdd73a9-8831-4dab-9e8d-2ce4e630f6d2","ios":"levelo://app?vid=cbdd73a9-8831-4dab-9e8d-2ce4e630f6d2"},"vehicle_type_id":"4","last_reported":1687608773,"current_range_meters":30400,"station_id":"ce4bhs92rcd13ifvqi0g","pricing_plan_id":"free"},{"bike_id":"d6aa4b8f-0fbd-492f-a726-f1b64033634e","system_id":"levelo_inurba_marseille","lat":43.29706,"lon":5.36399,"is_reserved":false,"is_disabled":false,"rental_uris":{"android":"levelo://app?vid=d6aa4b8f-0fbd-492f-a726-f1b64033634e","ios":"levelo://app?vid=d6aa4b8f-0fbd-492f-a726-f1b64033634e"},"vehicle_type_id":"4","last_reported":1687608773,"current_range_meters":6000,"station_id":"","pricing_plan_id":"free"},{"bike_id":"e1fd1a3e-da9e-468b-acc4-838fbbbaf43a","system_id":"levelo_inurba_marseille","lat":43.295902,"lon":5.367351,"is_reserved":false,"is_disabled":false,"rental_uris":{"android":"levelo://app?vid=e1fd1a3e-da9e-468b-acc4-838fbbbaf43a","ios":"levelo://app?vid=e1fd1a3e-da9e-468b-acc4-838fbbbaf43a"},"vehicle_type_id":"4","last_reported":1687608773,"current_range_meters":14400,"station_id":"","pricing_plan_id":"free"},{"bike_id":"7ded86c4-de04-4e9c-b74e-d6c5e160d4a8","system_id":"levelo_inurba_marseille","lat":43.29573,"lon":5.367355,"is_reserved":false,"is_disabled":false,"rental_uris":{"android":"levelo://app?vid=7ded86c4-de04-4e9c-b74e-d6c5e160d4a8","ios":"levelo://app?vid=7ded86c4-de04-4e9c-b74e-d6c5e160d4a8"},"vehicle_type_id":"4","last_reported":1687608773,"current_range_meters":28000,"station_id":"ce4bgph2rcd13ifvqc2g","pricing_plan_id":"free"},{"bike_id":"fbee46df-10f8-4336-add5-a76e281a2df2","system_id":"levelo_inurba_marseille","lat":43.296921,"lon":5.376579,"is_reserved":false,"is_disabled":false,"rental_uris":{"android":"levelo://app?vid=fbee46df-10f8-4336-add5-a76e281a2df2","ios":"levelo://app?vid=fbee46df-10f8-4336-add5-a76e281a2df2"},"vehicle_type_id":"4","last_reported":1687608773,"current_range_meters":14800,"station_id":"ce4bgkh2rcd13ifvqbl0","pricing_plan_id":"free"},{"bike_id":"5af85b02-b450-4d91-81c7-b1ca1d0e1190","system_id":"levelo_inurba_marseille","lat":43.309589,"lon":5.390258,"is_reserved":false,"is_disabled":false,"rental_uris":{"android":"levelo://app?vid=5af85b02-b450-4d91-81c7-b1ca1d0e1190","ios":"levelo://app?vid=5af85b02-b450-4d91-81c7-b1ca1d0e1190"},"vehicle_type_id":"4","last_reported":1687608773,"current_range_meters":22800,"station_id":"ce4bgup2rcd13ifvqco0","pricing_plan_id":"free"},{"bike_id":"041bc147-ef2f-419b-bb81-deca3bdf89e2","system_id":"levelo_inurba_marseille","lat":43.29611,"lon":5.36046,"is_reserved":false,"is_disabled":false,"rental_uris":{"android":"levelo://app?vid=041bc147-ef2f-419b-bb81-deca3bdf89e2","ios":"levelo://app?vid=041bc147-ef2f-419b-bb81-deca3bdf89e2"},"vehicle_type_id":"4","last_reported":1687608773,"current_range_meters":6800,"station_id":"","pricing_plan_id":"free"},{"bike_id":"7016dd0d-b1b5-4e05-b3f1-2624e2d24d2b","system_id":"levelo_inurba_marseille","lat":43.309589,"lon":5.390258,"is_reserved":false,"is_disabled":false,"rental_uris":{"android":"levelo://app?vid=7016dd0d-b1b5-4e05-b3f1-2624e2d24d2b","ios":"levelo://app?vid=7016dd0d-b1b5-4e05-b3f1-2624e2d24d2b"},"vehicle_type_id":"4","last_reported":1687608773,"current_range_meters":17200,"station_id":"ce4bgup2rcd13ifvqco0","pricing_plan_id":"free"},{"bike_id":"184e6d78-06de-4644-ba7f-b63de088adee","system_id":"levelo_inurba_marseille","lat":43.317557,"lon":5.390173,"is_reserved":false,"is_disabled":false,"rental_uris":{"android":"levelo://app?vid=184e6d78-06de-4644-ba7f-b63de088adee","ios":"levelo://app?vid=184e6d78-06de-4644-ba7f-b63de088adee"},"vehicle_type_id":"4","last_reported":1687608773,"current_range_meters":19200,"station_id":"ce4bhqp2rcd13ifvqhng","pricing_plan_id":"free"},{"bike_id":"5a6a64ac-4fd6-420e-9c60-0435fb0e244b","system_id":"levelo_inurba_marseille","lat":43.304278,"lon":5.388868,"is_reserved":false,"is_disabled":false,"rental_uris":{"android":"levelo://app?vid=5a6a64ac-4fd6-420e-9c60-0435fb0e244b","ios":"levelo://app?vid=5a6a64ac-4fd6-420e-9c60-0435fb0e244b"},"vehicle_type_id":"4","last_reported":1687608773,"current_range_meters":14800,"station_id":"ce4bgk12rcd13ifvqbi0","pricing_plan_id":"free"},{"bike_id":"9526a230-5c53-43e4-aeff-79ebc35b9c99","system_id":"levelo_inurba_marseille","lat":43.304274,"lon":5.388873,"is_reserved":false,"is_disabled":false,"rental_uris":{"android":"levelo://app?vid=9526a230-5c53-43e4-aeff-79ebc35b9c99","ios":"levelo://app?vid=9526a230-5c53-43e4-aeff-79ebc35b9c99"},"vehicle_type_id":"4","last_reported":1687608773,"current_range_meters":400,"station_id":"ce4bgk12rcd13ifvqbi0","pricing_plan_id":"free"},{"bike_id":"e7b41deb-046a-4a24-afee-eac505aca9f2","system_id":"levelo_inurba_marseille","lat":43.30429,"lon":5.38889,"is_reserved":false,"is_disabled":false,"rental_uris":{"android":"levelo://app?vid=e7b41deb-046a-4a24-afee-eac505aca9f2","ios":"levelo://app?vid=e7b41deb-046a-4a24-afee-eac505aca9f2"},"vehicle_type_id":"4","last_reported":1687608773,"current_range_meters":17600,"station_id":"ce4bgk12rcd13ifvqbi0","pricing_plan_id":"free"},{"bike_id":"d61fcc11-e740-43e3-a83f-a227d822d8dd","system_id":"levelo_inurba_marseille","lat":43.299717,"lon":5.384845,"is_reserved":false,"is_disabled":false,"rental_uris":{"android":"levelo://app?vid=d61fcc11-e740-43e3-a83f-a227d822d8dd","ios":"levelo://app?vid=d61fcc11-e740-43e3-a83f-a227d822d8dd"},"vehicle_type_id":"4","last_reported":1687608773,"current_range_meters":0,"station_id":"ce4bgj92rcd13ifvqbd0","pricing_plan_id":"free"},{"bike_id":"6b05f8f0-f4fb-40e7-82c0-a54912f6c06c","system_id":"levelo_inurba_marseille","lat":43.32359,"lon":5.38879,"is_reserved":false,"is_disabled":false,"rental_uris":{"android":"levelo://app?vid=6b05f8f0-f4fb-40e7-82c0-a54912f6c06c","ios":"levelo://app?vid=6b05f8f0-f4fb-40e7-82c0-a54912f6c06c"},"vehicle_type_id":"4","last_reported":1687608773,"current_range_meters":28400,"station_id":"ce4bhqp2rcd13ifvqhog","pricing_plan_id":"free"},{"bike_id":"2e0fa622-dc89-44fe-984b-a2bb7220f9be","system_id":"levelo_inurba_marseille","lat":43.32364,"lon":5.38881,"is_reserved":false,"is_disabled":false,"rental_uris":{"android":"levelo://app?vid=2e0fa622-dc89-44fe-984b-a2bb7220f9be","ios":"levelo://app?vid=2e0fa622-dc89-44fe-984b-a2bb7220f9be"},"vehicle_type_id":"4","last_reported":1687608773,"current_range_meters":31200,"station_id":"ce4bhqp2rcd13ifvqhog","pricing_plan_id":"free"},{"bike_id":"ac7e4120-0822-469b-b07d-b72aa6ed5d41","system_id":"levelo_inurba_marseille","lat":43.29302,"lon":5.37443,"is_reserved":false,"is_disabled":false,"rental_uris":{"android":"levelo://app?vid=ac7e4120-0822-469b-b07d-b72aa6ed5d41","ios":"levelo://app?vid=ac7e4120-0822-469b-b07d-b72aa6ed5d41"},"vehicle_type_id":"4","last_reported":1687608773,"current_range_meters":28000,"station_id":"ce4bgi12rcd13ifvqb70","pricing_plan_id":"free"},{"bike_id":"7486c318-8dc0-478d-9c94-3a85a85e78b4","system_id":"levelo_inurba_marseille","lat":43.2936,"lon":5.37835,"is_reserved":false,"is_disabled":false,"rental_uris":{"android":"levelo://app?vid=7486c318-8dc0-478d-9c94-3a85a85e78b4","ios":"levelo://app?vid=7486c318-8dc0-478d-9c94-3a85a85e78b4"},"vehicle_type_id":"4","last_reported":1687608773,"current_range_meters":12000,"station_id":"ce4bgjh2rcd13ifvqbf0","pricing_plan_id":"free"},{"bike_id":"6c61c18c-c274-43f0-a617-5b6b46770f91","system_id":"levelo_inurba_marseille","lat":43.2936,"lon":5.37835,"is_reserved":false,"is_disabled":false,"rental_uris":{"android":"levelo://app?vid=6c61c18c-c274-43f0-a617-5b6b46770f91","ios":"levelo://app?vid=6c61c18c-c274-43f0-a617-5b6b46770f91"},"vehicle_type_id":"4","last_reported":1687608773,"current_range_meters":400,"station_id":"ce4bgjh2rcd13ifvqbf0","pricing_plan_id":"free"},{"bike_id":"f45ad050-da6a-4489-8dda-ef9e06b0f2dc","system_id":"levelo_inurba_marseille","lat":43.29264,"lon":5.37613,"is_reserved":false,"is_disabled":false,"rental_uris":{"android":"levelo://app?vid=f45ad050-da6a-4489-8dda-ef9e06b0f2dc","ios":"levelo://app?vid=f45ad050-da6a-4489-8dda-ef9e06b0f2dc"},"vehicle_type_id":"4","last_reported":1687608773,"current_range_meters":31600,"station_id":"ce4bgi12rcd13ifvqb80","pricing_plan_id":"free"},{"bike_id":"20b2702a-2cf1-439f-b7da-41f192fa1a0a","system_id":"levelo_inurba_marseille","lat":43.29411,"lon":5.38614,"is_reserved":false,"is_disabled":false,"rental_uris":{"android":"levelo://app?vid=20b2702a-2cf1-439f-b7da-41f192fa1a0a","ios":"levelo://app?vid=20b2702a-2cf1-439f-b7da-41f192fa1a0a"},"vehicle_type_id":"4","last_reported":1687608773,"current_range_meters":19200,"station_id":"","pricing_plan_id":"free"},{"bike_id":"5ee1ba66-623a-4968-8ce4-7d89d707a597","system_id":"levelo_inurba_marseille","lat":43.290327,"lon":5.375711,"is_reserved":false,"is_disabled":false,"rental_uris":{"android":"levelo://app?vid=5ee1ba66-623a-4968-8ce4-7d89d707a597","ios":"levelo://app?vid=5ee1ba66-623a-4968-8ce4-7d89d707a597"},"vehicle_type_id":"4","last_reported":1687608773,"current_range_meters":6400,"station_id":"ce4bh692rcd13ifvqe90","pricing_plan_id":"free"},{"bike_id":"51fab85a-ccd1-4c60-9e50-b0431aa1d684","system_id":"levelo_inurba_marseille","lat":43.289184,"lon":5.366408,"is_reserved":false,"is_disabled":false,"rental_uris":{"android":"levelo://app?vid=51fab85a-ccd1-4c60-9e50-b0431aa1d684","ios":"levelo://app?vid=51fab85a-ccd1-4c60-9e50-b0431aa1d684"},"vehicle_type_id":"4","last_reported":1687608773,"current_range_meters":21200,"station_id":"ce4bhap2rcd13ifvqek0","pricing_plan_id":"free"},{"bike_id":"41c44143-9b97-40b9-9f68-47f350337f78","system_id":"levelo_inurba_marseille","lat":43.30271,"lon":5.39634,"is_reserved":false,"is_disabled":false,"rental_uris":{"android":"levelo://app?vid=41c44143-9b97-40b9-9f68-47f350337f78","ios":"levelo://app?vid=41c44143-9b97-40b9-9f68-47f350337f78"},"vehicle_type_id":"4","last_reported":1687608773,"current_range_meters":3200,"station_id":"ce4bh092rcd13ifvqd20","pricing_plan_id":"free"},{"bike_id":"e36874dc-7135-4ebc-b4cd-8f7cd3793fb7","system_id":"levelo_inurba_marseille","lat":43.30332,"lon":5.39682,"is_reserved":false,"is_disabled":false,"rental_uris":{"android":"levelo://app?vid=e36874dc-7135-4ebc-b4cd-8f7cd3793fb7","ios":"levelo://app?vid=e36874dc-7135-4ebc-b4cd-8f7cd3793fb7"},"vehicle_type_id":"4","last_reported":1687608773,"current_range_meters":22000,"station_id":"","pricing_plan_id":"free"},{"bike_id":"84bffd38-88ce-4160-b400-cbaa869d40c3","system_id":"levelo_inurba_marseille","lat":43.33038,"lon":5.38917,"is_reserved":false,"is_disabled":false,"rental_uris":{"android":"levelo://app?vid=84bffd38-88ce-4160-b400-cbaa869d40c3","ios":"levelo://app?vid=84bffd38-88ce-4160-b400-cbaa869d40c3"},"vehicle_type_id":"4","last_reported":1687608773,"current_range_meters":31200,"station_id":"ce4bhr92rcd13ifvqhrg","pricing_plan_id":"free"},{"bike_id":"1a01895d-f344-4f7a-a2e9-47e079e18485","system_id":"levelo_inurba_marseille","lat":43.33044,"lon":5.3891,"is_reserved":false,"is_disabled":false,"rental_uris":{"android":"levelo://app?vid=1a01895d-f344-4f7a-a2e9-47e079e18485","ios":"levelo://app?vid=1a01895d-f344-4f7a-a2e9-47e079e18485"},"vehicle_type_id":"4","last_reported":1687608773,"current_range_meters":25600,"station_id":"ce4bhr92rcd13ifvqhrg","pricing_plan_id":"free"},{"bike_id":"7c811762-c0ee-4656-87ba-109acbb8edd1","system_id":"levelo_inurba_marseille","lat":43.33039,"lon":5.38918,"is_reserved":false,"is_disabled":false,"rental_uris":{"android":"levelo://app?vid=7c811762-c0ee-4656-87ba-109acbb8edd1","ios":"levelo://app?vid=7c811762-c0ee-4656-87ba-109acbb8edd1"},"vehicle_type_id":"4","last_reported":1687608773,"current_range_meters":8000,"station_id":"ce4bhr92rcd13ifvqhrg","pricing_plan_id":"free"},{"bike_id":"2ed8539d-fa7b-489c-b466-c2748c9b76c5","system_id":"levelo_inurba_marseille","lat":43.33042,"lon":5.38914,"is_reserved":false,"is_disabled":false,"rental_uris":{"android":"levelo://app?vid=2ed8539d-fa7b-489c-b466-c2748c9b76c5","ios":"levelo://app?vid=2ed8539d-fa7b-489c-b466-c2748c9b76c5"},"vehicle_type_id":"4","last_reported":1687608773,"current_range_meters":23600,"station_id":"ce4bhr92rcd13ifvqhrg","pricing_plan_id":"free"},{"bike_id":"c3395adf-309d-4216-9054-78cb4cbb236c","system_id":"levelo_inurba_marseille","lat":43.290104,"lon":5.356111,"is_reserved":false,"is_disabled":false,"rental_uris":{"android":"levelo://app?vid=c3395adf-309d-4216-9054-78cb4cbb236c","ios":"levelo://app?vid=c3395adf-309d-4216-9054-78cb4cbb236c"},"vehicle_type_id":"4","last_reported":1687608773,"current_range_meters":19600,"station_id":"ce4bhb92rcd13ifvqen0","pricing_plan_id":"free"},{"bike_id":"383564b9-2cae-4808-aee8-d3aefd710421","system_id":"levelo_inurba_marseille","lat":43.33043,"lon":5.38916,"is_reserved":false,"is_disabled":false,"rental_uris":{"android":"levelo://app?vid=383564b9-2cae-4808-aee8-d3aefd710421","ios":"levelo://app?vid=383564b9-2cae-4808-aee8-d3aefd710421"},"vehicle_type_id":"4","last_reported":1687608773,"current_range_meters":31200,"station_id":"ce4bhr92rcd13ifvqhrg","pricing_plan_id":"free"},{"bike_id":"dbf71a06-02c9-4cfe-a9d6-5738d4d32aad","system_id":"levelo_inurba_marseille","lat":43.33045,"lon":5.38913,"is_reserved":false,"is_disabled":false,"rental_uris":{"android":"levelo://app?vid=dbf71a06-02c9-4cfe-a9d6-5738d4d32aad","ios":"levelo://app?vid=dbf71a06-02c9-4cfe-a9d6-5738d4d32aad"},"vehicle_type_id":"4","last_reported":1687608773,"current_range_meters":31200,"station_id":"ce4bhr92rcd13ifvqhrg","pricing_plan_id":"free"},{"bike_id":"b49d73e2-9f19-4a2c-9b7e-4e20a517a2b2","system_id":"levelo_inurba_marseille","lat":43.3304,"lon":5.38921,"is_reserved":false,"is_disabled":false,"rental_uris":{"android":"levelo://app?vid=b49d73e2-9f19-4a2c-9b7e-4e20a517a2b2","ios":"levelo://app?vid=b49d73e2-9f19-4a2c-9b7e-4e20a517a2b2"},"vehicle_type_id":"4","last_reported":1687608773,"current_range_meters":30800,"station_id":"ce4bhr92rcd13ifvqhrg","pricing_plan_id":"free"},{"bike_id":"0bcca238-bf54-4276-a2e6-3dba9988058d","system_id":"levelo_inurba_marseille","lat":43.290104,"lon":5.356111,"is_reserved":false,"is_disabled":false,"rental_uris":{"android":"levelo://app?vid=0bcca238-bf54-4276-a2e6-3dba9988058d","ios":"levelo://app?vid=0bcca238-bf54-4276-a2e6-3dba9988058d"},"vehicle_type_id":"4","last_reported":1687608773,"current_range_meters":19600,"station_id":"ce4bhb92rcd13ifvqen0","pricing_plan_id":"free"},{"bike_id":"e4e06b95-1721-4584-9864-ef74cf24cd0f","system_id":"levelo_inurba_marseille","lat":43.33042,"lon":5.3892,"is_reserved":false,"is_disabled":false,"rental_uris":{"android":"levelo://app?vid=e4e06b95-1721-4584-9864-ef74cf24cd0f","ios":"levelo://app?vid=e4e06b95-1721-4584-9864-ef74cf24cd0f"},"vehicle_type_id":"4","last_reported":1687608773,"current_range_meters":14800,"station_id":"ce4bhr92rcd13ifvqhrg","pricing_plan_id":"free"},{"bike_id":"3d25e642-7aff-49a3-8b8d-261919811256","system_id":"levelo_inurba_marseille","lat":43.29782,"lon":5.39329,"is_reserved":false,"is_disabled":false,"rental_uris":{"android":"levelo://app?vid=3d25e642-7aff-49a3-8b8d-261919811256","ios":"levelo://app?vid=3d25e642-7aff-49a3-8b8d-261919811256"},"vehicle_type_id":"4","last_reported":1687608773,"current_range_meters":16000,"station_id":"chh1huq6cuj3fo74tm60","pricing_plan_id":"free"},{"bike_id":"3f8a925a-6a54-4259-a38f-9cf091aab246","system_id":"levelo_inurba_marseille","lat":43.29247,"lon":5.38753,"is_reserved":false,"is_disabled":false,"rental_uris":{"android":"levelo://app?vid=3f8a925a-6a54-4259-a38f-9cf091aab246","ios":"levelo://app?vid=3f8a925a-6a54-4259-a38f-9cf091aab246"},"vehicle_type_id":"4","last_reported":1687608773,"current_range_meters":20800,"station_id":"","pricing_plan_id":"free"},{"bike_id":"c180ae38-f769-441f-8a55-5a6e4930e6ad","system_id":"levelo_inurba_marseille","lat":43.3375,"lon":5.37439,"is_reserved":false,"is_disabled":false,"rental_uris":{"android":"levelo://app?vid=c180ae38-f769-441f-8a55-5a6e4930e6ad","ios":"levelo://app?vid=c180ae38-f769-441f-8a55-5a6e4930e6ad"},"vehicle_type_id":"4","last_reported":1687608773,"current_range_meters":24800,"station_id":"","pricing_plan_id":"free"},{"bike_id":"94544919-bed9-438f-b8ae-206280789fe1","system_id":"levelo_inurba_marseille","lat":43.33747,"lon":5.3746,"is_reserved":false,"is_disabled":false,"rental_uris":{"android":"levelo://app?vid=94544919-bed9-438f-b8ae-206280789fe1","ios":"levelo://app?vid=94544919-bed9-438f-b8ae-206280789fe1"},"vehicle_type_id":"4","last_reported":1687608773,"current_range_meters":31200,"station_id":"","pricing_plan_id":"free"},{"bike_id":"1aaafe29-3ece-4a3d-8483-e9ad63f79c78","system_id":"levelo_inurba_marseille","lat":43.33757,"lon":5.37435,"is_reserved":false,"is_disabled":false,"rental_uris":{"android":"levelo://app?vid=1aaafe29-3ece-4a3d-8483-e9ad63f79c78","ios":"levelo://app?vid=1aaafe29-3ece-4a3d-8483-e9ad63f79c78"},"vehicle_type_id":"4","last_reported":1687608773,"current_range_meters":24000,"station_id":"","pricing_plan_id":"free"},{"bike_id":"bf376a2c-2d9f-4a43-9ea9-31a5af9dd96a","system_id":"levelo_inurba_marseille","lat":43.337663,"lon":5.374375,"is_reserved":false,"is_disabled":false,"rental_uris":{"android":"levelo://app?vid=bf376a2c-2d9f-4a43-9ea9-31a5af9dd96a","ios":"levelo://app?vid=bf376a2c-2d9f-4a43-9ea9-31a5af9dd96a"},"vehicle_type_id":"4","last_reported":1687608773,"current_range_meters":30800,"station_id":"","pricing_plan_id":"free"},{"bike_id":"f7c14c2a-992f-47b3-9da5-d84a63378508","system_id":"levelo_inurba_marseille","lat":43.30642,"lon":5.401031,"is_reserved":false,"is_disabled":false,"rental_uris":{"android":"levelo://app?vid=f7c14c2a-992f-47b3-9da5-d84a63378508","ios":"levelo://app?vid=f7c14c2a-992f-47b3-9da5-d84a63378508"},"vehicle_type_id":"4","last_reported":1687608773,"current_range_meters":24400,"station_id":"ce4bh112rcd13ifvqda0","pricing_plan_id":"free"},{"bike_id":"ad99948f-ac65-454c-b94c-9900b6e2ec18","system_id":"levelo_inurba_marseille","lat":43.29024,"lon":5.38644,"is_reserved":false,"is_disabled":false,"rental_uris":{"android":"levelo://app?vid=ad99948f-ac65-454c-b94c-9900b6e2ec18","ios":"levelo://app?vid=ad99948f-ac65-454c-b94c-9900b6e2ec18"},"vehicle_type_id":"4","last_reported":1687608773,"current_range_meters":21600,"station_id":"ce4bh4p2rcd13ifvqe0g","pricing_plan_id":"free"},{"bike_id":"2016deba-6c15-4dca-b3f1-7972d2429b2d","system_id":"levelo_inurba_marseille","lat":43.287184,"lon":5.37937,"is_reserved":false,"is_disabled":false,"rental_uris":{"android":"levelo://app?vid=2016deba-6c15-4dca-b3f1-7972d2429b2d","ios":"levelo://app?vid=2016deba-6c15-4dca-b3f1-7972d2429b2d"},"vehicle_type_id":"4","last_reported":1687608773,"current_range_meters":28800,"station_id":"ce4bh9p2rcd13ifvqec0","pricing_plan_id":"free"},{"bike_id":"de3fbe61-f155-4c54-aa68-e02258f23d7c","system_id":"levelo_inurba_marseille","lat":43.316517,"lon":5.404375,"is_reserved":false,"is_disabled":false,"rental_uris":{"android":"levelo://app?vid=de3fbe61-f155-4c54-aa68-e02258f23d7c","ios":"levelo://app?vid=de3fbe61-f155-4c54-aa68-e02258f23d7c"},"vehicle_type_id":"4","last_reported":1687608773,"current_range_meters":26800,"station_id":"ce4bh012rcd13ifvqd00","pricing_plan_id":"free"},{"bike_id":"d69fed3a-efe9-46fb-b1dc-1240b8978d3e","system_id":"levelo_inurba_marseille","lat":43.316517,"lon":5.404375,"is_reserved":false,"is_disabled":false,"rental_uris":{"android":"levelo://app?vid=d69fed3a-efe9-46fb-b1dc-1240b8978d3e","ios":"levelo://app?vid=d69fed3a-efe9-46fb-b1dc-1240b8978d3e"},"vehicle_type_id":"4","last_reported":1687608773,"current_range_meters":19200,"station_id":"ce4bh012rcd13ifvqd00","pricing_plan_id":"free"},{"bike_id":"0a9231e4-43c0-4f22-bf06-41d6a013247c","system_id":"levelo_inurba_marseille","lat":43.28459,"lon":5.35885,"is_reserved":false,"is_disabled":false,"rental_uris":{"android":"levelo://app?vid=0a9231e4-43c0-4f22-bf06-41d6a013247c","ios":"levelo://app?vid=0a9231e4-43c0-4f22-bf06-41d6a013247c"},"vehicle_type_id":"4","last_reported":1687608773,"current_range_meters":8800,"station_id":"ce4bhah2rcd13ifvqei0","pricing_plan_id":"free"},{"bike_id":"8cbb2f49-ad40-4b99-8031-99f0f2db5f7a","system_id":"levelo_inurba_marseille","lat":43.285848,"lon":5.350787,"is_reserved":false,"is_disabled":false,"rental_uris":{"android":"levelo://app?vid=8cbb2f49-ad40-4b99-8031-99f0f2db5f7a","ios":"levelo://app?vid=8cbb2f49-ad40-4b99-8031-99f0f2db5f7a"},"vehicle_type_id":"4","last_reported":1687608773,"current_range_meters":31200,"station_id":"ce4bhch2rcd13ifvqeug","pricing_plan_id":"free"},{"bike_id":"495b5eb8-6416-4acd-bc72-d351549deef3","system_id":"levelo_inurba_marseille","lat":43.285856,"lon":5.350771,"is_reserved":false,"is_disabled":false,"rental_uris":{"android":"levelo://app?vid=495b5eb8-6416-4acd-bc72-d351549deef3","ios":"levelo://app?vid=495b5eb8-6416-4acd-bc72-d351549deef3"},"vehicle_type_id":"4","last_reported":1687608773,"current_range_meters":16000,"station_id":"ce4bhch2rcd13ifvqeug","pricing_plan_id":"free"},{"bike_id":"a365c532-febb-4640-b79d-ab9e31f33468","system_id":"levelo_inurba_marseille","lat":43.28616,"lon":5.35106,"is_reserved":false,"is_disabled":false,"rental_uris":{"android":"levelo://app?vid=a365c532-febb-4640-b79d-ab9e31f33468","ios":"levelo://app?vid=a365c532-febb-4640-b79d-ab9e31f33468"},"vehicle_type_id":"4","last_reported":1687608773,"current_range_meters":0,"station_id":"ce4bhch2rcd13ifvqeug","pricing_plan_id":"free"},{"bike_id":"2d71af35-0b08-4581-a41d-9eea51d102df","system_id":"levelo_inurba_marseille","lat":43.285848,"lon":5.350787,"is_reserved":false,"is_disabled":false,"rental_uris":{"android":"levelo://app?vid=2d71af35-0b08-4581-a41d-9eea51d102df","ios":"levelo://app?vid=2d71af35-0b08-4581-a41d-9eea51d102df"},"vehicle_type_id":"4","last_reported":1687608773,"current_range_meters":2400,"station_id":"ce4bhch2rcd13ifvqeug","pricing_plan_id":"free"},{"bike_id":"baa54848-c642-434f-93cc-64e30e79a6bc","system_id":"levelo_inurba_marseille","lat":43.285856,"lon":5.350771,"is_reserved":false,"is_disabled":false,"rental_uris":{"android":"levelo://app?vid=baa54848-c642-434f-93cc-64e30e79a6bc","ios":"levelo://app?vid=baa54848-c642-434f-93cc-64e30e79a6bc"},"vehicle_type_id":"4","last_reported":1687608773,"current_range_meters":31200,"station_id":"ce4bhch2rcd13ifvqeug","pricing_plan_id":"free"},{"bike_id":"c4854287-4426-4bce-994a-92fc68190cc8","system_id":"levelo_inurba_marseille","lat":43.285848,"lon":5.350787,"is_reserved":false,"is_disabled":false,"rental_uris":{"android":"levelo://app?vid=c4854287-4426-4bce-994a-92fc68190cc8","ios":"levelo://app?vid=c4854287-4426-4bce-994a-92fc68190cc8"},"vehicle_type_id":"4","last_reported":1687608773,"current_range_meters":1200,"station_id":"ce4bhch2rcd13ifvqeug","pricing_plan_id":"free"},{"bike_id":"a4408e2c-6c48-4d85-8b7f-d3d65771977e","system_id":"levelo_inurba_marseille","lat":43.285848,"lon":5.350787,"is_reserved":false,"is_disabled":false,"rental_uris":{"android":"levelo://app?vid=a4408e2c-6c48-4d85-8b7f-d3d65771977e","ios":"levelo://app?vid=a4408e2c-6c48-4d85-8b7f-d3d65771977e"},"vehicle_type_id":"4","last_reported":1687608773,"current_range_meters":16800,"station_id":"ce4bhch2rcd13ifvqeug","pricing_plan_id":"free"},{"bike_id":"0a54a155-c3dd-4c22-bcf8-06cd79016ebc","system_id":"levelo_inurba_marseille","lat":43.285848,"lon":5.350787,"is_reserved":false,"is_disabled":false,"rental_uris":{"android":"levelo://app?vid=0a54a155-c3dd-4c22-bcf8-06cd79016ebc","ios":"levelo://app?vid=0a54a155-c3dd-4c22-bcf8-06cd79016ebc"},"vehicle_type_id":"4","last_reported":1687608773,"current_range_meters":28400,"station_id":"ce4bhch2rcd13ifvqeug","pricing_plan_id":"free"},{"bike_id":"beb9c156-faae-49c2-b97e-d9fe9496cda8","system_id":"levelo_inurba_marseille","lat":43.28615,"lon":5.35103,"is_reserved":false,"is_disabled":false,"rental_uris":{"android":"levelo://app?vid=beb9c156-faae-49c2-b97e-d9fe9496cda8","ios":"levelo://app?vid=beb9c156-faae-49c2-b97e-d9fe9496cda8"},"vehicle_type_id":"4","last_reported":1687608773,"current_range_meters":4000,"station_id":"ce4bhch2rcd13ifvqeug","pricing_plan_id":"free"},{"bike_id":"3eb9dd2c-b9b2-4028-a09d-0a7556bbf6ef","system_id":"levelo_inurba_marseille","lat":43.28614,"lon":5.35106,"is_reserved":false,"is_disabled":false,"rental_uris":{"android":"levelo://app?vid=3eb9dd2c-b9b2-4028-a09d-0a7556bbf6ef","ios":"levelo://app?vid=3eb9dd2c-b9b2-4028-a09d-0a7556bbf6ef"},"vehicle_type_id":"4","last_reported":1687608773,"current_range_meters":21200,"station_id":"","pricing_plan_id":"free"},{"bike_id":"08c3fa4e-0f76-4b54-9b6b-5f413c6bd390","system_id":"levelo_inurba_marseille","lat":43.28613,"lon":5.35107,"is_reserved":false,"is_disabled":false,"rental_uris":{"android":"levelo://app?vid=08c3fa4e-0f76-4b54-9b6b-5f413c6bd390","ios":"levelo://app?vid=08c3fa4e-0f76-4b54-9b6b-5f413c6bd390"},"vehicle_type_id":"4","last_reported":1687608773,"current_range_meters":19200,"station_id":"ce4bhch2rcd13ifvqeug","pricing_plan_id":"free"},{"bike_id":"72662650-821e-4700-8ed0-aa05799fcf0c","system_id":"levelo_inurba_marseille","lat":43.285856,"lon":5.350771,"is_reserved":false,"is_disabled":false,"rental_uris":{"android":"levelo://app?vid=72662650-821e-4700-8ed0-aa05799fcf0c","ios":"levelo://app?vid=72662650-821e-4700-8ed0-aa05799fcf0c"},"vehicle_type_id":"4","last_reported":1687608773,"current_range_meters":12000,"station_id":"ce4bhch2rcd13ifvqeug","pricing_plan_id":"free"},{"bike_id":"22cc7a76-05f9-4ced-9b89-6ce87ab4251f","system_id":"levelo_inurba_marseille","lat":43.285856,"lon":5.350771,"is_reserved":false,"is_disabled":false,"rental_uris":{"android":"levelo://app?vid=22cc7a76-05f9-4ced-9b89-6ce87ab4251f","ios":"levelo://app?vid=22cc7a76-05f9-4ced-9b89-6ce87ab4251f"},"vehicle_type_id":"4","last_reported":1687608773,"current_range_meters":23600,"station_id":"ce4bhch2rcd13ifvqeug","pricing_plan_id":"free"},{"bike_id":"9cae825f-ce49-4976-9212-5608954cbbcd","system_id":"levelo_inurba_marseille","lat":43.323464,"lon":5.406297,"is_reserved":false,"is_disabled":false,"rental_uris":{"android":"levelo://app?vid=9cae825f-ce49-4976-9212-5608954cbbcd","ios":"levelo://app?vid=9cae825f-ce49-4976-9212-5608954cbbcd"},"vehicle_type_id":"4","last_reported":1687608773,"current_range_meters":31200,"station_id":"ce4bhq92rcd13ifvqhjg","pricing_plan_id":"free"},{"bike_id":"a54c5183-d12c-4b5d-b1a7-e6c2a62eb9b5","system_id":"levelo_inurba_marseille","lat":43.32342,"lon":5.40617,"is_reserved":false,"is_disabled":false,"rental_uris":{"android":"levelo://app?vid=a54c5183-d12c-4b5d-b1a7-e6c2a62eb9b5","ios":"levelo://app?vid=a54c5183-d12c-4b5d-b1a7-e6c2a62eb9b5"},"vehicle_type_id":"4","last_reported":1687608773,"current_range_meters":19200,"station_id":"ce4bhq92rcd13ifvqhjg","pricing_plan_id":"free"},{"bike_id":"8d1f88b2-a260-40c1-9cbd-c5c8b2bfd015","system_id":"levelo_inurba_marseille","lat":43.32338,"lon":5.40625,"is_reserved":false,"is_disabled":false,"rental_uris":{"android":"levelo://app?vid=8d1f88b2-a260-40c1-9cbd-c5c8b2bfd015","ios":"levelo://app?vid=8d1f88b2-a260-40c1-9cbd-c5c8b2bfd015"},"vehicle_type_id":"4","last_reported":1687608773,"current_range_meters":11200,"station_id":"ce4bhq92rcd13ifvqhjg","pricing_plan_id":"free"},{"bike_id":"6606e82c-c0ce-4a7f-bf46-357d4faa235e","system_id":"levelo_inurba_marseille","lat":43.32332,"lon":5.4063,"is_reserved":false,"is_disabled":false,"rental_uris":{"android":"levelo://app?vid=6606e82c-c0ce-4a7f-bf46-357d4faa235e","ios":"levelo://app?vid=6606e82c-c0ce-4a7f-bf46-357d4faa235e"},"vehicle_type_id":"4","last_reported":1687608773,"current_range_meters":400,"station_id":"ce4bhq92rcd13ifvqhjg","pricing_plan_id":"free"},{"bike_id":"165784fd-8cb0-48fe-8681-d7abe54a6cf4","system_id":"levelo_inurba_marseille","lat":43.32341,"lon":5.40626,"is_reserved":false,"is_disabled":false,"rental_uris":{"android":"levelo://app?vid=165784fd-8cb0-48fe-8681-d7abe54a6cf4","ios":"levelo://app?vid=165784fd-8cb0-48fe-8681-d7abe54a6cf4"},"vehicle_type_id":"4","last_reported":1687608773,"current_range_meters":30800,"station_id":"ce4bhq92rcd13ifvqhjg","pricing_plan_id":"free"},{"bike_id":"e6dc9180-d66f-4f7e-8fb3-9cffbddbdc66","system_id":"levelo_inurba_marseille","lat":43.288497,"lon":5.393089,"is_reserved":false,"is_disabled":false,"rental_uris":{"android":"levelo://app?vid=e6dc9180-d66f-4f7e-8fb3-9cffbddbdc66","ios":"levelo://app?vid=e6dc9180-d66f-4f7e-8fb3-9cffbddbdc66"},"vehicle_type_id":"4","last_reported":1687608773,"current_range_meters":23200,"station_id":"ce4bh2p2rcd13ifvqdi0","pricing_plan_id":"free"},{"bike_id":"b4c950db-352f-4a1a-8e3c-c05101a6dad0","system_id":"levelo_inurba_marseille","lat":43.288501,"lon":5.393087,"is_reserved":false,"is_disabled":false,"rental_uris":{"android":"levelo://app?vid=b4c950db-352f-4a1a-8e3c-c05101a6dad0","ios":"levelo://app?vid=b4c950db-352f-4a1a-8e3c-c05101a6dad0"},"vehicle_type_id":"4","last_reported":1687608773,"current_range_meters":31200,"station_id":"ce4bh2p2rcd13ifvqdi0","pricing_plan_id":"free"},{"bike_id":"77c5016f-b961-42a1-899b-0da2b4bc813e","system_id":"levelo_inurba_marseille","lat":43.28429,"lon":5.34994,"is_reserved":false,"is_disabled":false,"rental_uris":{"android":"levelo://app?vid=77c5016f-b961-42a1-899b-0da2b4bc813e","ios":"levelo://app?vid=77c5016f-b961-42a1-899b-0da2b4bc813e"},"vehicle_type_id":"4","last_reported":1687608773,"current_range_meters":16400,"station_id":"ce4bhbh2rcd13ifvqepg","pricing_plan_id":"free"},{"bike_id":"0055eff6-c9b4-4290-bec2-537a07918075","system_id":"levelo_inurba_marseille","lat":43.284219,"lon":5.3497,"is_reserved":false,"is_disabled":false,"rental_uris":{"android":"levelo://app?vid=0055eff6-c9b4-4290-bec2-537a07918075","ios":"levelo://app?vid=0055eff6-c9b4-4290-bec2-537a07918075"},"vehicle_type_id":"4","last_reported":1687608773,"current_range_meters":31200,"station_id":"ce4bhbh2rcd13ifvqepg","pricing_plan_id":"free"},{"bike_id":"18b07cb4-7e42-4e0d-ab43-3d6ac52f3b2b","system_id":"levelo_inurba_marseille","lat":43.284219,"lon":5.3497,"is_reserved":false,"is_disabled":false,"rental_uris":{"android":"levelo://app?vid=18b07cb4-7e42-4e0d-ab43-3d6ac52f3b2b","ios":"levelo://app?vid=18b07cb4-7e42-4e0d-ab43-3d6ac52f3b2b"},"vehicle_type_id":"4","last_reported":1687608773,"current_range_meters":30800,"station_id":"ce4bhbh2rcd13ifvqepg","pricing_plan_id":"free"},{"bike_id":"3d8744b5-74d3-4465-a40a-faac9e2e7f8f","system_id":"levelo_inurba_marseille","lat":43.28427,"lon":5.34987,"is_reserved":false,"is_disabled":false,"rental_uris":{"android":"levelo://app?vid=3d8744b5-74d3-4465-a40a-faac9e2e7f8f","ios":"levelo://app?vid=3d8744b5-74d3-4465-a40a-faac9e2e7f8f"},"vehicle_type_id":"4","last_reported":1687608773,"current_range_meters":4000,"station_id":"ce4bhbh2rcd13ifvqepg","pricing_plan_id":"free"},{"bike_id":"02c4906c-8403-4025-af52-6609de01361f","system_id":"levelo_inurba_marseille","lat":43.284217,"lon":5.349697,"is_reserved":false,"is_disabled":false,"rental_uris":{"android":"levelo://app?vid=02c4906c-8403-4025-af52-6609de01361f","ios":"levelo://app?vid=02c4906c-8403-4025-af52-6609de01361f"},"vehicle_type_id":"4","last_reported":1687608773,"current_range_meters":26000,"station_id":"ce4bhbh2rcd13ifvqepg","pricing_plan_id":"free"},{"bike_id":"d57fa611-3ba9-4792-9694-06a7d9bfbd89","system_id":"levelo_inurba_marseille","lat":43.28426,"lon":5.34984,"is_reserved":false,"is_disabled":false,"rental_uris":{"android":"levelo://app?vid=d57fa611-3ba9-4792-9694-06a7d9bfbd89","ios":"levelo://app?vid=d57fa611-3ba9-4792-9694-06a7d9bfbd89"},"vehicle_type_id":"4","last_reported":1687608773,"current_range_meters":9600,"station_id":"ce4bhbh2rcd13ifvqepg","pricing_plan_id":"free"},{"bike_id":"e4e9cb2d-e1ed-48ef-9478-8b91cad9d674","system_id":"levelo_inurba_marseille","lat":43.28421,"lon":5.34995,"is_reserved":false,"is_disabled":false,"rental_uris":{"android":"levelo://app?vid=e4e9cb2d-e1ed-48ef-9478-8b91cad9d674","ios":"levelo://app?vid=e4e9cb2d-e1ed-48ef-9478-8b91cad9d674"},"vehicle_type_id":"4","last_reported":1687608773,"current_range_meters":24800,"station_id":"ce4bhbh2rcd13ifvqepg","pricing_plan_id":"free"},{"bike_id":"8216e25d-9f58-40ea-9e01-dff73bcac161","system_id":"levelo_inurba_marseille","lat":43.284217,"lon":5.349697,"is_reserved":false,"is_disabled":false,"rental_uris":{"android":"levelo://app?vid=8216e25d-9f58-40ea-9e01-dff73bcac161","ios":"levelo://app?vid=8216e25d-9f58-40ea-9e01-dff73bcac161"},"vehicle_type_id":"4","last_reported":1687608773,"current_range_meters":18800,"station_id":"ce4bhbh2rcd13ifvqepg","pricing_plan_id":"free"},{"bike_id":"f42409f8-055c-4c4d-9db7-2c41ec8410d2","system_id":"levelo_inurba_marseille","lat":43.284217,"lon":5.349697,"is_reserved":false,"is_disabled":false,"rental_uris":{"android":"levelo://app?vid=f42409f8-055c-4c4d-9db7-2c41ec8410d2","ios":"levelo://app?vid=f42409f8-055c-4c4d-9db7-2c41ec8410d2"},"vehicle_type_id":"4","last_reported":1687608773,"current_range_meters":28400,"station_id":"ce4bhbh2rcd13ifvqepg","pricing_plan_id":"free"},{"bike_id":"bbe9d181-0f79-4680-8fc6-f9e581e36c4a","system_id":"levelo_inurba_marseille","lat":43.284217,"lon":5.349697,"is_reserved":false,"is_disabled":false,"rental_uris":{"android":"levelo://app?vid=bbe9d181-0f79-4680-8fc6-f9e581e36c4a","ios":"levelo://app?vid=bbe9d181-0f79-4680-8fc6-f9e581e36c4a"},"vehicle_type_id":"4","last_reported":1687608773,"current_range_meters":14400,"station_id":"ce4bhbh2rcd13ifvqepg","pricing_plan_id":"free"},{"bike_id":"93bc5c67-7f85-4c1e-8f78-3342d90b62a6","system_id":"levelo_inurba_marseille","lat":43.284217,"lon":5.349697,"is_reserved":false,"is_disabled":false,"rental_uris":{"android":"levelo://app?vid=93bc5c67-7f85-4c1e-8f78-3342d90b62a6","ios":"levelo://app?vid=93bc5c67-7f85-4c1e-8f78-3342d90b62a6"},"vehicle_type_id":"4","last_reported":1687608773,"current_range_meters":14000,"station_id":"ce4bhbh2rcd13ifvqepg","pricing_plan_id":"free"},{"bike_id":"03b1df5d-0c6c-4943-a258-78ba80dad506","system_id":"levelo_inurba_marseille","lat":43.28419,"lon":5.34979,"is_reserved":false,"is_disabled":false,"rental_uris":{"android":"levelo://app?vid=03b1df5d-0c6c-4943-a258-78ba80dad506","ios":"levelo://app?vid=03b1df5d-0c6c-4943-a258-78ba80dad506"},"vehicle_type_id":"4","last_reported":1687608773,"current_range_meters":22400,"station_id":"ce4bhbh2rcd13ifvqepg","pricing_plan_id":"free"},{"bike_id":"ab0aa422-6a4f-493a-8593-123e3ad068d2","system_id":"levelo_inurba_marseille","lat":43.284217,"lon":5.349697,"is_reserved":false,"is_disabled":false,"rental_uris":{"android":"levelo://app?vid=ab0aa422-6a4f-493a-8593-123e3ad068d2","ios":"levelo://app?vid=ab0aa422-6a4f-493a-8593-123e3ad068d2"},"vehicle_type_id":"4","last_reported":1687608773,"current_range_meters":14000,"station_id":"ce4bhbh2rcd13ifvqepg","pricing_plan_id":"free"},{"bike_id":"320e87c7-5f32-4f84-a1c8-bddf1595e316","system_id":"levelo_inurba_marseille","lat":43.284217,"lon":5.349697,"is_reserved":false,"is_disabled":false,"rental_uris":{"android":"levelo://app?vid=320e87c7-5f32-4f84-a1c8-bddf1595e316","ios":"levelo://app?vid=320e87c7-5f32-4f84-a1c8-bddf1595e316"},"vehicle_type_id":"4","last_reported":1687608773,"current_range_meters":18400,"station_id":"ce4bhbh2rcd13ifvqepg","pricing_plan_id":"free"},{"bike_id":"257eeff9-9cd0-4fee-90c9-ec0586178b30","system_id":"levelo_inurba_marseille","lat":43.284217,"lon":5.349697,"is_reserved":false,"is_disabled":false,"rental_uris":{"android":"levelo://app?vid=257eeff9-9cd0-4fee-90c9-ec0586178b30","ios":"levelo://app?vid=257eeff9-9cd0-4fee-90c9-ec0586178b30"},"vehicle_type_id":"4","last_reported":1687608773,"current_range_meters":4400,"station_id":"ce4bhbh2rcd13ifvqepg","pricing_plan_id":"free"},{"bike_id":"d0eec264-9f5d-41f7-8361-a2a5c46f64e2","system_id":"levelo_inurba_marseille","lat":43.284217,"lon":5.349697,"is_reserved":false,"is_disabled":false,"rental_uris":{"android":"levelo://app?vid=d0eec264-9f5d-41f7-8361-a2a5c46f64e2","ios":"levelo://app?vid=d0eec264-9f5d-41f7-8361-a2a5c46f64e2"},"vehicle_type_id":"4","last_reported":1687608773,"current_range_meters":18400,"station_id":"ce4bhbh2rcd13ifvqepg","pricing_plan_id":"free"},{"bike_id":"fe1f39ee-1f5f-4fee-bf72-ec5ff6851e86","system_id":"levelo_inurba_marseille","lat":43.32055,"lon":5.40908,"is_reserved":false,"is_disabled":false,"rental_uris":{"android":"levelo://app?vid=fe1f39ee-1f5f-4fee-bf72-ec5ff6851e86","ios":"levelo://app?vid=fe1f39ee-1f5f-4fee-bf72-ec5ff6851e86"},"vehicle_type_id":"4","last_reported":1687608773,"current_range_meters":2000,"station_id":"","pricing_plan_id":"free"},{"bike_id":"82f0c12c-a976-4c4f-addd-333e5baac730","system_id":"levelo_inurba_marseille","lat":43.29262,"lon":5.4012,"is_reserved":false,"is_disabled":false,"rental_uris":{"android":"levelo://app?vid=82f0c12c-a976-4c4f-addd-333e5baac730","ios":"levelo://app?vid=82f0c12c-a976-4c4f-addd-333e5baac730"},"vehicle_type_id":"4","last_reported":1687608773,"current_range_meters":0,"station_id":"ce4bh312rcd13ifvqdk0","pricing_plan_id":"free"},{"bike_id":"e3ba0baf-66ba-4955-ae5f-69786cb0091e","system_id":"levelo_inurba_marseille","lat":43.282754,"lon":5.350519,"is_reserved":false,"is_disabled":false,"rental_uris":{"android":"levelo://app?vid=e3ba0baf-66ba-4955-ae5f-69786cb0091e","ios":"levelo://app?vid=e3ba0baf-66ba-4955-ae5f-69786cb0091e"},"vehicle_type_id":"4","last_reported":1687608773,"current_range_meters":10400,"station_id":"ce4bhbp2rcd13ifvqerg","pricing_plan_id":"free"},{"bike_id":"ec379ecd-a000-4c96-927d-01b743353722","system_id":"levelo_inurba_marseille","lat":43.282754,"lon":5.350519,"is_reserved":false,"is_disabled":false,"rental_uris":{"android":"levelo://app?vid=ec379ecd-a000-4c96-927d-01b743353722","ios":"levelo://app?vid=ec379ecd-a000-4c96-927d-01b743353722"},"vehicle_type_id":"4","last_reported":1687608773,"current_range_meters":6400,"station_id":"ce4bhbp2rcd13ifvqerg","pricing_plan_id":"free"},{"bike_id":"e962a6be-87fe-48c4-a84a-62498c6fe8ea","system_id":"levelo_inurba_marseille","lat":43.282754,"lon":5.350519,"is_reserved":false,"is_disabled":false,"rental_uris":{"android":"levelo://app?vid=e962a6be-87fe-48c4-a84a-62498c6fe8ea","ios":"levelo://app?vid=e962a6be-87fe-48c4-a84a-62498c6fe8ea"},"vehicle_type_id":"4","last_reported":1687608773,"current_range_meters":10800,"station_id":"ce4bhbp2rcd13ifvqerg","pricing_plan_id":"free"},{"bike_id":"edb9fb3e-2372-44d2-9aed-e175e7a20102","system_id":"levelo_inurba_marseille","lat":43.28272,"lon":5.35073,"is_reserved":false,"is_disabled":false,"rental_uris":{"android":"levelo://app?vid=edb9fb3e-2372-44d2-9aed-e175e7a20102","ios":"levelo://app?vid=edb9fb3e-2372-44d2-9aed-e175e7a20102"},"vehicle_type_id":"4","last_reported":1687608773,"current_range_meters":13600,"station_id":"ce4bhbp2rcd13ifvqerg","pricing_plan_id":"free"},{"bike_id":"32bf4e8d-ac56-45f1-b939-94214f4c1ba9","system_id":"levelo_inurba_marseille","lat":43.282744,"lon":5.350533,"is_reserved":false,"is_disabled":false,"rental_uris":{"android":"levelo://app?vid=32bf4e8d-ac56-45f1-b939-94214f4c1ba9","ios":"levelo://app?vid=32bf4e8d-ac56-45f1-b939-94214f4c1ba9"},"vehicle_type_id":"4","last_reported":1687608773,"current_range_meters":20800,"station_id":"ce4bhbp2rcd13ifvqerg","pricing_plan_id":"free"},{"bike_id":"a4cc3d70-3619-438e-9ff1-925c1a4f2718","system_id":"levelo_inurba_marseille","lat":43.28274,"lon":5.35061,"is_reserved":false,"is_disabled":false,"rental_uris":{"android":"levelo://app?vid=a4cc3d70-3619-438e-9ff1-925c1a4f2718","ios":"levelo://app?vid=a4cc3d70-3619-438e-9ff1-925c1a4f2718"},"vehicle_type_id":"4","last_reported":1687608773,"current_range_meters":14800,"station_id":"ce4bhbp2rcd13ifvqerg","pricing_plan_id":"free"},{"bike_id":"a4b41200-8525-4474-a19a-91690d5c1ca3","system_id":"levelo_inurba_marseille","lat":43.2827,"lon":5.35073,"is_reserved":false,"is_disabled":false,"rental_uris":{"android":"levelo://app?vid=a4b41200-8525-4474-a19a-91690d5c1ca3","ios":"levelo://app?vid=a4b41200-8525-4474-a19a-91690d5c1ca3"},"vehicle_type_id":"4","last_reported":1687608773,"current_range_meters":21200,"station_id":"ce4bhbp2rcd13ifvqerg","pricing_plan_id":"free"},{"bike_id":"1594e1a8-c75b-410c-b111-a8906601c128","system_id":"levelo_inurba_marseille","lat":43.28269,"lon":5.35075,"is_reserved":false,"is_disabled":false,"rental_uris":{"android":"levelo://app?vid=1594e1a8-c75b-410c-b111-a8906601c128","ios":"levelo://app?vid=1594e1a8-c75b-410c-b111-a8906601c128"},"vehicle_type_id":"4","last_reported":1687608773,"current_range_meters":17600,"station_id":"ce4bhbp2rcd13ifvqerg","pricing_plan_id":"free"},{"bike_id":"e390d55b-b5b3-461f-ac26-452c16d893aa","system_id":"levelo_inurba_marseille","lat":43.282754,"lon":5.350519,"is_reserved":false,"is_disabled":false,"rental_uris":{"android":"levelo://app?vid=e390d55b-b5b3-461f-ac26-452c16d893aa","ios":"levelo://app?vid=e390d55b-b5b3-461f-ac26-452c16d893aa"},"vehicle_type_id":"4","last_reported":1687608773,"current_range_meters":22800,"station_id":"ce4bhbp2rcd13ifvqerg","pricing_plan_id":"free"},{"bike_id":"1d6acb4b-2b40-42c0-9bf3-378e9f7f94dd","system_id":"levelo_inurba_marseille","lat":43.282744,"lon":5.350533,"is_reserved":false,"is_disabled":false,"rental_uris":{"android":"levelo://app?vid=1d6acb4b-2b40-42c0-9bf3-378e9f7f94dd","ios":"levelo://app?vid=1d6acb4b-2b40-42c0-9bf3-378e9f7f94dd"},"vehicle_type_id":"4","last_reported":1687608773,"current_range_meters":0,"station_id":"ce4bhbp2rcd13ifvqerg","pricing_plan_id":"free"},{"bike_id":"479cfa89-df46-4ae6-bfbf-c2cb900fb1be","system_id":"levelo_inurba_marseille","lat":43.282754,"lon":5.350519,"is_reserved":false,"is_disabled":false,"rental_uris":{"android":"levelo://app?vid=479cfa89-df46-4ae6-bfbf-c2cb900fb1be","ios":"levelo://app?vid=479cfa89-df46-4ae6-bfbf-c2cb900fb1be"},"vehicle_type_id":"4","last_reported":1687608773,"current_range_meters":13600,"station_id":"ce4bhbp2rcd13ifvqerg","pricing_plan_id":"free"},{"bike_id":"e136c214-0523-44ba-b5ba-b6c0d019159c","system_id":"levelo_inurba_marseille","lat":43.28264,"lon":5.35074,"is_reserved":false,"is_disabled":false,"rental_uris":{"android":"levelo://app?vid=e136c214-0523-44ba-b5ba-b6c0d019159c","ios":"levelo://app?vid=e136c214-0523-44ba-b5ba-b6c0d019159c"},"vehicle_type_id":"4","last_reported":1687608773,"current_range_meters":6000,"station_id":"ce4bhbp2rcd13ifvqerg","pricing_plan_id":"free"},{"bike_id":"1e0d8915-0fb6-4617-a737-0e3fb215c126","system_id":"levelo_inurba_marseille","lat":43.28262,"lon":5.35076,"is_reserved":false,"is_disabled":false,"rental_uris":{"android":"levelo://app?vid=1e0d8915-0fb6-4617-a737-0e3fb215c126","ios":"levelo://app?vid=1e0d8915-0fb6-4617-a737-0e3fb215c126"},"vehicle_type_id":"4","last_reported":1687608773,"current_range_meters":8400,"station_id":"ce4bhbp2rcd13ifvqerg","pricing_plan_id":"free"},{"bike_id":"ab7ab28c-c99c-4c5f-be1a-a271e0b7a272","system_id":"levelo_inurba_marseille","lat":43.28267,"lon":5.35058,"is_reserved":false,"is_disabled":false,"rental_uris":{"android":"levelo://app?vid=ab7ab28c-c99c-4c5f-be1a-a271e0b7a272","ios":"levelo://app?vid=ab7ab28c-c99c-4c5f-be1a-a271e0b7a272"},"vehicle_type_id":"4","last_reported":1687608773,"current_range_meters":16400,"station_id":"ce4bhbp2rcd13ifvqerg","pricing_plan_id":"free"},{"bike_id":"1c053e4a-8ea8-4f95-a7fb-ea6504e77fa2","system_id":"levelo_inurba_marseille","lat":43.28262,"lon":5.35069,"is_reserved":false,"is_disabled":false,"rental_uris":{"android":"levelo://app?vid=1c053e4a-8ea8-4f95-a7fb-ea6504e77fa2","ios":"levelo://app?vid=1c053e4a-8ea8-4f95-a7fb-ea6504e77fa2"},"vehicle_type_id":"4","last_reported":1687608773,"current_range_meters":28800,"station_id":"ce4bhbp2rcd13ifvqerg","pricing_plan_id":"free"},{"bike_id":"1716e78a-a082-492e-a8d8-b3d7fea1e21e","system_id":"levelo_inurba_marseille","lat":43.282754,"lon":5.350519,"is_reserved":false,"is_disabled":false,"rental_uris":{"android":"levelo://app?vid=1716e78a-a082-492e-a8d8-b3d7fea1e21e","ios":"levelo://app?vid=1716e78a-a082-492e-a8d8-b3d7fea1e21e"},"vehicle_type_id":"4","last_reported":1687608773,"current_range_meters":15200,"station_id":"ce4bhbp2rcd13ifvqerg","pricing_plan_id":"free"},{"bike_id":"82f77821-5742-48d7-815e-f5434bb7ba2c","system_id":"levelo_inurba_marseille","lat":43.296263,"lon":5.40601,"is_reserved":false,"is_disabled":false,"rental_uris":{"android":"levelo://app?vid=82f77821-5742-48d7-815e-f5434bb7ba2c","ios":"levelo://app?vid=82f77821-5742-48d7-815e-f5434bb7ba2c"},"vehicle_type_id":"4","last_reported":1687608773,"current_range_meters":800,"station_id":"ce4bh0h2rcd13ifvqd60","pricing_plan_id":"free"},{"bike_id":"ff60adae-f71a-4e2f-9c03-c28e9ecc3c45","system_id":"levelo_inurba_marseille","lat":43.32718,"lon":5.40784,"is_reserved":false,"is_disabled":false,"rental_uris":{"android":"levelo://app?vid=ff60adae-f71a-4e2f-9c03-c28e9ecc3c45","ios":"levelo://app?vid=ff60adae-f71a-4e2f-9c03-c28e9ecc3c45"},"vehicle_type_id":"4","last_reported":1687608773,"current_range_meters":5200,"station_id":"","pricing_plan_id":"free"},{"bike_id":"514e4d9d-f74c-4bd1-8d07-610055ad8743","system_id":"levelo_inurba_marseille","lat":43.32661,"lon":5.40982,"is_reserved":false,"is_disabled":false,"rental_uris":{"android":"levelo://app?vid=514e4d9d-f74c-4bd1-8d07-610055ad8743","ios":"levelo://app?vid=514e4d9d-f74c-4bd1-8d07-610055ad8743"},"vehicle_type_id":"4","last_reported":1687608773,"current_range_meters":10400,"station_id":"ce4bhpp2rcd13ifvqhgg","pricing_plan_id":"free"},{"bike_id":"5de98341-c4f0-4072-bcea-73b5bf2f2859","system_id":"levelo_inurba_marseille","lat":43.326605,"lon":5.409903,"is_reserved":false,"is_disabled":false,"rental_uris":{"android":"levelo://app?vid=5de98341-c4f0-4072-bcea-73b5bf2f2859","ios":"levelo://app?vid=5de98341-c4f0-4072-bcea-73b5bf2f2859"},"vehicle_type_id":"4","last_reported":1687608773,"current_range_meters":30000,"station_id":"ce4bhpp2rcd13ifvqhgg","pricing_plan_id":"free"},{"bike_id":"61e5781c-69a0-4299-ba2e-ce4fc92d331a","system_id":"levelo_inurba_marseille","lat":43.326605,"lon":5.409903,"is_reserved":false,"is_disabled":false,"rental_uris":{"android":"levelo://app?vid=61e5781c-69a0-4299-ba2e-ce4fc92d331a","ios":"levelo://app?vid=61e5781c-69a0-4299-ba2e-ce4fc92d331a"},"vehicle_type_id":"4","last_reported":1687608773,"current_range_meters":26800,"station_id":"ce4bhpp2rcd13ifvqhgg","pricing_plan_id":"free"},{"bike_id":"944cc645-9c61-42d4-8b7e-807c114cae2f","system_id":"levelo_inurba_marseille","lat":43.3266,"lon":5.4099,"is_reserved":false,"is_disabled":false,"rental_uris":{"android":"levelo://app?vid=944cc645-9c61-42d4-8b7e-807c114cae2f","ios":"levelo://app?vid=944cc645-9c61-42d4-8b7e-807c114cae2f"},"vehicle_type_id":"4","last_reported":1687608773,"current_range_meters":30800,"station_id":"ce4bhpp2rcd13ifvqhgg","pricing_plan_id":"free"},{"bike_id":"9b7e311b-427f-4c6b-9bfe-6d233d8bb257","system_id":"levelo_inurba_marseille","lat":43.326605,"lon":5.409903,"is_reserved":false,"is_disabled":false,"rental_uris":{"android":"levelo://app?vid=9b7e311b-427f-4c6b-9bfe-6d233d8bb257","ios":"levelo://app?vid=9b7e311b-427f-4c6b-9bfe-6d233d8bb257"},"vehicle_type_id":"4","last_reported":1687608773,"current_range_meters":27600,"station_id":"ce4bhpp2rcd13ifvqhgg","pricing_plan_id":"free"},{"bike_id":"0ef3f9f5-e055-4024-8130-6fbd6c3ce25a","system_id":"levelo_inurba_marseille","lat":43.326605,"lon":5.409903,"is_reserved":false,"is_disabled":false,"rental_uris":{"android":"levelo://app?vid=0ef3f9f5-e055-4024-8130-6fbd6c3ce25a","ios":"levelo://app?vid=0ef3f9f5-e055-4024-8130-6fbd6c3ce25a"},"vehicle_type_id":"4","last_reported":1687608773,"current_range_meters":30800,"station_id":"ce4bhpp2rcd13ifvqhgg","pricing_plan_id":"free"},{"bike_id":"bd024b9e-10e2-485e-8834-4d0dbb51c5ca","system_id":"levelo_inurba_marseille","lat":43.326605,"lon":5.409903,"is_reserved":false,"is_disabled":false,"rental_uris":{"android":"levelo://app?vid=bd024b9e-10e2-485e-8834-4d0dbb51c5ca","ios":"levelo://app?vid=bd024b9e-10e2-485e-8834-4d0dbb51c5ca"},"vehicle_type_id":"4","last_reported":1687608773,"current_range_meters":28000,"station_id":"ce4bhpp2rcd13ifvqhgg","pricing_plan_id":"free"},{"bike_id":"fc2a51fe-3bf8-46f3-9fe8-f24612d4a02a","system_id":"levelo_inurba_marseille","lat":43.326565,"lon":5.409975,"is_reserved":false,"is_disabled":false,"rental_uris":{"android":"levelo://app?vid=fc2a51fe-3bf8-46f3-9fe8-f24612d4a02a","ios":"levelo://app?vid=fc2a51fe-3bf8-46f3-9fe8-f24612d4a02a"},"vehicle_type_id":"4","last_reported":1687608773,"current_range_meters":3600,"station_id":"ce4bhpp2rcd13ifvqhgg","pricing_plan_id":"free"},{"bike_id":"fbf04ef2-ee81-4537-8210-e0fc37c88dfd","system_id":"levelo_inurba_marseille","lat":43.304188,"lon":5.412904,"is_reserved":false,"is_disabled":false,"rental_uris":{"android":"levelo://app?vid=fbf04ef2-ee81-4537-8210-e0fc37c88dfd","ios":"levelo://app?vid=fbf04ef2-ee81-4537-8210-e0fc37c88dfd"},"vehicle_type_id":"4","last_reported":1687608773,"current_range_meters":31200,"station_id":"ce4bhop2rcd13ifvqh8g","pricing_plan_id":"free"},{"bike_id":"15d6790e-c95b-494c-8abc-7c1762777321","system_id":"levelo_inurba_marseille","lat":43.27955,"lon":5.35369,"is_reserved":false,"is_disabled":false,"rental_uris":{"android":"levelo://app?vid=15d6790e-c95b-494c-8abc-7c1762777321","ios":"levelo://app?vid=15d6790e-c95b-494c-8abc-7c1762777321"},"vehicle_type_id":"4","last_reported":1687608773,"current_range_meters":0,"station_id":"","pricing_plan_id":"free"},{"bike_id":"f47d889e-f3a7-4cf7-b89b-498d12032e77","system_id":"levelo_inurba_marseille","lat":43.29291,"lon":5.4065,"is_reserved":false,"is_disabled":false,"rental_uris":{"android":"levelo://app?vid=f47d889e-f3a7-4cf7-b89b-498d12032e77","ios":"levelo://app?vid=f47d889e-f3a7-4cf7-b89b-498d12032e77"},"vehicle_type_id":"4","last_reported":1687608773,"current_range_meters":4800,"station_id":"","pricing_plan_id":"free"},{"bike_id":"92d20a4c-87c2-42f8-b369-e2a3f1eb9aa5","system_id":"levelo_inurba_marseille","lat":43.28065,"lon":5.34768,"is_reserved":false,"is_disabled":false,"rental_uris":{"android":"levelo://app?vid=92d20a4c-87c2-42f8-b369-e2a3f1eb9aa5","ios":"levelo://app?vid=92d20a4c-87c2-42f8-b369-e2a3f1eb9aa5"},"vehicle_type_id":"4","last_reported":1687608773,"current_range_meters":5200,"station_id":"","pricing_plan_id":"free"},{"bike_id":"50fd953c-9754-45f4-aec7-ae52bb9eb6fe","system_id":"levelo_inurba_marseille","lat":43.287154,"lon":5.399979,"is_reserved":false,"is_disabled":false,"rental_uris":{"android":"levelo://app?vid=50fd953c-9754-45f4-aec7-ae52bb9eb6fe","ios":"levelo://app?vid=50fd953c-9754-45f4-aec7-ae52bb9eb6fe"},"vehicle_type_id":"4","last_reported":1687608773,"current_range_meters":31200,"station_id":"ce4bho92rcd13ifvqh3g","pricing_plan_id":"free"},{"bike_id":"354ec7b5-7588-4cf8-8dcc-489c2f3776a4","system_id":"levelo_inurba_marseille","lat":43.279087,"lon":5.380114,"is_reserved":false,"is_disabled":false,"rental_uris":{"android":"levelo://app?vid=354ec7b5-7588-4cf8-8dcc-489c2f3776a4","ios":"levelo://app?vid=354ec7b5-7588-4cf8-8dcc-489c2f3776a4"},"vehicle_type_id":"4","last_reported":1687608773,"current_range_meters":30000,"station_id":"ce4bhf92rcd13ifvqf50","pricing_plan_id":"free"},{"bike_id":"27e72165-7243-456a-a337-a0adaad0e220","system_id":"levelo_inurba_marseille","lat":43.320045,"lon":5.415046,"is_reserved":false,"is_disabled":false,"rental_uris":{"android":"levelo://app?vid=27e72165-7243-456a-a337-a0adaad0e220","ios":"levelo://app?vid=27e72165-7243-456a-a337-a0adaad0e220"},"vehicle_type_id":"4","last_reported":1687608773,"current_range_meters":27600,"station_id":"ce4bhq92rcd13ifvqhkg","pricing_plan_id":"free"},{"bike_id":"14c9cff9-ef50-4c6d-8fa4-9a1095daa1fd","system_id":"levelo_inurba_marseille","lat":43.299579,"lon":5.413255,"is_reserved":false,"is_disabled":false,"rental_uris":{"android":"levelo://app?vid=14c9cff9-ef50-4c6d-8fa4-9a1095daa1fd","ios":"levelo://app?vid=14c9cff9-ef50-4c6d-8fa4-9a1095daa1fd"},"vehicle_type_id":"4","last_reported":1687608773,"current_range_meters":31200,"station_id":"ce4bhp12rcd13ifvqh9g","pricing_plan_id":"free"},{"bike_id":"8a41a8b8-9a35-4187-a50c-2e5cb059ceb3","system_id":"levelo_inurba_marseille","lat":43.320045,"lon":5.415048,"is_reserved":false,"is_disabled":false,"rental_uris":{"android":"levelo://app?vid=8a41a8b8-9a35-4187-a50c-2e5cb059ceb3","ios":"levelo://app?vid=8a41a8b8-9a35-4187-a50c-2e5cb059ceb3"},"vehicle_type_id":"4","last_reported":1687608773,"current_range_meters":31600,"station_id":"ce4bhq92rcd13ifvqhkg","pricing_plan_id":"free"},{"bike_id":"0d4db407-6832-44da-9d1e-518bbf5dcab5","system_id":"levelo_inurba_marseille","lat":43.299579,"lon":5.413255,"is_reserved":false,"is_disabled":false,"rental_uris":{"android":"levelo://app?vid=0d4db407-6832-44da-9d1e-518bbf5dcab5","ios":"levelo://app?vid=0d4db407-6832-44da-9d1e-518bbf5dcab5"},"vehicle_type_id":"4","last_reported":1687608773,"current_range_meters":0,"station_id":"ce4bhp12rcd13ifvqh9g","pricing_plan_id":"free"},{"bike_id":"ed1c94f0-8a0b-4a63-a93e-6771127b17ab","system_id":"levelo_inurba_marseille","lat":43.29958,"lon":5.41319,"is_reserved":false,"is_disabled":false,"rental_uris":{"android":"levelo://app?vid=ed1c94f0-8a0b-4a63-a93e-6771127b17ab","ios":"levelo://app?vid=ed1c94f0-8a0b-4a63-a93e-6771127b17ab"},"vehicle_type_id":"4","last_reported":1687608773,"current_range_meters":16400,"station_id":"ce4bhp12rcd13ifvqh9g","pricing_plan_id":"free"},{"bike_id":"a5db1ab2-8349-49de-b400-2b29dc124992","system_id":"levelo_inurba_marseille","lat":43.29952,"lon":5.41318,"is_reserved":false,"is_disabled":false,"rental_uris":{"android":"levelo://app?vid=a5db1ab2-8349-49de-b400-2b29dc124992","ios":"levelo://app?vid=a5db1ab2-8349-49de-b400-2b29dc124992"},"vehicle_type_id":"4","last_reported":1687608773,"current_range_meters":11200,"station_id":"ce4bhp12rcd13ifvqh9g","pricing_plan_id":"free"},{"bike_id":"cc3079b5-848e-4588-aff1-afe1ae5dd557","system_id":"levelo_inurba_marseille","lat":43.320045,"lon":5.415048,"is_reserved":false,"is_disabled":false,"rental_uris":{"android":"levelo://app?vid=cc3079b5-848e-4588-aff1-afe1ae5dd557","ios":"levelo://app?vid=cc3079b5-848e-4588-aff1-afe1ae5dd557"},"vehicle_type_id":"4","last_reported":1687608773,"current_range_meters":31200,"station_id":"ce4bhq92rcd13ifvqhkg","pricing_plan_id":"free"},{"bike_id":"25fbec75-4b67-47e9-a9b8-cf1a69311c4e","system_id":"levelo_inurba_marseille","lat":43.320045,"lon":5.415046,"is_reserved":false,"is_disabled":false,"rental_uris":{"android":"levelo://app?vid=25fbec75-4b67-47e9-a9b8-cf1a69311c4e","ios":"levelo://app?vid=25fbec75-4b67-47e9-a9b8-cf1a69311c4e"},"vehicle_type_id":"4","last_reported":1687608773,"current_range_meters":31200,"station_id":"ce4bhq92rcd13ifvqhkg","pricing_plan_id":"free"},{"bike_id":"d1ee3eeb-b6d2-4502-8c4e-66513d598e4d","system_id":"levelo_inurba_marseille","lat":43.320045,"lon":5.415048,"is_reserved":false,"is_disabled":false,"rental_uris":{"android":"levelo://app?vid=d1ee3eeb-b6d2-4502-8c4e-66513d598e4d","ios":"levelo://app?vid=d1ee3eeb-b6d2-4502-8c4e-66513d598e4d"},"vehicle_type_id":"4","last_reported":1687608773,"current_range_meters":16800,"station_id":"ce4bhq92rcd13ifvqhkg","pricing_plan_id":"free"},{"bike_id":"da187756-cf43-4922-9bd1-24ed583edd28","system_id":"levelo_inurba_marseille","lat":43.29247,"lon":5.40899,"is_reserved":false,"is_disabled":false,"rental_uris":{"android":"levelo://app?vid=da187756-cf43-4922-9bd1-24ed583edd28","ios":"levelo://app?vid=da187756-cf43-4922-9bd1-24ed583edd28"},"vehicle_type_id":"4","last_reported":1687608773,"current_range_meters":17600,"station_id":"ce4bh192rcd13ifvqdc0","pricing_plan_id":"free"},{"bike_id":"db9306c1-8421-4cc5-bcc5-bc532d34ca2e","system_id":"levelo_inurba_marseille","lat":43.32536,"lon":5.41434,"is_reserved":false,"is_disabled":false,"rental_uris":{"android":"levelo://app?vid=db9306c1-8421-4cc5-bcc5-bc532d34ca2e","ios":"levelo://app?vid=db9306c1-8421-4cc5-bcc5-bc532d34ca2e"},"vehicle_type_id":"4","last_reported":1687608773,"current_range_meters":28000,"station_id":"ce4bhq12rcd13ifvqhhg","pricing_plan_id":"free"},{"bike_id":"3601110a-5965-4d7f-922e-6583a4ae04db","system_id":"levelo_inurba_marseille","lat":43.276179,"lon":5.361009,"is_reserved":false,"is_disabled":false,"rental_uris":{"android":"levelo://app?vid=3601110a-5965-4d7f-922e-6583a4ae04db","ios":"levelo://app?vid=3601110a-5965-4d7f-922e-6583a4ae04db"},"vehicle_type_id":"4","last_reported":1687608773,"current_range_meters":24000,"station_id":"ce4bgj92rcd13ifvqbe0","pricing_plan_id":"free"},{"bike_id":"26dc4b30-ec1f-4785-8925-f37aa3d24bf5","system_id":"levelo_inurba_marseille","lat":43.292569,"lon":5.409107,"is_reserved":false,"is_disabled":false,"rental_uris":{"android":"levelo://app?vid=26dc4b30-ec1f-4785-8925-f37aa3d24bf5","ios":"levelo://app?vid=26dc4b30-ec1f-4785-8925-f37aa3d24bf5"},"vehicle_type_id":"4","last_reported":1687608773,"current_range_meters":31200,"station_id":"ce4bh192rcd13ifvqdc0","pricing_plan_id":"free"},{"bike_id":"584661b8-d0bd-4cb0-a07b-cffb1b1ea119","system_id":"levelo_inurba_marseille","lat":43.276179,"lon":5.361009,"is_reserved":false,"is_disabled":false,"rental_uris":{"android":"levelo://app?vid=584661b8-d0bd-4cb0-a07b-cffb1b1ea119","ios":"levelo://app?vid=584661b8-d0bd-4cb0-a07b-cffb1b1ea119"},"vehicle_type_id":"4","last_reported":1687608773,"current_range_meters":16400,"station_id":"ce4bgj92rcd13ifvqbe0","pricing_plan_id":"free"},{"bike_id":"a386905c-00e0-4ea3-bae4-d39eda9331e1","system_id":"levelo_inurba_marseille","lat":43.276179,"lon":5.361009,"is_reserved":false,"is_disabled":false,"rental_uris":{"android":"levelo://app?vid=a386905c-00e0-4ea3-bae4-d39eda9331e1","ios":"levelo://app?vid=a386905c-00e0-4ea3-bae4-d39eda9331e1"},"vehicle_type_id":"4","last_reported":1687608773,"current_range_meters":22800,"station_id":"ce4bgj92rcd13ifvqbe0","pricing_plan_id":"free"},{"bike_id":"265e9839-5686-442c-9b91-94874b6a24b0","system_id":"levelo_inurba_marseille","lat":43.28079,"lon":5.39652,"is_reserved":false,"is_disabled":false,"rental_uris":{"android":"levelo://app?vid=265e9839-5686-442c-9b91-94874b6a24b0","ios":"levelo://app?vid=265e9839-5686-442c-9b91-94874b6a24b0"},"vehicle_type_id":"4","last_reported":1687608773,"current_range_meters":0,"station_id":"ce4bho12rcd13ifvqh2g","pricing_plan_id":"free"},{"bike_id":"78e650a7-157a-4d72-872d-3c5b118d4899","system_id":"levelo_inurba_marseille","lat":43.303837,"lon":5.418724,"is_reserved":false,"is_disabled":false,"rental_uris":{"android":"levelo://app?vid=78e650a7-157a-4d72-872d-3c5b118d4899","ios":"levelo://app?vid=78e650a7-157a-4d72-872d-3c5b118d4899"},"vehicle_type_id":"4","last_reported":1687608773,"current_range_meters":24800,"station_id":"ce4bhop2rcd13ifvqh7g","pricing_plan_id":"free"},{"bike_id":"9dcf2228-36a7-4c5b-b1d0-ae308dae8cfd","system_id":"levelo_inurba_marseille","lat":43.303837,"lon":5.418724,"is_reserved":false,"is_disabled":false,"rental_uris":{"android":"levelo://app?vid=9dcf2228-36a7-4c5b-b1d0-ae308dae8cfd","ios":"levelo://app?vid=9dcf2228-36a7-4c5b-b1d0-ae308dae8cfd"},"vehicle_type_id":"4","last_reported":1687608773,"current_range_meters":28000,"station_id":"ce4bhop2rcd13ifvqh7g","pricing_plan_id":"free"},{"bike_id":"d704e506-f359-4682-9cd8-eea6238573db","system_id":"levelo_inurba_marseille","lat":43.303837,"lon":5.418724,"is_reserved":false,"is_disabled":false,"rental_uris":{"android":"levelo://app?vid=d704e506-f359-4682-9cd8-eea6238573db","ios":"levelo://app?vid=d704e506-f359-4682-9cd8-eea6238573db"},"vehicle_type_id":"4","last_reported":1687608773,"current_range_meters":26000,"station_id":"ce4bhop2rcd13ifvqh7g","pricing_plan_id":"free"},{"bike_id":"53727e42-cda1-41d9-9e15-e90f36c6b0d5","system_id":"levelo_inurba_marseille","lat":43.303837,"lon":5.418724,"is_reserved":false,"is_disabled":false,"rental_uris":{"android":"levelo://app?vid=53727e42-cda1-41d9-9e15-e90f36c6b0d5","ios":"levelo://app?vid=53727e42-cda1-41d9-9e15-e90f36c6b0d5"},"vehicle_type_id":"4","last_reported":1687608773,"current_range_meters":12800,"station_id":"ce4bhop2rcd13ifvqh7g","pricing_plan_id":"free"},{"bike_id":"376732f7-b298-4f7f-b4d6-3bf74d5021b1","system_id":"levelo_inurba_marseille","lat":43.278399,"lon":5.392139,"is_reserved":false,"is_disabled":false,"rental_uris":{"android":"levelo://app?vid=376732f7-b298-4f7f-b4d6-3bf74d5021b1","ios":"levelo://app?vid=376732f7-b298-4f7f-b4d6-3bf74d5021b1"},"vehicle_type_id":"4","last_reported":1687608773,"current_range_meters":29600,"station_id":"ce4bhjp2rcd13ifvqga0","pricing_plan_id":"free"},{"bike_id":"083f3400-7964-4d86-87b5-740fbe29ed20","system_id":"levelo_inurba_marseille","lat":43.27379,"lon":5.36252,"is_reserved":false,"is_disabled":false,"rental_uris":{"android":"levelo://app?vid=083f3400-7964-4d86-87b5-740fbe29ed20","ios":"levelo://app?vid=083f3400-7964-4d86-87b5-740fbe29ed20"},"vehicle_type_id":"4","last_reported":1687608773,"current_range_meters":16000,"station_id":"ce4bhbh2rcd13ifvqeo0","pricing_plan_id":"free"},{"bike_id":"c7995f12-2455-4ae2-a310-84f2488622ff","system_id":"levelo_inurba_marseille","lat":43.275625,"lon":5.384392,"is_reserved":false,"is_disabled":false,"rental_uris":{"android":"levelo://app?vid=c7995f12-2455-4ae2-a310-84f2488622ff","ios":"levelo://app?vid=c7995f12-2455-4ae2-a310-84f2488622ff"},"vehicle_type_id":"4","last_reported":1687608773,"current_range_meters":12000,"station_id":"ce4bhh92rcd13ifvqfi0","pricing_plan_id":"free"},{"bike_id":"a6dbd9b4-5d0e-46f7-b914-b9b8e204749f","system_id":"levelo_inurba_marseille","lat":43.273613,"lon":5.362705,"is_reserved":false,"is_disabled":false,"rental_uris":{"android":"levelo://app?vid=a6dbd9b4-5d0e-46f7-b914-b9b8e204749f","ios":"levelo://app?vid=a6dbd9b4-5d0e-46f7-b914-b9b8e204749f"},"vehicle_type_id":"4","last_reported":1687608773,"current_range_meters":22000,"station_id":"ce4bhbh2rcd13ifvqeo0","pricing_plan_id":"free"},{"bike_id":"0913d858-3663-4497-b2de-35378c985892","system_id":"levelo_inurba_marseille","lat":43.273613,"lon":5.362705,"is_reserved":false,"is_disabled":false,"rental_uris":{"android":"levelo://app?vid=0913d858-3663-4497-b2de-35378c985892","ios":"levelo://app?vid=0913d858-3663-4497-b2de-35378c985892"},"vehicle_type_id":"4","last_reported":1687608773,"current_range_meters":24800,"station_id":"ce4bhbh2rcd13ifvqeo0","pricing_plan_id":"free"},{"bike_id":"71d94b29-418c-41e4-9540-8a47e0b675c9","system_id":"levelo_inurba_marseille","lat":43.273613,"lon":5.362705,"is_reserved":false,"is_disabled":false,"rental_uris":{"android":"levelo://app?vid=71d94b29-418c-41e4-9540-8a47e0b675c9","ios":"levelo://app?vid=71d94b29-418c-41e4-9540-8a47e0b675c9"},"vehicle_type_id":"4","last_reported":1687608773,"current_range_meters":24000,"station_id":"ce4bhbh2rcd13ifvqeo0","pricing_plan_id":"free"},{"bike_id":"7a5f2a05-33ab-491d-be5d-108bcaa7cd60","system_id":"levelo_inurba_marseille","lat":43.273613,"lon":5.362705,"is_reserved":false,"is_disabled":false,"rental_uris":{"android":"levelo://app?vid=7a5f2a05-33ab-491d-be5d-108bcaa7cd60","ios":"levelo://app?vid=7a5f2a05-33ab-491d-be5d-108bcaa7cd60"},"vehicle_type_id":"4","last_reported":1687608773,"current_range_meters":7200,"station_id":"ce4bhbh2rcd13ifvqeo0","pricing_plan_id":"free"},{"bike_id":"137eef42-c031-46bf-ab28-9bf867b0dbca","system_id":"levelo_inurba_marseille","lat":43.27376,"lon":5.3625,"is_reserved":false,"is_disabled":false,"rental_uris":{"android":"levelo://app?vid=137eef42-c031-46bf-ab28-9bf867b0dbca","ios":"levelo://app?vid=137eef42-c031-46bf-ab28-9bf867b0dbca"},"vehicle_type_id":"4","last_reported":1687608773,"current_range_meters":15200,"station_id":"ce4bhbh2rcd13ifvqeo0","pricing_plan_id":"free"},{"bike_id":"94f1293d-56d3-4adc-98e9-2c48a3b93f02","system_id":"levelo_inurba_marseille","lat":43.273613,"lon":5.362705,"is_reserved":false,"is_disabled":false,"rental_uris":{"android":"levelo://app?vid=94f1293d-56d3-4adc-98e9-2c48a3b93f02","ios":"levelo://app?vid=94f1293d-56d3-4adc-98e9-2c48a3b93f02"},"vehicle_type_id":"4","last_reported":1687608773,"current_range_meters":6400,"station_id":"ce4bhbh2rcd13ifvqeo0","pricing_plan_id":"free"},{"bike_id":"d60832f5-4d74-4884-a682-017c832e1676","system_id":"levelo_inurba_marseille","lat":43.33612,"lon":5.410321,"is_reserved":false,"is_disabled":false,"rental_uris":{"android":"levelo://app?vid=d60832f5-4d74-4884-a682-017c832e1676","ios":"levelo://app?vid=d60832f5-4d74-4884-a682-017c832e1676"},"vehicle_type_id":"4","last_reported":1687608773,"current_range_meters":31600,"station_id":"ce4bhqh2rcd13ifvqhmg","pricing_plan_id":"free"},{"bike_id":"13445ec0-d9e3-4f5d-b9b1-4d19c78ecae9","system_id":"levelo_inurba_marseille","lat":43.273613,"lon":5.362705,"is_reserved":false,"is_disabled":false,"rental_uris":{"android":"levelo://app?vid=13445ec0-d9e3-4f5d-b9b1-4d19c78ecae9","ios":"levelo://app?vid=13445ec0-d9e3-4f5d-b9b1-4d19c78ecae9"},"vehicle_type_id":"4","last_reported":1687608773,"current_range_meters":6800,"station_id":"ce4bhbh2rcd13ifvqeo0","pricing_plan_id":"free"},{"bike_id":"bb6acc4e-e5c2-431a-bb95-b7290824b0fc","system_id":"levelo_inurba_marseille","lat":43.273609,"lon":5.362708,"is_reserved":false,"is_disabled":false,"rental_uris":{"android":"levelo://app?vid=bb6acc4e-e5c2-431a-bb95-b7290824b0fc","ios":"levelo://app?vid=bb6acc4e-e5c2-431a-bb95-b7290824b0fc"},"vehicle_type_id":"4","last_reported":1687608773,"current_range_meters":10800,"station_id":"ce4bhbh2rcd13ifvqeo0","pricing_plan_id":"free"},{"bike_id":"bf6367b2-484b-4a74-afce-302e8e859df3","system_id":"levelo_inurba_marseille","lat":43.273613,"lon":5.362705,"is_reserved":false,"is_disabled":false,"rental_uris":{"android":"levelo://app?vid=bf6367b2-484b-4a74-afce-302e8e859df3","ios":"levelo://app?vid=bf6367b2-484b-4a74-afce-302e8e859df3"},"vehicle_type_id":"4","last_reported":1687608773,"current_range_meters":31600,"station_id":"ce4bhbh2rcd13ifvqeo0","pricing_plan_id":"free"},{"bike_id":"11646277-3de0-41e6-93b5-099e8d9f1696","system_id":"levelo_inurba_marseille","lat":43.273609,"lon":5.362708,"is_reserved":false,"is_disabled":false,"rental_uris":{"android":"levelo://app?vid=11646277-3de0-41e6-93b5-099e8d9f1696","ios":"levelo://app?vid=11646277-3de0-41e6-93b5-099e8d9f1696"},"vehicle_type_id":"4","last_reported":1687608773,"current_range_meters":32000,"station_id":"ce4bhbh2rcd13ifvqeo0","pricing_plan_id":"free"},{"bike_id":"3ba219a1-bfce-4511-aabc-9eec4d3607c8","system_id":"levelo_inurba_marseille","lat":43.336134,"lon":5.410341,"is_reserved":false,"is_disabled":false,"rental_uris":{"android":"levelo://app?vid=3ba219a1-bfce-4511-aabc-9eec4d3607c8","ios":"levelo://app?vid=3ba219a1-bfce-4511-aabc-9eec4d3607c8"},"vehicle_type_id":"4","last_reported":1687608773,"current_range_meters":31200,"station_id":"ce4bhqh2rcd13ifvqhmg","pricing_plan_id":"free"},{"bike_id":"f5d48d7a-49bb-4e30-aaf1-3f296f18d938","system_id":"levelo_inurba_marseille","lat":43.273609,"lon":5.362708,"is_reserved":false,"is_disabled":false,"rental_uris":{"android":"levelo://app?vid=f5d48d7a-49bb-4e30-aaf1-3f296f18d938","ios":"levelo://app?vid=f5d48d7a-49bb-4e30-aaf1-3f296f18d938"},"vehicle_type_id":"4","last_reported":1687608773,"current_range_meters":24400,"station_id":"ce4bhbh2rcd13ifvqeo0","pricing_plan_id":"free"},{"bike_id":"1e080dad-9563-450f-9182-6068e837aad4","system_id":"levelo_inurba_marseille","lat":43.273613,"lon":5.362705,"is_reserved":false,"is_disabled":false,"rental_uris":{"android":"levelo://app?vid=1e080dad-9563-450f-9182-6068e837aad4","ios":"levelo://app?vid=1e080dad-9563-450f-9182-6068e837aad4"},"vehicle_type_id":"4","last_reported":1687608773,"current_range_meters":11200,"station_id":"ce4bhbh2rcd13ifvqeo0","pricing_plan_id":"free"},{"bike_id":"bd9bcbdd-8d23-4f19-8514-4f63044abb45","system_id":"levelo_inurba_marseille","lat":43.273609,"lon":5.362708,"is_reserved":false,"is_disabled":false,"rental_uris":{"android":"levelo://app?vid=bd9bcbdd-8d23-4f19-8514-4f63044abb45","ios":"levelo://app?vid=bd9bcbdd-8d23-4f19-8514-4f63044abb45"},"vehicle_type_id":"4","last_reported":1687608773,"current_range_meters":28800,"station_id":"ce4bhbh2rcd13ifvqeo0","pricing_plan_id":"free"},{"bike_id":"624eac60-cf0b-48eb-a7e9-8f6235cc6d83","system_id":"levelo_inurba_marseille","lat":43.273609,"lon":5.362708,"is_reserved":false,"is_disabled":false,"rental_uris":{"android":"levelo://app?vid=624eac60-cf0b-48eb-a7e9-8f6235cc6d83","ios":"levelo://app?vid=624eac60-cf0b-48eb-a7e9-8f6235cc6d83"},"vehicle_type_id":"4","last_reported":1687608773,"current_range_meters":31600,"station_id":"ce4bhbh2rcd13ifvqeo0","pricing_plan_id":"free"},{"bike_id":"37076e43-3f08-4d29-89d7-62bc0cd52067","system_id":"levelo_inurba_marseille","lat":43.2737,"lon":5.36255,"is_reserved":false,"is_disabled":false,"rental_uris":{"android":"levelo://app?vid=37076e43-3f08-4d29-89d7-62bc0cd52067","ios":"levelo://app?vid=37076e43-3f08-4d29-89d7-62bc0cd52067"},"vehicle_type_id":"4","last_reported":1687608773,"current_range_meters":17600,"station_id":"ce4bhbh2rcd13ifvqeo0","pricing_plan_id":"free"},{"bike_id":"abeea9fa-728c-4549-950f-7e92e5701e70","system_id":"levelo_inurba_marseille","lat":43.273609,"lon":5.362708,"is_reserved":false,"is_disabled":false,"rental_uris":{"android":"levelo://app?vid=abeea9fa-728c-4549-950f-7e92e5701e70","ios":"levelo://app?vid=abeea9fa-728c-4549-950f-7e92e5701e70"},"vehicle_type_id":"4","last_reported":1687608773,"current_range_meters":30800,"station_id":"ce4bhbh2rcd13ifvqeo0","pricing_plan_id":"free"},{"bike_id":"92cd2f89-9964-4d0c-8664-94290848e6ba","system_id":"levelo_inurba_marseille","lat":43.273609,"lon":5.362708,"is_reserved":false,"is_disabled":false,"rental_uris":{"android":"levelo://app?vid=92cd2f89-9964-4d0c-8664-94290848e6ba","ios":"levelo://app?vid=92cd2f89-9964-4d0c-8664-94290848e6ba"},"vehicle_type_id":"4","last_reported":1687608773,"current_range_meters":15600,"station_id":"ce4bhbh2rcd13ifvqeo0","pricing_plan_id":"free"},{"bike_id":"f78fbdcb-08ef-4dbc-b210-895645c96633","system_id":"levelo_inurba_marseille","lat":43.273613,"lon":5.362705,"is_reserved":false,"is_disabled":false,"rental_uris":{"android":"levelo://app?vid=f78fbdcb-08ef-4dbc-b210-895645c96633","ios":"levelo://app?vid=f78fbdcb-08ef-4dbc-b210-895645c96633"},"vehicle_type_id":"4","last_reported":1687608773,"current_range_meters":32000,"station_id":"ce4bhbh2rcd13ifvqeo0","pricing_plan_id":"free"},{"bike_id":"38118899-2064-4d4b-94e9-26d9e04d01da","system_id":"levelo_inurba_marseille","lat":43.273609,"lon":5.362708,"is_reserved":false,"is_disabled":false,"rental_uris":{"android":"levelo://app?vid=38118899-2064-4d4b-94e9-26d9e04d01da","ios":"levelo://app?vid=38118899-2064-4d4b-94e9-26d9e04d01da"},"vehicle_type_id":"4","last_reported":1687608773,"current_range_meters":23600,"station_id":"ce4bhbh2rcd13ifvqeo0","pricing_plan_id":"free"},{"bike_id":"82cc0936-e1fd-4d7c-ab41-84619cd61427","system_id":"levelo_inurba_marseille","lat":43.33611,"lon":5.41017,"is_reserved":false,"is_disabled":false,"rental_uris":{"android":"levelo://app?vid=82cc0936-e1fd-4d7c-ab41-84619cd61427","ios":"levelo://app?vid=82cc0936-e1fd-4d7c-ab41-84619cd61427"},"vehicle_type_id":"4","last_reported":1687608773,"current_range_meters":24800,"station_id":"ce4bhqh2rcd13ifvqhmg","pricing_plan_id":"free"},{"bike_id":"18f3f0db-9283-405d-965c-bcbb0793f933","system_id":"levelo_inurba_marseille","lat":43.273609,"lon":5.362708,"is_reserved":false,"is_disabled":false,"rental_uris":{"android":"levelo://app?vid=18f3f0db-9283-405d-965c-bcbb0793f933","ios":"levelo://app?vid=18f3f0db-9283-405d-965c-bcbb0793f933"},"vehicle_type_id":"4","last_reported":1687608773,"current_range_meters":26800,"station_id":"ce4bhbh2rcd13ifvqeo0","pricing_plan_id":"free"},{"bike_id":"192097e7-1656-4b5d-9373-dbc7fa308eed","system_id":"levelo_inurba_marseille","lat":43.33612,"lon":5.410321,"is_reserved":false,"is_disabled":false,"rental_uris":{"android":"levelo://app?vid=192097e7-1656-4b5d-9373-dbc7fa308eed","ios":"levelo://app?vid=192097e7-1656-4b5d-9373-dbc7fa308eed"},"vehicle_type_id":"4","last_reported":1687608773,"current_range_meters":28000,"station_id":"ce4bhqh2rcd13ifvqhmg","pricing_plan_id":"free"},{"bike_id":"17ae740a-0cf7-4672-8e6a-2681eb5e87d4","system_id":"levelo_inurba_marseille","lat":43.273648,"lon":5.362502,"is_reserved":false,"is_disabled":false,"rental_uris":{"android":"levelo://app?vid=17ae740a-0cf7-4672-8e6a-2681eb5e87d4","ios":"levelo://app?vid=17ae740a-0cf7-4672-8e6a-2681eb5e87d4"},"vehicle_type_id":"4","last_reported":1687608773,"current_range_meters":25600,"station_id":"ce4bhbh2rcd13ifvqeo0","pricing_plan_id":"free"},{"bike_id":"caad2176-2282-4855-8c38-34443d645d84","system_id":"levelo_inurba_marseille","lat":43.33612,"lon":5.410321,"is_reserved":false,"is_disabled":false,"rental_uris":{"android":"levelo://app?vid=caad2176-2282-4855-8c38-34443d645d84","ios":"levelo://app?vid=caad2176-2282-4855-8c38-34443d645d84"},"vehicle_type_id":"4","last_reported":1687608773,"current_range_meters":31600,"station_id":"ce4bhqh2rcd13ifvqhmg","pricing_plan_id":"free"},{"bike_id":"62a68779-48fa-4337-b50d-2a8aee14a2a4","system_id":"levelo_inurba_marseille","lat":43.27555,"lon":5.38422,"is_reserved":false,"is_disabled":false,"rental_uris":{"android":"levelo://app?vid=62a68779-48fa-4337-b50d-2a8aee14a2a4","ios":"levelo://app?vid=62a68779-48fa-4337-b50d-2a8aee14a2a4"},"vehicle_type_id":"4","last_reported":1687608773,"current_range_meters":0,"station_id":"ce4bhh92rcd13ifvqfi0","pricing_plan_id":"free"},{"bike_id":"da569050-2492-4700-8b3c-289f50cc44e7","system_id":"levelo_inurba_marseille","lat":43.33609,"lon":5.41035,"is_reserved":false,"is_disabled":false,"rental_uris":{"android":"levelo://app?vid=da569050-2492-4700-8b3c-289f50cc44e7","ios":"levelo://app?vid=da569050-2492-4700-8b3c-289f50cc44e7"},"vehicle_type_id":"4","last_reported":1687608773,"current_range_meters":16400,"station_id":"ce4bhqh2rcd13ifvqhmg","pricing_plan_id":"free"},{"bike_id":"75396852-52a9-4ee7-be03-c9ac43c5d4bb","system_id":"levelo_inurba_marseille","lat":43.336134,"lon":5.410341,"is_reserved":false,"is_disabled":false,"rental_uris":{"android":"levelo://app?vid=75396852-52a9-4ee7-be03-c9ac43c5d4bb","ios":"levelo://app?vid=75396852-52a9-4ee7-be03-c9ac43c5d4bb"},"vehicle_type_id":"4","last_reported":1687608773,"current_range_meters":31200,"station_id":"ce4bhqh2rcd13ifvqhmg","pricing_plan_id":"free"},{"bike_id":"421b13e9-e21e-487d-9b2e-479d298401ba","system_id":"levelo_inurba_marseille","lat":43.33613,"lon":5.41036,"is_reserved":false,"is_disabled":false,"rental_uris":{"android":"levelo://app?vid=421b13e9-e21e-487d-9b2e-479d298401ba","ios":"levelo://app?vid=421b13e9-e21e-487d-9b2e-479d298401ba"},"vehicle_type_id":"4","last_reported":1687608773,"current_range_meters":26000,"station_id":"ce4bhqh2rcd13ifvqhmg","pricing_plan_id":"free"},{"bike_id":"9f9e755d-d457-4811-bb2c-de81390e288b","system_id":"levelo_inurba_marseille","lat":43.275625,"lon":5.384392,"is_reserved":false,"is_disabled":false,"rental_uris":{"android":"levelo://app?vid=9f9e755d-d457-4811-bb2c-de81390e288b","ios":"levelo://app?vid=9f9e755d-d457-4811-bb2c-de81390e288b"},"vehicle_type_id":"4","last_reported":1687608773,"current_range_meters":9200,"station_id":"ce4bhh92rcd13ifvqfi0","pricing_plan_id":"free"},{"bike_id":"dc209c3d-9ee0-4367-b99d-37042d1a96fe","system_id":"levelo_inurba_marseille","lat":43.276769,"lon":5.388787,"is_reserved":false,"is_disabled":false,"rental_uris":{"android":"levelo://app?vid=dc209c3d-9ee0-4367-b99d-37042d1a96fe","ios":"levelo://app?vid=dc209c3d-9ee0-4367-b99d-37042d1a96fe"},"vehicle_type_id":"4","last_reported":1687608773,"current_range_meters":28400,"station_id":"ce4bhi12rcd13ifvqfo0","pricing_plan_id":"free"},{"bike_id":"c6b3935a-6e04-4d83-a55b-fcc228882994","system_id":"levelo_inurba_marseille","lat":43.30584,"lon":5.42238,"is_reserved":false,"is_disabled":false,"rental_uris":{"android":"levelo://app?vid=c6b3935a-6e04-4d83-a55b-fcc228882994","ios":"levelo://app?vid=c6b3935a-6e04-4d83-a55b-fcc228882994"},"vehicle_type_id":"4","last_reported":1687608773,"current_range_meters":0,"station_id":"","pricing_plan_id":"free"},{"bike_id":"2b5df510-885b-4bb1-b1df-4ab440107464","system_id":"levelo_inurba_marseille","lat":43.317121,"lon":5.423936,"is_reserved":false,"is_disabled":false,"rental_uris":{"android":"levelo://app?vid=2b5df510-885b-4bb1-b1df-4ab440107464","ios":"levelo://app?vid=2b5df510-885b-4bb1-b1df-4ab440107464"},"vehicle_type_id":"4","last_reported":1687608773,"current_range_meters":30000,"station_id":"ce4bhp92rcd13ifvqhbg","pricing_plan_id":"free"},{"bike_id":"ef60ee1b-9259-4ac5-a17b-d8159f81c5d0","system_id":"levelo_inurba_marseille","lat":43.317121,"lon":5.423936,"is_reserved":false,"is_disabled":false,"rental_uris":{"android":"levelo://app?vid=ef60ee1b-9259-4ac5-a17b-d8159f81c5d0","ios":"levelo://app?vid=ef60ee1b-9259-4ac5-a17b-d8159f81c5d0"},"vehicle_type_id":"4","last_reported":1687608773,"current_range_meters":31200,"station_id":"ce4bhp92rcd13ifvqhbg","pricing_plan_id":"free"},{"bike_id":"bd8d69af-645a-4293-af90-572af6276b50","system_id":"levelo_inurba_marseille","lat":43.317121,"lon":5.423936,"is_reserved":false,"is_disabled":false,"rental_uris":{"android":"levelo://app?vid=bd8d69af-645a-4293-af90-572af6276b50","ios":"levelo://app?vid=bd8d69af-645a-4293-af90-572af6276b50"},"vehicle_type_id":"4","last_reported":1687608773,"current_range_meters":31200,"station_id":"ce4bhp92rcd13ifvqhbg","pricing_plan_id":"free"},{"bike_id":"48fc22d5-0c9a-4999-bc9e-78c030f85154","system_id":"levelo_inurba_marseille","lat":43.317121,"lon":5.423936,"is_reserved":false,"is_disabled":false,"rental_uris":{"android":"levelo://app?vid=48fc22d5-0c9a-4999-bc9e-78c030f85154","ios":"levelo://app?vid=48fc22d5-0c9a-4999-bc9e-78c030f85154"},"vehicle_type_id":"4","last_reported":1687608773,"current_range_meters":16400,"station_id":"ce4bhp92rcd13ifvqhbg","pricing_plan_id":"free"},{"bike_id":"dd35c8c4-372d-43a8-9ab0-dc800a767a7e","system_id":"levelo_inurba_marseille","lat":43.310785,"lon":5.424305,"is_reserved":false,"is_disabled":false,"rental_uris":{"android":"levelo://app?vid=dd35c8c4-372d-43a8-9ab0-dc800a767a7e","ios":"levelo://app?vid=dd35c8c4-372d-43a8-9ab0-dc800a767a7e"},"vehicle_type_id":"4","last_reported":1687608773,"current_range_meters":30000,"station_id":"ce4bhp92rcd13ifvqhag","pricing_plan_id":"free"},{"bike_id":"d0061ac5-9742-4a0c-aaf3-7f03ef588c42","system_id":"levelo_inurba_marseille","lat":43.27591,"lon":5.39487,"is_reserved":false,"is_disabled":false,"rental_uris":{"android":"levelo://app?vid=d0061ac5-9742-4a0c-aaf3-7f03ef588c42","ios":"levelo://app?vid=d0061ac5-9742-4a0c-aaf3-7f03ef588c42"},"vehicle_type_id":"4","last_reported":1687608773,"current_range_meters":16000,"station_id":"","pricing_plan_id":"free"},{"bike_id":"01208fbe-9431-4ed6-ac1f-e90329c35bdb","system_id":"levelo_inurba_marseille","lat":43.26955,"lon":5.36633,"is_reserved":false,"is_disabled":false,"rental_uris":{"android":"levelo://app?vid=01208fbe-9431-4ed6-ac1f-e90329c35bdb","ios":"levelo://app?vid=01208fbe-9431-4ed6-ac1f-e90329c35bdb"},"vehicle_type_id":"4","last_reported":1687608773,"current_range_meters":4000,"station_id":"","pricing_plan_id":"free"},{"bike_id":"e416fd72-8289-4f16-9193-92b10d228523","system_id":"levelo_inurba_marseille","lat":43.27418,"lon":5.39409,"is_reserved":false,"is_disabled":false,"rental_uris":{"android":"levelo://app?vid=e416fd72-8289-4f16-9193-92b10d228523","ios":"levelo://app?vid=e416fd72-8289-4f16-9193-92b10d228523"},"vehicle_type_id":"4","last_reported":1687608773,"current_range_meters":0,"station_id":"","pricing_plan_id":"free"},{"bike_id":"3da22b33-3700-4ebe-b0a2-31d55fd6f719","system_id":"levelo_inurba_marseille","lat":43.304088,"lon":5.425388,"is_reserved":false,"is_disabled":false,"rental_uris":{"android":"levelo://app?vid=3da22b33-3700-4ebe-b0a2-31d55fd6f719","ios":"levelo://app?vid=3da22b33-3700-4ebe-b0a2-31d55fd6f719"},"vehicle_type_id":"4","last_reported":1687608773,"current_range_meters":28400,"station_id":"ce4bhoh2rcd13ifvqh6g","pricing_plan_id":"free"},{"bike_id":"67e6acf1-44d5-4cc6-9f61-8a9e302842a4","system_id":"levelo_inurba_marseille","lat":43.295511,"lon":5.422926,"is_reserved":false,"is_disabled":false,"rental_uris":{"android":"levelo://app?vid=67e6acf1-44d5-4cc6-9f61-8a9e302842a4","ios":"levelo://app?vid=67e6acf1-44d5-4cc6-9f61-8a9e302842a4"},"vehicle_type_id":"4","last_reported":1687608773,"current_range_meters":31200,"station_id":"ce4bhph2rcd13ifvqhdg","pricing_plan_id":"free"},{"bike_id":"f2172cdf-46b2-407f-b934-da33580c2309","system_id":"levelo_inurba_marseille","lat":43.295511,"lon":5.422926,"is_reserved":false,"is_disabled":false,"rental_uris":{"android":"levelo://app?vid=f2172cdf-46b2-407f-b934-da33580c2309","ios":"levelo://app?vid=f2172cdf-46b2-407f-b934-da33580c2309"},"vehicle_type_id":"4","last_reported":1687608773,"current_range_meters":16000,"station_id":"ce4bhph2rcd13ifvqhdg","pricing_plan_id":"free"},{"bike_id":"6ba32108-4f80-4e38-bb06-43c0ebb41505","system_id":"levelo_inurba_marseille","lat":43.295511,"lon":5.422926,"is_reserved":false,"is_disabled":false,"rental_uris":{"android":"levelo://app?vid=6ba32108-4f80-4e38-bb06-43c0ebb41505","ios":"levelo://app?vid=6ba32108-4f80-4e38-bb06-43c0ebb41505"},"vehicle_type_id":"4","last_reported":1687608773,"current_range_meters":31600,"station_id":"ce4bhph2rcd13ifvqhdg","pricing_plan_id":"free"},{"bike_id":"71f797d3-2848-4290-bf91-43bef2411e7d","system_id":"levelo_inurba_marseille","lat":43.29554,"lon":5.42292,"is_reserved":false,"is_disabled":false,"rental_uris":{"android":"levelo://app?vid=71f797d3-2848-4290-bf91-43bef2411e7d","ios":"levelo://app?vid=71f797d3-2848-4290-bf91-43bef2411e7d"},"vehicle_type_id":"4","last_reported":1687608773,"current_range_meters":30400,"station_id":"ce4bhph2rcd13ifvqhdg","pricing_plan_id":"free"},{"bike_id":"4fa21102-9c5c-4785-8da0-3d7f957b0c31","system_id":"levelo_inurba_marseille","lat":43.272116,"lon":5.391747,"is_reserved":false,"is_disabled":false,"rental_uris":{"android":"levelo://app?vid=4fa21102-9c5c-4785-8da0-3d7f957b0c31","ios":"levelo://app?vid=4fa21102-9c5c-4785-8da0-3d7f957b0c31"},"vehicle_type_id":"4","last_reported":1687608773,"current_range_meters":30800,"station_id":"ce4bhhp2rcd13ifvqfm0","pricing_plan_id":"free"},{"bike_id":"f296d274-299c-4660-bf81-4c5369eff000","system_id":"levelo_inurba_marseille","lat":43.27203,"lon":5.39191,"is_reserved":false,"is_disabled":false,"rental_uris":{"android":"levelo://app?vid=f296d274-299c-4660-bf81-4c5369eff000","ios":"levelo://app?vid=f296d274-299c-4660-bf81-4c5369eff000"},"vehicle_type_id":"4","last_reported":1687608773,"current_range_meters":20000,"station_id":"ce4bhhp2rcd13ifvqfm0","pricing_plan_id":"free"},{"bike_id":"0031c4ac-6b46-4677-93dc-670071818b71","system_id":"levelo_inurba_marseille","lat":43.27812,"lon":5.40716,"is_reserved":false,"is_disabled":false,"rental_uris":{"android":"levelo://app?vid=0031c4ac-6b46-4677-93dc-670071818b71","ios":"levelo://app?vid=0031c4ac-6b46-4677-93dc-670071818b71"},"vehicle_type_id":"4","last_reported":1687608773,"current_range_meters":0,"station_id":"ce4bhnh2rcd13ifvqgtg","pricing_plan_id":"free"},{"bike_id":"5b6790aa-077c-4c8a-90cb-eb168232385b","system_id":"levelo_inurba_marseille","lat":43.27077,"lon":5.39211,"is_reserved":false,"is_disabled":false,"rental_uris":{"android":"levelo://app?vid=5b6790aa-077c-4c8a-90cb-eb168232385b","ios":"levelo://app?vid=5b6790aa-077c-4c8a-90cb-eb168232385b"},"vehicle_type_id":"4","last_reported":1687608773,"current_range_meters":5200,"station_id":"","pricing_plan_id":"free"},