{"last_updated":1725804483,"ttl":30,"version":"2.2","data":{"bikes":[{"bike_id":"02df3d47-2f31-4b23-9d90-3b1f37faa2f1","system_id":"levelo_inurba_marseille","lat":43.31341,"lon":5.367098,"is_reserved":false,"is_disabled":false,"rental_uris":{"android":"levelo://app?vid=02df3d47-2f31-4b23-9d90-3b1f37faa2f1","ios":"levelo://app?vid=02df3d47-2f31-4b23-9d90-3b1f37faa2f1"},"vehicle_type_id":"4","last_reported":1725804483,"current_range_meters":31200,"station_id":"ce4bgr92rcd13ifvqc6g","pricing_plan_id":"cebpf4jnsgd1na2vs0mg"},{"bike_id":"d03ab564-60ae-4b2f-a53c-4bc5c678e5b2","system_id":"levelo_inurba_marseille","lat":43.31235,"lon":5.36839,"is_reserved":false,"is_disabled":false,"rental_uris":{"android":"levelo://app?vid=d03ab564-60ae-4b2f-a53c-4bc5c678e5b2","ios":"levelo://app?vid=d03ab564-60ae-4b2f-a53c-4bc5c678e5b2"},"vehicle_type_id":"4","last_reported":1725804483,"current_range_meters":19200,"station_id":"ce4bgl92rcd13ifvqbq0","pricing_plan_id":"cebpf4jnsgd1na2vs0mg"},{"bike_id":"b9f2fa4a-1107-465c-8179-59364cf46368","system_id":"levelo_inurba_marseille","lat":43.31225,"lon":5.36841,"is_reserved":false,"is_disabled":false,"rental_uris":{"android":"levelo://app?vid=b9f2fa4a-1107-465c-8179-59364cf46368","ios":"levelo://app?vid=b9f2fa4a-1107-465c-8179-59364cf46368"},"vehicle_type_id":"4","last_reported":1725804483,"current_range_meters":18800,"station_id":"ce4bgl92rcd13ifvqbq0","pricing_plan_id":"cebpf4jnsgd1na2vs0mg"},{"bike_id":"4fe00033-629c-4091-8036-8fd8fc395dc2","system_id":"levelo_inurba_marseille","lat":43.31229,"lon":5.36852,"is_reserved":false,"is_disabled":false,"rental_uris":{"android":"levelo://app?vid=4fe00033-629c-4091-8036-8fd8fc395dc2","ios":"levelo://app?vid=4fe00033-629c-4091-8036-8fd8fc395dc2"},"vehicle_type_id":"4","last_reported":1725804483,"current_range_meters":12800,"station_id":"ce4bgl92rcd13ifvqbq0","pricing_plan_id":"cebpf4jnsgd1na2vs0mg"},{"bike_id":"e70e23da-ab20-463a-8203-8791fb671e66","system_id":"levelo_inurba_marseille","lat":43.312239,"lon":5.368562,"is_reserved":false,"is_disabled":false,"rental_uris":{"android":"levelo://app?vid=e70e23da-ab20-463a-8203-8791fb671e66","ios":"levelo://app?vid=e70e23da-ab20-463a-8203-8791fb671e66"},"vehicle_type_id":"4","last_reported":1725804483,"current_range_meters":30400,"station_id":"ce4bgl92rcd13ifvqbq0","pricing_plan_id":"cebpf4jnsgd1na2vs0mg"},{"bike_id":"38eb6c33-36d5-41a7-a870-7afcbe5bc102","system_id":"levelo_inurba_marseille","lat":43.312239,"lon":5.368562,"is_reserved":false,"is_disabled":false,"rental_uris":{"android":"levelo://app?vid=38eb6c33-36d5-41a7-a870-7afcbe5bc102","ios":"levelo://app?vid=38eb6c33-36d5-41a7-a870-7afcbe5bc102"},"vehicle_type_id":"4","last_reported":1725804483,"current_range_meters":31200,"station_id":"ce4bgl92rcd13ifvqbq0","pricing_plan_id":"cebpf4jnsgd1na2vs0mg"},{"bike_id":"e7842e51-a20e-4104-aa1d-6931c30ea80f","system_id":"levelo_inurba_marseille","lat":43.312239,"lon":5.368562,"is_reserved":false,"is_disabled":false,"rental_uris":{"android":"levelo://app?vid=e7842e51-a20e-4104-aa1d-6931c30ea80f","ios":"levelo://app?vid=e7842e51-a20e-4104-aa1d-6931c30ea80f"},"vehicle_type_id":"4","last_reported":1725804483,"current_range_meters":26000,"station_id":"ce4bgl92rcd13ifvqbq0","pricing_plan_id":"cebpf4jnsgd1na2vs0mg"},{"bike_id":"44eea740-1b0e-4c30-907f-8a55885923f6","system_id":"levelo_inurba_marseille","lat":43.309076,"lon":5.368465,"is_reserved":false,"is_disabled":false,"rental_uris":{"android":"levelo://app?vid=44eea740-1b0e-4c30-907f-8a55885923f6","ios":"levelo://app?vid=44eea740-1b0e-4c30-907f-8a55885923f6"},"vehicle_type_id":"4","last_reported":1725804483,"current_range_meters":19600,"station_id":"ce4bgn92rcd13ifvqbvg","pricing_plan_id":"cebpf4jnsgd1na2vs0mg"},{"bike_id":"847d429e-0135-4910-85dd-d5d61b8031ba","system_id":"levelo_inurba_marseille","lat":43.314811,"lon":5.373103,"is_reserved":false,"is_disabled":false,"rental_uris":{"android":"levelo://app?vid=847d429e-0135-4910-85dd-d5d61b8031ba","ios":"levelo://app?vid=847d429e-0135-4910-85dd-d5d61b8031ba"},"vehicle_type_id":"4","last_reported":1725804483,"current_range_meters":16000,"station_id":"ce4bgt12rcd13ifvqcd0","pricing_plan_id":"cebpf4jnsgd1na2vs0mg"},{"bike_id":"59bb2f4b-00cd-43c8-b805-cc962039bde9","system_id":"levelo_inurba_marseille","lat":43.314811,"lon":5.373104,"is_reserved":false,"is_disabled":false,"rental_uris":{"android":"levelo://app?vid=59bb2f4b-00cd-43c8-b805-cc962039bde9","ios":"levelo://app?vid=59bb2f4b-00cd-43c8-b805-cc962039bde9"},"vehicle_type_id":"4","last_reported":1725804483,"current_range_meters":22800,"station_id":"ce4bgt12rcd13ifvqcd0","pricing_plan_id":"cebpf4jnsgd1na2vs0mg"},{"bike_id":"64f16128-de2f-47c6-a718-44d9fa851e17","system_id":"levelo_inurba_marseille","lat":43.314811,"lon":5.373103,"is_reserved":false,"is_disabled":false,"rental_uris":{"android":"levelo://app?vid=64f16128-de2f-47c6-a718-44d9fa851e17","ios":"levelo://app?vid=64f16128-de2f-47c6-a718-44d9fa851e17"},"vehicle_type_id":"4","last_reported":1725804483,"current_range_meters":23600,"station_id":"ce4bgt12rcd13ifvqcd0","pricing_plan_id":"cebpf4jnsgd1na2vs0mg"},{"bike_id":"0e8c14c9-530c-40dd-b33f-3c7f8d210104","system_id":"levelo_inurba_marseille","lat":43.31507,"lon":5.37297,"is_reserved":false,"is_disabled":false,"rental_uris":{"android":"levelo://app?vid=0e8c14c9-530c-40dd-b33f-3c7f8d210104","ios":"levelo://app?vid=0e8c14c9-530c-40dd-b33f-3c7f8d210104"},"vehicle_type_id":"4","last_reported":1725804483,"current_range_meters":21600,"station_id":"ce4bgt12rcd13ifvqcd0","pricing_plan_id":"cebpf4jnsgd1na2vs0mg"},{"bike_id":"aee3281a-52b3-4e73-afe0-ee4a2a7f8fa5","system_id":"levelo_inurba_marseille","lat":43.314811,"lon":5.373103,"is_reserved":false,"is_disabled":false,"rental_uris":{"android":"levelo://app?vid=aee3281a-52b3-4e73-afe0-ee4a2a7f8fa5","ios":"levelo://app?vid=aee3281a-52b3-4e73-afe0-ee4a2a7f8fa5"},"vehicle_type_id":"4","last_reported":1725804483,"current_range_meters":31200,"station_id":"ce4bgt12rcd13ifvqcd0","pricing_plan_id":"cebpf4jnsgd1na2vs0mg"},{"bike_id":"58370a8f-f551-4027-b578-808e0a37805d","system_id":"levelo_inurba_marseille","lat":43.314811,"lon":5.373104,"is_reserved":false,"is_disabled":false,"rental_uris":{"android":"levelo://app?vid=58370a8f-f551-4027-b578-808e0a37805d","ios":"levelo://app?vid=58370a8f-f551-4027-b578-808e0a37805d"},"vehicle_type_id":"4","last_reported":1725804483,"current_range_meters":31200,"station_id":"ce4bgt12rcd13ifvqcd0","pricing_plan_id":"cebpf4jnsgd1na2vs0mg"},{"bike_id":"25d632bd-5ddb-406a-84c6-d9367aa52f91","system_id":"levelo_inurba_marseille","lat":43.314937,"lon":5.373138,"is_reserved":false,"is_disabled":false,"rental_uris":{"android":"levelo://app?vid=25d632bd-5ddb-406a-84c6-d9367aa52f91","ios":"levelo://app?vid=25d632bd-5ddb-406a-84c6-d9367aa52f91"},"vehicle_type_id":"4","last_reported":1725804483,"current_range_meters":6800,"station_id":"","pricing_plan_id":"cebpf4jnsgd1na2vs0mg"},{"bike_id":"76930846-dbb6-408f-8b42-237e3d133289","system_id":"levelo_inurba_marseille","lat":43.30882,"lon":5.371933,"is_reserved":false,"is_disabled":false,"rental_uris":{"android":"levelo://app?vid=76930846-dbb6-408f-8b42-237e3d133289","ios":"levelo://app?vid=76930846-dbb6-408f-8b42-237e3d133289"},"vehicle_type_id":"4","last_reported":1725804483,"current_range_meters":25200,"station_id":"ce4bguh2rcd13ifvqckg","pricing_plan_id":"cebpf4jnsgd1na2vs0mg"},{"bike_id":"9e19c449-dd98-4638-ab55-b7f1c317396e","system_id":"levelo_inurba_marseille","lat":43.30537,"lon":5.367345,"is_reserved":false,"is_disabled":false,"rental_uris":{"android":"levelo://app?vid=9e19c449-dd98-4638-ab55-b7f1c317396e","ios":"levelo://app?vid=9e19c449-dd98-4638-ab55-b7f1c317396e"},"vehicle_type_id":"4","last_reported":1725804483,"current_range_meters":23600,"station_id":"ce4bgrp2rcd13ifvqc9g","pricing_plan_id":"cebpf4jnsgd1na2vs0mg"},{"bike_id":"182058be-9a13-4c4d-821e-5021f334b88a","system_id":"levelo_inurba_marseille","lat":43.305712,"lon":5.365641,"is_reserved":false,"is_disabled":false,"rental_uris":{"android":"levelo://app?vid=182058be-9a13-4c4d-821e-5021f334b88a","ios":"levelo://app?vid=182058be-9a13-4c4d-821e-5021f334b88a"},"vehicle_type_id":"4","last_reported":1725804483,"current_range_meters":20400,"station_id":"ce4bgs12rcd13ifvqcag","pricing_plan_id":"cebpf4jnsgd1na2vs0mg"},{"bike_id":"6b035f23-5b48-4c07-aa79-9d12f0e700a1","system_id":"levelo_inurba_marseille","lat":43.30537,"lon":5.367345,"is_reserved":false,"is_disabled":false,"rental_uris":{"android":"levelo://app?vid=6b035f23-5b48-4c07-aa79-9d12f0e700a1","ios":"levelo://app?vid=6b035f23-5b48-4c07-aa79-9d12f0e700a1"},"vehicle_type_id":"4","last_reported":1725804483,"current_range_meters":26400,"station_id":"ce4bgrp2rcd13ifvqc9g","pricing_plan_id":"cebpf4jnsgd1na2vs0mg"},{"bike_id":"00726306-52a2-435e-8fe8-d48ab63e5aa2","system_id":"levelo_inurba_marseille","lat":43.30546,"lon":5.36567,"is_reserved":false,"is_disabled":false,"rental_uris":{"android":"levelo://app?vid=00726306-52a2-435e-8fe8-d48ab63e5aa2","ios":"levelo://app?vid=00726306-52a2-435e-8fe8-d48ab63e5aa2"},"vehicle_type_id":"4","last_reported":1725804483,"current_range_meters":16000,"station_id":"ce4bgs12rcd13ifvqcag","pricing_plan_id":"cebpf4jnsgd1na2vs0mg"},{"bike_id":"f08c3e91-9d4a-4398-964c-b1a186d57906","system_id":"levelo_inurba_marseille","lat":43.30537,"lon":5.367345,"is_reserved":false,"is_disabled":false,"rental_uris":{"android":"levelo://app?vid=f08c3e91-9d4a-4398-964c-b1a186d57906","ios":"levelo://app?vid=f08c3e91-9d4a-4398-964c-b1a186d57906"},"vehicle_type_id":"4","last_reported":1725804483,"current_range_meters":21600,"station_id":"ce4bgrp2rcd13ifvqc9g","pricing_plan_id":"cebpf4jnsgd1na2vs0mg"},{"bike_id":"9de147e6-bdb2-4be3-8ecc-1b4ca1c8138f","system_id":"levelo_inurba_marseille","lat":43.30537,"lon":5.367345,"is_reserved":false,"is_disabled":false,"rental_uris":{"android":"levelo://app?vid=9de147e6-bdb2-4be3-8ecc-1b4ca1c8138f","ios":"levelo://app?vid=9de147e6-bdb2-4be3-8ecc-1b4ca1c8138f"},"vehicle_type_id":"4","last_reported":1725804483,"current_range_meters":24800,"station_id":"ce4bgrp2rcd13ifvqc9g","pricing_plan_id":"cebpf4jnsgd1na2vs0mg"},{"bike_id":"7ed62d24-2497-4976-ab67-8af9cf4daf62","system_id":"levelo_inurba_marseille","lat":43.30546,"lon":5.365467,"is_reserved":false,"is_disabled":false,"rental_uris":{"android":"levelo://app?vid=7ed62d24-2497-4976-ab67-8af9cf4daf62","ios":"levelo://app?vid=7ed62d24-2497-4976-ab67-8af9cf4daf62"},"vehicle_type_id":"4","last_reported":1725804483,"current_range_meters":0,"station_id":"ce4bgs12rcd13ifvqcag","pricing_plan_id":"cebpf4jnsgd1na2vs0mg"},{"bike_id":"9059aa7f-ac99-4ba2-afd8-5b373a7a7813","system_id":"levelo_inurba_marseille","lat":43.305714,"lon":5.365633,"is_reserved":false,"is_disabled":false,"rental_uris":{"android":"levelo://app?vid=9059aa7f-ac99-4ba2-afd8-5b373a7a7813","ios":"levelo://app?vid=9059aa7f-ac99-4ba2-afd8-5b373a7a7813"},"vehicle_type_id":"4","last_reported":1725804483,"current_range_meters":11600,"station_id":"ce4bgs12rcd13ifvqcag","pricing_plan_id":"cebpf4jnsgd1na2vs0mg"},{"bike_id":"683f8db3-8d3e-45cd-ae35-960323b8ad23","system_id":"levelo_inurba_marseille","lat":43.305712,"lon":5.365641,"is_reserved":false,"is_disabled":false,"rental_uris":{"android":"levelo://app?vid=683f8db3-8d3e-45cd-ae35-960323b8ad23","ios":"levelo://app?vid=683f8db3-8d3e-45cd-ae35-960323b8ad23"},"vehicle_type_id":"4","last_reported":1725804483,"current_range_meters":25600,"station_id":"ce4bgs12rcd13ifvqcag","pricing_plan_id":"cebpf4jnsgd1na2vs0mg"},{"bike_id":"674f661b-04aa-460d-a2db-03adb4ffc075","system_id":"levelo_inurba_marseille","lat":43.305714,"lon":5.365633,"is_reserved":false,"is_disabled":false,"rental_uris":{"android":"levelo://app?vid=674f661b-04aa-460d-a2db-03adb4ffc075","ios":"levelo://app?vid=674f661b-04aa-460d-a2db-03adb4ffc075"},"vehicle_type_id":"4","last_reported":1725804483,"current_range_meters":27200,"station_id":"ce4bgs12rcd13ifvqcag","pricing_plan_id":"cebpf4jnsgd1na2vs0mg"},{"bike_id":"b609063c-3151-4d3b-a08e-552b1af07f68","system_id":"levelo_inurba_marseille","lat":43.30537,"lon":5.367345,"is_reserved":false,"is_disabled":false,"rental_uris":{"android":"levelo://app?vid=b609063c-3151-4d3b-a08e-552b1af07f68","ios":"levelo://app?vid=b609063c-3151-4d3b-a08e-552b1af07f68"},"vehicle_type_id":"4","last_reported":1725804483,"current_range_meters":20400,"station_id":"ce4bgrp2rcd13ifvqc9g","pricing_plan_id":"cebpf4jnsgd1na2vs0mg"},{"bike_id":"950ddff9-9224-43f6-82a7-1a857047bc74","system_id":"levelo_inurba_marseille","lat":43.305706,"lon":5.365654,"is_reserved":false,"is_disabled":false,"rental_uris":{"android":"levelo://app?vid=950ddff9-9224-43f6-82a7-1a857047bc74","ios":"levelo://app?vid=950ddff9-9224-43f6-82a7-1a857047bc74"},"vehicle_type_id":"4","last_reported":1725804483,"current_range_meters":31200,"station_id":"ce4bgs12rcd13ifvqcag","pricing_plan_id":"cebpf4jnsgd1na2vs0mg"},{"bike_id":"fda29392-4d68-4b34-901d-55da0f7bed1c","system_id":"levelo_inurba_marseille","lat":43.305706,"lon":5.365654,"is_reserved":false,"is_disabled":false,"rental_uris":{"android":"levelo://app?vid=fda29392-4d68-4b34-901d-55da0f7bed1c","ios":"levelo://app?vid=fda29392-4d68-4b34-901d-55da0f7bed1c"},"vehicle_type_id":"4","last_reported":1725804483,"current_range_meters":14400,"station_id":"ce4bgs12rcd13ifvqcag","pricing_plan_id":"cebpf4jnsgd1na2vs0mg"},{"bike_id":"3df2978f-5de3-4e42-a7c8-566f2b43074a","system_id":"levelo_inurba_marseille","lat":43.305706,"lon":5.365654,"is_reserved":false,"is_disabled":false,"rental_uris":{"android":"levelo://app?vid=3df2978f-5de3-4e42-a7c8-566f2b43074a","ios":"levelo://app?vid=3df2978f-5de3-4e42-a7c8-566f2b43074a"},"vehicle_type_id":"4","last_reported":1725804483,"current_range_meters":31200,"station_id":"ce4bgs12rcd13ifvqcag","pricing_plan_id":"cebpf4jnsgd1na2vs0mg"},{"bike_id":"d5ff851b-4f94-4b33-ac54-4e8a37f39bca","system_id":"levelo_inurba_marseille","lat":43.30532,"lon":5.36523,"is_reserved":false,"is_disabled":false,"rental_uris":{"android":"levelo://app?vid=d5ff851b-4f94-4b33-ac54-4e8a37f39bca","ios":"levelo://app?vid=d5ff851b-4f94-4b33-ac54-4e8a37f39bca"},"vehicle_type_id":"4","last_reported":1725804483,"current_range_meters":25200,"station_id":"ce4bgs12rcd13ifvqcag","pricing_plan_id":"cebpf4jnsgd1na2vs0mg"},{"bike_id":"f757fdfe-cdc1-4c16-b333-ebd9b455916a","system_id":"levelo_inurba_marseille","lat":43.30537,"lon":5.367345,"is_reserved":false,"is_disabled":false,"rental_uris":{"android":"levelo://app?vid=f757fdfe-cdc1-4c16-b333-ebd9b455916a","ios":"levelo://app?vid=f757fdfe-cdc1-4c16-b333-ebd9b455916a"},"vehicle_type_id":"4","last_reported":1725804483,"current_range_meters":10400,"station_id":"ce4bgrp2rcd13ifvqc9g","pricing_plan_id":"cebpf4jnsgd1na2vs0mg"},{"bike_id":"cb1f32d3-f789-4a88-ad7f-60431519f073","system_id":"levelo_inurba_marseille","lat":43.31125,"lon":5.37754,"is_reserved":false,"is_disabled":false,"rental_uris":{"android":"levelo://app?vid=cb1f32d3-f789-4a88-ad7f-60431519f073","ios":"levelo://app?vid=cb1f32d3-f789-4a88-ad7f-60431519f073"},"vehicle_type_id":"4","last_reported":1725804483,"current_range_meters":26400,"station_id":"ce4bgt92rcd13ifvqcg0","pricing_plan_id":"cebpf4jnsgd1na2vs0mg"},{"bike_id":"8a10f8b0-b88c-4da8-a2f8-7deda4e24433","system_id":"levelo_inurba_marseille","lat":43.307945,"lon":5.376487,"is_reserved":false,"is_disabled":false,"rental_uris":{"android":"levelo://app?vid=8a10f8b0-b88c-4da8-a2f8-7deda4e24433","ios":"levelo://app?vid=8a10f8b0-b88c-4da8-a2f8-7deda4e24433"},"vehicle_type_id":"4","last_reported":1725804483,"current_range_meters":17600,"station_id":"ce4bgv92rcd13ifvqcq0","pricing_plan_id":"cebpf4jnsgd1na2vs0mg"},{"bike_id":"c6eb3fb3-4852-4ea4-b91c-5fccc1d81734","system_id":"levelo_inurba_marseille","lat":43.307945,"lon":5.376487,"is_reserved":false,"is_disabled":false,"rental_uris":{"android":"levelo://app?vid=c6eb3fb3-4852-4ea4-b91c-5fccc1d81734","ios":"levelo://app?vid=c6eb3fb3-4852-4ea4-b91c-5fccc1d81734"},"vehicle_type_id":"4","last_reported":1725804483,"current_range_meters":20800,"station_id":"ce4bgv92rcd13ifvqcq0","pricing_plan_id":"cebpf4jnsgd1na2vs0mg"},{"bike_id":"0b5965b3-4ee0-4b46-a64e-3b84464fe6cf","system_id":"levelo_inurba_marseille","lat":43.307945,"lon":5.376487,"is_reserved":false,"is_disabled":false,"rental_uris":{"android":"levelo://app?vid=0b5965b3-4ee0-4b46-a64e-3b84464fe6cf","ios":"levelo://app?vid=0b5965b3-4ee0-4b46-a64e-3b84464fe6cf"},"vehicle_type_id":"4","last_reported":1725804483,"current_range_meters":13200,"station_id":"ce4bgv92rcd13ifvqcq0","pricing_plan_id":"cebpf4jnsgd1na2vs0mg"},{"bike_id":"aecec6b6-fb49-417e-a0ff-afad88f59788","system_id":"levelo_inurba_marseille","lat":43.307945,"lon":5.376487,"is_reserved":false,"is_disabled":false,"rental_uris":{"android":"levelo://app?vid=aecec6b6-fb49-417e-a0ff-afad88f59788","ios":"levelo://app?vid=aecec6b6-fb49-417e-a0ff-afad88f59788"},"vehicle_type_id":"4","last_reported":1725804483,"current_range_meters":22400,"station_id":"ce4bgv92rcd13ifvqcq0","pricing_plan_id":"cebpf4jnsgd1na2vs0mg"},{"bike_id":"cb72cf2b-2fb8-4dd8-8034-84ff0b97ee9d","system_id":"levelo_inurba_marseille","lat":43.307945,"lon":5.376487,"is_reserved":false,"is_disabled":false,"rental_uris":{"android":"levelo://app?vid=cb72cf2b-2fb8-4dd8-8034-84ff0b97ee9d","ios":"levelo://app?vid=cb72cf2b-2fb8-4dd8-8034-84ff0b97ee9d"},"vehicle_type_id":"4","last_reported":1725804483,"current_range_meters":32000,"station_id":"ce4bgv92rcd13ifvqcq0","pricing_plan_id":"cebpf4jnsgd1na2vs0mg"},{"bike_id":"c0c6ab8c-0ae1-4db0-ae2e-cd26384765da","system_id":"levelo_inurba_marseille","lat":43.307945,"lon":5.376487,"is_reserved":false,"is_disabled":false,"rental_uris":{"android":"levelo://app?vid=c0c6ab8c-0ae1-4db0-ae2e-cd26384765da","ios":"levelo://app?vid=c0c6ab8c-0ae1-4db0-ae2e-cd26384765da"},"vehicle_type_id":"4","last_reported":1725804483,"current_range_meters":31200,"station_id":"ce4bgv92rcd13ifvqcq0","pricing_plan_id":"cebpf4jnsgd1na2vs0mg"},{"bike_id":"a40d431e-a367-4575-a900-8ffe38cbf347","system_id":"levelo_inurba_marseille","lat":43.317075,"lon":5.377367,"is_reserved":false,"is_disabled":false,"rental_uris":{"android":"levelo://app?vid=a40d431e-a367-4575-a900-8ffe38cbf347","ios":"levelo://app?vid=a40d431e-a367-4575-a900-8ffe38cbf347"},"vehicle_type_id":"4","last_reported":1725804483,"current_range_meters":28000,"station_id":"ce4bgth2rcd13ifvqch0","pricing_plan_id":"cebpf4jnsgd1na2vs0mg"},{"bike_id":"f94766f9-e62d-485d-9c46-c95e702474ab","system_id":"levelo_inurba_marseille","lat":43.317075,"lon":5.377367,"is_reserved":false,"is_disabled":false,"rental_uris":{"android":"levelo://app?vid=f94766f9-e62d-485d-9c46-c95e702474ab","ios":"levelo://app?vid=f94766f9-e62d-485d-9c46-c95e702474ab"},"vehicle_type_id":"4","last_reported":1725804483,"current_range_meters":19200,"station_id":"ce4bgth2rcd13ifvqch0","pricing_plan_id":"cebpf4jnsgd1na2vs0mg"},{"bike_id":"fbb81f33-f999-4d54-9ddc-56b40b630f02","system_id":"levelo_inurba_marseille","lat":43.317075,"lon":5.377367,"is_reserved":false,"is_disabled":false,"rental_uris":{"android":"levelo://app?vid=fbb81f33-f999-4d54-9ddc-56b40b630f02","ios":"levelo://app?vid=fbb81f33-f999-4d54-9ddc-56b40b630f02"},"vehicle_type_id":"4","last_reported":1725804483,"current_range_meters":18000,"station_id":"ce4bgth2rcd13ifvqch0","pricing_plan_id":"cebpf4jnsgd1na2vs0mg"},{"bike_id":"da566e56-6622-4890-bf66-87df86965ede","system_id":"levelo_inurba_marseille","lat":43.317075,"lon":5.377367,"is_reserved":false,"is_disabled":false,"rental_uris":{"android":"levelo://app?vid=da566e56-6622-4890-bf66-87df86965ede","ios":"levelo://app?vid=da566e56-6622-4890-bf66-87df86965ede"},"vehicle_type_id":"4","last_reported":1725804483,"current_range_meters":30800,"station_id":"ce4bgth2rcd13ifvqch0","pricing_plan_id":"cebpf4jnsgd1na2vs0mg"},{"bike_id":"c6514e05-00e1-4a5a-af79-95a7f6c98847","system_id":"levelo_inurba_marseille","lat":43.317075,"lon":5.377367,"is_reserved":false,"is_disabled":false,"rental_uris":{"android":"levelo://app?vid=c6514e05-00e1-4a5a-af79-95a7f6c98847","ios":"levelo://app?vid=c6514e05-00e1-4a5a-af79-95a7f6c98847"},"vehicle_type_id":"4","last_reported":1725804483,"current_range_meters":20800,"station_id":"ce4bgth2rcd13ifvqch0","pricing_plan_id":"cebpf4jnsgd1na2vs0mg"},{"bike_id":"37342786-1cbd-4f79-bf48-89251247efa9","system_id":"levelo_inurba_marseille","lat":43.317075,"lon":5.377367,"is_reserved":false,"is_disabled":false,"rental_uris":{"android":"levelo://app?vid=37342786-1cbd-4f79-bf48-89251247efa9","ios":"levelo://app?vid=37342786-1cbd-4f79-bf48-89251247efa9"},"vehicle_type_id":"4","last_reported":1725804483,"current_range_meters":15600,"station_id":"ce4bgth2rcd13ifvqch0","pricing_plan_id":"cebpf4jnsgd1na2vs0mg"},{"bike_id":"3b17ab3b-c77d-4d64-b7d9-2b8176751422","system_id":"levelo_inurba_marseille","lat":43.317075,"lon":5.377367,"is_reserved":false,"is_disabled":false,"rental_uris":{"android":"levelo://app?vid=3b17ab3b-c77d-4d64-b7d9-2b8176751422","ios":"levelo://app?vid=3b17ab3b-c77d-4d64-b7d9-2b8176751422"},"vehicle_type_id":"4","last_reported":1725804483,"current_range_meters":31200,"station_id":"ce4bgth2rcd13ifvqch0","pricing_plan_id":"cebpf4jnsgd1na2vs0mg"},{"bike_id":"e3e1dd25-8ed5-472d-9db9-97e1faaa25ea","system_id":"levelo_inurba_marseille","lat":43.317075,"lon":5.377367,"is_reserved":false,"is_disabled":false,"rental_uris":{"android":"levelo://app?vid=e3e1dd25-8ed5-472d-9db9-97e1faaa25ea","ios":"levelo://app?vid=e3e1dd25-8ed5-472d-9db9-97e1faaa25ea"},"vehicle_type_id":"4","last_reported":1725804483,"current_range_meters":30400,"station_id":"ce4bgth2rcd13ifvqch0","pricing_plan_id":"cebpf4jnsgd1na2vs0mg"},{"bike_id":"a4adebcc-2100-4f8f-a7df-69b3cc0bca7c","system_id":"levelo_inurba_marseille","lat":43.317075,"lon":5.377367,"is_reserved":false,"is_disabled":false,"rental_uris":{"android":"levelo://app?vid=a4adebcc-2100-4f8f-a7df-69b3cc0bca7c","ios":"levelo://app?vid=a4adebcc-2100-4f8f-a7df-69b3cc0bca7c"},"vehicle_type_id":"4","last_reported":1725804483,"current_range_meters":31600,"station_id":"ce4bgth2rcd13ifvqch0","pricing_plan_id":"cebpf4jnsgd1na2vs0mg"},{"bike_id":"e6240958-5766-4e43-be3c-5414d3e93fa9","system_id":"levelo_inurba_marseille","lat":43.31354,"lon":5.37918,"is_reserved":false,"is_disabled":false,"rental_uris":{"android":"levelo://app?vid=e6240958-5766-4e43-be3c-5414d3e93fa9","ios":"levelo://app?vid=e6240958-5766-4e43-be3c-5414d3e93fa9"},"vehicle_type_id":"4","last_reported":1725804483,"current_range_meters":19200,"station_id":"","pricing_plan_id":"cebpf4jnsgd1na2vs0mg"},{"bike_id":"796ad14b-e345-43f4-b5a4-ed238d3e20f7","system_id":"levelo_inurba_marseille","lat":43.30304,"lon":5.368987,"is_reserved":false,"is_disabled":false,"rental_uris":{"android":"levelo://app?vid=796ad14b-e345-43f4-b5a4-ed238d3e20f7","ios":"levelo://app?vid=796ad14b-e345-43f4-b5a4-ed238d3e20f7"},"vehicle_type_id":"4","last_reported":1725804483,"current_range_meters":3600,"station_id":"ce4bgqh2rcd13ifvqc5g","pricing_plan_id":"cebpf4jnsgd1na2vs0mg"},{"bike_id":"bb42f152-181b-443a-839a-2a6ed586f99d","system_id":"levelo_inurba_marseille","lat":43.303046,"lon":5.368981,"is_reserved":false,"is_disabled":false,"rental_uris":{"android":"levelo://app?vid=bb42f152-181b-443a-839a-2a6ed586f99d","ios":"levelo://app?vid=bb42f152-181b-443a-839a-2a6ed586f99d"},"vehicle_type_id":"4","last_reported":1725804483,"current_range_meters":12800,"station_id":"ce4bgqh2rcd13ifvqc5g","pricing_plan_id":"cebpf4jnsgd1na2vs0mg"},{"bike_id":"e8702ec8-f8cc-4768-8777-a8c332a62218","system_id":"levelo_inurba_marseille","lat":43.315293,"lon":5.380349,"is_reserved":false,"is_disabled":false,"rental_uris":{"android":"levelo://app?vid=e8702ec8-f8cc-4768-8777-a8c332a62218","ios":"levelo://app?vid=e8702ec8-f8cc-4768-8777-a8c332a62218"},"vehicle_type_id":"4","last_reported":1725804483,"current_range_meters":31200,"station_id":"ce4bhsp2rcd13ifvqi50","pricing_plan_id":"cebpf4jnsgd1na2vs0mg"},{"bike_id":"78ab6508-0787-4af4-9744-548f92ab22b7","system_id":"levelo_inurba_marseille","lat":43.314169,"lon":5.38091,"is_reserved":false,"is_disabled":false,"rental_uris":{"android":"levelo://app?vid=78ab6508-0787-4af4-9744-548f92ab22b7","ios":"levelo://app?vid=78ab6508-0787-4af4-9744-548f92ab22b7"},"vehicle_type_id":"4","last_reported":1725804483,"current_range_meters":9600,"station_id":"","pricing_plan_id":"cebpf4jnsgd1na2vs0mg"},{"bike_id":"160454de-5064-4328-81b5-dcb81f88ea3d","system_id":"levelo_inurba_marseille","lat":43.301939,"lon":5.366286,"is_reserved":false,"is_disabled":false,"rental_uris":{"android":"levelo://app?vid=160454de-5064-4328-81b5-dcb81f88ea3d","ios":"levelo://app?vid=160454de-5064-4328-81b5-dcb81f88ea3d"},"vehicle_type_id":"4","last_reported":1725804483,"current_range_meters":12800,"station_id":"ce4bgrh2rcd13ifvqc8g","pricing_plan_id":"cebpf4jnsgd1na2vs0mg"},{"bike_id":"e73b62d3-c044-41e7-945c-d46bcc956076","system_id":"levelo_inurba_marseille","lat":43.308012,"lon":5.381511,"is_reserved":false,"is_disabled":false,"rental_uris":{"android":"levelo://app?vid=e73b62d3-c044-41e7-945c-d46bcc956076","ios":"levelo://app?vid=e73b62d3-c044-41e7-945c-d46bcc956076"},"vehicle_type_id":"4","last_reported":1725804483,"current_range_meters":30400,"station_id":"ce4bgt12rcd13ifvqce0","pricing_plan_id":"cebpf4jnsgd1na2vs0mg"},{"bike_id":"aec39329-911e-4695-b9da-ba4131c0f287","system_id":"levelo_inurba_marseille","lat":43.308012,"lon":5.381511,"is_reserved":false,"is_disabled":false,"rental_uris":{"android":"levelo://app?vid=aec39329-911e-4695-b9da-ba4131c0f287","ios":"levelo://app?vid=aec39329-911e-4695-b9da-ba4131c0f287"},"vehicle_type_id":"4","last_reported":1725804483,"current_range_meters":27200,"station_id":"ce4bgt12rcd13ifvqce0","pricing_plan_id":"cebpf4jnsgd1na2vs0mg"},{"bike_id":"cf1c2f57-d581-46ea-a955-4b6d57e28382","system_id":"levelo_inurba_marseille","lat":43.308012,"lon":5.381511,"is_reserved":false,"is_disabled":false,"rental_uris":{"android":"levelo://app?vid=cf1c2f57-d581-46ea-a955-4b6d57e28382","ios":"levelo://app?vid=cf1c2f57-d581-46ea-a955-4b6d57e28382"},"vehicle_type_id":"4","last_reported":1725804483,"current_range_meters":21600,"station_id":"ce4bgt12rcd13ifvqce0","pricing_plan_id":"cebpf4jnsgd1na2vs0mg"},{"bike_id":"dd5489b2-9454-4921-a14b-4a5b5633f09f","system_id":"levelo_inurba_marseille","lat":43.308012,"lon":5.381511,"is_reserved":false,"is_disabled":false,"rental_uris":{"android":"levelo://app?vid=dd5489b2-9454-4921-a14b-4a5b5633f09f","ios":"levelo://app?vid=dd5489b2-9454-4921-a14b-4a5b5633f09f"},"vehicle_type_id":"4","last_reported":1725804483,"current_range_meters":18000,"station_id":"ce4bgt12rcd13ifvqce0","pricing_plan_id":"cebpf4jnsgd1na2vs0mg"},{"bike_id":"2090dbff-f18c-4d52-ab2c-87346f21bb58","system_id":"levelo_inurba_marseille","lat":43.304606,"lon":5.379026,"is_reserved":false,"is_disabled":false,"rental_uris":{"android":"levelo://app?vid=2090dbff-f18c-4d52-ab2c-87346f21bb58","ios":"levelo://app?vid=2090dbff-f18c-4d52-ab2c-87346f21bb58"},"vehicle_type_id":"4","last_reported":1725804483,"current_range_meters":15200,"station_id":"ce4bgup2rcd13ifvqcn0","pricing_plan_id":"cebpf4jnsgd1na2vs0mg"},{"bike_id":"0c3a2e95-78cb-4027-a9a1-ec3e0d9d5adf","system_id":"levelo_inurba_marseille","lat":43.304606,"lon":5.379026,"is_reserved":false,"is_disabled":false,"rental_uris":{"android":"levelo://app?vid=0c3a2e95-78cb-4027-a9a1-ec3e0d9d5adf","ios":"levelo://app?vid=0c3a2e95-78cb-4027-a9a1-ec3e0d9d5adf"},"vehicle_type_id":"4","last_reported":1725804483,"current_range_meters":19200,"station_id":"ce4bgup2rcd13ifvqcn0","pricing_plan_id":"cebpf4jnsgd1na2vs0mg"},{"bike_id":"28265ccc-69c9-482a-8c39-00a983e1bafb","system_id":"levelo_inurba_marseille","lat":43.304606,"lon":5.379026,"is_reserved":false,"is_disabled":false,"rental_uris":{"android":"levelo://app?vid=28265ccc-69c9-482a-8c39-00a983e1bafb","ios":"levelo://app?vid=28265ccc-69c9-482a-8c39-00a983e1bafb"},"vehicle_type_id":"4","last_reported":1725804483,"current_range_meters":31200,"station_id":"ce4bgup2rcd13ifvqcn0","pricing_plan_id":"cebpf4jnsgd1na2vs0mg"},{"bike_id":"c24459e1-3099-4ac7-a62c-e6367ecf685b","system_id":"levelo_inurba_marseille","lat":43.324739,"lon":5.36556,"is_reserved":false,"is_disabled":false,"rental_uris":{"android":"levelo://app?vid=c24459e1-3099-4ac7-a62c-e6367ecf685b","ios":"levelo://app?vid=c24459e1-3099-4ac7-a62c-e6367ecf685b"},"vehicle_type_id":"4","last_reported":1725804483,"current_range_meters":10400,"station_id":"ce4bhs12rcd13ifvqhvg","pricing_plan_id":"cebpf4jnsgd1na2vs0mg"},{"bike_id":"8fbc4527-4b78-4a1b-aa7c-5bed902250df","system_id":"levelo_inurba_marseille","lat":43.324771,"lon":5.36557,"is_reserved":false,"is_disabled":false,"rental_uris":{"android":"levelo://app?vid=8fbc4527-4b78-4a1b-aa7c-5bed902250df","ios":"levelo://app?vid=8fbc4527-4b78-4a1b-aa7c-5bed902250df"},"vehicle_type_id":"4","last_reported":1725804483,"current_range_meters":30400,"station_id":"ce4bhs12rcd13ifvqhvg","pricing_plan_id":"cebpf4jnsgd1na2vs0mg"},{"bike_id":"021a88da-6eb7-45f6-b343-81e66cc5e7a9","system_id":"levelo_inurba_marseille","lat":43.324771,"lon":5.36557,"is_reserved":false,"is_disabled":false,"rental_uris":{"android":"levelo://app?vid=021a88da-6eb7-45f6-b343-81e66cc5e7a9","ios":"levelo://app?vid=021a88da-6eb7-45f6-b343-81e66cc5e7a9"},"vehicle_type_id":"4","last_reported":1725804483,"current_range_meters":28000,"station_id":"ce4bhs12rcd13ifvqhvg","pricing_plan_id":"cebpf4jnsgd1na2vs0mg"},{"bike_id":"097a0d9f-d7a9-475b-a2c0-7bd9b1875164","system_id":"levelo_inurba_marseille","lat":43.32479,"lon":5.36569,"is_reserved":false,"is_disabled":false,"rental_uris":{"android":"levelo://app?vid=097a0d9f-d7a9-475b-a2c0-7bd9b1875164","ios":"levelo://app?vid=097a0d9f-d7a9-475b-a2c0-7bd9b1875164"},"vehicle_type_id":"4","last_reported":1725804483,"current_range_meters":27200,"station_id":"ce4bhs12rcd13ifvqhvg","pricing_plan_id":"cebpf4jnsgd1na2vs0mg"},{"bike_id":"75df588d-bdfc-4c53-ac87-cb82b5b3a8d3","system_id":"levelo_inurba_marseille","lat":43.32482,"lon":5.36569,"is_reserved":false,"is_disabled":false,"rental_uris":{"android":"levelo://app?vid=75df588d-bdfc-4c53-ac87-cb82b5b3a8d3","ios":"levelo://app?vid=75df588d-bdfc-4c53-ac87-cb82b5b3a8d3"},"vehicle_type_id":"4","last_reported":1725804483,"current_range_meters":31200,"station_id":"ce4bhs12rcd13ifvqhvg","pricing_plan_id":"cebpf4jnsgd1na2vs0mg"},{"bike_id":"ee9cf53e-0ccb-4ef0-9851-a6bb456f20db","system_id":"levelo_inurba_marseille","lat":43.324834,"lon":5.365679,"is_reserved":false,"is_disabled":false,"rental_uris":{"android":"levelo://app?vid=ee9cf53e-0ccb-4ef0-9851-a6bb456f20db","ios":"levelo://app?vid=ee9cf53e-0ccb-4ef0-9851-a6bb456f20db"},"vehicle_type_id":"4","last_reported":1725804483,"current_range_meters":30800,"station_id":"ce4bhs12rcd13ifvqhvg","pricing_plan_id":"cebpf4jnsgd1na2vs0mg"},{"bike_id":"6c61bdbd-6e35-4fea-aaaf-94a58b260f5d","system_id":"levelo_inurba_marseille","lat":43.32484,"lon":5.36569,"is_reserved":false,"is_disabled":false,"rental_uris":{"android":"levelo://app?vid=6c61bdbd-6e35-4fea-aaaf-94a58b260f5d","ios":"levelo://app?vid=6c61bdbd-6e35-4fea-aaaf-94a58b260f5d"},"vehicle_type_id":"4","last_reported":1725804483,"current_range_meters":30800,"station_id":"ce4bhs12rcd13ifvqhvg","pricing_plan_id":"cebpf4jnsgd1na2vs0mg"},{"bike_id":"720f1f86-e050-4c81-a160-e51f8aead02c","system_id":"levelo_inurba_marseille","lat":43.324856,"lon":5.365654,"is_reserved":false,"is_disabled":false,"rental_uris":{"android":"levelo://app?vid=720f1f86-e050-4c81-a160-e51f8aead02c","ios":"levelo://app?vid=720f1f86-e050-4c81-a160-e51f8aead02c"},"vehicle_type_id":"4","last_reported":1725804483,"current_range_meters":30400,"station_id":"ce4bhs12rcd13ifvqhvg","pricing_plan_id":"cebpf4jnsgd1na2vs0mg"},{"bike_id":"a9f5029c-9b9d-4188-8343-c91f49dc1947","system_id":"levelo_inurba_marseille","lat":43.324771,"lon":5.36557,"is_reserved":false,"is_disabled":false,"rental_uris":{"android":"levelo://app?vid=a9f5029c-9b9d-4188-8343-c91f49dc1947","ios":"levelo://app?vid=a9f5029c-9b9d-4188-8343-c91f49dc1947"},"vehicle_type_id":"4","last_reported":1725804483,"current_range_meters":15600,"station_id":"ce4bhs12rcd13ifvqhvg","pricing_plan_id":"cebpf4jnsgd1na2vs0mg"},{"bike_id":"8111d373-d8ce-46c3-8612-d016e1f13fb5","system_id":"levelo_inurba_marseille","lat":43.324771,"lon":5.36557,"is_reserved":false,"is_disabled":false,"rental_uris":{"android":"levelo://app?vid=8111d373-d8ce-46c3-8612-d016e1f13fb5","ios":"levelo://app?vid=8111d373-d8ce-46c3-8612-d016e1f13fb5"},"vehicle_type_id":"4","last_reported":1725804483,"current_range_meters":28800,"station_id":"ce4bhs12rcd13ifvqhvg","pricing_plan_id":"cebpf4jnsgd1na2vs0mg"},{"bike_id":"f84f12cd-5346-4963-83c4-494a3ab22284","system_id":"levelo_inurba_marseille","lat":43.324771,"lon":5.36557,"is_reserved":false,"is_disabled":false,"rental_uris":{"android":"levelo://app?vid=f84f12cd-5346-4963-83c4-494a3ab22284","ios":"levelo://app?vid=f84f12cd-5346-4963-83c4-494a3ab22284"},"vehicle_type_id":"4","last_reported":1725804483,"current_range_meters":30000,"station_id":"ce4bhs12rcd13ifvqhvg","pricing_plan_id":"cebpf4jnsgd1na2vs0mg"},{"bike_id":"f4cf2b14-0787-453d-b183-96238c9a5283","system_id":"levelo_inurba_marseille","lat":43.324771,"lon":5.36557,"is_reserved":false,"is_disabled":false,"rental_uris":{"android":"levelo://app?vid=f4cf2b14-0787-453d-b183-96238c9a5283","ios":"levelo://app?vid=f4cf2b14-0787-453d-b183-96238c9a5283"},"vehicle_type_id":"4","last_reported":1725804483,"current_range_meters":31200,"station_id":"ce4bhs12rcd13ifvqhvg","pricing_plan_id":"cebpf4jnsgd1na2vs0mg"},{"bike_id":"1ebee506-a41b-42e5-882e-37dfe4752dd7","system_id":"levelo_inurba_marseille","lat":43.324771,"lon":5.36557,"is_reserved":false,"is_disabled":false,"rental_uris":{"android":"levelo://app?vid=1ebee506-a41b-42e5-882e-37dfe4752dd7","ios":"levelo://app?vid=1ebee506-a41b-42e5-882e-37dfe4752dd7"},"vehicle_type_id":"4","last_reported":1725804483,"current_range_meters":30400,"station_id":"ce4bhs12rcd13ifvqhvg","pricing_plan_id":"cebpf4jnsgd1na2vs0mg"},{"bike_id":"1c45e5ce-9995-4865-bf67-e869e75f5e79","system_id":"levelo_inurba_marseille","lat":43.310804,"lon":5.38359,"is_reserved":false,"is_disabled":false,"rental_uris":{"android":"levelo://app?vid=1c45e5ce-9995-4865-bf67-e869e75f5e79","ios":"levelo://app?vid=1c45e5ce-9995-4865-bf67-e869e75f5e79"},"vehicle_type_id":"4","last_reported":1725804483,"current_range_meters":30800,"station_id":"ce4bgv92rcd13ifvqcr0","pricing_plan_id":"cebpf4jnsgd1na2vs0mg"},{"bike_id":"30e9d758-4fe3-4128-a5ad-829df55d5ece","system_id":"levelo_inurba_marseille","lat":43.31076,"lon":5.38354,"is_reserved":false,"is_disabled":false,"rental_uris":{"android":"levelo://app?vid=30e9d758-4fe3-4128-a5ad-829df55d5ece","ios":"levelo://app?vid=30e9d758-4fe3-4128-a5ad-829df55d5ece"},"vehicle_type_id":"4","last_reported":1725804483,"current_range_meters":27600,"station_id":"ce4bgv92rcd13ifvqcr0","pricing_plan_id":"cebpf4jnsgd1na2vs0mg"},{"bike_id":"071c41ed-aef3-4b7b-98f1-36bc3eb14b99","system_id":"levelo_inurba_marseille","lat":43.3107,"lon":5.38356,"is_reserved":false,"is_disabled":false,"rental_uris":{"android":"levelo://app?vid=071c41ed-aef3-4b7b-98f1-36bc3eb14b99","ios":"levelo://app?vid=071c41ed-aef3-4b7b-98f1-36bc3eb14b99"},"vehicle_type_id":"4","last_reported":1725804483,"current_range_meters":19200,"station_id":"ce4bgv92rcd13ifvqcr0","pricing_plan_id":"cebpf4jnsgd1na2vs0mg"},{"bike_id":"820d9c57-9076-44d0-8126-f141ebdf94ea","system_id":"levelo_inurba_marseille","lat":43.310804,"lon":5.38359,"is_reserved":false,"is_disabled":false,"rental_uris":{"android":"levelo://app?vid=820d9c57-9076-44d0-8126-f141ebdf94ea","ios":"levelo://app?vid=820d9c57-9076-44d0-8126-f141ebdf94ea"},"vehicle_type_id":"4","last_reported":1725804483,"current_range_meters":19200,"station_id":"ce4bgv92rcd13ifvqcr0","pricing_plan_id":"cebpf4jnsgd1na2vs0mg"},{"bike_id":"7665fcd7-b533-4608-bb4b-42423b5bafaa","system_id":"levelo_inurba_marseille","lat":43.302784,"lon":5.377158,"is_reserved":false,"is_disabled":false,"rental_uris":{"android":"levelo://app?vid=7665fcd7-b533-4608-bb4b-42423b5bafaa","ios":"levelo://app?vid=7665fcd7-b533-4608-bb4b-42423b5bafaa"},"vehicle_type_id":"4","last_reported":1725804483,"current_range_meters":24000,"station_id":"ce4bguh2rcd13ifvqcj0","pricing_plan_id":"cebpf4jnsgd1na2vs0mg"},{"bike_id":"8e3d0470-ba14-45f0-a75d-347bf4ab7fd8","system_id":"levelo_inurba_marseille","lat":43.30143,"lon":5.37413,"is_reserved":false,"is_disabled":false,"rental_uris":{"android":"levelo://app?vid=8e3d0470-ba14-45f0-a75d-347bf4ab7fd8","ios":"levelo://app?vid=8e3d0470-ba14-45f0-a75d-347bf4ab7fd8"},"vehicle_type_id":"4","last_reported":1725804483,"current_range_meters":29200,"station_id":"ce4bgs92rcd13ifvqcc0","pricing_plan_id":"cebpf4jnsgd1na2vs0mg"},{"bike_id":"6fa8d175-7afa-4677-8f07-3e3d6ae2a0de","system_id":"levelo_inurba_marseille","lat":43.30143,"lon":5.37413,"is_reserved":false,"is_disabled":false,"rental_uris":{"android":"levelo://app?vid=6fa8d175-7afa-4677-8f07-3e3d6ae2a0de","ios":"levelo://app?vid=6fa8d175-7afa-4677-8f07-3e3d6ae2a0de"},"vehicle_type_id":"4","last_reported":1725804483,"current_range_meters":10000,"station_id":"ce4bgs92rcd13ifvqcc0","pricing_plan_id":"cebpf4jnsgd1na2vs0mg"},{"bike_id":"33784401-a6dc-411f-8eb3-dd885c87fbce","system_id":"levelo_inurba_marseille","lat":43.301429,"lon":5.37413,"is_reserved":false,"is_disabled":false,"rental_uris":{"android":"levelo://app?vid=33784401-a6dc-411f-8eb3-dd885c87fbce","ios":"levelo://app?vid=33784401-a6dc-411f-8eb3-dd885c87fbce"},"vehicle_type_id":"4","last_reported":1725804483,"current_range_meters":30000,"station_id":"ce4bgs92rcd13ifvqcc0","pricing_plan_id":"cebpf4jnsgd1na2vs0mg"},{"bike_id":"6d50ac9a-403d-44a4-b3f7-20f8e9d75b6e","system_id":"levelo_inurba_marseille","lat":43.301429,"lon":5.37413,"is_reserved":false,"is_disabled":false,"rental_uris":{"android":"levelo://app?vid=6d50ac9a-403d-44a4-b3f7-20f8e9d75b6e","ios":"levelo://app?vid=6d50ac9a-403d-44a4-b3f7-20f8e9d75b6e"},"vehicle_type_id":"4","last_reported":1725804483,"current_range_meters":30000,"station_id":"ce4bgs92rcd13ifvqcc0","pricing_plan_id":"cebpf4jnsgd1na2vs0mg"},{"bike_id":"1fe45915-35b3-4340-afe8-c59b83773ced","system_id":"levelo_inurba_marseille","lat":43.31357,"lon":5.38496,"is_reserved":false,"is_disabled":false,"rental_uris":{"android":"levelo://app?vid=1fe45915-35b3-4340-afe8-c59b83773ced","ios":"levelo://app?vid=1fe45915-35b3-4340-afe8-c59b83773ced"},"vehicle_type_id":"4","last_reported":1725804483,"current_range_meters":23200,"station_id":"ce4bgt92rcd13ifvqcf0","pricing_plan_id":"cebpf4jnsgd1na2vs0mg"},{"bike_id":"aea56ced-aa62-41c2-b272-3e14db933018","system_id":"levelo_inurba_marseille","lat":43.29992,"lon":5.37181,"is_reserved":false,"is_disabled":false,"rental_uris":{"android":"levelo://app?vid=aea56ced-aa62-41c2-b272-3e14db933018","ios":"levelo://app?vid=aea56ced-aa62-41c2-b272-3e14db933018"},"vehicle_type_id":"4","last_reported":1725804483,"current_range_meters":30400,"station_id":"ce4bgr92rcd13ifvqc7g","pricing_plan_id":"cebpf4jnsgd1na2vs0mg"},{"bike_id":"116dc5ec-51ef-4032-87ca-7b25b7226ba4","system_id":"levelo_inurba_marseille","lat":43.299222,"lon":5.365554,"is_reserved":false,"is_disabled":false,"rental_uris":{"android":"levelo://app?vid=116dc5ec-51ef-4032-87ca-7b25b7226ba4","ios":"levelo://app?vid=116dc5ec-51ef-4032-87ca-7b25b7226ba4"},"vehicle_type_id":"4","last_reported":1725804483,"current_range_meters":31200,"station_id":"ce4bgm92rcd13ifvqbr0","pricing_plan_id":"cebpf4jnsgd1na2vs0mg"},{"bike_id":"13356f28-6565-4261-9299-aca5c23b4ed6","system_id":"levelo_inurba_marseille","lat":43.305714,"lon":5.365633,"is_reserved":false,"is_disabled":false,"rental_uris":{"android":"levelo://app?vid=13356f28-6565-4261-9299-aca5c23b4ed6","ios":"levelo://app?vid=13356f28-6565-4261-9299-aca5c23b4ed6"},"vehicle_type_id":"4","last_reported":1725804483,"current_range_meters":26800,"station_id":"ce4bgs12rcd13ifvqcag","pricing_plan_id":"cebpf4jnsgd1na2vs0mg"},{"bike_id":"c3dd71de-0552-4372-a0c9-44cd25e46254","system_id":"levelo_inurba_marseille","lat":43.299846,"lon":5.371733,"is_reserved":false,"is_disabled":false,"rental_uris":{"android":"levelo://app?vid=c3dd71de-0552-4372-a0c9-44cd25e46254","ios":"levelo://app?vid=c3dd71de-0552-4372-a0c9-44cd25e46254"},"vehicle_type_id":"4","last_reported":1725804483,"current_range_meters":28400,"station_id":"ce4bgr92rcd13ifvqc7g","pricing_plan_id":"cebpf4jnsgd1na2vs0mg"},{"bike_id":"9b49e0cb-04b5-440b-a829-0cdf2185e726","system_id":"levelo_inurba_marseille","lat":43.29941,"lon":5.36531,"is_reserved":false,"is_disabled":false,"rental_uris":{"android":"levelo://app?vid=9b49e0cb-04b5-440b-a829-0cdf2185e726","ios":"levelo://app?vid=9b49e0cb-04b5-440b-a829-0cdf2185e726"},"vehicle_type_id":"4","last_reported":1725804483,"current_range_meters":30000,"station_id":"","pricing_plan_id":"cebpf4jnsgd1na2vs0mg"},{"bike_id":"0fdd196b-8eaa-4aa5-8ee8-8ff0bac4e3f6","system_id":"levelo_inurba_marseille","lat":43.299388,"lon":5.365562,"is_reserved":false,"is_disabled":false,"rental_uris":{"android":"levelo://app?vid=0fdd196b-8eaa-4aa5-8ee8-8ff0bac4e3f6","ios":"levelo://app?vid=0fdd196b-8eaa-4aa5-8ee8-8ff0bac4e3f6"},"vehicle_type_id":"4","last_reported":1725804483,"current_range_meters":31200,"station_id":"ce4bgm92rcd13ifvqbr0","pricing_plan_id":"cebpf4jnsgd1na2vs0mg"},{"bike_id":"3839c3e3-5819-419d-b5c2-08af559b0d89","system_id":"levelo_inurba_marseille","lat":43.29937,"lon":5.36575,"is_reserved":false,"is_disabled":false,"rental_uris":{"android":"levelo://app?vid=3839c3e3-5819-419d-b5c2-08af559b0d89","ios":"levelo://app?vid=3839c3e3-5819-419d-b5c2-08af559b0d89"},"vehicle_type_id":"4","last_reported":1725804483,"current_range_meters":30400,"station_id":"ce4bgm92rcd13ifvqbr0","pricing_plan_id":"cebpf4jnsgd1na2vs0mg"},{"bike_id":"42a2199c-5be4-4675-8434-a8af3ab98193","system_id":"levelo_inurba_marseille","lat":43.299209,"lon":5.365547,"is_reserved":false,"is_disabled":false,"rental_uris":{"android":"levelo://app?vid=42a2199c-5be4-4675-8434-a8af3ab98193","ios":"levelo://app?vid=42a2199c-5be4-4675-8434-a8af3ab98193"},"vehicle_type_id":"4","last_reported":1725804483,"current_range_meters":31200,"station_id":"ce4bgm92rcd13ifvqbr0","pricing_plan_id":"cebpf4jnsgd1na2vs0mg"},{"bike_id":"2d672306-3364-4f07-b630-017f3b9325c3","system_id":"levelo_inurba_marseille","lat":43.299209,"lon":5.365547,"is_reserved":false,"is_disabled":false,"rental_uris":{"android":"levelo://app?vid=2d672306-3364-4f07-b630-017f3b9325c3","ios":"levelo://app?vid=2d672306-3364-4f07-b630-017f3b9325c3"},"vehicle_type_id":"4","last_reported":1725804483,"current_range_meters":26000,"station_id":"ce4bgm92rcd13ifvqbr0","pricing_plan_id":"cebpf4jnsgd1na2vs0mg"},{"bike_id":"8877cf97-ed94-44a9-9b6d-fd0b83f2cb82","system_id":"levelo_inurba_marseille","lat":43.299222,"lon":5.365554,"is_reserved":false,"is_disabled":false,"rental_uris":{"android":"levelo://app?vid=8877cf97-ed94-44a9-9b6d-fd0b83f2cb82","ios":"levelo://app?vid=8877cf97-ed94-44a9-9b6d-fd0b83f2cb82"},"vehicle_type_id":"4","last_reported":1725804483,"current_range_meters":28000,"station_id":"ce4bgm92rcd13ifvqbr0","pricing_plan_id":"cebpf4jnsgd1na2vs0mg"},{"bike_id":"cf2df0ed-bc6c-4d12-83cf-c055509ff66a","system_id":"levelo_inurba_marseille","lat":43.299222,"lon":5.365554,"is_reserved":false,"is_disabled":false,"rental_uris":{"android":"levelo://app?vid=cf2df0ed-bc6c-4d12-83cf-c055509ff66a","ios":"levelo://app?vid=cf2df0ed-bc6c-4d12-83cf-c055509ff66a"},"vehicle_type_id":"4","last_reported":1725804483,"current_range_meters":26800,"station_id":"ce4bgm92rcd13ifvqbr0","pricing_plan_id":"cebpf4jnsgd1na2vs0mg"},{"bike_id":"ad270efa-58bf-4058-bf5b-b7f1e1bb25e6","system_id":"levelo_inurba_marseille","lat":43.299724,"lon":5.371829,"is_reserved":false,"is_disabled":false,"rental_uris":{"android":"levelo://app?vid=ad270efa-58bf-4058-bf5b-b7f1e1bb25e6","ios":"levelo://app?vid=ad270efa-58bf-4058-bf5b-b7f1e1bb25e6"},"vehicle_type_id":"4","last_reported":1725804483,"current_range_meters":30000,"station_id":"ce4bgr92rcd13ifvqc7g","pricing_plan_id":"cebpf4jnsgd1na2vs0mg"},{"bike_id":"4e8960fe-a0fa-4c1c-b64f-8230ff39ea4a","system_id":"levelo_inurba_marseille","lat":43.299222,"lon":5.365554,"is_reserved":false,"is_disabled":false,"rental_uris":{"android":"levelo://app?vid=4e8960fe-a0fa-4c1c-b64f-8230ff39ea4a","ios":"levelo://app?vid=4e8960fe-a0fa-4c1c-b64f-8230ff39ea4a"},"vehicle_type_id":"4","last_reported":1725804483,"current_range_meters":30000,"station_id":"ce4bgm92rcd13ifvqbr0","pricing_plan_id":"cebpf4jnsgd1na2vs0mg"},{"bike_id":"ef2cf810-2bce-4bad-81e7-b580341c4245","system_id":"levelo_inurba_marseille","lat":43.29931,"lon":5.36534,"is_reserved":false,"is_disabled":false,"rental_uris":{"android":"levelo://app?vid=ef2cf810-2bce-4bad-81e7-b580341c4245","ios":"levelo://app?vid=ef2cf810-2bce-4bad-81e7-b580341c4245"},"vehicle_type_id":"4","last_reported":1725804483,"current_range_meters":31200,"station_id":"ce4bgm92rcd13ifvqbr0","pricing_plan_id":"cebpf4jnsgd1na2vs0mg"},{"bike_id":"5a949df6-d012-4a0a-adfe-5f93d2f0effd","system_id":"levelo_inurba_marseille","lat":43.298874,"lon":5.365403,"is_reserved":false,"is_disabled":false,"rental_uris":{"android":"levelo://app?vid=5a949df6-d012-4a0a-adfe-5f93d2f0effd","ios":"levelo://app?vid=5a949df6-d012-4a0a-adfe-5f93d2f0effd"},"vehicle_type_id":"4","last_reported":1725804483,"current_range_meters":20000,"station_id":"","pricing_plan_id":"cebpf4jnsgd1na2vs0mg"},{"bike_id":"f09c580d-038c-4160-a842-848f079f9984","system_id":"levelo_inurba_marseille","lat":43.29852,"lon":5.36287,"is_reserved":false,"is_disabled":false,"rental_uris":{"android":"levelo://app?vid=f09c580d-038c-4160-a842-848f079f9984","ios":"levelo://app?vid=f09c580d-038c-4160-a842-848f079f9984"},"vehicle_type_id":"4","last_reported":1725804483,"current_range_meters":400,"station_id":"ce4bgpp2rcd13ifvqc3g","pricing_plan_id":"cebpf4jnsgd1na2vs0mg"},{"bike_id":"058448a0-bd2a-4b63-ba06-20d193c6168d","system_id":"levelo_inurba_marseille","lat":43.29852,"lon":5.36285,"is_reserved":false,"is_disabled":false,"rental_uris":{"android":"levelo://app?vid=058448a0-bd2a-4b63-ba06-20d193c6168d","ios":"levelo://app?vid=058448a0-bd2a-4b63-ba06-20d193c6168d"},"vehicle_type_id":"4","last_reported":1725804483,"current_range_meters":30400,"station_id":"ce4bgpp2rcd13ifvqc3g","pricing_plan_id":"cebpf4jnsgd1na2vs0mg"},{"bike_id":"ba6f1909-b9d1-4770-8776-58cf22082d30","system_id":"levelo_inurba_marseille","lat":43.298433,"lon":5.362774,"is_reserved":false,"is_disabled":false,"rental_uris":{"android":"levelo://app?vid=ba6f1909-b9d1-4770-8776-58cf22082d30","ios":"levelo://app?vid=ba6f1909-b9d1-4770-8776-58cf22082d30"},"vehicle_type_id":"4","last_reported":1725804483,"current_range_meters":10400,"station_id":"ce4bgpp2rcd13ifvqc3g","pricing_plan_id":"cebpf4jnsgd1na2vs0mg"},{"bike_id":"ffcd3115-cae8-4b27-ac22-139df88b3afa","system_id":"levelo_inurba_marseille","lat":43.29851,"lon":5.36284,"is_reserved":false,"is_disabled":false,"rental_uris":{"android":"levelo://app?vid=ffcd3115-cae8-4b27-ac22-139df88b3afa","ios":"levelo://app?vid=ffcd3115-cae8-4b27-ac22-139df88b3afa"},"vehicle_type_id":"4","last_reported":1725804483,"current_range_meters":20800,"station_id":"ce4bgpp2rcd13ifvqc3g","pricing_plan_id":"cebpf4jnsgd1na2vs0mg"},{"bike_id":"f0fbad46-7b41-4a55-b27a-9926889ca175","system_id":"levelo_inurba_marseille","lat":43.29851,"lon":5.36284,"is_reserved":false,"is_disabled":false,"rental_uris":{"android":"levelo://app?vid=f0fbad46-7b41-4a55-b27a-9926889ca175","ios":"levelo://app?vid=f0fbad46-7b41-4a55-b27a-9926889ca175"},"vehicle_type_id":"4","last_reported":1725804483,"current_range_meters":27200,"station_id":"ce4bgpp2rcd13ifvqc3g","pricing_plan_id":"cebpf4jnsgd1na2vs0mg"},{"bike_id":"cf191c3c-1826-4e7d-81e8-e214a52e0e60","system_id":"levelo_inurba_marseille","lat":43.29851,"lon":5.36282,"is_reserved":false,"is_disabled":false,"rental_uris":{"android":"levelo://app?vid=cf191c3c-1826-4e7d-81e8-e214a52e0e60","ios":"levelo://app?vid=cf191c3c-1826-4e7d-81e8-e214a52e0e60"},"vehicle_type_id":"4","last_reported":1725804483,"current_range_meters":31200,"station_id":"ce4bgpp2rcd13ifvqc3g","pricing_plan_id":"cebpf4jnsgd1na2vs0mg"},{"bike_id":"a61829c3-632c-454e-9c9e-46023c922d0d","system_id":"levelo_inurba_marseille","lat":43.305364,"lon":5.384119,"is_reserved":false,"is_disabled":false,"rental_uris":{"android":"levelo://app?vid=a61829c3-632c-454e-9c9e-46023c922d0d","ios":"levelo://app?vid=a61829c3-632c-454e-9c9e-46023c922d0d"},"vehicle_type_id":"4","last_reported":1725804483,"current_range_meters":26400,"station_id":"ce4bgg92rcd13ifvqb30","pricing_plan_id":"cebpf4jnsgd1na2vs0mg"},{"bike_id":"685bea2a-9637-4f17-9b11-0badebd37d7f","system_id":"levelo_inurba_marseille","lat":43.29849,"lon":5.36282,"is_reserved":false,"is_disabled":false,"rental_uris":{"android":"levelo://app?vid=685bea2a-9637-4f17-9b11-0badebd37d7f","ios":"levelo://app?vid=685bea2a-9637-4f17-9b11-0badebd37d7f"},"vehicle_type_id":"4","last_reported":1725804483,"current_range_meters":25200,"station_id":"ce4bgpp2rcd13ifvqc3g","pricing_plan_id":"cebpf4jnsgd1na2vs0mg"},{"bike_id":"a2288b14-3eef-4bd7-a5bc-b125b364182f","system_id":"levelo_inurba_marseille","lat":43.299243,"lon":5.37481,"is_reserved":false,"is_disabled":false,"rental_uris":{"android":"levelo://app?vid=a2288b14-3eef-4bd7-a5bc-b125b364182f","ios":"levelo://app?vid=a2288b14-3eef-4bd7-a5bc-b125b364182f"},"vehicle_type_id":"4","last_reported":1725804483,"current_range_meters":400,"station_id":"ce4bgjh2rcd13ifvqbg0","pricing_plan_id":"cebpf4jnsgd1na2vs0mg"},{"bike_id":"2add7d66-bbdc-4e39-883f-55d510c0c32f","system_id":"levelo_inurba_marseille","lat":43.298433,"lon":5.362774,"is_reserved":false,"is_disabled":false,"rental_uris":{"android":"levelo://app?vid=2add7d66-bbdc-4e39-883f-55d510c0c32f","ios":"levelo://app?vid=2add7d66-bbdc-4e39-883f-55d510c0c32f"},"vehicle_type_id":"4","last_reported":1725804483,"current_range_meters":22800,"station_id":"ce4bgpp2rcd13ifvqc3g","pricing_plan_id":"cebpf4jnsgd1na2vs0mg"},{"bike_id":"c42750ed-4a34-493b-8a28-c73036ca477e","system_id":"levelo_inurba_marseille","lat":43.298433,"lon":5.362774,"is_reserved":false,"is_disabled":false,"rental_uris":{"android":"levelo://app?vid=c42750ed-4a34-493b-8a28-c73036ca477e","ios":"levelo://app?vid=c42750ed-4a34-493b-8a28-c73036ca477e"},"vehicle_type_id":"4","last_reported":1725804483,"current_range_meters":28800,"station_id":"ce4bgpp2rcd13ifvqc3g","pricing_plan_id":"cebpf4jnsgd1na2vs0mg"},{"bike_id":"938c49be-b5cb-4d23-bf54-133538246bd3","system_id":"levelo_inurba_marseille","lat":43.298433,"lon":5.362774,"is_reserved":false,"is_disabled":false,"rental_uris":{"android":"levelo://app?vid=938c49be-b5cb-4d23-bf54-133538246bd3","ios":"levelo://app?vid=938c49be-b5cb-4d23-bf54-133538246bd3"},"vehicle_type_id":"4","last_reported":1725804483,"current_range_meters":12400,"station_id":"ce4bgpp2rcd13ifvqc3g","pricing_plan_id":"cebpf4jnsgd1na2vs0mg"},{"bike_id":"05aca169-f400-4163-b1e6-25d374c1612b","system_id":"levelo_inurba_marseille","lat":43.298433,"lon":5.362774,"is_reserved":false,"is_disabled":false,"rental_uris":{"android":"levelo://app?vid=05aca169-f400-4163-b1e6-25d374c1612b","ios":"levelo://app?vid=05aca169-f400-4163-b1e6-25d374c1612b"},"vehicle_type_id":"4","last_reported":1725804483,"current_range_meters":31200,"station_id":"ce4bgpp2rcd13ifvqc3g","pricing_plan_id":"cebpf4jnsgd1na2vs0mg"},{"bike_id":"bb7ada77-dc49-49f6-9ee8-9605778964e2","system_id":"levelo_inurba_marseille","lat":43.298433,"lon":5.362774,"is_reserved":false,"is_disabled":false,"rental_uris":{"android":"levelo://app?vid=bb7ada77-dc49-49f6-9ee8-9605778964e2","ios":"levelo://app?vid=bb7ada77-dc49-49f6-9ee8-9605778964e2"},"vehicle_type_id":"4","last_reported":1725804483,"current_range_meters":24000,"station_id":"ce4bgpp2rcd13ifvqc3g","pricing_plan_id":"cebpf4jnsgd1na2vs0mg"},{"bike_id":"b1e008aa-b2a0-4bc4-b5bd-657dd1de437e","system_id":"levelo_inurba_marseille","lat":43.298433,"lon":5.362774,"is_reserved":false,"is_disabled":false,"rental_uris":{"android":"levelo://app?vid=b1e008aa-b2a0-4bc4-b5bd-657dd1de437e","ios":"levelo://app?vid=b1e008aa-b2a0-4bc4-b5bd-657dd1de437e"},"vehicle_type_id":"4","last_reported":1725804483,"current_range_meters":28000,"station_id":"ce4bgpp2rcd13ifvqc3g","pricing_plan_id":"cebpf4jnsgd1na2vs0mg"},{"bike_id":"12205af0-af8d-4ebd-b9a5-560527db42cd","system_id":"levelo_inurba_marseille","lat":43.298433,"lon":5.362774,"is_reserved":false,"is_disabled":false,"rental_uris":{"android":"levelo://app?vid=12205af0-af8d-4ebd-b9a5-560527db42cd","ios":"levelo://app?vid=12205af0-af8d-4ebd-b9a5-560527db42cd"},"vehicle_type_id":"4","last_reported":1725804483,"current_range_meters":31200,"station_id":"ce4bgpp2rcd13ifvqc3g","pricing_plan_id":"cebpf4jnsgd1na2vs0mg"},{"bike_id":"77c62d63-455f-40eb-be21-04dc90a12dd1","system_id":"levelo_inurba_marseille","lat":43.298433,"lon":5.362774,"is_reserved":false,"is_disabled":false,"rental_uris":{"android":"levelo://app?vid=77c62d63-455f-40eb-be21-04dc90a12dd1","ios":"levelo://app?vid=77c62d63-455f-40eb-be21-04dc90a12dd1"},"vehicle_type_id":"4","last_reported":1725804483,"current_range_meters":26800,"station_id":"ce4bgpp2rcd13ifvqc3g","pricing_plan_id":"cebpf4jnsgd1na2vs0mg"},{"bike_id":"f842539c-bd16-44ca-84cf-379da0e61d1e","system_id":"levelo_inurba_marseille","lat":43.298433,"lon":5.362774,"is_reserved":false,"is_disabled":false,"rental_uris":{"android":"levelo://app?vid=f842539c-bd16-44ca-84cf-379da0e61d1e","ios":"levelo://app?vid=f842539c-bd16-44ca-84cf-379da0e61d1e"},"vehicle_type_id":"4","last_reported":1725804483,"current_range_meters":22800,"station_id":"ce4bgpp2rcd13ifvqc3g","pricing_plan_id":"cebpf4jnsgd1na2vs0mg"},{"bike_id":"479838c4-0521-4c15-8891-754be6cea2c7","system_id":"levelo_inurba_marseille","lat":43.298433,"lon":5.362774,"is_reserved":false,"is_disabled":false,"rental_uris":{"android":"levelo://app?vid=479838c4-0521-4c15-8891-754be6cea2c7","ios":"levelo://app?vid=479838c4-0521-4c15-8891-754be6cea2c7"},"vehicle_type_id":"4","last_reported":1725804483,"current_range_meters":11600,"station_id":"ce4bgpp2rcd13ifvqc3g","pricing_plan_id":"cebpf4jnsgd1na2vs0mg"},{"bike_id":"0da7c128-10bd-49ce-8336-0bf6b6f4d6ce","system_id":"levelo_inurba_marseille","lat":43.298433,"lon":5.362774,"is_reserved":false,"is_disabled":false,"rental_uris":{"android":"levelo://app?vid=0da7c128-10bd-49ce-8336-0bf6b6f4d6ce","ios":"levelo://app?vid=0da7c128-10bd-49ce-8336-0bf6b6f4d6ce"},"vehicle_type_id":"4","last_reported":1725804483,"current_range_meters":31200,"station_id":"ce4bgpp2rcd13ifvqc3g","pricing_plan_id":"cebpf4jnsgd1na2vs0mg"},{"bike_id":"5c556bf6-fd3e-4a63-be7f-a8d25072b47a","system_id":"levelo_inurba_marseille","lat":43.298433,"lon":5.362774,"is_reserved":false,"is_disabled":false,"rental_uris":{"android":"levelo://app?vid=5c556bf6-fd3e-4a63-be7f-a8d25072b47a","ios":"levelo://app?vid=5c556bf6-fd3e-4a63-be7f-a8d25072b47a"},"vehicle_type_id":"4","last_reported":1725804483,"current_range_meters":31200,"station_id":"ce4bgpp2rcd13ifvqc3g","pricing_plan_id":"cebpf4jnsgd1na2vs0mg"},{"bike_id":"f0e9bd7f-41cf-44fb-bba1-476bde90fbc4","system_id":"levelo_inurba_marseille","lat":43.298433,"lon":5.362774,"is_reserved":false,"is_disabled":false,"rental_uris":{"android":"levelo://app?vid=f0e9bd7f-41cf-44fb-bba1-476bde90fbc4","ios":"levelo://app?vid=f0e9bd7f-41cf-44fb-bba1-476bde90fbc4"},"vehicle_type_id":"4","last_reported":1725804483,"current_range_meters":31200,"station_id":"ce4bgpp2rcd13ifvqc3g","pricing_plan_id":"cebpf4jnsgd1na2vs0mg"},{"bike_id":"ededc385-8e6f-4bc4-bcaf-12e7c1c38d5b","system_id":"levelo_inurba_marseille","lat":43.31175,"lon":5.38711,"is_reserved":false,"is_disabled":false,"rental_uris":{"android":"levelo://app?vid=ededc385-8e6f-4bc4-bcaf-12e7c1c38d5b","ios":"levelo://app?vid=ededc385-8e6f-4bc4-bcaf-12e7c1c38d5b"},"vehicle_type_id":"4","last_reported":1725804483,"current_range_meters":30000,"station_id":"ce4bgv12rcd13ifvqcp0","pricing_plan_id":"cebpf4jnsgd1na2vs0mg"},{"bike_id":"10c522ef-0e1e-4b14-a5b0-71a03df9bee9","system_id":"levelo_inurba_marseille","lat":43.311722,"lon":5.387247,"is_reserved":false,"is_disabled":false,"rental_uris":{"android":"levelo://app?vid=10c522ef-0e1e-4b14-a5b0-71a03df9bee9","ios":"levelo://app?vid=10c522ef-0e1e-4b14-a5b0-71a03df9bee9"},"vehicle_type_id":"4","last_reported":1725804483,"current_range_meters":14800,"station_id":"ce4bgv12rcd13ifvqcp0","pricing_plan_id":"cebpf4jnsgd1na2vs0mg"},{"bike_id":"9abbaf5b-2f47-491e-bbec-a64c32338273","system_id":"levelo_inurba_marseille","lat":43.299243,"lon":5.37481,"is_reserved":false,"is_disabled":false,"rental_uris":{"android":"levelo://app?vid=9abbaf5b-2f47-491e-bbec-a64c32338273","ios":"levelo://app?vid=9abbaf5b-2f47-491e-bbec-a64c32338273"},"vehicle_type_id":"4","last_reported":1725804483,"current_range_meters":29600,"station_id":"ce4bgjh2rcd13ifvqbg0","pricing_plan_id":"cebpf4jnsgd1na2vs0mg"},{"bike_id":"066914fc-f303-4daa-82d7-72b55e606d74","system_id":"levelo_inurba_marseille","lat":43.31174,"lon":5.38716,"is_reserved":false,"is_disabled":false,"rental_uris":{"android":"levelo://app?vid=066914fc-f303-4daa-82d7-72b55e606d74","ios":"levelo://app?vid=066914fc-f303-4daa-82d7-72b55e606d74"},"vehicle_type_id":"4","last_reported":1725804483,"current_range_meters":30800,"station_id":"ce4bgv12rcd13ifvqcp0","pricing_plan_id":"cebpf4jnsgd1na2vs0mg"},{"bike_id":"8e7caa8c-3f76-443e-8fe1-f8e4f7809f52","system_id":"levelo_inurba_marseille","lat":43.311722,"lon":5.387247,"is_reserved":false,"is_disabled":false,"rental_uris":{"android":"levelo://app?vid=8e7caa8c-3f76-443e-8fe1-f8e4f7809f52","ios":"levelo://app?vid=8e7caa8c-3f76-443e-8fe1-f8e4f7809f52"},"vehicle_type_id":"4","last_reported":1725804483,"current_range_meters":16800,"station_id":"ce4bgv12rcd13ifvqcp0","pricing_plan_id":"cebpf4jnsgd1na2vs0mg"},{"bike_id":"800121d8-54e0-4f0a-9264-cb9550761254","system_id":"levelo_inurba_marseille","lat":43.311722,"lon":5.387247,"is_reserved":false,"is_disabled":false,"rental_uris":{"android":"levelo://app?vid=800121d8-54e0-4f0a-9264-cb9550761254","ios":"levelo://app?vid=800121d8-54e0-4f0a-9264-cb9550761254"},"vehicle_type_id":"4","last_reported":1725804483,"current_range_meters":27600,"station_id":"ce4bgv12rcd13ifvqcp0","pricing_plan_id":"cebpf4jnsgd1na2vs0mg"},{"bike_id":"adcfdeaa-950d-4122-ba15-70398ce2c125","system_id":"levelo_inurba_marseille","lat":43.311722,"lon":5.387247,"is_reserved":false,"is_disabled":false,"rental_uris":{"android":"levelo://app?vid=adcfdeaa-950d-4122-ba15-70398ce2c125","ios":"levelo://app?vid=adcfdeaa-950d-4122-ba15-70398ce2c125"},"vehicle_type_id":"4","last_reported":1725804483,"current_range_meters":30400,"station_id":"ce4bgv12rcd13ifvqcp0","pricing_plan_id":"cebpf4jnsgd1na2vs0mg"},{"bike_id":"4448f474-e925-4af0-8ab7-834d115a8867","system_id":"levelo_inurba_marseille","lat":43.31954,"lon":5.38533,"is_reserved":false,"is_disabled":false,"rental_uris":{"android":"levelo://app?vid=4448f474-e925-4af0-8ab7-834d115a8867","ios":"levelo://app?vid=4448f474-e925-4af0-8ab7-834d115a8867"},"vehicle_type_id":"4","last_reported":1725804483,"current_range_meters":3200,"station_id":"","pricing_plan_id":"cebpf4jnsgd1na2vs0mg"},{"bike_id":"4ae51d6b-aaaf-442a-873d-f8eca9a3e7b5","system_id":"levelo_inurba_marseille","lat":43.320725,"lon":5.384443,"is_reserved":false,"is_disabled":false,"rental_uris":{"android":"levelo://app?vid=4ae51d6b-aaaf-442a-873d-f8eca9a3e7b5","ios":"levelo://app?vid=4ae51d6b-aaaf-442a-873d-f8eca9a3e7b5"},"vehicle_type_id":"4","last_reported":1725804483,"current_range_meters":2400,"station_id":"","pricing_plan_id":"cebpf4jnsgd1na2vs0mg"},{"bike_id":"4f100a69-7a41-42d9-a108-e773f38c3332","system_id":"levelo_inurba_marseille","lat":43.301417,"lon":5.3809,"is_reserved":false,"is_disabled":false,"rental_uris":{"android":"levelo://app?vid=4f100a69-7a41-42d9-a108-e773f38c3332","ios":"levelo://app?vid=4f100a69-7a41-42d9-a108-e773f38c3332"},"vehicle_type_id":"4","last_reported":1725804483,"current_range_meters":23200,"station_id":"ce4bgjp2rcd13ifvqbh0","pricing_plan_id":"cebpf4jnsgd1na2vs0mg"},{"bike_id":"10087b81-7c49-422b-9645-5aedac954a67","system_id":"levelo_inurba_marseille","lat":43.301417,"lon":5.3809,"is_reserved":false,"is_disabled":false,"rental_uris":{"android":"levelo://app?vid=10087b81-7c49-422b-9645-5aedac954a67","ios":"levelo://app?vid=10087b81-7c49-422b-9645-5aedac954a67"},"vehicle_type_id":"4","last_reported":1725804483,"current_range_meters":12400,"station_id":"ce4bgjp2rcd13ifvqbh0","pricing_plan_id":"cebpf4jnsgd1na2vs0mg"},{"bike_id":"c833ead8-66ae-494e-9aac-e18504b3176e","system_id":"levelo_inurba_marseille","lat":43.301417,"lon":5.3809,"is_reserved":false,"is_disabled":false,"rental_uris":{"android":"levelo://app?vid=c833ead8-66ae-494e-9aac-e18504b3176e","ios":"levelo://app?vid=c833ead8-66ae-494e-9aac-e18504b3176e"},"vehicle_type_id":"4","last_reported":1725804483,"current_range_meters":2800,"station_id":"ce4bgjp2rcd13ifvqbh0","pricing_plan_id":"cebpf4jnsgd1na2vs0mg"},{"bike_id":"333f7050-785c-4f3d-b99d-89fc84490fc2","system_id":"levelo_inurba_marseille","lat":43.301417,"lon":5.3809,"is_reserved":false,"is_disabled":false,"rental_uris":{"android":"levelo://app?vid=333f7050-785c-4f3d-b99d-89fc84490fc2","ios":"levelo://app?vid=333f7050-785c-4f3d-b99d-89fc84490fc2"},"vehicle_type_id":"4","last_reported":1725804483,"current_range_meters":14800,"station_id":"ce4bgjp2rcd13ifvqbh0","pricing_plan_id":"cebpf4jnsgd1na2vs0mg"},{"bike_id":"6eccce3f-c7e9-45dc-bf25-584905c81eff","system_id":"levelo_inurba_marseille","lat":43.297774,"lon":5.370875,"is_reserved":false,"is_disabled":false,"rental_uris":{"android":"levelo://app?vid=6eccce3f-c7e9-45dc-bf25-584905c81eff","ios":"levelo://app?vid=6eccce3f-c7e9-45dc-bf25-584905c81eff"},"vehicle_type_id":"4","last_reported":1725804483,"current_range_meters":17600,"station_id":"ce4bgop2rcd13ifvqc1g","pricing_plan_id":"cebpf4jnsgd1na2vs0mg"},{"bike_id":"fe5989f2-3e50-4a8d-a847-6a4800f66bed","system_id":"levelo_inurba_marseille","lat":43.305989,"lon":5.37225,"is_reserved":false,"is_disabled":false,"rental_uris":{"android":"levelo://app?vid=fe5989f2-3e50-4a8d-a847-6a4800f66bed","ios":"levelo://app?vid=fe5989f2-3e50-4a8d-a847-6a4800f66bed"},"vehicle_type_id":"4","last_reported":1725804483,"current_range_meters":25200,"station_id":"ce4bgqh2rcd13ifvqc4g","pricing_plan_id":"cebpf4jnsgd1na2vs0mg"},{"bike_id":"6367e4bf-391c-46c0-baae-484b54643267","system_id":"levelo_inurba_marseille","lat":43.29782,"lon":5.37092,"is_reserved":false,"is_disabled":false,"rental_uris":{"android":"levelo://app?vid=6367e4bf-391c-46c0-baae-484b54643267","ios":"levelo://app?vid=6367e4bf-391c-46c0-baae-484b54643267"},"vehicle_type_id":"4","last_reported":1725804483,"current_range_meters":2400,"station_id":"ce4bgop2rcd13ifvqc1g","pricing_plan_id":"cebpf4jnsgd1na2vs0mg"},{"bike_id":"62953769-bad5-49c0-81ed-44b4d9f5698f","system_id":"levelo_inurba_marseille","lat":43.297845,"lon":5.371125,"is_reserved":false,"is_disabled":false,"rental_uris":{"android":"levelo://app?vid=62953769-bad5-49c0-81ed-44b4d9f5698f","ios":"levelo://app?vid=62953769-bad5-49c0-81ed-44b4d9f5698f"},"vehicle_type_id":"4","last_reported":1725804483,"current_range_meters":25600,"station_id":"ce4bgop2rcd13ifvqc1g","pricing_plan_id":"cebpf4jnsgd1na2vs0mg"},{"bike_id":"3ffc5efa-7b67-48be-9142-3afb146747e0","system_id":"levelo_inurba_marseille","lat":43.297774,"lon":5.370875,"is_reserved":false,"is_disabled":false,"rental_uris":{"android":"levelo://app?vid=3ffc5efa-7b67-48be-9142-3afb146747e0","ios":"levelo://app?vid=3ffc5efa-7b67-48be-9142-3afb146747e0"},"vehicle_type_id":"4","last_reported":1725804483,"current_range_meters":27200,"station_id":"ce4bgop2rcd13ifvqc1g","pricing_plan_id":"cebpf4jnsgd1na2vs0mg"},{"bike_id":"9d4d4ad3-9fa4-4394-8995-8a5887e80cc8","system_id":"levelo_inurba_marseille","lat":43.32283,"lon":5.38261,"is_reserved":false,"is_disabled":false,"rental_uris":{"android":"levelo://app?vid=9d4d4ad3-9fa4-4394-8995-8a5887e80cc8","ios":"levelo://app?vid=9d4d4ad3-9fa4-4394-8995-8a5887e80cc8"},"vehicle_type_id":"4","last_reported":1725804483,"current_range_meters":6400,"station_id":"ce4bhr12rcd13ifvqhqg","pricing_plan_id":"cebpf4jnsgd1na2vs0mg"},{"bike_id":"1bef5fa3-8c5f-47b2-b437-481c95bc689d","system_id":"levelo_inurba_marseille","lat":43.32297,"lon":5.38255,"is_reserved":false,"is_disabled":false,"rental_uris":{"android":"levelo://app?vid=1bef5fa3-8c5f-47b2-b437-481c95bc689d","ios":"levelo://app?vid=1bef5fa3-8c5f-47b2-b437-481c95bc689d"},"vehicle_type_id":"4","last_reported":1725804483,"current_range_meters":24800,"station_id":"ce4bhr12rcd13ifvqhqg","pricing_plan_id":"cebpf4jnsgd1na2vs0mg"},{"bike_id":"2e865a37-4525-4154-bfa5-2e253b800524","system_id":"levelo_inurba_marseille","lat":43.322872,"lon":5.382756,"is_reserved":false,"is_disabled":false,"rental_uris":{"android":"levelo://app?vid=2e865a37-4525-4154-bfa5-2e253b800524","ios":"levelo://app?vid=2e865a37-4525-4154-bfa5-2e253b800524"},"vehicle_type_id":"4","last_reported":1725804483,"current_range_meters":29600,"station_id":"ce4bhr12rcd13ifvqhqg","pricing_plan_id":"cebpf4jnsgd1na2vs0mg"},{"bike_id":"b383897e-21d1-4117-b063-37e079e619a6","system_id":"levelo_inurba_marseille","lat":43.322872,"lon":5.382756,"is_reserved":false,"is_disabled":false,"rental_uris":{"android":"levelo://app?vid=b383897e-21d1-4117-b063-37e079e619a6","ios":"levelo://app?vid=b383897e-21d1-4117-b063-37e079e619a6"},"vehicle_type_id":"4","last_reported":1725804483,"current_range_meters":8400,"station_id":"ce4bhr12rcd13ifvqhqg","pricing_plan_id":"cebpf4jnsgd1na2vs0mg"},{"bike_id":"747086a0-cf64-4ad5-a085-5a8d6c35d300","system_id":"levelo_inurba_marseille","lat":43.32288,"lon":5.38276,"is_reserved":false,"is_disabled":false,"rental_uris":{"android":"levelo://app?vid=747086a0-cf64-4ad5-a085-5a8d6c35d300","ios":"levelo://app?vid=747086a0-cf64-4ad5-a085-5a8d6c35d300"},"vehicle_type_id":"4","last_reported":1725804483,"current_range_meters":29600,"station_id":"ce4bhr12rcd13ifvqhqg","pricing_plan_id":"cebpf4jnsgd1na2vs0mg"},{"bike_id":"e47dafff-d558-47f1-a802-dce1da8c7360","system_id":"levelo_inurba_marseille","lat":43.322872,"lon":5.382756,"is_reserved":false,"is_disabled":false,"rental_uris":{"android":"levelo://app?vid=e47dafff-d558-47f1-a802-dce1da8c7360","ios":"levelo://app?vid=e47dafff-d558-47f1-a802-dce1da8c7360"},"vehicle_type_id":"4","last_reported":1725804483,"current_range_meters":27600,"station_id":"ce4bhr12rcd13ifvqhqg","pricing_plan_id":"cebpf4jnsgd1na2vs0mg"},{"bike_id":"105bc4e8-c71e-4b5d-b34c-269838fe1e0e","system_id":"levelo_inurba_marseille","lat":43.31586,"lon":5.3887,"is_reserved":false,"is_disabled":false,"rental_uris":{"android":"levelo://app?vid=105bc4e8-c71e-4b5d-b34c-269838fe1e0e","ios":"levelo://app?vid=105bc4e8-c71e-4b5d-b34c-269838fe1e0e"},"vehicle_type_id":"4","last_reported":1725804483,"current_range_meters":10400,"station_id":"","pricing_plan_id":"cebpf4jnsgd1na2vs0mg"},{"bike_id":"8a8887de-5c7d-4b1c-91b2-78e9c920b48d","system_id":"levelo_inurba_marseille","lat":43.2968,"lon":5.37291,"is_reserved":false,"is_disabled":false,"rental_uris":{"android":"levelo://app?vid=8a8887de-5c7d-4b1c-91b2-78e9c920b48d","ios":"levelo://app?vid=8a8887de-5c7d-4b1c-91b2-78e9c920b48d"},"vehicle_type_id":"4","last_reported":1725804483,"current_range_meters":29200,"station_id":"ce4bgk12rcd13ifvqbj0","pricing_plan_id":"cebpf4jnsgd1na2vs0mg"},{"bike_id":"07af6f08-87ac-42f9-af77-27c9fe0a1751","system_id":"levelo_inurba_marseille","lat":43.2968,"lon":5.37291,"is_reserved":false,"is_disabled":false,"rental_uris":{"android":"levelo://app?vid=07af6f08-87ac-42f9-af77-27c9fe0a1751","ios":"levelo://app?vid=07af6f08-87ac-42f9-af77-27c9fe0a1751"},"vehicle_type_id":"4","last_reported":1725804483,"current_range_meters":31200,"station_id":"ce4bgk12rcd13ifvqbj0","pricing_plan_id":"cebpf4jnsgd1na2vs0mg"},{"bike_id":"cfc71a4f-a4bc-48f6-8d6b-bbee054c66a6","system_id":"levelo_inurba_marseille","lat":43.2968,"lon":5.37291,"is_reserved":false,"is_disabled":false,"rental_uris":{"android":"levelo://app?vid=cfc71a4f-a4bc-48f6-8d6b-bbee054c66a6","ios":"levelo://app?vid=cfc71a4f-a4bc-48f6-8d6b-bbee054c66a6"},"vehicle_type_id":"4","last_reported":1725804483,"current_range_meters":8000,"station_id":"ce4bgk12rcd13ifvqbj0","pricing_plan_id":"cebpf4jnsgd1na2vs0mg"},{"bike_id":"a8e0b420-32ae-48b2-a81c-14aae0204cc1","system_id":"levelo_inurba_marseille","lat":43.29573,"lon":5.367355,"is_reserved":false,"is_disabled":false,"rental_uris":{"android":"levelo://app?vid=a8e0b420-32ae-48b2-a81c-14aae0204cc1","ios":"levelo://app?vid=a8e0b420-32ae-48b2-a81c-14aae0204cc1"},"vehicle_type_id":"4","last_reported":1725804483,"current_range_meters":15200,"station_id":"ce4bgph2rcd13ifvqc2g","pricing_plan_id":"cebpf4jnsgd1na2vs0mg"},{"bike_id":"5c602568-e913-4010-b141-bc8ce706b8c7","system_id":"levelo_inurba_marseille","lat":43.296921,"lon":5.376579,"is_reserved":false,"is_disabled":false,"rental_uris":{"android":"levelo://app?vid=5c602568-e913-4010-b141-bc8ce706b8c7","ios":"levelo://app?vid=5c602568-e913-4010-b141-bc8ce706b8c7"},"vehicle_type_id":"4","last_reported":1725804483,"current_range_meters":16400,"station_id":"ce4bgkh2rcd13ifvqbl0","pricing_plan_id":"cebpf4jnsgd1na2vs0mg"},{"bike_id":"443d239f-c0af-42ec-b1ae-390f449c4662","system_id":"levelo_inurba_marseille","lat":43.299028,"lon":5.381509,"is_reserved":false,"is_disabled":false,"rental_uris":{"android":"levelo://app?vid=443d239f-c0af-42ec-b1ae-390f449c4662","ios":"levelo://app?vid=443d239f-c0af-42ec-b1ae-390f449c4662"},"vehicle_type_id":"4","last_reported":1725804483,"current_range_meters":12000,"station_id":"ce4bgj12rcd13ifvqbc0","pricing_plan_id":"cebpf4jnsgd1na2vs0mg"},{"bike_id":"37b5e02d-f8d3-48f4-b0e6-ce97b1617ee1","system_id":"levelo_inurba_marseille","lat":43.309589,"lon":5.390258,"is_reserved":false,"is_disabled":false,"rental_uris":{"android":"levelo://app?vid=37b5e02d-f8d3-48f4-b0e6-ce97b1617ee1","ios":"levelo://app?vid=37b5e02d-f8d3-48f4-b0e6-ce97b1617ee1"},"vehicle_type_id":"4","last_reported":1725804483,"current_range_meters":26400,"station_id":"ce4bgup2rcd13ifvqco0","pricing_plan_id":"cebpf4jnsgd1na2vs0mg"},{"bike_id":"1780098d-4ab1-4aca-a350-3f87d61323e1","system_id":"levelo_inurba_marseille","lat":43.309589,"lon":5.390258,"is_reserved":false,"is_disabled":false,"rental_uris":{"android":"levelo://app?vid=1780098d-4ab1-4aca-a350-3f87d61323e1","ios":"levelo://app?vid=1780098d-4ab1-4aca-a350-3f87d61323e1"},"vehicle_type_id":"4","last_reported":1725804483,"current_range_meters":21600,"station_id":"ce4bgup2rcd13ifvqco0","pricing_plan_id":"cebpf4jnsgd1na2vs0mg"},{"bike_id":"a72d345d-6ef5-4a8b-995f-54823381fb33","system_id":"levelo_inurba_marseille","lat":43.309589,"lon":5.390258,"is_reserved":false,"is_disabled":false,"rental_uris":{"android":"levelo://app?vid=a72d345d-6ef5-4a8b-995f-54823381fb33","ios":"levelo://app?vid=a72d345d-6ef5-4a8b-995f-54823381fb33"},"vehicle_type_id":"4","last_reported":1725804483,"current_range_meters":29200,"station_id":"ce4bgup2rcd13ifvqco0","pricing_plan_id":"cebpf4jnsgd1na2vs0mg"},{"bike_id":"325ad120-1c0d-442c-9451-30507275ca90","system_id":"levelo_inurba_marseille","lat":43.309589,"lon":5.390258,"is_reserved":false,"is_disabled":false,"rental_uris":{"android":"levelo://app?vid=325ad120-1c0d-442c-9451-30507275ca90","ios":"levelo://app?vid=325ad120-1c0d-442c-9451-30507275ca90"},"vehicle_type_id":"4","last_reported":1725804483,"current_range_meters":16000,"station_id":"ce4bgup2rcd13ifvqco0","pricing_plan_id":"cebpf4jnsgd1na2vs0mg"},{"bike_id":"1563b6ef-082c-4128-8e87-c9809604e6bd","system_id":"levelo_inurba_marseille","lat":43.309589,"lon":5.390258,"is_reserved":false,"is_disabled":false,"rental_uris":{"android":"levelo://app?vid=1563b6ef-082c-4128-8e87-c9809604e6bd","ios":"levelo://app?vid=1563b6ef-082c-4128-8e87-c9809604e6bd"},"vehicle_type_id":"4","last_reported":1725804483,"current_range_meters":21600,"station_id":"ce4bgup2rcd13ifvqco0","pricing_plan_id":"cebpf4jnsgd1na2vs0mg"},{"bike_id":"69772260-041c-4499-bf23-387a18250881","system_id":"levelo_inurba_marseille","lat":43.309589,"lon":5.390258,"is_reserved":false,"is_disabled":false,"rental_uris":{"android":"levelo://app?vid=69772260-041c-4499-bf23-387a18250881","ios":"levelo://app?vid=69772260-041c-4499-bf23-387a18250881"},"vehicle_type_id":"4","last_reported":1725804483,"current_range_meters":19200,"station_id":"ce4bgup2rcd13ifvqco0","pricing_plan_id":"cebpf4jnsgd1na2vs0mg"},{"bike_id":"5a23770b-85ac-4b93-aa62-52544b94e808","system_id":"levelo_inurba_marseille","lat":43.296921,"lon":5.376579,"is_reserved":false,"is_disabled":false,"rental_uris":{"android":"levelo://app?vid=5a23770b-85ac-4b93-aa62-52544b94e808","ios":"levelo://app?vid=5a23770b-85ac-4b93-aa62-52544b94e808"},"vehicle_type_id":"4","last_reported":1725804483,"current_range_meters":13600,"station_id":"ce4bgkh2rcd13ifvqbl0","pricing_plan_id":"cebpf4jnsgd1na2vs0mg"},{"bike_id":"77d86d01-8b12-4033-86f3-268f63108214","system_id":"levelo_inurba_marseille","lat":43.309589,"lon":5.390258,"is_reserved":false,"is_disabled":false,"rental_uris":{"android":"levelo://app?vid=77d86d01-8b12-4033-86f3-268f63108214","ios":"levelo://app?vid=77d86d01-8b12-4033-86f3-268f63108214"},"vehicle_type_id":"4","last_reported":1725804483,"current_range_meters":16400,"station_id":"ce4bgup2rcd13ifvqco0","pricing_plan_id":"cebpf4jnsgd1na2vs0mg"},{"bike_id":"6c060425-59f3-4d06-ab07-5eec12f35a57","system_id":"levelo_inurba_marseille","lat":43.309589,"lon":5.390258,"is_reserved":false,"is_disabled":false,"rental_uris":{"android":"levelo://app?vid=6c060425-59f3-4d06-ab07-5eec12f35a57","ios":"levelo://app?vid=6c060425-59f3-4d06-ab07-5eec12f35a57"},"vehicle_type_id":"4","last_reported":1725804483,"current_range_meters":22000,"station_id":"ce4bgup2rcd13ifvqco0","pricing_plan_id":"cebpf4jnsgd1na2vs0mg"},{"bike_id":"9eaf78ea-975f-446c-bb37-4949d6f5be54","system_id":"levelo_inurba_marseille","lat":43.29662,"lon":5.37623,"is_reserved":false,"is_disabled":false,"rental_uris":{"android":"levelo://app?vid=9eaf78ea-975f-446c-bb37-4949d6f5be54","ios":"levelo://app?vid=9eaf78ea-975f-446c-bb37-4949d6f5be54"},"vehicle_type_id":"4","last_reported":1725804483,"current_range_meters":30800,"station_id":"","pricing_plan_id":"cebpf4jnsgd1na2vs0mg"},{"bike_id":"10f69fe8-7773-460f-8cbc-84d5043d302b","system_id":"levelo_inurba_marseille","lat":43.32253,"lon":5.387034,"is_reserved":false,"is_disabled":false,"rental_uris":{"android":"levelo://app?vid=10f69fe8-7773-460f-8cbc-84d5043d302b","ios":"levelo://app?vid=10f69fe8-7773-460f-8cbc-84d5043d302b"},"vehicle_type_id":"4","last_reported":1725804483,"current_range_meters":19200,"station_id":"","pricing_plan_id":"cebpf4jnsgd1na2vs0mg"},{"bike_id":"8a8b9fc1-b72e-429b-aa71-d1c1fc5bd550","system_id":"levelo_inurba_marseille","lat":43.309589,"lon":5.390258,"is_reserved":false,"is_disabled":false,"rental_uris":{"android":"levelo://app?vid=8a8b9fc1-b72e-429b-aa71-d1c1fc5bd550","ios":"levelo://app?vid=8a8b9fc1-b72e-429b-aa71-d1c1fc5bd550"},"vehicle_type_id":"4","last_reported":1725804483,"current_range_meters":31200,"station_id":"ce4bgup2rcd13ifvqco0","pricing_plan_id":"cebpf4jnsgd1na2vs0mg"},{"bike_id":"b56a335d-9b8d-42da-a97c-f7380e13a04a","system_id":"levelo_inurba_marseille","lat":43.324711,"lon":5.385018,"is_reserved":false,"is_disabled":false,"rental_uris":{"android":"levelo://app?vid=b56a335d-9b8d-42da-a97c-f7380e13a04a","ios":"levelo://app?vid=b56a335d-9b8d-42da-a97c-f7380e13a04a"},"vehicle_type_id":"4","last_reported":1725804483,"current_range_meters":25600,"station_id":"","pricing_plan_id":"cebpf4jnsgd1na2vs0mg"},{"bike_id":"03c90daa-187d-4e0a-bf19-920270f9f7c9","system_id":"levelo_inurba_marseille","lat":43.298037,"lon":5.381066,"is_reserved":false,"is_disabled":false,"rental_uris":{"android":"levelo://app?vid=03c90daa-187d-4e0a-bf19-920270f9f7c9","ios":"levelo://app?vid=03c90daa-187d-4e0a-bf19-920270f9f7c9"},"vehicle_type_id":"4","last_reported":1725804483,"current_range_meters":20000,"station_id":"ce4bgip2rcd13ifvqbb0","pricing_plan_id":"cebpf4jnsgd1na2vs0mg"},{"bike_id":"580b0661-f535-4fc5-a8cf-4fd7b52514d5","system_id":"levelo_inurba_marseille","lat":43.298037,"lon":5.381066,"is_reserved":false,"is_disabled":false,"rental_uris":{"android":"levelo://app?vid=580b0661-f535-4fc5-a8cf-4fd7b52514d5","ios":"levelo://app?vid=580b0661-f535-4fc5-a8cf-4fd7b52514d5"},"vehicle_type_id":"4","last_reported":1725804483,"current_range_meters":3600,"station_id":"ce4bgip2rcd13ifvqbb0","pricing_plan_id":"cebpf4jnsgd1na2vs0mg"},{"bike_id":"53ab1c5f-a538-4ac2-a8db-0927c6dd51e8","system_id":"levelo_inurba_marseille","lat":43.295748,"lon":5.37522,"is_reserved":false,"is_disabled":false,"rental_uris":{"android":"levelo://app?vid=53ab1c5f-a538-4ac2-a8db-0927c6dd51e8","ios":"levelo://app?vid=53ab1c5f-a538-4ac2-a8db-0927c6dd51e8"},"vehicle_type_id":"4","last_reported":1725804483,"current_range_meters":8800,"station_id":"ce4bgh92rcd13ifvqb50","pricing_plan_id":"cebpf4jnsgd1na2vs0mg"},{"bike_id":"fa541899-ce6e-4505-8eeb-1339818a09ca","system_id":"levelo_inurba_marseille","lat":43.298037,"lon":5.381066,"is_reserved":false,"is_disabled":false,"rental_uris":{"android":"levelo://app?vid=fa541899-ce6e-4505-8eeb-1339818a09ca","ios":"levelo://app?vid=fa541899-ce6e-4505-8eeb-1339818a09ca"},"vehicle_type_id":"4","last_reported":1725804483,"current_range_meters":13600,"station_id":"ce4bgip2rcd13ifvqbb0","pricing_plan_id":"cebpf4jnsgd1na2vs0mg"},{"bike_id":"e8ab19de-0d0a-444b-b9d7-b212853d6b52","system_id":"levelo_inurba_marseille","lat":43.29625,"lon":5.37728,"is_reserved":false,"is_disabled":false,"rental_uris":{"android":"levelo://app?vid=e8ab19de-0d0a-444b-b9d7-b212853d6b52","ios":"levelo://app?vid=e8ab19de-0d0a-444b-b9d7-b212853d6b52"},"vehicle_type_id":"4","last_reported":1725804483,"current_range_meters":2400,"station_id":"ce4bgi92rcd13ifvqb90","pricing_plan_id":"cebpf4jnsgd1na2vs0mg"},{"bike_id":"618598cb-ca69-4d7b-8cba-1b4b8da8a7b6","system_id":"levelo_inurba_marseille","lat":43.298037,"lon":5.381066,"is_reserved":false,"is_disabled":false,"rental_uris":{"android":"levelo://app?vid=618598cb-ca69-4d7b-8cba-1b4b8da8a7b6","ios":"levelo://app?vid=618598cb-ca69-4d7b-8cba-1b4b8da8a7b6"},"vehicle_type_id":"4","last_reported":1725804483,"current_range_meters":27200,"station_id":"ce4bgip2rcd13ifvqbb0","pricing_plan_id":"cebpf4jnsgd1na2vs0mg"},{"bike_id":"6c7ec666-07ec-442f-8e85-8aca6c3f96a1","system_id":"levelo_inurba_marseille","lat":43.296263,"lon":5.377094,"is_reserved":false,"is_disabled":false,"rental_uris":{"android":"levelo://app?vid=6c7ec666-07ec-442f-8e85-8aca6c3f96a1","ios":"levelo://app?vid=6c7ec666-07ec-442f-8e85-8aca6c3f96a1"},"vehicle_type_id":"4","last_reported":1725804483,"current_range_meters":31200,"station_id":"ce4bgi92rcd13ifvqb90","pricing_plan_id":"cebpf4jnsgd1na2vs0mg"},{"bike_id":"3f0e7330-2602-43a2-b982-985cfc4523f0","system_id":"levelo_inurba_marseille","lat":43.296277,"lon":5.377108,"is_reserved":false,"is_disabled":false,"rental_uris":{"android":"levelo://app?vid=3f0e7330-2602-43a2-b982-985cfc4523f0","ios":"levelo://app?vid=3f0e7330-2602-43a2-b982-985cfc4523f0"},"vehicle_type_id":"4","last_reported":1725804483,"current_range_meters":24800,"station_id":"ce4bgi92rcd13ifvqb90","pricing_plan_id":"cebpf4jnsgd1na2vs0mg"},{"bike_id":"02c92f1a-55e8-4639-aece-89b2d491481e","system_id":"levelo_inurba_marseille","lat":43.296277,"lon":5.377108,"is_reserved":false,"is_disabled":false,"rental_uris":{"android":"levelo://app?vid=02c92f1a-55e8-4639-aece-89b2d491481e","ios":"levelo://app?vid=02c92f1a-55e8-4639-aece-89b2d491481e"},"vehicle_type_id":"4","last_reported":1725804483,"current_range_meters":9200,"station_id":"ce4bgi92rcd13ifvqb90","pricing_plan_id":"cebpf4jnsgd1na2vs0mg"},{"bike_id":"7e071581-0afc-4f97-a64b-c4a0afcb871b","system_id":"levelo_inurba_marseille","lat":43.299717,"lon":5.384845,"is_reserved":false,"is_disabled":false,"rental_uris":{"android":"levelo://app?vid=7e071581-0afc-4f97-a64b-c4a0afcb871b","ios":"levelo://app?vid=7e071581-0afc-4f97-a64b-c4a0afcb871b"},"vehicle_type_id":"4","last_reported":1725804483,"current_range_meters":30400,"station_id":"ce4bgj92rcd13ifvqbd0","pricing_plan_id":"cebpf4jnsgd1na2vs0mg"},{"bike_id":"639226f3-e8c7-48e8-992c-64cf54d8f800","system_id":"levelo_inurba_marseille","lat":43.299707,"lon":5.384859,"is_reserved":false,"is_disabled":false,"rental_uris":{"android":"levelo://app?vid=639226f3-e8c7-48e8-992c-64cf54d8f800","ios":"levelo://app?vid=639226f3-e8c7-48e8-992c-64cf54d8f800"},"vehicle_type_id":"4","last_reported":1725804483,"current_range_meters":15600,"station_id":"ce4bgj92rcd13ifvqbd0","pricing_plan_id":"cebpf4jnsgd1na2vs0mg"},{"bike_id":"226e1026-dafe-446c-a0a9-a1cfb12234f9","system_id":"levelo_inurba_marseille","lat":43.299707,"lon":5.384859,"is_reserved":false,"is_disabled":false,"rental_uris":{"android":"levelo://app?vid=226e1026-dafe-446c-a0a9-a1cfb12234f9","ios":"levelo://app?vid=226e1026-dafe-446c-a0a9-a1cfb12234f9"},"vehicle_type_id":"4","last_reported":1725804483,"current_range_meters":15600,"station_id":"ce4bgj92rcd13ifvqbd0","pricing_plan_id":"cebpf4jnsgd1na2vs0mg"},{"bike_id":"e79c8b4c-5a70-4925-956e-69dbaf05ea6a","system_id":"levelo_inurba_marseille","lat":43.299707,"lon":5.384859,"is_reserved":false,"is_disabled":false,"rental_uris":{"android":"levelo://app?vid=e79c8b4c-5a70-4925-956e-69dbaf05ea6a","ios":"levelo://app?vid=e79c8b4c-5a70-4925-956e-69dbaf05ea6a"},"vehicle_type_id":"4","last_reported":1725804483,"current_range_meters":24800,"station_id":"ce4bgj92rcd13ifvqbd0","pricing_plan_id":"cebpf4jnsgd1na2vs0mg"},{"bike_id":"e3177f38-0d47-48fb-b223-39166f2fc969","system_id":"levelo_inurba_marseille","lat":43.299707,"lon":5.384859,"is_reserved":false,"is_disabled":false,"rental_uris":{"android":"levelo://app?vid=e3177f38-0d47-48fb-b223-39166f2fc969","ios":"levelo://app?vid=e3177f38-0d47-48fb-b223-39166f2fc969"},"vehicle_type_id":"4","last_reported":1725804483,"current_range_meters":8800,"station_id":"ce4bgj92rcd13ifvqbd0","pricing_plan_id":"cebpf4jnsgd1na2vs0mg"},{"bike_id":"af29a323-edbf-4fb3-b40b-ec9ebb4a9f79","system_id":"levelo_inurba_marseille","lat":43.299707,"lon":5.384859,"is_reserved":false,"is_disabled":false,"rental_uris":{"android":"levelo://app?vid=af29a323-edbf-4fb3-b40b-ec9ebb4a9f79","ios":"levelo://app?vid=af29a323-edbf-4fb3-b40b-ec9ebb4a9f79"},"vehicle_type_id":"4","last_reported":1725804483,"current_range_meters":20800,"station_id":"ce4bgj92rcd13ifvqbd0","pricing_plan_id":"cebpf4jnsgd1na2vs0mg"},{"bike_id":"f2e911b3-7cc1-41a2-8b05-2a9c2da27a91","system_id":"levelo_inurba_marseille","lat":43.299707,"lon":5.384859,"is_reserved":false,"is_disabled":false,"rental_uris":{"android":"levelo://app?vid=f2e911b3-7cc1-41a2-8b05-2a9c2da27a91","ios":"levelo://app?vid=f2e911b3-7cc1-41a2-8b05-2a9c2da27a91"},"vehicle_type_id":"4","last_reported":1725804483,"current_range_meters":20000,"station_id":"ce4bgj92rcd13ifvqbd0","pricing_plan_id":"cebpf4jnsgd1na2vs0mg"},{"bike_id":"1d9b56c9-792c-40d3-bade-5a9c19111764","system_id":"levelo_inurba_marseille","lat":43.301396,"lon":5.387812,"is_reserved":false,"is_disabled":false,"rental_uris":{"android":"levelo://app?vid=1d9b56c9-792c-40d3-bade-5a9c19111764","ios":"levelo://app?vid=1d9b56c9-792c-40d3-bade-5a9c19111764"},"vehicle_type_id":"4","last_reported":1725804483,"current_range_meters":0,"station_id":"ce4bghh2rcd13ifvqb60","pricing_plan_id":"cebpf4jnsgd1na2vs0mg"},{"bike_id":"f7e87dbc-77d5-48a5-9d75-774a1a485f6e","system_id":"levelo_inurba_marseille","lat":43.32367,"lon":5.388836,"is_reserved":false,"is_disabled":false,"rental_uris":{"android":"levelo://app?vid=f7e87dbc-77d5-48a5-9d75-774a1a485f6e","ios":"levelo://app?vid=f7e87dbc-77d5-48a5-9d75-774a1a485f6e"},"vehicle_type_id":"4","last_reported":1725804483,"current_range_meters":25600,"station_id":"ce4bhqp2rcd13ifvqhog","pricing_plan_id":"cebpf4jnsgd1na2vs0mg"},{"bike_id":"12932b32-1575-4f99-a331-f8ce0bc96db5","system_id":"levelo_inurba_marseille","lat":43.32367,"lon":5.388836,"is_reserved":false,"is_disabled":false,"rental_uris":{"android":"levelo://app?vid=12932b32-1575-4f99-a331-f8ce0bc96db5","ios":"levelo://app?vid=12932b32-1575-4f99-a331-f8ce0bc96db5"},"vehicle_type_id":"4","last_reported":1725804483,"current_range_meters":7200,"station_id":"ce4bhqp2rcd13ifvqhog","pricing_plan_id":"cebpf4jnsgd1na2vs0mg"},{"bike_id":"bcaa10f7-fd9e-4ad0-b0c8-b8b15c428fe5","system_id":"levelo_inurba_marseille","lat":43.32367,"lon":5.388836,"is_reserved":false,"is_disabled":false,"rental_uris":{"android":"levelo://app?vid=bcaa10f7-fd9e-4ad0-b0c8-b8b15c428fe5","ios":"levelo://app?vid=bcaa10f7-fd9e-4ad0-b0c8-b8b15c428fe5"},"vehicle_type_id":"4","last_reported":1725804483,"current_range_meters":19200,"station_id":"ce4bhqp2rcd13ifvqhog","pricing_plan_id":"cebpf4jnsgd1na2vs0mg"},{"bike_id":"be6f8e98-bf18-461f-8bcb-d319a8c2e18a","system_id":"levelo_inurba_marseille","lat":43.32367,"lon":5.388836,"is_reserved":false,"is_disabled":false,"rental_uris":{"android":"levelo://app?vid=be6f8e98-bf18-461f-8bcb-d319a8c2e18a","ios":"levelo://app?vid=be6f8e98-bf18-461f-8bcb-d319a8c2e18a"},"vehicle_type_id":"4","last_reported":1725804483,"current_range_meters":3200,"station_id":"ce4bhqp2rcd13ifvqhog","pricing_plan_id":"cebpf4jnsgd1na2vs0mg"},{"bike_id":"a2918bb4-2a84-462f-84a0-cc4f338b137f","system_id":"levelo_inurba_marseille","lat":43.31166,"lon":5.39353,"is_reserved":false,"is_disabled":false,"rental_uris":{"android":"levelo://app?vid=a2918bb4-2a84-462f-84a0-cc4f338b137f","ios":"levelo://app?vid=a2918bb4-2a84-462f-84a0-cc4f338b137f"},"vehicle_type_id":"4","last_reported":1725804483,"current_range_meters":5200,"station_id":"","pricing_plan_id":"cebpf4jnsgd1na2vs0mg"},{"bike_id":"ec0a8021-eb65-4559-b567-e0ba9c2ca326","system_id":"levelo_inurba_marseille","lat":43.29602,"lon":5.381084,"is_reserved":false,"is_disabled":false,"rental_uris":{"android":"levelo://app?vid=ec0a8021-eb65-4559-b567-e0ba9c2ca326","ios":"levelo://app?vid=ec0a8021-eb65-4559-b567-e0ba9c2ca326"},"vehicle_type_id":"4","last_reported":1725804483,"current_range_meters":24800,"station_id":"ce4bgl12rcd13ifvqbo0","pricing_plan_id":"cebpf4jnsgd1na2vs0mg"},{"bike_id":"564b52b9-7e45-4770-9ed5-964a1f9fe6f3","system_id":"levelo_inurba_marseille","lat":43.29602,"lon":5.381084,"is_reserved":false,"is_disabled":false,"rental_uris":{"android":"levelo://app?vid=564b52b9-7e45-4770-9ed5-964a1f9fe6f3","ios":"levelo://app?vid=564b52b9-7e45-4770-9ed5-964a1f9fe6f3"},"vehicle_type_id":"4","last_reported":1725804483,"current_range_meters":13600,"station_id":"ce4bgl12rcd13ifvqbo0","pricing_plan_id":"cebpf4jnsgd1na2vs0mg"},{"bike_id":"1389f4a0-fe8c-45a8-89e1-761602337135","system_id":"levelo_inurba_marseille","lat":43.32367,"lon":5.38925,"is_reserved":false,"is_disabled":false,"rental_uris":{"android":"levelo://app?vid=1389f4a0-fe8c-45a8-89e1-761602337135","ios":"levelo://app?vid=1389f4a0-fe8c-45a8-89e1-761602337135"},"vehicle_type_id":"4","last_reported":1725804483,"current_range_meters":16000,"station_id":"ce4bhqp2rcd13ifvqhog","pricing_plan_id":"cebpf4jnsgd1na2vs0mg"},{"bike_id":"75e5c5b8-8da2-4cbf-a913-d0b874814e18","system_id":"levelo_inurba_marseille","lat":43.29602,"lon":5.381084,"is_reserved":false,"is_disabled":false,"rental_uris":{"android":"levelo://app?vid=75e5c5b8-8da2-4cbf-a913-d0b874814e18","ios":"levelo://app?vid=75e5c5b8-8da2-4cbf-a913-d0b874814e18"},"vehicle_type_id":"4","last_reported":1725804483,"current_range_meters":4800,"station_id":"ce4bgl12rcd13ifvqbo0","pricing_plan_id":"cebpf4jnsgd1na2vs0mg"},{"bike_id":"41704600-e9e6-4869-aefd-a4a12996605b","system_id":"levelo_inurba_marseille","lat":43.3237,"lon":5.38926,"is_reserved":false,"is_disabled":false,"rental_uris":{"android":"levelo://app?vid=41704600-e9e6-4869-aefd-a4a12996605b","ios":"levelo://app?vid=41704600-e9e6-4869-aefd-a4a12996605b"},"vehicle_type_id":"4","last_reported":1725804483,"current_range_meters":8800,"station_id":"ce4bhqp2rcd13ifvqhog","pricing_plan_id":"cebpf4jnsgd1na2vs0mg"},{"bike_id":"74c59e3d-56c9-4373-9efe-a345696f9a5c","system_id":"levelo_inurba_marseille","lat":43.3237,"lon":5.38926,"is_reserved":false,"is_disabled":false,"rental_uris":{"android":"levelo://app?vid=74c59e3d-56c9-4373-9efe-a345696f9a5c","ios":"levelo://app?vid=74c59e3d-56c9-4373-9efe-a345696f9a5c"},"vehicle_type_id":"4","last_reported":1725804483,"current_range_meters":21200,"station_id":"","pricing_plan_id":"cebpf4jnsgd1na2vs0mg"},{"bike_id":"6f37c59d-cd45-4a97-aadb-ecec4a0a2f6a","system_id":"levelo_inurba_marseille","lat":43.29327,"lon":5.37076,"is_reserved":false,"is_disabled":false,"rental_uris":{"android":"levelo://app?vid=6f37c59d-cd45-4a97-aadb-ecec4a0a2f6a","ios":"levelo://app?vid=6f37c59d-cd45-4a97-aadb-ecec4a0a2f6a"},"vehicle_type_id":"4","last_reported":1725804483,"current_range_meters":24000,"station_id":"","pricing_plan_id":"cebpf4jnsgd1na2vs0mg"},{"bike_id":"144aab9b-fc2e-4c7a-b2ce-058c16d20f57","system_id":"levelo_inurba_marseille","lat":43.293259,"lon":5.371586,"is_reserved":false,"is_disabled":false,"rental_uris":{"android":"levelo://app?vid=144aab9b-fc2e-4c7a-b2ce-058c16d20f57","ios":"levelo://app?vid=144aab9b-fc2e-4c7a-b2ce-058c16d20f57"},"vehicle_type_id":"4","last_reported":1725804483,"current_range_meters":6000,"station_id":"ce4bgh92rcd13ifvqb40","pricing_plan_id":"cebpf4jnsgd1na2vs0mg"},{"bike_id":"8de54c9c-3a31-4748-a2a8-b15388a915cb","system_id":"levelo_inurba_marseille","lat":43.301396,"lon":5.387812,"is_reserved":false,"is_disabled":false,"rental_uris":{"android":"levelo://app?vid=8de54c9c-3a31-4748-a2a8-b15388a915cb","ios":"levelo://app?vid=8de54c9c-3a31-4748-a2a8-b15388a915cb"},"vehicle_type_id":"4","last_reported":1725804483,"current_range_meters":29200,"station_id":"ce4bghh2rcd13ifvqb60","pricing_plan_id":"cebpf4jnsgd1na2vs0mg"},{"bike_id":"a10f72b0-fc09-470b-91b9-cdfc889c97fe","system_id":"levelo_inurba_marseille","lat":43.293009,"lon":5.374584,"is_reserved":false,"is_disabled":false,"rental_uris":{"android":"levelo://app?vid=a10f72b0-fc09-470b-91b9-cdfc889c97fe","ios":"levelo://app?vid=a10f72b0-fc09-470b-91b9-cdfc889c97fe"},"vehicle_type_id":"4","last_reported":1725804483,"current_range_meters":20800,"station_id":"ce4bgi12rcd13ifvqb70","pricing_plan_id":"cebpf4jnsgd1na2vs0mg"},{"bike_id":"9d7a3c09-637e-4ecf-8425-f884475065ff","system_id":"levelo_inurba_marseille","lat":43.309589,"lon":5.390258,"is_reserved":false,"is_disabled":false,"rental_uris":{"android":"levelo://app?vid=9d7a3c09-637e-4ecf-8425-f884475065ff","ios":"levelo://app?vid=9d7a3c09-637e-4ecf-8425-f884475065ff"},"vehicle_type_id":"4","last_reported":1725804483,"current_range_meters":24000,"station_id":"ce4bgup2rcd13ifvqco0","pricing_plan_id":"cebpf4jnsgd1na2vs0mg"},{"bike_id":"df404993-02b8-4775-86f0-5f37c0684ffc","system_id":"levelo_inurba_marseille","lat":43.305994,"lon":5.393687,"is_reserved":false,"is_disabled":false,"rental_uris":{"android":"levelo://app?vid=df404993-02b8-4775-86f0-5f37c0684ffc","ios":"levelo://app?vid=df404993-02b8-4775-86f0-5f37c0684ffc"},"vehicle_type_id":"4","last_reported":1725804483,"current_range_meters":27600,"station_id":"ce4bh0p2rcd13ifvqd80","pricing_plan_id":"cebpf4jnsgd1na2vs0mg"},{"bike_id":"b5aad619-2d55-4abc-8dd1-b631fa8bf187","system_id":"levelo_inurba_marseille","lat":43.303002,"lon":5.392142,"is_reserved":false,"is_disabled":false,"rental_uris":{"android":"levelo://app?vid=b5aad619-2d55-4abc-8dd1-b631fa8bf187","ios":"levelo://app?vid=b5aad619-2d55-4abc-8dd1-b631fa8bf187"},"vehicle_type_id":"4","last_reported":1725804483,"current_range_meters":27200,"station_id":"ce4bgkh2rcd13ifvqbk0","pricing_plan_id":"cebpf4jnsgd1na2vs0mg"},{"bike_id":"069efb04-56f4-42c1-b0ac-148909f4a1d6","system_id":"levelo_inurba_marseille","lat":43.303002,"lon":5.392142,"is_reserved":false,"is_disabled":false,"rental_uris":{"android":"levelo://app?vid=069efb04-56f4-42c1-b0ac-148909f4a1d6","ios":"levelo://app?vid=069efb04-56f4-42c1-b0ac-148909f4a1d6"},"vehicle_type_id":"4","last_reported":1725804483,"current_range_meters":20800,"station_id":"ce4bgkh2rcd13ifvqbk0","pricing_plan_id":"cebpf4jnsgd1na2vs0mg"},{"bike_id":"b7e55960-1d62-49ef-b1b0-99410782f54a","system_id":"levelo_inurba_marseille","lat":43.2936,"lon":5.37835,"is_reserved":false,"is_disabled":false,"rental_uris":{"android":"levelo://app?vid=b7e55960-1d62-49ef-b1b0-99410782f54a","ios":"levelo://app?vid=b7e55960-1d62-49ef-b1b0-99410782f54a"},"vehicle_type_id":"4","last_reported":1725804483,"current_range_meters":18000,"station_id":"ce4bgjh2rcd13ifvqbf0","pricing_plan_id":"cebpf4jnsgd1na2vs0mg"},{"bike_id":"1b797bc4-9e49-4528-b451-012da2695168","system_id":"levelo_inurba_marseille","lat":43.30085,"lon":5.390856,"is_reserved":false,"is_disabled":false,"rental_uris":{"android":"levelo://app?vid=1b797bc4-9e49-4528-b451-012da2695168","ios":"levelo://app?vid=1b797bc4-9e49-4528-b451-012da2695168"},"vehicle_type_id":"4","last_reported":1725804483,"current_range_meters":9200,"station_id":"ce4bh192rcd13ifvqdb0","pricing_plan_id":"cebpf4jnsgd1na2vs0mg"},{"bike_id":"a47689ee-6e35-4433-925e-b51e946e5341","system_id":"levelo_inurba_marseille","lat":43.298764,"lon":5.388973,"is_reserved":false,"is_disabled":false,"rental_uris":{"android":"levelo://app?vid=a47689ee-6e35-4433-925e-b51e946e5341","ios":"levelo://app?vid=a47689ee-6e35-4433-925e-b51e946e5341"},"vehicle_type_id":"4","last_reported":1725804483,"current_range_meters":28400,"station_id":"ce4bh392rcd13ifvqdl0","pricing_plan_id":"cebpf4jnsgd1na2vs0mg"},{"bike_id":"329a9d90-2db4-41f0-a27b-993cbe90edb9","system_id":"levelo_inurba_marseille","lat":43.313291,"lon":5.396838,"is_reserved":false,"is_disabled":false,"rental_uris":{"android":"levelo://app?vid=329a9d90-2db4-41f0-a27b-993cbe90edb9","ios":"levelo://app?vid=329a9d90-2db4-41f0-a27b-993cbe90edb9"},"vehicle_type_id":"4","last_reported":1725804483,"current_range_meters":26800,"station_id":"ce4bgvp2rcd13ifvqcu0","pricing_plan_id":"cebpf4jnsgd1na2vs0mg"},{"bike_id":"b1ef692f-7481-4fd0-a03e-6ec59d2b93be","system_id":"levelo_inurba_marseille","lat":43.316732,"lon":5.396175,"is_reserved":false,"is_disabled":false,"rental_uris":{"android":"levelo://app?vid=b1ef692f-7481-4fd0-a03e-6ec59d2b93be","ios":"levelo://app?vid=b1ef692f-7481-4fd0-a03e-6ec59d2b93be"},"vehicle_type_id":"4","last_reported":1725804483,"current_range_meters":5200,"station_id":"","pricing_plan_id":"cebpf4jnsgd1na2vs0mg"},{"bike_id":"c56016b1-32e1-4b8c-81aa-ea345649cc43","system_id":"levelo_inurba_marseille","lat":43.29196,"lon":5.35806,"is_reserved":false,"is_disabled":false,"rental_uris":{"android":"levelo://app?vid=c56016b1-32e1-4b8c-81aa-ea345649cc43","ios":"levelo://app?vid=c56016b1-32e1-4b8c-81aa-ea345649cc43"},"vehicle_type_id":"4","last_reported":1725804483,"current_range_meters":1600,"station_id":"ce4bhb12rcd13ifvqel0","pricing_plan_id":"cebpf4jnsgd1na2vs0mg"},{"bike_id":"725e3487-bb70-4ecd-8389-9fd29f597e79","system_id":"levelo_inurba_marseille","lat":43.313291,"lon":5.396838,"is_reserved":false,"is_disabled":false,"rental_uris":{"android":"levelo://app?vid=725e3487-bb70-4ecd-8389-9fd29f597e79","ios":"levelo://app?vid=725e3487-bb70-4ecd-8389-9fd29f597e79"},"vehicle_type_id":"4","last_reported":1725804483,"current_range_meters":28400,"station_id":"ce4bgvp2rcd13ifvqcu0","pricing_plan_id":"cebpf4jnsgd1na2vs0mg"},{"bike_id":"c50e12c0-6aab-4aa4-b756-9f930a61e1cf","system_id":"levelo_inurba_marseille","lat":43.313291,"lon":5.396838,"is_reserved":false,"is_disabled":false,"rental_uris":{"android":"levelo://app?vid=c50e12c0-6aab-4aa4-b756-9f930a61e1cf","ios":"levelo://app?vid=c50e12c0-6aab-4aa4-b756-9f930a61e1cf"},"vehicle_type_id":"4","last_reported":1725804483,"current_range_meters":29600,"station_id":"ce4bgvp2rcd13ifvqcu0","pricing_plan_id":"cebpf4jnsgd1na2vs0mg"},{"bike_id":"a8b5ae5c-b7b8-40a7-a43d-ac81095086ca","system_id":"levelo_inurba_marseille","lat":43.313291,"lon":5.396838,"is_reserved":false,"is_disabled":false,"rental_uris":{"android":"levelo://app?vid=a8b5ae5c-b7b8-40a7-a43d-ac81095086ca","ios":"levelo://app?vid=a8b5ae5c-b7b8-40a7-a43d-ac81095086ca"},"vehicle_type_id":"4","last_reported":1725804483,"current_range_meters":31200,"station_id":"ce4bgvp2rcd13ifvqcu0","pricing_plan_id":"cebpf4jnsgd1na2vs0mg"},{"bike_id":"6eeaa1ae-1080-4b6c-9feb-ec51a0dc13a2","system_id":"levelo_inurba_marseille","lat":43.3088,"lon":5.39643,"is_reserved":false,"is_disabled":false,"rental_uris":{"android":"levelo://app?vid=6eeaa1ae-1080-4b6c-9feb-ec51a0dc13a2","ios":"levelo://app?vid=6eeaa1ae-1080-4b6c-9feb-ec51a0dc13a2"},"vehicle_type_id":"4","last_reported":1725804483,"current_range_meters":9600,"station_id":"ce4bh012rcd13ifvqcv0","pricing_plan_id":"cebpf4jnsgd1na2vs0mg"},{"bike_id":"17b65360-2dde-4983-8fd5-637f6dd66467","system_id":"levelo_inurba_marseille","lat":43.313291,"lon":5.396838,"is_reserved":false,"is_disabled":false,"rental_uris":{"android":"levelo://app?vid=17b65360-2dde-4983-8fd5-637f6dd66467","ios":"levelo://app?vid=17b65360-2dde-4983-8fd5-637f6dd66467"},"vehicle_type_id":"4","last_reported":1725804483,"current_range_meters":30800,"station_id":"ce4bgvp2rcd13ifvqcu0","pricing_plan_id":"cebpf4jnsgd1na2vs0mg"},{"bike_id":"32e16e04-c183-4b25-b5eb-b32f76c1cbd4","system_id":"levelo_inurba_marseille","lat":43.313291,"lon":5.396838,"is_reserved":false,"is_disabled":false,"rental_uris":{"android":"levelo://app?vid=32e16e04-c183-4b25-b5eb-b32f76c1cbd4","ios":"levelo://app?vid=32e16e04-c183-4b25-b5eb-b32f76c1cbd4"},"vehicle_type_id":"4","last_reported":1725804483,"current_range_meters":31200,"station_id":"ce4bgvp2rcd13ifvqcu0","pricing_plan_id":"cebpf4jnsgd1na2vs0mg"},{"bike_id":"1e3fc00b-83da-465a-8449-5151091f3c53","system_id":"levelo_inurba_marseille","lat":43.30883,"lon":5.39645,"is_reserved":false,"is_disabled":false,"rental_uris":{"android":"levelo://app?vid=1e3fc00b-83da-465a-8449-5151091f3c53","ios":"levelo://app?vid=1e3fc00b-83da-465a-8449-5151091f3c53"},"vehicle_type_id":"4","last_reported":1725804483,"current_range_meters":6800,"station_id":"ce4bh012rcd13ifvqcv0","pricing_plan_id":"cebpf4jnsgd1na2vs0mg"},{"bike_id":"d1df858b-a969-4197-91ce-e0fa22cda35f","system_id":"levelo_inurba_marseille","lat":43.313291,"lon":5.396838,"is_reserved":false,"is_disabled":false,"rental_uris":{"android":"levelo://app?vid=d1df858b-a969-4197-91ce-e0fa22cda35f","ios":"levelo://app?vid=d1df858b-a969-4197-91ce-e0fa22cda35f"},"vehicle_type_id":"4","last_reported":1725804483,"current_range_meters":13600,"station_id":"ce4bgvp2rcd13ifvqcu0","pricing_plan_id":"cebpf4jnsgd1na2vs0mg"},{"bike_id":"74a6f5fe-4356-4ce4-b987-28f0720fdb24","system_id":"levelo_inurba_marseille","lat":43.313291,"lon":5.396838,"is_reserved":false,"is_disabled":false,"rental_uris":{"android":"levelo://app?vid=74a6f5fe-4356-4ce4-b987-28f0720fdb24","ios":"levelo://app?vid=74a6f5fe-4356-4ce4-b987-28f0720fdb24"},"vehicle_type_id":"4","last_reported":1725804483,"current_range_meters":17200,"station_id":"ce4bgvp2rcd13ifvqcu0","pricing_plan_id":"cebpf4jnsgd1na2vs0mg"},{"bike_id":"279cd6c4-a554-42a0-9cfd-b0be5eedf939","system_id":"levelo_inurba_marseille","lat":43.313291,"lon":5.396838,"is_reserved":false,"is_disabled":false,"rental_uris":{"android":"levelo://app?vid=279cd6c4-a554-42a0-9cfd-b0be5eedf939","ios":"levelo://app?vid=279cd6c4-a554-42a0-9cfd-b0be5eedf939"},"vehicle_type_id":"4","last_reported":1725804483,"current_range_meters":31200,"station_id":"ce4bgvp2rcd13ifvqcu0","pricing_plan_id":"cebpf4jnsgd1na2vs0mg"},{"bike_id":"806dd3f3-584a-4ce0-9269-784501ed6356","system_id":"levelo_inurba_marseille","lat":43.313291,"lon":5.396838,"is_reserved":false,"is_disabled":false,"rental_uris":{"android":"levelo://app?vid=806dd3f3-584a-4ce0-9269-784501ed6356","ios":"levelo://app?vid=806dd3f3-584a-4ce0-9269-784501ed6356"},"vehicle_type_id":"4","last_reported":1725804483,"current_range_meters":4000,"station_id":"ce4bgvp2rcd13ifvqcu0","pricing_plan_id":"cebpf4jnsgd1na2vs0mg"},{"bike_id":"f3c24319-4b27-419d-903e-5d5a6df7bf83","system_id":"levelo_inurba_marseille","lat":43.29529,"lon":5.385581,"is_reserved":false,"is_disabled":false,"rental_uris":{"android":"levelo://app?vid=f3c24319-4b27-419d-903e-5d5a6df7bf83","ios":"levelo://app?vid=f3c24319-4b27-419d-903e-5d5a6df7bf83"},