{"last_updated":1729184915,"ttl":60,"version":"2.2","data":{"bikes":[{"bike_id":"ad3740dd-d1ed-4d39-a629-64e6b998150a","system_id":"levelo_inurba_marseille","lat":43.25107,"lon":5.40327,"is_reserved":false,"is_disabled":false,"rental_uris":{"android":"levelo://app?vid=ad3740dd-d1ed-4d39-a629-64e6b998150a","ios":"levelo://app?vid=ad3740dd-d1ed-4d39-a629-64e6b998150a"},"vehicle_type_id":"4","last_reported":1729184915,"current_range_meters":20000,"station_id":"ce4bhlh2rcd13ifvqgig","pricing_plan_id":"cebpf4jnsgd1na2vs0mg"},{"bike_id":"5483b4ac-b5a7-4f5b-93fe-c3a8ab04747d","system_id":"levelo_inurba_marseille","lat":43.29727,"lon":5.37691,"is_reserved":false,"is_disabled":false,"rental_uris":{"android":"levelo://app?vid=5483b4ac-b5a7-4f5b-93fe-c3a8ab04747d","ios":"levelo://app?vid=5483b4ac-b5a7-4f5b-93fe-c3a8ab04747d"},"vehicle_type_id":"4","last_reported":1729184915,"current_range_meters":38400,"station_id":"ce4bgkh2rcd13ifvqbl0","pricing_plan_id":"cebpf4jnsgd1na2vs0mg"},{"bike_id":"78b7cb3b-80c9-48b4-a04e-17032e221c41","system_id":"levelo_inurba_marseille","lat":43.31751,"lon":5.39027,"is_reserved":false,"is_disabled":false,"rental_uris":{"android":"levelo://app?vid=78b7cb3b-80c9-48b4-a04e-17032e221c41","ios":"levelo://app?vid=78b7cb3b-80c9-48b4-a04e-17032e221c41"},"vehicle_type_id":"4","last_reported":1729184915,"current_range_meters":33200,"station_id":"ce4bhqp2rcd13ifvqhng","pricing_plan_id":"cebpf4jnsgd1na2vs0mg"},{"bike_id":"676ec6c4-6b42-43e0-81fe-327782965da5","system_id":"levelo_inurba_marseille","lat":43.337444,"lon":5.374475,"is_reserved":false,"is_disabled":false,"rental_uris":{"android":"levelo://app?vid=676ec6c4-6b42-43e0-81fe-327782965da5","ios":"levelo://app?vid=676ec6c4-6b42-43e0-81fe-327782965da5"},"vehicle_type_id":"4","last_reported":1729184915,"current_range_meters":16000,"station_id":"","pricing_plan_id":"cebpf4jnsgd1na2vs0mg"},{"bike_id":"468ee845-12e0-4809-ac44-2cf45923d150","system_id":"levelo_inurba_marseille","lat":43.2967,"lon":5.37303,"is_reserved":false,"is_disabled":false,"rental_uris":{"android":"levelo://app?vid=468ee845-12e0-4809-ac44-2cf45923d150","ios":"levelo://app?vid=468ee845-12e0-4809-ac44-2cf45923d150"},"vehicle_type_id":"4","last_reported":1729184915,"current_range_meters":38000,"station_id":"ce4bgk12rcd13ifvqbj0","pricing_plan_id":"cebpf4jnsgd1na2vs0mg"},{"bike_id":"1fa3bd42-b69f-4e65-9203-0f085db60092","system_id":"levelo_inurba_marseille","lat":43.30785,"lon":5.38176,"is_reserved":false,"is_disabled":false,"rental_uris":{"android":"levelo://app?vid=1fa3bd42-b69f-4e65-9203-0f085db60092","ios":"levelo://app?vid=1fa3bd42-b69f-4e65-9203-0f085db60092"},"vehicle_type_id":"4","last_reported":1729184915,"current_range_meters":20000,"station_id":"ce4bgt12rcd13ifvqce0","pricing_plan_id":"cebpf4jnsgd1na2vs0mg"},{"bike_id":"766acff6-9cd4-46ea-8cc9-37ffd618cb90","system_id":"levelo_inurba_marseille","lat":43.27915,"lon":5.39589,"is_reserved":false,"is_disabled":false,"rental_uris":{"android":"levelo://app?vid=766acff6-9cd4-46ea-8cc9-37ffd618cb90","ios":"levelo://app?vid=766acff6-9cd4-46ea-8cc9-37ffd618cb90"},"vehicle_type_id":"4","last_reported":1729184915,"current_range_meters":12400,"station_id":"ce4bhf92rcd13ifvqf40","pricing_plan_id":"cebpf4jnsgd1na2vs0mg"},{"bike_id":"07e3421a-f96e-45f7-9241-c0ae05c756a1","system_id":"levelo_inurba_marseille","lat":43.31082,"lon":5.42432,"is_reserved":false,"is_disabled":false,"rental_uris":{"android":"levelo://app?vid=07e3421a-f96e-45f7-9241-c0ae05c756a1","ios":"levelo://app?vid=07e3421a-f96e-45f7-9241-c0ae05c756a1"},"vehicle_type_id":"4","last_reported":1729184915,"current_range_meters":8800,"station_id":"ce4bhp92rcd13ifvqhag","pricing_plan_id":"cebpf4jnsgd1na2vs0mg"},{"bike_id":"49a6867c-d612-4cb8-ac5c-03422a7d2892","system_id":"levelo_inurba_marseille","lat":43.30309,"lon":5.3691,"is_reserved":false,"is_disabled":false,"rental_uris":{"android":"levelo://app?vid=49a6867c-d612-4cb8-ac5c-03422a7d2892","ios":"levelo://app?vid=49a6867c-d612-4cb8-ac5c-03422a7d2892"},"vehicle_type_id":"4","last_reported":1729184915,"current_range_meters":6400,"station_id":"ce4bgqh2rcd13ifvqc5g","pricing_plan_id":"cebpf4jnsgd1na2vs0mg"},{"bike_id":"90980213-7ada-4ce3-9e74-ac791cb54c2d","system_id":"levelo_inurba_marseille","lat":43.28458,"lon":5.35879,"is_reserved":false,"is_disabled":false,"rental_uris":{"android":"levelo://app?vid=90980213-7ada-4ce3-9e74-ac791cb54c2d","ios":"levelo://app?vid=90980213-7ada-4ce3-9e74-ac791cb54c2d"},"vehicle_type_id":"4","last_reported":1729184915,"current_range_meters":5600,"station_id":"ce4bhah2rcd13ifvqei0","pricing_plan_id":"cebpf4jnsgd1na2vs0mg"},{"bike_id":"3f66dd1c-9be6-4b94-886c-d04770b03feb","system_id":"levelo_inurba_marseille","lat":43.33024,"lon":5.39039,"is_reserved":false,"is_disabled":false,"rental_uris":{"android":"levelo://app?vid=3f66dd1c-9be6-4b94-886c-d04770b03feb","ios":"levelo://app?vid=3f66dd1c-9be6-4b94-886c-d04770b03feb"},"vehicle_type_id":"4","last_reported":1729184915,"current_range_meters":6800,"station_id":"ce4bhr92rcd13ifvqhrg","pricing_plan_id":"cebpf4jnsgd1na2vs0mg"},{"bike_id":"f007d8fd-5fb4-4dc0-b2f7-a68b1d39079e","system_id":"levelo_inurba_marseille","lat":43.27376,"lon":5.36257,"is_reserved":false,"is_disabled":false,"rental_uris":{"android":"levelo://app?vid=f007d8fd-5fb4-4dc0-b2f7-a68b1d39079e","ios":"levelo://app?vid=f007d8fd-5fb4-4dc0-b2f7-a68b1d39079e"},"vehicle_type_id":"4","last_reported":1729184915,"current_range_meters":38800,"station_id":"ce4bhbh2rcd13ifvqeo0","pricing_plan_id":"cebpf4jnsgd1na2vs0mg"},{"bike_id":"29689e71-334c-4200-aca7-1d7023ddf226","system_id":"levelo_inurba_marseille","lat":43.32287,"lon":5.3828,"is_reserved":false,"is_disabled":false,"rental_uris":{"android":"levelo://app?vid=29689e71-334c-4200-aca7-1d7023ddf226","ios":"levelo://app?vid=29689e71-334c-4200-aca7-1d7023ddf226"},"vehicle_type_id":"4","last_reported":1729184915,"current_range_meters":39200,"station_id":"ce4bhr12rcd13ifvqhqg","pricing_plan_id":"cebpf4jnsgd1na2vs0mg"},{"bike_id":"0e9ad9af-e89b-412e-a7df-344fe8f113f7","system_id":"levelo_inurba_marseille","lat":43.24989,"lon":5.3893,"is_reserved":false,"is_disabled":false,"rental_uris":{"android":"levelo://app?vid=0e9ad9af-e89b-412e-a7df-344fe8f113f7","ios":"levelo://app?vid=0e9ad9af-e89b-412e-a7df-344fe8f113f7"},"vehicle_type_id":"4","last_reported":1729184915,"current_range_meters":29600,"station_id":"ce4bhgp2rcd13ifvqfd0","pricing_plan_id":"cebpf4jnsgd1na2vs0mg"},{"bike_id":"88abec9a-02e0-406d-a78f-03526d3a6c76","system_id":"levelo_inurba_marseille","lat":43.28126,"lon":5.40175,"is_reserved":false,"is_disabled":false,"rental_uris":{"android":"levelo://app?vid=88abec9a-02e0-406d-a78f-03526d3a6c76","ios":"levelo://app?vid=88abec9a-02e0-406d-a78f-03526d3a6c76"},"vehicle_type_id":"4","last_reported":1729184915,"current_range_meters":8800,"station_id":"ce4bhn92rcd13ifvqgrg","pricing_plan_id":"cebpf4jnsgd1na2vs0mg"},{"bike_id":"9928e31a-8096-4dce-b490-894aecad373c","system_id":"levelo_inurba_marseille","lat":43.29709,"lon":5.36602,"is_reserved":false,"is_disabled":false,"rental_uris":{"android":"levelo://app?vid=9928e31a-8096-4dce-b490-894aecad373c","ios":"levelo://app?vid=9928e31a-8096-4dce-b490-894aecad373c"},"vehicle_type_id":"4","last_reported":1729184915,"current_range_meters":28000,"station_id":"ce4bgn12rcd13ifvqbt0","pricing_plan_id":"cebpf4jnsgd1na2vs0mg"},{"bike_id":"09384dc6-9b16-40cc-a19b-271346bdbf5c","system_id":"levelo_inurba_marseille","lat":43.24072,"lon":5.3776,"is_reserved":false,"is_disabled":false,"rental_uris":{"android":"levelo://app?vid=09384dc6-9b16-40cc-a19b-271346bdbf5c","ios":"levelo://app?vid=09384dc6-9b16-40cc-a19b-271346bdbf5c"},"vehicle_type_id":"4","last_reported":1729184915,"current_range_meters":3200,"station_id":"ce4bhnp2rcd13ifvqgvg","pricing_plan_id":"cebpf4jnsgd1na2vs0mg"},{"bike_id":"031f450b-7c85-4614-b7ba-0508040eb0dd","system_id":"levelo_inurba_marseille","lat":43.30882,"lon":5.39645,"is_reserved":false,"is_disabled":false,"rental_uris":{"android":"levelo://app?vid=031f450b-7c85-4614-b7ba-0508040eb0dd","ios":"levelo://app?vid=031f450b-7c85-4614-b7ba-0508040eb0dd"},"vehicle_type_id":"4","last_reported":1729184915,"current_range_meters":8000,"station_id":"ce4bh012rcd13ifvqcv0","pricing_plan_id":"cebpf4jnsgd1na2vs0mg"},{"bike_id":"4ae2c184-8c50-452d-87fb-8f7bf4f540f3","system_id":"levelo_inurba_marseille","lat":43.24656,"lon":5.38897,"is_reserved":false,"is_disabled":false,"rental_uris":{"android":"levelo://app?vid=4ae2c184-8c50-452d-87fb-8f7bf4f540f3","ios":"levelo://app?vid=4ae2c184-8c50-452d-87fb-8f7bf4f540f3"},"vehicle_type_id":"4","last_reported":1729184915,"current_range_meters":40000,"station_id":"ce4bhg12rcd13ifvqf60","pricing_plan_id":"cebpf4jnsgd1na2vs0mg"},{"bike_id":"791641b8-dabe-4982-982b-c8e7fc7abd5d","system_id":"levelo_inurba_marseille","lat":43.2511,"lon":5.40323,"is_reserved":false,"is_disabled":false,"rental_uris":{"android":"levelo://app?vid=791641b8-dabe-4982-982b-c8e7fc7abd5d","ios":"levelo://app?vid=791641b8-dabe-4982-982b-c8e7fc7abd5d"},"vehicle_type_id":"4","last_reported":1729184915,"current_range_meters":14800,"station_id":"ce4bhlh2rcd13ifvqgig","pricing_plan_id":"cebpf4jnsgd1na2vs0mg"},{"bike_id":"1a934f0c-9473-4346-9671-65f0e0bafe0f","system_id":"levelo_inurba_marseille","lat":43.28455,"lon":5.35888,"is_reserved":false,"is_disabled":false,"rental_uris":{"android":"levelo://app?vid=1a934f0c-9473-4346-9671-65f0e0bafe0f","ios":"levelo://app?vid=1a934f0c-9473-4346-9671-65f0e0bafe0f"},"vehicle_type_id":"4","last_reported":1729184915,"current_range_meters":33200,"station_id":"ce4bhah2rcd13ifvqei0","pricing_plan_id":"cebpf4jnsgd1na2vs0mg"},{"bike_id":"facbb6eb-9192-4d60-834f-c2986880a99a","system_id":"levelo_inurba_marseille","lat":43.28347,"lon":5.38112,"is_reserved":false,"is_disabled":false,"rental_uris":{"android":"levelo://app?vid=facbb6eb-9192-4d60-834f-c2986880a99a","ios":"levelo://app?vid=facbb6eb-9192-4d60-834f-c2986880a99a"},"vehicle_type_id":"4","last_reported":1729184915,"current_range_meters":3200,"station_id":"ce4bh412rcd13ifvqdr0","pricing_plan_id":"cebpf4jnsgd1na2vs0mg"},{"bike_id":"5a4320fd-668e-47a8-9a0f-748e783877c2","system_id":"levelo_inurba_marseille","lat":43.31715,"lon":5.43705,"is_reserved":false,"is_disabled":false,"rental_uris":{"android":"levelo://app?vid=5a4320fd-668e-47a8-9a0f-748e783877c2","ios":"levelo://app?vid=5a4320fd-668e-47a8-9a0f-748e783877c2"},"vehicle_type_id":"4","last_reported":1729184915,"current_range_meters":20800,"station_id":"ce4bhp92rcd13ifvqhcg","pricing_plan_id":"cebpf4jnsgd1na2vs0mg"},{"bike_id":"ba385696-1c00-4366-b0a7-b17da0e20789","system_id":"levelo_inurba_marseille","lat":43.31753,"lon":5.3902,"is_reserved":false,"is_disabled":false,"rental_uris":{"android":"levelo://app?vid=ba385696-1c00-4366-b0a7-b17da0e20789","ios":"levelo://app?vid=ba385696-1c00-4366-b0a7-b17da0e20789"},"vehicle_type_id":"4","last_reported":1729184915,"current_range_meters":11200,"station_id":"ce4bhqp2rcd13ifvqhng","pricing_plan_id":"cebpf4jnsgd1na2vs0mg"},{"bike_id":"af7aa262-7318-45b6-93d5-33ea7bb72cd4","system_id":"levelo_inurba_marseille","lat":43.2963,"lon":5.3772,"is_reserved":false,"is_disabled":false,"rental_uris":{"android":"levelo://app?vid=af7aa262-7318-45b6-93d5-33ea7bb72cd4","ios":"levelo://app?vid=af7aa262-7318-45b6-93d5-33ea7bb72cd4"},"vehicle_type_id":"4","last_reported":1729184915,"current_range_meters":39200,"station_id":"ce4bgi92rcd13ifvqb90","pricing_plan_id":"cebpf4jnsgd1na2vs0mg"},{"bike_id":"052b3563-392a-4857-8174-027696f961ab","system_id":"levelo_inurba_marseille","lat":43.24651,"lon":5.38899,"is_reserved":false,"is_disabled":false,"rental_uris":{"android":"levelo://app?vid=052b3563-392a-4857-8174-027696f961ab","ios":"levelo://app?vid=052b3563-392a-4857-8174-027696f961ab"},"vehicle_type_id":"4","last_reported":1729184915,"current_range_meters":23200,"station_id":"ce4bhg12rcd13ifvqf60","pricing_plan_id":"cebpf4jnsgd1na2vs0mg"},{"bike_id":"9373f069-8b2b-4182-971f-b65229ad60e9","system_id":"levelo_inurba_marseille","lat":43.34137,"lon":5.40906,"is_reserved":false,"is_disabled":false,"rental_uris":{"android":"levelo://app?vid=9373f069-8b2b-4182-971f-b65229ad60e9","ios":"levelo://app?vid=9373f069-8b2b-4182-971f-b65229ad60e9"},"vehicle_type_id":"4","last_reported":1729184915,"current_range_meters":24000,"station_id":"ce4bhqh2rcd13ifvqhlg","pricing_plan_id":"cebpf4jnsgd1na2vs0mg"},{"bike_id":"937a3f13-9596-43de-8817-cbbac6a7dc35","system_id":"levelo_inurba_marseille","lat":43.31743,"lon":5.39027,"is_reserved":false,"is_disabled":false,"rental_uris":{"android":"levelo://app?vid=937a3f13-9596-43de-8817-cbbac6a7dc35","ios":"levelo://app?vid=937a3f13-9596-43de-8817-cbbac6a7dc35"},"vehicle_type_id":"4","last_reported":1729184915,"current_range_meters":24400,"station_id":"ce4bhqp2rcd13ifvqhng","pricing_plan_id":"cebpf4jnsgd1na2vs0mg"},{"bike_id":"ad92c83d-8f78-4b6b-a714-4dcef9cf9934","system_id":"levelo_inurba_marseille","lat":43.23176,"lon":5.39989,"is_reserved":false,"is_disabled":false,"rental_uris":{"android":"levelo://app?vid=ad92c83d-8f78-4b6b-a714-4dcef9cf9934","ios":"levelo://app?vid=ad92c83d-8f78-4b6b-a714-4dcef9cf9934"},"vehicle_type_id":"4","last_reported":1729184915,"current_range_meters":18000,"station_id":"ce4bhn12rcd13ifvqgqg","pricing_plan_id":"cebpf4jnsgd1na2vs0mg"},{"bike_id":"f6049e63-bf79-49c7-9711-8b507dc85c19","system_id":"levelo_inurba_marseille","lat":43.28431,"lon":5.39213,"is_reserved":false,"is_disabled":false,"rental_uris":{"android":"levelo://app?vid=f6049e63-bf79-49c7-9711-8b507dc85c19","ios":"levelo://app?vid=f6049e63-bf79-49c7-9711-8b507dc85c19"},"vehicle_type_id":"4","last_reported":1729184915,"current_range_meters":34800,"station_id":"ce4bhoh2rcd13ifvqh5g","pricing_plan_id":"cebpf4jnsgd1na2vs0mg"},{"bike_id":"6e353322-bd9b-4745-bd15-5feb8ba1cb12","system_id":"levelo_inurba_marseille","lat":43.25726,"lon":5.41106,"is_reserved":false,"is_disabled":false,"rental_uris":{"android":"levelo://app?vid=6e353322-bd9b-4745-bd15-5feb8ba1cb12","ios":"levelo://app?vid=6e353322-bd9b-4745-bd15-5feb8ba1cb12"},"vehicle_type_id":"4","last_reported":1729184915,"current_range_meters":10800,"station_id":"ce4bhkp2rcd13ifvqgd0","pricing_plan_id":"cebpf4jnsgd1na2vs0mg"},{"bike_id":"58c69b12-7467-4279-b980-9aa21ca6358f","system_id":"levelo_inurba_marseille","lat":43.23962,"lon":5.36634,"is_reserved":false,"is_disabled":false,"rental_uris":{"android":"levelo://app?vid=58c69b12-7467-4279-b980-9aa21ca6358f","ios":"levelo://app?vid=58c69b12-7467-4279-b980-9aa21ca6358f"},"vehicle_type_id":"4","last_reported":1729184915,"current_range_meters":28000,"station_id":"ce4bhi12rcd13ifvqfp0","pricing_plan_id":"cebpf4jnsgd1na2vs0mg"},{"bike_id":"aefbdf9d-3837-4c43-aad3-58c291b760f1","system_id":"levelo_inurba_marseille","lat":43.28467,"lon":5.38416,"is_reserved":false,"is_disabled":false,"rental_uris":{"android":"levelo://app?vid=aefbdf9d-3837-4c43-aad3-58c291b760f1","ios":"levelo://app?vid=aefbdf9d-3837-4c43-aad3-58c291b760f1"},"vehicle_type_id":"4","last_reported":1729184915,"current_range_meters":10000,"station_id":"ce4bh512rcd13ifvqe3g","pricing_plan_id":"cebpf4jnsgd1na2vs0mg"},{"bike_id":"9d38ea43-9805-4e92-9740-200ed12a2ab1","system_id":"levelo_inurba_marseille","lat":43.30611,"lon":5.37225,"is_reserved":false,"is_disabled":false,"rental_uris":{"android":"levelo://app?vid=9d38ea43-9805-4e92-9740-200ed12a2ab1","ios":"levelo://app?vid=9d38ea43-9805-4e92-9740-200ed12a2ab1"},"vehicle_type_id":"4","last_reported":1729184915,"current_range_meters":36800,"station_id":"ce4bgqh2rcd13ifvqc4g","pricing_plan_id":"cebpf4jnsgd1na2vs0mg"},{"bike_id":"c8ce71d2-5a6d-40af-81e7-20c17a56bfdb","system_id":"levelo_inurba_marseille","lat":43.307335,"lon":5.373835,"is_reserved":false,"is_disabled":false,"rental_uris":{"android":"levelo://app?vid=c8ce71d2-5a6d-40af-81e7-20c17a56bfdb","ios":"levelo://app?vid=c8ce71d2-5a6d-40af-81e7-20c17a56bfdb"},"vehicle_type_id":"4","last_reported":1729184915,"current_range_meters":6000,"station_id":"","pricing_plan_id":"cebpf4jnsgd1na2vs0mg"},{"bike_id":"dcd02635-a722-43c9-94f7-989cd5fe04c6","system_id":"levelo_inurba_marseille","lat":43.24799,"lon":5.37457,"is_reserved":false,"is_disabled":false,"rental_uris":{"android":"levelo://app?vid=dcd02635-a722-43c9-94f7-989cd5fe04c6","ios":"levelo://app?vid=dcd02635-a722-43c9-94f7-989cd5fe04c6"},"vehicle_type_id":"4","last_reported":1729184915,"current_range_meters":26000,"station_id":"ce4bhgh2rcd13ifvqfb0","pricing_plan_id":"cebpf4jnsgd1na2vs0mg"},{"bike_id":"282b3d80-6821-487a-a914-810f553b0264","system_id":"levelo_inurba_marseille","lat":43.31715,"lon":5.43703,"is_reserved":false,"is_disabled":false,"rental_uris":{"android":"levelo://app?vid=282b3d80-6821-487a-a914-810f553b0264","ios":"levelo://app?vid=282b3d80-6821-487a-a914-810f553b0264"},"vehicle_type_id":"4","last_reported":1729184915,"current_range_meters":7200,"station_id":"ce4bhp92rcd13ifvqhcg","pricing_plan_id":"cebpf4jnsgd1na2vs0mg"},{"bike_id":"e20fafca-079a-403c-b57c-f7aca789639e","system_id":"levelo_inurba_marseille","lat":43.24812,"lon":5.37459,"is_reserved":false,"is_disabled":false,"rental_uris":{"android":"levelo://app?vid=e20fafca-079a-403c-b57c-f7aca789639e","ios":"levelo://app?vid=e20fafca-079a-403c-b57c-f7aca789639e"},"vehicle_type_id":"4","last_reported":1729184915,"current_range_meters":37600,"station_id":"ce4bhgh2rcd13ifvqfb0","pricing_plan_id":"cebpf4jnsgd1na2vs0mg"},{"bike_id":"a7b0f11e-9032-411b-bc21-0e57319a6c9d","system_id":"levelo_inurba_marseille","lat":43.3249,"lon":5.36549,"is_reserved":false,"is_disabled":false,"rental_uris":{"android":"levelo://app?vid=a7b0f11e-9032-411b-bc21-0e57319a6c9d","ios":"levelo://app?vid=a7b0f11e-9032-411b-bc21-0e57319a6c9d"},"vehicle_type_id":"4","last_reported":1729184915,"current_range_meters":8400,"station_id":"ce4bhs12rcd13ifvqhvg","pricing_plan_id":"cebpf4jnsgd1na2vs0mg"},{"bike_id":"5ccac19b-5f28-4de2-b913-f4900d051022","system_id":"levelo_inurba_marseille","lat":43.32657,"lon":5.41001,"is_reserved":false,"is_disabled":false,"rental_uris":{"android":"levelo://app?vid=5ccac19b-5f28-4de2-b913-f4900d051022","ios":"levelo://app?vid=5ccac19b-5f28-4de2-b913-f4900d051022"},"vehicle_type_id":"4","last_reported":1729184915,"current_range_meters":27600,"station_id":"ce4bhpp2rcd13ifvqhgg","pricing_plan_id":"cebpf4jnsgd1na2vs0mg"},{"bike_id":"ed55d960-e651-42a6-9e1d-f60cea8fde91","system_id":"levelo_inurba_marseille","lat":43.31893,"lon":5.40743,"is_reserved":false,"is_disabled":false,"rental_uris":{"android":"levelo://app?vid=ed55d960-e651-42a6-9e1d-f60cea8fde91","ios":"levelo://app?vid=ed55d960-e651-42a6-9e1d-f60cea8fde91"},"vehicle_type_id":"4","last_reported":1729184915,"current_range_meters":18000,"station_id":"ce4bhq12rcd13ifvqhig","pricing_plan_id":"cebpf4jnsgd1na2vs0mg"},{"bike_id":"bf1067fc-0f17-4e81-b10f-edbc0dc06d67","system_id":"levelo_inurba_marseille","lat":43.29964,"lon":5.37175,"is_reserved":false,"is_disabled":false,"rental_uris":{"android":"levelo://app?vid=bf1067fc-0f17-4e81-b10f-edbc0dc06d67","ios":"levelo://app?vid=bf1067fc-0f17-4e81-b10f-edbc0dc06d67"},"vehicle_type_id":"4","last_reported":1729184915,"current_range_meters":17600,"station_id":"ce4bgr92rcd13ifvqc7g","pricing_plan_id":"cebpf4jnsgd1na2vs0mg"},{"bike_id":"cf71152b-a2f3-40a8-a6ae-7122df38b0f9","system_id":"levelo_inurba_marseille","lat":43.25493,"lon":5.37649,"is_reserved":false,"is_disabled":false,"rental_uris":{"android":"levelo://app?vid=cf71152b-a2f3-40a8-a6ae-7122df38b0f9","ios":"levelo://app?vid=cf71152b-a2f3-40a8-a6ae-7122df38b0f9"},"vehicle_type_id":"4","last_reported":1729184915,"current_range_meters":8000,"station_id":"ce4bhh12rcd13ifvqff0","pricing_plan_id":"cebpf4jnsgd1na2vs0mg"},{"bike_id":"74b493d8-8ea5-414e-99a6-86834890f4fa","system_id":"levelo_inurba_marseille","lat":43.32103,"lon":5.36778,"is_reserved":false,"is_disabled":false,"rental_uris":{"android":"levelo://app?vid=74b493d8-8ea5-414e-99a6-86834890f4fa","ios":"levelo://app?vid=74b493d8-8ea5-414e-99a6-86834890f4fa"},"vehicle_type_id":"4","last_reported":1729184915,"current_range_meters":34000,"station_id":"ce4bhrh2rcd13ifvqhug","pricing_plan_id":"cebpf4jnsgd1na2vs0mg"},{"bike_id":"c0aea6bf-9822-4eef-a7c6-ea0b29185a8d","system_id":"levelo_inurba_marseille","lat":43.27934,"lon":5.41048,"is_reserved":false,"is_disabled":false,"rental_uris":{"android":"levelo://app?vid=c0aea6bf-9822-4eef-a7c6-ea0b29185a8d","ios":"levelo://app?vid=c0aea6bf-9822-4eef-a7c6-ea0b29185a8d"},"vehicle_type_id":"4","last_reported":1729184915,"current_range_meters":27600,"station_id":"ce4bhnp2rcd13ifvqh0g","pricing_plan_id":"cebpf4jnsgd1na2vs0mg"},{"bike_id":"3d7546d0-4dba-4212-88c9-dfe9a2032237","system_id":"levelo_inurba_marseille","lat":43.24163,"lon":5.36398,"is_reserved":false,"is_disabled":false,"rental_uris":{"android":"levelo://app?vid=3d7546d0-4dba-4212-88c9-dfe9a2032237","ios":"levelo://app?vid=3d7546d0-4dba-4212-88c9-dfe9a2032237"},"vehicle_type_id":"4","last_reported":1729184915,"current_range_meters":4400,"station_id":"cpo36qri1sfpv3e86is0","pricing_plan_id":"cebpf4jnsgd1na2vs0mg"},{"bike_id":"4f033d77-9454-4a3e-a01f-969de09fb8e8","system_id":"levelo_inurba_marseille","lat":43.25818,"lon":5.39444,"is_reserved":false,"is_disabled":false,"rental_uris":{"android":"levelo://app?vid=4f033d77-9454-4a3e-a01f-969de09fb8e8","ios":"levelo://app?vid=4f033d77-9454-4a3e-a01f-969de09fb8e8"},"vehicle_type_id":"4","last_reported":1729184915,"current_range_meters":19600,"station_id":"ce4bhip2rcd13ifvqft0","pricing_plan_id":"cebpf4jnsgd1na2vs0mg"},{"bike_id":"a929a803-2abf-4e36-9772-fba43b0b9504","system_id":"levelo_inurba_marseille","lat":43.30909,"lon":5.36846,"is_reserved":false,"is_disabled":false,"rental_uris":{"android":"levelo://app?vid=a929a803-2abf-4e36-9772-fba43b0b9504","ios":"levelo://app?vid=a929a803-2abf-4e36-9772-fba43b0b9504"},"vehicle_type_id":"4","last_reported":1729184915,"current_range_meters":20400,"station_id":"ce4bgn92rcd13ifvqbvg","pricing_plan_id":"cebpf4jnsgd1na2vs0mg"},{"bike_id":"90b7df2b-2805-4913-a745-07d80216980c","system_id":"levelo_inurba_marseille","lat":43.30797,"lon":5.43531,"is_reserved":false,"is_disabled":false,"rental_uris":{"android":"levelo://app?vid=90b7df2b-2805-4913-a745-07d80216980c","ios":"levelo://app?vid=90b7df2b-2805-4913-a745-07d80216980c"},"vehicle_type_id":"4","last_reported":1729184915,"current_range_meters":17200,"station_id":"ce4bhph2rcd13ifvqheg","pricing_plan_id":"cebpf4jnsgd1na2vs0mg"},{"bike_id":"32ce68a3-3fc7-4257-974f-ab657619c295","system_id":"levelo_inurba_marseille","lat":43.33749,"lon":5.37448,"is_reserved":false,"is_disabled":false,"rental_uris":{"android":"levelo://app?vid=32ce68a3-3fc7-4257-974f-ab657619c295","ios":"levelo://app?vid=32ce68a3-3fc7-4257-974f-ab657619c295"},"vehicle_type_id":"4","last_reported":1729184915,"current_range_meters":35600,"station_id":"","pricing_plan_id":"cebpf4jnsgd1na2vs0mg"},{"bike_id":"5a1b62f7-8a9e-42be-aefa-217aca5b6f27","system_id":"levelo_inurba_marseille","lat":43.23959,"lon":5.36641,"is_reserved":false,"is_disabled":false,"rental_uris":{"android":"levelo://app?vid=5a1b62f7-8a9e-42be-aefa-217aca5b6f27","ios":"levelo://app?vid=5a1b62f7-8a9e-42be-aefa-217aca5b6f27"},"vehicle_type_id":"4","last_reported":1729184915,"current_range_meters":38800,"station_id":"ce4bhi12rcd13ifvqfp0","pricing_plan_id":"cebpf4jnsgd1na2vs0mg"},{"bike_id":"270b6c56-7cef-47c7-92a9-d87ec153f459","system_id":"levelo_inurba_marseille","lat":43.24388,"lon":5.37064,"is_reserved":false,"is_disabled":false,"rental_uris":{"android":"levelo://app?vid=270b6c56-7cef-47c7-92a9-d87ec153f459","ios":"levelo://app?vid=270b6c56-7cef-47c7-92a9-d87ec153f459"},"vehicle_type_id":"4","last_reported":1729184915,"current_range_meters":28800,"station_id":"ce4bhhh2rcd13ifvqfk0","pricing_plan_id":"cebpf4jnsgd1na2vs0mg"},{"bike_id":"fa7bbdc9-afbe-404d-8676-647037cc76a9","system_id":"levelo_inurba_marseille","lat":43.23194,"lon":5.35547,"is_reserved":false,"is_disabled":false,"rental_uris":{"android":"levelo://app?vid=fa7bbdc9-afbe-404d-8676-647037cc76a9","ios":"levelo://app?vid=fa7bbdc9-afbe-404d-8676-647037cc76a9"},"vehicle_type_id":"4","last_reported":1729184915,"current_range_meters":33200,"station_id":"ce4bhu92rcd13ifvqi70","pricing_plan_id":"cebpf4jnsgd1na2vs0mg"},{"bike_id":"752671c2-9054-492c-9263-fc5cb1c19d98","system_id":"levelo_inurba_marseille","lat":43.33023,"lon":5.39039,"is_reserved":false,"is_disabled":false,"rental_uris":{"android":"levelo://app?vid=752671c2-9054-492c-9263-fc5cb1c19d98","ios":"levelo://app?vid=752671c2-9054-492c-9263-fc5cb1c19d98"},"vehicle_type_id":"4","last_reported":1729184915,"current_range_meters":9200,"station_id":"ce4bhr92rcd13ifvqhrg","pricing_plan_id":"cebpf4jnsgd1na2vs0mg"},{"bike_id":"ff726813-2517-4302-b4b8-60455484d8f6","system_id":"levelo_inurba_marseille","lat":43.33023,"lon":5.39047,"is_reserved":false,"is_disabled":false,"rental_uris":{"android":"levelo://app?vid=ff726813-2517-4302-b4b8-60455484d8f6","ios":"levelo://app?vid=ff726813-2517-4302-b4b8-60455484d8f6"},"vehicle_type_id":"4","last_reported":1729184915,"current_range_meters":10000,"station_id":"ce4bhr92rcd13ifvqhrg","pricing_plan_id":"cebpf4jnsgd1na2vs0mg"},{"bike_id":"45fca809-2639-4dbd-9871-00b35dc12195","system_id":"levelo_inurba_marseille","lat":43.29921,"lon":5.36572,"is_reserved":false,"is_disabled":false,"rental_uris":{"android":"levelo://app?vid=45fca809-2639-4dbd-9871-00b35dc12195","ios":"levelo://app?vid=45fca809-2639-4dbd-9871-00b35dc12195"},"vehicle_type_id":"4","last_reported":1729184915,"current_range_meters":3200,"station_id":"ce4bgm92rcd13ifvqbr0","pricing_plan_id":"cebpf4jnsgd1na2vs0mg"},{"bike_id":"9313a787-13e9-4747-aa6d-776c45943b9d","system_id":"levelo_inurba_marseille","lat":43.28074,"lon":5.39653,"is_reserved":false,"is_disabled":false,"rental_uris":{"android":"levelo://app?vid=9313a787-13e9-4747-aa6d-776c45943b9d","ios":"levelo://app?vid=9313a787-13e9-4747-aa6d-776c45943b9d"},"vehicle_type_id":"4","last_reported":1729184915,"current_range_meters":18000,"station_id":"ce4bho12rcd13ifvqh2g","pricing_plan_id":"cebpf4jnsgd1na2vs0mg"},{"bike_id":"4e82a983-4406-4fc1-9c7d-45090c1e4862","system_id":"levelo_inurba_marseille","lat":43.24536,"lon":5.39527,"is_reserved":false,"is_disabled":false,"rental_uris":{"android":"levelo://app?vid=4e82a983-4406-4fc1-9c7d-45090c1e4862","ios":"levelo://app?vid=4e82a983-4406-4fc1-9c7d-45090c1e4862"},"vehicle_type_id":"4","last_reported":1729184915,"current_range_meters":34800,"station_id":"ce4bhlp2rcd13ifvqgjg","pricing_plan_id":"cebpf4jnsgd1na2vs0mg"},{"bike_id":"8c1ec6cb-2291-4814-837b-be8625c706f3","system_id":"levelo_inurba_marseille","lat":43.23188,"lon":5.35542,"is_reserved":false,"is_disabled":false,"rental_uris":{"android":"levelo://app?vid=8c1ec6cb-2291-4814-837b-be8625c706f3","ios":"levelo://app?vid=8c1ec6cb-2291-4814-837b-be8625c706f3"},"vehicle_type_id":"4","last_reported":1729184915,"current_range_meters":36800,"station_id":"ce4bhu92rcd13ifvqi70","pricing_plan_id":"cebpf4jnsgd1na2vs0mg"},{"bike_id":"4ba0d524-228c-47ba-9ee4-e7ec9003220e","system_id":"levelo_inurba_marseille","lat":43.2481,"lon":5.37461,"is_reserved":false,"is_disabled":false,"rental_uris":{"android":"levelo://app?vid=4ba0d524-228c-47ba-9ee4-e7ec9003220e","ios":"levelo://app?vid=4ba0d524-228c-47ba-9ee4-e7ec9003220e"},"vehicle_type_id":"4","last_reported":1729184915,"current_range_meters":38800,"station_id":"ce4bhgh2rcd13ifvqfb0","pricing_plan_id":"cebpf4jnsgd1na2vs0mg"},{"bike_id":"980c1733-4731-4490-affe-b93a9324c675","system_id":"levelo_inurba_marseille","lat":43.2907,"lon":5.37185,"is_reserved":false,"is_disabled":false,"rental_uris":{"android":"levelo://app?vid=980c1733-4731-4490-affe-b93a9324c675","ios":"levelo://app?vid=980c1733-4731-4490-affe-b93a9324c675"},"vehicle_type_id":"4","last_reported":1729184915,"current_range_meters":10000,"station_id":"ce4bh5p2rcd13ifvqe4g","pricing_plan_id":"cebpf4jnsgd1na2vs0mg"},{"bike_id":"2eba3065-28ec-4a73-88a8-95f722698f8c","system_id":"levelo_inurba_marseille","lat":43.33024,"lon":5.39045,"is_reserved":false,"is_disabled":false,"rental_uris":{"android":"levelo://app?vid=2eba3065-28ec-4a73-88a8-95f722698f8c","ios":"levelo://app?vid=2eba3065-28ec-4a73-88a8-95f722698f8c"},"vehicle_type_id":"4","last_reported":1729184915,"current_range_meters":24000,"station_id":"ce4bhr92rcd13ifvqhrg","pricing_plan_id":"cebpf4jnsgd1na2vs0mg"},{"bike_id":"c89c2319-61a9-47ef-9229-e31c9eaab143","system_id":"levelo_inurba_marseille","lat":43.23195,"lon":5.3555,"is_reserved":false,"is_disabled":false,"rental_uris":{"android":"levelo://app?vid=c89c2319-61a9-47ef-9229-e31c9eaab143","ios":"levelo://app?vid=c89c2319-61a9-47ef-9229-e31c9eaab143"},"vehicle_type_id":"4","last_reported":1729184915,"current_range_meters":38800,"station_id":"ce4bhu92rcd13ifvqi70","pricing_plan_id":"cebpf4jnsgd1na2vs0mg"},{"bike_id":"9e70f111-f55e-488f-9e29-01959ec5b34a","system_id":"levelo_inurba_marseille","lat":43.32765,"lon":5.38476,"is_reserved":false,"is_disabled":false,"rental_uris":{"android":"levelo://app?vid=9e70f111-f55e-488f-9e29-01959ec5b34a","ios":"levelo://app?vid=9e70f111-f55e-488f-9e29-01959ec5b34a"},"vehicle_type_id":"4","last_reported":1729184915,"current_range_meters":30000,"station_id":"ce4bhr92rcd13ifvqhrg","pricing_plan_id":"cebpf4jnsgd1na2vs0mg"},{"bike_id":"c1b4d58c-7d67-4800-b5de-bf664ea422e8","system_id":"levelo_inurba_marseille","lat":43.24642,"lon":5.38901,"is_reserved":false,"is_disabled":false,"rental_uris":{"android":"levelo://app?vid=c1b4d58c-7d67-4800-b5de-bf664ea422e8","ios":"levelo://app?vid=c1b4d58c-7d67-4800-b5de-bf664ea422e8"},"vehicle_type_id":"4","last_reported":1729184915,"current_range_meters":10000,"station_id":"ce4bhg12rcd13ifvqf60","pricing_plan_id":"cebpf4jnsgd1na2vs0mg"},{"bike_id":"bb67a065-7f58-4c8b-b1c4-0ba0b52dcf19","system_id":"levelo_inurba_marseille","lat":43.32657,"lon":5.40998,"is_reserved":false,"is_disabled":false,"rental_uris":{"android":"levelo://app?vid=bb67a065-7f58-4c8b-b1c4-0ba0b52dcf19","ios":"levelo://app?vid=bb67a065-7f58-4c8b-b1c4-0ba0b52dcf19"},"vehicle_type_id":"4","last_reported":1729184915,"current_range_meters":25200,"station_id":"ce4bhpp2rcd13ifvqhgg","pricing_plan_id":"cebpf4jnsgd1na2vs0mg"},{"bike_id":"1f83888a-b6f2-480c-87e7-6b07142c1dd0","system_id":"levelo_inurba_marseille","lat":43.29893,"lon":5.43675,"is_reserved":false,"is_disabled":false,"rental_uris":{"android":"levelo://app?vid=1f83888a-b6f2-480c-87e7-6b07142c1dd0","ios":"levelo://app?vid=1f83888a-b6f2-480c-87e7-6b07142c1dd0"},"vehicle_type_id":"4","last_reported":1729184915,"current_range_meters":30000,"station_id":"ce4bhpp2rcd13ifvqhfg","pricing_plan_id":"cebpf4jnsgd1na2vs0mg"},{"bike_id":"794acdc8-c17c-4149-b903-ed4baea396b4","system_id":"levelo_inurba_marseille","lat":43.23178,"lon":5.39984,"is_reserved":false,"is_disabled":false,"rental_uris":{"android":"levelo://app?vid=794acdc8-c17c-4149-b903-ed4baea396b4","ios":"levelo://app?vid=794acdc8-c17c-4149-b903-ed4baea396b4"},"vehicle_type_id":"4","last_reported":1729184915,"current_range_meters":16400,"station_id":"ce4bhn12rcd13ifvqgqg","pricing_plan_id":"cebpf4jnsgd1na2vs0mg"},{"bike_id":"a638a42f-2c86-4a47-9fce-e8d77bee8966","system_id":"levelo_inurba_marseille","lat":43.30799,"lon":5.43526,"is_reserved":false,"is_disabled":false,"rental_uris":{"android":"levelo://app?vid=a638a42f-2c86-4a47-9fce-e8d77bee8966","ios":"levelo://app?vid=a638a42f-2c86-4a47-9fce-e8d77bee8966"},"vehicle_type_id":"4","last_reported":1729184915,"current_range_meters":32400,"station_id":"ce4bhph2rcd13ifvqheg","pricing_plan_id":"cebpf4jnsgd1na2vs0mg"},{"bike_id":"d647e6c0-253f-44fe-aa7d-ddd6d8d9c31a","system_id":"levelo_inurba_marseille","lat":43.277785,"lon":5.390041,"is_reserved":false,"is_disabled":false,"rental_uris":{"android":"levelo://app?vid=d647e6c0-253f-44fe-aa7d-ddd6d8d9c31a","ios":"levelo://app?vid=d647e6c0-253f-44fe-aa7d-ddd6d8d9c31a"},"vehicle_type_id":"4","last_reported":1729184915,"current_range_meters":14400,"station_id":"ce4bhi12rcd13ifvqfo0","pricing_plan_id":"cebpf4jnsgd1na2vs0mg"},{"bike_id":"874494de-7452-4f47-9fec-c5ec79478035","system_id":"levelo_inurba_marseille","lat":43.23965,"lon":5.36636,"is_reserved":false,"is_disabled":false,"rental_uris":{"android":"levelo://app?vid=874494de-7452-4f47-9fec-c5ec79478035","ios":"levelo://app?vid=874494de-7452-4f47-9fec-c5ec79478035"},"vehicle_type_id":"4","last_reported":1729184915,"current_range_meters":27600,"station_id":"ce4bhi12rcd13ifvqfp0","pricing_plan_id":"cebpf4jnsgd1na2vs0mg"},{"bike_id":"8b33911e-5d42-46bd-b00d-c1d5ce72f577","system_id":"levelo_inurba_marseille","lat":43.2318,"lon":5.39987,"is_reserved":false,"is_disabled":false,"rental_uris":{"android":"levelo://app?vid=8b33911e-5d42-46bd-b00d-c1d5ce72f577","ios":"levelo://app?vid=8b33911e-5d42-46bd-b00d-c1d5ce72f577"},"vehicle_type_id":"4","last_reported":1729184915,"current_range_meters":16400,"station_id":"ce4bhn12rcd13ifvqgqg","pricing_plan_id":"cebpf4jnsgd1na2vs0mg"},{"bike_id":"c4b8cec5-2609-4493-8dc3-5cdd5809166e","system_id":"levelo_inurba_marseille","lat":43.30532,"lon":5.38426,"is_reserved":false,"is_disabled":false,"rental_uris":{"android":"levelo://app?vid=c4b8cec5-2609-4493-8dc3-5cdd5809166e","ios":"levelo://app?vid=c4b8cec5-2609-4493-8dc3-5cdd5809166e"},"vehicle_type_id":"4","last_reported":1729184915,"current_range_meters":20400,"station_id":"ce4bgg92rcd13ifvqb30","pricing_plan_id":"cebpf4jnsgd1na2vs0mg"},{"bike_id":"0994d7f0-fa2e-480f-b967-2b1e1b476b78","system_id":"levelo_inurba_marseille","lat":43.23187,"lon":5.35559,"is_reserved":false,"is_disabled":false,"rental_uris":{"android":"levelo://app?vid=0994d7f0-fa2e-480f-b967-2b1e1b476b78","ios":"levelo://app?vid=0994d7f0-fa2e-480f-b967-2b1e1b476b78"},"vehicle_type_id":"4","last_reported":1729184915,"current_range_meters":12800,"station_id":"ce4bhu92rcd13ifvqi70","pricing_plan_id":"cebpf4jnsgd1na2vs0mg"},{"bike_id":"cafacf31-3dc4-4662-b543-8a143108fe4d","system_id":"levelo_inurba_marseille","lat":43.23178,"lon":5.39982,"is_reserved":false,"is_disabled":false,"rental_uris":{"android":"levelo://app?vid=cafacf31-3dc4-4662-b543-8a143108fe4d","ios":"levelo://app?vid=cafacf31-3dc4-4662-b543-8a143108fe4d"},"vehicle_type_id":"4","last_reported":1729184915,"current_range_meters":24400,"station_id":"ce4bhn12rcd13ifvqgqg","pricing_plan_id":"cebpf4jnsgd1na2vs0mg"},{"bike_id":"ca127f3a-6871-4235-aa95-1fb757d1dc55","system_id":"levelo_inurba_marseille","lat":43.32273,"lon":5.3827,"is_reserved":false,"is_disabled":false,"rental_uris":{"android":"levelo://app?vid=ca127f3a-6871-4235-aa95-1fb757d1dc55","ios":"levelo://app?vid=ca127f3a-6871-4235-aa95-1fb757d1dc55"},"vehicle_type_id":"4","last_reported":1729184915,"current_range_meters":31200,"station_id":"ce4bhr12rcd13ifvqhqg","pricing_plan_id":"cebpf4jnsgd1na2vs0mg"},{"bike_id":"86e22d90-048a-40f4-b500-32d71728c2fc","system_id":"levelo_inurba_marseille","lat":43.32111,"lon":5.36781,"is_reserved":false,"is_disabled":false,"rental_uris":{"android":"levelo://app?vid=86e22d90-048a-40f4-b500-32d71728c2fc","ios":"levelo://app?vid=86e22d90-048a-40f4-b500-32d71728c2fc"},"vehicle_type_id":"4","last_reported":1729184915,"current_range_meters":38800,"station_id":"ce4bhrh2rcd13ifvqhug","pricing_plan_id":"cebpf4jnsgd1na2vs0mg"},{"bike_id":"66ccc46d-618e-4760-b09c-27382152bdab","system_id":"levelo_inurba_marseille","lat":43.23192,"lon":5.35547,"is_reserved":false,"is_disabled":false,"rental_uris":{"android":"levelo://app?vid=66ccc46d-618e-4760-b09c-27382152bdab","ios":"levelo://app?vid=66ccc46d-618e-4760-b09c-27382152bdab"},"vehicle_type_id":"4","last_reported":1729184915,"current_range_meters":32000,"station_id":"ce4bhu92rcd13ifvqi70","pricing_plan_id":"cebpf4jnsgd1na2vs0mg"},{"bike_id":"4f32fa0a-905e-47f2-9365-9bd9d474838b","system_id":"levelo_inurba_marseille","lat":43.29068,"lon":5.37167,"is_reserved":false,"is_disabled":false,"rental_uris":{"android":"levelo://app?vid=4f32fa0a-905e-47f2-9365-9bd9d474838b","ios":"levelo://app?vid=4f32fa0a-905e-47f2-9365-9bd9d474838b"},"vehicle_type_id":"4","last_reported":1729184915,"current_range_meters":12000,"station_id":"ce4bh5p2rcd13ifvqe4g","pricing_plan_id":"cebpf4jnsgd1na2vs0mg"},{"bike_id":"1a8c0c9d-2dee-4664-9657-70b06fd40d22","system_id":"levelo_inurba_marseille","lat":43.3108,"lon":5.4244,"is_reserved":false,"is_disabled":false,"rental_uris":{"android":"levelo://app?vid=1a8c0c9d-2dee-4664-9657-70b06fd40d22","ios":"levelo://app?vid=1a8c0c9d-2dee-4664-9657-70b06fd40d22"},"vehicle_type_id":"4","last_reported":1729184915,"current_range_meters":21600,"station_id":"ce4bhp92rcd13ifvqhag","pricing_plan_id":"cebpf4jnsgd1na2vs0mg"},{"bike_id":"b7d1982f-3646-42f1-b1d1-7e2f4731b5af","system_id":"levelo_inurba_marseille","lat":43.30416,"lon":5.41274,"is_reserved":false,"is_disabled":false,"rental_uris":{"android":"levelo://app?vid=b7d1982f-3646-42f1-b1d1-7e2f4731b5af","ios":"levelo://app?vid=b7d1982f-3646-42f1-b1d1-7e2f4731b5af"},"vehicle_type_id":"4","last_reported":1729184915,"current_range_meters":13600,"station_id":"ce4bhop2rcd13ifvqh8g","pricing_plan_id":"cebpf4jnsgd1na2vs0mg"},{"bike_id":"6300df2c-b9fe-4275-916d-dd75e59140c9","system_id":"levelo_inurba_marseille","lat":43.23196,"lon":5.35547,"is_reserved":false,"is_disabled":false,"rental_uris":{"android":"levelo://app?vid=6300df2c-b9fe-4275-916d-dd75e59140c9","ios":"levelo://app?vid=6300df2c-b9fe-4275-916d-dd75e59140c9"},"vehicle_type_id":"4","last_reported":1729184915,"current_range_meters":32800,"station_id":"ce4bhu92rcd13ifvqi70","pricing_plan_id":"cebpf4jnsgd1na2vs0mg"},{"bike_id":"dbb0417b-f85b-4173-9a53-fde24d586d99","system_id":"levelo_inurba_marseille","lat":43.27824,"lon":5.39208,"is_reserved":false,"is_disabled":false,"rental_uris":{"android":"levelo://app?vid=dbb0417b-f85b-4173-9a53-fde24d586d99","ios":"levelo://app?vid=dbb0417b-f85b-4173-9a53-fde24d586d99"},"vehicle_type_id":"4","last_reported":1729184915,"current_range_meters":28000,"station_id":"ce4bhjp2rcd13ifvqga0","pricing_plan_id":"cebpf4jnsgd1na2vs0mg"},{"bike_id":"59238a0c-de64-46a6-a64a-5a5563ed932a","system_id":"levelo_inurba_marseille","lat":43.2293,"lon":5.35385,"is_reserved":false,"is_disabled":false,"rental_uris":{"android":"levelo://app?vid=59238a0c-de64-46a6-a64a-5a5563ed932a","ios":"levelo://app?vid=59238a0c-de64-46a6-a64a-5a5563ed932a"},"vehicle_type_id":"4","last_reported":1729184915,"current_range_meters":29600,"station_id":"cpo3532slgdg3j2ikp40","pricing_plan_id":"cebpf4jnsgd1na2vs0mg"},{"bike_id":"18fece38-7f78-46bd-920a-d0c6b5b3f9a1","system_id":"levelo_inurba_marseille","lat":43.29305,"lon":5.37169,"is_reserved":false,"is_disabled":false,"rental_uris":{"android":"levelo://app?vid=18fece38-7f78-46bd-920a-d0c6b5b3f9a1","ios":"levelo://app?vid=18fece38-7f78-46bd-920a-d0c6b5b3f9a1"},"vehicle_type_id":"4","last_reported":1729184915,"current_range_meters":12800,"station_id":"ce4bgh92rcd13ifvqb40","pricing_plan_id":"cebpf4jnsgd1na2vs0mg"},{"bike_id":"68a60258-fe2c-45b6-9f3f-9f34d67a03fb","system_id":"levelo_inurba_marseille","lat":43.25086,"lon":5.39527,"is_reserved":false,"is_disabled":false,"rental_uris":{"android":"levelo://app?vid=68a60258-fe2c-45b6-9f3f-9f34d67a03fb","ios":"levelo://app?vid=68a60258-fe2c-45b6-9f3f-9f34d67a03fb"},"vehicle_type_id":"4","last_reported":1729184915,"current_range_meters":27600,"station_id":"ce4bhm12rcd13ifvqgkg","pricing_plan_id":"cebpf4jnsgd1na2vs0mg"},{"bike_id":"96e6bbf8-7179-4536-aea6-fa911eb1f971","system_id":"levelo_inurba_marseille","lat":43.2993,"lon":5.36564,"is_reserved":false,"is_disabled":false,"rental_uris":{"android":"levelo://app?vid=96e6bbf8-7179-4536-aea6-fa911eb1f971","ios":"levelo://app?vid=96e6bbf8-7179-4536-aea6-fa911eb1f971"},"vehicle_type_id":"4","last_reported":1729184915,"current_range_meters":36000,"station_id":"ce4bgm92rcd13ifvqbr0","pricing_plan_id":"cebpf4jnsgd1na2vs0mg"},{"bike_id":"6948c9c7-2187-4cdd-bec3-a82569bfc79d","system_id":"levelo_inurba_marseille","lat":43.27814,"lon":5.40719,"is_reserved":false,"is_disabled":false,"rental_uris":{"android":"levelo://app?vid=6948c9c7-2187-4cdd-bec3-a82569bfc79d","ios":"levelo://app?vid=6948c9c7-2187-4cdd-bec3-a82569bfc79d"},"vehicle_type_id":"4","last_reported":1729184915,"current_range_meters":38800,"station_id":"ce4bhnh2rcd13ifvqgtg","pricing_plan_id":"cebpf4jnsgd1na2vs0mg"},{"bike_id":"dc0bcfa8-2e23-4d89-b93c-cd58f6209e16","system_id":"levelo_inurba_marseille","lat":43.23963,"lon":5.36635,"is_reserved":false,"is_disabled":false,"rental_uris":{"android":"levelo://app?vid=dc0bcfa8-2e23-4d89-b93c-cd58f6209e16","ios":"levelo://app?vid=dc0bcfa8-2e23-4d89-b93c-cd58f6209e16"},"vehicle_type_id":"4","last_reported":1729184915,"current_range_meters":6800,"station_id":"ce4bhi12rcd13ifvqfp0","pricing_plan_id":"cebpf4jnsgd1na2vs0mg"},{"bike_id":"94dad7f8-6585-4b37-b691-74420d23ef13","system_id":"levelo_inurba_marseille","lat":43.30796,"lon":5.43526,"is_reserved":false,"is_disabled":false,"rental_uris":{"android":"levelo://app?vid=94dad7f8-6585-4b37-b691-74420d23ef13","ios":"levelo://app?vid=94dad7f8-6585-4b37-b691-74420d23ef13"},"vehicle_type_id":"4","last_reported":1729184915,"current_range_meters":38800,"station_id":"ce4bhph2rcd13ifvqheg","pricing_plan_id":"cebpf4jnsgd1na2vs0mg"},{"bike_id":"da83ce7d-2d27-4e35-b716-873e14701761","system_id":"levelo_inurba_marseille","lat":43.28842,"lon":5.39317,"is_reserved":false,"is_disabled":false,"rental_uris":{"android":"levelo://app?vid=da83ce7d-2d27-4e35-b716-873e14701761","ios":"levelo://app?vid=da83ce7d-2d27-4e35-b716-873e14701761"},"vehicle_type_id":"4","last_reported":1729184915,"current_range_meters":22400,"station_id":"ce4bh2p2rcd13ifvqdi0","pricing_plan_id":"cebpf4jnsgd1na2vs0mg"},{"bike_id":"4562e9bb-7c1e-4e0e-95e1-858d0f8d86d1","system_id":"levelo_inurba_marseille","lat":43.23192,"lon":5.35563,"is_reserved":false,"is_disabled":false,"rental_uris":{"android":"levelo://app?vid=4562e9bb-7c1e-4e0e-95e1-858d0f8d86d1","ios":"levelo://app?vid=4562e9bb-7c1e-4e0e-95e1-858d0f8d86d1"},"vehicle_type_id":"4","last_reported":1729184915,"current_range_meters":38800,"station_id":"ce4bhu92rcd13ifvqi70","pricing_plan_id":"cebpf4jnsgd1na2vs0mg"},{"bike_id":"6837ac97-30a8-4145-8047-b6d6df61ac48","system_id":"levelo_inurba_marseille","lat":43.2318,"lon":5.39991,"is_reserved":false,"is_disabled":false,"rental_uris":{"android":"levelo://app?vid=6837ac97-30a8-4145-8047-b6d6df61ac48","ios":"levelo://app?vid=6837ac97-30a8-4145-8047-b6d6df61ac48"},"vehicle_type_id":"4","last_reported":1729184915,"current_range_meters":34800,"station_id":"ce4bhn12rcd13ifvqgqg","pricing_plan_id":"cebpf4jnsgd1na2vs0mg"},{"bike_id":"2140b6a3-5118-4150-823e-9225aeb56201","system_id":"levelo_inurba_marseille","lat":43.23197,"lon":5.3555,"is_reserved":false,"is_disabled":false,"rental_uris":{"android":"levelo://app?vid=2140b6a3-5118-4150-823e-9225aeb56201","ios":"levelo://app?vid=2140b6a3-5118-4150-823e-9225aeb56201"},"vehicle_type_id":"4","last_reported":1729184915,"current_range_meters":36400,"station_id":"ce4bhu92rcd13ifvqi70","pricing_plan_id":"cebpf4jnsgd1na2vs0mg"},{"bike_id":"2d26828d-d90f-4409-8e3f-2bdaa5ca0cb2","system_id":"levelo_inurba_marseille","lat":43.23179,"lon":5.39991,"is_reserved":false,"is_disabled":false,"rental_uris":{"android":"levelo://app?vid=2d26828d-d90f-4409-8e3f-2bdaa5ca0cb2","ios":"levelo://app?vid=2d26828d-d90f-4409-8e3f-2bdaa5ca0cb2"},"vehicle_type_id":"4","last_reported":1729184915,"current_range_meters":37600,"station_id":"ce4bhn12rcd13ifvqgqg","pricing_plan_id":"cebpf4jnsgd1na2vs0mg"},{"bike_id":"375aba81-68ac-47d6-a3f1-cc6de7755cb9","system_id":"levelo_inurba_marseille","lat":43.25575,"lon":5.38234,"is_reserved":false,"is_disabled":false,"rental_uris":{"android":"levelo://app?vid=375aba81-68ac-47d6-a3f1-cc6de7755cb9","ios":"levelo://app?vid=375aba81-68ac-47d6-a3f1-cc6de7755cb9"},"vehicle_type_id":"4","last_reported":1729184915,"current_range_meters":31200,"station_id":"ce4bhih2rcd13ifvqfs0","pricing_plan_id":"cebpf4jnsgd1na2vs0mg"},{"bike_id":"7cda3f4a-d91d-40ed-af5a-14b7cb3b421c","system_id":"levelo_inurba_marseille","lat":43.29419,"lon":5.38628,"is_reserved":false,"is_disabled":false,"rental_uris":{"android":"levelo://app?vid=7cda3f4a-d91d-40ed-af5a-14b7cb3b421c","ios":"levelo://app?vid=7cda3f4a-d91d-40ed-af5a-14b7cb3b421c"},"vehicle_type_id":"4","last_reported":1729184915,"current_range_meters":19600,"station_id":"ce4bh2h2rcd13ifvqdh0","pricing_plan_id":"cebpf4jnsgd1na2vs0mg"},{"bike_id":"9cd10435-f6d1-4989-a50c-cb2e3bc7bcf8","system_id":"levelo_inurba_marseille","lat":43.25492,"lon":5.37654,"is_reserved":false,"is_disabled":false,"rental_uris":{"android":"levelo://app?vid=9cd10435-f6d1-4989-a50c-cb2e3bc7bcf8","ios":"levelo://app?vid=9cd10435-f6d1-4989-a50c-cb2e3bc7bcf8"},"vehicle_type_id":"4","last_reported":1729184915,"current_range_meters":38800,"station_id":"ce4bhh12rcd13ifvqff0","pricing_plan_id":"cebpf4jnsgd1na2vs0mg"},{"bike_id":"c5055374-d460-4c99-ad94-2e35eff1136f","system_id":"levelo_inurba_marseille","lat":43.2893,"lon":5.36647,"is_reserved":false,"is_disabled":false,"rental_uris":{"android":"levelo://app?vid=c5055374-d460-4c99-ad94-2e35eff1136f","ios":"levelo://app?vid=c5055374-d460-4c99-ad94-2e35eff1136f"},"vehicle_type_id":"4","last_reported":1729184915,"current_range_meters":18000,"station_id":"ce4bhap2rcd13ifvqek0","pricing_plan_id":"cebpf4jnsgd1na2vs0mg"},{"bike_id":"974e9931-6d20-4545-9e5e-b40e518c0577","system_id":"levelo_inurba_marseille","lat":43.27813,"lon":5.40723,"is_reserved":false,"is_disabled":false,"rental_uris":{"android":"levelo://app?vid=974e9931-6d20-4545-9e5e-b40e518c0577","ios":"levelo://app?vid=974e9931-6d20-4545-9e5e-b40e518c0577"},"vehicle_type_id":"4","last_reported":1729184915,"current_range_meters":30800,"station_id":"ce4bhnh2rcd13ifvqgtg","pricing_plan_id":"cebpf4jnsgd1na2vs0mg"},{"bike_id":"38d1e460-dee3-483b-bdaf-0e4c9c733128","system_id":"levelo_inurba_marseille","lat":43.2621,"lon":5.37445,"is_reserved":false,"is_disabled":false,"rental_uris":{"android":"levelo://app?vid=38d1e460-dee3-483b-bdaf-0e4c9c733128","ios":"levelo://app?vid=38d1e460-dee3-483b-bdaf-0e4c9c733128"},"vehicle_type_id":"4","last_reported":1729184915,"current_range_meters":4800,"station_id":"ce4bhgp2rcd13ifvqfc0","pricing_plan_id":"cebpf4jnsgd1na2vs0mg"},{"bike_id":"83bcafb6-7740-4133-8b56-4bf302222f17","system_id":"levelo_inurba_marseille","lat":43.23962,"lon":5.36641,"is_reserved":false,"is_disabled":false,"rental_uris":{"android":"levelo://app?vid=83bcafb6-7740-4133-8b56-4bf302222f17","ios":"levelo://app?vid=83bcafb6-7740-4133-8b56-4bf302222f17"},"vehicle_type_id":"4","last_reported":1729184915,"current_range_meters":38800,"station_id":"ce4bhi12rcd13ifvqfp0","pricing_plan_id":"cebpf4jnsgd1na2vs0mg"},{"bike_id":"4ae184d9-36eb-4ec2-abc3-34749798da4c","system_id":"levelo_inurba_marseille","lat":43.3302,"lon":5.39045,"is_reserved":false,"is_disabled":false,"rental_uris":{"android":"levelo://app?vid=4ae184d9-36eb-4ec2-abc3-34749798da4c","ios":"levelo://app?vid=4ae184d9-36eb-4ec2-abc3-34749798da4c"},"vehicle_type_id":"4","last_reported":1729184915,"current_range_meters":15200,"station_id":"ce4bhr92rcd13ifvqhrg","pricing_plan_id":"cebpf4jnsgd1na2vs0mg"},{"bike_id":"7772d39f-5e28-445c-af91-069b0cf63793","system_id":"levelo_inurba_marseille","lat":43.33747,"lon":5.37433,"is_reserved":false,"is_disabled":false,"rental_uris":{"android":"levelo://app?vid=7772d39f-5e28-445c-af91-069b0cf63793","ios":"levelo://app?vid=7772d39f-5e28-445c-af91-069b0cf63793"},"vehicle_type_id":"4","last_reported":1729184915,"current_range_meters":16000,"station_id":"","pricing_plan_id":"cebpf4jnsgd1na2vs0mg"},{"bike_id":"15ba6c09-c7f4-4384-bb75-b77a33eb6249","system_id":"levelo_inurba_marseille","lat":43.33015,"lon":5.39034,"is_reserved":false,"is_disabled":false,"rental_uris":{"android":"levelo://app?vid=15ba6c09-c7f4-4384-bb75-b77a33eb6249","ios":"levelo://app?vid=15ba6c09-c7f4-4384-bb75-b77a33eb6249"},"vehicle_type_id":"4","last_reported":1729184915,"current_range_meters":17600,"station_id":"ce4bhr92rcd13ifvqhrg","pricing_plan_id":"cebpf4jnsgd1na2vs0mg"},{"bike_id":"f5ba869f-ba5a-42f4-ac84-62beb4addcc0","system_id":"levelo_inurba_marseille","lat":43.28104,"lon":5.37845,"is_reserved":false,"is_disabled":false,"rental_uris":{"android":"levelo://app?vid=f5ba869f-ba5a-42f4-ac84-62beb4addcc0","ios":"levelo://app?vid=f5ba869f-ba5a-42f4-ac84-62beb4addcc0"},"vehicle_type_id":"4","last_reported":1729184915,"current_range_meters":9200,"station_id":"ce4bha12rcd13ifvqee0","pricing_plan_id":"cebpf4jnsgd1na2vs0mg"},{"bike_id":"3213665e-989c-4d22-9f5a-31c8522597dd","system_id":"levelo_inurba_marseille","lat":43.296,"lon":5.36142,"is_reserved":false,"is_disabled":false,"rental_uris":{"android":"levelo://app?vid=3213665e-989c-4d22-9f5a-31c8522597dd","ios":"levelo://app?vid=3213665e-989c-4d22-9f5a-31c8522597dd"},"vehicle_type_id":"4","last_reported":1729184915,"current_range_meters":27600,"station_id":"","pricing_plan_id":"cebpf4jnsgd1na2vs0mg"},{"bike_id":"cddb2538-acdb-46a5-bc95-6e0a8d74ef0c","system_id":"levelo_inurba_marseille","lat":43.30795,"lon":5.43525,"is_reserved":false,"is_disabled":false,"rental_uris":{"android":"levelo://app?vid=cddb2538-acdb-46a5-bc95-6e0a8d74ef0c","ios":"levelo://app?vid=cddb2538-acdb-46a5-bc95-6e0a8d74ef0c"},"vehicle_type_id":"4","last_reported":1729184915,"current_range_meters":36400,"station_id":"ce4bhph2rcd13ifvqheg","pricing_plan_id":"cebpf4jnsgd1na2vs0mg"},{"bike_id":"245d8487-1b88-4b97-9945-0896fa3e7cbe","system_id":"levelo_inurba_marseille","lat":43.31757,"lon":5.3902,"is_reserved":false,"is_disabled":false,"rental_uris":{"android":"levelo://app?vid=245d8487-1b88-4b97-9945-0896fa3e7cbe","ios":"levelo://app?vid=245d8487-1b88-4b97-9945-0896fa3e7cbe"},"vehicle_type_id":"4","last_reported":1729184915,"current_range_meters":19200,"station_id":"ce4bhqp2rcd13ifvqhng","pricing_plan_id":"cebpf4jnsgd1na2vs0mg"},{"bike_id":"15e319b1-637b-4e82-90e8-5e7ee80a529b","system_id":"levelo_inurba_marseille","lat":43.24807,"lon":5.37458,"is_reserved":false,"is_disabled":false,"rental_uris":{"android":"levelo://app?vid=15e319b1-637b-4e82-90e8-5e7ee80a529b","ios":"levelo://app?vid=15e319b1-637b-4e82-90e8-5e7ee80a529b"},"vehicle_type_id":"4","last_reported":1729184915,"current_range_meters":39200,"station_id":"ce4bhgh2rcd13ifvqfb0","pricing_plan_id":"cebpf4jnsgd1na2vs0mg"},{"bike_id":"1641b826-604a-4181-8231-dca386f637a6","system_id":"levelo_inurba_marseille","lat":43.2319,"lon":5.35561,"is_reserved":false,"is_disabled":false,"rental_uris":{"android":"levelo://app?vid=1641b826-604a-4181-8231-dca386f637a6","ios":"levelo://app?vid=1641b826-604a-4181-8231-dca386f637a6"},"vehicle_type_id":"4","last_reported":1729184915,"current_range_meters":33200,"station_id":"ce4bhu92rcd13ifvqi70","pricing_plan_id":"cebpf4jnsgd1na2vs0mg"},{"bike_id":"89211ee2-076f-4df3-92bd-cd8885f2e76d","system_id":"levelo_inurba_marseille","lat":43.23195,"lon":5.35551,"is_reserved":false,"is_disabled":false,"rental_uris":{"android":"levelo://app?vid=89211ee2-076f-4df3-92bd-cd8885f2e76d","ios":"levelo://app?vid=89211ee2-076f-4df3-92bd-cd8885f2e76d"},"vehicle_type_id":"4","last_reported":1729184915,"current_range_meters":32400,"station_id":"ce4bhu92rcd13ifvqi70","pricing_plan_id":"cebpf4jnsgd1na2vs0mg"},{"bike_id":"709d5590-8507-49ee-9141-2da6d7e93b39","system_id":"levelo_inurba_marseille","lat":43.27823,"lon":5.40729,"is_reserved":false,"is_disabled":false,"rental_uris":{"android":"levelo://app?vid=709d5590-8507-49ee-9141-2da6d7e93b39","ios":"levelo://app?vid=709d5590-8507-49ee-9141-2da6d7e93b39"},"vehicle_type_id":"4","last_reported":1729184915,"current_range_meters":6400,"station_id":"ce4bhnh2rcd13ifvqgtg","pricing_plan_id":"cebpf4jnsgd1na2vs0mg"},{"bike_id":"9615f0e1-9392-44df-883c-8f9aaa5196a2","system_id":"levelo_inurba_marseille","lat":43.27371,"lon":5.36253,"is_reserved":false,"is_disabled":false,"rental_uris":{"android":"levelo://app?vid=9615f0e1-9392-44df-883c-8f9aaa5196a2","ios":"levelo://app?vid=9615f0e1-9392-44df-883c-8f9aaa5196a2"},"vehicle_type_id":"4","last_reported":1729184915,"current_range_meters":38400,"station_id":"ce4bhbh2rcd13ifvqeo0","pricing_plan_id":"cebpf4jnsgd1na2vs0mg"},{"bike_id":"f88c7e01-bc8c-4735-8a37-e29425c30c87","system_id":"levelo_inurba_marseille","lat":43.23187,"lon":5.39986,"is_reserved":false,"is_disabled":false,"rental_uris":{"android":"levelo://app?vid=f88c7e01-bc8c-4735-8a37-e29425c30c87","ios":"levelo://app?vid=f88c7e01-bc8c-4735-8a37-e29425c30c87"},"vehicle_type_id":"4","last_reported":1729184915,"current_range_meters":11200,"station_id":"ce4bhn12rcd13ifvqgqg","pricing_plan_id":"cebpf4jnsgd1na2vs0mg"},{"bike_id":"14deb1b1-b495-4b35-97c2-895a5ef7ad23","system_id":"levelo_inurba_marseille","lat":43.32334,"lon":5.40621,"is_reserved":false,"is_disabled":false,"rental_uris":{"android":"levelo://app?vid=14deb1b1-b495-4b35-97c2-895a5ef7ad23","ios":"levelo://app?vid=14deb1b1-b495-4b35-97c2-895a5ef7ad23"},"vehicle_type_id":"4","last_reported":1729184915,"current_range_meters":39200,"station_id":"ce4bhq92rcd13ifvqhjg","pricing_plan_id":"cebpf4jnsgd1na2vs0mg"},{"bike_id":"1f7e80b9-da10-4a71-bd60-edc31869e881","system_id":"levelo_inurba_marseille","lat":43.31268,"lon":5.4019,"is_reserved":false,"is_disabled":false,"rental_uris":{"android":"levelo://app?vid=1f7e80b9-da10-4a71-bd60-edc31869e881","ios":"levelo://app?vid=1f7e80b9-da10-4a71-bd60-edc31869e881"},"vehicle_type_id":"4","last_reported":1729184915,"current_range_meters":20000,"station_id":"ce4bh092rcd13ifvqd30","pricing_plan_id":"cebpf4jnsgd1na2vs0mg"},{"bike_id":"a5ed1db1-748e-44bb-b80a-0394adffdf5f","system_id":"levelo_inurba_marseille","lat":43.31363,"lon":5.38496,"is_reserved":false,"is_disabled":false,"rental_uris":{"android":"levelo://app?vid=a5ed1db1-748e-44bb-b80a-0394adffdf5f","ios":"levelo://app?vid=a5ed1db1-748e-44bb-b80a-0394adffdf5f"},"vehicle_type_id":"4","last_reported":1729184915,"current_range_meters":10800,"station_id":"ce4bgt92rcd13ifvqcf0","pricing_plan_id":"cebpf4jnsgd1na2vs0mg"},{"bike_id":"87440bd7-4730-412f-b52f-03b263c3d6ba","system_id":"levelo_inurba_marseille","lat":43.2319,"lon":5.35562,"is_reserved":false,"is_disabled":false,"rental_uris":{"android":"levelo://app?vid=87440bd7-4730-412f-b52f-03b263c3d6ba","ios":"levelo://app?vid=87440bd7-4730-412f-b52f-03b263c3d6ba"},"vehicle_type_id":"4","last_reported":1729184915,"current_range_meters":18000,"station_id":"ce4bhu92rcd13ifvqi70","pricing_plan_id":"cebpf4jnsgd1na2vs0mg"},{"bike_id":"8b52cae9-7e47-4af1-ba65-5f35a0a09f7f","system_id":"levelo_inurba_marseille","lat":43.28456,"lon":5.35886,"is_reserved":false,"is_disabled":false,"rental_uris":{"android":"levelo://app?vid=8b52cae9-7e47-4af1-ba65-5f35a0a09f7f","ios":"levelo://app?vid=8b52cae9-7e47-4af1-ba65-5f35a0a09f7f"},"vehicle_type_id":"4","last_reported":1729184915,"current_range_meters":27600,"station_id":"ce4bhah2rcd13ifvqei0","pricing_plan_id":"cebpf4jnsgd1na2vs0mg"},{"bike_id":"384fc17d-da3f-4ef9-9eef-55479fb56c35","system_id":"levelo_inurba_marseille","lat":43.33025,"lon":5.39041,"is_reserved":false,"is_disabled":false,"rental_uris":{"android":"levelo://app?vid=384fc17d-da3f-4ef9-9eef-55479fb56c35","ios":"levelo://app?vid=384fc17d-da3f-4ef9-9eef-55479fb56c35"},"vehicle_type_id":"4","last_reported":1729184915,"current_range_meters":7200,"station_id":"ce4bhr92rcd13ifvqhrg","pricing_plan_id":"cebpf4jnsgd1na2vs0mg"},{"bike_id":"b5f59a90-1e69-4893-a2d9-7ee9b626f1e4","system_id":"levelo_inurba_marseille","lat":43.24662,"lon":5.38166,"is_reserved":false,"is_disabled":false,"rental_uris":{"android":"levelo://app?vid=b5f59a90-1e69-4893-a2d9-7ee9b626f1e4","ios":"levelo://app?vid=b5f59a90-1e69-4893-a2d9-7ee9b626f1e4"},"vehicle_type_id":"4","last_reported":1729184915,"current_range_meters":38800,"station_id":"ce4bhih2rcd13ifvqfr0","pricing_plan_id":"cebpf4jnsgd1na2vs0mg"},{"bike_id":"c518031f-91e1-4739-a28d-864eca758cfe","system_id":"levelo_inurba_marseille","lat":43.29273,"lon":5.37478,"is_reserved":false,"is_disabled":false,"rental_uris":{"android":"levelo://app?vid=c518031f-91e1-4739-a28d-864eca758cfe","ios":"levelo://app?vid=c518031f-91e1-4739-a28d-864eca758cfe"},"vehicle_type_id":"4","last_reported":1729184915,"current_range_meters":8000,"station_id":"ce4bgi12rcd13ifvqb70","pricing_plan_id":"cebpf4jnsgd1na2vs0mg"},{"bike_id":"037e7d08-a78c-4974-ac0b-96c939dea0e0","system_id":"levelo_inurba_marseille","lat":43.30801,"lon":5.4352,"is_reserved":false,"is_disabled":false,"rental_uris":{"android":"levelo://app?vid=037e7d08-a78c-4974-ac0b-96c939dea0e0","ios":"levelo://app?vid=037e7d08-a78c-4974-ac0b-96c939dea0e0"},"vehicle_type_id":"4","last_reported":1729184915,"current_range_meters":16400,"station_id":"ce4bhph2rcd13ifvqheg","pricing_plan_id":"cebpf4jnsgd1na2vs0mg"},{"bike_id":"0bddf13a-c6ee-4477-84da-09c1c0e311d4","system_id":"levelo_inurba_marseille","lat":43.23193,"lon":5.35551,"is_reserved":false,"is_disabled":false,"rental_uris":{"android":"levelo://app?vid=0bddf13a-c6ee-4477-84da-09c1c0e311d4","ios":"levelo://app?vid=0bddf13a-c6ee-4477-84da-09c1c0e311d4"},"vehicle_type_id":"4","last_reported":1729184915,"current_range_meters":27200,"station_id":"ce4bhu92rcd13ifvqi70","pricing_plan_id":"cebpf4jnsgd1na2vs0mg"},{"bike_id":"ecdffe81-4124-4f3a-8ea8-000d22b7503b","system_id":"levelo_inurba_marseille","lat":43.2511,"lon":5.40325,"is_reserved":false,"is_disabled":false,"rental_uris":{"android":"levelo://app?vid=ecdffe81-4124-4f3a-8ea8-000d22b7503b","ios":"levelo://app?vid=ecdffe81-4124-4f3a-8ea8-000d22b7503b"},"vehicle_type_id":"4","last_reported":1729184915,"current_range_meters":24000,"station_id":"ce4bhlh2rcd13ifvqgig","pricing_plan_id":"cebpf4jnsgd1na2vs0mg"},{"bike_id":"30ee2445-4015-4c57-8160-236c7493feab","system_id":"levelo_inurba_marseille","lat":43.24078,"lon":5.37756,"is_reserved":false,"is_disabled":false,"rental_uris":{"android":"levelo://app?vid=30ee2445-4015-4c57-8160-236c7493feab","ios":"levelo://app?vid=30ee2445-4015-4c57-8160-236c7493feab"},"vehicle_type_id":"4","last_reported":1729184915,"current_range_meters":18000,"station_id":"ce4bhnp2rcd13ifvqgvg","pricing_plan_id":"cebpf4jnsgd1na2vs0mg"},{"bike_id":"2901ff37-0119-4f7b-91fb-d7fdf0736260","system_id":"levelo_inurba_marseille","lat":43.2293,"lon":5.35374,"is_reserved":false,"is_disabled":false,"rental_uris":{"android":"levelo://app?vid=2901ff37-0119-4f7b-91fb-d7fdf0736260","ios":"levelo://app?vid=2901ff37-0119-4f7b-91fb-d7fdf0736260"},"vehicle_type_id":"4","last_reported":1729184915,"current_range_meters":30800,"station_id":"cpo3532slgdg3j2ikp40","pricing_plan_id":"cebpf4jnsgd1na2vs0mg"},{"bike_id":"cb76f825-9dab-46a9-8a65-cc589bf2be41","system_id":"levelo_inurba_marseille","lat":43.31072,"lon":5.38358,"is_reserved":false,"is_disabled":false,"rental_uris":{"android":"levelo://app?vid=cb76f825-9dab-46a9-8a65-cc589bf2be41","ios":"levelo://app?vid=cb76f825-9dab-46a9-8a65-cc589bf2be41"},"vehicle_type_id":"4","last_reported":1729184915,"current_range_meters":11600,"station_id":"ce4bgv92rcd13ifvqcr0","pricing_plan_id":"cebpf4jnsgd1na2vs0mg"},{"bike_id":"80a7c61d-cbc2-463e-85f1-b0d13810e239","system_id":"levelo_inurba_marseille","lat":43.28004,"lon":5.40016,"is_reserved":false,"is_disabled":false,"rental_uris":{"android":"levelo://app?vid=80a7c61d-cbc2-463e-85f1-b0d13810e239","ios":"levelo://app?vid=80a7c61d-cbc2-463e-85f1-b0d13810e239"},"vehicle_type_id":"4","last_reported":1729184915,"current_range_meters":14400,"station_id":"ce4bho92rcd13ifvqh4g","pricing_plan_id":"cebpf4jnsgd1na2vs0mg"},{"bike_id":"7a76e164-6b75-4577-a223-fcbb4c2d551b","system_id":"levelo_inurba_marseille","lat":43.28076,"lon":5.39666,"is_reserved":false,"is_disabled":false,"rental_uris":{"android":"levelo://app?vid=7a76e164-6b75-4577-a223-fcbb4c2d551b","ios":"levelo://app?vid=7a76e164-6b75-4577-a223-fcbb4c2d551b"},"vehicle_type_id":"4","last_reported":1729184915,"current_range_meters":29600,"station_id":"ce4bho12rcd13ifvqh2g","pricing_plan_id":"cebpf4jnsgd1na2vs0mg"},{"bike_id":"1224abcf-199c-4e19-871f-9e1d7bbd5b67","system_id":"levelo_inurba_marseille","lat":43.24063,"lon":5.37741,"is_reserved":false,"is_disabled":false,"rental_uris":{"android":"levelo://app?vid=1224abcf-199c-4e19-871f-9e1d7bbd5b67","ios":"levelo://app?vid=1224abcf-199c-4e19-871f-9e1d7bbd5b67"},"vehicle_type_id":"4","last_reported":1729184915,"current_range_meters":38800,"station_id":"ce4bhnp2rcd13ifvqgvg","pricing_plan_id":"cebpf4jnsgd1na2vs0mg"},{"bike_id":"292b9425-1372-40d4-bf0a-fe57aa779a41","system_id":"levelo_inurba_marseille","lat":43.23065,"lon":5.35492,"is_reserved":false,"is_disabled":false,"rental_uris":{"android":"levelo://app?vid=292b9425-1372-40d4-bf0a-fe57aa779a41","ios":"levelo://app?vid=292b9425-1372-40d4-bf0a-fe57aa779a41"},"vehicle_type_id":"4","last_reported":1729184915,"current_range_meters":24000,"station_id":"cpo3342slgdg3j2ifvpg","pricing_plan_id":"cebpf4jnsgd1na2vs0mg"},{"bike_id":"0ba5f0fb-3371-4056-b006-ba2f3cc0efe4","system_id":"levelo_inurba_marseille","lat":43.29544,"lon":5.38539,"is_reserved":false,"is_disabled":false,"rental_uris":{"android":"levelo://app?vid=0ba5f0fb-3371-4056-b006-ba2f3cc0efe4","ios":"levelo://app?vid=0ba5f0fb-3371-4056-b006-ba2f3cc0efe4"},"vehicle_type_id":"4","last_reported":1729184915,"current_range_meters":27200,"station_id":"ce4bgih2rcd13ifvqba0","pricing_plan_id":"cebpf4jnsgd1na2vs0mg"},{"bike_id":"afe9ff89-1b31-492e-9dea-f8a33b0bd764","system_id":"levelo_inurba_marseille","lat":43.27808,"lon":5.40725,"is_reserved":false,"is_disabled":false,"rental_uris":{"android":"levelo://app?vid=afe9ff89-1b31-492e-9dea-f8a33b0bd764","ios":"levelo://app?vid=afe9ff89-1b31-492e-9dea-f8a33b0bd764"},"vehicle_type_id":"4","last_reported":1729184915,"current_range_meters":12800,"station_id":"ce4bhnh2rcd13ifvqgtg","pricing_plan_id":"cebpf4jnsgd1na2vs0mg"},{"bike_id":"37af1afe-6492-42f7-b340-0ada161833ca","system_id":"levelo_inurba_marseille","lat":43.30884,"lon":5.39646,"is_reserved":false,"is_disabled":false,"rental_uris":{"android":"levelo://app?vid=37af1afe-6492-42f7-b340-0ada161833ca","ios":"levelo://app?vid=37af1afe-6492-42f7-b340-0ada161833ca"},"vehicle_type_id":"4","last_reported":1729184915,"current_range_meters":28000,"station_id":"ce4bh012rcd13ifvqcv0","pricing_plan_id":"cebpf4jnsgd1na2vs0mg"},{"bike_id":"a22d1504-5e83-4a6a-856e-a92644cc5a78","system_id":"levelo_inurba_marseille","lat":43.29278,"lon":5.36852,"is_reserved":false,"is_disabled":false,"rental_uris":{"android":"levelo://app?vid=a22d1504-5e83-4a6a-856e-a92644cc5a78","ios":"levelo://app?vid=a22d1504-5e83-4a6a-856e-a92644cc5a78"},"vehicle_type_id":"4","last_reported":1729184915,"current_range_meters":9200,"station_id":"ce4bhbp2rcd13ifvqesg","pricing_plan_id":"cebpf4jnsgd1na2vs0mg"},{"bike_id":"01cbf671-4826-495e-a376-b47a0ddca874","system_id":"levelo_inurba_marseille","lat":43.32333,"lon":5.40627,"is_reserved":false,"is_disabled":false,"rental_uris":{"android":"levelo://app?vid=01cbf671-4826-495e-a376-b47a0ddca874","ios":"levelo://app?vid=01cbf671-4826-495e-a376-b47a0ddca874"},"vehicle_type_id":"4","last_reported":1729184915,"current_range_meters":14000,"station_id":"ce4bhq92rcd13ifvqhjg","pricing_plan_id":"cebpf4jnsgd1na2vs0mg"},{"bike_id":"e3ca7803-aaa7-4ddf-8937-86afb5d1cee8","system_id":"levelo_inurba_marseille","lat":43.3171,"lon":5.43708,"is_reserved":false,"is_disabled":false,"rental_uris":{"android":"levelo://app?vid=e3ca7803-aaa7-4ddf-8937-86afb5d1cee8","ios":"levelo://app?vid=e3ca7803-aaa7-4ddf-8937-86afb5d1cee8"},"vehicle_type_id":"4","last_reported":1729184915,"current_range_meters":24800,"station_id":"ce4bhp92rcd13ifvqhcg","pricing_plan_id":"cebpf4jnsgd1na2vs0mg"},{"bike_id":"d8da4323-1978-489d-accb-b2a2e78b9360","system_id":"levelo_inurba_marseille","lat":43.295471,"lon":5.422854,"is_reserved":false,"is_disabled":false,"rental_uris":{"android":"levelo://app?vid=d8da4323-1978-489d-accb-b2a2e78b9360","ios":"levelo://app?vid=d8da4323-1978-489d-accb-b2a2e78b9360"},"vehicle_type_id":"4","last_reported":1729184915,"current_range_meters":35200,"station_id":"ce4bhph2rcd13ifvqhdg","pricing_plan_id":"cebpf4jnsgd1na2vs0mg"},{"bike_id":"3d96972c-800e-4690-b64a-4b34146f9739","system_id":"levelo_inurba_marseille","lat":43.29513,"lon":5.37516,"is_reserved":false,"is_disabled":false,"rental_uris":{"android":"levelo://app?vid=3d96972c-800e-4690-b64a-4b34146f9739","ios":"levelo://app?vid=3d96972c-800e-4690-b64a-4b34146f9739"},"vehicle_type_id":"4","last_reported":1729184915,"current_range_meters":38800,"station_id":"ce4bgkp2rcd13ifvqbmg","pricing_plan_id":"cebpf4jnsgd1na2vs0mg"},{"bike_id":"568ad7c3-61ab-4891-8036-e9ee4ec77a40","system_id":"levelo_inurba_marseille","lat":43.23181,"lon":5.39986,"is_reserved":false,"is_disabled":false,"rental_uris":{"android":"levelo://app?vid=568ad7c3-61ab-4891-8036-e9ee4ec77a40","ios":"levelo://app?vid=568ad7c3-61ab-4891-8036-e9ee4ec77a40"},"vehicle_type_id":"4","last_reported":1729184915,"current_range_meters":38800,"station_id":"ce4bhn12rcd13ifvqgqg","pricing_plan_id":"cebpf4jnsgd1na2vs0mg"},{"bike_id":"0a037391-6b40-44cf-8987-f9254d45bbea","system_id":"levelo_inurba_marseille","lat":43.30946,"lon":5.39027,"is_reserved":false,"is_disabled":false,"rental_uris":{"android":"levelo://app?vid=0a037391-6b40-44cf-8987-f9254d45bbea","ios":"levelo://app?vid=0a037391-6b40-44cf-8987-f9254d45bbea"},"vehicle_type_id":"4","last_reported":1729184915,"current_range_meters":35600,"station_id":"ce4bgup2rcd13ifvqco0","pricing_plan_id":"cebpf4jnsgd1na2vs0mg"},{"bike_id":"3664398f-378f-46f2-bd12-30042ad8db9d","system_id":"levelo_inurba_marseille","lat":43.23184,"lon":5.39981,"is_reserved":false,"is_disabled":false,"rental_uris":{"android":"levelo://app?vid=3664398f-378f-46f2-bd12-30042ad8db9d","ios":"levelo://app?vid=3664398f-378f-46f2-bd12-30042ad8db9d"},"vehicle_type_id":"4","last_reported":1729184915,"current_range_meters":34000,"station_id":"ce4bhn12rcd13ifvqgqg","pricing_plan_id":"cebpf4jnsgd1na2vs0mg"},{"bike_id":"f17779a9-5022-42b5-beb5-0ab99a26452b","system_id":"levelo_inurba_marseille","lat":43.27813,"lon":5.40709,"is_reserved":false,"is_disabled":false,"rental_uris":{"android":"levelo://app?vid=f17779a9-5022-42b5-beb5-0ab99a26452b","ios":"levelo://app?vid=f17779a9-5022-42b5-beb5-0ab99a26452b"},"vehicle_type_id":"4","last_reported":1729184915,"current_range_meters":32000,"station_id":"ce4bhnh2rcd13ifvqgtg","pricing_plan_id":"cebpf4jnsgd1na2vs0mg"},{"bike_id":"3c0b4095-688f-4a0f-88cc-dfe9db2b3c79","system_id":"levelo_inurba_marseille","lat":43.298523,"lon":5.362903,"is_reserved":false,"is_disabled":false,"rental_uris":{"android":"levelo://app?vid=3c0b4095-688f-4a0f-88cc-dfe9db2b3c79","ios":"levelo://app?vid=3c0b4095-688f-4a0f-88cc-dfe9db2b3c79"},"vehicle_type_id":"4","last_reported":1729184915,"current_range_meters":26800,"station_id":"ce4bgpp2rcd13ifvqc3g","pricing_plan_id":"cebpf4jnsgd1na2vs0mg"},{"bike_id":"a9d80141-cb04-4f88-bcc5-9763572e3517","system_id":"levelo_inurba_marseille","lat":43.23194,"lon":5.3555,"is_reserved":false,"is_disabled":false,"rental_uris":{"android":"levelo://app?vid=a9d80141-cb04-4f88-bcc5-9763572e3517","ios":"levelo://app?vid=a9d80141-cb04-4f88-bcc5-9763572e3517"},"vehicle_type_id":"4","last_reported":1729184915,"current_range_meters":32000,"station_id":"ce4bhu92rcd13ifvqi70","pricing_plan_id":"cebpf4jnsgd1na2vs0mg"},{"bike_id":"35a22db4-7e9d-4709-be91-f373b0a75e57","system_id":"levelo_inurba_marseille","lat":43.33756,"lon":5.37449,"is_reserved":false,"is_disabled":false,"rental_uris":{"android":"levelo://app?vid=35a22db4-7e9d-4709-be91-f373b0a75e57","ios":"levelo://app?vid=35a22db4-7e9d-4709-be91-f373b0a75e57"},"vehicle_type_id":"4","last_reported":1729184915,"current_range_meters":14000,"station_id":"","pricing_plan_id":"cebpf4jnsgd1na2vs0mg"},{"bike_id":"73c81c60-6324-48ed-a11c-a3be0f4dfdd1","system_id":"levelo_inurba_marseille","lat":43.27369,"lon":5.36265,"is_reserved":false,"is_disabled":false,"rental_uris":{"android":"levelo://app?vid=73c81c60-6324-48ed-a11c-a3be0f4dfdd1","ios":"levelo://app?vid=73c81c60-6324-48ed-a11c-a3be0f4dfdd1"},"vehicle_type_id":"4","last_reported":1729184915,"current_range_meters":31200,"station_id":"ce4bhbh2rcd13ifvqeo0","pricing_plan_id":"cebpf4jnsgd1na2vs0mg"},{"bike_id":"26601d5d-209c-4b6a-aaed-043d0d708fca","system_id":"levelo_inurba_marseille","lat":43.31159,"lon":5.38724,"is_reserved":false,"is_disabled":false,"rental_uris":{"android":"levelo://app?vid=26601d5d-209c-4b6a-aaed-043d0d708fca","ios":"levelo://app?vid=26601d5d-209c-4b6a-aaed-043d0d708fca"},"vehicle_type_id":"4","last_reported":1729184915,"current_range_meters":22000,"station_id":"ce4bgv12rcd13ifvqcp0","pricing_plan_id":"cebpf4jnsgd1na2vs0mg"},{"bike_id":"4df6b550-cff3-47fb-8007-f597b7876d45","system_id":"levelo_inurba_marseille","lat":43.27921,"lon":5.3958,"is_reserved":false,"is_disabled":false,"rental_uris":{"android":"levelo://app?vid=4df6b550-cff3-47fb-8007-f597b7876d45","ios":"levelo://app?vid=4df6b550-cff3-47fb-8007-f597b7876d45"},"vehicle_type_id":"4","last_reported":1729184915,"current_range_meters":7200,"station_id":"ce4bhf92rcd13ifvqf40","pricing_plan_id":"cebpf4jnsgd1na2vs0mg"},{"bike_id":"232859b9-fe55-49da-8d70-54008c900b9a","system_id":"levelo_inurba_marseille","lat":43.29895,"lon":5.43673,"is_reserved":false,"is_disabled":false,"rental_uris":{"android":"levelo://app?vid=232859b9-fe55-49da-8d70-54008c900b9a","ios":"levelo://app?vid=232859b9-fe55-49da-8d70-54008c900b9a"},"vehicle_type_id":"4","last_reported":1729184915,"current_range_meters":16800,"station_id":"ce4bhpp2rcd13ifvqhfg","pricing_plan_id":"cebpf4jnsgd1na2vs0mg"},{"bike_id":"4ce6a8a4-f543-406e-9b3b-bf69a485e2ff","system_id":"levelo_inurba_marseille","lat":43.2465,"lon":5.38893,"is_reserved":false,"is_disabled":false,"rental_uris":{"android":"levelo://app?vid=4ce6a8a4-f543-406e-9b3b-bf69a485e2ff","ios":"levelo://app?vid=4ce6a8a4-f543-406e-9b3b-bf69a485e2ff"},"vehicle_type_id":"4","last_reported":1729184915,"current_range_meters":32000,"station_id":"ce4bhg12rcd13ifvqf60","pricing_plan_id":"cebpf4jnsgd1na2vs0mg"},{"bike_id":"cc990cdd-f9f0-4b6a-8f3b-dd36d748224f","system_id":"levelo_inurba_marseille","lat":43.30458,"lon":5.37907,"is_reserved":false,"is_disabled":false,"rental_uris":{"android":"levelo://app?vid=cc990cdd-f9f0-4b6a-8f3b-dd36d748224f","ios":"levelo://app?vid=cc990cdd-f9f0-4b6a-8f3b-dd36d748224f"},"vehicle_type_id":"4","last_reported":1729184915,"current_range_meters":8800,"station_id":"ce4bgup2rcd13ifvqcn0","pricing_plan_id":"cebpf4jnsgd1na2vs0mg"},{"bike_id":"6aaba7ce-c140-4e90-a2f7-e8ee0aa4baf2","system_id":"levelo_inurba_marseille","lat":43.299787,"lon":5.401068,"is_reserved":false,"is_disabled":false,"rental_uris":{"android":"levelo://app?vid=6aaba7ce-c140-4e90-a2f7-e8ee0aa4baf2","ios":"levelo://app?vid=6aaba7ce-c140-4e90-a2f7-e8ee0aa4baf2"},"vehicle_type_id":"4","last_reported":1729184915,"current_range_meters":30000,"station_id":"ce4bgvh2rcd13ifvqcs0","pricing_plan_id":"cebpf4jnsgd1na2vs0mg"},{"bike_id":"b7287d17-1eb1-41e6-a5be-26121e7061f5","system_id":"levelo_inurba_marseille","lat":43.28076,"lon":5.39663,"is_reserved":false,"is_disabled":false,"rental_uris":{"android":"levelo://app?vid=b7287d17-1eb1-41e6-a5be-26121e7061f5","ios":"levelo://app?vid=b7287d17-1eb1-41e6-a5be-26121e7061f5"},"vehicle_type_id":"4","last_reported":1729184915,"current_range_meters":3600,"station_id":"ce4bho12rcd13ifvqh2g","pricing_plan_id":"cebpf4jnsgd1na2vs0mg"},{"bike_id":"d41309ab-1a1f-4395-acaa-455483c3f8e1","system_id":"levelo_inurba_marseille","lat":43.23194,"lon":5.35559,"is_reserved":false,"is_disabled":false,"rental_uris":{"android":"levelo://app?vid=d41309ab-1a1f-4395-acaa-455483c3f8e1","ios":"levelo://app?vid=d41309ab-1a1f-4395-acaa-455483c3f8e1"},"vehicle_type_id":"4","last_reported":1729184915,"current_range_meters":36000,"station_id":"ce4bhu92rcd13ifvqi70","pricing_plan_id":"cebpf4jnsgd1na2vs0mg"},{"bike_id":"5d7fa87f-896d-4050-b095-97a49d3728a4","system_id":"levelo_inurba_marseille","lat":43.32283,"lon":5.3827,"is_reserved":false,"is_disabled":false,"rental_uris":{"android":"levelo://app?vid=5d7fa87f-896d-4050-b095-97a49d3728a4","ios":"levelo://app?vid=5d7fa87f-896d-4050-b095-97a49d3728a4"},"vehicle_type_id":"4","last_reported":1729184915,"current_range_meters":11200,"station_id":"ce4bhr12rcd13ifvqhqg","pricing_plan_id":"cebpf4jnsgd1na2vs0mg"},{"bike_id":"d7549997-4341-483a-8fd9-86b42a4b9e0d","system_id":"levelo_inurba_marseille","lat":43.31714,"lon":5.43707,"is_reserved":false,"is_disabled":false,"rental_uris":{"android":"levelo://app?vid=d7549997-4341-483a-8fd9-86b42a4b9e0d","ios":"levelo://app?vid=d7549997-4341-483a-8fd9-86b42a4b9e0d"},"vehicle_type_id":"4","last_reported":1729184915,"current_range_meters":40000,"station_id":"ce4bhp92rcd13ifvqhcg","pricing_plan_id":"cebpf4jnsgd1na2vs0mg"},{"bike_id":"0b319da6-684e-4798-a59c-1ed85a0372ba","system_id":"levelo_inurba_marseille","lat":43.25076,"lon":5.3952,"is_reserved":false,"is_disabled":false,"rental_uris":{"android":"levelo://app?vid=0b319da6-684e-4798-a59c-1ed85a0372ba","ios":"levelo://app?vid=0b319da6-684e-4798-a59c-1ed85a0372ba"},"vehicle_type_id":"4","last_reported":1729184915,"current_range_meters":11600,"station_id":"ce4bhm12rcd13ifvqgkg","pricing_plan_id":"cebpf4jnsgd1na2vs0mg"},{"bike_id":"5f5574be-f93d-46cb-a3ef-e94d33e9c73d","system_id":"levelo_inurba_marseille","lat":43.29036,"lon":5.375712,"is_reserved":false,"is_disabled":false,"rental_uris":{"android":"levelo://app?vid=5f5574be-f93d-46cb-a3ef-e94d33e9c73d","ios":"levelo://app?vid=5f5574be-f93d-46cb-a3ef-e94d33e9c73d"},"vehicle_type_id":"4","last_reported":1729184915,"current_range_meters":20000,"station_id":"ce4bgup2rcd13ifvqcn0","pricing_plan_id":"cebpf4jnsgd1na2vs0mg"},{"bike_id":"a8daef43-5a21-4776-8b76-60c76a8caefc","system_id":"levelo_inurba_marseille","lat":43.27814,"lon":5.40706,"is_reserved":false,"is_disabled":false,"rental_uris":{"android":"levelo://app?vid=a8daef43-5a21-4776-8b76-60c76a8caefc","ios":"levelo://app?vid=a8daef43-5a21-4776-8b76-60c76a8caefc"},"vehicle_type_id":"4","last_reported":1729184915,"current_range_meters":4800,"station_id":"ce4bhnh2rcd13ifvqgtg","pricing_plan_id":"cebpf4jnsgd1na2vs0mg"},{"bike_id":"71b9af8a-5c27-425e-9096-972f8db34dcc","system_id":"levelo_inurba_marseille","lat":43.283519,"lon":5.381015,"is_reserved":false,"is_disabled":false,"rental_uris":{"android":"levelo://app?vid=71b9af8a-5c27-425e-9096-972f8db34dcc","ios":"levelo://app?vid=71b9af8a-5c27-425e-9096-972f8db34dcc"},"vehicle_type_id":"4","last_reported":1729184915,"current_range_meters":8400,"station_id":"ce4bh412rcd13ifvqdr0","pricing_plan_id":"cebpf4jnsgd1na2vs0mg"},{"bike_id":"1d5ceecc-a8f1-46f0-8ca8-664de015f788","system_id":"levelo_inurba_marseille","lat":43.24806,"lon":5.37459,"is_reserved":false,"is_disabled":false,"rental_uris":{"android":"levelo://app?vid=1d5ceecc-a8f1-46f0-8ca8-664de015f788","ios":"levelo://app?vid=1d5ceecc-a8f1-46f0-8ca8-664de015f788"},"vehicle_type_id":"4","last_reported":1729184915,"current_range_meters":38800,"station_id":"ce4bhgh2rcd13ifvqfb0","pricing_plan_id":"cebpf4jnsgd1na2vs0mg"},{"bike_id":"033a7f68-f273-426e-84a9-8a3b2c56f6f5","system_id":"levelo_inurba_marseille","lat":43.35127,"lon":5.36808,"is_reserved":false,"is_disabled":false,"rental_uris":{"android":"levelo://app?vid=033a7f68-f273-426e-84a9-8a3b2c56f6f5","ios":"levelo://app?vid=033a7f68-f273-426e-84a9-8a3b2c56f6f5"},"vehicle_type_id":"4","last_reported":1729184915,"current_range_meters":11600,"station_id":"","pricing_plan_id":"cebpf4jnsgd1na2vs0mg"},{"bike_id":"b33a3ce5-6b54-46b0-b219-a2a11fe98380","system_id":"levelo_inurba_marseille","lat":43.27672,"lon":5.38872,"is_reserved":false,"is_disabled":false,"rental_uris":{"android":"levelo://app?vid=b33a3ce5-6b54-46b0-b219-a2a11fe98380","ios":"levelo://app?vid=b33a3ce5-6b54-46b0-b219-a2a11fe98380"},"vehicle_type_id":"4","last_reported":1729184915,"current_range_meters":30400,"station_id":"ce4bhi12rcd13ifvqfo0","pricing_plan_id":"cebpf4jnsgd1na2vs0mg"},{"bike_id":"a0a459c5-42f2-40d0-a582-6984b168abad","system_id":"levelo_inurba_marseille","lat":43.25568,"lon":5.38248,"is_reserved":false,"is_disabled":false,"rental_uris":{"android":"levelo://app?vid=a0a459c5-42f2-40d0-a582-6984b168abad","ios":"levelo://app?vid=a0a459c5-42f2-40d0-a582-6984b168abad"},"vehicle_type_id":"4","last_reported":1729184915,"current_range_meters":13600,"station_id":"ce4bhih2rcd13ifvqfs0","pricing_plan_id":"cebpf4jnsgd1na2vs0mg"},{"bike_id":"895463c7-46e9-40f9-a79e-ba8d0a3a9d8e","system_id":"levelo_inurba_marseille","lat":43.33024,"lon":5.39038,"is_reserved":false,"is_disabled":false,"rental_uris":{"android":"levelo://app?vid=895463c7-46e9-40f9-a79e-ba8d0a3a9d8e","ios":"levelo://app?vid=895463c7-46e9-40f9-a79e-ba8d0a3a9d8e"},"vehicle_type_id":"4","last_reported":1729184915,"current_range_meters":23200,"station_id":"ce4bhr92rcd13ifvqhrg","pricing_plan_id":"cebpf4jnsgd1na2vs0mg"},{"bike_id":"6c752c55-2526-455b-9ad8-79330a177e42","system_id":"levelo_inurba_marseille","lat":43.31721,"lon":5.42406,"is_reserved":false,"is_disabled":false,"rental_uris":{"android":"levelo://app?vid=6c752c55-2526-455b-9ad8-79330a177e42","ios":"levelo://app?vid=6c752c55-2526-455b-9ad8-79330a177e42"},"vehicle_type_id":"4","last_reported":1729184915,"current_range_meters":3600,"station_id":"ce4bhp92rcd13ifvqhbg","pricing_plan_id":"cebpf4jnsgd1na2vs0mg"},{"bike_id":"c0d7fc43-74ac-40f0-9a12-beeb9f728395","system_id":"levelo_inurba_marseille","lat":43.31279,"lon":5.40175,"is_reserved":false,"is_disabled":false,"rental_uris":{"android":"levelo://app?vid=c0d7fc43-74ac-40f0-9a12-beeb9f728395","ios":"levelo://app?vid=c0d7fc43-74ac-40f0-9a12-beeb9f728395"},"vehicle_type_id":"4","last_reported":1729184915,"current_range_meters":38400,"station_id":"ce4bh092rcd13ifvqd30","pricing_plan_id":"cebpf4jnsgd1na2vs0mg"},{"bike_id":"f93454e1-a669-4c63-a4ca-b572042c7971","system_id":"levelo_inurba_marseille","lat":43.23198,"lon":5.35553,"is_reserved":false,"is_disabled":false,"rental_uris":{"android":"levelo://app?vid=f93454e1-a669-4c63-a4ca-b572042c7971","ios":"levelo://app?vid=f93454e1-a669-4c63-a4ca-b572042c7971"},"vehicle_type_id":"4","last_reported":1729184915,"current_range_meters":12400,"station_id":"ce4bhu92rcd13ifvqi70","pricing_plan_id":"cebpf4jnsgd1na2vs0mg"},{"bike_id":"9feebf6a-cf06-4283-9475-cface9a88761","system_id":"levelo_inurba_marseille","lat":43.30801,"lon":5.43525,"is_reserved":false,"is_disabled":false,"rental_uris":{"android":"levelo://app?vid=9feebf6a-cf06-4283-9475-cface9a88761","ios":"levelo://app?vid=9feebf6a-cf06-4283-9475-cface9a88761"},"vehicle_type_id":"4","last_reported":1729184915,"current_range_meters":38000,"station_id":"ce4bhph2rcd13ifvqheg","pricing_plan_id":"cebpf4jnsgd1na2vs0mg"},{"bike_id":"0921a89c-cdec-4d57-a0b5-b7927cde144c","system_id":"levelo_inurba_marseille","lat":43.29543,"lon":5.42294,"is_reserved":false,"is_disabled":false,"rental_uris":{"android":"levelo://app?vid=0921a89c-cdec-4d57-a0b5-b7927cde144c","ios":"levelo://app?vid=0921a89c-cdec-4d57-a0b5-b7927cde144c"},"vehicle_type_id":"4","last_reported":1729184915,"current_range_meters":38800,"station_id":"ce4bhph2rcd13ifvqhdg","pricing_plan_id":"cebpf4jnsgd1na2vs0mg"},{"bike_id":"ac8a8e33-4ef3-4994-b1b5-9d501449d831","system_id":"levelo_inurba_marseille","lat":43.30174,"lon":5.36613,"is_reserved":false,"is_disabled":false,"rental_uris":{"android":"levelo://app?vid=ac8a8e33-4ef3-4994-b1b5-9d501449d831","ios":"levelo://app?vid=ac8a8e33-4ef3-4994-b1b5-9d501449d831"},"vehicle_type_id":"4","last_reported":1729184915,"current_range_meters":20000,"station_id":"ce4bgrh2rcd13ifvqc8g","pricing_plan_id":"cebpf4jnsgd1na2vs0mg"},{"bike_id":"20e6ddc5-c8bd-443a-a095-13ee6901bcbd","system_id":"levelo_inurba_marseille","lat":43.31686,"lon":5.40475,"is_reserved":false,"is_disabled":false,"rental_uris":{"android":"levelo://app?vid=20e6ddc5-c8bd-443a-a095-13ee6901bcbd","ios":"levelo://app?vid=20e6ddc5-c8bd-443a-a095-13ee6901bcbd"},"vehicle_type_id":"4","last_reported":1729184915,"current_range_meters":30000,"station_id":"ce4bh012rcd13ifvqd00","pricing_plan_id":"cebpf4jnsgd1na2vs0mg"},{"bike_id":"b33307e3-5d47-47aa-8614-b72861eb82d9","system_id":"levelo_inurba_marseille","lat":43.26561,"lon":5.39006,"is_reserved":false,"is_disabled":false,"rental_uris":{"android":"levelo://app?vid=b33307e3-5d47-47aa-8614-b72861eb82d9","ios":"levelo://app?vid=b33307e3-5d47-47aa-8614-b72861eb82d9"},"vehicle_type_id":"4","last_reported":1729184915,"current_range_meters":27600,"station_id":"ce4bhe12rcd13ifvqf30","pricing_plan_id":"cebpf4jnsgd1na2vs0mg"},{"bike_id":"4d26b95c-22f7-4afa-9c07-e0c5923c76e0","system_id":"levelo_inurba_marseille","lat":43.283447,"lon":5.381154,"is_reserved":false,"is_disabled":false,"rental_uris":{"android":"levelo://app?vid=4d26b95c-22f7-4afa-9c07-e0c5923c76e0","ios":"levelo://app?vid=4d26b95c-22f7-4afa-9c07-e0c5923c76e0"},"vehicle_type_id":"4","last_reported":1729184915,"current_range_meters":25200,"station_id":"ce4bh412rcd13ifvqdr0","pricing_plan_id":"cebpf4jnsgd1na2vs0mg"},{"bike_id":"20a7eec4-1fcb-43d7-94ec-e523ac262bd5","system_id":"levelo_inurba_marseille","lat":43.3133,"lon":5.39698,"is_reserved":false,"is_disabled":false,"rental_uris":{"android":"levelo://app?vid=20a7eec4-1fcb-43d7-94ec-e523ac262bd5","ios":"levelo://app?vid=20a7eec4-1fcb-43d7-94ec-e523ac262bd5"},"vehicle_type_id":"4","last_reported":1729184915,"current_range_meters":39200,"station_id":"ce4bgvp2rcd13ifvqcu0","pricing_plan_id":"cebpf4jnsgd1na2vs0mg"},{"bike_id":"580fb5ab-3f4b-4a33-a5e4-b8a7393e5de2","system_id":"levelo_inurba_marseille","lat":43.29258,"lon":5.40913,"is_reserved":false,"is_disabled":false,"rental_uris":{"android":"levelo://app?vid=580fb5ab-3f4b-4a33-a5e4-b8a7393e5de2","ios":"levelo://app?vid=580fb5ab-3f4b-4a33-a5e4-b8a7393e5de2"},"vehicle_type_id":"4","last_reported":1729184915,"current_range_meters":8800,"station_id":"ce4bh192rcd13ifvqdc0","pricing_plan_id":"cebpf4jnsgd1na2vs0mg"},{"bike_id":"1adcd5e2-93c7-4b8f-b936-d3a1ad4e3fae","system_id":"levelo_inurba_marseille","lat":43.25566,"lon":5.3825,"is_reserved":false,"is_disabled":false,"rental_uris":{"android":"levelo://app?vid=1adcd5e2-93c7-4b8f-b936-d3a1ad4e3fae","ios":"levelo://app?vid=1adcd5e2-93c7-4b8f-b936-d3a1ad4e3fae"},"vehicle_type_id":"4","last_reported":1729184915,"current_range_meters":18800,"station_id":"ce4bhih2rcd13ifvqfs0","pricing_plan_id":"cebpf4jnsgd1na2vs0mg"},{"bike_id":"b7fb8f00-f5a9-4a04-998a-557e33e8a58c","system_id":"levelo_inurba_marseille","lat":43.29621,"lon":5.37733,"is_reserved":false,"is_disabled":false,"rental_uris":{"android":"levelo://app?vid=b7fb8f00-f5a9-4a04-998a-557e33e8a58c","ios":"levelo://app?vid=b7fb8f00-f5a9-4a04-998a-557e33e8a58c"},"vehicle_type_id":"4","last_reported":1729184915,"current_range_meters":28800,"station_id":"ce4bgi92rcd13ifvqb90","pricing_plan_id":"cebpf4jnsgd1na2vs0mg"},{"bike_id":"3a2ce875-a573-465d-bbc3-d5c612a71ebb","system_id":"levelo_inurba_marseille","lat":43.30948,"lon":5.39031,"is_reserved":false,"is_disabled":false,"rental_uris":{"android":"levelo://app?vid=3a2ce875-a573-465d-bbc3-d5c612a71ebb","ios":"levelo://app?vid=3a2ce875-a573-465d-bbc3-d5c612a71ebb"},"vehicle_type_id":"4","last_reported":1729184915,"current_range_meters":38800,"station_id":"ce4bgup2rcd13ifvqco0","pricing_plan_id":"cebpf4jnsgd1na2vs0mg"},{"bike_id":"2d4c7fad-6fd4-45d3-a6b7-2467435890c1","system_id":"levelo_inurba_marseille","lat":43.30102,"lon":5.39066,"is_reserved":false,"is_disabled":false,"rental_uris":{"android":"levelo://app?vid=2d4c7fad-6fd4-45d3-a6b7-2467435890c1","ios":"levelo://app?vid=2d4c7fad-6fd4-45d3-a6b7-2467435890c1"},"vehicle_type_id":"4","last_reported":1729184915,"current_range_meters":2800,"station_id":"ce4bh192rcd13ifvqdb0","pricing_plan_id":"cebpf4jnsgd1na2vs0mg"},{"bike_id":"b204a99b-db82-4441-95d1-4836b2587259","system_id":"levelo_inurba_marseille","lat":43.33023,"lon":5.39046,"is_reserved":false,"is_disabled":false,"rental_uris":{"android":"levelo://app?vid=b204a99b-db82-4441-95d1-4836b2587259","ios":"levelo://app?vid=b204a99b-db82-4441-95d1-4836b2587259"},"vehicle_type_id":"4","last_reported":1729184915,"current_range_meters":15200,"station_id":"ce4bhr92rcd13ifvqhrg","pricing_plan_id":"cebpf4jnsgd1na2vs0mg"},{"bike_id":"420ab129-9cc3-4331-bf23-98e57b2ca535","system_id":"levelo_inurba_marseille","lat":43.31364,"lon":5.4077,"is_reserved":false,"is_disabled":false,"rental_uris":{"android":"levelo://app?vid=420ab129-9cc3-4331-bf23-98e57b2ca535","ios":"levelo://app?vid=420ab129-9cc3-4331-bf23-98e57b2ca535"},"vehicle_type_id":"4","last_reported":1729184915,"current_range_meters":31200,"station_id":"","pricing_plan_id":"cebpf4jnsgd1na2vs0mg"},{"bike_id":"e6c23bac-9600-4e1c-bc37-a9a6e47d2a14","system_id":"levelo_inurba_marseille","lat":43.30547,"lon":5.38417,"is_reserved":false,"is_disabled":false,"rental_uris":{"android":"levelo://app?vid=e6c23bac-9600-4e1c-bc37-a9a6e47d2a14","ios":"levelo://app?vid=e6c23bac-9600-4e1c-bc37-a9a6e47d2a14"},"vehicle_type_id":"4","last_reported":1729184915,"current_range_meters":38400,"station_id":"ce4bgg92rcd13ifvqb30","pricing_plan_id":"cebpf4jnsgd1na2vs0mg"},{"bike_id":"c9fd938f-37d4-4c5e-b9ca-b748ca8dded7","system_id":"levelo_inurba_marseille","lat":43.27948,"lon":5.41058,"is_reserved":false,"is_disabled":false,"rental_uris":{"android":"levelo://app?vid=c9fd938f-37d4-4c5e-b9ca-b748ca8dded7","ios":"levelo://app?vid=c9fd938f-37d4-4c5e-b9ca-b748ca8dded7"},"vehicle_type_id":"4","last_reported":1729184915,"current_range_meters":28800,"station_id":"ce4bhnp2rcd13ifvqh0g","pricing_plan_id":"cebpf4jnsgd1na2vs0mg"},{"bike_id":"9a39eeca-f9a6-4c8a-b6c8-83917d7961f5","system_id":"levelo_inurba_marseille","lat":43.31324,"lon":5.39692,"is_reserved":false,"is_disabled":false,"rental_uris":{"android":"levelo://app?vid=9a39eeca-f9a6-4c8a-b6c8-83917d7961f5","ios":"levelo://app?vid=9a39eeca-f9a6-4c8a-b6c8-83917d7961f5"},"vehicle_type_id":"4","last_reported":1729184915,"current_range_meters":1600,"station_id":"ce4bgvp2rcd13ifvqcu0","pricing_plan_id":"cebpf4jnsgd1na2vs0mg"},{"bike_id":"62e05b8f-35d5-4b1a-bb37-f84e0f2709f2","system_id":"levelo_inurba_marseille","lat":43.27802,"lon":5.40719,"is_reserved":false,"is_disabled":false,"rental_uris":{"android":"levelo://app?vid=62e05b8f-35d5-4b1a-bb37-f84e0f2709f2","ios":"levelo://app?vid=62e05b8f-35d5-4b1a-bb37-f84e0f2709f2"},"vehicle_type_id":"4","last_reported":1729184915,"current_range_meters":33600,"station_id":"ce4bhnh2rcd13ifvqgtg","pricing_plan_id":"cebpf4jnsgd1na2vs0mg"},{"bike_id":"032ed433-937b-449c-97d3-c00a7da40fec","system_id":"levelo_inurba_marseille","lat":43.24811,"lon":5.37463,"is_reserved":false,"is_disabled":false,"rental_uris":{"android":"levelo://app?vid=032ed433-937b-449c-97d3-c00a7da40fec","ios":"levelo://app?vid=032ed433-937b-449c-97d3-c00a7da40fec"},"vehicle_type_id":"4","last_reported":1729184915,"current_range_meters":38800,"station_id":"ce4bhgh2rcd13ifvqfb0","pricing_plan_id":"cebpf4jnsgd1na2vs0mg"},{"bike_id":"6d8ee03d-8201-45ac-a4d2-f4ca4b2d5e5b","system_id":"levelo_inurba_marseille","lat":43.29272,"lon":5.36859,"is_reserved":false,"is_disabled":false,"rental_uris":{"android":"levelo://app?vid=6d8ee03d-8201-45ac-a4d2-f4ca4b2d5e5b","ios":"levelo://app?vid=6d8ee03d-8201-45ac-a4d2-f4ca4b2d5e5b"},"vehicle_type_id":"4","last_reported":1729184915,"current_range_meters":32000,"station_id":"ce4bhbp2rcd13ifvqesg","pricing_plan_id":"cebpf4jnsgd1na2vs0mg"},{"bike_id":"ba5be672-bed0-4220-b19e-a40b34bb2af2","system_id":"levelo_inurba_marseille","lat":43.24656,"lon":5.3816,"is_reserved":false,"is_disabled":false,"rental_uris":{"android":"levelo://app?vid=ba5be672-bed0-4220-b19e-a40b34bb2af2","ios":"levelo://app?vid=ba5be672-bed0-4220-b19e-a40b34bb2af2"},"vehicle_type_id":"4","last_reported":1729184915,"current_range_meters":38800,"station_id":"ce4bhih2rcd13ifvqfr0","pricing_plan_id":"cebpf4jnsgd1na2vs0mg"},{"bike_id":"8e52e566-af16-4726-8174-5279372bde93","system_id":"levelo_inurba_marseille","lat":43.311371,"lon":5.370724,"is_reserved":false,"is_disabled":false,"rental_uris":{"android":"levelo://app?vid=8e52e566-af16-4726-8174-5279372bde93","ios":"levelo://app?vid=8e52e566-af16-4726-8174-5279372bde93"},"vehicle_type_id":"4","last_reported":1729184915,"current_range_meters":11200,"station_id":"","pricing_plan_id":"cebpf4jnsgd1na2vs0mg"},{"bike_id":"892ea120-e55e-45f8-a9f6-cf0a3d9f0082","system_id":"levelo_inurba_marseille","lat":43.28924,"lon":5.38401,"is_reserved":false,"is_disabled":false,"rental_uris":{"android":"levelo://app?vid=892ea120-e55e-45f8-a9f6-cf0a3d9f0082","ios":"levelo://app?vid=892ea120-e55e-45f8-a9f6-cf0a3d9f0082"},"vehicle_type_id":"4","last_reported":1729184915,"current_range_meters":6800,"station_id":"ce4bh612rcd13ifvqe6g","pricing_plan_id":"cebpf4jnsgd1na2vs0mg"},{"bike_id":"6039a115-61c0-41c5-a4ac-79e2033d0490","system_id":"levelo_inurba_marseille","lat":43.30911,"lon":5.36852,"is_reserved":false,"is_disabled":false,"rental_uris":{"android":"levelo://app?vid=6039a115-61c0-41c5-a4ac-79e2033d0490","ios":"levelo://app?vid=6039a115-61c0-41c5-a4ac-79e2033d0490"},"vehicle_type_id":"4","last_reported":1729184915,"current_range_meters":8800,"station_id":"ce4bgn92rcd13ifvqbvg","pricing_plan_id":"cebpf4jnsgd1na2vs0mg"},{"bike_id":"ad056fbc-b830-4e69-8971-67419454bfcc","system_id":"levelo_inurba_marseille","lat":43.28075,"lon":5.39653,"is_reserved":false,"is_disabled":false,"rental_uris":{"android":"levelo://app?vid=ad056fbc-b830-4e69-8971-67419454bfcc","ios":"levelo://app?vid=ad056fbc-b830-4e69-8971-67419454bfcc"},"vehicle_type_id":"4","last_reported":1729184915,"current_range_meters":36000,"station_id":"ce4bho12rcd13ifvqh2g","pricing_plan_id":"cebpf4jnsgd1na2vs0mg"},{"bike_id":"3f2b9bed-901d-422d-8df5-6a250ca754c6","system_id":"levelo_inurba_marseille","lat":43.28719,"lon":5.3609,"is_reserved":false,"is_disabled":false,"rental_uris":{"android":"levelo://app?vid=3f2b9bed-901d-422d-8df5-6a250ca754c6","ios":"levelo://app?vid=3f2b9bed-901d-422d-8df5-6a250ca754c6"},"vehicle_type_id":"4","last_reported":1729184915,"current_range_meters":26000,"station_id":"cki0cbj6b192h4jlfktg","pricing_plan_id":"cebpf4jnsgd1na2vs0mg"},{"bike_id":"3c9f3ef7-bcd7-435f-ba47-6f28643b6c1f","system_id":"levelo_inurba_marseille","lat":43.29184,"lon":5.3581,"is_reserved":false,"is_disabled":false,"rental_uris":{"android":"levelo://app?vid=3c9f3ef7-bcd7-435f-ba47-6f28643b6c1f","ios":"levelo://app?vid=3c9f3ef7-bcd7-435f-ba47-6f28643b6c1f"},"vehicle_type_id":"4","last_reported":1729184915,"current_range_meters":38800,"station_id":"ce4bhb12rcd13ifvqel0","pricing_plan_id":"cebpf4jnsgd1na2vs0mg"},{"bike_id":"93448ebf-a1c4-4d58-8e93-ab159eb77bf0","system_id":"levelo_inurba_marseille","lat":43.24659,"lon":5.38171,"is_reserved":false,"is_disabled":false,"rental_uris":{"android":"levelo://app?vid=93448ebf-a1c4-4d58-8e93-ab159eb77bf0","ios":"levelo://app?vid=93448ebf-a1c4-4d58-8e93-ab159eb77bf0"},"vehicle_type_id":"4","last_reported":1729184915,"current_range_meters":38800,"station_id":"ce4bhih2rcd13ifvqfr0","pricing_plan_id":"cebpf4jnsgd1na2vs0mg"},{"bike_id":"f269126c-1b0b-4a1a-a1d6-f8c3716f5336","system_id":"levelo_inurba_marseille","lat":43.23194,"lon":5.35553,"is_reserved":false,"is_disabled":false,"rental_uris":{"android":"levelo://app?vid=f269126c-1b0b-4a1a-a1d6-f8c3716f5336","ios":"levelo://app?vid=f269126c-1b0b-4a1a-a1d6-f8c3716f5336"},"vehicle_type_id":"4","last_reported":1729184915,"current_range_meters":22800,"station_id":"ce4bhu92rcd13ifvqi70","pricing_plan_id":"cebpf4jnsgd1na2vs0mg"},{"bike_id":"7be2e828-c686-4db3-a60f-e00425aed989","system_id":"levelo_inurba_marseille","lat":43.3233,"lon":5.40635,"is_reserved":false,"is_disabled":false,"rental_uris":{"android":"levelo://app?vid=7be2e828-c686-4db3-a60f-e00425aed989","ios":"levelo://app?vid=7be2e828-c686-4db3-a60f-e00425aed989"},"vehicle_type_id":"4","last_reported":1729184915,"current_range_meters":5600,"station_id":"ce4bhq92rcd13ifvqhjg","pricing_plan_id":"cebpf4jnsgd1na2vs0mg"},{"bike_id":"12d6f591-8aa0-4f45-9fad-c5b781449c55","system_id":"levelo_inurba_marseille","lat":43.31072,"lon":5.38357,"is_reserved":false,"is_disabled":false,"rental_uris":{"android":"levelo://app?vid=12d6f591-8aa0-4f45-9fad-c5b781449c55","ios":"levelo://app?vid=12d6f591-8aa0-4f45-9fad-c5b781449c55"},"vehicle_type_id":"4","last_reported":1729184915,"current_range_meters":23200,"station_id":"ce4bgv92rcd13ifvqcr0","pricing_plan_id":"cebpf4jnsgd1na2vs0mg"},{"bike_id":"233dc7b2-167c-47d9-9210-8117e91c19a1","system_id":"levelo_inurba_marseille","lat":43.23959,"lon":5.36642,"is_reserved":false,"is_disabled":false,"rental_uris":{"android":"levelo://app?vid=233dc7b2-167c-47d9-9210-8117e91c19a1","ios":"levelo://app?vid=233dc7b2-167c-47d9-9210-8117e91c19a1"},"vehicle_type_id":"4","last_reported":1729184915,"current_range_meters":37600,"station_id":"ce4bhi12rcd13ifvqfp0","pricing_plan_id":"cebpf4jnsgd1na2vs0mg"},{"bike_id":"94d48054-be54-488d-a425-2deb433f452c","system_id":"levelo_inurba_marseille","lat":43.29841,"lon":5.36449,"is_reserved":false,"is_disabled":false,"rental_uris":{"android":"levelo://app?vid=94d48054-be54-488d-a425-2deb433f452c","ios":"levelo://app?vid=94d48054-be54-488d-a425-2deb433f452c"},"vehicle_type_id":"4","last_reported":1729184915,"current_range_meters":11200,"station_id":"ce4bgnh2rcd13ifvqc0g","pricing_plan_id":"cebpf4jnsgd1na2vs0mg"},{"bike_id":"307af5be-bb51-4349-a44b-9429c4cbff54","system_id":"levelo_inurba_marseille","lat":43.23189,"lon":5.39992,"is_reserved":false,"is_disabled":false,"rental_uris":{"android":"levelo://app?vid=307af5be-bb51-4349-a44b-9429c4cbff54","ios":"levelo://app?vid=307af5be-bb51-4349-a44b-9429c4cbff54"},"vehicle_type_id":"4","last_reported":1729184915,"current_range_meters":38800,"station_id":"ce4bhn12rcd13ifvqgqg","pricing_plan_id":"cebpf4jnsgd1na2vs0mg"},{"bike_id":"1f2a092f-7ffa-44a4-af63-16102be373de","system_id":"levelo_inurba_marseille","lat":43.25079,"lon":5.39518,"is_reserved":false,"is_disabled":false,"rental_uris":{"android":"levelo://app?vid=1f2a092f-7ffa-44a4-af63-16102be373de","ios":"levelo://app?vid=1f2a092f-7ffa-44a4-af63-16102be373de"},"vehicle_type_id":"4","last_reported":1729184915,"current_range_meters":36400,"station_id":"ce4bhm12rcd13ifvqgkg","pricing_plan_id":"cebpf4jnsgd1na2vs0mg"},{"bike_id":"decd72fd-9e74-4eac-baf1-76f1dd4b606a","system_id":"levelo_inurba_marseille","lat":43.26054,"lon":5.394,"is_reserved":false,"is_disabled":false,"rental_uris":{"android":"levelo://app?vid=decd72fd-9e74-4eac-baf1-76f1dd4b606a","ios":"levelo://app?vid=decd72fd-9e74-4eac-baf1-76f1dd4b606a"},"vehicle_type_id":"4","last_reported":1729184915,"current_range_meters":38400,"station_id":"ce4bhh92rcd13ifvqfj0","pricing_plan_id":"cebpf4jnsgd1na2vs0mg"},{"bike_id":"d838e217-c45f-4c0a-b0bf-0348cc62bdc2","system_id":"levelo_inurba_marseille","lat":43.25116,"lon":5.40325,"is_reserved":false,"is_disabled":false,"rental_uris":{"android":"levelo://app?vid=d838e217-c45f-4c0a-b0bf-0348cc62bdc2","ios":"levelo://app?vid=d838e217-c45f-4c0a-b0bf-0348cc62bdc2"},"vehicle_type_id":"4","last_reported":1729184915,"current_range_meters":37600,"station_id":"ce4bhlh2rcd13ifvqgig","pricing_plan_id":"cebpf4jnsgd1na2vs0mg"},{"bike_id":"b9d4a628-e43a-4c9b-924e-11b637989a9d","system_id":"levelo_inurba_marseille","lat":43.29018,"lon":5.38138,"is_reserved":false,"is_disabled":false,"rental_uris":{"android":"levelo://app?vid=b9d4a628-e43a-4c9b-924e-11b637989a9d","ios":"levelo://app?vid=b9d4a628-e43a-4c9b-924e-11b637989a9d"},"vehicle_type_id":"4","last_reported":1729184915,"current_range_meters":22400,"station_id":"ce4bh4p2rcd13ifvqe1g","pricing_plan_id":"cebpf4jnsgd1na2vs0mg"},{"bike_id":"00cb1d03-b3c3-49f0-b87c-3a9d2ff8f265","system_id":"levelo_inurba_marseille","lat":43.326538,"lon":5.409966,"is_reserved":false,"is_disabled":false,"rental_uris":{"android":"levelo://app?vid=00cb1d03-b3c3-49f0-b87c-3a9d2ff8f265","ios":"levelo://app?vid=00cb1d03-b3c3-49f0-b87c-3a9d2ff8f265"},"vehicle_type_id":"4","last_reported":1729184915,"current_range_meters":28400,"station_id":"ce4bhpp2rcd13ifvqhgg","pricing_plan_id":"cebpf4jnsgd1na2vs0mg"},{"bike_id":"066186b8-6da7-4c88-a0a7-ddea6a0733d4","system_id":"levelo_inurba_marseille","lat":43.27619,"lon":5.36109,"is_reserved":false,"is_disabled":false,"rental_uris":{"android":"levelo://app?vid=066186b8-6da7-4c88-a0a7-ddea6a0733d4","ios":"levelo://app?vid=066186b8-6da7-4c88-a0a7-ddea6a0733d4"},"vehicle_type_id":"4","last_reported":1729184915,"current_range_meters":36000,"station_id":"ce4bgj92rcd13ifvqbe0","pricing_plan_id":"cebpf4jnsgd1na2vs0mg"},{"bike_id":"dc9d4f1e-f99a-456d-b2d0-4e26ce94e59c","system_id":"levelo_inurba_marseille","lat":43.27953,"lon":5.4105,"is_reserved":false,"is_disabled":false,"rental_uris":{"android":"levelo://app?vid=dc9d4f1e-f99a-456d-b2d0-4e26ce94e59c","ios":"levelo://app?vid=dc9d4f1e-f99a-456d-b2d0-4e26ce94e59c"},"vehicle_type_id":"4","last_reported":1729184915,"current_range_meters":29600,"station_id":"ce4bhnp2rcd13ifvqh0g","pricing_plan_id":"cebpf4jnsgd1na2vs0mg"},{"bike_id":"58c46c37-2f1c-48ca-82a7-3f1a96130238","system_id":"levelo_inurba_marseille","lat":43.300262,"lon":5.374344,"is_reserved":false,"is_disabled":false,"rental_uris":{"android":"levelo://app?vid=58c46c37-2f1c-48ca-82a7-3f1a96130238","ios":"levelo://app?vid=58c46c37-2f1c-48ca-82a7-3f1a96130238"},"vehicle_type_id":"4","last_reported":1729184915,"current_range_meters":36800,"station_id":"ce4bgs92rcd13ifvqcc0","pricing_plan_id":"cebpf4jnsgd1na2vs0mg"},{"bike_id":"09c2763a-3a86-4f3a-8f89-c8c563a76106","system_id":"levelo_inurba_marseille","lat":43.2782,"lon":5.40722,"is_reserved":false,"is_disabled":false,"rental_uris":{"android":"levelo://app?vid=09c2763a-3a86-4f3a-8f89-c8c563a76106","ios":"levelo://app?vid=09c2763a-3a86-4f3a-8f89-c8c563a76106"},"vehicle_type_id":"4","last_reported":1729184915,"current_range_meters":38400,"station_id":"ce4bhnh2rcd13ifvqgtg","pricing_plan_id":"cebpf4jnsgd1na2vs0mg"},{"bike_id":"66dd57d4-19b6-4cab-a602-08406f49554f","system_id":"levelo_inurba_marseille","lat":43.3015,"lon":5.3877,"is_reserved":false,"is_disabled":false,"rental_uris":{"android":"levelo://app?vid=66dd57d4-19b6-4cab-a602-08406f49554f","ios":"levelo://app?vid=66dd57d4-19b6-4cab-a602-08406f49554f"},"vehicle_type_id":"4","last_reported":1729184915,"current_range_meters":6400,"station_id":"ce4bhr92rcd13ifvqhrg","pricing_plan_id":"cebpf4jnsgd1na2vs0mg"},{"bike_id":"85050c92-510f-4284-a2f2-117d23a5c84b","system_id":"levelo_inurba_marseille","lat":43.2606,"lon":5.39396,"is_reserved":false,"is_disabled":false,"rental_uris":{"android":"levelo://app?vid=85050c92-510f-4284-a2f2-117d23a5c84b","ios":"levelo://app?vid=85050c92-510f-4284-a2f2-117d23a5c84b"},"vehicle_type_id":"4","last_reported":1729184915,"current_range_meters":18800,"station_id":"ce4bhh92rcd13ifvqfj0","pricing_plan_id":"cebpf4jnsgd1na2vs0mg"},{"bike_id":"541a3d00-9bc4-46c5-8ab3-f75ceb0fbaf3","system_id":"levelo_inurba_marseille","lat":43.30302,"lon":5.36914,"is_reserved":false,"is_disabled":false,"rental_uris":{"android":"levelo://app?vid=541a3d00-9bc4-46c5-8ab3-f75ceb0fbaf3","ios":"levelo://app?vid=541a3d00-9bc4-46c5-8ab3-f75ceb0fbaf3"},"vehicle_type_id":"4","last_reported":1729184915,"current_range_meters":18000,"station_id":"ce4bgqh2rcd13ifvqc5g","pricing_plan_id":"cebpf4jnsgd1na2vs0mg"},{"bike_id":"6764d55e-e00e-4b8d-b531-8f98c9becfad","system_id":"levelo_inurba_marseille","lat":43.23189,"lon":5.3998,"is_reserved":false,"is_disabled":false,"rental_uris":{"android":"levelo://app?vid=6764d55e-e00e-4b8d-b531-8f98c9becfad","ios":"levelo://app?vid=6764d55e-e00e-4b8d-b531-8f98c9becfad"},"vehicle_type_id":"4","last_reported":1729184915,"current_range_meters":36800,"station_id":"ce4bhn12rcd13ifvqgqg","pricing_plan_id":"cebpf4jnsgd1na2vs0mg"},{"bike_id":"52fb301f-6dce-415a-bc73-0edfcbdaa6ba","system_id":"levelo_inurba_marseille","lat":43.32332,"lon":5.40623,"is_reserved":false,"is_disabled":false,"rental_uris":{"android":"levelo://app?vid=52fb301f-6dce-415a-bc73-0edfcbdaa6ba","ios":"levelo://app?vid=52fb301f-6dce-415a-bc73-0edfcbdaa6ba"},"vehicle_type_id":"4","last_reported":1729184915,"current_range_meters":22000,"station_id":"ce4bhq92rcd13ifvqhjg","pricing_plan_id":"cebpf4jnsgd1na2vs0mg"},