{"last_updated":1742670402,"ttl":60,"version":"2.2","data":{"bikes":[{"bike_id":"df55d882-9294-49ca-be8d-63623b16c905","system_id":"levelo_inurba_marseille","lat":43.29856,"lon":5.36252,"is_reserved":false,"is_disabled":false,"rental_uris":{"android":"levelo://app?vid=df55d882-9294-49ca-be8d-63623b16c905","ios":"levelo://app?vid=df55d882-9294-49ca-be8d-63623b16c905"},"vehicle_type_id":"4","last_reported":1742670402,"current_range_meters":2800,"station_id":"ce4bgpp2rcd13ifvqc3g","pricing_plan_id":"cebpf4jnsgd1na2vs0mg"},{"bike_id":"2e69c0cc-739f-4b10-ae10-f590a4dba239","system_id":"levelo_inurba_marseille","lat":43.28641,"lon":5.35082,"is_reserved":false,"is_disabled":false,"rental_uris":{"android":"levelo://app?vid=2e69c0cc-739f-4b10-ae10-f590a4dba239","ios":"levelo://app?vid=2e69c0cc-739f-4b10-ae10-f590a4dba239"},"vehicle_type_id":"4","last_reported":1742670402,"current_range_meters":3200,"station_id":"ce4bhch2rcd13ifvqeug","pricing_plan_id":"cebpf4jnsgd1na2vs0mg"},{"bike_id":"b25c16cc-fcf3-4005-ae0f-e8353c1178cb","system_id":"levelo_inurba_marseille","lat":43.2467,"lon":5.38152,"is_reserved":false,"is_disabled":true,"rental_uris":{"android":"levelo://app?vid=b25c16cc-fcf3-4005-ae0f-e8353c1178cb","ios":"levelo://app?vid=b25c16cc-fcf3-4005-ae0f-e8353c1178cb"},"vehicle_type_id":"4","last_reported":1742670402,"current_range_meters":3200,"station_id":"ce4bhih2rcd13ifvqfr0","pricing_plan_id":"cebpf4jnsgd1na2vs0mg"},{"bike_id":"513d638e-579c-476a-b761-04137468524b","system_id":"levelo_inurba_marseille","lat":43.30124,"lon":5.39893,"is_reserved":false,"is_disabled":false,"rental_uris":{"android":"levelo://app?vid=513d638e-579c-476a-b761-04137468524b","ios":"levelo://app?vid=513d638e-579c-476a-b761-04137468524b"},"vehicle_type_id":"4","last_reported":1742670402,"current_range_meters":3200,"station_id":"ce4bh0h2rcd13ifvqd40","pricing_plan_id":"cebpf4jnsgd1na2vs0mg"},{"bike_id":"e7e51fc6-9a99-43dd-bf08-30f5c872b152","system_id":"levelo_inurba_marseille","lat":43.3046,"lon":5.37905,"is_reserved":false,"is_disabled":false,"rental_uris":{"android":"levelo://app?vid=e7e51fc6-9a99-43dd-bf08-30f5c872b152","ios":"levelo://app?vid=e7e51fc6-9a99-43dd-bf08-30f5c872b152"},"vehicle_type_id":"4","last_reported":1742670402,"current_range_meters":3200,"station_id":"ce4bgup2rcd13ifvqcn0","pricing_plan_id":"cebpf4jnsgd1na2vs0mg"},{"bike_id":"21bba5ae-f7cd-478c-ba35-908e147b878c","system_id":"levelo_inurba_marseille","lat":43.27958,"lon":5.41042,"is_reserved":false,"is_disabled":false,"rental_uris":{"android":"levelo://app?vid=21bba5ae-f7cd-478c-ba35-908e147b878c","ios":"levelo://app?vid=21bba5ae-f7cd-478c-ba35-908e147b878c"},"vehicle_type_id":"4","last_reported":1742670402,"current_range_meters":3200,"station_id":"ce4bhnp2rcd13ifvqh0g","pricing_plan_id":"cebpf4jnsgd1na2vs0mg"},{"bike_id":"702dafca-725f-42e8-952f-174bc91d327e","system_id":"levelo_inurba_marseille","lat":43.29615,"lon":5.38102,"is_reserved":false,"is_disabled":false,"rental_uris":{"android":"levelo://app?vid=702dafca-725f-42e8-952f-174bc91d327e","ios":"levelo://app?vid=702dafca-725f-42e8-952f-174bc91d327e"},"vehicle_type_id":"4","last_reported":1742670402,"current_range_meters":3200,"station_id":"ce4bgl12rcd13ifvqbo0","pricing_plan_id":"cebpf4jnsgd1na2vs0mg"},{"bike_id":"0045342e-5c1f-4022-a13a-e3eeb34b64de","system_id":"levelo_inurba_marseille","lat":43.2895,"lon":5.36653,"is_reserved":false,"is_disabled":false,"rental_uris":{"android":"levelo://app?vid=0045342e-5c1f-4022-a13a-e3eeb34b64de","ios":"levelo://app?vid=0045342e-5c1f-4022-a13a-e3eeb34b64de"},"vehicle_type_id":"4","last_reported":1742670402,"current_range_meters":3600,"station_id":"ce4bhap2rcd13ifvqek0","pricing_plan_id":"cebpf4jnsgd1na2vs0mg"},{"bike_id":"2d5233dc-81df-459b-8032-ba24f7001f25","system_id":"levelo_inurba_marseille","lat":43.29801,"lon":5.40428,"is_reserved":false,"is_disabled":false,"rental_uris":{"android":"levelo://app?vid=2d5233dc-81df-459b-8032-ba24f7001f25","ios":"levelo://app?vid=2d5233dc-81df-459b-8032-ba24f7001f25"},"vehicle_type_id":"4","last_reported":1742670402,"current_range_meters":4000,"station_id":"ce4bh112rcd13ifvqd90","pricing_plan_id":"cebpf4jnsgd1na2vs0mg"},{"bike_id":"6476ba60-6c6f-476f-a234-8938dafe03fc","system_id":"levelo_inurba_marseille","lat":43.30598,"lon":5.39361,"is_reserved":false,"is_disabled":false,"rental_uris":{"android":"levelo://app?vid=6476ba60-6c6f-476f-a234-8938dafe03fc","ios":"levelo://app?vid=6476ba60-6c6f-476f-a234-8938dafe03fc"},"vehicle_type_id":"4","last_reported":1742670402,"current_range_meters":4000,"station_id":"ce4bh0p2rcd13ifvqd80","pricing_plan_id":"cebpf4jnsgd1na2vs0mg"},{"bike_id":"86eee6a7-1df8-4733-8c2b-58bb36e7d1e1","system_id":"levelo_inurba_marseille","lat":43.26067,"lon":5.39389,"is_reserved":false,"is_disabled":true,"rental_uris":{"android":"levelo://app?vid=86eee6a7-1df8-4733-8c2b-58bb36e7d1e1","ios":"levelo://app?vid=86eee6a7-1df8-4733-8c2b-58bb36e7d1e1"},"vehicle_type_id":"4","last_reported":1742670402,"current_range_meters":4000,"station_id":"ce4bhh92rcd13ifvqfj0","pricing_plan_id":"cebpf4jnsgd1na2vs0mg"},{"bike_id":"8c0fe9e7-2105-4db3-83f1-e9f87873e2bb","system_id":"levelo_inurba_marseille","lat":43.30328,"lon":5.40434,"is_reserved":false,"is_disabled":false,"rental_uris":{"android":"levelo://app?vid=8c0fe9e7-2105-4db3-83f1-e9f87873e2bb","ios":"levelo://app?vid=8c0fe9e7-2105-4db3-83f1-e9f87873e2bb"},"vehicle_type_id":"4","last_reported":1742670402,"current_range_meters":4400,"station_id":"ce4bh012rcd13ifvqd10","pricing_plan_id":"cebpf4jnsgd1na2vs0mg"},{"bike_id":"24fc2a53-e3d4-499b-8dab-3cb4baa24685","system_id":"levelo_inurba_marseille","lat":43.27061,"lon":5.40247,"is_reserved":false,"is_disabled":false,"rental_uris":{"android":"levelo://app?vid=24fc2a53-e3d4-499b-8dab-3cb4baa24685","ios":"levelo://app?vid=24fc2a53-e3d4-499b-8dab-3cb4baa24685"},"vehicle_type_id":"4","last_reported":1742670402,"current_range_meters":4400,"station_id":"ce4bhk92rcd13ifvqgc0","pricing_plan_id":"cebpf4jnsgd1na2vs0mg"},{"bike_id":"0e9ee875-6b44-41af-9050-61f26ffad23a","system_id":"levelo_inurba_marseille","lat":43.30465,"lon":5.37894,"is_reserved":false,"is_disabled":false,"rental_uris":{"android":"levelo://app?vid=0e9ee875-6b44-41af-9050-61f26ffad23a","ios":"levelo://app?vid=0e9ee875-6b44-41af-9050-61f26ffad23a"},"vehicle_type_id":"4","last_reported":1742670402,"current_range_meters":4400,"station_id":"ce4bgup2rcd13ifvqcn0","pricing_plan_id":"cebpf4jnsgd1na2vs0mg"},{"bike_id":"77e64338-bee0-4054-a35b-af0e01633543","system_id":"levelo_inurba_marseille","lat":43.30531,"lon":5.36739,"is_reserved":false,"is_disabled":false,"rental_uris":{"android":"levelo://app?vid=77e64338-bee0-4054-a35b-af0e01633543","ios":"levelo://app?vid=77e64338-bee0-4054-a35b-af0e01633543"},"vehicle_type_id":"4","last_reported":1742670402,"current_range_meters":4400,"station_id":"ce4bgrp2rcd13ifvqc9g","pricing_plan_id":"cebpf4jnsgd1na2vs0mg"},{"bike_id":"2e1d1926-61a6-47f5-ac30-3d6cb69695a9","system_id":"levelo_inurba_marseille","lat":43.30293,"lon":5.39195,"is_reserved":false,"is_disabled":false,"rental_uris":{"android":"levelo://app?vid=2e1d1926-61a6-47f5-ac30-3d6cb69695a9","ios":"levelo://app?vid=2e1d1926-61a6-47f5-ac30-3d6cb69695a9"},"vehicle_type_id":"4","last_reported":1742670402,"current_range_meters":4400,"station_id":"ce4bgkh2rcd13ifvqbk0","pricing_plan_id":"cebpf4jnsgd1na2vs0mg"},{"bike_id":"5598a285-a859-428b-94b8-9502fa251890","system_id":"levelo_inurba_marseille","lat":43.25596,"lon":5.38247,"is_reserved":false,"is_disabled":false,"rental_uris":{"android":"levelo://app?vid=5598a285-a859-428b-94b8-9502fa251890","ios":"levelo://app?vid=5598a285-a859-428b-94b8-9502fa251890"},"vehicle_type_id":"4","last_reported":1742670402,"current_range_meters":4800,"station_id":"ce4bhih2rcd13ifvqfs0","pricing_plan_id":"cebpf4jnsgd1na2vs0mg"},{"bike_id":"fda90797-7a70-4d86-8b70-4eb3873d0f11","system_id":"levelo_inurba_marseille","lat":43.29539,"lon":5.38548,"is_reserved":false,"is_disabled":false,"rental_uris":{"android":"levelo://app?vid=fda90797-7a70-4d86-8b70-4eb3873d0f11","ios":"levelo://app?vid=fda90797-7a70-4d86-8b70-4eb3873d0f11"},"vehicle_type_id":"4","last_reported":1742670402,"current_range_meters":4400,"station_id":"ce4bgih2rcd13ifvqba0","pricing_plan_id":"cebpf4jnsgd1na2vs0mg"},{"bike_id":"3ae790fb-f2b5-48a6-8139-937ebbb3db56","system_id":"levelo_inurba_marseille","lat":43.3111,"lon":5.40069,"is_reserved":false,"is_disabled":false,"rental_uris":{"android":"levelo://app?vid=3ae790fb-f2b5-48a6-8139-937ebbb3db56","ios":"levelo://app?vid=3ae790fb-f2b5-48a6-8139-937ebbb3db56"},"vehicle_type_id":"4","last_reported":1742670402,"current_range_meters":4800,"station_id":"","pricing_plan_id":"cebpf4jnsgd1na2vs0mg"},{"bike_id":"13d36151-728a-44a8-bcdc-df513454f125","system_id":"levelo_inurba_marseille","lat":43.29305,"lon":5.37452,"is_reserved":false,"is_disabled":false,"rental_uris":{"android":"levelo://app?vid=13d36151-728a-44a8-bcdc-df513454f125","ios":"levelo://app?vid=13d36151-728a-44a8-bcdc-df513454f125"},"vehicle_type_id":"4","last_reported":1742670402,"current_range_meters":5600,"station_id":"ce4bgi12rcd13ifvqb70","pricing_plan_id":"cebpf4jnsgd1na2vs0mg"},{"bike_id":"c5aeec01-0f17-49a6-9f22-06aeee18953c","system_id":"levelo_inurba_marseille","lat":43.27911,"lon":5.39575,"is_reserved":false,"is_disabled":false,"rental_uris":{"android":"levelo://app?vid=c5aeec01-0f17-49a6-9f22-06aeee18953c","ios":"levelo://app?vid=c5aeec01-0f17-49a6-9f22-06aeee18953c"},"vehicle_type_id":"4","last_reported":1742670402,"current_range_meters":5600,"station_id":"ce4bhf92rcd13ifvqf40","pricing_plan_id":"cebpf4jnsgd1na2vs0mg"},{"bike_id":"26247666-dc43-4f8c-badb-1dca18145970","system_id":"levelo_inurba_marseille","lat":43.24114,"lon":5.37765,"is_reserved":false,"is_disabled":false,"rental_uris":{"android":"levelo://app?vid=26247666-dc43-4f8c-badb-1dca18145970","ios":"levelo://app?vid=26247666-dc43-4f8c-badb-1dca18145970"},"vehicle_type_id":"4","last_reported":1742670402,"current_range_meters":5600,"station_id":"ce4bhnp2rcd13ifvqgvg","pricing_plan_id":"cebpf4jnsgd1na2vs0mg"},{"bike_id":"08e27ebd-e13a-4045-9eeb-14a80f4a57f6","system_id":"levelo_inurba_marseille","lat":43.31722,"lon":5.40472,"is_reserved":false,"is_disabled":false,"rental_uris":{"android":"levelo://app?vid=08e27ebd-e13a-4045-9eeb-14a80f4a57f6","ios":"levelo://app?vid=08e27ebd-e13a-4045-9eeb-14a80f4a57f6"},"vehicle_type_id":"4","last_reported":1742670402,"current_range_meters":6000,"station_id":"ce4bgvp2rcd13ifvqcu0","pricing_plan_id":"cebpf4jnsgd1na2vs0mg"},{"bike_id":"33699633-0b54-429a-b857-3ee4f5f58ed4","system_id":"levelo_inurba_marseille","lat":43.29902,"lon":5.39774,"is_reserved":false,"is_disabled":false,"rental_uris":{"android":"levelo://app?vid=33699633-0b54-429a-b857-3ee4f5f58ed4","ios":"levelo://app?vid=33699633-0b54-429a-b857-3ee4f5f58ed4"},"vehicle_type_id":"4","last_reported":1742670402,"current_range_meters":6000,"station_id":"ce4bh0h2rcd13ifvqd50","pricing_plan_id":"cebpf4jnsgd1na2vs0mg"},{"bike_id":"527463a9-7cf9-462b-b20a-c7ac15f97e4b","system_id":"levelo_inurba_marseille","lat":43.29592,"lon":5.36753,"is_reserved":false,"is_disabled":true,"rental_uris":{"android":"levelo://app?vid=527463a9-7cf9-462b-b20a-c7ac15f97e4b","ios":"levelo://app?vid=527463a9-7cf9-462b-b20a-c7ac15f97e4b"},"vehicle_type_id":"4","last_reported":1742670402,"current_range_meters":6000,"station_id":"ce4bgph2rcd13ifvqc2g","pricing_plan_id":"cebpf4jnsgd1na2vs0mg"},{"bike_id":"11e7d595-231f-479e-8bf8-e2bfbe396b6a","system_id":"levelo_inurba_marseille","lat":43.30098,"lon":5.39078,"is_reserved":false,"is_disabled":false,"rental_uris":{"android":"levelo://app?vid=11e7d595-231f-479e-8bf8-e2bfbe396b6a","ios":"levelo://app?vid=11e7d595-231f-479e-8bf8-e2bfbe396b6a"},"vehicle_type_id":"4","last_reported":1742670402,"current_range_meters":6000,"station_id":"ce4bh192rcd13ifvqdb0","pricing_plan_id":"cebpf4jnsgd1na2vs0mg"},{"bike_id":"f2febf95-7fbd-4da1-9b57-8310b0487b2d","system_id":"levelo_inurba_marseille","lat":43.28163,"lon":5.4262,"is_reserved":false,"is_disabled":false,"rental_uris":{"android":"levelo://app?vid=f2febf95-7fbd-4da1-9b57-8310b0487b2d","ios":"levelo://app?vid=f2febf95-7fbd-4da1-9b57-8310b0487b2d"},"vehicle_type_id":"4","last_reported":1742670402,"current_range_meters":6000,"station_id":"ce4bhnh2rcd13ifvqgug","pricing_plan_id":"cebpf4jnsgd1na2vs0mg"},{"bike_id":"02d2086e-dbf6-46bf-b42a-137520c2f5d3","system_id":"levelo_inurba_marseille","lat":43.26784,"lon":5.39416,"is_reserved":false,"is_disabled":false,"rental_uris":{"android":"levelo://app?vid=02d2086e-dbf6-46bf-b42a-137520c2f5d3","ios":"levelo://app?vid=02d2086e-dbf6-46bf-b42a-137520c2f5d3"},"vehicle_type_id":"4","last_reported":1742670402,"current_range_meters":6000,"station_id":"ce4bhh12rcd13ifvqfg0","pricing_plan_id":"cebpf4jnsgd1na2vs0mg"},{"bike_id":"c6d5a9a7-87fc-43ad-a6bb-b96f9bcf688e","system_id":"levelo_inurba_marseille","lat":43.26242,"lon":5.40421,"is_reserved":false,"is_disabled":false,"rental_uris":{"android":"levelo://app?vid=c6d5a9a7-87fc-43ad-a6bb-b96f9bcf688e","ios":"levelo://app?vid=c6d5a9a7-87fc-43ad-a6bb-b96f9bcf688e"},"vehicle_type_id":"4","last_reported":1742670402,"current_range_meters":6000,"station_id":"ce4bhmh2rcd13ifvqgmg","pricing_plan_id":"cebpf4jnsgd1na2vs0mg"},{"bike_id":"e347fcd1-fecb-4bc4-8bd0-1841f88cba91","system_id":"levelo_inurba_marseille","lat":43.2607,"lon":5.39361,"is_reserved":false,"is_disabled":false,"rental_uris":{"android":"levelo://app?vid=e347fcd1-fecb-4bc4-8bd0-1841f88cba91","ios":"levelo://app?vid=e347fcd1-fecb-4bc4-8bd0-1841f88cba91"},"vehicle_type_id":"4","last_reported":1742670402,"current_range_meters":6000,"station_id":"ce4bhh92rcd13ifvqfj0","pricing_plan_id":"cebpf4jnsgd1na2vs0mg"},{"bike_id":"a25bc692-3427-450b-8e85-76a49579a07d","system_id":"levelo_inurba_marseille","lat":43.28681,"lon":5.36335,"is_reserved":false,"is_disabled":false,"rental_uris":{"android":"levelo://app?vid=a25bc692-3427-450b-8e85-76a49579a07d","ios":"levelo://app?vid=a25bc692-3427-450b-8e85-76a49579a07d"},"vehicle_type_id":"4","last_reported":1742670402,"current_range_meters":6000,"station_id":"ce4bhah2rcd13ifvqej0","pricing_plan_id":"cebpf4jnsgd1na2vs0mg"},{"bike_id":"aac9c88c-f5a7-456a-8771-f428287baf4d","system_id":"levelo_inurba_marseille","lat":43.30195,"lon":5.36622,"is_reserved":false,"is_disabled":false,"rental_uris":{"android":"levelo://app?vid=aac9c88c-f5a7-456a-8771-f428287baf4d","ios":"levelo://app?vid=aac9c88c-f5a7-456a-8771-f428287baf4d"},"vehicle_type_id":"4","last_reported":1742670402,"current_range_meters":6000,"station_id":"ce4bgrh2rcd13ifvqc8g","pricing_plan_id":"cebpf4jnsgd1na2vs0mg"},{"bike_id":"8fa46f32-a330-471f-86e7-709a7b8966db","system_id":"levelo_inurba_marseille","lat":43.32378,"lon":5.38855,"is_reserved":false,"is_disabled":false,"rental_uris":{"android":"levelo://app?vid=8fa46f32-a330-471f-86e7-709a7b8966db","ios":"levelo://app?vid=8fa46f32-a330-471f-86e7-709a7b8966db"},"vehicle_type_id":"4","last_reported":1742670402,"current_range_meters":6400,"station_id":"ce4bhqp2rcd13ifvqhog","pricing_plan_id":"cebpf4jnsgd1na2vs0mg"},{"bike_id":"ba182069-2873-4603-bf9e-8cdfd8dc22d8","system_id":"levelo_inurba_marseille","lat":43.29306,"lon":5.37165,"is_reserved":false,"is_disabled":false,"rental_uris":{"android":"levelo://app?vid=ba182069-2873-4603-bf9e-8cdfd8dc22d8","ios":"levelo://app?vid=ba182069-2873-4603-bf9e-8cdfd8dc22d8"},"vehicle_type_id":"4","last_reported":1742670402,"current_range_meters":6000,"station_id":"ce4bgh92rcd13ifvqb40","pricing_plan_id":"cebpf4jnsgd1na2vs0mg"},{"bike_id":"1d799419-4e8d-4313-8aba-e1c20e20fa8e","system_id":"levelo_inurba_marseille","lat":43.23198,"lon":5.35563,"is_reserved":false,"is_disabled":false,"rental_uris":{"android":"levelo://app?vid=1d799419-4e8d-4313-8aba-e1c20e20fa8e","ios":"levelo://app?vid=1d799419-4e8d-4313-8aba-e1c20e20fa8e"},"vehicle_type_id":"4","last_reported":1742670402,"current_range_meters":6400,"station_id":"ce4bhu92rcd13ifvqi70","pricing_plan_id":"cebpf4jnsgd1na2vs0mg"},{"bike_id":"0eaedab6-4713-42de-b594-04511394c170","system_id":"levelo_inurba_marseille","lat":43.27941,"lon":5.41058,"is_reserved":false,"is_disabled":false,"rental_uris":{"android":"levelo://app?vid=0eaedab6-4713-42de-b594-04511394c170","ios":"levelo://app?vid=0eaedab6-4713-42de-b594-04511394c170"},"vehicle_type_id":"4","last_reported":1742670402,"current_range_meters":6400,"station_id":"ce4bhnp2rcd13ifvqh0g","pricing_plan_id":"cebpf4jnsgd1na2vs0mg"},{"bike_id":"92c336ba-7a84-43b2-99bd-ff79932167ce","system_id":"levelo_inurba_marseille","lat":43.31756,"lon":5.39024,"is_reserved":false,"is_disabled":false,"rental_uris":{"android":"levelo://app?vid=92c336ba-7a84-43b2-99bd-ff79932167ce","ios":"levelo://app?vid=92c336ba-7a84-43b2-99bd-ff79932167ce"},"vehicle_type_id":"4","last_reported":1742670402,"current_range_meters":6400,"station_id":"ce4bhqp2rcd13ifvqhng","pricing_plan_id":"cebpf4jnsgd1na2vs0mg"},{"bike_id":"fc7de87c-81ca-483f-96ae-416b6d743078","system_id":"levelo_inurba_marseille","lat":43.29936,"lon":5.36549,"is_reserved":false,"is_disabled":false,"rental_uris":{"android":"levelo://app?vid=fc7de87c-81ca-483f-96ae-416b6d743078","ios":"levelo://app?vid=fc7de87c-81ca-483f-96ae-416b6d743078"},"vehicle_type_id":"4","last_reported":1742670402,"current_range_meters":6400,"station_id":"ce4bgm92rcd13ifvqbr0","pricing_plan_id":"cebpf4jnsgd1na2vs0mg"},{"bike_id":"8fd7c07d-f30c-44c8-a6e9-6bf1c92ddc80","system_id":"levelo_inurba_marseille","lat":43.29897,"lon":5.38931,"is_reserved":false,"is_disabled":false,"rental_uris":{"android":"levelo://app?vid=8fd7c07d-f30c-44c8-a6e9-6bf1c92ddc80","ios":"levelo://app?vid=8fd7c07d-f30c-44c8-a6e9-6bf1c92ddc80"},"vehicle_type_id":"4","last_reported":1742670402,"current_range_meters":6400,"station_id":"ce4bh392rcd13ifvqdl0","pricing_plan_id":"cebpf4jnsgd1na2vs0mg"},{"bike_id":"4e130c3f-1e9a-4e1a-a546-fa10a03dc915","system_id":"levelo_inurba_marseille","lat":43.24661,"lon":5.38171,"is_reserved":false,"is_disabled":false,"rental_uris":{"android":"levelo://app?vid=4e130c3f-1e9a-4e1a-a546-fa10a03dc915","ios":"levelo://app?vid=4e130c3f-1e9a-4e1a-a546-fa10a03dc915"},"vehicle_type_id":"4","last_reported":1742670402,"current_range_meters":6400,"station_id":"ce4bhih2rcd13ifvqfr0","pricing_plan_id":"cebpf4jnsgd1na2vs0mg"},{"bike_id":"7006c77f-d212-46ca-838e-a77d1e593ec5","system_id":"levelo_inurba_marseille","lat":43.30174,"lon":5.39903,"is_reserved":false,"is_disabled":false,"rental_uris":{"android":"levelo://app?vid=7006c77f-d212-46ca-838e-a77d1e593ec5","ios":"levelo://app?vid=7006c77f-d212-46ca-838e-a77d1e593ec5"},"vehicle_type_id":"4","last_reported":1742670402,"current_range_meters":6800,"station_id":"","pricing_plan_id":"cebpf4jnsgd1na2vs0mg"},{"bike_id":"3105430d-1ccc-4f94-964c-0946703abcc7","system_id":"levelo_inurba_marseille","lat":43.30429,"lon":5.38894,"is_reserved":false,"is_disabled":false,"rental_uris":{"android":"levelo://app?vid=3105430d-1ccc-4f94-964c-0946703abcc7","ios":"levelo://app?vid=3105430d-1ccc-4f94-964c-0946703abcc7"},"vehicle_type_id":"4","last_reported":1742670402,"current_range_meters":6800,"station_id":"ce4bgk12rcd13ifvqbi0","pricing_plan_id":"cebpf4jnsgd1na2vs0mg"},{"bike_id":"b00605e3-b50e-457e-a9d6-59adef6bb5fb","system_id":"levelo_inurba_marseille","lat":43.28145,"lon":5.42642,"is_reserved":false,"is_disabled":false,"rental_uris":{"android":"levelo://app?vid=b00605e3-b50e-457e-a9d6-59adef6bb5fb","ios":"levelo://app?vid=b00605e3-b50e-457e-a9d6-59adef6bb5fb"},"vehicle_type_id":"4","last_reported":1742670402,"current_range_meters":6800,"station_id":"ce4bhnh2rcd13ifvqgug","pricing_plan_id":"cebpf4jnsgd1na2vs0mg"},{"bike_id":"5feb90e0-2f32-40da-b62c-d8a4cb9715f5","system_id":"levelo_inurba_marseille","lat":43.30149,"lon":5.39885,"is_reserved":false,"is_disabled":false,"rental_uris":{"android":"levelo://app?vid=5feb90e0-2f32-40da-b62c-d8a4cb9715f5","ios":"levelo://app?vid=5feb90e0-2f32-40da-b62c-d8a4cb9715f5"},"vehicle_type_id":"4","last_reported":1742670402,"current_range_meters":6800,"station_id":"ce4bh0h2rcd13ifvqd40","pricing_plan_id":"cebpf4jnsgd1na2vs0mg"},{"bike_id":"0faeda17-87f9-4308-b369-97acc6c5068b","system_id":"levelo_inurba_marseille","lat":43.24583,"lon":5.39543,"is_reserved":false,"is_disabled":false,"rental_uris":{"android":"levelo://app?vid=0faeda17-87f9-4308-b369-97acc6c5068b","ios":"levelo://app?vid=0faeda17-87f9-4308-b369-97acc6c5068b"},"vehicle_type_id":"4","last_reported":1742670402,"current_range_meters":7200,"station_id":"ce4bhlp2rcd13ifvqgjg","pricing_plan_id":"cebpf4jnsgd1na2vs0mg"},{"bike_id":"225b9cdd-8dcc-4bfd-8301-e7adbc52aedc","system_id":"levelo_inurba_marseille","lat":43.23225,"lon":5.39999,"is_reserved":false,"is_disabled":false,"rental_uris":{"android":"levelo://app?vid=225b9cdd-8dcc-4bfd-8301-e7adbc52aedc","ios":"levelo://app?vid=225b9cdd-8dcc-4bfd-8301-e7adbc52aedc"},"vehicle_type_id":"4","last_reported":1742670402,"current_range_meters":7200,"station_id":"","pricing_plan_id":"cebpf4jnsgd1na2vs0mg"},{"bike_id":"6435455b-3182-4a0d-989d-eab2f26e428b","system_id":"levelo_inurba_marseille","lat":43.31896,"lon":5.40748,"is_reserved":false,"is_disabled":false,"rental_uris":{"android":"levelo://app?vid=6435455b-3182-4a0d-989d-eab2f26e428b","ios":"levelo://app?vid=6435455b-3182-4a0d-989d-eab2f26e428b"},"vehicle_type_id":"4","last_reported":1742670402,"current_range_meters":7200,"station_id":"ce4bhq12rcd13ifvqhig","pricing_plan_id":"cebpf4jnsgd1na2vs0mg"},{"bike_id":"276613ec-3310-44d6-ae3f-44328dd4fd15","system_id":"levelo_inurba_marseille","lat":43.25834,"lon":5.39375,"is_reserved":false,"is_disabled":false,"rental_uris":{"android":"levelo://app?vid=276613ec-3310-44d6-ae3f-44328dd4fd15","ios":"levelo://app?vid=276613ec-3310-44d6-ae3f-44328dd4fd15"},"vehicle_type_id":"4","last_reported":1742670402,"current_range_meters":7200,"station_id":"","pricing_plan_id":"cebpf4jnsgd1na2vs0mg"},{"bike_id":"a95b6832-380b-411e-8d5c-eb6a7f4c51cb","system_id":"levelo_inurba_marseille","lat":43.29538,"lon":5.38553,"is_reserved":false,"is_disabled":true,"rental_uris":{"android":"levelo://app?vid=a95b6832-380b-411e-8d5c-eb6a7f4c51cb","ios":"levelo://app?vid=a95b6832-380b-411e-8d5c-eb6a7f4c51cb"},"vehicle_type_id":"4","last_reported":1742670402,"current_range_meters":7200,"station_id":"ce4bgih2rcd13ifvqba0","pricing_plan_id":"cebpf4jnsgd1na2vs0mg"},{"bike_id":"5018d9f5-1de4-41bd-b680-f4186953003f","system_id":"levelo_inurba_marseille","lat":43.33027,"lon":5.39056,"is_reserved":false,"is_disabled":false,"rental_uris":{"android":"levelo://app?vid=5018d9f5-1de4-41bd-b680-f4186953003f","ios":"levelo://app?vid=5018d9f5-1de4-41bd-b680-f4186953003f"},"vehicle_type_id":"4","last_reported":1742670402,"current_range_meters":7200,"station_id":"ce4bhr92rcd13ifvqhrg","pricing_plan_id":"cebpf4jnsgd1na2vs0mg"},{"bike_id":"551b893c-b2f0-4f1f-8a5b-06699a2a4fdc","system_id":"levelo_inurba_marseille","lat":43.31689,"lon":5.40473,"is_reserved":false,"is_disabled":false,"rental_uris":{"android":"levelo://app?vid=551b893c-b2f0-4f1f-8a5b-06699a2a4fdc","ios":"levelo://app?vid=551b893c-b2f0-4f1f-8a5b-06699a2a4fdc"},"vehicle_type_id":"4","last_reported":1742670402,"current_range_meters":7200,"station_id":"ce4bh012rcd13ifvqd00","pricing_plan_id":"cebpf4jnsgd1na2vs0mg"},{"bike_id":"969c1fc5-9cce-4ce0-94f3-3ceed0ee8099","system_id":"levelo_inurba_marseille","lat":43.26783,"lon":5.39411,"is_reserved":false,"is_disabled":false,"rental_uris":{"android":"levelo://app?vid=969c1fc5-9cce-4ce0-94f3-3ceed0ee8099","ios":"levelo://app?vid=969c1fc5-9cce-4ce0-94f3-3ceed0ee8099"},"vehicle_type_id":"4","last_reported":1742670402,"current_range_meters":7200,"station_id":"ce4bhh12rcd13ifvqfg0","pricing_plan_id":"cebpf4jnsgd1na2vs0mg"},{"bike_id":"34791d82-19d8-45ce-83b9-0d4f19bcc6ae","system_id":"levelo_inurba_marseille","lat":43.28151,"lon":5.42652,"is_reserved":false,"is_disabled":false,"rental_uris":{"android":"levelo://app?vid=34791d82-19d8-45ce-83b9-0d4f19bcc6ae","ios":"levelo://app?vid=34791d82-19d8-45ce-83b9-0d4f19bcc6ae"},"vehicle_type_id":"4","last_reported":1742670402,"current_range_meters":7200,"station_id":"ce4bhnh2rcd13ifvqgug","pricing_plan_id":"cebpf4jnsgd1na2vs0mg"},{"bike_id":"d7ecf0b7-2430-4e23-a8c3-92233081769e","system_id":"levelo_inurba_marseille","lat":43.24092,"lon":5.37776,"is_reserved":false,"is_disabled":false,"rental_uris":{"android":"levelo://app?vid=d7ecf0b7-2430-4e23-a8c3-92233081769e","ios":"levelo://app?vid=d7ecf0b7-2430-4e23-a8c3-92233081769e"},"vehicle_type_id":"4","last_reported":1742670402,"current_range_meters":7200,"station_id":"ce4bhnp2rcd13ifvqgvg","pricing_plan_id":"cebpf4jnsgd1na2vs0mg"},{"bike_id":"6bbc9e69-4297-4cab-b99c-af048260b56e","system_id":"levelo_inurba_marseille","lat":43.28161,"lon":5.42627,"is_reserved":false,"is_disabled":false,"rental_uris":{"android":"levelo://app?vid=6bbc9e69-4297-4cab-b99c-af048260b56e","ios":"levelo://app?vid=6bbc9e69-4297-4cab-b99c-af048260b56e"},"vehicle_type_id":"4","last_reported":1742670402,"current_range_meters":7200,"station_id":"ce4bhnh2rcd13ifvqgug","pricing_plan_id":"cebpf4jnsgd1na2vs0mg"},{"bike_id":"2bb823b9-75f7-41cb-823e-5ebf6ce84c28","system_id":"levelo_inurba_marseille","lat":43.27852,"lon":5.40724,"is_reserved":false,"is_disabled":false,"rental_uris":{"android":"levelo://app?vid=2bb823b9-75f7-41cb-823e-5ebf6ce84c28","ios":"levelo://app?vid=2bb823b9-75f7-41cb-823e-5ebf6ce84c28"},"vehicle_type_id":"4","last_reported":1742670402,"current_range_meters":8000,"station_id":"ce4bhnh2rcd13ifvqgtg","pricing_plan_id":"cebpf4jnsgd1na2vs0mg"},{"bike_id":"a255a12b-22ca-41f1-b551-b8c80cc2f6d8","system_id":"levelo_inurba_marseille","lat":43.32135,"lon":5.36758,"is_reserved":false,"is_disabled":false,"rental_uris":{"android":"levelo://app?vid=a255a12b-22ca-41f1-b551-b8c80cc2f6d8","ios":"levelo://app?vid=a255a12b-22ca-41f1-b551-b8c80cc2f6d8"},"vehicle_type_id":"4","last_reported":1742670402,"current_range_meters":8000,"station_id":"","pricing_plan_id":"cebpf4jnsgd1na2vs0mg"},{"bike_id":"8a06863b-9b36-47c2-b6d3-7eb49ebe143c","system_id":"levelo_inurba_marseille","lat":43.30304,"lon":5.37705,"is_reserved":false,"is_disabled":false,"rental_uris":{"android":"levelo://app?vid=8a06863b-9b36-47c2-b6d3-7eb49ebe143c","ios":"levelo://app?vid=8a06863b-9b36-47c2-b6d3-7eb49ebe143c"},"vehicle_type_id":"4","last_reported":1742670402,"current_range_meters":8000,"station_id":"ce4bguh2rcd13ifvqcj0","pricing_plan_id":"cebpf4jnsgd1na2vs0mg"},{"bike_id":"36276dd3-031d-4fd5-a69e-51e755d2265c","system_id":"levelo_inurba_marseille","lat":43.27676,"lon":5.3888,"is_reserved":false,"is_disabled":false,"rental_uris":{"android":"levelo://app?vid=36276dd3-031d-4fd5-a69e-51e755d2265c","ios":"levelo://app?vid=36276dd3-031d-4fd5-a69e-51e755d2265c"},"vehicle_type_id":"4","last_reported":1742670402,"current_range_meters":8000,"station_id":"ce4bhi12rcd13ifvqfo0","pricing_plan_id":"cebpf4jnsgd1na2vs0mg"},{"bike_id":"3e91bb67-3494-4fe9-9626-c3e1231887f8","system_id":"levelo_inurba_marseille","lat":43.24809,"lon":5.37459,"is_reserved":false,"is_disabled":false,"rental_uris":{"android":"levelo://app?vid=3e91bb67-3494-4fe9-9626-c3e1231887f8","ios":"levelo://app?vid=3e91bb67-3494-4fe9-9626-c3e1231887f8"},"vehicle_type_id":"4","last_reported":1742670402,"current_range_meters":8000,"station_id":"ce4bhgh2rcd13ifvqfb0","pricing_plan_id":"cebpf4jnsgd1na2vs0mg"},{"bike_id":"1e30043a-2577-4b43-8837-06b8036a4b33","system_id":"levelo_inurba_marseille","lat":43.31072,"lon":5.38348,"is_reserved":false,"is_disabled":false,"rental_uris":{"android":"levelo://app?vid=1e30043a-2577-4b43-8837-06b8036a4b33","ios":"levelo://app?vid=1e30043a-2577-4b43-8837-06b8036a4b33"},"vehicle_type_id":"4","last_reported":1742670402,"current_range_meters":8000,"station_id":"ce4bgv92rcd13ifvqcr0","pricing_plan_id":"cebpf4jnsgd1na2vs0mg"},{"bike_id":"30f74d27-9970-4afa-b900-f9accdc2d04a","system_id":"levelo_inurba_marseille","lat":43.26232,"lon":5.40454,"is_reserved":false,"is_disabled":false,"rental_uris":{"android":"levelo://app?vid=30f74d27-9970-4afa-b900-f9accdc2d04a","ios":"levelo://app?vid=30f74d27-9970-4afa-b900-f9accdc2d04a"},"vehicle_type_id":"4","last_reported":1742670402,"current_range_meters":8000,"station_id":"ce4bhmh2rcd13ifvqgmg","pricing_plan_id":"cebpf4jnsgd1na2vs0mg"},{"bike_id":"708bb2b9-5e4e-4a23-9887-fc90538959bc","system_id":"levelo_inurba_marseille","lat":43.27558,"lon":5.38422,"is_reserved":false,"is_disabled":false,"rental_uris":{"android":"levelo://app?vid=708bb2b9-5e4e-4a23-9887-fc90538959bc","ios":"levelo://app?vid=708bb2b9-5e4e-4a23-9887-fc90538959bc"},"vehicle_type_id":"4","last_reported":1742670402,"current_range_meters":8000,"station_id":"ce4bhh92rcd13ifvqfi0","pricing_plan_id":"cebpf4jnsgd1na2vs0mg"},{"bike_id":"47c3e081-c584-41f4-abb7-2b1d74172793","system_id":"levelo_inurba_marseille","lat":43.31714,"lon":5.40465,"is_reserved":false,"is_disabled":false,"rental_uris":{"android":"levelo://app?vid=47c3e081-c584-41f4-abb7-2b1d74172793","ios":"levelo://app?vid=47c3e081-c584-41f4-abb7-2b1d74172793"},"vehicle_type_id":"4","last_reported":1742670402,"current_range_meters":8000,"station_id":"ce4bh012rcd13ifvqd00","pricing_plan_id":"cebpf4jnsgd1na2vs0mg"},{"bike_id":"5c7c8803-7963-4d73-adf0-9a7341c81fcc","system_id":"levelo_inurba_marseille","lat":43.23181,"lon":5.39989,"is_reserved":false,"is_disabled":false,"rental_uris":{"android":"levelo://app?vid=5c7c8803-7963-4d73-adf0-9a7341c81fcc","ios":"levelo://app?vid=5c7c8803-7963-4d73-adf0-9a7341c81fcc"},"vehicle_type_id":"4","last_reported":1742670402,"current_range_meters":8000,"station_id":"ce4bhn12rcd13ifvqgqg","pricing_plan_id":"cebpf4jnsgd1na2vs0mg"},{"bike_id":"7a80749b-56dc-4ab1-a2d7-268dfcb799e2","system_id":"levelo_inurba_marseille","lat":43.23968,"lon":5.36646,"is_reserved":false,"is_disabled":false,"rental_uris":{"android":"levelo://app?vid=7a80749b-56dc-4ab1-a2d7-268dfcb799e2","ios":"levelo://app?vid=7a80749b-56dc-4ab1-a2d7-268dfcb799e2"},"vehicle_type_id":"4","last_reported":1742670402,"current_range_meters":8400,"station_id":"ce4bhi12rcd13ifvqfp0","pricing_plan_id":"cebpf4jnsgd1na2vs0mg"},{"bike_id":"66b14029-9bd9-4267-8d06-0481cb6c232e","system_id":"levelo_inurba_marseille","lat":43.29608,"lon":5.36764,"is_reserved":false,"is_disabled":false,"rental_uris":{"android":"levelo://app?vid=66b14029-9bd9-4267-8d06-0481cb6c232e","ios":"levelo://app?vid=66b14029-9bd9-4267-8d06-0481cb6c232e"},"vehicle_type_id":"4","last_reported":1742670402,"current_range_meters":8400,"station_id":"ce4bgph2rcd13ifvqc2g","pricing_plan_id":"cebpf4jnsgd1na2vs0mg"},{"bike_id":"3c2a7dcf-f6cd-4a5b-ac2d-0c447364948d","system_id":"levelo_inurba_marseille","lat":43.29753,"lon":5.3767,"is_reserved":false,"is_disabled":false,"rental_uris":{"android":"levelo://app?vid=3c2a7dcf-f6cd-4a5b-ac2d-0c447364948d","ios":"levelo://app?vid=3c2a7dcf-f6cd-4a5b-ac2d-0c447364948d"},"vehicle_type_id":"4","last_reported":1742670402,"current_range_meters":8400,"station_id":"ce4bgkh2rcd13ifvqbl0","pricing_plan_id":"cebpf4jnsgd1na2vs0mg"},{"bike_id":"e1e493b8-6ddd-477f-a5c7-ce583728c84a","system_id":"levelo_inurba_marseille","lat":43.2905,"lon":5.38173,"is_reserved":false,"is_disabled":false,"rental_uris":{"android":"levelo://app?vid=e1e493b8-6ddd-477f-a5c7-ce583728c84a","ios":"levelo://app?vid=e1e493b8-6ddd-477f-a5c7-ce583728c84a"},"vehicle_type_id":"4","last_reported":1742670402,"current_range_meters":8400,"station_id":"ce4bh4p2rcd13ifvqe1g","pricing_plan_id":"cebpf4jnsgd1na2vs0mg"},{"bike_id":"0007fce5-562c-4dc0-afc3-21cf7828d9fe","system_id":"levelo_inurba_marseille","lat":43.30144,"lon":5.37421,"is_reserved":false,"is_disabled":false,"rental_uris":{"android":"levelo://app?vid=0007fce5-562c-4dc0-afc3-21cf7828d9fe","ios":"levelo://app?vid=0007fce5-562c-4dc0-afc3-21cf7828d9fe"},"vehicle_type_id":"4","last_reported":1742670402,"current_range_meters":8400,"station_id":"ce4bgs92rcd13ifvqcc0","pricing_plan_id":"cebpf4jnsgd1na2vs0mg"},{"bike_id":"4877cd21-c263-415a-9736-19b0391907f6","system_id":"levelo_inurba_marseille","lat":43.25572,"lon":5.38232,"is_reserved":false,"is_disabled":false,"rental_uris":{"android":"levelo://app?vid=4877cd21-c263-415a-9736-19b0391907f6","ios":"levelo://app?vid=4877cd21-c263-415a-9736-19b0391907f6"},"vehicle_type_id":"4","last_reported":1742670402,"current_range_meters":8400,"station_id":"ce4bhih2rcd13ifvqfs0","pricing_plan_id":"cebpf4jnsgd1na2vs0mg"},{"bike_id":"090f4a97-3b70-4775-bad9-0d86141deca2","system_id":"levelo_inurba_marseille","lat":43.24039,"lon":5.37665,"is_reserved":false,"is_disabled":false,"rental_uris":{"android":"levelo://app?vid=090f4a97-3b70-4775-bad9-0d86141deca2","ios":"levelo://app?vid=090f4a97-3b70-4775-bad9-0d86141deca2"},"vehicle_type_id":"4","last_reported":1742670402,"current_range_meters":8400,"station_id":"ce4bhnp2rcd13ifvqgvg","pricing_plan_id":"cebpf4jnsgd1na2vs0mg"},{"bike_id":"b5fcb98a-c8d5-4f1a-a9b4-b3362af2a9c7","system_id":"levelo_inurba_marseille","lat":43.2308,"lon":5.35489,"is_reserved":false,"is_disabled":false,"rental_uris":{"android":"levelo://app?vid=b5fcb98a-c8d5-4f1a-a9b4-b3362af2a9c7","ios":"levelo://app?vid=b5fcb98a-c8d5-4f1a-a9b4-b3362af2a9c7"},"vehicle_type_id":"4","last_reported":1742670402,"current_range_meters":8400,"station_id":"cpo3342slgdg3j2ifvpg","pricing_plan_id":"cebpf4jnsgd1na2vs0mg"},{"bike_id":"8320a7a4-be06-4a64-b000-a40eea93ac3f","system_id":"levelo_inurba_marseille","lat":43.23193,"lon":5.39995,"is_reserved":false,"is_disabled":false,"rental_uris":{"android":"levelo://app?vid=8320a7a4-be06-4a64-b000-a40eea93ac3f","ios":"levelo://app?vid=8320a7a4-be06-4a64-b000-a40eea93ac3f"},"vehicle_type_id":"4","last_reported":1742670402,"current_range_meters":8400,"station_id":"ce4bhn12rcd13ifvqgqg","pricing_plan_id":"cebpf4jnsgd1na2vs0mg"},{"bike_id":"10138f8f-5e1a-452f-abeb-ca35dc3d0b70","system_id":"levelo_inurba_marseille","lat":43.28932,"lon":5.36641,"is_reserved":false,"is_disabled":false,"rental_uris":{"android":"levelo://app?vid=10138f8f-5e1a-452f-abeb-ca35dc3d0b70","ios":"levelo://app?vid=10138f8f-5e1a-452f-abeb-ca35dc3d0b70"},"vehicle_type_id":"4","last_reported":1742670402,"current_range_meters":8400,"station_id":"ce4bhap2rcd13ifvqek0","pricing_plan_id":"cebpf4jnsgd1na2vs0mg"},{"bike_id":"a564807e-5bd6-4a71-b02f-5054fff067f9","system_id":"levelo_inurba_marseille","lat":43.24657,"lon":5.38181,"is_reserved":false,"is_disabled":false,"rental_uris":{"android":"levelo://app?vid=a564807e-5bd6-4a71-b02f-5054fff067f9","ios":"levelo://app?vid=a564807e-5bd6-4a71-b02f-5054fff067f9"},"vehicle_type_id":"4","last_reported":1742670402,"current_range_meters":8400,"station_id":"ce4bhih2rcd13ifvqfr0","pricing_plan_id":"cebpf4jnsgd1na2vs0mg"},{"bike_id":"395a6abc-4d8a-435b-8e3d-758afed4d7b6","system_id":"levelo_inurba_marseille","lat":43.25576,"lon":5.38245,"is_reserved":false,"is_disabled":false,"rental_uris":{"android":"levelo://app?vid=395a6abc-4d8a-435b-8e3d-758afed4d7b6","ios":"levelo://app?vid=395a6abc-4d8a-435b-8e3d-758afed4d7b6"},"vehicle_type_id":"4","last_reported":1742670402,"current_range_meters":8400,"station_id":"ce4bhih2rcd13ifvqfs0","pricing_plan_id":"cebpf4jnsgd1na2vs0mg"},{"bike_id":"fe239f3d-5c83-42bd-8b99-e0b3f3784fb5","system_id":"levelo_inurba_marseille","lat":43.24616,"lon":5.38401,"is_reserved":false,"is_disabled":false,"rental_uris":{"android":"levelo://app?vid=fe239f3d-5c83-42bd-8b99-e0b3f3784fb5","ios":"levelo://app?vid=fe239f3d-5c83-42bd-8b99-e0b3f3784fb5"},"vehicle_type_id":"4","last_reported":1742670402,"current_range_meters":8400,"station_id":"","pricing_plan_id":"cebpf4jnsgd1na2vs0mg"},{"bike_id":"09cd3a53-f843-483d-b4b6-c243b2785c45","system_id":"levelo_inurba_marseille","lat":43.25103,"lon":5.39465,"is_reserved":false,"is_disabled":false,"rental_uris":{"android":"levelo://app?vid=09cd3a53-f843-483d-b4b6-c243b2785c45","ios":"levelo://app?vid=09cd3a53-f843-483d-b4b6-c243b2785c45"},"vehicle_type_id":"4","last_reported":1742670402,"current_range_meters":8800,"station_id":"ce4bhm12rcd13ifvqgkg","pricing_plan_id":"cebpf4jnsgd1na2vs0mg"},{"bike_id":"e0db22cf-d82d-4e42-8fdf-4247744b906c","system_id":"levelo_inurba_marseille","lat":43.31061,"lon":5.38354,"is_reserved":false,"is_disabled":false,"rental_uris":{"android":"levelo://app?vid=e0db22cf-d82d-4e42-8fdf-4247744b906c","ios":"levelo://app?vid=e0db22cf-d82d-4e42-8fdf-4247744b906c"},"vehicle_type_id":"4","last_reported":1742670402,"current_range_meters":8800,"station_id":"ce4bgv92rcd13ifvqcr0","pricing_plan_id":"cebpf4jnsgd1na2vs0mg"},{"bike_id":"c5f44f79-cf52-4dcb-8bd2-d2dbc5c2d0bf","system_id":"levelo_inurba_marseille","lat":43.23078,"lon":5.35507,"is_reserved":false,"is_disabled":false,"rental_uris":{"android":"levelo://app?vid=c5f44f79-cf52-4dcb-8bd2-d2dbc5c2d0bf","ios":"levelo://app?vid=c5f44f79-cf52-4dcb-8bd2-d2dbc5c2d0bf"},"vehicle_type_id":"4","last_reported":1742670402,"current_range_meters":8800,"station_id":"cpo3342slgdg3j2ifvpg","pricing_plan_id":"cebpf4jnsgd1na2vs0mg"},{"bike_id":"22974a3c-2c10-4968-8643-ac5fb53e0947","system_id":"levelo_inurba_marseille","lat":43.24681,"lon":5.38165,"is_reserved":false,"is_disabled":false,"rental_uris":{"android":"levelo://app?vid=22974a3c-2c10-4968-8643-ac5fb53e0947","ios":"levelo://app?vid=22974a3c-2c10-4968-8643-ac5fb53e0947"},"vehicle_type_id":"4","last_reported":1742670402,"current_range_meters":8800,"station_id":"ce4bhih2rcd13ifvqfr0","pricing_plan_id":"cebpf4jnsgd1na2vs0mg"},{"bike_id":"1ada0cee-e8cc-46a8-bfe2-c6b3793233ca","system_id":"levelo_inurba_marseille","lat":43.32108,"lon":5.36778,"is_reserved":false,"is_disabled":false,"rental_uris":{"android":"levelo://app?vid=1ada0cee-e8cc-46a8-bfe2-c6b3793233ca","ios":"levelo://app?vid=1ada0cee-e8cc-46a8-bfe2-c6b3793233ca"},"vehicle_type_id":"4","last_reported":1742670402,"current_range_meters":8800,"station_id":"ce4bhrh2rcd13ifvqhug","pricing_plan_id":"cebpf4jnsgd1na2vs0mg"},{"bike_id":"5cc719d6-f35b-43f5-a7d2-a92da8c23d6b","system_id":"levelo_inurba_marseille","lat":43.28429,"lon":5.39184,"is_reserved":false,"is_disabled":false,"rental_uris":{"android":"levelo://app?vid=5cc719d6-f35b-43f5-a7d2-a92da8c23d6b","ios":"levelo://app?vid=5cc719d6-f35b-43f5-a7d2-a92da8c23d6b"},"vehicle_type_id":"4","last_reported":1742670402,"current_range_meters":8800,"station_id":"ce4bhoh2rcd13ifvqh5g","pricing_plan_id":"cebpf4jnsgd1na2vs0mg"},{"bike_id":"41298d06-4d04-450a-b19f-11c1120769d1","system_id":"levelo_inurba_marseille","lat":43.32365,"lon":5.38896,"is_reserved":false,"is_disabled":false,"rental_uris":{"android":"levelo://app?vid=41298d06-4d04-450a-b19f-11c1120769d1","ios":"levelo://app?vid=41298d06-4d04-450a-b19f-11c1120769d1"},"vehicle_type_id":"4","last_reported":1742670402,"current_range_meters":9200,"station_id":"ce4bhqp2rcd13ifvqhog","pricing_plan_id":"cebpf4jnsgd1na2vs0mg"},{"bike_id":"a90cac6d-25f5-4467-83f2-05609bbda941","system_id":"levelo_inurba_marseille","lat":43.27307,"lon":5.39091,"is_reserved":false,"is_disabled":false,"rental_uris":{"android":"levelo://app?vid=a90cac6d-25f5-4467-83f2-05609bbda941","ios":"levelo://app?vid=a90cac6d-25f5-4467-83f2-05609bbda941"},"vehicle_type_id":"4","last_reported":1742670402,"current_range_meters":9200,"station_id":"ce4bhgp2rcd13ifvqfe0","pricing_plan_id":"cebpf4jnsgd1na2vs0mg"},{"bike_id":"80407e0e-cfda-4afe-b3a7-4238a19ae2a7","system_id":"levelo_inurba_marseille","lat":43.25877,"lon":5.39899,"is_reserved":false,"is_disabled":false,"rental_uris":{"android":"levelo://app?vid=80407e0e-cfda-4afe-b3a7-4238a19ae2a7","ios":"levelo://app?vid=80407e0e-cfda-4afe-b3a7-4238a19ae2a7"},"vehicle_type_id":"4","last_reported":1742670402,"current_range_meters":9200,"station_id":"ce4bhl92rcd13ifvqghg","pricing_plan_id":"cebpf4jnsgd1na2vs0mg"},{"bike_id":"2f66c452-48a3-45fc-a7d1-64a647e10a6b","system_id":"levelo_inurba_marseille","lat":43.27386,"lon":5.36263,"is_reserved":false,"is_disabled":false,"rental_uris":{"android":"levelo://app?vid=2f66c452-48a3-45fc-a7d1-64a647e10a6b","ios":"levelo://app?vid=2f66c452-48a3-45fc-a7d1-64a647e10a6b"},"vehicle_type_id":"4","last_reported":1742670402,"current_range_meters":9200,"station_id":"ce4bhbh2rcd13ifvqeo0","pricing_plan_id":"cebpf4jnsgd1na2vs0mg"},{"bike_id":"da2ad5f6-0ada-4cac-a1cd-a0584cc7c0f8","system_id":"levelo_inurba_marseille","lat":43.29597,"lon":5.37515,"is_reserved":false,"is_disabled":false,"rental_uris":{"android":"levelo://app?vid=da2ad5f6-0ada-4cac-a1cd-a0584cc7c0f8","ios":"levelo://app?vid=da2ad5f6-0ada-4cac-a1cd-a0584cc7c0f8"},"vehicle_type_id":"4","last_reported":1742670402,"current_range_meters":9200,"station_id":"ce4bgh92rcd13ifvqb50","pricing_plan_id":"cebpf4jnsgd1na2vs0mg"},{"bike_id":"b86b17e6-f035-428e-9a82-d399c5269920","system_id":"levelo_inurba_marseille","lat":43.27933,"lon":5.38756,"is_reserved":false,"is_disabled":false,"rental_uris":{"android":"levelo://app?vid=b86b17e6-f035-428e-9a82-d399c5269920","ios":"levelo://app?vid=b86b17e6-f035-428e-9a82-d399c5269920"},"vehicle_type_id":"4","last_reported":1742670402,"current_range_meters":9200,"station_id":"ce4bhg12rcd13ifvqf80","pricing_plan_id":"cebpf4jnsgd1na2vs0mg"},{"bike_id":"5a79d095-34a6-4b73-b152-1e70b8b81fa2","system_id":"levelo_inurba_marseille","lat":43.2455,"lon":5.39528,"is_reserved":false,"is_disabled":false,"rental_uris":{"android":"levelo://app?vid=5a79d095-34a6-4b73-b152-1e70b8b81fa2","ios":"levelo://app?vid=5a79d095-34a6-4b73-b152-1e70b8b81fa2"},"vehicle_type_id":"4","last_reported":1742670402,"current_range_meters":9600,"station_id":"ce4bhlp2rcd13ifvqgjg","pricing_plan_id":"cebpf4jnsgd1na2vs0mg"},{"bike_id":"5fa092c2-95ff-4810-9c47-517422895e59","system_id":"levelo_inurba_marseille","lat":43.30353,"lon":5.39272,"is_reserved":false,"is_disabled":false,"rental_uris":{"android":"levelo://app?vid=5fa092c2-95ff-4810-9c47-517422895e59","ios":"levelo://app?vid=5fa092c2-95ff-4810-9c47-517422895e59"},"vehicle_type_id":"4","last_reported":1742670402,"current_range_meters":9600,"station_id":"","pricing_plan_id":"cebpf4jnsgd1na2vs0mg"},{"bike_id":"f168d197-fee5-4c16-bc0f-2e2278746297","system_id":"levelo_inurba_marseille","lat":43.27809,"lon":5.38919,"is_reserved":false,"is_disabled":false,"rental_uris":{"android":"levelo://app?vid=f168d197-fee5-4c16-bc0f-2e2278746297","ios":"levelo://app?vid=f168d197-fee5-4c16-bc0f-2e2278746297"},"vehicle_type_id":"4","last_reported":1742670402,"current_range_meters":9600,"station_id":"","pricing_plan_id":"cebpf4jnsgd1na2vs0mg"},{"bike_id":"a521eee5-e892-4fc4-b770-5d4cd4046f29","system_id":"levelo_inurba_marseille","lat":43.29267,"lon":5.3845,"is_reserved":false,"is_disabled":false,"rental_uris":{"android":"levelo://app?vid=a521eee5-e892-4fc4-b770-5d4cd4046f29","ios":"levelo://app?vid=a521eee5-e892-4fc4-b770-5d4cd4046f29"},"vehicle_type_id":"4","last_reported":1742670402,"current_range_meters":9600,"station_id":"ce4bh692rcd13ifvqea0","pricing_plan_id":"cebpf4jnsgd1na2vs0mg"},{"bike_id":"dc0b5eb4-361e-4785-b0b9-f3eefce109c0","system_id":"levelo_inurba_marseille","lat":43.28432,"lon":5.34985,"is_reserved":false,"is_disabled":false,"rental_uris":{"android":"levelo://app?vid=dc0b5eb4-361e-4785-b0b9-f3eefce109c0","ios":"levelo://app?vid=dc0b5eb4-361e-4785-b0b9-f3eefce109c0"},"vehicle_type_id":"4","last_reported":1742670402,"current_range_meters":9600,"station_id":"ce4bhbh2rcd13ifvqepg","pricing_plan_id":"cebpf4jnsgd1na2vs0mg"},{"bike_id":"014cf003-1505-49cd-ba72-06250a2191ab","system_id":"levelo_inurba_marseille","lat":43.2306,"lon":5.35495,"is_reserved":false,"is_disabled":false,"rental_uris":{"android":"levelo://app?vid=014cf003-1505-49cd-ba72-06250a2191ab","ios":"levelo://app?vid=014cf003-1505-49cd-ba72-06250a2191ab"},"vehicle_type_id":"4","last_reported":1742670402,"current_range_meters":9600,"station_id":"cpo3342slgdg3j2ifvpg","pricing_plan_id":"cebpf4jnsgd1na2vs0mg"},{"bike_id":"a347e11c-2cd1-4d70-91d7-1519614a036d","system_id":"levelo_inurba_marseille","lat":43.25109,"lon":5.39499,"is_reserved":false,"is_disabled":false,"rental_uris":{"android":"levelo://app?vid=a347e11c-2cd1-4d70-91d7-1519614a036d","ios":"levelo://app?vid=a347e11c-2cd1-4d70-91d7-1519614a036d"},"vehicle_type_id":"4","last_reported":1742670402,"current_range_meters":9600,"station_id":"ce4bhm12rcd13ifvqgkg","pricing_plan_id":"cebpf4jnsgd1na2vs0mg"},{"bike_id":"dd89ae27-2fe0-48ae-9a86-c058e65d1d1a","system_id":"levelo_inurba_marseille","lat":43.28485,"lon":5.38539,"is_reserved":false,"is_disabled":false,"rental_uris":{"android":"levelo://app?vid=dd89ae27-2fe0-48ae-9a86-c058e65d1d1a","ios":"levelo://app?vid=dd89ae27-2fe0-48ae-9a86-c058e65d1d1a"},"vehicle_type_id":"4","last_reported":1742670402,"current_range_meters":9600,"station_id":"ce4bh8p2rcd13ifvqeb0","pricing_plan_id":"cebpf4jnsgd1na2vs0mg"},{"bike_id":"b3a118e7-4ea7-4e12-b3d0-0411d8b7a4b6","system_id":"levelo_inurba_marseille","lat":43.29846,"lon":5.37029,"is_reserved":false,"is_disabled":false,"rental_uris":{"android":"levelo://app?vid=b3a118e7-4ea7-4e12-b3d0-0411d8b7a4b6","ios":"levelo://app?vid=b3a118e7-4ea7-4e12-b3d0-0411d8b7a4b6"},"vehicle_type_id":"4","last_reported":1742670402,"current_range_meters":9600,"station_id":"","pricing_plan_id":"cebpf4jnsgd1na2vs0mg"},{"bike_id":"7c01b8f3-881e-4887-ad05-903f28ee870c","system_id":"levelo_inurba_marseille","lat":43.30102,"lon":5.3989,"is_reserved":false,"is_disabled":false,"rental_uris":{"android":"levelo://app?vid=7c01b8f3-881e-4887-ad05-903f28ee870c","ios":"levelo://app?vid=7c01b8f3-881e-4887-ad05-903f28ee870c"},"vehicle_type_id":"4","last_reported":1742670402,"current_range_meters":9600,"station_id":"ce4bh0h2rcd13ifvqd40","pricing_plan_id":"cebpf4jnsgd1na2vs0mg"},{"bike_id":"a611279d-d8c3-4f36-98f2-cb9bca2a4799","system_id":"levelo_inurba_marseille","lat":43.29966,"lon":5.38499,"is_reserved":false,"is_disabled":false,"rental_uris":{"android":"levelo://app?vid=a611279d-d8c3-4f36-98f2-cb9bca2a4799","ios":"levelo://app?vid=a611279d-d8c3-4f36-98f2-cb9bca2a4799"},"vehicle_type_id":"4","last_reported":1742670402,"current_range_meters":9600,"station_id":"ce4bgj92rcd13ifvqbd0","pricing_plan_id":"cebpf4jnsgd1na2vs0mg"},{"bike_id":"95138a18-29f5-436c-8291-54d741166363","system_id":"levelo_inurba_marseille","lat":43.30142,"lon":5.37434,"is_reserved":false,"is_disabled":false,"rental_uris":{"android":"levelo://app?vid=95138a18-29f5-436c-8291-54d741166363","ios":"levelo://app?vid=95138a18-29f5-436c-8291-54d741166363"},"vehicle_type_id":"4","last_reported":1742670402,"current_range_meters":10000,"station_id":"ce4bgs92rcd13ifvqcc0","pricing_plan_id":"cebpf4jnsgd1na2vs0mg"},{"bike_id":"75239504-6411-4c5a-918c-ff12c7d01c06","system_id":"levelo_inurba_marseille","lat":43.2781,"lon":5.40733,"is_reserved":false,"is_disabled":false,"rental_uris":{"android":"levelo://app?vid=75239504-6411-4c5a-918c-ff12c7d01c06","ios":"levelo://app?vid=75239504-6411-4c5a-918c-ff12c7d01c06"},"vehicle_type_id":"4","last_reported":1742670402,"current_range_meters":10000,"station_id":"ce4bhnh2rcd13ifvqgtg","pricing_plan_id":"cebpf4jnsgd1na2vs0mg"},{"bike_id":"c8e5b5af-23c0-4373-841a-8d251c08149a","system_id":"levelo_inurba_marseille","lat":43.30219,"lon":5.39475,"is_reserved":false,"is_disabled":false,"rental_uris":{"android":"levelo://app?vid=c8e5b5af-23c0-4373-841a-8d251c08149a","ios":"levelo://app?vid=c8e5b5af-23c0-4373-841a-8d251c08149a"},"vehicle_type_id":"4","last_reported":1742670402,"current_range_meters":9600,"station_id":"ce4bh0p2rcd13ifvqd70","pricing_plan_id":"cebpf4jnsgd1na2vs0mg"},{"bike_id":"8ed1ac19-a2dd-4532-af16-423d1df5a6d4","system_id":"levelo_inurba_marseille","lat":43.23145,"lon":5.41405,"is_reserved":false,"is_disabled":false,"rental_uris":{"android":"levelo://app?vid=8ed1ac19-a2dd-4532-af16-423d1df5a6d4","ios":"levelo://app?vid=8ed1ac19-a2dd-4532-af16-423d1df5a6d4"},"vehicle_type_id":"4","last_reported":1742670402,"current_range_meters":10000,"station_id":"","pricing_plan_id":"cebpf4jnsgd1na2vs0mg"},{"bike_id":"768ca5e6-f1bb-42f2-ac3f-2632b474747d","system_id":"levelo_inurba_marseille","lat":43.25827,"lon":5.39443,"is_reserved":false,"is_disabled":false,"rental_uris":{"android":"levelo://app?vid=768ca5e6-f1bb-42f2-ac3f-2632b474747d","ios":"levelo://app?vid=768ca5e6-f1bb-42f2-ac3f-2632b474747d"},"vehicle_type_id":"4","last_reported":1742670402,"current_range_meters":10000,"station_id":"ce4bhip2rcd13ifvqft0","pricing_plan_id":"cebpf4jnsgd1na2vs0mg"},{"bike_id":"b5f2faac-8865-4a48-94c3-02feffc70f32","system_id":"levelo_inurba_marseille","lat":43.303255,"lon":5.404337,"is_reserved":false,"is_disabled":false,"rental_uris":{"android":"levelo://app?vid=b5f2faac-8865-4a48-94c3-02feffc70f32","ios":"levelo://app?vid=b5f2faac-8865-4a48-94c3-02feffc70f32"},"vehicle_type_id":"4","last_reported":1742670402,"current_range_meters":10000,"station_id":"ce4bh692rcd13ifvqea0","pricing_plan_id":"cebpf4jnsgd1na2vs0mg"},{"bike_id":"f52f1403-e5ef-4f15-816b-2ba1cd83754e","system_id":"levelo_inurba_marseille","lat":43.32597,"lon":5.36398,"is_reserved":false,"is_disabled":false,"rental_uris":{"android":"levelo://app?vid=f52f1403-e5ef-4f15-816b-2ba1cd83754e","ios":"levelo://app?vid=f52f1403-e5ef-4f15-816b-2ba1cd83754e"},"vehicle_type_id":"4","last_reported":1742670402,"current_range_meters":10000,"station_id":"","pricing_plan_id":"cebpf4jnsgd1na2vs0mg"},{"bike_id":"16784492-6bb0-4dfd-a37c-0b309868075c","system_id":"levelo_inurba_marseille","lat":43.30625,"lon":5.36615,"is_reserved":false,"is_disabled":false,"rental_uris":{"android":"levelo://app?vid=16784492-6bb0-4dfd-a37c-0b309868075c","ios":"levelo://app?vid=16784492-6bb0-4dfd-a37c-0b309868075c"},"vehicle_type_id":"4","last_reported":1742670402,"current_range_meters":10800,"station_id":"","pricing_plan_id":"cebpf4jnsgd1na2vs0mg"},{"bike_id":"1495a663-5ed9-460f-9668-feb9639daf3e","system_id":"levelo_inurba_marseille","lat":43.29527,"lon":5.39391,"is_reserved":false,"is_disabled":false,"rental_uris":{"android":"levelo://app?vid=1495a663-5ed9-460f-9668-feb9639daf3e","ios":"levelo://app?vid=1495a663-5ed9-460f-9668-feb9639daf3e"},"vehicle_type_id":"4","last_reported":1742670402,"current_range_meters":10800,"station_id":"ce4bh292rcd13ifvqdf0","pricing_plan_id":"cebpf4jnsgd1na2vs0mg"},{"bike_id":"8e7753b0-de98-424a-850c-a2fe3a031ad0","system_id":"levelo_inurba_marseille","lat":43.31478,"lon":5.37268,"is_reserved":false,"is_disabled":false,"rental_uris":{"android":"levelo://app?vid=8e7753b0-de98-424a-850c-a2fe3a031ad0","ios":"levelo://app?vid=8e7753b0-de98-424a-850c-a2fe3a031ad0"},"vehicle_type_id":"4","last_reported":1742670402,"current_range_meters":10800,"station_id":"ce4bgt12rcd13ifvqcd0","pricing_plan_id":"cebpf4jnsgd1na2vs0mg"},{"bike_id":"72503a27-a949-4a46-b139-c44d4f416a58","system_id":"levelo_inurba_marseille","lat":43.23204,"lon":5.35519,"is_reserved":false,"is_disabled":false,"rental_uris":{"android":"levelo://app?vid=72503a27-a949-4a46-b139-c44d4f416a58","ios":"levelo://app?vid=72503a27-a949-4a46-b139-c44d4f416a58"},"vehicle_type_id":"4","last_reported":1742670402,"current_range_meters":10800,"station_id":"ce4bhu92rcd13ifvqi70","pricing_plan_id":"cebpf4jnsgd1na2vs0mg"},{"bike_id":"6fb63123-1a12-4ff9-a407-84ae3ac28000","system_id":"levelo_inurba_marseille","lat":43.30278,"lon":5.36917,"is_reserved":false,"is_disabled":false,"rental_uris":{"android":"levelo://app?vid=6fb63123-1a12-4ff9-a407-84ae3ac28000","ios":"levelo://app?vid=6fb63123-1a12-4ff9-a407-84ae3ac28000"},"vehicle_type_id":"4","last_reported":1742670402,"current_range_meters":10800,"station_id":"ce4bgqh2rcd13ifvqc5g","pricing_plan_id":"cebpf4jnsgd1na2vs0mg"},{"bike_id":"23aae21a-1ee8-4544-a323-476ec541691a","system_id":"levelo_inurba_marseille","lat":43.2323,"lon":5.40029,"is_reserved":false,"is_disabled":false,"rental_uris":{"android":"levelo://app?vid=23aae21a-1ee8-4544-a323-476ec541691a","ios":"levelo://app?vid=23aae21a-1ee8-4544-a323-476ec541691a"},"vehicle_type_id":"4","last_reported":1742670402,"current_range_meters":10800,"station_id":"","pricing_plan_id":"cebpf4jnsgd1na2vs0mg"},{"bike_id":"3f3f99da-6673-441e-a5b3-6857219a400e","system_id":"levelo_inurba_marseille","lat":43.25014,"lon":5.38923,"is_reserved":false,"is_disabled":false,"rental_uris":{"android":"levelo://app?vid=3f3f99da-6673-441e-a5b3-6857219a400e","ios":"levelo://app?vid=3f3f99da-6673-441e-a5b3-6857219a400e"},"vehicle_type_id":"4","last_reported":1742670402,"current_range_meters":10800,"station_id":"ce4bhgp2rcd13ifvqfd0","pricing_plan_id":"cebpf4jnsgd1na2vs0mg"},{"bike_id":"07d5ffdd-b6a1-489f-98d2-ea76af006653","system_id":"levelo_inurba_marseille","lat":43.25748,"lon":5.4111,"is_reserved":false,"is_disabled":false,"rental_uris":{"android":"levelo://app?vid=07d5ffdd-b6a1-489f-98d2-ea76af006653","ios":"levelo://app?vid=07d5ffdd-b6a1-489f-98d2-ea76af006653"},"vehicle_type_id":"4","last_reported":1742670402,"current_range_meters":10800,"station_id":"ce4bhkp2rcd13ifvqgd0","pricing_plan_id":"cebpf4jnsgd1na2vs0mg"},{"bike_id":"0793cc52-402f-46cc-bc2d-03128eccedd7","system_id":"levelo_inurba_marseille","lat":43.32056,"lon":5.4154,"is_reserved":false,"is_disabled":false,"rental_uris":{"android":"levelo://app?vid=0793cc52-402f-46cc-bc2d-03128eccedd7","ios":"levelo://app?vid=0793cc52-402f-46cc-bc2d-03128eccedd7"},"vehicle_type_id":"4","last_reported":1742670402,"current_range_meters":10800,"station_id":"ce4bhq92rcd13ifvqhkg","pricing_plan_id":"cebpf4jnsgd1na2vs0mg"},{"bike_id":"ba0a9964-ab62-4807-b18d-12500e496f19","system_id":"levelo_inurba_marseille","lat":43.28629,"lon":5.35098,"is_reserved":false,"is_disabled":true,"rental_uris":{"android":"levelo://app?vid=ba0a9964-ab62-4807-b18d-12500e496f19","ios":"levelo://app?vid=ba0a9964-ab62-4807-b18d-12500e496f19"},"vehicle_type_id":"4","last_reported":1742670402,"current_range_meters":10800,"station_id":"ce4bhch2rcd13ifvqeug","pricing_plan_id":"cebpf4jnsgd1na2vs0mg"},{"bike_id":"453e35ee-c236-47de-87f3-2d87b0085737","system_id":"levelo_inurba_marseille","lat":43.2837,"lon":5.38645,"is_reserved":false,"is_disabled":false,"rental_uris":{"android":"levelo://app?vid=453e35ee-c236-47de-87f3-2d87b0085737","ios":"levelo://app?vid=453e35ee-c236-47de-87f3-2d87b0085737"},"vehicle_type_id":"4","last_reported":1742670402,"current_range_meters":11200,"station_id":"ce4bh492rcd13ifvqdvg","pricing_plan_id":"cebpf4jnsgd1na2vs0mg"},{"bike_id":"3e51e5bb-695d-42b6-b3f7-71cee8fb31de","system_id":"levelo_inurba_marseille","lat":43.30416,"lon":5.41285,"is_reserved":false,"is_disabled":false,"rental_uris":{"android":"levelo://app?vid=3e51e5bb-695d-42b6-b3f7-71cee8fb31de","ios":"levelo://app?vid=3e51e5bb-695d-42b6-b3f7-71cee8fb31de"},"vehicle_type_id":"4","last_reported":1742670402,"current_range_meters":11200,"station_id":"ce4bhop2rcd13ifvqh8g","pricing_plan_id":"cebpf4jnsgd1na2vs0mg"},{"bike_id":"7dff0d61-f3b4-42de-8e95-a63f03cbc4f6","system_id":"levelo_inurba_marseille","lat":43.31387,"lon":5.3851,"is_reserved":false,"is_disabled":false,"rental_uris":{"android":"levelo://app?vid=7dff0d61-f3b4-42de-8e95-a63f03cbc4f6","ios":"levelo://app?vid=7dff0d61-f3b4-42de-8e95-a63f03cbc4f6"},"vehicle_type_id":"4","last_reported":1742670402,"current_range_meters":11200,"station_id":"ce4bgt92rcd13ifvqcf0","pricing_plan_id":"cebpf4jnsgd1na2vs0mg"},{"bike_id":"12d38157-1e42-448f-afd8-087ce999b20c","system_id":"levelo_inurba_marseille","lat":43.29516,"lon":5.39401,"is_reserved":false,"is_disabled":false,"rental_uris":{"android":"levelo://app?vid=12d38157-1e42-448f-afd8-087ce999b20c","ios":"levelo://app?vid=12d38157-1e42-448f-afd8-087ce999b20c"},"vehicle_type_id":"4","last_reported":1742670402,"current_range_meters":11200,"station_id":"ce4bh292rcd13ifvqdf0","pricing_plan_id":"cebpf4jnsgd1na2vs0mg"},{"bike_id":"4a292a20-3ff2-480a-8e0b-703b4e124853","system_id":"levelo_inurba_marseille","lat":43.28628,"lon":5.351,"is_reserved":false,"is_disabled":false,"rental_uris":{"android":"levelo://app?vid=4a292a20-3ff2-480a-8e0b-703b4e124853","ios":"levelo://app?vid=4a292a20-3ff2-480a-8e0b-703b4e124853"},"vehicle_type_id":"4","last_reported":1742670402,"current_range_meters":11200,"station_id":"ce4bhch2rcd13ifvqeug","pricing_plan_id":"cebpf4jnsgd1na2vs0mg"},{"bike_id":"ffabe649-baf7-4292-bf39-6270c104483e","system_id":"levelo_inurba_marseille","lat":43.289491,"lon":5.366328,"is_reserved":false,"is_disabled":false,"rental_uris":{"android":"levelo://app?vid=ffabe649-baf7-4292-bf39-6270c104483e","ios":"levelo://app?vid=ffabe649-baf7-4292-bf39-6270c104483e"},"vehicle_type_id":"4","last_reported":1742670402,"current_range_meters":11200,"station_id":"ce4bhap2rcd13ifvqek0","pricing_plan_id":"cebpf4jnsgd1na2vs0mg"},{"bike_id":"0e9ecfbb-b739-4da0-ae4f-5f93ee77a934","system_id":"levelo_inurba_marseille","lat":43.29568,"lon":5.36756,"is_reserved":false,"is_disabled":false,"rental_uris":{"android":"levelo://app?vid=0e9ecfbb-b739-4da0-ae4f-5f93ee77a934","ios":"levelo://app?vid=0e9ecfbb-b739-4da0-ae4f-5f93ee77a934"},"vehicle_type_id":"4","last_reported":1742670402,"current_range_meters":11200,"station_id":"ce4bgph2rcd13ifvqc2g","pricing_plan_id":"cebpf4jnsgd1na2vs0mg"},{"bike_id":"801ac92f-133f-417e-90ff-e9cdca3569b0","system_id":"levelo_inurba_marseille","lat":43.24063,"lon":5.37738,"is_reserved":false,"is_disabled":false,"rental_uris":{"android":"levelo://app?vid=801ac92f-133f-417e-90ff-e9cdca3569b0","ios":"levelo://app?vid=801ac92f-133f-417e-90ff-e9cdca3569b0"},"vehicle_type_id":"4","last_reported":1742670402,"current_range_meters":11200,"station_id":"ce4bhnp2rcd13ifvqgvg","pricing_plan_id":"cebpf4jnsgd1na2vs0mg"},{"bike_id":"ba45eaa8-1231-48c1-b351-b2d3c27670f4","system_id":"levelo_inurba_marseille","lat":43.29421,"lon":5.38621,"is_reserved":false,"is_disabled":false,"rental_uris":{"android":"levelo://app?vid=ba45eaa8-1231-48c1-b351-b2d3c27670f4","ios":"levelo://app?vid=ba45eaa8-1231-48c1-b351-b2d3c27670f4"},"vehicle_type_id":"4","last_reported":1742670402,"current_range_meters":11600,"station_id":"ce4bh2h2rcd13ifvqdh0","pricing_plan_id":"cebpf4jnsgd1na2vs0mg"},{"bike_id":"dc2407f4-d476-43c5-97ef-0012890b8899","system_id":"levelo_inurba_marseille","lat":43.30037,"lon":5.38229,"is_reserved":false,"is_disabled":false,"rental_uris":{"android":"levelo://app?vid=dc2407f4-d476-43c5-97ef-0012890b8899","ios":"levelo://app?vid=dc2407f4-d476-43c5-97ef-0012890b8899"},"vehicle_type_id":"4","last_reported":1742670402,"current_range_meters":11600,"station_id":"","pricing_plan_id":"cebpf4jnsgd1na2vs0mg"},{"bike_id":"bf4378cd-dadb-4e80-8574-b82f23cf8948","system_id":"levelo_inurba_marseille","lat":43.30144,"lon":5.39876,"is_reserved":false,"is_disabled":false,"rental_uris":{"android":"levelo://app?vid=bf4378cd-dadb-4e80-8574-b82f23cf8948","ios":"levelo://app?vid=bf4378cd-dadb-4e80-8574-b82f23cf8948"},"vehicle_type_id":"4","last_reported":1742670402,"current_range_meters":11600,"station_id":"ce4bh0h2rcd13ifvqd40","pricing_plan_id":"cebpf4jnsgd1na2vs0mg"},{"bike_id":"4e296e1d-bdc1-47fc-b6d0-68660c2f76a0","system_id":"levelo_inurba_marseille","lat":43.26567,"lon":5.39001,"is_reserved":false,"is_disabled":false,"rental_uris":{"android":"levelo://app?vid=4e296e1d-bdc1-47fc-b6d0-68660c2f76a0","ios":"levelo://app?vid=4e296e1d-bdc1-47fc-b6d0-68660c2f76a0"},"vehicle_type_id":"4","last_reported":1742670402,"current_range_meters":11600,"station_id":"ce4bhe12rcd13ifvqf30","pricing_plan_id":"cebpf4jnsgd1na2vs0mg"},{"bike_id":"7728e68c-2bea-4f72-94b3-3978c63cadf5","system_id":"levelo_inurba_marseille","lat":43.30132,"lon":5.38065,"is_reserved":false,"is_disabled":false,"rental_uris":{"android":"levelo://app?vid=7728e68c-2bea-4f72-94b3-3978c63cadf5","ios":"levelo://app?vid=7728e68c-2bea-4f72-94b3-3978c63cadf5"},"vehicle_type_id":"4","last_reported":1742670402,"current_range_meters":11600,"station_id":"ce4bgjp2rcd13ifvqbh0","pricing_plan_id":"cebpf4jnsgd1na2vs0mg"},{"bike_id":"72123cf2-9d2b-41b8-9bee-4f35b0be3549","system_id":"levelo_inurba_marseille","lat":43.23084,"lon":5.35436,"is_reserved":false,"is_disabled":true,"rental_uris":{"android":"levelo://app?vid=72123cf2-9d2b-41b8-9bee-4f35b0be3549","ios":"levelo://app?vid=72123cf2-9d2b-41b8-9bee-4f35b0be3549"},"vehicle_type_id":"4","last_reported":1742670402,"current_range_meters":11600,"station_id":"cpo3342slgdg3j2ifvpg","pricing_plan_id":"cebpf4jnsgd1na2vs0mg"},{"bike_id":"dba8b61a-1f26-452c-8c30-53fb931df2d0","system_id":"levelo_inurba_marseille","lat":43.2866,"lon":5.3515,"is_reserved":false,"is_disabled":false,"rental_uris":{"android":"levelo://app?vid=dba8b61a-1f26-452c-8c30-53fb931df2d0","ios":"levelo://app?vid=dba8b61a-1f26-452c-8c30-53fb931df2d0"},"vehicle_type_id":"4","last_reported":1742670402,"current_range_meters":11600,"station_id":"","pricing_plan_id":"cebpf4jnsgd1na2vs0mg"},{"bike_id":"b9e7726c-10bd-45b4-ac30-fd1bc2c0b4ba","system_id":"levelo_inurba_marseille","lat":43.30412,"lon":5.38882,"is_reserved":false,"is_disabled":false,"rental_uris":{"android":"levelo://app?vid=b9e7726c-10bd-45b4-ac30-fd1bc2c0b4ba","ios":"levelo://app?vid=b9e7726c-10bd-45b4-ac30-fd1bc2c0b4ba"},"vehicle_type_id":"4","last_reported":1742670402,"current_range_meters":11200,"station_id":"ce4bgk12rcd13ifvqbi0","pricing_plan_id":"cebpf4jnsgd1na2vs0mg"},{"bike_id":"f0efccb8-d8b7-4849-ae49-630cce0ea173","system_id":"levelo_inurba_marseille","lat":43.25105,"lon":5.40311,"is_reserved":false,"is_disabled":false,"rental_uris":{"android":"levelo://app?vid=f0efccb8-d8b7-4849-ae49-630cce0ea173","ios":"levelo://app?vid=f0efccb8-d8b7-4849-ae49-630cce0ea173"},"vehicle_type_id":"4","last_reported":1742670402,"current_range_meters":11600,"station_id":"ce4bhlh2rcd13ifvqgig","pricing_plan_id":"cebpf4jnsgd1na2vs0mg"},{"bike_id":"9eb7a421-690d-499c-926e-effd22eff040","system_id":"levelo_inurba_marseille","lat":43.29267,"lon":5.38439,"is_reserved":false,"is_disabled":false,"rental_uris":{"android":"levelo://app?vid=9eb7a421-690d-499c-926e-effd22eff040","ios":"levelo://app?vid=9eb7a421-690d-499c-926e-effd22eff040"},"vehicle_type_id":"4","last_reported":1742670402,"current_range_meters":11600,"station_id":"ce4bh692rcd13ifvqea0","pricing_plan_id":"cebpf4jnsgd1na2vs0mg"},{"bike_id":"5911ff32-4fb5-4819-b92f-ef6097f94110","system_id":"levelo_inurba_marseille","lat":43.25115,"lon":5.40345,"is_reserved":false,"is_disabled":false,"rental_uris":{"android":"levelo://app?vid=5911ff32-4fb5-4819-b92f-ef6097f94110","ios":"levelo://app?vid=5911ff32-4fb5-4819-b92f-ef6097f94110"},"vehicle_type_id":"4","last_reported":1742670402,"current_range_meters":11600,"station_id":"ce4bhlh2rcd13ifvqgig","pricing_plan_id":"cebpf4jnsgd1na2vs0mg"},{"bike_id":"bb2ebd34-9190-40c3-b427-a509f79ce1e9","system_id":"levelo_inurba_marseille","lat":43.2783,"lon":5.40716,"is_reserved":false,"is_disabled":false,"rental_uris":{"android":"levelo://app?vid=bb2ebd34-9190-40c3-b427-a509f79ce1e9","ios":"levelo://app?vid=bb2ebd34-9190-40c3-b427-a509f79ce1e9"},"vehicle_type_id":"4","last_reported":1742670402,"current_range_meters":12400,"station_id":"ce4bhnh2rcd13ifvqgtg","pricing_plan_id":"cebpf4jnsgd1na2vs0mg"},{"bike_id":"cf4c5ef7-45b4-411b-8229-79791b11da44","system_id":"levelo_inurba_marseille","lat":43.29528,"lon":5.39401,"is_reserved":false,"is_disabled":false,"rental_uris":{"android":"levelo://app?vid=cf4c5ef7-45b4-411b-8229-79791b11da44","ios":"levelo://app?vid=cf4c5ef7-45b4-411b-8229-79791b11da44"},"vehicle_type_id":"4","last_reported":1742670402,"current_range_meters":12000,"station_id":"ce4bh292rcd13ifvqdf0","pricing_plan_id":"cebpf4jnsgd1na2vs0mg"},{"bike_id":"9b469204-1d25-4894-b812-bcc7dda80cbd","system_id":"levelo_inurba_marseille","lat":43.27808,"lon":5.40717,"is_reserved":false,"is_disabled":false,"rental_uris":{"android":"levelo://app?vid=9b469204-1d25-4894-b812-bcc7dda80cbd","ios":"levelo://app?vid=9b469204-1d25-4894-b812-bcc7dda80cbd"},"vehicle_type_id":"4","last_reported":1742670402,"current_range_meters":12000,"station_id":"ce4bhnh2rcd13ifvqgtg","pricing_plan_id":"cebpf4jnsgd1na2vs0mg"},{"bike_id":"b7bef736-5bbc-4208-b45d-21213cf80a0f","system_id":"levelo_inurba_marseille","lat":43.28724,"lon":5.4,"is_reserved":false,"is_disabled":false,"rental_uris":{"android":"levelo://app?vid=b7bef736-5bbc-4208-b45d-21213cf80a0f","ios":"levelo://app?vid=b7bef736-5bbc-4208-b45d-21213cf80a0f"},"vehicle_type_id":"4","last_reported":1742670402,"current_range_meters":12000,"station_id":"ce4bho92rcd13ifvqh3g","pricing_plan_id":"cebpf4jnsgd1na2vs0mg"},{"bike_id":"7dcd1fc2-c467-4ff8-a5d0-39e6627b6101","system_id":"levelo_inurba_marseille","lat":43.29518,"lon":5.3942,"is_reserved":false,"is_disabled":false,"rental_uris":{"android":"levelo://app?vid=7dcd1fc2-c467-4ff8-a5d0-39e6627b6101","ios":"levelo://app?vid=7dcd1fc2-c467-4ff8-a5d0-39e6627b6101"},"vehicle_type_id":"4","last_reported":1742670402,"current_range_meters":11600,"station_id":"ce4bh292rcd13ifvqdf0","pricing_plan_id":"cebpf4jnsgd1na2vs0mg"},{"bike_id":"2032e81a-8d24-4036-9cc6-bf67698b8322","system_id":"levelo_inurba_marseille","lat":43.24171,"lon":5.39732,"is_reserved":false,"is_disabled":false,"rental_uris":{"android":"levelo://app?vid=2032e81a-8d24-4036-9cc6-bf67698b8322","ios":"levelo://app?vid=2032e81a-8d24-4036-9cc6-bf67698b8322"},"vehicle_type_id":"4","last_reported":1742670402,"current_range_meters":12000,"station_id":"ce4bhn12rcd13ifvqgpg","pricing_plan_id":"cebpf4jnsgd1na2vs0mg"},{"bike_id":"272bd483-3c2c-49ec-b30d-44ac080cfd01","system_id":"levelo_inurba_marseille","lat":43.32341,"lon":5.40629,"is_reserved":false,"is_disabled":false,"rental_uris":{"android":"levelo://app?vid=272bd483-3c2c-49ec-b30d-44ac080cfd01","ios":"levelo://app?vid=272bd483-3c2c-49ec-b30d-44ac080cfd01"},"vehicle_type_id":"4","last_reported":1742670402,"current_range_meters":12000,"station_id":"ce4bhq92rcd13ifvqhjg","pricing_plan_id":"cebpf4jnsgd1na2vs0mg"},{"bike_id":"a0b9b463-4064-4c5c-a352-b3edb859338a","system_id":"levelo_inurba_marseille","lat":43.31445,"lon":5.37584,"is_reserved":false,"is_disabled":false,"rental_uris":{"android":"levelo://app?vid=a0b9b463-4064-4c5c-a352-b3edb859338a","ios":"levelo://app?vid=a0b9b463-4064-4c5c-a352-b3edb859338a"},"vehicle_type_id":"4","last_reported":1742670402,"current_range_meters":12400,"station_id":"","pricing_plan_id":"cebpf4jnsgd1na2vs0mg"},{"bike_id":"041746e8-f612-4f02-ba2c-e784ef31f6c4","system_id":"levelo_inurba_marseille","lat":43.23158,"lon":5.43709,"is_reserved":false,"is_disabled":false,"rental_uris":{"android":"levelo://app?vid=041746e8-f612-4f02-ba2c-e784ef31f6c4","ios":"levelo://app?vid=041746e8-f612-4f02-ba2c-e784ef31f6c4"},"vehicle_type_id":"4","last_reported":1742670402,"current_range_meters":12400,"station_id":"ce4bhmp2rcd13ifvqgog","pricing_plan_id":"cebpf4jnsgd1na2vs0mg"},{"bike_id":"e7f334a1-f21e-4225-a073-862fa87c95f1","system_id":"levelo_inurba_marseille","lat":43.25601,"lon":5.41179,"is_reserved":false,"is_disabled":false,"rental_uris":{"android":"levelo://app?vid=e7f334a1-f21e-4225-a073-862fa87c95f1","ios":"levelo://app?vid=e7f334a1-f21e-4225-a073-862fa87c95f1"},"vehicle_type_id":"4","last_reported":1742670402,"current_range_meters":12400,"station_id":"","pricing_plan_id":"cebpf4jnsgd1na2vs0mg"},{"bike_id":"140d1708-b02b-4f3d-8b67-ad95553b03f4","system_id":"levelo_inurba_marseille","lat":43.30157,"lon":5.37412,"is_reserved":false,"is_disabled":false,"rental_uris":{"android":"levelo://app?vid=140d1708-b02b-4f3d-8b67-ad95553b03f4","ios":"levelo://app?vid=140d1708-b02b-4f3d-8b67-ad95553b03f4"},"vehicle_type_id":"4","last_reported":1742670402,"current_range_meters":12400,"station_id":"ce4bgs92rcd13ifvqcc0","pricing_plan_id":"cebpf4jnsgd1na2vs0mg"},{"bike_id":"cee7165c-6020-4946-bcfa-56667555c30e","system_id":"levelo_inurba_marseille","lat":43.31119,"lon":5.37788,"is_reserved":false,"is_disabled":false,"rental_uris":{"android":"levelo://app?vid=cee7165c-6020-4946-bcfa-56667555c30e","ios":"levelo://app?vid=cee7165c-6020-4946-bcfa-56667555c30e"},"vehicle_type_id":"4","last_reported":1742670402,"current_range_meters":12400,"station_id":"ce4bgt92rcd13ifvqcg0","pricing_plan_id":"cebpf4jnsgd1na2vs0mg"},{"bike_id":"c6eb4b0d-993f-42fa-a568-7241ff919b92","system_id":"levelo_inurba_marseille","lat":43.29093,"lon":5.38152,"is_reserved":false,"is_disabled":false,"rental_uris":{"android":"levelo://app?vid=c6eb4b0d-993f-42fa-a568-7241ff919b92","ios":"levelo://app?vid=c6eb4b0d-993f-42fa-a568-7241ff919b92"},"vehicle_type_id":"4","last_reported":1742670402,"current_range_meters":12000,"station_id":"ce4bh512rcd13ifvqe2g","pricing_plan_id":"cebpf4jnsgd1na2vs0mg"},{"bike_id":"1c791fa2-9405-48c1-9835-895ee618b900","system_id":"levelo_inurba_marseille","lat":43.31434,"lon":5.37373,"is_reserved":false,"is_disabled":false,"rental_uris":{"android":"levelo://app?vid=1c791fa2-9405-48c1-9835-895ee618b900","ios":"levelo://app?vid=1c791fa2-9405-48c1-9835-895ee618b900"},"vehicle_type_id":"4","last_reported":1742670402,"current_range_meters":12400,"station_id":"","pricing_plan_id":"cebpf4jnsgd1na2vs0mg"},{"bike_id":"836f1089-8cc4-41d6-af75-9bbffbdd1201","system_id":"levelo_inurba_marseille","lat":43.262144,"lon":5.37439,"is_reserved":false,"is_disabled":false,"rental_uris":{"android":"levelo://app?vid=836f1089-8cc4-41d6-af75-9bbffbdd1201","ios":"levelo://app?vid=836f1089-8cc4-41d6-af75-9bbffbdd1201"},"vehicle_type_id":"4","last_reported":1742670402,"current_range_meters":12800,"station_id":"ce4bhgp2rcd13ifvqfc0","pricing_plan_id":"cebpf4jnsgd1na2vs0mg"},{"bike_id":"635e00f1-7672-4c20-b9a9-b9c7613e4d27","system_id":"levelo_inurba_marseille","lat":43.24097,"lon":5.37783,"is_reserved":false,"is_disabled":false,"rental_uris":{"android":"levelo://app?vid=635e00f1-7672-4c20-b9a9-b9c7613e4d27","ios":"levelo://app?vid=635e00f1-7672-4c20-b9a9-b9c7613e4d27"},"vehicle_type_id":"4","last_reported":1742670402,"current_range_meters":12800,"station_id":"ce4bhnp2rcd13ifvqgvg","pricing_plan_id":"cebpf4jnsgd1na2vs0mg"},{"bike_id":"06f55614-0097-4793-917e-617de92a8f52","system_id":"levelo_inurba_marseille","lat":43.29526,"lon":5.3905,"is_reserved":false,"is_disabled":false,"rental_uris":{"android":"levelo://app?vid=06f55614-0097-4793-917e-617de92a8f52","ios":"levelo://app?vid=06f55614-0097-4793-917e-617de92a8f52"},"vehicle_type_id":"4","last_reported":1742670402,"current_range_meters":12800,"station_id":"ce4bh3p2rcd13ifvqdp0","pricing_plan_id":"cebpf4jnsgd1na2vs0mg"},{"bike_id":"a423dca9-8bcd-4834-98bb-ca30f2060f15","system_id":"levelo_inurba_marseille","lat":43.30893,"lon":5.40109,"is_reserved":false,"is_disabled":false,"rental_uris":{"android":"levelo://app?vid=a423dca9-8bcd-4834-98bb-ca30f2060f15","ios":"levelo://app?vid=a423dca9-8bcd-4834-98bb-ca30f2060f15"},"vehicle_type_id":"4","last_reported":1742670402,"current_range_meters":12800,"station_id":"ce4bgvp2rcd13ifvqct0","pricing_plan_id":"cebpf4jnsgd1na2vs0mg"},{"bike_id":"374b0972-8f50-4943-9a74-38cf1ad42a8f","system_id":"levelo_inurba_marseille","lat":43.30925,"lon":5.40144,"is_reserved":false,"is_disabled":false,"rental_uris":{"android":"levelo://app?vid=374b0972-8f50-4943-9a74-38cf1ad42a8f","ios":"levelo://app?vid=374b0972-8f50-4943-9a74-38cf1ad42a8f"},"vehicle_type_id":"4","last_reported":1742670402,"current_range_meters":12800,"station_id":"ce4bgvp2rcd13ifvqct0","pricing_plan_id":"cebpf4jnsgd1na2vs0mg"},{"bike_id":"f00cfb07-5cf3-4901-9f4b-dbc0e0c38f26","system_id":"levelo_inurba_marseille","lat":43.29966,"lon":5.38499,"is_reserved":false,"is_disabled":false,"rental_uris":{"android":"levelo://app?vid=f00cfb07-5cf3-4901-9f4b-dbc0e0c38f26","ios":"levelo://app?vid=f00cfb07-5cf3-4901-9f4b-dbc0e0c38f26"},"vehicle_type_id":"4","last_reported":1742670402,"current_range_meters":12800,"station_id":"ce4bgj92rcd13ifvqbd0","pricing_plan_id":"cebpf4jnsgd1na2vs0mg"},{"bike_id":"c8e6a965-0371-4cdb-a045-b618f45d1285","system_id":"levelo_inurba_marseille","lat":43.32503,"lon":5.36582,"is_reserved":false,"is_disabled":false,"rental_uris":{"android":"levelo://app?vid=c8e6a965-0371-4cdb-a045-b618f45d1285","ios":"levelo://app?vid=c8e6a965-0371-4cdb-a045-b618f45d1285"},"vehicle_type_id":"4","last_reported":1742670402,"current_range_meters":13600,"station_id":"ce4bhs12rcd13ifvqhvg","pricing_plan_id":"cebpf4jnsgd1na2vs0mg"},{"bike_id":"9e5bf935-41c5-439f-91c0-c36d88e08f3a","system_id":"levelo_inurba_marseille","lat":43.30855,"lon":5.39619,"is_reserved":false,"is_disabled":false,"rental_uris":{"android":"levelo://app?vid=9e5bf935-41c5-439f-91c0-c36d88e08f3a","ios":"levelo://app?vid=9e5bf935-41c5-439f-91c0-c36d88e08f3a"},"vehicle_type_id":"4","last_reported":1742670402,"current_range_meters":13600,"station_id":"ce4bh012rcd13ifvqcv0","pricing_plan_id":"cebpf4jnsgd1na2vs0mg"},{"bike_id":"29d4aeb9-b1fb-459e-b8cc-92ec8093ce96","system_id":"levelo_inurba_marseille","lat":43.29785,"lon":5.3936,"is_reserved":false,"is_disabled":false,"rental_uris":{"android":"levelo://app?vid=29d4aeb9-b1fb-459e-b8cc-92ec8093ce96","ios":"levelo://app?vid=29d4aeb9-b1fb-459e-b8cc-92ec8093ce96"},"vehicle_type_id":"4","last_reported":1742670402,"current_range_meters":13600,"station_id":"chh1huq6cuj3fo74tm60","pricing_plan_id":"cebpf4jnsgd1na2vs0mg"},{"bike_id":"d8878601-3ef9-4b69-ae9e-1dde88f059ac","system_id":"levelo_inurba_marseille","lat":43.24161,"lon":5.36405,"is_reserved":false,"is_disabled":false,"rental_uris":{"android":"levelo://app?vid=d8878601-3ef9-4b69-ae9e-1dde88f059ac","ios":"levelo://app?vid=d8878601-3ef9-4b69-ae9e-1dde88f059ac"},"vehicle_type_id":"4","last_reported":1742670402,"current_range_meters":13600,"station_id":"cpo36qri1sfpv3e86is0","pricing_plan_id":"cebpf4jnsgd1na2vs0mg"},{"bike_id":"5d4cc92c-eafe-478c-8820-ef016b1e9d02","system_id":"levelo_inurba_marseille","lat":43.29904,"lon":5.43695,"is_reserved":false,"is_disabled":false,"rental_uris":{"android":"levelo://app?vid=5d4cc92c-eafe-478c-8820-ef016b1e9d02","ios":"levelo://app?vid=5d4cc92c-eafe-478c-8820-ef016b1e9d02"},"vehicle_type_id":"4","last_reported":1742670402,"current_range_meters":13600,"station_id":"ce4bhpp2rcd13ifvqhfg","pricing_plan_id":"cebpf4jnsgd1na2vs0mg"},{"bike_id":"cda02d2a-ce9e-413e-9b1d-ad217217b3bc","system_id":"levelo_inurba_marseille","lat":43.27813,"lon":5.40724,"is_reserved":false,"is_disabled":false,"rental_uris":{"android":"levelo://app?vid=cda02d2a-ce9e-413e-9b1d-ad217217b3bc","ios":"levelo://app?vid=cda02d2a-ce9e-413e-9b1d-ad217217b3bc"},"vehicle_type_id":"4","last_reported":1742670402,"current_range_meters":13600,"station_id":"ce4bhnh2rcd13ifvqgtg","pricing_plan_id":"cebpf4jnsgd1na2vs0mg"},{"bike_id":"f757b8f5-76ae-4a1e-a56a-3bf252f83e5a","system_id":"levelo_inurba_marseille","lat":43.30437,"lon":5.38883,"is_reserved":false,"is_disabled":false,"rental_uris":{"android":"levelo://app?vid=f757b8f5-76ae-4a1e-a56a-3bf252f83e5a","ios":"levelo://app?vid=f757b8f5-76ae-4a1e-a56a-3bf252f83e5a"},"vehicle_type_id":"4","last_reported":1742670402,"current_range_meters":13600,"station_id":"ce4bgk12rcd13ifvqbi0","pricing_plan_id":"cebpf4jnsgd1na2vs0mg"},{"bike_id":"da598ac3-13a7-47ae-aec1-b356b24c593b","system_id":"levelo_inurba_marseille","lat":43.29586,"lon":5.37508,"is_reserved":false,"is_disabled":false,"rental_uris":{"android":"levelo://app?vid=da598ac3-13a7-47ae-aec1-b356b24c593b","ios":"levelo://app?vid=da598ac3-13a7-47ae-aec1-b356b24c593b"},"vehicle_type_id":"4","last_reported":1742670402,"current_range_meters":13600,"station_id":"ce4bgh92rcd13ifvqb50","pricing_plan_id":"cebpf4jnsgd1na2vs0mg"},{"bike_id":"855cc672-3fe2-4592-84db-4719dd4814ea","system_id":"levelo_inurba_marseille","lat":43.24196,"lon":5.39722,"is_reserved":false,"is_disabled":false,"rental_uris":{"android":"levelo://app?vid=855cc672-3fe2-4592-84db-4719dd4814ea","ios":"levelo://app?vid=855cc672-3fe2-4592-84db-4719dd4814ea"},"vehicle_type_id":"4","last_reported":1742670402,"current_range_meters":13600,"station_id":"ce4bhn12rcd13ifvqgpg","pricing_plan_id":"cebpf4jnsgd1na2vs0mg"},{"bike_id":"f00a85f1-54fa-4e47-9c73-073e8270ac2d","system_id":"levelo_inurba_marseille","lat":43.30191,"lon":5.36619,"is_reserved":false,"is_disabled":false,"rental_uris":{"android":"levelo://app?vid=f00a85f1-54fa-4e47-9c73-073e8270ac2d","ios":"levelo://app?vid=f00a85f1-54fa-4e47-9c73-073e8270ac2d"},"vehicle_type_id":"4","last_reported":1742670402,"current_range_meters":14000,"station_id":"ce4bgrh2rcd13ifvqc8g","pricing_plan_id":"cebpf4jnsgd1na2vs0mg"},{"bike_id":"7b75d449-7c71-498f-b2ce-f002530eba03","system_id":"levelo_inurba_marseille","lat":43.30152,"lon":5.37382,"is_reserved":false,"is_disabled":false,"rental_uris":{"android":"levelo://app?vid=7b75d449-7c71-498f-b2ce-f002530eba03","ios":"levelo://app?vid=7b75d449-7c71-498f-b2ce-f002530eba03"},"vehicle_type_id":"4","last_reported":1742670402,"current_range_meters":14000,"station_id":"ce4bgs92rcd13ifvqcc0","pricing_plan_id":"cebpf4jnsgd1na2vs0mg"},{"bike_id":"8a858ea1-7bd2-46ea-89e0-0e3881916363","system_id":"levelo_inurba_marseille","lat":43.25115,"lon":5.40348,"is_reserved":false,"is_disabled":true,"rental_uris":{"android":"levelo://app?vid=8a858ea1-7bd2-46ea-89e0-0e3881916363","ios":"levelo://app?vid=8a858ea1-7bd2-46ea-89e0-0e3881916363"},"vehicle_type_id":"4","last_reported":1742670402,"current_range_meters":14000,"station_id":"ce4bhlh2rcd13ifvqgig","pricing_plan_id":"cebpf4jnsgd1na2vs0mg"},{"bike_id":"c782ebe3-9d3d-4a53-9a08-cf586f0c7e08","system_id":"levelo_inurba_marseille","lat":43.2744,"lon":5.39409,"is_reserved":false,"is_disabled":false,"rental_uris":{"android":"levelo://app?vid=c782ebe3-9d3d-4a53-9a08-cf586f0c7e08","ios":"levelo://app?vid=c782ebe3-9d3d-4a53-9a08-cf586f0c7e08"},"vehicle_type_id":"4","last_reported":1742670402,"current_range_meters":13600,"station_id":"ce4bhdp2rcd13ifvqf20","pricing_plan_id":"cebpf4jnsgd1na2vs0mg"},{"bike_id":"a7c269ac-750b-4e61-a0a4-f774b818338f","system_id":"levelo_inurba_marseille","lat":43.28084,"lon":5.39644,"is_reserved":false,"is_disabled":false,"rental_uris":{"android":"levelo://app?vid=a7c269ac-750b-4e61-a0a4-f774b818338f","ios":"levelo://app?vid=a7c269ac-750b-4e61-a0a4-f774b818338f"},"vehicle_type_id":"4","last_reported":1742670402,"current_range_meters":14000,"station_id":"ce4bho12rcd13ifvqh2g","pricing_plan_id":"cebpf4jnsgd1na2vs0mg"},{"bike_id":"46c33e53-ef12-48da-9b41-098c7d23a359","system_id":"levelo_inurba_marseille","lat":43.27814,"lon":5.4072,"is_reserved":false,"is_disabled":false,"rental_uris":{"android":"levelo://app?vid=46c33e53-ef12-48da-9b41-098c7d23a359","ios":"levelo://app?vid=46c33e53-ef12-48da-9b41-098c7d23a359"},"vehicle_type_id":"4","last_reported":1742670402,"current_range_meters":14400,"station_id":"ce4bhnh2rcd13ifvqgtg","pricing_plan_id":"cebpf4jnsgd1na2vs0mg"},{"bike_id":"d5e3451a-ab9a-442a-ad85-b8fb0d7acf65","system_id":"levelo_inurba_marseille","lat":43.32367,"lon":5.38886,"is_reserved":false,"is_disabled":false,"rental_uris":{"android":"levelo://app?vid=d5e3451a-ab9a-442a-ad85-b8fb0d7acf65","ios":"levelo://app?vid=d5e3451a-ab9a-442a-ad85-b8fb0d7acf65"},"vehicle_type_id":"4","last_reported":1742670402,"current_range_meters":14400,"station_id":"ce4bhqp2rcd13ifvqhog","pricing_plan_id":"cebpf4jnsgd1na2vs0mg"},{"bike_id":"8c63df77-097b-4903-9759-f2f1d7fa6122","system_id":"levelo_inurba_marseille","lat":43.28467,"lon":5.3841,"is_reserved":false,"is_disabled":false,"rental_uris":{"android":"levelo://app?vid=8c63df77-097b-4903-9759-f2f1d7fa6122","ios":"levelo://app?vid=8c63df77-097b-4903-9759-f2f1d7fa6122"},"vehicle_type_id":"4","last_reported":1742670402,"current_range_meters":14000,"station_id":"ce4bh512rcd13ifvqe3g","pricing_plan_id":"cebpf4jnsgd1na2vs0mg"},{"bike_id":"9f1b3ca6-22eb-4d1b-a633-1ba65964a0c5","system_id":"levelo_inurba_marseille","lat":43.25827,"lon":5.3944,"is_reserved":false,"is_disabled":false,"rental_uris":{"android":"levelo://app?vid=9f1b3ca6-22eb-4d1b-a633-1ba65964a0c5","ios":"levelo://app?vid=9f1b3ca6-22eb-4d1b-a633-1ba65964a0c5"},"vehicle_type_id":"4","last_reported":1742670402,"current_range_meters":14000,"station_id":"ce4bhip2rcd13ifvqft0","pricing_plan_id":"cebpf4jnsgd1na2vs0mg"},{"bike_id":"f9397cdf-4681-4ebd-9ed2-299c0517f62e","system_id":"levelo_inurba_marseille","lat":43.30292,"lon":5.37691,"is_reserved":false,"is_disabled":false,"rental_uris":{"android":"levelo://app?vid=f9397cdf-4681-4ebd-9ed2-299c0517f62e","ios":"levelo://app?vid=f9397cdf-4681-4ebd-9ed2-299c0517f62e"},"vehicle_type_id":"4","last_reported":1742670402,"current_range_meters":14400,"station_id":"ce4bguh2rcd13ifvqcj0","pricing_plan_id":"cebpf4jnsgd1na2vs0mg"},{"bike_id":"ba0f9229-fed7-47a9-8af2-20780722866a","system_id":"levelo_inurba_marseille","lat":43.30147,"lon":5.39887,"is_reserved":false,"is_disabled":false,"rental_uris":{"android":"levelo://app?vid=ba0f9229-fed7-47a9-8af2-20780722866a","ios":"levelo://app?vid=ba0f9229-fed7-47a9-8af2-20780722866a"},"vehicle_type_id":"4","last_reported":1742670402,"current_range_meters":14400,"station_id":"ce4bh0h2rcd13ifvqd40","pricing_plan_id":"cebpf4jnsgd1na2vs0mg"},{"bike_id":"d47c8647-452f-4088-894d-f260dd185502","system_id":"levelo_inurba_marseille","lat":43.26834,"lon":5.40305,"is_reserved":false,"is_disabled":false,"rental_uris":{"android":"levelo://app?vid=d47c8647-452f-4088-894d-f260dd185502","ios":"levelo://app?vid=d47c8647-452f-4088-894d-f260dd185502"},"vehicle_type_id":"4","last_reported":1742670402,"current_range_meters":14400,"station_id":"ce501612rcd8frsf0b60","pricing_plan_id":"cebpf4jnsgd1na2vs0mg"},{"bike_id":"d954b141-3cee-4de0-9c29-d5babd11cd82","system_id":"levelo_inurba_marseille","lat":43.25121,"lon":5.39516,"is_reserved":false,"is_disabled":false,"rental_uris":{"android":"levelo://app?vid=d954b141-3cee-4de0-9c29-d5babd11cd82","ios":"levelo://app?vid=d954b141-3cee-4de0-9c29-d5babd11cd82"},"vehicle_type_id":"4","last_reported":1742670402,"current_range_meters":14400,"station_id":"ce4bhm12rcd13ifvqgkg","pricing_plan_id":"cebpf4jnsgd1na2vs0mg"},{"bike_id":"7fdfd147-a5b3-448b-b206-b410fe340078","system_id":"levelo_inurba_marseille","lat":43.31133,"lon":5.37764,"is_reserved":false,"is_disabled":false,"rental_uris":{"android":"levelo://app?vid=7fdfd147-a5b3-448b-b206-b410fe340078","ios":"levelo://app?vid=7fdfd147-a5b3-448b-b206-b410fe340078"},"vehicle_type_id":"4","last_reported":1742670402,"current_range_meters":14400,"station_id":"ce4bgt92rcd13ifvqcg0","pricing_plan_id":"cebpf4jnsgd1na2vs0mg"},{"bike_id":"b70a7dd1-1549-4122-8d42-8db2d55856b2","system_id":"levelo_inurba_marseille","lat":43.26188,"lon":5.40363,"is_reserved":false,"is_disabled":false,"rental_uris":{"android":"levelo://app?vid=b70a7dd1-1549-4122-8d42-8db2d55856b2","ios":"levelo://app?vid=b70a7dd1-1549-4122-8d42-8db2d55856b2"},"vehicle_type_id":"4","last_reported":1742670402,"current_range_meters":14400,"station_id":"ce4bhmh2rcd13ifvqgmg","pricing_plan_id":"cebpf4jnsgd1na2vs0mg"},{"bike_id":"b6da0cea-b960-4652-be57-f2bb8065fb68","system_id":"levelo_inurba_marseille","lat":43.23202,"lon":5.43727,"is_reserved":false,"is_disabled":false,"rental_uris":{"android":"levelo://app?vid=b6da0cea-b960-4652-be57-f2bb8065fb68","ios":"levelo://app?vid=b6da0cea-b960-4652-be57-f2bb8065fb68"},"vehicle_type_id":"4","last_reported":1742670402,"current_range_meters":14800,"station_id":"","pricing_plan_id":"cebpf4jnsgd1na2vs0mg"},{"bike_id":"dd5d6d06-0e34-4684-b128-c77a8d50ab86","system_id":"levelo_inurba_marseille","lat":43.30188,"lon":5.37445,"is_reserved":false,"is_disabled":false,"rental_uris":{"android":"levelo://app?vid=dd5d6d06-0e34-4684-b128-c77a8d50ab86","ios":"levelo://app?vid=dd5d6d06-0e34-4684-b128-c77a8d50ab86"},"vehicle_type_id":"4","last_reported":1742670402,"current_range_meters":14800,"station_id":"ce4bgs92rcd13ifvqcc0","pricing_plan_id":"cebpf4jnsgd1na2vs0mg"},{"bike_id":"04048044-a942-4929-a12b-0e54dabbead5","system_id":"levelo_inurba_marseille","lat":43.29977,"lon":5.38449,"is_reserved":false,"is_disabled":false,"rental_uris":{"android":"levelo://app?vid=04048044-a942-4929-a12b-0e54dabbead5","ios":"levelo://app?vid=04048044-a942-4929-a12b-0e54dabbead5"},"vehicle_type_id":"4","last_reported":1742670402,"current_range_meters":14800,"station_id":"ce4bgj92rcd13ifvqbd0","pricing_plan_id":"cebpf4jnsgd1na2vs0mg"},{"bike_id":"37235c89-edfa-4deb-b4b5-c889cd5c59d9","system_id":"levelo_inurba_marseille","lat":43.29306,"lon":5.3745,"is_reserved":false,"is_disabled":false,"rental_uris":{"android":"levelo://app?vid=37235c89-edfa-4deb-b4b5-c889cd5c59d9","ios":"levelo://app?vid=37235c89-edfa-4deb-b4b5-c889cd5c59d9"},"vehicle_type_id":"4","last_reported":1742670402,"current_range_meters":14400,"station_id":"ce4bgi12rcd13ifvqb70","pricing_plan_id":"cebpf4jnsgd1na2vs0mg"},{"bike_id":"54835c02-6158-4aac-b2e9-f6650d514f97","system_id":"levelo_inurba_marseille","lat":43.2411,"lon":5.37764,"is_reserved":false,"is_disabled":false,"rental_uris":{"android":"levelo://app?vid=54835c02-6158-4aac-b2e9-f6650d514f97","ios":"levelo://app?vid=54835c02-6158-4aac-b2e9-f6650d514f97"},"vehicle_type_id":"4","last_reported":1742670402,"current_range_meters":14800,"station_id":"ce4bhnp2rcd13ifvqgvg","pricing_plan_id":"cebpf4jnsgd1na2vs0mg"},{"bike_id":"751ff1ed-b498-4578-9bd4-943bf6c9d8eb","system_id":"levelo_inurba_marseille","lat":43.23202,"lon":5.35556,"is_reserved":false,"is_disabled":false,"rental_uris":{"android":"levelo://app?vid=751ff1ed-b498-4578-9bd4-943bf6c9d8eb","ios":"levelo://app?vid=751ff1ed-b498-4578-9bd4-943bf6c9d8eb"},"vehicle_type_id":"4","last_reported":1742670402,"current_range_meters":14800,"station_id":"ce4bhu92rcd13ifvqi70","pricing_plan_id":"cebpf4jnsgd1na2vs0mg"},{"bike_id":"7a285850-d574-4195-bdc3-3c7f7eba1159","system_id":"levelo_inurba_marseille","lat":43.32105,"lon":5.36759,"is_reserved":false,"is_disabled":false,"rental_uris":{"android":"levelo://app?vid=7a285850-d574-4195-bdc3-3c7f7eba1159","ios":"levelo://app?vid=7a285850-d574-4195-bdc3-3c7f7eba1159"},"vehicle_type_id":"4","last_reported":1742670402,"current_range_meters":14800,"station_id":"ce4bhrh2rcd13ifvqhug","pricing_plan_id":"cebpf4jnsgd1na2vs0mg"},{"bike_id":"07541760-82c4-4d38-b58c-85ffff07e965","system_id":"levelo_inurba_marseille","lat":43.23965,"lon":5.36636,"is_reserved":false,"is_disabled":false,"rental_uris":{"android":"levelo://app?vid=07541760-82c4-4d38-b58c-85ffff07e965","ios":"levelo://app?vid=07541760-82c4-4d38-b58c-85ffff07e965"},"vehicle_type_id":"4","last_reported":1742670402,"current_range_meters":14800,"station_id":"ce4bhi12rcd13ifvqfp0","pricing_plan_id":"cebpf4jnsgd1na2vs0mg"},{"bike_id":"c80bb6d0-985b-4c2e-88b2-9aa7a467f7e0","system_id":"levelo_inurba_marseille","lat":43.32328,"lon":5.38869,"is_reserved":false,"is_disabled":false,"rental_uris":{"android":"levelo://app?vid=c80bb6d0-985b-4c2e-88b2-9aa7a467f7e0","ios":"levelo://app?vid=c80bb6d0-985b-4c2e-88b2-9aa7a467f7e0"},"vehicle_type_id":"4","last_reported":1742670402,"current_range_meters":14800,"station_id":"ce4bhqp2rcd13ifvqhog","pricing_plan_id":"cebpf4jnsgd1na2vs0mg"},{"bike_id":"4c406a29-ee9e-4446-b3db-6d7899ff79a2","system_id":"levelo_inurba_marseille","lat":43.24166,"lon":5.36395,"is_reserved":false,"is_disabled":false,"rental_uris":{"android":"levelo://app?vid=4c406a29-ee9e-4446-b3db-6d7899ff79a2","ios":"levelo://app?vid=4c406a29-ee9e-4446-b3db-6d7899ff79a2"},"vehicle_type_id":"4","last_reported":1742670402,"current_range_meters":14800,"station_id":"cpo36qri1sfpv3e86is0","pricing_plan_id":"cebpf4jnsgd1na2vs0mg"},{"bike_id":"196e5527-f8ec-47c9-88d8-c0c49611574a","system_id":"levelo_inurba_marseille","lat":43.23052,"lon":5.35464,"is_reserved":false,"is_disabled":false,"rental_uris":{"android":"levelo://app?vid=196e5527-f8ec-47c9-88d8-c0c49611574a","ios":"levelo://app?vid=196e5527-f8ec-47c9-88d8-c0c49611574a"},"vehicle_type_id":"4","last_reported":1742670402,"current_range_meters":14800,"station_id":"cpo3342slgdg3j2ifvpg","pricing_plan_id":"cebpf4jnsgd1na2vs0mg"},{"bike_id":"b638e0d7-250d-4483-9754-36eb29c25199","system_id":"levelo_inurba_marseille","lat":43.29027,"lon":5.39738,"is_reserved":false,"is_disabled":false,"rental_uris":{"android":"levelo://app?vid=b638e0d7-250d-4483-9754-36eb29c25199","ios":"levelo://app?vid=b638e0d7-250d-4483-9754-36eb29c25199"},"vehicle_type_id":"4","last_reported":1742670402,"current_range_meters":14800,"station_id":"","pricing_plan_id":"cebpf4jnsgd1na2vs0mg"},{"bike_id":"0af74a1a-d6e1-4579-b1c6-27467ba405fe","system_id":"levelo_inurba_marseille","lat":43.29912,"lon":5.39769,"is_reserved":false,"is_disabled":true,"rental_uris":{"android":"levelo://app?vid=0af74a1a-d6e1-4579-b1c6-27467ba405fe","ios":"levelo://app?vid=0af74a1a-d6e1-4579-b1c6-27467ba405fe"},"vehicle_type_id":"4","last_reported":1742670402,"current_range_meters":15200,"station_id":"ce4bh0h2rcd13ifvqd50","pricing_plan_id":"cebpf4jnsgd1na2vs0mg"},{"bike_id":"601a3fb4-29aa-488b-bbc2-28524269386d","system_id":"levelo_inurba_marseille","lat":43.298,"lon":5.39348,"is_reserved":false,"is_disabled":false,"rental_uris":{"android":"levelo://app?vid=601a3fb4-29aa-488b-bbc2-28524269386d","ios":"levelo://app?vid=601a3fb4-29aa-488b-bbc2-28524269386d"},"vehicle_type_id":"4","last_reported":1742670402,"current_range_meters":14800,"station_id":"chh1huq6cuj3fo74tm60","pricing_plan_id":"cebpf4jnsgd1na2vs0mg"},{"bike_id":"050381e0-666b-4c98-aa42-54b443a035a5","system_id":"levelo_inurba_marseille","lat":43.30283,"lon":5.369,"is_reserved":false,"is_disabled":false,"rental_uris":{"android":"levelo://app?vid=050381e0-666b-4c98-aa42-54b443a035a5","ios":"levelo://app?vid=050381e0-666b-4c98-aa42-54b443a035a5"},"vehicle_type_id":"4","last_reported":1742670402,"current_range_meters":15200,"station_id":"ce4bgqh2rcd13ifvqc5g","pricing_plan_id":"cebpf4jnsgd1na2vs0mg"},{"bike_id":"d77ea824-1ea6-4980-80c7-ce0e34efe7ca","system_id":"levelo_inurba_marseille","lat":43.28167,"lon":5.42629,"is_reserved":false,"is_disabled":false,"rental_uris":{"android":"levelo://app?vid=d77ea824-1ea6-4980-80c7-ce0e34efe7ca","ios":"levelo://app?vid=d77ea824-1ea6-4980-80c7-ce0e34efe7ca"},"vehicle_type_id":"4","last_reported":1742670402,"current_range_meters":15200,"station_id":"ce4bhnh2rcd13ifvqgug","pricing_plan_id":"cebpf4jnsgd1na2vs0mg"},{"bike_id":"80beaee8-2975-44c4-aa81-0c3db38fa3c3","system_id":"levelo_inurba_marseille","lat":43.27978,"lon":5.38759,"is_reserved":false,"is_disabled":false,"rental_uris":{"android":"levelo://app?vid=80beaee8-2975-44c4-aa81-0c3db38fa3c3","ios":"levelo://app?vid=80beaee8-2975-44c4-aa81-0c3db38fa3c3"},"vehicle_type_id":"4","last_reported":1742670402,"current_range_meters":15200,"station_id":"ce4bhg12rcd13ifvqf80","pricing_plan_id":"cebpf4jnsgd1na2vs0mg"},{"bike_id":"1542e904-806a-47f4-9338-21788e6e778e","system_id":"levelo_inurba_marseille","lat":43.23999,"lon":5.36619,"is_reserved":false,"is_disabled":false,"rental_uris":{"android":"levelo://app?vid=1542e904-806a-47f4-9338-21788e6e778e","ios":"levelo://app?vid=1542e904-806a-47f4-9338-21788e6e778e"},"vehicle_type_id":"4","last_reported":1742670402,"current_range_meters":15200,"station_id":"ce4bhi12rcd13ifvqfp0","pricing_plan_id":"cebpf4jnsgd1na2vs0mg"},{"bike_id":"fee627d6-fccd-4c70-86d9-065488f95938","system_id":"levelo_inurba_marseille","lat":43.2706,"lon":5.40262,"is_reserved":false,"is_disabled":false,"rental_uris":{"android":"levelo://app?vid=fee627d6-fccd-4c70-86d9-065488f95938","ios":"levelo://app?vid=fee627d6-fccd-4c70-86d9-065488f95938"},"vehicle_type_id":"4","last_reported":1742670402,"current_range_meters":15200,"station_id":"ce4bhk92rcd13ifvqgc0","pricing_plan_id":"cebpf4jnsgd1na2vs0mg"},{"bike_id":"4996d5b0-2b39-4d8d-bc20-3d8ec360f7bb","system_id":"levelo_inurba_marseille","lat":43.27886,"lon":5.39581,"is_reserved":false,"is_disabled":false,"rental_uris":{"android":"levelo://app?vid=4996d5b0-2b39-4d8d-bc20-3d8ec360f7bb","ios":"levelo://app?vid=4996d5b0-2b39-4d8d-bc20-3d8ec360f7bb"},"vehicle_type_id":"4","last_reported":1742670402,"current_range_meters":15200,"station_id":"ce4bhf92rcd13ifvqf40","pricing_plan_id":"cebpf4jnsgd1na2vs0mg"},{"bike_id":"6bb322ec-0247-4411-8d46-aa5cc1eb6957","system_id":"levelo_inurba_marseille","lat":43.2923,"lon":5.36069,"is_reserved":false,"is_disabled":false,"rental_uris":{"android":"levelo://app?vid=6bb322ec-0247-4411-8d46-aa5cc1eb6957","ios":"levelo://app?vid=6bb322ec-0247-4411-8d46-aa5cc1eb6957"},"vehicle_type_id":"4","last_reported":1742670402,"current_range_meters":15200,"station_id":"ce4bhbh2rcd13ifvqeqg","pricing_plan_id":"cebpf4jnsgd1na2vs0mg"},{"bike_id":"e41bf9f2-5cdf-4a27-9e19-85dd8eb5dce8","system_id":"levelo_inurba_marseille","lat":43.30133,"lon":5.37433,"is_reserved":false,"is_disabled":false,"rental_uris":{"android":"levelo://app?vid=e41bf9f2-5cdf-4a27-9e19-85dd8eb5dce8","ios":"levelo://app?vid=e41bf9f2-5cdf-4a27-9e19-85dd8eb5dce8"},"vehicle_type_id":"4","last_reported":1742670402,"current_range_meters":16000,"station_id":"ce4bgs92rcd13ifvqcc0","pricing_plan_id":"cebpf4jnsgd1na2vs0mg"},{"bike_id":"085b145d-31ea-414d-9262-417eb8063e9f","system_id":"levelo_inurba_marseille","lat":43.31068,"lon":5.38352,"is_reserved":false,"is_disabled":false,"rental_uris":{"android":"levelo://app?vid=085b145d-31ea-414d-9262-417eb8063e9f","ios":"levelo://app?vid=085b145d-31ea-414d-9262-417eb8063e9f"},"vehicle_type_id":"4","last_reported":1742670402,"current_range_meters":16000,"station_id":"ce4bgv92rcd13ifvqcr0","pricing_plan_id":"cebpf4jnsgd1na2vs0mg"},{"bike_id":"033c8811-f42b-4df3-8fd1-f7410abb7ead","system_id":"levelo_inurba_marseille","lat":43.27374,"lon":5.36258,"is_reserved":false,"is_disabled":false,"rental_uris":{"android":"levelo://app?vid=033c8811-f42b-4df3-8fd1-f7410abb7ead","ios":"levelo://app?vid=033c8811-f42b-4df3-8fd1-f7410abb7ead"},"vehicle_type_id":"4","last_reported":1742670402,"current_range_meters":16000,"station_id":"ce4bhbh2rcd13ifvqeo0","pricing_plan_id":"cebpf4jnsgd1na2vs0mg"},{"bike_id":"cd897869-d51d-467c-9826-c044773d3f8c","system_id":"levelo_inurba_marseille","lat":43.24167,"lon":5.36401,"is_reserved":false,"is_disabled":false,"rental_uris":{"android":"levelo://app?vid=cd897869-d51d-467c-9826-c044773d3f8c","ios":"levelo://app?vid=cd897869-d51d-467c-9826-c044773d3f8c"},"vehicle_type_id":"4","last_reported":1742670402,"current_range_meters":16000,"station_id":"cpo36qri1sfpv3e86is0","pricing_plan_id":"cebpf4jnsgd1na2vs0mg"},{"bike_id":"ba5cb124-e199-4a74-9826-7748113863ac","system_id":"levelo_inurba_marseille","lat":43.31727,"lon":5.4047,"is_reserved":false,"is_disabled":false,"rental_uris":{"android":"levelo://app?vid=ba5cb124-e199-4a74-9826-7748113863ac","ios":"levelo://app?vid=ba5cb124-e199-4a74-9826-7748113863ac"},"vehicle_type_id":"4","last_reported":1742670402,"current_range_meters":16000,"station_id":"ce4bh012rcd13ifvqd00","pricing_plan_id":"cebpf4jnsgd1na2vs0mg"},{"bike_id":"bdd85a69-2526-423f-83bc-580097d3e5b5","system_id":"levelo_inurba_marseille","lat":43.23066,"lon":5.35503,"is_reserved":false,"is_disabled":false,"rental_uris":{"android":"levelo://app?vid=bdd85a69-2526-423f-83bc-580097d3e5b5","ios":"levelo://app?vid=bdd85a69-2526-423f-83bc-580097d3e5b5"},"vehicle_type_id":"4","last_reported":1742670402,"current_range_meters":16000,"station_id":"cpo3342slgdg3j2ifvpg","pricing_plan_id":"cebpf4jnsgd1na2vs0mg"},{"bike_id":"f657da43-9a05-4822-9c77-ad8671579423","system_id":"levelo_inurba_marseille","lat":43.29572,"lon":5.39964,"is_reserved":false,"is_disabled":true,"rental_uris":{"android":"levelo://app?vid=f657da43-9a05-4822-9c77-ad8671579423","ios":"levelo://app?vid=f657da43-9a05-4822-9c77-ad8671579423"},"vehicle_type_id":"4","last_reported":1742670402,"current_range_meters":16000,"station_id":"ce4bh312rcd13ifvqdj0","pricing_plan_id":"cebpf4jnsgd1na2vs0mg"},{"bike_id":"085e20e1-24dd-46ba-9eec-e5bd3698a3ef","system_id":"levelo_inurba_marseille","lat":43.31093,"lon":5.3834,"is_reserved":false,"is_disabled":false,"rental_uris":{"android":"levelo://app?vid=085e20e1-24dd-46ba-9eec-e5bd3698a3ef","ios":"levelo://app?vid=085e20e1-24dd-46ba-9eec-e5bd3698a3ef"},"vehicle_type_id":"4","last_reported":1742670402,"current_range_meters":16000,"station_id":"ce4bgv92rcd13ifvqcr0","pricing_plan_id":"cebpf4jnsgd1na2vs0mg"},{"bike_id":"d132e5be-f81c-401c-9eb8-879a9f65bd7d","system_id":"levelo_inurba_marseille","lat":43.25086,"lon":5.39513,"is_reserved":false,"is_disabled":false,"rental_uris":{"android":"levelo://app?vid=d132e5be-f81c-401c-9eb8-879a9f65bd7d","ios":"levelo://app?vid=d132e5be-f81c-401c-9eb8-879a9f65bd7d"},"vehicle_type_id":"4","last_reported":1742670402,"current_range_meters":16000,"station_id":"ce4bhm12rcd13ifvqgkg","pricing_plan_id":"cebpf4jnsgd1na2vs0mg"},{"bike_id":"8faee863-fede-4a48-8c5c-84d35fe9974e","system_id":"levelo_inurba_marseille","lat":43.30281,"lon":5.36904,"is_reserved":false,"is_disabled":false,"rental_uris":{"android":"levelo://app?vid=8faee863-fede-4a48-8c5c-84d35fe9974e","ios":"levelo://app?vid=8faee863-fede-4a48-8c5c-84d35fe9974e"},"vehicle_type_id":"4","last_reported":1742670402,"current_range_meters":16000,"station_id":"ce4bgqh2rcd13ifvqc5g","pricing_plan_id":"cebpf4jnsgd1na2vs0mg"},{"bike_id":"f8ff41b7-94c3-4164-990c-0c31908da696","system_id":"levelo_inurba_marseille","lat":43.23059,"lon":5.35496,"is_reserved":false,"is_disabled":false,"rental_uris":{"android":"levelo://app?vid=f8ff41b7-94c3-4164-990c-0c31908da696","ios":"levelo://app?vid=f8ff41b7-94c3-4164-990c-0c31908da696"},"vehicle_type_id":"4","last_reported":1742670402,"current_range_meters":16000,"station_id":"cpo3342slgdg3j2ifvpg","pricing_plan_id":"cebpf4jnsgd1na2vs0mg"},{"bike_id":"e9a9504c-2bd3-4794-962a-75af7ffca5fb","system_id":"levelo_inurba_marseille","lat":43.2816,"lon":5.42639,"is_reserved":false,"is_disabled":false,"rental_uris":{"android":"levelo://app?vid=e9a9504c-2bd3-4794-962a-75af7ffca5fb","ios":"levelo://app?vid=e9a9504c-2bd3-4794-962a-75af7ffca5fb"},"vehicle_type_id":"4","last_reported":1742670402,"current_range_meters":16400,"station_id":"ce4bhnh2rcd13ifvqgug","pricing_plan_id":"cebpf4jnsgd1na2vs0mg"},{"bike_id":"7319a7c3-bd09-4f73-8e1c-199b32707fab","system_id":"levelo_inurba_marseille","lat":43.29688,"lon":5.36576,"is_reserved":false,"is_disabled":false,"rental_uris":{"android":"levelo://app?vid=7319a7c3-bd09-4f73-8e1c-199b32707fab","ios":"levelo://app?vid=7319a7c3-bd09-4f73-8e1c-199b32707fab"},"vehicle_type_id":"4","last_reported":1742670402,"current_range_meters":16400,"station_id":"ce4bgn12rcd13ifvqbt0","pricing_plan_id":"cebpf4jnsgd1na2vs0mg"},{"bike_id":"618ddf7b-ea54-4e71-8d22-a08128f2979b","system_id":"levelo_inurba_marseille","lat":43.30113,"lon":5.39874,"is_reserved":false,"is_disabled":false,"rental_uris":{"android":"levelo://app?vid=618ddf7b-ea54-4e71-8d22-a08128f2979b","ios":"levelo://app?vid=618ddf7b-ea54-4e71-8d22-a08128f2979b"},"vehicle_type_id":"4","last_reported":1742670402,"current_range_meters":16400,"station_id":"ce4bh0h2rcd13ifvqd40","pricing_plan_id":"cebpf4jnsgd1na2vs0mg"},{"bike_id":"185fbe3b-beec-4e8d-a0fb-f3a643549f5b","system_id":"levelo_inurba_marseille","lat":43.31613,"lon":5.37179,"is_reserved":false,"is_disabled":false,"rental_uris":{"android":"levelo://app?vid=185fbe3b-beec-4e8d-a0fb-f3a643549f5b","ios":"levelo://app?vid=185fbe3b-beec-4e8d-a0fb-f3a643549f5b"},"vehicle_type_id":"4","last_reported":1742670402,"current_range_meters":16400,"station_id":"","pricing_plan_id":"cebpf4jnsgd1na2vs0mg"},{"bike_id":"aae94db0-9280-4540-b00b-666d492727ff","system_id":"levelo_inurba_marseille","lat":43.3236,"lon":5.3889,"is_reserved":false,"is_disabled":false,"rental_uris":{"android":"levelo://app?vid=aae94db0-9280-4540-b00b-666d492727ff","ios":"levelo://app?vid=aae94db0-9280-4540-b00b-666d492727ff"},"vehicle_type_id":"4","last_reported":1742670402,"current_range_meters":16400,"station_id":"ce4bhqp2rcd13ifvqhog","pricing_plan_id":"cebpf4jnsgd1na2vs0mg"},{"bike_id":"e2b68c00-ea55-4d0f-ae98-6403b351276c","system_id":"levelo_inurba_marseille","lat":43.23086,"lon":5.35512,"is_reserved":false,"is_disabled":false,"rental_uris":{"android":"levelo://app?vid=e2b68c00-ea55-4d0f-ae98-6403b351276c","ios":"levelo://app?vid=e2b68c00-ea55-4d0f-ae98-6403b351276c"},"vehicle_type_id":"4","last_reported":1742670402,"current_range_meters":16400,"station_id":"cpo3342slgdg3j2ifvpg","pricing_plan_id":"cebpf4jnsgd1na2vs0mg"},{"bike_id":"7d21b8ea-ed62-4939-85a2-f065d6cb0bf4","system_id":"levelo_inurba_marseille","lat":43.29868,"lon":5.363,"is_reserved":false,"is_disabled":false,"rental_uris":{"android":"levelo://app?vid=7d21b8ea-ed62-4939-85a2-f065d6cb0bf4","ios":"levelo://app?vid=7d21b8ea-ed62-4939-85a2-f065d6cb0bf4"},