{"last_updated":1767114772,"ttl":60,"version":"2.2","data":{"bikes":[{"bike_id":"d6a449d9-67ef-4444-ae17-bd1e29b48728","system_id":"levelo_inurba_marseille","lat":43.285767,"lon":5.429835,"is_reserved":false,"is_disabled":false,"rental_uris":{"android":"levelo://app?vid=d6a449d9-67ef-4444-ae17-bd1e29b48728","ios":"levelo://app?vid=d6a449d9-67ef-4444-ae17-bd1e29b48728"},"vehicle_type_id":"4","last_reported":1767114773,"current_range_meters":2800,"station_id":"","pricing_plan_id":"cebpf4jnsgd1na2vs0mg"},{"bike_id":"93048769-87e7-4eb0-aa0f-a0d3819e2726","system_id":"levelo_inurba_marseille","lat":43.21751,"lon":5.34586,"is_reserved":false,"is_disabled":false,"rental_uris":{"android":"levelo://app?vid=93048769-87e7-4eb0-aa0f-a0d3819e2726","ios":"levelo://app?vid=93048769-87e7-4eb0-aa0f-a0d3819e2726"},"vehicle_type_id":"4","last_reported":1767114773,"current_range_meters":2800,"station_id":"st_cvj6r9ubvosntc0bgbag","pricing_plan_id":"cebpf4jnsgd1na2vs0mg"},{"bike_id":"81c358df-7fdf-4ed8-8498-cea28f2bfe7f","system_id":"levelo_inurba_marseille","lat":43.30431,"lon":5.39744,"is_reserved":false,"is_disabled":false,"rental_uris":{"android":"levelo://app?vid=81c358df-7fdf-4ed8-8498-cea28f2bfe7f","ios":"levelo://app?vid=81c358df-7fdf-4ed8-8498-cea28f2bfe7f"},"vehicle_type_id":"4","last_reported":1767114773,"current_range_meters":2800,"station_id":"ce4bh092rcd13ifvqd20","pricing_plan_id":"cebpf4jnsgd1na2vs0mg"},{"bike_id":"6d0ddc6c-eb1c-4c2d-90c5-7f2904ca2add","system_id":"levelo_inurba_marseille","lat":43.29267,"lon":5.3764,"is_reserved":false,"is_disabled":false,"rental_uris":{"android":"levelo://app?vid=6d0ddc6c-eb1c-4c2d-90c5-7f2904ca2add","ios":"levelo://app?vid=6d0ddc6c-eb1c-4c2d-90c5-7f2904ca2add"},"vehicle_type_id":"4","last_reported":1767114773,"current_range_meters":2800,"station_id":"ce4bgi12rcd13ifvqb80","pricing_plan_id":"cebpf4jnsgd1na2vs0mg"},{"bike_id":"54c8f443-d67f-4946-a776-419f325e3b53","system_id":"levelo_inurba_marseille","lat":43.2856,"lon":5.38376,"is_reserved":false,"is_disabled":false,"rental_uris":{"android":"levelo://app?vid=54c8f443-d67f-4946-a776-419f325e3b53","ios":"levelo://app?vid=54c8f443-d67f-4946-a776-419f325e3b53"},"vehicle_type_id":"4","last_reported":1767114773,"current_range_meters":3200,"station_id":"","pricing_plan_id":"cebpf4jnsgd1na2vs0mg"},{"bike_id":"1653a5d8-f3b0-424b-bb6d-2687c814d021","system_id":"levelo_inurba_marseille","lat":43.30136,"lon":5.37426,"is_reserved":false,"is_disabled":false,"rental_uris":{"android":"levelo://app?vid=1653a5d8-f3b0-424b-bb6d-2687c814d021","ios":"levelo://app?vid=1653a5d8-f3b0-424b-bb6d-2687c814d021"},"vehicle_type_id":"4","last_reported":1767114773,"current_range_meters":3200,"station_id":"ce4bgs92rcd13ifvqcc0","pricing_plan_id":"cebpf4jnsgd1na2vs0mg"},{"bike_id":"724a9f40-99f5-4383-9bdf-06898f47d2ff","system_id":"levelo_inurba_marseille","lat":43.27364,"lon":5.42393,"is_reserved":false,"is_disabled":false,"rental_uris":{"android":"levelo://app?vid=724a9f40-99f5-4383-9bdf-06898f47d2ff","ios":"levelo://app?vid=724a9f40-99f5-4383-9bdf-06898f47d2ff"},"vehicle_type_id":"4","last_reported":1767114773,"current_range_meters":3200,"station_id":"","pricing_plan_id":"cebpf4jnsgd1na2vs0mg"},{"bike_id":"1c818977-717b-41f2-8fae-ce6b0c328c89","system_id":"levelo_inurba_marseille","lat":43.31188,"lon":5.36846,"is_reserved":false,"is_disabled":false,"rental_uris":{"android":"levelo://app?vid=1c818977-717b-41f2-8fae-ce6b0c328c89","ios":"levelo://app?vid=1c818977-717b-41f2-8fae-ce6b0c328c89"},"vehicle_type_id":"4","last_reported":1767114773,"current_range_meters":3200,"station_id":"ce4bgl92rcd13ifvqbq0","pricing_plan_id":"cebpf4jnsgd1na2vs0mg"},{"bike_id":"cfacb6b1-b002-45bd-8c22-d080daada4ba","system_id":"levelo_inurba_marseille","lat":43.272056,"lon":5.391768,"is_reserved":false,"is_disabled":false,"rental_uris":{"android":"levelo://app?vid=cfacb6b1-b002-45bd-8c22-d080daada4ba","ios":"levelo://app?vid=cfacb6b1-b002-45bd-8c22-d080daada4ba"},"vehicle_type_id":"4","last_reported":1767114773,"current_range_meters":3600,"station_id":"ce4bhhp2rcd13ifvqfm0","pricing_plan_id":"cebpf4jnsgd1na2vs0mg"},{"bike_id":"08f4624a-a23d-4738-b794-a8bd53bfd7e8","system_id":"levelo_inurba_marseille","lat":43.30001,"lon":5.3784,"is_reserved":false,"is_disabled":false,"rental_uris":{"android":"levelo://app?vid=08f4624a-a23d-4738-b794-a8bd53bfd7e8","ios":"levelo://app?vid=08f4624a-a23d-4738-b794-a8bd53bfd7e8"},"vehicle_type_id":"4","last_reported":1767114773,"current_range_meters":4000,"station_id":"","pricing_plan_id":"cebpf4jnsgd1na2vs0mg"},{"bike_id":"93238dbe-7e18-4ff9-acc5-cf08ef47ac5a","system_id":"levelo_inurba_marseille","lat":43.27396,"lon":5.41539,"is_reserved":false,"is_disabled":false,"rental_uris":{"android":"levelo://app?vid=93238dbe-7e18-4ff9-acc5-cf08ef47ac5a","ios":"levelo://app?vid=93238dbe-7e18-4ff9-acc5-cf08ef47ac5a"},"vehicle_type_id":"4","last_reported":1767114773,"current_range_meters":4000,"station_id":"","pricing_plan_id":"cebpf4jnsgd1na2vs0mg"},{"bike_id":"2c9af7b8-94f1-444b-a231-bbc441000bb5","system_id":"levelo_inurba_marseille","lat":43.30208,"lon":5.39447,"is_reserved":false,"is_disabled":false,"rental_uris":{"android":"levelo://app?vid=2c9af7b8-94f1-444b-a231-bbc441000bb5","ios":"levelo://app?vid=2c9af7b8-94f1-444b-a231-bbc441000bb5"},"vehicle_type_id":"4","last_reported":1767114773,"current_range_meters":4000,"station_id":"ce4bh0p2rcd13ifvqd70","pricing_plan_id":"cebpf4jnsgd1na2vs0mg"},{"bike_id":"febd3ac9-32b2-4f76-8834-a24ee451153a","system_id":"levelo_inurba_marseille","lat":43.323675,"lon":5.38883,"is_reserved":false,"is_disabled":false,"rental_uris":{"android":"levelo://app?vid=febd3ac9-32b2-4f76-8834-a24ee451153a","ios":"levelo://app?vid=febd3ac9-32b2-4f76-8834-a24ee451153a"},"vehicle_type_id":"4","last_reported":1767114773,"current_range_meters":4000,"station_id":"ce4bhqp2rcd13ifvqhog","pricing_plan_id":"cebpf4jnsgd1na2vs0mg"},{"bike_id":"a85dd578-b666-40be-a9cd-f02e10506c11","system_id":"levelo_inurba_marseille","lat":43.30185,"lon":5.36608,"is_reserved":false,"is_disabled":false,"rental_uris":{"android":"levelo://app?vid=a85dd578-b666-40be-a9cd-f02e10506c11","ios":"levelo://app?vid=a85dd578-b666-40be-a9cd-f02e10506c11"},"vehicle_type_id":"4","last_reported":1767114773,"current_range_meters":4000,"station_id":"ce4bgrh2rcd13ifvqc8g","pricing_plan_id":"cebpf4jnsgd1na2vs0mg"},{"bike_id":"e3dcc33f-49c1-4a94-8e61-b80c5b48b6f3","system_id":"levelo_inurba_marseille","lat":43.29001,"lon":5.35603,"is_reserved":false,"is_disabled":true,"rental_uris":{"android":"levelo://app?vid=e3dcc33f-49c1-4a94-8e61-b80c5b48b6f3","ios":"levelo://app?vid=e3dcc33f-49c1-4a94-8e61-b80c5b48b6f3"},"vehicle_type_id":"4","last_reported":1767114773,"current_range_meters":4000,"station_id":"ce4bhb92rcd13ifvqen0","pricing_plan_id":"cebpf4jnsgd1na2vs0mg"},{"bike_id":"28d4fb55-c4b9-409a-97f0-f3be2166953a","system_id":"levelo_inurba_marseille","lat":43.25097,"lon":5.40324,"is_reserved":false,"is_disabled":false,"rental_uris":{"android":"levelo://app?vid=28d4fb55-c4b9-409a-97f0-f3be2166953a","ios":"levelo://app?vid=28d4fb55-c4b9-409a-97f0-f3be2166953a"},"vehicle_type_id":"4","last_reported":1767114773,"current_range_meters":4000,"station_id":"ce4bhlh2rcd13ifvqgig","pricing_plan_id":"cebpf4jnsgd1na2vs0mg"},{"bike_id":"49166d3a-7d57-41ae-b5e6-9a6cbabce031","system_id":"levelo_inurba_marseille","lat":43.29686,"lon":5.36771,"is_reserved":false,"is_disabled":false,"rental_uris":{"android":"levelo://app?vid=49166d3a-7d57-41ae-b5e6-9a6cbabce031","ios":"levelo://app?vid=49166d3a-7d57-41ae-b5e6-9a6cbabce031"},"vehicle_type_id":"4","last_reported":1767114773,"current_range_meters":4400,"station_id":"","pricing_plan_id":"cebpf4jnsgd1na2vs0mg"},{"bike_id":"05f94d41-a67d-41fb-bf81-30069ad6a23b","system_id":"levelo_inurba_marseille","lat":43.27423,"lon":5.39412,"is_reserved":false,"is_disabled":false,"rental_uris":{"android":"levelo://app?vid=05f94d41-a67d-41fb-bf81-30069ad6a23b","ios":"levelo://app?vid=05f94d41-a67d-41fb-bf81-30069ad6a23b"},"vehicle_type_id":"4","last_reported":1767114773,"current_range_meters":4400,"station_id":"ce4bhdp2rcd13ifvqf20","pricing_plan_id":"cebpf4jnsgd1na2vs0mg"},{"bike_id":"577c2f32-35dd-4eab-a65e-64a657815ae2","system_id":"levelo_inurba_marseille","lat":43.298218,"lon":5.403847,"is_reserved":false,"is_disabled":false,"rental_uris":{"android":"levelo://app?vid=577c2f32-35dd-4eab-a65e-64a657815ae2","ios":"levelo://app?vid=577c2f32-35dd-4eab-a65e-64a657815ae2"},"vehicle_type_id":"4","last_reported":1767114773,"current_range_meters":4400,"station_id":"ce4bh112rcd13ifvqd90","pricing_plan_id":"cebpf4jnsgd1na2vs0mg"},{"bike_id":"b042021c-9ced-457b-8a11-dc9ac3802903","system_id":"levelo_inurba_marseille","lat":43.3042,"lon":5.39739,"is_reserved":false,"is_disabled":true,"rental_uris":{"android":"levelo://app?vid=b042021c-9ced-457b-8a11-dc9ac3802903","ios":"levelo://app?vid=b042021c-9ced-457b-8a11-dc9ac3802903"},"vehicle_type_id":"4","last_reported":1767114773,"current_range_meters":4800,"station_id":"ce4bh092rcd13ifvqd20","pricing_plan_id":"cebpf4jnsgd1na2vs0mg"},{"bike_id":"fd3ef554-d521-46e5-9b5b-e4920fea09bb","system_id":"levelo_inurba_marseille","lat":43.261896,"lon":5.374494,"is_reserved":false,"is_disabled":true,"rental_uris":{"android":"levelo://app?vid=fd3ef554-d521-46e5-9b5b-e4920fea09bb","ios":"levelo://app?vid=fd3ef554-d521-46e5-9b5b-e4920fea09bb"},"vehicle_type_id":"4","last_reported":1767114773,"current_range_meters":4800,"station_id":"ce4bhgp2rcd13ifvqfc0","pricing_plan_id":"cebpf4jnsgd1na2vs0mg"},{"bike_id":"edc7bfa1-facb-44d8-9358-bb5fef723267","system_id":"levelo_inurba_marseille","lat":43.29224,"lon":5.36068,"is_reserved":false,"is_disabled":false,"rental_uris":{"android":"levelo://app?vid=edc7bfa1-facb-44d8-9358-bb5fef723267","ios":"levelo://app?vid=edc7bfa1-facb-44d8-9358-bb5fef723267"},"vehicle_type_id":"4","last_reported":1767114773,"current_range_meters":4800,"station_id":"ce4bhbh2rcd13ifvqeqg","pricing_plan_id":"cebpf4jnsgd1na2vs0mg"},{"bike_id":"b0fecc2b-ec8f-4434-ba08-eaae921361a2","system_id":"levelo_inurba_marseille","lat":43.24157,"lon":5.40899,"is_reserved":false,"is_disabled":false,"rental_uris":{"android":"levelo://app?vid=b0fecc2b-ec8f-4434-ba08-eaae921361a2","ios":"levelo://app?vid=b0fecc2b-ec8f-4434-ba08-eaae921361a2"},"vehicle_type_id":"4","last_reported":1767114773,"current_range_meters":5600,"station_id":"","pricing_plan_id":"cebpf4jnsgd1na2vs0mg"},{"bike_id":"3606b848-c1a6-441c-b3ed-f4bfb2b2d28f","system_id":"levelo_inurba_marseille","lat":43.28076,"lon":5.39663,"is_reserved":false,"is_disabled":false,"rental_uris":{"android":"levelo://app?vid=3606b848-c1a6-441c-b3ed-f4bfb2b2d28f","ios":"levelo://app?vid=3606b848-c1a6-441c-b3ed-f4bfb2b2d28f"},"vehicle_type_id":"4","last_reported":1767114773,"current_range_meters":5600,"station_id":"ce4bho12rcd13ifvqh2g","pricing_plan_id":"cebpf4jnsgd1na2vs0mg"},{"bike_id":"056109e4-7d33-4f55-bed7-22f13c21b637","system_id":"levelo_inurba_marseille","lat":43.337444,"lon":5.374475,"is_reserved":false,"is_disabled":true,"rental_uris":{"android":"levelo://app?vid=056109e4-7d33-4f55-bed7-22f13c21b637","ios":"levelo://app?vid=056109e4-7d33-4f55-bed7-22f13c21b637"},"vehicle_type_id":"4","last_reported":1767114773,"current_range_meters":5600,"station_id":"","pricing_plan_id":"cebpf4jnsgd1na2vs0mg"},{"bike_id":"1ccb09fd-1eb6-4c16-8f53-c37d7abead72","system_id":"levelo_inurba_marseille","lat":43.29603,"lon":5.38112,"is_reserved":false,"is_disabled":false,"rental_uris":{"android":"levelo://app?vid=1ccb09fd-1eb6-4c16-8f53-c37d7abead72","ios":"levelo://app?vid=1ccb09fd-1eb6-4c16-8f53-c37d7abead72"},"vehicle_type_id":"4","last_reported":1767114773,"current_range_meters":6000,"station_id":"ce4bgl12rcd13ifvqbo0","pricing_plan_id":"cebpf4jnsgd1na2vs0mg"},{"bike_id":"175ccd4e-ccc6-42e1-bd41-c4ae76ad8694","system_id":"levelo_inurba_marseille","lat":43.30184,"lon":5.36589,"is_reserved":false,"is_disabled":false,"rental_uris":{"android":"levelo://app?vid=175ccd4e-ccc6-42e1-bd41-c4ae76ad8694","ios":"levelo://app?vid=175ccd4e-ccc6-42e1-bd41-c4ae76ad8694"},"vehicle_type_id":"4","last_reported":1767114773,"current_range_meters":6000,"station_id":"ce4bgrh2rcd13ifvqc8g","pricing_plan_id":"cebpf4jnsgd1na2vs0mg"},{"bike_id":"bdeda682-83ce-4f3d-8c82-8fbeeb8a115d","system_id":"levelo_inurba_marseille","lat":43.30435,"lon":5.38893,"is_reserved":false,"is_disabled":false,"rental_uris":{"android":"levelo://app?vid=bdeda682-83ce-4f3d-8c82-8fbeeb8a115d","ios":"levelo://app?vid=bdeda682-83ce-4f3d-8c82-8fbeeb8a115d"},"vehicle_type_id":"4","last_reported":1767114773,"current_range_meters":6000,"station_id":"ce4bgk12rcd13ifvqbi0","pricing_plan_id":"cebpf4jnsgd1na2vs0mg"},{"bike_id":"ad306d0c-1a48-471b-8a10-55b1befe9745","system_id":"levelo_inurba_marseille","lat":43.31058,"lon":5.36919,"is_reserved":false,"is_disabled":false,"rental_uris":{"android":"levelo://app?vid=ad306d0c-1a48-471b-8a10-55b1befe9745","ios":"levelo://app?vid=ad306d0c-1a48-471b-8a10-55b1befe9745"},"vehicle_type_id":"4","last_reported":1767114773,"current_range_meters":6000,"station_id":"","pricing_plan_id":"cebpf4jnsgd1na2vs0mg"},{"bike_id":"f40db260-bae7-47b4-b070-521508af5a90","system_id":"levelo_inurba_marseille","lat":43.29528,"lon":5.3855,"is_reserved":false,"is_disabled":false,"rental_uris":{"android":"levelo://app?vid=f40db260-bae7-47b4-b070-521508af5a90","ios":"levelo://app?vid=f40db260-bae7-47b4-b070-521508af5a90"},"vehicle_type_id":"4","last_reported":1767114773,"current_range_meters":6000,"station_id":"ce4bgih2rcd13ifvqba0","pricing_plan_id":"cebpf4jnsgd1na2vs0mg"},{"bike_id":"03d19238-9efc-4e97-befa-8c5655100686","system_id":"levelo_inurba_marseille","lat":43.28413,"lon":5.34999,"is_reserved":false,"is_disabled":false,"rental_uris":{"android":"levelo://app?vid=03d19238-9efc-4e97-befa-8c5655100686","ios":"levelo://app?vid=03d19238-9efc-4e97-befa-8c5655100686"},"vehicle_type_id":"4","last_reported":1767114773,"current_range_meters":6000,"station_id":"ce4bhbh2rcd13ifvqepg","pricing_plan_id":"cebpf4jnsgd1na2vs0mg"},{"bike_id":"06bd3cf2-59fa-4d81-a5e2-810474846a42","system_id":"levelo_inurba_marseille","lat":43.3045,"lon":5.38911,"is_reserved":false,"is_disabled":false,"rental_uris":{"android":"levelo://app?vid=06bd3cf2-59fa-4d81-a5e2-810474846a42","ios":"levelo://app?vid=06bd3cf2-59fa-4d81-a5e2-810474846a42"},"vehicle_type_id":"4","last_reported":1767114773,"current_range_meters":6000,"station_id":"ce4bgk12rcd13ifvqbi0","pricing_plan_id":"cebpf4jnsgd1na2vs0mg"},{"bike_id":"baa2c88e-3863-47b2-9b99-79915ceaf68f","system_id":"levelo_inurba_marseille","lat":43.27316,"lon":5.39074,"is_reserved":false,"is_disabled":false,"rental_uris":{"android":"levelo://app?vid=baa2c88e-3863-47b2-9b99-79915ceaf68f","ios":"levelo://app?vid=baa2c88e-3863-47b2-9b99-79915ceaf68f"},"vehicle_type_id":"4","last_reported":1767114773,"current_range_meters":6000,"station_id":"ce4bhgp2rcd13ifvqfe0","pricing_plan_id":"cebpf4jnsgd1na2vs0mg"},{"bike_id":"d2a1acc4-1189-493b-b52c-64dcbca20407","system_id":"levelo_inurba_marseille","lat":43.30251,"lon":5.40072,"is_reserved":false,"is_disabled":false,"rental_uris":{"android":"levelo://app?vid=d2a1acc4-1189-493b-b52c-64dcbca20407","ios":"levelo://app?vid=d2a1acc4-1189-493b-b52c-64dcbca20407"},"vehicle_type_id":"4","last_reported":1767114773,"current_range_meters":6000,"station_id":"ce4bgvh2rcd13ifvqcs0","pricing_plan_id":"cebpf4jnsgd1na2vs0mg"},{"bike_id":"85f80c36-b01d-4148-8a0f-5ed00798dda8","system_id":"levelo_inurba_marseille","lat":43.30108,"lon":5.36485,"is_reserved":false,"is_disabled":false,"rental_uris":{"android":"levelo://app?vid=85f80c36-b01d-4148-8a0f-5ed00798dda8","ios":"levelo://app?vid=85f80c36-b01d-4148-8a0f-5ed00798dda8"},"vehicle_type_id":"4","last_reported":1767114773,"current_range_meters":6000,"station_id":"","pricing_plan_id":"cebpf4jnsgd1na2vs0mg"},{"bike_id":"32541f6a-1d2c-44c2-a392-06055eaf1598","system_id":"levelo_inurba_marseille","lat":43.26236,"lon":5.41613,"is_reserved":false,"is_disabled":false,"rental_uris":{"android":"levelo://app?vid=32541f6a-1d2c-44c2-a392-06055eaf1598","ios":"levelo://app?vid=32541f6a-1d2c-44c2-a392-06055eaf1598"},"vehicle_type_id":"4","last_reported":1767114773,"current_range_meters":6000,"station_id":"","pricing_plan_id":"cebpf4jnsgd1na2vs0mg"},{"bike_id":"6f6f42b9-ee40-4e6c-ad97-691b1340e36d","system_id":"levelo_inurba_marseille","lat":43.2622,"lon":5.40457,"is_reserved":false,"is_disabled":false,"rental_uris":{"android":"levelo://app?vid=6f6f42b9-ee40-4e6c-ad97-691b1340e36d","ios":"levelo://app?vid=6f6f42b9-ee40-4e6c-ad97-691b1340e36d"},"vehicle_type_id":"4","last_reported":1767114773,"current_range_meters":6400,"station_id":"ce4bhmh2rcd13ifvqgmg","pricing_plan_id":"cebpf4jnsgd1na2vs0mg"},{"bike_id":"48f98c25-29d8-4f41-8678-833e61eafe6a","system_id":"levelo_inurba_marseille","lat":43.29713,"lon":5.37703,"is_reserved":false,"is_disabled":false,"rental_uris":{"android":"levelo://app?vid=48f98c25-29d8-4f41-8678-833e61eafe6a","ios":"levelo://app?vid=48f98c25-29d8-4f41-8678-833e61eafe6a"},"vehicle_type_id":"4","last_reported":1767114773,"current_range_meters":6400,"station_id":"ce4bgkh2rcd13ifvqbl0","pricing_plan_id":"cebpf4jnsgd1na2vs0mg"},{"bike_id":"1b98c6d3-988a-40e8-a138-836b264a962b","system_id":"levelo_inurba_marseille","lat":43.32331,"lon":5.36678,"is_reserved":false,"is_disabled":false,"rental_uris":{"android":"levelo://app?vid=1b98c6d3-988a-40e8-a138-836b264a962b","ios":"levelo://app?vid=1b98c6d3-988a-40e8-a138-836b264a962b"},"vehicle_type_id":"4","last_reported":1767114773,"current_range_meters":6400,"station_id":"","pricing_plan_id":"cebpf4jnsgd1na2vs0mg"},{"bike_id":"923abae8-3828-45f3-a822-f5987c8e41b7","system_id":"levelo_inurba_marseille","lat":43.29626,"lon":5.37727,"is_reserved":false,"is_disabled":false,"rental_uris":{"android":"levelo://app?vid=923abae8-3828-45f3-a822-f5987c8e41b7","ios":"levelo://app?vid=923abae8-3828-45f3-a822-f5987c8e41b7"},"vehicle_type_id":"4","last_reported":1767114773,"current_range_meters":6400,"station_id":"ce4bgi92rcd13ifvqb90","pricing_plan_id":"cebpf4jnsgd1na2vs0mg"},{"bike_id":"27ddd247-3c81-400c-a4ee-50b262cdc530","system_id":"levelo_inurba_marseille","lat":43.27939,"lon":5.41031,"is_reserved":false,"is_disabled":false,"rental_uris":{"android":"levelo://app?vid=27ddd247-3c81-400c-a4ee-50b262cdc530","ios":"levelo://app?vid=27ddd247-3c81-400c-a4ee-50b262cdc530"},"vehicle_type_id":"4","last_reported":1767114773,"current_range_meters":6800,"station_id":"ce4bhnp2rcd13ifvqh0g","pricing_plan_id":"cebpf4jnsgd1na2vs0mg"},{"bike_id":"2d7a0ed0-372a-4cd3-9a27-e9d1f9e72325","system_id":"levelo_inurba_marseille","lat":43.28867,"lon":5.35958,"is_reserved":false,"is_disabled":false,"rental_uris":{"android":"levelo://app?vid=2d7a0ed0-372a-4cd3-9a27-e9d1f9e72325","ios":"levelo://app?vid=2d7a0ed0-372a-4cd3-9a27-e9d1f9e72325"},"vehicle_type_id":"4","last_reported":1767114773,"current_range_meters":6800,"station_id":"","pricing_plan_id":"cebpf4jnsgd1na2vs0mg"},{"bike_id":"64b34d26-aa37-4813-970c-928f51a94668","system_id":"levelo_inurba_marseille","lat":43.289475,"lon":5.355134,"is_reserved":false,"is_disabled":false,"rental_uris":{"android":"levelo://app?vid=64b34d26-aa37-4813-970c-928f51a94668","ios":"levelo://app?vid=64b34d26-aa37-4813-970c-928f51a94668"},"vehicle_type_id":"4","last_reported":1767114773,"current_range_meters":6800,"station_id":"","pricing_plan_id":"cebpf4jnsgd1na2vs0mg"},{"bike_id":"0a62435e-a1a1-4faf-b848-03bd53df937d","system_id":"levelo_inurba_marseille","lat":43.29842,"lon":5.37888,"is_reserved":false,"is_disabled":false,"rental_uris":{"android":"levelo://app?vid=0a62435e-a1a1-4faf-b848-03bd53df937d","ios":"levelo://app?vid=0a62435e-a1a1-4faf-b848-03bd53df937d"},"vehicle_type_id":"4","last_reported":1767114773,"current_range_meters":6800,"station_id":"","pricing_plan_id":"cebpf4jnsgd1na2vs0mg"},{"bike_id":"6b7ad78a-5d0e-4515-be74-1b0140480c11","system_id":"levelo_inurba_marseille","lat":43.293,"lon":5.37461,"is_reserved":false,"is_disabled":false,"rental_uris":{"android":"levelo://app?vid=6b7ad78a-5d0e-4515-be74-1b0140480c11","ios":"levelo://app?vid=6b7ad78a-5d0e-4515-be74-1b0140480c11"},"vehicle_type_id":"4","last_reported":1767114773,"current_range_meters":6800,"station_id":"ce4bgi12rcd13ifvqb70","pricing_plan_id":"cebpf4jnsgd1na2vs0mg"},{"bike_id":"a016bb81-c1c0-4258-a94b-3773e846dc0d","system_id":"levelo_inurba_marseille","lat":43.21747,"lon":5.34599,"is_reserved":false,"is_disabled":false,"rental_uris":{"android":"levelo://app?vid=a016bb81-c1c0-4258-a94b-3773e846dc0d","ios":"levelo://app?vid=a016bb81-c1c0-4258-a94b-3773e846dc0d"},"vehicle_type_id":"4","last_reported":1767114773,"current_range_meters":6800,"station_id":"st_cvj6r9ubvosntc0bgbag","pricing_plan_id":"cebpf4jnsgd1na2vs0mg"},{"bike_id":"d9762eb4-80c1-45bf-addd-29d70c13a5b0","system_id":"levelo_inurba_marseille","lat":43.26951,"lon":5.38629,"is_reserved":false,"is_disabled":false,"rental_uris":{"android":"levelo://app?vid=d9762eb4-80c1-45bf-addd-29d70c13a5b0","ios":"levelo://app?vid=d9762eb4-80c1-45bf-addd-29d70c13a5b0"},"vehicle_type_id":"4","last_reported":1767114773,"current_range_meters":7200,"station_id":"ce4bhh92rcd13ifvqfh0","pricing_plan_id":"cebpf4jnsgd1na2vs0mg"},{"bike_id":"fac08ce5-78da-402f-9309-13806d806841","system_id":"levelo_inurba_marseille","lat":43.2846,"lon":5.39209,"is_reserved":false,"is_disabled":false,"rental_uris":{"android":"levelo://app?vid=fac08ce5-78da-402f-9309-13806d806841","ios":"levelo://app?vid=fac08ce5-78da-402f-9309-13806d806841"},"vehicle_type_id":"4","last_reported":1767114773,"current_range_meters":7200,"station_id":"ce4bhoh2rcd13ifvqh5g","pricing_plan_id":"cebpf4jnsgd1na2vs0mg"},{"bike_id":"c144adb8-946d-4a60-9739-bd28e99b9f29","system_id":"levelo_inurba_marseille","lat":43.28521,"lon":5.44094,"is_reserved":false,"is_disabled":false,"rental_uris":{"android":"levelo://app?vid=c144adb8-946d-4a60-9739-bd28e99b9f29","ios":"levelo://app?vid=c144adb8-946d-4a60-9739-bd28e99b9f29"},"vehicle_type_id":"4","last_reported":1767114773,"current_range_meters":7200,"station_id":"st_d3j3df2ikq2c7380ej80","pricing_plan_id":"cebpf4jnsgd1na2vs0mg"},{"bike_id":"59aab69d-aa14-4a71-8d9b-0aa143ba58f2","system_id":"levelo_inurba_marseille","lat":43.285319,"lon":5.440912,"is_reserved":false,"is_disabled":true,"rental_uris":{"android":"levelo://app?vid=59aab69d-aa14-4a71-8d9b-0aa143ba58f2","ios":"levelo://app?vid=59aab69d-aa14-4a71-8d9b-0aa143ba58f2"},"vehicle_type_id":"4","last_reported":1767114773,"current_range_meters":7200,"station_id":"st_d3j3df2ikq2c7380ej80","pricing_plan_id":"cebpf4jnsgd1na2vs0mg"},{"bike_id":"633e093e-7aba-4e4b-a5fe-b1e5d042f33b","system_id":"levelo_inurba_marseille","lat":43.28476,"lon":5.4839,"is_reserved":false,"is_disabled":false,"rental_uris":{"android":"levelo://app?vid=633e093e-7aba-4e4b-a5fe-b1e5d042f33b","ios":"levelo://app?vid=633e093e-7aba-4e4b-a5fe-b1e5d042f33b"},"vehicle_type_id":"4","last_reported":1767114773,"current_range_meters":7200,"station_id":"st_d3svhcjqgbts73a3dn0g","pricing_plan_id":"cebpf4jnsgd1na2vs0mg"},{"bike_id":"8cd8286c-2dd8-41ad-b181-1afd615d6e0d","system_id":"levelo_inurba_marseille","lat":43.28588,"lon":5.38356,"is_reserved":false,"is_disabled":false,"rental_uris":{"android":"levelo://app?vid=8cd8286c-2dd8-41ad-b181-1afd615d6e0d","ios":"levelo://app?vid=8cd8286c-2dd8-41ad-b181-1afd615d6e0d"},"vehicle_type_id":"4","last_reported":1767114773,"current_range_meters":8000,"station_id":"","pricing_plan_id":"cebpf4jnsgd1na2vs0mg"},{"bike_id":"7451e2f1-97cc-4a6a-824e-1c725c74e9d6","system_id":"levelo_inurba_marseille","lat":43.29366,"lon":5.38104,"is_reserved":false,"is_disabled":false,"rental_uris":{"android":"levelo://app?vid=7451e2f1-97cc-4a6a-824e-1c725c74e9d6","ios":"levelo://app?vid=7451e2f1-97cc-4a6a-824e-1c725c74e9d6"},"vehicle_type_id":"4","last_reported":1767114773,"current_range_meters":8000,"station_id":"","pricing_plan_id":"cebpf4jnsgd1na2vs0mg"},{"bike_id":"1dd2c077-d7fa-43b2-a55d-f6335f7bc478","system_id":"levelo_inurba_marseille","lat":43.29689,"lon":5.37297,"is_reserved":false,"is_disabled":false,"rental_uris":{"android":"levelo://app?vid=1dd2c077-d7fa-43b2-a55d-f6335f7bc478","ios":"levelo://app?vid=1dd2c077-d7fa-43b2-a55d-f6335f7bc478"},"vehicle_type_id":"4","last_reported":1767114773,"current_range_meters":8000,"station_id":"ce4bgk12rcd13ifvqbj0","pricing_plan_id":"cebpf4jnsgd1na2vs0mg"},{"bike_id":"12c38b32-5974-4311-910a-572392b8079a","system_id":"levelo_inurba_marseille","lat":43.280422,"lon":5.350876,"is_reserved":false,"is_disabled":false,"rental_uris":{"android":"levelo://app?vid=12c38b32-5974-4311-910a-572392b8079a","ios":"levelo://app?vid=12c38b32-5974-4311-910a-572392b8079a"},"vehicle_type_id":"4","last_reported":1767114773,"current_range_meters":8000,"station_id":"","pricing_plan_id":"cebpf4jnsgd1na2vs0mg"},{"bike_id":"7a88ce10-60bc-400e-beb4-546427e000bd","system_id":"levelo_inurba_marseille","lat":43.280805,"lon":5.396514,"is_reserved":false,"is_disabled":false,"rental_uris":{"android":"levelo://app?vid=7a88ce10-60bc-400e-beb4-546427e000bd","ios":"levelo://app?vid=7a88ce10-60bc-400e-beb4-546427e000bd"},"vehicle_type_id":"4","last_reported":1767114773,"current_range_meters":8000,"station_id":"ce4bho12rcd13ifvqh2g","pricing_plan_id":"cebpf4jnsgd1na2vs0mg"},{"bike_id":"1b6f668e-8a35-42f6-ad7f-89dd43d77cea","system_id":"levelo_inurba_marseille","lat":43.33542,"lon":5.374703,"is_reserved":false,"is_disabled":false,"rental_uris":{"android":"levelo://app?vid=1b6f668e-8a35-42f6-ad7f-89dd43d77cea","ios":"levelo://app?vid=1b6f668e-8a35-42f6-ad7f-89dd43d77cea"},"vehicle_type_id":"4","last_reported":1767114773,"current_range_meters":8400,"station_id":"st_d46tts09ee8s73dlu43g","pricing_plan_id":"cebpf4jnsgd1na2vs0mg"},{"bike_id":"464569fc-a43a-48ef-b591-1e6b480fbfde","system_id":"levelo_inurba_marseille","lat":43.24462,"lon":5.42536,"is_reserved":false,"is_disabled":true,"rental_uris":{"android":"levelo://app?vid=464569fc-a43a-48ef-b591-1e6b480fbfde","ios":"levelo://app?vid=464569fc-a43a-48ef-b591-1e6b480fbfde"},"vehicle_type_id":"4","last_reported":1767114773,"current_range_meters":8400,"station_id":"st_d4a3vfp97mjs738cd8kg","pricing_plan_id":"cebpf4jnsgd1na2vs0mg"},{"bike_id":"4f2570b4-ee87-4db5-9f70-0f32de7b52f4","system_id":"levelo_inurba_marseille","lat":43.29308,"lon":5.37169,"is_reserved":false,"is_disabled":false,"rental_uris":{"android":"levelo://app?vid=4f2570b4-ee87-4db5-9f70-0f32de7b52f4","ios":"levelo://app?vid=4f2570b4-ee87-4db5-9f70-0f32de7b52f4"},"vehicle_type_id":"4","last_reported":1767114773,"current_range_meters":8400,"station_id":"ce4bgh92rcd13ifvqb40","pricing_plan_id":"cebpf4jnsgd1na2vs0mg"},{"bike_id":"258d01a8-b23e-4cdf-af24-6ecbb372e1fe","system_id":"levelo_inurba_marseille","lat":43.23795,"lon":5.36623,"is_reserved":false,"is_disabled":false,"rental_uris":{"android":"levelo://app?vid=258d01a8-b23e-4cdf-af24-6ecbb372e1fe","ios":"levelo://app?vid=258d01a8-b23e-4cdf-af24-6ecbb372e1fe"},"vehicle_type_id":"4","last_reported":1767114773,"current_range_meters":8400,"station_id":"st_d3nk18o9ro0c73en2l3g","pricing_plan_id":"cebpf4jnsgd1na2vs0mg"},{"bike_id":"c6b1c510-158d-4d20-b54a-8ee57e5a8ed3","system_id":"levelo_inurba_marseille","lat":43.29453,"lon":5.44246,"is_reserved":false,"is_disabled":false,"rental_uris":{"android":"levelo://app?vid=c6b1c510-158d-4d20-b54a-8ee57e5a8ed3","ios":"levelo://app?vid=c6b1c510-158d-4d20-b54a-8ee57e5a8ed3"},"vehicle_type_id":"4","last_reported":1767114773,"current_range_meters":8400,"station_id":"","pricing_plan_id":"cebpf4jnsgd1na2vs0mg"},{"bike_id":"ba3e3684-a8ca-491d-88c6-cd077d50e519","system_id":"levelo_inurba_marseille","lat":43.281523,"lon":5.426467,"is_reserved":false,"is_disabled":false,"rental_uris":{"android":"levelo://app?vid=ba3e3684-a8ca-491d-88c6-cd077d50e519","ios":"levelo://app?vid=ba3e3684-a8ca-491d-88c6-cd077d50e519"},"vehicle_type_id":"4","last_reported":1767114773,"current_range_meters":8800,"station_id":"ce4bhnh2rcd13ifvqgug","pricing_plan_id":"cebpf4jnsgd1na2vs0mg"},{"bike_id":"797b46ee-90eb-4b1a-8d3f-27eefbae09d5","system_id":"levelo_inurba_marseille","lat":43.25345,"lon":5.42171,"is_reserved":false,"is_disabled":false,"rental_uris":{"android":"levelo://app?vid=797b46ee-90eb-4b1a-8d3f-27eefbae09d5","ios":"levelo://app?vid=797b46ee-90eb-4b1a-8d3f-27eefbae09d5"},"vehicle_type_id":"4","last_reported":1767114773,"current_range_meters":8800,"station_id":"st_d2m65c5bi1j21697t3ng","pricing_plan_id":"cebpf4jnsgd1na2vs0mg"},{"bike_id":"3129393a-6661-4dee-9f01-623c94670254","system_id":"levelo_inurba_marseille","lat":43.28269,"lon":5.35075,"is_reserved":false,"is_disabled":false,"rental_uris":{"android":"levelo://app?vid=3129393a-6661-4dee-9f01-623c94670254","ios":"levelo://app?vid=3129393a-6661-4dee-9f01-623c94670254"},"vehicle_type_id":"4","last_reported":1767114773,"current_range_meters":8800,"station_id":"ce4bhbp2rcd13ifvqerg","pricing_plan_id":"cebpf4jnsgd1na2vs0mg"},{"bike_id":"0557786e-25cf-4b7c-822b-c0733cc21dd9","system_id":"levelo_inurba_marseille","lat":43.29522,"lon":5.39403,"is_reserved":false,"is_disabled":false,"rental_uris":{"android":"levelo://app?vid=0557786e-25cf-4b7c-822b-c0733cc21dd9","ios":"levelo://app?vid=0557786e-25cf-4b7c-822b-c0733cc21dd9"},"vehicle_type_id":"4","last_reported":1767114773,"current_range_meters":8800,"station_id":"ce4bh292rcd13ifvqdf0","pricing_plan_id":"cebpf4jnsgd1na2vs0mg"},{"bike_id":"1f986bde-e823-4547-a8eb-43be952db802","system_id":"levelo_inurba_marseille","lat":43.29442,"lon":5.37288,"is_reserved":false,"is_disabled":false,"rental_uris":{"android":"levelo://app?vid=1f986bde-e823-4547-a8eb-43be952db802","ios":"levelo://app?vid=1f986bde-e823-4547-a8eb-43be952db802"},"vehicle_type_id":"4","last_reported":1767114773,"current_range_meters":8800,"station_id":"","pricing_plan_id":"cebpf4jnsgd1na2vs0mg"},{"bike_id":"de3eae33-1977-4291-82a7-4b5519ab9e98","system_id":"levelo_inurba_marseille","lat":43.22932,"lon":5.35384,"is_reserved":false,"is_disabled":false,"rental_uris":{"android":"levelo://app?vid=de3eae33-1977-4291-82a7-4b5519ab9e98","ios":"levelo://app?vid=de3eae33-1977-4291-82a7-4b5519ab9e98"},"vehicle_type_id":"4","last_reported":1767114773,"current_range_meters":8800,"station_id":"cpo3532slgdg3j2ikp40","pricing_plan_id":"cebpf4jnsgd1na2vs0mg"},{"bike_id":"ca602a15-f758-4526-adca-7aea2d9f4b29","system_id":"levelo_inurba_marseille","lat":43.26561,"lon":5.39046,"is_reserved":false,"is_disabled":false,"rental_uris":{"android":"levelo://app?vid=ca602a15-f758-4526-adca-7aea2d9f4b29","ios":"levelo://app?vid=ca602a15-f758-4526-adca-7aea2d9f4b29"},"vehicle_type_id":"4","last_reported":1767114773,"current_range_meters":8800,"station_id":"ce4bhe12rcd13ifvqf30","pricing_plan_id":"cebpf4jnsgd1na2vs0mg"},{"bike_id":"8ed27c9a-e9f8-40dc-b2e1-d86034c19cf4","system_id":"levelo_inurba_marseille","lat":43.23175,"lon":5.39988,"is_reserved":false,"is_disabled":false,"rental_uris":{"android":"levelo://app?vid=8ed27c9a-e9f8-40dc-b2e1-d86034c19cf4","ios":"levelo://app?vid=8ed27c9a-e9f8-40dc-b2e1-d86034c19cf4"},"vehicle_type_id":"4","last_reported":1767114773,"current_range_meters":8800,"station_id":"ce4bhn12rcd13ifvqgqg","pricing_plan_id":"cebpf4jnsgd1na2vs0mg"},{"bike_id":"e54d4104-9e89-4bb8-b60e-d3755b992e4f","system_id":"levelo_inurba_marseille","lat":43.28533,"lon":5.44092,"is_reserved":false,"is_disabled":false,"rental_uris":{"android":"levelo://app?vid=e54d4104-9e89-4bb8-b60e-d3755b992e4f","ios":"levelo://app?vid=e54d4104-9e89-4bb8-b60e-d3755b992e4f"},"vehicle_type_id":"4","last_reported":1767114773,"current_range_meters":8800,"station_id":"st_d3j3df2ikq2c7380ej80","pricing_plan_id":"cebpf4jnsgd1na2vs0mg"},{"bike_id":"16cee754-8792-4cd9-bdf3-161ed4f049e2","system_id":"levelo_inurba_marseille","lat":43.29446,"lon":5.39987,"is_reserved":false,"is_disabled":false,"rental_uris":{"android":"levelo://app?vid=16cee754-8792-4cd9-bdf3-161ed4f049e2","ios":"levelo://app?vid=16cee754-8792-4cd9-bdf3-161ed4f049e2"},"vehicle_type_id":"4","last_reported":1767114773,"current_range_meters":8800,"station_id":"","pricing_plan_id":"cebpf4jnsgd1na2vs0mg"},{"bike_id":"b05640fc-cf78-4e6b-bafb-c8aa2abc6f80","system_id":"levelo_inurba_marseille","lat":43.273975,"lon":5.390468,"is_reserved":false,"is_disabled":false,"rental_uris":{"android":"levelo://app?vid=b05640fc-cf78-4e6b-bafb-c8aa2abc6f80","ios":"levelo://app?vid=b05640fc-cf78-4e6b-bafb-c8aa2abc6f80"},"vehicle_type_id":"4","last_reported":1767114773,"current_range_meters":9200,"station_id":"","pricing_plan_id":"cebpf4jnsgd1na2vs0mg"},{"bike_id":"c66d2ae4-ab09-4e0e-8bbe-7a1c491ed71a","system_id":"levelo_inurba_marseille","lat":43.33024,"lon":5.39031,"is_reserved":false,"is_disabled":false,"rental_uris":{"android":"levelo://app?vid=c66d2ae4-ab09-4e0e-8bbe-7a1c491ed71a","ios":"levelo://app?vid=c66d2ae4-ab09-4e0e-8bbe-7a1c491ed71a"},"vehicle_type_id":"4","last_reported":1767114773,"current_range_meters":9200,"station_id":"ce4bhr92rcd13ifvqhrg","pricing_plan_id":"cebpf4jnsgd1na2vs0mg"},{"bike_id":"837c40c9-9d34-4d70-8e9d-39893538b86e","system_id":"levelo_inurba_marseille","lat":43.31259,"lon":5.36931,"is_reserved":false,"is_disabled":false,"rental_uris":{"android":"levelo://app?vid=837c40c9-9d34-4d70-8e9d-39893538b86e","ios":"levelo://app?vid=837c40c9-9d34-4d70-8e9d-39893538b86e"},"vehicle_type_id":"4","last_reported":1767114773,"current_range_meters":9200,"station_id":"","pricing_plan_id":"cebpf4jnsgd1na2vs0mg"},{"bike_id":"94ea736e-a900-4ce9-9962-f9bb87ce8e62","system_id":"levelo_inurba_marseille","lat":43.260575,"lon":5.39401,"is_reserved":false,"is_disabled":false,"rental_uris":{"android":"levelo://app?vid=94ea736e-a900-4ce9-9962-f9bb87ce8e62","ios":"levelo://app?vid=94ea736e-a900-4ce9-9962-f9bb87ce8e62"},"vehicle_type_id":"4","last_reported":1767114773,"current_range_meters":9600,"station_id":"ce4bhh92rcd13ifvqfj0","pricing_plan_id":"cebpf4jnsgd1na2vs0mg"},{"bike_id":"2703b803-944c-4f90-b5fc-f9ddd565456b","system_id":"levelo_inurba_marseille","lat":43.27927,"lon":5.39572,"is_reserved":false,"is_disabled":true,"rental_uris":{"android":"levelo://app?vid=2703b803-944c-4f90-b5fc-f9ddd565456b","ios":"levelo://app?vid=2703b803-944c-4f90-b5fc-f9ddd565456b"},"vehicle_type_id":"4","last_reported":1767114773,"current_range_meters":9600,"station_id":"ce4bhf92rcd13ifvqf40","pricing_plan_id":"cebpf4jnsgd1na2vs0mg"},{"bike_id":"00befb32-9254-41ab-88a7-14a3af008427","system_id":"levelo_inurba_marseille","lat":43.29538,"lon":5.37499,"is_reserved":false,"is_disabled":false,"rental_uris":{"android":"levelo://app?vid=00befb32-9254-41ab-88a7-14a3af008427","ios":"levelo://app?vid=00befb32-9254-41ab-88a7-14a3af008427"},"vehicle_type_id":"4","last_reported":1767114773,"current_range_meters":9600,"station_id":"ce4bgkp2rcd13ifvqbmg","pricing_plan_id":"cebpf4jnsgd1na2vs0mg"},{"bike_id":"23904288-d8db-496e-ac4f-fe2e23c85d61","system_id":"levelo_inurba_marseille","lat":43.29955,"lon":5.37605,"is_reserved":false,"is_disabled":false,"rental_uris":{"android":"levelo://app?vid=23904288-d8db-496e-ac4f-fe2e23c85d61","ios":"levelo://app?vid=23904288-d8db-496e-ac4f-fe2e23c85d61"},"vehicle_type_id":"4","last_reported":1767114773,"current_range_meters":9600,"station_id":"","pricing_plan_id":"cebpf4jnsgd1na2vs0mg"},{"bike_id":"3400d737-a32e-4dca-a00a-47ca201c9735","system_id":"levelo_inurba_marseille","lat":43.295507,"lon":5.422814,"is_reserved":false,"is_disabled":true,"rental_uris":{"android":"levelo://app?vid=3400d737-a32e-4dca-a00a-47ca201c9735","ios":"levelo://app?vid=3400d737-a32e-4dca-a00a-47ca201c9735"},"vehicle_type_id":"4","last_reported":1767114773,"current_range_meters":9600,"station_id":"ce4bhph2rcd13ifvqhdg","pricing_plan_id":"cebpf4jnsgd1na2vs0mg"},{"bike_id":"a8c4b968-b36a-4d56-bd52-ea832edb54b4","system_id":"levelo_inurba_marseille","lat":43.292003,"lon":5.357951,"is_reserved":false,"is_disabled":false,"rental_uris":{"android":"levelo://app?vid=a8c4b968-b36a-4d56-bd52-ea832edb54b4","ios":"levelo://app?vid=a8c4b968-b36a-4d56-bd52-ea832edb54b4"},"vehicle_type_id":"4","last_reported":1767114773,"current_range_meters":9600,"station_id":"ce4bhb12rcd13ifvqel0","pricing_plan_id":"cebpf4jnsgd1na2vs0mg"},{"bike_id":"2779ee67-2f89-48bd-9a6f-39b266689f75","system_id":"levelo_inurba_marseille","lat":43.27965,"lon":5.38739,"is_reserved":false,"is_disabled":false,"rental_uris":{"android":"levelo://app?vid=2779ee67-2f89-48bd-9a6f-39b266689f75","ios":"levelo://app?vid=2779ee67-2f89-48bd-9a6f-39b266689f75"},"vehicle_type_id":"4","last_reported":1767114773,"current_range_meters":9600,"station_id":"ce4bhg12rcd13ifvqf80","pricing_plan_id":"cebpf4jnsgd1na2vs0mg"},{"bike_id":"1e1ede53-a142-4b2c-87d9-c1cf1fd66ff4","system_id":"levelo_inurba_marseille","lat":43.31301,"lon":5.38184,"is_reserved":false,"is_disabled":false,"rental_uris":{"android":"levelo://app?vid=1e1ede53-a142-4b2c-87d9-c1cf1fd66ff4","ios":"levelo://app?vid=1e1ede53-a142-4b2c-87d9-c1cf1fd66ff4"},"vehicle_type_id":"4","last_reported":1767114773,"current_range_meters":9600,"station_id":"","pricing_plan_id":"cebpf4jnsgd1na2vs0mg"},{"bike_id":"7e584a85-ed28-4189-a8a6-17feda983f54","system_id":"levelo_inurba_marseille","lat":43.29918,"lon":5.37469,"is_reserved":false,"is_disabled":false,"rental_uris":{"android":"levelo://app?vid=7e584a85-ed28-4189-a8a6-17feda983f54","ios":"levelo://app?vid=7e584a85-ed28-4189-a8a6-17feda983f54"},"vehicle_type_id":"4","last_reported":1767114773,"current_range_meters":9600,"station_id":"ce4bgjh2rcd13ifvqbg0","pricing_plan_id":"cebpf4jnsgd1na2vs0mg"},{"bike_id":"a0bf0471-4956-40cb-809b-9570fd9ecd6e","system_id":"levelo_inurba_marseille","lat":43.24477,"lon":5.42534,"is_reserved":false,"is_disabled":false,"rental_uris":{"android":"levelo://app?vid=a0bf0471-4956-40cb-809b-9570fd9ecd6e","ios":"levelo://app?vid=a0bf0471-4956-40cb-809b-9570fd9ecd6e"},"vehicle_type_id":"4","last_reported":1767114773,"current_range_meters":10000,"station_id":"st_d4a3vfp97mjs738cd8kg","pricing_plan_id":"cebpf4jnsgd1na2vs0mg"},{"bike_id":"b443bfe2-42bc-4782-acee-86cdc3e0756c","system_id":"levelo_inurba_marseille","lat":43.23191,"lon":5.35546,"is_reserved":false,"is_disabled":false,"rental_uris":{"android":"levelo://app?vid=b443bfe2-42bc-4782-acee-86cdc3e0756c","ios":"levelo://app?vid=b443bfe2-42bc-4782-acee-86cdc3e0756c"},"vehicle_type_id":"4","last_reported":1767114773,"current_range_meters":10000,"station_id":"ce4bhu92rcd13ifvqi70","pricing_plan_id":"cebpf4jnsgd1na2vs0mg"},{"bike_id":"c91ac6fb-8af2-4c76-bc7b-f9b59038cbbd","system_id":"levelo_inurba_marseille","lat":43.29831,"lon":5.36296,"is_reserved":false,"is_disabled":false,"rental_uris":{"android":"levelo://app?vid=c91ac6fb-8af2-4c76-bc7b-f9b59038cbbd","ios":"levelo://app?vid=c91ac6fb-8af2-4c76-bc7b-f9b59038cbbd"},"vehicle_type_id":"4","last_reported":1767114773,"current_range_meters":10000,"station_id":"ce4bgpp2rcd13ifvqc3g","pricing_plan_id":"cebpf4jnsgd1na2vs0mg"},{"bike_id":"ad329566-f4b8-4f6a-9929-9fc4e3b30e60","system_id":"levelo_inurba_marseille","lat":43.28071,"lon":5.39655,"is_reserved":false,"is_disabled":false,"rental_uris":{"android":"levelo://app?vid=ad329566-f4b8-4f6a-9929-9fc4e3b30e60","ios":"levelo://app?vid=ad329566-f4b8-4f6a-9929-9fc4e3b30e60"},"vehicle_type_id":"4","last_reported":1767114773,"current_range_meters":10000,"station_id":"ce4bho12rcd13ifvqh2g","pricing_plan_id":"cebpf4jnsgd1na2vs0mg"},{"bike_id":"cdd4d532-b2a1-4236-8246-d47fe597f3e5","system_id":"levelo_inurba_marseille","lat":43.23186,"lon":5.39983,"is_reserved":false,"is_disabled":false,"rental_uris":{"android":"levelo://app?vid=cdd4d532-b2a1-4236-8246-d47fe597f3e5","ios":"levelo://app?vid=cdd4d532-b2a1-4236-8246-d47fe597f3e5"},"vehicle_type_id":"4","last_reported":1767114773,"current_range_meters":10000,"station_id":"ce4bhn12rcd13ifvqgqg","pricing_plan_id":"cebpf4jnsgd1na2vs0mg"},{"bike_id":"72440ca5-59c8-46a3-b913-8b5d8a857de3","system_id":"levelo_inurba_marseille","lat":43.28698,"lon":5.37942,"is_reserved":false,"is_disabled":false,"rental_uris":{"android":"levelo://app?vid=72440ca5-59c8-46a3-b913-8b5d8a857de3","ios":"levelo://app?vid=72440ca5-59c8-46a3-b913-8b5d8a857de3"},"vehicle_type_id":"4","last_reported":1767114773,"current_range_meters":10800,"station_id":"ce4bh9p2rcd13ifvqec0","pricing_plan_id":"cebpf4jnsgd1na2vs0mg"},{"bike_id":"ef8f5696-883e-4925-b43f-0720a8b5546b","system_id":"levelo_inurba_marseille","lat":43.23764,"lon":5.36662,"is_reserved":false,"is_disabled":false,"rental_uris":{"android":"levelo://app?vid=ef8f5696-883e-4925-b43f-0720a8b5546b","ios":"levelo://app?vid=ef8f5696-883e-4925-b43f-0720a8b5546b"},"vehicle_type_id":"4","last_reported":1767114773,"current_range_meters":10800,"station_id":"st_d3nk18o9ro0c73en2l3g","pricing_plan_id":"cebpf4jnsgd1na2vs0mg"},{"bike_id":"df59638d-d2ce-46c9-8792-19c18967ee40","system_id":"levelo_inurba_marseille","lat":43.23783,"lon":5.36635,"is_reserved":false,"is_disabled":false,"rental_uris":{"android":"levelo://app?vid=df59638d-d2ce-46c9-8792-19c18967ee40","ios":"levelo://app?vid=df59638d-d2ce-46c9-8792-19c18967ee40"},"vehicle_type_id":"4","last_reported":1767114773,"current_range_meters":10800,"station_id":"st_d3nk18o9ro0c73en2l3g","pricing_plan_id":"cebpf4jnsgd1na2vs0mg"},{"bike_id":"99845526-4044-4e14-9d82-95d6704a08b7","system_id":"levelo_inurba_marseille","lat":43.29278,"lon":5.37183,"is_reserved":false,"is_disabled":false,"rental_uris":{"android":"levelo://app?vid=99845526-4044-4e14-9d82-95d6704a08b7","ios":"levelo://app?vid=99845526-4044-4e14-9d82-95d6704a08b7"},"vehicle_type_id":"4","last_reported":1767114773,"current_range_meters":10800,"station_id":"ce4bgh92rcd13ifvqb40","pricing_plan_id":"cebpf4jnsgd1na2vs0mg"},{"bike_id":"1143eabc-e91b-41a6-8eaf-ee9abccf572b","system_id":"levelo_inurba_marseille","lat":43.31416,"lon":5.37504,"is_reserved":false,"is_disabled":false,"rental_uris":{"android":"levelo://app?vid=1143eabc-e91b-41a6-8eaf-ee9abccf572b","ios":"levelo://app?vid=1143eabc-e91b-41a6-8eaf-ee9abccf572b"},"vehicle_type_id":"4","last_reported":1767114773,"current_range_meters":10800,"station_id":"","pricing_plan_id":"cebpf4jnsgd1na2vs0mg"},{"bike_id":"fd730288-95bc-4682-8dc4-a5ea5fa11f2b","system_id":"levelo_inurba_marseille","lat":43.32528,"lon":5.41414,"is_reserved":false,"is_disabled":false,"rental_uris":{"android":"levelo://app?vid=fd730288-95bc-4682-8dc4-a5ea5fa11f2b","ios":"levelo://app?vid=fd730288-95bc-4682-8dc4-a5ea5fa11f2b"},"vehicle_type_id":"4","last_reported":1767114773,"current_range_meters":10800,"station_id":"ce4bhq12rcd13ifvqhhg","pricing_plan_id":"cebpf4jnsgd1na2vs0mg"},{"bike_id":"37d20260-50bb-4984-9bc1-61b8e1b060fe","system_id":"levelo_inurba_marseille","lat":43.302144,"lon":5.394607,"is_reserved":false,"is_disabled":false,"rental_uris":{"android":"levelo://app?vid=37d20260-50bb-4984-9bc1-61b8e1b060fe","ios":"levelo://app?vid=37d20260-50bb-4984-9bc1-61b8e1b060fe"},"vehicle_type_id":"4","last_reported":1767114773,"current_range_meters":10800,"station_id":"","pricing_plan_id":"cebpf4jnsgd1na2vs0mg"},{"bike_id":"d3b9e379-e0f1-4e3a-a03f-5f89a403ad58","system_id":"levelo_inurba_marseille","lat":43.32327,"lon":5.3674,"is_reserved":false,"is_disabled":false,"rental_uris":{"android":"levelo://app?vid=d3b9e379-e0f1-4e3a-a03f-5f89a403ad58","ios":"levelo://app?vid=d3b9e379-e0f1-4e3a-a03f-5f89a403ad58"},"vehicle_type_id":"4","last_reported":1767114773,"current_range_meters":10800,"station_id":"ce4bhsh2rcd13ifvqi2g","pricing_plan_id":"cebpf4jnsgd1na2vs0mg"},{"bike_id":"880570dd-144b-4e25-819e-849f3d20d6f7","system_id":"levelo_inurba_marseille","lat":43.26928,"lon":5.38922,"is_reserved":false,"is_disabled":false,"rental_uris":{"android":"levelo://app?vid=880570dd-144b-4e25-819e-849f3d20d6f7","ios":"levelo://app?vid=880570dd-144b-4e25-819e-849f3d20d6f7"},"vehicle_type_id":"4","last_reported":1767114773,"current_range_meters":10800,"station_id":"ce4bhhh2rcd13ifvqfl0","pricing_plan_id":"cebpf4jnsgd1na2vs0mg"},{"bike_id":"742f1e99-972a-4415-9c07-2696da1383a1","system_id":"levelo_inurba_marseille","lat":43.29646,"lon":5.40587,"is_reserved":false,"is_disabled":false,"rental_uris":{"android":"levelo://app?vid=742f1e99-972a-4415-9c07-2696da1383a1","ios":"levelo://app?vid=742f1e99-972a-4415-9c07-2696da1383a1"},"vehicle_type_id":"4","last_reported":1767114773,"current_range_meters":11200,"station_id":"","pricing_plan_id":"cebpf4jnsgd1na2vs0mg"},{"bike_id":"dce28840-1b59-4930-917a-12d88071d00f","system_id":"levelo_inurba_marseille","lat":43.285447,"lon":5.440996,"is_reserved":false,"is_disabled":false,"rental_uris":{"android":"levelo://app?vid=dce28840-1b59-4930-917a-12d88071d00f","ios":"levelo://app?vid=dce28840-1b59-4930-917a-12d88071d00f"},"vehicle_type_id":"4","last_reported":1767114773,"current_range_meters":11200,"station_id":"st_d3j3df2ikq2c7380ej80","pricing_plan_id":"cebpf4jnsgd1na2vs0mg"},{"bike_id":"e9238d50-28e4-459e-b248-dc46bccd3e6d","system_id":"levelo_inurba_marseille","lat":43.31173,"lon":5.36819,"is_reserved":false,"is_disabled":false,"rental_uris":{"android":"levelo://app?vid=e9238d50-28e4-459e-b248-dc46bccd3e6d","ios":"levelo://app?vid=e9238d50-28e4-459e-b248-dc46bccd3e6d"},"vehicle_type_id":"4","last_reported":1767114773,"current_range_meters":11200,"station_id":"ce4bgl92rcd13ifvqbq0","pricing_plan_id":"cebpf4jnsgd1na2vs0mg"},{"bike_id":"13c6f779-0fa7-435d-8f91-e79ded009d19","system_id":"levelo_inurba_marseille","lat":43.29274,"lon":5.36845,"is_reserved":false,"is_disabled":false,"rental_uris":{"android":"levelo://app?vid=13c6f779-0fa7-435d-8f91-e79ded009d19","ios":"levelo://app?vid=13c6f779-0fa7-435d-8f91-e79ded009d19"},"vehicle_type_id":"4","last_reported":1767114773,"current_range_meters":11200,"station_id":"ce4bhbp2rcd13ifvqesg","pricing_plan_id":"cebpf4jnsgd1na2vs0mg"},{"bike_id":"68f0d86a-8e17-46b1-9c4f-94728196fa18","system_id":"levelo_inurba_marseille","lat":43.31692,"lon":5.40397,"is_reserved":false,"is_disabled":false,"rental_uris":{"android":"levelo://app?vid=68f0d86a-8e17-46b1-9c4f-94728196fa18","ios":"levelo://app?vid=68f0d86a-8e17-46b1-9c4f-94728196fa18"},"vehicle_type_id":"4","last_reported":1767114773,"current_range_meters":11200,"station_id":"","pricing_plan_id":"cebpf4jnsgd1na2vs0mg"},{"bike_id":"ef7c300f-026c-4b02-8b75-5e5de9a9946e","system_id":"levelo_inurba_marseille","lat":43.2993,"lon":5.37474,"is_reserved":false,"is_disabled":false,"rental_uris":{"android":"levelo://app?vid=ef7c300f-026c-4b02-8b75-5e5de9a9946e","ios":"levelo://app?vid=ef7c300f-026c-4b02-8b75-5e5de9a9946e"},"vehicle_type_id":"4","last_reported":1767114773,"current_range_meters":11200,"station_id":"ce4bgjh2rcd13ifvqbg0","pricing_plan_id":"cebpf4jnsgd1na2vs0mg"},{"bike_id":"d497a64b-178c-4e64-8bb8-6e9cb0b48bd9","system_id":"levelo_inurba_marseille","lat":43.31711,"lon":5.43709,"is_reserved":false,"is_disabled":false,"rental_uris":{"android":"levelo://app?vid=d497a64b-178c-4e64-8bb8-6e9cb0b48bd9","ios":"levelo://app?vid=d497a64b-178c-4e64-8bb8-6e9cb0b48bd9"},"vehicle_type_id":"4","last_reported":1767114773,"current_range_meters":11200,"station_id":"ce4bhp92rcd13ifvqhcg","pricing_plan_id":"cebpf4jnsgd1na2vs0mg"},{"bike_id":"f79e9370-b244-4e47-8665-e7c9aebb33a9","system_id":"levelo_inurba_marseille","lat":43.29531,"lon":5.37485,"is_reserved":false,"is_disabled":false,"rental_uris":{"android":"levelo://app?vid=f79e9370-b244-4e47-8665-e7c9aebb33a9","ios":"levelo://app?vid=f79e9370-b244-4e47-8665-e7c9aebb33a9"},"vehicle_type_id":"4","last_reported":1767114773,"current_range_meters":11200,"station_id":"ce4bgkp2rcd13ifvqbmg","pricing_plan_id":"cebpf4jnsgd1na2vs0mg"},{"bike_id":"5f25fe72-eb96-40c0-97be-34193e0fcf92","system_id":"levelo_inurba_marseille","lat":43.31077,"lon":5.38361,"is_reserved":false,"is_disabled":false,"rental_uris":{"android":"levelo://app?vid=5f25fe72-eb96-40c0-97be-34193e0fcf92","ios":"levelo://app?vid=5f25fe72-eb96-40c0-97be-34193e0fcf92"},"vehicle_type_id":"4","last_reported":1767114773,"current_range_meters":11200,"station_id":"ce4bgv92rcd13ifvqcr0","pricing_plan_id":"cebpf4jnsgd1na2vs0mg"},{"bike_id":"dacc1bc0-eec9-4219-9225-c37f13cfc222","system_id":"levelo_inurba_marseille","lat":43.285289,"lon":5.441052,"is_reserved":false,"is_disabled":false,"rental_uris":{"android":"levelo://app?vid=dacc1bc0-eec9-4219-9225-c37f13cfc222","ios":"levelo://app?vid=dacc1bc0-eec9-4219-9225-c37f13cfc222"},"vehicle_type_id":"4","last_reported":1767114773,"current_range_meters":11200,"station_id":"st_d3j3df2ikq2c7380ej80","pricing_plan_id":"cebpf4jnsgd1na2vs0mg"},{"bike_id":"0f0fc6ed-82de-439d-993e-666cb650fe34","system_id":"levelo_inurba_marseille","lat":43.2378,"lon":5.36628,"is_reserved":false,"is_disabled":false,"rental_uris":{"android":"levelo://app?vid=0f0fc6ed-82de-439d-993e-666cb650fe34","ios":"levelo://app?vid=0f0fc6ed-82de-439d-993e-666cb650fe34"},"vehicle_type_id":"4","last_reported":1767114773,"current_range_meters":11600,"station_id":"st_d3nk18o9ro0c73en2l3g","pricing_plan_id":"cebpf4jnsgd1na2vs0mg"},{"bike_id":"6dd6d7de-0746-4ddc-be8f-e1ab3378009e","system_id":"levelo_inurba_marseille","lat":43.24167,"lon":5.36393,"is_reserved":false,"is_disabled":false,"rental_uris":{"android":"levelo://app?vid=6dd6d7de-0746-4ddc-be8f-e1ab3378009e","ios":"levelo://app?vid=6dd6d7de-0746-4ddc-be8f-e1ab3378009e"},"vehicle_type_id":"4","last_reported":1767114773,"current_range_meters":11600,"station_id":"cpo36qri1sfpv3e86is0","pricing_plan_id":"cebpf4jnsgd1na2vs0mg"},{"bike_id":"d4834f7c-8cec-4643-b38e-33ed31e9b71c","system_id":"levelo_inurba_marseille","lat":43.29563,"lon":5.37867,"is_reserved":false,"is_disabled":false,"rental_uris":{"android":"levelo://app?vid=d4834f7c-8cec-4643-b38e-33ed31e9b71c","ios":"levelo://app?vid=d4834f7c-8cec-4643-b38e-33ed31e9b71c"},"vehicle_type_id":"4","last_reported":1767114773,"current_range_meters":11600,"station_id":"","pricing_plan_id":"cebpf4jnsgd1na2vs0mg"},{"bike_id":"246e84fb-1afd-498f-b855-009b4b2e82cd","system_id":"levelo_inurba_marseille","lat":43.30453,"lon":5.41256,"is_reserved":false,"is_disabled":false,"rental_uris":{"android":"levelo://app?vid=246e84fb-1afd-498f-b855-009b4b2e82cd","ios":"levelo://app?vid=246e84fb-1afd-498f-b855-009b4b2e82cd"},"vehicle_type_id":"4","last_reported":1767114773,"current_range_meters":11600,"station_id":"ce4bhop2rcd13ifvqh8g","pricing_plan_id":"cebpf4jnsgd1na2vs0mg"},{"bike_id":"3ae180a1-ad81-4fbd-8d8e-5122c1af76f4","system_id":"levelo_inurba_marseille","lat":43.337444,"lon":5.374475,"is_reserved":false,"is_disabled":false,"rental_uris":{"android":"levelo://app?vid=3ae180a1-ad81-4fbd-8d8e-5122c1af76f4","ios":"levelo://app?vid=3ae180a1-ad81-4fbd-8d8e-5122c1af76f4"},"vehicle_type_id":"4","last_reported":1767114773,"current_range_meters":11600,"station_id":"","pricing_plan_id":"cebpf4jnsgd1na2vs0mg"},{"bike_id":"ec5fae6d-47b5-4030-bf64-4af050af9ecb","system_id":"levelo_inurba_marseille","lat":43.3094,"lon":5.37785,"is_reserved":false,"is_disabled":false,"rental_uris":{"android":"levelo://app?vid=ec5fae6d-47b5-4030-bf64-4af050af9ecb","ios":"levelo://app?vid=ec5fae6d-47b5-4030-bf64-4af050af9ecb"},"vehicle_type_id":"4","last_reported":1767114773,"current_range_meters":11600,"station_id":"","pricing_plan_id":"cebpf4jnsgd1na2vs0mg"},{"bike_id":"3454ec3c-f1d0-4cd8-b3c8-a40b430cdf61","system_id":"levelo_inurba_marseille","lat":43.29547,"lon":5.3751,"is_reserved":false,"is_disabled":false,"rental_uris":{"android":"levelo://app?vid=3454ec3c-f1d0-4cd8-b3c8-a40b430cdf61","ios":"levelo://app?vid=3454ec3c-f1d0-4cd8-b3c8-a40b430cdf61"},"vehicle_type_id":"4","last_reported":1767114773,"current_range_meters":11600,"station_id":"ce4bgkp2rcd13ifvqbmg","pricing_plan_id":"cebpf4jnsgd1na2vs0mg"},{"bike_id":"ccec8baf-8de3-4f76-b969-55b0b35b8975","system_id":"levelo_inurba_marseille","lat":43.29626,"lon":5.37142,"is_reserved":false,"is_disabled":false,"rental_uris":{"android":"levelo://app?vid=ccec8baf-8de3-4f76-b969-55b0b35b8975","ios":"levelo://app?vid=ccec8baf-8de3-4f76-b969-55b0b35b8975"},"vehicle_type_id":"4","last_reported":1767114773,"current_range_meters":11600,"station_id":"ce4bgnh2rcd13ifvqc0g","pricing_plan_id":"cebpf4jnsgd1na2vs0mg"},{"bike_id":"fb08e76d-b247-46f4-b590-62b2a27f82ce","system_id":"levelo_inurba_marseille","lat":43.29287,"lon":5.36818,"is_reserved":false,"is_disabled":false,"rental_uris":{"android":"levelo://app?vid=fb08e76d-b247-46f4-b590-62b2a27f82ce","ios":"levelo://app?vid=fb08e76d-b247-46f4-b590-62b2a27f82ce"},"vehicle_type_id":"4","last_reported":1767114773,"current_range_meters":11600,"station_id":"ce4bhbp2rcd13ifvqesg","pricing_plan_id":"cebpf4jnsgd1na2vs0mg"},{"bike_id":"eec718a5-af9f-456b-80fd-12a38fc0f1fa","system_id":"levelo_inurba_marseille","lat":43.31274,"lon":5.40155,"is_reserved":false,"is_disabled":false,"rental_uris":{"android":"levelo://app?vid=eec718a5-af9f-456b-80fd-12a38fc0f1fa","ios":"levelo://app?vid=eec718a5-af9f-456b-80fd-12a38fc0f1fa"},"vehicle_type_id":"4","last_reported":1767114773,"current_range_meters":12000,"station_id":"ce4bh092rcd13ifvqd30","pricing_plan_id":"cebpf4jnsgd1na2vs0mg"},{"bike_id":"078e302f-16bb-4bbb-876d-2f82cfb35608","system_id":"levelo_inurba_marseille","lat":43.28714,"lon":5.37931,"is_reserved":false,"is_disabled":false,"rental_uris":{"android":"levelo://app?vid=078e302f-16bb-4bbb-876d-2f82cfb35608","ios":"levelo://app?vid=078e302f-16bb-4bbb-876d-2f82cfb35608"},"vehicle_type_id":"4","last_reported":1767114773,"current_range_meters":12000,"station_id":"ce4bh9p2rcd13ifvqec0","pricing_plan_id":"cebpf4jnsgd1na2vs0mg"},{"bike_id":"7c20e148-2a07-439c-8007-95ff3dd732b8","system_id":"levelo_inurba_marseille","lat":43.21203,"lon":5.35071,"is_reserved":false,"is_disabled":false,"rental_uris":{"android":"levelo://app?vid=7c20e148-2a07-439c-8007-95ff3dd732b8","ios":"levelo://app?vid=7c20e148-2a07-439c-8007-95ff3dd732b8"},"vehicle_type_id":"4","last_reported":1767114773,"current_range_meters":12000,"station_id":"st_cvj6sg6p6f1abm77japg","pricing_plan_id":"cebpf4jnsgd1na2vs0mg"},{"bike_id":"2ee947da-a9a7-48e2-befd-175fbfa8b6cb","system_id":"levelo_inurba_marseille","lat":43.33041,"lon":5.39011,"is_reserved":false,"is_disabled":false,"rental_uris":{"android":"levelo://app?vid=2ee947da-a9a7-48e2-befd-175fbfa8b6cb","ios":"levelo://app?vid=2ee947da-a9a7-48e2-befd-175fbfa8b6cb"},"vehicle_type_id":"4","last_reported":1767114773,"current_range_meters":12000,"station_id":"ce4bhr92rcd13ifvqhrg","pricing_plan_id":"cebpf4jnsgd1na2vs0mg"},{"bike_id":"0035a49f-c924-43b0-93d3-43f42dc9e160","system_id":"levelo_inurba_marseille","lat":43.28481,"lon":5.38407,"is_reserved":false,"is_disabled":false,"rental_uris":{"android":"levelo://app?vid=0035a49f-c924-43b0-93d3-43f42dc9e160","ios":"levelo://app?vid=0035a49f-c924-43b0-93d3-43f42dc9e160"},"vehicle_type_id":"4","last_reported":1767114773,"current_range_meters":12000,"station_id":"ce4bh512rcd13ifvqe3g","pricing_plan_id":"cebpf4jnsgd1na2vs0mg"},{"bike_id":"2dff8587-48e0-4416-89ff-81e5782bfef7","system_id":"levelo_inurba_marseille","lat":43.23058,"lon":5.35492,"is_reserved":false,"is_disabled":false,"rental_uris":{"android":"levelo://app?vid=2dff8587-48e0-4416-89ff-81e5782bfef7","ios":"levelo://app?vid=2dff8587-48e0-4416-89ff-81e5782bfef7"},"vehicle_type_id":"4","last_reported":1767114773,"current_range_meters":12000,"station_id":"cpo3342slgdg3j2ifvpg","pricing_plan_id":"cebpf4jnsgd1na2vs0mg"},{"bike_id":"5408588f-d4fc-4d62-a635-9d0edfd602ca","system_id":"levelo_inurba_marseille","lat":43.29526,"lon":5.42483,"is_reserved":false,"is_disabled":false,"rental_uris":{"android":"levelo://app?vid=5408588f-d4fc-4d62-a635-9d0edfd602ca","ios":"levelo://app?vid=5408588f-d4fc-4d62-a635-9d0edfd602ca"},"vehicle_type_id":"4","last_reported":1767114773,"current_range_meters":12000,"station_id":"","pricing_plan_id":"cebpf4jnsgd1na2vs0mg"},{"bike_id":"92f00181-b750-41a7-b449-60671810dfe7","system_id":"levelo_inurba_marseille","lat":43.30316,"lon":5.39245,"is_reserved":false,"is_disabled":false,"rental_uris":{"android":"levelo://app?vid=92f00181-b750-41a7-b449-60671810dfe7","ios":"levelo://app?vid=92f00181-b750-41a7-b449-60671810dfe7"},"vehicle_type_id":"4","last_reported":1767114773,"current_range_meters":12000,"station_id":"ce4bgkh2rcd13ifvqbk0","pricing_plan_id":"cebpf4jnsgd1na2vs0mg"},{"bike_id":"26aaa4c3-ca27-43bc-a11f-345371d00b8a","system_id":"levelo_inurba_marseille","lat":43.28696,"lon":5.37394,"is_reserved":false,"is_disabled":true,"rental_uris":{"android":"levelo://app?vid=26aaa4c3-ca27-43bc-a11f-345371d00b8a","ios":"levelo://app?vid=26aaa4c3-ca27-43bc-a11f-345371d00b8a"},"vehicle_type_id":"4","last_reported":1767114773,"current_range_meters":12000,"station_id":"ce4bh3p2rcd13ifvqdq0","pricing_plan_id":"cebpf4jnsgd1na2vs0mg"},{"bike_id":"7b25e2fa-8d38-4290-b465-6167e32e63ae","system_id":"levelo_inurba_marseille","lat":43.30554,"lon":5.38423,"is_reserved":false,"is_disabled":false,"rental_uris":{"android":"levelo://app?vid=7b25e2fa-8d38-4290-b465-6167e32e63ae","ios":"levelo://app?vid=7b25e2fa-8d38-4290-b465-6167e32e63ae"},"vehicle_type_id":"4","last_reported":1767114773,"current_range_meters":12000,"station_id":"ce4bgg92rcd13ifvqb30","pricing_plan_id":"cebpf4jnsgd1na2vs0mg"},{"bike_id":"ca012f14-82a3-4060-8da0-098244b0df8d","system_id":"levelo_inurba_marseille","lat":43.3003,"lon":5.38915,"is_reserved":false,"is_disabled":false,"rental_uris":{"android":"levelo://app?vid=ca012f14-82a3-4060-8da0-098244b0df8d","ios":"levelo://app?vid=ca012f14-82a3-4060-8da0-098244b0df8d"},"vehicle_type_id":"4","last_reported":1767114773,"current_range_meters":12000,"station_id":"","pricing_plan_id":"cebpf4jnsgd1na2vs0mg"},{"bike_id":"970f6c1d-f464-4249-baad-9d8636c41627","system_id":"levelo_inurba_marseille","lat":43.29175,"lon":5.37522,"is_reserved":false,"is_disabled":false,"rental_uris":{"android":"levelo://app?vid=970f6c1d-f464-4249-baad-9d8636c41627","ios":"levelo://app?vid=970f6c1d-f464-4249-baad-9d8636c41627"},"vehicle_type_id":"4","last_reported":1767114773,"current_range_meters":12400,"station_id":"","pricing_plan_id":"cebpf4jnsgd1na2vs0mg"},{"bike_id":"f79561d9-a9e3-4480-bd30-e533c5f19aef","system_id":"levelo_inurba_marseille","lat":43.307865,"lon":5.376487,"is_reserved":false,"is_disabled":false,"rental_uris":{"android":"levelo://app?vid=f79561d9-a9e3-4480-bd30-e533c5f19aef","ios":"levelo://app?vid=f79561d9-a9e3-4480-bd30-e533c5f19aef"},"vehicle_type_id":"4","last_reported":1767114773,"current_range_meters":12400,"station_id":"ce4bgv92rcd13ifvqcq0","pricing_plan_id":"cebpf4jnsgd1na2vs0mg"},{"bike_id":"f4feb00d-35f9-4f54-800e-05e4ae0d3221","system_id":"levelo_inurba_marseille","lat":43.25112,"lon":5.40323,"is_reserved":false,"is_disabled":false,"rental_uris":{"android":"levelo://app?vid=f4feb00d-35f9-4f54-800e-05e4ae0d3221","ios":"levelo://app?vid=f4feb00d-35f9-4f54-800e-05e4ae0d3221"},"vehicle_type_id":"4","last_reported":1767114773,"current_range_meters":12400,"station_id":"ce4bhlh2rcd13ifvqgig","pricing_plan_id":"cebpf4jnsgd1na2vs0mg"},{"bike_id":"b6bb0504-7fba-4e3c-b400-2a1d155bf674","system_id":"levelo_inurba_marseille","lat":43.24164,"lon":5.36389,"is_reserved":false,"is_disabled":false,"rental_uris":{"android":"levelo://app?vid=b6bb0504-7fba-4e3c-b400-2a1d155bf674","ios":"levelo://app?vid=b6bb0504-7fba-4e3c-b400-2a1d155bf674"},"vehicle_type_id":"4","last_reported":1767114773,"current_range_meters":12400,"station_id":"cpo36qri1sfpv3e86is0","pricing_plan_id":"cebpf4jnsgd1na2vs0mg"},{"bike_id":"0fa76090-b264-4d7f-a0bc-7de1e50f19da","system_id":"levelo_inurba_marseille","lat":43.28015,"lon":5.403,"is_reserved":false,"is_disabled":false,"rental_uris":{"android":"levelo://app?vid=0fa76090-b264-4d7f-a0bc-7de1e50f19da","ios":"levelo://app?vid=0fa76090-b264-4d7f-a0bc-7de1e50f19da"},"vehicle_type_id":"4","last_reported":1767114773,"current_range_meters":12400,"station_id":"","pricing_plan_id":"cebpf4jnsgd1na2vs0mg"},{"bike_id":"82fc48b4-7651-4be2-aa2f-ad4be2472107","system_id":"levelo_inurba_marseille","lat":43.2993,"lon":5.36509,"is_reserved":false,"is_disabled":false,"rental_uris":{"android":"levelo://app?vid=82fc48b4-7651-4be2-aa2f-ad4be2472107","ios":"levelo://app?vid=82fc48b4-7651-4be2-aa2f-ad4be2472107"},"vehicle_type_id":"4","last_reported":1767114773,"current_range_meters":12400,"station_id":"ce4bgm92rcd13ifvqbr0","pricing_plan_id":"cebpf4jnsgd1na2vs0mg"},{"bike_id":"f9defe05-4ff2-4d1f-b650-c0894d9ee537","system_id":"levelo_inurba_marseille","lat":43.2853,"lon":5.44111,"is_reserved":false,"is_disabled":false,"rental_uris":{"android":"levelo://app?vid=f9defe05-4ff2-4d1f-b650-c0894d9ee537","ios":"levelo://app?vid=f9defe05-4ff2-4d1f-b650-c0894d9ee537"},"vehicle_type_id":"4","last_reported":1767114773,"current_range_meters":12800,"station_id":"st_d3j3df2ikq2c7380ej80","pricing_plan_id":"cebpf4jnsgd1na2vs0mg"},{"bike_id":"2da7c090-6334-4a5f-b1c8-4c11e508b448","system_id":"levelo_inurba_marseille","lat":43.29534,"lon":5.38554,"is_reserved":false,"is_disabled":true,"rental_uris":{"android":"levelo://app?vid=2da7c090-6334-4a5f-b1c8-4c11e508b448","ios":"levelo://app?vid=2da7c090-6334-4a5f-b1c8-4c11e508b448"},"vehicle_type_id":"4","last_reported":1767114773,"current_range_meters":12800,"station_id":"ce4bgih2rcd13ifvqba0","pricing_plan_id":"cebpf4jnsgd1na2vs0mg"},{"bike_id":"fc01654f-2593-4295-8309-447493a7010a","system_id":"levelo_inurba_marseille","lat":43.27181,"lon":5.390489,"is_reserved":false,"is_disabled":false,"rental_uris":{"android":"levelo://app?vid=fc01654f-2593-4295-8309-447493a7010a","ios":"levelo://app?vid=fc01654f-2593-4295-8309-447493a7010a"},"vehicle_type_id":"4","last_reported":1767114773,"current_range_meters":12800,"station_id":"","pricing_plan_id":"cebpf4jnsgd1na2vs0mg"},{"bike_id":"a9ca0334-3198-48d6-b1ea-de3a6c9cf163","system_id":"levelo_inurba_marseille","lat":43.24543,"lon":5.39525,"is_reserved":false,"is_disabled":false,"rental_uris":{"android":"levelo://app?vid=a9ca0334-3198-48d6-b1ea-de3a6c9cf163","ios":"levelo://app?vid=a9ca0334-3198-48d6-b1ea-de3a6c9cf163"},"vehicle_type_id":"4","last_reported":1767114773,"current_range_meters":12800,"station_id":"ce4bhlp2rcd13ifvqgjg","pricing_plan_id":"cebpf4jnsgd1na2vs0mg"},{"bike_id":"ff2a9260-98fd-4327-a921-2b433595e5d8","system_id":"levelo_inurba_marseille","lat":43.26934,"lon":5.40247,"is_reserved":false,"is_disabled":false,"rental_uris":{"android":"levelo://app?vid=ff2a9260-98fd-4327-a921-2b433595e5d8","ios":"levelo://app?vid=ff2a9260-98fd-4327-a921-2b433595e5d8"},"vehicle_type_id":"4","last_reported":1767114773,"current_range_meters":12800,"station_id":"cjm6bp8fraef2m0cb0m0","pricing_plan_id":"cebpf4jnsgd1na2vs0mg"},{"bike_id":"f8454e07-5b19-4a16-bdb5-ba46f59bdc3d","system_id":"levelo_inurba_marseille","lat":43.26028,"lon":5.37546,"is_reserved":false,"is_disabled":false,"rental_uris":{"android":"levelo://app?vid=f8454e07-5b19-4a16-bdb5-ba46f59bdc3d","ios":"levelo://app?vid=f8454e07-5b19-4a16-bdb5-ba46f59bdc3d"},"vehicle_type_id":"4","last_reported":1767114773,"current_range_meters":12800,"station_id":"ce4bhgh2rcd13ifvqfa0","pricing_plan_id":"cebpf4jnsgd1na2vs0mg"},{"bike_id":"b30c6014-a175-4bb9-ad78-49f058f742ef","system_id":"levelo_inurba_marseille","lat":43.26509,"lon":5.39548,"is_reserved":false,"is_disabled":false,"rental_uris":{"android":"levelo://app?vid=b30c6014-a175-4bb9-ad78-49f058f742ef","ios":"levelo://app?vid=b30c6014-a175-4bb9-ad78-49f058f742ef"},"vehicle_type_id":"4","last_reported":1767114773,"current_range_meters":12800,"station_id":"ce4bhi12rcd13ifvqfq0","pricing_plan_id":"cebpf4jnsgd1na2vs0mg"},{"bike_id":"f489c472-ee6d-42dd-8be8-3a531cfd3f02","system_id":"levelo_inurba_marseille","lat":43.28858,"lon":5.45465,"is_reserved":false,"is_disabled":false,"rental_uris":{"android":"levelo://app?vid=f489c472-ee6d-42dd-8be8-3a531cfd3f02","ios":"levelo://app?vid=f489c472-ee6d-42dd-8be8-3a531cfd3f02"},"vehicle_type_id":"4","last_reported":1767114773,"current_range_meters":12800,"station_id":"","pricing_plan_id":"cebpf4jnsgd1na2vs0mg"},{"bike_id":"9a2077a2-cebc-468c-82f9-fecda68a9ec3","system_id":"levelo_inurba_marseille","lat":43.29487,"lon":5.40859,"is_reserved":false,"is_disabled":false,"rental_uris":{"android":"levelo://app?vid=9a2077a2-cebc-468c-82f9-fecda68a9ec3","ios":"levelo://app?vid=9a2077a2-cebc-468c-82f9-fecda68a9ec3"},"vehicle_type_id":"4","last_reported":1767114773,"current_range_meters":12800,"station_id":"","pricing_plan_id":"cebpf4jnsgd1na2vs0mg"},{"bike_id":"4c0c32c1-3e54-4469-ac9d-fd19fd68b94f","system_id":"levelo_inurba_marseille","lat":43.28074,"lon":5.39663,"is_reserved":false,"is_disabled":false,"rental_uris":{"android":"levelo://app?vid=4c0c32c1-3e54-4469-ac9d-fd19fd68b94f","ios":"levelo://app?vid=4c0c32c1-3e54-4469-ac9d-fd19fd68b94f"},"vehicle_type_id":"4","last_reported":1767114773,"current_range_meters":12800,"station_id":"ce4bho12rcd13ifvqh2g","pricing_plan_id":"cebpf4jnsgd1na2vs0mg"},{"bike_id":"d86e4eba-4478-42e0-81c2-23b25b3c158d","system_id":"levelo_inurba_marseille","lat":43.30589,"lon":5.39348,"is_reserved":false,"is_disabled":false,"rental_uris":{"android":"levelo://app?vid=d86e4eba-4478-42e0-81c2-23b25b3c158d","ios":"levelo://app?vid=d86e4eba-4478-42e0-81c2-23b25b3c158d"},"vehicle_type_id":"4","last_reported":1767114773,"current_range_meters":12800,"station_id":"ce4bh0p2rcd13ifvqd80","pricing_plan_id":"cebpf4jnsgd1na2vs0mg"},{"bike_id":"f387bd90-8b60-4f25-9cc8-f7a7e6327aaf","system_id":"levelo_inurba_marseille","lat":43.2991,"lon":5.38154,"is_reserved":false,"is_disabled":false,"rental_uris":{"android":"levelo://app?vid=f387bd90-8b60-4f25-9cc8-f7a7e6327aaf","ios":"levelo://app?vid=f387bd90-8b60-4f25-9cc8-f7a7e6327aaf"},"vehicle_type_id":"4","last_reported":1767114773,"current_range_meters":12800,"station_id":"ce4bgj12rcd13ifvqbc0","pricing_plan_id":"cebpf4jnsgd1na2vs0mg"},{"bike_id":"88bf0314-7762-4953-a311-9d194ce5716d","system_id":"levelo_inurba_marseille","lat":43.30131,"lon":5.38782,"is_reserved":false,"is_disabled":false,"rental_uris":{"android":"levelo://app?vid=88bf0314-7762-4953-a311-9d194ce5716d","ios":"levelo://app?vid=88bf0314-7762-4953-a311-9d194ce5716d"},"vehicle_type_id":"4","last_reported":1767114773,"current_range_meters":13600,"station_id":"ce4bghh2rcd13ifvqb60","pricing_plan_id":"cebpf4jnsgd1na2vs0mg"},{"bike_id":"b3b8c28f-a4a2-4a54-a0d7-bca6b407c06b","system_id":"levelo_inurba_marseille","lat":43.28442,"lon":5.38554,"is_reserved":false,"is_disabled":false,"rental_uris":{"android":"levelo://app?vid=b3b8c28f-a4a2-4a54-a0d7-bca6b407c06b","ios":"levelo://app?vid=b3b8c28f-a4a2-4a54-a0d7-bca6b407c06b"},"vehicle_type_id":"4","last_reported":1767114773,"current_range_meters":13600,"station_id":"ce4bh8p2rcd13ifvqeb0","pricing_plan_id":"cebpf4jnsgd1na2vs0mg"},{"bike_id":"9e2d767f-e681-49d3-8553-24a4ba99e2eb","system_id":"levelo_inurba_marseille","lat":43.29705,"lon":5.37697,"is_reserved":false,"is_disabled":false,"rental_uris":{"android":"levelo://app?vid=9e2d767f-e681-49d3-8553-24a4ba99e2eb","ios":"levelo://app?vid=9e2d767f-e681-49d3-8553-24a4ba99e2eb"},"vehicle_type_id":"4","last_reported":1767114773,"current_range_meters":13600,"station_id":"ce4bgkh2rcd13ifvqbl0","pricing_plan_id":"cebpf4jnsgd1na2vs0mg"},{"bike_id":"78ed77cb-47f0-4c82-bf8a-f958576ec953","system_id":"levelo_inurba_marseille","lat":43.28152,"lon":5.42635,"is_reserved":false,"is_disabled":false,"rental_uris":{"android":"levelo://app?vid=78ed77cb-47f0-4c82-bf8a-f958576ec953","ios":"levelo://app?vid=78ed77cb-47f0-4c82-bf8a-f958576ec953"},"vehicle_type_id":"4","last_reported":1767114773,"current_range_meters":13600,"station_id":"ce4bhnh2rcd13ifvqgug","pricing_plan_id":"cebpf4jnsgd1na2vs0mg"},{"bike_id":"2736b34b-98dd-4ca9-b701-f4278e5f6e64","system_id":"levelo_inurba_marseille","lat":43.323541,"lon":5.367612,"is_reserved":false,"is_disabled":false,"rental_uris":{"android":"levelo://app?vid=2736b34b-98dd-4ca9-b701-f4278e5f6e64","ios":"levelo://app?vid=2736b34b-98dd-4ca9-b701-f4278e5f6e64"},"vehicle_type_id":"4","last_reported":1767114773,"current_range_meters":13600,"station_id":"ce4bhsh2rcd13ifvqi2g","pricing_plan_id":"cebpf4jnsgd1na2vs0mg"},{"bike_id":"062a0235-2d89-4fc1-b10d-ee79c97b2c64","system_id":"levelo_inurba_marseille","lat":43.318072,"lon":5.368887,"is_reserved":false,"is_disabled":false,"rental_uris":{"android":"levelo://app?vid=062a0235-2d89-4fc1-b10d-ee79c97b2c64","ios":"levelo://app?vid=062a0235-2d89-4fc1-b10d-ee79c97b2c64"},"vehicle_type_id":"4","last_reported":1767114773,"current_range_meters":13600,"station_id":"","pricing_plan_id":"cebpf4jnsgd1na2vs0mg"},{"bike_id":"3486b79f-5d37-4ced-ac26-f2e90a6034f3","system_id":"levelo_inurba_marseille","lat":43.23187,"lon":5.35538,"is_reserved":false,"is_disabled":false,"rental_uris":{"android":"levelo://app?vid=3486b79f-5d37-4ced-ac26-f2e90a6034f3","ios":"levelo://app?vid=3486b79f-5d37-4ced-ac26-f2e90a6034f3"},"vehicle_type_id":"4","last_reported":1767114773,"current_range_meters":13600,"station_id":"ce4bhu92rcd13ifvqi70","pricing_plan_id":"cebpf4jnsgd1na2vs0mg"},{"bike_id":"149a94e7-8065-4440-a1ab-1ba416a8f181","system_id":"levelo_inurba_marseille","lat":43.28469,"lon":5.48414,"is_reserved":false,"is_disabled":false,"rental_uris":{"android":"levelo://app?vid=149a94e7-8065-4440-a1ab-1ba416a8f181","ios":"levelo://app?vid=149a94e7-8065-4440-a1ab-1ba416a8f181"},"vehicle_type_id":"4","last_reported":1767114773,"current_range_meters":13600,"station_id":"","pricing_plan_id":"cebpf4jnsgd1na2vs0mg"},{"bike_id":"8712769a-d68f-4cf6-be92-d000ec02a2a4","system_id":"levelo_inurba_marseille","lat":43.297159,"lon":5.366083,"is_reserved":false,"is_disabled":false,"rental_uris":{"android":"levelo://app?vid=8712769a-d68f-4cf6-be92-d000ec02a2a4","ios":"levelo://app?vid=8712769a-d68f-4cf6-be92-d000ec02a2a4"},"vehicle_type_id":"4","last_reported":1767114773,"current_range_meters":13600,"station_id":"ce4bgn12rcd13ifvqbt0","pricing_plan_id":"cebpf4jnsgd1na2vs0mg"},{"bike_id":"22eef0a3-17fe-44b8-b64f-6f944c8af2a7","system_id":"levelo_inurba_marseille","lat":43.2464,"lon":5.38897,"is_reserved":false,"is_disabled":false,"rental_uris":{"android":"levelo://app?vid=22eef0a3-17fe-44b8-b64f-6f944c8af2a7","ios":"levelo://app?vid=22eef0a3-17fe-44b8-b64f-6f944c8af2a7"},"vehicle_type_id":"4","last_reported":1767114773,"current_range_meters":13600,"station_id":"ce4bhg12rcd13ifvqf60","pricing_plan_id":"cebpf4jnsgd1na2vs0mg"},{"bike_id":"bc76e665-6343-4d16-abb9-8406aefa014a","system_id":"levelo_inurba_marseille","lat":43.29266,"lon":5.38433,"is_reserved":false,"is_disabled":false,"rental_uris":{"android":"levelo://app?vid=bc76e665-6343-4d16-abb9-8406aefa014a","ios":"levelo://app?vid=bc76e665-6343-4d16-abb9-8406aefa014a"},"vehicle_type_id":"4","last_reported":1767114773,"current_range_meters":13600,"station_id":"ce4bh692rcd13ifvqea0","pricing_plan_id":"cebpf4jnsgd1na2vs0mg"},{"bike_id":"f0b2c508-397d-4f28-be22-ee2cb2f9d342","system_id":"levelo_inurba_marseille","lat":43.301453,"lon":5.374216,"is_reserved":false,"is_disabled":false,"rental_uris":{"android":"levelo://app?vid=f0b2c508-397d-4f28-be22-ee2cb2f9d342","ios":"levelo://app?vid=f0b2c508-397d-4f28-be22-ee2cb2f9d342"},"vehicle_type_id":"4","last_reported":1767114773,"current_range_meters":14000,"station_id":"ce4bgs92rcd13ifvqcc0","pricing_plan_id":"cebpf4jnsgd1na2vs0mg"},{"bike_id":"d250a799-5d35-48b4-8052-313c992efcb5","system_id":"levelo_inurba_marseille","lat":43.2856,"lon":5.39498,"is_reserved":false,"is_disabled":false,"rental_uris":{"android":"levelo://app?vid=d250a799-5d35-48b4-8052-313c992efcb5","ios":"levelo://app?vid=d250a799-5d35-48b4-8052-313c992efcb5"},"vehicle_type_id":"4","last_reported":1767114773,"current_range_meters":14000,"station_id":"ce4bh292rcd13ifvqdg0","pricing_plan_id":"cebpf4jnsgd1na2vs0mg"},{"bike_id":"46d6ee48-dfca-4b57-b265-268aa2147856","system_id":"levelo_inurba_marseille","lat":43.29261,"lon":5.38437,"is_reserved":false,"is_disabled":false,"rental_uris":{"android":"levelo://app?vid=46d6ee48-dfca-4b57-b265-268aa2147856","ios":"levelo://app?vid=46d6ee48-dfca-4b57-b265-268aa2147856"},"vehicle_type_id":"4","last_reported":1767114773,"current_range_meters":14000,"station_id":"ce4bh692rcd13ifvqea0","pricing_plan_id":"cebpf4jnsgd1na2vs0mg"},{"bike_id":"3b21c0a9-df36-4834-802f-0c8f46577656","system_id":"levelo_inurba_marseille","lat":43.3033,"lon":5.40425,"is_reserved":false,"is_disabled":false,"rental_uris":{"android":"levelo://app?vid=3b21c0a9-df36-4834-802f-0c8f46577656","ios":"levelo://app?vid=3b21c0a9-df36-4834-802f-0c8f46577656"},"vehicle_type_id":"4","last_reported":1767114773,"current_range_meters":14000,"station_id":"ce4bh012rcd13ifvqd10","pricing_plan_id":"cebpf4jnsgd1na2vs0mg"},{"bike_id":"e925a0dc-e1d9-4cea-afb3-e1809cd17c3c","system_id":"levelo_inurba_marseille","lat":43.2872,"lon":5.36053,"is_reserved":false,"is_disabled":false,"rental_uris":{"android":"levelo://app?vid=e925a0dc-e1d9-4cea-afb3-e1809cd17c3c","ios":"levelo://app?vid=e925a0dc-e1d9-4cea-afb3-e1809cd17c3c"},"vehicle_type_id":"4","last_reported":1767114773,"current_range_meters":14000,"station_id":"cki0cbj6b192h4jlfktg","pricing_plan_id":"cebpf4jnsgd1na2vs0mg"},{"bike_id":"21a27d68-c627-474d-9080-e06ba81259e5","system_id":"levelo_inurba_marseille","lat":43.29533,"lon":5.38539,"is_reserved":false,"is_disabled":false,"rental_uris":{"android":"levelo://app?vid=21a27d68-c627-474d-9080-e06ba81259e5","ios":"levelo://app?vid=21a27d68-c627-474d-9080-e06ba81259e5"},"vehicle_type_id":"4","last_reported":1767114773,"current_range_meters":14000,"station_id":"ce4bgih2rcd13ifvqba0","pricing_plan_id":"cebpf4jnsgd1na2vs0mg"},{"bike_id":"5bdd84a1-17d5-4bbd-86b1-b2f015f89d54","system_id":"levelo_inurba_marseille","lat":43.26805,"lon":5.40259,"is_reserved":false,"is_disabled":false,"rental_uris":{"android":"levelo://app?vid=5bdd84a1-17d5-4bbd-86b1-b2f015f89d54","ios":"levelo://app?vid=5bdd84a1-17d5-4bbd-86b1-b2f015f89d54"},"vehicle_type_id":"4","last_reported":1767114773,"current_range_meters":14000,"station_id":"ce501612rcd8frsf0b60","pricing_plan_id":"cebpf4jnsgd1na2vs0mg"},{"bike_id":"9f6044aa-9e0a-4415-9278-85df5233b201","system_id":"levelo_inurba_marseille","lat":43.28421,"lon":5.34981,"is_reserved":false,"is_disabled":false,"rental_uris":{"android":"levelo://app?vid=9f6044aa-9e0a-4415-9278-85df5233b201","ios":"levelo://app?vid=9f6044aa-9e0a-4415-9278-85df5233b201"},"vehicle_type_id":"4","last_reported":1767114773,"current_range_meters":14000,"station_id":"ce4bhbh2rcd13ifvqepg","pricing_plan_id":"cebpf4jnsgd1na2vs0mg"},{"bike_id":"5b7b9627-7763-4fa8-83b2-cad94b4f3bda","system_id":"levelo_inurba_marseille","lat":43.29566,"lon":5.37497,"is_reserved":false,"is_disabled":false,"rental_uris":{"android":"levelo://app?vid=5b7b9627-7763-4fa8-83b2-cad94b4f3bda","ios":"levelo://app?vid=5b7b9627-7763-4fa8-83b2-cad94b4f3bda"},"vehicle_type_id":"4","last_reported":1767114773,"current_range_meters":14000,"station_id":"ce4bgh92rcd13ifvqb50","pricing_plan_id":"cebpf4jnsgd1na2vs0mg"},{"bike_id":"78083696-d7b1-4f1b-b9be-c20f6f8da72b","system_id":"levelo_inurba_marseille","lat":43.27942,"lon":5.41052,"is_reserved":false,"is_disabled":false,"rental_uris":{"android":"levelo://app?vid=78083696-d7b1-4f1b-b9be-c20f6f8da72b","ios":"levelo://app?vid=78083696-d7b1-4f1b-b9be-c20f6f8da72b"},"vehicle_type_id":"4","last_reported":1767114773,"current_range_meters":14000,"station_id":"ce4bhnp2rcd13ifvqh0g","pricing_plan_id":"cebpf4jnsgd1na2vs0mg"},{"bike_id":"dff60c80-82b7-4729-acef-c465d4a7836a","system_id":"levelo_inurba_marseille","lat":43.28277,"lon":5.35068,"is_reserved":false,"is_disabled":false,"rental_uris":{"android":"levelo://app?vid=dff60c80-82b7-4729-acef-c465d4a7836a","ios":"levelo://app?vid=dff60c80-82b7-4729-acef-c465d4a7836a"},"vehicle_type_id":"4","last_reported":1767114773,"current_range_meters":14000,"station_id":"ce4bhbp2rcd13ifvqerg","pricing_plan_id":"cebpf4jnsgd1na2vs0mg"},{"bike_id":"035b755c-d128-4d54-964d-61cc15d383fd","system_id":"levelo_inurba_marseille","lat":43.30088,"lon":5.39069,"is_reserved":false,"is_disabled":false,"rental_uris":{"android":"levelo://app?vid=035b755c-d128-4d54-964d-61cc15d383fd","ios":"levelo://app?vid=035b755c-d128-4d54-964d-61cc15d383fd"},"vehicle_type_id":"4","last_reported":1767114773,"current_range_meters":14000,"station_id":"ce4bh192rcd13ifvqdb0","pricing_plan_id":"cebpf4jnsgd1na2vs0mg"},{"bike_id":"c6990927-f112-43dc-993b-cc97e862332f","system_id":"levelo_inurba_marseille","lat":43.275714,"lon":5.384313,"is_reserved":false,"is_disabled":false,"rental_uris":{"android":"levelo://app?vid=c6990927-f112-43dc-993b-cc97e862332f","ios":"levelo://app?vid=c6990927-f112-43dc-993b-cc97e862332f"},"vehicle_type_id":"4","last_reported":1767114773,"current_range_meters":14000,"station_id":"ce4bhh92rcd13ifvqfi0","pricing_plan_id":"cebpf4jnsgd1na2vs0mg"},{"bike_id":"5e2a19c0-c9ab-437c-b616-4a622384340d","system_id":"levelo_inurba_marseille","lat":43.27211,"lon":5.39192,"is_reserved":false,"is_disabled":false,"rental_uris":{"android":"levelo://app?vid=5e2a19c0-c9ab-437c-b616-4a622384340d","ios":"levelo://app?vid=5e2a19c0-c9ab-437c-b616-4a622384340d"},"vehicle_type_id":"4","last_reported":1767114773,"current_range_meters":14400,"station_id":"ce4bhhp2rcd13ifvqfm0","pricing_plan_id":"cebpf4jnsgd1na2vs0mg"},{"bike_id":"5265762e-9468-4f8e-963d-e1d647f4d72d","system_id":"levelo_inurba_marseille","lat":43.337444,"lon":5.374475,"is_reserved":false,"is_disabled":false,"rental_uris":{"android":"levelo://app?vid=5265762e-9468-4f8e-963d-e1d647f4d72d","ios":"levelo://app?vid=5265762e-9468-4f8e-963d-e1d647f4d72d"},"vehicle_type_id":"4","last_reported":1767114773,"current_range_meters":14400,"station_id":"","pricing_plan_id":"cebpf4jnsgd1na2vs0mg"},{"bike_id":"581a6ab3-180f-44bd-a4a1-a92ae04d5d4e","system_id":"levelo_inurba_marseille","lat":43.217506,"lon":5.346014,"is_reserved":false,"is_disabled":false,"rental_uris":{"android":"levelo://app?vid=581a6ab3-180f-44bd-a4a1-a92ae04d5d4e","ios":"levelo://app?vid=581a6ab3-180f-44bd-a4a1-a92ae04d5d4e"},"vehicle_type_id":"4","last_reported":1767114773,"current_range_meters":14400,"station_id":"st_cvj6r9ubvosntc0bgbag","pricing_plan_id":"cebpf4jnsgd1na2vs0mg"},{"bike_id":"e93c83d5-bafc-41ab-b80f-422d8d8d6d2a","system_id":"levelo_inurba_marseille","lat":43.26848,"lon":5.40078,"is_reserved":false,"is_disabled":false,"rental_uris":{"android":"levelo://app?vid=e93c83d5-bafc-41ab-b80f-422d8d8d6d2a","ios":"levelo://app?vid=e93c83d5-bafc-41ab-b80f-422d8d8d6d2a"},"vehicle_type_id":"4","last_reported":1767114773,"current_range_meters":14400,"station_id":"","pricing_plan_id":"cebpf4jnsgd1na2vs0mg"},{"bike_id":"4cf8c2c1-78ee-47e7-9637-07180f58b843","system_id":"levelo_inurba_marseille","lat":43.30601,"lon":5.37224,"is_reserved":false,"is_disabled":false,"rental_uris":{"android":"levelo://app?vid=4cf8c2c1-78ee-47e7-9637-07180f58b843","ios":"levelo://app?vid=4cf8c2c1-78ee-47e7-9637-07180f58b843"},"vehicle_type_id":"4","last_reported":1767114773,"current_range_meters":14400,"station_id":"ce4bgqh2rcd13ifvqc4g","pricing_plan_id":"cebpf4jnsgd1na2vs0mg"},{"bike_id":"34abb72c-cebc-488b-92ab-8c95dfbf7fdd","system_id":"levelo_inurba_marseille","lat":43.23791,"lon":5.36624,"is_reserved":false,"is_disabled":false,"rental_uris":{"android":"levelo://app?vid=34abb72c-cebc-488b-92ab-8c95dfbf7fdd","ios":"levelo://app?vid=34abb72c-cebc-488b-92ab-8c95dfbf7fdd"},"vehicle_type_id":"4","last_reported":1767114773,"current_range_meters":14400,"station_id":"st_d3nk18o9ro0c73en2l3g","pricing_plan_id":"cebpf4jnsgd1na2vs0mg"},{"bike_id":"ef4d8662-1154-4710-8bf5-ed7e73ba85b1","system_id":"levelo_inurba_marseille","lat":43.279483,"lon":5.410468,"is_reserved":false,"is_disabled":false,"rental_uris":{"android":"levelo://app?vid=ef4d8662-1154-4710-8bf5-ed7e73ba85b1","ios":"levelo://app?vid=ef4d8662-1154-4710-8bf5-ed7e73ba85b1"},"vehicle_type_id":"4","last_reported":1767114773,"current_range_meters":14400,"station_id":"ce4bhnp2rcd13ifvqh0g","pricing_plan_id":"cebpf4jnsgd1na2vs0mg"},{"bike_id":"9cb5ae99-5884-40a4-9c3b-7a9c989d5f03","system_id":"levelo_inurba_marseille","lat":43.28485,"lon":5.38419,"is_reserved":false,"is_disabled":false,"rental_uris":{"android":"levelo://app?vid=9cb5ae99-5884-40a4-9c3b-7a9c989d5f03","ios":"levelo://app?vid=9cb5ae99-5884-40a4-9c3b-7a9c989d5f03"},"vehicle_type_id":"4","last_reported":1767114773,"current_range_meters":14400,"station_id":"ce4bh512rcd13ifvqe3g","pricing_plan_id":"cebpf4jnsgd1na2vs0mg"},{"bike_id":"41fc51b7-85de-4d15-a948-8c4315d13c01","system_id":"levelo_inurba_marseille","lat":43.29889,"lon":5.38907,"is_reserved":false,"is_disabled":false,"rental_uris":{"android":"levelo://app?vid=41fc51b7-85de-4d15-a948-8c4315d13c01","ios":"levelo://app?vid=41fc51b7-85de-4d15-a948-8c4315d13c01"},"vehicle_type_id":"4","last_reported":1767114773,"current_range_meters":14400,"station_id":"ce4bh392rcd13ifvqdl0","pricing_plan_id":"cebpf4jnsgd1na2vs0mg"},{"bike_id":"7be19a66-044f-4223-8a5e-aa464921726b","system_id":"levelo_inurba_marseille","lat":43.23952,"lon":5.36642,"is_reserved":false,"is_disabled":false,"rental_uris":{"android":"levelo://app?vid=7be19a66-044f-4223-8a5e-aa464921726b","ios":"levelo://app?vid=7be19a66-044f-4223-8a5e-aa464921726b"},"vehicle_type_id":"4","last_reported":1767114773,"current_range_meters":14400,"station_id":"ce4bhi12rcd13ifvqfp0","pricing_plan_id":"cebpf4jnsgd1na2vs0mg"},{"bike_id":"880ac88b-e1a0-4bb2-bfec-bf0387fc6869","system_id":"levelo_inurba_marseille","lat":43.28267,"lon":5.350534,"is_reserved":false,"is_disabled":false,"rental_uris":{"android":"levelo://app?vid=880ac88b-e1a0-4bb2-bfec-bf0387fc6869","ios":"levelo://app?vid=880ac88b-e1a0-4bb2-bfec-bf0387fc6869"},"vehicle_type_id":"4","last_reported":1767114773,"current_range_meters":14400,"station_id":"ce4bhbp2rcd13ifvqerg","pricing_plan_id":"cebpf4jnsgd1na2vs0mg"},{"bike_id":"7cd9d7b6-2c4b-484a-92df-676b04b13e27","system_id":"levelo_inurba_marseille","lat":43.311945,"lon":5.396122,"is_reserved":false,"is_disabled":false,"rental_uris":{"android":"levelo://app?vid=7cd9d7b6-2c4b-484a-92df-676b04b13e27","ios":"levelo://app?vid=7cd9d7b6-2c4b-484a-92df-676b04b13e27"},"vehicle_type_id":"4","last_reported":1767114773,"current_range_meters":14400,"station_id":"ce4bgvp2rcd13ifvqcu0","pricing_plan_id":"cebpf4jnsgd1na2vs0mg"},{"bike_id":"79fda2c3-d85a-402b-9c3b-0dceb91a8171","system_id":"levelo_inurba_marseille","lat":43.29778,"lon":5.37102,"is_reserved":false,"is_disabled":false,"rental_uris":{"android":"levelo://app?vid=79fda2c3-d85a-402b-9c3b-0dceb91a8171","ios":"levelo://app?vid=79fda2c3-d85a-402b-9c3b-0dceb91a8171"},"vehicle_type_id":"4","last_reported":1767114773,"current_range_meters":14400,"station_id":"","pricing_plan_id":"cebpf4jnsgd1na2vs0mg"},{"bike_id":"d35a0a07-7b46-4a3c-b11f-a8140d2ba22d","system_id":"levelo_inurba_marseille","lat":43.29813,"lon":5.4406,"is_reserved":false,"is_disabled":false,"rental_uris":{"android":"levelo://app?vid=d35a0a07-7b46-4a3c-b11f-a8140d2ba22d","ios":"levelo://app?vid=d35a0a07-7b46-4a3c-b11f-a8140d2ba22d"},"vehicle_type_id":"4","last_reported":1767114773,"current_range_meters":14400,"station_id":"st_d3jp68qikq2c7381ktn0","pricing_plan_id":"cebpf4jnsgd1na2vs0mg"},{"bike_id":"80d3a7c8-59ff-42f3-8823-f0ffde6c1bc1","system_id":"levelo_inurba_marseille","lat":43.265469,"lon":5.372866,"is_reserved":false,"is_disabled":false,"rental_uris":{"android":"levelo://app?vid=80d3a7c8-59ff-42f3-8823-f0ffde6c1bc1","ios":"levelo://app?vid=80d3a7c8-59ff-42f3-8823-f0ffde6c1bc1"},"vehicle_type_id":"4","last_reported":1767114773,"current_range_meters":14400,"station_id":"ce4bhg12rcd13ifvqf70","pricing_plan_id":"cebpf4jnsgd1na2vs0mg"},{"bike_id":"710e96fb-3012-48ac-82b8-4d3640197f2b","system_id":"levelo_inurba_marseille","lat":43.29258,"lon":5.40908,"is_reserved":false,"is_disabled":false,"rental_uris":{"android":"levelo://app?vid=710e96fb-3012-48ac-82b8-4d3640197f2b","ios":"levelo://app?vid=710e96fb-3012-48ac-82b8-4d3640197f2b"},"vehicle_type_id":"4","last_reported":1767114773,"current_range_meters":14400,"station_id":"ce4bh192rcd13ifvqdc0","pricing_plan_id":"cebpf4jnsgd1na2vs0mg"},{"bike_id":"1b232aab-a14a-47ac-b409-359908d29794","system_id":"levelo_inurba_marseille","lat":43.282599,"lon":5.350549,"is_reserved":false,"is_disabled":false,"rental_uris":{"android":"levelo://app?vid=1b232aab-a14a-47ac-b409-359908d29794","ios":"levelo://app?vid=1b232aab-a14a-47ac-b409-359908d29794"},"vehicle_type_id":"4","last_reported":1767114773,"current_range_meters":14400,"station_id":"ce4bhbp2rcd13ifvqerg","pricing_plan_id":"cebpf4jnsgd1na2vs0mg"},{"bike_id":"7251bcb0-2252-407e-a005-17c83e41c5db","system_id":"levelo_inurba_marseille","lat":43.29384,"lon":5.37856,"is_reserved":false,"is_disabled":false,"rental_uris":{"android":"levelo://app?vid=7251bcb0-2252-407e-a005-17c83e41c5db","ios":"levelo://app?vid=7251bcb0-2252-407e-a005-17c83e41c5db"},"vehicle_type_id":"4","last_reported":1767114773,"current_range_meters":14400,"station_id":"ce4bgjh2rcd13ifvqbf0","pricing_plan_id":"cebpf4jnsgd1na2vs0mg"},{"bike_id":"a7df6d51-aeb4-4f6e-a38b-46dae1f38f36","system_id":"levelo_inurba_marseille","lat":43.217438,"lon":5.346037,"is_reserved":false,"is_disabled":false,"rental_uris":{"android":"levelo://app?vid=a7df6d51-aeb4-4f6e-a38b-46dae1f38f36","ios":"levelo://app?vid=a7df6d51-aeb4-4f6e-a38b-46dae1f38f36"},"vehicle_type_id":"4","last_reported":1767114773,"current_range_meters":14400,"station_id":"","pricing_plan_id":"cebpf4jnsgd1na2vs0mg"},{"bike_id":"02d20062-9731-4cd9-8290-c33eba21eec4","system_id":"levelo_inurba_marseille","lat":43.28159,"lon":5.426411,"is_reserved":false,"is_disabled":false,"rental_uris":{"android":"levelo://app?vid=02d20062-9731-4cd9-8290-c33eba21eec4","ios":"levelo://app?vid=02d20062-9731-4cd9-8290-c33eba21eec4"},"vehicle_type_id":"4","last_reported":1767114773,"current_range_meters":14400,"station_id":"ce4bhnh2rcd13ifvqgug","pricing_plan_id":"cebpf4jnsgd1na2vs0mg"},{"bike_id":"17a28c46-0cb5-46be-8f2f-bebf874033a5","system_id":"levelo_inurba_marseille","lat":43.29787,"lon":5.38097,"is_reserved":false,"is_disabled":false,"rental_uris":{"android":"levelo://app?vid=17a28c46-0cb5-46be-8f2f-bebf874033a5","ios":"levelo://app?vid=17a28c46-0cb5-46be-8f2f-bebf874033a5"},"vehicle_type_id":"4","last_reported":1767114773,"current_range_meters":14800,"station_id":"ce4bgip2rcd13ifvqbb0","pricing_plan_id":"cebpf4jnsgd1na2vs0mg"},{"bike_id":"e6dbe591-2fd4-4b2d-aa25-179a088493ea","system_id":"levelo_inurba_marseille","lat":43.225353,"lon":5.348308,"is_reserved":false,"is_disabled":false,"rental_uris":{"android":"levelo://app?vid=e6dbe591-2fd4-4b2d-aa25-179a088493ea","ios":"levelo://app?vid=e6dbe591-2fd4-4b2d-aa25-179a088493ea"},"vehicle_type_id":"4","last_reported":1767114773,"current_range_meters":14800,"station_id":"","pricing_plan_id":"cebpf4jnsgd1na2vs0mg"},{"bike_id":"c78b7752-9cb7-4b06-a8ef-1f65d9ce20cf","system_id":"levelo_inurba_marseille","lat":43.31639,"lon":5.38824,"is_reserved":false,"is_disabled":false,"rental_uris":{"android":"levelo://app?vid=c78b7752-9cb7-4b06-a8ef-1f65d9ce20cf","ios":"levelo://app?vid=c78b7752-9cb7-4b06-a8ef-1f65d9ce20cf"},"vehicle_type_id":"4","last_reported":1767114773,"current_range_meters":14800,"station_id":"","pricing_plan_id":"cebpf4jnsgd1na2vs0mg"},{"bike_id":"8469d53f-a854-4a94-81e6-05412498ec3b","system_id":"levelo_inurba_marseille","lat":43.29998,"lon":5.37156,"is_reserved":false,"is_disabled":false,"rental_uris":{"android":"levelo://app?vid=8469d53f-a854-4a94-81e6-05412498ec3b","ios":"levelo://app?vid=8469d53f-a854-4a94-81e6-05412498ec3b"},"vehicle_type_id":"4","last_reported":1767114773,"current_range_meters":14800,"station_id":"ce4bgr92rcd13ifvqc7g","pricing_plan_id":"cebpf4jnsgd1na2vs0mg"},{"bike_id":"518272f7-3e73-4db3-92cd-481d148d7361","system_id":"levelo_inurba_marseille","lat":43.24165,"lon":5.36429,"is_reserved":false,"is_disabled":false,"rental_uris":{"android":"levelo://app?vid=518272f7-3e73-4db3-92cd-481d148d7361","ios":"levelo://app?vid=518272f7-3e73-4db3-92cd-481d148d7361"},"vehicle_type_id":"4","last_reported":1767114773,"current_range_meters":14800,"station_id":"cpo36qri1sfpv3e86is0","pricing_plan_id":"cebpf4jnsgd1na2vs0mg"},{"bike_id":"6b144ba1-b338-4534-8e6b-b544b21a5420","system_id":"levelo_inurba_marseille","lat":43.29897,"lon":5.43679,"is_reserved":false,"is_disabled":false,"rental_uris":{"android":"levelo://app?vid=6b144ba1-b338-4534-8e6b-b544b21a5420","ios":"levelo://app?vid=6b144ba1-b338-4534-8e6b-b544b21a5420"},"vehicle_type_id":"4","last_reported":1767114773,"current_range_meters":14800,"station_id":"ce4bhpp2rcd13ifvqhfg","pricing_plan_id":"cebpf4jnsgd1na2vs0mg"},{"bike_id":"47f8b765-1d56-41b4-8df2-e3c9cbe6c356","system_id":"levelo_inurba_marseille","lat":43.29703,"lon":5.37697,"is_reserved":false,"is_disabled":false,"rental_uris":{"android":"levelo://app?vid=47f8b765-1d56-41b4-8df2-e3c9cbe6c356","ios":"levelo://app?vid=47f8b765-1d56-41b4-8df2-e3c9cbe6c356"},"vehicle_type_id":"4","last_reported":1767114773,"current_range_meters":14800,"station_id":"ce4bgkh2rcd13ifvqbl0","pricing_plan_id":"cebpf4jnsgd1na2vs0mg"},{"bike_id":"7f14dbf8-fbbc-4f22-a8da-577d465937c5","system_id":"levelo_inurba_marseille","lat":43.29613,"lon":5.37718,"is_reserved":false,"is_disabled":false,"rental_uris":{"android":"levelo://app?vid=7f14dbf8-fbbc-4f22-a8da-577d465937c5","ios":"levelo://app?vid=7f14dbf8-fbbc-4f22-a8da-577d465937c5"},"vehicle_type_id":"4","last_reported":1767114773,"current_range_meters":14800,"station_id":"ce4bgi92rcd13ifvqb90","pricing_plan_id":"cebpf4jnsgd1na2vs0mg"},{"bike_id":"98cfcb6c-38cd-4083-bfae-b9c6a54fbe45","system_id":"levelo_inurba_marseille","lat":43.3062,"lon":5.37186,"is_reserved":false,"is_disabled":false,"rental_uris":{"android":"levelo://app?vid=98cfcb6c-38cd-4083-bfae-b9c6a54fbe45","ios":"levelo://app?vid=98cfcb6c-38cd-4083-bfae-b9c6a54fbe45"},"vehicle_type_id":"4","last_reported":1767114773,"current_range_meters":14800,"station_id":"ce4bgqh2rcd13ifvqc4g","pricing_plan_id":"cebpf4jnsgd1na2vs0mg"},{"bike_id":"948580b2-6374-4973-96eb-b3a4418297b7","system_id":"levelo_inurba_marseille","lat":43.28727,"lon":5.37937,"is_reserved":false,"is_disabled":false,"rental_uris":{"android":"levelo://app?vid=948580b2-6374-4973-96eb-b3a4418297b7","ios":"levelo://app?vid=948580b2-6374-4973-96eb-b3a4418297b7"},"vehicle_type_id":"4","last_reported":1767114773,"current_range_meters":14800,"station_id":"ce4bh9p2rcd13ifvqec0","pricing_plan_id":"cebpf4jnsgd1na2vs0mg"},{"bike_id":"327d4f41-6547-4f60-817f-dce8f7739b45","system_id":"levelo_inurba_marseille","lat":43.24389,"lon":5.37042,"is_reserved":false,"is_disabled":false,"rental_uris":{"android":"levelo://app?vid=327d4f41-6547-4f60-817f-dce8f7739b45","ios":"levelo://app?vid=327d4f41-6547-4f60-817f-dce8f7739b45"},"vehicle_type_id":"4","last_reported":1767114773,"current_range_meters":14800,"station_id":"ce4bhhh2rcd13ifvqfk0","pricing_plan_id":"cebpf4jnsgd1na2vs0mg"},{"bike_id":"332c58eb-eed1-487e-afe2-b65da9208ee9","system_id":"levelo_inurba_marseille","lat":43.23191,"lon":5.35555,"is_reserved":false,"is_disabled":false,"rental_uris":{"android":"levelo://app?vid=332c58eb-eed1-487e-afe2-b65da9208ee9","ios":"levelo://app?vid=332c58eb-eed1-487e-afe2-b65da9208ee9"},"vehicle_type_id":"4","last_reported":1767114773,"current_range_meters":15200,"station_id":"ce4bhu92rcd13ifvqi70","pricing_plan_id":"cebpf4jnsgd1na2vs0mg"},{"bike_id":"efd33062-2cef-445f-af98-648f578e9c2a","system_id":"levelo_inurba_marseille","lat":43.32034,"lon":5.41535,"is_reserved":false,"is_disabled":false,"rental_uris":{"android":"levelo://app?vid=efd33062-2cef-445f-af98-648f578e9c2a","ios":"levelo://app?vid=efd33062-2cef-445f-af98-648f578e9c2a"},"vehicle_type_id":"4","last_reported":1767114773,"current_range_meters":15200,"station_id":"ce4bhq92rcd13ifvqhkg","pricing_plan_id":"cebpf4jnsgd1na2vs0mg"},{"bike_id":"4bc57557-a1ff-4445-8883-a2ab5098f534","system_id":"levelo_inurba_marseille","lat":43.32868,"lon":5.36706,"is_reserved":false,"is_disabled":false,"rental_uris":{"android":"levelo://app?vid=4bc57557-a1ff-4445-8883-a2ab5098f534","ios":"levelo://app?vid=4bc57557-a1ff-4445-8883-a2ab5098f534"},"vehicle_type_id":"4","last_reported":1767114773,"current_range_meters":15200,"station_id":"","pricing_plan_id":"cebpf4jnsgd1na2vs0mg"},{"bike_id":"80adb258-f649-49a8-8a18-d47a703e3f00","system_id":"levelo_inurba_marseille","lat":43.33058,"lon":5.37838,"is_reserved":false,"is_disabled":false,"rental_uris":{"android":"levelo://app?vid=80adb258-f649-49a8-8a18-d47a703e3f00","ios":"levelo://app?vid=80adb258-f649-49a8-8a18-d47a703e3f00"},"vehicle_type_id":"4","last_reported":1767114773,"current_range_meters":15200,"station_id":"","pricing_plan_id":"cebpf4jnsgd1na2vs0mg"},{"bike_id":"519d6e5c-4273-4b6e-8f28-cd62f750d8dd","system_id":"levelo_inurba_marseille","lat":43.30128,"lon":5.39051,"is_reserved":false,"is_disabled":false,"rental_uris":{"android":"levelo://app?vid=519d6e5c-4273-4b6e-8f28-cd62f750d8dd","ios":"levelo://app?vid=519d6e5c-4273-4b6e-8f28-cd62f750d8dd"},"vehicle_type_id":"4","last_reported":1767114773,"current_range_meters":15200,"station_id":"","pricing_plan_id":"cebpf4jnsgd1na2vs0mg"},{"bike_id":"8d992be2-1efe-4c8c-bb25-fec6bfe13133","system_id":"levelo_inurba_marseille","lat":43.29533,"lon":5.38548,"is_reserved":false,"is_disabled":false,"rental_uris":{"android":"levelo://app?vid=8d992be2-1efe-4c8c-bb25-fec6bfe13133","ios":"levelo://app?vid=8d992be2-1efe-4c8c-bb25-fec6bfe13133"},"vehicle_type_id":"4","last_reported":1767114773,"current_range_meters":15200,"station_id":"ce4bgih2rcd13ifvqba0","pricing_plan_id":"cebpf4jnsgd1na2vs0mg"},{"bike_id":"97ff4056-c02b-487e-a92e-e65288becb53","system_id":"levelo_inurba_marseille","lat":43.29681,"lon":5.37721,"is_reserved":false,"is_disabled":false,"rental_uris":{"android":"levelo://app?vid=97ff4056-c02b-487e-a92e-e65288becb53","ios":"levelo://app?vid=97ff4056-c02b-487e-a92e-e65288becb53"},"vehicle_type_id":"4","last_reported":1767114773,"current_range_meters":15200,"station_id":"ce4bgkh2rcd13ifvqbl0","pricing_plan_id":"cebpf4jnsgd1na2vs0mg"},{"bike_id":"8c27f8dd-49de-48cb-b4c0-2c146ce86148","system_id":"levelo_inurba_marseille","lat":43.29869,"lon":5.38088,"is_reserved":false,"is_disabled":false,"rental_uris":{"android":"levelo://app?vid=8c27f8dd-49de-48cb-b4c0-2c146ce86148","ios":"levelo://app?vid=8c27f8dd-49de-48cb-b4c0-2c146ce86148"},"vehicle_type_id":"4","last_reported":1767114773,"current_range_meters":15200,"station_id":"","pricing_plan_id":"cebpf4jnsgd1na2vs0mg"},{"bike_id":"4e6fb213-9124-4b2c-bc72-0f2f931004c8","system_id":"levelo_inurba_marseille","lat":43.32356,"lon":5.36715,"is_reserved":false,"is_disabled":true,"rental_uris":{"android":"levelo://app?vid=4e6fb213-9124-4b2c-bc72-0f2f931004c8","ios":"levelo://app?vid=4e6fb213-9124-4b2c-bc72-0f2f931004c8"},"vehicle_type_id":"4","last_reported":1767114773,"current_range_meters":15200,"station_id":"ce4bhsh2rcd13ifvqi2g","pricing_plan_id":"cebpf4jnsgd1na2vs0mg"},{"bike_id":"eb33853a-99e6-4a64-b402-a98a4eae2241","system_id":"levelo_inurba_marseille","lat":43.29664,"lon":5.38056,"is_reserved":false,"is_disabled":false,"rental_uris":{"android":"levelo://app?vid=eb33853a-99e6-4a64-b402-a98a4eae2241","ios":"levelo://app?vid=eb33853a-99e6-4a64-b402-a98a4eae2241"},"vehicle_type_id":"4","last_reported":1767114773,"current_range_meters":15200,"station_id":"","pricing_plan_id":"cebpf4jnsgd1na2vs0mg"},{"bike_id":"d49fd2c9-dca5-4864-87e0-359520dd27b8","system_id":"levelo_inurba_marseille","lat":43.26125,"lon":5.39722,"is_reserved":false,"is_disabled":false,"rental_uris":{"android":"levelo://app?vid=d49fd2c9-dca5-4864-87e0-359520dd27b8","ios":"levelo://app?vid=d49fd2c9-dca5-4864-87e0-359520dd27b8"},"vehicle_type_id":"4","last_reported":1767114773,"current_range_meters":15200,"station_id":"","pricing_plan_id":"cebpf4jnsgd1na2vs0mg"},{"bike_id":"e701bc1c-d610-4c27-8444-cf270b9d74dd","system_id":"levelo_inurba_marseille","lat":43.3093,"lon":5.4014,"is_reserved":false,"is_disabled":false,"rental_uris":{"android":"levelo://app?vid=e701bc1c-d610-4c27-8444-cf270b9d74dd","ios":"levelo://app?vid=e701bc1c-d610-4c27-8444-cf270b9d74dd"},"vehicle_type_id":"4","last_reported":1767114773,"current_range_meters":15200,"station_id":"ce4bgvp2rcd13ifvqct0","pricing_plan_id":"cebpf4jnsgd1na2vs0mg"},{"bike_id":"b9f5bb9a-d9aa-4714-a9ae-ceaed3ab533e","system_id":"levelo_inurba_marseille","lat":43.29635,"lon":5.38068,"is_reserved":false,"is_disabled":false,"rental_uris":{"android":"levelo://app?vid=b9f5bb9a-d9aa-4714-a9ae-ceaed3ab533e","ios":"levelo://app?vid=b9f5bb9a-d9aa-4714-a9ae-ceaed3ab533e"},"vehicle_type_id":"4","last_reported":1767114773,"current_range_meters":15200,"station_id":"","pricing_plan_id":"cebpf4jnsgd1na2vs0mg"},{"bike_id":"e99da606-70a1-4295-bde9-1cced45438c8","system_id":"levelo_inurba_marseille","lat":43.289634,"lon":5.387072,"is_reserved":false,"is_disabled":false,"rental_uris":{"android":"levelo://app?vid=e99da606-70a1-4295-bde9-1cced45438c8","ios":"levelo://app?vid=e99da606-70a1-4295-bde9-1cced45438c8"},"vehicle_type_id":"4","last_reported":1767114773,"current_range_meters":15200,"station_id":"ce4bh4p2rcd13ifvqe0g","pricing_plan_id":"cebpf4jnsgd1na2vs0mg"},{"bike_id":"205433a5-de5f-4844-acec-0726241ed702","system_id":"levelo_inurba_marseille","lat":43.30419,"lon":5.39757,"is_reserved":false,"is_disabled":false,"rental_uris":{"android":"levelo://app?vid=205433a5-de5f-4844-acec-0726241ed702","ios":"levelo://app?vid=205433a5-de5f-4844-acec-0726241ed702"},"vehicle_type_id":"4","last_reported":1767114773,"current_range_meters":15200,"station_id":"ce4bh092rcd13ifvqd20","pricing_plan_id":"cebpf4jnsgd1na2vs0mg"},{"bike_id":"90dac6f2-4e58-4623-b929-4f8d06ec1c31","system_id":"levelo_inurba_marseille","lat":43.284992,"lon":5.425379,"is_reserved":false,"is_disabled":false,"rental_uris":{"android":"levelo://app?vid=90dac6f2-4e58-4623-b929-4f8d06ec1c31","ios":"levelo://app?vid=90dac6f2-4e58-4623-b929-4f8d06ec1c31"},"vehicle_type_id":"4","last_reported":1767114773,"current_range_meters":16000,"station_id":"","pricing_plan_id":"cebpf4jnsgd1na2vs0mg"},{"bike_id":"80e9d748-9f57-4471-8446-07473cbfa6f6","system_id":"levelo_inurba_marseille","lat":43.28455,"lon":5.35882,"is_reserved":false,"is_disabled":false,"rental_uris":{"android":"levelo://app?vid=80e9d748-9f57-4471-8446-07473cbfa6f6","ios":"levelo://app?vid=80e9d748-9f57-4471-8446-07473cbfa6f6"},"vehicle_type_id":"4","last_reported":1767114773,"current_range_meters":16000,"station_id":"ce4bhah2rcd13ifvqei0","pricing_plan_id":"cebpf4jnsgd1na2vs0mg"},{"bike_id":"789d72be-8f05-408e-a2a3-cd5269a54261","system_id":"levelo_inurba_marseille","lat":43.23786,"lon":5.36636,"is_reserved":false,"is_disabled":false,"rental_uris":{"android":"levelo://app?vid=789d72be-8f05-408e-a2a3-cd5269a54261","ios":"levelo://app?vid=789d72be-8f05-408e-a2a3-cd5269a54261"},"vehicle_type_id":"4","last_reported":1767114773,"current_range_meters":16000,"station_id":"st_d3nk18o9ro0c73en2l3g","pricing_plan_id":"cebpf4jnsgd1na2vs0mg"},{"bike_id":"4dd2279e-ba48-4f3b-b6c2-c6a46b94d1bc","system_id":"levelo_inurba_marseille","lat":43.27988,"lon":5.38728,"is_reserved":false,"is_disabled":false,"rental_uris":{"android":"levelo://app?vid=4dd2279e-ba48-4f3b-b6c2-c6a46b94d1bc","ios":"levelo://app?vid=4dd2279e-ba48-4f3b-b6c2-c6a46b94d1bc"},"vehicle_type_id":"4","last_reported":1767114773,"current_range_meters":16000,"station_id":"ce4bhg12rcd13ifvqf80","pricing_plan_id":"cebpf4jnsgd1na2vs0mg"},{"bike_id":"d1028c8d-4c1a-4ce3-bb87-06b106258967","system_id":"levelo_inurba_marseille","lat":43.30105,"lon":5.37063,"is_reserved":false,"is_disabled":false,"rental_uris":{"android":"levelo://app?vid=d1028c8d-4c1a-4ce3-bb87-06b106258967","ios":"levelo://app?vid=d1028c8d-4c1a-4ce3-bb87-06b106258967"},"vehicle_type_id":"4","last_reported":1767114773,"current_range_meters":16000,"station_id":"","pricing_plan_id":"cebpf4jnsgd1na2vs0mg"},{"bike_id":"4372a42a-b334-4e8f-9141-9b6d15dd3e03","system_id":"levelo_inurba_marseille","lat":43.28476,"lon":5.48395,"is_reserved":false,"is_disabled":false,"rental_uris":{"android":"levelo://app?vid=4372a42a-b334-4e8f-9141-9b6d15dd3e03","ios":"levelo://app?vid=4372a42a-b334-4e8f-9141-9b6d15dd3e03"},"vehicle_type_id":"4","last_reported":1767114773,"current_range_meters":16000,"station_id":"","pricing_plan_id":"cebpf4jnsgd1na2vs0mg"},