{"last_updated":1746378457,"ttl":60,"version":"2.2","data":{"bikes":[{"bike_id":"29800f52-cb94-4fae-b628-df207735a3e6","system_id":"levelo_inurba_marseille","lat":43.25729,"lon":5.41011,"is_reserved":false,"is_disabled":false,"rental_uris":{"android":"levelo://app?vid=29800f52-cb94-4fae-b628-df207735a3e6","ios":"levelo://app?vid=29800f52-cb94-4fae-b628-df207735a3e6"},"vehicle_type_id":"4","last_reported":1746378457,"current_range_meters":2800,"station_id":"","pricing_plan_id":"cebpf4jnsgd1na2vs0mg"},{"bike_id":"fefd08ec-5881-4aed-9781-2a8173dd5fb9","system_id":"levelo_inurba_marseille","lat":43.29412,"lon":5.38248,"is_reserved":false,"is_disabled":false,"rental_uris":{"android":"levelo://app?vid=fefd08ec-5881-4aed-9781-2a8173dd5fb9","ios":"levelo://app?vid=fefd08ec-5881-4aed-9781-2a8173dd5fb9"},"vehicle_type_id":"4","last_reported":1746378457,"current_range_meters":2800,"station_id":"","pricing_plan_id":"cebpf4jnsgd1na2vs0mg"},{"bike_id":"a55863a5-e7a5-4084-bc2c-b83d2aeece76","system_id":"levelo_inurba_marseille","lat":43.29534,"lon":5.38544,"is_reserved":false,"is_disabled":false,"rental_uris":{"android":"levelo://app?vid=a55863a5-e7a5-4084-bc2c-b83d2aeece76","ios":"levelo://app?vid=a55863a5-e7a5-4084-bc2c-b83d2aeece76"},"vehicle_type_id":"4","last_reported":1746378457,"current_range_meters":2800,"station_id":"ce4bgih2rcd13ifvqba0","pricing_plan_id":"cebpf4jnsgd1na2vs0mg"},{"bike_id":"a62c4081-0a00-4338-a99f-b605c981f909","system_id":"levelo_inurba_marseille","lat":43.21191,"lon":5.35075,"is_reserved":false,"is_disabled":false,"rental_uris":{"android":"levelo://app?vid=a62c4081-0a00-4338-a99f-b605c981f909","ios":"levelo://app?vid=a62c4081-0a00-4338-a99f-b605c981f909"},"vehicle_type_id":"4","last_reported":1746378457,"current_range_meters":3200,"station_id":"st_cvj6sg6p6f1abm77japg","pricing_plan_id":"cebpf4jnsgd1na2vs0mg"},{"bike_id":"59a5fa6f-6e3f-4dd4-a1a1-696a4cb10a21","system_id":"levelo_inurba_marseille","lat":43.28486,"lon":5.38413,"is_reserved":false,"is_disabled":false,"rental_uris":{"android":"levelo://app?vid=59a5fa6f-6e3f-4dd4-a1a1-696a4cb10a21","ios":"levelo://app?vid=59a5fa6f-6e3f-4dd4-a1a1-696a4cb10a21"},"vehicle_type_id":"4","last_reported":1746378457,"current_range_meters":3200,"station_id":"ce4bh512rcd13ifvqe3g","pricing_plan_id":"cebpf4jnsgd1na2vs0mg"},{"bike_id":"ead92af0-3113-4c1d-ab08-cabcdd1bb1bf","system_id":"levelo_inurba_marseille","lat":43.27622,"lon":5.3611,"is_reserved":false,"is_disabled":false,"rental_uris":{"android":"levelo://app?vid=ead92af0-3113-4c1d-ab08-cabcdd1bb1bf","ios":"levelo://app?vid=ead92af0-3113-4c1d-ab08-cabcdd1bb1bf"},"vehicle_type_id":"4","last_reported":1746378457,"current_range_meters":3200,"station_id":"ce4bgj92rcd13ifvqbe0","pricing_plan_id":"cebpf4jnsgd1na2vs0mg"},{"bike_id":"570b486c-50df-4f1f-97df-caa86c0d419e","system_id":"levelo_inurba_marseille","lat":43.3371,"lon":5.35575,"is_reserved":false,"is_disabled":false,"rental_uris":{"android":"levelo://app?vid=570b486c-50df-4f1f-97df-caa86c0d419e","ios":"levelo://app?vid=570b486c-50df-4f1f-97df-caa86c0d419e"},"vehicle_type_id":"4","last_reported":1746378457,"current_range_meters":3200,"station_id":"","pricing_plan_id":"cebpf4jnsgd1na2vs0mg"},{"bike_id":"441771cd-0001-4237-b26e-f2e1502d0768","system_id":"levelo_inurba_marseille","lat":43.2364,"lon":5.36594,"is_reserved":false,"is_disabled":false,"rental_uris":{"android":"levelo://app?vid=441771cd-0001-4237-b26e-f2e1502d0768","ios":"levelo://app?vid=441771cd-0001-4237-b26e-f2e1502d0768"},"vehicle_type_id":"4","last_reported":1746378457,"current_range_meters":3200,"station_id":"","pricing_plan_id":"cebpf4jnsgd1na2vs0mg"},{"bike_id":"d095b55a-1597-4dec-be89-5a1f75070719","system_id":"levelo_inurba_marseille","lat":43.252068,"lon":5.402773,"is_reserved":false,"is_disabled":false,"rental_uris":{"android":"levelo://app?vid=d095b55a-1597-4dec-be89-5a1f75070719","ios":"levelo://app?vid=d095b55a-1597-4dec-be89-5a1f75070719"},"vehicle_type_id":"4","last_reported":1746378457,"current_range_meters":4000,"station_id":"","pricing_plan_id":"cebpf4jnsgd1na2vs0mg"},{"bike_id":"35145cef-b32c-4327-8f54-2c039278b0f6","system_id":"levelo_inurba_marseille","lat":43.21765,"lon":5.34612,"is_reserved":false,"is_disabled":false,"rental_uris":{"android":"levelo://app?vid=35145cef-b32c-4327-8f54-2c039278b0f6","ios":"levelo://app?vid=35145cef-b32c-4327-8f54-2c039278b0f6"},"vehicle_type_id":"4","last_reported":1746378457,"current_range_meters":4000,"station_id":"st_cvj6r9ubvosntc0bgbag","pricing_plan_id":"cebpf4jnsgd1na2vs0mg"},{"bike_id":"4f7ef045-258d-47ce-ab0a-b4fb4ed0bdf3","system_id":"levelo_inurba_marseille","lat":43.27424,"lon":5.39428,"is_reserved":false,"is_disabled":false,"rental_uris":{"android":"levelo://app?vid=4f7ef045-258d-47ce-ab0a-b4fb4ed0bdf3","ios":"levelo://app?vid=4f7ef045-258d-47ce-ab0a-b4fb4ed0bdf3"},"vehicle_type_id":"4","last_reported":1746378457,"current_range_meters":4000,"station_id":"ce4bhdp2rcd13ifvqf20","pricing_plan_id":"cebpf4jnsgd1na2vs0mg"},{"bike_id":"a0efdc39-63e9-46e6-854d-e82b733fae0d","system_id":"levelo_inurba_marseille","lat":43.29604,"lon":5.38102,"is_reserved":false,"is_disabled":false,"rental_uris":{"android":"levelo://app?vid=a0efdc39-63e9-46e6-854d-e82b733fae0d","ios":"levelo://app?vid=a0efdc39-63e9-46e6-854d-e82b733fae0d"},"vehicle_type_id":"4","last_reported":1746378457,"current_range_meters":4400,"station_id":"ce4bgl12rcd13ifvqbo0","pricing_plan_id":"cebpf4jnsgd1na2vs0mg"},{"bike_id":"2f400e75-7c89-400b-9aaa-091bebe7c15c","system_id":"levelo_inurba_marseille","lat":43.310798,"lon":5.383508,"is_reserved":false,"is_disabled":true,"rental_uris":{"android":"levelo://app?vid=2f400e75-7c89-400b-9aaa-091bebe7c15c","ios":"levelo://app?vid=2f400e75-7c89-400b-9aaa-091bebe7c15c"},"vehicle_type_id":"4","last_reported":1746378457,"current_range_meters":4400,"station_id":"ce4bgv92rcd13ifvqcr0","pricing_plan_id":"cebpf4jnsgd1na2vs0mg"},{"bike_id":"02fefd2e-d984-44fd-b219-45a12dea9aea","system_id":"levelo_inurba_marseille","lat":43.3043,"lon":5.38884,"is_reserved":false,"is_disabled":false,"rental_uris":{"android":"levelo://app?vid=02fefd2e-d984-44fd-b219-45a12dea9aea","ios":"levelo://app?vid=02fefd2e-d984-44fd-b219-45a12dea9aea"},"vehicle_type_id":"4","last_reported":1746378457,"current_range_meters":4400,"station_id":"ce4bgk12rcd13ifvqbi0","pricing_plan_id":"cebpf4jnsgd1na2vs0mg"},{"bike_id":"aa00716a-7bab-4747-9061-afa3d7d01320","system_id":"levelo_inurba_marseille","lat":43.31356,"lon":5.38494,"is_reserved":false,"is_disabled":false,"rental_uris":{"android":"levelo://app?vid=aa00716a-7bab-4747-9061-afa3d7d01320","ios":"levelo://app?vid=aa00716a-7bab-4747-9061-afa3d7d01320"},"vehicle_type_id":"4","last_reported":1746378457,"current_range_meters":3600,"station_id":"ce4bgt92rcd13ifvqcf0","pricing_plan_id":"cebpf4jnsgd1na2vs0mg"},{"bike_id":"ed102320-f60e-4809-9c9e-2e96bfde39b6","system_id":"levelo_inurba_marseille","lat":43.3526,"lon":5.43775,"is_reserved":false,"is_disabled":false,"rental_uris":{"android":"levelo://app?vid=ed102320-f60e-4809-9c9e-2e96bfde39b6","ios":"levelo://app?vid=ed102320-f60e-4809-9c9e-2e96bfde39b6"},"vehicle_type_id":"4","last_reported":1746378457,"current_range_meters":4400,"station_id":"","pricing_plan_id":"cebpf4jnsgd1na2vs0mg"},{"bike_id":"ec2c7b25-0e30-48e1-b928-969b75e21fd2","system_id":"levelo_inurba_marseille","lat":43.30886,"lon":5.39661,"is_reserved":false,"is_disabled":false,"rental_uris":{"android":"levelo://app?vid=ec2c7b25-0e30-48e1-b928-969b75e21fd2","ios":"levelo://app?vid=ec2c7b25-0e30-48e1-b928-969b75e21fd2"},"vehicle_type_id":"4","last_reported":1746378457,"current_range_meters":4400,"station_id":"ce4bh012rcd13ifvqcv0","pricing_plan_id":"cebpf4jnsgd1na2vs0mg"},{"bike_id":"f9759920-99a4-431c-bfd6-2336544c23fc","system_id":"levelo_inurba_marseille","lat":43.23967,"lon":5.36629,"is_reserved":false,"is_disabled":false,"rental_uris":{"android":"levelo://app?vid=f9759920-99a4-431c-bfd6-2336544c23fc","ios":"levelo://app?vid=f9759920-99a4-431c-bfd6-2336544c23fc"},"vehicle_type_id":"4","last_reported":1746378457,"current_range_meters":4800,"station_id":"ce4bhi12rcd13ifvqfp0","pricing_plan_id":"cebpf4jnsgd1na2vs0mg"},{"bike_id":"be9042c4-716a-416e-af52-c92d47776467","system_id":"levelo_inurba_marseille","lat":43.30924,"lon":5.40128,"is_reserved":false,"is_disabled":true,"rental_uris":{"android":"levelo://app?vid=be9042c4-716a-416e-af52-c92d47776467","ios":"levelo://app?vid=be9042c4-716a-416e-af52-c92d47776467"},"vehicle_type_id":"4","last_reported":1746378457,"current_range_meters":6000,"station_id":"ce4bgvp2rcd13ifvqct0","pricing_plan_id":"cebpf4jnsgd1na2vs0mg"},{"bike_id":"8dbb2687-b404-4521-95c5-2d2c9e8d85fa","system_id":"levelo_inurba_marseille","lat":43.25866,"lon":5.39896,"is_reserved":false,"is_disabled":false,"rental_uris":{"android":"levelo://app?vid=8dbb2687-b404-4521-95c5-2d2c9e8d85fa","ios":"levelo://app?vid=8dbb2687-b404-4521-95c5-2d2c9e8d85fa"},"vehicle_type_id":"4","last_reported":1746378457,"current_range_meters":5600,"station_id":"ce4bhl92rcd13ifvqghg","pricing_plan_id":"cebpf4jnsgd1na2vs0mg"},{"bike_id":"ac9004f5-309b-4c69-9176-a95616feb46e","system_id":"levelo_inurba_marseille","lat":43.29532,"lon":5.38547,"is_reserved":false,"is_disabled":false,"rental_uris":{"android":"levelo://app?vid=ac9004f5-309b-4c69-9176-a95616feb46e","ios":"levelo://app?vid=ac9004f5-309b-4c69-9176-a95616feb46e"},"vehicle_type_id":"4","last_reported":1746378457,"current_range_meters":5600,"station_id":"ce4bgih2rcd13ifvqba0","pricing_plan_id":"cebpf4jnsgd1na2vs0mg"},{"bike_id":"dfb3396e-96f5-457c-af11-f6f27dad33e9","system_id":"levelo_inurba_marseille","lat":43.27202,"lon":5.36486,"is_reserved":false,"is_disabled":false,"rental_uris":{"android":"levelo://app?vid=dfb3396e-96f5-457c-af11-f6f27dad33e9","ios":"levelo://app?vid=dfb3396e-96f5-457c-af11-f6f27dad33e9"},"vehicle_type_id":"4","last_reported":1746378457,"current_range_meters":6000,"station_id":"","pricing_plan_id":"cebpf4jnsgd1na2vs0mg"},{"bike_id":"404f17b3-eac5-4d8c-a091-4910d3cb1e32","system_id":"levelo_inurba_marseille","lat":43.292635,"lon":5.38448,"is_reserved":false,"is_disabled":false,"rental_uris":{"android":"levelo://app?vid=404f17b3-eac5-4d8c-a091-4910d3cb1e32","ios":"levelo://app?vid=404f17b3-eac5-4d8c-a091-4910d3cb1e32"},"vehicle_type_id":"4","last_reported":1746378457,"current_range_meters":6000,"station_id":"ce4bh692rcd13ifvqea0","pricing_plan_id":"cebpf4jnsgd1na2vs0mg"},{"bike_id":"639b6881-2acd-477c-9ea3-b3c38e4e3302","system_id":"levelo_inurba_marseille","lat":43.29553,"lon":5.42288,"is_reserved":false,"is_disabled":false,"rental_uris":{"android":"levelo://app?vid=639b6881-2acd-477c-9ea3-b3c38e4e3302","ios":"levelo://app?vid=639b6881-2acd-477c-9ea3-b3c38e4e3302"},"vehicle_type_id":"4","last_reported":1746378457,"current_range_meters":6000,"station_id":"ce4bhph2rcd13ifvqhdg","pricing_plan_id":"cebpf4jnsgd1na2vs0mg"},{"bike_id":"8df6e310-0880-40a9-a691-cd475dfa3928","system_id":"levelo_inurba_marseille","lat":43.285799,"lon":5.442426,"is_reserved":false,"is_disabled":false,"rental_uris":{"android":"levelo://app?vid=8df6e310-0880-40a9-a691-cd475dfa3928","ios":"levelo://app?vid=8df6e310-0880-40a9-a691-cd475dfa3928"},"vehicle_type_id":"4","last_reported":1746378457,"current_range_meters":6000,"station_id":"","pricing_plan_id":"cebpf4jnsgd1na2vs0mg"},{"bike_id":"8df37787-a611-4ce6-9e65-032cb168f59b","system_id":"levelo_inurba_marseille","lat":43.21229,"lon":5.35085,"is_reserved":false,"is_disabled":false,"rental_uris":{"android":"levelo://app?vid=8df37787-a611-4ce6-9e65-032cb168f59b","ios":"levelo://app?vid=8df37787-a611-4ce6-9e65-032cb168f59b"},"vehicle_type_id":"4","last_reported":1746378457,"current_range_meters":6000,"station_id":"st_cvj6sg6p6f1abm77japg","pricing_plan_id":"cebpf4jnsgd1na2vs0mg"},{"bike_id":"3e0c7082-a716-4e7d-9c69-f7bdba0377c8","system_id":"levelo_inurba_marseille","lat":43.29019,"lon":5.38636,"is_reserved":false,"is_disabled":false,"rental_uris":{"android":"levelo://app?vid=3e0c7082-a716-4e7d-9c69-f7bdba0377c8","ios":"levelo://app?vid=3e0c7082-a716-4e7d-9c69-f7bdba0377c8"},"vehicle_type_id":"4","last_reported":1746378457,"current_range_meters":6400,"station_id":"ce4bh4p2rcd13ifvqe0g","pricing_plan_id":"cebpf4jnsgd1na2vs0mg"},{"bike_id":"2f311d3e-f32f-44a5-ab24-747d16fe2543","system_id":"levelo_inurba_marseille","lat":43.292708,"lon":5.384344,"is_reserved":false,"is_disabled":false,"rental_uris":{"android":"levelo://app?vid=2f311d3e-f32f-44a5-ab24-747d16fe2543","ios":"levelo://app?vid=2f311d3e-f32f-44a5-ab24-747d16fe2543"},"vehicle_type_id":"4","last_reported":1746378457,"current_range_meters":6400,"station_id":"ce4bh692rcd13ifvqea0","pricing_plan_id":"cebpf4jnsgd1na2vs0mg"},{"bike_id":"3d0e8af0-3735-4404-a09f-4788cfdcc03a","system_id":"levelo_inurba_marseille","lat":43.28938,"lon":5.36641,"is_reserved":false,"is_disabled":false,"rental_uris":{"android":"levelo://app?vid=3d0e8af0-3735-4404-a09f-4788cfdcc03a","ios":"levelo://app?vid=3d0e8af0-3735-4404-a09f-4788cfdcc03a"},"vehicle_type_id":"4","last_reported":1746378457,"current_range_meters":6800,"station_id":"ce4bhap2rcd13ifvqek0","pricing_plan_id":"cebpf4jnsgd1na2vs0mg"},{"bike_id":"0e0be7bc-20e5-424a-89ff-1b6d292738ac","system_id":"levelo_inurba_marseille","lat":43.21773,"lon":5.34637,"is_reserved":false,"is_disabled":false,"rental_uris":{"android":"levelo://app?vid=0e0be7bc-20e5-424a-89ff-1b6d292738ac","ios":"levelo://app?vid=0e0be7bc-20e5-424a-89ff-1b6d292738ac"},"vehicle_type_id":"4","last_reported":1746378457,"current_range_meters":6800,"station_id":"st_cvj6r9ubvosntc0bgbag","pricing_plan_id":"cebpf4jnsgd1na2vs0mg"},{"bike_id":"3ab3c86e-8d2f-4e36-8bad-85bca3eb2e34","system_id":"levelo_inurba_marseille","lat":43.21758,"lon":5.3459,"is_reserved":false,"is_disabled":true,"rental_uris":{"android":"levelo://app?vid=3ab3c86e-8d2f-4e36-8bad-85bca3eb2e34","ios":"levelo://app?vid=3ab3c86e-8d2f-4e36-8bad-85bca3eb2e34"},"vehicle_type_id":"4","last_reported":1746378457,"current_range_meters":6800,"station_id":"","pricing_plan_id":"cebpf4jnsgd1na2vs0mg"},{"bike_id":"909825d5-7ad2-409e-b0de-cec7d5b4fa06","system_id":"levelo_inurba_marseille","lat":43.242191,"lon":5.367354,"is_reserved":false,"is_disabled":false,"rental_uris":{"android":"levelo://app?vid=909825d5-7ad2-409e-b0de-cec7d5b4fa06","ios":"levelo://app?vid=909825d5-7ad2-409e-b0de-cec7d5b4fa06"},"vehicle_type_id":"4","last_reported":1746378457,"current_range_meters":6800,"station_id":"","pricing_plan_id":"cebpf4jnsgd1na2vs0mg"},{"bike_id":"8ddde774-a0b4-4aef-96cc-9ec936c6e5df","system_id":"levelo_inurba_marseille","lat":43.29278,"lon":5.40122,"is_reserved":false,"is_disabled":false,"rental_uris":{"android":"levelo://app?vid=8ddde774-a0b4-4aef-96cc-9ec936c6e5df","ios":"levelo://app?vid=8ddde774-a0b4-4aef-96cc-9ec936c6e5df"},"vehicle_type_id":"4","last_reported":1746378457,"current_range_meters":6800,"station_id":"ce4bh312rcd13ifvqdk0","pricing_plan_id":"cebpf4jnsgd1na2vs0mg"},{"bike_id":"17cd42e0-f3d6-4b5d-a7a7-aae4daea5f81","system_id":"levelo_inurba_marseille","lat":43.21194,"lon":5.35079,"is_reserved":false,"is_disabled":false,"rental_uris":{"android":"levelo://app?vid=17cd42e0-f3d6-4b5d-a7a7-aae4daea5f81","ios":"levelo://app?vid=17cd42e0-f3d6-4b5d-a7a7-aae4daea5f81"},"vehicle_type_id":"4","last_reported":1746378457,"current_range_meters":6800,"station_id":"","pricing_plan_id":"cebpf4jnsgd1na2vs0mg"},{"bike_id":"9f4674d4-7cdb-4958-9049-02d5f3b52e20","system_id":"levelo_inurba_marseille","lat":43.29894,"lon":5.43645,"is_reserved":false,"is_disabled":false,"rental_uris":{"android":"levelo://app?vid=9f4674d4-7cdb-4958-9049-02d5f3b52e20","ios":"levelo://app?vid=9f4674d4-7cdb-4958-9049-02d5f3b52e20"},"vehicle_type_id":"4","last_reported":1746378457,"current_range_meters":6800,"station_id":"ce4bhpp2rcd13ifvqhfg","pricing_plan_id":"cebpf4jnsgd1na2vs0mg"},{"bike_id":"2bae2837-22a6-4344-a8f6-e191d31723e7","system_id":"levelo_inurba_marseille","lat":43.24804,"lon":5.37456,"is_reserved":false,"is_disabled":false,"rental_uris":{"android":"levelo://app?vid=2bae2837-22a6-4344-a8f6-e191d31723e7","ios":"levelo://app?vid=2bae2837-22a6-4344-a8f6-e191d31723e7"},"vehicle_type_id":"4","last_reported":1746378457,"current_range_meters":7200,"station_id":"ce4bhgh2rcd13ifvqfb0","pricing_plan_id":"cebpf4jnsgd1na2vs0mg"},{"bike_id":"6ae9068b-8534-47e2-832a-cb0e5255371d","system_id":"levelo_inurba_marseille","lat":43.337444,"lon":5.374475,"is_reserved":false,"is_disabled":false,"rental_uris":{"android":"levelo://app?vid=6ae9068b-8534-47e2-832a-cb0e5255371d","ios":"levelo://app?vid=6ae9068b-8534-47e2-832a-cb0e5255371d"},"vehicle_type_id":"4","last_reported":1746378457,"current_range_meters":7200,"station_id":"ce4bgvp2rcd13ifvqct0","pricing_plan_id":"cebpf4jnsgd1na2vs0mg"},{"bike_id":"0ecfd02f-f853-4362-9dcd-e959b1ad8321","system_id":"levelo_inurba_marseille","lat":43.24155,"lon":5.39763,"is_reserved":false,"is_disabled":false,"rental_uris":{"android":"levelo://app?vid=0ecfd02f-f853-4362-9dcd-e959b1ad8321","ios":"levelo://app?vid=0ecfd02f-f853-4362-9dcd-e959b1ad8321"},"vehicle_type_id":"4","last_reported":1746378457,"current_range_meters":7200,"station_id":"ce4bhn12rcd13ifvqgpg","pricing_plan_id":"cebpf4jnsgd1na2vs0mg"},{"bike_id":"a9e81389-04bf-4a2a-ad52-b64e50e776c4","system_id":"levelo_inurba_marseille","lat":43.25125,"lon":5.40317,"is_reserved":false,"is_disabled":false,"rental_uris":{"android":"levelo://app?vid=a9e81389-04bf-4a2a-ad52-b64e50e776c4","ios":"levelo://app?vid=a9e81389-04bf-4a2a-ad52-b64e50e776c4"},"vehicle_type_id":"4","last_reported":1746378457,"current_range_meters":7200,"station_id":"ce4bhlh2rcd13ifvqgig","pricing_plan_id":"cebpf4jnsgd1na2vs0mg"},{"bike_id":"f0259f55-382d-4317-a5a3-c63365a0d76b","system_id":"levelo_inurba_marseille","lat":43.25566,"lon":5.41777,"is_reserved":false,"is_disabled":false,"rental_uris":{"android":"levelo://app?vid=f0259f55-382d-4317-a5a3-c63365a0d76b","ios":"levelo://app?vid=f0259f55-382d-4317-a5a3-c63365a0d76b"},"vehicle_type_id":"4","last_reported":1746378457,"current_range_meters":8000,"station_id":"","pricing_plan_id":"cebpf4jnsgd1na2vs0mg"},{"bike_id":"fb582505-15b6-40c6-97cc-2feebea7d568","system_id":"levelo_inurba_marseille","lat":43.30456,"lon":5.39722,"is_reserved":false,"is_disabled":true,"rental_uris":{"android":"levelo://app?vid=fb582505-15b6-40c6-97cc-2feebea7d568","ios":"levelo://app?vid=fb582505-15b6-40c6-97cc-2feebea7d568"},"vehicle_type_id":"4","last_reported":1746378457,"current_range_meters":8000,"station_id":"ce4bh092rcd13ifvqd20","pricing_plan_id":"cebpf4jnsgd1na2vs0mg"},{"bike_id":"d01043b7-6986-4c69-9f50-e390961f3c88","system_id":"levelo_inurba_marseille","lat":43.23064,"lon":5.35498,"is_reserved":false,"is_disabled":false,"rental_uris":{"android":"levelo://app?vid=d01043b7-6986-4c69-9f50-e390961f3c88","ios":"levelo://app?vid=d01043b7-6986-4c69-9f50-e390961f3c88"},"vehicle_type_id":"4","last_reported":1746378457,"current_range_meters":8000,"station_id":"cpo3342slgdg3j2ifvpg","pricing_plan_id":"cebpf4jnsgd1na2vs0mg"},{"bike_id":"d6f46377-72cc-4e6e-a85d-7f1eb0d77b48","system_id":"levelo_inurba_marseille","lat":43.2781,"lon":5.4071,"is_reserved":false,"is_disabled":false,"rental_uris":{"android":"levelo://app?vid=d6f46377-72cc-4e6e-a85d-7f1eb0d77b48","ios":"levelo://app?vid=d6f46377-72cc-4e6e-a85d-7f1eb0d77b48"},"vehicle_type_id":"4","last_reported":1746378457,"current_range_meters":8000,"station_id":"ce4bhnh2rcd13ifvqgtg","pricing_plan_id":"cebpf4jnsgd1na2vs0mg"},{"bike_id":"4eb8ab62-149c-480f-b879-d825051dcb18","system_id":"levelo_inurba_marseille","lat":43.337215,"lon":5.391772,"is_reserved":false,"is_disabled":false,"rental_uris":{"android":"levelo://app?vid=4eb8ab62-149c-480f-b879-d825051dcb18","ios":"levelo://app?vid=4eb8ab62-149c-480f-b879-d825051dcb18"},"vehicle_type_id":"4","last_reported":1746378457,"current_range_meters":8000,"station_id":"ce4bhr92rcd13ifvqhsg","pricing_plan_id":"cebpf4jnsgd1na2vs0mg"},{"bike_id":"bc32a0f1-ea8a-49e5-9fa4-f9d1eea3c4c8","system_id":"levelo_inurba_marseille","lat":43.28442,"lon":5.39199,"is_reserved":false,"is_disabled":false,"rental_uris":{"android":"levelo://app?vid=bc32a0f1-ea8a-49e5-9fa4-f9d1eea3c4c8","ios":"levelo://app?vid=bc32a0f1-ea8a-49e5-9fa4-f9d1eea3c4c8"},"vehicle_type_id":"4","last_reported":1746378457,"current_range_meters":8000,"station_id":"ce4bhoh2rcd13ifvqh5g","pricing_plan_id":"cebpf4jnsgd1na2vs0mg"},{"bike_id":"4a93eb55-7216-47f7-831b-049b35413d07","system_id":"levelo_inurba_marseille","lat":43.30805,"lon":5.37644,"is_reserved":false,"is_disabled":false,"rental_uris":{"android":"levelo://app?vid=4a93eb55-7216-47f7-831b-049b35413d07","ios":"levelo://app?vid=4a93eb55-7216-47f7-831b-049b35413d07"},"vehicle_type_id":"4","last_reported":1746378457,"current_range_meters":8000,"station_id":"ce4bgv92rcd13ifvqcq0","pricing_plan_id":"cebpf4jnsgd1na2vs0mg"},{"bike_id":"f06c4667-9ef9-4dc2-8fda-8d26a990386f","system_id":"levelo_inurba_marseille","lat":43.28204,"lon":5.42701,"is_reserved":false,"is_disabled":false,"rental_uris":{"android":"levelo://app?vid=f06c4667-9ef9-4dc2-8fda-8d26a990386f","ios":"levelo://app?vid=f06c4667-9ef9-4dc2-8fda-8d26a990386f"},"vehicle_type_id":"4","last_reported":1746378457,"current_range_meters":8000,"station_id":"","pricing_plan_id":"cebpf4jnsgd1na2vs0mg"},{"bike_id":"3a3b5ccf-db25-43cb-b3b0-1b438725671a","system_id":"levelo_inurba_marseille","lat":43.24543,"lon":5.3953,"is_reserved":false,"is_disabled":false,"rental_uris":{"android":"levelo://app?vid=3a3b5ccf-db25-43cb-b3b0-1b438725671a","ios":"levelo://app?vid=3a3b5ccf-db25-43cb-b3b0-1b438725671a"},"vehicle_type_id":"4","last_reported":1746378457,"current_range_meters":8000,"station_id":"","pricing_plan_id":"cebpf4jnsgd1na2vs0mg"},{"bike_id":"e9c24f3d-2135-45ef-8f3e-49aaf01d2847","system_id":"levelo_inurba_marseille","lat":43.26239,"lon":5.37527,"is_reserved":false,"is_disabled":true,"rental_uris":{"android":"levelo://app?vid=e9c24f3d-2135-45ef-8f3e-49aaf01d2847","ios":"levelo://app?vid=e9c24f3d-2135-45ef-8f3e-49aaf01d2847"},"vehicle_type_id":"4","last_reported":1746378457,"current_range_meters":8400,"station_id":"","pricing_plan_id":"cebpf4jnsgd1na2vs0mg"},{"bike_id":"4d9c785a-6a14-4f60-8bcb-eb74d56c9262","system_id":"levelo_inurba_marseille","lat":43.27131,"lon":5.42241,"is_reserved":false,"is_disabled":false,"rental_uris":{"android":"levelo://app?vid=4d9c785a-6a14-4f60-8bcb-eb74d56c9262","ios":"levelo://app?vid=4d9c785a-6a14-4f60-8bcb-eb74d56c9262"},"vehicle_type_id":"4","last_reported":1746378457,"current_range_meters":8400,"station_id":"","pricing_plan_id":"cebpf4jnsgd1na2vs0mg"},{"bike_id":"6f8dd7c8-5eff-4509-9853-53af8780b6d6","system_id":"levelo_inurba_marseille","lat":43.245491,"lon":5.395268,"is_reserved":false,"is_disabled":false,"rental_uris":{"android":"levelo://app?vid=6f8dd7c8-5eff-4509-9853-53af8780b6d6","ios":"levelo://app?vid=6f8dd7c8-5eff-4509-9853-53af8780b6d6"},"vehicle_type_id":"4","last_reported":1746378457,"current_range_meters":8400,"station_id":"ce4bhlp2rcd13ifvqgjg","pricing_plan_id":"cebpf4jnsgd1na2vs0mg"},{"bike_id":"05cdd6da-e920-4d7e-851a-954d203bf00a","system_id":"levelo_inurba_marseille","lat":43.23168,"lon":5.40017,"is_reserved":false,"is_disabled":false,"rental_uris":{"android":"levelo://app?vid=05cdd6da-e920-4d7e-851a-954d203bf00a","ios":"levelo://app?vid=05cdd6da-e920-4d7e-851a-954d203bf00a"},"vehicle_type_id":"4","last_reported":1746378457,"current_range_meters":8400,"station_id":"ce4bhn12rcd13ifvqgqg","pricing_plan_id":"cebpf4jnsgd1na2vs0mg"},{"bike_id":"fd2c3c67-23a6-4380-b7ca-8f23c8f78921","system_id":"levelo_inurba_marseille","lat":43.323664,"lon":5.367412,"is_reserved":false,"is_disabled":false,"rental_uris":{"android":"levelo://app?vid=fd2c3c67-23a6-4380-b7ca-8f23c8f78921","ios":"levelo://app?vid=fd2c3c67-23a6-4380-b7ca-8f23c8f78921"},"vehicle_type_id":"4","last_reported":1746378457,"current_range_meters":8400,"station_id":"ce4bhsh2rcd13ifvqi2g","pricing_plan_id":"cebpf4jnsgd1na2vs0mg"},{"bike_id":"7c9f302f-84ec-4062-ae0c-5788a6786ad9","system_id":"levelo_inurba_marseille","lat":43.21744,"lon":5.34618,"is_reserved":false,"is_disabled":false,"rental_uris":{"android":"levelo://app?vid=7c9f302f-84ec-4062-ae0c-5788a6786ad9","ios":"levelo://app?vid=7c9f302f-84ec-4062-ae0c-5788a6786ad9"},"vehicle_type_id":"4","last_reported":1746378457,"current_range_meters":8800,"station_id":"st_cvj6r9ubvosntc0bgbag","pricing_plan_id":"cebpf4jnsgd1na2vs0mg"},{"bike_id":"e4856e11-0139-477e-a022-4b979369719b","system_id":"levelo_inurba_marseille","lat":43.23958,"lon":5.36642,"is_reserved":false,"is_disabled":false,"rental_uris":{"android":"levelo://app?vid=e4856e11-0139-477e-a022-4b979369719b","ios":"levelo://app?vid=e4856e11-0139-477e-a022-4b979369719b"},"vehicle_type_id":"4","last_reported":1746378457,"current_range_meters":8800,"station_id":"ce4bhi12rcd13ifvqfp0","pricing_plan_id":"cebpf4jnsgd1na2vs0mg"},{"bike_id":"4404606e-2524-4489-89c5-a4e27c028999","system_id":"levelo_inurba_marseille","lat":43.29271,"lon":5.38442,"is_reserved":false,"is_disabled":false,"rental_uris":{"android":"levelo://app?vid=4404606e-2524-4489-89c5-a4e27c028999","ios":"levelo://app?vid=4404606e-2524-4489-89c5-a4e27c028999"},"vehicle_type_id":"4","last_reported":1746378457,"current_range_meters":8800,"station_id":"ce4bh692rcd13ifvqea0","pricing_plan_id":"cebpf4jnsgd1na2vs0mg"},{"bike_id":"6ee73770-cf70-4300-aef2-b9359860c9c9","system_id":"levelo_inurba_marseille","lat":43.28705,"lon":5.39997,"is_reserved":false,"is_disabled":false,"rental_uris":{"android":"levelo://app?vid=6ee73770-cf70-4300-aef2-b9359860c9c9","ios":"levelo://app?vid=6ee73770-cf70-4300-aef2-b9359860c9c9"},"vehicle_type_id":"4","last_reported":1746378457,"current_range_meters":8800,"station_id":"ce4bho92rcd13ifvqh3g","pricing_plan_id":"cebpf4jnsgd1na2vs0mg"},{"bike_id":"a7cd7cac-5a32-4d14-92f2-2738618b7e69","system_id":"levelo_inurba_marseille","lat":43.259871,"lon":5.4095,"is_reserved":false,"is_disabled":false,"rental_uris":{"android":"levelo://app?vid=a7cd7cac-5a32-4d14-92f2-2738618b7e69","ios":"levelo://app?vid=a7cd7cac-5a32-4d14-92f2-2738618b7e69"},"vehicle_type_id":"4","last_reported":1746378457,"current_range_meters":8800,"station_id":"ce4bhm92rcd13ifvqglg","pricing_plan_id":"cebpf4jnsgd1na2vs0mg"},{"bike_id":"d55c8237-2304-4efd-993e-dc727f0f1b6a","system_id":"levelo_inurba_marseille","lat":43.225055,"lon":5.347874,"is_reserved":false,"is_disabled":false,"rental_uris":{"android":"levelo://app?vid=d55c8237-2304-4efd-993e-dc727f0f1b6a","ios":"levelo://app?vid=d55c8237-2304-4efd-993e-dc727f0f1b6a"},"vehicle_type_id":"4","last_reported":1746378457,"current_range_meters":9200,"station_id":"st_cvj5dfep6f1abm77gieg","pricing_plan_id":"cebpf4jnsgd1na2vs0mg"},{"bike_id":"1c53114f-12ea-4131-9a1b-7fbb80d9df57","system_id":"levelo_inurba_marseille","lat":43.27082,"lon":5.42274,"is_reserved":false,"is_disabled":false,"rental_uris":{"android":"levelo://app?vid=1c53114f-12ea-4131-9a1b-7fbb80d9df57","ios":"levelo://app?vid=1c53114f-12ea-4131-9a1b-7fbb80d9df57"},"vehicle_type_id":"4","last_reported":1746378457,"current_range_meters":9200,"station_id":"ce4bhk92rcd13ifvqgb0","pricing_plan_id":"cebpf4jnsgd1na2vs0mg"},{"bike_id":"1d59b5c9-cca4-43f9-a7f4-1bb7ebcfb8ae","system_id":"levelo_inurba_marseille","lat":43.27373,"lon":5.362545,"is_reserved":false,"is_disabled":true,"rental_uris":{"android":"levelo://app?vid=1d59b5c9-cca4-43f9-a7f4-1bb7ebcfb8ae","ios":"levelo://app?vid=1d59b5c9-cca4-43f9-a7f4-1bb7ebcfb8ae"},"vehicle_type_id":"4","last_reported":1746378457,"current_range_meters":9200,"station_id":"","pricing_plan_id":"cebpf4jnsgd1na2vs0mg"},{"bike_id":"0cb0aa01-a812-4aaa-b96f-b0a4c30d0d48","system_id":"levelo_inurba_marseille","lat":43.29074,"lon":5.37184,"is_reserved":false,"is_disabled":false,"rental_uris":{"android":"levelo://app?vid=0cb0aa01-a812-4aaa-b96f-b0a4c30d0d48","ios":"levelo://app?vid=0cb0aa01-a812-4aaa-b96f-b0a4c30d0d48"},"vehicle_type_id":"4","last_reported":1746378457,"current_range_meters":9200,"station_id":"ce4bh5p2rcd13ifvqe4g","pricing_plan_id":"cebpf4jnsgd1na2vs0mg"},{"bike_id":"a3a149ce-62d6-4eed-8e59-9e82fdb6aad7","system_id":"levelo_inurba_marseille","lat":43.25121,"lon":5.40342,"is_reserved":false,"is_disabled":false,"rental_uris":{"android":"levelo://app?vid=a3a149ce-62d6-4eed-8e59-9e82fdb6aad7","ios":"levelo://app?vid=a3a149ce-62d6-4eed-8e59-9e82fdb6aad7"},"vehicle_type_id":"4","last_reported":1746378457,"current_range_meters":9200,"station_id":"ce4bhlh2rcd13ifvqgig","pricing_plan_id":"cebpf4jnsgd1na2vs0mg"},{"bike_id":"274ad913-cb5d-44ea-8484-26eae07424ea","system_id":"levelo_inurba_marseille","lat":43.25864,"lon":5.39912,"is_reserved":false,"is_disabled":true,"rental_uris":{"android":"levelo://app?vid=274ad913-cb5d-44ea-8484-26eae07424ea","ios":"levelo://app?vid=274ad913-cb5d-44ea-8484-26eae07424ea"},"vehicle_type_id":"4","last_reported":1746378457,"current_range_meters":9200,"station_id":"ce4bhl92rcd13ifvqghg","pricing_plan_id":"cebpf4jnsgd1na2vs0mg"},{"bike_id":"2989b068-2042-487d-a2c6-e257a063a874","system_id":"levelo_inurba_marseille","lat":43.32477,"lon":5.36578,"is_reserved":false,"is_disabled":false,"rental_uris":{"android":"levelo://app?vid=2989b068-2042-487d-a2c6-e257a063a874","ios":"levelo://app?vid=2989b068-2042-487d-a2c6-e257a063a874"},"vehicle_type_id":"4","last_reported":1746378457,"current_range_meters":9200,"station_id":"ce4bhs12rcd13ifvqhvg","pricing_plan_id":"cebpf4jnsgd1na2vs0mg"},{"bike_id":"89c5a075-7c7e-4ffe-b42c-f3bda787ff75","system_id":"levelo_inurba_marseille","lat":43.32288,"lon":5.37406,"is_reserved":false,"is_disabled":false,"rental_uris":{"android":"levelo://app?vid=89c5a075-7c7e-4ffe-b42c-f3bda787ff75","ios":"levelo://app?vid=89c5a075-7c7e-4ffe-b42c-f3bda787ff75"},"vehicle_type_id":"4","last_reported":1746378457,"current_range_meters":9200,"station_id":"","pricing_plan_id":"cebpf4jnsgd1na2vs0mg"},{"bike_id":"51e137dc-06d4-4721-8a2f-24e002c6d5d0","system_id":"levelo_inurba_marseille","lat":43.24073,"lon":5.37766,"is_reserved":false,"is_disabled":false,"rental_uris":{"android":"levelo://app?vid=51e137dc-06d4-4721-8a2f-24e002c6d5d0","ios":"levelo://app?vid=51e137dc-06d4-4721-8a2f-24e002c6d5d0"},"vehicle_type_id":"4","last_reported":1746378457,"current_range_meters":9200,"station_id":"ce4bhnp2rcd13ifvqgvg","pricing_plan_id":"cebpf4jnsgd1na2vs0mg"},{"bike_id":"aedf206f-89f3-4f30-9da6-56fb7ff8915b","system_id":"levelo_inurba_marseille","lat":43.2814,"lon":5.40384,"is_reserved":false,"is_disabled":false,"rental_uris":{"android":"levelo://app?vid=aedf206f-89f3-4f30-9da6-56fb7ff8915b","ios":"levelo://app?vid=aedf206f-89f3-4f30-9da6-56fb7ff8915b"},"vehicle_type_id":"4","last_reported":1746378457,"current_range_meters":9600,"station_id":"","pricing_plan_id":"cebpf4jnsgd1na2vs0mg"},{"bike_id":"404da817-f031-4950-ba8b-2104a38b67fb","system_id":"levelo_inurba_marseille","lat":43.27176,"lon":5.40992,"is_reserved":false,"is_disabled":false,"rental_uris":{"android":"levelo://app?vid=404da817-f031-4950-ba8b-2104a38b67fb","ios":"levelo://app?vid=404da817-f031-4950-ba8b-2104a38b67fb"},"vehicle_type_id":"4","last_reported":1746378457,"current_range_meters":9600,"station_id":"ce4bhl12rcd13ifvqgf0","pricing_plan_id":"cebpf4jnsgd1na2vs0mg"},{"bike_id":"f2f259d1-36b8-4370-b79f-1e8086cc6d08","system_id":"levelo_inurba_marseille","lat":43.27088,"lon":5.42287,"is_reserved":false,"is_disabled":false,"rental_uris":{"android":"levelo://app?vid=f2f259d1-36b8-4370-b79f-1e8086cc6d08","ios":"levelo://app?vid=f2f259d1-36b8-4370-b79f-1e8086cc6d08"},"vehicle_type_id":"4","last_reported":1746378457,"current_range_meters":9600,"station_id":"ce4bhk92rcd13ifvqgb0","pricing_plan_id":"cebpf4jnsgd1na2vs0mg"},{"bike_id":"06e29e60-bc25-4a40-9181-ee6150abee7f","system_id":"levelo_inurba_marseille","lat":43.29527,"lon":5.38539,"is_reserved":false,"is_disabled":false,"rental_uris":{"android":"levelo://app?vid=06e29e60-bc25-4a40-9181-ee6150abee7f","ios":"levelo://app?vid=06e29e60-bc25-4a40-9181-ee6150abee7f"},"vehicle_type_id":"4","last_reported":1746378457,"current_range_meters":9600,"station_id":"ce4bgih2rcd13ifvqba0","pricing_plan_id":"cebpf4jnsgd1na2vs0mg"},{"bike_id":"c59dd5c1-a195-4870-b3d7-afb523598e23","system_id":"levelo_inurba_marseille","lat":43.30807,"lon":5.43527,"is_reserved":false,"is_disabled":false,"rental_uris":{"android":"levelo://app?vid=c59dd5c1-a195-4870-b3d7-afb523598e23","ios":"levelo://app?vid=c59dd5c1-a195-4870-b3d7-afb523598e23"},"vehicle_type_id":"4","last_reported":1746378457,"current_range_meters":10000,"station_id":"ce4bhph2rcd13ifvqheg","pricing_plan_id":"cebpf4jnsgd1na2vs0mg"},{"bike_id":"d0f10611-bdfd-4a54-bc2d-b11b547f0fb8","system_id":"levelo_inurba_marseille","lat":43.294342,"lon":5.386128,"is_reserved":false,"is_disabled":false,"rental_uris":{"android":"levelo://app?vid=d0f10611-bdfd-4a54-bc2d-b11b547f0fb8","ios":"levelo://app?vid=d0f10611-bdfd-4a54-bc2d-b11b547f0fb8"},"vehicle_type_id":"4","last_reported":1746378457,"current_range_meters":10000,"station_id":"ce4bh2h2rcd13ifvqdh0","pricing_plan_id":"cebpf4jnsgd1na2vs0mg"},{"bike_id":"0c6bc33b-eefc-42df-acd1-660878acd753","system_id":"levelo_inurba_marseille","lat":43.312703,"lon":5.401709,"is_reserved":false,"is_disabled":false,"rental_uris":{"android":"levelo://app?vid=0c6bc33b-eefc-42df-acd1-660878acd753","ios":"levelo://app?vid=0c6bc33b-eefc-42df-acd1-660878acd753"},"vehicle_type_id":"4","last_reported":1746378457,"current_range_meters":10000,"station_id":"ce4bh092rcd13ifvqd30","pricing_plan_id":"cebpf4jnsgd1na2vs0mg"},{"bike_id":"0397570e-b83d-4017-8742-c3d74b4e8593","system_id":"levelo_inurba_marseille","lat":43.288147,"lon":5.388194,"is_reserved":false,"is_disabled":true,"rental_uris":{"android":"levelo://app?vid=0397570e-b83d-4017-8742-c3d74b4e8593","ios":"levelo://app?vid=0397570e-b83d-4017-8742-c3d74b4e8593"},"vehicle_type_id":"4","last_reported":1746378457,"current_range_meters":10000,"station_id":"","pricing_plan_id":"cebpf4jnsgd1na2vs0mg"},{"bike_id":"a622e557-a268-4ac1-9463-912416a79408","system_id":"levelo_inurba_marseille","lat":43.26948,"lon":5.38635,"is_reserved":false,"is_disabled":false,"rental_uris":{"android":"levelo://app?vid=a622e557-a268-4ac1-9463-912416a79408","ios":"levelo://app?vid=a622e557-a268-4ac1-9463-912416a79408"},"vehicle_type_id":"4","last_reported":1746378457,"current_range_meters":10000,"station_id":"ce4bhh92rcd13ifvqfh0","pricing_plan_id":"cebpf4jnsgd1na2vs0mg"},{"bike_id":"77e5fc0c-8247-4eae-976e-b65c5c479c47","system_id":"levelo_inurba_marseille","lat":43.24392,"lon":5.37051,"is_reserved":false,"is_disabled":false,"rental_uris":{"android":"levelo://app?vid=77e5fc0c-8247-4eae-976e-b65c5c479c47","ios":"levelo://app?vid=77e5fc0c-8247-4eae-976e-b65c5c479c47"},"vehicle_type_id":"4","last_reported":1746378457,"current_range_meters":10800,"station_id":"ce4bhhh2rcd13ifvqfk0","pricing_plan_id":"cebpf4jnsgd1na2vs0mg"},{"bike_id":"35052c1c-39ac-4317-8c09-f6b7b6b1a5b8","system_id":"levelo_inurba_marseille","lat":43.28451,"lon":5.39207,"is_reserved":false,"is_disabled":false,"rental_uris":{"android":"levelo://app?vid=35052c1c-39ac-4317-8c09-f6b7b6b1a5b8","ios":"levelo://app?vid=35052c1c-39ac-4317-8c09-f6b7b6b1a5b8"},"vehicle_type_id":"4","last_reported":1746378457,"current_range_meters":11200,"station_id":"ce4bhoh2rcd13ifvqh5g","pricing_plan_id":"cebpf4jnsgd1na2vs0mg"},{"bike_id":"49f2e8ef-3e8a-4844-b0f1-9077a212950a","system_id":"levelo_inurba_marseille","lat":43.312528,"lon":5.371642,"is_reserved":false,"is_disabled":false,"rental_uris":{"android":"levelo://app?vid=49f2e8ef-3e8a-4844-b0f1-9077a212950a","ios":"levelo://app?vid=49f2e8ef-3e8a-4844-b0f1-9077a212950a"},"vehicle_type_id":"4","last_reported":1746378457,"current_range_meters":11200,"station_id":"","pricing_plan_id":"cebpf4jnsgd1na2vs0mg"},{"bike_id":"c041e647-a532-4271-ab4c-b8d07e0d410f","system_id":"levelo_inurba_marseille","lat":43.24543,"lon":5.39529,"is_reserved":false,"is_disabled":false,"rental_uris":{"android":"levelo://app?vid=c041e647-a532-4271-ab4c-b8d07e0d410f","ios":"levelo://app?vid=c041e647-a532-4271-ab4c-b8d07e0d410f"},"vehicle_type_id":"4","last_reported":1746378457,"current_range_meters":11200,"station_id":"ce4bhlp2rcd13ifvqgjg","pricing_plan_id":"cebpf4jnsgd1na2vs0mg"},{"bike_id":"dfa64716-f39b-441d-ba21-2e3131974b6d","system_id":"levelo_inurba_marseille","lat":43.29261,"lon":5.38435,"is_reserved":false,"is_disabled":false,"rental_uris":{"android":"levelo://app?vid=dfa64716-f39b-441d-ba21-2e3131974b6d","ios":"levelo://app?vid=dfa64716-f39b-441d-ba21-2e3131974b6d"},"vehicle_type_id":"4","last_reported":1746378457,"current_range_meters":11200,"station_id":"ce4bh692rcd13ifvqea0","pricing_plan_id":"cebpf4jnsgd1na2vs0mg"},{"bike_id":"4499ad4a-af35-43e1-9bd2-0a685db35dc2","system_id":"levelo_inurba_marseille","lat":43.30588,"lon":5.39359,"is_reserved":false,"is_disabled":false,"rental_uris":{"android":"levelo://app?vid=4499ad4a-af35-43e1-9bd2-0a685db35dc2","ios":"levelo://app?vid=4499ad4a-af35-43e1-9bd2-0a685db35dc2"},"vehicle_type_id":"4","last_reported":1746378457,"current_range_meters":11200,"station_id":"ce4bh0p2rcd13ifvqd80","pricing_plan_id":"cebpf4jnsgd1na2vs0mg"},{"bike_id":"53a55808-58d8-4a71-b451-27c3268402f0","system_id":"levelo_inurba_marseille","lat":43.29094,"lon":5.38161,"is_reserved":false,"is_disabled":false,"rental_uris":{"android":"levelo://app?vid=53a55808-58d8-4a71-b451-27c3268402f0","ios":"levelo://app?vid=53a55808-58d8-4a71-b451-27c3268402f0"},"vehicle_type_id":"4","last_reported":1746378457,"current_range_meters":11600,"station_id":"ce4bh512rcd13ifvqe2g","pricing_plan_id":"cebpf4jnsgd1na2vs0mg"},{"bike_id":"286fde98-38e5-41c9-a1b1-b6e384a8835c","system_id":"levelo_inurba_marseille","lat":43.30789,"lon":5.37649,"is_reserved":false,"is_disabled":false,"rental_uris":{"android":"levelo://app?vid=286fde98-38e5-41c9-a1b1-b6e384a8835c","ios":"levelo://app?vid=286fde98-38e5-41c9-a1b1-b6e384a8835c"},"vehicle_type_id":"4","last_reported":1746378457,"current_range_meters":11600,"station_id":"ce4bgv92rcd13ifvqcq0","pricing_plan_id":"cebpf4jnsgd1na2vs0mg"},{"bike_id":"1289b118-18ac-49c9-9878-4479fd6a84e6","system_id":"levelo_inurba_marseille","lat":43.2926,"lon":5.37608,"is_reserved":false,"is_disabled":false,"rental_uris":{"android":"levelo://app?vid=1289b118-18ac-49c9-9878-4479fd6a84e6","ios":"levelo://app?vid=1289b118-18ac-49c9-9878-4479fd6a84e6"},"vehicle_type_id":"4","last_reported":1746378457,"current_range_meters":11600,"station_id":"ce4bgi12rcd13ifvqb80","pricing_plan_id":"cebpf4jnsgd1na2vs0mg"},{"bike_id":"0ca90796-419c-4b51-a737-84ecc0c1c5e5","system_id":"levelo_inurba_marseille","lat":43.26951,"lon":5.38635,"is_reserved":false,"is_disabled":false,"rental_uris":{"android":"levelo://app?vid=0ca90796-419c-4b51-a737-84ecc0c1c5e5","ios":"levelo://app?vid=0ca90796-419c-4b51-a737-84ecc0c1c5e5"},"vehicle_type_id":"4","last_reported":1746378457,"current_range_meters":11600,"station_id":"ce4bhh92rcd13ifvqfh0","pricing_plan_id":"cebpf4jnsgd1na2vs0mg"},{"bike_id":"f28f6892-6b8e-4bb4-bd97-24bcbf7f6f01","system_id":"levelo_inurba_marseille","lat":43.23194,"lon":5.39971,"is_reserved":false,"is_disabled":false,"rental_uris":{"android":"levelo://app?vid=f28f6892-6b8e-4bb4-bd97-24bcbf7f6f01","ios":"levelo://app?vid=f28f6892-6b8e-4bb4-bd97-24bcbf7f6f01"},"vehicle_type_id":"4","last_reported":1746378457,"current_range_meters":12000,"station_id":"ce4bhn12rcd13ifvqgqg","pricing_plan_id":"cebpf4jnsgd1na2vs0mg"},{"bike_id":"4b521072-a449-41c7-b214-27a4c7b43215","system_id":"levelo_inurba_marseille","lat":43.33145,"lon":5.3817,"is_reserved":false,"is_disabled":false,"rental_uris":{"android":"levelo://app?vid=4b521072-a449-41c7-b214-27a4c7b43215","ios":"levelo://app?vid=4b521072-a449-41c7-b214-27a4c7b43215"},"vehicle_type_id":"4","last_reported":1746378457,"current_range_meters":12000,"station_id":"","pricing_plan_id":"cebpf4jnsgd1na2vs0mg"},{"bike_id":"420a20cf-d116-4dbe-ba51-55466b367314","system_id":"levelo_inurba_marseille","lat":43.298656,"lon":5.384435,"is_reserved":false,"is_disabled":false,"rental_uris":{"android":"levelo://app?vid=420a20cf-d116-4dbe-ba51-55466b367314","ios":"levelo://app?vid=420a20cf-d116-4dbe-ba51-55466b367314"},"vehicle_type_id":"4","last_reported":1746378457,"current_range_meters":12000,"station_id":"","pricing_plan_id":"cebpf4jnsgd1na2vs0mg"},{"bike_id":"4340aa16-ebc9-4ab5-8fb4-dcfc24ce4e52","system_id":"levelo_inurba_marseille","lat":43.28567,"lon":5.39495,"is_reserved":false,"is_disabled":false,"rental_uris":{"android":"levelo://app?vid=4340aa16-ebc9-4ab5-8fb4-dcfc24ce4e52","ios":"levelo://app?vid=4340aa16-ebc9-4ab5-8fb4-dcfc24ce4e52"},"vehicle_type_id":"4","last_reported":1746378457,"current_range_meters":12000,"station_id":"ce4bh292rcd13ifvqdg0","pricing_plan_id":"cebpf4jnsgd1na2vs0mg"},{"bike_id":"f567cb2c-9e13-4b1a-a09c-ae6c609dbb96","system_id":"levelo_inurba_marseille","lat":43.27326,"lon":5.39076,"is_reserved":false,"is_disabled":false,"rental_uris":{"android":"levelo://app?vid=f567cb2c-9e13-4b1a-a09c-ae6c609dbb96","ios":"levelo://app?vid=f567cb2c-9e13-4b1a-a09c-ae6c609dbb96"},"vehicle_type_id":"4","last_reported":1746378457,"current_range_meters":12400,"station_id":"ce4bhgp2rcd13ifvqfe0","pricing_plan_id":"cebpf4jnsgd1na2vs0mg"},{"bike_id":"9660105e-203d-46c1-b482-0f76955c6f0d","system_id":"levelo_inurba_marseille","lat":43.2952,"lon":5.39402,"is_reserved":false,"is_disabled":false,"rental_uris":{"android":"levelo://app?vid=9660105e-203d-46c1-b482-0f76955c6f0d","ios":"levelo://app?vid=9660105e-203d-46c1-b482-0f76955c6f0d"},"vehicle_type_id":"4","last_reported":1746378457,"current_range_meters":12400,"station_id":"ce4bh292rcd13ifvqdf0","pricing_plan_id":"cebpf4jnsgd1na2vs0mg"},{"bike_id":"948634f4-b1fc-4af0-9fd4-ef969991fdcd","system_id":"levelo_inurba_marseille","lat":43.32052,"lon":5.41535,"is_reserved":false,"is_disabled":false,"rental_uris":{"android":"levelo://app?vid=948634f4-b1fc-4af0-9fd4-ef969991fdcd","ios":"levelo://app?vid=948634f4-b1fc-4af0-9fd4-ef969991fdcd"},"vehicle_type_id":"4","last_reported":1746378457,"current_range_meters":12400,"station_id":"ce4bhq92rcd13ifvqhkg","pricing_plan_id":"cebpf4jnsgd1na2vs0mg"},{"bike_id":"f69fb95f-ec80-4dc9-bf72-c4bf2e932ade","system_id":"levelo_inurba_marseille","lat":43.29531,"lon":5.38546,"is_reserved":false,"is_disabled":false,"rental_uris":{"android":"levelo://app?vid=f69fb95f-ec80-4dc9-bf72-c4bf2e932ade","ios":"levelo://app?vid=f69fb95f-ec80-4dc9-bf72-c4bf2e932ade"},"vehicle_type_id":"4","last_reported":1746378457,"current_range_meters":12400,"station_id":"ce4bgih2rcd13ifvqba0","pricing_plan_id":"cebpf4jnsgd1na2vs0mg"},{"bike_id":"36a0d635-957f-4020-b726-af2334279ea5","system_id":"levelo_inurba_marseille","lat":43.288478,"lon":5.358655,"is_reserved":false,"is_disabled":false,"rental_uris":{"android":"levelo://app?vid=36a0d635-957f-4020-b726-af2334279ea5","ios":"levelo://app?vid=36a0d635-957f-4020-b726-af2334279ea5"},"vehicle_type_id":"4","last_reported":1746378457,"current_range_meters":12400,"station_id":"ce4bhb12rcd13ifvqem0","pricing_plan_id":"cebpf4jnsgd1na2vs0mg"},{"bike_id":"e234c9c4-65cf-42bc-b2d9-38acc77199c3","system_id":"levelo_inurba_marseille","lat":43.374,"lon":5.43788,"is_reserved":false,"is_disabled":false,"rental_uris":{"android":"levelo://app?vid=e234c9c4-65cf-42bc-b2d9-38acc77199c3","ios":"levelo://app?vid=e234c9c4-65cf-42bc-b2d9-38acc77199c3"},"vehicle_type_id":"4","last_reported":1746378457,"current_range_meters":12800,"station_id":"","pricing_plan_id":"cebpf4jnsgd1na2vs0mg"},{"bike_id":"61d20fe5-7130-4d3d-bceb-a637547ea361","system_id":"levelo_inurba_marseille","lat":43.281558,"lon":5.426528,"is_reserved":false,"is_disabled":false,"rental_uris":{"android":"levelo://app?vid=61d20fe5-7130-4d3d-bceb-a637547ea361","ios":"levelo://app?vid=61d20fe5-7130-4d3d-bceb-a637547ea361"},"vehicle_type_id":"4","last_reported":1746378457,"current_range_meters":13600,"station_id":"ce4bhnh2rcd13ifvqgug","pricing_plan_id":"cebpf4jnsgd1na2vs0mg"},{"bike_id":"b1e94ec2-c124-4b45-af28-71d37328dcf1","system_id":"levelo_inurba_marseille","lat":43.21759,"lon":5.34606,"is_reserved":false,"is_disabled":false,"rental_uris":{"android":"levelo://app?vid=b1e94ec2-c124-4b45-af28-71d37328dcf1","ios":"levelo://app?vid=b1e94ec2-c124-4b45-af28-71d37328dcf1"},"vehicle_type_id":"4","last_reported":1746378457,"current_range_meters":13600,"station_id":"","pricing_plan_id":"cebpf4jnsgd1na2vs0mg"},{"bike_id":"18e24cf4-4147-44a0-a5d0-34fd8e0259e5","system_id":"levelo_inurba_marseille","lat":43.33719,"lon":5.39183,"is_reserved":false,"is_disabled":false,"rental_uris":{"android":"levelo://app?vid=18e24cf4-4147-44a0-a5d0-34fd8e0259e5","ios":"levelo://app?vid=18e24cf4-4147-44a0-a5d0-34fd8e0259e5"},"vehicle_type_id":"4","last_reported":1746378457,"current_range_meters":12800,"station_id":"ce4bhr92rcd13ifvqhsg","pricing_plan_id":"cebpf4jnsgd1na2vs0mg"},{"bike_id":"70fb2cee-dd33-4dd1-9684-87df1c4c3dae","system_id":"levelo_inurba_marseille","lat":43.29005,"lon":5.35614,"is_reserved":false,"is_disabled":false,"rental_uris":{"android":"levelo://app?vid=70fb2cee-dd33-4dd1-9684-87df1c4c3dae","ios":"levelo://app?vid=70fb2cee-dd33-4dd1-9684-87df1c4c3dae"},"vehicle_type_id":"4","last_reported":1746378457,"current_range_meters":13600,"station_id":"ce4bhb92rcd13ifvqen0","pricing_plan_id":"cebpf4jnsgd1na2vs0mg"},{"bike_id":"c1433ce3-c302-4d9c-89e8-03a0d20c737a","system_id":"levelo_inurba_marseille","lat":43.26952,"lon":5.38671,"is_reserved":false,"is_disabled":true,"rental_uris":{"android":"levelo://app?vid=c1433ce3-c302-4d9c-89e8-03a0d20c737a","ios":"levelo://app?vid=c1433ce3-c302-4d9c-89e8-03a0d20c737a"},"vehicle_type_id":"4","last_reported":1746378457,"current_range_meters":13600,"station_id":"ce4bhh92rcd13ifvqfh0","pricing_plan_id":"cebpf4jnsgd1na2vs0mg"},{"bike_id":"e84eee43-7ebe-4b56-a08b-27d6e58561fd","system_id":"levelo_inurba_marseille","lat":43.241769,"lon":5.397248,"is_reserved":false,"is_disabled":false,"rental_uris":{"android":"levelo://app?vid=e84eee43-7ebe-4b56-a08b-27d6e58561fd","ios":"levelo://app?vid=e84eee43-7ebe-4b56-a08b-27d6e58561fd"},"vehicle_type_id":"4","last_reported":1746378457,"current_range_meters":13600,"station_id":"ce4bhn12rcd13ifvqgpg","pricing_plan_id":"cebpf4jnsgd1na2vs0mg"},{"bike_id":"610f5703-5c7a-4e92-bb0e-da46bb15c29e","system_id":"levelo_inurba_marseille","lat":43.30731,"lon":5.42446,"is_reserved":false,"is_disabled":false,"rental_uris":{"android":"levelo://app?vid=610f5703-5c7a-4e92-bb0e-da46bb15c29e","ios":"levelo://app?vid=610f5703-5c7a-4e92-bb0e-da46bb15c29e"},"vehicle_type_id":"4","last_reported":1746378457,"current_range_meters":14000,"station_id":"st_cvj6ca6bvosntc0bfgr0","pricing_plan_id":"cebpf4jnsgd1na2vs0mg"},{"bike_id":"fdef9e55-be0f-41e0-8526-8e8fa7260880","system_id":"levelo_inurba_marseille","lat":43.31295,"lon":5.37393,"is_reserved":false,"is_disabled":false,"rental_uris":{"android":"levelo://app?vid=fdef9e55-be0f-41e0-8526-8e8fa7260880","ios":"levelo://app?vid=fdef9e55-be0f-41e0-8526-8e8fa7260880"},"vehicle_type_id":"4","last_reported":1746378457,"current_range_meters":14000,"station_id":"","pricing_plan_id":"cebpf4jnsgd1na2vs0mg"},{"bike_id":"0f9be5d8-7184-4445-afd4-8aa0fb29b202","system_id":"levelo_inurba_marseille","lat":43.28717,"lon":5.37939,"is_reserved":false,"is_disabled":false,"rental_uris":{"android":"levelo://app?vid=0f9be5d8-7184-4445-afd4-8aa0fb29b202","ios":"levelo://app?vid=0f9be5d8-7184-4445-afd4-8aa0fb29b202"},"vehicle_type_id":"4","last_reported":1746378457,"current_range_meters":14000,"station_id":"ce4bh9p2rcd13ifvqec0","pricing_plan_id":"cebpf4jnsgd1na2vs0mg"},{"bike_id":"9ebef22b-5dc5-41f4-b80e-25f01b74505b","system_id":"levelo_inurba_marseille","lat":43.303748,"lon":5.424821,"is_reserved":false,"is_disabled":false,"rental_uris":{"android":"levelo://app?vid=9ebef22b-5dc5-41f4-b80e-25f01b74505b","ios":"levelo://app?vid=9ebef22b-5dc5-41f4-b80e-25f01b74505b"},"vehicle_type_id":"4","last_reported":1746378457,"current_range_meters":14000,"station_id":"ce4bhoh2rcd13ifvqh6g","pricing_plan_id":"cebpf4jnsgd1na2vs0mg"},{"bike_id":"43f220ab-0408-46b3-abe5-60437ce3bc1e","system_id":"levelo_inurba_marseille","lat":43.231875,"lon":5.35561,"is_reserved":false,"is_disabled":false,"rental_uris":{"android":"levelo://app?vid=43f220ab-0408-46b3-abe5-60437ce3bc1e","ios":"levelo://app?vid=43f220ab-0408-46b3-abe5-60437ce3bc1e"},"vehicle_type_id":"4","last_reported":1746378457,"current_range_meters":14400,"station_id":"ce4bhu92rcd13ifvqi70","pricing_plan_id":"cebpf4jnsgd1na2vs0mg"},{"bike_id":"6fa37660-dd23-4a8f-8ac3-f6c97ec4896d","system_id":"levelo_inurba_marseille","lat":43.26808,"lon":5.40266,"is_reserved":false,"is_disabled":false,"rental_uris":{"android":"levelo://app?vid=6fa37660-dd23-4a8f-8ac3-f6c97ec4896d","ios":"levelo://app?vid=6fa37660-dd23-4a8f-8ac3-f6c97ec4896d"},"vehicle_type_id":"4","last_reported":1746378457,"current_range_meters":14400,"station_id":"ce501612rcd8frsf0b60","pricing_plan_id":"cebpf4jnsgd1na2vs0mg"},{"bike_id":"6dbabc9b-c067-4464-8dbc-ab61e9340353","system_id":"levelo_inurba_marseille","lat":43.29095,"lon":5.38126,"is_reserved":false,"is_disabled":false,"rental_uris":{"android":"levelo://app?vid=6dbabc9b-c067-4464-8dbc-ab61e9340353","ios":"levelo://app?vid=6dbabc9b-c067-4464-8dbc-ab61e9340353"},"vehicle_type_id":"4","last_reported":1746378457,"current_range_meters":14800,"station_id":"ce4bh512rcd13ifvqe2g","pricing_plan_id":"cebpf4jnsgd1na2vs0mg"},{"bike_id":"a04911cb-4073-47a4-aa98-ccdcd8120f19","system_id":"levelo_inurba_marseille","lat":43.29565,"lon":5.39971,"is_reserved":false,"is_disabled":false,"rental_uris":{"android":"levelo://app?vid=a04911cb-4073-47a4-aa98-ccdcd8120f19","ios":"levelo://app?vid=a04911cb-4073-47a4-aa98-ccdcd8120f19"},"vehicle_type_id":"4","last_reported":1746378457,"current_range_meters":15200,"station_id":"ce4bh312rcd13ifvqdj0","pricing_plan_id":"cebpf4jnsgd1na2vs0mg"},{"bike_id":"acf99cd8-0e68-44cb-9a04-24c745dd0f2f","system_id":"levelo_inurba_marseille","lat":43.23961,"lon":5.3663,"is_reserved":false,"is_disabled":false,"rental_uris":{"android":"levelo://app?vid=acf99cd8-0e68-44cb-9a04-24c745dd0f2f","ios":"levelo://app?vid=acf99cd8-0e68-44cb-9a04-24c745dd0f2f"},"vehicle_type_id":"4","last_reported":1746378457,"current_range_meters":15200,"station_id":"ce4bhi12rcd13ifvqfp0","pricing_plan_id":"cebpf4jnsgd1na2vs0mg"},{"bike_id":"2f06ceb5-65b5-40de-8562-354cacff73b6","system_id":"levelo_inurba_marseille","lat":43.27673,"lon":5.38883,"is_reserved":false,"is_disabled":false,"rental_uris":{"android":"levelo://app?vid=2f06ceb5-65b5-40de-8562-354cacff73b6","ios":"levelo://app?vid=2f06ceb5-65b5-40de-8562-354cacff73b6"},"vehicle_type_id":"4","last_reported":1746378457,"current_range_meters":14800,"station_id":"","pricing_plan_id":"cebpf4jnsgd1na2vs0mg"},{"bike_id":"68460419-620e-49ae-bf13-6d9b1bcea99e","system_id":"levelo_inurba_marseille","lat":43.25111,"lon":5.40341,"is_reserved":false,"is_disabled":false,"rental_uris":{"android":"levelo://app?vid=68460419-620e-49ae-bf13-6d9b1bcea99e","ios":"levelo://app?vid=68460419-620e-49ae-bf13-6d9b1bcea99e"},"vehicle_type_id":"4","last_reported":1746378457,"current_range_meters":15200,"station_id":"ce4bhlh2rcd13ifvqgig","pricing_plan_id":"cebpf4jnsgd1na2vs0mg"},{"bike_id":"37826a93-0070-40b2-b6d8-d576f9b75352","system_id":"levelo_inurba_marseille","lat":43.24654,"lon":5.38162,"is_reserved":false,"is_disabled":false,"rental_uris":{"android":"levelo://app?vid=37826a93-0070-40b2-b6d8-d576f9b75352","ios":"levelo://app?vid=37826a93-0070-40b2-b6d8-d576f9b75352"},"vehicle_type_id":"4","last_reported":1746378457,"current_range_meters":15200,"station_id":"ce4bhih2rcd13ifvqfr0","pricing_plan_id":"cebpf4jnsgd1na2vs0mg"},{"bike_id":"49d8add2-5c70-4f3c-bf7b-580eb7deaba5","system_id":"levelo_inurba_marseille","lat":43.254852,"lon":5.37647,"is_reserved":false,"is_disabled":false,"rental_uris":{"android":"levelo://app?vid=49d8add2-5c70-4f3c-bf7b-580eb7deaba5","ios":"levelo://app?vid=49d8add2-5c70-4f3c-bf7b-580eb7deaba5"},"vehicle_type_id":"4","last_reported":1746378457,"current_range_meters":16000,"station_id":"ce4bhh12rcd13ifvqff0","pricing_plan_id":"cebpf4jnsgd1na2vs0mg"},{"bike_id":"578732df-51ae-47a2-8d9a-a3a489ba150f","system_id":"levelo_inurba_marseille","lat":43.29548,"lon":5.42277,"is_reserved":false,"is_disabled":true,"rental_uris":{"android":"levelo://app?vid=578732df-51ae-47a2-8d9a-a3a489ba150f","ios":"levelo://app?vid=578732df-51ae-47a2-8d9a-a3a489ba150f"},"vehicle_type_id":"4","last_reported":1746378457,"current_range_meters":16000,"station_id":"ce4bhph2rcd13ifvqhdg","pricing_plan_id":"cebpf4jnsgd1na2vs0mg"},{"bike_id":"6541fd63-6c6b-4f6b-b5ad-83b6829727f2","system_id":"levelo_inurba_marseille","lat":43.27495,"lon":5.42445,"is_reserved":false,"is_disabled":false,"rental_uris":{"android":"levelo://app?vid=6541fd63-6c6b-4f6b-b5ad-83b6829727f2","ios":"levelo://app?vid=6541fd63-6c6b-4f6b-b5ad-83b6829727f2"},"vehicle_type_id":"4","last_reported":1746378457,"current_range_meters":16000,"station_id":"ce4bhn92rcd13ifvqgrg","pricing_plan_id":"cebpf4jnsgd1na2vs0mg"},{"bike_id":"c934a038-999c-4097-b244-e68883d621e3","system_id":"levelo_inurba_marseille","lat":43.30566,"lon":5.3658,"is_reserved":false,"is_disabled":true,"rental_uris":{"android":"levelo://app?vid=c934a038-999c-4097-b244-e68883d621e3","ios":"levelo://app?vid=c934a038-999c-4097-b244-e68883d621e3"},"vehicle_type_id":"4","last_reported":1746378457,"current_range_meters":16000,"station_id":"ce4bgs12rcd13ifvqcag","pricing_plan_id":"cebpf4jnsgd1na2vs0mg"},{"bike_id":"8ab46f99-9644-474c-9745-b78357bd9ec9","system_id":"levelo_inurba_marseille","lat":43.374063,"lon":5.437897,"is_reserved":false,"is_disabled":false,"rental_uris":{"android":"levelo://app?vid=8ab46f99-9644-474c-9745-b78357bd9ec9","ios":"levelo://app?vid=8ab46f99-9644-474c-9745-b78357bd9ec9"},"vehicle_type_id":"4","last_reported":1746378457,"current_range_meters":16000,"station_id":"","pricing_plan_id":"cebpf4jnsgd1na2vs0mg"},{"bike_id":"b092d7bd-9c2c-4d9a-9410-43099902541b","system_id":"levelo_inurba_marseille","lat":43.29222,"lon":5.360403,"is_reserved":false,"is_disabled":false,"rental_uris":{"android":"levelo://app?vid=b092d7bd-9c2c-4d9a-9410-43099902541b","ios":"levelo://app?vid=b092d7bd-9c2c-4d9a-9410-43099902541b"},"vehicle_type_id":"4","last_reported":1746378457,"current_range_meters":16000,"station_id":"ce4bhbh2rcd13ifvqeqg","pricing_plan_id":"cebpf4jnsgd1na2vs0mg"},{"bike_id":"fb80c1da-d845-467b-9c3b-2f591f4d56ae","system_id":"levelo_inurba_marseille","lat":43.323406,"lon":5.37422,"is_reserved":false,"is_disabled":false,"rental_uris":{"android":"levelo://app?vid=fb80c1da-d845-467b-9c3b-2f591f4d56ae","ios":"levelo://app?vid=fb80c1da-d845-467b-9c3b-2f591f4d56ae"},"vehicle_type_id":"4","last_reported":1746378457,"current_range_meters":16400,"station_id":"","pricing_plan_id":"cebpf4jnsgd1na2vs0mg"},{"bike_id":"730d1539-9fc2-42cf-8af3-f40590be9b9b","system_id":"levelo_inurba_marseille","lat":43.29418,"lon":5.38631,"is_reserved":false,"is_disabled":false,"rental_uris":{"android":"levelo://app?vid=730d1539-9fc2-42cf-8af3-f40590be9b9b","ios":"levelo://app?vid=730d1539-9fc2-42cf-8af3-f40590be9b9b"},"vehicle_type_id":"4","last_reported":1746378457,"current_range_meters":16400,"station_id":"ce4bh2h2rcd13ifvqdh0","pricing_plan_id":"cebpf4jnsgd1na2vs0mg"},{"bike_id":"de9c0285-a64a-4ed0-b45e-6c8124d90c0d","system_id":"levelo_inurba_marseille","lat":43.28943,"lon":5.36395,"is_reserved":false,"is_disabled":false,"rental_uris":{"android":"levelo://app?vid=de9c0285-a64a-4ed0-b45e-6c8124d90c0d","ios":"levelo://app?vid=de9c0285-a64a-4ed0-b45e-6c8124d90c0d"},"vehicle_type_id":"4","last_reported":1746378457,"current_range_meters":16400,"station_id":"ce4bhc92rcd13ifvqetg","pricing_plan_id":"cebpf4jnsgd1na2vs0mg"},{"bike_id":"cb0a7ff5-b4ff-4d3e-8306-c149ade4bdfb","system_id":"levelo_inurba_marseille","lat":43.27199,"lon":5.39188,"is_reserved":false,"is_disabled":true,"rental_uris":{"android":"levelo://app?vid=cb0a7ff5-b4ff-4d3e-8306-c149ade4bdfb","ios":"levelo://app?vid=cb0a7ff5-b4ff-4d3e-8306-c149ade4bdfb"},"vehicle_type_id":"4","last_reported":1746378457,"current_range_meters":16800,"station_id":"ce4bhhp2rcd13ifvqfm0","pricing_plan_id":"cebpf4jnsgd1na2vs0mg"},{"bike_id":"0a0ece37-539d-4aa3-b235-deb8a4daf593","system_id":"levelo_inurba_marseille","lat":43.33064,"lon":5.40819,"is_reserved":false,"is_disabled":false,"rental_uris":{"android":"levelo://app?vid=0a0ece37-539d-4aa3-b235-deb8a4daf593","ios":"levelo://app?vid=0a0ece37-539d-4aa3-b235-deb8a4daf593"},"vehicle_type_id":"4","last_reported":1746378457,"current_range_meters":16800,"station_id":"","pricing_plan_id":"cebpf4jnsgd1na2vs0mg"},{"bike_id":"c9851081-b1ab-47b9-ad70-852b658e05b4","system_id":"levelo_inurba_marseille","lat":43.29889,"lon":5.38895,"is_reserved":false,"is_disabled":false,"rental_uris":{"android":"levelo://app?vid=c9851081-b1ab-47b9-ad70-852b658e05b4","ios":"levelo://app?vid=c9851081-b1ab-47b9-ad70-852b658e05b4"},"vehicle_type_id":"4","last_reported":1746378457,"current_range_meters":16800,"station_id":"ce4bh392rcd13ifvqdl0","pricing_plan_id":"cebpf4jnsgd1na2vs0mg"},{"bike_id":"8536704e-961e-4868-ad07-81df77fc76eb","system_id":"levelo_inurba_marseille","lat":43.290058,"lon":5.356146,"is_reserved":false,"is_disabled":true,"rental_uris":{"android":"levelo://app?vid=8536704e-961e-4868-ad07-81df77fc76eb","ios":"levelo://app?vid=8536704e-961e-4868-ad07-81df77fc76eb"},"vehicle_type_id":"4","last_reported":1746378457,"current_range_meters":17200,"station_id":"ce4bhb92rcd13ifvqen0","pricing_plan_id":"cebpf4jnsgd1na2vs0mg"},{"bike_id":"a89366d2-7046-4afc-9478-9afd2d48511c","system_id":"levelo_inurba_marseille","lat":43.26788,"lon":5.39429,"is_reserved":false,"is_disabled":false,"rental_uris":{"android":"levelo://app?vid=a89366d2-7046-4afc-9478-9afd2d48511c","ios":"levelo://app?vid=a89366d2-7046-4afc-9478-9afd2d48511c"},"vehicle_type_id":"4","last_reported":1746378457,"current_range_meters":17200,"station_id":"ce4bhh12rcd13ifvqfg0","pricing_plan_id":"cebpf4jnsgd1na2vs0mg"},{"bike_id":"1885e4e4-787e-4399-a182-13afb5671e8f","system_id":"levelo_inurba_marseille","lat":43.3175,"lon":5.3903,"is_reserved":false,"is_disabled":false,"rental_uris":{"android":"levelo://app?vid=1885e4e4-787e-4399-a182-13afb5671e8f","ios":"levelo://app?vid=1885e4e4-787e-4399-a182-13afb5671e8f"},"vehicle_type_id":"4","last_reported":1746378457,"current_range_meters":17200,"station_id":"ce4bhqp2rcd13ifvqhng","pricing_plan_id":"cebpf4jnsgd1na2vs0mg"},{"bike_id":"086126b2-412a-4875-9dbb-85dc061d4895","system_id":"levelo_inurba_marseille","lat":43.3121,"lon":5.368353,"is_reserved":false,"is_disabled":false,"rental_uris":{"android":"levelo://app?vid=086126b2-412a-4875-9dbb-85dc061d4895","ios":"levelo://app?vid=086126b2-412a-4875-9dbb-85dc061d4895"},"vehicle_type_id":"4","last_reported":1746378457,"current_range_meters":17200,"station_id":"ce4bgl92rcd13ifvqbq0","pricing_plan_id":"cebpf4jnsgd1na2vs0mg"},{"bike_id":"b3cbb21e-793f-478c-9965-8205d52774c6","system_id":"levelo_inurba_marseille","lat":43.307374,"lon":5.424284,"is_reserved":false,"is_disabled":false,"rental_uris":{"android":"levelo://app?vid=b3cbb21e-793f-478c-9965-8205d52774c6","ios":"levelo://app?vid=b3cbb21e-793f-478c-9965-8205d52774c6"},"vehicle_type_id":"4","last_reported":1746378457,"current_range_meters":17200,"station_id":"st_cvj6ca6bvosntc0bfgr0","pricing_plan_id":"cebpf4jnsgd1na2vs0mg"},{"bike_id":"7be3c6b8-3e84-48d7-bfbb-761175a0c4c2","system_id":"levelo_inurba_marseille","lat":43.30148,"lon":5.38088,"is_reserved":false,"is_disabled":false,"rental_uris":{"android":"levelo://app?vid=7be3c6b8-3e84-48d7-bfbb-761175a0c4c2","ios":"levelo://app?vid=7be3c6b8-3e84-48d7-bfbb-761175a0c4c2"},"vehicle_type_id":"4","last_reported":1746378457,"current_range_meters":17600,"station_id":"","pricing_plan_id":"cebpf4jnsgd1na2vs0mg"},{"bike_id":"34c6044e-91ae-4d8e-8e3d-094193d0a3f9","system_id":"levelo_inurba_marseille","lat":43.29263,"lon":5.38434,"is_reserved":false,"is_disabled":false,"rental_uris":{"android":"levelo://app?vid=34c6044e-91ae-4d8e-8e3d-094193d0a3f9","ios":"levelo://app?vid=34c6044e-91ae-4d8e-8e3d-094193d0a3f9"},"vehicle_type_id":"4","last_reported":1746378457,"current_range_meters":17600,"station_id":"ce4bh692rcd13ifvqea0","pricing_plan_id":"cebpf4jnsgd1na2vs0mg"},{"bike_id":"ee7808cd-e5d8-4c0f-84da-a246b52087ee","system_id":"levelo_inurba_marseille","lat":43.28084,"lon":5.3966,"is_reserved":false,"is_disabled":false,"rental_uris":{"android":"levelo://app?vid=ee7808cd-e5d8-4c0f-84da-a246b52087ee","ios":"levelo://app?vid=ee7808cd-e5d8-4c0f-84da-a246b52087ee"},"vehicle_type_id":"4","last_reported":1746378457,"current_range_meters":17600,"station_id":"ce4bho12rcd13ifvqh2g","pricing_plan_id":"cebpf4jnsgd1na2vs0mg"},{"bike_id":"f662e7cd-b4d2-4ab5-9419-ae14f3c0e84b","system_id":"levelo_inurba_marseille","lat":43.29267,"lon":5.37625,"is_reserved":false,"is_disabled":false,"rental_uris":{"android":"levelo://app?vid=f662e7cd-b4d2-4ab5-9419-ae14f3c0e84b","ios":"levelo://app?vid=f662e7cd-b4d2-4ab5-9419-ae14f3c0e84b"},"vehicle_type_id":"4","last_reported":1746378457,"current_range_meters":17600,"station_id":"ce4bgi12rcd13ifvqb80","pricing_plan_id":"cebpf4jnsgd1na2vs0mg"},{"bike_id":"89c1c22e-4deb-4a12-b25d-9d0f09a1f79b","system_id":"levelo_inurba_marseille","lat":43.217664,"lon":5.346067,"is_reserved":false,"is_disabled":false,"rental_uris":{"android":"levelo://app?vid=89c1c22e-4deb-4a12-b25d-9d0f09a1f79b","ios":"levelo://app?vid=89c1c22e-4deb-4a12-b25d-9d0f09a1f79b"},"vehicle_type_id":"4","last_reported":1746378457,"current_range_meters":17600,"station_id":"st_cvj6r9ubvosntc0bgbag","pricing_plan_id":"cebpf4jnsgd1na2vs0mg"},{"bike_id":"3ff1331f-d2b9-4db6-9af0-17b5a04341a5","system_id":"levelo_inurba_marseille","lat":43.24334,"lon":5.38001,"is_reserved":false,"is_disabled":false,"rental_uris":{"android":"levelo://app?vid=3ff1331f-d2b9-4db6-9af0-17b5a04341a5","ios":"levelo://app?vid=3ff1331f-d2b9-4db6-9af0-17b5a04341a5"},"vehicle_type_id":"4","last_reported":1746378457,"current_range_meters":17600,"station_id":"","pricing_plan_id":"cebpf4jnsgd1na2vs0mg"},{"bike_id":"d252a272-7b85-44ee-b117-a17b072d1a91","system_id":"levelo_inurba_marseille","lat":43.21767,"lon":5.34627,"is_reserved":false,"is_disabled":false,"rental_uris":{"android":"levelo://app?vid=d252a272-7b85-44ee-b117-a17b072d1a91","ios":"levelo://app?vid=d252a272-7b85-44ee-b117-a17b072d1a91"},"vehicle_type_id":"4","last_reported":1746378457,"current_range_meters":17600,"station_id":"st_cvj6r9ubvosntc0bgbag","pricing_plan_id":"cebpf4jnsgd1na2vs0mg"},{"bike_id":"12e8f0e2-48a3-4865-bb8c-a620f19384c3","system_id":"levelo_inurba_marseille","lat":43.29003,"lon":5.35617,"is_reserved":false,"is_disabled":true,"rental_uris":{"android":"levelo://app?vid=12e8f0e2-48a3-4865-bb8c-a620f19384c3","ios":"levelo://app?vid=12e8f0e2-48a3-4865-bb8c-a620f19384c3"},"vehicle_type_id":"4","last_reported":1746378457,"current_range_meters":17600,"station_id":"ce4bhb92rcd13ifvqen0","pricing_plan_id":"cebpf4jnsgd1na2vs0mg"},{"bike_id":"e1caca9d-dcd0-439f-8778-9e2fc4eea948","system_id":"levelo_inurba_marseille","lat":43.31484,"lon":5.37309,"is_reserved":false,"is_disabled":false,"rental_uris":{"android":"levelo://app?vid=e1caca9d-dcd0-439f-8778-9e2fc4eea948","ios":"levelo://app?vid=e1caca9d-dcd0-439f-8778-9e2fc4eea948"},"vehicle_type_id":"4","last_reported":1746378457,"current_range_meters":17600,"station_id":"ce4bgt12rcd13ifvqcd0","pricing_plan_id":"cebpf4jnsgd1na2vs0mg"},{"bike_id":"fe9dd916-194e-45d5-988a-cedb56aedf29","system_id":"levelo_inurba_marseille","lat":43.29555,"lon":5.42291,"is_reserved":false,"is_disabled":false,"rental_uris":{"android":"levelo://app?vid=fe9dd916-194e-45d5-988a-cedb56aedf29","ios":"levelo://app?vid=fe9dd916-194e-45d5-988a-cedb56aedf29"},"vehicle_type_id":"4","last_reported":1746378457,"current_range_meters":18000,"station_id":"ce4bhph2rcd13ifvqhdg","pricing_plan_id":"cebpf4jnsgd1na2vs0mg"},{"bike_id":"7ad04c1b-fc26-4c94-a72f-89c6e3ca5c32","system_id":"levelo_inurba_marseille","lat":43.312,"lon":5.40774,"is_reserved":false,"is_disabled":false,"rental_uris":{"android":"levelo://app?vid=7ad04c1b-fc26-4c94-a72f-89c6e3ca5c32","ios":"levelo://app?vid=7ad04c1b-fc26-4c94-a72f-89c6e3ca5c32"},"vehicle_type_id":"4","last_reported":1746378457,"current_range_meters":18000,"station_id":"","pricing_plan_id":"cebpf4jnsgd1na2vs0mg"},{"bike_id":"a7393548-1ca4-426f-bec8-e094325f844e","system_id":"levelo_inurba_marseille","lat":43.26322,"lon":5.37464,"is_reserved":false,"is_disabled":false,"rental_uris":{"android":"levelo://app?vid=a7393548-1ca4-426f-bec8-e094325f844e","ios":"levelo://app?vid=a7393548-1ca4-426f-bec8-e094325f844e"},"vehicle_type_id":"4","last_reported":1746378457,"current_range_meters":18000,"station_id":"","pricing_plan_id":"cebpf4jnsgd1na2vs0mg"},{"bike_id":"cb72441a-1a4f-409b-9a73-defd379406ed","system_id":"levelo_inurba_marseille","lat":43.28461,"lon":5.35894,"is_reserved":false,"is_disabled":false,"rental_uris":{"android":"levelo://app?vid=cb72441a-1a4f-409b-9a73-defd379406ed","ios":"levelo://app?vid=cb72441a-1a4f-409b-9a73-defd379406ed"},"vehicle_type_id":"4","last_reported":1746378457,"current_range_meters":18000,"station_id":"ce4bhah2rcd13ifvqei0","pricing_plan_id":"cebpf4jnsgd1na2vs0mg"},{"bike_id":"8e69649f-d5a0-4ead-b212-c5b5612beda7","system_id":"levelo_inurba_marseille","lat":43.25514,"lon":5.37646,"is_reserved":false,"is_disabled":true,"rental_uris":{"android":"levelo://app?vid=8e69649f-d5a0-4ead-b212-c5b5612beda7","ios":"levelo://app?vid=8e69649f-d5a0-4ead-b212-c5b5612beda7"},"vehicle_type_id":"4","last_reported":1746378457,"current_range_meters":18000,"station_id":"ce4bhh12rcd13ifvqff0","pricing_plan_id":"cebpf4jnsgd1na2vs0mg"},{"bike_id":"535ee082-9d33-499e-8261-6457c414b326","system_id":"levelo_inurba_marseille","lat":43.27969,"lon":5.3875,"is_reserved":false,"is_disabled":false,"rental_uris":{"android":"levelo://app?vid=535ee082-9d33-499e-8261-6457c414b326","ios":"levelo://app?vid=535ee082-9d33-499e-8261-6457c414b326"},"vehicle_type_id":"4","last_reported":1746378457,"current_range_meters":18800,"station_id":"ce4bhg12rcd13ifvqf80","pricing_plan_id":"cebpf4jnsgd1na2vs0mg"},{"bike_id":"f589fc42-057a-43b9-81ad-55c2a575aecf","system_id":"levelo_inurba_marseille","lat":43.31055,"lon":5.38331,"is_reserved":false,"is_disabled":true,"rental_uris":{"android":"levelo://app?vid=f589fc42-057a-43b9-81ad-55c2a575aecf","ios":"levelo://app?vid=f589fc42-057a-43b9-81ad-55c2a575aecf"},"vehicle_type_id":"4","last_reported":1746378457,"current_range_meters":18800,"station_id":"ce4bgv92rcd13ifvqcr0","pricing_plan_id":"cebpf4jnsgd1na2vs0mg"},{"bike_id":"a8a5d03d-9153-4179-835f-415d347401e8","system_id":"levelo_inurba_marseille","lat":43.295474,"lon":5.422797,"is_reserved":false,"is_disabled":false,"rental_uris":{"android":"levelo://app?vid=a8a5d03d-9153-4179-835f-415d347401e8","ios":"levelo://app?vid=a8a5d03d-9153-4179-835f-415d347401e8"},"vehicle_type_id":"4","last_reported":1746378457,"current_range_meters":18800,"station_id":"ce4bhph2rcd13ifvqhdg","pricing_plan_id":"cebpf4jnsgd1na2vs0mg"},{"bike_id":"df0a39bb-0ba0-4627-b3da-fb7524933bad","system_id":"levelo_inurba_marseille","lat":43.28419,"lon":5.34994,"is_reserved":false,"is_disabled":false,"rental_uris":{"android":"levelo://app?vid=df0a39bb-0ba0-4627-b3da-fb7524933bad","ios":"levelo://app?vid=df0a39bb-0ba0-4627-b3da-fb7524933bad"},"vehicle_type_id":"4","last_reported":1746378457,"current_range_meters":18800,"station_id":"ce4bhbh2rcd13ifvqepg","pricing_plan_id":"cebpf4jnsgd1na2vs0mg"},{"bike_id":"166fe2b4-28a7-4e2e-98ce-b8f905031e2a","system_id":"levelo_inurba_marseille","lat":43.25143,"lon":5.40318,"is_reserved":false,"is_disabled":false,"rental_uris":{"android":"levelo://app?vid=166fe2b4-28a7-4e2e-98ce-b8f905031e2a","ios":"levelo://app?vid=166fe2b4-28a7-4e2e-98ce-b8f905031e2a"},"vehicle_type_id":"4","last_reported":1746378457,"current_range_meters":18800,"station_id":"ce4bhlh2rcd13ifvqgig","pricing_plan_id":"cebpf4jnsgd1na2vs0mg"},{"bike_id":"bbba4a42-41f1-4d4c-a0ec-15062e1d6496","system_id":"levelo_inurba_marseille","lat":43.30808,"lon":5.43532,"is_reserved":false,"is_disabled":false,"rental_uris":{"android":"levelo://app?vid=bbba4a42-41f1-4d4c-a0ec-15062e1d6496","ios":"levelo://app?vid=bbba4a42-41f1-4d4c-a0ec-15062e1d6496"},"vehicle_type_id":"4","last_reported":1746378457,"current_range_meters":19200,"station_id":"ce4bhph2rcd13ifvqheg","pricing_plan_id":"cebpf4jnsgd1na2vs0mg"},{"bike_id":"574f9534-6b0b-43b3-a942-c6870095631b","system_id":"levelo_inurba_marseille","lat":43.28622,"lon":5.37077,"is_reserved":false,"is_disabled":true,"rental_uris":{"android":"levelo://app?vid=574f9534-6b0b-43b3-a942-c6870095631b","ios":"levelo://app?vid=574f9534-6b0b-43b3-a942-c6870095631b"},"vehicle_type_id":"4","last_reported":1746378457,"current_range_meters":19200,"station_id":"","pricing_plan_id":"cebpf4jnsgd1na2vs0mg"},{"bike_id":"db0e0ddb-0230-4f44-ba3e-6dcb98b952cd","system_id":"levelo_inurba_marseille","lat":43.231943,"lon":5.355576,"is_reserved":false,"is_disabled":true,"rental_uris":{"android":"levelo://app?vid=db0e0ddb-0230-4f44-ba3e-6dcb98b952cd","ios":"levelo://app?vid=db0e0ddb-0230-4f44-ba3e-6dcb98b952cd"},"vehicle_type_id":"4","last_reported":1746378457,"current_range_meters":19200,"station_id":"ce4bhu92rcd13ifvqi70","pricing_plan_id":"cebpf4jnsgd1na2vs0mg"},{"bike_id":"ef7522cc-8014-40bc-9598-b978ef8d62ed","system_id":"levelo_inurba_marseille","lat":43.30251,"lon":5.40054,"is_reserved":false,"is_disabled":true,"rental_uris":{"android":"levelo://app?vid=ef7522cc-8014-40bc-9598-b978ef8d62ed","ios":"levelo://app?vid=ef7522cc-8014-40bc-9598-b978ef8d62ed"},"vehicle_type_id":"4","last_reported":1746378457,"current_range_meters":19200,"station_id":"ce4bgvh2rcd13ifvqcs0","pricing_plan_id":"cebpf4jnsgd1na2vs0mg"},{"bike_id":"7367ce89-d7ca-4834-b713-9e6a4d9dad10","system_id":"levelo_inurba_marseille","lat":43.2993,"lon":5.43543,"is_reserved":false,"is_disabled":false,"rental_uris":{"android":"levelo://app?vid=7367ce89-d7ca-4834-b713-9e6a4d9dad10","ios":"levelo://app?vid=7367ce89-d7ca-4834-b713-9e6a4d9dad10"},"vehicle_type_id":"4","last_reported":1746378457,"current_range_meters":19200,"station_id":"","pricing_plan_id":"cebpf4jnsgd1na2vs0mg"},{"bike_id":"93c58281-487e-4bdd-adfc-5239f02e9399","system_id":"levelo_inurba_marseille","lat":43.28705,"lon":5.39993,"is_reserved":false,"is_disabled":false,"rental_uris":{"android":"levelo://app?vid=93c58281-487e-4bdd-adfc-5239f02e9399","ios":"levelo://app?vid=93c58281-487e-4bdd-adfc-5239f02e9399"},"vehicle_type_id":"4","last_reported":1746378457,"current_range_meters":19200,"station_id":"ce4bho92rcd13ifvqh3g","pricing_plan_id":"cebpf4jnsgd1na2vs0mg"},{"bike_id":"5a566878-9c0c-4341-873f-c9dd3e9f33d7","system_id":"levelo_inurba_marseille","lat":43.25091,"lon":5.39514,"is_reserved":false,"is_disabled":false,"rental_uris":{"android":"levelo://app?vid=5a566878-9c0c-4341-873f-c9dd3e9f33d7","ios":"levelo://app?vid=5a566878-9c0c-4341-873f-c9dd3e9f33d7"},"vehicle_type_id":"4","last_reported":1746378457,"current_range_meters":19200,"station_id":"ce4bhm12rcd13ifvqgkg","pricing_plan_id":"cebpf4jnsgd1na2vs0mg"},{"bike_id":"f1357755-9168-4928-b878-51f2e3bb6c94","system_id":"levelo_inurba_marseille","lat":43.29792,"lon":5.38106,"is_reserved":false,"is_disabled":false,"rental_uris":{"android":"levelo://app?vid=f1357755-9168-4928-b878-51f2e3bb6c94","ios":"levelo://app?vid=f1357755-9168-4928-b878-51f2e3bb6c94"},"vehicle_type_id":"4","last_reported":1746378457,"current_range_meters":19200,"station_id":"ce4bgip2rcd13ifvqbb0","pricing_plan_id":"cebpf4jnsgd1na2vs0mg"},{"bike_id":"891a748b-bb8a-41ba-acea-b9e8a952878f","system_id":"levelo_inurba_marseille","lat":43.28422,"lon":5.37543,"is_reserved":false,"is_disabled":true,"rental_uris":{"android":"levelo://app?vid=891a748b-bb8a-41ba-acea-b9e8a952878f","ios":"levelo://app?vid=891a748b-bb8a-41ba-acea-b9e8a952878f"},"vehicle_type_id":"4","last_reported":1746378457,"current_range_meters":19200,"station_id":"ce4bh412rcd13ifvqds0","pricing_plan_id":"cebpf4jnsgd1na2vs0mg"},{"bike_id":"3bf96f6c-1138-425e-99d5-253ba6181d5e","system_id":"levelo_inurba_marseille","lat":43.30433,"lon":5.3987,"is_reserved":false,"is_disabled":true,"rental_uris":{"android":"levelo://app?vid=3bf96f6c-1138-425e-99d5-253ba6181d5e","ios":"levelo://app?vid=3bf96f6c-1138-425e-99d5-253ba6181d5e"},"vehicle_type_id":"4","last_reported":1746378457,"current_range_meters":19600,"station_id":"","pricing_plan_id":"cebpf4jnsgd1na2vs0mg"},{"bike_id":"9fa4dbac-ad09-473f-8c9f-dc555535dd4a","system_id":"levelo_inurba_marseille","lat":43.31736,"lon":5.37776,"is_reserved":false,"is_disabled":true,"rental_uris":{"android":"levelo://app?vid=9fa4dbac-ad09-473f-8c9f-dc555535dd4a","ios":"levelo://app?vid=9fa4dbac-ad09-473f-8c9f-dc555535dd4a"},"vehicle_type_id":"4","last_reported":1746378457,"current_range_meters":19600,"station_id":"ce4bgth2rcd13ifvqch0","pricing_plan_id":"cebpf4jnsgd1na2vs0mg"},{"bike_id":"1bc89dec-24f6-4cf3-9a07-0634e2bc1366","system_id":"levelo_inurba_marseille","lat":43.23193,"lon":5.4001,"is_reserved":false,"is_disabled":false,"rental_uris":{"android":"levelo://app?vid=1bc89dec-24f6-4cf3-9a07-0634e2bc1366","ios":"levelo://app?vid=1bc89dec-24f6-4cf3-9a07-0634e2bc1366"},"vehicle_type_id":"4","last_reported":1746378457,"current_range_meters":19600,"station_id":"ce4bhn12rcd13ifvqgqg","pricing_plan_id":"cebpf4jnsgd1na2vs0mg"},{"bike_id":"9e174534-0b7f-41f7-9bb7-f68172cda9ce","system_id":"levelo_inurba_marseille","lat":43.21195,"lon":5.35086,"is_reserved":false,"is_disabled":false,"rental_uris":{"android":"levelo://app?vid=9e174534-0b7f-41f7-9bb7-f68172cda9ce","ios":"levelo://app?vid=9e174534-0b7f-41f7-9bb7-f68172cda9ce"},"vehicle_type_id":"4","last_reported":1746378457,"current_range_meters":19600,"station_id":"st_cvj6sg6p6f1abm77japg","pricing_plan_id":"cebpf4jnsgd1na2vs0mg"},{"bike_id":"0a0a6079-47ca-4582-8ee5-7da92c23e6f7","system_id":"levelo_inurba_marseille","lat":43.23203,"lon":5.40022,"is_reserved":false,"is_disabled":false,"rental_uris":{"android":"levelo://app?vid=0a0a6079-47ca-4582-8ee5-7da92c23e6f7","ios":"levelo://app?vid=0a0a6079-47ca-4582-8ee5-7da92c23e6f7"},"vehicle_type_id":"4","last_reported":1746378457,"current_range_meters":19600,"station_id":"ce4bhn12rcd13ifvqgqg","pricing_plan_id":"cebpf4jnsgd1na2vs0mg"},{"bike_id":"f6990bbf-7200-4595-9d3c-805bae17a99e","system_id":"levelo_inurba_marseille","lat":43.22506,"lon":5.34775,"is_reserved":false,"is_disabled":false,"rental_uris":{"android":"levelo://app?vid=f6990bbf-7200-4595-9d3c-805bae17a99e","ios":"levelo://app?vid=f6990bbf-7200-4595-9d3c-805bae17a99e"},"vehicle_type_id":"4","last_reported":1746378457,"current_range_meters":19600,"station_id":"","pricing_plan_id":"cebpf4jnsgd1na2vs0mg"},{"bike_id":"a3eccdb9-63c9-4af7-a546-62ce7eea30d4","system_id":"levelo_inurba_marseille","lat":43.290699,"lon":5.371559,"is_reserved":false,"is_disabled":true,"rental_uris":{"android":"levelo://app?vid=a3eccdb9-63c9-4af7-a546-62ce7eea30d4","ios":"levelo://app?vid=a3eccdb9-63c9-4af7-a546-62ce7eea30d4"},"vehicle_type_id":"4","last_reported":1746378457,"current_range_meters":19600,"station_id":"ce4bh5p2rcd13ifvqe4g","pricing_plan_id":"cebpf4jnsgd1na2vs0mg"},{"bike_id":"be08d0c5-8233-46ce-a16a-10ba0e6ee589","system_id":"levelo_inurba_marseille","lat":43.26986,"lon":5.38659,"is_reserved":false,"is_disabled":true,"rental_uris":{"android":"levelo://app?vid=be08d0c5-8233-46ce-a16a-10ba0e6ee589","ios":"levelo://app?vid=be08d0c5-8233-46ce-a16a-10ba0e6ee589"},"vehicle_type_id":"4","last_reported":1746378457,"current_range_meters":20000,"station_id":"ce4bhh92rcd13ifvqfh0","pricing_plan_id":"cebpf4jnsgd1na2vs0mg"},{"bike_id":"aa118fae-0ad5-4f2b-a4e5-ce9961535274","system_id":"levelo_inurba_marseille","lat":43.29685,"lon":5.37302,"is_reserved":false,"is_disabled":false,"rental_uris":{"android":"levelo://app?vid=aa118fae-0ad5-4f2b-a4e5-ce9961535274","ios":"levelo://app?vid=aa118fae-0ad5-4f2b-a4e5-ce9961535274"},"vehicle_type_id":"4","last_reported":1746378457,"current_range_meters":20000,"station_id":"ce4bgk12rcd13ifvqbj0","pricing_plan_id":"cebpf4jnsgd1na2vs0mg"},{"bike_id":"6252413c-4f12-41b9-ac04-da64f898a32d","system_id":"levelo_inurba_marseille","lat":43.29524,"lon":5.39034,"is_reserved":false,"is_disabled":false,"rental_uris":{"android":"levelo://app?vid=6252413c-4f12-41b9-ac04-da64f898a32d","ios":"levelo://app?vid=6252413c-4f12-41b9-ac04-da64f898a32d"},"vehicle_type_id":"4","last_reported":1746378457,"current_range_meters":20000,"station_id":"ce4bh3p2rcd13ifvqdp0","pricing_plan_id":"cebpf4jnsgd1na2vs0mg"},{"bike_id":"c65a3a89-bf15-49ae-b3c8-f4af0146bd49","system_id":"levelo_inurba_marseille","lat":43.30428,"lon":5.38886,"is_reserved":false,"is_disabled":false,"rental_uris":{"android":"levelo://app?vid=c65a3a89-bf15-49ae-b3c8-f4af0146bd49","ios":"levelo://app?vid=c65a3a89-bf15-49ae-b3c8-f4af0146bd49"},"vehicle_type_id":"4","last_reported":1746378457,"current_range_meters":20000,"station_id":"ce4bgk12rcd13ifvqbi0","pricing_plan_id":"cebpf4jnsgd1na2vs0mg"},{"bike_id":"2dce38cf-a8d4-49cd-9fcf-ef494d90a125","system_id":"levelo_inurba_marseille","lat":43.27133,"lon":5.36369,"is_reserved":false,"is_disabled":false,"rental_uris":{"android":"levelo://app?vid=2dce38cf-a8d4-49cd-9fcf-ef494d90a125","ios":"levelo://app?vid=2dce38cf-a8d4-49cd-9fcf-ef494d90a125"},"vehicle_type_id":"4","last_reported":1746378457,"current_range_meters":20400,"station_id":"","pricing_plan_id":"cebpf4jnsgd1na2vs0mg"},{"bike_id":"31a5f882-4c22-44e7-96f8-a68b77191c87","system_id":"levelo_inurba_marseille","lat":43.27069,"lon":5.42279,"is_reserved":false,"is_disabled":false,"rental_uris":{"android":"levelo://app?vid=31a5f882-4c22-44e7-96f8-a68b77191c87","ios":"levelo://app?vid=31a5f882-4c22-44e7-96f8-a68b77191c87"},"vehicle_type_id":"4","last_reported":1746378457,"current_range_meters":20400,"station_id":"ce4bhk92rcd13ifvqgb0","pricing_plan_id":"cebpf4jnsgd1na2vs0mg"},{"bike_id":"06deec25-2980-4345-93c5-c668a24eddd4","system_id":"levelo_inurba_marseille","lat":43.27812,"lon":5.4076,"is_reserved":false,"is_disabled":false,"rental_uris":{"android":"levelo://app?vid=06deec25-2980-4345-93c5-c668a24eddd4","ios":"levelo://app?vid=06deec25-2980-4345-93c5-c668a24eddd4"},"vehicle_type_id":"4","last_reported":1746378457,"current_range_meters":20400,"station_id":"ce4bhnh2rcd13ifvqgtg","pricing_plan_id":"cebpf4jnsgd1na2vs0mg"},{"bike_id":"ce7dbab7-9310-4b7e-bf0c-465a151ac403","system_id":"levelo_inurba_marseille","lat":43.35257,"lon":5.438,"is_reserved":false,"is_disabled":false,"rental_uris":{"android":"levelo://app?vid=ce7dbab7-9310-4b7e-bf0c-465a151ac403","ios":"levelo://app?vid=ce7dbab7-9310-4b7e-bf0c-465a151ac403"},"vehicle_type_id":"4","last_reported":1746378457,"current_range_meters":20400,"station_id":"","pricing_plan_id":"cebpf4jnsgd1na2vs0mg"},{"bike_id":"f4b195fb-cbed-4502-8455-10f9a2345eb7","system_id":"levelo_inurba_marseille","lat":43.26789,"lon":5.39419,"is_reserved":false,"is_disabled":false,"rental_uris":{"android":"levelo://app?vid=f4b195fb-cbed-4502-8455-10f9a2345eb7","ios":"levelo://app?vid=f4b195fb-cbed-4502-8455-10f9a2345eb7"},"vehicle_type_id":"4","last_reported":1746378457,"current_range_meters":20400,"station_id":"ce4bhh12rcd13ifvqfg0","pricing_plan_id":"cebpf4jnsgd1na2vs0mg"},{"bike_id":"eb70647a-8bab-42e7-bb36-844f0d583757","system_id":"levelo_inurba_marseille","lat":43.25102,"lon":5.40324,"is_reserved":false,"is_disabled":false,"rental_uris":{"android":"levelo://app?vid=eb70647a-8bab-42e7-bb36-844f0d583757","ios":"levelo://app?vid=eb70647a-8bab-42e7-bb36-844f0d583757"},"vehicle_type_id":"4","last_reported":1746378457,"current_range_meters":20800,"station_id":"ce4bhlh2rcd13ifvqgig","pricing_plan_id":"cebpf4jnsgd1na2vs0mg"},{"bike_id":"1ce5faab-c057-44d0-b6f7-996b2962169c","system_id":"levelo_inurba_marseille","lat":43.32373,"lon":5.36746,"is_reserved":false,"is_disabled":false,"rental_uris":{"android":"levelo://app?vid=1ce5faab-c057-44d0-b6f7-996b2962169c","ios":"levelo://app?vid=1ce5faab-c057-44d0-b6f7-996b2962169c"},"vehicle_type_id":"4","last_reported":1746378457,"current_range_meters":20800,"station_id":"ce4bhsh2rcd13ifvqi2g","pricing_plan_id":"cebpf4jnsgd1na2vs0mg"},{"bike_id":"68b8b728-4409-4323-9c2e-22f2917f2a12","system_id":"levelo_inurba_marseille","lat":43.290534,"lon":5.359188,"is_reserved":false,"is_disabled":false,"rental_uris":{"android":"levelo://app?vid=68b8b728-4409-4323-9c2e-22f2917f2a12","ios":"levelo://app?vid=68b8b728-4409-4323-9c2e-22f2917f2a12"},"vehicle_type_id":"4","last_reported":1746378457,"current_range_meters":20800,"station_id":"ce4bha92rcd13ifvqeg0","pricing_plan_id":"cebpf4jnsgd1na2vs0mg"},{"bike_id":"55e2365c-b270-4dfe-a830-699a54b79cdb","system_id":"levelo_inurba_marseille","lat":43.25582,"lon":5.42095,"is_reserved":false,"is_disabled":false,"rental_uris":{"android":"levelo://app?vid=55e2365c-b270-4dfe-a830-699a54b79cdb","ios":"levelo://app?vid=55e2365c-b270-4dfe-a830-699a54b79cdb"},"vehicle_type_id":"4","last_reported":1746378457,"current_range_meters":20800,"station_id":"","pricing_plan_id":"cebpf4jnsgd1na2vs0mg"},{"bike_id":"e6e02769-a49d-4ef3-bb99-e0d5a409388a","system_id":"levelo_inurba_marseille","lat":43.30796,"lon":5.38152,"is_reserved":false,"is_disabled":false,"rental_uris":{"android":"levelo://app?vid=e6e02769-a49d-4ef3-bb99-e0d5a409388a","ios":"levelo://app?vid=e6e02769-a49d-4ef3-bb99-e0d5a409388a"},"vehicle_type_id":"4","last_reported":1746378457,"current_range_meters":20800,"station_id":"ce4bgt12rcd13ifvqce0","pricing_plan_id":"cebpf4jnsgd1na2vs0mg"},{"bike_id":"de3f76b1-58ea-42d0-99f1-347daf91f0b4","system_id":"levelo_inurba_marseille","lat":43.21204,"lon":5.35087,"is_reserved":false,"is_disabled":false,"rental_uris":{"android":"levelo://app?vid=de3f76b1-58ea-42d0-99f1-347daf91f0b4","ios":"levelo://app?vid=de3f76b1-58ea-42d0-99f1-347daf91f0b4"},"vehicle_type_id":"4","last_reported":1746378457,"current_range_meters":20800,"station_id":"st_cvj6sg6p6f1abm77japg","pricing_plan_id":"cebpf4jnsgd1na2vs0mg"},{"bike_id":"3f9fddb3-4d57-4ad0-8fd2-61341dad0fd3","system_id":"levelo_inurba_marseille","lat":43.296084,"lon":5.381023,"is_reserved":false,"is_disabled":true,"rental_uris":{"android":"levelo://app?vid=3f9fddb3-4d57-4ad0-8fd2-61341dad0fd3","ios":"levelo://app?vid=3f9fddb3-4d57-4ad0-8fd2-61341dad0fd3"},"vehicle_type_id":"4","last_reported":1746378457,"current_range_meters":20800,"station_id":"ce4bgl12rcd13ifvqbo0","pricing_plan_id":"cebpf4jnsgd1na2vs0mg"},{"bike_id":"d9d8610d-6362-4841-86ac-786a4b4a7deb","system_id":"levelo_inurba_marseille","lat":43.27501,"lon":5.42458,"is_reserved":false,"is_disabled":false,"rental_uris":{"android":"levelo://app?vid=d9d8610d-6362-4841-86ac-786a4b4a7deb","ios":"levelo://app?vid=d9d8610d-6362-4841-86ac-786a4b4a7deb"},"vehicle_type_id":"4","last_reported":1746378457,"current_range_meters":20400,"station_id":"ce4bhn92rcd13ifvqgrg","pricing_plan_id":"cebpf4jnsgd1na2vs0mg"},{"bike_id":"d7f968e3-2125-4065-ac14-673f9521f936","system_id":"levelo_inurba_marseille","lat":43.33023,"lon":5.39045,"is_reserved":false,"is_disabled":false,"rental_uris":{"android":"levelo://app?vid=d7f968e3-2125-4065-ac14-673f9521f936","ios":"levelo://app?vid=d7f968e3-2125-4065-ac14-673f9521f936"},"vehicle_type_id":"4","last_reported":1746378457,"current_range_meters":20800,"station_id":"ce4bhr92rcd13ifvqhrg","pricing_plan_id":"cebpf4jnsgd1na2vs0mg"},{"bike_id":"cb18f575-9c1e-4e54-ba38-fab988ce4b38","system_id":"levelo_inurba_marseille","lat":43.29254,"lon":5.40911,"is_reserved":false,"is_disabled":false,"rental_uris":{"android":"levelo://app?vid=cb18f575-9c1e-4e54-ba38-fab988ce4b38","ios":"levelo://app?vid=cb18f575-9c1e-4e54-ba38-fab988ce4b38"},"vehicle_type_id":"4","last_reported":1746378457,"current_range_meters":21600,"station_id":"ce4bh192rcd13ifvqdc0","pricing_plan_id":"cebpf4jnsgd1na2vs0mg"},{"bike_id":"04c435a2-e233-4c84-bb78-093a9ef57710","system_id":"levelo_inurba_marseille","lat":43.29414,"lon":5.38626,"is_reserved":false,"is_disabled":false,"rental_uris":{"android":"levelo://app?vid=04c435a2-e233-4c84-bb78-093a9ef57710","ios":"levelo://app?vid=04c435a2-e233-4c84-bb78-093a9ef57710"},"vehicle_type_id":"4","last_reported":1746378457,"current_range_meters":21600,"station_id":"ce4bh2h2rcd13ifvqdh0","pricing_plan_id":"cebpf4jnsgd1na2vs0mg"},{"bike_id":"53f69b52-5c3f-454b-9331-6a74c99e2d5c","system_id":"levelo_inurba_marseille","lat":43.262043,"lon":5.40436,"is_reserved":false,"is_disabled":false,"rental_uris":{"android":"levelo://app?vid=53f69b52-5c3f-454b-9331-6a74c99e2d5c","ios":"levelo://app?vid=53f69b52-5c3f-454b-9331-6a74c99e2d5c"},"vehicle_type_id":"4","last_reported":1746378457,"current_range_meters":21600,"station_id":"","pricing_plan_id":"cebpf4jnsgd1na2vs0mg"},{"bike_id":"99caa5c9-73c6-4674-850e-ae7cd663deab","system_id":"levelo_inurba_marseille","lat":43.21193,"lon":5.35078,"is_reserved":false,"is_disabled":false,"rental_uris":{"android":"levelo://app?vid=99caa5c9-73c6-4674-850e-ae7cd663deab","ios":"levelo://app?vid=99caa5c9-73c6-4674-850e-ae7cd663deab"},"vehicle_type_id":"4","last_reported":1746378457,"current_range_meters":21600,"station_id":"st_cvj6sg6p6f1abm77japg","pricing_plan_id":"cebpf4jnsgd1na2vs0mg"},{"bike_id":"4fde46cf-490e-4803-b5a3-edbd193e6b8a","system_id":"levelo_inurba_marseille","lat":43.28568,"lon":5.39503,"is_reserved":false,"is_disabled":false,"rental_uris":{"android":"levelo://app?vid=4fde46cf-490e-4803-b5a3-edbd193e6b8a","ios":"levelo://app?vid=4fde46cf-490e-4803-b5a3-edbd193e6b8a"},"vehicle_type_id":"4","last_reported":1746378457,"current_range_meters":21600,"station_id":"ce4bh292rcd13ifvqdg0","pricing_plan_id":"cebpf4jnsgd1na2vs0mg"},{"bike_id":"b1abe431-f0cc-42e1-80fb-f24f343c1b75","system_id":"levelo_inurba_marseille","lat":43.29414,"lon":5.38623,"is_reserved":false,"is_disabled":false,"rental_uris":{"android":"levelo://app?vid=b1abe431-f0cc-42e1-80fb-f24f343c1b75","ios":"levelo://app?vid=b1abe431-f0cc-42e1-80fb-f24f343c1b75"},"vehicle_type_id":"4","last_reported":1746378457,"current_range_meters":21600,"station_id":"ce4bh2h2rcd13ifvqdh0","pricing_plan_id":"cebpf4jnsgd1na2vs0mg"},{"bike_id":"9058058a-932e-4cf3-aa04-019bd5e8fc52","system_id":"levelo_inurba_marseille","lat":43.30326,"lon":5.4043,"is_reserved":false,"is_disabled":false,"rental_uris":{"android":"levelo://app?vid=9058058a-932e-4cf3-aa04-019bd5e8fc52","ios":"levelo://app?vid=9058058a-932e-4cf3-aa04-019bd5e8fc52"},"vehicle_type_id":"4","last_reported":1746378457,"current_range_meters":21600,"station_id":"ce4bh012rcd13ifvqd10","pricing_plan_id":"cebpf4jnsgd1na2vs0mg"},{"bike_id":"243b49a7-8924-4b7d-8d65-fa1ee8c16a75","system_id":"levelo_inurba_marseille","lat":43.29053,"lon":5.40521,"is_reserved":false,"is_disabled":false,"rental_uris":{"android":"levelo://app?vid=243b49a7-8924-4b7d-8d65-fa1ee8c16a75","ios":"levelo://app?vid=243b49a7-8924-4b7d-8d65-fa1ee8c16a75"},"vehicle_type_id":"4","last_reported":1746378457,"current_range_meters":22000,"station_id":"","pricing_plan_id":"cebpf4jnsgd1na2vs0mg"},{"bike_id":"563c4212-6073-4326-a3e3-4ec6b0ba152a","system_id":"levelo_inurba_marseille","lat":43.28487,"lon":5.38416,"is_reserved":false,"is_disabled":false,"rental_uris":{"android":"levelo://app?vid=563c4212-6073-4326-a3e3-4ec6b0ba152a","ios":"levelo://app?vid=563c4212-6073-4326-a3e3-4ec6b0ba152a"},"vehicle_type_id":"4","last_reported":1746378457,"current_range_meters":22000,"station_id":"ce4bh512rcd13ifvqe3g","pricing_plan_id":"cebpf4jnsgd1na2vs0mg"},{"bike_id":"89212659-1a1b-4a89-9025-0529eb5ee0e1","system_id":"levelo_inurba_marseille","lat":43.308883,"lon":5.396558,"is_reserved":false,"is_disabled":false,"rental_uris":{"android":"levelo://app?vid=89212659-1a1b-4a89-9025-0529eb5ee0e1","ios":"levelo://app?vid=89212659-1a1b-4a89-9025-0529eb5ee0e1"},"vehicle_type_id":"4","last_reported":1746378457,"current_range_meters":22000,"station_id":"ce4bh012rcd13ifvqcv0","pricing_plan_id":"cebpf4jnsgd1na2vs0mg"},{"bike_id":"1edd79ec-71cc-47e6-8f88-520edb4bbaae","system_id":"levelo_inurba_marseille","lat":43.29802,"lon":5.38125,"is_reserved":false,"is_disabled":true,"rental_uris":{"android":"levelo://app?vid=1edd79ec-71cc-47e6-8f88-520edb4bbaae","ios":"levelo://app?vid=1edd79ec-71cc-47e6-8f88-520edb4bbaae"},"vehicle_type_id":"4","last_reported":1746378457,"current_range_meters":22000,"station_id":"ce4bgip2rcd13ifvqbb0","pricing_plan_id":"cebpf4jnsgd1na2vs0mg"},{"bike_id":"4a265d53-8062-4c16-b5ef-3d21375eab3f","system_id":"levelo_inurba_marseille","lat":43.32008,"lon":5.3816,"is_reserved":false,"is_disabled":true,"rental_uris":{"android":"levelo://app?vid=4a265d53-8062-4c16-b5ef-3d21375eab3f","ios":"levelo://app?vid=4a265d53-8062-4c16-b5ef-3d21375eab3f"},"vehicle_type_id":"4","last_reported":1746378457,"current_range_meters":22000,"station_id":"ce4bhr12rcd13ifvqhpg","pricing_plan_id":"cebpf4jnsgd1na2vs0mg"},{"bike_id":"523ffcd1-d791-4e10-84a7-eab7a728738c","system_id":"levelo_inurba_marseille","lat":43.31138,"lon":5.37001,"is_reserved":false,"is_disabled":false,"rental_uris":{"android":"levelo://app?vid=523ffcd1-d791-4e10-84a7-eab7a728738c","ios":"levelo://app?vid=523ffcd1-d791-4e10-84a7-eab7a728738c"},"vehicle_type_id":"4","last_reported":1746378457,"current_range_meters":22400,"station_id":"ce4bgl92rcd13ifvqbq0","pricing_plan_id":"cebpf4jnsgd1na2vs0mg"},{"bike_id":"d8b07d24-a1f5-4a31-80b8-ba7343e03fee","system_id":"levelo_inurba_marseille","lat":43.31264,"lon":5.40161,"is_reserved":false,"is_disabled":false,"rental_uris":{"android":"levelo://app?vid=d8b07d24-a1f5-4a31-80b8-ba7343e03fee","ios":"levelo://app?vid=d8b07d24-a1f5-4a31-80b8-ba7343e03fee"},"vehicle_type_id":"4","last_reported":1746378457,"current_range_meters":22400,"station_id":"ce4bh092rcd13ifvqd30","pricing_plan_id":"cebpf4jnsgd1na2vs0mg"},{"bike_id":"d1ec814b-7128-4cb1-a05f-d59b2ec94248","system_id":"levelo_inurba_marseille","lat":43.22673,"lon":5.3481,"is_reserved":false,"is_disabled":false,"rental_uris":{"android":"levelo://app?vid=d1ec814b-7128-4cb1-a05f-d59b2ec94248","ios":"levelo://app?vid=d1ec814b-7128-4cb1-a05f-d59b2ec94248"},"vehicle_type_id":"4","last_reported":1746378457,"current_range_meters":22400,"station_id":"","pricing_plan_id":"cebpf4jnsgd1na2vs0mg"},{"bike_id":"9ac9a44f-6abe-4743-a6fe-974f0f86c6c4","system_id":"levelo_inurba_marseille","lat":43.23956,"lon":5.36646,"is_reserved":false,"is_disabled":true,"rental_uris":{"android":"levelo://app?vid=9ac9a44f-6abe-4743-a6fe-974f0f86c6c4","ios":"levelo://app?vid=9ac9a44f-6abe-4743-a6fe-974f0f86c6c4"},"vehicle_type_id":"4","last_reported":1746378457,"current_range_meters":22400,"station_id":"ce4bhi12rcd13ifvqfp0","pricing_plan_id":"cebpf4jnsgd1na2vs0mg"},{"bike_id":"5dac2ac9-eb50-45f9-9a17-9cfa0637a2c4","system_id":"levelo_inurba_marseille","lat":43.28262,"lon":5.35061,"is_reserved":false,"is_disabled":false,"rental_uris":{"android":"levelo://app?vid=5dac2ac9-eb50-45f9-9a17-9cfa0637a2c4","ios":"levelo://app?vid=5dac2ac9-eb50-45f9-9a17-9cfa0637a2c4"},"vehicle_type_id":"4","last_reported":1746378457,"current_range_meters":22400,"station_id":"ce4bhbp2rcd13ifvqerg","pricing_plan_id":"cebpf4jnsgd1na2vs0mg"},{"bike_id":"233cccc3-1b80-4f5d-a8db-2e93fc5cf515","system_id":"levelo_inurba_marseille","lat":43.30136,"lon":5.37404,"is_reserved":false,"is_disabled":false,"rental_uris":{"android":"levelo://app?vid=233cccc3-1b80-4f5d-a8db-2e93fc5cf515","ios":"levelo://app?vid=233cccc3-1b80-4f5d-a8db-2e93fc5cf515"},"vehicle_type_id":"4","last_reported":1746378457,"current_range_meters":22400,"station_id":"ce4bgs92rcd13ifvqcc0","pricing_plan_id":"cebpf4jnsgd1na2vs0mg"},{"bike_id":"e366956d-feea-4cc2-aa62-36d977524107","system_id":"levelo_inurba_marseille","lat":43.24996,"lon":5.38934,"is_reserved":false,"is_disabled":false,"rental_uris":{"android":"levelo://app?vid=e366956d-feea-4cc2-aa62-36d977524107","ios":"levelo://app?vid=e366956d-feea-4cc2-aa62-36d977524107"},"vehicle_type_id":"4","last_reported":1746378457,"current_range_meters":22400,"station_id":"ce4bhgp2rcd13ifvqfd0","pricing_plan_id":"cebpf4jnsgd1na2vs0mg"},{"bike_id":"521d3531-2dd1-4da9-9582-b2882863f64f","system_id":"levelo_inurba_marseille","lat":43.28486,"lon":5.35908,"is_reserved":false,"is_disabled":true,"rental_uris":{"android":"levelo://app?vid=521d3531-2dd1-4da9-9582-b2882863f64f","ios":"levelo://app?vid=521d3531-2dd1-4da9-9582-b2882863f64f"},"vehicle_type_id":"4","last_reported":1746378457,"current_range_meters":22400,"station_id":"ce4bhah2rcd13ifvqei0","pricing_plan_id":"cebpf4jnsgd1na2vs0mg"},{"bike_id":"f6e5fbd9-5016-498f-93d8-30958fdc8095","system_id":"levelo_inurba_marseille","lat":43.26807,"lon":5.40254,"is_reserved":false,"is_disabled":false,"rental_uris":{"android":"levelo://app?vid=f6e5fbd9-5016-498f-93d8-30958fdc8095","ios":"levelo://app?vid=f6e5fbd9-5016-498f-93d8-30958fdc8095"},"vehicle_type_id":"4","last_reported":1746378457,"current_range_meters":22400,"station_id":"ce501612rcd8frsf0b60","pricing_plan_id":"cebpf4jnsgd1na2vs0mg"},{"bike_id":"5d35fc6c-b84f-4117-abc0-3df7e564715e","system_id":"levelo_inurba_marseille","lat":43.32368,"lon":5.40622,"is_reserved":false,"is_disabled":false,"rental_uris":{"android":"levelo://app?vid=5d35fc6c-b84f-4117-abc0-3df7e564715e","ios":"levelo://app?vid=5d35fc6c-b84f-4117-abc0-3df7e564715e"},"vehicle_type_id":"4","last_reported":1746378457,"current_range_meters":22800,"station_id":"ce4bhq92rcd13ifvqhjg","pricing_plan_id":"cebpf4jnsgd1na2vs0mg"},{"bike_id":"4f057919-a61d-4a7d-94aa-8779ab8d85c0","system_id":"levelo_inurba_marseille","lat":43.28154,"lon":5.42647,"is_reserved":false,"is_disabled":false,"rental_uris":{"android":"levelo://app?vid=4f057919-a61d-4a7d-94aa-8779ab8d85c0","ios":"levelo://app?vid=4f057919-a61d-4a7d-94aa-8779ab8d85c0"},"vehicle_type_id":"4","last_reported":1746378457,"current_range_meters":22800,"station_id":"ce4bhnh2rcd13ifvqgug","pricing_plan_id":"cebpf4jnsgd1na2vs0mg"},{"bike_id":"203d91f5-6c36-4523-963d-b10eff730e29","system_id":"levelo_inurba_marseille","lat":43.30735,"lon":5.42444,"is_reserved":false,"is_disabled":false,"rental_uris":{"android":"levelo://app?vid=203d91f5-6c36-4523-963d-b10eff730e29","ios":"levelo://app?vid=203d91f5-6c36-4523-963d-b10eff730e29"},"vehicle_type_id":"4","last_reported":1746378457,"current_range_meters":22800,"station_id":"st_cvj6ca6bvosntc0bfgr0","pricing_plan_id":"cebpf4jnsgd1na2vs0mg"},{"bike_id":"d0bcf1fb-cbba-4142-876b-db3b580f0e4d","system_id":"levelo_inurba_marseille","lat":43.29573,"lon":5.42286,"is_reserved":false,"is_disabled":false,"rental_uris":{"android":"levelo://app?vid=d0bcf1fb-cbba-4142-876b-db3b580f0e4d","ios":"levelo://app?vid=d0bcf1fb-cbba-4142-876b-db3b580f0e4d"},"vehicle_type_id":"4","last_reported":1746378457,"current_range_meters":22800,"station_id":"ce4bhph2rcd13ifvqhdg","pricing_plan_id":"cebpf4jnsgd1na2vs0mg"},{"bike_id":"563ff4d4-f364-4607-8855-0c862099f132","system_id":"levelo_inurba_marseille","lat":43.24073,"lon":5.37765,"is_reserved":false,"is_disabled":false,"rental_uris":{"android":"levelo://app?vid=563ff4d4-f364-4607-8855-0c862099f132","ios":"levelo://app?vid=563ff4d4-f364-4607-8855-0c862099f132"},"vehicle_type_id":"4","last_reported":1746378457,"current_range_meters":22400,"station_id":"ce4bhnp2rcd13ifvqgvg","pricing_plan_id":"cebpf4jnsgd1na2vs0mg"},{"bike_id":"3c0ecf0c-57c5-4caa-adc7-f21d9003ed0f","system_id":"levelo_inurba_marseille","lat":43.2903,"lon":5.38652,"is_reserved":false,"is_disabled":false,"rental_uris":{"android":"levelo://app?vid=3c0ecf0c-57c5-4caa-adc7-f21d9003ed0f","ios":"levelo://app?vid=3c0ecf0c-57c5-4caa-adc7-f21d9003ed0f"},"vehicle_type_id":"4","last_reported":1746378457,"current_range_meters":22800,"station_id":"ce4bh4p2rcd13ifvqe0g","pricing_plan_id":"cebpf4jnsgd1na2vs0mg"},{"bike_id":"62af6cb3-b1c3-4d75-ba04-e6338c24f160","system_id":"levelo_inurba_marseille","lat":43.30599,"lon":5.37226,"is_reserved":false,"is_disabled":false,"rental_uris":{"android":"levelo://app?vid=62af6cb3-b1c3-4d75-ba04-e6338c24f160","ios":"levelo://app?vid=62af6cb3-b1c3-4d75-ba04-e6338c24f160"},"vehicle_type_id":"4","last_reported":1746378457,"current_range_meters":23200,"station_id":"ce4bgqh2rcd13ifvqc4g","pricing_plan_id":"cebpf4jnsgd1na2vs0mg"},{"bike_id":"e1d15e84-d6fb-420d-9d5f-fbfefb0e382f","system_id":"levelo_inurba_marseille","lat":43.28989,"lon":5.37846,"is_reserved":false,"is_disabled":true,"rental_uris":{"android":"levelo://app?vid=e1d15e84-d6fb-420d-9d5f-fbfefb0e382f","ios":"levelo://app?vid=e1d15e84-d6fb-420d-9d5f-fbfefb0e382f"},"vehicle_type_id":"4","last_reported":1746378457,"current_range_meters":23200,"station_id":"ce4bh9p2rcd13ifvqed0","pricing_plan_id":"cebpf4jnsgd1na2vs0mg"},{"bike_id":"3f72b7ea-5944-4b5c-833d-de535a116f71","system_id":"levelo_inurba_marseille","lat":43.31163,"lon":5.38721,"is_reserved":false,"is_disabled":false,"rental_uris":{"android":"levelo://app?vid=3f72b7ea-5944-4b5c-833d-de535a116f71","ios":"levelo://app?vid=3f72b7ea-5944-4b5c-833d-de535a116f71"},"vehicle_type_id":"4","last_reported":1746378457,"current_range_meters":23200,"station_id":"ce4bgv12rcd13ifvqcp0","pricing_plan_id":"cebpf4jnsgd1na2vs0mg"},{"bike_id":"b475f8e3-c943-4ef6-a46f-bde165c1b5d0","system_id":"levelo_inurba_marseille","lat":43.288574,"lon":5.358554,"is_reserved":false,"is_disabled":false,"rental_uris":{"android":"levelo://app?vid=b475f8e3-c943-4ef6-a46f-bde165c1b5d0","ios":"levelo://app?vid=b475f8e3-c943-4ef6-a46f-bde165c1b5d0"},"vehicle_type_id":"4","last_reported":1746378457,"current_range_meters":23200,"station_id":"","pricing_plan_id":"cebpf4jnsgd1na2vs0mg"},{"bike_id":"50957637-4618-4fa3-8456-ccf8c4ac9315","system_id":"levelo_inurba_marseille","lat":43.22955,"lon":5.354,"is_reserved":false,"is_disabled":false,"rental_uris":{"android":"levelo://app?vid=50957637-4618-4fa3-8456-ccf8c4ac9315","ios":"levelo://app?vid=50957637-4618-4fa3-8456-ccf8c4ac9315"},"vehicle_type_id":"4","last_reported":1746378457,"current_range_meters":23200,"station_id":"cpo3532slgdg3j2ikp40","pricing_plan_id":"cebpf4jnsgd1na2vs0mg"},{"bike_id":"34c61a25-24b7-4296-8a5c-b539c7b20e3d","system_id":"levelo_inurba_marseille","lat":43.24532,"lon":5.39529,"is_reserved":false,"is_disabled":false,"rental_uris":{"android":"levelo://app?vid=34c61a25-24b7-4296-8a5c-b539c7b20e3d","ios":"levelo://app?vid=34c61a25-24b7-4296-8a5c-b539c7b20e3d"},"vehicle_type_id":"4","last_reported":1746378457,"current_range_meters":23200,"station_id":"ce4bhlp2rcd13ifvqgjg","pricing_plan_id":"cebpf4jnsgd1na2vs0mg"},{"bike_id":"86b93b16-87a0-4fbf-a3d1-c409da7732b0","system_id":"levelo_inurba_marseille","lat":43.293396,"lon":5.371296,"is_reserved":false,"is_disabled":false,"rental_uris":{"android":"levelo://app?vid=86b93b16-87a0-4fbf-a3d1-c409da7732b0","ios":"levelo://app?vid=86b93b16-87a0-4fbf-a3d1-c409da7732b0"},"vehicle_type_id":"4","last_reported":1746378457,"current_range_meters":23200,"station_id":"","pricing_plan_id":"cebpf4jnsgd1na2vs0mg"},{"bike_id":"9d6e6cfe-d66f-45c3-952d-82305632e17d","system_id":"levelo_inurba_marseille","lat":43.31715,"lon":5.43706,"is_reserved":false,"is_disabled":true,"rental_uris":{"android":"levelo://app?vid=9d6e6cfe-d66f-45c3-952d-82305632e17d","ios":"levelo://app?vid=9d6e6cfe-d66f-45c3-952d-82305632e17d"},"vehicle_type_id":"4","last_reported":1746378457,"current_range_meters":23200,"station_id":"ce4bhp92rcd13ifvqhcg","pricing_plan_id":"cebpf4jnsgd1na2vs0mg"},{"bike_id":"e4c0e2c1-3ec1-400b-b207-609f3d8889aa","system_id":"levelo_inurba_marseille","lat":43.23632,"lon":5.36656,"is_reserved":false,"is_disabled":false,"rental_uris":{"android":"levelo://app?vid=e4c0e2c1-3ec1-400b-b207-609f3d8889aa","ios":"levelo://app?vid=e4c0e2c1-3ec1-400b-b207-609f3d8889aa"},"vehicle_type_id":"4","last_reported":1746378457,"current_range_meters":23200,"station_id":"","pricing_plan_id":"cebpf4jnsgd1na2vs0mg"},{"bike_id":"48406110-a345-43b2-b145-b3298828c686","system_id":"levelo_inurba_marseille","lat":43.295368,"lon":5.422845,"is_reserved":false,"is_disabled":false,"rental_uris":{"android":"levelo://app?vid=48406110-a345-43b2-b145-b3298828c686","ios":"levelo://app?vid=48406110-a345-43b2-b145-b3298828c686"},