{"last_updated":1685747231,"ttl":30,"version":"2.2","data":{"bikes":[{"bike_id":"b69c814b-0d4d-4d6c-b9cb-456fde9f5d42","system_id":"levelo_inurba_marseille","lat":43.31341,"lon":5.367098,"is_reserved":false,"is_disabled":false,"rental_uris":{"android":"levelo://app?vid=b69c814b-0d4d-4d6c-b9cb-456fde9f5d42","ios":"levelo://app?vid=b69c814b-0d4d-4d6c-b9cb-456fde9f5d42"},"vehicle_type_id":"4","last_reported":1685747232,"current_range_meters":13200,"station_id":"ce4bgr92rcd13ifvqc6g","pricing_plan_id":"free"},{"bike_id":"db50a2c9-d127-4b1a-a8c6-1bb3cfcd227c","system_id":"levelo_inurba_marseille","lat":43.31154,"lon":5.37081,"is_reserved":false,"is_disabled":false,"rental_uris":{"android":"levelo://app?vid=db50a2c9-d127-4b1a-a8c6-1bb3cfcd227c","ios":"levelo://app?vid=db50a2c9-d127-4b1a-a8c6-1bb3cfcd227c"},"vehicle_type_id":"4","last_reported":1685747232,"current_range_meters":3200,"station_id":"","pricing_plan_id":"free"},{"bike_id":"25a8dcab-ece4-42b7-a12a-a0dd7d71635f","system_id":"levelo_inurba_marseille","lat":43.30905,"lon":5.37271,"is_reserved":false,"is_disabled":false,"rental_uris":{"android":"levelo://app?vid=25a8dcab-ece4-42b7-a12a-a0dd7d71635f","ios":"levelo://app?vid=25a8dcab-ece4-42b7-a12a-a0dd7d71635f"},"vehicle_type_id":"4","last_reported":1685747232,"current_range_meters":12400,"station_id":"","pricing_plan_id":"free"},{"bike_id":"890e93ac-4bac-484a-baff-b468d73fa7c8","system_id":"levelo_inurba_marseille","lat":43.31361,"lon":5.37659,"is_reserved":false,"is_disabled":false,"rental_uris":{"android":"levelo://app?vid=890e93ac-4bac-484a-baff-b468d73fa7c8","ios":"levelo://app?vid=890e93ac-4bac-484a-baff-b468d73fa7c8"},"vehicle_type_id":"4","last_reported":1685747232,"current_range_meters":12000,"station_id":"","pricing_plan_id":"free"},{"bike_id":"4d43e892-ec90-4fce-8475-f727fed3851f","system_id":"levelo_inurba_marseille","lat":43.3198,"lon":5.36582,"is_reserved":false,"is_disabled":false,"rental_uris":{"android":"levelo://app?vid=4d43e892-ec90-4fce-8475-f727fed3851f","ios":"levelo://app?vid=4d43e892-ec90-4fce-8475-f727fed3851f"},"vehicle_type_id":"4","last_reported":1685747232,"current_range_meters":7600,"station_id":"","pricing_plan_id":"free"},{"bike_id":"449db0fb-094d-4404-abbf-0a3e5f2789a8","system_id":"levelo_inurba_marseille","lat":43.305368,"lon":5.367343,"is_reserved":false,"is_disabled":false,"rental_uris":{"android":"levelo://app?vid=449db0fb-094d-4404-abbf-0a3e5f2789a8","ios":"levelo://app?vid=449db0fb-094d-4404-abbf-0a3e5f2789a8"},"vehicle_type_id":"4","last_reported":1685747232,"current_range_meters":0,"station_id":"ce4bgrp2rcd13ifvqc9g","pricing_plan_id":"free"},{"bike_id":"92f34233-d4d6-4fe9-ad9f-740a8a5b7fdc","system_id":"levelo_inurba_marseille","lat":43.305989,"lon":5.37225,"is_reserved":false,"is_disabled":false,"rental_uris":{"android":"levelo://app?vid=92f34233-d4d6-4fe9-ad9f-740a8a5b7fdc","ios":"levelo://app?vid=92f34233-d4d6-4fe9-ad9f-740a8a5b7fdc"},"vehicle_type_id":"4","last_reported":1685747232,"current_range_meters":13600,"station_id":"ce4bgqh2rcd13ifvqc4g","pricing_plan_id":"free"},{"bike_id":"2822e10f-aa80-449f-b0ec-df725b4b816a","system_id":"levelo_inurba_marseille","lat":43.31121,"lon":5.37762,"is_reserved":false,"is_disabled":false,"rental_uris":{"android":"levelo://app?vid=2822e10f-aa80-449f-b0ec-df725b4b816a","ios":"levelo://app?vid=2822e10f-aa80-449f-b0ec-df725b4b816a"},"vehicle_type_id":"4","last_reported":1685747232,"current_range_meters":7200,"station_id":"ce4bgt92rcd13ifvqcg0","pricing_plan_id":"free"},{"bike_id":"5023eae3-c56c-4033-a452-c8445c718f2d","system_id":"levelo_inurba_marseille","lat":43.311131,"lon":5.377651,"is_reserved":false,"is_disabled":false,"rental_uris":{"android":"levelo://app?vid=5023eae3-c56c-4033-a452-c8445c718f2d","ios":"levelo://app?vid=5023eae3-c56c-4033-a452-c8445c718f2d"},"vehicle_type_id":"4","last_reported":1685747232,"current_range_meters":31200,"station_id":"ce4bgt92rcd13ifvqcg0","pricing_plan_id":"free"},{"bike_id":"65554d33-b508-436a-aac9-544974e5f617","system_id":"levelo_inurba_marseille","lat":43.311175,"lon":5.377713,"is_reserved":false,"is_disabled":false,"rental_uris":{"android":"levelo://app?vid=65554d33-b508-436a-aac9-544974e5f617","ios":"levelo://app?vid=65554d33-b508-436a-aac9-544974e5f617"},"vehicle_type_id":"4","last_reported":1685747232,"current_range_meters":23600,"station_id":"","pricing_plan_id":"free"},{"bike_id":"65022e7c-81dd-4714-ada8-60a9f2d23939","system_id":"levelo_inurba_marseille","lat":43.30304,"lon":5.368987,"is_reserved":false,"is_disabled":false,"rental_uris":{"android":"levelo://app?vid=65022e7c-81dd-4714-ada8-60a9f2d23939","ios":"levelo://app?vid=65022e7c-81dd-4714-ada8-60a9f2d23939"},"vehicle_type_id":"4","last_reported":1685747232,"current_range_meters":20800,"station_id":"ce4bgqh2rcd13ifvqc5g","pricing_plan_id":"free"},{"bike_id":"6aa2ce65-4eb6-428c-9788-f47bceb5b2cd","system_id":"levelo_inurba_marseille","lat":43.315293,"lon":5.380349,"is_reserved":false,"is_disabled":false,"rental_uris":{"android":"levelo://app?vid=6aa2ce65-4eb6-428c-9788-f47bceb5b2cd","ios":"levelo://app?vid=6aa2ce65-4eb6-428c-9788-f47bceb5b2cd"},"vehicle_type_id":"4","last_reported":1685747232,"current_range_meters":8800,"station_id":"ce4bhsp2rcd13ifvqi50","pricing_plan_id":"free"},{"bike_id":"64668d62-2c56-40da-9e4a-cb84a2c2ea4d","system_id":"levelo_inurba_marseille","lat":43.31002,"lon":5.38021,"is_reserved":false,"is_disabled":false,"rental_uris":{"android":"levelo://app?vid=64668d62-2c56-40da-9e4a-cb84a2c2ea4d","ios":"levelo://app?vid=64668d62-2c56-40da-9e4a-cb84a2c2ea4d"},"vehicle_type_id":"4","last_reported":1685747232,"current_range_meters":0,"station_id":"","pricing_plan_id":"free"},{"bike_id":"5fa5fbf2-7a0d-4e7a-b1f8-54511e15c70f","system_id":"levelo_inurba_marseille","lat":43.308012,"lon":5.381511,"is_reserved":false,"is_disabled":false,"rental_uris":{"android":"levelo://app?vid=5fa5fbf2-7a0d-4e7a-b1f8-54511e15c70f","ios":"levelo://app?vid=5fa5fbf2-7a0d-4e7a-b1f8-54511e15c70f"},"vehicle_type_id":"4","last_reported":1685747232,"current_range_meters":30400,"station_id":"ce4bgt12rcd13ifvqce0","pricing_plan_id":"free"},{"bike_id":"6e744b27-ecbb-4ab6-852d-c16ca9c9b92d","system_id":"levelo_inurba_marseille","lat":43.30797,"lon":5.38155,"is_reserved":false,"is_disabled":false,"rental_uris":{"android":"levelo://app?vid=6e744b27-ecbb-4ab6-852d-c16ca9c9b92d","ios":"levelo://app?vid=6e744b27-ecbb-4ab6-852d-c16ca9c9b92d"},"vehicle_type_id":"4","last_reported":1685747232,"current_range_meters":15600,"station_id":"ce4bgt12rcd13ifvqce0","pricing_plan_id":"free"},{"bike_id":"8c3cbb59-cd72-4768-8a58-eb62ab11aad1","system_id":"levelo_inurba_marseille","lat":43.319935,"lon":5.381699,"is_reserved":false,"is_disabled":false,"rental_uris":{"android":"levelo://app?vid=8c3cbb59-cd72-4768-8a58-eb62ab11aad1","ios":"levelo://app?vid=8c3cbb59-cd72-4768-8a58-eb62ab11aad1"},"vehicle_type_id":"4","last_reported":1685747232,"current_range_meters":30800,"station_id":"ce4bhr12rcd13ifvqhpg","pricing_plan_id":"free"},{"bike_id":"b6af2cee-22c0-4696-a3cc-c5ab5878f58f","system_id":"levelo_inurba_marseille","lat":43.319935,"lon":5.381699,"is_reserved":false,"is_disabled":false,"rental_uris":{"android":"levelo://app?vid=b6af2cee-22c0-4696-a3cc-c5ab5878f58f","ios":"levelo://app?vid=b6af2cee-22c0-4696-a3cc-c5ab5878f58f"},"vehicle_type_id":"4","last_reported":1685747232,"current_range_meters":30000,"station_id":"ce4bhr12rcd13ifvqhpg","pricing_plan_id":"free"},{"bike_id":"19844b12-0a72-48be-ae38-30f965f518cc","system_id":"levelo_inurba_marseille","lat":43.319935,"lon":5.381699,"is_reserved":false,"is_disabled":false,"rental_uris":{"android":"levelo://app?vid=19844b12-0a72-48be-ae38-30f965f518cc","ios":"levelo://app?vid=19844b12-0a72-48be-ae38-30f965f518cc"},"vehicle_type_id":"4","last_reported":1685747232,"current_range_meters":0,"station_id":"ce4bhr12rcd13ifvqhpg","pricing_plan_id":"free"},{"bike_id":"ad129339-b339-4ccc-9ee0-2774c8b55114","system_id":"levelo_inurba_marseille","lat":43.319935,"lon":5.381699,"is_reserved":false,"is_disabled":false,"rental_uris":{"android":"levelo://app?vid=ad129339-b339-4ccc-9ee0-2774c8b55114","ios":"levelo://app?vid=ad129339-b339-4ccc-9ee0-2774c8b55114"},"vehicle_type_id":"4","last_reported":1685747232,"current_range_meters":26800,"station_id":"ce4bhr12rcd13ifvqhpg","pricing_plan_id":"free"},{"bike_id":"55979972-1f71-498d-8897-2858e1c0a701","system_id":"levelo_inurba_marseille","lat":43.313571,"lon":5.384829,"is_reserved":false,"is_disabled":false,"rental_uris":{"android":"levelo://app?vid=55979972-1f71-498d-8897-2858e1c0a701","ios":"levelo://app?vid=55979972-1f71-498d-8897-2858e1c0a701"},"vehicle_type_id":"4","last_reported":1685747232,"current_range_meters":4800,"station_id":"ce4bgt92rcd13ifvqcf0","pricing_plan_id":"free"},{"bike_id":"548c349e-be6a-4430-b129-e3909ffabcea","system_id":"levelo_inurba_marseille","lat":43.313571,"lon":5.384829,"is_reserved":false,"is_disabled":false,"rental_uris":{"android":"levelo://app?vid=548c349e-be6a-4430-b129-e3909ffabcea","ios":"levelo://app?vid=548c349e-be6a-4430-b129-e3909ffabcea"},"vehicle_type_id":"4","last_reported":1685747232,"current_range_meters":12000,"station_id":"ce4bgt92rcd13ifvqcf0","pricing_plan_id":"free"},{"bike_id":"3f0b4caf-7edb-48cf-8b29-2c3e3eaa22ca","system_id":"levelo_inurba_marseille","lat":43.313571,"lon":5.384829,"is_reserved":false,"is_disabled":false,"rental_uris":{"android":"levelo://app?vid=3f0b4caf-7edb-48cf-8b29-2c3e3eaa22ca","ios":"levelo://app?vid=3f0b4caf-7edb-48cf-8b29-2c3e3eaa22ca"},"vehicle_type_id":"4","last_reported":1685747232,"current_range_meters":6000,"station_id":"ce4bgt92rcd13ifvqcf0","pricing_plan_id":"free"},{"bike_id":"af3cff72-e873-4ecd-a282-a2344ff1b1b3","system_id":"levelo_inurba_marseille","lat":43.313571,"lon":5.384829,"is_reserved":false,"is_disabled":false,"rental_uris":{"android":"levelo://app?vid=af3cff72-e873-4ecd-a282-a2344ff1b1b3","ios":"levelo://app?vid=af3cff72-e873-4ecd-a282-a2344ff1b1b3"},"vehicle_type_id":"4","last_reported":1685747232,"current_range_meters":8800,"station_id":"ce4bgt92rcd13ifvqcf0","pricing_plan_id":"free"},{"bike_id":"38d71b92-434f-4359-a09b-136bdda3d12a","system_id":"levelo_inurba_marseille","lat":43.313571,"lon":5.384829,"is_reserved":false,"is_disabled":false,"rental_uris":{"android":"levelo://app?vid=38d71b92-434f-4359-a09b-136bdda3d12a","ios":"levelo://app?vid=38d71b92-434f-4359-a09b-136bdda3d12a"},"vehicle_type_id":"4","last_reported":1685747232,"current_range_meters":31200,"station_id":"ce4bgt92rcd13ifvqcf0","pricing_plan_id":"free"},{"bike_id":"8378b03b-6ed0-41b1-8fb0-aadd3fc16f96","system_id":"levelo_inurba_marseille","lat":43.313571,"lon":5.384829,"is_reserved":false,"is_disabled":false,"rental_uris":{"android":"levelo://app?vid=8378b03b-6ed0-41b1-8fb0-aadd3fc16f96","ios":"levelo://app?vid=8378b03b-6ed0-41b1-8fb0-aadd3fc16f96"},"vehicle_type_id":"4","last_reported":1685747232,"current_range_meters":24800,"station_id":"ce4bgt92rcd13ifvqcf0","pricing_plan_id":"free"},{"bike_id":"e215cedf-b29a-4fe6-bc3b-6ab2e078d0b7","system_id":"levelo_inurba_marseille","lat":43.313571,"lon":5.384829,"is_reserved":false,"is_disabled":false,"rental_uris":{"android":"levelo://app?vid=e215cedf-b29a-4fe6-bc3b-6ab2e078d0b7","ios":"levelo://app?vid=e215cedf-b29a-4fe6-bc3b-6ab2e078d0b7"},"vehicle_type_id":"4","last_reported":1685747232,"current_range_meters":20400,"station_id":"ce4bgt92rcd13ifvqcf0","pricing_plan_id":"free"},{"bike_id":"ed727c7f-c08c-4f4a-b3c8-0aec6e852aec","system_id":"levelo_inurba_marseille","lat":43.313571,"lon":5.384829,"is_reserved":false,"is_disabled":false,"rental_uris":{"android":"levelo://app?vid=ed727c7f-c08c-4f4a-b3c8-0aec6e852aec","ios":"levelo://app?vid=ed727c7f-c08c-4f4a-b3c8-0aec6e852aec"},"vehicle_type_id":"4","last_reported":1685747232,"current_range_meters":9200,"station_id":"ce4bgt92rcd13ifvqcf0","pricing_plan_id":"free"},{"bike_id":"7d2d61e5-cac9-4d75-8c10-950593915fec","system_id":"levelo_inurba_marseille","lat":43.311722,"lon":5.387247,"is_reserved":false,"is_disabled":false,"rental_uris":{"android":"levelo://app?vid=7d2d61e5-cac9-4d75-8c10-950593915fec","ios":"levelo://app?vid=7d2d61e5-cac9-4d75-8c10-950593915fec"},"vehicle_type_id":"4","last_reported":1685747232,"current_range_meters":2000,"station_id":"ce4bgv12rcd13ifvqcp0","pricing_plan_id":"free"},{"bike_id":"5d3df87d-aa3c-4e18-9c52-4821a8f2acb4","system_id":"levelo_inurba_marseille","lat":43.299243,"lon":5.374807,"is_reserved":false,"is_disabled":false,"rental_uris":{"android":"levelo://app?vid=5d3df87d-aa3c-4e18-9c52-4821a8f2acb4","ios":"levelo://app?vid=5d3df87d-aa3c-4e18-9c52-4821a8f2acb4"},"vehicle_type_id":"4","last_reported":1685747232,"current_range_meters":29200,"station_id":"ce4bgjh2rcd13ifvqbg0","pricing_plan_id":"free"},{"bike_id":"2a4040d8-253e-46e5-83e6-84188888df10","system_id":"levelo_inurba_marseille","lat":43.299243,"lon":5.37481,"is_reserved":false,"is_disabled":false,"rental_uris":{"android":"levelo://app?vid=2a4040d8-253e-46e5-83e6-84188888df10","ios":"levelo://app?vid=2a4040d8-253e-46e5-83e6-84188888df10"},"vehicle_type_id":"4","last_reported":1685747232,"current_range_meters":28800,"station_id":"ce4bgjh2rcd13ifvqbg0","pricing_plan_id":"free"},{"bike_id":"05f1a2c7-d830-495c-86b8-292585194459","system_id":"levelo_inurba_marseille","lat":43.32306,"lon":5.38143,"is_reserved":false,"is_disabled":false,"rental_uris":{"android":"levelo://app?vid=05f1a2c7-d830-495c-86b8-292585194459","ios":"levelo://app?vid=05f1a2c7-d830-495c-86b8-292585194459"},"vehicle_type_id":"4","last_reported":1685747232,"current_range_meters":24800,"station_id":"","pricing_plan_id":"free"},{"bike_id":"4fe0a1ea-7adc-4ad8-915d-15b8fb732ced","system_id":"levelo_inurba_marseille","lat":43.311722,"lon":5.387247,"is_reserved":false,"is_disabled":false,"rental_uris":{"android":"levelo://app?vid=4fe0a1ea-7adc-4ad8-915d-15b8fb732ced","ios":"levelo://app?vid=4fe0a1ea-7adc-4ad8-915d-15b8fb732ced"},"vehicle_type_id":"4","last_reported":1685747232,"current_range_meters":4000,"station_id":"ce4bgv12rcd13ifvqcp0","pricing_plan_id":"free"},{"bike_id":"70bc92eb-4e75-4d9b-af3f-35ae9b8ed1a5","system_id":"levelo_inurba_marseille","lat":43.311722,"lon":5.387247,"is_reserved":false,"is_disabled":false,"rental_uris":{"android":"levelo://app?vid=70bc92eb-4e75-4d9b-af3f-35ae9b8ed1a5","ios":"levelo://app?vid=70bc92eb-4e75-4d9b-af3f-35ae9b8ed1a5"},"vehicle_type_id":"4","last_reported":1685747232,"current_range_meters":29600,"station_id":"ce4bgv12rcd13ifvqcp0","pricing_plan_id":"free"},{"bike_id":"d9731bc6-20db-4418-9da6-6554aa39302a","system_id":"levelo_inurba_marseille","lat":43.299243,"lon":5.37481,"is_reserved":false,"is_disabled":false,"rental_uris":{"android":"levelo://app?vid=d9731bc6-20db-4418-9da6-6554aa39302a","ios":"levelo://app?vid=d9731bc6-20db-4418-9da6-6554aa39302a"},"vehicle_type_id":"4","last_reported":1685747232,"current_range_meters":400,"station_id":"ce4bgjh2rcd13ifvqbg0","pricing_plan_id":"free"},{"bike_id":"7652560c-7deb-42f7-934b-ad6212fb0a0d","system_id":"levelo_inurba_marseille","lat":43.328371,"lon":5.366909,"is_reserved":false,"is_disabled":false,"rental_uris":{"android":"levelo://app?vid=7652560c-7deb-42f7-934b-ad6212fb0a0d","ios":"levelo://app?vid=7652560c-7deb-42f7-934b-ad6212fb0a0d"},"vehicle_type_id":"4","last_reported":1685747232,"current_range_meters":18400,"station_id":"ce4bhs92rcd13ifvqi0g","pricing_plan_id":"free"},{"bike_id":"6dab6eca-b352-49ea-add2-026ea7782376","system_id":"levelo_inurba_marseille","lat":43.328371,"lon":5.366909,"is_reserved":false,"is_disabled":false,"rental_uris":{"android":"levelo://app?vid=6dab6eca-b352-49ea-add2-026ea7782376","ios":"levelo://app?vid=6dab6eca-b352-49ea-add2-026ea7782376"},"vehicle_type_id":"4","last_reported":1685747232,"current_range_meters":31200,"station_id":"ce4bhs92rcd13ifvqi0g","pricing_plan_id":"free"},{"bike_id":"0daf4039-752f-496b-80e9-a618f55d4936","system_id":"levelo_inurba_marseille","lat":43.328371,"lon":5.366909,"is_reserved":false,"is_disabled":false,"rental_uris":{"android":"levelo://app?vid=0daf4039-752f-496b-80e9-a618f55d4936","ios":"levelo://app?vid=0daf4039-752f-496b-80e9-a618f55d4936"},"vehicle_type_id":"4","last_reported":1685747232,"current_range_meters":31200,"station_id":"ce4bhs92rcd13ifvqi0g","pricing_plan_id":"free"},{"bike_id":"3df85bc5-dfcb-4777-95e4-83da0b168eb3","system_id":"levelo_inurba_marseille","lat":43.328371,"lon":5.366909,"is_reserved":false,"is_disabled":false,"rental_uris":{"android":"levelo://app?vid=3df85bc5-dfcb-4777-95e4-83da0b168eb3","ios":"levelo://app?vid=3df85bc5-dfcb-4777-95e4-83da0b168eb3"},"vehicle_type_id":"4","last_reported":1685747232,"current_range_meters":30000,"station_id":"ce4bhs92rcd13ifvqi0g","pricing_plan_id":"free"},{"bike_id":"b74363e3-c470-421b-a209-a2323c5d5cf3","system_id":"levelo_inurba_marseille","lat":43.328371,"lon":5.366909,"is_reserved":false,"is_disabled":false,"rental_uris":{"android":"levelo://app?vid=b74363e3-c470-421b-a209-a2323c5d5cf3","ios":"levelo://app?vid=b74363e3-c470-421b-a209-a2323c5d5cf3"},"vehicle_type_id":"4","last_reported":1685747232,"current_range_meters":31200,"station_id":"ce4bhs92rcd13ifvqi0g","pricing_plan_id":"free"},{"bike_id":"73358a4c-93c0-4eda-a88d-776a673cd973","system_id":"levelo_inurba_marseille","lat":43.328371,"lon":5.366909,"is_reserved":false,"is_disabled":false,"rental_uris":{"android":"levelo://app?vid=73358a4c-93c0-4eda-a88d-776a673cd973","ios":"levelo://app?vid=73358a4c-93c0-4eda-a88d-776a673cd973"},"vehicle_type_id":"4","last_reported":1685747232,"current_range_meters":30400,"station_id":"ce4bhs92rcd13ifvqi0g","pricing_plan_id":"free"},{"bike_id":"048d6a5e-97c9-4f67-bf89-16ecba2081b0","system_id":"levelo_inurba_marseille","lat":43.328371,"lon":5.366909,"is_reserved":false,"is_disabled":false,"rental_uris":{"android":"levelo://app?vid=048d6a5e-97c9-4f67-bf89-16ecba2081b0","ios":"levelo://app?vid=048d6a5e-97c9-4f67-bf89-16ecba2081b0"},"vehicle_type_id":"4","last_reported":1685747232,"current_range_meters":22000,"station_id":"ce4bhs92rcd13ifvqi0g","pricing_plan_id":"free"},{"bike_id":"d308f696-6458-4415-97ec-0d05b605b33d","system_id":"levelo_inurba_marseille","lat":43.32834,"lon":5.36685,"is_reserved":false,"is_disabled":false,"rental_uris":{"android":"levelo://app?vid=d308f696-6458-4415-97ec-0d05b605b33d","ios":"levelo://app?vid=d308f696-6458-4415-97ec-0d05b605b33d"},"vehicle_type_id":"4","last_reported":1685747232,"current_range_meters":30400,"station_id":"ce4bhs92rcd13ifvqi0g","pricing_plan_id":"free"},{"bike_id":"44461937-e383-441a-8ed9-77517a1c8c2f","system_id":"levelo_inurba_marseille","lat":43.328371,"lon":5.366909,"is_reserved":false,"is_disabled":false,"rental_uris":{"android":"levelo://app?vid=44461937-e383-441a-8ed9-77517a1c8c2f","ios":"levelo://app?vid=44461937-e383-441a-8ed9-77517a1c8c2f"},"vehicle_type_id":"4","last_reported":1685747232,"current_range_meters":20000,"station_id":"ce4bhs92rcd13ifvqi0g","pricing_plan_id":"free"},{"bike_id":"d6105775-21f9-4648-a29a-9e55e0ac685a","system_id":"levelo_inurba_marseille","lat":43.29714,"lon":5.36609,"is_reserved":false,"is_disabled":false,"rental_uris":{"android":"levelo://app?vid=d6105775-21f9-4648-a29a-9e55e0ac685a","ios":"levelo://app?vid=d6105775-21f9-4648-a29a-9e55e0ac685a"},"vehicle_type_id":"4","last_reported":1685747232,"current_range_meters":5600,"station_id":"","pricing_plan_id":"free"},{"bike_id":"4b4fdb72-f198-4072-b4dc-f9db48376ccd","system_id":"levelo_inurba_marseille","lat":43.296131,"lon":5.370791,"is_reserved":false,"is_disabled":false,"rental_uris":{"android":"levelo://app?vid=4b4fdb72-f198-4072-b4dc-f9db48376ccd","ios":"levelo://app?vid=4b4fdb72-f198-4072-b4dc-f9db48376ccd"},"vehicle_type_id":"4","last_reported":1685747232,"current_range_meters":27600,"station_id":"ce4bgnh2rcd13ifvqc0g","pricing_plan_id":"free"},{"bike_id":"11bb5bbc-864c-47e1-9f03-c9c194bd04b3","system_id":"levelo_inurba_marseille","lat":43.31756,"lon":5.38991,"is_reserved":false,"is_disabled":false,"rental_uris":{"android":"levelo://app?vid=11bb5bbc-864c-47e1-9f03-c9c194bd04b3","ios":"levelo://app?vid=11bb5bbc-864c-47e1-9f03-c9c194bd04b3"},"vehicle_type_id":"4","last_reported":1685747232,"current_range_meters":24000,"station_id":"ce4bhqp2rcd13ifvqhng","pricing_plan_id":"free"},{"bike_id":"cdf5b3d0-7343-44e4-a7cb-07ab422cee11","system_id":"levelo_inurba_marseille","lat":43.304278,"lon":5.388868,"is_reserved":false,"is_disabled":false,"rental_uris":{"android":"levelo://app?vid=cdf5b3d0-7343-44e4-a7cb-07ab422cee11","ios":"levelo://app?vid=cdf5b3d0-7343-44e4-a7cb-07ab422cee11"},"vehicle_type_id":"4","last_reported":1685747232,"current_range_meters":24400,"station_id":"ce4bgk12rcd13ifvqbi0","pricing_plan_id":"free"},{"bike_id":"d321ec47-f166-4381-afa6-7bf9afc7eee8","system_id":"levelo_inurba_marseille","lat":43.32367,"lon":5.388836,"is_reserved":false,"is_disabled":false,"rental_uris":{"android":"levelo://app?vid=d321ec47-f166-4381-afa6-7bf9afc7eee8","ios":"levelo://app?vid=d321ec47-f166-4381-afa6-7bf9afc7eee8"},"vehicle_type_id":"4","last_reported":1685747232,"current_range_meters":28800,"station_id":"ce4bhqp2rcd13ifvqhog","pricing_plan_id":"free"},{"bike_id":"0c7ce3fd-9fe0-458e-9687-20b832dfee04","system_id":"levelo_inurba_marseille","lat":43.32367,"lon":5.388836,"is_reserved":false,"is_disabled":false,"rental_uris":{"android":"levelo://app?vid=0c7ce3fd-9fe0-458e-9687-20b832dfee04","ios":"levelo://app?vid=0c7ce3fd-9fe0-458e-9687-20b832dfee04"},"vehicle_type_id":"4","last_reported":1685747232,"current_range_meters":15600,"station_id":"ce4bhqp2rcd13ifvqhog","pricing_plan_id":"free"},{"bike_id":"90bbfd03-d00c-4933-b38d-99b5da852988","system_id":"levelo_inurba_marseille","lat":43.32367,"lon":5.388836,"is_reserved":false,"is_disabled":false,"rental_uris":{"android":"levelo://app?vid=90bbfd03-d00c-4933-b38d-99b5da852988","ios":"levelo://app?vid=90bbfd03-d00c-4933-b38d-99b5da852988"},"vehicle_type_id":"4","last_reported":1685747232,"current_range_meters":31200,"station_id":"ce4bhqp2rcd13ifvqhog","pricing_plan_id":"free"},{"bike_id":"2bf9f571-8ae5-431e-aedf-1c815125cefd","system_id":"levelo_inurba_marseille","lat":43.32368,"lon":5.38882,"is_reserved":false,"is_disabled":false,"rental_uris":{"android":"levelo://app?vid=2bf9f571-8ae5-431e-aedf-1c815125cefd","ios":"levelo://app?vid=2bf9f571-8ae5-431e-aedf-1c815125cefd"},"vehicle_type_id":"4","last_reported":1685747232,"current_range_meters":24400,"station_id":"ce4bhqp2rcd13ifvqhog","pricing_plan_id":"free"},{"bike_id":"eb500a68-299c-4bfe-996b-c50aa893b955","system_id":"levelo_inurba_marseille","lat":43.32367,"lon":5.388836,"is_reserved":false,"is_disabled":false,"rental_uris":{"android":"levelo://app?vid=eb500a68-299c-4bfe-996b-c50aa893b955","ios":"levelo://app?vid=eb500a68-299c-4bfe-996b-c50aa893b955"},"vehicle_type_id":"4","last_reported":1685747232,"current_range_meters":16400,"station_id":"ce4bhqp2rcd13ifvqhog","pricing_plan_id":"free"},{"bike_id":"c07fe0f2-772a-435f-9629-10108908cbeb","system_id":"levelo_inurba_marseille","lat":43.32367,"lon":5.388836,"is_reserved":false,"is_disabled":false,"rental_uris":{"android":"levelo://app?vid=c07fe0f2-772a-435f-9629-10108908cbeb","ios":"levelo://app?vid=c07fe0f2-772a-435f-9629-10108908cbeb"},"vehicle_type_id":"4","last_reported":1685747232,"current_range_meters":30400,"station_id":"ce4bhqp2rcd13ifvqhog","pricing_plan_id":"free"},{"bike_id":"d9b3487e-4661-4b3b-a198-2212de300ca1","system_id":"levelo_inurba_marseille","lat":43.32367,"lon":5.38885,"is_reserved":false,"is_disabled":false,"rental_uris":{"android":"levelo://app?vid=d9b3487e-4661-4b3b-a198-2212de300ca1","ios":"levelo://app?vid=d9b3487e-4661-4b3b-a198-2212de300ca1"},"vehicle_type_id":"4","last_reported":1685747232,"current_range_meters":31200,"station_id":"ce4bhqp2rcd13ifvqhog","pricing_plan_id":"free"},{"bike_id":"f9d921c7-2ef6-4ab2-82e7-cc44198c1f8b","system_id":"levelo_inurba_marseille","lat":43.2936,"lon":5.37835,"is_reserved":false,"is_disabled":false,"rental_uris":{"android":"levelo://app?vid=f9d921c7-2ef6-4ab2-82e7-cc44198c1f8b","ios":"levelo://app?vid=f9d921c7-2ef6-4ab2-82e7-cc44198c1f8b"},"vehicle_type_id":"4","last_reported":1685747232,"current_range_meters":0,"station_id":"ce4bgjh2rcd13ifvqbf0","pricing_plan_id":"free"},{"bike_id":"759aeb7c-44c7-4029-b86a-6b0e03d2ef5b","system_id":"levelo_inurba_marseille","lat":43.292311,"lon":5.360731,"is_reserved":false,"is_disabled":false,"rental_uris":{"android":"levelo://app?vid=759aeb7c-44c7-4029-b86a-6b0e03d2ef5b","ios":"levelo://app?vid=759aeb7c-44c7-4029-b86a-6b0e03d2ef5b"},"vehicle_type_id":"4","last_reported":1685747232,"current_range_meters":28000,"station_id":"ce4bhbh2rcd13ifvqeqg","pricing_plan_id":"free"},{"bike_id":"fd9bf868-c8c4-4dc9-8e33-9932713df5e8","system_id":"levelo_inurba_marseille","lat":43.292311,"lon":5.360731,"is_reserved":false,"is_disabled":false,"rental_uris":{"android":"levelo://app?vid=fd9bf868-c8c4-4dc9-8e33-9932713df5e8","ios":"levelo://app?vid=fd9bf868-c8c4-4dc9-8e33-9932713df5e8"},"vehicle_type_id":"4","last_reported":1685747232,"current_range_meters":31200,"station_id":"ce4bhbh2rcd13ifvqeqg","pricing_plan_id":"free"},{"bike_id":"acede229-4307-4027-83e0-0a1b078d8e47","system_id":"levelo_inurba_marseille","lat":43.292311,"lon":5.360731,"is_reserved":false,"is_disabled":false,"rental_uris":{"android":"levelo://app?vid=acede229-4307-4027-83e0-0a1b078d8e47","ios":"levelo://app?vid=acede229-4307-4027-83e0-0a1b078d8e47"},"vehicle_type_id":"4","last_reported":1685747232,"current_range_meters":31200,"station_id":"ce4bhbh2rcd13ifvqeqg","pricing_plan_id":"free"},{"bike_id":"b3473942-1991-42c6-8293-08c035fbfcb6","system_id":"levelo_inurba_marseille","lat":43.292311,"lon":5.360731,"is_reserved":false,"is_disabled":false,"rental_uris":{"android":"levelo://app?vid=b3473942-1991-42c6-8293-08c035fbfcb6","ios":"levelo://app?vid=b3473942-1991-42c6-8293-08c035fbfcb6"},"vehicle_type_id":"4","last_reported":1685747232,"current_range_meters":24800,"station_id":"ce4bhbh2rcd13ifvqeqg","pricing_plan_id":"free"},{"bike_id":"7e18a646-b9ee-46ab-bff6-6a63b803e8a1","system_id":"levelo_inurba_marseille","lat":43.29217,"lon":5.36052,"is_reserved":false,"is_disabled":false,"rental_uris":{"android":"levelo://app?vid=7e18a646-b9ee-46ab-bff6-6a63b803e8a1","ios":"levelo://app?vid=7e18a646-b9ee-46ab-bff6-6a63b803e8a1"},"vehicle_type_id":"4","last_reported":1685747232,"current_range_meters":26800,"station_id":"ce4bhbh2rcd13ifvqeqg","pricing_plan_id":"free"},{"bike_id":"d1a6650d-935a-419a-a873-62e13d60b6c2","system_id":"levelo_inurba_marseille","lat":43.309038,"lon":5.396546,"is_reserved":false,"is_disabled":false,"rental_uris":{"android":"levelo://app?vid=d1a6650d-935a-419a-a873-62e13d60b6c2","ios":"levelo://app?vid=d1a6650d-935a-419a-a873-62e13d60b6c2"},"vehicle_type_id":"4","last_reported":1685747232,"current_range_meters":13200,"station_id":"ce4bh012rcd13ifvqcv0","pricing_plan_id":"free"},{"bike_id":"5a660338-3281-43aa-affc-986af7b1f5e7","system_id":"levelo_inurba_marseille","lat":43.31923,"lon":5.39547,"is_reserved":false,"is_disabled":false,"rental_uris":{"android":"levelo://app?vid=5a660338-3281-43aa-affc-986af7b1f5e7","ios":"levelo://app?vid=5a660338-3281-43aa-affc-986af7b1f5e7"},"vehicle_type_id":"4","last_reported":1685747232,"current_range_meters":1200,"station_id":"","pricing_plan_id":"free"},{"bike_id":"f9d85423-b698-451a-bb5d-ba6486065bf8","system_id":"levelo_inurba_marseille","lat":43.309038,"lon":5.396546,"is_reserved":false,"is_disabled":false,"rental_uris":{"android":"levelo://app?vid=f9d85423-b698-451a-bb5d-ba6486065bf8","ios":"levelo://app?vid=f9d85423-b698-451a-bb5d-ba6486065bf8"},"vehicle_type_id":"4","last_reported":1685747232,"current_range_meters":14800,"station_id":"ce4bh012rcd13ifvqcv0","pricing_plan_id":"free"},{"bike_id":"adf8ec18-3a4b-4dcd-803c-846068b7f320","system_id":"levelo_inurba_marseille","lat":43.31328,"lon":5.39689,"is_reserved":false,"is_disabled":false,"rental_uris":{"android":"levelo://app?vid=adf8ec18-3a4b-4dcd-803c-846068b7f320","ios":"levelo://app?vid=adf8ec18-3a4b-4dcd-803c-846068b7f320"},"vehicle_type_id":"4","last_reported":1685747232,"current_range_meters":4800,"station_id":"ce4bgvp2rcd13ifvqcu0","pricing_plan_id":"free"},{"bike_id":"32f9a4a8-e94c-477d-9f4d-1587098b798e","system_id":"levelo_inurba_marseille","lat":43.31324,"lon":5.39691,"is_reserved":false,"is_disabled":false,"rental_uris":{"android":"levelo://app?vid=32f9a4a8-e94c-477d-9f4d-1587098b798e","ios":"levelo://app?vid=32f9a4a8-e94c-477d-9f4d-1587098b798e"},"vehicle_type_id":"4","last_reported":1685747232,"current_range_meters":2800,"station_id":"ce4bgvp2rcd13ifvqcu0","pricing_plan_id":"free"},{"bike_id":"0ea733ff-4d0a-405d-a8c2-ef10d28e67ba","system_id":"levelo_inurba_marseille","lat":43.31327,"lon":5.39691,"is_reserved":false,"is_disabled":false,"rental_uris":{"android":"levelo://app?vid=0ea733ff-4d0a-405d-a8c2-ef10d28e67ba","ios":"levelo://app?vid=0ea733ff-4d0a-405d-a8c2-ef10d28e67ba"},"vehicle_type_id":"4","last_reported":1685747232,"current_range_meters":14400,"station_id":"ce4bgvp2rcd13ifvqcu0","pricing_plan_id":"free"},{"bike_id":"e79598f5-7a3d-4734-8fa1-aa447d4c1019","system_id":"levelo_inurba_marseille","lat":43.313291,"lon":5.396838,"is_reserved":false,"is_disabled":false,"rental_uris":{"android":"levelo://app?vid=e79598f5-7a3d-4734-8fa1-aa447d4c1019","ios":"levelo://app?vid=e79598f5-7a3d-4734-8fa1-aa447d4c1019"},"vehicle_type_id":"4","last_reported":1685747232,"current_range_meters":3200,"station_id":"ce4bgvp2rcd13ifvqcu0","pricing_plan_id":"free"},{"bike_id":"4358e34b-5910-4761-bd1e-0ec8ea81613c","system_id":"levelo_inurba_marseille","lat":43.313291,"lon":5.396838,"is_reserved":false,"is_disabled":false,"rental_uris":{"android":"levelo://app?vid=4358e34b-5910-4761-bd1e-0ec8ea81613c","ios":"levelo://app?vid=4358e34b-5910-4761-bd1e-0ec8ea81613c"},"vehicle_type_id":"4","last_reported":1685747232,"current_range_meters":800,"station_id":"ce4bgvp2rcd13ifvqcu0","pricing_plan_id":"free"},{"bike_id":"59ff721e-72f2-41a0-8530-1e486b804ac0","system_id":"levelo_inurba_marseille","lat":43.31329,"lon":5.39694,"is_reserved":false,"is_disabled":false,"rental_uris":{"android":"levelo://app?vid=59ff721e-72f2-41a0-8530-1e486b804ac0","ios":"levelo://app?vid=59ff721e-72f2-41a0-8530-1e486b804ac0"},"vehicle_type_id":"4","last_reported":1685747232,"current_range_meters":0,"station_id":"ce4bgvp2rcd13ifvqcu0","pricing_plan_id":"free"},{"bike_id":"f6ffafdb-681d-4290-a099-84c2b2143762","system_id":"levelo_inurba_marseille","lat":43.29529,"lon":5.385581,"is_reserved":false,"is_disabled":false,"rental_uris":{"android":"levelo://app?vid=f6ffafdb-681d-4290-a099-84c2b2143762","ios":"levelo://app?vid=f6ffafdb-681d-4290-a099-84c2b2143762"},"vehicle_type_id":"4","last_reported":1685747232,"current_range_meters":11200,"station_id":"ce4bgih2rcd13ifvqba0","pricing_plan_id":"free"},{"bike_id":"a1d588f9-8125-4a8f-9f59-c1cf1bdc5430","system_id":"levelo_inurba_marseille","lat":43.32825,"lon":5.38899,"is_reserved":false,"is_disabled":false,"rental_uris":{"android":"levelo://app?vid=a1d588f9-8125-4a8f-9f59-c1cf1bdc5430","ios":"levelo://app?vid=a1d588f9-8125-4a8f-9f59-c1cf1bdc5430"},"vehicle_type_id":"4","last_reported":1685747232,"current_range_meters":19600,"station_id":"","pricing_plan_id":"free"},{"bike_id":"47c45d6a-3281-4d22-aff7-b10ef7d4f0c3","system_id":"levelo_inurba_marseille","lat":43.290624,"lon":5.359245,"is_reserved":false,"is_disabled":false,"rental_uris":{"android":"levelo://app?vid=47c45d6a-3281-4d22-aff7-b10ef7d4f0c3","ios":"levelo://app?vid=47c45d6a-3281-4d22-aff7-b10ef7d4f0c3"},"vehicle_type_id":"4","last_reported":1685747232,"current_range_meters":4800,"station_id":"ce4bha92rcd13ifvqeg0","pricing_plan_id":"free"},{"bike_id":"77212865-af0c-42d6-af71-d9902d00955b","system_id":"levelo_inurba_marseille","lat":43.290631,"lon":5.359244,"is_reserved":false,"is_disabled":false,"rental_uris":{"android":"levelo://app?vid=77212865-af0c-42d6-af71-d9902d00955b","ios":"levelo://app?vid=77212865-af0c-42d6-af71-d9902d00955b"},"vehicle_type_id":"4","last_reported":1685747232,"current_range_meters":800,"station_id":"ce4bha92rcd13ifvqeg0","pricing_plan_id":"free"},{"bike_id":"e8cfecc0-1b0a-4db8-ba2b-2cc5bc764368","system_id":"levelo_inurba_marseille","lat":43.290631,"lon":5.359244,"is_reserved":false,"is_disabled":false,"rental_uris":{"android":"levelo://app?vid=e8cfecc0-1b0a-4db8-ba2b-2cc5bc764368","ios":"levelo://app?vid=e8cfecc0-1b0a-4db8-ba2b-2cc5bc764368"},"vehicle_type_id":"4","last_reported":1685747232,"current_range_meters":10400,"station_id":"ce4bha92rcd13ifvqeg0","pricing_plan_id":"free"},{"bike_id":"1b2c3aa0-a9ed-47e7-9512-26724f25000a","system_id":"levelo_inurba_marseille","lat":43.289468,"lon":5.363719,"is_reserved":false,"is_disabled":false,"rental_uris":{"android":"levelo://app?vid=1b2c3aa0-a9ed-47e7-9512-26724f25000a","ios":"levelo://app?vid=1b2c3aa0-a9ed-47e7-9512-26724f25000a"},"vehicle_type_id":"4","last_reported":1685747232,"current_range_meters":8400,"station_id":"ce4bhc92rcd13ifvqetg","pricing_plan_id":"free"},{"bike_id":"5800ad4f-4ef5-463a-854d-476788448579","system_id":"levelo_inurba_marseille","lat":43.289184,"lon":5.366408,"is_reserved":false,"is_disabled":false,"rental_uris":{"android":"levelo://app?vid=5800ad4f-4ef5-463a-854d-476788448579","ios":"levelo://app?vid=5800ad4f-4ef5-463a-854d-476788448579"},"vehicle_type_id":"4","last_reported":1685747232,"current_range_meters":24800,"station_id":"ce4bhap2rcd13ifvqek0","pricing_plan_id":"free"},{"bike_id":"4c3cc210-217c-44c5-b407-34034f77d986","system_id":"levelo_inurba_marseille","lat":43.292732,"lon":5.384388,"is_reserved":false,"is_disabled":false,"rental_uris":{"android":"levelo://app?vid=4c3cc210-217c-44c5-b407-34034f77d986","ios":"levelo://app?vid=4c3cc210-217c-44c5-b407-34034f77d986"},"vehicle_type_id":"4","last_reported":1685747232,"current_range_meters":1600,"station_id":"","pricing_plan_id":"free"},{"bike_id":"1dfc2497-6afc-4dbe-9848-d14a8e7894c1","system_id":"levelo_inurba_marseille","lat":43.304296,"lon":5.397513,"is_reserved":false,"is_disabled":false,"rental_uris":{"android":"levelo://app?vid=1dfc2497-6afc-4dbe-9848-d14a8e7894c1","ios":"levelo://app?vid=1dfc2497-6afc-4dbe-9848-d14a8e7894c1"},"vehicle_type_id":"4","last_reported":1685747232,"current_range_meters":30000,"station_id":"ce4bh092rcd13ifvqd20","pricing_plan_id":"free"},{"bike_id":"a05aa7b2-65ae-4c00-9ac7-36200056da53","system_id":"levelo_inurba_marseille","lat":43.33041,"lon":5.38918,"is_reserved":false,"is_disabled":false,"rental_uris":{"android":"levelo://app?vid=a05aa7b2-65ae-4c00-9ac7-36200056da53","ios":"levelo://app?vid=a05aa7b2-65ae-4c00-9ac7-36200056da53"},"vehicle_type_id":"4","last_reported":1685747232,"current_range_meters":31200,"station_id":"ce4bhr92rcd13ifvqhrg","pricing_plan_id":"free"},{"bike_id":"7fbe2b05-a5e8-4532-8c57-f49535c9b783","system_id":"levelo_inurba_marseille","lat":43.290103,"lon":5.356114,"is_reserved":false,"is_disabled":false,"rental_uris":{"android":"levelo://app?vid=7fbe2b05-a5e8-4532-8c57-f49535c9b783","ios":"levelo://app?vid=7fbe2b05-a5e8-4532-8c57-f49535c9b783"},"vehicle_type_id":"4","last_reported":1685747232,"current_range_meters":19600,"station_id":"ce4bhb92rcd13ifvqen0","pricing_plan_id":"free"},{"bike_id":"ed2abfbf-5d18-4d0b-bd71-f6870d3f0b33","system_id":"levelo_inurba_marseille","lat":43.290103,"lon":5.356114,"is_reserved":false,"is_disabled":false,"rental_uris":{"android":"levelo://app?vid=ed2abfbf-5d18-4d0b-bd71-f6870d3f0b33","ios":"levelo://app?vid=ed2abfbf-5d18-4d0b-bd71-f6870d3f0b33"},"vehicle_type_id":"4","last_reported":1685747232,"current_range_meters":13200,"station_id":"ce4bhb92rcd13ifvqen0","pricing_plan_id":"free"},{"bike_id":"de3fa562-6a21-47d4-924e-40a9cccb564c","system_id":"levelo_inurba_marseille","lat":43.290104,"lon":5.356111,"is_reserved":false,"is_disabled":false,"rental_uris":{"android":"levelo://app?vid=de3fa562-6a21-47d4-924e-40a9cccb564c","ios":"levelo://app?vid=de3fa562-6a21-47d4-924e-40a9cccb564c"},"vehicle_type_id":"4","last_reported":1685747232,"current_range_meters":14400,"station_id":"ce4bhb92rcd13ifvqen0","pricing_plan_id":"free"},{"bike_id":"2364282a-cb9d-46e5-8a93-f3855a133753","system_id":"levelo_inurba_marseille","lat":43.330427,"lon":5.38921,"is_reserved":false,"is_disabled":false,"rental_uris":{"android":"levelo://app?vid=2364282a-cb9d-46e5-8a93-f3855a133753","ios":"levelo://app?vid=2364282a-cb9d-46e5-8a93-f3855a133753"},"vehicle_type_id":"4","last_reported":1685747232,"current_range_meters":22400,"station_id":"ce4bhr92rcd13ifvqhrg","pricing_plan_id":"free"},{"bike_id":"d3734765-7e17-4b5c-b8b8-18e0371734d3","system_id":"levelo_inurba_marseille","lat":43.290047,"lon":5.356188,"is_reserved":false,"is_disabled":false,"rental_uris":{"android":"levelo://app?vid=d3734765-7e17-4b5c-b8b8-18e0371734d3","ios":"levelo://app?vid=d3734765-7e17-4b5c-b8b8-18e0371734d3"},"vehicle_type_id":"4","last_reported":1685747232,"current_range_meters":11600,"station_id":"ce4bhb92rcd13ifvqen0","pricing_plan_id":"free"},{"bike_id":"7ab84e8f-1fa6-4f4f-b099-a6e72e9c6309","system_id":"levelo_inurba_marseille","lat":43.290104,"lon":5.356111,"is_reserved":false,"is_disabled":false,"rental_uris":{"android":"levelo://app?vid=7ab84e8f-1fa6-4f4f-b099-a6e72e9c6309","ios":"levelo://app?vid=7ab84e8f-1fa6-4f4f-b099-a6e72e9c6309"},"vehicle_type_id":"4","last_reported":1685747232,"current_range_meters":26800,"station_id":"ce4bhb92rcd13ifvqen0","pricing_plan_id":"free"},{"bike_id":"dcaee3ce-2de8-461c-8110-4e63ad8c3250","system_id":"levelo_inurba_marseille","lat":43.28856,"lon":5.358371,"is_reserved":false,"is_disabled":false,"rental_uris":{"android":"levelo://app?vid=dcaee3ce-2de8-461c-8110-4e63ad8c3250","ios":"levelo://app?vid=dcaee3ce-2de8-461c-8110-4e63ad8c3250"},"vehicle_type_id":"4","last_reported":1685747232,"current_range_meters":11200,"station_id":"ce4bhb12rcd13ifvqem0","pricing_plan_id":"free"},{"bike_id":"6bf9cdc0-5ce1-40ac-b1df-4f7ac0382344","system_id":"levelo_inurba_marseille","lat":43.28856,"lon":5.358371,"is_reserved":false,"is_disabled":false,"rental_uris":{"android":"levelo://app?vid=6bf9cdc0-5ce1-40ac-b1df-4f7ac0382344","ios":"levelo://app?vid=6bf9cdc0-5ce1-40ac-b1df-4f7ac0382344"},"vehicle_type_id":"4","last_reported":1685747232,"current_range_meters":25200,"station_id":"ce4bhb12rcd13ifvqem0","pricing_plan_id":"free"},{"bike_id":"1dcaa270-78fa-460e-81ea-78c9a76c8a12","system_id":"levelo_inurba_marseille","lat":43.30933,"lon":5.40135,"is_reserved":false,"is_disabled":false,"rental_uris":{"android":"levelo://app?vid=1dcaa270-78fa-460e-81ea-78c9a76c8a12","ios":"levelo://app?vid=1dcaa270-78fa-460e-81ea-78c9a76c8a12"},"vehicle_type_id":"4","last_reported":1685747232,"current_range_meters":6000,"station_id":"","pricing_plan_id":"free"},{"bike_id":"d2d22ada-ab7a-43df-8c6e-c627b2b9b36e","system_id":"levelo_inurba_marseille","lat":43.30923,"lon":5.40141,"is_reserved":false,"is_disabled":false,"rental_uris":{"android":"levelo://app?vid=d2d22ada-ab7a-43df-8c6e-c627b2b9b36e","ios":"levelo://app?vid=d2d22ada-ab7a-43df-8c6e-c627b2b9b36e"},"vehicle_type_id":"4","last_reported":1685747232,"current_range_meters":30000,"station_id":"","pricing_plan_id":"free"},{"bike_id":"50b1b457-64ff-454b-ba1d-356e92ae89a8","system_id":"levelo_inurba_marseille","lat":43.33764,"lon":5.37429,"is_reserved":false,"is_disabled":false,"rental_uris":{"android":"levelo://app?vid=50b1b457-64ff-454b-ba1d-356e92ae89a8","ios":"levelo://app?vid=50b1b457-64ff-454b-ba1d-356e92ae89a8"},"vehicle_type_id":"4","last_reported":1685747232,"current_range_meters":27200,"station_id":"","pricing_plan_id":"free"},{"bike_id":"cf0caa37-cec8-408b-98f7-37211a80813c","system_id":"levelo_inurba_marseille","lat":43.33764,"lon":5.37431,"is_reserved":false,"is_disabled":false,"rental_uris":{"android":"levelo://app?vid=cf0caa37-cec8-408b-98f7-37211a80813c","ios":"levelo://app?vid=cf0caa37-cec8-408b-98f7-37211a80813c"},"vehicle_type_id":"4","last_reported":1685747232,"current_range_meters":26000,"station_id":"","pricing_plan_id":"free"},{"bike_id":"56013001-df16-4bea-a061-ef8ad84b1a20","system_id":"levelo_inurba_marseille","lat":43.301117,"lon":5.398795,"is_reserved":false,"is_disabled":false,"rental_uris":{"android":"levelo://app?vid=56013001-df16-4bea-a061-ef8ad84b1a20","ios":"levelo://app?vid=56013001-df16-4bea-a061-ef8ad84b1a20"},"vehicle_type_id":"4","last_reported":1685747232,"current_range_meters":3200,"station_id":"ce4bh0h2rcd13ifvqd40","pricing_plan_id":"free"},{"bike_id":"1e99ac6e-7d7a-4593-b7b0-57db9860f11a","system_id":"levelo_inurba_marseille","lat":43.301117,"lon":5.398795,"is_reserved":false,"is_disabled":false,"rental_uris":{"android":"levelo://app?vid=1e99ac6e-7d7a-4593-b7b0-57db9860f11a","ios":"levelo://app?vid=1e99ac6e-7d7a-4593-b7b0-57db9860f11a"},"vehicle_type_id":"4","last_reported":1685747232,"current_range_meters":0,"station_id":"ce4bh0h2rcd13ifvqd40","pricing_plan_id":"free"},{"bike_id":"1a377100-9b1f-404f-bdf8-15dc6b0440f8","system_id":"levelo_inurba_marseille","lat":43.286591,"lon":5.363346,"is_reserved":false,"is_disabled":false,"rental_uris":{"android":"levelo://app?vid=1a377100-9b1f-404f-bdf8-15dc6b0440f8","ios":"levelo://app?vid=1a377100-9b1f-404f-bdf8-15dc6b0440f8"},"vehicle_type_id":"4","last_reported":1685747232,"current_range_meters":20800,"station_id":"ce4bhah2rcd13ifvqej0","pricing_plan_id":"free"},{"bike_id":"62471284-817f-4776-a359-0f3ed585184e","system_id":"levelo_inurba_marseille","lat":43.28676,"lon":5.36337,"is_reserved":false,"is_disabled":false,"rental_uris":{"android":"levelo://app?vid=62471284-817f-4776-a359-0f3ed585184e","ios":"levelo://app?vid=62471284-817f-4776-a359-0f3ed585184e"},"vehicle_type_id":"4","last_reported":1685747232,"current_range_meters":10000,"station_id":"ce4bhah2rcd13ifvqej0","pricing_plan_id":"free"},{"bike_id":"bfc763a5-e9b5-4c1a-978a-c477d04e4b19","system_id":"levelo_inurba_marseille","lat":43.298681,"lon":5.397225,"is_reserved":false,"is_disabled":false,"rental_uris":{"android":"levelo://app?vid=bfc763a5-e9b5-4c1a-978a-c477d04e4b19","ios":"levelo://app?vid=bfc763a5-e9b5-4c1a-978a-c477d04e4b19"},"vehicle_type_id":"4","last_reported":1685747232,"current_range_meters":29200,"station_id":"ce4bh0h2rcd13ifvqd50","pricing_plan_id":"free"},{"bike_id":"77509f90-f795-4260-9f37-e1325c8ee0a5","system_id":"levelo_inurba_marseille","lat":43.286593,"lon":5.363346,"is_reserved":false,"is_disabled":false,"rental_uris":{"android":"levelo://app?vid=77509f90-f795-4260-9f37-e1325c8ee0a5","ios":"levelo://app?vid=77509f90-f795-4260-9f37-e1325c8ee0a5"},"vehicle_type_id":"4","last_reported":1685747232,"current_range_meters":22400,"station_id":"ce4bhah2rcd13ifvqej0","pricing_plan_id":"free"},{"bike_id":"7793fee7-1271-4c83-b3aa-a8cc8be25d1c","system_id":"levelo_inurba_marseille","lat":43.286591,"lon":5.363346,"is_reserved":false,"is_disabled":false,"rental_uris":{"android":"levelo://app?vid=7793fee7-1271-4c83-b3aa-a8cc8be25d1c","ios":"levelo://app?vid=7793fee7-1271-4c83-b3aa-a8cc8be25d1c"},"vehicle_type_id":"4","last_reported":1685747232,"current_range_meters":30400,"station_id":"ce4bhah2rcd13ifvqej0","pricing_plan_id":"free"},{"bike_id":"789f1bfc-a062-43ff-b409-c09b697a8635","system_id":"levelo_inurba_marseille","lat":43.28702,"lon":5.37393,"is_reserved":false,"is_disabled":false,"rental_uris":{"android":"levelo://app?vid=789f1bfc-a062-43ff-b409-c09b697a8635","ios":"levelo://app?vid=789f1bfc-a062-43ff-b409-c09b697a8635"},"vehicle_type_id":"4","last_reported":1685747232,"current_range_meters":10400,"station_id":"","pricing_plan_id":"free"},{"bike_id":"989bc882-f145-4bad-82be-ef8f0e6e02f0","system_id":"levelo_inurba_marseille","lat":43.29518,"lon":5.39399,"is_reserved":false,"is_disabled":false,"rental_uris":{"android":"levelo://app?vid=989bc882-f145-4bad-82be-ef8f0e6e02f0","ios":"levelo://app?vid=989bc882-f145-4bad-82be-ef8f0e6e02f0"},"vehicle_type_id":"4","last_reported":1685747232,"current_range_meters":0,"station_id":"ce4bh292rcd13ifvqdf0","pricing_plan_id":"free"},{"bike_id":"7b86d0d0-68ba-4f72-9b35-84b99b068e14","system_id":"levelo_inurba_marseille","lat":43.295194,"lon":5.39397,"is_reserved":false,"is_disabled":false,"rental_uris":{"android":"levelo://app?vid=7b86d0d0-68ba-4f72-9b35-84b99b068e14","ios":"levelo://app?vid=7b86d0d0-68ba-4f72-9b35-84b99b068e14"},"vehicle_type_id":"4","last_reported":1685747232,"current_range_meters":1200,"station_id":"ce4bh292rcd13ifvqdf0","pricing_plan_id":"free"},{"bike_id":"29b55375-7bd9-47a4-bb1b-07268f9ab116","system_id":"levelo_inurba_marseille","lat":43.290336,"lon":5.386425,"is_reserved":false,"is_disabled":false,"rental_uris":{"android":"levelo://app?vid=29b55375-7bd9-47a4-bb1b-07268f9ab116","ios":"levelo://app?vid=29b55375-7bd9-47a4-bb1b-07268f9ab116"},"vehicle_type_id":"4","last_reported":1685747232,"current_range_meters":16400,"station_id":"ce4bh4p2rcd13ifvqe0g","pricing_plan_id":"free"},{"bike_id":"a84b2fa7-6287-4893-9410-192075795461","system_id":"levelo_inurba_marseille","lat":43.284534,"lon":5.358662,"is_reserved":false,"is_disabled":false,"rental_uris":{"android":"levelo://app?vid=a84b2fa7-6287-4893-9410-192075795461","ios":"levelo://app?vid=a84b2fa7-6287-4893-9410-192075795461"},"vehicle_type_id":"4","last_reported":1685747232,"current_range_meters":2000,"station_id":"ce4bhah2rcd13ifvqei0","pricing_plan_id":"free"},{"bike_id":"21985594-1c80-4638-9091-17a1be078fc9","system_id":"levelo_inurba_marseille","lat":43.284534,"lon":5.358662,"is_reserved":false,"is_disabled":false,"rental_uris":{"android":"levelo://app?vid=21985594-1c80-4638-9091-17a1be078fc9","ios":"levelo://app?vid=21985594-1c80-4638-9091-17a1be078fc9"},"vehicle_type_id":"4","last_reported":1685747232,"current_range_meters":0,"station_id":"ce4bhah2rcd13ifvqei0","pricing_plan_id":"free"},{"bike_id":"a12ba51f-55f8-4386-a7aa-1b644cafb695","system_id":"levelo_inurba_marseille","lat":43.284534,"lon":5.358662,"is_reserved":false,"is_disabled":false,"rental_uris":{"android":"levelo://app?vid=a12ba51f-55f8-4386-a7aa-1b644cafb695","ios":"levelo://app?vid=a12ba51f-55f8-4386-a7aa-1b644cafb695"},"vehicle_type_id":"4","last_reported":1685747232,"current_range_meters":1600,"station_id":"ce4bhah2rcd13ifvqei0","pricing_plan_id":"free"},{"bike_id":"0ab2bb99-5423-4870-b6db-949f0e3d1789","system_id":"levelo_inurba_marseille","lat":43.28463,"lon":5.35892,"is_reserved":false,"is_disabled":false,"rental_uris":{"android":"levelo://app?vid=0ab2bb99-5423-4870-b6db-949f0e3d1789","ios":"levelo://app?vid=0ab2bb99-5423-4870-b6db-949f0e3d1789"},"vehicle_type_id":"4","last_reported":1685747232,"current_range_meters":0,"station_id":"ce4bhah2rcd13ifvqei0","pricing_plan_id":"free"},{"bike_id":"6ee4db24-c8c3-466e-bee1-66c0153f9823","system_id":"levelo_inurba_marseille","lat":43.284534,"lon":5.358662,"is_reserved":false,"is_disabled":false,"rental_uris":{"android":"levelo://app?vid=6ee4db24-c8c3-466e-bee1-66c0153f9823","ios":"levelo://app?vid=6ee4db24-c8c3-466e-bee1-66c0153f9823"},"vehicle_type_id":"4","last_reported":1685747232,"current_range_meters":1200,"station_id":"ce4bhah2rcd13ifvqei0","pricing_plan_id":"free"},{"bike_id":"0a8aba60-b51b-427d-be66-8709066b23d1","system_id":"levelo_inurba_marseille","lat":43.33152,"lon":5.39801,"is_reserved":false,"is_disabled":false,"rental_uris":{"android":"levelo://app?vid=0a8aba60-b51b-427d-be66-8709066b23d1","ios":"levelo://app?vid=0a8aba60-b51b-427d-be66-8709066b23d1"},"vehicle_type_id":"4","last_reported":1685747232,"current_range_meters":31200,"station_id":"","pricing_plan_id":"free"},{"bike_id":"e1dd08f3-e289-4ef1-8eaf-95258cd842b2","system_id":"levelo_inurba_marseille","lat":43.286595,"lon":5.386795,"is_reserved":false,"is_disabled":false,"rental_uris":{"android":"levelo://app?vid=e1dd08f3-e289-4ef1-8eaf-95258cd842b2","ios":"levelo://app?vid=e1dd08f3-e289-4ef1-8eaf-95258cd842b2"},"vehicle_type_id":"4","last_reported":1685747232,"current_range_meters":1200,"station_id":"ce4bh492rcd13ifvqdug","pricing_plan_id":"free"},{"bike_id":"b205e703-9cc6-479d-b47b-dcec15459f4d","system_id":"levelo_inurba_marseille","lat":43.32699,"lon":5.40374,"is_reserved":false,"is_disabled":false,"rental_uris":{"android":"levelo://app?vid=b205e703-9cc6-479d-b47b-dcec15459f4d","ios":"levelo://app?vid=b205e703-9cc6-479d-b47b-dcec15459f4d"},"vehicle_type_id":"4","last_reported":1685747232,"current_range_meters":19600,"station_id":"","pricing_plan_id":"free"},{"bike_id":"0a1605d6-87c9-472d-8606-00b4cb8bcbb4","system_id":"levelo_inurba_marseille","lat":43.323464,"lon":5.406297,"is_reserved":false,"is_disabled":false,"rental_uris":{"android":"levelo://app?vid=0a1605d6-87c9-472d-8606-00b4cb8bcbb4","ios":"levelo://app?vid=0a1605d6-87c9-472d-8606-00b4cb8bcbb4"},"vehicle_type_id":"4","last_reported":1685747232,"current_range_meters":8400,"station_id":"ce4bhq92rcd13ifvqhjg","pricing_plan_id":"free"},{"bike_id":"64b7552f-b80f-4799-8cd3-96cb4e9bafa5","system_id":"levelo_inurba_marseille","lat":43.283494,"lon":5.380945,"is_reserved":false,"is_disabled":false,"rental_uris":{"android":"levelo://app?vid=64b7552f-b80f-4799-8cd3-96cb4e9bafa5","ios":"levelo://app?vid=64b7552f-b80f-4799-8cd3-96cb4e9bafa5"},"vehicle_type_id":"4","last_reported":1685747232,"current_range_meters":7600,"station_id":"ce4bh412rcd13ifvqdr0","pricing_plan_id":"free"},{"bike_id":"f0b7b0d7-36bb-4a49-b2a5-d56fd1181506","system_id":"levelo_inurba_marseille","lat":43.28352,"lon":5.38104,"is_reserved":false,"is_disabled":false,"rental_uris":{"android":"levelo://app?vid=f0b7b0d7-36bb-4a49-b2a5-d56fd1181506","ios":"levelo://app?vid=f0b7b0d7-36bb-4a49-b2a5-d56fd1181506"},"vehicle_type_id":"4","last_reported":1685747232,"current_range_meters":2800,"station_id":"ce4bh412rcd13ifvqdr0","pricing_plan_id":"free"},{"bike_id":"b6dd3111-1ef9-4024-8524-2f931b5bac52","system_id":"levelo_inurba_marseille","lat":43.283494,"lon":5.380945,"is_reserved":false,"is_disabled":false,"rental_uris":{"android":"levelo://app?vid=b6dd3111-1ef9-4024-8524-2f931b5bac52","ios":"levelo://app?vid=b6dd3111-1ef9-4024-8524-2f931b5bac52"},"vehicle_type_id":"4","last_reported":1685747232,"current_range_meters":29600,"station_id":"ce4bh412rcd13ifvqdr0","pricing_plan_id":"free"},{"bike_id":"63248a41-8c9f-4ec7-aecf-e43aad7f733e","system_id":"levelo_inurba_marseille","lat":43.283494,"lon":5.380945,"is_reserved":false,"is_disabled":false,"rental_uris":{"android":"levelo://app?vid=63248a41-8c9f-4ec7-aecf-e43aad7f733e","ios":"levelo://app?vid=63248a41-8c9f-4ec7-aecf-e43aad7f733e"},"vehicle_type_id":"4","last_reported":1685747232,"current_range_meters":6800,"station_id":"ce4bh412rcd13ifvqdr0","pricing_plan_id":"free"},{"bike_id":"fee7ee8b-9689-499f-bb2f-50348ebe565b","system_id":"levelo_inurba_marseille","lat":43.284192,"lon":5.349725,"is_reserved":false,"is_disabled":false,"rental_uris":{"android":"levelo://app?vid=fee7ee8b-9689-499f-bb2f-50348ebe565b","ios":"levelo://app?vid=fee7ee8b-9689-499f-bb2f-50348ebe565b"},"vehicle_type_id":"4","last_reported":1685747232,"current_range_meters":19600,"station_id":"ce4bhbh2rcd13ifvqepg","pricing_plan_id":"free"},{"bike_id":"c52f033d-2f7a-4358-880c-7f50ad991ec2","system_id":"levelo_inurba_marseille","lat":43.28375,"lon":5.38623,"is_reserved":false,"is_disabled":false,"rental_uris":{"android":"levelo://app?vid=c52f033d-2f7a-4358-880c-7f50ad991ec2","ios":"levelo://app?vid=c52f033d-2f7a-4358-880c-7f50ad991ec2"},"vehicle_type_id":"4","last_reported":1685747232,"current_range_meters":0,"station_id":"ce4bh492rcd13ifvqdvg","pricing_plan_id":"free"},{"bike_id":"c4391747-087e-4515-9cbb-b5bc3b595fe2","system_id":"levelo_inurba_marseille","lat":43.29041,"lon":5.399634,"is_reserved":false,"is_disabled":false,"rental_uris":{"android":"levelo://app?vid=c4391747-087e-4515-9cbb-b5bc3b595fe2","ios":"levelo://app?vid=c4391747-087e-4515-9cbb-b5bc3b595fe2"},"vehicle_type_id":"4","last_reported":1685747232,"current_range_meters":26800,"station_id":"ce4bh392rcd13ifvqdm0","pricing_plan_id":"free"},{"bike_id":"577f27c4-ac4c-4964-af16-8bb991bc58d3","system_id":"levelo_inurba_marseille","lat":43.281044,"lon":5.378308,"is_reserved":false,"is_disabled":false,"rental_uris":{"android":"levelo://app?vid=577f27c4-ac4c-4964-af16-8bb991bc58d3","ios":"levelo://app?vid=577f27c4-ac4c-4964-af16-8bb991bc58d3"},"vehicle_type_id":"4","last_reported":1685747232,"current_range_meters":14400,"station_id":"ce4bha12rcd13ifvqee0","pricing_plan_id":"free"},{"bike_id":"afa6ae2a-c4cc-45af-83c5-63564bd73ced","system_id":"levelo_inurba_marseille","lat":43.296263,"lon":5.40601,"is_reserved":false,"is_disabled":false,"rental_uris":{"android":"levelo://app?vid=afa6ae2a-c4cc-45af-83c5-63564bd73ced","ios":"levelo://app?vid=afa6ae2a-c4cc-45af-83c5-63564bd73ced"},"vehicle_type_id":"4","last_reported":1685747232,"current_range_meters":14800,"station_id":"ce4bh0h2rcd13ifvqd60","pricing_plan_id":"free"},{"bike_id":"a6f88c48-87ac-495d-aa60-8442157041ac","system_id":"levelo_inurba_marseille","lat":43.28573,"lon":5.394992,"is_reserved":false,"is_disabled":false,"rental_uris":{"android":"levelo://app?vid=a6f88c48-87ac-495d-aa60-8442157041ac","ios":"levelo://app?vid=a6f88c48-87ac-495d-aa60-8442157041ac"},"vehicle_type_id":"4","last_reported":1685747232,"current_range_meters":0,"station_id":"ce4bh292rcd13ifvqdg0","pricing_plan_id":"free"},{"bike_id":"9de1b2c7-1d91-48ea-80fe-a0f3c74b7a2d","system_id":"levelo_inurba_marseille","lat":43.28575,"lon":5.39497,"is_reserved":false,"is_disabled":false,"rental_uris":{"android":"levelo://app?vid=9de1b2c7-1d91-48ea-80fe-a0f3c74b7a2d","ios":"levelo://app?vid=9de1b2c7-1d91-48ea-80fe-a0f3c74b7a2d"},"vehicle_type_id":"4","last_reported":1685747232,"current_range_meters":5200,"station_id":"ce4bh292rcd13ifvqdg0","pricing_plan_id":"free"},{"bike_id":"5ba43f0e-9370-401e-a4ac-38da2d243a64","system_id":"levelo_inurba_marseille","lat":43.27898,"lon":5.38007,"is_reserved":false,"is_disabled":false,"rental_uris":{"android":"levelo://app?vid=5ba43f0e-9370-401e-a4ac-38da2d243a64","ios":"levelo://app?vid=5ba43f0e-9370-401e-a4ac-38da2d243a64"},"vehicle_type_id":"4","last_reported":1685747232,"current_range_meters":31200,"station_id":"","pricing_plan_id":"free"},{"bike_id":"698ab8a0-c608-4520-881c-08fd33320260","system_id":"levelo_inurba_marseille","lat":43.279,"lon":5.38018,"is_reserved":false,"is_disabled":false,"rental_uris":{"android":"levelo://app?vid=698ab8a0-c608-4520-881c-08fd33320260","ios":"levelo://app?vid=698ab8a0-c608-4520-881c-08fd33320260"},"vehicle_type_id":"4","last_reported":1685747232,"current_range_meters":0,"station_id":"","pricing_plan_id":"free"},{"bike_id":"ecc99947-5ed1-4bd2-84ee-04505db5300d","system_id":"levelo_inurba_marseille","lat":43.27897,"lon":5.38013,"is_reserved":false,"is_disabled":false,"rental_uris":{"android":"levelo://app?vid=ecc99947-5ed1-4bd2-84ee-04505db5300d","ios":"levelo://app?vid=ecc99947-5ed1-4bd2-84ee-04505db5300d"},"vehicle_type_id":"4","last_reported":1685747232,"current_range_meters":4000,"station_id":"","pricing_plan_id":"free"},{"bike_id":"3e4b0161-6deb-4f2f-9446-bd5731c1ed2e","system_id":"levelo_inurba_marseille","lat":43.325233,"lon":5.414318,"is_reserved":false,"is_disabled":false,"rental_uris":{"android":"levelo://app?vid=3e4b0161-6deb-4f2f-9446-bd5731c1ed2e","ios":"levelo://app?vid=3e4b0161-6deb-4f2f-9446-bd5731c1ed2e"},"vehicle_type_id":"4","last_reported":1685747232,"current_range_meters":17600,"station_id":"ce4bhq12rcd13ifvqhhg","pricing_plan_id":"free"},{"bike_id":"0cc6c27a-42c4-4028-92d2-172e5e145cfe","system_id":"levelo_inurba_marseille","lat":43.278401,"lon":5.392152,"is_reserved":false,"is_disabled":false,"rental_uris":{"android":"levelo://app?vid=0cc6c27a-42c4-4028-92d2-172e5e145cfe","ios":"levelo://app?vid=0cc6c27a-42c4-4028-92d2-172e5e145cfe"},"vehicle_type_id":"4","last_reported":1685747232,"current_range_meters":16800,"station_id":"ce4bhjp2rcd13ifvqga0","pricing_plan_id":"free"},{"bike_id":"d0e91e3e-a5ab-4ca6-b4ce-12ccd8e76f02","system_id":"levelo_inurba_marseille","lat":43.27381,"lon":5.36251,"is_reserved":false,"is_disabled":false,"rental_uris":{"android":"levelo://app?vid=d0e91e3e-a5ab-4ca6-b4ce-12ccd8e76f02","ios":"levelo://app?vid=d0e91e3e-a5ab-4ca6-b4ce-12ccd8e76f02"},"vehicle_type_id":"4","last_reported":1685747232,"current_range_meters":400,"station_id":"ce4bhbh2rcd13ifvqeo0","pricing_plan_id":"free"},{"bike_id":"b788d885-8749-43c2-8fc2-f6662e04a807","system_id":"levelo_inurba_marseille","lat":43.336134,"lon":5.410341,"is_reserved":false,"is_disabled":false,"rental_uris":{"android":"levelo://app?vid=b788d885-8749-43c2-8fc2-f6662e04a807","ios":"levelo://app?vid=b788d885-8749-43c2-8fc2-f6662e04a807"},"vehicle_type_id":"4","last_reported":1685747232,"current_range_meters":14400,"station_id":"ce4bhqh2rcd13ifvqhmg","pricing_plan_id":"free"},{"bike_id":"58e206d3-dff7-4eb6-99c0-9d27a0184883","system_id":"levelo_inurba_marseille","lat":43.33612,"lon":5.410321,"is_reserved":false,"is_disabled":false,"rental_uris":{"android":"levelo://app?vid=58e206d3-dff7-4eb6-99c0-9d27a0184883","ios":"levelo://app?vid=58e206d3-dff7-4eb6-99c0-9d27a0184883"},"vehicle_type_id":"4","last_reported":1685747232,"current_range_meters":28800,"station_id":"ce4bhqh2rcd13ifvqhmg","pricing_plan_id":"free"},{"bike_id":"d1080f81-9034-4cc6-a264-20404d1c636f","system_id":"levelo_inurba_marseille","lat":43.336134,"lon":5.410341,"is_reserved":false,"is_disabled":false,"rental_uris":{"android":"levelo://app?vid=d1080f81-9034-4cc6-a264-20404d1c636f","ios":"levelo://app?vid=d1080f81-9034-4cc6-a264-20404d1c636f"},"vehicle_type_id":"4","last_reported":1685747232,"current_range_meters":26000,"station_id":"ce4bhqh2rcd13ifvqhmg","pricing_plan_id":"free"},{"bike_id":"28e28263-1e4a-4307-9d03-c0b5eaba4031","system_id":"levelo_inurba_marseille","lat":43.295523,"lon":5.422926,"is_reserved":false,"is_disabled":false,"rental_uris":{"android":"levelo://app?vid=28e28263-1e4a-4307-9d03-c0b5eaba4031","ios":"levelo://app?vid=28e28263-1e4a-4307-9d03-c0b5eaba4031"},"vehicle_type_id":"4","last_reported":1685747232,"current_range_meters":25600,"station_id":"ce4bhph2rcd13ifvqhdg","pricing_plan_id":"free"},{"bike_id":"0138f89a-ec04-4c3d-935d-d402f0dfdd4b","system_id":"levelo_inurba_marseille","lat":43.295523,"lon":5.422926,"is_reserved":false,"is_disabled":false,"rental_uris":{"android":"levelo://app?vid=0138f89a-ec04-4c3d-935d-d402f0dfdd4b","ios":"levelo://app?vid=0138f89a-ec04-4c3d-935d-d402f0dfdd4b"},"vehicle_type_id":"4","last_reported":1685747232,"current_range_meters":0,"station_id":"ce4bhph2rcd13ifvqhdg","pricing_plan_id":"free"},{"bike_id":"477c9b24-a1bd-4af2-9e3a-7a10b9af13d1","system_id":"levelo_inurba_marseille","lat":43.31712,"lon":5.4331,"is_reserved":false,"is_disabled":false,"rental_uris":{"android":"levelo://app?vid=477c9b24-a1bd-4af2-9e3a-7a10b9af13d1","ios":"levelo://app?vid=477c9b24-a1bd-4af2-9e3a-7a10b9af13d1"},"vehicle_type_id":"4","last_reported":1685747232,"current_range_meters":0,"station_id":"","pricing_plan_id":"free"},{"bike_id":"13d2b631-42e8-471d-bd10-78f10c8555a9","system_id":"levelo_inurba_marseille","lat":43.28,"lon":5.41662,"is_reserved":false,"is_disabled":false,"rental_uris":{"android":"levelo://app?vid=13d2b631-42e8-471d-bd10-78f10c8555a9","ios":"levelo://app?vid=13d2b631-42e8-471d-bd10-78f10c8555a9"},"vehicle_type_id":"4","last_reported":1685747232,"current_range_meters":23600,"station_id":"ce4bho12rcd13ifvqh1g","pricing_plan_id":"free"},{"bike_id":"1d0d511f-c782-4696-a46d-da0ac58e0f0f","system_id":"levelo_inurba_marseille","lat":43.27999,"lon":5.41666,"is_reserved":false,"is_disabled":false,"rental_uris":{"android":"levelo://app?vid=1d0d511f-c782-4696-a46d-da0ac58e0f0f","ios":"levelo://app?vid=1d0d511f-c782-4696-a46d-da0ac58e0f0f"},"vehicle_type_id":"4","last_reported":1685747232,"current_range_meters":22800,"station_id":"ce4bho12rcd13ifvqh1g","pricing_plan_id":"free"},{"bike_id":"e4e42f30-ff25-4c04-9d49-1ef2532d75d7","system_id":"levelo_inurba_marseille","lat":43.267966,"lon":5.393976,"is_reserved":false,"is_disabled":false,"rental_uris":{"android":"levelo://app?vid=e4e42f30-ff25-4c04-9d49-1ef2532d75d7","ios":"levelo://app?vid=e4e42f30-ff25-4c04-9d49-1ef2532d75d7"},"vehicle_type_id":"4","last_reported":1685747232,"current_range_meters":31200,"station_id":"ce4bhh12rcd13ifvqfg0","pricing_plan_id":"free"},{"bike_id":"26e1ac57-a65a-48de-b4e4-bcfc0b364a7a","system_id":"levelo_inurba_marseille","lat":43.308,"lon":5.43515,"is_reserved":false,"is_disabled":false,"rental_uris":{"android":"levelo://app?vid=26e1ac57-a65a-48de-b4e4-bcfc0b364a7a","ios":"levelo://app?vid=26e1ac57-a65a-48de-b4e4-bcfc0b364a7a"},"vehicle_type_id":"4","last_reported":1685747232,"current_range_meters":4800,"station_id":"","pricing_plan_id":"free"},{"bike_id":"89665d95-5c70-493b-9e56-3369f434e891","system_id":"levelo_inurba_marseille","lat":43.317104,"lon":5.436818,"is_reserved":false,"is_disabled":false,"rental_uris":{"android":"levelo://app?vid=89665d95-5c70-493b-9e56-3369f434e891","ios":"levelo://app?vid=89665d95-5c70-493b-9e56-3369f434e891"},"vehicle_type_id":"4","last_reported":1685747232,"current_range_meters":16000,"station_id":"ce4bhp92rcd13ifvqhcg","pricing_plan_id":"free"},{"bike_id":"17c46147-9991-4b94-801e-664a03a22e73","system_id":"levelo_inurba_marseille","lat":43.29891,"lon":5.43667,"is_reserved":false,"is_disabled":false,"rental_uris":{"android":"levelo://app?vid=17c46147-9991-4b94-801e-664a03a22e73","ios":"levelo://app?vid=17c46147-9991-4b94-801e-664a03a22e73"},"vehicle_type_id":"4","last_reported":1685747232,"current_range_meters":6400,"station_id":"ce4bhpp2rcd13ifvqhfg","pricing_plan_id":"free"},{"bike_id":"5ae1227a-fdfd-4cfc-bf5d-2174613c06c2","system_id":"levelo_inurba_marseille","lat":43.26022,"lon":5.37556,"is_reserved":false,"is_disabled":false,"rental_uris":{"android":"levelo://app?vid=5ae1227a-fdfd-4cfc-bf5d-2174613c06c2","ios":"levelo://app?vid=5ae1227a-fdfd-4cfc-bf5d-2174613c06c2"},"vehicle_type_id":"4","last_reported":1685747232,"current_range_meters":9200,"station_id":"","pricing_plan_id":"free"},{"bike_id":"893db88a-4fb3-46c1-9ffd-5ac77f81a2a4","system_id":"levelo_inurba_marseille","lat":43.260909,"lon":5.397591,"is_reserved":false,"is_disabled":false,"rental_uris":{"android":"levelo://app?vid=893db88a-4fb3-46c1-9ffd-5ac77f81a2a4","ios":"levelo://app?vid=893db88a-4fb3-46c1-9ffd-5ac77f81a2a4"},"vehicle_type_id":"4","last_reported":1685747232,"current_range_meters":4000,"station_id":"ce4bhi12rcd13ifvqfq0","pricing_plan_id":"free"},{"bike_id":"f30bba7b-84b9-4d82-85f8-880473a53b4a","system_id":"levelo_inurba_marseille","lat":43.254986,"lon":5.376495,"is_reserved":false,"is_disabled":false,"rental_uris":{"android":"levelo://app?vid=f30bba7b-84b9-4d82-85f8-880473a53b4a","ios":"levelo://app?vid=f30bba7b-84b9-4d82-85f8-880473a53b4a"},"vehicle_type_id":"4","last_reported":1685747232,"current_range_meters":17600,"station_id":"","pricing_plan_id":"free"},{"bike_id":"368638da-a214-4699-b6b7-d172fe95e9cd","system_id":"levelo_inurba_marseille","lat":43.270721,"lon":5.422764,"is_reserved":false,"is_disabled":false,"rental_uris":{"android":"levelo://app?vid=368638da-a214-4699-b6b7-d172fe95e9cd","ios":"levelo://app?vid=368638da-a214-4699-b6b7-d172fe95e9cd"},"vehicle_type_id":"4","last_reported":1685747232,"current_range_meters":24400,"station_id":"ce4bhk92rcd13ifvqgb0","pricing_plan_id":"free"},{"bike_id":"0a3adffc-5c28-4831-9fb5-b37fc9aefbf3","system_id":"levelo_inurba_marseille","lat":43.270721,"lon":5.422764,"is_reserved":false,"is_disabled":false,"rental_uris":{"android":"levelo://app?vid=0a3adffc-5c28-4831-9fb5-b37fc9aefbf3","ios":"levelo://app?vid=0a3adffc-5c28-4831-9fb5-b37fc9aefbf3"},"vehicle_type_id":"4","last_reported":1685747232,"current_range_meters":31600,"station_id":"ce4bhk92rcd13ifvqgb0","pricing_plan_id":"free"},{"bike_id":"6dd2c7f7-af15-4eac-a2dd-b83b33195bb6","system_id":"levelo_inurba_marseille","lat":43.258658,"lon":5.398935,"is_reserved":false,"is_disabled":false,"rental_uris":{"android":"levelo://app?vid=6dd2c7f7-af15-4eac-a2dd-b83b33195bb6","ios":"levelo://app?vid=6dd2c7f7-af15-4eac-a2dd-b83b33195bb6"},"vehicle_type_id":"4","last_reported":1685747232,"current_range_meters":21600,"station_id":"ce4bhl92rcd13ifvqghg","pricing_plan_id":"free"},{"bike_id":"41c2590e-164d-41e9-b96b-588d43dd2f8b","system_id":"levelo_inurba_marseille","lat":43.28612,"lon":5.44212,"is_reserved":false,"is_disabled":false,"rental_uris":{"android":"levelo://app?vid=41c2590e-164d-41e9-b96b-588d43dd2f8b","ios":"levelo://app?vid=41c2590e-164d-41e9-b96b-588d43dd2f8b"},"vehicle_type_id":"4","last_reported":1685747232,"current_range_meters":10800,"station_id":"","pricing_plan_id":"free"},{"bike_id":"91a98398-6c67-4431-8d44-8a96a8b2a758","system_id":"levelo_inurba_marseille","lat":43.25935,"lon":5.40908,"is_reserved":false,"is_disabled":false,"rental_uris":{"android":"levelo://app?vid=91a98398-6c67-4431-8d44-8a96a8b2a758","ios":"levelo://app?vid=91a98398-6c67-4431-8d44-8a96a8b2a758"},"vehicle_type_id":"4","last_reported":1685747232,"current_range_meters":27200,"station_id":"","pricing_plan_id":"free"},{"bike_id":"a349f2d1-4a12-4817-95dc-b7b384e39991","system_id":"levelo_inurba_marseille","lat":43.250023,"lon":5.38919,"is_reserved":false,"is_disabled":false,"rental_uris":{"android":"levelo://app?vid=a349f2d1-4a12-4817-95dc-b7b384e39991","ios":"levelo://app?vid=a349f2d1-4a12-4817-95dc-b7b384e39991"},"vehicle_type_id":"4","last_reported":1685747232,"current_range_meters":18000,"station_id":"ce4bhgp2rcd13ifvqfd0","pricing_plan_id":"free"},{"bike_id":"7a934648-b211-407b-994e-350fab6e417a","system_id":"levelo_inurba_marseille","lat":43.250023,"lon":5.38919,"is_reserved":false,"is_disabled":false,"rental_uris":{"android":"levelo://app?vid=7a934648-b211-407b-994e-350fab6e417a","ios":"levelo://app?vid=7a934648-b211-407b-994e-350fab6e417a"},"vehicle_type_id":"4","last_reported":1685747232,"current_range_meters":24800,"station_id":"ce4bhgp2rcd13ifvqfd0","pricing_plan_id":"free"},{"bike_id":"aa17c216-0192-4312-8e04-3b53a1e4e4f3","system_id":"levelo_inurba_marseille","lat":43.250966,"lon":5.395186,"is_reserved":false,"is_disabled":false,"rental_uris":{"android":"levelo://app?vid=aa17c216-0192-4312-8e04-3b53a1e4e4f3","ios":"levelo://app?vid=aa17c216-0192-4312-8e04-3b53a1e4e4f3"},"vehicle_type_id":"4","last_reported":1685747232,"current_range_meters":16400,"station_id":"ce4bhm12rcd13ifvqgkg","pricing_plan_id":"free"},{"bike_id":"4ea2f9ca-ee3e-4614-9e72-e46c3791086e","system_id":"levelo_inurba_marseille","lat":43.250966,"lon":5.395186,"is_reserved":false,"is_disabled":false,"rental_uris":{"android":"levelo://app?vid=4ea2f9ca-ee3e-4614-9e72-e46c3791086e","ios":"levelo://app?vid=4ea2f9ca-ee3e-4614-9e72-e46c3791086e"},"vehicle_type_id":"4","last_reported":1685747232,"current_range_meters":28400,"station_id":"ce4bhm12rcd13ifvqgkg","pricing_plan_id":"free"},{"bike_id":"c6108001-39fe-426f-8659-9c4cc8da48c1","system_id":"levelo_inurba_marseille","lat":43.250009,"lon":5.389195,"is_reserved":false,"is_disabled":false,"rental_uris":{"android":"levelo://app?vid=c6108001-39fe-426f-8659-9c4cc8da48c1","ios":"levelo://app?vid=c6108001-39fe-426f-8659-9c4cc8da48c1"},"vehicle_type_id":"4","last_reported":1685747232,"current_range_meters":17600,"station_id":"ce4bhgp2rcd13ifvqfd0","pricing_plan_id":"free"},{"bike_id":"c5f0ed38-4cc8-495f-9a61-dbc59a3bf108","system_id":"levelo_inurba_marseille","lat":43.25102,"lon":5.403214,"is_reserved":false,"is_disabled":false,"rental_uris":{"android":"levelo://app?vid=c5f0ed38-4cc8-495f-9a61-dbc59a3bf108","ios":"levelo://app?vid=c5f0ed38-4cc8-495f-9a61-dbc59a3bf108"},"vehicle_type_id":"4","last_reported":1685747232,"current_range_meters":20000,"station_id":"ce4bhlh2rcd13ifvqgig","pricing_plan_id":"free"},{"bike_id":"fbb27c46-56c8-49f5-b0ef-6bddf27242e7","system_id":"levelo_inurba_marseille","lat":43.25102,"lon":5.403214,"is_reserved":false,"is_disabled":false,"rental_uris":{"android":"levelo://app?vid=fbb27c46-56c8-49f5-b0ef-6bddf27242e7","ios":"levelo://app?vid=fbb27c46-56c8-49f5-b0ef-6bddf27242e7"},"vehicle_type_id":"4","last_reported":1685747232,"current_range_meters":13200,"station_id":"ce4bhlh2rcd13ifvqgig","pricing_plan_id":"free"},{"bike_id":"bfbb5c39-1faf-4464-913a-040ba1ef3698","system_id":"levelo_inurba_marseille","lat":43.25102,"lon":5.403214,"is_reserved":false,"is_disabled":false,"rental_uris":{"android":"levelo://app?vid=bfbb5c39-1faf-4464-913a-040ba1ef3698","ios":"levelo://app?vid=bfbb5c39-1faf-4464-913a-040ba1ef3698"},"vehicle_type_id":"4","last_reported":1685747232,"current_range_meters":3600,"station_id":"ce4bhlh2rcd13ifvqgig","pricing_plan_id":"free"},{"bike_id":"53702d69-b6d7-4a9e-a7d2-0f9bef37703b","system_id":"levelo_inurba_marseille","lat":43.25102,"lon":5.403214,"is_reserved":false,"is_disabled":false,"rental_uris":{"android":"levelo://app?vid=53702d69-b6d7-4a9e-a7d2-0f9bef37703b","ios":"levelo://app?vid=53702d69-b6d7-4a9e-a7d2-0f9bef37703b"},"vehicle_type_id":"4","last_reported":1685747232,"current_range_meters":14400,"station_id":"ce4bhlh2rcd13ifvqgig","pricing_plan_id":"free"},{"bike_id":"121d223b-86c3-419b-a060-e3f7a7afd231","system_id":"levelo_inurba_marseille","lat":43.25102,"lon":5.403214,"is_reserved":false,"is_disabled":false,"rental_uris":{"android":"levelo://app?vid=121d223b-86c3-419b-a060-e3f7a7afd231","ios":"levelo://app?vid=121d223b-86c3-419b-a060-e3f7a7afd231"},"vehicle_type_id":"4","last_reported":1685747232,"current_range_meters":17200,"station_id":"ce4bhlh2rcd13ifvqgig","pricing_plan_id":"free"},{"bike_id":"7c41042d-6e8f-4be7-a36d-8637caa37d91","system_id":"levelo_inurba_marseille","lat":43.25102,"lon":5.403214,"is_reserved":false,"is_disabled":false,"rental_uris":{"android":"levelo://app?vid=7c41042d-6e8f-4be7-a36d-8637caa37d91","ios":"levelo://app?vid=7c41042d-6e8f-4be7-a36d-8637caa37d91"},"vehicle_type_id":"4","last_reported":1685747232,"current_range_meters":9600,"station_id":"ce4bhlh2rcd13ifvqgig","pricing_plan_id":"free"},{"bike_id":"b0257db9-e2a1-4bd1-916a-41989d2f8f8e","system_id":"levelo_inurba_marseille","lat":43.25102,"lon":5.403214,"is_reserved":false,"is_disabled":false,"rental_uris":{"android":"levelo://app?vid=b0257db9-e2a1-4bd1-916a-41989d2f8f8e","ios":"levelo://app?vid=b0257db9-e2a1-4bd1-916a-41989d2f8f8e"},"vehicle_type_id":"4","last_reported":1685747232,"current_range_meters":0,"station_id":"ce4bhlh2rcd13ifvqgig","pricing_plan_id":"free"},{"bike_id":"fe99c974-8a59-4185-82e3-fe3937c01989","system_id":"levelo_inurba_marseille","lat":43.24662,"lon":5.39164,"is_reserved":false,"is_disabled":false,"rental_uris":{"android":"levelo://app?vid=fe99c974-8a59-4185-82e3-fe3937c01989","ios":"levelo://app?vid=fe99c974-8a59-4185-82e3-fe3937c01989"},"vehicle_type_id":"4","last_reported":1685747232,"current_range_meters":2000,"station_id":"","pricing_plan_id":"free"},{"bike_id":"90ec6158-08ad-4670-8a96-0a5e300cb0d7","system_id":"levelo_inurba_marseille","lat":43.2466,"lon":5.39159,"is_reserved":false,"is_disabled":false,"rental_uris":{"android":"levelo://app?vid=90ec6158-08ad-4670-8a96-0a5e300cb0d7","ios":"levelo://app?vid=90ec6158-08ad-4670-8a96-0a5e300cb0d7"},"vehicle_type_id":"4","last_reported":1685747232,"current_range_meters":13600,"station_id":"","pricing_plan_id":"free"},{"bike_id":"2c8cb84b-1112-4638-840b-42a6227cf279","system_id":"levelo_inurba_marseille","lat":43.28927,"lon":5.45715,"is_reserved":false,"is_disabled":false,"rental_uris":{"android":"levelo://app?vid=2c8cb84b-1112-4638-840b-42a6227cf279","ios":"levelo://app?vid=2c8cb84b-1112-4638-840b-42a6227cf279"},"vehicle_type_id":"4","last_reported":1685747232,"current_range_meters":14000,"station_id":"","pricing_plan_id":"free"},{"bike_id":"97911575-0740-4ace-9259-7ac6b2b09d9e","system_id":"levelo_inurba_marseille","lat":43.28546,"lon":5.45825,"is_reserved":false,"is_disabled":false,"rental_uris":{"android":"levelo://app?vid=97911575-0740-4ace-9259-7ac6b2b09d9e","ios":"levelo://app?vid=97911575-0740-4ace-9259-7ac6b2b09d9e"},"vehicle_type_id":"4","last_reported":1685747232,"current_range_meters":4800,"station_id":"","pricing_plan_id":"free"},{"bike_id":"ab36ed74-e4ce-4b75-a68f-5178b831892f","system_id":"levelo_inurba_marseille","lat":43.24077,"lon":5.37756,"is_reserved":false,"is_disabled":false,"rental_uris":{"android":"levelo://app?vid=ab36ed74-e4ce-4b75-a68f-5178b831892f","ios":"levelo://app?vid=ab36ed74-e4ce-4b75-a68f-5178b831892f"},"vehicle_type_id":"4","last_reported":1685747232,"current_range_meters":20000,"station_id":"","pricing_plan_id":"free"},{"bike_id":"154c6c4a-136e-43d4-93bb-5bf1bc0ecb5c","system_id":"levelo_inurba_marseille","lat":43.239588,"lon":5.366238,"is_reserved":false,"is_disabled":false,"rental_uris":{"android":"levelo://app?vid=154c6c4a-136e-43d4-93bb-5bf1bc0ecb5c","ios":"levelo://app?vid=154c6c4a-136e-43d4-93bb-5bf1bc0ecb5c"},"vehicle_type_id":"4","last_reported":1685747232,"current_range_meters":28000,"station_id":"ce4bhi12rcd13ifvqfp0","pricing_plan_id":"free"},{"bike_id":"3d54e830-364c-4b45-8adb-293a0fe4f129","system_id":"levelo_inurba_marseille","lat":43.239588,"lon":5.366238,"is_reserved":false,"is_disabled":false,"rental_uris":{"android":"levelo://app?vid=3d54e830-364c-4b45-8adb-293a0fe4f129","ios":"levelo://app?vid=3d54e830-364c-4b45-8adb-293a0fe4f129"},"vehicle_type_id":"4","last_reported":1685747232,"current_range_meters":28400,"station_id":"ce4bhi12rcd13ifvqfp0","pricing_plan_id":"free"},{"bike_id":"21e445a5-9726-482a-adc8-85837f0de21a","system_id":"levelo_inurba_marseille","lat":43.241782,"lon":5.397261,"is_reserved":false,"is_disabled":false,"rental_uris":{"android":"levelo://app?vid=21e445a5-9726-482a-adc8-85837f0de21a","ios":"levelo://app?vid=21e445a5-9726-482a-adc8-85837f0de21a"},"vehicle_type_id":"4","last_reported":1685747232,"current_range_meters":20000,"station_id":"ce4bhn12rcd13ifvqgpg","pricing_plan_id":"free"},{"bike_id":"a697fe3e-88b8-4cbf-8fee-b70f20033c13","system_id":"levelo_inurba_marseille","lat":43.23902,"lon":5.38435,"is_reserved":false,"is_disabled":false,"rental_uris":{"android":"levelo://app?vid=a697fe3e-88b8-4cbf-8fee-b70f20033c13","ios":"levelo://app?vid=a697fe3e-88b8-4cbf-8fee-b70f20033c13"},"vehicle_type_id":"4","last_reported":1685747232,"current_range_meters":24400,"station_id":"","pricing_plan_id":"free"},{"bike_id":"36be0654-a594-495b-a31c-6463ea32f1be","system_id":"levelo_inurba_marseille","lat":43.30385,"lon":5.47469,"is_reserved":false,"is_disabled":false,"rental_uris":{"android":"levelo://app?vid=36be0654-a594-495b-a31c-6463ea32f1be","ios":"levelo://app?vid=36be0654-a594-495b-a31c-6463ea32f1be"},"vehicle_type_id":"4","last_reported":1685747232,"current_range_meters":6000,"station_id":"","pricing_plan_id":"free"},{"bike_id":"69a40e69-79dd-4bf9-9e34-f7f89b1b080c","system_id":"levelo_inurba_marseille","lat":43.23199,"lon":5.35552,"is_reserved":false,"is_disabled":false,"rental_uris":{"android":"levelo://app?vid=69a40e69-79dd-4bf9-9e34-f7f89b1b080c","ios":"levelo://app?vid=69a40e69-79dd-4bf9-9e34-f7f89b1b080c"},"vehicle_type_id":"4","last_reported":1685747232,"current_range_meters":10000,"station_id":"ce4bhu92rcd13ifvqi70","pricing_plan_id":"free"},{"bike_id":"f1bea723-3b9c-4b54-8892-1f065b738df5","system_id":"levelo_inurba_marseille","lat":43.23198,"lon":5.35552,"is_reserved":false,"is_disabled":false,"rental_uris":{"android":"levelo://app?vid=f1bea723-3b9c-4b54-8892-1f065b738df5","ios":"levelo://app?vid=f1bea723-3b9c-4b54-8892-1f065b738df5"},"vehicle_type_id":"4","last_reported":1685747232,"current_range_meters":24400,"station_id":"ce4bhu92rcd13ifvqi70","pricing_plan_id":"free"},{"bike_id":"2a2e6820-ea61-463e-8945-882c6a5f8bef","system_id":"levelo_inurba_marseille","lat":43.23197,"lon":5.35557,"is_reserved":false,"is_disabled":false,"rental_uris":{"android":"levelo://app?vid=2a2e6820-ea61-463e-8945-882c6a5f8bef","ios":"levelo://app?vid=2a2e6820-ea61-463e-8945-882c6a5f8bef"},"vehicle_type_id":"4","last_reported":1685747232,"current_range_meters":16800,"station_id":"ce4bhu92rcd13ifvqi70","pricing_plan_id":"free"},{"bike_id":"4c97787f-370a-4d14-8cc5-bad3a38574f4","system_id":"levelo_inurba_marseille","lat":43.23196,"lon":5.35538,"is_reserved":false,"is_disabled":false,"rental_uris":{"android":"levelo://app?vid=4c97787f-370a-4d14-8cc5-bad3a38574f4","ios":"levelo://app?vid=4c97787f-370a-4d14-8cc5-bad3a38574f4"},"vehicle_type_id":"4","last_reported":1685747232,"current_range_meters":8800,"station_id":"ce4bhu92rcd13ifvqi70","pricing_plan_id":"free"},{"bike_id":"a04dc097-9951-4a9d-9c8c-aa30a8e2ff65","system_id":"levelo_inurba_marseille","lat":43.23195,"lon":5.35543,"is_reserved":false,"is_disabled":false,"rental_uris":{"android":"levelo://app?vid=a04dc097-9951-4a9d-9c8c-aa30a8e2ff65","ios":"levelo://app?vid=a04dc097-9951-4a9d-9c8c-aa30a8e2ff65"},"vehicle_type_id":"4","last_reported":1685747232,"current_range_meters":8000,"station_id":"ce4bhu92rcd13ifvqi70","pricing_plan_id":"free"},{"bike_id":"1bf4f659-3dfb-4cd9-a96d-61138ce0752b","system_id":"levelo_inurba_marseille","lat":43.231923,"lon":5.355545,"is_reserved":false,"is_disabled":false,"rental_uris":{"android":"levelo://app?vid=1bf4f659-3dfb-4cd9-a96d-61138ce0752b","ios":"levelo://app?vid=1bf4f659-3dfb-4cd9-a96d-61138ce0752b"},"vehicle_type_id":"4","last_reported":1685747232,"current_range_meters":27600,"station_id":"ce4bhu92rcd13ifvqi70","pricing_plan_id":"free"},{"bike_id":"8a16b42b-59d0-4b4d-bf27-134027b1c282","system_id":"levelo_inurba_marseille","lat":43.23192,"lon":5.35557,"is_reserved":false,"is_disabled":false,"rental_uris":{"android":"levelo://app?vid=8a16b42b-59d0-4b4d-bf27-134027b1c282","ios":"levelo://app?vid=8a16b42b-59d0-4b4d-bf27-134027b1c282"},"vehicle_type_id":"4","last_reported":1685747232,"current_range_meters":12800,"station_id":"ce4bhu92rcd13ifvqi70","pricing_plan_id":"free"},{"bike_id":"fe6b2939-a513-4dd9-b556-3dfc5f2115f2","system_id":"levelo_inurba_marseille","lat":43.23192,"lon":5.35553,"is_reserved":false,"is_disabled":false,"rental_uris":{"android":"levelo://app?vid=fe6b2939-a513-4dd9-b556-3dfc5f2115f2","ios":"levelo://app?vid=fe6b2939-a513-4dd9-b556-3dfc5f2115f2"},"vehicle_type_id":"4","last_reported":1685747232,"current_range_meters":22800,"station_id":"ce4bhu92rcd13ifvqi70","pricing_plan_id":"free"},{"bike_id":"327922dd-97e5-4dce-a6af-917065566420","system_id":"levelo_inurba_marseille","lat":43.231923,"lon":5.355545,"is_reserved":false,"is_disabled":false,"rental_uris":{"android":"levelo://app?vid=327922dd-97e5-4dce-a6af-917065566420","ios":"levelo://app?vid=327922dd-97e5-4dce-a6af-917065566420"},"vehicle_type_id":"4","last_reported":1685747232,"current_range_meters":17200,"station_id":"ce4bhu92rcd13ifvqi70","pricing_plan_id":"free"},{"bike_id":"d591bc7e-b1c1-41fb-9408-36bb5ec2af01","system_id":"levelo_inurba_marseille","lat":43.23191,"lon":5.35558,"is_reserved":false,"is_disabled":false,"rental_uris":{"android":"levelo://app?vid=d591bc7e-b1c1-41fb-9408-36bb5ec2af01","ios":"levelo://app?vid=d591bc7e-b1c1-41fb-9408-36bb5ec2af01"},"vehicle_type_id":"4","last_reported":1685747232,"current_range_meters":27200,"station_id":"ce4bhu92rcd13ifvqi70","pricing_plan_id":"free"},{"bike_id":"836ef873-5387-4690-8868-8360617ae71f","system_id":"levelo_inurba_marseille","lat":43.23191,"lon":5.35548,"is_reserved":false,"is_disabled":false,"rental_uris":{"android":"levelo://app?vid=836ef873-5387-4690-8868-8360617ae71f","ios":"levelo://app?vid=836ef873-5387-4690-8868-8360617ae71f"},"vehicle_type_id":"4","last_reported":1685747232,"current_range_meters":24800,"station_id":"ce4bhu92rcd13ifvqi70","pricing_plan_id":"free"},{"bike_id":"ccdd659d-d1f3-423b-8596-d04101dbe64d","system_id":"levelo_inurba_marseille","lat":43.231923,"lon":5.355545,"is_reserved":false,"is_disabled":false,"rental_uris":{"android":"levelo://app?vid=ccdd659d-d1f3-423b-8596-d04101dbe64d","ios":"levelo://app?vid=ccdd659d-d1f3-423b-8596-d04101dbe64d"},"vehicle_type_id":"4","last_reported":1685747232,"current_range_meters":31600,"station_id":"ce4bhu92rcd13ifvqi70","pricing_plan_id":"free"},{"bike_id":"28482e00-7034-4413-b356-d983b48fb55f","system_id":"levelo_inurba_marseille","lat":43.23189,"lon":5.35536,"is_reserved":false,"is_disabled":false,"rental_uris":{"android":"levelo://app?vid=28482e00-7034-4413-b356-d983b48fb55f","ios":"levelo://app?vid=28482e00-7034-4413-b356-d983b48fb55f"},"vehicle_type_id":"4","last_reported":1685747232,"current_range_meters":12400,"station_id":"ce4bhu92rcd13ifvqi70","pricing_plan_id":"free"},{"bike_id":"517b5adf-f053-423a-bf94-3157b15923dc","system_id":"levelo_inurba_marseille","lat":43.23187,"lon":5.35558,"is_reserved":false,"is_disabled":false,"rental_uris":{"android":"levelo://app?vid=517b5adf-f053-423a-bf94-3157b15923dc","ios":"levelo://app?vid=517b5adf-f053-423a-bf94-3157b15923dc"},"vehicle_type_id":"4","last_reported":1685747232,"current_range_meters":7200,"station_id":"ce4bhu92rcd13ifvqi70","pricing_plan_id":"free"},{"bike_id":"d17cfa26-0a75-44d2-8382-4819f731995a","system_id":"levelo_inurba_marseille","lat":43.231923,"lon":5.355545,"is_reserved":false,"is_disabled":false,"rental_uris":{"android":"levelo://app?vid=d17cfa26-0a75-44d2-8382-4819f731995a","ios":"levelo://app?vid=d17cfa26-0a75-44d2-8382-4819f731995a"},"vehicle_type_id":"4","last_reported":1685747232,"current_range_meters":26400,"station_id":"ce4bhu92rcd13ifvqi70","pricing_plan_id":"free"},{"bike_id":"1ad3f919-8ac3-47d7-b9ec-69b41ef47389","system_id":"levelo_inurba_marseille","lat":43.231794,"lon":5.400052,"is_reserved":false,"is_disabled":false,"rental_uris":{"android":"levelo://app?vid=1ad3f919-8ac3-47d7-b9ec-69b41ef47389","ios":"levelo://app?vid=1ad3f919-8ac3-47d7-b9ec-69b41ef47389"},"vehicle_type_id":"4","last_reported":1685747232,"current_range_meters":28400,"station_id":"ce4bhn12rcd13ifvqgqg","pricing_plan_id":"free"},{"bike_id":"b1fb5ae5-82c0-4c4b-8cdb-25c35b8c07da","system_id":"levelo_inurba_marseille","lat":43.231794,"lon":5.400052,"is_reserved":false,"is_disabled":false,"rental_uris":{"android":"levelo://app?vid=b1fb5ae5-82c0-4c4b-8cdb-25c35b8c07da","ios":"levelo://app?vid=b1fb5ae5-82c0-4c4b-8cdb-25c35b8c07da"},"vehicle_type_id":"4","last_reported":1685747232,"current_range_meters":27200,"station_id":"ce4bhn12rcd13ifvqgqg","pricing_plan_id":"free"},{"bike_id":"4c757bea-cafc-44ff-b8a0-4af7d65f6992","system_id":"levelo_inurba_marseille","lat":43.231793,"lon":5.400044,"is_reserved":false,"is_disabled":false,"rental_uris":{"android":"levelo://app?vid=4c757bea-cafc-44ff-b8a0-4af7d65f6992","ios":"levelo://app?vid=4c757bea-cafc-44ff-b8a0-4af7d65f6992"},"vehicle_type_id":"4","last_reported":1685747232,"current_range_meters":24400,"station_id":"ce4bhn12rcd13ifvqgqg","pricing_plan_id":"free"},{"bike_id":"55a2ddb8-29f0-4f8d-b417-2cbbe80eabda","system_id":"levelo_inurba_marseille","lat":43.231793,"lon":5.400044,"is_reserved":false,"is_disabled":false,"rental_uris":{"android":"levelo://app?vid=55a2ddb8-29f0-4f8d-b417-2cbbe80eabda","ios":"levelo://app?vid=55a2ddb8-29f0-4f8d-b417-2cbbe80eabda"},"vehicle_type_id":"4","last_reported":1685747232,"current_range_meters":11600,"station_id":"ce4bhn12rcd13ifvqgqg","pricing_plan_id":"free"},{"bike_id":"17d4dd21-727a-4cca-a171-6ee88694f458","system_id":"levelo_inurba_marseille","lat":43.231793,"lon":5.400044,"is_reserved":false,"is_disabled":false,"rental_uris":{"android":"levelo://app?vid=17d4dd21-727a-4cca-a171-6ee88694f458","ios":"levelo://app?vid=17d4dd21-727a-4cca-a171-6ee88694f458"},"vehicle_type_id":"4","last_reported":1685747232,"current_range_meters":31200,"station_id":"ce4bhn12rcd13ifvqgqg","pricing_plan_id":"free"}]}}