{"last_updated":1758665316,"ttl":60,"version":"2.2","data":{"bikes":[{"bike_id":"abe1be6c-2494-4b8d-8bc4-4a35e894abfa","system_id":"levelo_inurba_marseille","lat":43.27428,"lon":5.39393,"is_reserved":false,"is_disabled":false,"rental_uris":{"android":"levelo://app?vid=abe1be6c-2494-4b8d-8bc4-4a35e894abfa","ios":"levelo://app?vid=abe1be6c-2494-4b8d-8bc4-4a35e894abfa"},"vehicle_type_id":"4","last_reported":1758665317,"current_range_meters":2800,"station_id":"ce4bhdp2rcd13ifvqf20","pricing_plan_id":"cebpf4jnsgd1na2vs0mg"},{"bike_id":"6ab4a66e-7a65-4f29-b789-936dd211b77a","system_id":"levelo_inurba_marseille","lat":43.30954,"lon":5.37897,"is_reserved":false,"is_disabled":false,"rental_uris":{"android":"levelo://app?vid=6ab4a66e-7a65-4f29-b789-936dd211b77a","ios":"levelo://app?vid=6ab4a66e-7a65-4f29-b789-936dd211b77a"},"vehicle_type_id":"4","last_reported":1758665317,"current_range_meters":3600,"station_id":"","pricing_plan_id":"cebpf4jnsgd1na2vs0mg"},{"bike_id":"9176512c-2cc1-4df2-a8e0-6be514fbcdbf","system_id":"levelo_inurba_marseille","lat":43.33748,"lon":5.37465,"is_reserved":false,"is_disabled":false,"rental_uris":{"android":"levelo://app?vid=9176512c-2cc1-4df2-a8e0-6be514fbcdbf","ios":"levelo://app?vid=9176512c-2cc1-4df2-a8e0-6be514fbcdbf"},"vehicle_type_id":"4","last_reported":1758665317,"current_range_meters":3600,"station_id":"","pricing_plan_id":"cebpf4jnsgd1na2vs0mg"},{"bike_id":"c7ccd701-fd90-4c1f-8f6f-b6983b7c39ba","system_id":"levelo_inurba_marseille","lat":43.29738,"lon":5.37903,"is_reserved":false,"is_disabled":false,"rental_uris":{"android":"levelo://app?vid=c7ccd701-fd90-4c1f-8f6f-b6983b7c39ba","ios":"levelo://app?vid=c7ccd701-fd90-4c1f-8f6f-b6983b7c39ba"},"vehicle_type_id":"4","last_reported":1758665317,"current_range_meters":4400,"station_id":"","pricing_plan_id":"cebpf4jnsgd1na2vs0mg"},{"bike_id":"e631c140-47b3-481f-ac38-a5c66ec4c45b","system_id":"levelo_inurba_marseille","lat":43.28613,"lon":5.35104,"is_reserved":false,"is_disabled":false,"rental_uris":{"android":"levelo://app?vid=e631c140-47b3-481f-ac38-a5c66ec4c45b","ios":"levelo://app?vid=e631c140-47b3-481f-ac38-a5c66ec4c45b"},"vehicle_type_id":"4","last_reported":1758665317,"current_range_meters":4800,"station_id":"ce4bhch2rcd13ifvqeug","pricing_plan_id":"cebpf4jnsgd1na2vs0mg"},{"bike_id":"1efddf8d-578f-4e4c-8c3f-e3a8bd592ba4","system_id":"levelo_inurba_marseille","lat":43.2997,"lon":5.37427,"is_reserved":false,"is_disabled":false,"rental_uris":{"android":"levelo://app?vid=1efddf8d-578f-4e4c-8c3f-e3a8bd592ba4","ios":"levelo://app?vid=1efddf8d-578f-4e4c-8c3f-e3a8bd592ba4"},"vehicle_type_id":"4","last_reported":1758665317,"current_range_meters":5600,"station_id":"","pricing_plan_id":"cebpf4jnsgd1na2vs0mg"},{"bike_id":"747b2ea3-df33-4f98-85b1-2abafb88be4e","system_id":"levelo_inurba_marseille","lat":43.29966,"lon":5.384852,"is_reserved":false,"is_disabled":false,"rental_uris":{"android":"levelo://app?vid=747b2ea3-df33-4f98-85b1-2abafb88be4e","ios":"levelo://app?vid=747b2ea3-df33-4f98-85b1-2abafb88be4e"},"vehicle_type_id":"4","last_reported":1758665317,"current_range_meters":5600,"station_id":"","pricing_plan_id":"cebpf4jnsgd1na2vs0mg"},{"bike_id":"7fe69263-5558-409c-9ff8-d193e04be661","system_id":"levelo_inurba_marseille","lat":43.32667,"lon":5.4099,"is_reserved":false,"is_disabled":false,"rental_uris":{"android":"levelo://app?vid=7fe69263-5558-409c-9ff8-d193e04be661","ios":"levelo://app?vid=7fe69263-5558-409c-9ff8-d193e04be661"},"vehicle_type_id":"4","last_reported":1758665317,"current_range_meters":5600,"station_id":"ce4bhpp2rcd13ifvqhgg","pricing_plan_id":"cebpf4jnsgd1na2vs0mg"},{"bike_id":"79f5aa51-b080-4625-9065-e889aa81c47a","system_id":"levelo_inurba_marseille","lat":43.27838,"lon":5.39194,"is_reserved":false,"is_disabled":false,"rental_uris":{"android":"levelo://app?vid=79f5aa51-b080-4625-9065-e889aa81c47a","ios":"levelo://app?vid=79f5aa51-b080-4625-9065-e889aa81c47a"},"vehicle_type_id":"4","last_reported":1758665317,"current_range_meters":5600,"station_id":"ce4bhjp2rcd13ifvqga0","pricing_plan_id":"cebpf4jnsgd1na2vs0mg"},{"bike_id":"3d3616ae-55ab-4319-9346-2104e95c171f","system_id":"levelo_inurba_marseille","lat":43.30978,"lon":5.37958,"is_reserved":false,"is_disabled":false,"rental_uris":{"android":"levelo://app?vid=3d3616ae-55ab-4319-9346-2104e95c171f","ios":"levelo://app?vid=3d3616ae-55ab-4319-9346-2104e95c171f"},"vehicle_type_id":"4","last_reported":1758665317,"current_range_meters":6000,"station_id":"","pricing_plan_id":"cebpf4jnsgd1na2vs0mg"},{"bike_id":"2289a0ff-9c3e-4f79-ad38-4b41158d6057","system_id":"levelo_inurba_marseille","lat":43.29882,"lon":5.37911,"is_reserved":false,"is_disabled":false,"rental_uris":{"android":"levelo://app?vid=2289a0ff-9c3e-4f79-ad38-4b41158d6057","ios":"levelo://app?vid=2289a0ff-9c3e-4f79-ad38-4b41158d6057"},"vehicle_type_id":"4","last_reported":1758665317,"current_range_meters":6000,"station_id":"","pricing_plan_id":"cebpf4jnsgd1na2vs0mg"},{"bike_id":"982caa97-30dd-43bd-9b8d-7a64eb50ad63","system_id":"levelo_inurba_marseille","lat":43.28214,"lon":5.39056,"is_reserved":false,"is_disabled":false,"rental_uris":{"android":"levelo://app?vid=982caa97-30dd-43bd-9b8d-7a64eb50ad63","ios":"levelo://app?vid=982caa97-30dd-43bd-9b8d-7a64eb50ad63"},"vehicle_type_id":"4","last_reported":1758665317,"current_range_meters":6000,"station_id":"ce4bhn92rcd13ifvqgsg","pricing_plan_id":"cebpf4jnsgd1na2vs0mg"},{"bike_id":"698a1659-1be4-4464-8e40-0054e6845364","system_id":"levelo_inurba_marseille","lat":43.29406,"lon":5.40386,"is_reserved":false,"is_disabled":false,"rental_uris":{"android":"levelo://app?vid=698a1659-1be4-4464-8e40-0054e6845364","ios":"levelo://app?vid=698a1659-1be4-4464-8e40-0054e6845364"},"vehicle_type_id":"4","last_reported":1758665317,"current_range_meters":6400,"station_id":"","pricing_plan_id":"cebpf4jnsgd1na2vs0mg"},{"bike_id":"7fd14ad2-a454-423d-bbfa-04d2678cc6ac","system_id":"levelo_inurba_marseille","lat":43.29776,"lon":5.38069,"is_reserved":false,"is_disabled":false,"rental_uris":{"android":"levelo://app?vid=7fd14ad2-a454-423d-bbfa-04d2678cc6ac","ios":"levelo://app?vid=7fd14ad2-a454-423d-bbfa-04d2678cc6ac"},"vehicle_type_id":"4","last_reported":1758665317,"current_range_meters":6400,"station_id":"ce4bgip2rcd13ifvqbb0","pricing_plan_id":"cebpf4jnsgd1na2vs0mg"},{"bike_id":"e9456486-5574-4a4a-884c-fca33466f1f7","system_id":"levelo_inurba_marseille","lat":43.24546,"lon":5.39519,"is_reserved":false,"is_disabled":false,"rental_uris":{"android":"levelo://app?vid=e9456486-5574-4a4a-884c-fca33466f1f7","ios":"levelo://app?vid=e9456486-5574-4a4a-884c-fca33466f1f7"},"vehicle_type_id":"4","last_reported":1758665317,"current_range_meters":6400,"station_id":"ce4bhlp2rcd13ifvqgjg","pricing_plan_id":"cebpf4jnsgd1na2vs0mg"},{"bike_id":"213937f4-0cd9-48b8-9d64-0b73c37bc721","system_id":"levelo_inurba_marseille","lat":43.29558,"lon":5.38174,"is_reserved":false,"is_disabled":false,"rental_uris":{"android":"levelo://app?vid=213937f4-0cd9-48b8-9d64-0b73c37bc721","ios":"levelo://app?vid=213937f4-0cd9-48b8-9d64-0b73c37bc721"},"vehicle_type_id":"4","last_reported":1758665317,"current_range_meters":6400,"station_id":"","pricing_plan_id":"cebpf4jnsgd1na2vs0mg"},{"bike_id":"940becd5-3fce-438b-918c-bf16d385b966","system_id":"levelo_inurba_marseille","lat":43.27811,"lon":5.40721,"is_reserved":false,"is_disabled":false,"rental_uris":{"android":"levelo://app?vid=940becd5-3fce-438b-918c-bf16d385b966","ios":"levelo://app?vid=940becd5-3fce-438b-918c-bf16d385b966"},"vehicle_type_id":"4","last_reported":1758665317,"current_range_meters":6400,"station_id":"ce4bhnh2rcd13ifvqgtg","pricing_plan_id":"cebpf4jnsgd1na2vs0mg"},{"bike_id":"03aca6da-54bb-4edd-8672-3ad469652636","system_id":"levelo_inurba_marseille","lat":43.2903,"lon":5.38136,"is_reserved":false,"is_disabled":false,"rental_uris":{"android":"levelo://app?vid=03aca6da-54bb-4edd-8672-3ad469652636","ios":"levelo://app?vid=03aca6da-54bb-4edd-8672-3ad469652636"},"vehicle_type_id":"4","last_reported":1758665317,"current_range_meters":6800,"station_id":"ce4bh4p2rcd13ifvqe1g","pricing_plan_id":"cebpf4jnsgd1na2vs0mg"},{"bike_id":"437ac4f5-290d-416a-a98a-4488c6ff3899","system_id":"levelo_inurba_marseille","lat":43.319041,"lon":5.407373,"is_reserved":false,"is_disabled":true,"rental_uris":{"android":"levelo://app?vid=437ac4f5-290d-416a-a98a-4488c6ff3899","ios":"levelo://app?vid=437ac4f5-290d-416a-a98a-4488c6ff3899"},"vehicle_type_id":"4","last_reported":1758665317,"current_range_meters":7200,"station_id":"ce4bhq12rcd13ifvqhig","pricing_plan_id":"cebpf4jnsgd1na2vs0mg"},{"bike_id":"82304ba4-71d4-444b-a52b-5e234edb762c","system_id":"levelo_inurba_marseille","lat":43.22945,"lon":5.35374,"is_reserved":false,"is_disabled":false,"rental_uris":{"android":"levelo://app?vid=82304ba4-71d4-444b-a52b-5e234edb762c","ios":"levelo://app?vid=82304ba4-71d4-444b-a52b-5e234edb762c"},"vehicle_type_id":"4","last_reported":1758665317,"current_range_meters":7200,"station_id":"","pricing_plan_id":"cebpf4jnsgd1na2vs0mg"},{"bike_id":"d6a62b3c-f468-4e3c-993f-9f5010808096","system_id":"levelo_inurba_marseille","lat":43.28477,"lon":5.35885,"is_reserved":false,"is_disabled":false,"rental_uris":{"android":"levelo://app?vid=d6a62b3c-f468-4e3c-993f-9f5010808096","ios":"levelo://app?vid=d6a62b3c-f468-4e3c-993f-9f5010808096"},"vehicle_type_id":"4","last_reported":1758665317,"current_range_meters":7200,"station_id":"ce4bhah2rcd13ifvqei0","pricing_plan_id":"cebpf4jnsgd1na2vs0mg"},{"bike_id":"cb6bf7d2-2ed1-47c4-b0a7-9c935f0ebf1a","system_id":"levelo_inurba_marseille","lat":43.26855,"lon":5.406773,"is_reserved":false,"is_disabled":false,"rental_uris":{"android":"levelo://app?vid=cb6bf7d2-2ed1-47c4-b0a7-9c935f0ebf1a","ios":"levelo://app?vid=cb6bf7d2-2ed1-47c4-b0a7-9c935f0ebf1a"},"vehicle_type_id":"4","last_reported":1758665317,"current_range_meters":8000,"station_id":"","pricing_plan_id":"cebpf4jnsgd1na2vs0mg"},{"bike_id":"1bff3ddd-cb47-4505-945d-5f18820dd971","system_id":"levelo_inurba_marseille","lat":43.31327,"lon":5.39691,"is_reserved":false,"is_disabled":false,"rental_uris":{"android":"levelo://app?vid=1bff3ddd-cb47-4505-945d-5f18820dd971","ios":"levelo://app?vid=1bff3ddd-cb47-4505-945d-5f18820dd971"},"vehicle_type_id":"4","last_reported":1758665317,"current_range_meters":8000,"station_id":"ce4bgvp2rcd13ifvqcu0","pricing_plan_id":"cebpf4jnsgd1na2vs0mg"},{"bike_id":"61f61e8f-9a77-4d67-9950-0bcd03c17f11","system_id":"levelo_inurba_marseille","lat":43.287283,"lon":5.361095,"is_reserved":false,"is_disabled":false,"rental_uris":{"android":"levelo://app?vid=61f61e8f-9a77-4d67-9950-0bcd03c17f11","ios":"levelo://app?vid=61f61e8f-9a77-4d67-9950-0bcd03c17f11"},"vehicle_type_id":"4","last_reported":1758665317,"current_range_meters":8000,"station_id":"cki0cbj6b192h4jlfktg","pricing_plan_id":"cebpf4jnsgd1na2vs0mg"},{"bike_id":"eed2cf9a-36d5-4639-8402-2398b6fbd4cf","system_id":"levelo_inurba_marseille","lat":43.21752,"lon":5.34629,"is_reserved":false,"is_disabled":false,"rental_uris":{"android":"levelo://app?vid=eed2cf9a-36d5-4639-8402-2398b6fbd4cf","ios":"levelo://app?vid=eed2cf9a-36d5-4639-8402-2398b6fbd4cf"},"vehicle_type_id":"4","last_reported":1758665317,"current_range_meters":8000,"station_id":"st_cvj6r9ubvosntc0bgbag","pricing_plan_id":"cebpf4jnsgd1na2vs0mg"},{"bike_id":"e140fafb-a61f-41ed-b20c-ca28f2e332bd","system_id":"levelo_inurba_marseille","lat":43.28701,"lon":5.3998,"is_reserved":false,"is_disabled":false,"rental_uris":{"android":"levelo://app?vid=e140fafb-a61f-41ed-b20c-ca28f2e332bd","ios":"levelo://app?vid=e140fafb-a61f-41ed-b20c-ca28f2e332bd"},"vehicle_type_id":"4","last_reported":1758665317,"current_range_meters":8000,"station_id":"ce4bho92rcd13ifvqh3g","pricing_plan_id":"cebpf4jnsgd1na2vs0mg"},{"bike_id":"5096dd44-bb08-49f1-8f58-9d9dfb1faf50","system_id":"levelo_inurba_marseille","lat":43.33403,"lon":5.40044,"is_reserved":false,"is_disabled":false,"rental_uris":{"android":"levelo://app?vid=5096dd44-bb08-49f1-8f58-9d9dfb1faf50","ios":"levelo://app?vid=5096dd44-bb08-49f1-8f58-9d9dfb1faf50"},"vehicle_type_id":"4","last_reported":1758665317,"current_range_meters":8000,"station_id":"","pricing_plan_id":"cebpf4jnsgd1na2vs0mg"},{"bike_id":"08316f86-b235-4d9d-a46a-7489caed8af1","system_id":"levelo_inurba_marseille","lat":43.27999,"lon":5.41675,"is_reserved":false,"is_disabled":false,"rental_uris":{"android":"levelo://app?vid=08316f86-b235-4d9d-a46a-7489caed8af1","ios":"levelo://app?vid=08316f86-b235-4d9d-a46a-7489caed8af1"},"vehicle_type_id":"4","last_reported":1758665317,"current_range_meters":8000,"station_id":"ce4bho12rcd13ifvqh1g","pricing_plan_id":"cebpf4jnsgd1na2vs0mg"},{"bike_id":"74cb8ebd-7dd1-48c9-bc78-524c26a950b4","system_id":"levelo_inurba_marseille","lat":43.31713,"lon":5.43704,"is_reserved":false,"is_disabled":true,"rental_uris":{"android":"levelo://app?vid=74cb8ebd-7dd1-48c9-bc78-524c26a950b4","ios":"levelo://app?vid=74cb8ebd-7dd1-48c9-bc78-524c26a950b4"},"vehicle_type_id":"4","last_reported":1758665317,"current_range_meters":8000,"station_id":"ce4bhp92rcd13ifvqhcg","pricing_plan_id":"cebpf4jnsgd1na2vs0mg"},{"bike_id":"57557469-09c9-4a5d-a1a9-8de5f5bc5bb9","system_id":"levelo_inurba_marseille","lat":43.29545,"lon":5.39024,"is_reserved":false,"is_disabled":true,"rental_uris":{"android":"levelo://app?vid=57557469-09c9-4a5d-a1a9-8de5f5bc5bb9","ios":"levelo://app?vid=57557469-09c9-4a5d-a1a9-8de5f5bc5bb9"},"vehicle_type_id":"4","last_reported":1758665317,"current_range_meters":8400,"station_id":"ce4bh3p2rcd13ifvqdp0","pricing_plan_id":"cebpf4jnsgd1na2vs0mg"},{"bike_id":"515a383b-17c7-4ad6-88cc-1a1c622b739d","system_id":"levelo_inurba_marseille","lat":43.26223,"lon":5.40449,"is_reserved":false,"is_disabled":false,"rental_uris":{"android":"levelo://app?vid=515a383b-17c7-4ad6-88cc-1a1c622b739d","ios":"levelo://app?vid=515a383b-17c7-4ad6-88cc-1a1c622b739d"},"vehicle_type_id":"4","last_reported":1758665317,"current_range_meters":8400,"station_id":"ce4bhmh2rcd13ifvqgmg","pricing_plan_id":"cebpf4jnsgd1na2vs0mg"},{"bike_id":"1a4eddc5-89c8-469b-854a-d4f06e8a341e","system_id":"levelo_inurba_marseille","lat":43.33022,"lon":5.39046,"is_reserved":false,"is_disabled":false,"rental_uris":{"android":"levelo://app?vid=1a4eddc5-89c8-469b-854a-d4f06e8a341e","ios":"levelo://app?vid=1a4eddc5-89c8-469b-854a-d4f06e8a341e"},"vehicle_type_id":"4","last_reported":1758665317,"current_range_meters":8400,"station_id":"ce4bhr92rcd13ifvqhrg","pricing_plan_id":"cebpf4jnsgd1na2vs0mg"},{"bike_id":"513eadeb-6d5b-40e2-a199-9086420fc966","system_id":"levelo_inurba_marseille","lat":43.29254,"lon":5.40887,"is_reserved":false,"is_disabled":false,"rental_uris":{"android":"levelo://app?vid=513eadeb-6d5b-40e2-a199-9086420fc966","ios":"levelo://app?vid=513eadeb-6d5b-40e2-a199-9086420fc966"},"vehicle_type_id":"4","last_reported":1758665317,"current_range_meters":8800,"station_id":"ce4bh192rcd13ifvqdc0","pricing_plan_id":"cebpf4jnsgd1na2vs0mg"},{"bike_id":"7d7a0abe-83b8-4067-92d1-8adad0b45209","system_id":"levelo_inurba_marseille","lat":43.2707,"lon":5.42282,"is_reserved":false,"is_disabled":true,"rental_uris":{"android":"levelo://app?vid=7d7a0abe-83b8-4067-92d1-8adad0b45209","ios":"levelo://app?vid=7d7a0abe-83b8-4067-92d1-8adad0b45209"},"vehicle_type_id":"4","last_reported":1758665317,"current_range_meters":9200,"station_id":"ce4bhk92rcd13ifvqgb0","pricing_plan_id":"cebpf4jnsgd1na2vs0mg"},{"bike_id":"f65b35a6-0d31-4b46-aa5a-232991b283b0","system_id":"levelo_inurba_marseille","lat":43.30254,"lon":5.40058,"is_reserved":false,"is_disabled":false,"rental_uris":{"android":"levelo://app?vid=f65b35a6-0d31-4b46-aa5a-232991b283b0","ios":"levelo://app?vid=f65b35a6-0d31-4b46-aa5a-232991b283b0"},"vehicle_type_id":"4","last_reported":1758665317,"current_range_meters":9200,"station_id":"ce4bgvh2rcd13ifvqcs0","pricing_plan_id":"cebpf4jnsgd1na2vs0mg"},{"bike_id":"8d9c3207-cca6-4c37-9d55-6976307b3c86","system_id":"levelo_inurba_marseille","lat":43.28428,"lon":5.3752,"is_reserved":false,"is_disabled":false,"rental_uris":{"android":"levelo://app?vid=8d9c3207-cca6-4c37-9d55-6976307b3c86","ios":"levelo://app?vid=8d9c3207-cca6-4c37-9d55-6976307b3c86"},"vehicle_type_id":"4","last_reported":1758665317,"current_range_meters":9200,"station_id":"ce4bh412rcd13ifvqds0","pricing_plan_id":"cebpf4jnsgd1na2vs0mg"},{"bike_id":"df9ecab4-6056-44cc-a720-250479e09d7c","system_id":"levelo_inurba_marseille","lat":43.29253,"lon":5.40897,"is_reserved":false,"is_disabled":false,"rental_uris":{"android":"levelo://app?vid=df9ecab4-6056-44cc-a720-250479e09d7c","ios":"levelo://app?vid=df9ecab4-6056-44cc-a720-250479e09d7c"},"vehicle_type_id":"4","last_reported":1758665317,"current_range_meters":9200,"station_id":"ce4bh192rcd13ifvqdc0","pricing_plan_id":"cebpf4jnsgd1na2vs0mg"},{"bike_id":"bd9cfac1-ec33-4904-a50f-e82ac6094530","system_id":"levelo_inurba_marseille","lat":43.28958,"lon":5.37127,"is_reserved":false,"is_disabled":false,"rental_uris":{"android":"levelo://app?vid=bd9cfac1-ec33-4904-a50f-e82ac6094530","ios":"levelo://app?vid=bd9cfac1-ec33-4904-a50f-e82ac6094530"},"vehicle_type_id":"4","last_reported":1758665317,"current_range_meters":9600,"station_id":"","pricing_plan_id":"cebpf4jnsgd1na2vs0mg"},{"bike_id":"8d243e83-cc74-44d3-bf18-f20421549672","system_id":"levelo_inurba_marseille","lat":43.28945,"lon":5.3593,"is_reserved":false,"is_disabled":false,"rental_uris":{"android":"levelo://app?vid=8d243e83-cc74-44d3-bf18-f20421549672","ios":"levelo://app?vid=8d243e83-cc74-44d3-bf18-f20421549672"},"vehicle_type_id":"4","last_reported":1758665317,"current_range_meters":9600,"station_id":"","pricing_plan_id":"cebpf4jnsgd1na2vs0mg"},{"bike_id":"763415da-5097-419f-a256-c7d2e32d8525","system_id":"levelo_inurba_marseille","lat":43.308634,"lon":5.396433,"is_reserved":false,"is_disabled":false,"rental_uris":{"android":"levelo://app?vid=763415da-5097-419f-a256-c7d2e32d8525","ios":"levelo://app?vid=763415da-5097-419f-a256-c7d2e32d8525"},"vehicle_type_id":"4","last_reported":1758665317,"current_range_meters":10000,"station_id":"ce4bh012rcd13ifvqcv0","pricing_plan_id":"cebpf4jnsgd1na2vs0mg"},{"bike_id":"ca4e0812-3d12-4a82-bc13-bf97739a4e53","system_id":"levelo_inurba_marseille","lat":43.30416,"lon":5.41288,"is_reserved":false,"is_disabled":true,"rental_uris":{"android":"levelo://app?vid=ca4e0812-3d12-4a82-bc13-bf97739a4e53","ios":"levelo://app?vid=ca4e0812-3d12-4a82-bc13-bf97739a4e53"},"vehicle_type_id":"4","last_reported":1758665317,"current_range_meters":10000,"station_id":"ce4bhop2rcd13ifvqh8g","pricing_plan_id":"cebpf4jnsgd1na2vs0mg"},{"bike_id":"ee324131-7f1e-4c44-8cd4-8facf81a76e2","system_id":"levelo_inurba_marseille","lat":43.28004,"lon":5.40004,"is_reserved":false,"is_disabled":true,"rental_uris":{"android":"levelo://app?vid=ee324131-7f1e-4c44-8cd4-8facf81a76e2","ios":"levelo://app?vid=ee324131-7f1e-4c44-8cd4-8facf81a76e2"},"vehicle_type_id":"4","last_reported":1758665317,"current_range_meters":10000,"station_id":"ce4bho92rcd13ifvqh4g","pricing_plan_id":"cebpf4jnsgd1na2vs0mg"},{"bike_id":"ccf0e740-485c-4768-83c7-fd281508e509","system_id":"levelo_inurba_marseille","lat":43.24952,"lon":5.40501,"is_reserved":false,"is_disabled":false,"rental_uris":{"android":"levelo://app?vid=ccf0e740-485c-4768-83c7-fd281508e509","ios":"levelo://app?vid=ccf0e740-485c-4768-83c7-fd281508e509"},"vehicle_type_id":"4","last_reported":1758665317,"current_range_meters":10000,"station_id":"st_d2ngiaodas8pm72gd1h0","pricing_plan_id":"cebpf4jnsgd1na2vs0mg"},{"bike_id":"724fabed-b39a-4276-b357-7a6ec49b4462","system_id":"levelo_inurba_marseille","lat":43.29023,"lon":5.38123,"is_reserved":false,"is_disabled":false,"rental_uris":{"android":"levelo://app?vid=724fabed-b39a-4276-b357-7a6ec49b4462","ios":"levelo://app?vid=724fabed-b39a-4276-b357-7a6ec49b4462"},"vehicle_type_id":"4","last_reported":1758665317,"current_range_meters":10800,"station_id":"ce4bh4p2rcd13ifvqe1g","pricing_plan_id":"cebpf4jnsgd1na2vs0mg"},{"bike_id":"e90a79d9-7bc7-40eb-afed-7501c8dc3b9f","system_id":"levelo_inurba_marseille","lat":43.28702,"lon":5.37378,"is_reserved":false,"is_disabled":false,"rental_uris":{"android":"levelo://app?vid=e90a79d9-7bc7-40eb-afed-7501c8dc3b9f","ios":"levelo://app?vid=e90a79d9-7bc7-40eb-afed-7501c8dc3b9f"},"vehicle_type_id":"4","last_reported":1758665317,"current_range_meters":10800,"station_id":"ce4bh3p2rcd13ifvqdq0","pricing_plan_id":"cebpf4jnsgd1na2vs0mg"},{"bike_id":"aace5746-4559-4d1f-861e-e15487e87c86","system_id":"levelo_inurba_marseille","lat":43.31327,"lon":5.397,"is_reserved":false,"is_disabled":false,"rental_uris":{"android":"levelo://app?vid=aace5746-4559-4d1f-861e-e15487e87c86","ios":"levelo://app?vid=aace5746-4559-4d1f-861e-e15487e87c86"},"vehicle_type_id":"4","last_reported":1758665317,"current_range_meters":11200,"station_id":"ce4bgvp2rcd13ifvqcu0","pricing_plan_id":"cebpf4jnsgd1na2vs0mg"},{"bike_id":"ca688ef3-c508-442e-ae4b-73b5e900f151","system_id":"levelo_inurba_marseille","lat":43.25823,"lon":5.39434,"is_reserved":false,"is_disabled":false,"rental_uris":{"android":"levelo://app?vid=ca688ef3-c508-442e-ae4b-73b5e900f151","ios":"levelo://app?vid=ca688ef3-c508-442e-ae4b-73b5e900f151"},"vehicle_type_id":"4","last_reported":1758665317,"current_range_meters":11200,"station_id":"ce4bhip2rcd13ifvqft0","pricing_plan_id":"cebpf4jnsgd1na2vs0mg"},{"bike_id":"5c6070a0-0fa7-40a1-bae4-90214c4809f1","system_id":"levelo_inurba_marseille","lat":43.28647,"lon":5.35096,"is_reserved":false,"is_disabled":false,"rental_uris":{"android":"levelo://app?vid=5c6070a0-0fa7-40a1-bae4-90214c4809f1","ios":"levelo://app?vid=5c6070a0-0fa7-40a1-bae4-90214c4809f1"},"vehicle_type_id":"4","last_reported":1758665317,"current_range_meters":11200,"station_id":"ce4bhch2rcd13ifvqeug","pricing_plan_id":"cebpf4jnsgd1na2vs0mg"},{"bike_id":"8190065d-15e8-406e-a402-257fe6740eef","system_id":"levelo_inurba_marseille","lat":43.28353,"lon":5.38093,"is_reserved":false,"is_disabled":false,"rental_uris":{"android":"levelo://app?vid=8190065d-15e8-406e-a402-257fe6740eef","ios":"levelo://app?vid=8190065d-15e8-406e-a402-257fe6740eef"},"vehicle_type_id":"4","last_reported":1758665317,"current_range_meters":11200,"station_id":"ce4bh412rcd13ifvqdr0","pricing_plan_id":"cebpf4jnsgd1na2vs0mg"},{"bike_id":"56261787-87a9-4dc3-a228-8300e8c2aee2","system_id":"levelo_inurba_marseille","lat":43.278119,"lon":5.407191,"is_reserved":false,"is_disabled":false,"rental_uris":{"android":"levelo://app?vid=56261787-87a9-4dc3-a228-8300e8c2aee2","ios":"levelo://app?vid=56261787-87a9-4dc3-a228-8300e8c2aee2"},"vehicle_type_id":"4","last_reported":1758665317,"current_range_meters":11200,"station_id":"ce4bhnh2rcd13ifvqgtg","pricing_plan_id":"cebpf4jnsgd1na2vs0mg"},{"bike_id":"67b97e29-7ecb-4018-a464-041bbd85ed0b","system_id":"levelo_inurba_marseille","lat":43.2842,"lon":5.34978,"is_reserved":false,"is_disabled":false,"rental_uris":{"android":"levelo://app?vid=67b97e29-7ecb-4018-a464-041bbd85ed0b","ios":"levelo://app?vid=67b97e29-7ecb-4018-a464-041bbd85ed0b"},"vehicle_type_id":"4","last_reported":1758665317,"current_range_meters":11200,"station_id":"ce4bhbh2rcd13ifvqepg","pricing_plan_id":"cebpf4jnsgd1na2vs0mg"},{"bike_id":"881cc594-09cd-4787-8004-f65d0d5c5ff9","system_id":"levelo_inurba_marseille","lat":43.28701,"lon":5.37388,"is_reserved":false,"is_disabled":false,"rental_uris":{"android":"levelo://app?vid=881cc594-09cd-4787-8004-f65d0d5c5ff9","ios":"levelo://app?vid=881cc594-09cd-4787-8004-f65d0d5c5ff9"},"vehicle_type_id":"4","last_reported":1758665317,"current_range_meters":14800,"station_id":"ce4bh3p2rcd13ifvqdq0","pricing_plan_id":"cebpf4jnsgd1na2vs0mg"},{"bike_id":"7645fca4-f741-4eef-b1fe-a688078e1d09","system_id":"levelo_inurba_marseille","lat":43.24653,"lon":5.43135,"is_reserved":false,"is_disabled":false,"rental_uris":{"android":"levelo://app?vid=7645fca4-f741-4eef-b1fe-a688078e1d09","ios":"levelo://app?vid=7645fca4-f741-4eef-b1fe-a688078e1d09"},"vehicle_type_id":"4","last_reported":1758665317,"current_range_meters":12000,"station_id":"st_d2m6c4gdas8pm72e190g","pricing_plan_id":"cebpf4jnsgd1na2vs0mg"},{"bike_id":"b20282f4-349d-41ea-9f28-ab3b0c29c1c5","system_id":"levelo_inurba_marseille","lat":43.28433,"lon":5.3917,"is_reserved":false,"is_disabled":false,"rental_uris":{"android":"levelo://app?vid=b20282f4-349d-41ea-9f28-ab3b0c29c1c5","ios":"levelo://app?vid=b20282f4-349d-41ea-9f28-ab3b0c29c1c5"},"vehicle_type_id":"4","last_reported":1758665317,"current_range_meters":11200,"station_id":"ce4bhoh2rcd13ifvqh5g","pricing_plan_id":"cebpf4jnsgd1na2vs0mg"},{"bike_id":"8a36147f-971f-4bf9-a3b3-6c83949ca6a6","system_id":"levelo_inurba_marseille","lat":43.32101,"lon":5.3677,"is_reserved":false,"is_disabled":false,"rental_uris":{"android":"levelo://app?vid=8a36147f-971f-4bf9-a3b3-6c83949ca6a6","ios":"levelo://app?vid=8a36147f-971f-4bf9-a3b3-6c83949ca6a6"},"vehicle_type_id":"4","last_reported":1758665317,"current_range_meters":12000,"station_id":"ce4bhrh2rcd13ifvqhug","pricing_plan_id":"cebpf4jnsgd1na2vs0mg"},{"bike_id":"5b396e16-77d2-4d91-9726-e9579982442a","system_id":"levelo_inurba_marseille","lat":43.29877,"lon":5.39721,"is_reserved":false,"is_disabled":false,"rental_uris":{"android":"levelo://app?vid=5b396e16-77d2-4d91-9726-e9579982442a","ios":"levelo://app?vid=5b396e16-77d2-4d91-9726-e9579982442a"},"vehicle_type_id":"4","last_reported":1758665317,"current_range_meters":12000,"station_id":"ce4bh0h2rcd13ifvqd50","pricing_plan_id":"cebpf4jnsgd1na2vs0mg"},{"bike_id":"109b1194-fc7c-4db6-b2eb-6c93d4cd22fc","system_id":"levelo_inurba_marseille","lat":43.25337,"lon":5.42185,"is_reserved":false,"is_disabled":false,"rental_uris":{"android":"levelo://app?vid=109b1194-fc7c-4db6-b2eb-6c93d4cd22fc","ios":"levelo://app?vid=109b1194-fc7c-4db6-b2eb-6c93d4cd22fc"},"vehicle_type_id":"4","last_reported":1758665317,"current_range_meters":12000,"station_id":"st_d2m65c5bi1j21697t3ng","pricing_plan_id":"cebpf4jnsgd1na2vs0mg"},{"bike_id":"062882c0-6810-4134-94b1-d58221c157d0","system_id":"levelo_inurba_marseille","lat":43.25331,"lon":5.42167,"is_reserved":false,"is_disabled":false,"rental_uris":{"android":"levelo://app?vid=062882c0-6810-4134-94b1-d58221c157d0","ios":"levelo://app?vid=062882c0-6810-4134-94b1-d58221c157d0"},"vehicle_type_id":"4","last_reported":1758665317,"current_range_meters":12000,"station_id":"st_d2m65c5bi1j21697t3ng","pricing_plan_id":"cebpf4jnsgd1na2vs0mg"},{"bike_id":"8a929650-31c9-47d5-a8c3-44575c7f975b","system_id":"levelo_inurba_marseille","lat":43.31992,"lon":5.38152,"is_reserved":false,"is_disabled":false,"rental_uris":{"android":"levelo://app?vid=8a929650-31c9-47d5-a8c3-44575c7f975b","ios":"levelo://app?vid=8a929650-31c9-47d5-a8c3-44575c7f975b"},"vehicle_type_id":"4","last_reported":1758665317,"current_range_meters":12000,"station_id":"ce4bhr12rcd13ifvqhpg","pricing_plan_id":"cebpf4jnsgd1na2vs0mg"},{"bike_id":"17119ef8-d120-4a9e-b3a3-ea7c02883b36","system_id":"levelo_inurba_marseille","lat":43.3108,"lon":5.42427,"is_reserved":false,"is_disabled":false,"rental_uris":{"android":"levelo://app?vid=17119ef8-d120-4a9e-b3a3-ea7c02883b36","ios":"levelo://app?vid=17119ef8-d120-4a9e-b3a3-ea7c02883b36"},"vehicle_type_id":"4","last_reported":1758665317,"current_range_meters":12000,"station_id":"ce4bhp92rcd13ifvqhag","pricing_plan_id":"cebpf4jnsgd1na2vs0mg"},{"bike_id":"9c7a180f-bee6-48c2-9ad2-181dea55ce36","system_id":"levelo_inurba_marseille","lat":43.31751,"lon":5.43691,"is_reserved":false,"is_disabled":false,"rental_uris":{"android":"levelo://app?vid=9c7a180f-bee6-48c2-9ad2-181dea55ce36","ios":"levelo://app?vid=9c7a180f-bee6-48c2-9ad2-181dea55ce36"},"vehicle_type_id":"4","last_reported":1758665317,"current_range_meters":12400,"station_id":"ce4bhp92rcd13ifvqhcg","pricing_plan_id":"cebpf4jnsgd1na2vs0mg"},{"bike_id":"0275e00f-ba43-4a3f-8cc2-0beb1f3aea8c","system_id":"levelo_inurba_marseille","lat":43.31337,"lon":5.3971,"is_reserved":false,"is_disabled":false,"rental_uris":{"android":"levelo://app?vid=0275e00f-ba43-4a3f-8cc2-0beb1f3aea8c","ios":"levelo://app?vid=0275e00f-ba43-4a3f-8cc2-0beb1f3aea8c"},"vehicle_type_id":"4","last_reported":1758665317,"current_range_meters":12400,"station_id":"ce4bgvp2rcd13ifvqcu0","pricing_plan_id":"cebpf4jnsgd1na2vs0mg"},{"bike_id":"43d57fd4-047e-4ac8-97e5-ec9b96239472","system_id":"levelo_inurba_marseille","lat":43.33231,"lon":5.39821,"is_reserved":false,"is_disabled":false,"rental_uris":{"android":"levelo://app?vid=43d57fd4-047e-4ac8-97e5-ec9b96239472","ios":"levelo://app?vid=43d57fd4-047e-4ac8-97e5-ec9b96239472"},"vehicle_type_id":"4","last_reported":1758665317,"current_range_meters":12400,"station_id":"","pricing_plan_id":"cebpf4jnsgd1na2vs0mg"},{"bike_id":"2e586592-f08d-43dc-b657-a1ca511d1d1a","system_id":"levelo_inurba_marseille","lat":43.2795,"lon":5.41044,"is_reserved":false,"is_disabled":false,"rental_uris":{"android":"levelo://app?vid=2e586592-f08d-43dc-b657-a1ca511d1d1a","ios":"levelo://app?vid=2e586592-f08d-43dc-b657-a1ca511d1d1a"},"vehicle_type_id":"4","last_reported":1758665317,"current_range_meters":12800,"station_id":"ce4bhnp2rcd13ifvqh0g","pricing_plan_id":"cebpf4jnsgd1na2vs0mg"},{"bike_id":"0a93b7fa-898f-46ce-bd76-143a1182be97","system_id":"levelo_inurba_marseille","lat":43.27448,"lon":5.39412,"is_reserved":false,"is_disabled":true,"rental_uris":{"android":"levelo://app?vid=0a93b7fa-898f-46ce-bd76-143a1182be97","ios":"levelo://app?vid=0a93b7fa-898f-46ce-bd76-143a1182be97"},"vehicle_type_id":"4","last_reported":1758665317,"current_range_meters":12800,"station_id":"ce4bhdp2rcd13ifvqf20","pricing_plan_id":"cebpf4jnsgd1na2vs0mg"},{"bike_id":"7c0482c3-9253-4d1b-b4f3-be55cdb7721d","system_id":"levelo_inurba_marseille","lat":43.33757,"lon":5.37466,"is_reserved":false,"is_disabled":false,"rental_uris":{"android":"levelo://app?vid=7c0482c3-9253-4d1b-b4f3-be55cdb7721d","ios":"levelo://app?vid=7c0482c3-9253-4d1b-b4f3-be55cdb7721d"},"vehicle_type_id":"4","last_reported":1758665317,"current_range_meters":12800,"station_id":"","pricing_plan_id":"cebpf4jnsgd1na2vs0mg"},{"bike_id":"34938a84-8c69-427d-ac76-3d11532bf34a","system_id":"levelo_inurba_marseille","lat":43.29169,"lon":5.35729,"is_reserved":false,"is_disabled":false,"rental_uris":{"android":"levelo://app?vid=34938a84-8c69-427d-ac76-3d11532bf34a","ios":"levelo://app?vid=34938a84-8c69-427d-ac76-3d11532bf34a"},"vehicle_type_id":"4","last_reported":1758665317,"current_range_meters":12800,"station_id":"","pricing_plan_id":"cebpf4jnsgd1na2vs0mg"},{"bike_id":"45e56dbb-bd80-424e-9864-c86b98d190af","system_id":"levelo_inurba_marseille","lat":43.27816,"lon":5.40711,"is_reserved":false,"is_disabled":false,"rental_uris":{"android":"levelo://app?vid=45e56dbb-bd80-424e-9864-c86b98d190af","ios":"levelo://app?vid=45e56dbb-bd80-424e-9864-c86b98d190af"},"vehicle_type_id":"4","last_reported":1758665317,"current_range_meters":12800,"station_id":"ce4bhnh2rcd13ifvqgtg","pricing_plan_id":"cebpf4jnsgd1na2vs0mg"},{"bike_id":"fa7758f3-da7a-4534-90e5-f7cfea9a3167","system_id":"levelo_inurba_marseille","lat":43.3107,"lon":5.38351,"is_reserved":false,"is_disabled":false,"rental_uris":{"android":"levelo://app?vid=fa7758f3-da7a-4534-90e5-f7cfea9a3167","ios":"levelo://app?vid=fa7758f3-da7a-4534-90e5-f7cfea9a3167"},"vehicle_type_id":"4","last_reported":1758665317,"current_range_meters":12800,"station_id":"ce4bgv92rcd13ifvqcr0","pricing_plan_id":"cebpf4jnsgd1na2vs0mg"},{"bike_id":"d1d823d0-f26c-4640-98b9-8e5eba62ca5c","system_id":"levelo_inurba_marseille","lat":43.30298,"lon":5.39125,"is_reserved":false,"is_disabled":false,"rental_uris":{"android":"levelo://app?vid=d1d823d0-f26c-4640-98b9-8e5eba62ca5c","ios":"levelo://app?vid=d1d823d0-f26c-4640-98b9-8e5eba62ca5c"},"vehicle_type_id":"4","last_reported":1758665317,"current_range_meters":13600,"station_id":"","pricing_plan_id":"cebpf4jnsgd1na2vs0mg"},{"bike_id":"b1ce93cc-c50a-4c33-91d4-e327b44da2b1","system_id":"levelo_inurba_marseille","lat":43.29898,"lon":5.38889,"is_reserved":false,"is_disabled":true,"rental_uris":{"android":"levelo://app?vid=b1ce93cc-c50a-4c33-91d4-e327b44da2b1","ios":"levelo://app?vid=b1ce93cc-c50a-4c33-91d4-e327b44da2b1"},"vehicle_type_id":"4","last_reported":1758665317,"current_range_meters":13600,"station_id":"ce4bh392rcd13ifvqdl0","pricing_plan_id":"cebpf4jnsgd1na2vs0mg"},{"bike_id":"06a24bce-028d-4b4a-b4a3-d45296145db5","system_id":"levelo_inurba_marseille","lat":43.28425,"lon":5.34991,"is_reserved":false,"is_disabled":true,"rental_uris":{"android":"levelo://app?vid=06a24bce-028d-4b4a-b4a3-d45296145db5","ios":"levelo://app?vid=06a24bce-028d-4b4a-b4a3-d45296145db5"},"vehicle_type_id":"4","last_reported":1758665317,"current_range_meters":13600,"station_id":"ce4bhch2rcd13ifvqeug","pricing_plan_id":"cebpf4jnsgd1na2vs0mg"},{"bike_id":"e35dc3d8-0dfe-4bd4-87f7-5d3ca8bee4e5","system_id":"levelo_inurba_marseille","lat":43.25096,"lon":5.42537,"is_reserved":false,"is_disabled":false,"rental_uris":{"android":"levelo://app?vid=e35dc3d8-0dfe-4bd4-87f7-5d3ca8bee4e5","ios":"levelo://app?vid=e35dc3d8-0dfe-4bd4-87f7-5d3ca8bee4e5"},"vehicle_type_id":"4","last_reported":1758665317,"current_range_meters":13600,"station_id":"","pricing_plan_id":"cebpf4jnsgd1na2vs0mg"},{"bike_id":"607e1e54-57f0-4475-b26c-b900b3e4a89f","system_id":"levelo_inurba_marseille","lat":43.30779,"lon":5.37644,"is_reserved":false,"is_disabled":false,"rental_uris":{"android":"levelo://app?vid=607e1e54-57f0-4475-b26c-b900b3e4a89f","ios":"levelo://app?vid=607e1e54-57f0-4475-b26c-b900b3e4a89f"},"vehicle_type_id":"4","last_reported":1758665317,"current_range_meters":14000,"station_id":"ce4bgv92rcd13ifvqcq0","pricing_plan_id":"cebpf4jnsgd1na2vs0mg"},{"bike_id":"4c0b651b-953c-4759-a0f7-0074f59a45eb","system_id":"levelo_inurba_marseille","lat":43.25792,"lon":5.39264,"is_reserved":false,"is_disabled":false,"rental_uris":{"android":"levelo://app?vid=4c0b651b-953c-4759-a0f7-0074f59a45eb","ios":"levelo://app?vid=4c0b651b-953c-4759-a0f7-0074f59a45eb"},"vehicle_type_id":"4","last_reported":1758665317,"current_range_meters":14000,"station_id":"","pricing_plan_id":"cebpf4jnsgd1na2vs0mg"},{"bike_id":"fb0bbbf8-0573-45b8-b460-0e4bda2157d0","system_id":"levelo_inurba_marseille","lat":43.292,"lon":5.3931,"is_reserved":false,"is_disabled":false,"rental_uris":{"android":"levelo://app?vid=fb0bbbf8-0573-45b8-b460-0e4bda2157d0","ios":"levelo://app?vid=fb0bbbf8-0573-45b8-b460-0e4bda2157d0"},"vehicle_type_id":"4","last_reported":1758665317,"current_range_meters":14400,"station_id":"ce4bh192rcd13ifvqdd0","pricing_plan_id":"cebpf4jnsgd1na2vs0mg"},{"bike_id":"2884e01e-e8e5-4f64-839a-a54c238e1ae3","system_id":"levelo_inurba_marseille","lat":43.22552,"lon":5.34833,"is_reserved":false,"is_disabled":false,"rental_uris":{"android":"levelo://app?vid=2884e01e-e8e5-4f64-839a-a54c238e1ae3","ios":"levelo://app?vid=2884e01e-e8e5-4f64-839a-a54c238e1ae3"},"vehicle_type_id":"4","last_reported":1758665317,"current_range_meters":14400,"station_id":"","pricing_plan_id":"cebpf4jnsgd1na2vs0mg"},{"bike_id":"64a28c76-5bce-4295-84a5-10e03bce5f94","system_id":"levelo_inurba_marseille","lat":43.28267,"lon":5.35058,"is_reserved":false,"is_disabled":false,"rental_uris":{"android":"levelo://app?vid=64a28c76-5bce-4295-84a5-10e03bce5f94","ios":"levelo://app?vid=64a28c76-5bce-4295-84a5-10e03bce5f94"},"vehicle_type_id":"4","last_reported":1758665317,"current_range_meters":14400,"station_id":"ce4bhbp2rcd13ifvqerg","pricing_plan_id":"cebpf4jnsgd1na2vs0mg"},{"bike_id":"c8ab61c9-747c-42d2-aee5-7d9bd94b331a","system_id":"levelo_inurba_marseille","lat":43.31269,"lon":5.40163,"is_reserved":false,"is_disabled":false,"rental_uris":{"android":"levelo://app?vid=c8ab61c9-747c-42d2-aee5-7d9bd94b331a","ios":"levelo://app?vid=c8ab61c9-747c-42d2-aee5-7d9bd94b331a"},"vehicle_type_id":"4","last_reported":1758665317,"current_range_meters":14000,"station_id":"ce4bh092rcd13ifvqd30","pricing_plan_id":"cebpf4jnsgd1na2vs0mg"},{"bike_id":"0ced9aee-b428-4276-96a5-abfd890f0338","system_id":"levelo_inurba_marseille","lat":43.30928,"lon":5.40138,"is_reserved":false,"is_disabled":false,"rental_uris":{"android":"levelo://app?vid=0ced9aee-b428-4276-96a5-abfd890f0338","ios":"levelo://app?vid=0ced9aee-b428-4276-96a5-abfd890f0338"},"vehicle_type_id":"4","last_reported":1758665317,"current_range_meters":14400,"station_id":"ce4bgvp2rcd13ifvqct0","pricing_plan_id":"cebpf4jnsgd1na2vs0mg"},{"bike_id":"4301de0d-f200-4fb1-b7a5-9149ce8ca385","system_id":"levelo_inurba_marseille","lat":43.29523,"lon":5.39399,"is_reserved":false,"is_disabled":false,"rental_uris":{"android":"levelo://app?vid=4301de0d-f200-4fb1-b7a5-9149ce8ca385","ios":"levelo://app?vid=4301de0d-f200-4fb1-b7a5-9149ce8ca385"},"vehicle_type_id":"4","last_reported":1758665317,"current_range_meters":14000,"station_id":"ce4bh292rcd13ifvqdf0","pricing_plan_id":"cebpf4jnsgd1na2vs0mg"},{"bike_id":"dddca5ef-4a33-499b-936a-6d8e6136a417","system_id":"levelo_inurba_marseille","lat":43.22935,"lon":5.35371,"is_reserved":false,"is_disabled":false,"rental_uris":{"android":"levelo://app?vid=dddca5ef-4a33-499b-936a-6d8e6136a417","ios":"levelo://app?vid=dddca5ef-4a33-499b-936a-6d8e6136a417"},"vehicle_type_id":"4","last_reported":1758665317,"current_range_meters":14400,"station_id":"cpo3532slgdg3j2ikp40","pricing_plan_id":"cebpf4jnsgd1na2vs0mg"},{"bike_id":"33699cb6-4932-422a-a33c-d38fde2c76f6","system_id":"levelo_inurba_marseille","lat":43.25814,"lon":5.39424,"is_reserved":false,"is_disabled":false,"rental_uris":{"android":"levelo://app?vid=33699cb6-4932-422a-a33c-d38fde2c76f6","ios":"levelo://app?vid=33699cb6-4932-422a-a33c-d38fde2c76f6"},"vehicle_type_id":"4","last_reported":1758665317,"current_range_meters":14800,"station_id":"ce4bhip2rcd13ifvqft0","pricing_plan_id":"cebpf4jnsgd1na2vs0mg"},{"bike_id":"0ede7616-1d90-43d4-a37a-60c9664e7016","system_id":"levelo_inurba_marseille","lat":43.23201,"lon":5.39995,"is_reserved":false,"is_disabled":false,"rental_uris":{"android":"levelo://app?vid=0ede7616-1d90-43d4-a37a-60c9664e7016","ios":"levelo://app?vid=0ede7616-1d90-43d4-a37a-60c9664e7016"},"vehicle_type_id":"4","last_reported":1758665317,"current_range_meters":14800,"station_id":"ce4bhn12rcd13ifvqgqg","pricing_plan_id":"cebpf4jnsgd1na2vs0mg"},{"bike_id":"e36b8523-28d4-4650-bb1a-56482550ea8b","system_id":"levelo_inurba_marseille","lat":43.29792,"lon":5.38093,"is_reserved":false,"is_disabled":true,"rental_uris":{"android":"levelo://app?vid=e36b8523-28d4-4650-bb1a-56482550ea8b","ios":"levelo://app?vid=e36b8523-28d4-4650-bb1a-56482550ea8b"},"vehicle_type_id":"4","last_reported":1758665317,"current_range_meters":14800,"station_id":"ce4bgip2rcd13ifvqbb0","pricing_plan_id":"cebpf4jnsgd1na2vs0mg"},{"bike_id":"9feb0e0f-24fa-4463-b0f3-30472830c043","system_id":"levelo_inurba_marseille","lat":43.31757,"lon":5.39002,"is_reserved":false,"is_disabled":false,"rental_uris":{"android":"levelo://app?vid=9feb0e0f-24fa-4463-b0f3-30472830c043","ios":"levelo://app?vid=9feb0e0f-24fa-4463-b0f3-30472830c043"},"vehicle_type_id":"4","last_reported":1758665317,"current_range_meters":15200,"station_id":"ce4bhqp2rcd13ifvqhng","pricing_plan_id":"cebpf4jnsgd1na2vs0mg"},{"bike_id":"a60abba9-f9b8-477b-8786-175fc2b6218b","system_id":"levelo_inurba_marseille","lat":43.30888,"lon":5.37166,"is_reserved":false,"is_disabled":false,"rental_uris":{"android":"levelo://app?vid=a60abba9-f9b8-477b-8786-175fc2b6218b","ios":"levelo://app?vid=a60abba9-f9b8-477b-8786-175fc2b6218b"},"vehicle_type_id":"4","last_reported":1758665317,"current_range_meters":15200,"station_id":"ce4bguh2rcd13ifvqckg","pricing_plan_id":"cebpf4jnsgd1na2vs0mg"},{"bike_id":"bc5e5951-8efa-474d-bb4f-c79e92883e92","system_id":"levelo_inurba_marseille","lat":43.28177,"lon":5.4267,"is_reserved":false,"is_disabled":false,"rental_uris":{"android":"levelo://app?vid=bc5e5951-8efa-474d-bb4f-c79e92883e92","ios":"levelo://app?vid=bc5e5951-8efa-474d-bb4f-c79e92883e92"},"vehicle_type_id":"4","last_reported":1758665317,"current_range_meters":15200,"station_id":"ce4bhnh2rcd13ifvqgug","pricing_plan_id":"cebpf4jnsgd1na2vs0mg"},{"bike_id":"503e9fe5-3f4f-4661-a209-e71c434a7680","system_id":"levelo_inurba_marseille","lat":43.27966,"lon":5.38712,"is_reserved":false,"is_disabled":true,"rental_uris":{"android":"levelo://app?vid=503e9fe5-3f4f-4661-a209-e71c434a7680","ios":"levelo://app?vid=503e9fe5-3f4f-4661-a209-e71c434a7680"},"vehicle_type_id":"4","last_reported":1758665317,"current_range_meters":15200,"station_id":"ce4bhg12rcd13ifvqf80","pricing_plan_id":"cebpf4jnsgd1na2vs0mg"},{"bike_id":"438ead59-de14-4fa0-a61d-03a70a4122ae","system_id":"levelo_inurba_marseille","lat":43.97269,"lon":4.89111,"is_reserved":false,"is_disabled":true,"rental_uris":{"android":"levelo://app?vid=438ead59-de14-4fa0-a61d-03a70a4122ae","ios":"levelo://app?vid=438ead59-de14-4fa0-a61d-03a70a4122ae"},"vehicle_type_id":"4","last_reported":1758665317,"current_range_meters":15200,"station_id":"","pricing_plan_id":"cebpf4jnsgd1na2vs0mg"},{"bike_id":"7ee54a5a-c571-463d-baff-80a1a8ed87ce","system_id":"levelo_inurba_marseille","lat":43.25326,"lon":5.42151,"is_reserved":false,"is_disabled":false,"rental_uris":{"android":"levelo://app?vid=7ee54a5a-c571-463d-baff-80a1a8ed87ce","ios":"levelo://app?vid=7ee54a5a-c571-463d-baff-80a1a8ed87ce"},"vehicle_type_id":"4","last_reported":1758665317,"current_range_meters":15200,"station_id":"st_d2m65c5bi1j21697t3ng","pricing_plan_id":"cebpf4jnsgd1na2vs0mg"},{"bike_id":"fc0d55ff-169b-4f4b-b3ba-2214804abd56","system_id":"levelo_inurba_marseille","lat":43.29252,"lon":5.40906,"is_reserved":false,"is_disabled":false,"rental_uris":{"android":"levelo://app?vid=fc0d55ff-169b-4f4b-b3ba-2214804abd56","ios":"levelo://app?vid=fc0d55ff-169b-4f4b-b3ba-2214804abd56"},"vehicle_type_id":"4","last_reported":1758665317,"current_range_meters":16000,"station_id":"ce4bh192rcd13ifvqdc0","pricing_plan_id":"cebpf4jnsgd1na2vs0mg"},{"bike_id":"5922d7c6-776f-4c1e-b157-641941f3b3c9","system_id":"levelo_inurba_marseille","lat":43.301423,"lon":5.398769,"is_reserved":false,"is_disabled":false,"rental_uris":{"android":"levelo://app?vid=5922d7c6-776f-4c1e-b157-641941f3b3c9","ios":"levelo://app?vid=5922d7c6-776f-4c1e-b157-641941f3b3c9"},"vehicle_type_id":"4","last_reported":1758665317,"current_range_meters":16000,"station_id":"ce4bh0h2rcd13ifvqd40","pricing_plan_id":"cebpf4jnsgd1na2vs0mg"},{"bike_id":"b0acb56b-d010-4ecc-8e9e-aad9d0d3eb70","system_id":"levelo_inurba_marseille","lat":43.29195,"lon":5.35797,"is_reserved":false,"is_disabled":false,"rental_uris":{"android":"levelo://app?vid=b0acb56b-d010-4ecc-8e9e-aad9d0d3eb70","ios":"levelo://app?vid=b0acb56b-d010-4ecc-8e9e-aad9d0d3eb70"},"vehicle_type_id":"4","last_reported":1758665317,"current_range_meters":16000,"station_id":"ce4bhb12rcd13ifvqel0","pricing_plan_id":"cebpf4jnsgd1na2vs0mg"},{"bike_id":"9e28a774-d336-4995-921f-c826bee8dc91","system_id":"levelo_inurba_marseille","lat":43.30125,"lon":5.38793,"is_reserved":false,"is_disabled":true,"rental_uris":{"android":"levelo://app?vid=9e28a774-d336-4995-921f-c826bee8dc91","ios":"levelo://app?vid=9e28a774-d336-4995-921f-c826bee8dc91"},"vehicle_type_id":"4","last_reported":1758665317,"current_range_meters":16000,"station_id":"ce4bghh2rcd13ifvqb60","pricing_plan_id":"cebpf4jnsgd1na2vs0mg"},{"bike_id":"ae140a32-5f79-427f-90a7-d410e17b7823","system_id":"levelo_inurba_marseille","lat":43.26687,"lon":5.38246,"is_reserved":false,"is_disabled":true,"rental_uris":{"android":"levelo://app?vid=ae140a32-5f79-427f-90a7-d410e17b7823","ios":"levelo://app?vid=ae140a32-5f79-427f-90a7-d410e17b7823"},"vehicle_type_id":"4","last_reported":1758665317,"current_range_meters":16000,"station_id":"ce4bhg92rcd13ifvqf90","pricing_plan_id":"cebpf4jnsgd1na2vs0mg"},{"bike_id":"986b9cd9-8427-481d-80a2-063b18f9f5cc","system_id":"levelo_inurba_marseille","lat":43.28079,"lon":5.39666,"is_reserved":false,"is_disabled":false,"rental_uris":{"android":"levelo://app?vid=986b9cd9-8427-481d-80a2-063b18f9f5cc","ios":"levelo://app?vid=986b9cd9-8427-481d-80a2-063b18f9f5cc"},"vehicle_type_id":"4","last_reported":1758665317,"current_range_meters":16000,"station_id":"ce4bho12rcd13ifvqh2g","pricing_plan_id":"cebpf4jnsgd1na2vs0mg"},{"bike_id":"878212e1-9f3a-4147-b86c-65eaf928a45d","system_id":"levelo_inurba_marseille","lat":43.21749,"lon":5.34601,"is_reserved":false,"is_disabled":false,"rental_uris":{"android":"levelo://app?vid=878212e1-9f3a-4147-b86c-65eaf928a45d","ios":"levelo://app?vid=878212e1-9f3a-4147-b86c-65eaf928a45d"},"vehicle_type_id":"4","last_reported":1758665317,"current_range_meters":16000,"station_id":"","pricing_plan_id":"cebpf4jnsgd1na2vs0mg"},{"bike_id":"7778dc69-44e8-4176-906c-572acbfe5776","system_id":"levelo_inurba_marseille","lat":43.24951,"lon":5.40486,"is_reserved":false,"is_disabled":false,"rental_uris":{"android":"levelo://app?vid=7778dc69-44e8-4176-906c-572acbfe5776","ios":"levelo://app?vid=7778dc69-44e8-4176-906c-572acbfe5776"},"vehicle_type_id":"4","last_reported":1758665317,"current_range_meters":16000,"station_id":"st_d2ngiaodas8pm72gd1h0","pricing_plan_id":"cebpf4jnsgd1na2vs0mg"},{"bike_id":"c7f6a08b-c655-4213-b2ba-7d02e7f382fe","system_id":"levelo_inurba_marseille","lat":43.2799,"lon":5.39488,"is_reserved":false,"is_disabled":false,"rental_uris":{"android":"levelo://app?vid=c7f6a08b-c655-4213-b2ba-7d02e7f382fe","ios":"levelo://app?vid=c7f6a08b-c655-4213-b2ba-7d02e7f382fe"},"vehicle_type_id":"4","last_reported":1758665317,"current_range_meters":16000,"station_id":"","pricing_plan_id":"cebpf4jnsgd1na2vs0mg"},{"bike_id":"8353488b-27d1-4657-88aa-31403d6b0301","system_id":"levelo_inurba_marseille","lat":43.30596,"lon":5.37216,"is_reserved":false,"is_disabled":false,"rental_uris":{"android":"levelo://app?vid=8353488b-27d1-4657-88aa-31403d6b0301","ios":"levelo://app?vid=8353488b-27d1-4657-88aa-31403d6b0301"},"vehicle_type_id":"4","last_reported":1758665317,"current_range_meters":16000,"station_id":"ce4bgqh2rcd13ifvqc4g","pricing_plan_id":"cebpf4jnsgd1na2vs0mg"},{"bike_id":"b5097eea-9912-4be2-9cf9-14c224c5fab6","system_id":"levelo_inurba_marseille","lat":43.231953,"lon":5.355476,"is_reserved":false,"is_disabled":false,"rental_uris":{"android":"levelo://app?vid=b5097eea-9912-4be2-9cf9-14c224c5fab6","ios":"levelo://app?vid=b5097eea-9912-4be2-9cf9-14c224c5fab6"},"vehicle_type_id":"4","last_reported":1758665317,"current_range_meters":16400,"station_id":"ce4bhu92rcd13ifvqi70","pricing_plan_id":"cebpf4jnsgd1na2vs0mg"},{"bike_id":"24f1c4f0-9fd4-4fe7-808c-93dd959e3a6e","system_id":"levelo_inurba_marseille","lat":43.33049,"lon":5.39029,"is_reserved":false,"is_disabled":false,"rental_uris":{"android":"levelo://app?vid=24f1c4f0-9fd4-4fe7-808c-93dd959e3a6e","ios":"levelo://app?vid=24f1c4f0-9fd4-4fe7-808c-93dd959e3a6e"},"vehicle_type_id":"4","last_reported":1758665317,"current_range_meters":16400,"station_id":"ce4bhr92rcd13ifvqhrg","pricing_plan_id":"cebpf4jnsgd1na2vs0mg"},{"bike_id":"d5e7f1db-a250-433c-8992-01d3a8d6d17c","system_id":"levelo_inurba_marseille","lat":43.318205,"lon":5.42275,"is_reserved":false,"is_disabled":false,"rental_uris":{"android":"levelo://app?vid=d5e7f1db-a250-433c-8992-01d3a8d6d17c","ios":"levelo://app?vid=d5e7f1db-a250-433c-8992-01d3a8d6d17c"},"vehicle_type_id":"4","last_reported":1758665317,"current_range_meters":16400,"station_id":"ce4bhp92rcd13ifvqhbg","pricing_plan_id":"cebpf4jnsgd1na2vs0mg"},{"bike_id":"d68b9cdd-055c-48e6-b5c7-c6c683b923e5","system_id":"levelo_inurba_marseille","lat":43.28627,"lon":5.35085,"is_reserved":false,"is_disabled":true,"rental_uris":{"android":"levelo://app?vid=d68b9cdd-055c-48e6-b5c7-c6c683b923e5","ios":"levelo://app?vid=d68b9cdd-055c-48e6-b5c7-c6c683b923e5"},"vehicle_type_id":"4","last_reported":1758665317,"current_range_meters":16400,"station_id":"ce4bhch2rcd13ifvqeug","pricing_plan_id":"cebpf4jnsgd1na2vs0mg"},{"bike_id":"ae88b1bc-6bab-42b5-858b-19d5dcb9a115","system_id":"levelo_inurba_marseille","lat":43.30539,"lon":5.3842,"is_reserved":false,"is_disabled":false,"rental_uris":{"android":"levelo://app?vid=ae88b1bc-6bab-42b5-858b-19d5dcb9a115","ios":"levelo://app?vid=ae88b1bc-6bab-42b5-858b-19d5dcb9a115"},"vehicle_type_id":"4","last_reported":1758665317,"current_range_meters":16400,"station_id":"ce4bgg92rcd13ifvqb30","pricing_plan_id":"cebpf4jnsgd1na2vs0mg"},{"bike_id":"f51c1abc-0c02-4215-b3ba-2a93ae8d5cfd","system_id":"levelo_inurba_marseille","lat":43.32374,"lon":5.38886,"is_reserved":false,"is_disabled":false,"rental_uris":{"android":"levelo://app?vid=f51c1abc-0c02-4215-b3ba-2a93ae8d5cfd","ios":"levelo://app?vid=f51c1abc-0c02-4215-b3ba-2a93ae8d5cfd"},"vehicle_type_id":"4","last_reported":1758665317,"current_range_meters":16400,"station_id":"ce4bhqp2rcd13ifvqhog","pricing_plan_id":"cebpf4jnsgd1na2vs0mg"},{"bike_id":"73191c81-1d43-414e-9511-6c6ae5e9c556","system_id":"levelo_inurba_marseille","lat":43.29183,"lon":5.35808,"is_reserved":false,"is_disabled":false,"rental_uris":{"android":"levelo://app?vid=73191c81-1d43-414e-9511-6c6ae5e9c556","ios":"levelo://app?vid=73191c81-1d43-414e-9511-6c6ae5e9c556"},"vehicle_type_id":"4","last_reported":1758665317,"current_range_meters":16800,"station_id":"ce4bhb12rcd13ifvqel0","pricing_plan_id":"cebpf4jnsgd1na2vs0mg"},{"bike_id":"787fb8c7-9cda-4d69-b8c5-42fcd262adf0","system_id":"levelo_inurba_marseille","lat":43.28355,"lon":5.38652,"is_reserved":false,"is_disabled":true,"rental_uris":{"android":"levelo://app?vid=787fb8c7-9cda-4d69-b8c5-42fcd262adf0","ios":"levelo://app?vid=787fb8c7-9cda-4d69-b8c5-42fcd262adf0"},"vehicle_type_id":"4","last_reported":1758665317,"current_range_meters":16800,"station_id":"ce4bh492rcd13ifvqdvg","pricing_plan_id":"cebpf4jnsgd1na2vs0mg"},{"bike_id":"93f8abc5-7bf2-42ae-a85e-b4a1a5de88d5","system_id":"levelo_inurba_marseille","lat":43.337444,"lon":5.374475,"is_reserved":false,"is_disabled":false,"rental_uris":{"android":"levelo://app?vid=93f8abc5-7bf2-42ae-a85e-b4a1a5de88d5","ios":"levelo://app?vid=93f8abc5-7bf2-42ae-a85e-b4a1a5de88d5"},"vehicle_type_id":"4","last_reported":1758665317,"current_range_meters":16800,"station_id":"ce4bh412rcd13ifvqds0","pricing_plan_id":"cebpf4jnsgd1na2vs0mg"},{"bike_id":"817a7689-6721-44f0-8d80-02a933ee2211","system_id":"levelo_inurba_marseille","lat":43.32494,"lon":5.41487,"is_reserved":false,"is_disabled":false,"rental_uris":{"android":"levelo://app?vid=817a7689-6721-44f0-8d80-02a933ee2211","ios":"levelo://app?vid=817a7689-6721-44f0-8d80-02a933ee2211"},"vehicle_type_id":"4","last_reported":1758665317,"current_range_meters":16800,"station_id":"","pricing_plan_id":"cebpf4jnsgd1na2vs0mg"},{"bike_id":"b48e70b2-53f1-4641-819c-a53cac59b8ed","system_id":"levelo_inurba_marseille","lat":43.258241,"lon":5.39439,"is_reserved":false,"is_disabled":false,"rental_uris":{"android":"levelo://app?vid=b48e70b2-53f1-4641-819c-a53cac59b8ed","ios":"levelo://app?vid=b48e70b2-53f1-4641-819c-a53cac59b8ed"},"vehicle_type_id":"4","last_reported":1758665317,"current_range_meters":16800,"station_id":"ce4bhip2rcd13ifvqft0","pricing_plan_id":"cebpf4jnsgd1na2vs0mg"},{"bike_id":"36b070bb-df09-4433-b99c-aab79ada22d5","system_id":"levelo_inurba_marseille","lat":43.29287,"lon":5.3744,"is_reserved":false,"is_disabled":false,"rental_uris":{"android":"levelo://app?vid=36b070bb-df09-4433-b99c-aab79ada22d5","ios":"levelo://app?vid=36b070bb-df09-4433-b99c-aab79ada22d5"},"vehicle_type_id":"4","last_reported":1758665317,"current_range_meters":16800,"station_id":"","pricing_plan_id":"cebpf4jnsgd1na2vs0mg"},{"bike_id":"0412dbb0-08ae-49a0-afef-1ad2c96f78ef","system_id":"levelo_inurba_marseille","lat":43.26567,"lon":5.40328,"is_reserved":false,"is_disabled":false,"rental_uris":{"android":"levelo://app?vid=0412dbb0-08ae-49a0-afef-1ad2c96f78ef","ios":"levelo://app?vid=0412dbb0-08ae-49a0-afef-1ad2c96f78ef"},"vehicle_type_id":"4","last_reported":1758665317,"current_range_meters":16800,"station_id":"ce4bhmp2rcd13ifvqgng","pricing_plan_id":"cebpf4jnsgd1na2vs0mg"},{"bike_id":"1438f3bc-7e01-496a-b6f4-020bd8437556","system_id":"levelo_inurba_marseille","lat":43.268,"lon":5.40263,"is_reserved":false,"is_disabled":false,"rental_uris":{"android":"levelo://app?vid=1438f3bc-7e01-496a-b6f4-020bd8437556","ios":"levelo://app?vid=1438f3bc-7e01-496a-b6f4-020bd8437556"},"vehicle_type_id":"4","last_reported":1758665317,"current_range_meters":17200,"station_id":"ce501612rcd8frsf0b60","pricing_plan_id":"cebpf4jnsgd1na2vs0mg"},{"bike_id":"f8c06f7d-03bd-4462-954a-b00f606bc63d","system_id":"levelo_inurba_marseille","lat":43.253329,"lon":5.421742,"is_reserved":false,"is_disabled":false,"rental_uris":{"android":"levelo://app?vid=f8c06f7d-03bd-4462-954a-b00f606bc63d","ios":"levelo://app?vid=f8c06f7d-03bd-4462-954a-b00f606bc63d"},"vehicle_type_id":"4","last_reported":1758665317,"current_range_meters":17200,"station_id":"st_d2m65c5bi1j21697t3ng","pricing_plan_id":"cebpf4jnsgd1na2vs0mg"},{"bike_id":"f1109d1c-3dfd-4013-af5e-deeaec240c17","system_id":"levelo_inurba_marseille","lat":43.32106,"lon":5.36777,"is_reserved":false,"is_disabled":false,"rental_uris":{"android":"levelo://app?vid=f1109d1c-3dfd-4013-af5e-deeaec240c17","ios":"levelo://app?vid=f1109d1c-3dfd-4013-af5e-deeaec240c17"},"vehicle_type_id":"4","last_reported":1758665317,"current_range_meters":17200,"station_id":"ce4bhrh2rcd13ifvqhug","pricing_plan_id":"cebpf4jnsgd1na2vs0mg"},{"bike_id":"ef00c611-56e3-4d87-83a8-6fad9627913a","system_id":"levelo_inurba_marseille","lat":43.308894,"lon":5.371943,"is_reserved":false,"is_disabled":false,"rental_uris":{"android":"levelo://app?vid=ef00c611-56e3-4d87-83a8-6fad9627913a","ios":"levelo://app?vid=ef00c611-56e3-4d87-83a8-6fad9627913a"},"vehicle_type_id":"4","last_reported":1758665317,"current_range_meters":17200,"station_id":"ce4bguh2rcd13ifvqckg","pricing_plan_id":"cebpf4jnsgd1na2vs0mg"},{"bike_id":"23992864-f302-4317-be32-ce66b8190c01","system_id":"levelo_inurba_marseille","lat":43.29991,"lon":5.40109,"is_reserved":false,"is_disabled":false,"rental_uris":{"android":"levelo://app?vid=23992864-f302-4317-be32-ce66b8190c01","ios":"levelo://app?vid=23992864-f302-4317-be32-ce66b8190c01"},"vehicle_type_id":"4","last_reported":1758665317,"current_range_meters":17200,"station_id":"","pricing_plan_id":"cebpf4jnsgd1na2vs0mg"},{"bike_id":"ed8cbbf5-3975-48b9-b090-06705d0e4d40","system_id":"levelo_inurba_marseille","lat":43.26501,"lon":5.3953,"is_reserved":false,"is_disabled":false,"rental_uris":{"android":"levelo://app?vid=ed8cbbf5-3975-48b9-b090-06705d0e4d40","ios":"levelo://app?vid=ed8cbbf5-3975-48b9-b090-06705d0e4d40"},"vehicle_type_id":"4","last_reported":1758665317,"current_range_meters":17200,"station_id":"ce4bhi12rcd13ifvqfq0","pricing_plan_id":"cebpf4jnsgd1na2vs0mg"},{"bike_id":"869fabf3-ec40-4094-90fd-8db12d5a99a5","system_id":"levelo_inurba_marseille","lat":43.28716,"lon":5.37936,"is_reserved":false,"is_disabled":false,"rental_uris":{"android":"levelo://app?vid=869fabf3-ec40-4094-90fd-8db12d5a99a5","ios":"levelo://app?vid=869fabf3-ec40-4094-90fd-8db12d5a99a5"},"vehicle_type_id":"4","last_reported":1758665317,"current_range_meters":17200,"station_id":"ce4bh9p2rcd13ifvqec0","pricing_plan_id":"cebpf4jnsgd1na2vs0mg"},{"bike_id":"bcb0345d-b69c-4093-a73a-ca87e4c5143d","system_id":"levelo_inurba_marseille","lat":43.27914,"lon":5.39577,"is_reserved":false,"is_disabled":false,"rental_uris":{"android":"levelo://app?vid=bcb0345d-b69c-4093-a73a-ca87e4c5143d","ios":"levelo://app?vid=bcb0345d-b69c-4093-a73a-ca87e4c5143d"},"vehicle_type_id":"4","last_reported":1758665317,"current_range_meters":17200,"station_id":"ce4bhf92rcd13ifvqf40","pricing_plan_id":"cebpf4jnsgd1na2vs0mg"},{"bike_id":"059cf380-a3a8-41da-a61a-a9258dbf6aeb","system_id":"levelo_inurba_marseille","lat":43.26951,"lon":5.38625,"is_reserved":false,"is_disabled":false,"rental_uris":{"android":"levelo://app?vid=059cf380-a3a8-41da-a61a-a9258dbf6aeb","ios":"levelo://app?vid=059cf380-a3a8-41da-a61a-a9258dbf6aeb"},"vehicle_type_id":"4","last_reported":1758665317,"current_range_meters":17200,"station_id":"ce4bhh92rcd13ifvqfh0","pricing_plan_id":"cebpf4jnsgd1na2vs0mg"},{"bike_id":"bf7922d8-f04c-44a6-912b-505ec561dd82","system_id":"levelo_inurba_marseille","lat":43.28149,"lon":5.42636,"is_reserved":false,"is_disabled":false,"rental_uris":{"android":"levelo://app?vid=bf7922d8-f04c-44a6-912b-505ec561dd82","ios":"levelo://app?vid=bf7922d8-f04c-44a6-912b-505ec561dd82"},"vehicle_type_id":"4","last_reported":1758665317,"current_range_meters":17200,"station_id":"ce4bhnh2rcd13ifvqgug","pricing_plan_id":"cebpf4jnsgd1na2vs0mg"},{"bike_id":"8c0227e3-55e8-4994-aa0c-9b6ee99b7e26","system_id":"levelo_inurba_marseille","lat":43.230579,"lon":5.354979,"is_reserved":false,"is_disabled":false,"rental_uris":{"android":"levelo://app?vid=8c0227e3-55e8-4994-aa0c-9b6ee99b7e26","ios":"levelo://app?vid=8c0227e3-55e8-4994-aa0c-9b6ee99b7e26"},"vehicle_type_id":"4","last_reported":1758665317,"current_range_meters":17600,"station_id":"cpo3342slgdg3j2ifvpg","pricing_plan_id":"cebpf4jnsgd1na2vs0mg"},{"bike_id":"71116f72-4a53-4317-bbef-b8226ad25fd0","system_id":"levelo_inurba_marseille","lat":43.28923,"lon":5.38379,"is_reserved":false,"is_disabled":false,"rental_uris":{"android":"levelo://app?vid=71116f72-4a53-4317-bbef-b8226ad25fd0","ios":"levelo://app?vid=71116f72-4a53-4317-bbef-b8226ad25fd0"},"vehicle_type_id":"4","last_reported":1758665317,"current_range_meters":17200,"station_id":"ce4bh612rcd13ifvqe6g","pricing_plan_id":"cebpf4jnsgd1na2vs0mg"},{"bike_id":"a851cae0-b395-441e-9dd1-21300baf3396","system_id":"levelo_inurba_marseille","lat":43.31512,"lon":5.3871,"is_reserved":false,"is_disabled":false,"rental_uris":{"android":"levelo://app?vid=a851cae0-b395-441e-9dd1-21300baf3396","ios":"levelo://app?vid=a851cae0-b395-441e-9dd1-21300baf3396"},"vehicle_type_id":"4","last_reported":1758665317,"current_range_meters":17600,"station_id":"","pricing_plan_id":"cebpf4jnsgd1na2vs0mg"},{"bike_id":"e2017298-7010-4fcc-9644-9ccfb0f46125","system_id":"levelo_inurba_marseille","lat":43.30111,"lon":5.41524,"is_reserved":false,"is_disabled":false,"rental_uris":{"android":"levelo://app?vid=e2017298-7010-4fcc-9644-9ccfb0f46125","ios":"levelo://app?vid=e2017298-7010-4fcc-9644-9ccfb0f46125"},"vehicle_type_id":"4","last_reported":1758665317,"current_range_meters":17600,"station_id":"","pricing_plan_id":"cebpf4jnsgd1na2vs0mg"},{"bike_id":"7471b13e-299b-4640-af83-29135da0a5cf","system_id":"levelo_inurba_marseille","lat":43.303,"lon":5.39222,"is_reserved":false,"is_disabled":false,"rental_uris":{"android":"levelo://app?vid=7471b13e-299b-4640-af83-29135da0a5cf","ios":"levelo://app?vid=7471b13e-299b-4640-af83-29135da0a5cf"},"vehicle_type_id":"4","last_reported":1758665317,"current_range_meters":18000,"station_id":"ce4bgkh2rcd13ifvqbk0","pricing_plan_id":"cebpf4jnsgd1na2vs0mg"},{"bike_id":"3cb1dae7-6bcd-41e5-b1b7-c1d25c751a99","system_id":"levelo_inurba_marseille","lat":43.337594,"lon":5.374419,"is_reserved":false,"is_disabled":false,"rental_uris":{"android":"levelo://app?vid=3cb1dae7-6bcd-41e5-b1b7-c1d25c751a99","ios":"levelo://app?vid=3cb1dae7-6bcd-41e5-b1b7-c1d25c751a99"},"vehicle_type_id":"4","last_reported":1758665317,"current_range_meters":18000,"station_id":"","pricing_plan_id":"cebpf4jnsgd1na2vs0mg"},{"bike_id":"57b14c92-2a17-45b3-beb1-cbb460ef441b","system_id":"levelo_inurba_marseille","lat":43.23198,"lon":5.39975,"is_reserved":false,"is_disabled":false,"rental_uris":{"android":"levelo://app?vid=57b14c92-2a17-45b3-beb1-cbb460ef441b","ios":"levelo://app?vid=57b14c92-2a17-45b3-beb1-cbb460ef441b"},"vehicle_type_id":"4","last_reported":1758665317,"current_range_meters":18000,"station_id":"ce4bhn12rcd13ifvqgqg","pricing_plan_id":"cebpf4jnsgd1na2vs0mg"},{"bike_id":"e9b89614-379d-417a-8ad3-50092d4df2ac","system_id":"levelo_inurba_marseille","lat":43.29509,"lon":5.39048,"is_reserved":false,"is_disabled":false,"rental_uris":{"android":"levelo://app?vid=e9b89614-379d-417a-8ad3-50092d4df2ac","ios":"levelo://app?vid=e9b89614-379d-417a-8ad3-50092d4df2ac"},"vehicle_type_id":"4","last_reported":1758665317,"current_range_meters":18000,"station_id":"ce4bh3p2rcd13ifvqdp0","pricing_plan_id":"cebpf4jnsgd1na2vs0mg"},{"bike_id":"85b0eed8-abef-41c4-a4c6-3e7cee231275","system_id":"levelo_inurba_marseille","lat":43.29267,"lon":5.40898,"is_reserved":false,"is_disabled":false,"rental_uris":{"android":"levelo://app?vid=85b0eed8-abef-41c4-a4c6-3e7cee231275","ios":"levelo://app?vid=85b0eed8-abef-41c4-a4c6-3e7cee231275"},"vehicle_type_id":"4","last_reported":1758665317,"current_range_meters":18000,"station_id":"ce4bh192rcd13ifvqdc0","pricing_plan_id":"cebpf4jnsgd1na2vs0mg"},{"bike_id":"d3599974-e621-4ce2-8c9b-8d38c86f7517","system_id":"levelo_inurba_marseille","lat":43.30659,"lon":5.40079,"is_reserved":false,"is_disabled":false,"rental_uris":{"android":"levelo://app?vid=d3599974-e621-4ce2-8c9b-8d38c86f7517","ios":"levelo://app?vid=d3599974-e621-4ce2-8c9b-8d38c86f7517"},"vehicle_type_id":"4","last_reported":1758665317,"current_range_meters":18000,"station_id":"ce4bh112rcd13ifvqda0","pricing_plan_id":"cebpf4jnsgd1na2vs0mg"},{"bike_id":"02f8f0dd-f6c9-4a1f-8bdf-33a56a1c0100","system_id":"levelo_inurba_marseille","lat":43.29067,"lon":5.37947,"is_reserved":false,"is_disabled":false,"rental_uris":{"android":"levelo://app?vid=02f8f0dd-f6c9-4a1f-8bdf-33a56a1c0100","ios":"levelo://app?vid=02f8f0dd-f6c9-4a1f-8bdf-33a56a1c0100"},"vehicle_type_id":"4","last_reported":1758665317,"current_range_meters":18000,"station_id":"","pricing_plan_id":"cebpf4jnsgd1na2vs0mg"},{"bike_id":"bcb71d7d-9f90-4495-a001-e0f5211c472c","system_id":"levelo_inurba_marseille","lat":43.29724,"lon":5.37612,"is_reserved":false,"is_disabled":false,"rental_uris":{"android":"levelo://app?vid=bcb71d7d-9f90-4495-a001-e0f5211c472c","ios":"levelo://app?vid=bcb71d7d-9f90-4495-a001-e0f5211c472c"},"vehicle_type_id":"4","last_reported":1758665317,"current_range_meters":18000,"station_id":"","pricing_plan_id":"cebpf4jnsgd1na2vs0mg"},{"bike_id":"e19472f1-87e0-4943-97f3-e785d2a10054","system_id":"levelo_inurba_marseille","lat":43.28865,"lon":5.42531,"is_reserved":false,"is_disabled":false,"rental_uris":{"android":"levelo://app?vid=e19472f1-87e0-4943-97f3-e785d2a10054","ios":"levelo://app?vid=e19472f1-87e0-4943-97f3-e785d2a10054"},"vehicle_type_id":"4","last_reported":1758665317,"current_range_meters":18000,"station_id":"","pricing_plan_id":"cebpf4jnsgd1na2vs0mg"},{"bike_id":"330cce6c-bdd4-49e4-bf79-b4b5a0c9218e","system_id":"levelo_inurba_marseille","lat":43.27948,"lon":5.41047,"is_reserved":false,"is_disabled":false,"rental_uris":{"android":"levelo://app?vid=330cce6c-bdd4-49e4-bf79-b4b5a0c9218e","ios":"levelo://app?vid=330cce6c-bdd4-49e4-bf79-b4b5a0c9218e"},"vehicle_type_id":"4","last_reported":1758665317,"current_range_meters":18000,"station_id":"ce4bhnp2rcd13ifvqh0g","pricing_plan_id":"cebpf4jnsgd1na2vs0mg"},{"bike_id":"de6299be-e523-4541-9b9d-fb8911da79fc","system_id":"levelo_inurba_marseille","lat":43.28721,"lon":5.374,"is_reserved":false,"is_disabled":false,"rental_uris":{"android":"levelo://app?vid=de6299be-e523-4541-9b9d-fb8911da79fc","ios":"levelo://app?vid=de6299be-e523-4541-9b9d-fb8911da79fc"},"vehicle_type_id":"4","last_reported":1758665317,"current_range_meters":18800,"station_id":"ce4bh3p2rcd13ifvqdq0","pricing_plan_id":"cebpf4jnsgd1na2vs0mg"},{"bike_id":"8eae954c-dab6-4303-94f5-569e1c483f62","system_id":"levelo_inurba_marseille","lat":43.29444,"lon":5.40747,"is_reserved":false,"is_disabled":false,"rental_uris":{"android":"levelo://app?vid=8eae954c-dab6-4303-94f5-569e1c483f62","ios":"levelo://app?vid=8eae954c-dab6-4303-94f5-569e1c483f62"},"vehicle_type_id":"4","last_reported":1758665317,"current_range_meters":18800,"station_id":"","pricing_plan_id":"cebpf4jnsgd1na2vs0mg"},{"bike_id":"6c358240-9d0d-401e-beef-eb8202ca93b0","system_id":"levelo_inurba_marseille","lat":43.257238,"lon":5.411158,"is_reserved":false,"is_disabled":false,"rental_uris":{"android":"levelo://app?vid=6c358240-9d0d-401e-beef-eb8202ca93b0","ios":"levelo://app?vid=6c358240-9d0d-401e-beef-eb8202ca93b0"},"vehicle_type_id":"4","last_reported":1758665317,"current_range_meters":18800,"station_id":"ce4bhkp2rcd13ifvqgd0","pricing_plan_id":"cebpf4jnsgd1na2vs0mg"},{"bike_id":"189e953a-f0f5-4c03-b7b5-2321dcc67751","system_id":"levelo_inurba_marseille","lat":43.29532,"lon":5.39017,"is_reserved":false,"is_disabled":true,"rental_uris":{"android":"levelo://app?vid=189e953a-f0f5-4c03-b7b5-2321dcc67751","ios":"levelo://app?vid=189e953a-f0f5-4c03-b7b5-2321dcc67751"},"vehicle_type_id":"4","last_reported":1758665317,"current_range_meters":18800,"station_id":"ce4bh3p2rcd13ifvqdp0","pricing_plan_id":"cebpf4jnsgd1na2vs0mg"},{"bike_id":"4beed2ec-5d79-4abd-aad3-240c5872d9e6","system_id":"levelo_inurba_marseille","lat":43.28939,"lon":5.36635,"is_reserved":false,"is_disabled":false,"rental_uris":{"android":"levelo://app?vid=4beed2ec-5d79-4abd-aad3-240c5872d9e6","ios":"levelo://app?vid=4beed2ec-5d79-4abd-aad3-240c5872d9e6"},"vehicle_type_id":"4","last_reported":1758665317,"current_range_meters":18800,"station_id":"ce4bhap2rcd13ifvqek0","pricing_plan_id":"cebpf4jnsgd1na2vs0mg"},{"bike_id":"178af37d-dd54-4cf7-b80a-b996e0f2a163","system_id":"levelo_inurba_marseille","lat":43.21215,"lon":5.35078,"is_reserved":false,"is_disabled":false,"rental_uris":{"android":"levelo://app?vid=178af37d-dd54-4cf7-b80a-b996e0f2a163","ios":"levelo://app?vid=178af37d-dd54-4cf7-b80a-b996e0f2a163"},"vehicle_type_id":"4","last_reported":1758665317,"current_range_meters":18800,"station_id":"st_cvj6sg6p6f1abm77japg","pricing_plan_id":"cebpf4jnsgd1na2vs0mg"},{"bike_id":"129c8450-4cca-4e9f-b9f6-538b0080ad49","system_id":"levelo_inurba_marseille","lat":43.32568,"lon":5.3889,"is_reserved":false,"is_disabled":false,"rental_uris":{"android":"levelo://app?vid=129c8450-4cca-4e9f-b9f6-538b0080ad49","ios":"levelo://app?vid=129c8450-4cca-4e9f-b9f6-538b0080ad49"},"vehicle_type_id":"4","last_reported":1758665317,"current_range_meters":18800,"station_id":"","pricing_plan_id":"cebpf4jnsgd1na2vs0mg"},{"bike_id":"2caff127-fe1f-4b90-84fa-8afa6c8347c2","system_id":"levelo_inurba_marseille","lat":43.27177,"lon":5.40998,"is_reserved":false,"is_disabled":false,"rental_uris":{"android":"levelo://app?vid=2caff127-fe1f-4b90-84fa-8afa6c8347c2","ios":"levelo://app?vid=2caff127-fe1f-4b90-84fa-8afa6c8347c2"},"vehicle_type_id":"4","last_reported":1758665317,"current_range_meters":18000,"station_id":"ce4bhl12rcd13ifvqgf0","pricing_plan_id":"cebpf4jnsgd1na2vs0mg"},{"bike_id":"da8e8708-8b5d-4bf2-be68-b94960adb568","system_id":"levelo_inurba_marseille","lat":43.29264,"lon":5.3844,"is_reserved":false,"is_disabled":true,"rental_uris":{"android":"levelo://app?vid=da8e8708-8b5d-4bf2-be68-b94960adb568","ios":"levelo://app?vid=da8e8708-8b5d-4bf2-be68-b94960adb568"},"vehicle_type_id":"4","last_reported":1758665317,"current_range_meters":18800,"station_id":"ce4bh692rcd13ifvqea0","pricing_plan_id":"cebpf4jnsgd1na2vs0mg"},{"bike_id":"55043fb7-0957-4299-af2e-bd2e83515f00","system_id":"levelo_inurba_marseille","lat":43.29765,"lon":5.38102,"is_reserved":false,"is_disabled":true,"rental_uris":{"android":"levelo://app?vid=55043fb7-0957-4299-af2e-bd2e83515f00","ios":"levelo://app?vid=55043fb7-0957-4299-af2e-bd2e83515f00"},"vehicle_type_id":"4","last_reported":1758665317,"current_range_meters":18800,"station_id":"ce4bgip2rcd13ifvqbb0","pricing_plan_id":"cebpf4jnsgd1na2vs0mg"},{"bike_id":"bf08355d-d0ed-49d0-b790-a31c0476ed93","system_id":"levelo_inurba_marseille","lat":43.25112,"lon":5.40333,"is_reserved":false,"is_disabled":false,"rental_uris":{"android":"levelo://app?vid=bf08355d-d0ed-49d0-b790-a31c0476ed93","ios":"levelo://app?vid=bf08355d-d0ed-49d0-b790-a31c0476ed93"},"vehicle_type_id":"4","last_reported":1758665317,"current_range_meters":18800,"station_id":"ce4bhlh2rcd13ifvqgig","pricing_plan_id":"cebpf4jnsgd1na2vs0mg"},{"bike_id":"5fb726be-412e-4b65-b587-9d991ba40c42","system_id":"levelo_inurba_marseille","lat":43.21188,"lon":5.35088,"is_reserved":false,"is_disabled":false,"rental_uris":{"android":"levelo://app?vid=5fb726be-412e-4b65-b587-9d991ba40c42","ios":"levelo://app?vid=5fb726be-412e-4b65-b587-9d991ba40c42"},"vehicle_type_id":"4","last_reported":1758665317,"current_range_meters":18800,"station_id":"ce4bhi12rcd13ifvqfp0","pricing_plan_id":"cebpf4jnsgd1na2vs0mg"},{"bike_id":"327c041e-5c9e-4b0d-a97c-a2dbaab036ae","system_id":"levelo_inurba_marseille","lat":43.32587,"lon":5.40411,"is_reserved":false,"is_disabled":false,"rental_uris":{"android":"levelo://app?vid=327c041e-5c9e-4b0d-a97c-a2dbaab036ae","ios":"levelo://app?vid=327c041e-5c9e-4b0d-a97c-a2dbaab036ae"},"vehicle_type_id":"4","last_reported":1758665317,"current_range_meters":19200,"station_id":"","pricing_plan_id":"cebpf4jnsgd1na2vs0mg"},{"bike_id":"32b6bcee-b0bf-4974-9edd-ae20895fd4c0","system_id":"levelo_inurba_marseille","lat":43.30653,"lon":5.40089,"is_reserved":false,"is_disabled":false,"rental_uris":{"android":"levelo://app?vid=32b6bcee-b0bf-4974-9edd-ae20895fd4c0","ios":"levelo://app?vid=32b6bcee-b0bf-4974-9edd-ae20895fd4c0"},"vehicle_type_id":"4","last_reported":1758665317,"current_range_meters":19200,"station_id":"ce4bh112rcd13ifvqda0","pricing_plan_id":"cebpf4jnsgd1na2vs0mg"},{"bike_id":"452b9061-67e3-47b2-8dd9-90082f869ec5","system_id":"levelo_inurba_marseille","lat":43.21189,"lon":5.35072,"is_reserved":false,"is_disabled":true,"rental_uris":{"android":"levelo://app?vid=452b9061-67e3-47b2-8dd9-90082f869ec5","ios":"levelo://app?vid=452b9061-67e3-47b2-8dd9-90082f869ec5"},"vehicle_type_id":"4","last_reported":1758665317,"current_range_meters":19200,"station_id":"","pricing_plan_id":"cebpf4jnsgd1na2vs0mg"},{"bike_id":"0f9539df-509f-487e-82d0-16c840f4e781","system_id":"levelo_inurba_marseille","lat":43.3137,"lon":5.38492,"is_reserved":false,"is_disabled":false,"rental_uris":{"android":"levelo://app?vid=0f9539df-509f-487e-82d0-16c840f4e781","ios":"levelo://app?vid=0f9539df-509f-487e-82d0-16c840f4e781"},"vehicle_type_id":"4","last_reported":1758665317,"current_range_meters":19200,"station_id":"ce4bgt92rcd13ifvqcf0","pricing_plan_id":"cebpf4jnsgd1na2vs0mg"},{"bike_id":"0e9ca394-4351-4bf8-a641-f4e5215baf20","system_id":"levelo_inurba_marseille","lat":43.28277,"lon":5.35062,"is_reserved":false,"is_disabled":true,"rental_uris":{"android":"levelo://app?vid=0e9ca394-4351-4bf8-a641-f4e5215baf20","ios":"levelo://app?vid=0e9ca394-4351-4bf8-a641-f4e5215baf20"},"vehicle_type_id":"4","last_reported":1758665317,"current_range_meters":19200,"station_id":"ce4bhbp2rcd13ifvqerg","pricing_plan_id":"cebpf4jnsgd1na2vs0mg"},{"bike_id":"5c8d3f2d-0165-4601-b0d9-458bbd73e6ff","system_id":"levelo_inurba_marseille","lat":43.29073,"lon":5.37175,"is_reserved":false,"is_disabled":false,"rental_uris":{"android":"levelo://app?vid=5c8d3f2d-0165-4601-b0d9-458bbd73e6ff","ios":"levelo://app?vid=5c8d3f2d-0165-4601-b0d9-458bbd73e6ff"},"vehicle_type_id":"4","last_reported":1758665317,"current_range_meters":18800,"station_id":"ce4bh5p2rcd13ifvqe4g","pricing_plan_id":"cebpf4jnsgd1na2vs0mg"},{"bike_id":"9daac5d3-61aa-4838-867b-05177cf139a4","system_id":"levelo_inurba_marseille","lat":43.22587,"lon":5.41623,"is_reserved":false,"is_disabled":false,"rental_uris":{"android":"levelo://app?vid=9daac5d3-61aa-4838-867b-05177cf139a4","ios":"levelo://app?vid=9daac5d3-61aa-4838-867b-05177cf139a4"},"vehicle_type_id":"4","last_reported":1758665317,"current_range_meters":19200,"station_id":"st_d2o4gvlbi1j2169b742g","pricing_plan_id":"cebpf4jnsgd1na2vs0mg"},{"bike_id":"5db97d1f-13d3-4441-b000-cf6b1353d7d1","system_id":"levelo_inurba_marseille","lat":43.32358,"lon":5.38885,"is_reserved":false,"is_disabled":false,"rental_uris":{"android":"levelo://app?vid=5db97d1f-13d3-4441-b000-cf6b1353d7d1","ios":"levelo://app?vid=5db97d1f-13d3-4441-b000-cf6b1353d7d1"},"vehicle_type_id":"4","last_reported":1758665317,"current_range_meters":19200,"station_id":"ce4bhqp2rcd13ifvqhog","pricing_plan_id":"cebpf4jnsgd1na2vs0mg"},{"bike_id":"79627af3-5e4c-4c79-9ce8-bb6cb8053117","system_id":"levelo_inurba_marseille","lat":43.23186,"lon":5.3998,"is_reserved":false,"is_disabled":false,"rental_uris":{"android":"levelo://app?vid=79627af3-5e4c-4c79-9ce8-bb6cb8053117","ios":"levelo://app?vid=79627af3-5e4c-4c79-9ce8-bb6cb8053117"},"vehicle_type_id":"4","last_reported":1758665317,"current_range_meters":19600,"station_id":"ce4bhn12rcd13ifvqgqg","pricing_plan_id":"cebpf4jnsgd1na2vs0mg"},{"bike_id":"dc9354e7-403d-4884-95bf-6d7a164c6248","system_id":"levelo_inurba_marseille","lat":43.28381,"lon":5.38644,"is_reserved":false,"is_disabled":false,"rental_uris":{"android":"levelo://app?vid=dc9354e7-403d-4884-95bf-6d7a164c6248","ios":"levelo://app?vid=dc9354e7-403d-4884-95bf-6d7a164c6248"},"vehicle_type_id":"4","last_reported":1758665317,"current_range_meters":19600,"station_id":"ce4bh492rcd13ifvqdvg","pricing_plan_id":"cebpf4jnsgd1na2vs0mg"},{"bike_id":"b819bfbf-01b2-4e49-80dc-c61640541969","system_id":"levelo_inurba_marseille","lat":43.34133,"lon":5.40901,"is_reserved":false,"is_disabled":false,"rental_uris":{"android":"levelo://app?vid=b819bfbf-01b2-4e49-80dc-c61640541969","ios":"levelo://app?vid=b819bfbf-01b2-4e49-80dc-c61640541969"},"vehicle_type_id":"4","last_reported":1758665317,"current_range_meters":19200,"station_id":"ce4bhqh2rcd13ifvqhlg","pricing_plan_id":"cebpf4jnsgd1na2vs0mg"},{"bike_id":"e6337b8e-5e2d-4a14-9d64-9c419f36bd22","system_id":"levelo_inurba_marseille","lat":43.27988,"lon":5.41672,"is_reserved":false,"is_disabled":false,"rental_uris":{"android":"levelo://app?vid=e6337b8e-5e2d-4a14-9d64-9c419f36bd22","ios":"levelo://app?vid=e6337b8e-5e2d-4a14-9d64-9c419f36bd22"},"vehicle_type_id":"4","last_reported":1758665317,"current_range_meters":19600,"station_id":"ce4bho12rcd13ifvqh1g","pricing_plan_id":"cebpf4jnsgd1na2vs0mg"},{"bike_id":"5f0c51d4-3806-4fda-8794-43cbebec9e30","system_id":"levelo_inurba_marseille","lat":43.29112,"lon":5.3816,"is_reserved":false,"is_disabled":false,"rental_uris":{"android":"levelo://app?vid=5f0c51d4-3806-4fda-8794-43cbebec9e30","ios":"levelo://app?vid=5f0c51d4-3806-4fda-8794-43cbebec9e30"},"vehicle_type_id":"4","last_reported":1758665317,"current_range_meters":19600,"station_id":"ce4bh512rcd13ifvqe2g","pricing_plan_id":"cebpf4jnsgd1na2vs0mg"},{"bike_id":"42b3bef7-f2bd-4fd4-a03d-1a4e51c46a55","system_id":"levelo_inurba_marseille","lat":43.30938,"lon":5.40131,"is_reserved":false,"is_disabled":false,"rental_uris":{"android":"levelo://app?vid=42b3bef7-f2bd-4fd4-a03d-1a4e51c46a55","ios":"levelo://app?vid=42b3bef7-f2bd-4fd4-a03d-1a4e51c46a55"},"vehicle_type_id":"4","last_reported":1758665317,"current_range_meters":19600,"station_id":"ce4bgvp2rcd13ifvqct0","pricing_plan_id":"cebpf4jnsgd1na2vs0mg"},{"bike_id":"1a859677-18b8-45a0-b887-542ec22c33cb","system_id":"levelo_inurba_marseille","lat":43.32021,"lon":5.38142,"is_reserved":false,"is_disabled":false,"rental_uris":{"android":"levelo://app?vid=1a859677-18b8-45a0-b887-542ec22c33cb","ios":"levelo://app?vid=1a859677-18b8-45a0-b887-542ec22c33cb"},"vehicle_type_id":"4","last_reported":1758665317,"current_range_meters":19600,"station_id":"ce4bhr12rcd13ifvqhpg","pricing_plan_id":"cebpf4jnsgd1na2vs0mg"},{"bike_id":"e7a19603-697e-4f34-bf6e-d21cb8ee387e","system_id":"levelo_inurba_marseille","lat":43.26067,"lon":5.39371,"is_reserved":false,"is_disabled":true,"rental_uris":{"android":"levelo://app?vid=e7a19603-697e-4f34-bf6e-d21cb8ee387e","ios":"levelo://app?vid=e7a19603-697e-4f34-bf6e-d21cb8ee387e"},"vehicle_type_id":"4","last_reported":1758665317,"current_range_meters":20000,"station_id":"ce4bhh92rcd13ifvqfj0","pricing_plan_id":"cebpf4jnsgd1na2vs0mg"},{"bike_id":"8a828295-28e2-4f47-bc01-1374c80f32a1","system_id":"levelo_inurba_marseille","lat":43.2396,"lon":5.36619,"is_reserved":false,"is_disabled":true,"rental_uris":{"android":"levelo://app?vid=8a828295-28e2-4f47-bc01-1374c80f32a1","ios":"levelo://app?vid=8a828295-28e2-4f47-bc01-1374c80f32a1"},"vehicle_type_id":"4","last_reported":1758665317,"current_range_meters":20000,"station_id":"ce4bhi12rcd13ifvqfp0","pricing_plan_id":"cebpf4jnsgd1na2vs0mg"},{"bike_id":"e8627790-8a87-4571-bcb3-dab4fd186c29","system_id":"levelo_inurba_marseille","lat":43.282,"lon":5.39055,"is_reserved":false,"is_disabled":false,"rental_uris":{"android":"levelo://app?vid=e8627790-8a87-4571-bcb3-dab4fd186c29","ios":"levelo://app?vid=e8627790-8a87-4571-bcb3-dab4fd186c29"},"vehicle_type_id":"4","last_reported":1758665317,"current_range_meters":20000,"station_id":"ce4bhn92rcd13ifvqgsg","pricing_plan_id":"cebpf4jnsgd1na2vs0mg"},{"bike_id":"2bd2a176-8590-4e06-8b8c-a96b49b7b36a","system_id":"levelo_inurba_marseille","lat":43.262237,"lon":5.404538,"is_reserved":false,"is_disabled":false,"rental_uris":{"android":"levelo://app?vid=2bd2a176-8590-4e06-8b8c-a96b49b7b36a","ios":"levelo://app?vid=2bd2a176-8590-4e06-8b8c-a96b49b7b36a"},"vehicle_type_id":"4","last_reported":1758665317,"current_range_meters":20000,"station_id":"","pricing_plan_id":"cebpf4jnsgd1na2vs0mg"},{"bike_id":"6ce97256-6e29-4ee4-b817-ac92bdd5aea1","system_id":"levelo_inurba_marseille","lat":43.22534,"lon":5.34835,"is_reserved":false,"is_disabled":false,"rental_uris":{"android":"levelo://app?vid=6ce97256-6e29-4ee4-b817-ac92bdd5aea1","ios":"levelo://app?vid=6ce97256-6e29-4ee4-b817-ac92bdd5aea1"},"vehicle_type_id":"4","last_reported":1758665317,"current_range_meters":20000,"station_id":"","pricing_plan_id":"cebpf4jnsgd1na2vs0mg"},{"bike_id":"c9183adb-cc92-4c53-b9e5-811f4ffd474b","system_id":"levelo_inurba_marseille","lat":43.28488,"lon":5.38439,"is_reserved":false,"is_disabled":true,"rental_uris":{"android":"levelo://app?vid=c9183adb-cc92-4c53-b9e5-811f4ffd474b","ios":"levelo://app?vid=c9183adb-cc92-4c53-b9e5-811f4ffd474b"},"vehicle_type_id":"4","last_reported":1758665317,"current_range_meters":20000,"station_id":"ce4bh512rcd13ifvqe3g","pricing_plan_id":"cebpf4jnsgd1na2vs0mg"},{"bike_id":"ed625854-ee6d-4f6a-bb7e-f224f01cbaf6","system_id":"levelo_inurba_marseille","lat":43.28864,"lon":5.35842,"is_reserved":false,"is_disabled":false,"rental_uris":{"android":"levelo://app?vid=ed625854-ee6d-4f6a-bb7e-f224f01cbaf6","ios":"levelo://app?vid=ed625854-ee6d-4f6a-bb7e-f224f01cbaf6"},"vehicle_type_id":"4","last_reported":1758665317,"current_range_meters":20400,"station_id":"ce4bhb12rcd13ifvqem0","pricing_plan_id":"cebpf4jnsgd1na2vs0mg"},{"bike_id":"1755623a-c330-4b9a-acee-3c8817d901c0","system_id":"levelo_inurba_marseille","lat":43.30891,"lon":5.39646,"is_reserved":false,"is_disabled":false,"rental_uris":{"android":"levelo://app?vid=1755623a-c330-4b9a-acee-3c8817d901c0","ios":"levelo://app?vid=1755623a-c330-4b9a-acee-3c8817d901c0"},"vehicle_type_id":"4","last_reported":1758665317,"current_range_meters":20000,"station_id":"ce4bh012rcd13ifvqcv0","pricing_plan_id":"cebpf4jnsgd1na2vs0mg"},{"bike_id":"4342a142-70b9-4566-a52e-9ccaf81ccd90","system_id":"levelo_inurba_marseille","lat":43.25344,"lon":5.42145,"is_reserved":false,"is_disabled":false,"rental_uris":{"android":"levelo://app?vid=4342a142-70b9-4566-a52e-9ccaf81ccd90","ios":"levelo://app?vid=4342a142-70b9-4566-a52e-9ccaf81ccd90"},"vehicle_type_id":"4","last_reported":1758665317,"current_range_meters":20400,"station_id":"st_d2m65c5bi1j21697t3ng","pricing_plan_id":"cebpf4jnsgd1na2vs0mg"},{"bike_id":"1964e5c5-c2f4-47b1-b39e-876b5569556a","system_id":"levelo_inurba_marseille","lat":43.2927,"lon":5.38451,"is_reserved":false,"is_disabled":false,"rental_uris":{"android":"levelo://app?vid=1964e5c5-c2f4-47b1-b39e-876b5569556a","ios":"levelo://app?vid=1964e5c5-c2f4-47b1-b39e-876b5569556a"},"vehicle_type_id":"4","last_reported":1758665317,"current_range_meters":20400,"station_id":"ce4bh692rcd13ifvqea0","pricing_plan_id":"cebpf4jnsgd1na2vs0mg"},{"bike_id":"7d263a10-eb17-4696-bdc4-6f643169bc29","system_id":"levelo_inurba_marseille","lat":43.29306,"lon":5.37172,"is_reserved":false,"is_disabled":false,"rental_uris":{"android":"levelo://app?vid=7d263a10-eb17-4696-bdc4-6f643169bc29","ios":"levelo://app?vid=7d263a10-eb17-4696-bdc4-6f643169bc29"},"vehicle_type_id":"4","last_reported":1758665317,"current_range_meters":20400,"station_id":"","pricing_plan_id":"cebpf4jnsgd1na2vs0mg"},{"bike_id":"ff898cc4-e357-4e75-a6cb-dc3f7c91f054","system_id":"levelo_inurba_marseille","lat":43.21745,"lon":5.34598,"is_reserved":false,"is_disabled":true,"rental_uris":{"android":"levelo://app?vid=ff898cc4-e357-4e75-a6cb-dc3f7c91f054","ios":"levelo://app?vid=ff898cc4-e357-4e75-a6cb-dc3f7c91f054"},"vehicle_type_id":"4","last_reported":1758665317,"current_range_meters":20400,"station_id":"st_cvj6r9ubvosntc0bgbag","pricing_plan_id":"cebpf4jnsgd1na2vs0mg"},{"bike_id":"a6ad0c6c-868d-42f3-ba54-573e1a175a36","system_id":"levelo_inurba_marseille","lat":43.2625,"lon":5.41292,"is_reserved":false,"is_disabled":false,"rental_uris":{"android":"levelo://app?vid=a6ad0c6c-868d-42f3-ba54-573e1a175a36","ios":"levelo://app?vid=a6ad0c6c-868d-42f3-ba54-573e1a175a36"},"vehicle_type_id":"4","last_reported":1758665317,"current_range_meters":20400,"station_id":"","pricing_plan_id":"cebpf4jnsgd1na2vs0mg"},{"bike_id":"44f1eaf0-9e53-46af-85bb-81d3e73f8a96","system_id":"levelo_inurba_marseille","lat":43.28847,"lon":5.39328,"is_reserved":false,"is_disabled":true,"rental_uris":{"android":"levelo://app?vid=44f1eaf0-9e53-46af-85bb-81d3e73f8a96","ios":"levelo://app?vid=44f1eaf0-9e53-46af-85bb-81d3e73f8a96"},"vehicle_type_id":"4","last_reported":1758665317,"current_range_meters":20400,"station_id":"ce4bh2p2rcd13ifvqdi0","pricing_plan_id":"cebpf4jnsgd1na2vs0mg"},{"bike_id":"003515e8-8117-44bb-979d-5f47e8d50fda","system_id":"levelo_inurba_marseille","lat":43.30633,"lon":5.37543,"is_reserved":false,"is_disabled":false,"rental_uris":{"android":"levelo://app?vid=003515e8-8117-44bb-979d-5f47e8d50fda","ios":"levelo://app?vid=003515e8-8117-44bb-979d-5f47e8d50fda"},"vehicle_type_id":"4","last_reported":1758665317,"current_range_meters":20800,"station_id":"","pricing_plan_id":"cebpf4jnsgd1na2vs0mg"},{"bike_id":"573525ee-0a6a-4169-8294-7a89fdbf9d63","system_id":"levelo_inurba_marseille","lat":43.30535,"lon":5.3682,"is_reserved":false,"is_disabled":false,"rental_uris":{"android":"levelo://app?vid=573525ee-0a6a-4169-8294-7a89fdbf9d63","ios":"levelo://app?vid=573525ee-0a6a-4169-8294-7a89fdbf9d63"},"vehicle_type_id":"4","last_reported":1758665317,"current_range_meters":20800,"station_id":"","pricing_plan_id":"cebpf4jnsgd1na2vs0mg"},{"bike_id":"fee6c253-b959-4095-998c-6b48bb5a70f8","system_id":"levelo_inurba_marseille","lat":43.3027,"lon":5.40063,"is_reserved":false,"is_disabled":false,"rental_uris":{"android":"levelo://app?vid=fee6c253-b959-4095-998c-6b48bb5a70f8","ios":"levelo://app?vid=fee6c253-b959-4095-998c-6b48bb5a70f8"},"vehicle_type_id":"4","last_reported":1758665317,"current_range_meters":20800,"station_id":"ce4bgvh2rcd13ifvqcs0","pricing_plan_id":"cebpf4jnsgd1na2vs0mg"},{"bike_id":"fd5a7e9e-31ca-4b58-b917-33dc0467a692","system_id":"levelo_inurba_marseille","lat":43.30799,"lon":5.38145,"is_reserved":false,"is_disabled":false,"rental_uris":{"android":"levelo://app?vid=fd5a7e9e-31ca-4b58-b917-33dc0467a692","ios":"levelo://app?vid=fd5a7e9e-31ca-4b58-b917-33dc0467a692"},"vehicle_type_id":"4","last_reported":1758665317,"current_range_meters":20800,"station_id":"ce4bgt12rcd13ifvqce0","pricing_plan_id":"cebpf4jnsgd1na2vs0mg"},{"bike_id":"bb933b68-c692-46c3-a6fe-78c1e6e9fe0f","system_id":"levelo_inurba_marseille","lat":43.27379,"lon":5.362523,"is_reserved":false,"is_disabled":false,"rental_uris":{"android":"levelo://app?vid=bb933b68-c692-46c3-a6fe-78c1e6e9fe0f","ios":"levelo://app?vid=bb933b68-c692-46c3-a6fe-78c1e6e9fe0f"},"vehicle_type_id":"4","last_reported":1758665317,"current_range_meters":20800,"station_id":"ce4bhbh2rcd13ifvqeo0","pricing_plan_id":"cebpf4jnsgd1na2vs0mg"},{"bike_id":"822e4d00-1937-47f6-91e3-69ab57cde6b1","system_id":"levelo_inurba_marseille","lat":43.29263,"lon":5.40905,"is_reserved":false,"is_disabled":false,"rental_uris":{"android":"levelo://app?vid=822e4d00-1937-47f6-91e3-69ab57cde6b1","ios":"levelo://app?vid=822e4d00-1937-47f6-91e3-69ab57cde6b1"},"vehicle_type_id":"4","last_reported":1758665317,"current_range_meters":20800,"station_id":"ce4bh192rcd13ifvqdc0","pricing_plan_id":"cebpf4jnsgd1na2vs0mg"},{"bike_id":"16d9a464-95f6-4241-939a-8d28eb548d4d","system_id":"levelo_inurba_marseille","lat":43.28623,"lon":5.35076,"is_reserved":false,"is_disabled":true,"rental_uris":{"android":"levelo://app?vid=16d9a464-95f6-4241-939a-8d28eb548d4d","ios":"levelo://app?vid=16d9a464-95f6-4241-939a-8d28eb548d4d"},"vehicle_type_id":"4","last_reported":1758665317,"current_range_meters":20800,"station_id":"ce4bhch2rcd13ifvqeug","pricing_plan_id":"cebpf4jnsgd1na2vs0mg"},{"bike_id":"fc40c554-4071-46fa-8584-e4704d33fb83","system_id":"levelo_inurba_marseille","lat":43.27907,"lon":5.39577,"is_reserved":false,"is_disabled":false,"rental_uris":{"android":"levelo://app?vid=fc40c554-4071-46fa-8584-e4704d33fb83","ios":"levelo://app?vid=fc40c554-4071-46fa-8584-e4704d33fb83"},"vehicle_type_id":"4","last_reported":1758665317,"current_range_meters":20800,"station_id":"ce4bhf92rcd13ifvqf40","pricing_plan_id":"cebpf4jnsgd1na2vs0mg"},{"bike_id":"f7b4f07c-3009-4405-b6cd-1083f9875ff4","system_id":"levelo_inurba_marseille","lat":43.284717,"lon":5.384217,"is_reserved":false,"is_disabled":false,"rental_uris":{"android":"levelo://app?vid=f7b4f07c-3009-4405-b6cd-1083f9875ff4","ios":"levelo://app?vid=f7b4f07c-3009-4405-b6cd-1083f9875ff4"},"vehicle_type_id":"4","last_reported":1758665317,"current_range_meters":20800,"station_id":"ce4bh512rcd13ifvqe3g","pricing_plan_id":"cebpf4jnsgd1na2vs0mg"},{"bike_id":"d087f77a-406c-4d5a-be43-4950dac65ee4","system_id":"levelo_inurba_marseille","lat":43.24411,"lon":5.3707,"is_reserved":false,"is_disabled":true,"rental_uris":{"android":"levelo://app?vid=d087f77a-406c-4d5a-be43-4950dac65ee4","ios":"levelo://app?vid=d087f77a-406c-4d5a-be43-4950dac65ee4"},"vehicle_type_id":"4","last_reported":1758665317,"current_range_meters":21600,"station_id":"ce4bhhh2rcd13ifvqfk0","pricing_plan_id":"cebpf4jnsgd1na2vs0mg"},{"bike_id":"f8146c64-00fd-4c0c-85ef-0b834c0b62ad","system_id":"levelo_inurba_marseille","lat":43.28935,"lon":5.3664,"is_reserved":false,"is_disabled":true,"rental_uris":{"android":"levelo://app?vid=f8146c64-00fd-4c0c-85ef-0b834c0b62ad","ios":"levelo://app?vid=f8146c64-00fd-4c0c-85ef-0b834c0b62ad"},"vehicle_type_id":"4","last_reported":1758665317,"current_range_meters":21600,"station_id":"ce4bhap2rcd13ifvqek0","pricing_plan_id":"cebpf4jnsgd1na2vs0mg"},{"bike_id":"4b7580a2-2e98-4ffe-8874-9e420d2498f5","system_id":"levelo_inurba_marseille","lat":43.25333,"lon":5.42168,"is_reserved":false,"is_disabled":false,"rental_uris":{"android":"levelo://app?vid=4b7580a2-2e98-4ffe-8874-9e420d2498f5","ios":"levelo://app?vid=4b7580a2-2e98-4ffe-8874-9e420d2498f5"},"vehicle_type_id":"4","last_reported":1758665317,"current_range_meters":21600,"station_id":"st_d2m65c5bi1j21697t3ng","pricing_plan_id":"cebpf4jnsgd1na2vs0mg"},{"bike_id":"a8106c10-9347-4448-a569-fcfcc5d97838","system_id":"levelo_inurba_marseille","lat":43.33726,"lon":5.37425,"is_reserved":false,"is_disabled":false,"rental_uris":{"android":"levelo://app?vid=a8106c10-9347-4448-a569-fcfcc5d97838","ios":"levelo://app?vid=a8106c10-9347-4448-a569-fcfcc5d97838"},"vehicle_type_id":"4","last_reported":1758665317,"current_range_meters":21600,"station_id":"","pricing_plan_id":"cebpf4jnsgd1na2vs0mg"},{"bike_id":"97039272-1606-4f77-a0db-979de455505a","system_id":"levelo_inurba_marseille","lat":43.32393,"lon":5.39326,"is_reserved":false,"is_disabled":false,"rental_uris":{"android":"levelo://app?vid=97039272-1606-4f77-a0db-979de455505a","ios":"levelo://app?vid=97039272-1606-4f77-a0db-979de455505a"},"vehicle_type_id":"4","last_reported":1758665317,"current_range_meters":22000,"station_id":"","pricing_plan_id":"cebpf4jnsgd1na2vs0mg"},{"bike_id":"fc5a9859-2810-4537-ab1b-54acb8e6aa51","system_id":"levelo_inurba_marseille","lat":43.242119,"lon":5.396082,"is_reserved":false,"is_disabled":false,"rental_uris":{"android":"levelo://app?vid=fc5a9859-2810-4537-ab1b-54acb8e6aa51","ios":"levelo://app?vid=fc5a9859-2810-4537-ab1b-54acb8e6aa51"},"vehicle_type_id":"4","last_reported":1758665317,"current_range_meters":22000,"station_id":"ce4bhn12rcd13ifvqgqg","pricing_plan_id":"cebpf4jnsgd1na2vs0mg"},{"bike_id":"175760d5-253d-4692-91bd-1ac0c3f225e0","system_id":"levelo_inurba_marseille","lat":43.30888,"lon":5.39638,"is_reserved":false,"is_disabled":false,"rental_uris":{"android":"levelo://app?vid=175760d5-253d-4692-91bd-1ac0c3f225e0","ios":"levelo://app?vid=175760d5-253d-4692-91bd-1ac0c3f225e0"},"vehicle_type_id":"4","last_reported":1758665317,"current_range_meters":22000,"station_id":"ce4bh012rcd13ifvqcv0","pricing_plan_id":"cebpf4jnsgd1na2vs0mg"},{"bike_id":"a5a6e1fe-5101-4d30-a2dd-ce1df3ecbf23","system_id":"levelo_inurba_marseille","lat":43.28248,"lon":5.39083,"is_reserved":false,"is_disabled":false,"rental_uris":{"android":"levelo://app?vid=a5a6e1fe-5101-4d30-a2dd-ce1df3ecbf23","ios":"levelo://app?vid=a5a6e1fe-5101-4d30-a2dd-ce1df3ecbf23"},"vehicle_type_id":"4","last_reported":1758665317,"current_range_meters":22000,"station_id":"ce4bhn92rcd13ifvqgsg","pricing_plan_id":"cebpf4jnsgd1na2vs0mg"},{"bike_id":"e758b01b-ca98-467a-bdcc-b51ccfc96ed6","system_id":"levelo_inurba_marseille","lat":43.33774,"lon":5.37437,"is_reserved":false,"is_disabled":false,"rental_uris":{"android":"levelo://app?vid=e758b01b-ca98-467a-bdcc-b51ccfc96ed6","ios":"levelo://app?vid=e758b01b-ca98-467a-bdcc-b51ccfc96ed6"},"vehicle_type_id":"4","last_reported":1758665317,"current_range_meters":18000,"station_id":"","pricing_plan_id":"cebpf4jnsgd1na2vs0mg"},{"bike_id":"d0cee452-9152-4e22-9baa-fce0ab8da665","system_id":"levelo_inurba_marseille","lat":43.28039,"lon":5.36952,"is_reserved":false,"is_disabled":false,"rental_uris":{"android":"levelo://app?vid=d0cee452-9152-4e22-9baa-fce0ab8da665","ios":"levelo://app?vid=d0cee452-9152-4e22-9baa-fce0ab8da665"},"vehicle_type_id":"4","last_reported":1758665317,"current_range_meters":21600,"station_id":"ce4bha12rcd13ifvqef0","pricing_plan_id":"cebpf4jnsgd1na2vs0mg"},{"bike_id":"10bb7a3e-c5ad-4e74-ab64-0594c48b3c7b","system_id":"levelo_inurba_marseille","lat":43.28983,"lon":5.366312,"is_reserved":false,"is_disabled":false,"rental_uris":{"android":"levelo://app?vid=10bb7a3e-c5ad-4e74-ab64-0594c48b3c7b","ios":"levelo://app?vid=10bb7a3e-c5ad-4e74-ab64-0594c48b3c7b"},"vehicle_type_id":"4","last_reported":1758665317,"current_range_meters":22400,"station_id":"ce4bhap2rcd13ifvqek0","pricing_plan_id":"cebpf4jnsgd1na2vs0mg"},{"bike_id":"f08ee65f-e8d7-4a1c-8661-24ce8d516707","system_id":"levelo_inurba_marseille","lat":43.241802,"lon":5.397315,"is_reserved":false,"is_disabled":false,"rental_uris":{"android":"levelo://app?vid=f08ee65f-e8d7-4a1c-8661-24ce8d516707","ios":"levelo://app?vid=f08ee65f-e8d7-4a1c-8661-24ce8d516707"},"vehicle_type_id":"4","last_reported":1758665317,"current_range_meters":22400,"station_id":"ce4bhn12rcd13ifvqgpg","pricing_plan_id":"cebpf4jnsgd1na2vs0mg"},{"bike_id":"0f5baa11-037f-49ea-9c46-bb79ebed4ebf","system_id":"levelo_inurba_marseille","lat":43.3206,"lon":5.41523,"is_reserved":false,"is_disabled":false,"rental_uris":{"android":"levelo://app?vid=0f5baa11-037f-49ea-9c46-bb79ebed4ebf","ios":"levelo://app?vid=0f5baa11-037f-49ea-9c46-bb79ebed4ebf"},"vehicle_type_id":"4","last_reported":1758665317,"current_range_meters":22400,"station_id":"ce4bhq92rcd13ifvqhkg","pricing_plan_id":"cebpf4jnsgd1na2vs0mg"},{"bike_id":"13db69a3-98a8-4ab1-b5ca-f0d997c16aec","system_id":"levelo_inurba_marseille","lat":43.31987,"lon":5.38147,"is_reserved":false,"is_disabled":false,"rental_uris":{"android":"levelo://app?vid=13db69a3-98a8-4ab1-b5ca-f0d997c16aec","ios":"levelo://app?vid=13db69a3-98a8-4ab1-b5ca-f0d997c16aec"},"vehicle_type_id":"4","last_reported":1758665317,"current_range_meters":22400,"station_id":"ce4bhr12rcd13ifvqhpg","pricing_plan_id":"cebpf4jnsgd1na2vs0mg"},{"bike_id":"26645e03-c8d5-4f86-9627-b4c52f808188","system_id":"levelo_inurba_marseille","lat":43.3089,"lon":5.39652,"is_reserved":false,"is_disabled":false,"rental_uris":{"android":"levelo://app?vid=26645e03-c8d5-4f86-9627-b4c52f808188","ios":"levelo://app?vid=26645e03-c8d5-4f86-9627-b4c52f808188"},"vehicle_type_id":"4","last_reported":1758665317,"current_range_meters":22400,"station_id":"ce4bh012rcd13ifvqcv0","pricing_plan_id":"cebpf4jnsgd1na2vs0mg"},{"bike_id":"9cc84bbf-7a33-4bed-bc2c-60f6e4465882","system_id":"levelo_inurba_marseille","lat":43.30888,"lon":5.39633,"is_reserved":false,"is_disabled":false,"rental_uris":{"android":"levelo://app?vid=9cc84bbf-7a33-4bed-bc2c-60f6e4465882","ios":"levelo://app?vid=9cc84bbf-7a33-4bed-bc2c-60f6e4465882"},"vehicle_type_id":"4","last_reported":1758665317,"current_range_meters":22400,"station_id":"ce4bh012rcd13ifvqcv0","pricing_plan_id":"cebpf4jnsgd1na2vs0mg"},{"bike_id":"410b94e1-10e4-447f-aa6f-0228a3444595","system_id":"levelo_inurba_marseille","lat":43.27839,"lon":5.39208,"is_reserved":false,"is_disabled":false,"rental_uris":{"android":"levelo://app?vid=410b94e1-10e4-447f-aa6f-0228a3444595","ios":"levelo://app?vid=410b94e1-10e4-447f-aa6f-0228a3444595"},"vehicle_type_id":"4","last_reported":1758665317,"current_range_meters":22400,"station_id":"ce4bhjp2rcd13ifvqga0","pricing_plan_id":"cebpf4jnsgd1na2vs0mg"},{"bike_id":"d061c2e5-a78e-4e43-88e2-c7d3b9c348e7","system_id":"levelo_inurba_marseille","lat":43.22918,"lon":5.35373,"is_reserved":false,"is_disabled":false,"rental_uris":{"android":"levelo://app?vid=d061c2e5-a78e-4e43-88e2-c7d3b9c348e7","ios":"levelo://app?vid=d061c2e5-a78e-4e43-88e2-c7d3b9c348e7"},"vehicle_type_id":"4","last_reported":1758665317,"current_range_meters":22800,"station_id":"cpo3532slgdg3j2ikp40","pricing_plan_id":"cebpf4jnsgd1na2vs0mg"},{"bike_id":"5089fd74-409d-4838-af86-ce86d55a695b","system_id":"levelo_inurba_marseille","lat":43.326611,"lon":5.409906,"is_reserved":false,"is_disabled":false,"rental_uris":{"android":"levelo://app?vid=5089fd74-409d-4838-af86-ce86d55a695b","ios":"levelo://app?vid=5089fd74-409d-4838-af86-ce86d55a695b"},"vehicle_type_id":"4","last_reported":1758665317,"current_range_meters":22800,"station_id":"","pricing_plan_id":"cebpf4jnsgd1na2vs0mg"},{"bike_id":"467b4306-5fd8-484e-9a4b-cf8eb50151ba","system_id":"levelo_inurba_marseille","lat":43.32286,"lon":5.3827,"is_reserved":false,"is_disabled":false,"rental_uris":{"android":"levelo://app?vid=467b4306-5fd8-484e-9a4b-cf8eb50151ba","ios":"levelo://app?vid=467b4306-5fd8-484e-9a4b-cf8eb50151ba"},"vehicle_type_id":"4","last_reported":1758665317,"current_range_meters":22800,"station_id":"ce4bhr12rcd13ifvqhqg","pricing_plan_id":"cebpf4jnsgd1na2vs0mg"},{"bike_id":"77da97cd-5bd9-40ef-a1da-77a80367715c","system_id":"levelo_inurba_marseille","lat":43.30642,"lon":5.40094,"is_reserved":false,"is_disabled":false,"rental_uris":{"android":"levelo://app?vid=77da97cd-5bd9-40ef-a1da-77a80367715c","ios":"levelo://app?vid=77da97cd-5bd9-40ef-a1da-77a80367715c"},"vehicle_type_id":"4","last_reported":1758665317,"current_range_meters":22800,"station_id":"ce4bh112rcd13ifvqda0","pricing_plan_id":"cebpf4jnsgd1na2vs0mg"},{"bike_id":"276832e6-9f6d-4b72-be78-932bb429a987","system_id":"levelo_inurba_marseille","lat":43.30162,"lon":5.38775,"is_reserved":false,"is_disabled":false,"rental_uris":{"android":"levelo://app?vid=276832e6-9f6d-4b72-be78-932bb429a987","ios":"levelo://app?vid=276832e6-9f6d-4b72-be78-932bb429a987"},"vehicle_type_id":"4","last_reported":1758665317,"current_range_meters":22800,"station_id":"ce4bghh2rcd13ifvqb60","pricing_plan_id":"cebpf4jnsgd1na2vs0mg"},{"bike_id":"d7291183-dc83-473b-8c7c-d50495d20db0","system_id":"levelo_inurba_marseille","lat":43.29811,"lon":5.38084,"is_reserved":false,"is_disabled":true,"rental_uris":{"android":"levelo://app?vid=d7291183-dc83-473b-8c7c-d50495d20db0","ios":"levelo://app?vid=d7291183-dc83-473b-8c7c-d50495d20db0"},"vehicle_type_id":"4","last_reported":1758665317,"current_range_meters":22800,"station_id":"ce4bgip2rcd13ifvqbb0","pricing_plan_id":"cebpf4jnsgd1na2vs0mg"},{"bike_id":"c5f17a80-1b5e-4fd3-9269-90666e8dd8a4","system_id":"levelo_inurba_marseille","lat":43.24388,"lon":5.3706,"is_reserved":false,"is_disabled":false,"rental_uris":{"android":"levelo://app?vid=c5f17a80-1b5e-4fd3-9269-90666e8dd8a4","ios":"levelo://app?vid=c5f17a80-1b5e-4fd3-9269-90666e8dd8a4"},"vehicle_type_id":"4","last_reported":1758665317,"current_range_meters":22800,"station_id":"ce4bhhh2rcd13ifvqfk0","pricing_plan_id":"cebpf4jnsgd1na2vs0mg"},{"bike_id":"e5322349-69d9-437d-878f-196dc4287263","system_id":"levelo_inurba_marseille","lat":43.31165,"lon":5.38721,"is_reserved":false,"is_disabled":false,"rental_uris":{"android":"levelo://app?vid=e5322349-69d9-437d-878f-196dc4287263","ios":"levelo://app?vid=e5322349-69d9-437d-878f-196dc4287263"},"vehicle_type_id":"4","last_reported":1758665317,"current_range_meters":22400,"station_id":"ce4bgv12rcd13ifvqcp0","pricing_plan_id":"cebpf4jnsgd1na2vs0mg"},{"bike_id":"d31d856a-933d-49cf-948f-ce03657dfc74","system_id":"levelo_inurba_marseille","lat":43.28418,"lon":5.34996,"is_reserved":false,"is_disabled":true,"rental_uris":{"android":"levelo://app?vid=d31d856a-933d-49cf-948f-ce03657dfc74","ios":"levelo://app?vid=d31d856a-933d-49cf-948f-ce03657dfc74"},"vehicle_type_id":"4","last_reported":1758665317,"current_range_meters":22800,"station_id":"ce4bhbh2rcd13ifvqepg","pricing_plan_id":"cebpf4jnsgd1na2vs0mg"},{"bike_id":"3644af97-ad80-43f5-959f-45c5527c4076","system_id":"levelo_inurba_marseille","lat":43.27811,"lon":5.40713,"is_reserved":false,"is_disabled":false,"rental_uris":{"android":"levelo://app?vid=3644af97-ad80-43f5-959f-45c5527c4076","ios":"levelo://app?vid=3644af97-ad80-43f5-959f-45c5527c4076"},"vehicle_type_id":"4","last_reported":1758665317,"current_range_meters":22800,"station_id":"ce4bhnh2rcd13ifvqgtg","pricing_plan_id":"cebpf4jnsgd1na2vs0mg"},{"bike_id":"041cd397-24ab-4e04-af23-07b961e161f4","system_id":"levelo_inurba_marseille","lat":43.337444,"lon":5.374475,"is_reserved":false,"is_disabled":false,"rental_uris":{"android":"levelo://app?vid=041cd397-24ab-4e04-af23-07b961e161f4","ios":"levelo://app?vid=041cd397-24ab-4e04-af23-07b961e161f4"},"vehicle_type_id":"4","last_reported":1758665317,"current_range_meters":22800,"station_id":"","pricing_plan_id":"cebpf4jnsgd1na2vs0mg"},{"bike_id":"93ea507f-2430-4803-ba0e-45e688db5e68","system_id":"levelo_inurba_marseille","lat":43.29878,"lon":5.38898,"is_reserved":false,"is_disabled":false,"rental_uris":{"android":"levelo://app?vid=93ea507f-2430-4803-ba0e-45e688db5e68","ios":"levelo://app?vid=93ea507f-2430-4803-ba0e-45e688db5e68"},"vehicle_type_id":"4","last_reported":1758665317,"current_range_meters":23200,"station_id":"ce4bh392rcd13ifvqdl0","pricing_plan_id":"cebpf4jnsgd1na2vs0mg"},{"bike_id":"9074b84e-b245-4224-9cd4-2914ed8b2a30","system_id":"levelo_inurba_marseille","lat":43.31277,"lon":5.40167,"is_reserved":false,"is_disabled":false,"rental_uris":{"android":"levelo://app?vid=9074b84e-b245-4224-9cd4-2914ed8b2a30","ios":"levelo://app?vid=9074b84e-b245-4224-9cd4-2914ed8b2a30"},"vehicle_type_id":"4","last_reported":1758665317,"current_range_meters":23200,"station_id":"ce4bh092rcd13ifvqd30","pricing_plan_id":"cebpf4jnsgd1na2vs0mg"},{"bike_id":"d55f7cff-ce18-4107-992e-8cb8fb12b05f","system_id":"levelo_inurba_marseille","lat":43.23191,"lon":5.35544,"is_reserved":false,"is_disabled":false,"rental_uris":{"android":"levelo://app?vid=d55f7cff-ce18-4107-992e-8cb8fb12b05f","ios":"levelo://app?vid=d55f7cff-ce18-4107-992e-8cb8fb12b05f"},"vehicle_type_id":"4","last_reported":1758665317,"current_range_meters":23200,"station_id":"ce4bhu92rcd13ifvqi70","pricing_plan_id":"cebpf4jnsgd1na2vs0mg"},{"bike_id":"25e03722-a0b2-4148-899a-f9939a9e352e","system_id":"levelo_inurba_marseille","lat":43.30562,"lon":5.38443,"is_reserved":false,"is_disabled":true,"rental_uris":{"android":"levelo://app?vid=25e03722-a0b2-4148-899a-f9939a9e352e","ios":"levelo://app?vid=25e03722-a0b2-4148-899a-f9939a9e352e"},"vehicle_type_id":"4","last_reported":1758665317,"current_range_meters":23200,"station_id":"ce4bgg92rcd13ifvqb30","pricing_plan_id":"cebpf4jnsgd1na2vs0mg"},{"bike_id":"2e5779ed-911b-4b8e-97f7-6ca29f40ba49","system_id":"levelo_inurba_marseille","lat":43.29749,"lon":5.38868,"is_reserved":false,"is_disabled":false,"rental_uris":{"android":"levelo://app?vid=2e5779ed-911b-4b8e-97f7-6ca29f40ba49","ios":"levelo://app?vid=2e5779ed-911b-4b8e-97f7-6ca29f40ba49"},