{"last_updated":1715537388,"ttl":30,"version":"2.2","data":{"bikes":[{"bike_id":"bf9c276b-87fc-4e1c-bdbd-9ba1a09e3c0c","system_id":"levelo_inurba_marseille","lat":43.31342,"lon":5.36712,"is_reserved":false,"is_disabled":false,"rental_uris":{"android":"levelo://app?vid=bf9c276b-87fc-4e1c-bdbd-9ba1a09e3c0c","ios":"levelo://app?vid=bf9c276b-87fc-4e1c-bdbd-9ba1a09e3c0c"},"vehicle_type_id":"4","last_reported":1715537388,"current_range_meters":28400,"station_id":"ce4bgr92rcd13ifvqc6g","pricing_plan_id":"cebpf4jnsgd1na2vs0mg"},{"bike_id":"3a70ba63-25f4-435b-ac9b-fc2c3c10bb91","system_id":"levelo_inurba_marseille","lat":43.31229,"lon":5.36847,"is_reserved":false,"is_disabled":false,"rental_uris":{"android":"levelo://app?vid=3a70ba63-25f4-435b-ac9b-fc2c3c10bb91","ios":"levelo://app?vid=3a70ba63-25f4-435b-ac9b-fc2c3c10bb91"},"vehicle_type_id":"4","last_reported":1715537388,"current_range_meters":23200,"station_id":"ce4bgl92rcd13ifvqbq0","pricing_plan_id":"cebpf4jnsgd1na2vs0mg"},{"bike_id":"4f745988-d908-46ab-bdde-107b07db29a2","system_id":"levelo_inurba_marseille","lat":43.309076,"lon":5.368465,"is_reserved":false,"is_disabled":false,"rental_uris":{"android":"levelo://app?vid=4f745988-d908-46ab-bdde-107b07db29a2","ios":"levelo://app?vid=4f745988-d908-46ab-bdde-107b07db29a2"},"vehicle_type_id":"4","last_reported":1715537388,"current_range_meters":28800,"station_id":"ce4bgn92rcd13ifvqbvg","pricing_plan_id":"cebpf4jnsgd1na2vs0mg"},{"bike_id":"672a95d5-518d-4220-a610-0c18670d15c7","system_id":"levelo_inurba_marseille","lat":43.324771,"lon":5.36557,"is_reserved":false,"is_disabled":false,"rental_uris":{"android":"levelo://app?vid=672a95d5-518d-4220-a610-0c18670d15c7","ios":"levelo://app?vid=672a95d5-518d-4220-a610-0c18670d15c7"},"vehicle_type_id":"4","last_reported":1715537388,"current_range_meters":5200,"station_id":"ce4bhs12rcd13ifvqhvg","pricing_plan_id":"cebpf4jnsgd1na2vs0mg"},{"bike_id":"91460a1d-f9dd-4b6b-b19e-aae04b817779","system_id":"levelo_inurba_marseille","lat":43.314811,"lon":5.373103,"is_reserved":false,"is_disabled":false,"rental_uris":{"android":"levelo://app?vid=91460a1d-f9dd-4b6b-b19e-aae04b817779","ios":"levelo://app?vid=91460a1d-f9dd-4b6b-b19e-aae04b817779"},"vehicle_type_id":"4","last_reported":1715537388,"current_range_meters":0,"station_id":"ce4bgt12rcd13ifvqcd0","pricing_plan_id":"cebpf4jnsgd1na2vs0mg"},{"bike_id":"40b59049-1af7-4a76-ab9f-2b090e3d13df","system_id":"levelo_inurba_marseille","lat":43.314811,"lon":5.373104,"is_reserved":false,"is_disabled":false,"rental_uris":{"android":"levelo://app?vid=40b59049-1af7-4a76-ab9f-2b090e3d13df","ios":"levelo://app?vid=40b59049-1af7-4a76-ab9f-2b090e3d13df"},"vehicle_type_id":"4","last_reported":1715537388,"current_range_meters":400,"station_id":"ce4bgt12rcd13ifvqcd0","pricing_plan_id":"cebpf4jnsgd1na2vs0mg"},{"bike_id":"5dd344bf-cbd6-43dc-bbac-d1304f5108a7","system_id":"levelo_inurba_marseille","lat":43.314811,"lon":5.373103,"is_reserved":false,"is_disabled":false,"rental_uris":{"android":"levelo://app?vid=5dd344bf-cbd6-43dc-bbac-d1304f5108a7","ios":"levelo://app?vid=5dd344bf-cbd6-43dc-bbac-d1304f5108a7"},"vehicle_type_id":"4","last_reported":1715537388,"current_range_meters":5200,"station_id":"ce4bgt12rcd13ifvqcd0","pricing_plan_id":"cebpf4jnsgd1na2vs0mg"},{"bike_id":"afc8fd8e-05e3-4170-82c6-2868a090b7ed","system_id":"levelo_inurba_marseille","lat":43.314811,"lon":5.373104,"is_reserved":false,"is_disabled":false,"rental_uris":{"android":"levelo://app?vid=afc8fd8e-05e3-4170-82c6-2868a090b7ed","ios":"levelo://app?vid=afc8fd8e-05e3-4170-82c6-2868a090b7ed"},"vehicle_type_id":"4","last_reported":1715537388,"current_range_meters":4000,"station_id":"ce4bgt12rcd13ifvqcd0","pricing_plan_id":"cebpf4jnsgd1na2vs0mg"},{"bike_id":"65f6f31f-dcb6-499e-8b8a-302fe22cbc39","system_id":"levelo_inurba_marseille","lat":43.309039,"lon":5.371797,"is_reserved":false,"is_disabled":false,"rental_uris":{"android":"levelo://app?vid=65f6f31f-dcb6-499e-8b8a-302fe22cbc39","ios":"levelo://app?vid=65f6f31f-dcb6-499e-8b8a-302fe22cbc39"},"vehicle_type_id":"4","last_reported":1715537388,"current_range_meters":11200,"station_id":"ce4bguh2rcd13ifvqckg","pricing_plan_id":"cebpf4jnsgd1na2vs0mg"},{"bike_id":"fde6d502-1dad-489d-bb97-3b5d0f0665f8","system_id":"levelo_inurba_marseille","lat":43.309034,"lon":5.371783,"is_reserved":false,"is_disabled":false,"rental_uris":{"android":"levelo://app?vid=fde6d502-1dad-489d-bb97-3b5d0f0665f8","ios":"levelo://app?vid=fde6d502-1dad-489d-bb97-3b5d0f0665f8"},"vehicle_type_id":"4","last_reported":1715537388,"current_range_meters":7200,"station_id":"ce4bguh2rcd13ifvqckg","pricing_plan_id":"cebpf4jnsgd1na2vs0mg"},{"bike_id":"9830990c-16a0-4f3d-93ac-77c4ef953c02","system_id":"levelo_inurba_marseille","lat":43.309039,"lon":5.371797,"is_reserved":false,"is_disabled":false,"rental_uris":{"android":"levelo://app?vid=9830990c-16a0-4f3d-93ac-77c4ef953c02","ios":"levelo://app?vid=9830990c-16a0-4f3d-93ac-77c4ef953c02"},"vehicle_type_id":"4","last_reported":1715537388,"current_range_meters":0,"station_id":"ce4bguh2rcd13ifvqckg","pricing_plan_id":"cebpf4jnsgd1na2vs0mg"},{"bike_id":"9c7880d8-46aa-4c03-b79d-ad8338bb242d","system_id":"levelo_inurba_marseille","lat":43.309034,"lon":5.371783,"is_reserved":false,"is_disabled":false,"rental_uris":{"android":"levelo://app?vid=9c7880d8-46aa-4c03-b79d-ad8338bb242d","ios":"levelo://app?vid=9c7880d8-46aa-4c03-b79d-ad8338bb242d"},"vehicle_type_id":"4","last_reported":1715537388,"current_range_meters":0,"station_id":"ce4bguh2rcd13ifvqckg","pricing_plan_id":"cebpf4jnsgd1na2vs0mg"},{"bike_id":"029db4bb-e798-428e-bedb-a9ff4a1fcf4d","system_id":"levelo_inurba_marseille","lat":43.305714,"lon":5.365633,"is_reserved":false,"is_disabled":false,"rental_uris":{"android":"levelo://app?vid=029db4bb-e798-428e-bedb-a9ff4a1fcf4d","ios":"levelo://app?vid=029db4bb-e798-428e-bedb-a9ff4a1fcf4d"},"vehicle_type_id":"4","last_reported":1715537388,"current_range_meters":0,"station_id":"ce4bgs12rcd13ifvqcag","pricing_plan_id":"cebpf4jnsgd1na2vs0mg"},{"bike_id":"ad76f8e6-a8f9-4792-9e68-eff875b1f58f","system_id":"levelo_inurba_marseille","lat":43.305368,"lon":5.367343,"is_reserved":false,"is_disabled":false,"rental_uris":{"android":"levelo://app?vid=ad76f8e6-a8f9-4792-9e68-eff875b1f58f","ios":"levelo://app?vid=ad76f8e6-a8f9-4792-9e68-eff875b1f58f"},"vehicle_type_id":"4","last_reported":1715537388,"current_range_meters":0,"station_id":"ce4bgrp2rcd13ifvqc9g","pricing_plan_id":"cebpf4jnsgd1na2vs0mg"},{"bike_id":"e774366e-ed6f-41b0-be80-0dbba613a6c1","system_id":"levelo_inurba_marseille","lat":43.305714,"lon":5.365633,"is_reserved":false,"is_disabled":false,"rental_uris":{"android":"levelo://app?vid=e774366e-ed6f-41b0-be80-0dbba613a6c1","ios":"levelo://app?vid=e774366e-ed6f-41b0-be80-0dbba613a6c1"},"vehicle_type_id":"4","last_reported":1715537388,"current_range_meters":0,"station_id":"ce4bgs12rcd13ifvqcag","pricing_plan_id":"cebpf4jnsgd1na2vs0mg"},{"bike_id":"7f04f73f-373e-4809-8821-6fce7302850c","system_id":"levelo_inurba_marseille","lat":43.311131,"lon":5.377651,"is_reserved":false,"is_disabled":false,"rental_uris":{"android":"levelo://app?vid=7f04f73f-373e-4809-8821-6fce7302850c","ios":"levelo://app?vid=7f04f73f-373e-4809-8821-6fce7302850c"},"vehicle_type_id":"4","last_reported":1715537388,"current_range_meters":0,"station_id":"ce4bgt92rcd13ifvqcg0","pricing_plan_id":"cebpf4jnsgd1na2vs0mg"},{"bike_id":"fcad66e2-283d-41fe-9885-fc570f6f2608","system_id":"levelo_inurba_marseille","lat":43.311125,"lon":5.377624,"is_reserved":false,"is_disabled":false,"rental_uris":{"android":"levelo://app?vid=fcad66e2-283d-41fe-9885-fc570f6f2608","ios":"levelo://app?vid=fcad66e2-283d-41fe-9885-fc570f6f2608"},"vehicle_type_id":"4","last_reported":1715537388,"current_range_meters":30800,"station_id":"ce4bgt92rcd13ifvqcg0","pricing_plan_id":"cebpf4jnsgd1na2vs0mg"},{"bike_id":"f0285697-ee5c-4e06-9d59-af9dadefd921","system_id":"levelo_inurba_marseille","lat":43.311224,"lon":5.377671,"is_reserved":false,"is_disabled":false,"rental_uris":{"android":"levelo://app?vid=f0285697-ee5c-4e06-9d59-af9dadefd921","ios":"levelo://app?vid=f0285697-ee5c-4e06-9d59-af9dadefd921"},"vehicle_type_id":"4","last_reported":1715537388,"current_range_meters":0,"station_id":"ce4bgt92rcd13ifvqcg0","pricing_plan_id":"cebpf4jnsgd1na2vs0mg"},{"bike_id":"a8420d12-5ea1-4553-ba77-74153419b9a1","system_id":"levelo_inurba_marseille","lat":43.307945,"lon":5.376487,"is_reserved":false,"is_disabled":false,"rental_uris":{"android":"levelo://app?vid=a8420d12-5ea1-4553-ba77-74153419b9a1","ios":"levelo://app?vid=a8420d12-5ea1-4553-ba77-74153419b9a1"},"vehicle_type_id":"4","last_reported":1715537388,"current_range_meters":30800,"station_id":"ce4bgv92rcd13ifvqcq0","pricing_plan_id":"cebpf4jnsgd1na2vs0mg"},{"bike_id":"57e96d4e-aa35-4a7e-8ac8-a7cd46ff08fa","system_id":"levelo_inurba_marseille","lat":43.307945,"lon":5.376487,"is_reserved":false,"is_disabled":false,"rental_uris":{"android":"levelo://app?vid=57e96d4e-aa35-4a7e-8ac8-a7cd46ff08fa","ios":"levelo://app?vid=57e96d4e-aa35-4a7e-8ac8-a7cd46ff08fa"},"vehicle_type_id":"4","last_reported":1715537388,"current_range_meters":0,"station_id":"ce4bgv92rcd13ifvqcq0","pricing_plan_id":"cebpf4jnsgd1na2vs0mg"},{"bike_id":"e81cc996-47e5-4352-81c1-138005a96b55","system_id":"levelo_inurba_marseille","lat":43.278399,"lon":5.392139,"is_reserved":false,"is_disabled":false,"rental_uris":{"android":"levelo://app?vid=e81cc996-47e5-4352-81c1-138005a96b55","ios":"levelo://app?vid=e81cc996-47e5-4352-81c1-138005a96b55"},"vehicle_type_id":"4","last_reported":1715537388,"current_range_meters":7600,"station_id":"ce4bhjp2rcd13ifvqga0","pricing_plan_id":"cebpf4jnsgd1na2vs0mg"},{"bike_id":"224f6c1e-9e7d-4adb-b9ac-6ab213a3d4f4","system_id":"levelo_inurba_marseille","lat":43.317075,"lon":5.377367,"is_reserved":false,"is_disabled":false,"rental_uris":{"android":"levelo://app?vid=224f6c1e-9e7d-4adb-b9ac-6ab213a3d4f4","ios":"levelo://app?vid=224f6c1e-9e7d-4adb-b9ac-6ab213a3d4f4"},"vehicle_type_id":"4","last_reported":1715537388,"current_range_meters":10800,"station_id":"ce4bgth2rcd13ifvqch0","pricing_plan_id":"cebpf4jnsgd1na2vs0mg"},{"bike_id":"dcf7b498-3aef-4ae0-9cb5-877fea9dd63e","system_id":"levelo_inurba_marseille","lat":43.317075,"lon":5.377367,"is_reserved":false,"is_disabled":false,"rental_uris":{"android":"levelo://app?vid=dcf7b498-3aef-4ae0-9cb5-877fea9dd63e","ios":"levelo://app?vid=dcf7b498-3aef-4ae0-9cb5-877fea9dd63e"},"vehicle_type_id":"4","last_reported":1715537388,"current_range_meters":2400,"station_id":"ce4bgth2rcd13ifvqch0","pricing_plan_id":"cebpf4jnsgd1na2vs0mg"},{"bike_id":"a37cdda5-216b-490e-9d2b-eead123fc9e0","system_id":"levelo_inurba_marseille","lat":43.315289,"lon":5.380349,"is_reserved":false,"is_disabled":false,"rental_uris":{"android":"levelo://app?vid=a37cdda5-216b-490e-9d2b-eead123fc9e0","ios":"levelo://app?vid=a37cdda5-216b-490e-9d2b-eead123fc9e0"},"vehicle_type_id":"4","last_reported":1715537388,"current_range_meters":8400,"station_id":"ce4bhsp2rcd13ifvqi50","pricing_plan_id":"cebpf4jnsgd1na2vs0mg"},{"bike_id":"18313c9c-b776-4885-b3c4-d3aac89341ba","system_id":"levelo_inurba_marseille","lat":43.301939,"lon":5.366286,"is_reserved":false,"is_disabled":false,"rental_uris":{"android":"levelo://app?vid=18313c9c-b776-4885-b3c4-d3aac89341ba","ios":"levelo://app?vid=18313c9c-b776-4885-b3c4-d3aac89341ba"},"vehicle_type_id":"4","last_reported":1715537388,"current_range_meters":0,"station_id":"ce4bgrh2rcd13ifvqc8g","pricing_plan_id":"cebpf4jnsgd1na2vs0mg"},{"bike_id":"b8bbad1a-8e77-485c-902f-f65a3e4dd50b","system_id":"levelo_inurba_marseille","lat":43.308012,"lon":5.381511,"is_reserved":false,"is_disabled":false,"rental_uris":{"android":"levelo://app?vid=b8bbad1a-8e77-485c-902f-f65a3e4dd50b","ios":"levelo://app?vid=b8bbad1a-8e77-485c-902f-f65a3e4dd50b"},"vehicle_type_id":"4","last_reported":1715537388,"current_range_meters":0,"station_id":"ce4bgt12rcd13ifvqce0","pricing_plan_id":"cebpf4jnsgd1na2vs0mg"},{"bike_id":"6f19b481-e1e6-409d-8411-29d326088211","system_id":"levelo_inurba_marseille","lat":43.308012,"lon":5.381511,"is_reserved":false,"is_disabled":false,"rental_uris":{"android":"levelo://app?vid=6f19b481-e1e6-409d-8411-29d326088211","ios":"levelo://app?vid=6f19b481-e1e6-409d-8411-29d326088211"},"vehicle_type_id":"4","last_reported":1715537388,"current_range_meters":1200,"station_id":"ce4bgt12rcd13ifvqce0","pricing_plan_id":"cebpf4jnsgd1na2vs0mg"},{"bike_id":"950062fa-3a7b-463b-9e6c-f55aa078604c","system_id":"levelo_inurba_marseille","lat":43.30305,"lon":5.37621,"is_reserved":false,"is_disabled":false,"rental_uris":{"android":"levelo://app?vid=950062fa-3a7b-463b-9e6c-f55aa078604c","ios":"levelo://app?vid=950062fa-3a7b-463b-9e6c-f55aa078604c"},"vehicle_type_id":"4","last_reported":1715537388,"current_range_meters":17200,"station_id":"","pricing_plan_id":"cebpf4jnsgd1na2vs0mg"},{"bike_id":"8ada586f-ab87-4ba6-8698-110407512b1e","system_id":"levelo_inurba_marseille","lat":43.310804,"lon":5.38359,"is_reserved":false,"is_disabled":false,"rental_uris":{"android":"levelo://app?vid=8ada586f-ab87-4ba6-8698-110407512b1e","ios":"levelo://app?vid=8ada586f-ab87-4ba6-8698-110407512b1e"},"vehicle_type_id":"4","last_reported":1715537388,"current_range_meters":8000,"station_id":"ce4bgv92rcd13ifvqcr0","pricing_plan_id":"cebpf4jnsgd1na2vs0mg"},{"bike_id":"4eb37566-cfb5-4c86-a3ea-ad0e279d9efa","system_id":"levelo_inurba_marseille","lat":43.324771,"lon":5.36557,"is_reserved":false,"is_disabled":false,"rental_uris":{"android":"levelo://app?vid=4eb37566-cfb5-4c86-a3ea-ad0e279d9efa","ios":"levelo://app?vid=4eb37566-cfb5-4c86-a3ea-ad0e279d9efa"},"vehicle_type_id":"4","last_reported":1715537388,"current_range_meters":22400,"station_id":"ce4bhs12rcd13ifvqhvg","pricing_plan_id":"cebpf4jnsgd1na2vs0mg"},{"bike_id":"e462428f-8777-46bf-be71-6ec0eeb2736e","system_id":"levelo_inurba_marseille","lat":43.324771,"lon":5.36557,"is_reserved":false,"is_disabled":false,"rental_uris":{"android":"levelo://app?vid=e462428f-8777-46bf-be71-6ec0eeb2736e","ios":"levelo://app?vid=e462428f-8777-46bf-be71-6ec0eeb2736e"},"vehicle_type_id":"4","last_reported":1715537388,"current_range_meters":11200,"station_id":"ce4bhs12rcd13ifvqhvg","pricing_plan_id":"cebpf4jnsgd1na2vs0mg"},{"bike_id":"de363a9b-b8dd-4f25-97c4-05ca23eea0b0","system_id":"levelo_inurba_marseille","lat":43.324771,"lon":5.36557,"is_reserved":false,"is_disabled":false,"rental_uris":{"android":"levelo://app?vid=de363a9b-b8dd-4f25-97c4-05ca23eea0b0","ios":"levelo://app?vid=de363a9b-b8dd-4f25-97c4-05ca23eea0b0"},"vehicle_type_id":"4","last_reported":1715537388,"current_range_meters":26400,"station_id":"ce4bhs12rcd13ifvqhvg","pricing_plan_id":"cebpf4jnsgd1na2vs0mg"},{"bike_id":"7279300e-a5c4-4f3b-858a-e2bd296be7c9","system_id":"levelo_inurba_marseille","lat":43.324771,"lon":5.36557,"is_reserved":false,"is_disabled":false,"rental_uris":{"android":"levelo://app?vid=7279300e-a5c4-4f3b-858a-e2bd296be7c9","ios":"levelo://app?vid=7279300e-a5c4-4f3b-858a-e2bd296be7c9"},"vehicle_type_id":"4","last_reported":1715537388,"current_range_meters":14000,"station_id":"ce4bhs12rcd13ifvqhvg","pricing_plan_id":"cebpf4jnsgd1na2vs0mg"},{"bike_id":"26bd8217-5511-4bf1-a4d4-7323f3ee6d22","system_id":"levelo_inurba_marseille","lat":43.324771,"lon":5.36557,"is_reserved":false,"is_disabled":false,"rental_uris":{"android":"levelo://app?vid=26bd8217-5511-4bf1-a4d4-7323f3ee6d22","ios":"levelo://app?vid=26bd8217-5511-4bf1-a4d4-7323f3ee6d22"},"vehicle_type_id":"4","last_reported":1715537388,"current_range_meters":15200,"station_id":"ce4bhs12rcd13ifvqhvg","pricing_plan_id":"cebpf4jnsgd1na2vs0mg"},{"bike_id":"4a9a9665-1cd2-49ce-8806-5d25ff857789","system_id":"levelo_inurba_marseille","lat":43.324771,"lon":5.36557,"is_reserved":false,"is_disabled":false,"rental_uris":{"android":"levelo://app?vid=4a9a9665-1cd2-49ce-8806-5d25ff857789","ios":"levelo://app?vid=4a9a9665-1cd2-49ce-8806-5d25ff857789"},"vehicle_type_id":"4","last_reported":1715537388,"current_range_meters":16800,"station_id":"ce4bhs12rcd13ifvqhvg","pricing_plan_id":"cebpf4jnsgd1na2vs0mg"},{"bike_id":"237b19c4-af93-4f0b-8df7-a29b40704832","system_id":"levelo_inurba_marseille","lat":43.324771,"lon":5.36557,"is_reserved":false,"is_disabled":false,"rental_uris":{"android":"levelo://app?vid=237b19c4-af93-4f0b-8df7-a29b40704832","ios":"levelo://app?vid=237b19c4-af93-4f0b-8df7-a29b40704832"},"vehicle_type_id":"4","last_reported":1715537388,"current_range_meters":27600,"station_id":"ce4bhs12rcd13ifvqhvg","pricing_plan_id":"cebpf4jnsgd1na2vs0mg"},{"bike_id":"ab294a79-14d3-426e-b97b-f105f6a1e37c","system_id":"levelo_inurba_marseille","lat":43.324771,"lon":5.36557,"is_reserved":false,"is_disabled":false,"rental_uris":{"android":"levelo://app?vid=ab294a79-14d3-426e-b97b-f105f6a1e37c","ios":"levelo://app?vid=ab294a79-14d3-426e-b97b-f105f6a1e37c"},"vehicle_type_id":"4","last_reported":1715537388,"current_range_meters":28000,"station_id":"ce4bhs12rcd13ifvqhvg","pricing_plan_id":"cebpf4jnsgd1na2vs0mg"},{"bike_id":"1d3de0b0-7934-4fcc-b39a-497c4cf68f7b","system_id":"levelo_inurba_marseille","lat":43.324771,"lon":5.36557,"is_reserved":false,"is_disabled":false,"rental_uris":{"android":"levelo://app?vid=1d3de0b0-7934-4fcc-b39a-497c4cf68f7b","ios":"levelo://app?vid=1d3de0b0-7934-4fcc-b39a-497c4cf68f7b"},"vehicle_type_id":"4","last_reported":1715537388,"current_range_meters":21200,"station_id":"ce4bhs12rcd13ifvqhvg","pricing_plan_id":"cebpf4jnsgd1na2vs0mg"},{"bike_id":"43671154-6e2a-41f7-a74e-cc016c296fcd","system_id":"levelo_inurba_marseille","lat":43.324771,"lon":5.36557,"is_reserved":false,"is_disabled":false,"rental_uris":{"android":"levelo://app?vid=43671154-6e2a-41f7-a74e-cc016c296fcd","ios":"levelo://app?vid=43671154-6e2a-41f7-a74e-cc016c296fcd"},"vehicle_type_id":"4","last_reported":1715537388,"current_range_meters":25200,"station_id":"ce4bhs12rcd13ifvqhvg","pricing_plan_id":"cebpf4jnsgd1na2vs0mg"},{"bike_id":"b0ae57a5-47d8-43f1-a382-5843f5a2c0bd","system_id":"levelo_inurba_marseille","lat":43.324771,"lon":5.36557,"is_reserved":false,"is_disabled":false,"rental_uris":{"android":"levelo://app?vid=b0ae57a5-47d8-43f1-a382-5843f5a2c0bd","ios":"levelo://app?vid=b0ae57a5-47d8-43f1-a382-5843f5a2c0bd"},"vehicle_type_id":"4","last_reported":1715537388,"current_range_meters":800,"station_id":"ce4bhs12rcd13ifvqhvg","pricing_plan_id":"cebpf4jnsgd1na2vs0mg"},{"bike_id":"27864151-07c6-46e0-bb7f-76413df57206","system_id":"levelo_inurba_marseille","lat":43.324926,"lon":5.36559,"is_reserved":false,"is_disabled":false,"rental_uris":{"android":"levelo://app?vid=27864151-07c6-46e0-bb7f-76413df57206","ios":"levelo://app?vid=27864151-07c6-46e0-bb7f-76413df57206"},"vehicle_type_id":"4","last_reported":1715537388,"current_range_meters":15600,"station_id":"ce4bhs12rcd13ifvqhvg","pricing_plan_id":"cebpf4jnsgd1na2vs0mg"},{"bike_id":"33531eb2-a914-4029-9236-a417e697981b","system_id":"levelo_inurba_marseille","lat":43.302784,"lon":5.377158,"is_reserved":false,"is_disabled":false,"rental_uris":{"android":"levelo://app?vid=33531eb2-a914-4029-9236-a417e697981b","ios":"levelo://app?vid=33531eb2-a914-4029-9236-a417e697981b"},"vehicle_type_id":"4","last_reported":1715537388,"current_range_meters":0,"station_id":"ce4bguh2rcd13ifvqcj0","pricing_plan_id":"cebpf4jnsgd1na2vs0mg"},{"bike_id":"74c1be8a-5439-4116-8ee0-b58b150fd1e3","system_id":"levelo_inurba_marseille","lat":43.319935,"lon":5.381699,"is_reserved":false,"is_disabled":false,"rental_uris":{"android":"levelo://app?vid=74c1be8a-5439-4116-8ee0-b58b150fd1e3","ios":"levelo://app?vid=74c1be8a-5439-4116-8ee0-b58b150fd1e3"},"vehicle_type_id":"4","last_reported":1715537388,"current_range_meters":3600,"station_id":"ce4bhr12rcd13ifvqhpg","pricing_plan_id":"cebpf4jnsgd1na2vs0mg"},{"bike_id":"ea4018b7-6646-4468-8627-0a26ea04f7ca","system_id":"levelo_inurba_marseille","lat":43.319935,"lon":5.381699,"is_reserved":false,"is_disabled":false,"rental_uris":{"android":"levelo://app?vid=ea4018b7-6646-4468-8627-0a26ea04f7ca","ios":"levelo://app?vid=ea4018b7-6646-4468-8627-0a26ea04f7ca"},"vehicle_type_id":"4","last_reported":1715537388,"current_range_meters":1200,"station_id":"ce4bhr12rcd13ifvqhpg","pricing_plan_id":"cebpf4jnsgd1na2vs0mg"},{"bike_id":"39d474d5-4e9b-4333-b9be-7c791e591f7f","system_id":"levelo_inurba_marseille","lat":43.319935,"lon":5.381699,"is_reserved":false,"is_disabled":false,"rental_uris":{"android":"levelo://app?vid=39d474d5-4e9b-4333-b9be-7c791e591f7f","ios":"levelo://app?vid=39d474d5-4e9b-4333-b9be-7c791e591f7f"},"vehicle_type_id":"4","last_reported":1715537388,"current_range_meters":12400,"station_id":"ce4bhr12rcd13ifvqhpg","pricing_plan_id":"cebpf4jnsgd1na2vs0mg"},{"bike_id":"c5b61f3f-8ad6-416b-a2ca-c0144cdd8adf","system_id":"levelo_inurba_marseille","lat":43.313571,"lon":5.384829,"is_reserved":false,"is_disabled":false,"rental_uris":{"android":"levelo://app?vid=c5b61f3f-8ad6-416b-a2ca-c0144cdd8adf","ios":"levelo://app?vid=c5b61f3f-8ad6-416b-a2ca-c0144cdd8adf"},"vehicle_type_id":"4","last_reported":1715537388,"current_range_meters":26000,"station_id":"ce4bgt92rcd13ifvqcf0","pricing_plan_id":"cebpf4jnsgd1na2vs0mg"},{"bike_id":"7667ef9c-713d-42b3-ac12-241ec577151d","system_id":"levelo_inurba_marseille","lat":43.313692,"lon":5.385004,"is_reserved":false,"is_disabled":false,"rental_uris":{"android":"levelo://app?vid=7667ef9c-713d-42b3-ac12-241ec577151d","ios":"levelo://app?vid=7667ef9c-713d-42b3-ac12-241ec577151d"},"vehicle_type_id":"4","last_reported":1715537388,"current_range_meters":0,"station_id":"ce4bgkh2rcd13ifvqbk0","pricing_plan_id":"cebpf4jnsgd1na2vs0mg"},{"bike_id":"a7491aa1-ba86-4c34-850e-77a48fcfbaf0","system_id":"levelo_inurba_marseille","lat":43.29989,"lon":5.37197,"is_reserved":false,"is_disabled":false,"rental_uris":{"android":"levelo://app?vid=a7491aa1-ba86-4c34-850e-77a48fcfbaf0","ios":"levelo://app?vid=a7491aa1-ba86-4c34-850e-77a48fcfbaf0"},"vehicle_type_id":"4","last_reported":1715537388,"current_range_meters":0,"station_id":"ce4bgr92rcd13ifvqc7g","pricing_plan_id":"cebpf4jnsgd1na2vs0mg"},{"bike_id":"4909b037-7a11-4960-8fd6-e45e23aec917","system_id":"levelo_inurba_marseille","lat":43.299222,"lon":5.365554,"is_reserved":false,"is_disabled":false,"rental_uris":{"android":"levelo://app?vid=4909b037-7a11-4960-8fd6-e45e23aec917","ios":"levelo://app?vid=4909b037-7a11-4960-8fd6-e45e23aec917"},"vehicle_type_id":"4","last_reported":1715537388,"current_range_meters":0,"station_id":"ce4bgm92rcd13ifvqbr0","pricing_plan_id":"cebpf4jnsgd1na2vs0mg"},{"bike_id":"83501414-e104-4ef1-a95e-c41034769b5f","system_id":"levelo_inurba_marseille","lat":43.319935,"lon":5.381699,"is_reserved":false,"is_disabled":false,"rental_uris":{"android":"levelo://app?vid=83501414-e104-4ef1-a95e-c41034769b5f","ios":"levelo://app?vid=83501414-e104-4ef1-a95e-c41034769b5f"},"vehicle_type_id":"4","last_reported":1715537388,"current_range_meters":6800,"station_id":"ce4bhr12rcd13ifvqhpg","pricing_plan_id":"cebpf4jnsgd1na2vs0mg"},{"bike_id":"db6912dc-c831-43d9-813e-25a8507a87e2","system_id":"levelo_inurba_marseille","lat":43.299222,"lon":5.365554,"is_reserved":false,"is_disabled":false,"rental_uris":{"android":"levelo://app?vid=db6912dc-c831-43d9-813e-25a8507a87e2","ios":"levelo://app?vid=db6912dc-c831-43d9-813e-25a8507a87e2"},"vehicle_type_id":"4","last_reported":1715537388,"current_range_meters":1200,"station_id":"ce4bgm92rcd13ifvqbr0","pricing_plan_id":"cebpf4jnsgd1na2vs0mg"},{"bike_id":"dda54a0b-e23d-4259-ab34-bc15aa7b5e1c","system_id":"levelo_inurba_marseille","lat":43.29938,"lon":5.36535,"is_reserved":false,"is_disabled":false,"rental_uris":{"android":"levelo://app?vid=dda54a0b-e23d-4259-ab34-bc15aa7b5e1c","ios":"levelo://app?vid=dda54a0b-e23d-4259-ab34-bc15aa7b5e1c"},"vehicle_type_id":"4","last_reported":1715537388,"current_range_meters":0,"station_id":"ce4bgm92rcd13ifvqbr0","pricing_plan_id":"cebpf4jnsgd1na2vs0mg"},{"bike_id":"7692b3a0-7222-4437-be34-7e1ea4b11f07","system_id":"levelo_inurba_marseille","lat":43.299222,"lon":5.365554,"is_reserved":false,"is_disabled":false,"rental_uris":{"android":"levelo://app?vid=7692b3a0-7222-4437-be34-7e1ea4b11f07","ios":"levelo://app?vid=7692b3a0-7222-4437-be34-7e1ea4b11f07"},"vehicle_type_id":"4","last_reported":1715537388,"current_range_meters":5600,"station_id":"ce4bgm92rcd13ifvqbr0","pricing_plan_id":"cebpf4jnsgd1na2vs0mg"},{"bike_id":"8e8717ea-9108-4ebb-a4ef-1ea5f61c0879","system_id":"levelo_inurba_marseille","lat":43.299222,"lon":5.365554,"is_reserved":false,"is_disabled":false,"rental_uris":{"android":"levelo://app?vid=8e8717ea-9108-4ebb-a4ef-1ea5f61c0879","ios":"levelo://app?vid=8e8717ea-9108-4ebb-a4ef-1ea5f61c0879"},"vehicle_type_id":"4","last_reported":1715537388,"current_range_meters":7600,"station_id":"ce4bgm92rcd13ifvqbr0","pricing_plan_id":"cebpf4jnsgd1na2vs0mg"},{"bike_id":"5b4fbaae-a00e-4733-8b74-470d2b58a2d7","system_id":"levelo_inurba_marseille","lat":43.299724,"lon":5.371829,"is_reserved":false,"is_disabled":false,"rental_uris":{"android":"levelo://app?vid=5b4fbaae-a00e-4733-8b74-470d2b58a2d7","ios":"levelo://app?vid=5b4fbaae-a00e-4733-8b74-470d2b58a2d7"},"vehicle_type_id":"4","last_reported":1715537388,"current_range_meters":400,"station_id":"ce4bgr92rcd13ifvqc7g","pricing_plan_id":"cebpf4jnsgd1na2vs0mg"},{"bike_id":"83a2c810-8ba8-42c4-b4df-0a00fc270c76","system_id":"levelo_inurba_marseille","lat":43.299696,"lon":5.371819,"is_reserved":false,"is_disabled":false,"rental_uris":{"android":"levelo://app?vid=83a2c810-8ba8-42c4-b4df-0a00fc270c76","ios":"levelo://app?vid=83a2c810-8ba8-42c4-b4df-0a00fc270c76"},"vehicle_type_id":"4","last_reported":1715537388,"current_range_meters":0,"station_id":"ce4bgr92rcd13ifvqc7g","pricing_plan_id":"cebpf4jnsgd1na2vs0mg"},{"bike_id":"f1c2d9b7-ab0b-4343-b000-7152dc70dffa","system_id":"levelo_inurba_marseille","lat":43.299222,"lon":5.365554,"is_reserved":false,"is_disabled":false,"rental_uris":{"android":"levelo://app?vid=f1c2d9b7-ab0b-4343-b000-7152dc70dffa","ios":"levelo://app?vid=f1c2d9b7-ab0b-4343-b000-7152dc70dffa"},"vehicle_type_id":"4","last_reported":1715537388,"current_range_meters":16000,"station_id":"ce4bgm92rcd13ifvqbr0","pricing_plan_id":"cebpf4jnsgd1na2vs0mg"},{"bike_id":"860469e0-666f-4082-bf03-0a6e819dc473","system_id":"levelo_inurba_marseille","lat":43.298433,"lon":5.362774,"is_reserved":false,"is_disabled":false,"rental_uris":{"android":"levelo://app?vid=860469e0-666f-4082-bf03-0a6e819dc473","ios":"levelo://app?vid=860469e0-666f-4082-bf03-0a6e819dc473"},"vehicle_type_id":"4","last_reported":1715537388,"current_range_meters":0,"station_id":"ce4bgpp2rcd13ifvqc3g","pricing_plan_id":"cebpf4jnsgd1na2vs0mg"},{"bike_id":"0f05ee85-a557-449b-bb2e-a149ba99b6bd","system_id":"levelo_inurba_marseille","lat":43.305364,"lon":5.384119,"is_reserved":false,"is_disabled":false,"rental_uris":{"android":"levelo://app?vid=0f05ee85-a557-449b-bb2e-a149ba99b6bd","ios":"levelo://app?vid=0f05ee85-a557-449b-bb2e-a149ba99b6bd"},"vehicle_type_id":"4","last_reported":1715537388,"current_range_meters":11600,"station_id":"ce4bgg92rcd13ifvqb30","pricing_plan_id":"cebpf4jnsgd1na2vs0mg"},{"bike_id":"a3ca672e-9ee5-4d9c-b60b-70498bebd64c","system_id":"levelo_inurba_marseille","lat":43.31172,"lon":5.3871,"is_reserved":false,"is_disabled":false,"rental_uris":{"android":"levelo://app?vid=a3ca672e-9ee5-4d9c-b60b-70498bebd64c","ios":"levelo://app?vid=a3ca672e-9ee5-4d9c-b60b-70498bebd64c"},"vehicle_type_id":"4","last_reported":1715537388,"current_range_meters":0,"station_id":"ce4bgv12rcd13ifvqcp0","pricing_plan_id":"cebpf4jnsgd1na2vs0mg"},{"bike_id":"52e2a955-64c6-47bc-8a1b-d1bf5c38d63f","system_id":"levelo_inurba_marseille","lat":43.31178,"lon":5.38713,"is_reserved":false,"is_disabled":false,"rental_uris":{"android":"levelo://app?vid=52e2a955-64c6-47bc-8a1b-d1bf5c38d63f","ios":"levelo://app?vid=52e2a955-64c6-47bc-8a1b-d1bf5c38d63f"},"vehicle_type_id":"4","last_reported":1715537388,"current_range_meters":0,"station_id":"ce4bgv12rcd13ifvqcp0","pricing_plan_id":"cebpf4jnsgd1na2vs0mg"},{"bike_id":"11589c3c-99b7-49aa-be2b-63d488cd380b","system_id":"levelo_inurba_marseille","lat":43.31179,"lon":5.38717,"is_reserved":false,"is_disabled":false,"rental_uris":{"android":"levelo://app?vid=11589c3c-99b7-49aa-be2b-63d488cd380b","ios":"levelo://app?vid=11589c3c-99b7-49aa-be2b-63d488cd380b"},"vehicle_type_id":"4","last_reported":1715537388,"current_range_meters":0,"station_id":"ce4bgv12rcd13ifvqcp0","pricing_plan_id":"cebpf4jnsgd1na2vs0mg"},{"bike_id":"05767734-d7e1-46ff-863f-7c4aa74a572d","system_id":"levelo_inurba_marseille","lat":43.31181,"lon":5.38719,"is_reserved":false,"is_disabled":false,"rental_uris":{"android":"levelo://app?vid=05767734-d7e1-46ff-863f-7c4aa74a572d","ios":"levelo://app?vid=05767734-d7e1-46ff-863f-7c4aa74a572d"},"vehicle_type_id":"4","last_reported":1715537388,"current_range_meters":18800,"station_id":"ce4bgv12rcd13ifvqcp0","pricing_plan_id":"cebpf4jnsgd1na2vs0mg"},{"bike_id":"557684bd-54ef-411c-b8ab-8fc6855c9f3d","system_id":"levelo_inurba_marseille","lat":43.299243,"lon":5.37481,"is_reserved":false,"is_disabled":false,"rental_uris":{"android":"levelo://app?vid=557684bd-54ef-411c-b8ab-8fc6855c9f3d","ios":"levelo://app?vid=557684bd-54ef-411c-b8ab-8fc6855c9f3d"},"vehicle_type_id":"4","last_reported":1715537388,"current_range_meters":10400,"station_id":"ce4bgjh2rcd13ifvqbg0","pricing_plan_id":"cebpf4jnsgd1na2vs0mg"},{"bike_id":"b1192b30-2bd4-4b16-99bf-d5d677a6560a","system_id":"levelo_inurba_marseille","lat":43.293259,"lon":5.371586,"is_reserved":false,"is_disabled":false,"rental_uris":{"android":"levelo://app?vid=b1192b30-2bd4-4b16-99bf-d5d677a6560a","ios":"levelo://app?vid=b1192b30-2bd4-4b16-99bf-d5d677a6560a"},"vehicle_type_id":"4","last_reported":1715537388,"current_range_meters":16000,"station_id":"ce4bgh92rcd13ifvqb40","pricing_plan_id":"cebpf4jnsgd1na2vs0mg"},{"bike_id":"40fa06d9-3f0a-41e0-81b4-37cd5fbf974a","system_id":"levelo_inurba_marseille","lat":43.299243,"lon":5.374807,"is_reserved":false,"is_disabled":false,"rental_uris":{"android":"levelo://app?vid=40fa06d9-3f0a-41e0-81b4-37cd5fbf974a","ios":"levelo://app?vid=40fa06d9-3f0a-41e0-81b4-37cd5fbf974a"},"vehicle_type_id":"4","last_reported":1715537388,"current_range_meters":6800,"station_id":"ce4bgjh2rcd13ifvqbg0","pricing_plan_id":"cebpf4jnsgd1na2vs0mg"},{"bike_id":"7070e582-e1a7-4d4d-a48b-77174caa0ccb","system_id":"levelo_inurba_marseille","lat":43.32787,"lon":5.36578,"is_reserved":false,"is_disabled":false,"rental_uris":{"android":"levelo://app?vid=7070e582-e1a7-4d4d-a48b-77174caa0ccb","ios":"levelo://app?vid=7070e582-e1a7-4d4d-a48b-77174caa0ccb"},"vehicle_type_id":"4","last_reported":1715537388,"current_range_meters":4000,"station_id":"","pricing_plan_id":"cebpf4jnsgd1na2vs0mg"},{"bike_id":"90604924-23f3-42d1-a52a-5ff54d11f424","system_id":"levelo_inurba_marseille","lat":43.322903,"lon":5.382735,"is_reserved":false,"is_disabled":false,"rental_uris":{"android":"levelo://app?vid=90604924-23f3-42d1-a52a-5ff54d11f424","ios":"levelo://app?vid=90604924-23f3-42d1-a52a-5ff54d11f424"},"vehicle_type_id":"4","last_reported":1715537388,"current_range_meters":10000,"station_id":"ce4bhr12rcd13ifvqhqg","pricing_plan_id":"cebpf4jnsgd1na2vs0mg"},{"bike_id":"38b1639f-0b7b-4041-8f45-51cfa44eaefb","system_id":"levelo_inurba_marseille","lat":43.297163,"lon":5.365866,"is_reserved":false,"is_disabled":false,"rental_uris":{"android":"levelo://app?vid=38b1639f-0b7b-4041-8f45-51cfa44eaefb","ios":"levelo://app?vid=38b1639f-0b7b-4041-8f45-51cfa44eaefb"},"vehicle_type_id":"4","last_reported":1715537388,"current_range_meters":0,"station_id":"ce4bgn12rcd13ifvqbt0","pricing_plan_id":"cebpf4jnsgd1na2vs0mg"},{"bike_id":"4ca9f05c-7a90-4cda-bfd4-94b84ab0510b","system_id":"levelo_inurba_marseille","lat":43.297163,"lon":5.365866,"is_reserved":false,"is_disabled":false,"rental_uris":{"android":"levelo://app?vid=4ca9f05c-7a90-4cda-bfd4-94b84ab0510b","ios":"levelo://app?vid=4ca9f05c-7a90-4cda-bfd4-94b84ab0510b"},"vehicle_type_id":"4","last_reported":1715537388,"current_range_meters":10000,"station_id":"ce4bgn12rcd13ifvqbt0","pricing_plan_id":"cebpf4jnsgd1na2vs0mg"},{"bike_id":"c354b191-907c-4404-9454-8771e66b177c","system_id":"levelo_inurba_marseille","lat":43.297,"lon":5.36613,"is_reserved":false,"is_disabled":false,"rental_uris":{"android":"levelo://app?vid=c354b191-907c-4404-9454-8771e66b177c","ios":"levelo://app?vid=c354b191-907c-4404-9454-8771e66b177c"},"vehicle_type_id":"4","last_reported":1715537388,"current_range_meters":0,"station_id":"ce4bgn12rcd13ifvqbt0","pricing_plan_id":"cebpf4jnsgd1na2vs0mg"},{"bike_id":"af5ebbe4-05ff-4eb1-9124-9ff401a487fb","system_id":"levelo_inurba_marseille","lat":43.296935,"lon":5.376544,"is_reserved":false,"is_disabled":false,"rental_uris":{"android":"levelo://app?vid=af5ebbe4-05ff-4eb1-9124-9ff401a487fb","ios":"levelo://app?vid=af5ebbe4-05ff-4eb1-9124-9ff401a487fb"},"vehicle_type_id":"4","last_reported":1715537388,"current_range_meters":0,"station_id":"ce4bgkh2rcd13ifvqbl0","pricing_plan_id":"cebpf4jnsgd1na2vs0mg"},{"bike_id":"b04bec95-6c6a-4600-976f-f23ecfbbab48","system_id":"levelo_inurba_marseille","lat":43.32885,"lon":5.35922,"is_reserved":false,"is_disabled":false,"rental_uris":{"android":"levelo://app?vid=b04bec95-6c6a-4600-976f-f23ecfbbab48","ios":"levelo://app?vid=b04bec95-6c6a-4600-976f-f23ecfbbab48"},"vehicle_type_id":"4","last_reported":1715537388,"current_range_meters":0,"station_id":"","pricing_plan_id":"cebpf4jnsgd1na2vs0mg"},{"bike_id":"4324f332-d35a-46d9-b32b-7e847d5425d9","system_id":"levelo_inurba_marseille","lat":43.296277,"lon":5.377108,"is_reserved":false,"is_disabled":false,"rental_uris":{"android":"levelo://app?vid=4324f332-d35a-46d9-b32b-7e847d5425d9","ios":"levelo://app?vid=4324f332-d35a-46d9-b32b-7e847d5425d9"},"vehicle_type_id":"4","last_reported":1715537388,"current_range_meters":1600,"station_id":"ce4bgi92rcd13ifvqb90","pricing_plan_id":"cebpf4jnsgd1na2vs0mg"},{"bike_id":"a1ce5e10-0acf-4df5-ab83-88bdea9040fa","system_id":"levelo_inurba_marseille","lat":43.299028,"lon":5.381509,"is_reserved":false,"is_disabled":false,"rental_uris":{"android":"levelo://app?vid=a1ce5e10-0acf-4df5-ab83-88bdea9040fa","ios":"levelo://app?vid=a1ce5e10-0acf-4df5-ab83-88bdea9040fa"},"vehicle_type_id":"4","last_reported":1715537388,"current_range_meters":21600,"station_id":"ce4bgj12rcd13ifvqbc0","pricing_plan_id":"cebpf4jnsgd1na2vs0mg"},{"bike_id":"d66b2c9d-408e-4e5e-9bde-cce6545f01f9","system_id":"levelo_inurba_marseille","lat":43.299028,"lon":5.381509,"is_reserved":false,"is_disabled":false,"rental_uris":{"android":"levelo://app?vid=d66b2c9d-408e-4e5e-9bde-cce6545f01f9","ios":"levelo://app?vid=d66b2c9d-408e-4e5e-9bde-cce6545f01f9"},"vehicle_type_id":"4","last_reported":1715537388,"current_range_meters":16800,"station_id":"ce4bgj12rcd13ifvqbc0","pricing_plan_id":"cebpf4jnsgd1na2vs0mg"},{"bike_id":"f7672e33-be75-4da3-b0cb-5acfbe830556","system_id":"levelo_inurba_marseille","lat":43.309589,"lon":5.390258,"is_reserved":false,"is_disabled":false,"rental_uris":{"android":"levelo://app?vid=f7672e33-be75-4da3-b0cb-5acfbe830556","ios":"levelo://app?vid=f7672e33-be75-4da3-b0cb-5acfbe830556"},"vehicle_type_id":"4","last_reported":1715537388,"current_range_meters":0,"station_id":"ce4bgup2rcd13ifvqco0","pricing_plan_id":"cebpf4jnsgd1na2vs0mg"},{"bike_id":"9d8a9cd1-08f8-48f1-a000-0e77e21ea1f9","system_id":"levelo_inurba_marseille","lat":43.296921,"lon":5.376579,"is_reserved":false,"is_disabled":false,"rental_uris":{"android":"levelo://app?vid=9d8a9cd1-08f8-48f1-a000-0e77e21ea1f9","ios":"levelo://app?vid=9d8a9cd1-08f8-48f1-a000-0e77e21ea1f9"},"vehicle_type_id":"4","last_reported":1715537388,"current_range_meters":29200,"station_id":"ce4bgkh2rcd13ifvqbl0","pricing_plan_id":"cebpf4jnsgd1na2vs0mg"},{"bike_id":"73ab77bb-1334-45fb-9e21-26bbc7845fd5","system_id":"levelo_inurba_marseille","lat":43.309589,"lon":5.390258,"is_reserved":false,"is_disabled":false,"rental_uris":{"android":"levelo://app?vid=73ab77bb-1334-45fb-9e21-26bbc7845fd5","ios":"levelo://app?vid=73ab77bb-1334-45fb-9e21-26bbc7845fd5"},"vehicle_type_id":"4","last_reported":1715537388,"current_range_meters":0,"station_id":"ce4bgup2rcd13ifvqco0","pricing_plan_id":"cebpf4jnsgd1na2vs0mg"},{"bike_id":"d375256d-ae5f-4854-ad3b-d46ed67ae127","system_id":"levelo_inurba_marseille","lat":43.30007,"lon":5.3837,"is_reserved":false,"is_disabled":false,"rental_uris":{"android":"levelo://app?vid=d375256d-ae5f-4854-ad3b-d46ed67ae127","ios":"levelo://app?vid=d375256d-ae5f-4854-ad3b-d46ed67ae127"},"vehicle_type_id":"4","last_reported":1715537388,"current_range_meters":22000,"station_id":"","pricing_plan_id":"cebpf4jnsgd1na2vs0mg"},{"bike_id":"cbe5f818-73fd-41ad-b7e0-f8f18f7a3eca","system_id":"levelo_inurba_marseille","lat":43.317557,"lon":5.390173,"is_reserved":false,"is_disabled":false,"rental_uris":{"android":"levelo://app?vid=cbe5f818-73fd-41ad-b7e0-f8f18f7a3eca","ios":"levelo://app?vid=cbe5f818-73fd-41ad-b7e0-f8f18f7a3eca"},"vehicle_type_id":"4","last_reported":1715537388,"current_range_meters":4000,"station_id":"ce4bhqp2rcd13ifvqhng","pricing_plan_id":"cebpf4jnsgd1na2vs0mg"},{"bike_id":"8aa41c21-d1fa-4eb8-a69d-94ab068f2ea2","system_id":"levelo_inurba_marseille","lat":43.317557,"lon":5.390173,"is_reserved":false,"is_disabled":false,"rental_uris":{"android":"levelo://app?vid=8aa41c21-d1fa-4eb8-a69d-94ab068f2ea2","ios":"levelo://app?vid=8aa41c21-d1fa-4eb8-a69d-94ab068f2ea2"},"vehicle_type_id":"4","last_reported":1715537388,"current_range_meters":0,"station_id":"ce4bhqp2rcd13ifvqhng","pricing_plan_id":"cebpf4jnsgd1na2vs0mg"},{"bike_id":"0d9cb8b8-9e66-44ca-a80e-1d11182d1ffd","system_id":"levelo_inurba_marseille","lat":43.304274,"lon":5.388873,"is_reserved":false,"is_disabled":false,"rental_uris":{"android":"levelo://app?vid=0d9cb8b8-9e66-44ca-a80e-1d11182d1ffd","ios":"levelo://app?vid=0d9cb8b8-9e66-44ca-a80e-1d11182d1ffd"},"vehicle_type_id":"4","last_reported":1715537388,"current_range_meters":7200,"station_id":"ce4bgk12rcd13ifvqbi0","pricing_plan_id":"cebpf4jnsgd1na2vs0mg"},{"bike_id":"755902d0-f82f-4398-951d-e25f5d6c0087","system_id":"levelo_inurba_marseille","lat":43.304274,"lon":5.388873,"is_reserved":false,"is_disabled":false,"rental_uris":{"android":"levelo://app?vid=755902d0-f82f-4398-951d-e25f5d6c0087","ios":"levelo://app?vid=755902d0-f82f-4398-951d-e25f5d6c0087"},"vehicle_type_id":"4","last_reported":1715537388,"current_range_meters":4800,"station_id":"ce4bgk12rcd13ifvqbi0","pricing_plan_id":"cebpf4jnsgd1na2vs0mg"},{"bike_id":"f0b1af69-3124-498c-9c6d-91fbc18766d1","system_id":"levelo_inurba_marseille","lat":43.29794,"lon":5.38112,"is_reserved":false,"is_disabled":false,"rental_uris":{"android":"levelo://app?vid=f0b1af69-3124-498c-9c6d-91fbc18766d1","ios":"levelo://app?vid=f0b1af69-3124-498c-9c6d-91fbc18766d1"},"vehicle_type_id":"4","last_reported":1715537388,"current_range_meters":0,"station_id":"ce4bgip2rcd13ifvqbb0","pricing_plan_id":"cebpf4jnsgd1na2vs0mg"},{"bike_id":"bf89962c-3fe1-4921-a651-5dc9ed881b24","system_id":"levelo_inurba_marseille","lat":43.295748,"lon":5.37522,"is_reserved":false,"is_disabled":false,"rental_uris":{"android":"levelo://app?vid=bf89962c-3fe1-4921-a651-5dc9ed881b24","ios":"levelo://app?vid=bf89962c-3fe1-4921-a651-5dc9ed881b24"},"vehicle_type_id":"4","last_reported":1715537388,"current_range_meters":9600,"station_id":"ce4bgh92rcd13ifvqb50","pricing_plan_id":"cebpf4jnsgd1na2vs0mg"},{"bike_id":"3b7adfbf-5758-4e9c-ae8c-c730ce37f799","system_id":"levelo_inurba_marseille","lat":43.298037,"lon":5.381066,"is_reserved":false,"is_disabled":false,"rental_uris":{"android":"levelo://app?vid=3b7adfbf-5758-4e9c-ae8c-c730ce37f799","ios":"levelo://app?vid=3b7adfbf-5758-4e9c-ae8c-c730ce37f799"},"vehicle_type_id":"4","last_reported":1715537388,"current_range_meters":15200,"station_id":"ce4bgip2rcd13ifvqbb0","pricing_plan_id":"cebpf4jnsgd1na2vs0mg"},{"bike_id":"9b5ab750-9e61-47de-8eac-ae9647d1fe99","system_id":"levelo_inurba_marseille","lat":43.29741,"lon":5.38017,"is_reserved":false,"is_disabled":false,"rental_uris":{"android":"levelo://app?vid=9b5ab750-9e61-47de-8eac-ae9647d1fe99","ios":"levelo://app?vid=9b5ab750-9e61-47de-8eac-ae9647d1fe99"},"vehicle_type_id":"4","last_reported":1715537388,"current_range_meters":20000,"station_id":"","pricing_plan_id":"cebpf4jnsgd1na2vs0mg"},{"bike_id":"284d9aaa-29c0-4cab-952c-114b84dcf594","system_id":"levelo_inurba_marseille","lat":43.295748,"lon":5.37522,"is_reserved":false,"is_disabled":false,"rental_uris":{"android":"levelo://app?vid=284d9aaa-29c0-4cab-952c-114b84dcf594","ios":"levelo://app?vid=284d9aaa-29c0-4cab-952c-114b84dcf594"},"vehicle_type_id":"4","last_reported":1715537388,"current_range_meters":4400,"station_id":"ce4bgh92rcd13ifvqb50","pricing_plan_id":"cebpf4jnsgd1na2vs0mg"},{"bike_id":"3e82f840-517b-4384-b9fb-2612c1d15ef5","system_id":"levelo_inurba_marseille","lat":43.29615,"lon":5.37715,"is_reserved":false,"is_disabled":false,"rental_uris":{"android":"levelo://app?vid=3e82f840-517b-4384-b9fb-2612c1d15ef5","ios":"levelo://app?vid=3e82f840-517b-4384-b9fb-2612c1d15ef5"},"vehicle_type_id":"4","last_reported":1715537388,"current_range_meters":18400,"station_id":"ce4bgi92rcd13ifvqb90","pricing_plan_id":"cebpf4jnsgd1na2vs0mg"},{"bike_id":"2bafecaf-b763-41fe-842d-dc4bc50e0bc1","system_id":"levelo_inurba_marseille","lat":43.299707,"lon":5.384859,"is_reserved":false,"is_disabled":false,"rental_uris":{"android":"levelo://app?vid=2bafecaf-b763-41fe-842d-dc4bc50e0bc1","ios":"levelo://app?vid=2bafecaf-b763-41fe-842d-dc4bc50e0bc1"},"vehicle_type_id":"4","last_reported":1715537388,"current_range_meters":20400,"station_id":"ce4bgj92rcd13ifvqbd0","pricing_plan_id":"cebpf4jnsgd1na2vs0mg"},{"bike_id":"3cf14ec9-e9e0-40f8-b150-140ff2133ce5","system_id":"levelo_inurba_marseille","lat":43.299707,"lon":5.384859,"is_reserved":false,"is_disabled":false,"rental_uris":{"android":"levelo://app?vid=3cf14ec9-e9e0-40f8-b150-140ff2133ce5","ios":"levelo://app?vid=3cf14ec9-e9e0-40f8-b150-140ff2133ce5"},"vehicle_type_id":"4","last_reported":1715537388,"current_range_meters":22000,"station_id":"ce4bgj92rcd13ifvqbd0","pricing_plan_id":"cebpf4jnsgd1na2vs0mg"},{"bike_id":"6f812152-6173-4f67-be38-4f66ce9c519c","system_id":"levelo_inurba_marseille","lat":43.295279,"lon":5.375048,"is_reserved":false,"is_disabled":false,"rental_uris":{"android":"levelo://app?vid=6f812152-6173-4f67-be38-4f66ce9c519c","ios":"levelo://app?vid=6f812152-6173-4f67-be38-4f66ce9c519c"},"vehicle_type_id":"4","last_reported":1715537388,"current_range_meters":0,"station_id":"ce4bgkp2rcd13ifvqbmg","pricing_plan_id":"cebpf4jnsgd1na2vs0mg"},{"bike_id":"29e2914f-ac21-407e-b485-dfff1cf7102a","system_id":"levelo_inurba_marseille","lat":43.29976,"lon":5.38493,"is_reserved":false,"is_disabled":false,"rental_uris":{"android":"levelo://app?vid=29e2914f-ac21-407e-b485-dfff1cf7102a","ios":"levelo://app?vid=29e2914f-ac21-407e-b485-dfff1cf7102a"},"vehicle_type_id":"4","last_reported":1715537388,"current_range_meters":20800,"station_id":"ce4bgj92rcd13ifvqbd0","pricing_plan_id":"cebpf4jnsgd1na2vs0mg"},{"bike_id":"541f851e-ed16-437e-83ea-c39a937e1373","system_id":"levelo_inurba_marseille","lat":43.299732,"lon":5.384904,"is_reserved":false,"is_disabled":false,"rental_uris":{"android":"levelo://app?vid=541f851e-ed16-437e-83ea-c39a937e1373","ios":"levelo://app?vid=541f851e-ed16-437e-83ea-c39a937e1373"},"vehicle_type_id":"4","last_reported":1715537388,"current_range_meters":18800,"station_id":"ce4bgj92rcd13ifvqbd0","pricing_plan_id":"cebpf4jnsgd1na2vs0mg"},{"bike_id":"5e75a31b-f8b7-488d-8dc2-6e53c8b05431","system_id":"levelo_inurba_marseille","lat":43.29972,"lon":5.3849,"is_reserved":false,"is_disabled":false,"rental_uris":{"android":"levelo://app?vid=5e75a31b-f8b7-488d-8dc2-6e53c8b05431","ios":"levelo://app?vid=5e75a31b-f8b7-488d-8dc2-6e53c8b05431"},"vehicle_type_id":"4","last_reported":1715537388,"current_range_meters":17200,"station_id":"ce4bgj92rcd13ifvqbd0","pricing_plan_id":"cebpf4jnsgd1na2vs0mg"},{"bike_id":"15a7e07a-c479-45fc-a16c-31d21b9b6597","system_id":"levelo_inurba_marseille","lat":43.299717,"lon":5.384845,"is_reserved":false,"is_disabled":false,"rental_uris":{"android":"levelo://app?vid=15a7e07a-c479-45fc-a16c-31d21b9b6597","ios":"levelo://app?vid=15a7e07a-c479-45fc-a16c-31d21b9b6597"},"vehicle_type_id":"4","last_reported":1715537388,"current_range_meters":22400,"station_id":"ce4bgj92rcd13ifvqbd0","pricing_plan_id":"cebpf4jnsgd1na2vs0mg"},{"bike_id":"9f779eda-b43c-4fd4-b8ab-36d05a93c97c","system_id":"levelo_inurba_marseille","lat":43.29983,"lon":5.3851,"is_reserved":false,"is_disabled":false,"rental_uris":{"android":"levelo://app?vid=9f779eda-b43c-4fd4-b8ab-36d05a93c97c","ios":"levelo://app?vid=9f779eda-b43c-4fd4-b8ab-36d05a93c97c"},"vehicle_type_id":"4","last_reported":1715537388,"current_range_meters":21200,"station_id":"ce4bgj92rcd13ifvqbd0","pricing_plan_id":"cebpf4jnsgd1na2vs0mg"},{"bike_id":"c9ee70a0-36c6-49d3-b15b-408e6c137769","system_id":"levelo_inurba_marseille","lat":43.299717,"lon":5.384845,"is_reserved":false,"is_disabled":false,"rental_uris":{"android":"levelo://app?vid=c9ee70a0-36c6-49d3-b15b-408e6c137769","ios":"levelo://app?vid=c9ee70a0-36c6-49d3-b15b-408e6c137769"},"vehicle_type_id":"4","last_reported":1715537388,"current_range_meters":24800,"station_id":"ce4bgj92rcd13ifvqbd0","pricing_plan_id":"cebpf4jnsgd1na2vs0mg"},{"bike_id":"378cdb2b-10e8-48a4-be91-ae759c8858d9","system_id":"levelo_inurba_marseille","lat":43.299717,"lon":5.384845,"is_reserved":false,"is_disabled":false,"rental_uris":{"android":"levelo://app?vid=378cdb2b-10e8-48a4-be91-ae759c8858d9","ios":"levelo://app?vid=378cdb2b-10e8-48a4-be91-ae759c8858d9"},"vehicle_type_id":"4","last_reported":1715537388,"current_range_meters":16400,"station_id":"ce4bgj92rcd13ifvqbd0","pricing_plan_id":"cebpf4jnsgd1na2vs0mg"},{"bike_id":"e418885f-0efe-4e54-9634-e832ef667d2e","system_id":"levelo_inurba_marseille","lat":43.299717,"lon":5.384845,"is_reserved":false,"is_disabled":false,"rental_uris":{"android":"levelo://app?vid=e418885f-0efe-4e54-9634-e832ef667d2e","ios":"levelo://app?vid=e418885f-0efe-4e54-9634-e832ef667d2e"},"vehicle_type_id":"4","last_reported":1715537388,"current_range_meters":20400,"station_id":"ce4bgj92rcd13ifvqbd0","pricing_plan_id":"cebpf4jnsgd1na2vs0mg"},{"bike_id":"ae5b3582-f7a3-4c39-9aac-a681b5f19e4c","system_id":"levelo_inurba_marseille","lat":43.299724,"lon":5.384848,"is_reserved":false,"is_disabled":false,"rental_uris":{"android":"levelo://app?vid=ae5b3582-f7a3-4c39-9aac-a681b5f19e4c","ios":"levelo://app?vid=ae5b3582-f7a3-4c39-9aac-a681b5f19e4c"},"vehicle_type_id":"4","last_reported":1715537388,"current_range_meters":20800,"station_id":"ce4bgj92rcd13ifvqbd0","pricing_plan_id":"cebpf4jnsgd1na2vs0mg"},{"bike_id":"ae6762bc-7f13-4f6f-8ac2-f2042423b49b","system_id":"levelo_inurba_marseille","lat":43.296028,"lon":5.381047,"is_reserved":false,"is_disabled":false,"rental_uris":{"android":"levelo://app?vid=ae6762bc-7f13-4f6f-8ac2-f2042423b49b","ios":"levelo://app?vid=ae6762bc-7f13-4f6f-8ac2-f2042423b49b"},"vehicle_type_id":"4","last_reported":1715537388,"current_range_meters":0,"station_id":"ce4bgl12rcd13ifvqbo0","pricing_plan_id":"cebpf4jnsgd1na2vs0mg"},{"bike_id":"6c6a7a0d-51dd-484d-b08a-3f4a78b64ccf","system_id":"levelo_inurba_marseille","lat":43.29345,"lon":5.37189,"is_reserved":false,"is_disabled":false,"rental_uris":{"android":"levelo://app?vid=6c6a7a0d-51dd-484d-b08a-3f4a78b64ccf","ios":"levelo://app?vid=6c6a7a0d-51dd-484d-b08a-3f4a78b64ccf"},"vehicle_type_id":"4","last_reported":1715537388,"current_range_meters":0,"station_id":"ce4bgh92rcd13ifvqb40","pricing_plan_id":"cebpf4jnsgd1na2vs0mg"},{"bike_id":"361c5e19-86c3-4bf9-b66b-0bcaf81df1e5","system_id":"levelo_inurba_marseille","lat":43.296007,"lon":5.381087,"is_reserved":false,"is_disabled":false,"rental_uris":{"android":"levelo://app?vid=361c5e19-86c3-4bf9-b66b-0bcaf81df1e5","ios":"levelo://app?vid=361c5e19-86c3-4bf9-b66b-0bcaf81df1e5"},"vehicle_type_id":"4","last_reported":1715537388,"current_range_meters":0,"station_id":"ce4bgl12rcd13ifvqbo0","pricing_plan_id":"cebpf4jnsgd1na2vs0mg"},{"bike_id":"85ccc75e-c94f-4b3c-b44c-c53921643630","system_id":"levelo_inurba_marseille","lat":43.32871,"lon":5.383604,"is_reserved":false,"is_disabled":false,"rental_uris":{"android":"levelo://app?vid=85ccc75e-c94f-4b3c-b44c-c53921643630","ios":"levelo://app?vid=85ccc75e-c94f-4b3c-b44c-c53921643630"},"vehicle_type_id":"4","last_reported":1715537388,"current_range_meters":10000,"station_id":"","pricing_plan_id":"cebpf4jnsgd1na2vs0mg"},{"bike_id":"0f4c1893-3feb-4e54-9226-455bb3c0a114","system_id":"levelo_inurba_marseille","lat":43.293009,"lon":5.374584,"is_reserved":false,"is_disabled":false,"rental_uris":{"android":"levelo://app?vid=0f4c1893-3feb-4e54-9226-455bb3c0a114","ios":"levelo://app?vid=0f4c1893-3feb-4e54-9226-455bb3c0a114"},"vehicle_type_id":"4","last_reported":1715537388,"current_range_meters":0,"station_id":"ce4bgi12rcd13ifvqb70","pricing_plan_id":"cebpf4jnsgd1na2vs0mg"},{"bike_id":"7e0ef75a-ab3a-4b83-8fcc-bd4e140ea00c","system_id":"levelo_inurba_marseille","lat":43.293009,"lon":5.374584,"is_reserved":false,"is_disabled":false,"rental_uris":{"android":"levelo://app?vid=7e0ef75a-ab3a-4b83-8fcc-bd4e140ea00c","ios":"levelo://app?vid=7e0ef75a-ab3a-4b83-8fcc-bd4e140ea00c"},"vehicle_type_id":"4","last_reported":1715537388,"current_range_meters":400,"station_id":"ce4bgi12rcd13ifvqb70","pricing_plan_id":"cebpf4jnsgd1na2vs0mg"},{"bike_id":"d62eb909-26a5-42d4-802f-d25e79245279","system_id":"levelo_inurba_marseille","lat":43.293009,"lon":5.374584,"is_reserved":false,"is_disabled":false,"rental_uris":{"android":"levelo://app?vid=d62eb909-26a5-42d4-802f-d25e79245279","ios":"levelo://app?vid=d62eb909-26a5-42d4-802f-d25e79245279"},"vehicle_type_id":"4","last_reported":1715537388,"current_range_meters":2400,"station_id":"ce4bgi12rcd13ifvqb70","pricing_plan_id":"cebpf4jnsgd1na2vs0mg"},{"bike_id":"580121c0-2a48-4ae4-a8fa-12d6a0976af8","system_id":"levelo_inurba_marseille","lat":43.293009,"lon":5.374584,"is_reserved":false,"is_disabled":false,"rental_uris":{"android":"levelo://app?vid=580121c0-2a48-4ae4-a8fa-12d6a0976af8","ios":"levelo://app?vid=580121c0-2a48-4ae4-a8fa-12d6a0976af8"},"vehicle_type_id":"4","last_reported":1715537388,"current_range_meters":24400,"station_id":"ce4bgi12rcd13ifvqb70","pricing_plan_id":"cebpf4jnsgd1na2vs0mg"},{"bike_id":"bbd34e2c-42fc-49d5-a71e-2de67ef6f3de","system_id":"levelo_inurba_marseille","lat":43.293009,"lon":5.374584,"is_reserved":false,"is_disabled":false,"rental_uris":{"android":"levelo://app?vid=bbd34e2c-42fc-49d5-a71e-2de67ef6f3de","ios":"levelo://app?vid=bbd34e2c-42fc-49d5-a71e-2de67ef6f3de"},"vehicle_type_id":"4","last_reported":1715537388,"current_range_meters":14800,"station_id":"ce4bgi12rcd13ifvqb70","pricing_plan_id":"cebpf4jnsgd1na2vs0mg"},{"bike_id":"2c6ea30f-92fb-4c23-8e60-6516116c2fca","system_id":"levelo_inurba_marseille","lat":43.293009,"lon":5.374584,"is_reserved":false,"is_disabled":false,"rental_uris":{"android":"levelo://app?vid=2c6ea30f-92fb-4c23-8e60-6516116c2fca","ios":"levelo://app?vid=2c6ea30f-92fb-4c23-8e60-6516116c2fca"},"vehicle_type_id":"4","last_reported":1715537388,"current_range_meters":18800,"station_id":"ce4bgi12rcd13ifvqb70","pricing_plan_id":"cebpf4jnsgd1na2vs0mg"},{"bike_id":"41ffe99f-4636-4fc9-867f-a4b2e75041fc","system_id":"levelo_inurba_marseille","lat":43.306,"lon":5.39364,"is_reserved":false,"is_disabled":false,"rental_uris":{"android":"levelo://app?vid=41ffe99f-4636-4fc9-867f-a4b2e75041fc","ios":"levelo://app?vid=41ffe99f-4636-4fc9-867f-a4b2e75041fc"},"vehicle_type_id":"4","last_reported":1715537388,"current_range_meters":0,"station_id":"ce4bh0p2rcd13ifvqd80","pricing_plan_id":"cebpf4jnsgd1na2vs0mg"},{"bike_id":"07c6d01d-0ca1-44c8-9cbf-77255c9e12dc","system_id":"levelo_inurba_marseille","lat":43.303002,"lon":5.392142,"is_reserved":false,"is_disabled":false,"rental_uris":{"android":"levelo://app?vid=07c6d01d-0ca1-44c8-9cbf-77255c9e12dc","ios":"levelo://app?vid=07c6d01d-0ca1-44c8-9cbf-77255c9e12dc"},"vehicle_type_id":"4","last_reported":1715537388,"current_range_meters":10400,"station_id":"ce4bgkh2rcd13ifvqbk0","pricing_plan_id":"cebpf4jnsgd1na2vs0mg"},{"bike_id":"1b7f8acf-095f-44f7-92da-844cfefdfda8","system_id":"levelo_inurba_marseille","lat":43.292311,"lon":5.360731,"is_reserved":false,"is_disabled":false,"rental_uris":{"android":"levelo://app?vid=1b7f8acf-095f-44f7-92da-844cfefdfda8","ios":"levelo://app?vid=1b7f8acf-095f-44f7-92da-844cfefdfda8"},"vehicle_type_id":"4","last_reported":1715537388,"current_range_meters":14800,"station_id":"ce4bhbh2rcd13ifvqeqg","pricing_plan_id":"cebpf4jnsgd1na2vs0mg"},{"bike_id":"01bd49bf-af4e-4d80-8421-e3bdc5d38282","system_id":"levelo_inurba_marseille","lat":43.292311,"lon":5.360731,"is_reserved":false,"is_disabled":false,"rental_uris":{"android":"levelo://app?vid=01bd49bf-af4e-4d80-8421-e3bdc5d38282","ios":"levelo://app?vid=01bd49bf-af4e-4d80-8421-e3bdc5d38282"},"vehicle_type_id":"4","last_reported":1715537388,"current_range_meters":30400,"station_id":"ce4bhbh2rcd13ifvqeqg","pricing_plan_id":"cebpf4jnsgd1na2vs0mg"},{"bike_id":"d5126063-d15b-47c3-82d7-c46c6305787a","system_id":"levelo_inurba_marseille","lat":43.300852,"lon":5.390859,"is_reserved":false,"is_disabled":false,"rental_uris":{"android":"levelo://app?vid=d5126063-d15b-47c3-82d7-c46c6305787a","ios":"levelo://app?vid=d5126063-d15b-47c3-82d7-c46c6305787a"},"vehicle_type_id":"4","last_reported":1715537388,"current_range_meters":14800,"station_id":"ce4bh192rcd13ifvqdb0","pricing_plan_id":"cebpf4jnsgd1na2vs0mg"},{"bike_id":"3cfc71fb-4a51-4363-9ca8-6fb661d4dc1a","system_id":"levelo_inurba_marseille","lat":43.30085,"lon":5.390856,"is_reserved":false,"is_disabled":false,"rental_uris":{"android":"levelo://app?vid=3cfc71fb-4a51-4363-9ca8-6fb661d4dc1a","ios":"levelo://app?vid=3cfc71fb-4a51-4363-9ca8-6fb661d4dc1a"},"vehicle_type_id":"4","last_reported":1715537388,"current_range_meters":1200,"station_id":"ce4bh192rcd13ifvqdb0","pricing_plan_id":"cebpf4jnsgd1na2vs0mg"},{"bike_id":"9888f860-ec24-4858-b8e7-b71c24728ff4","system_id":"levelo_inurba_marseille","lat":43.292311,"lon":5.360731,"is_reserved":false,"is_disabled":false,"rental_uris":{"android":"levelo://app?vid=9888f860-ec24-4858-b8e7-b71c24728ff4","ios":"levelo://app?vid=9888f860-ec24-4858-b8e7-b71c24728ff4"},"vehicle_type_id":"4","last_reported":1715537388,"current_range_meters":20000,"station_id":"ce4bhbh2rcd13ifvqeqg","pricing_plan_id":"cebpf4jnsgd1na2vs0mg"},{"bike_id":"d4f55f7c-7ae4-4dde-a4aa-685ac357e647","system_id":"levelo_inurba_marseille","lat":43.292311,"lon":5.360731,"is_reserved":false,"is_disabled":false,"rental_uris":{"android":"levelo://app?vid=d4f55f7c-7ae4-4dde-a4aa-685ac357e647","ios":"levelo://app?vid=d4f55f7c-7ae4-4dde-a4aa-685ac357e647"},"vehicle_type_id":"4","last_reported":1715537388,"current_range_meters":28000,"station_id":"ce4bhbh2rcd13ifvqeqg","pricing_plan_id":"cebpf4jnsgd1na2vs0mg"},{"bike_id":"f6564840-14ba-40c1-ab51-6b4e5f39536c","system_id":"levelo_inurba_marseille","lat":43.30085,"lon":5.390856,"is_reserved":false,"is_disabled":false,"rental_uris":{"android":"levelo://app?vid=f6564840-14ba-40c1-ab51-6b4e5f39536c","ios":"levelo://app?vid=f6564840-14ba-40c1-ab51-6b4e5f39536c"},"vehicle_type_id":"4","last_reported":1715537388,"current_range_meters":30400,"station_id":"ce4bh192rcd13ifvqdb0","pricing_plan_id":"cebpf4jnsgd1na2vs0mg"},{"bike_id":"0d19ae81-67a4-470a-9fe4-d98c798f6dcc","system_id":"levelo_inurba_marseille","lat":43.298764,"lon":5.388973,"is_reserved":false,"is_disabled":false,"rental_uris":{"android":"levelo://app?vid=0d19ae81-67a4-470a-9fe4-d98c798f6dcc","ios":"levelo://app?vid=0d19ae81-67a4-470a-9fe4-d98c798f6dcc"},"vehicle_type_id":"4","last_reported":1715537388,"current_range_meters":6400,"station_id":"ce4bh392rcd13ifvqdl0","pricing_plan_id":"cebpf4jnsgd1na2vs0mg"},{"bike_id":"034dc8cb-2c78-41fe-aaa1-ea8853881365","system_id":"levelo_inurba_marseille","lat":43.298764,"lon":5.388973,"is_reserved":false,"is_disabled":false,"rental_uris":{"android":"levelo://app?vid=034dc8cb-2c78-41fe-aaa1-ea8853881365","ios":"levelo://app?vid=034dc8cb-2c78-41fe-aaa1-ea8853881365"},"vehicle_type_id":"4","last_reported":1715537388,"current_range_meters":3600,"station_id":"ce4bh392rcd13ifvqdl0","pricing_plan_id":"cebpf4jnsgd1na2vs0mg"},{"bike_id":"520e972c-0f08-4f2e-b5dd-b7ee1ed552e9","system_id":"levelo_inurba_marseille","lat":43.298764,"lon":5.388973,"is_reserved":false,"is_disabled":false,"rental_uris":{"android":"levelo://app?vid=520e972c-0f08-4f2e-b5dd-b7ee1ed552e9","ios":"levelo://app?vid=520e972c-0f08-4f2e-b5dd-b7ee1ed552e9"},"vehicle_type_id":"4","last_reported":1715537388,"current_range_meters":5600,"station_id":"ce4bh392rcd13ifvqdl0","pricing_plan_id":"cebpf4jnsgd1na2vs0mg"},{"bike_id":"3ab60572-abe4-488d-8f3d-b7136adb3fdf","system_id":"levelo_inurba_marseille","lat":43.298764,"lon":5.388973,"is_reserved":false,"is_disabled":false,"rental_uris":{"android":"levelo://app?vid=3ab60572-abe4-488d-8f3d-b7136adb3fdf","ios":"levelo://app?vid=3ab60572-abe4-488d-8f3d-b7136adb3fdf"},"vehicle_type_id":"4","last_reported":1715537388,"current_range_meters":7600,"station_id":"ce4bh392rcd13ifvqdl0","pricing_plan_id":"cebpf4jnsgd1na2vs0mg"},{"bike_id":"0386a323-38a3-45a2-b41a-420d0c2f4cb0","system_id":"levelo_inurba_marseille","lat":43.291671,"lon":5.371575,"is_reserved":false,"is_disabled":false,"rental_uris":{"android":"levelo://app?vid=0386a323-38a3-45a2-b41a-420d0c2f4cb0","ios":"levelo://app?vid=0386a323-38a3-45a2-b41a-420d0c2f4cb0"},"vehicle_type_id":"4","last_reported":1715537388,"current_range_meters":0,"station_id":"ce4bha92rcd13ifvqeh0","pricing_plan_id":"cebpf4jnsgd1na2vs0mg"},{"bike_id":"3a727631-06cf-49c0-9d6a-706a07323f31","system_id":"levelo_inurba_marseille","lat":43.298687,"lon":5.389036,"is_reserved":false,"is_disabled":false,"rental_uris":{"android":"levelo://app?vid=3a727631-06cf-49c0-9d6a-706a07323f31","ios":"levelo://app?vid=3a727631-06cf-49c0-9d6a-706a07323f31"},"vehicle_type_id":"4","last_reported":1715537388,"current_range_meters":10800,"station_id":"ce4bh392rcd13ifvqdl0","pricing_plan_id":"cebpf4jnsgd1na2vs0mg"},{"bike_id":"724d7077-74fa-425d-b5a7-cd6a95b9e75e","system_id":"levelo_inurba_marseille","lat":43.298764,"lon":5.388973,"is_reserved":false,"is_disabled":false,"rental_uris":{"android":"levelo://app?vid=724d7077-74fa-425d-b5a7-cd6a95b9e75e","ios":"levelo://app?vid=724d7077-74fa-425d-b5a7-cd6a95b9e75e"},"vehicle_type_id":"4","last_reported":1715537388,"current_range_meters":7600,"station_id":"ce4bh392rcd13ifvqdl0","pricing_plan_id":"cebpf4jnsgd1na2vs0mg"},{"bike_id":"63362b1a-a0aa-48e0-adaa-8a62d3b830da","system_id":"levelo_inurba_marseille","lat":43.29878,"lon":5.38917,"is_reserved":false,"is_disabled":false,"rental_uris":{"android":"levelo://app?vid=63362b1a-a0aa-48e0-adaa-8a62d3b830da","ios":"levelo://app?vid=63362b1a-a0aa-48e0-adaa-8a62d3b830da"},"vehicle_type_id":"4","last_reported":1715537388,"current_range_meters":3200,"station_id":"ce4bh392rcd13ifvqdl0","pricing_plan_id":"cebpf4jnsgd1na2vs0mg"},{"bike_id":"c3fdc740-9757-4d72-9efd-7c3aca80fa24","system_id":"levelo_inurba_marseille","lat":43.291671,"lon":5.371575,"is_reserved":false,"is_disabled":false,"rental_uris":{"android":"levelo://app?vid=c3fdc740-9757-4d72-9efd-7c3aca80fa24","ios":"levelo://app?vid=c3fdc740-9757-4d72-9efd-7c3aca80fa24"},"vehicle_type_id":"4","last_reported":1715537388,"current_range_meters":21600,"station_id":"ce4bha92rcd13ifvqeh0","pricing_plan_id":"cebpf4jnsgd1na2vs0mg"},{"bike_id":"178732f3-32f0-4f6e-bed8-c86a222256c3","system_id":"levelo_inurba_marseille","lat":43.298764,"lon":5.388973,"is_reserved":false,"is_disabled":false,"rental_uris":{"android":"levelo://app?vid=178732f3-32f0-4f6e-bed8-c86a222256c3","ios":"levelo://app?vid=178732f3-32f0-4f6e-bed8-c86a222256c3"},"vehicle_type_id":"4","last_reported":1715537388,"current_range_meters":0,"station_id":"ce4bh392rcd13ifvqdl0","pricing_plan_id":"cebpf4jnsgd1na2vs0mg"},{"bike_id":"03561fda-f6d1-471f-8c42-2787bc96423d","system_id":"levelo_inurba_marseille","lat":43.292005,"lon":5.357875,"is_reserved":false,"is_disabled":false,"rental_uris":{"android":"levelo://app?vid=03561fda-f6d1-471f-8c42-2787bc96423d","ios":"levelo://app?vid=03561fda-f6d1-471f-8c42-2787bc96423d"},"vehicle_type_id":"4","last_reported":1715537388,"current_range_meters":7200,"station_id":"ce4bhb12rcd13ifvqel0","pricing_plan_id":"cebpf4jnsgd1na2vs0mg"},{"bike_id":"90694e18-c19e-4f08-8444-96f61dd6a780","system_id":"levelo_inurba_marseille","lat":43.29191,"lon":5.35816,"is_reserved":false,"is_disabled":false,"rental_uris":{"android":"levelo://app?vid=90694e18-c19e-4f08-8444-96f61dd6a780","ios":"levelo://app?vid=90694e18-c19e-4f08-8444-96f61dd6a780"},"vehicle_type_id":"4","last_reported":1715537388,"current_range_meters":0,"station_id":"ce4bhb12rcd13ifvqel0","pricing_plan_id":"cebpf4jnsgd1na2vs0mg"},{"bike_id":"a63dc28d-1db8-4ac4-8b6c-6273bbc80867","system_id":"levelo_inurba_marseille","lat":43.313291,"lon":5.396838,"is_reserved":false,"is_disabled":false,"rental_uris":{"android":"levelo://app?vid=a63dc28d-1db8-4ac4-8b6c-6273bbc80867","ios":"levelo://app?vid=a63dc28d-1db8-4ac4-8b6c-6273bbc80867"},"vehicle_type_id":"4","last_reported":1715537388,"current_range_meters":1200,"station_id":"ce4bgvp2rcd13ifvqcu0","pricing_plan_id":"cebpf4jnsgd1na2vs0mg"},{"bike_id":"c99c2d4d-0244-465a-8fc9-0233344d12f4","system_id":"levelo_inurba_marseille","lat":43.309038,"lon":5.396546,"is_reserved":false,"is_disabled":false,"rental_uris":{"android":"levelo://app?vid=c99c2d4d-0244-465a-8fc9-0233344d12f4","ios":"levelo://app?vid=c99c2d4d-0244-465a-8fc9-0233344d12f4"},"vehicle_type_id":"4","last_reported":1715537388,"current_range_meters":14400,"station_id":"ce4bh012rcd13ifvqcv0","pricing_plan_id":"cebpf4jnsgd1na2vs0mg"},{"bike_id":"9fc08e7a-52c6-418b-9e0d-ae412025d286","system_id":"levelo_inurba_marseille","lat":43.309038,"lon":5.396546,"is_reserved":false,"is_disabled":false,"rental_uris":{"android":"levelo://app?vid=9fc08e7a-52c6-418b-9e0d-ae412025d286","ios":"levelo://app?vid=9fc08e7a-52c6-418b-9e0d-ae412025d286"},"vehicle_type_id":"4","last_reported":1715537388,"current_range_meters":6400,"station_id":"ce4bh012rcd13ifvqcv0","pricing_plan_id":"cebpf4jnsgd1na2vs0mg"},{"bike_id":"fcaad204-6048-44cf-8cf9-639230671171","system_id":"levelo_inurba_marseille","lat":43.313291,"lon":5.396838,"is_reserved":false,"is_disabled":false,"rental_uris":{"android":"levelo://app?vid=fcaad204-6048-44cf-8cf9-639230671171","ios":"levelo://app?vid=fcaad204-6048-44cf-8cf9-639230671171"},"vehicle_type_id":"4","last_reported":1715537388,"current_range_meters":5600,"station_id":"ce4bgvp2rcd13ifvqcu0","pricing_plan_id":"cebpf4jnsgd1na2vs0mg"},{"bike_id":"532bd0e3-ea65-4a86-9e5f-7fbc6c8772ef","system_id":"levelo_inurba_marseille","lat":43.313291,"lon":5.396838,"is_reserved":false,"is_disabled":false,"rental_uris":{"android":"levelo://app?vid=532bd0e3-ea65-4a86-9e5f-7fbc6c8772ef","ios":"levelo://app?vid=532bd0e3-ea65-4a86-9e5f-7fbc6c8772ef"},"vehicle_type_id":"4","last_reported":1715537388,"current_range_meters":22400,"station_id":"ce4bgvp2rcd13ifvqcu0","pricing_plan_id":"cebpf4jnsgd1na2vs0mg"},{"bike_id":"2c38857a-b431-403f-a5b3-a6706cd127dc","system_id":"levelo_inurba_marseille","lat":43.309038,"lon":5.396546,"is_reserved":false,"is_disabled":false,"rental_uris":{"android":"levelo://app?vid=2c38857a-b431-403f-a5b3-a6706cd127dc","ios":"levelo://app?vid=2c38857a-b431-403f-a5b3-a6706cd127dc"},"vehicle_type_id":"4","last_reported":1715537388,"current_range_meters":9600,"station_id":"ce4bh012rcd13ifvqcv0","pricing_plan_id":"cebpf4jnsgd1na2vs0mg"},{"bike_id":"04156400-aa62-4692-9282-baddba181b00","system_id":"levelo_inurba_marseille","lat":43.29547,"lon":5.38545,"is_reserved":false,"is_disabled":false,"rental_uris":{"android":"levelo://app?vid=04156400-aa62-4692-9282-baddba181b00","ios":"levelo://app?vid=04156400-aa62-4692-9282-baddba181b00"},"vehicle_type_id":"4","last_reported":1715537388,"current_range_meters":0,"station_id":"ce4bgih2rcd13ifvqba0","pricing_plan_id":"cebpf4jnsgd1na2vs0mg"},{"bike_id":"8e172bb5-bf33-48bd-ba9f-213add357df3","system_id":"levelo_inurba_marseille","lat":43.29538,"lon":5.38538,"is_reserved":false,"is_disabled":false,"rental_uris":{"android":"levelo://app?vid=8e172bb5-bf33-48bd-ba9f-213add357df3","ios":"levelo://app?vid=8e172bb5-bf33-48bd-ba9f-213add357df3"},"vehicle_type_id":"4","last_reported":1715537388,"current_range_meters":0,"station_id":"ce4bgih2rcd13ifvqba0","pricing_plan_id":"cebpf4jnsgd1na2vs0mg"},{"bike_id":"5807ddaf-a406-4bd5-8f16-c8f7b338a9f2","system_id":"levelo_inurba_marseille","lat":43.29529,"lon":5.385581,"is_reserved":false,"is_disabled":false,"rental_uris":{"android":"levelo://app?vid=5807ddaf-a406-4bd5-8f16-c8f7b338a9f2","ios":"levelo://app?vid=5807ddaf-a406-4bd5-8f16-c8f7b338a9f2"},"vehicle_type_id":"4","last_reported":1715537388,"current_range_meters":6000,"station_id":"ce4bgih2rcd13ifvqba0","pricing_plan_id":"cebpf4jnsgd1na2vs0mg"},{"bike_id":"675b92d5-08bc-429c-919b-7bea66b01037","system_id":"levelo_inurba_marseille","lat":43.29529,"lon":5.385581,"is_reserved":false,"is_disabled":false,"rental_uris":{"android":"levelo://app?vid=675b92d5-08bc-429c-919b-7bea66b01037","ios":"levelo://app?vid=675b92d5-08bc-429c-919b-7bea66b01037"},"vehicle_type_id":"4","last_reported":1715537388,"current_range_meters":10000,"station_id":"ce4bgih2rcd13ifvqba0","pricing_plan_id":"cebpf4jnsgd1na2vs0mg"},{"bike_id":"6c955fb3-7a5c-43bc-bcee-6ca41967bcd1","system_id":"levelo_inurba_marseille","lat":43.309038,"lon":5.396546,"is_reserved":false,"is_disabled":false,"rental_uris":{"android":"levelo://app?vid=6c955fb3-7a5c-43bc-bcee-6ca41967bcd1","ios":"levelo://app?vid=6c955fb3-7a5c-43bc-bcee-6ca41967bcd1"},"vehicle_type_id":"4","last_reported":1715537388,"current_range_meters":8000,"station_id":"ce4bh012rcd13ifvqcv0","pricing_plan_id":"cebpf4jnsgd1na2vs0mg"},{"bike_id":"f80714fa-a520-4a22-aae6-62cb564a63e6","system_id":"levelo_inurba_marseille","lat":43.29529,"lon":5.385581,"is_reserved":false,"is_disabled":false,"rental_uris":{"android":"levelo://app?vid=f80714fa-a520-4a22-aae6-62cb564a63e6","ios":"levelo://app?vid=f80714fa-a520-4a22-aae6-62cb564a63e6"},"vehicle_type_id":"4","last_reported":1715537388,"current_range_meters":18000,"station_id":"ce4bgih2rcd13ifvqba0","pricing_plan_id":"cebpf4jnsgd1na2vs0mg"},{"bike_id":"e07a4d46-f402-4fc9-97a0-d55f228958ab","system_id":"levelo_inurba_marseille","lat":43.29529,"lon":5.385581,"is_reserved":false,"is_disabled":false,"rental_uris":{"android":"levelo://app?vid=e07a4d46-f402-4fc9-97a0-d55f228958ab","ios":"levelo://app?vid=e07a4d46-f402-4fc9-97a0-d55f228958ab"},"vehicle_type_id":"4","last_reported":1715537388,"current_range_meters":19200,"station_id":"ce4bgih2rcd13ifvqba0","pricing_plan_id":"cebpf4jnsgd1na2vs0mg"},{"bike_id":"c19d06f7-fa6d-4d70-a052-416137f8ebc8","system_id":"levelo_inurba_marseille","lat":43.29529,"lon":5.385581,"is_reserved":false,"is_disabled":false,"rental_uris":{"android":"levelo://app?vid=c19d06f7-fa6d-4d70-a052-416137f8ebc8","ios":"levelo://app?vid=c19d06f7-fa6d-4d70-a052-416137f8ebc8"},"vehicle_type_id":"4","last_reported":1715537388,"current_range_meters":9200,"station_id":"ce4bgih2rcd13ifvqba0","pricing_plan_id":"cebpf4jnsgd1na2vs0mg"},{"bike_id":"065aa324-77ef-4ef7-9c95-899fd6eeb009","system_id":"levelo_inurba_marseille","lat":43.29529,"lon":5.385581,"is_reserved":false,"is_disabled":false,"rental_uris":{"android":"levelo://app?vid=065aa324-77ef-4ef7-9c95-899fd6eeb009","ios":"levelo://app?vid=065aa324-77ef-4ef7-9c95-899fd6eeb009"},"vehicle_type_id":"4","last_reported":1715537388,"current_range_meters":19600,"station_id":"ce4bgih2rcd13ifvqba0","pricing_plan_id":"cebpf4jnsgd1na2vs0mg"},{"bike_id":"95e89890-4043-4390-b7d3-d6673a25544f","system_id":"levelo_inurba_marseille","lat":43.29529,"lon":5.385581,"is_reserved":false,"is_disabled":false,"rental_uris":{"android":"levelo://app?vid=95e89890-4043-4390-b7d3-d6673a25544f","ios":"levelo://app?vid=95e89890-4043-4390-b7d3-d6673a25544f"},"vehicle_type_id":"4","last_reported":1715537388,"current_range_meters":8800,"station_id":"ce4bgih2rcd13ifvqba0","pricing_plan_id":"cebpf4jnsgd1na2vs0mg"},{"bike_id":"7e0124e4-68a7-4571-9924-9240f49eefb9","system_id":"levelo_inurba_marseille","lat":43.29529,"lon":5.385581,"is_reserved":false,"is_disabled":false,"rental_uris":{"android":"levelo://app?vid=7e0124e4-68a7-4571-9924-9240f49eefb9","ios":"levelo://app?vid=7e0124e4-68a7-4571-9924-9240f49eefb9"},"vehicle_type_id":"4","last_reported":1715537388,"current_range_meters":2800,"station_id":"ce4bgih2rcd13ifvqba0","pricing_plan_id":"cebpf4jnsgd1na2vs0mg"},{"bike_id":"f44b9fce-9488-4f40-95f9-79eb282e11b4","system_id":"levelo_inurba_marseille","lat":43.29529,"lon":5.385581,"is_reserved":false,"is_disabled":false,"rental_uris":{"android":"levelo://app?vid=f44b9fce-9488-4f40-95f9-79eb282e11b4","ios":"levelo://app?vid=f44b9fce-9488-4f40-95f9-79eb282e11b4"},"vehicle_type_id":"4","last_reported":1715537388,"current_range_meters":7600,"station_id":"ce4bgih2rcd13ifvqba0","pricing_plan_id":"cebpf4jnsgd1na2vs0mg"},{"bike_id":"1714c904-fbab-4288-8a35-65a23699f59f","system_id":"levelo_inurba_marseille","lat":43.290779,"lon":5.371482,"is_reserved":false,"is_disabled":false,"rental_uris":{"android":"levelo://app?vid=1714c904-fbab-4288-8a35-65a23699f59f","ios":"levelo://app?vid=1714c904-fbab-4288-8a35-65a23699f59f"},"vehicle_type_id":"4","last_reported":1715537388,"current_range_meters":12400,"station_id":"ce4bh5p2rcd13ifvqe4g","pricing_plan_id":"cebpf4jnsgd1na2vs0mg"},{"bike_id":"26b15ca7-e96b-4305-8d60-7d28c741769b","system_id":"levelo_inurba_marseille","lat":43.290779,"lon":5.371482,"is_reserved":false,"is_disabled":false,"rental_uris":{"android":"levelo://app?vid=26b15ca7-e96b-4305-8d60-7d28c741769b","ios":"levelo://app?vid=26b15ca7-e96b-4305-8d60-7d28c741769b"},"vehicle_type_id":"4","last_reported":1715537388,"current_range_meters":26800,"station_id":"ce4bh5p2rcd13ifvqe4g","pricing_plan_id":"cebpf4jnsgd1na2vs0mg"},{"bike_id":"595720aa-8cc8-42fb-81db-0ee00d3675b9","system_id":"levelo_inurba_marseille","lat":43.294153,"lon":5.386305,"is_reserved":false,"is_disabled":false,"rental_uris":{"android":"levelo://app?vid=595720aa-8cc8-42fb-81db-0ee00d3675b9","ios":"levelo://app?vid=595720aa-8cc8-42fb-81db-0ee00d3675b9"},"vehicle_type_id":"4","last_reported":1715537388,"current_range_meters":22000,"station_id":"ce4bh2h2rcd13ifvqdh0","pricing_plan_id":"cebpf4jnsgd1na2vs0mg"},{"bike_id":"43f2d971-e2e2-4186-a254-f01eb5dfb440","system_id":"levelo_inurba_marseille","lat":43.294153,"lon":5.386305,"is_reserved":false,"is_disabled":false,"rental_uris":{"android":"levelo://app?vid=43f2d971-e2e2-4186-a254-f01eb5dfb440","ios":"levelo://app?vid=43f2d971-e2e2-4186-a254-f01eb5dfb440"},"vehicle_type_id":"4","last_reported":1715537388,"current_range_meters":13600,"station_id":"ce4bh2h2rcd13ifvqdh0","pricing_plan_id":"cebpf4jnsgd1na2vs0mg"},{"bike_id":"b6676c02-ab54-473e-afa0-4c0b01319d8c","system_id":"levelo_inurba_marseille","lat":43.292642,"lon":5.384254,"is_reserved":false,"is_disabled":false,"rental_uris":{"android":"levelo://app?vid=b6676c02-ab54-473e-afa0-4c0b01319d8c","ios":"levelo://app?vid=b6676c02-ab54-473e-afa0-4c0b01319d8c"},"vehicle_type_id":"4","last_reported":1715537388,"current_range_meters":800,"station_id":"ce4bh692rcd13ifvqea0","pricing_plan_id":"cebpf4jnsgd1na2vs0mg"},{"bike_id":"d452e731-6d68-419a-8883-303a70731fc4","system_id":"levelo_inurba_marseille","lat":43.294153,"lon":5.386305,"is_reserved":false,"is_disabled":false,"rental_uris":{"android":"levelo://app?vid=d452e731-6d68-419a-8883-303a70731fc4","ios":"levelo://app?vid=d452e731-6d68-419a-8883-303a70731fc4"},"vehicle_type_id":"4","last_reported":1715537388,"current_range_meters":1600,"station_id":"ce4bh2h2rcd13ifvqdh0","pricing_plan_id":"cebpf4jnsgd1na2vs0mg"},{"bike_id":"0117513f-428f-4dfe-af4c-06ff9ed2b171","system_id":"levelo_inurba_marseille","lat":43.29422,"lon":5.38628,"is_reserved":false,"is_disabled":false,"rental_uris":{"android":"levelo://app?vid=0117513f-428f-4dfe-af4c-06ff9ed2b171","ios":"levelo://app?vid=0117513f-428f-4dfe-af4c-06ff9ed2b171"},"vehicle_type_id":"4","last_reported":1715537388,"current_range_meters":7200,"station_id":"ce4bh2h2rcd13ifvqdh0","pricing_plan_id":"cebpf4jnsgd1na2vs0mg"},{"bike_id":"66d5b7fb-cdd5-4ffb-8990-42369e189bad","system_id":"levelo_inurba_marseille","lat":43.294153,"lon":5.386305,"is_reserved":false,"is_disabled":false,"rental_uris":{"android":"levelo://app?vid=66d5b7fb-cdd5-4ffb-8990-42369e189bad","ios":"levelo://app?vid=66d5b7fb-cdd5-4ffb-8990-42369e189bad"},"vehicle_type_id":"4","last_reported":1715537388,"current_range_meters":28000,"station_id":"ce4bh2h2rcd13ifvqdh0","pricing_plan_id":"cebpf4jnsgd1na2vs0mg"},{"bike_id":"8f0f7f6b-5c02-4868-8389-1dd64c443d3b","system_id":"levelo_inurba_marseille","lat":43.29419,"lon":5.38626,"is_reserved":false,"is_disabled":false,"rental_uris":{"android":"levelo://app?vid=8f0f7f6b-5c02-4868-8389-1dd64c443d3b","ios":"levelo://app?vid=8f0f7f6b-5c02-4868-8389-1dd64c443d3b"},"vehicle_type_id":"4","last_reported":1715537388,"current_range_meters":0,"station_id":"ce4bh2h2rcd13ifvqdh0","pricing_plan_id":"cebpf4jnsgd1na2vs0mg"},{"bike_id":"608e5e22-62d8-4b14-8ac0-934a3f05afe7","system_id":"levelo_inurba_marseille","lat":43.289444,"lon":5.366501,"is_reserved":false,"is_disabled":false,"rental_uris":{"android":"levelo://app?vid=608e5e22-62d8-4b14-8ac0-934a3f05afe7","ios":"levelo://app?vid=608e5e22-62d8-4b14-8ac0-934a3f05afe7"},"vehicle_type_id":"4","last_reported":1715537388,"current_range_meters":17600,"station_id":"","pricing_plan_id":"cebpf4jnsgd1na2vs0mg"},{"bike_id":"1fc422bc-1d38-49b6-9d73-f7a7c5d3a0e6","system_id":"levelo_inurba_marseille","lat":43.289184,"lon":5.366408,"is_reserved":false,"is_disabled":false,"rental_uris":{"android":"levelo://app?vid=1fc422bc-1d38-49b6-9d73-f7a7c5d3a0e6","ios":"levelo://app?vid=1fc422bc-1d38-49b6-9d73-f7a7c5d3a0e6"},"vehicle_type_id":"4","last_reported":1715537388,"current_range_meters":1200,"station_id":"ce4bhap2rcd13ifvqek0","pricing_plan_id":"cebpf4jnsgd1na2vs0mg"},{"bike_id":"ee67a68b-ff08-4e86-aa87-92a6fcde239e","system_id":"levelo_inurba_marseille","lat":43.289184,"lon":5.366408,"is_reserved":false,"is_disabled":false,"rental_uris":{"android":"levelo://app?vid=ee67a68b-ff08-4e86-aa87-92a6fcde239e","ios":"levelo://app?vid=ee67a68b-ff08-4e86-aa87-92a6fcde239e"},"vehicle_type_id":"4","last_reported":1715537388,"current_range_meters":8400,"station_id":"ce4bhap2rcd13ifvqek0","pricing_plan_id":"cebpf4jnsgd1na2vs0mg"},{"bike_id":"bd3f827b-0e68-4d70-9437-bd14a28729bb","system_id":"levelo_inurba_marseille","lat":43.289184,"lon":5.366408,"is_reserved":false,"is_disabled":false,"rental_uris":{"android":"levelo://app?vid=bd3f827b-0e68-4d70-9437-bd14a28729bb","ios":"levelo://app?vid=bd3f827b-0e68-4d70-9437-bd14a28729bb"},"vehicle_type_id":"4","last_reported":1715537388,"current_range_meters":18800,"station_id":"ce4bhap2rcd13ifvqek0","pricing_plan_id":"cebpf4jnsgd1na2vs0mg"},{"bike_id":"00c73e74-95f4-4b59-a8ea-4929a5be5c14","system_id":"levelo_inurba_marseille","lat":43.28934,"lon":5.364,"is_reserved":false,"is_disabled":false,"rental_uris":{"android":"levelo://app?vid=00c73e74-95f4-4b59-a8ea-4929a5be5c14","ios":"levelo://app?vid=00c73e74-95f4-4b59-a8ea-4929a5be5c14"},"vehicle_type_id":"4","last_reported":1715537388,"current_range_meters":0,"station_id":"ce4bhc92rcd13ifvqetg","pricing_plan_id":"cebpf4jnsgd1na2vs0mg"},{"bike_id":"8d908230-fc75-4e56-9f33-1acc6bd897f2","system_id":"levelo_inurba_marseille","lat":43.2907,"lon":5.355654,"is_reserved":false,"is_disabled":false,"rental_uris":{"android":"levelo://app?vid=8d908230-fc75-4e56-9f33-1acc6bd897f2","ios":"levelo://app?vid=8d908230-fc75-4e56-9f33-1acc6bd897f2"},"vehicle_type_id":"4","last_reported":1715537388,"current_range_meters":21200,"station_id":"ce4bhb92rcd13ifvqen0","pricing_plan_id":"cebpf4jnsgd1na2vs0mg"},{"bike_id":"cf08bd9c-9911-4ae1-b584-dd25f218e08a","system_id":"levelo_inurba_marseille","lat":43.292642,"lon":5.384254,"is_reserved":false,"is_disabled":false,"rental_uris":{"android":"levelo://app?vid=cf08bd9c-9911-4ae1-b584-dd25f218e08a","ios":"levelo://app?vid=cf08bd9c-9911-4ae1-b584-dd25f218e08a"},"vehicle_type_id":"4","last_reported":1715537388,"current_range_meters":5200,"station_id":"ce4bh692rcd13ifvqea0","pricing_plan_id":"cebpf4jnsgd1na2vs0mg"},{"bike_id":"5f49296c-7b2b-4875-84f5-de7658b48170","system_id":"levelo_inurba_marseille","lat":43.292642,"lon":5.384254,"is_reserved":false,"is_disabled":false,"rental_uris":{"android":"levelo://app?vid=5f49296c-7b2b-4875-84f5-de7658b48170","ios":"levelo://app?vid=5f49296c-7b2b-4875-84f5-de7658b48170"},"vehicle_type_id":"4","last_reported":1715537388,"current_range_meters":7200,"station_id":"ce4bh692rcd13ifvqea0","pricing_plan_id":"cebpf4jnsgd1na2vs0mg"},{"bike_id":"3047f5e7-a7c3-4655-bc10-347a1fee3fa3","system_id":"levelo_inurba_marseille","lat":43.292644,"lon":5.384257,"is_reserved":false,"is_disabled":false,"rental_uris":{"android":"levelo://app?vid=3047f5e7-a7c3-4655-bc10-347a1fee3fa3","ios":"levelo://app?vid=3047f5e7-a7c3-4655-bc10-347a1fee3fa3"},"vehicle_type_id":"4","last_reported":1715537388,"current_range_meters":0,"station_id":"ce4bh692rcd13ifvqea0","pricing_plan_id":"cebpf4jnsgd1na2vs0mg"},{"bike_id":"8c6a0e3e-f3b5-4f00-8cdb-d0d5855b7447","system_id":"levelo_inurba_marseille","lat":43.29263,"lon":5.38424,"is_reserved":false,"is_disabled":false,"rental_uris":{"android":"levelo://app?vid=8c6a0e3e-f3b5-4f00-8cdb-d0d5855b7447","ios":"levelo://app?vid=8c6a0e3e-f3b5-4f00-8cdb-d0d5855b7447"},"vehicle_type_id":"4","last_reported":1715537388,"current_range_meters":0,"station_id":"ce4bh692rcd13ifvqea0","pricing_plan_id":"cebpf4jnsgd1na2vs0mg"},{"bike_id":"55ab7469-0563-4b73-b3b1-85cc2c5fe6aa","system_id":"levelo_inurba_marseille","lat":43.292642,"lon":5.384254,"is_reserved":false,"is_disabled":false,"rental_uris":{"android":"levelo://app?vid=55ab7469-0563-4b73-b3b1-85cc2c5fe6aa","ios":"levelo://app?vid=55ab7469-0563-4b73-b3b1-85cc2c5fe6aa"},"vehicle_type_id":"4","last_reported":1715537388,"current_range_meters":16800,"station_id":"ce4bh692rcd13ifvqea0","pricing_plan_id":"cebpf4jnsgd1na2vs0mg"},{"bike_id":"7c0fc3a0-a06c-471c-b8a9-215c3239ac61","system_id":"levelo_inurba_marseille","lat":43.292642,"lon":5.384254,"is_reserved":false,"is_disabled":false,"rental_uris":{"android":"levelo://app?vid=7c0fc3a0-a06c-471c-b8a9-215c3239ac61","ios":"levelo://app?vid=7c0fc3a0-a06c-471c-b8a9-215c3239ac61"},"vehicle_type_id":"4","last_reported":1715537388,"current_range_meters":26000,"station_id":"ce4bh692rcd13ifvqea0","pricing_plan_id":"cebpf4jnsgd1na2vs0mg"},{"bike_id":"a2d28565-225c-489f-ae45-64fa7f9611a3","system_id":"levelo_inurba_marseille","lat":43.292644,"lon":5.384257,"is_reserved":false,"is_disabled":false,"rental_uris":{"android":"levelo://app?vid=a2d28565-225c-489f-ae45-64fa7f9611a3","ios":"levelo://app?vid=a2d28565-225c-489f-ae45-64fa7f9611a3"},"vehicle_type_id":"4","last_reported":1715537388,"current_range_meters":13200,"station_id":"ce4bh692rcd13ifvqea0","pricing_plan_id":"cebpf4jnsgd1na2vs0mg"},{"bike_id":"b0e7bd4a-0735-4a1b-adcd-cfeabf84cc25","system_id":"levelo_inurba_marseille","lat":43.304274,"lon":5.397513,"is_reserved":false,"is_disabled":false,"rental_uris":{"android":"levelo://app?vid=b0e7bd4a-0735-4a1b-adcd-cfeabf84cc25","ios":"levelo://app?vid=b0e7bd4a-0735-4a1b-adcd-cfeabf84cc25"},"vehicle_type_id":"4","last_reported":1715537388,"current_range_meters":0,"station_id":"ce4bh092rcd13ifvqd20","pricing_plan_id":"cebpf4jnsgd1na2vs0mg"},{"bike_id":"5ae01cca-8224-4761-b49b-42c719047912","system_id":"levelo_inurba_marseille","lat":43.304274,"lon":5.397513,"is_reserved":false,"is_disabled":false,"rental_uris":{"android":"levelo://app?vid=5ae01cca-8224-4761-b49b-42c719047912","ios":"levelo://app?vid=5ae01cca-8224-4761-b49b-42c719047912"},"vehicle_type_id":"4","last_reported":1715537388,"current_range_meters":22800,"station_id":"ce4bh092rcd13ifvqd20","pricing_plan_id":"cebpf4jnsgd1na2vs0mg"},{"bike_id":"04a2b52f-8c69-4435-b04f-04c0d1b0a080","system_id":"levelo_inurba_marseille","lat":43.29263,"lon":5.38444,"is_reserved":false,"is_disabled":false,"rental_uris":{"android":"levelo://app?vid=04a2b52f-8c69-4435-b04f-04c0d1b0a080","ios":"levelo://app?vid=04a2b52f-8c69-4435-b04f-04c0d1b0a080"},"vehicle_type_id":"4","last_reported":1715537388,"current_range_meters":0,"station_id":"ce4bh692rcd13ifvqea0","pricing_plan_id":"cebpf4jnsgd1na2vs0mg"},{"bike_id":"2a68e5a1-3fb5-420d-8e50-09162f39d2d1","system_id":"levelo_inurba_marseille","lat":43.292644,"lon":5.384257,"is_reserved":false,"is_disabled":false,"rental_uris":{"android":"levelo://app?vid=2a68e5a1-3fb5-420d-8e50-09162f39d2d1","ios":"levelo://app?vid=2a68e5a1-3fb5-420d-8e50-09162f39d2d1"},"vehicle_type_id":"4","last_reported":1715537388,"current_range_meters":28000,"station_id":"ce4bh692rcd13ifvqea0","pricing_plan_id":"cebpf4jnsgd1na2vs0mg"},{"bike_id":"4c846262-fc6e-40ca-94de-4dbf5473ee5a","system_id":"levelo_inurba_marseille","lat":43.292642,"lon":5.384254,"is_reserved":false,"is_disabled":false,"rental_uris":{"android":"levelo://app?vid=4c846262-fc6e-40ca-94de-4dbf5473ee5a","ios":"levelo://app?vid=4c846262-fc6e-40ca-94de-4dbf5473ee5a"},"vehicle_type_id":"4","last_reported":1715537388,"current_range_meters":2800,"station_id":"ce4bh692rcd13ifvqea0","pricing_plan_id":"cebpf4jnsgd1na2vs0mg"},{"bike_id":"265f785b-3cb3-4341-990f-605936e13312","system_id":"levelo_inurba_marseille","lat":43.304296,"lon":5.397513,"is_reserved":false,"is_disabled":false,"rental_uris":{"android":"levelo://app?vid=265f785b-3cb3-4341-990f-605936e13312","ios":"levelo://app?vid=265f785b-3cb3-4341-990f-605936e13312"},"vehicle_type_id":"4","last_reported":1715537388,"current_range_meters":13600,"station_id":"ce4bh092rcd13ifvqd20","pricing_plan_id":"cebpf4jnsgd1na2vs0mg"},{"bike_id":"00ac186c-37f9-4ebf-9b9a-3d988af8f31d","system_id":"levelo_inurba_marseille","lat":43.304274,"lon":5.397513,"is_reserved":false,"is_disabled":false,"rental_uris":{"android":"levelo://app?vid=00ac186c-37f9-4ebf-9b9a-3d988af8f31d","ios":"levelo://app?vid=00ac186c-37f9-4ebf-9b9a-3d988af8f31d"},"vehicle_type_id":"4","last_reported":1715537388,"current_range_meters":6000,"station_id":"ce4bh092rcd13ifvqd20","pricing_plan_id":"cebpf4jnsgd1na2vs0mg"},{"bike_id":"2aefae6c-8b39-49a7-941f-3b20105153db","system_id":"levelo_inurba_marseille","lat":43.29014,"lon":5.35612,"is_reserved":false,"is_disabled":false,"rental_uris":{"android":"levelo://app?vid=2aefae6c-8b39-49a7-941f-3b20105153db","ios":"levelo://app?vid=2aefae6c-8b39-49a7-941f-3b20105153db"},"vehicle_type_id":"4","last_reported":1715537388,"current_range_meters":0,"station_id":"ce4bhb92rcd13ifvqen0","pricing_plan_id":"cebpf4jnsgd1na2vs0mg"},{"bike_id":"1d2a48d9-2fab-4941-8c46-b0eb201a6531","system_id":"levelo_inurba_marseille","lat":43.29006,"lon":5.35614,"is_reserved":false,"is_disabled":false,"rental_uris":{"android":"levelo://app?vid=1d2a48d9-2fab-4941-8c46-b0eb201a6531","ios":"levelo://app?vid=1d2a48d9-2fab-4941-8c46-b0eb201a6531"},"vehicle_type_id":"4","last_reported":1715537388,"current_range_meters":0,"station_id":"ce4bhb92rcd13ifvqen0","pricing_plan_id":"cebpf4jnsgd1na2vs0mg"},{"bike_id":"cab251fb-5ef0-490b-ad00-5ac787ff2027","system_id":"levelo_inurba_marseille","lat":43.29002,"lon":5.35615,"is_reserved":false,"is_disabled":false,"rental_uris":{"android":"levelo://app?vid=cab251fb-5ef0-490b-ad00-5ac787ff2027","ios":"levelo://app?vid=cab251fb-5ef0-490b-ad00-5ac787ff2027"},"vehicle_type_id":"4","last_reported":1715537388,"current_range_meters":0,"station_id":"ce4bhb92rcd13ifvqen0","pricing_plan_id":"cebpf4jnsgd1na2vs0mg"},{"bike_id":"c48e28b7-230d-421c-8a02-ece2f584b17a","system_id":"levelo_inurba_marseille","lat":43.29001,"lon":5.35618,"is_reserved":false,"is_disabled":false,"rental_uris":{"android":"levelo://app?vid=c48e28b7-230d-421c-8a02-ece2f584b17a","ios":"levelo://app?vid=c48e28b7-230d-421c-8a02-ece2f584b17a"},"vehicle_type_id":"4","last_reported":1715537388,"current_range_meters":0,"station_id":"ce4bhb92rcd13ifvqen0","pricing_plan_id":"cebpf4jnsgd1na2vs0mg"},{"bike_id":"da9d6c47-ae46-4ba0-b4d7-ae0c0cf1a3c0","system_id":"levelo_inurba_marseille","lat":43.28999,"lon":5.35621,"is_reserved":false,"is_disabled":false,"rental_uris":{"android":"levelo://app?vid=da9d6c47-ae46-4ba0-b4d7-ae0c0cf1a3c0","ios":"levelo://app?vid=da9d6c47-ae46-4ba0-b4d7-ae0c0cf1a3c0"},"vehicle_type_id":"4","last_reported":1715537388,"current_range_meters":10400,"station_id":"ce4bhb92rcd13ifvqen0","pricing_plan_id":"cebpf4jnsgd1na2vs0mg"},{"bike_id":"2b10070a-3acb-425e-852b-400d757ead0d","system_id":"levelo_inurba_marseille","lat":43.295169,"lon":5.390426,"is_reserved":false,"is_disabled":false,"rental_uris":{"android":"levelo://app?vid=2b10070a-3acb-425e-852b-400d757ead0d","ios":"levelo://app?vid=2b10070a-3acb-425e-852b-400d757ead0d"},"vehicle_type_id":"4","last_reported":1715537388,"current_range_meters":15600,"station_id":"ce4bh3p2rcd13ifvqdp0","pricing_plan_id":"cebpf4jnsgd1na2vs0mg"},{"bike_id":"002561b2-2645-4bb3-9cb2-3d3ebc8ab476","system_id":"levelo_inurba_marseille","lat":43.297803,"lon":5.393378,"is_reserved":false,"is_disabled":false,"rental_uris":{"android":"levelo://app?vid=002561b2-2645-4bb3-9cb2-3d3ebc8ab476","ios":"levelo://app?vid=002561b2-2645-4bb3-9cb2-3d3ebc8ab476"},"vehicle_type_id":"4","last_reported":1715537388,"current_range_meters":4400,"station_id":"chh1huq6cuj3fo74tm60","pricing_plan_id":"cebpf4jnsgd1na2vs0mg"},{"bike_id":"47ac6b1a-5f66-4d3a-9095-12d28a7f7216","system_id":"levelo_inurba_marseille","lat":43.29777,"lon":5.3934,"is_reserved":false,"is_disabled":false,"rental_uris":{"android":"levelo://app?vid=47ac6b1a-5f66-4d3a-9095-12d28a7f7216","ios":"levelo://app?vid=47ac6b1a-5f66-4d3a-9095-12d28a7f7216"},"vehicle_type_id":"4","last_reported":1715537388,"current_range_meters":0,"station_id":"chh1huq6cuj3fo74tm60","pricing_plan_id":"cebpf4jnsgd1na2vs0mg"},{"bike_id":"5127162d-9834-4daf-b582-021adab9f6e7","system_id":"levelo_inurba_marseille","lat":43.297815,"lon":5.393548,"is_reserved":false,"is_disabled":false,"rental_uris":{"android":"levelo://app?vid=5127162d-9834-4daf-b582-021adab9f6e7","ios":"levelo://app?vid=5127162d-9834-4daf-b582-021adab9f6e7"},"vehicle_type_id":"4","last_reported":1715537388,"current_range_meters":0,"station_id":"chh1huq6cuj3fo74tm60","pricing_plan_id":"cebpf4jnsgd1na2vs0mg"},{"bike_id":"7995ff14-d2e1-4dc3-906d-423fcfde8b4d","system_id":"levelo_inurba_marseille","lat":43.330442,"lon":5.389148,"is_reserved":false,"is_disabled":false,"rental_uris":{"android":"levelo://app?vid=7995ff14-d2e1-4dc3-906d-423fcfde8b4d","ios":"levelo://app?vid=7995ff14-d2e1-4dc3-906d-423fcfde8b4d"},"vehicle_type_id":"4","last_reported":1715537388,"current_range_meters":6400,"station_id":"ce4bhr92rcd13ifvqhrg","pricing_plan_id":"cebpf4jnsgd1na2vs0mg"},{"bike_id":"e6512473-b363-41a3-8a00-acef75378ba7","system_id":"levelo_inurba_marseille","lat":43.295169,"lon":5.390426,"is_reserved":false,"is_disabled":false,"rental_uris":{"android":"levelo://app?vid=e6512473-b363-41a3-8a00-acef75378ba7","ios":"levelo://app?vid=e6512473-b363-41a3-8a00-acef75378ba7"},"vehicle_type_id":"4","last_reported":1715537388,"current_range_meters":22400,"station_id":"ce4bh3p2rcd13ifvqdp0","pricing_plan_id":"cebpf4jnsgd1na2vs0mg"},{"bike_id":"e0f72dd5-4c8c-4804-a494-a724e7d6c3b3","system_id":"levelo_inurba_marseille","lat":43.28861,"lon":5.37238,"is_reserved":false,"is_disabled":false,"rental_uris":{"android":"levelo://app?vid=e0f72dd5-4c8c-4804-a494-a724e7d6c3b3","ios":"levelo://app?vid=e0f72dd5-4c8c-4804-a494-a724e7d6c3b3"},"vehicle_type_id":"4","last_reported":1715537388,"current_range_meters":15200,"station_id":"","pricing_plan_id":"cebpf4jnsgd1na2vs0mg"},{"bike_id":"fe9c1292-e2ee-4ade-883f-50d1914878c6","system_id":"levelo_inurba_marseille","lat":43.330442,"lon":5.389148,"is_reserved":false,"is_disabled":false,"rental_uris":{"android":"levelo://app?vid=fe9c1292-e2ee-4ade-883f-50d1914878c6","ios":"levelo://app?vid=fe9c1292-e2ee-4ade-883f-50d1914878c6"},"vehicle_type_id":"4","last_reported":1715537388,"current_range_meters":21600,"station_id":"ce4bhr92rcd13ifvqhrg","pricing_plan_id":"cebpf4jnsgd1na2vs0mg"},{"bike_id":"cacbba90-81be-42b9-863b-6b18899246c5","system_id":"levelo_inurba_marseille","lat":43.295169,"lon":5.390426,"is_reserved":false,"is_disabled":false,"rental_uris":{"android":"levelo://app?vid=cacbba90-81be-42b9-863b-6b18899246c5","ios":"levelo://app?vid=cacbba90-81be-42b9-863b-6b18899246c5"},"vehicle_type_id":"4","last_reported":1715537388,"current_range_meters":20800,"station_id":"ce4bh3p2rcd13ifvqdp0","pricing_plan_id":"cebpf4jnsgd1na2vs0mg"},{"bike_id":"f5bca667-983c-4199-8a77-9d63e9732643","system_id":"levelo_inurba_marseille","lat":43.28815,"lon":5.36533,"is_reserved":false,"is_disabled":false,"rental_uris":{"android":"levelo://app?vid=f5bca667-983c-4199-8a77-9d63e9732643","ios":"levelo://app?vid=f5bca667-983c-4199-8a77-9d63e9732643"},"vehicle_type_id":"4","last_reported":1715537388,"current_range_meters":400,"station_id":"","pricing_plan_id":"cebpf4jnsgd1na2vs0mg"},{"bike_id":"a6fe3be9-2ae1-42ce-9d62-911bb3dea5fa","system_id":"levelo_inurba_marseille","lat":43.28856,"lon":5.358371,"is_reserved":false,"is_disabled":false,"rental_uris":{"android":"levelo://app?vid=a6fe3be9-2ae1-42ce-9d62-911bb3dea5fa","ios":"levelo://app?vid=a6fe3be9-2ae1-42ce-9d62-911bb3dea5fa"},"vehicle_type_id":"4","last_reported":1715537388,"current_range_meters":25600,"station_id":"ce4bhb12rcd13ifvqem0","pricing_plan_id":"cebpf4jnsgd1na2vs0mg"},{"bike_id":"52667f05-bfba-4f32-bbdc-d278b1a735f9","system_id":"levelo_inurba_marseille","lat":43.312609,"lon":5.401662,"is_reserved":false,"is_disabled":false,"rental_uris":{"android":"levelo://app?vid=52667f05-bfba-4f32-bbdc-d278b1a735f9","ios":"levelo://app?vid=52667f05-bfba-4f32-bbdc-d278b1a735f9"},"vehicle_type_id":"4","last_reported":1715537388,"current_range_meters":26800,"station_id":"ce4bh092rcd13ifvqd30","pricing_plan_id":"cebpf4jnsgd1na2vs0mg"},{"bike_id":"26e4d93b-e7ff-41c7-a46e-1ef1c4c31061","system_id":"levelo_inurba_marseille","lat":43.309371,"lon":5.401449,"is_reserved":false,"is_disabled":false,"rental_uris":{"android":"levelo://app?vid=26e4d93b-e7ff-41c7-a46e-1ef1c4c31061","ios":"levelo://app?vid=26e4d93b-e7ff-41c7-a46e-1ef1c4c31061"},"vehicle_type_id":"4","last_reported":1715537388,"current_range_meters":0,"station_id":"ce4bgvp2rcd13ifvqct0","pricing_plan_id":"cebpf4jnsgd1na2vs0mg"},{"bike_id":"91d9714b-b35f-47ce-8f34-022bf351236f","system_id":"levelo_inurba_marseille","lat":43.33762,"lon":5.37436,"is_reserved":false,"is_disabled":false,"rental_uris":{"android":"levelo://app?vid=91d9714b-b35f-47ce-8f34-022bf351236f","ios":"levelo://app?vid=91d9714b-b35f-47ce-8f34-022bf351236f"},"vehicle_type_id":"4","last_reported":1715537388,"current_range_meters":20400,"station_id":"","pricing_plan_id":"cebpf4jnsgd1na2vs0mg"},{"bike_id":"f7932a42-aa5c-439b-b535-65dd8ccd41cf","system_id":"levelo_inurba_marseille","lat":43.33754,"lon":5.37489,"is_reserved":false,"is_disabled":false,"rental_uris":{"android":"levelo://app?vid=f7932a42-aa5c-439b-b535-65dd8ccd41cf","ios":"levelo://app?vid=f7932a42-aa5c-439b-b535-65dd8ccd41cf"},"vehicle_type_id":"4","last_reported":1715537388,"current_range_meters":28800,"station_id":"","pricing_plan_id":"cebpf4jnsgd1na2vs0mg"},{"bike_id":"1f69b6d2-115c-4cd4-bd4f-0a61664cbc60","system_id":"levelo_inurba_marseille","lat":43.30642,"lon":5.401031,"is_reserved":false,"is_disabled":false,"rental_uris":{"android":"levelo://app?vid=1f69b6d2-115c-4cd4-bd4f-0a61664cbc60","ios":"levelo://app?vid=1f69b6d2-115c-4cd4-bd4f-0a61664cbc60"},"vehicle_type_id":"4","last_reported":1715537388,"current_range_meters":14000,"station_id":"ce4bh112rcd13ifvqda0","pricing_plan_id":"cebpf4jnsgd1na2vs0mg"},{"bike_id":"a7ffc4ca-76c7-41fd-afb8-8da3e147e552","system_id":"levelo_inurba_marseille","lat":43.3013,"lon":5.39861,"is_reserved":false,"is_disabled":false,"rental_uris":{"android":"levelo://app?vid=a7ffc4ca-76c7-41fd-afb8-8da3e147e552","ios":"levelo://app?vid=a7ffc4ca-76c7-41fd-afb8-8da3e147e552"},"vehicle_type_id":"4","last_reported":1715537388,"current_range_meters":0,"station_id":"ce4bh0h2rcd13ifvqd40","pricing_plan_id":"cebpf4jnsgd1na2vs0mg"},{"bike_id":"91266183-f089-41f9-b680-9b6f42362c41","system_id":"levelo_inurba_marseille","lat":43.28714,"lon":5.360948,"is_reserved":false,"is_disabled":false,"rental_uris":{"android":"levelo://app?vid=91266183-f089-41f9-b680-9b6f42362c41","ios":"levelo://app?vid=91266183-f089-41f9-b680-9b6f42362c41"},"vehicle_type_id":"4","last_reported":1715537388,"current_range_meters":19600,"station_id":"","pricing_plan_id":"cebpf4jnsgd1na2vs0mg"},{"bike_id":"20b0707a-962e-4129-b363-95486c1cda3b","system_id":"levelo_inurba_marseille","lat":43.286039,"lon":5.370681,"is_reserved":false,"is_disabled":false,"rental_uris":{"android":"levelo://app?vid=20b0707a-962e-4129-b363-95486c1cda3b","ios":"levelo://app?vid=20b0707a-962e-4129-b363-95486c1cda3b"},"vehicle_type_id":"4","last_reported":1715537388,"current_range_meters":15600,"station_id":"ce4bht12rcd13ifvqi60","pricing_plan_id":"cebpf4jnsgd1na2vs0mg"},{"bike_id":"9e68bcf8-7716-44c2-8206-336776e8c16c","system_id":"levelo_inurba_marseille","lat":43.286593,"lon":5.363346,"is_reserved":false,"is_disabled":false,"rental_uris":{"android":"levelo://app?vid=9e68bcf8-7716-44c2-8206-336776e8c16c","ios":"levelo://app?vid=9e68bcf8-7716-44c2-8206-336776e8c16c"},"vehicle_type_id":"4","last_reported":1715537388,"current_range_meters":8000,"station_id":"ce4bhah2rcd13ifvqej0","pricing_plan_id":"cebpf4jnsgd1na2vs0mg"},{"bike_id":"b300c2fc-429f-4de6-a30a-34a7187b692e","system_id":"levelo_inurba_marseille","lat":43.286591,"lon":5.363346,"is_reserved":false,"is_disabled":false,"rental_uris":{"android":"levelo://app?vid=b300c2fc-429f-4de6-a30a-34a7187b692e","ios":"levelo://app?vid=b300c2fc-429f-4de6-a30a-34a7187b692e"},"vehicle_type_id":"4","last_reported":1715537388,"current_range_meters":1600,"station_id":"ce4bhah2rcd13ifvqej0","pricing_plan_id":"cebpf4jnsgd1na2vs0mg"},{"bike_id":"880ac970-1c5d-4fa0-81b4-4c0f011c2436","system_id":"levelo_inurba_marseille","lat":43.286593,"lon":5.363346,"is_reserved":false,"is_disabled":false,"rental_uris":{"android":"levelo://app?vid=880ac970-1c5d-4fa0-81b4-4c0f011c2436","ios":"levelo://app?vid=880ac970-1c5d-4fa0-81b4-4c0f011c2436"},"vehicle_type_id":"4","last_reported":1715537388,"current_range_meters":16800,"station_id":"ce4bhah2rcd13ifvqej0","pricing_plan_id":"cebpf4jnsgd1na2vs0mg"},{"bike_id":"56837cf8-268a-4c84-92a2-5c60c2c622f7","system_id":"levelo_inurba_marseille","lat":43.286593,"lon":5.363346,"is_reserved":false,"is_disabled":false,"rental_uris":{"android":"levelo://app?vid=56837cf8-268a-4c84-92a2-5c60c2c622f7","ios":"levelo://app?vid=56837cf8-268a-4c84-92a2-5c60c2c622f7"},"vehicle_type_id":"4","last_reported":1715537388,"current_range_meters":5600,"station_id":"ce4bhah2rcd13ifvqej0","pricing_plan_id":"cebpf4jnsgd1na2vs0mg"},{"bike_id":"ea9b3b68-4f7c-4efe-9ac7-70f637130e04","system_id":"levelo_inurba_marseille","lat":43.28659,"lon":5.36347,"is_reserved":false,"is_disabled":false,"rental_uris":{"android":"levelo://app?vid=ea9b3b68-4f7c-4efe-9ac7-70f637130e04","ios":"levelo://app?vid=ea9b3b68-4f7c-4efe-9ac7-70f637130e04"},"vehicle_type_id":"4","last_reported":1715537388,"current_range_meters":0,"station_id":"ce4bhah2rcd13ifvqej0","pricing_plan_id":"cebpf4jnsgd1na2vs0mg"},{"bike_id":"c3deb59b-bb72-4b6d-89b1-c35fd9852b9a","system_id":"levelo_inurba_marseille","lat":43.28692,"lon":5.37404,"is_reserved":false,"is_disabled":false,"rental_uris":{"android":"levelo://app?vid=c3deb59b-bb72-4b6d-89b1-c35fd9852b9a","ios":"levelo://app?vid=c3deb59b-bb72-4b6d-89b1-c35fd9852b9a"},"vehicle_type_id":"4","last_reported":1715537388,"current_range_meters":0,"station_id":"ce4bh3p2rcd13ifvqdq0","pricing_plan_id":"cebpf4jnsgd1na2vs0mg"},{"bike_id":"fee69ebd-02c4-4ec8-b0dd-4a290dad403e","system_id":"levelo_inurba_marseille","lat":43.29521,"lon":5.39402,"is_reserved":false,"is_disabled":false,"rental_uris":{"android":"levelo://app?vid=fee69ebd-02c4-4ec8-b0dd-4a290dad403e","ios":"levelo://app?vid=fee69ebd-02c4-4ec8-b0dd-4a290dad403e"},"vehicle_type_id":"4","last_reported":1715537388,"current_range_meters":0,"station_id":"ce4bh292rcd13ifvqdf0","pricing_plan_id":"cebpf4jnsgd1na2vs0mg"},{"bike_id":"329ff9f7-3a49-46ac-9982-1c736d4a2bec","system_id":"levelo_inurba_marseille","lat":43.295194,"lon":5.39397,"is_reserved":false,"is_disabled":false,"rental_uris":{"android":"levelo://app?vid=329ff9f7-3a49-46ac-9982-1c736d4a2bec","ios":"levelo://app?vid=329ff9f7-3a49-46ac-9982-1c736d4a2bec"},"vehicle_type_id":"4","last_reported":1715537388,"current_range_meters":0,"station_id":"ce4bh292rcd13ifvqdf0","pricing_plan_id":"cebpf4jnsgd1na2vs0mg"},{"bike_id":"c489addf-4d5a-4d71-bc70-677614fe2590","system_id":"levelo_inurba_marseille","lat":43.29516,"lon":5.394,"is_reserved":false,"is_disabled":false,"rental_uris":{"android":"levelo://app?vid=c489addf-4d5a-4d71-bc70-677614fe2590","ios":"levelo://app?vid=c489addf-4d5a-4d71-bc70-677614fe2590"},"vehicle_type_id":"4","last_reported":1715537388,"current_range_meters":0,"station_id":"ce4bh292rcd13ifvqdf0","pricing_plan_id":"cebpf4jnsgd1na2vs0mg"},{"bike_id":"fb106fe9-d4a8-4857-8f25-0b9d19f5d358","system_id":"levelo_inurba_marseille","lat":43.290345,"lon":5.38646,"is_reserved":false,"is_disabled":false,"rental_uris":{"android":"levelo://app?vid=fb106fe9-d4a8-4857-8f25-0b9d19f5d358","ios":"levelo://app?vid=fb106fe9-d4a8-4857-8f25-0b9d19f5d358"},"vehicle_type_id":"4","last_reported":1715537388,"current_range_meters":13600,"station_id":"ce4bh4p2rcd13ifvqe0g","pricing_plan_id":"cebpf4jnsgd1na2vs0mg"},{"bike_id":"6d7cd442-109b-4cd8-bcab-2e41dd3e1825","system_id":"levelo_inurba_marseille","lat":43.295196,"lon":5.39397,"is_reserved":false,"is_disabled":false,"rental_uris":{"android":"levelo://app?vid=6d7cd442-109b-4cd8-bcab-2e41dd3e1825","ios":"levelo://app?vid=6d7cd442-109b-4cd8-bcab-2e41dd3e1825"},"vehicle_type_id":"4","last_reported":1715537388,"current_range_meters":4400,"station_id":"ce4bh292rcd13ifvqdf0","pricing_plan_id":"cebpf4jnsgd1na2vs0mg"},{"bike_id":"0dd741ee-8582-4972-86fa-fbaabf0032a5","system_id":"levelo_inurba_marseille","lat":43.295194,"lon":5.39397,"is_reserved":false,"is_disabled":false,"rental_uris":{"android":"levelo://app?vid=0dd741ee-8582-4972-86fa-fbaabf0032a5","ios":"levelo://app?vid=0dd741ee-8582-4972-86fa-fbaabf0032a5"},"vehicle_type_id":"4","last_reported":1715537388,"current_range_meters":6800,"station_id":"ce4bh292rcd13ifvqdf0","pricing_plan_id":"cebpf4jnsgd1na2vs0mg"},{"bike_id":"de3ea3c3-85e1-4123-a95d-257d6ca5f4d5","system_id":"levelo_inurba_marseille","lat":43.28926,"lon":5.38399,"is_reserved":false,"is_disabled":false,"rental_uris":{"android":"levelo://app?vid=de3ea3c3-85e1-4123-a95d-257d6ca5f4d5","ios":"levelo://app?vid=de3ea3c3-85e1-4123-a95d-257d6ca5f4d5"},"vehicle_type_id":"4","last_reported":1715537388,"current_range_meters":24800,"station_id":"ce4bh612rcd13ifvqe6g","pricing_plan_id":"cebpf4jnsgd1na2vs0mg"},{"bike_id":"2b9940b9-effa-4397-9579-62f5e7233d48","system_id":"levelo_inurba_marseille","lat":43.30248,"lon":5.40062,"is_reserved":false,"is_disabled":false,"rental_uris":{"android":"levelo://app?vid=2b9940b9-effa-4397-9579-62f5e7233d48","ios":"levelo://app?vid=2b9940b9-effa-4397-9579-62f5e7233d48"},"vehicle_type_id":"4","last_reported":1715537388,"current_range_meters":0,"station_id":"ce4bgvh2rcd13ifvqcs0","pricing_plan_id":"cebpf4jnsgd1na2vs0mg"},{"bike_id":"036ec0a1-a5e4-4bdf-bfbd-c592b03b476b","system_id":"levelo_inurba_marseille","lat":43.290336,"lon":5.386425,"is_reserved":false,"is_disabled":false,"rental_uris":{"android":"levelo://app?vid=036ec0a1-a5e4-4bdf-bfbd-c592b03b476b","ios":"levelo://app?vid=036ec0a1-a5e4-4bdf-bfbd-c592b03b476b"},"vehicle_type_id":"4","last_reported":1715537388,"current_range_meters":0,"station_id":"ce4bh4p2rcd13ifvqe0g","pricing_plan_id":"cebpf4jnsgd1na2vs0mg"},