{"last_updated":1713621942,"ttl":30,"version":"2.2","data":{"bikes":[{"bike_id":"443dc0d4-90ae-4e98-9afe-cb9033b6b1ae","system_id":"levelo_inurba_marseille","lat":43.31373,"lon":5.36704,"is_reserved":false,"is_disabled":false,"rental_uris":{"android":"levelo://app?vid=443dc0d4-90ae-4e98-9afe-cb9033b6b1ae","ios":"levelo://app?vid=443dc0d4-90ae-4e98-9afe-cb9033b6b1ae"},"vehicle_type_id":"4","last_reported":1713621942,"current_range_meters":28800,"station_id":"ce4bgr92rcd13ifvqc6g","pricing_plan_id":"cebpf4jnsgd1na2vs0mg"},{"bike_id":"6f0d2635-48d6-4c4d-b612-999267b8b38d","system_id":"levelo_inurba_marseille","lat":43.309076,"lon":5.368465,"is_reserved":false,"is_disabled":false,"rental_uris":{"android":"levelo://app?vid=6f0d2635-48d6-4c4d-b612-999267b8b38d","ios":"levelo://app?vid=6f0d2635-48d6-4c4d-b612-999267b8b38d"},"vehicle_type_id":"4","last_reported":1713621942,"current_range_meters":18000,"station_id":"ce4bgn92rcd13ifvqbvg","pricing_plan_id":"cebpf4jnsgd1na2vs0mg"},{"bike_id":"ae4050db-c56a-4dbf-bc25-01ea0b58095a","system_id":"levelo_inurba_marseille","lat":43.309076,"lon":5.368465,"is_reserved":false,"is_disabled":false,"rental_uris":{"android":"levelo://app?vid=ae4050db-c56a-4dbf-bc25-01ea0b58095a","ios":"levelo://app?vid=ae4050db-c56a-4dbf-bc25-01ea0b58095a"},"vehicle_type_id":"4","last_reported":1713621942,"current_range_meters":22000,"station_id":"ce4bgn92rcd13ifvqbvg","pricing_plan_id":"cebpf4jnsgd1na2vs0mg"},{"bike_id":"26a3ddb6-a9d4-4f2e-93d9-eed9914e6edd","system_id":"levelo_inurba_marseille","lat":43.30906,"lon":5.36845,"is_reserved":false,"is_disabled":false,"rental_uris":{"android":"levelo://app?vid=26a3ddb6-a9d4-4f2e-93d9-eed9914e6edd","ios":"levelo://app?vid=26a3ddb6-a9d4-4f2e-93d9-eed9914e6edd"},"vehicle_type_id":"4","last_reported":1713621942,"current_range_meters":30400,"station_id":"ce4bgn92rcd13ifvqbvg","pricing_plan_id":"cebpf4jnsgd1na2vs0mg"},{"bike_id":"c026b6a2-030d-41b2-bfa5-4904bc45d9c7","system_id":"levelo_inurba_marseille","lat":43.309076,"lon":5.368465,"is_reserved":false,"is_disabled":false,"rental_uris":{"android":"levelo://app?vid=c026b6a2-030d-41b2-bfa5-4904bc45d9c7","ios":"levelo://app?vid=c026b6a2-030d-41b2-bfa5-4904bc45d9c7"},"vehicle_type_id":"4","last_reported":1713621942,"current_range_meters":18400,"station_id":"ce4bgn92rcd13ifvqbvg","pricing_plan_id":"cebpf4jnsgd1na2vs0mg"},{"bike_id":"3230474e-493b-4e48-af25-a98a1a8f9073","system_id":"levelo_inurba_marseille","lat":43.309076,"lon":5.368465,"is_reserved":false,"is_disabled":false,"rental_uris":{"android":"levelo://app?vid=3230474e-493b-4e48-af25-a98a1a8f9073","ios":"levelo://app?vid=3230474e-493b-4e48-af25-a98a1a8f9073"},"vehicle_type_id":"4","last_reported":1713621942,"current_range_meters":27600,"station_id":"ce4bgn92rcd13ifvqbvg","pricing_plan_id":"cebpf4jnsgd1na2vs0mg"},{"bike_id":"f715e5ce-278b-49b9-8c5c-a9113b8773bb","system_id":"levelo_inurba_marseille","lat":43.30905,"lon":5.36872,"is_reserved":false,"is_disabled":false,"rental_uris":{"android":"levelo://app?vid=f715e5ce-278b-49b9-8c5c-a9113b8773bb","ios":"levelo://app?vid=f715e5ce-278b-49b9-8c5c-a9113b8773bb"},"vehicle_type_id":"4","last_reported":1713621942,"current_range_meters":18400,"station_id":"ce4bgn92rcd13ifvqbvg","pricing_plan_id":"cebpf4jnsgd1na2vs0mg"},{"bike_id":"97eb3cb2-be34-46ea-a7fb-818f9dcaec82","system_id":"levelo_inurba_marseille","lat":43.314811,"lon":5.373104,"is_reserved":false,"is_disabled":false,"rental_uris":{"android":"levelo://app?vid=97eb3cb2-be34-46ea-a7fb-818f9dcaec82","ios":"levelo://app?vid=97eb3cb2-be34-46ea-a7fb-818f9dcaec82"},"vehicle_type_id":"4","last_reported":1713621942,"current_range_meters":9200,"station_id":"ce4bgt12rcd13ifvqcd0","pricing_plan_id":"cebpf4jnsgd1na2vs0mg"},{"bike_id":"a75245b5-b324-4550-a2e3-c3c85dd6ea0b","system_id":"levelo_inurba_marseille","lat":43.309034,"lon":5.371783,"is_reserved":false,"is_disabled":false,"rental_uris":{"android":"levelo://app?vid=a75245b5-b324-4550-a2e3-c3c85dd6ea0b","ios":"levelo://app?vid=a75245b5-b324-4550-a2e3-c3c85dd6ea0b"},"vehicle_type_id":"4","last_reported":1713621942,"current_range_meters":17600,"station_id":"ce4bguh2rcd13ifvqckg","pricing_plan_id":"cebpf4jnsgd1na2vs0mg"},{"bike_id":"2bf1e8e8-f315-4787-8fd4-e940471fd478","system_id":"levelo_inurba_marseille","lat":43.309039,"lon":5.371797,"is_reserved":false,"is_disabled":false,"rental_uris":{"android":"levelo://app?vid=2bf1e8e8-f315-4787-8fd4-e940471fd478","ios":"levelo://app?vid=2bf1e8e8-f315-4787-8fd4-e940471fd478"},"vehicle_type_id":"4","last_reported":1713621942,"current_range_meters":28400,"station_id":"ce4bguh2rcd13ifvqckg","pricing_plan_id":"cebpf4jnsgd1na2vs0mg"},{"bike_id":"8542ec9c-161b-493c-ad3e-75ea850c81a9","system_id":"levelo_inurba_marseille","lat":43.30537,"lon":5.367345,"is_reserved":false,"is_disabled":false,"rental_uris":{"android":"levelo://app?vid=8542ec9c-161b-493c-ad3e-75ea850c81a9","ios":"levelo://app?vid=8542ec9c-161b-493c-ad3e-75ea850c81a9"},"vehicle_type_id":"4","last_reported":1713621942,"current_range_meters":20400,"station_id":"ce4bgrp2rcd13ifvqc9g","pricing_plan_id":"cebpf4jnsgd1na2vs0mg"},{"bike_id":"0440e084-08f8-433e-8765-bac8ff81e14d","system_id":"levelo_inurba_marseille","lat":43.30537,"lon":5.367345,"is_reserved":false,"is_disabled":false,"rental_uris":{"android":"levelo://app?vid=0440e084-08f8-433e-8765-bac8ff81e14d","ios":"levelo://app?vid=0440e084-08f8-433e-8765-bac8ff81e14d"},"vehicle_type_id":"4","last_reported":1713621942,"current_range_meters":14800,"station_id":"ce4bgrp2rcd13ifvqc9g","pricing_plan_id":"cebpf4jnsgd1na2vs0mg"},{"bike_id":"ce27102d-bb35-4414-b0cd-fd9c56090970","system_id":"levelo_inurba_marseille","lat":43.30537,"lon":5.367345,"is_reserved":false,"is_disabled":false,"rental_uris":{"android":"levelo://app?vid=ce27102d-bb35-4414-b0cd-fd9c56090970","ios":"levelo://app?vid=ce27102d-bb35-4414-b0cd-fd9c56090970"},"vehicle_type_id":"4","last_reported":1713621942,"current_range_meters":25200,"station_id":"ce4bgrp2rcd13ifvqc9g","pricing_plan_id":"cebpf4jnsgd1na2vs0mg"},{"bike_id":"be2bd0e4-ea13-4ec2-a28b-b69dcf7ce78d","system_id":"levelo_inurba_marseille","lat":43.312239,"lon":5.368562,"is_reserved":false,"is_disabled":false,"rental_uris":{"android":"levelo://app?vid=be2bd0e4-ea13-4ec2-a28b-b69dcf7ce78d","ios":"levelo://app?vid=be2bd0e4-ea13-4ec2-a28b-b69dcf7ce78d"},"vehicle_type_id":"4","last_reported":1713621942,"current_range_meters":9200,"station_id":"ce4bgl92rcd13ifvqbq0","pricing_plan_id":"cebpf4jnsgd1na2vs0mg"},{"bike_id":"dc61272c-63bc-40d0-9e9c-3f4f0ccd3056","system_id":"levelo_inurba_marseille","lat":43.30537,"lon":5.367345,"is_reserved":false,"is_disabled":false,"rental_uris":{"android":"levelo://app?vid=dc61272c-63bc-40d0-9e9c-3f4f0ccd3056","ios":"levelo://app?vid=dc61272c-63bc-40d0-9e9c-3f4f0ccd3056"},"vehicle_type_id":"4","last_reported":1713621942,"current_range_meters":8000,"station_id":"ce4bgrp2rcd13ifvqc9g","pricing_plan_id":"cebpf4jnsgd1na2vs0mg"},{"bike_id":"7805db23-f4b0-4de9-8056-b90882284c3c","system_id":"levelo_inurba_marseille","lat":43.305712,"lon":5.365641,"is_reserved":false,"is_disabled":false,"rental_uris":{"android":"levelo://app?vid=7805db23-f4b0-4de9-8056-b90882284c3c","ios":"levelo://app?vid=7805db23-f4b0-4de9-8056-b90882284c3c"},"vehicle_type_id":"4","last_reported":1713621942,"current_range_meters":22800,"station_id":"ce4bgs12rcd13ifvqcag","pricing_plan_id":"cebpf4jnsgd1na2vs0mg"},{"bike_id":"648b6314-601a-40c0-9031-847270c7c949","system_id":"levelo_inurba_marseille","lat":43.305712,"lon":5.365641,"is_reserved":false,"is_disabled":false,"rental_uris":{"android":"levelo://app?vid=648b6314-601a-40c0-9031-847270c7c949","ios":"levelo://app?vid=648b6314-601a-40c0-9031-847270c7c949"},"vehicle_type_id":"4","last_reported":1713621942,"current_range_meters":27600,"station_id":"ce4bgs12rcd13ifvqcag","pricing_plan_id":"cebpf4jnsgd1na2vs0mg"},{"bike_id":"5dd82149-0f7c-4adf-a22b-87d3d553b25d","system_id":"levelo_inurba_marseille","lat":43.305712,"lon":5.365641,"is_reserved":false,"is_disabled":false,"rental_uris":{"android":"levelo://app?vid=5dd82149-0f7c-4adf-a22b-87d3d553b25d","ios":"levelo://app?vid=5dd82149-0f7c-4adf-a22b-87d3d553b25d"},"vehicle_type_id":"4","last_reported":1713621942,"current_range_meters":25200,"station_id":"ce4bgs12rcd13ifvqcag","pricing_plan_id":"cebpf4jnsgd1na2vs0mg"},{"bike_id":"dad06112-32e3-46cc-9d3a-8e6a04c35605","system_id":"levelo_inurba_marseille","lat":43.305714,"lon":5.365633,"is_reserved":false,"is_disabled":false,"rental_uris":{"android":"levelo://app?vid=dad06112-32e3-46cc-9d3a-8e6a04c35605","ios":"levelo://app?vid=dad06112-32e3-46cc-9d3a-8e6a04c35605"},"vehicle_type_id":"4","last_reported":1713621942,"current_range_meters":10400,"station_id":"ce4bgs12rcd13ifvqcag","pricing_plan_id":"cebpf4jnsgd1na2vs0mg"},{"bike_id":"7673c0aa-65c2-4f76-8656-d50aa439a029","system_id":"levelo_inurba_marseille","lat":43.305706,"lon":5.365654,"is_reserved":false,"is_disabled":false,"rental_uris":{"android":"levelo://app?vid=7673c0aa-65c2-4f76-8656-d50aa439a029","ios":"levelo://app?vid=7673c0aa-65c2-4f76-8656-d50aa439a029"},"vehicle_type_id":"4","last_reported":1713621942,"current_range_meters":31200,"station_id":"ce4bgs12rcd13ifvqcag","pricing_plan_id":"cebpf4jnsgd1na2vs0mg"},{"bike_id":"88087a37-d1a1-42fe-a246-4f6029791251","system_id":"levelo_inurba_marseille","lat":43.305714,"lon":5.365633,"is_reserved":false,"is_disabled":false,"rental_uris":{"android":"levelo://app?vid=88087a37-d1a1-42fe-a246-4f6029791251","ios":"levelo://app?vid=88087a37-d1a1-42fe-a246-4f6029791251"},"vehicle_type_id":"4","last_reported":1713621942,"current_range_meters":26800,"station_id":"ce4bgs12rcd13ifvqcag","pricing_plan_id":"cebpf4jnsgd1na2vs0mg"},{"bike_id":"2d7ee3f2-88c1-4f22-a68c-c78475165ace","system_id":"levelo_inurba_marseille","lat":43.305714,"lon":5.365633,"is_reserved":false,"is_disabled":false,"rental_uris":{"android":"levelo://app?vid=2d7ee3f2-88c1-4f22-a68c-c78475165ace","ios":"levelo://app?vid=2d7ee3f2-88c1-4f22-a68c-c78475165ace"},"vehicle_type_id":"4","last_reported":1713621942,"current_range_meters":31200,"station_id":"ce4bgs12rcd13ifvqcag","pricing_plan_id":"cebpf4jnsgd1na2vs0mg"},{"bike_id":"d60bdb6e-0b01-4d70-89fd-4669589b4692","system_id":"levelo_inurba_marseille","lat":43.305714,"lon":5.365633,"is_reserved":false,"is_disabled":false,"rental_uris":{"android":"levelo://app?vid=d60bdb6e-0b01-4d70-89fd-4669589b4692","ios":"levelo://app?vid=d60bdb6e-0b01-4d70-89fd-4669589b4692"},"vehicle_type_id":"4","last_reported":1713621942,"current_range_meters":16000,"station_id":"ce4bgs12rcd13ifvqcag","pricing_plan_id":"cebpf4jnsgd1na2vs0mg"},{"bike_id":"b0ba4f40-b226-48d8-a128-cb0af8202662","system_id":"levelo_inurba_marseille","lat":43.305714,"lon":5.365633,"is_reserved":false,"is_disabled":false,"rental_uris":{"android":"levelo://app?vid=b0ba4f40-b226-48d8-a128-cb0af8202662","ios":"levelo://app?vid=b0ba4f40-b226-48d8-a128-cb0af8202662"},"vehicle_type_id":"4","last_reported":1713621942,"current_range_meters":22400,"station_id":"ce4bgs12rcd13ifvqcag","pricing_plan_id":"cebpf4jnsgd1na2vs0mg"},{"bike_id":"aaebe751-6112-4510-a1b2-b0eacdc7ec49","system_id":"levelo_inurba_marseille","lat":43.305714,"lon":5.365633,"is_reserved":false,"is_disabled":false,"rental_uris":{"android":"levelo://app?vid=aaebe751-6112-4510-a1b2-b0eacdc7ec49","ios":"levelo://app?vid=aaebe751-6112-4510-a1b2-b0eacdc7ec49"},"vehicle_type_id":"4","last_reported":1713621942,"current_range_meters":4800,"station_id":"ce4bgs12rcd13ifvqcag","pricing_plan_id":"cebpf4jnsgd1na2vs0mg"},{"bike_id":"a92b22c8-1103-420a-bae1-d1f7c2c7a898","system_id":"levelo_inurba_marseille","lat":43.305706,"lon":5.365654,"is_reserved":false,"is_disabled":false,"rental_uris":{"android":"levelo://app?vid=a92b22c8-1103-420a-bae1-d1f7c2c7a898","ios":"levelo://app?vid=a92b22c8-1103-420a-bae1-d1f7c2c7a898"},"vehicle_type_id":"4","last_reported":1713621942,"current_range_meters":27200,"station_id":"ce4bgs12rcd13ifvqcag","pricing_plan_id":"cebpf4jnsgd1na2vs0mg"},{"bike_id":"b985ba16-c85d-432a-a001-8be102d26d3c","system_id":"levelo_inurba_marseille","lat":43.305706,"lon":5.365654,"is_reserved":false,"is_disabled":false,"rental_uris":{"android":"levelo://app?vid=b985ba16-c85d-432a-a001-8be102d26d3c","ios":"levelo://app?vid=b985ba16-c85d-432a-a001-8be102d26d3c"},"vehicle_type_id":"4","last_reported":1713621942,"current_range_meters":26800,"station_id":"ce4bgs12rcd13ifvqcag","pricing_plan_id":"cebpf4jnsgd1na2vs0mg"},{"bike_id":"343e9214-d134-4ae5-aaa3-b7d4ad564b0a","system_id":"levelo_inurba_marseille","lat":43.305714,"lon":5.365633,"is_reserved":false,"is_disabled":false,"rental_uris":{"android":"levelo://app?vid=343e9214-d134-4ae5-aaa3-b7d4ad564b0a","ios":"levelo://app?vid=343e9214-d134-4ae5-aaa3-b7d4ad564b0a"},"vehicle_type_id":"4","last_reported":1713621942,"current_range_meters":11200,"station_id":"ce4bgs12rcd13ifvqcag","pricing_plan_id":"cebpf4jnsgd1na2vs0mg"},{"bike_id":"600d8aec-2fb9-465e-90eb-60640a8bb141","system_id":"levelo_inurba_marseille","lat":43.305714,"lon":5.365633,"is_reserved":false,"is_disabled":false,"rental_uris":{"android":"levelo://app?vid=600d8aec-2fb9-465e-90eb-60640a8bb141","ios":"levelo://app?vid=600d8aec-2fb9-465e-90eb-60640a8bb141"},"vehicle_type_id":"4","last_reported":1713621942,"current_range_meters":31200,"station_id":"ce4bgs12rcd13ifvqcag","pricing_plan_id":"cebpf4jnsgd1na2vs0mg"},{"bike_id":"4c48313c-e04f-40c4-a772-a50108d70036","system_id":"levelo_inurba_marseille","lat":43.305706,"lon":5.365654,"is_reserved":false,"is_disabled":false,"rental_uris":{"android":"levelo://app?vid=4c48313c-e04f-40c4-a772-a50108d70036","ios":"levelo://app?vid=4c48313c-e04f-40c4-a772-a50108d70036"},"vehicle_type_id":"4","last_reported":1713621942,"current_range_meters":7600,"station_id":"ce4bgs12rcd13ifvqcag","pricing_plan_id":"cebpf4jnsgd1na2vs0mg"},{"bike_id":"6aa06f13-9964-4b0c-81b8-1b0ce8ca5c35","system_id":"levelo_inurba_marseille","lat":43.305714,"lon":5.365633,"is_reserved":false,"is_disabled":false,"rental_uris":{"android":"levelo://app?vid=6aa06f13-9964-4b0c-81b8-1b0ce8ca5c35","ios":"levelo://app?vid=6aa06f13-9964-4b0c-81b8-1b0ce8ca5c35"},"vehicle_type_id":"4","last_reported":1713621942,"current_range_meters":24400,"station_id":"ce4bgs12rcd13ifvqcag","pricing_plan_id":"cebpf4jnsgd1na2vs0mg"},{"bike_id":"2982bf0f-b8a8-4e17-bf6b-1b69df737a88","system_id":"levelo_inurba_marseille","lat":43.305706,"lon":5.365654,"is_reserved":false,"is_disabled":false,"rental_uris":{"android":"levelo://app?vid=2982bf0f-b8a8-4e17-bf6b-1b69df737a88","ios":"levelo://app?vid=2982bf0f-b8a8-4e17-bf6b-1b69df737a88"},"vehicle_type_id":"4","last_reported":1713621942,"current_range_meters":31200,"station_id":"ce4bgs12rcd13ifvqcag","pricing_plan_id":"cebpf4jnsgd1na2vs0mg"},{"bike_id":"8d6c5560-65cc-49ce-9289-5d200b938178","system_id":"levelo_inurba_marseille","lat":43.305706,"lon":5.365654,"is_reserved":false,"is_disabled":false,"rental_uris":{"android":"levelo://app?vid=8d6c5560-65cc-49ce-9289-5d200b938178","ios":"levelo://app?vid=8d6c5560-65cc-49ce-9289-5d200b938178"},"vehicle_type_id":"4","last_reported":1713621942,"current_range_meters":31200,"station_id":"ce4bgs12rcd13ifvqcag","pricing_plan_id":"cebpf4jnsgd1na2vs0mg"},{"bike_id":"39dad530-f66c-4586-840e-06cd864d2619","system_id":"levelo_inurba_marseille","lat":43.305706,"lon":5.365654,"is_reserved":false,"is_disabled":false,"rental_uris":{"android":"levelo://app?vid=39dad530-f66c-4586-840e-06cd864d2619","ios":"levelo://app?vid=39dad530-f66c-4586-840e-06cd864d2619"},"vehicle_type_id":"4","last_reported":1713621942,"current_range_meters":31200,"station_id":"ce4bgs12rcd13ifvqcag","pricing_plan_id":"cebpf4jnsgd1na2vs0mg"},{"bike_id":"ce96ae59-eaec-4c23-aa75-473074f9f96c","system_id":"levelo_inurba_marseille","lat":43.305714,"lon":5.365633,"is_reserved":false,"is_disabled":false,"rental_uris":{"android":"levelo://app?vid=ce96ae59-eaec-4c23-aa75-473074f9f96c","ios":"levelo://app?vid=ce96ae59-eaec-4c23-aa75-473074f9f96c"},"vehicle_type_id":"4","last_reported":1713621942,"current_range_meters":22800,"station_id":"ce4bgs12rcd13ifvqcag","pricing_plan_id":"cebpf4jnsgd1na2vs0mg"},{"bike_id":"c95cc3bf-82d5-4117-9df6-4f05132521af","system_id":"levelo_inurba_marseille","lat":43.305706,"lon":5.365654,"is_reserved":false,"is_disabled":false,"rental_uris":{"android":"levelo://app?vid=c95cc3bf-82d5-4117-9df6-4f05132521af","ios":"levelo://app?vid=c95cc3bf-82d5-4117-9df6-4f05132521af"},"vehicle_type_id":"4","last_reported":1713621942,"current_range_meters":22800,"station_id":"ce4bgs12rcd13ifvqcag","pricing_plan_id":"cebpf4jnsgd1na2vs0mg"},{"bike_id":"b7543ce8-b3fe-49ce-8195-d9c5f8d80998","system_id":"levelo_inurba_marseille","lat":43.305368,"lon":5.367343,"is_reserved":false,"is_disabled":false,"rental_uris":{"android":"levelo://app?vid=b7543ce8-b3fe-49ce-8195-d9c5f8d80998","ios":"levelo://app?vid=b7543ce8-b3fe-49ce-8195-d9c5f8d80998"},"vehicle_type_id":"4","last_reported":1713621942,"current_range_meters":800,"station_id":"ce4bgrp2rcd13ifvqc9g","pricing_plan_id":"cebpf4jnsgd1na2vs0mg"},{"bike_id":"1038c3dd-b914-4c1d-a736-9b7022700fa3","system_id":"levelo_inurba_marseille","lat":43.305706,"lon":5.365654,"is_reserved":false,"is_disabled":false,"rental_uris":{"android":"levelo://app?vid=1038c3dd-b914-4c1d-a736-9b7022700fa3","ios":"levelo://app?vid=1038c3dd-b914-4c1d-a736-9b7022700fa3"},"vehicle_type_id":"4","last_reported":1713621942,"current_range_meters":24800,"station_id":"ce4bgs12rcd13ifvqcag","pricing_plan_id":"cebpf4jnsgd1na2vs0mg"},{"bike_id":"9071654d-4dee-45c9-9239-86716b027ca3","system_id":"levelo_inurba_marseille","lat":43.305706,"lon":5.365654,"is_reserved":false,"is_disabled":false,"rental_uris":{"android":"levelo://app?vid=9071654d-4dee-45c9-9239-86716b027ca3","ios":"levelo://app?vid=9071654d-4dee-45c9-9239-86716b027ca3"},"vehicle_type_id":"4","last_reported":1713621942,"current_range_meters":23600,"station_id":"ce4bgs12rcd13ifvqcag","pricing_plan_id":"cebpf4jnsgd1na2vs0mg"},{"bike_id":"8de1ac98-cf68-482b-b78a-1ad2cd725a2c","system_id":"levelo_inurba_marseille","lat":43.311125,"lon":5.377624,"is_reserved":false,"is_disabled":false,"rental_uris":{"android":"levelo://app?vid=8de1ac98-cf68-482b-b78a-1ad2cd725a2c","ios":"levelo://app?vid=8de1ac98-cf68-482b-b78a-1ad2cd725a2c"},"vehicle_type_id":"4","last_reported":1713621942,"current_range_meters":16800,"station_id":"ce4bgt92rcd13ifvqcg0","pricing_plan_id":"cebpf4jnsgd1na2vs0mg"},{"bike_id":"d165045a-b60f-4e90-a017-f5a2d1cf4d22","system_id":"levelo_inurba_marseille","lat":43.305989,"lon":5.37225,"is_reserved":false,"is_disabled":false,"rental_uris":{"android":"levelo://app?vid=d165045a-b60f-4e90-a017-f5a2d1cf4d22","ios":"levelo://app?vid=d165045a-b60f-4e90-a017-f5a2d1cf4d22"},"vehicle_type_id":"4","last_reported":1713621942,"current_range_meters":21200,"station_id":"ce4bgqh2rcd13ifvqc4g","pricing_plan_id":"cebpf4jnsgd1na2vs0mg"},{"bike_id":"78e28dc6-f47b-4651-974f-8ea0f674244d","system_id":"levelo_inurba_marseille","lat":43.305989,"lon":5.37225,"is_reserved":false,"is_disabled":false,"rental_uris":{"android":"levelo://app?vid=78e28dc6-f47b-4651-974f-8ea0f674244d","ios":"levelo://app?vid=78e28dc6-f47b-4651-974f-8ea0f674244d"},"vehicle_type_id":"4","last_reported":1713621942,"current_range_meters":16800,"station_id":"ce4bgqh2rcd13ifvqc4g","pricing_plan_id":"cebpf4jnsgd1na2vs0mg"},{"bike_id":"50f74672-ad5d-4c46-b8ea-fc10f7c3d6ce","system_id":"levelo_inurba_marseille","lat":43.305989,"lon":5.37225,"is_reserved":false,"is_disabled":false,"rental_uris":{"android":"levelo://app?vid=50f74672-ad5d-4c46-b8ea-fc10f7c3d6ce","ios":"levelo://app?vid=50f74672-ad5d-4c46-b8ea-fc10f7c3d6ce"},"vehicle_type_id":"4","last_reported":1713621942,"current_range_meters":22800,"station_id":"ce4bgqh2rcd13ifvqc4g","pricing_plan_id":"cebpf4jnsgd1na2vs0mg"},{"bike_id":"a0d8d526-fdfe-4e49-b545-6dc7906b2c01","system_id":"levelo_inurba_marseille","lat":43.305989,"lon":5.37225,"is_reserved":false,"is_disabled":false,"rental_uris":{"android":"levelo://app?vid=a0d8d526-fdfe-4e49-b545-6dc7906b2c01","ios":"levelo://app?vid=a0d8d526-fdfe-4e49-b545-6dc7906b2c01"},"vehicle_type_id":"4","last_reported":1713621942,"current_range_meters":7600,"station_id":"ce4bgqh2rcd13ifvqc4g","pricing_plan_id":"cebpf4jnsgd1na2vs0mg"},{"bike_id":"afbcac4a-7988-4f74-a03b-dbf9b1c0c23a","system_id":"levelo_inurba_marseille","lat":43.305989,"lon":5.37225,"is_reserved":false,"is_disabled":false,"rental_uris":{"android":"levelo://app?vid=afbcac4a-7988-4f74-a03b-dbf9b1c0c23a","ios":"levelo://app?vid=afbcac4a-7988-4f74-a03b-dbf9b1c0c23a"},"vehicle_type_id":"4","last_reported":1713621942,"current_range_meters":27600,"station_id":"ce4bgqh2rcd13ifvqc4g","pricing_plan_id":"cebpf4jnsgd1na2vs0mg"},{"bike_id":"2faf38eb-b765-447f-a423-93e1be2b5d90","system_id":"levelo_inurba_marseille","lat":43.305969,"lon":5.372342,"is_reserved":false,"is_disabled":false,"rental_uris":{"android":"levelo://app?vid=2faf38eb-b765-447f-a423-93e1be2b5d90","ios":"levelo://app?vid=2faf38eb-b765-447f-a423-93e1be2b5d90"},"vehicle_type_id":"4","last_reported":1713621942,"current_range_meters":18800,"station_id":"ce4bgqh2rcd13ifvqc4g","pricing_plan_id":"cebpf4jnsgd1na2vs0mg"},{"bike_id":"9e588a17-9a27-4129-b6d9-c5da213d1c1e","system_id":"levelo_inurba_marseille","lat":43.305991,"lon":5.372397,"is_reserved":false,"is_disabled":false,"rental_uris":{"android":"levelo://app?vid=9e588a17-9a27-4129-b6d9-c5da213d1c1e","ios":"levelo://app?vid=9e588a17-9a27-4129-b6d9-c5da213d1c1e"},"vehicle_type_id":"4","last_reported":1713621942,"current_range_meters":16000,"station_id":"ce4bgqh2rcd13ifvqc4g","pricing_plan_id":"cebpf4jnsgd1na2vs0mg"},{"bike_id":"c43f5385-7cf7-487b-a64f-301a2204676a","system_id":"levelo_inurba_marseille","lat":43.305989,"lon":5.37225,"is_reserved":false,"is_disabled":false,"rental_uris":{"android":"levelo://app?vid=c43f5385-7cf7-487b-a64f-301a2204676a","ios":"levelo://app?vid=c43f5385-7cf7-487b-a64f-301a2204676a"},"vehicle_type_id":"4","last_reported":1713621942,"current_range_meters":25600,"station_id":"ce4bgqh2rcd13ifvqc4g","pricing_plan_id":"cebpf4jnsgd1na2vs0mg"},{"bike_id":"dc335d9d-028a-4c71-b6b4-a66f2636f447","system_id":"levelo_inurba_marseille","lat":43.311125,"lon":5.377624,"is_reserved":false,"is_disabled":false,"rental_uris":{"android":"levelo://app?vid=dc335d9d-028a-4c71-b6b4-a66f2636f447","ios":"levelo://app?vid=dc335d9d-028a-4c71-b6b4-a66f2636f447"},"vehicle_type_id":"4","last_reported":1713621942,"current_range_meters":13200,"station_id":"ce4bgt92rcd13ifvqcg0","pricing_plan_id":"cebpf4jnsgd1na2vs0mg"},{"bike_id":"448a72b3-7ee8-4684-a9c8-8192f9ffef39","system_id":"levelo_inurba_marseille","lat":43.311131,"lon":5.377651,"is_reserved":false,"is_disabled":false,"rental_uris":{"android":"levelo://app?vid=448a72b3-7ee8-4684-a9c8-8192f9ffef39","ios":"levelo://app?vid=448a72b3-7ee8-4684-a9c8-8192f9ffef39"},"vehicle_type_id":"4","last_reported":1713621942,"current_range_meters":8800,"station_id":"ce4bgt92rcd13ifvqcg0","pricing_plan_id":"cebpf4jnsgd1na2vs0mg"},{"bike_id":"27c52949-e43f-4fdb-97f0-1d305493d0f6","system_id":"levelo_inurba_marseille","lat":43.311125,"lon":5.377624,"is_reserved":false,"is_disabled":false,"rental_uris":{"android":"levelo://app?vid=27c52949-e43f-4fdb-97f0-1d305493d0f6","ios":"levelo://app?vid=27c52949-e43f-4fdb-97f0-1d305493d0f6"},"vehicle_type_id":"4","last_reported":1713621942,"current_range_meters":22800,"station_id":"ce4bgt92rcd13ifvqcg0","pricing_plan_id":"cebpf4jnsgd1na2vs0mg"},{"bike_id":"156bed75-88e8-4ec7-b9e3-e89b9a8d9afa","system_id":"levelo_inurba_marseille","lat":43.307945,"lon":5.376487,"is_reserved":false,"is_disabled":false,"rental_uris":{"android":"levelo://app?vid=156bed75-88e8-4ec7-b9e3-e89b9a8d9afa","ios":"levelo://app?vid=156bed75-88e8-4ec7-b9e3-e89b9a8d9afa"},"vehicle_type_id":"4","last_reported":1713621942,"current_range_meters":22400,"station_id":"ce4bgv92rcd13ifvqcq0","pricing_plan_id":"cebpf4jnsgd1na2vs0mg"},{"bike_id":"1c3e48bf-1757-4829-b32d-76438a396773","system_id":"levelo_inurba_marseille","lat":43.303046,"lon":5.368981,"is_reserved":false,"is_disabled":false,"rental_uris":{"android":"levelo://app?vid=1c3e48bf-1757-4829-b32d-76438a396773","ios":"levelo://app?vid=1c3e48bf-1757-4829-b32d-76438a396773"},"vehicle_type_id":"4","last_reported":1713621942,"current_range_meters":10400,"station_id":"ce4bgqh2rcd13ifvqc5g","pricing_plan_id":"cebpf4jnsgd1na2vs0mg"},{"bike_id":"2da39bd7-40fe-423f-85ba-5a8d02bd4bf5","system_id":"levelo_inurba_marseille","lat":43.303046,"lon":5.368981,"is_reserved":false,"is_disabled":false,"rental_uris":{"android":"levelo://app?vid=2da39bd7-40fe-423f-85ba-5a8d02bd4bf5","ios":"levelo://app?vid=2da39bd7-40fe-423f-85ba-5a8d02bd4bf5"},"vehicle_type_id":"4","last_reported":1713621942,"current_range_meters":18000,"station_id":"ce4bgqh2rcd13ifvqc5g","pricing_plan_id":"cebpf4jnsgd1na2vs0mg"},{"bike_id":"8de24ab7-5cde-46bb-a9d1-07b5a4ecf476","system_id":"levelo_inurba_marseille","lat":43.303046,"lon":5.368981,"is_reserved":false,"is_disabled":false,"rental_uris":{"android":"levelo://app?vid=8de24ab7-5cde-46bb-a9d1-07b5a4ecf476","ios":"levelo://app?vid=8de24ab7-5cde-46bb-a9d1-07b5a4ecf476"},"vehicle_type_id":"4","last_reported":1713621942,"current_range_meters":29600,"station_id":"ce4bgqh2rcd13ifvqc5g","pricing_plan_id":"cebpf4jnsgd1na2vs0mg"},{"bike_id":"0ee189c2-73d8-41e4-a078-bad3335d784f","system_id":"levelo_inurba_marseille","lat":43.303046,"lon":5.368981,"is_reserved":false,"is_disabled":false,"rental_uris":{"android":"levelo://app?vid=0ee189c2-73d8-41e4-a078-bad3335d784f","ios":"levelo://app?vid=0ee189c2-73d8-41e4-a078-bad3335d784f"},"vehicle_type_id":"4","last_reported":1713621942,"current_range_meters":23600,"station_id":"ce4bgqh2rcd13ifvqc5g","pricing_plan_id":"cebpf4jnsgd1na2vs0mg"},{"bike_id":"3cd9e7dc-f6dc-416f-b9bc-765886cd9e68","system_id":"levelo_inurba_marseille","lat":43.301939,"lon":5.366286,"is_reserved":false,"is_disabled":false,"rental_uris":{"android":"levelo://app?vid=3cd9e7dc-f6dc-416f-b9bc-765886cd9e68","ios":"levelo://app?vid=3cd9e7dc-f6dc-416f-b9bc-765886cd9e68"},"vehicle_type_id":"4","last_reported":1713621942,"current_range_meters":16800,"station_id":"ce4bgrh2rcd13ifvqc8g","pricing_plan_id":"cebpf4jnsgd1na2vs0mg"},{"bike_id":"e073393e-e193-45c0-8be7-2ff95d8a0454","system_id":"levelo_inurba_marseille","lat":43.301939,"lon":5.366286,"is_reserved":false,"is_disabled":false,"rental_uris":{"android":"levelo://app?vid=e073393e-e193-45c0-8be7-2ff95d8a0454","ios":"levelo://app?vid=e073393e-e193-45c0-8be7-2ff95d8a0454"},"vehicle_type_id":"4","last_reported":1713621942,"current_range_meters":14400,"station_id":"ce4bgrh2rcd13ifvqc8g","pricing_plan_id":"cebpf4jnsgd1na2vs0mg"},{"bike_id":"bbf93c53-1fdc-485c-aecf-c0ab680ec591","system_id":"levelo_inurba_marseille","lat":43.308012,"lon":5.381511,"is_reserved":false,"is_disabled":false,"rental_uris":{"android":"levelo://app?vid=bbf93c53-1fdc-485c-aecf-c0ab680ec591","ios":"levelo://app?vid=bbf93c53-1fdc-485c-aecf-c0ab680ec591"},"vehicle_type_id":"4","last_reported":1713621942,"current_range_meters":7600,"station_id":"ce4bgt12rcd13ifvqce0","pricing_plan_id":"cebpf4jnsgd1na2vs0mg"},{"bike_id":"fb15aa60-9f82-4dcf-bf6e-80765804bdd6","system_id":"levelo_inurba_marseille","lat":43.303046,"lon":5.368981,"is_reserved":false,"is_disabled":false,"rental_uris":{"android":"levelo://app?vid=fb15aa60-9f82-4dcf-bf6e-80765804bdd6","ios":"levelo://app?vid=fb15aa60-9f82-4dcf-bf6e-80765804bdd6"},"vehicle_type_id":"4","last_reported":1713621942,"current_range_meters":4000,"station_id":"ce4bgqh2rcd13ifvqc5g","pricing_plan_id":"cebpf4jnsgd1na2vs0mg"},{"bike_id":"af62e524-4b2a-4ed2-a1dc-2f93bcfba50d","system_id":"levelo_inurba_marseille","lat":43.308012,"lon":5.381511,"is_reserved":false,"is_disabled":false,"rental_uris":{"android":"levelo://app?vid=af62e524-4b2a-4ed2-a1dc-2f93bcfba50d","ios":"levelo://app?vid=af62e524-4b2a-4ed2-a1dc-2f93bcfba50d"},"vehicle_type_id":"4","last_reported":1713621942,"current_range_meters":31200,"station_id":"ce4bgt12rcd13ifvqce0","pricing_plan_id":"cebpf4jnsgd1na2vs0mg"},{"bike_id":"acdc925e-889c-4959-a8af-95ae2ee3531e","system_id":"levelo_inurba_marseille","lat":43.308012,"lon":5.381511,"is_reserved":false,"is_disabled":false,"rental_uris":{"android":"levelo://app?vid=acdc925e-889c-4959-a8af-95ae2ee3531e","ios":"levelo://app?vid=acdc925e-889c-4959-a8af-95ae2ee3531e"},"vehicle_type_id":"4","last_reported":1713621942,"current_range_meters":23600,"station_id":"ce4bgt12rcd13ifvqce0","pricing_plan_id":"cebpf4jnsgd1na2vs0mg"},{"bike_id":"e0edafbb-59a0-491d-9047-2536b4033a1d","system_id":"levelo_inurba_marseille","lat":43.308012,"lon":5.381511,"is_reserved":false,"is_disabled":false,"rental_uris":{"android":"levelo://app?vid=e0edafbb-59a0-491d-9047-2536b4033a1d","ios":"levelo://app?vid=e0edafbb-59a0-491d-9047-2536b4033a1d"},"vehicle_type_id":"4","last_reported":1713621942,"current_range_meters":12400,"station_id":"ce4bgt12rcd13ifvqce0","pricing_plan_id":"cebpf4jnsgd1na2vs0mg"},{"bike_id":"4bb3734a-5eb5-40a1-bd0b-2a6440a08d3d","system_id":"levelo_inurba_marseille","lat":43.30792,"lon":5.381673,"is_reserved":false,"is_disabled":false,"rental_uris":{"android":"levelo://app?vid=4bb3734a-5eb5-40a1-bd0b-2a6440a08d3d","ios":"levelo://app?vid=4bb3734a-5eb5-40a1-bd0b-2a6440a08d3d"},"vehicle_type_id":"4","last_reported":1713621942,"current_range_meters":5600,"station_id":"ce4bgt12rcd13ifvqce0","pricing_plan_id":"cebpf4jnsgd1na2vs0mg"},{"bike_id":"685711a8-2775-4fa5-8928-0794fb11d70d","system_id":"levelo_inurba_marseille","lat":43.30496,"lon":5.37912,"is_reserved":false,"is_disabled":false,"rental_uris":{"android":"levelo://app?vid=685711a8-2775-4fa5-8928-0794fb11d70d","ios":"levelo://app?vid=685711a8-2775-4fa5-8928-0794fb11d70d"},"vehicle_type_id":"4","last_reported":1713621942,"current_range_meters":31200,"station_id":"ce4bgup2rcd13ifvqcn0","pricing_plan_id":"cebpf4jnsgd1na2vs0mg"},{"bike_id":"212c32de-3e4c-4918-b697-4c52f4bf4619","system_id":"levelo_inurba_marseille","lat":43.304606,"lon":5.379026,"is_reserved":false,"is_disabled":false,"rental_uris":{"android":"levelo://app?vid=212c32de-3e4c-4918-b697-4c52f4bf4619","ios":"levelo://app?vid=212c32de-3e4c-4918-b697-4c52f4bf4619"},"vehicle_type_id":"4","last_reported":1713621942,"current_range_meters":28000,"station_id":"ce4bgup2rcd13ifvqcn0","pricing_plan_id":"cebpf4jnsgd1na2vs0mg"},{"bike_id":"22527756-99f8-4ce6-a93f-66babede68f3","system_id":"levelo_inurba_marseille","lat":43.30478,"lon":5.37901,"is_reserved":false,"is_disabled":false,"rental_uris":{"android":"levelo://app?vid=22527756-99f8-4ce6-a93f-66babede68f3","ios":"levelo://app?vid=22527756-99f8-4ce6-a93f-66babede68f3"},"vehicle_type_id":"4","last_reported":1713621942,"current_range_meters":16000,"station_id":"ce4bgup2rcd13ifvqcn0","pricing_plan_id":"cebpf4jnsgd1na2vs0mg"},{"bike_id":"0b594540-b89a-410f-87f6-c74e02317b8b","system_id":"levelo_inurba_marseille","lat":43.30477,"lon":5.37905,"is_reserved":false,"is_disabled":false,"rental_uris":{"android":"levelo://app?vid=0b594540-b89a-410f-87f6-c74e02317b8b","ios":"levelo://app?vid=0b594540-b89a-410f-87f6-c74e02317b8b"},"vehicle_type_id":"4","last_reported":1713621942,"current_range_meters":10000,"station_id":"ce4bgup2rcd13ifvqcn0","pricing_plan_id":"cebpf4jnsgd1na2vs0mg"},{"bike_id":"74b667a0-9948-4a1a-a3d6-ee0695f4a525","system_id":"levelo_inurba_marseille","lat":43.304606,"lon":5.379026,"is_reserved":false,"is_disabled":false,"rental_uris":{"android":"levelo://app?vid=74b667a0-9948-4a1a-a3d6-ee0695f4a525","ios":"levelo://app?vid=74b667a0-9948-4a1a-a3d6-ee0695f4a525"},"vehicle_type_id":"4","last_reported":1713621942,"current_range_meters":15200,"station_id":"ce4bgup2rcd13ifvqcn0","pricing_plan_id":"cebpf4jnsgd1na2vs0mg"},{"bike_id":"739b9739-43a3-46c3-8d00-db6f664a3154","system_id":"levelo_inurba_marseille","lat":43.30473,"lon":5.37902,"is_reserved":false,"is_disabled":false,"rental_uris":{"android":"levelo://app?vid=739b9739-43a3-46c3-8d00-db6f664a3154","ios":"levelo://app?vid=739b9739-43a3-46c3-8d00-db6f664a3154"},"vehicle_type_id":"4","last_reported":1713621942,"current_range_meters":30000,"station_id":"ce4bgup2rcd13ifvqcn0","pricing_plan_id":"cebpf4jnsgd1na2vs0mg"},{"bike_id":"96cd6f89-196e-4e6f-852a-83f2687a6e15","system_id":"levelo_inurba_marseille","lat":43.30468,"lon":5.379,"is_reserved":false,"is_disabled":false,"rental_uris":{"android":"levelo://app?vid=96cd6f89-196e-4e6f-852a-83f2687a6e15","ios":"levelo://app?vid=96cd6f89-196e-4e6f-852a-83f2687a6e15"},"vehicle_type_id":"4","last_reported":1713621942,"current_range_meters":22400,"station_id":"ce4bgup2rcd13ifvqcn0","pricing_plan_id":"cebpf4jnsgd1na2vs0mg"},{"bike_id":"49222fde-c63f-40bf-9b91-513bbb704e55","system_id":"levelo_inurba_marseille","lat":43.304606,"lon":5.379026,"is_reserved":false,"is_disabled":false,"rental_uris":{"android":"levelo://app?vid=49222fde-c63f-40bf-9b91-513bbb704e55","ios":"levelo://app?vid=49222fde-c63f-40bf-9b91-513bbb704e55"},"vehicle_type_id":"4","last_reported":1713621942,"current_range_meters":17200,"station_id":"ce4bgup2rcd13ifvqcn0","pricing_plan_id":"cebpf4jnsgd1na2vs0mg"},{"bike_id":"95c51c53-43f4-4d4e-ab43-e5e8f0f0dde3","system_id":"levelo_inurba_marseille","lat":43.304606,"lon":5.379026,"is_reserved":false,"is_disabled":false,"rental_uris":{"android":"levelo://app?vid=95c51c53-43f4-4d4e-ab43-e5e8f0f0dde3","ios":"levelo://app?vid=95c51c53-43f4-4d4e-ab43-e5e8f0f0dde3"},"vehicle_type_id":"4","last_reported":1713621942,"current_range_meters":31200,"station_id":"ce4bgup2rcd13ifvqcn0","pricing_plan_id":"cebpf4jnsgd1na2vs0mg"},{"bike_id":"12cd33be-3cce-4f86-a196-2b2e83d43d18","system_id":"levelo_inurba_marseille","lat":43.304711,"lon":5.379105,"is_reserved":false,"is_disabled":false,"rental_uris":{"android":"levelo://app?vid=12cd33be-3cce-4f86-a196-2b2e83d43d18","ios":"levelo://app?vid=12cd33be-3cce-4f86-a196-2b2e83d43d18"},"vehicle_type_id":"4","last_reported":1713621942,"current_range_meters":15600,"station_id":"ce4bgup2rcd13ifvqcn0","pricing_plan_id":"cebpf4jnsgd1na2vs0mg"},{"bike_id":"d1b0c1f8-f300-46a8-95cd-70e32dc646d5","system_id":"levelo_inurba_marseille","lat":43.30474,"lon":5.37916,"is_reserved":false,"is_disabled":false,"rental_uris":{"android":"levelo://app?vid=d1b0c1f8-f300-46a8-95cd-70e32dc646d5","ios":"levelo://app?vid=d1b0c1f8-f300-46a8-95cd-70e32dc646d5"},"vehicle_type_id":"4","last_reported":1713621942,"current_range_meters":22800,"station_id":"ce4bgup2rcd13ifvqcn0","pricing_plan_id":"cebpf4jnsgd1na2vs0mg"},{"bike_id":"dbea35dd-6bd2-4a18-a83f-1de799cd09cc","system_id":"levelo_inurba_marseille","lat":43.304702,"lon":5.379133,"is_reserved":false,"is_disabled":false,"rental_uris":{"android":"levelo://app?vid=dbea35dd-6bd2-4a18-a83f-1de799cd09cc","ios":"levelo://app?vid=dbea35dd-6bd2-4a18-a83f-1de799cd09cc"},"vehicle_type_id":"4","last_reported":1713621942,"current_range_meters":26000,"station_id":"ce4bgup2rcd13ifvqcn0","pricing_plan_id":"cebpf4jnsgd1na2vs0mg"},{"bike_id":"975f96d0-53ee-4129-9b2d-4535b1a80597","system_id":"levelo_inurba_marseille","lat":43.304606,"lon":5.379026,"is_reserved":false,"is_disabled":false,"rental_uris":{"android":"levelo://app?vid=975f96d0-53ee-4129-9b2d-4535b1a80597","ios":"levelo://app?vid=975f96d0-53ee-4129-9b2d-4535b1a80597"},"vehicle_type_id":"4","last_reported":1713621942,"current_range_meters":31200,"station_id":"ce4bgup2rcd13ifvqcn0","pricing_plan_id":"cebpf4jnsgd1na2vs0mg"},{"bike_id":"8ae6576b-324b-4f9d-8cc7-84359984781b","system_id":"levelo_inurba_marseille","lat":43.304707,"lon":5.379177,"is_reserved":false,"is_disabled":false,"rental_uris":{"android":"levelo://app?vid=8ae6576b-324b-4f9d-8cc7-84359984781b","ios":"levelo://app?vid=8ae6576b-324b-4f9d-8cc7-84359984781b"},"vehicle_type_id":"4","last_reported":1713621942,"current_range_meters":400,"station_id":"ce4bgup2rcd13ifvqcn0","pricing_plan_id":"cebpf4jnsgd1na2vs0mg"},{"bike_id":"036a539c-85cc-4067-9399-8da26909f8b9","system_id":"levelo_inurba_marseille","lat":43.30466,"lon":5.37915,"is_reserved":false,"is_disabled":false,"rental_uris":{"android":"levelo://app?vid=036a539c-85cc-4067-9399-8da26909f8b9","ios":"levelo://app?vid=036a539c-85cc-4067-9399-8da26909f8b9"},"vehicle_type_id":"4","last_reported":1713621942,"current_range_meters":8800,"station_id":"ce4bgup2rcd13ifvqcn0","pricing_plan_id":"cebpf4jnsgd1na2vs0mg"},{"bike_id":"d9c4af2e-bc43-425e-9568-50f9db92cb4c","system_id":"levelo_inurba_marseille","lat":43.304693,"lon":5.379193,"is_reserved":false,"is_disabled":false,"rental_uris":{"android":"levelo://app?vid=d9c4af2e-bc43-425e-9568-50f9db92cb4c","ios":"levelo://app?vid=d9c4af2e-bc43-425e-9568-50f9db92cb4c"},"vehicle_type_id":"4","last_reported":1713621942,"current_range_meters":24400,"station_id":"ce4bgup2rcd13ifvqcn0","pricing_plan_id":"cebpf4jnsgd1na2vs0mg"},{"bike_id":"4fd3e738-1b68-4cc7-a14f-5831e52c74d6","system_id":"levelo_inurba_marseille","lat":43.30463,"lon":5.37914,"is_reserved":false,"is_disabled":false,"rental_uris":{"android":"levelo://app?vid=4fd3e738-1b68-4cc7-a14f-5831e52c74d6","ios":"levelo://app?vid=4fd3e738-1b68-4cc7-a14f-5831e52c74d6"},"vehicle_type_id":"4","last_reported":1713621942,"current_range_meters":14400,"station_id":"ce4bgup2rcd13ifvqcn0","pricing_plan_id":"cebpf4jnsgd1na2vs0mg"},{"bike_id":"1b6aed86-338f-4a51-9ed8-88ea689c4811","system_id":"levelo_inurba_marseille","lat":43.324771,"lon":5.36557,"is_reserved":false,"is_disabled":false,"rental_uris":{"android":"levelo://app?vid=1b6aed86-338f-4a51-9ed8-88ea689c4811","ios":"levelo://app?vid=1b6aed86-338f-4a51-9ed8-88ea689c4811"},"vehicle_type_id":"4","last_reported":1713621942,"current_range_meters":30400,"station_id":"ce4bhs12rcd13ifvqhvg","pricing_plan_id":"cebpf4jnsgd1na2vs0mg"},{"bike_id":"c17751bf-4b1e-4ed5-8ec6-1aa8f0f5ee16","system_id":"levelo_inurba_marseille","lat":43.324771,"lon":5.36557,"is_reserved":false,"is_disabled":false,"rental_uris":{"android":"levelo://app?vid=c17751bf-4b1e-4ed5-8ec6-1aa8f0f5ee16","ios":"levelo://app?vid=c17751bf-4b1e-4ed5-8ec6-1aa8f0f5ee16"},"vehicle_type_id":"4","last_reported":1713621942,"current_range_meters":31200,"station_id":"ce4bhs12rcd13ifvqhvg","pricing_plan_id":"cebpf4jnsgd1na2vs0mg"},{"bike_id":"80dacc88-f9a5-4b5f-80f4-57bd33108ecb","system_id":"levelo_inurba_marseille","lat":43.324771,"lon":5.36557,"is_reserved":false,"is_disabled":false,"rental_uris":{"android":"levelo://app?vid=80dacc88-f9a5-4b5f-80f4-57bd33108ecb","ios":"levelo://app?vid=80dacc88-f9a5-4b5f-80f4-57bd33108ecb"},"vehicle_type_id":"4","last_reported":1713621942,"current_range_meters":28400,"station_id":"ce4bhs12rcd13ifvqhvg","pricing_plan_id":"cebpf4jnsgd1na2vs0mg"},{"bike_id":"1855be25-40b0-4d43-9798-a24560d9d32b","system_id":"levelo_inurba_marseille","lat":43.324771,"lon":5.36557,"is_reserved":false,"is_disabled":false,"rental_uris":{"android":"levelo://app?vid=1855be25-40b0-4d43-9798-a24560d9d32b","ios":"levelo://app?vid=1855be25-40b0-4d43-9798-a24560d9d32b"},"vehicle_type_id":"4","last_reported":1713621942,"current_range_meters":25600,"station_id":"ce4bhs12rcd13ifvqhvg","pricing_plan_id":"cebpf4jnsgd1na2vs0mg"},{"bike_id":"16a235df-59d1-4350-8a2b-481a4007cd41","system_id":"levelo_inurba_marseille","lat":43.324771,"lon":5.36557,"is_reserved":false,"is_disabled":false,"rental_uris":{"android":"levelo://app?vid=16a235df-59d1-4350-8a2b-481a4007cd41","ios":"levelo://app?vid=16a235df-59d1-4350-8a2b-481a4007cd41"},"vehicle_type_id":"4","last_reported":1713621942,"current_range_meters":16800,"station_id":"ce4bhs12rcd13ifvqhvg","pricing_plan_id":"cebpf4jnsgd1na2vs0mg"},{"bike_id":"87f9e4f2-9a1c-45e9-9d5f-df5c314d8ba1","system_id":"levelo_inurba_marseille","lat":43.324771,"lon":5.36557,"is_reserved":false,"is_disabled":false,"rental_uris":{"android":"levelo://app?vid=87f9e4f2-9a1c-45e9-9d5f-df5c314d8ba1","ios":"levelo://app?vid=87f9e4f2-9a1c-45e9-9d5f-df5c314d8ba1"},"vehicle_type_id":"4","last_reported":1713621942,"current_range_meters":8000,"station_id":"ce4bhs12rcd13ifvqhvg","pricing_plan_id":"cebpf4jnsgd1na2vs0mg"},{"bike_id":"62bb06f3-c698-4ec7-b48f-905f15ce7a62","system_id":"levelo_inurba_marseille","lat":43.324771,"lon":5.36557,"is_reserved":false,"is_disabled":false,"rental_uris":{"android":"levelo://app?vid=62bb06f3-c698-4ec7-b48f-905f15ce7a62","ios":"levelo://app?vid=62bb06f3-c698-4ec7-b48f-905f15ce7a62"},"vehicle_type_id":"4","last_reported":1713621942,"current_range_meters":18400,"station_id":"ce4bhs12rcd13ifvqhvg","pricing_plan_id":"cebpf4jnsgd1na2vs0mg"},{"bike_id":"233dd586-782f-4613-bde2-18e9ad7fe08e","system_id":"levelo_inurba_marseille","lat":43.324771,"lon":5.36557,"is_reserved":false,"is_disabled":false,"rental_uris":{"android":"levelo://app?vid=233dd586-782f-4613-bde2-18e9ad7fe08e","ios":"levelo://app?vid=233dd586-782f-4613-bde2-18e9ad7fe08e"},"vehicle_type_id":"4","last_reported":1713621942,"current_range_meters":24000,"station_id":"ce4bhs12rcd13ifvqhvg","pricing_plan_id":"cebpf4jnsgd1na2vs0mg"},{"bike_id":"93a8958b-be04-40ca-9bfd-fc84ceac4838","system_id":"levelo_inurba_marseille","lat":43.304606,"lon":5.379026,"is_reserved":false,"is_disabled":false,"rental_uris":{"android":"levelo://app?vid=93a8958b-be04-40ca-9bfd-fc84ceac4838","ios":"levelo://app?vid=93a8958b-be04-40ca-9bfd-fc84ceac4838"},"vehicle_type_id":"4","last_reported":1713621942,"current_range_meters":0,"station_id":"ce4bgup2rcd13ifvqcn0","pricing_plan_id":"cebpf4jnsgd1na2vs0mg"},{"bike_id":"52b0779b-4586-454b-af21-ab9f0f53d53c","system_id":"levelo_inurba_marseille","lat":43.324771,"lon":5.36557,"is_reserved":false,"is_disabled":false,"rental_uris":{"android":"levelo://app?vid=52b0779b-4586-454b-af21-ab9f0f53d53c","ios":"levelo://app?vid=52b0779b-4586-454b-af21-ab9f0f53d53c"},"vehicle_type_id":"4","last_reported":1713621942,"current_range_meters":12800,"station_id":"ce4bhs12rcd13ifvqhvg","pricing_plan_id":"cebpf4jnsgd1na2vs0mg"},{"bike_id":"6da657ab-00d6-4606-bb0a-fdc1f8bc0b21","system_id":"levelo_inurba_marseille","lat":43.324771,"lon":5.36557,"is_reserved":false,"is_disabled":false,"rental_uris":{"android":"levelo://app?vid=6da657ab-00d6-4606-bb0a-fdc1f8bc0b21","ios":"levelo://app?vid=6da657ab-00d6-4606-bb0a-fdc1f8bc0b21"},"vehicle_type_id":"4","last_reported":1713621942,"current_range_meters":30400,"station_id":"ce4bhs12rcd13ifvqhvg","pricing_plan_id":"cebpf4jnsgd1na2vs0mg"},{"bike_id":"1c8d6126-d657-4871-95d9-7392dd2ee764","system_id":"levelo_inurba_marseille","lat":43.324771,"lon":5.36557,"is_reserved":false,"is_disabled":false,"rental_uris":{"android":"levelo://app?vid=1c8d6126-d657-4871-95d9-7392dd2ee764","ios":"levelo://app?vid=1c8d6126-d657-4871-95d9-7392dd2ee764"},"vehicle_type_id":"4","last_reported":1713621942,"current_range_meters":22400,"station_id":"ce4bhs12rcd13ifvqhvg","pricing_plan_id":"cebpf4jnsgd1na2vs0mg"},{"bike_id":"b499fa3f-69ac-4bb2-86bb-cbb41ac8acc0","system_id":"levelo_inurba_marseille","lat":43.310804,"lon":5.38359,"is_reserved":false,"is_disabled":false,"rental_uris":{"android":"levelo://app?vid=b499fa3f-69ac-4bb2-86bb-cbb41ac8acc0","ios":"levelo://app?vid=b499fa3f-69ac-4bb2-86bb-cbb41ac8acc0"},"vehicle_type_id":"4","last_reported":1713621942,"current_range_meters":27200,"station_id":"ce4bgv92rcd13ifvqcr0","pricing_plan_id":"cebpf4jnsgd1na2vs0mg"},{"bike_id":"d1ff33df-d6bf-454b-84b1-c6e6f0fda16c","system_id":"levelo_inurba_marseille","lat":43.302784,"lon":5.377158,"is_reserved":false,"is_disabled":false,"rental_uris":{"android":"levelo://app?vid=d1ff33df-d6bf-454b-84b1-c6e6f0fda16c","ios":"levelo://app?vid=d1ff33df-d6bf-454b-84b1-c6e6f0fda16c"},"vehicle_type_id":"4","last_reported":1713621942,"current_range_meters":21600,"station_id":"ce4bguh2rcd13ifvqcj0","pricing_plan_id":"cebpf4jnsgd1na2vs0mg"},{"bike_id":"e0daf309-e6bf-4898-b695-b276684ca826","system_id":"levelo_inurba_marseille","lat":43.301429,"lon":5.37413,"is_reserved":false,"is_disabled":false,"rental_uris":{"android":"levelo://app?vid=e0daf309-e6bf-4898-b695-b276684ca826","ios":"levelo://app?vid=e0daf309-e6bf-4898-b695-b276684ca826"},"vehicle_type_id":"4","last_reported":1713621942,"current_range_meters":26800,"station_id":"ce4bgs92rcd13ifvqcc0","pricing_plan_id":"cebpf4jnsgd1na2vs0mg"},{"bike_id":"808647e7-b28e-489e-b108-42496749f55e","system_id":"levelo_inurba_marseille","lat":43.302784,"lon":5.377158,"is_reserved":false,"is_disabled":false,"rental_uris":{"android":"levelo://app?vid=808647e7-b28e-489e-b108-42496749f55e","ios":"levelo://app?vid=808647e7-b28e-489e-b108-42496749f55e"},"vehicle_type_id":"4","last_reported":1713621942,"current_range_meters":30400,"station_id":"ce4bguh2rcd13ifvqcj0","pricing_plan_id":"cebpf4jnsgd1na2vs0mg"},{"bike_id":"9d48b501-74c9-44e0-a2cb-2474f868b4b2","system_id":"levelo_inurba_marseille","lat":43.301429,"lon":5.37413,"is_reserved":false,"is_disabled":false,"rental_uris":{"android":"levelo://app?vid=9d48b501-74c9-44e0-a2cb-2474f868b4b2","ios":"levelo://app?vid=9d48b501-74c9-44e0-a2cb-2474f868b4b2"},"vehicle_type_id":"4","last_reported":1713621942,"current_range_meters":20400,"station_id":"ce4bgs92rcd13ifvqcc0","pricing_plan_id":"cebpf4jnsgd1na2vs0mg"},{"bike_id":"105148d3-4e1e-4936-8b3b-8792a29301e6","system_id":"levelo_inurba_marseille","lat":43.302784,"lon":5.377158,"is_reserved":false,"is_disabled":false,"rental_uris":{"android":"levelo://app?vid=105148d3-4e1e-4936-8b3b-8792a29301e6","ios":"levelo://app?vid=105148d3-4e1e-4936-8b3b-8792a29301e6"},"vehicle_type_id":"4","last_reported":1713621942,"current_range_meters":24800,"station_id":"ce4bguh2rcd13ifvqcj0","pricing_plan_id":"cebpf4jnsgd1na2vs0mg"},{"bike_id":"cbceacdd-f2cf-4f44-b0f5-7175a39481d9","system_id":"levelo_inurba_marseille","lat":43.302784,"lon":5.377158,"is_reserved":false,"is_disabled":false,"rental_uris":{"android":"levelo://app?vid=cbceacdd-f2cf-4f44-b0f5-7175a39481d9","ios":"levelo://app?vid=cbceacdd-f2cf-4f44-b0f5-7175a39481d9"},"vehicle_type_id":"4","last_reported":1713621942,"current_range_meters":21600,"station_id":"ce4bguh2rcd13ifvqcj0","pricing_plan_id":"cebpf4jnsgd1na2vs0mg"},{"bike_id":"45588fa4-083d-481c-bab9-1c550c911e3f","system_id":"levelo_inurba_marseille","lat":43.30145,"lon":5.37426,"is_reserved":false,"is_disabled":false,"rental_uris":{"android":"levelo://app?vid=45588fa4-083d-481c-bab9-1c550c911e3f","ios":"levelo://app?vid=45588fa4-083d-481c-bab9-1c550c911e3f"},"vehicle_type_id":"4","last_reported":1713621942,"current_range_meters":6400,"station_id":"ce4bgs92rcd13ifvqcc0","pricing_plan_id":"cebpf4jnsgd1na2vs0mg"},{"bike_id":"71cf26d6-2800-48dd-ae6e-8eda1eae26de","system_id":"levelo_inurba_marseille","lat":43.305395,"lon":5.380968,"is_reserved":false,"is_disabled":false,"rental_uris":{"android":"levelo://app?vid=71cf26d6-2800-48dd-ae6e-8eda1eae26de","ios":"levelo://app?vid=71cf26d6-2800-48dd-ae6e-8eda1eae26de"},"vehicle_type_id":"4","last_reported":1713621942,"current_range_meters":17200,"station_id":"","pricing_plan_id":"cebpf4jnsgd1na2vs0mg"},{"bike_id":"d4107c4e-d042-4607-bdb7-9e5e8d2c1a04","system_id":"levelo_inurba_marseille","lat":43.302784,"lon":5.377158,"is_reserved":false,"is_disabled":false,"rental_uris":{"android":"levelo://app?vid=d4107c4e-d042-4607-bdb7-9e5e8d2c1a04","ios":"levelo://app?vid=d4107c4e-d042-4607-bdb7-9e5e8d2c1a04"},"vehicle_type_id":"4","last_reported":1713621942,"current_range_meters":11200,"station_id":"ce4bguh2rcd13ifvqcj0","pricing_plan_id":"cebpf4jnsgd1na2vs0mg"},{"bike_id":"d212c281-3522-420a-b06f-b80966290c73","system_id":"levelo_inurba_marseille","lat":43.319874,"lon":5.381441,"is_reserved":false,"is_disabled":false,"rental_uris":{"android":"levelo://app?vid=d212c281-3522-420a-b06f-b80966290c73","ios":"levelo://app?vid=d212c281-3522-420a-b06f-b80966290c73"},"vehicle_type_id":"4","last_reported":1713621942,"current_range_meters":11200,"station_id":"ce4bhr12rcd13ifvqhpg","pricing_plan_id":"cebpf4jnsgd1na2vs0mg"},{"bike_id":"334e3407-4f9b-4b57-a5ef-39033f25d948","system_id":"levelo_inurba_marseille","lat":43.319931,"lon":5.381445,"is_reserved":false,"is_disabled":false,"rental_uris":{"android":"levelo://app?vid=334e3407-4f9b-4b57-a5ef-39033f25d948","ios":"levelo://app?vid=334e3407-4f9b-4b57-a5ef-39033f25d948"},"vehicle_type_id":"4","last_reported":1713621942,"current_range_meters":7600,"station_id":"ce4bhr12rcd13ifvqhpg","pricing_plan_id":"cebpf4jnsgd1na2vs0mg"},{"bike_id":"b76bf36b-5a1e-4bef-9f76-791700d9abe6","system_id":"levelo_inurba_marseille","lat":43.319935,"lon":5.381699,"is_reserved":false,"is_disabled":false,"rental_uris":{"android":"levelo://app?vid=b76bf36b-5a1e-4bef-9f76-791700d9abe6","ios":"levelo://app?vid=b76bf36b-5a1e-4bef-9f76-791700d9abe6"},"vehicle_type_id":"4","last_reported":1713621942,"current_range_meters":11200,"station_id":"ce4bhr12rcd13ifvqhpg","pricing_plan_id":"cebpf4jnsgd1na2vs0mg"},{"bike_id":"c576db01-046c-4cde-af64-c0219a997d1d","system_id":"levelo_inurba_marseille","lat":43.31996,"lon":5.3815,"is_reserved":false,"is_disabled":false,"rental_uris":{"android":"levelo://app?vid=c576db01-046c-4cde-af64-c0219a997d1d","ios":"levelo://app?vid=c576db01-046c-4cde-af64-c0219a997d1d"},"vehicle_type_id":"4","last_reported":1713621942,"current_range_meters":24800,"station_id":"ce4bhr12rcd13ifvqhpg","pricing_plan_id":"cebpf4jnsgd1na2vs0mg"},{"bike_id":"ac8a896b-4c67-4f80-a4c4-51554c975d85","system_id":"levelo_inurba_marseille","lat":43.319935,"lon":5.381699,"is_reserved":false,"is_disabled":false,"rental_uris":{"android":"levelo://app?vid=ac8a896b-4c67-4f80-a4c4-51554c975d85","ios":"levelo://app?vid=ac8a896b-4c67-4f80-a4c4-51554c975d85"},"vehicle_type_id":"4","last_reported":1713621942,"current_range_meters":18400,"station_id":"ce4bhr12rcd13ifvqhpg","pricing_plan_id":"cebpf4jnsgd1na2vs0mg"},{"bike_id":"be12b762-133d-4e29-9819-5823c1c9403e","system_id":"levelo_inurba_marseille","lat":43.320021,"lon":5.381611,"is_reserved":false,"is_disabled":false,"rental_uris":{"android":"levelo://app?vid=be12b762-133d-4e29-9819-5823c1c9403e","ios":"levelo://app?vid=be12b762-133d-4e29-9819-5823c1c9403e"},"vehicle_type_id":"4","last_reported":1713621942,"current_range_meters":23600,"station_id":"ce4bhr12rcd13ifvqhpg","pricing_plan_id":"cebpf4jnsgd1na2vs0mg"},{"bike_id":"76ca3e78-4823-447c-8103-c63b6851f107","system_id":"levelo_inurba_marseille","lat":43.319998,"lon":5.381668,"is_reserved":false,"is_disabled":false,"rental_uris":{"android":"levelo://app?vid=76ca3e78-4823-447c-8103-c63b6851f107","ios":"levelo://app?vid=76ca3e78-4823-447c-8103-c63b6851f107"},"vehicle_type_id":"4","last_reported":1713621942,"current_range_meters":13200,"station_id":"ce4bhr12rcd13ifvqhpg","pricing_plan_id":"cebpf4jnsgd1na2vs0mg"},{"bike_id":"70e485cc-e24a-4bb6-b88d-d128e5883b38","system_id":"levelo_inurba_marseille","lat":43.31998,"lon":5.38171,"is_reserved":false,"is_disabled":false,"rental_uris":{"android":"levelo://app?vid=70e485cc-e24a-4bb6-b88d-d128e5883b38","ios":"levelo://app?vid=70e485cc-e24a-4bb6-b88d-d128e5883b38"},"vehicle_type_id":"4","last_reported":1713621942,"current_range_meters":29200,"station_id":"ce4bhr12rcd13ifvqhpg","pricing_plan_id":"cebpf4jnsgd1na2vs0mg"},{"bike_id":"b265aba0-4cfb-44bd-8ef5-9b88c5912563","system_id":"levelo_inurba_marseille","lat":43.319935,"lon":5.381699,"is_reserved":false,"is_disabled":false,"rental_uris":{"android":"levelo://app?vid=b265aba0-4cfb-44bd-8ef5-9b88c5912563","ios":"levelo://app?vid=b265aba0-4cfb-44bd-8ef5-9b88c5912563"},"vehicle_type_id":"4","last_reported":1713621942,"current_range_meters":8400,"station_id":"ce4bhr12rcd13ifvqhpg","pricing_plan_id":"cebpf4jnsgd1na2vs0mg"},{"bike_id":"8c687491-864b-480d-90be-17f270797ccc","system_id":"levelo_inurba_marseille","lat":43.319935,"lon":5.381699,"is_reserved":false,"is_disabled":false,"rental_uris":{"android":"levelo://app?vid=8c687491-864b-480d-90be-17f270797ccc","ios":"levelo://app?vid=8c687491-864b-480d-90be-17f270797ccc"},"vehicle_type_id":"4","last_reported":1713621942,"current_range_meters":30000,"station_id":"ce4bhr12rcd13ifvqhpg","pricing_plan_id":"cebpf4jnsgd1na2vs0mg"},{"bike_id":"bd3ba666-8916-4c2d-88a5-a346d5fd40ce","system_id":"levelo_inurba_marseille","lat":43.299724,"lon":5.371829,"is_reserved":false,"is_disabled":false,"rental_uris":{"android":"levelo://app?vid=bd3ba666-8916-4c2d-88a5-a346d5fd40ce","ios":"levelo://app?vid=bd3ba666-8916-4c2d-88a5-a346d5fd40ce"},"vehicle_type_id":"4","last_reported":1713621942,"current_range_meters":3200,"station_id":"ce4bgr92rcd13ifvqc7g","pricing_plan_id":"cebpf4jnsgd1na2vs0mg"},{"bike_id":"fd993e1f-e46b-4c1c-a348-cdd1f3bafae2","system_id":"levelo_inurba_marseille","lat":43.299222,"lon":5.365554,"is_reserved":false,"is_disabled":false,"rental_uris":{"android":"levelo://app?vid=fd993e1f-e46b-4c1c-a348-cdd1f3bafae2","ios":"levelo://app?vid=fd993e1f-e46b-4c1c-a348-cdd1f3bafae2"},"vehicle_type_id":"4","last_reported":1713621942,"current_range_meters":15200,"station_id":"ce4bgm92rcd13ifvqbr0","pricing_plan_id":"cebpf4jnsgd1na2vs0mg"},{"bike_id":"4365296a-f7cd-42cb-bd23-04755f8fc5d4","system_id":"levelo_inurba_marseille","lat":43.299724,"lon":5.371829,"is_reserved":false,"is_disabled":false,"rental_uris":{"android":"levelo://app?vid=4365296a-f7cd-42cb-bd23-04755f8fc5d4","ios":"levelo://app?vid=4365296a-f7cd-42cb-bd23-04755f8fc5d4"},"vehicle_type_id":"4","last_reported":1713621942,"current_range_meters":22400,"station_id":"ce4bgr92rcd13ifvqc7g","pricing_plan_id":"cebpf4jnsgd1na2vs0mg"},{"bike_id":"bc3306dc-e3c1-4328-85ae-45366c7352f3","system_id":"levelo_inurba_marseille","lat":43.299724,"lon":5.371829,"is_reserved":false,"is_disabled":false,"rental_uris":{"android":"levelo://app?vid=bc3306dc-e3c1-4328-85ae-45366c7352f3","ios":"levelo://app?vid=bc3306dc-e3c1-4328-85ae-45366c7352f3"},"vehicle_type_id":"4","last_reported":1713621942,"current_range_meters":8800,"station_id":"ce4bgr92rcd13ifvqc7g","pricing_plan_id":"cebpf4jnsgd1na2vs0mg"},{"bike_id":"d630b4a7-83e2-4211-bdbf-892f182f499a","system_id":"levelo_inurba_marseille","lat":43.29851,"lon":5.36293,"is_reserved":false,"is_disabled":false,"rental_uris":{"android":"levelo://app?vid=d630b4a7-83e2-4211-bdbf-892f182f499a","ios":"levelo://app?vid=d630b4a7-83e2-4211-bdbf-892f182f499a"},"vehicle_type_id":"4","last_reported":1713621942,"current_range_meters":26000,"station_id":"ce4bgpp2rcd13ifvqc3g","pricing_plan_id":"cebpf4jnsgd1na2vs0mg"},{"bike_id":"3b05b3da-05ba-41b1-be07-19694f3e7a33","system_id":"levelo_inurba_marseille","lat":43.298433,"lon":5.362774,"is_reserved":false,"is_disabled":false,"rental_uris":{"android":"levelo://app?vid=3b05b3da-05ba-41b1-be07-19694f3e7a33","ios":"levelo://app?vid=3b05b3da-05ba-41b1-be07-19694f3e7a33"},"vehicle_type_id":"4","last_reported":1713621942,"current_range_meters":14800,"station_id":"ce4bgpp2rcd13ifvqc3g","pricing_plan_id":"cebpf4jnsgd1na2vs0mg"},{"bike_id":"e4e73c60-2573-41bc-a115-4d1ff06f12ed","system_id":"levelo_inurba_marseille","lat":43.29851,"lon":5.3629,"is_reserved":false,"is_disabled":false,"rental_uris":{"android":"levelo://app?vid=e4e73c60-2573-41bc-a115-4d1ff06f12ed","ios":"levelo://app?vid=e4e73c60-2573-41bc-a115-4d1ff06f12ed"},"vehicle_type_id":"4","last_reported":1713621942,"current_range_meters":17600,"station_id":"ce4bgpp2rcd13ifvqc3g","pricing_plan_id":"cebpf4jnsgd1na2vs0mg"},{"bike_id":"17eb365a-b9ab-4c44-8a7b-5a602c1d9135","system_id":"levelo_inurba_marseille","lat":43.305364,"lon":5.384119,"is_reserved":false,"is_disabled":false,"rental_uris":{"android":"levelo://app?vid=17eb365a-b9ab-4c44-8a7b-5a602c1d9135","ios":"levelo://app?vid=17eb365a-b9ab-4c44-8a7b-5a602c1d9135"},"vehicle_type_id":"4","last_reported":1713621942,"current_range_meters":18400,"station_id":"ce4bgg92rcd13ifvqb30","pricing_plan_id":"cebpf4jnsgd1na2vs0mg"},{"bike_id":"6fa69475-6db1-48c3-b1d5-d022f003a09a","system_id":"levelo_inurba_marseille","lat":43.29849,"lon":5.36292,"is_reserved":false,"is_disabled":false,"rental_uris":{"android":"levelo://app?vid=6fa69475-6db1-48c3-b1d5-d022f003a09a","ios":"levelo://app?vid=6fa69475-6db1-48c3-b1d5-d022f003a09a"},"vehicle_type_id":"4","last_reported":1713621942,"current_range_meters":6400,"station_id":"ce4bgpp2rcd13ifvqc3g","pricing_plan_id":"cebpf4jnsgd1na2vs0mg"},{"bike_id":"f4479862-591f-4c06-b2f3-31a0ae89b078","system_id":"levelo_inurba_marseille","lat":43.298433,"lon":5.362774,"is_reserved":false,"is_disabled":false,"rental_uris":{"android":"levelo://app?vid=f4479862-591f-4c06-b2f3-31a0ae89b078","ios":"levelo://app?vid=f4479862-591f-4c06-b2f3-31a0ae89b078"},"vehicle_type_id":"4","last_reported":1713621942,"current_range_meters":10000,"station_id":"ce4bgpp2rcd13ifvqc3g","pricing_plan_id":"cebpf4jnsgd1na2vs0mg"},{"bike_id":"f8a590c4-bd78-45b2-a8a8-dcd5f455158a","system_id":"levelo_inurba_marseille","lat":43.29847,"lon":5.36285,"is_reserved":false,"is_disabled":false,"rental_uris":{"android":"levelo://app?vid=f8a590c4-bd78-45b2-a8a8-dcd5f455158a","ios":"levelo://app?vid=f8a590c4-bd78-45b2-a8a8-dcd5f455158a"},"vehicle_type_id":"4","last_reported":1713621942,"current_range_meters":31200,"station_id":"ce4bgpp2rcd13ifvqc3g","pricing_plan_id":"cebpf4jnsgd1na2vs0mg"},{"bike_id":"5b69a954-d0a8-46cc-88f1-1796b200d2c6","system_id":"levelo_inurba_marseille","lat":43.29847,"lon":5.362838,"is_reserved":false,"is_disabled":false,"rental_uris":{"android":"levelo://app?vid=5b69a954-d0a8-46cc-88f1-1796b200d2c6","ios":"levelo://app?vid=5b69a954-d0a8-46cc-88f1-1796b200d2c6"},"vehicle_type_id":"4","last_reported":1713621942,"current_range_meters":28400,"station_id":"ce4bgpp2rcd13ifvqc3g","pricing_plan_id":"cebpf4jnsgd1na2vs0mg"},{"bike_id":"256fb99d-07b8-4863-bb56-fe986957c442","system_id":"levelo_inurba_marseille","lat":43.298433,"lon":5.362774,"is_reserved":false,"is_disabled":false,"rental_uris":{"android":"levelo://app?vid=256fb99d-07b8-4863-bb56-fe986957c442","ios":"levelo://app?vid=256fb99d-07b8-4863-bb56-fe986957c442"},"vehicle_type_id":"4","last_reported":1713621942,"current_range_meters":18400,"station_id":"ce4bgpp2rcd13ifvqc3g","pricing_plan_id":"cebpf4jnsgd1na2vs0mg"},{"bike_id":"89887907-bc6d-4833-a06d-461328dc0683","system_id":"levelo_inurba_marseille","lat":43.298433,"lon":5.362774,"is_reserved":false,"is_disabled":false,"rental_uris":{"android":"levelo://app?vid=89887907-bc6d-4833-a06d-461328dc0683","ios":"levelo://app?vid=89887907-bc6d-4833-a06d-461328dc0683"},"vehicle_type_id":"4","last_reported":1713621942,"current_range_meters":9600,"station_id":"ce4bgpp2rcd13ifvqc3g","pricing_plan_id":"cebpf4jnsgd1na2vs0mg"},{"bike_id":"aa34f2bb-aac1-458a-b9f4-7c5ab7e86d17","system_id":"levelo_inurba_marseille","lat":43.305364,"lon":5.384119,"is_reserved":false,"is_disabled":false,"rental_uris":{"android":"levelo://app?vid=aa34f2bb-aac1-458a-b9f4-7c5ab7e86d17","ios":"levelo://app?vid=aa34f2bb-aac1-458a-b9f4-7c5ab7e86d17"},"vehicle_type_id":"4","last_reported":1713621942,"current_range_meters":22800,"station_id":"ce4bgg92rcd13ifvqb30","pricing_plan_id":"cebpf4jnsgd1na2vs0mg"},{"bike_id":"0900e3c5-40da-4524-9560-ce276daeba9a","system_id":"levelo_inurba_marseille","lat":43.298433,"lon":5.362774,"is_reserved":false,"is_disabled":false,"rental_uris":{"android":"levelo://app?vid=0900e3c5-40da-4524-9560-ce276daeba9a","ios":"levelo://app?vid=0900e3c5-40da-4524-9560-ce276daeba9a"},"vehicle_type_id":"4","last_reported":1713621942,"current_range_meters":31200,"station_id":"ce4bgpp2rcd13ifvqc3g","pricing_plan_id":"cebpf4jnsgd1na2vs0mg"},{"bike_id":"9a712ad4-07dd-4ad5-9695-29a399b97d25","system_id":"levelo_inurba_marseille","lat":43.298433,"lon":5.362774,"is_reserved":false,"is_disabled":false,"rental_uris":{"android":"levelo://app?vid=9a712ad4-07dd-4ad5-9695-29a399b97d25","ios":"levelo://app?vid=9a712ad4-07dd-4ad5-9695-29a399b97d25"},"vehicle_type_id":"4","last_reported":1713621942,"current_range_meters":17600,"station_id":"ce4bgpp2rcd13ifvqc3g","pricing_plan_id":"cebpf4jnsgd1na2vs0mg"},{"bike_id":"ba27d4e1-2224-48c7-8921-6bb0833d6e77","system_id":"levelo_inurba_marseille","lat":43.29842,"lon":5.36269,"is_reserved":false,"is_disabled":false,"rental_uris":{"android":"levelo://app?vid=ba27d4e1-2224-48c7-8921-6bb0833d6e77","ios":"levelo://app?vid=ba27d4e1-2224-48c7-8921-6bb0833d6e77"},"vehicle_type_id":"4","last_reported":1713621942,"current_range_meters":17200,"station_id":"ce4bgpp2rcd13ifvqc3g","pricing_plan_id":"cebpf4jnsgd1na2vs0mg"},{"bike_id":"80630d51-070e-41ed-b8fc-f4dbb9ed3b9b","system_id":"levelo_inurba_marseille","lat":43.298433,"lon":5.362774,"is_reserved":false,"is_disabled":false,"rental_uris":{"android":"levelo://app?vid=80630d51-070e-41ed-b8fc-f4dbb9ed3b9b","ios":"levelo://app?vid=80630d51-070e-41ed-b8fc-f4dbb9ed3b9b"},"vehicle_type_id":"4","last_reported":1713621942,"current_range_meters":7600,"station_id":"ce4bgpp2rcd13ifvqc3g","pricing_plan_id":"cebpf4jnsgd1na2vs0mg"},{"bike_id":"0b831ff4-12f0-4774-89fd-56ffe59ab104","system_id":"levelo_inurba_marseille","lat":43.298433,"lon":5.362774,"is_reserved":false,"is_disabled":false,"rental_uris":{"android":"levelo://app?vid=0b831ff4-12f0-4774-89fd-56ffe59ab104","ios":"levelo://app?vid=0b831ff4-12f0-4774-89fd-56ffe59ab104"},"vehicle_type_id":"4","last_reported":1713621942,"current_range_meters":31200,"station_id":"ce4bgpp2rcd13ifvqc3g","pricing_plan_id":"cebpf4jnsgd1na2vs0mg"},{"bike_id":"bbb14609-c871-4091-887f-77e8dfb77e8c","system_id":"levelo_inurba_marseille","lat":43.298433,"lon":5.362774,"is_reserved":false,"is_disabled":false,"rental_uris":{"android":"levelo://app?vid=bbb14609-c871-4091-887f-77e8dfb77e8c","ios":"levelo://app?vid=bbb14609-c871-4091-887f-77e8dfb77e8c"},"vehicle_type_id":"4","last_reported":1713621942,"current_range_meters":22800,"station_id":"ce4bgpp2rcd13ifvqc3g","pricing_plan_id":"cebpf4jnsgd1na2vs0mg"},{"bike_id":"14255a11-d40d-4a75-b76f-24cc6e24bf6d","system_id":"levelo_inurba_marseille","lat":43.299213,"lon":5.374767,"is_reserved":false,"is_disabled":false,"rental_uris":{"android":"levelo://app?vid=14255a11-d40d-4a75-b76f-24cc6e24bf6d","ios":"levelo://app?vid=14255a11-d40d-4a75-b76f-24cc6e24bf6d"},"vehicle_type_id":"4","last_reported":1713621942,"current_range_meters":16000,"station_id":"ce4bgjh2rcd13ifvqbg0","pricing_plan_id":"cebpf4jnsgd1na2vs0mg"},{"bike_id":"9aeb8a4c-51b0-4286-906f-e6471f8575c2","system_id":"levelo_inurba_marseille","lat":43.299159,"lon":5.374747,"is_reserved":false,"is_disabled":false,"rental_uris":{"android":"levelo://app?vid=9aeb8a4c-51b0-4286-906f-e6471f8575c2","ios":"levelo://app?vid=9aeb8a4c-51b0-4286-906f-e6471f8575c2"},"vehicle_type_id":"4","last_reported":1713621942,"current_range_meters":19200,"station_id":"ce4bgjh2rcd13ifvqbg0","pricing_plan_id":"cebpf4jnsgd1na2vs0mg"},{"bike_id":"95dc6826-f89c-4d7e-9068-f46a11a1a90a","system_id":"levelo_inurba_marseille","lat":43.299152,"lon":5.374801,"is_reserved":false,"is_disabled":false,"rental_uris":{"android":"levelo://app?vid=95dc6826-f89c-4d7e-9068-f46a11a1a90a","ios":"levelo://app?vid=95dc6826-f89c-4d7e-9068-f46a11a1a90a"},"vehicle_type_id":"4","last_reported":1713621942,"current_range_meters":31200,"station_id":"ce4bgjh2rcd13ifvqbg0","pricing_plan_id":"cebpf4jnsgd1na2vs0mg"},{"bike_id":"a6f428e8-2098-43c0-a470-51133bfd62ad","system_id":"levelo_inurba_marseille","lat":43.29916,"lon":5.37487,"is_reserved":false,"is_disabled":false,"rental_uris":{"android":"levelo://app?vid=a6f428e8-2098-43c0-a470-51133bfd62ad","ios":"levelo://app?vid=a6f428e8-2098-43c0-a470-51133bfd62ad"},"vehicle_type_id":"4","last_reported":1713621942,"current_range_meters":14400,"station_id":"ce4bgjh2rcd13ifvqbg0","pricing_plan_id":"cebpf4jnsgd1na2vs0mg"},{"bike_id":"962e8ba3-dc46-4dc1-878b-d36a4316cc30","system_id":"levelo_inurba_marseille","lat":43.29785,"lon":5.37108,"is_reserved":false,"is_disabled":false,"rental_uris":{"android":"levelo://app?vid=962e8ba3-dc46-4dc1-878b-d36a4316cc30","ios":"levelo://app?vid=962e8ba3-dc46-4dc1-878b-d36a4316cc30"},"vehicle_type_id":"4","last_reported":1713621942,"current_range_meters":1200,"station_id":"ce4bgop2rcd13ifvqc1g","pricing_plan_id":"cebpf4jnsgd1na2vs0mg"},{"bike_id":"98383111-a280-489e-a46c-bf5726139e9c","system_id":"levelo_inurba_marseille","lat":43.3229,"lon":5.38255,"is_reserved":false,"is_disabled":false,"rental_uris":{"android":"levelo://app?vid=98383111-a280-489e-a46c-bf5726139e9c","ios":"levelo://app?vid=98383111-a280-489e-a46c-bf5726139e9c"},"vehicle_type_id":"4","last_reported":1713621942,"current_range_meters":29600,"station_id":"ce4bhr12rcd13ifvqhqg","pricing_plan_id":"cebpf4jnsgd1na2vs0mg"},{"bike_id":"f3c6ad66-f703-4dbe-a896-16dc53676efb","system_id":"levelo_inurba_marseille","lat":43.322918,"lon":5.382612,"is_reserved":false,"is_disabled":false,"rental_uris":{"android":"levelo://app?vid=f3c6ad66-f703-4dbe-a896-16dc53676efb","ios":"levelo://app?vid=f3c6ad66-f703-4dbe-a896-16dc53676efb"},"vehicle_type_id":"4","last_reported":1713621942,"current_range_meters":24800,"station_id":"ce4bhr12rcd13ifvqhqg","pricing_plan_id":"cebpf4jnsgd1na2vs0mg"},{"bike_id":"6a9bcf40-c5f9-44a4-a58e-664576d7b299","system_id":"levelo_inurba_marseille","lat":43.322859,"lon":5.382689,"is_reserved":false,"is_disabled":false,"rental_uris":{"android":"levelo://app?vid=6a9bcf40-c5f9-44a4-a58e-664576d7b299","ios":"levelo://app?vid=6a9bcf40-c5f9-44a4-a58e-664576d7b299"},"vehicle_type_id":"4","last_reported":1713621942,"current_range_meters":16800,"station_id":"ce4bhr12rcd13ifvqhqg","pricing_plan_id":"cebpf4jnsgd1na2vs0mg"},{"bike_id":"e5df68f6-b1ff-4d0a-b7e9-c02ca9b8210e","system_id":"levelo_inurba_marseille","lat":43.322855,"lon":5.38272,"is_reserved":false,"is_disabled":false,"rental_uris":{"android":"levelo://app?vid=e5df68f6-b1ff-4d0a-b7e9-c02ca9b8210e","ios":"levelo://app?vid=e5df68f6-b1ff-4d0a-b7e9-c02ca9b8210e"},"vehicle_type_id":"4","last_reported":1713621942,"current_range_meters":30000,"station_id":"ce4bhr12rcd13ifvqhqg","pricing_plan_id":"cebpf4jnsgd1na2vs0mg"},{"bike_id":"d3ad18a7-d293-4efa-9d67-8f3274dfe670","system_id":"levelo_inurba_marseille","lat":43.29819,"lon":5.37353,"is_reserved":false,"is_disabled":false,"rental_uris":{"android":"levelo://app?vid=d3ad18a7-d293-4efa-9d67-8f3274dfe670","ios":"levelo://app?vid=d3ad18a7-d293-4efa-9d67-8f3274dfe670"},"vehicle_type_id":"4","last_reported":1713621942,"current_range_meters":8400,"station_id":"","pricing_plan_id":"cebpf4jnsgd1na2vs0mg"},{"bike_id":"a4e08546-6278-4fec-a3f5-ea17e1bddef5","system_id":"levelo_inurba_marseille","lat":43.322867,"lon":5.382748,"is_reserved":false,"is_disabled":false,"rental_uris":{"android":"levelo://app?vid=a4e08546-6278-4fec-a3f5-ea17e1bddef5","ios":"levelo://app?vid=a4e08546-6278-4fec-a3f5-ea17e1bddef5"},"vehicle_type_id":"4","last_reported":1713621942,"current_range_meters":8800,"station_id":"ce4bhr12rcd13ifvqhqg","pricing_plan_id":"cebpf4jnsgd1na2vs0mg"},{"bike_id":"b1c9170a-6a31-47d1-8e62-5b624c342910","system_id":"levelo_inurba_marseille","lat":43.322914,"lon":5.382704,"is_reserved":false,"is_disabled":false,"rental_uris":{"android":"levelo://app?vid=b1c9170a-6a31-47d1-8e62-5b624c342910","ios":"levelo://app?vid=b1c9170a-6a31-47d1-8e62-5b624c342910"},"vehicle_type_id":"4","last_reported":1713621942,"current_range_meters":10000,"station_id":"ce4bhr12rcd13ifvqhqg","pricing_plan_id":"cebpf4jnsgd1na2vs0mg"},{"bike_id":"59c296c1-c1af-4a71-9e20-fa9c7f8757f9","system_id":"levelo_inurba_marseille","lat":43.322872,"lon":5.382756,"is_reserved":false,"is_disabled":false,"rental_uris":{"android":"levelo://app?vid=59c296c1-c1af-4a71-9e20-fa9c7f8757f9","ios":"levelo://app?vid=59c296c1-c1af-4a71-9e20-fa9c7f8757f9"},"vehicle_type_id":"4","last_reported":1713621942,"current_range_meters":31200,"station_id":"ce4bhr12rcd13ifvqhqg","pricing_plan_id":"cebpf4jnsgd1na2vs0mg"},{"bike_id":"51bc1792-3566-4e13-89bb-b51563d33818","system_id":"levelo_inurba_marseille","lat":43.32285,"lon":5.38279,"is_reserved":false,"is_disabled":false,"rental_uris":{"android":"levelo://app?vid=51bc1792-3566-4e13-89bb-b51563d33818","ios":"levelo://app?vid=51bc1792-3566-4e13-89bb-b51563d33818"},"vehicle_type_id":"4","last_reported":1713621942,"current_range_meters":26000,"station_id":"ce4bhr12rcd13ifvqhqg","pricing_plan_id":"cebpf4jnsgd1na2vs0mg"},{"bike_id":"76931112-13b2-4ce1-aed6-6fa548f70599","system_id":"levelo_inurba_marseille","lat":43.322931,"lon":5.382707,"is_reserved":false,"is_disabled":false,"rental_uris":{"android":"levelo://app?vid=76931112-13b2-4ce1-aed6-6fa548f70599","ios":"levelo://app?vid=76931112-13b2-4ce1-aed6-6fa548f70599"},"vehicle_type_id":"4","last_reported":1713621942,"current_range_meters":29200,"station_id":"ce4bhr12rcd13ifvqhqg","pricing_plan_id":"cebpf4jnsgd1na2vs0mg"},{"bike_id":"aa38acc2-91cb-407c-ac8c-05b08cc96e3e","system_id":"levelo_inurba_marseille","lat":43.322872,"lon":5.382756,"is_reserved":false,"is_disabled":false,"rental_uris":{"android":"levelo://app?vid=aa38acc2-91cb-407c-ac8c-05b08cc96e3e","ios":"levelo://app?vid=aa38acc2-91cb-407c-ac8c-05b08cc96e3e"},"vehicle_type_id":"4","last_reported":1713621942,"current_range_meters":31200,"station_id":"ce4bhr12rcd13ifvqhqg","pricing_plan_id":"cebpf4jnsgd1na2vs0mg"},{"bike_id":"f02710d2-1fee-4866-a021-12fd915ee40b","system_id":"levelo_inurba_marseille","lat":43.322898,"lon":5.382761,"is_reserved":false,"is_disabled":false,"rental_uris":{"android":"levelo://app?vid=f02710d2-1fee-4866-a021-12fd915ee40b","ios":"levelo://app?vid=f02710d2-1fee-4866-a021-12fd915ee40b"},"vehicle_type_id":"4","last_reported":1713621942,"current_range_meters":8800,"station_id":"ce4bhr12rcd13ifvqhqg","pricing_plan_id":"cebpf4jnsgd1na2vs0mg"},{"bike_id":"c1c913df-b844-406e-83f7-dff5f43f7dc5","system_id":"levelo_inurba_marseille","lat":43.3229,"lon":5.38281,"is_reserved":false,"is_disabled":false,"rental_uris":{"android":"levelo://app?vid=c1c913df-b844-406e-83f7-dff5f43f7dc5","ios":"levelo://app?vid=c1c913df-b844-406e-83f7-dff5f43f7dc5"},"vehicle_type_id":"4","last_reported":1713621942,"current_range_meters":30400,"station_id":"ce4bhr12rcd13ifvqhqg","pricing_plan_id":"cebpf4jnsgd1na2vs0mg"},{"bike_id":"2abc776a-4edc-4c84-a3c8-24ee9489103b","system_id":"levelo_inurba_marseille","lat":43.32292,"lon":5.3828,"is_reserved":false,"is_disabled":false,"rental_uris":{"android":"levelo://app?vid=2abc776a-4edc-4c84-a3c8-24ee9489103b","ios":"levelo://app?vid=2abc776a-4edc-4c84-a3c8-24ee9489103b"},"vehicle_type_id":"4","last_reported":1713621942,"current_range_meters":29200,"station_id":"ce4bhr12rcd13ifvqhqg","pricing_plan_id":"cebpf4jnsgd1na2vs0mg"},{"bike_id":"3a777aae-0d2a-4638-8c09-6f1de81534e0","system_id":"levelo_inurba_marseille","lat":43.322876,"lon":5.382875,"is_reserved":false,"is_disabled":false,"rental_uris":{"android":"levelo://app?vid=3a777aae-0d2a-4638-8c09-6f1de81534e0","ios":"levelo://app?vid=3a777aae-0d2a-4638-8c09-6f1de81534e0"},"vehicle_type_id":"4","last_reported":1713621942,"current_range_meters":25200,"station_id":"ce4bhr12rcd13ifvqhqg","pricing_plan_id":"cebpf4jnsgd1na2vs0mg"},{"bike_id":"f34a25f4-6938-4b3a-8010-c623c05965cc","system_id":"levelo_inurba_marseille","lat":43.283498,"lon":5.380948,"is_reserved":false,"is_disabled":false,"rental_uris":{"android":"levelo://app?vid=f34a25f4-6938-4b3a-8010-c623c05965cc","ios":"levelo://app?vid=f34a25f4-6938-4b3a-8010-c623c05965cc"},"vehicle_type_id":"4","last_reported":1713621942,"current_range_meters":21200,"station_id":"ce4bh412rcd13ifvqdr0","pricing_plan_id":"cebpf4jnsgd1na2vs0mg"},{"bike_id":"a61a9325-9bbf-4d45-b34d-2f05cd6c355b","system_id":"levelo_inurba_marseille","lat":43.297163,"lon":5.365866,"is_reserved":false,"is_disabled":false,"rental_uris":{"android":"levelo://app?vid=a61a9325-9bbf-4d45-b34d-2f05cd6c355b","ios":"levelo://app?vid=a61a9325-9bbf-4d45-b34d-2f05cd6c355b"},"vehicle_type_id":"4","last_reported":1713621942,"current_range_meters":14800,"station_id":"ce4bgn12rcd13ifvqbt0","pricing_plan_id":"cebpf4jnsgd1na2vs0mg"},{"bike_id":"7bfba9fe-6ba7-4ae9-b24c-d1a949d452cf","system_id":"levelo_inurba_marseille","lat":43.296129,"lon":5.370777,"is_reserved":false,"is_disabled":false,"rental_uris":{"android":"levelo://app?vid=7bfba9fe-6ba7-4ae9-b24c-d1a949d452cf","ios":"levelo://app?vid=7bfba9fe-6ba7-4ae9-b24c-d1a949d452cf"},"vehicle_type_id":"4","last_reported":1713621942,"current_range_meters":30000,"station_id":"ce4bgnh2rcd13ifvqc0g","pricing_plan_id":"cebpf4jnsgd1na2vs0mg"},{"bike_id":"ef05abe8-0a1f-46ad-8fae-b34c3adda736","system_id":"levelo_inurba_marseille","lat":43.29629,"lon":5.37164,"is_reserved":false,"is_disabled":false,"rental_uris":{"android":"levelo://app?vid=ef05abe8-0a1f-46ad-8fae-b34c3adda736","ios":"levelo://app?vid=ef05abe8-0a1f-46ad-8fae-b34c3adda736"},"vehicle_type_id":"4","last_reported":1713621942,"current_range_meters":22000,"station_id":"ce4bgnh2rcd13ifvqc0g","pricing_plan_id":"cebpf4jnsgd1na2vs0mg"},{"bike_id":"66d527d3-6073-482b-a7e4-1a2463fc9146","system_id":"levelo_inurba_marseille","lat":43.296131,"lon":5.370773,"is_reserved":false,"is_disabled":false,"rental_uris":{"android":"levelo://app?vid=66d527d3-6073-482b-a7e4-1a2463fc9146","ios":"levelo://app?vid=66d527d3-6073-482b-a7e4-1a2463fc9146"},"vehicle_type_id":"4","last_reported":1713621942,"current_range_meters":400,"station_id":"ce4bgnh2rcd13ifvqc0g","pricing_plan_id":"cebpf4jnsgd1na2vs0mg"},{"bike_id":"2289f61f-f572-4a1b-bb77-216c0d0fbbf8","system_id":"levelo_inurba_marseille","lat":43.296131,"lon":5.370791,"is_reserved":false,"is_disabled":false,"rental_uris":{"android":"levelo://app?vid=2289f61f-f572-4a1b-bb77-216c0d0fbbf8","ios":"levelo://app?vid=2289f61f-f572-4a1b-bb77-216c0d0fbbf8"},"vehicle_type_id":"4","last_reported":1713621942,"current_range_meters":30000,"station_id":"ce4bgnh2rcd13ifvqc0g","pricing_plan_id":"cebpf4jnsgd1na2vs0mg"},{"bike_id":"f302aeb3-0e78-4a84-8ea7-6fc4d8457cc8","system_id":"levelo_inurba_marseille","lat":43.29573,"lon":5.367355,"is_reserved":false,"is_disabled":false,"rental_uris":{"android":"levelo://app?vid=f302aeb3-0e78-4a84-8ea7-6fc4d8457cc8","ios":"levelo://app?vid=f302aeb3-0e78-4a84-8ea7-6fc4d8457cc8"},"vehicle_type_id":"4","last_reported":1713621942,"current_range_meters":15600,"station_id":"ce4bgph2rcd13ifvqc2g","pricing_plan_id":"cebpf4jnsgd1na2vs0mg"},{"bike_id":"f73a2382-6b92-41fd-b3ff-44ecb7f1e33c","system_id":"levelo_inurba_marseille","lat":43.29621,"lon":5.37169,"is_reserved":false,"is_disabled":false,"rental_uris":{"android":"levelo://app?vid=f73a2382-6b92-41fd-b3ff-44ecb7f1e33c","ios":"levelo://app?vid=f73a2382-6b92-41fd-b3ff-44ecb7f1e33c"},"vehicle_type_id":"4","last_reported":1713621942,"current_range_meters":26800,"station_id":"ce4bgnh2rcd13ifvqc0g","pricing_plan_id":"cebpf4jnsgd1na2vs0mg"},{"bike_id":"4bd44db9-4e57-4b08-bbb2-e86f9437d1ee","system_id":"levelo_inurba_marseille","lat":43.290104,"lon":5.356111,"is_reserved":false,"is_disabled":false,"rental_uris":{"android":"levelo://app?vid=4bd44db9-4e57-4b08-bbb2-e86f9437d1ee","ios":"levelo://app?vid=4bd44db9-4e57-4b08-bbb2-e86f9437d1ee"},"vehicle_type_id":"4","last_reported":1713621942,"current_range_meters":30400,"station_id":"ce4bhb92rcd13ifvqen0","pricing_plan_id":"cebpf4jnsgd1na2vs0mg"},{"bike_id":"b98e2493-a9fe-4a66-a444-131e6d5b996c","system_id":"levelo_inurba_marseille","lat":43.29573,"lon":5.367355,"is_reserved":false,"is_disabled":false,"rental_uris":{"android":"levelo://app?vid=b98e2493-a9fe-4a66-a444-131e6d5b996c","ios":"levelo://app?vid=b98e2493-a9fe-4a66-a444-131e6d5b996c"},"vehicle_type_id":"4","last_reported":1713621942,"current_range_meters":10800,"station_id":"ce4bgph2rcd13ifvqc2g","pricing_plan_id":"cebpf4jnsgd1na2vs0mg"},{"bike_id":"c61881f4-e55b-47f8-944e-6eb2c8ecb641","system_id":"levelo_inurba_marseille","lat":43.29573,"lon":5.367355,"is_reserved":false,"is_disabled":false,"rental_uris":{"android":"levelo://app?vid=c61881f4-e55b-47f8-944e-6eb2c8ecb641","ios":"levelo://app?vid=c61881f4-e55b-47f8-944e-6eb2c8ecb641"},"vehicle_type_id":"4","last_reported":1713621942,"current_range_meters":22000,"station_id":"ce4bgph2rcd13ifvqc2g","pricing_plan_id":"cebpf4jnsgd1na2vs0mg"},{"bike_id":"14c0a187-5472-4ecf-aa9d-2f9d5c9d7ba9","system_id":"levelo_inurba_marseille","lat":43.296921,"lon":5.376579,"is_reserved":false,"is_disabled":false,"rental_uris":{"android":"levelo://app?vid=14c0a187-5472-4ecf-aa9d-2f9d5c9d7ba9","ios":"levelo://app?vid=14c0a187-5472-4ecf-aa9d-2f9d5c9d7ba9"},"vehicle_type_id":"4","last_reported":1713621942,"current_range_meters":13600,"station_id":"ce4bgkh2rcd13ifvqbl0","pricing_plan_id":"cebpf4jnsgd1na2vs0mg"},{"bike_id":"e6d55f4c-5fea-486e-aa32-33ada6fc544e","system_id":"levelo_inurba_marseille","lat":43.291994,"lon":5.392907,"is_reserved":false,"is_disabled":false,"rental_uris":{"android":"levelo://app?vid=e6d55f4c-5fea-486e-aa32-33ada6fc544e","ios":"levelo://app?vid=e6d55f4c-5fea-486e-aa32-33ada6fc544e"},"vehicle_type_id":"4","last_reported":1713621942,"current_range_meters":24800,"station_id":"ce4bh192rcd13ifvqdd0","pricing_plan_id":"cebpf4jnsgd1na2vs0mg"},{"bike_id":"aa6f2644-3e09-4c0f-b832-2aa62dfaaa8a","system_id":"levelo_inurba_marseille","lat":43.309589,"lon":5.390258,"is_reserved":false,"is_disabled":false,"rental_uris":{"android":"levelo://app?vid=aa6f2644-3e09-4c0f-b832-2aa62dfaaa8a","ios":"levelo://app?vid=aa6f2644-3e09-4c0f-b832-2aa62dfaaa8a"},"vehicle_type_id":"4","last_reported":1713621942,"current_range_meters":28400,"station_id":"ce4bgup2rcd13ifvqco0","pricing_plan_id":"cebpf4jnsgd1na2vs0mg"},{"bike_id":"bcbb76d1-2661-4ced-961f-3bd65f7ebc7d","system_id":"levelo_inurba_marseille","lat":43.309589,"lon":5.390258,"is_reserved":false,"is_disabled":false,"rental_uris":{"android":"levelo://app?vid=bcbb76d1-2661-4ced-961f-3bd65f7ebc7d","ios":"levelo://app?vid=bcbb76d1-2661-4ced-961f-3bd65f7ebc7d"},"vehicle_type_id":"4","last_reported":1713621942,"current_range_meters":30000,"station_id":"ce4bgup2rcd13ifvqco0","pricing_plan_id":"cebpf4jnsgd1na2vs0mg"},{"bike_id":"2ab48669-e241-4b6d-9fb3-2db434ab2118","system_id":"levelo_inurba_marseille","lat":43.317573,"lon":5.390175,"is_reserved":false,"is_disabled":false,"rental_uris":{"android":"levelo://app?vid=2ab48669-e241-4b6d-9fb3-2db434ab2118","ios":"levelo://app?vid=2ab48669-e241-4b6d-9fb3-2db434ab2118"},"vehicle_type_id":"4","last_reported":1713621942,"current_range_meters":30000,"station_id":"ce4bhqp2rcd13ifvqhng","pricing_plan_id":"cebpf4jnsgd1na2vs0mg"},{"bike_id":"49db6b10-ecb4-4c55-8fb0-32b97f63b306","system_id":"levelo_inurba_marseille","lat":43.317557,"lon":5.390173,"is_reserved":false,"is_disabled":false,"rental_uris":{"android":"levelo://app?vid=49db6b10-ecb4-4c55-8fb0-32b97f63b306","ios":"levelo://app?vid=49db6b10-ecb4-4c55-8fb0-32b97f63b306"},"vehicle_type_id":"4","last_reported":1713621942,"current_range_meters":9200,"station_id":"ce4bhqp2rcd13ifvqhng","pricing_plan_id":"cebpf4jnsgd1na2vs0mg"},{"bike_id":"cd839c04-b6d1-490b-9e61-b2c5bb5cb909","system_id":"levelo_inurba_marseille","lat":43.31761,"lon":5.39017,"is_reserved":false,"is_disabled":false,"rental_uris":{"android":"levelo://app?vid=cd839c04-b6d1-490b-9e61-b2c5bb5cb909","ios":"levelo://app?vid=cd839c04-b6d1-490b-9e61-b2c5bb5cb909"},"vehicle_type_id":"4","last_reported":1713621942,"current_range_meters":13600,"station_id":"ce4bhqp2rcd13ifvqhng","pricing_plan_id":"cebpf4jnsgd1na2vs0mg"},{"bike_id":"ba13c01a-aaae-4f69-8c7a-ae23f821abbd","system_id":"levelo_inurba_marseille","lat":43.317561,"lon":5.390212,"is_reserved":false,"is_disabled":false,"rental_uris":{"android":"levelo://app?vid=ba13c01a-aaae-4f69-8c7a-ae23f821abbd","ios":"levelo://app?vid=ba13c01a-aaae-4f69-8c7a-ae23f821abbd"},"vehicle_type_id":"4","last_reported":1713621942,"current_range_meters":11200,"station_id":"ce4bhqp2rcd13ifvqhng","pricing_plan_id":"cebpf4jnsgd1na2vs0mg"},{"bike_id":"0c7aa32f-0217-40ec-8971-b91bb8bc79f9","system_id":"levelo_inurba_marseille","lat":43.31761,"lon":5.39023,"is_reserved":false,"is_disabled":false,"rental_uris":{"android":"levelo://app?vid=0c7aa32f-0217-40ec-8971-b91bb8bc79f9","ios":"levelo://app?vid=0c7aa32f-0217-40ec-8971-b91bb8bc79f9"},"vehicle_type_id":"4","last_reported":1713621942,"current_range_meters":31200,"station_id":"ce4bhqp2rcd13ifvqhng","pricing_plan_id":"cebpf4jnsgd1na2vs0mg"},{"bike_id":"c1737f14-581c-4dde-8fe3-87a16483ad77","system_id":"levelo_inurba_marseille","lat":43.317511,"lon":5.390279,"is_reserved":false,"is_disabled":false,"rental_uris":{"android":"levelo://app?vid=c1737f14-581c-4dde-8fe3-87a16483ad77","ios":"levelo://app?vid=c1737f14-581c-4dde-8fe3-87a16483ad77"},"vehicle_type_id":"4","last_reported":1713621942,"current_range_meters":14800,"station_id":"ce4bhqp2rcd13ifvqhng","pricing_plan_id":"cebpf4jnsgd1na2vs0mg"},{"bike_id":"398521c7-d1f8-43b4-80a3-0ddd1e4fc426","system_id":"levelo_inurba_marseille","lat":43.313571,"lon":5.384829,"is_reserved":false,"is_disabled":false,"rental_uris":{"android":"levelo://app?vid=398521c7-d1f8-43b4-80a3-0ddd1e4fc426","ios":"levelo://app?vid=398521c7-d1f8-43b4-80a3-0ddd1e4fc426"},"vehicle_type_id":"4","last_reported":1713621942,"current_range_meters":14400,"station_id":"ce4bgt92rcd13ifvqcf0","pricing_plan_id":"cebpf4jnsgd1na2vs0mg"},{"bike_id":"7924ea69-63bb-4279-b930-6426af79ed9a","system_id":"levelo_inurba_marseille","lat":43.295748,"lon":5.37522,"is_reserved":false,"is_disabled":false,"rental_uris":{"android":"levelo://app?vid=7924ea69-63bb-4279-b930-6426af79ed9a","ios":"levelo://app?vid=7924ea69-63bb-4279-b930-6426af79ed9a"},"vehicle_type_id":"4","last_reported":1713621942,"current_range_meters":23200,"station_id":"ce4bgh92rcd13ifvqb50","pricing_plan_id":"cebpf4jnsgd1na2vs0mg"},{"bike_id":"a5445c24-230d-4579-b5fe-52e1a67cef6b","system_id":"levelo_inurba_marseille","lat":43.2957,"lon":5.37504,"is_reserved":false,"is_disabled":false,"rental_uris":{"android":"levelo://app?vid=a5445c24-230d-4579-b5fe-52e1a67cef6b","ios":"levelo://app?vid=a5445c24-230d-4579-b5fe-52e1a67cef6b"},"vehicle_type_id":"4","last_reported":1713621942,"current_range_meters":26000,"station_id":"ce4bgh92rcd13ifvqb50","pricing_plan_id":"cebpf4jnsgd1na2vs0mg"},{"bike_id":"8ee03c14-cada-493d-84b4-c56054131cd7","system_id":"levelo_inurba_marseille","lat":43.309371,"lon":5.401449,"is_reserved":false,"is_disabled":false,"rental_uris":{"android":"levelo://app?vid=8ee03c14-cada-493d-84b4-c56054131cd7","ios":"levelo://app?vid=8ee03c14-cada-493d-84b4-c56054131cd7"},"vehicle_type_id":"4","last_reported":1713621942,"current_range_meters":17200,"station_id":"ce4bgvp2rcd13ifvqct0","pricing_plan_id":"cebpf4jnsgd1na2vs0mg"},{"bike_id":"26567adc-ef22-4545-9d01-13101bc37ba8","system_id":"levelo_inurba_marseille","lat":43.29567,"lon":5.37512,"is_reserved":false,"is_disabled":false,"rental_uris":{"android":"levelo://app?vid=26567adc-ef22-4545-9d01-13101bc37ba8","ios":"levelo://app?vid=26567adc-ef22-4545-9d01-13101bc37ba8"},"vehicle_type_id":"4","last_reported":1713621942,"current_range_meters":29200,"station_id":"ce4bgh92rcd13ifvqb50","pricing_plan_id":"cebpf4jnsgd1na2vs0mg"},{"bike_id":"0a765021-0eae-4b0d-86d6-5a9566037297","system_id":"levelo_inurba_marseille","lat":43.295677,"lon":5.375243,"is_reserved":false,"is_disabled":false,"rental_uris":{"android":"levelo://app?vid=0a765021-0eae-4b0d-86d6-5a9566037297","ios":"levelo://app?vid=0a765021-0eae-4b0d-86d6-5a9566037297"},"vehicle_type_id":"4","last_reported":1713621942,"current_range_meters":9200,"station_id":"ce4bgh92rcd13ifvqb50","pricing_plan_id":"cebpf4jnsgd1na2vs0mg"},{"bike_id":"19426f82-43d5-4ebc-8476-feda365c50f4","system_id":"levelo_inurba_marseille","lat":43.295668,"lon":5.37521,"is_reserved":false,"is_disabled":false,"rental_uris":{"android":"levelo://app?vid=19426f82-43d5-4ebc-8476-feda365c50f4","ios":"levelo://app?vid=19426f82-43d5-4ebc-8476-feda365c50f4"},"vehicle_type_id":"4","last_reported":1713621942,"current_range_meters":18800,"station_id":"ce4bgh92rcd13ifvqb50","pricing_plan_id":"cebpf4jnsgd1na2vs0mg"},{"bike_id":"f1bd91bc-76e8-4dfd-981d-9c84855426b7","system_id":"levelo_inurba_marseille","lat":43.296263,"lon":5.377094,"is_reserved":false,"is_disabled":false,"rental_uris":{"android":"levelo://app?vid=f1bd91bc-76e8-4dfd-981d-9c84855426b7","ios":"levelo://app?vid=f1bd91bc-76e8-4dfd-981d-9c84855426b7"},"vehicle_type_id":"4","last_reported":1713621942,"current_range_meters":24000,"station_id":"ce4bgi92rcd13ifvqb90","pricing_plan_id":"cebpf4jnsgd1na2vs0mg"},{"bike_id":"0f598ea8-ce7d-45ac-9f4c-df38a0cb709e","system_id":"levelo_inurba_marseille","lat":43.295279,"lon":5.375048,"is_reserved":false,"is_disabled":false,"rental_uris":{"android":"levelo://app?vid=0f598ea8-ce7d-45ac-9f4c-df38a0cb709e","ios":"levelo://app?vid=0f598ea8-ce7d-45ac-9f4c-df38a0cb709e"},"vehicle_type_id":"4","last_reported":1713621942,"current_range_meters":5600,"station_id":"ce4bgkp2rcd13ifvqbmg","pricing_plan_id":"cebpf4jnsgd1na2vs0mg"},{"bike_id":"79080ab7-4264-4490-8caf-a8a6e1522695","system_id":"levelo_inurba_marseille","lat":43.295279,"lon":5.375048,"is_reserved":false,"is_disabled":false,"rental_uris":{"android":"levelo://app?vid=79080ab7-4264-4490-8caf-a8a6e1522695","ios":"levelo://app?vid=79080ab7-4264-4490-8caf-a8a6e1522695"},"vehicle_type_id":"4","last_reported":1713621942,"current_range_meters":13200,"station_id":"ce4bgkp2rcd13ifvqbmg","pricing_plan_id":"cebpf4jnsgd1na2vs0mg"},{"bike_id":"b8fe1538-eee6-48ae-ae97-90511e47fd55","system_id":"levelo_inurba_marseille","lat":43.295279,"lon":5.375048,"is_reserved":false,"is_disabled":false,"rental_uris":{"android":"levelo://app?vid=b8fe1538-eee6-48ae-ae97-90511e47fd55","ios":"levelo://app?vid=b8fe1538-eee6-48ae-ae97-90511e47fd55"},"vehicle_type_id":"4","last_reported":1713621942,"current_range_meters":30000,"station_id":"ce4bgkp2rcd13ifvqbmg","pricing_plan_id":"cebpf4jnsgd1na2vs0mg"},{"bike_id":"c97d39b2-0f8f-43ca-bd70-aa095d9047d4","system_id":"levelo_inurba_marseille","lat":43.295279,"lon":5.375048,"is_reserved":false,"is_disabled":false,"rental_uris":{"android":"levelo://app?vid=c97d39b2-0f8f-43ca-bd70-aa095d9047d4","ios":"levelo://app?vid=c97d39b2-0f8f-43ca-bd70-aa095d9047d4"},"vehicle_type_id":"4","last_reported":1713621942,"current_range_meters":6800,"station_id":"ce4bgkp2rcd13ifvqbmg","pricing_plan_id":"cebpf4jnsgd1na2vs0mg"},{"bike_id":"5d8cb179-8517-4c0f-a554-077c2181ace9","system_id":"levelo_inurba_marseille","lat":43.299717,"lon":5.384845,"is_reserved":false,"is_disabled":false,"rental_uris":{"android":"levelo://app?vid=5d8cb179-8517-4c0f-a554-077c2181ace9","ios":"levelo://app?vid=5d8cb179-8517-4c0f-a554-077c2181ace9"},"vehicle_type_id":"4","last_reported":1713621942,"current_range_meters":400,"station_id":"ce4bgj92rcd13ifvqbd0","pricing_plan_id":"cebpf4jnsgd1na2vs0mg"},{"bike_id":"598f804f-f241-4a9f-813b-e47cc2052492","system_id":"levelo_inurba_marseille","lat":43.296935,"lon":5.376544,"is_reserved":false,"is_disabled":false,"rental_uris":{"android":"levelo://app?vid=598f804f-f241-4a9f-813b-e47cc2052492","ios":"levelo://app?vid=598f804f-f241-4a9f-813b-e47cc2052492"},"vehicle_type_id":"4","last_reported":1713621942,"current_range_meters":14000,"station_id":"ce4bgkh2rcd13ifvqbl0","pricing_plan_id":"cebpf4jnsgd1na2vs0mg"},{"bike_id":"0f2d3649-56ed-4775-b72d-c3f8028f8764","system_id":"levelo_inurba_marseille","lat":43.32367,"lon":5.388836,"is_reserved":false,"is_disabled":false,"rental_uris":{"android":"levelo://app?vid=0f2d3649-56ed-4775-b72d-c3f8028f8764","ios":"levelo://app?vid=0f2d3649-56ed-4775-b72d-c3f8028f8764"},"vehicle_type_id":"4","last_reported":1713621942,"current_range_meters":30400,"station_id":"ce4bhqp2rcd13ifvqhog","pricing_plan_id":"cebpf4jnsgd1na2vs0mg"},{"bike_id":"9250474f-8dc2-4068-98be-1996c9986e22","system_id":"levelo_inurba_marseille","lat":43.323614,"lon":5.388822,"is_reserved":false,"is_disabled":false,"rental_uris":{"android":"levelo://app?vid=9250474f-8dc2-4068-98be-1996c9986e22","ios":"levelo://app?vid=9250474f-8dc2-4068-98be-1996c9986e22"},"vehicle_type_id":"4","last_reported":1713621942,"current_range_meters":22800,"station_id":"ce4bhqp2rcd13ifvqhog","pricing_plan_id":"cebpf4jnsgd1na2vs0mg"},{"bike_id":"10bd876b-372c-48b6-9eea-48946bb81dd8","system_id":"levelo_inurba_marseille","lat":43.32367,"lon":5.388836,"is_reserved":false,"is_disabled":false,"rental_uris":{"android":"levelo://app?vid=10bd876b-372c-48b6-9eea-48946bb81dd8","ios":"levelo://app?vid=10bd876b-372c-48b6-9eea-48946bb81dd8"},"vehicle_type_id":"4","last_reported":1713621942,"current_range_meters":8400,"station_id":"ce4bhqp2rcd13ifvqhog","pricing_plan_id":"cebpf4jnsgd1na2vs0mg"},{"bike_id":"19af0ee7-bde5-49a6-a339-b58324787ab5","system_id":"levelo_inurba_marseille","lat":43.32367,"lon":5.388836,"is_reserved":false,"is_disabled":false,"rental_uris":{"android":"levelo://app?vid=19af0ee7-bde5-49a6-a339-b58324787ab5","ios":"levelo://app?vid=19af0ee7-bde5-49a6-a339-b58324787ab5"},"vehicle_type_id":"4","last_reported":1713621942,"current_range_meters":22000,"station_id":"ce4bhqp2rcd13ifvqhog","pricing_plan_id":"cebpf4jnsgd1na2vs0mg"},{"bike_id":"ccd394da-1307-4dbf-acdf-bc0d9f4cdd82","system_id":"levelo_inurba_marseille","lat":43.32367,"lon":5.388836,"is_reserved":false,"is_disabled":false,"rental_uris":{"android":"levelo://app?vid=ccd394da-1307-4dbf-acdf-bc0d9f4cdd82","ios":"levelo://app?vid=ccd394da-1307-4dbf-acdf-bc0d9f4cdd82"},"vehicle_type_id":"4","last_reported":1713621942,"current_range_meters":12800,"station_id":"ce4bhqp2rcd13ifvqhog","pricing_plan_id":"cebpf4jnsgd1na2vs0mg"},{"bike_id":"9221273c-cb04-4701-8749-d23ab7a1662c","system_id":"levelo_inurba_marseille","lat":43.32367,"lon":5.388836,"is_reserved":false,"is_disabled":false,"rental_uris":{"android":"levelo://app?vid=9221273c-cb04-4701-8749-d23ab7a1662c","ios":"levelo://app?vid=9221273c-cb04-4701-8749-d23ab7a1662c"},"vehicle_type_id":"4","last_reported":1713621942,"current_range_meters":22800,"station_id":"ce4bhqp2rcd13ifvqhog","pricing_plan_id":"cebpf4jnsgd1na2vs0mg"},{"bike_id":"8b4c8d7f-d3f9-4511-8efb-fa5fb96795dc","system_id":"levelo_inurba_marseille","lat":43.32367,"lon":5.388836,"is_reserved":false,"is_disabled":false,"rental_uris":{"android":"levelo://app?vid=8b4c8d7f-d3f9-4511-8efb-fa5fb96795dc","ios":"levelo://app?vid=8b4c8d7f-d3f9-4511-8efb-fa5fb96795dc"},"vehicle_type_id":"4","last_reported":1713621942,"current_range_meters":28800,"station_id":"ce4bhqp2rcd13ifvqhog","pricing_plan_id":"cebpf4jnsgd1na2vs0mg"},{"bike_id":"b80d2e23-7f42-4e42-a45f-1d255d7daacb","system_id":"levelo_inurba_marseille","lat":43.32367,"lon":5.388836,"is_reserved":false,"is_disabled":false,"rental_uris":{"android":"levelo://app?vid=b80d2e23-7f42-4e42-a45f-1d255d7daacb","ios":"levelo://app?vid=b80d2e23-7f42-4e42-a45f-1d255d7daacb"},"vehicle_type_id":"4","last_reported":1713621942,"current_range_meters":25600,"station_id":"ce4bhqp2rcd13ifvqhog","pricing_plan_id":"cebpf4jnsgd1na2vs0mg"},{"bike_id":"a4817674-3392-4416-bf32-d7104a27159f","system_id":"levelo_inurba_marseille","lat":43.32367,"lon":5.388836,"is_reserved":false,"is_disabled":false,"rental_uris":{"android":"levelo://app?vid=a4817674-3392-4416-bf32-d7104a27159f","ios":"levelo://app?vid=a4817674-3392-4416-bf32-d7104a27159f"},"vehicle_type_id":"4","last_reported":1713621942,"current_range_meters":31200,"station_id":"ce4bhqp2rcd13ifvqhog","pricing_plan_id":"cebpf4jnsgd1na2vs0mg"},{"bike_id":"ee7e4b44-23ea-4839-8618-6c9cc97ded10","system_id":"levelo_inurba_marseille","lat":43.32368,"lon":5.38886,"is_reserved":false,"is_disabled":false,"rental_uris":{"android":"levelo://app?vid=ee7e4b44-23ea-4839-8618-6c9cc97ded10","ios":"levelo://app?vid=ee7e4b44-23ea-4839-8618-6c9cc97ded10"},"vehicle_type_id":"4","last_reported":1713621942,"current_range_meters":14000,"station_id":"ce4bhqp2rcd13ifvqhog","pricing_plan_id":"cebpf4jnsgd1na2vs0mg"},{"bike_id":"3896c664-50fa-42db-9a2c-2d55be44e9c6","system_id":"levelo_inurba_marseille","lat":43.32373,"lon":5.388823,"is_reserved":false,"is_disabled":false,"rental_uris":{"android":"levelo://app?vid=3896c664-50fa-42db-9a2c-2d55be44e9c6","ios":"levelo://app?vid=3896c664-50fa-42db-9a2c-2d55be44e9c6"},"vehicle_type_id":"4","last_reported":1713621942,"current_range_meters":10800,"station_id":"ce4bhqp2rcd13ifvqhog","pricing_plan_id":"cebpf4jnsgd1na2vs0mg"},{"bike_id":"c1745014-bdf7-4c2a-9515-3b218eaad246","system_id":"levelo_inurba_marseille","lat":43.32364,"lon":5.38891,"is_reserved":false,"is_disabled":false,"rental_uris":{"android":"levelo://app?vid=c1745014-bdf7-4c2a-9515-3b218eaad246","ios":"levelo://app?vid=c1745014-bdf7-4c2a-9515-3b218eaad246"},"vehicle_type_id":"4","last_reported":1713621942,"current_range_meters":28800,"station_id":"ce4bhqp2rcd13ifvqhog","pricing_plan_id":"cebpf4jnsgd1na2vs0mg"},{"bike_id":"b709ef4c-e43b-4a37-b730-414a4c029166","system_id":"levelo_inurba_marseille","lat":43.32367,"lon":5.388836,"is_reserved":false,"is_disabled":false,"rental_uris":{"android":"levelo://app?vid=b709ef4c-e43b-4a37-b730-414a4c029166","ios":"levelo://app?vid=b709ef4c-e43b-4a37-b730-414a4c029166"},"vehicle_type_id":"4","last_reported":1713621942,"current_range_meters":12800,"station_id":"ce4bhqp2rcd13ifvqhog","pricing_plan_id":"cebpf4jnsgd1na2vs0mg"},{"bike_id":"5caceea8-af1f-42a5-9f54-fbd64a91ce84","system_id":"levelo_inurba_marseille","lat":43.32367,"lon":5.388836,"is_reserved":false,"is_disabled":false,"rental_uris":{"android":"levelo://app?vid=5caceea8-af1f-42a5-9f54-fbd64a91ce84","ios":"levelo://app?vid=5caceea8-af1f-42a5-9f54-fbd64a91ce84"},"vehicle_type_id":"4","last_reported":1713621942,"current_range_meters":1200,"station_id":"ce4bhqp2rcd13ifvqhog","pricing_plan_id":"cebpf4jnsgd1na2vs0mg"},{"bike_id":"a6bf3a91-658e-46cf-a12e-0a915807b39e","system_id":"levelo_inurba_marseille","lat":43.29602,"lon":5.381084,"is_reserved":false,"is_disabled":false,"rental_uris":{"android":"levelo://app?vid=a6bf3a91-658e-46cf-a12e-0a915807b39e","ios":"levelo://app?vid=a6bf3a91-658e-46cf-a12e-0a915807b39e"},"vehicle_type_id":"4","last_reported":1713621942,"current_range_meters":0,"station_id":"ce4bgl12rcd13ifvqbo0","pricing_plan_id":"cebpf4jnsgd1na2vs0mg"},{"bike_id":"63edf51f-2a46-450a-a77a-47bc1cd0c868","system_id":"levelo_inurba_marseille","lat":43.292749,"lon":5.368402,"is_reserved":false,"is_disabled":false,"rental_uris":{"android":"levelo://app?vid=63edf51f-2a46-450a-a77a-47bc1cd0c868","ios":"levelo://app?vid=63edf51f-2a46-450a-a77a-47bc1cd0c868"},"vehicle_type_id":"4","last_reported":1713621942,"current_range_meters":2400,"station_id":"ce4bhbp2rcd13ifvqesg","pricing_plan_id":"cebpf4jnsgd1na2vs0mg"},{"bike_id":"7c16201d-b4fe-4cd4-8f65-a39bd08e98e6","system_id":"levelo_inurba_marseille","lat":43.296277,"lon":5.377108,"is_reserved":false,"is_disabled":false,"rental_uris":{"android":"levelo://app?vid=7c16201d-b4fe-4cd4-8f65-a39bd08e98e6","ios":"levelo://app?vid=7c16201d-b4fe-4cd4-8f65-a39bd08e98e6"},"vehicle_type_id":"4","last_reported":1713621942,"current_range_meters":25600,"station_id":"ce4bgi92rcd13ifvqb90","pricing_plan_id":"cebpf4jnsgd1na2vs0mg"},{"bike_id":"e550ed20-5aa1-493d-b31e-6389b93aa869","system_id":"levelo_inurba_marseille","lat":43.293009,"lon":5.374584,"is_reserved":false,"is_disabled":false,"rental_uris":{"android":"levelo://app?vid=e550ed20-5aa1-493d-b31e-6389b93aa869","ios":"levelo://app?vid=e550ed20-5aa1-493d-b31e-6389b93aa869"},"vehicle_type_id":"4","last_reported":1713621942,"current_range_meters":22000,"station_id":"ce4bgi12rcd13ifvqb70","pricing_plan_id":"cebpf4jnsgd1na2vs0mg"},{"bike_id":"d0d33e5c-3b48-4f6c-b178-d07f84eee68b","system_id":"levelo_inurba_marseille","lat":43.305994,"lon":5.393687,"is_reserved":false,"is_disabled":false,"rental_uris":{"android":"levelo://app?vid=d0d33e5c-3b48-4f6c-b178-d07f84eee68b","ios":"levelo://app?vid=d0d33e5c-3b48-4f6c-b178-d07f84eee68b"},"vehicle_type_id":"4","last_reported":1713621942,"current_range_meters":3600,"station_id":"ce4bh0p2rcd13ifvqd80","pricing_plan_id":"cebpf4jnsgd1na2vs0mg"},{"bike_id":"517368f6-0db9-4f19-9d56-b64c44430994","system_id":"levelo_inurba_marseille","lat":43.2936,"lon":5.37835,"is_reserved":false,"is_disabled":false,"rental_uris":{"android":"levelo://app?vid=517368f6-0db9-4f19-9d56-b64c44430994","ios":"levelo://app?vid=517368f6-0db9-4f19-9d56-b64c44430994"},"vehicle_type_id":"4","last_reported":1713621942,"current_range_meters":15200,"station_id":"ce4bgjh2rcd13ifvqbf0","pricing_plan_id":"cebpf4jnsgd1na2vs0mg"},{"bike_id":"74c603a8-857a-4b4c-aa8d-5f78e4ed3203","system_id":"levelo_inurba_marseille","lat":43.2936,"lon":5.37835,"is_reserved":false,"is_disabled":false,"rental_uris":{"android":"levelo://app?vid=74c603a8-857a-4b4c-aa8d-5f78e4ed3203","ios":"levelo://app?vid=74c603a8-857a-4b4c-aa8d-5f78e4ed3203"},"vehicle_type_id":"4","last_reported":1713621942,"current_range_meters":6000,"station_id":"ce4bgjh2rcd13ifvqbf0","pricing_plan_id":"cebpf4jnsgd1na2vs0mg"},{"bike_id":"f52f9d97-f998-4708-8394-9c9f1e14e0db","system_id":"levelo_inurba_marseille","lat":43.2936,"lon":5.37835,"is_reserved":false,"is_disabled":false,"rental_uris":{"android":"levelo://app?vid=f52f9d97-f998-4708-8394-9c9f1e14e0db","ios":"levelo://app?vid=f52f9d97-f998-4708-8394-9c9f1e14e0db"},"vehicle_type_id":"4","last_reported":1713621942,"current_range_meters":0,"station_id":"ce4bgjh2rcd13ifvqbf0","pricing_plan_id":"cebpf4jnsgd1na2vs0mg"},{"bike_id":"86a3760f-4916-4d59-8e94-8f8ecc8c470d","system_id":"levelo_inurba_marseille","lat":43.293605,"lon":5.378528,"is_reserved":false,"is_disabled":false,"rental_uris":{"android":"levelo://app?vid=86a3760f-4916-4d59-8e94-8f8ecc8c470d","ios":"levelo://app?vid=86a3760f-4916-4d59-8e94-8f8ecc8c470d"},"vehicle_type_id":"4","last_reported":1713621942,"current_range_meters":0,"station_id":"ce4bgjh2rcd13ifvqbf0","pricing_plan_id":"cebpf4jnsgd1na2vs0mg"},{"bike_id":"1444b303-2282-4876-a9b0-1b7b0115b4d9","system_id":"levelo_inurba_marseille","lat":43.292311,"lon":5.360731,"is_reserved":false,"is_disabled":false,"rental_uris":{"android":"levelo://app?vid=1444b303-2282-4876-a9b0-1b7b0115b4d9","ios":"levelo://app?vid=1444b303-2282-4876-a9b0-1b7b0115b4d9"},"vehicle_type_id":"4","last_reported":1713621942,"current_range_meters":0,"station_id":"ce4bhbh2rcd13ifvqeqg","pricing_plan_id":"cebpf4jnsgd1na2vs0mg"},{"bike_id":"8627d96a-9aa7-43e0-93c7-ed5661696ca0","system_id":"levelo_inurba_marseille","lat":43.302759,"lon":5.400793,"is_reserved":false,"is_disabled":false,"rental_uris":{"android":"levelo://app?vid=8627d96a-9aa7-43e0-93c7-ed5661696ca0","ios":"levelo://app?vid=8627d96a-9aa7-43e0-93c7-ed5661696ca0"},"vehicle_type_id":"4","last_reported":1713621942,"current_range_meters":3600,"station_id":"ce4bgvh2rcd13ifvqcs0","pricing_plan_id":"cebpf4jnsgd1na2vs0mg"},{"bike_id":"8587cd71-7ce0-4064-ae64-0bd7eb4463f5","system_id":"levelo_inurba_marseille","lat":43.291675,"lon":5.371583,"is_reserved":false,"is_disabled":false,"rental_uris":{"android":"levelo://app?vid=8587cd71-7ce0-4064-ae64-0bd7eb4463f5","ios":"levelo://app?vid=8587cd71-7ce0-4064-ae64-0bd7eb4463f5"},"vehicle_type_id":"4","last_reported":1713621942,"current_range_meters":15600,"station_id":"ce4bha92rcd13ifvqeh0","pricing_plan_id":"cebpf4jnsgd1na2vs0mg"},{"bike_id":"a8efc180-daf8-49bf-ab00-fe28d0078ea8","system_id":"levelo_inurba_marseille","lat":43.293009,"lon":5.374584,"is_reserved":false,"is_disabled":false,"rental_uris":{"android":"levelo://app?vid=a8efc180-daf8-49bf-ab00-fe28d0078ea8","ios":"levelo://app?vid=a8efc180-daf8-49bf-ab00-fe28d0078ea8"},"vehicle_type_id":"4","last_reported":1713621942,"current_range_meters":21600,"station_id":"ce4bgi12rcd13ifvqb70","pricing_plan_id":"cebpf4jnsgd1na2vs0mg"},{"bike_id":"9cee9f16-deb5-41fc-a8ad-f6ed9cb0a828","system_id":"levelo_inurba_marseille","lat":43.293009,"lon":5.374584,"is_reserved":false,"is_disabled":false,"rental_uris":{"android":"levelo://app?vid=9cee9f16-deb5-41fc-a8ad-f6ed9cb0a828","ios":"levelo://app?vid=9cee9f16-deb5-41fc-a8ad-f6ed9cb0a828"},"vehicle_type_id":"4","last_reported":1713621942,"current_range_meters":24000,"station_id":"ce4bgi12rcd13ifvqb70","pricing_plan_id":"cebpf4jnsgd1na2vs0mg"},{"bike_id":"6b68bf49-e13e-496d-9532-fd3d90682f71","system_id":"levelo_inurba_marseille","lat":43.291675,"lon":5.371583,"is_reserved":false,"is_disabled":false,"rental_uris":{"android":"levelo://app?vid=6b68bf49-e13e-496d-9532-fd3d90682f71","ios":"levelo://app?vid=6b68bf49-e13e-496d-9532-fd3d90682f71"},"vehicle_type_id":"4","last_reported":1713621942,"current_range_meters":15600,"station_id":"ce4bha92rcd13ifvqeh0","pricing_plan_id":"cebpf4jnsgd1na2vs0mg"},