{"last_updated":1715713526,"ttl":30,"version":"2.2","data":{"bikes":[{"bike_id":"ea382518-ea9c-4e8c-87f5-2d595aca2cd7","system_id":"levelo_inurba_marseille","lat":43.312239,"lon":5.368562,"is_reserved":false,"is_disabled":false,"rental_uris":{"android":"levelo://app?vid=ea382518-ea9c-4e8c-87f5-2d595aca2cd7","ios":"levelo://app?vid=ea382518-ea9c-4e8c-87f5-2d595aca2cd7"},"vehicle_type_id":"4","last_reported":1715713526,"current_range_meters":16800,"station_id":"ce4bgl92rcd13ifvqbq0","pricing_plan_id":"cebpf4jnsgd1na2vs0mg"},{"bike_id":"87168baa-9a04-4d56-bbf8-6419b6726ee1","system_id":"levelo_inurba_marseille","lat":43.312239,"lon":5.368562,"is_reserved":false,"is_disabled":false,"rental_uris":{"android":"levelo://app?vid=87168baa-9a04-4d56-bbf8-6419b6726ee1","ios":"levelo://app?vid=87168baa-9a04-4d56-bbf8-6419b6726ee1"},"vehicle_type_id":"4","last_reported":1715713526,"current_range_meters":13600,"station_id":"ce4bgl92rcd13ifvqbq0","pricing_plan_id":"cebpf4jnsgd1na2vs0mg"},{"bike_id":"1a5ce7ea-ede7-4cb4-9420-ed3eb469ac64","system_id":"levelo_inurba_marseille","lat":43.312239,"lon":5.368562,"is_reserved":false,"is_disabled":false,"rental_uris":{"android":"levelo://app?vid=1a5ce7ea-ede7-4cb4-9420-ed3eb469ac64","ios":"levelo://app?vid=1a5ce7ea-ede7-4cb4-9420-ed3eb469ac64"},"vehicle_type_id":"4","last_reported":1715713526,"current_range_meters":18000,"station_id":"ce4bgl92rcd13ifvqbq0","pricing_plan_id":"cebpf4jnsgd1na2vs0mg"},{"bike_id":"eaeff3f5-3c59-488e-9bd7-b4b3e5d9bf96","system_id":"levelo_inurba_marseille","lat":43.312239,"lon":5.368562,"is_reserved":false,"is_disabled":false,"rental_uris":{"android":"levelo://app?vid=eaeff3f5-3c59-488e-9bd7-b4b3e5d9bf96","ios":"levelo://app?vid=eaeff3f5-3c59-488e-9bd7-b4b3e5d9bf96"},"vehicle_type_id":"4","last_reported":1715713526,"current_range_meters":25600,"station_id":"ce4bgl92rcd13ifvqbq0","pricing_plan_id":"cebpf4jnsgd1na2vs0mg"},{"bike_id":"f0a2a879-2709-424d-98e9-10f8aa5ea90d","system_id":"levelo_inurba_marseille","lat":43.312239,"lon":5.368562,"is_reserved":false,"is_disabled":false,"rental_uris":{"android":"levelo://app?vid=f0a2a879-2709-424d-98e9-10f8aa5ea90d","ios":"levelo://app?vid=f0a2a879-2709-424d-98e9-10f8aa5ea90d"},"vehicle_type_id":"4","last_reported":1715713526,"current_range_meters":4000,"station_id":"ce4bgl92rcd13ifvqbq0","pricing_plan_id":"cebpf4jnsgd1na2vs0mg"},{"bike_id":"225bb683-243d-4695-bb73-32b32d2b52c6","system_id":"levelo_inurba_marseille","lat":43.312239,"lon":5.368591,"is_reserved":false,"is_disabled":false,"rental_uris":{"android":"levelo://app?vid=225bb683-243d-4695-bb73-32b32d2b52c6","ios":"levelo://app?vid=225bb683-243d-4695-bb73-32b32d2b52c6"},"vehicle_type_id":"4","last_reported":1715713526,"current_range_meters":8000,"station_id":"ce4bgl92rcd13ifvqbq0","pricing_plan_id":"cebpf4jnsgd1na2vs0mg"},{"bike_id":"c8cf49fd-e6d3-4318-9e1a-59aa685a4fb6","system_id":"levelo_inurba_marseille","lat":43.30975,"lon":5.36896,"is_reserved":false,"is_disabled":false,"rental_uris":{"android":"levelo://app?vid=c8cf49fd-e6d3-4318-9e1a-59aa685a4fb6","ios":"levelo://app?vid=c8cf49fd-e6d3-4318-9e1a-59aa685a4fb6"},"vehicle_type_id":"4","last_reported":1715713526,"current_range_meters":1600,"station_id":"","pricing_plan_id":"cebpf4jnsgd1na2vs0mg"},{"bike_id":"db4443ae-d0ca-40db-a0e4-48cc9ce84b98","system_id":"levelo_inurba_marseille","lat":43.309076,"lon":5.368465,"is_reserved":false,"is_disabled":false,"rental_uris":{"android":"levelo://app?vid=db4443ae-d0ca-40db-a0e4-48cc9ce84b98","ios":"levelo://app?vid=db4443ae-d0ca-40db-a0e4-48cc9ce84b98"},"vehicle_type_id":"4","last_reported":1715713526,"current_range_meters":31200,"station_id":"ce4bgn92rcd13ifvqbvg","pricing_plan_id":"cebpf4jnsgd1na2vs0mg"},{"bike_id":"2c5cf340-8110-4abb-b180-da05ebcfb3fb","system_id":"levelo_inurba_marseille","lat":43.309076,"lon":5.368465,"is_reserved":false,"is_disabled":false,"rental_uris":{"android":"levelo://app?vid=2c5cf340-8110-4abb-b180-da05ebcfb3fb","ios":"levelo://app?vid=2c5cf340-8110-4abb-b180-da05ebcfb3fb"},"vehicle_type_id":"4","last_reported":1715713526,"current_range_meters":17200,"station_id":"ce4bgn92rcd13ifvqbvg","pricing_plan_id":"cebpf4jnsgd1na2vs0mg"},{"bike_id":"2ef2cbc0-6568-484b-bd89-e3d72cca1c84","system_id":"levelo_inurba_marseille","lat":43.30905,"lon":5.36849,"is_reserved":false,"is_disabled":false,"rental_uris":{"android":"levelo://app?vid=2ef2cbc0-6568-484b-bd89-e3d72cca1c84","ios":"levelo://app?vid=2ef2cbc0-6568-484b-bd89-e3d72cca1c84"},"vehicle_type_id":"4","last_reported":1715713526,"current_range_meters":13600,"station_id":"ce4bgn92rcd13ifvqbvg","pricing_plan_id":"cebpf4jnsgd1na2vs0mg"},{"bike_id":"4dd81921-e4b6-4b6d-8fdb-519e885c479c","system_id":"levelo_inurba_marseille","lat":43.309076,"lon":5.368465,"is_reserved":false,"is_disabled":false,"rental_uris":{"android":"levelo://app?vid=4dd81921-e4b6-4b6d-8fdb-519e885c479c","ios":"levelo://app?vid=4dd81921-e4b6-4b6d-8fdb-519e885c479c"},"vehicle_type_id":"4","last_reported":1715713526,"current_range_meters":9600,"station_id":"ce4bgn92rcd13ifvqbvg","pricing_plan_id":"cebpf4jnsgd1na2vs0mg"},{"bike_id":"9991a82c-0444-4090-bc3d-023514794e1f","system_id":"levelo_inurba_marseille","lat":43.309076,"lon":5.368465,"is_reserved":false,"is_disabled":false,"rental_uris":{"android":"levelo://app?vid=9991a82c-0444-4090-bc3d-023514794e1f","ios":"levelo://app?vid=9991a82c-0444-4090-bc3d-023514794e1f"},"vehicle_type_id":"4","last_reported":1715713526,"current_range_meters":25200,"station_id":"ce4bgn92rcd13ifvqbvg","pricing_plan_id":"cebpf4jnsgd1na2vs0mg"},{"bike_id":"ee24d5c6-36b7-4804-8e1b-28ac00c5e744","system_id":"levelo_inurba_marseille","lat":43.309033,"lon":5.368565,"is_reserved":false,"is_disabled":false,"rental_uris":{"android":"levelo://app?vid=ee24d5c6-36b7-4804-8e1b-28ac00c5e744","ios":"levelo://app?vid=ee24d5c6-36b7-4804-8e1b-28ac00c5e744"},"vehicle_type_id":"4","last_reported":1715713526,"current_range_meters":10000,"station_id":"ce4bgn92rcd13ifvqbvg","pricing_plan_id":"cebpf4jnsgd1na2vs0mg"},{"bike_id":"49119149-748f-4691-967a-1a6367a88790","system_id":"levelo_inurba_marseille","lat":43.309076,"lon":5.368465,"is_reserved":false,"is_disabled":false,"rental_uris":{"android":"levelo://app?vid=49119149-748f-4691-967a-1a6367a88790","ios":"levelo://app?vid=49119149-748f-4691-967a-1a6367a88790"},"vehicle_type_id":"4","last_reported":1715713526,"current_range_meters":13200,"station_id":"ce4bgn92rcd13ifvqbvg","pricing_plan_id":"cebpf4jnsgd1na2vs0mg"},{"bike_id":"758e34dd-dca2-4475-a212-7764472bd62f","system_id":"levelo_inurba_marseille","lat":43.309,"lon":5.36851,"is_reserved":false,"is_disabled":false,"rental_uris":{"android":"levelo://app?vid=758e34dd-dca2-4475-a212-7764472bd62f","ios":"levelo://app?vid=758e34dd-dca2-4475-a212-7764472bd62f"},"vehicle_type_id":"4","last_reported":1715713526,"current_range_meters":3600,"station_id":"ce4bgn92rcd13ifvqbvg","pricing_plan_id":"cebpf4jnsgd1na2vs0mg"},{"bike_id":"a98cc8b6-d967-45e8-bd65-29df8703c4e8","system_id":"levelo_inurba_marseille","lat":43.309076,"lon":5.368465,"is_reserved":false,"is_disabled":false,"rental_uris":{"android":"levelo://app?vid=a98cc8b6-d967-45e8-bd65-29df8703c4e8","ios":"levelo://app?vid=a98cc8b6-d967-45e8-bd65-29df8703c4e8"},"vehicle_type_id":"4","last_reported":1715713526,"current_range_meters":17600,"station_id":"ce4bgn92rcd13ifvqbvg","pricing_plan_id":"cebpf4jnsgd1na2vs0mg"},{"bike_id":"727294bd-ad6d-4d8f-91b1-ad68d41622c3","system_id":"levelo_inurba_marseille","lat":43.314811,"lon":5.373103,"is_reserved":false,"is_disabled":false,"rental_uris":{"android":"levelo://app?vid=727294bd-ad6d-4d8f-91b1-ad68d41622c3","ios":"levelo://app?vid=727294bd-ad6d-4d8f-91b1-ad68d41622c3"},"vehicle_type_id":"4","last_reported":1715713526,"current_range_meters":31200,"station_id":"ce4bgt12rcd13ifvqcd0","pricing_plan_id":"cebpf4jnsgd1na2vs0mg"},{"bike_id":"d8f204ae-0c53-4d8b-9302-225ee645a59b","system_id":"levelo_inurba_marseille","lat":43.314811,"lon":5.373103,"is_reserved":false,"is_disabled":false,"rental_uris":{"android":"levelo://app?vid=d8f204ae-0c53-4d8b-9302-225ee645a59b","ios":"levelo://app?vid=d8f204ae-0c53-4d8b-9302-225ee645a59b"},"vehicle_type_id":"4","last_reported":1715713526,"current_range_meters":18000,"station_id":"ce4bgt12rcd13ifvqcd0","pricing_plan_id":"cebpf4jnsgd1na2vs0mg"},{"bike_id":"0975c56d-2ef7-4353-a259-2cd7c754039e","system_id":"levelo_inurba_marseille","lat":43.314811,"lon":5.373104,"is_reserved":false,"is_disabled":false,"rental_uris":{"android":"levelo://app?vid=0975c56d-2ef7-4353-a259-2cd7c754039e","ios":"levelo://app?vid=0975c56d-2ef7-4353-a259-2cd7c754039e"},"vehicle_type_id":"4","last_reported":1715713526,"current_range_meters":26000,"station_id":"ce4bgt12rcd13ifvqcd0","pricing_plan_id":"cebpf4jnsgd1na2vs0mg"},{"bike_id":"d460936a-3170-4372-bec6-a1f85467a6b2","system_id":"levelo_inurba_marseille","lat":43.314811,"lon":5.373104,"is_reserved":false,"is_disabled":false,"rental_uris":{"android":"levelo://app?vid=d460936a-3170-4372-bec6-a1f85467a6b2","ios":"levelo://app?vid=d460936a-3170-4372-bec6-a1f85467a6b2"},"vehicle_type_id":"4","last_reported":1715713526,"current_range_meters":18000,"station_id":"ce4bgt12rcd13ifvqcd0","pricing_plan_id":"cebpf4jnsgd1na2vs0mg"},{"bike_id":"80cd593e-c07e-4d35-b8b2-be79281c2725","system_id":"levelo_inurba_marseille","lat":43.309039,"lon":5.371797,"is_reserved":false,"is_disabled":false,"rental_uris":{"android":"levelo://app?vid=80cd593e-c07e-4d35-b8b2-be79281c2725","ios":"levelo://app?vid=80cd593e-c07e-4d35-b8b2-be79281c2725"},"vehicle_type_id":"4","last_reported":1715713526,"current_range_meters":30800,"station_id":"ce4bguh2rcd13ifvqckg","pricing_plan_id":"cebpf4jnsgd1na2vs0mg"},{"bike_id":"6a1d34f8-12ec-498e-9fa9-a935b8ee73e0","system_id":"levelo_inurba_marseille","lat":43.309034,"lon":5.371783,"is_reserved":false,"is_disabled":false,"rental_uris":{"android":"levelo://app?vid=6a1d34f8-12ec-498e-9fa9-a935b8ee73e0","ios":"levelo://app?vid=6a1d34f8-12ec-498e-9fa9-a935b8ee73e0"},"vehicle_type_id":"4","last_reported":1715713526,"current_range_meters":28400,"station_id":"ce4bguh2rcd13ifvqckg","pricing_plan_id":"cebpf4jnsgd1na2vs0mg"},{"bike_id":"6afff2e8-5b96-42ed-8c46-326c47d835af","system_id":"levelo_inurba_marseille","lat":43.309039,"lon":5.371797,"is_reserved":false,"is_disabled":false,"rental_uris":{"android":"levelo://app?vid=6afff2e8-5b96-42ed-8c46-326c47d835af","ios":"levelo://app?vid=6afff2e8-5b96-42ed-8c46-326c47d835af"},"vehicle_type_id":"4","last_reported":1715713526,"current_range_meters":25200,"station_id":"ce4bguh2rcd13ifvqckg","pricing_plan_id":"cebpf4jnsgd1na2vs0mg"},{"bike_id":"f34ca4af-6022-4b00-b0df-09dc8df3282c","system_id":"levelo_inurba_marseille","lat":43.314811,"lon":5.373104,"is_reserved":false,"is_disabled":false,"rental_uris":{"android":"levelo://app?vid=f34ca4af-6022-4b00-b0df-09dc8df3282c","ios":"levelo://app?vid=f34ca4af-6022-4b00-b0df-09dc8df3282c"},"vehicle_type_id":"4","last_reported":1715713526,"current_range_meters":28000,"station_id":"ce4bgt12rcd13ifvqcd0","pricing_plan_id":"cebpf4jnsgd1na2vs0mg"},{"bike_id":"32e33dd1-728d-4cb4-94bf-c3f4e13916cb","system_id":"levelo_inurba_marseille","lat":43.30609,"lon":5.36541,"is_reserved":false,"is_disabled":false,"rental_uris":{"android":"levelo://app?vid=32e33dd1-728d-4cb4-94bf-c3f4e13916cb","ios":"levelo://app?vid=32e33dd1-728d-4cb4-94bf-c3f4e13916cb"},"vehicle_type_id":"4","last_reported":1715713526,"current_range_meters":8400,"station_id":"","pricing_plan_id":"cebpf4jnsgd1na2vs0mg"},{"bike_id":"cbc4db1e-6234-40ca-856b-310825cd5ddd","system_id":"levelo_inurba_marseille","lat":43.30543,"lon":5.3672,"is_reserved":false,"is_disabled":false,"rental_uris":{"android":"levelo://app?vid=cbc4db1e-6234-40ca-856b-310825cd5ddd","ios":"levelo://app?vid=cbc4db1e-6234-40ca-856b-310825cd5ddd"},"vehicle_type_id":"4","last_reported":1715713526,"current_range_meters":15600,"station_id":"ce4bgrp2rcd13ifvqc9g","pricing_plan_id":"cebpf4jnsgd1na2vs0mg"},{"bike_id":"9bc1ba4c-f7ee-4d7c-9e82-03415efef9d2","system_id":"levelo_inurba_marseille","lat":43.305457,"lon":5.36568,"is_reserved":false,"is_disabled":false,"rental_uris":{"android":"levelo://app?vid=9bc1ba4c-f7ee-4d7c-9e82-03415efef9d2","ios":"levelo://app?vid=9bc1ba4c-f7ee-4d7c-9e82-03415efef9d2"},"vehicle_type_id":"4","last_reported":1715713526,"current_range_meters":15200,"station_id":"ce4bgs12rcd13ifvqcag","pricing_plan_id":"cebpf4jnsgd1na2vs0mg"},{"bike_id":"11777d25-0c37-405f-989b-8d10cbae1f6c","system_id":"levelo_inurba_marseille","lat":43.305714,"lon":5.365633,"is_reserved":false,"is_disabled":false,"rental_uris":{"android":"levelo://app?vid=11777d25-0c37-405f-989b-8d10cbae1f6c","ios":"levelo://app?vid=11777d25-0c37-405f-989b-8d10cbae1f6c"},"vehicle_type_id":"4","last_reported":1715713526,"current_range_meters":15200,"station_id":"ce4bgs12rcd13ifvqcag","pricing_plan_id":"cebpf4jnsgd1na2vs0mg"},{"bike_id":"061b9420-f488-4816-850e-a7789ecdfbb4","system_id":"levelo_inurba_marseille","lat":43.305989,"lon":5.37225,"is_reserved":false,"is_disabled":false,"rental_uris":{"android":"levelo://app?vid=061b9420-f488-4816-850e-a7789ecdfbb4","ios":"levelo://app?vid=061b9420-f488-4816-850e-a7789ecdfbb4"},"vehicle_type_id":"4","last_reported":1715713526,"current_range_meters":14800,"station_id":"ce4bgqh2rcd13ifvqc4g","pricing_plan_id":"cebpf4jnsgd1na2vs0mg"},{"bike_id":"09a0c8b3-8ae5-4f77-8606-de655409ffc5","system_id":"levelo_inurba_marseille","lat":43.305989,"lon":5.37225,"is_reserved":false,"is_disabled":false,"rental_uris":{"android":"levelo://app?vid=09a0c8b3-8ae5-4f77-8606-de655409ffc5","ios":"levelo://app?vid=09a0c8b3-8ae5-4f77-8606-de655409ffc5"},"vehicle_type_id":"4","last_reported":1715713526,"current_range_meters":27600,"station_id":"ce4bgqh2rcd13ifvqc4g","pricing_plan_id":"cebpf4jnsgd1na2vs0mg"},{"bike_id":"b1169806-d65f-4f02-8499-293d2c0d623f","system_id":"levelo_inurba_marseille","lat":43.305989,"lon":5.37225,"is_reserved":false,"is_disabled":false,"rental_uris":{"android":"levelo://app?vid=b1169806-d65f-4f02-8499-293d2c0d623f","ios":"levelo://app?vid=b1169806-d65f-4f02-8499-293d2c0d623f"},"vehicle_type_id":"4","last_reported":1715713526,"current_range_meters":1200,"station_id":"ce4bgqh2rcd13ifvqc4g","pricing_plan_id":"cebpf4jnsgd1na2vs0mg"},{"bike_id":"e0f4e979-812b-4121-98df-7999a69ac3fd","system_id":"levelo_inurba_marseille","lat":43.305989,"lon":5.37225,"is_reserved":false,"is_disabled":false,"rental_uris":{"android":"levelo://app?vid=e0f4e979-812b-4121-98df-7999a69ac3fd","ios":"levelo://app?vid=e0f4e979-812b-4121-98df-7999a69ac3fd"},"vehicle_type_id":"4","last_reported":1715713526,"current_range_meters":10000,"station_id":"ce4bgqh2rcd13ifvqc4g","pricing_plan_id":"cebpf4jnsgd1na2vs0mg"},{"bike_id":"1c01961d-850c-4cce-8313-d28dd35f2d59","system_id":"levelo_inurba_marseille","lat":43.305989,"lon":5.37225,"is_reserved":false,"is_disabled":false,"rental_uris":{"android":"levelo://app?vid=1c01961d-850c-4cce-8313-d28dd35f2d59","ios":"levelo://app?vid=1c01961d-850c-4cce-8313-d28dd35f2d59"},"vehicle_type_id":"4","last_reported":1715713526,"current_range_meters":16000,"station_id":"ce4bgqh2rcd13ifvqc4g","pricing_plan_id":"cebpf4jnsgd1na2vs0mg"},{"bike_id":"973a0886-0905-4fb3-b4d1-e189571da9ba","system_id":"levelo_inurba_marseille","lat":43.305989,"lon":5.37225,"is_reserved":false,"is_disabled":false,"rental_uris":{"android":"levelo://app?vid=973a0886-0905-4fb3-b4d1-e189571da9ba","ios":"levelo://app?vid=973a0886-0905-4fb3-b4d1-e189571da9ba"},"vehicle_type_id":"4","last_reported":1715713526,"current_range_meters":28400,"station_id":"ce4bgqh2rcd13ifvqc4g","pricing_plan_id":"cebpf4jnsgd1na2vs0mg"},{"bike_id":"2bf0ce09-1197-4e06-95fe-aa44299684ae","system_id":"levelo_inurba_marseille","lat":43.305989,"lon":5.37225,"is_reserved":false,"is_disabled":false,"rental_uris":{"android":"levelo://app?vid=2bf0ce09-1197-4e06-95fe-aa44299684ae","ios":"levelo://app?vid=2bf0ce09-1197-4e06-95fe-aa44299684ae"},"vehicle_type_id":"4","last_reported":1715713526,"current_range_meters":27600,"station_id":"ce4bgqh2rcd13ifvqc4g","pricing_plan_id":"cebpf4jnsgd1na2vs0mg"},{"bike_id":"f1d6f79f-ebba-4f66-beb0-57f2bed08d97","system_id":"levelo_inurba_marseille","lat":43.305989,"lon":5.37225,"is_reserved":false,"is_disabled":false,"rental_uris":{"android":"levelo://app?vid=f1d6f79f-ebba-4f66-beb0-57f2bed08d97","ios":"levelo://app?vid=f1d6f79f-ebba-4f66-beb0-57f2bed08d97"},"vehicle_type_id":"4","last_reported":1715713526,"current_range_meters":17200,"station_id":"ce4bgqh2rcd13ifvqc4g","pricing_plan_id":"cebpf4jnsgd1na2vs0mg"},{"bike_id":"ea383c2d-188f-4e67-8a92-9fdb0485741f","system_id":"levelo_inurba_marseille","lat":43.311131,"lon":5.377651,"is_reserved":false,"is_disabled":false,"rental_uris":{"android":"levelo://app?vid=ea383c2d-188f-4e67-8a92-9fdb0485741f","ios":"levelo://app?vid=ea383c2d-188f-4e67-8a92-9fdb0485741f"},"vehicle_type_id":"4","last_reported":1715713526,"current_range_meters":5600,"station_id":"ce4bgt92rcd13ifvqcg0","pricing_plan_id":"cebpf4jnsgd1na2vs0mg"},{"bike_id":"0f243c1a-914d-4cfc-88a6-1a729e085456","system_id":"levelo_inurba_marseille","lat":43.311125,"lon":5.377624,"is_reserved":false,"is_disabled":false,"rental_uris":{"android":"levelo://app?vid=0f243c1a-914d-4cfc-88a6-1a729e085456","ios":"levelo://app?vid=0f243c1a-914d-4cfc-88a6-1a729e085456"},"vehicle_type_id":"4","last_reported":1715713526,"current_range_meters":28800,"station_id":"ce4bgt92rcd13ifvqcg0","pricing_plan_id":"cebpf4jnsgd1na2vs0mg"},{"bike_id":"360563fd-7024-4aa6-ae51-420eaa019f72","system_id":"levelo_inurba_marseille","lat":43.311131,"lon":5.377651,"is_reserved":false,"is_disabled":false,"rental_uris":{"android":"levelo://app?vid=360563fd-7024-4aa6-ae51-420eaa019f72","ios":"levelo://app?vid=360563fd-7024-4aa6-ae51-420eaa019f72"},"vehicle_type_id":"4","last_reported":1715713526,"current_range_meters":6800,"station_id":"ce4bgt92rcd13ifvqcg0","pricing_plan_id":"cebpf4jnsgd1na2vs0mg"},{"bike_id":"5e9bf5eb-9d0e-40a2-af25-029142e569b5","system_id":"levelo_inurba_marseille","lat":43.311125,"lon":5.377624,"is_reserved":false,"is_disabled":false,"rental_uris":{"android":"levelo://app?vid=5e9bf5eb-9d0e-40a2-af25-029142e569b5","ios":"levelo://app?vid=5e9bf5eb-9d0e-40a2-af25-029142e569b5"},"vehicle_type_id":"4","last_reported":1715713526,"current_range_meters":5600,"station_id":"ce4bgt92rcd13ifvqcg0","pricing_plan_id":"cebpf4jnsgd1na2vs0mg"},{"bike_id":"ad4e5e13-d582-431e-aa0a-94957d0df57c","system_id":"levelo_inurba_marseille","lat":43.311131,"lon":5.377651,"is_reserved":false,"is_disabled":false,"rental_uris":{"android":"levelo://app?vid=ad4e5e13-d582-431e-aa0a-94957d0df57c","ios":"levelo://app?vid=ad4e5e13-d582-431e-aa0a-94957d0df57c"},"vehicle_type_id":"4","last_reported":1715713526,"current_range_meters":21200,"station_id":"ce4bgt92rcd13ifvqcg0","pricing_plan_id":"cebpf4jnsgd1na2vs0mg"},{"bike_id":"c44ff2f4-478f-4348-9a02-0809a9350b9b","system_id":"levelo_inurba_marseille","lat":43.307945,"lon":5.376487,"is_reserved":false,"is_disabled":false,"rental_uris":{"android":"levelo://app?vid=c44ff2f4-478f-4348-9a02-0809a9350b9b","ios":"levelo://app?vid=c44ff2f4-478f-4348-9a02-0809a9350b9b"},"vehicle_type_id":"4","last_reported":1715713526,"current_range_meters":9200,"station_id":"ce4bgv92rcd13ifvqcq0","pricing_plan_id":"cebpf4jnsgd1na2vs0mg"},{"bike_id":"865c55df-9d09-4774-8210-99fca90e19de","system_id":"levelo_inurba_marseille","lat":43.307945,"lon":5.376487,"is_reserved":false,"is_disabled":false,"rental_uris":{"android":"levelo://app?vid=865c55df-9d09-4774-8210-99fca90e19de","ios":"levelo://app?vid=865c55df-9d09-4774-8210-99fca90e19de"},"vehicle_type_id":"4","last_reported":1715713526,"current_range_meters":14400,"station_id":"ce4bgv92rcd13ifvqcq0","pricing_plan_id":"cebpf4jnsgd1na2vs0mg"},{"bike_id":"a8420d12-5ea1-4553-ba77-74153419b9a1","system_id":"levelo_inurba_marseille","lat":43.307945,"lon":5.376487,"is_reserved":false,"is_disabled":false,"rental_uris":{"android":"levelo://app?vid=a8420d12-5ea1-4553-ba77-74153419b9a1","ios":"levelo://app?vid=a8420d12-5ea1-4553-ba77-74153419b9a1"},"vehicle_type_id":"4","last_reported":1715713526,"current_range_meters":30800,"station_id":"ce4bgv92rcd13ifvqcq0","pricing_plan_id":"cebpf4jnsgd1na2vs0mg"},{"bike_id":"602d0528-bfd8-4cfd-b0cc-14ef04465319","system_id":"levelo_inurba_marseille","lat":43.305286,"lon":5.373226,"is_reserved":false,"is_disabled":false,"rental_uris":{"android":"levelo://app?vid=602d0528-bfd8-4cfd-b0cc-14ef04465319","ios":"levelo://app?vid=602d0528-bfd8-4cfd-b0cc-14ef04465319"},"vehicle_type_id":"4","last_reported":1715713526,"current_range_meters":0,"station_id":"","pricing_plan_id":"cebpf4jnsgd1na2vs0mg"},{"bike_id":"147ed836-d3f3-44b3-ab15-dbb69cb98226","system_id":"levelo_inurba_marseille","lat":43.317075,"lon":5.377367,"is_reserved":false,"is_disabled":false,"rental_uris":{"android":"levelo://app?vid=147ed836-d3f3-44b3-ab15-dbb69cb98226","ios":"levelo://app?vid=147ed836-d3f3-44b3-ab15-dbb69cb98226"},"vehicle_type_id":"4","last_reported":1715713526,"current_range_meters":26400,"station_id":"ce4bgth2rcd13ifvqch0","pricing_plan_id":"cebpf4jnsgd1na2vs0mg"},{"bike_id":"71f7a8e1-81ff-4de3-a688-7c33047caaa0","system_id":"levelo_inurba_marseille","lat":43.317075,"lon":5.377367,"is_reserved":false,"is_disabled":false,"rental_uris":{"android":"levelo://app?vid=71f7a8e1-81ff-4de3-a688-7c33047caaa0","ios":"levelo://app?vid=71f7a8e1-81ff-4de3-a688-7c33047caaa0"},"vehicle_type_id":"4","last_reported":1715713526,"current_range_meters":22400,"station_id":"ce4bgth2rcd13ifvqch0","pricing_plan_id":"cebpf4jnsgd1na2vs0mg"},{"bike_id":"425797a5-7c00-497f-b0b4-721f77aa1025","system_id":"levelo_inurba_marseille","lat":43.317075,"lon":5.377367,"is_reserved":false,"is_disabled":false,"rental_uris":{"android":"levelo://app?vid=425797a5-7c00-497f-b0b4-721f77aa1025","ios":"levelo://app?vid=425797a5-7c00-497f-b0b4-721f77aa1025"},"vehicle_type_id":"4","last_reported":1715713526,"current_range_meters":25600,"station_id":"ce4bgth2rcd13ifvqch0","pricing_plan_id":"cebpf4jnsgd1na2vs0mg"},{"bike_id":"aabd211e-765f-4f04-a17e-d901c4bc98b2","system_id":"levelo_inurba_marseille","lat":43.31711,"lon":5.3776,"is_reserved":false,"is_disabled":false,"rental_uris":{"android":"levelo://app?vid=aabd211e-765f-4f04-a17e-d901c4bc98b2","ios":"levelo://app?vid=aabd211e-765f-4f04-a17e-d901c4bc98b2"},"vehicle_type_id":"4","last_reported":1715713526,"current_range_meters":14400,"station_id":"ce4bgth2rcd13ifvqch0","pricing_plan_id":"cebpf4jnsgd1na2vs0mg"},{"bike_id":"ae9bfd76-708f-4d48-a7f2-ba06537bcc45","system_id":"levelo_inurba_marseille","lat":43.30304,"lon":5.368987,"is_reserved":false,"is_disabled":false,"rental_uris":{"android":"levelo://app?vid=ae9bfd76-708f-4d48-a7f2-ba06537bcc45","ios":"levelo://app?vid=ae9bfd76-708f-4d48-a7f2-ba06537bcc45"},"vehicle_type_id":"4","last_reported":1715713526,"current_range_meters":4000,"station_id":"ce4bgqh2rcd13ifvqc5g","pricing_plan_id":"cebpf4jnsgd1na2vs0mg"},{"bike_id":"fd863180-5617-4054-812c-5ceba1bd1fe3","system_id":"levelo_inurba_marseille","lat":43.301939,"lon":5.366286,"is_reserved":false,"is_disabled":false,"rental_uris":{"android":"levelo://app?vid=fd863180-5617-4054-812c-5ceba1bd1fe3","ios":"levelo://app?vid=fd863180-5617-4054-812c-5ceba1bd1fe3"},"vehicle_type_id":"4","last_reported":1715713526,"current_range_meters":30800,"station_id":"ce4bgrh2rcd13ifvqc8g","pricing_plan_id":"cebpf4jnsgd1na2vs0mg"},{"bike_id":"6c0e783c-6ce0-4185-90f4-f800a81a0d3a","system_id":"levelo_inurba_marseille","lat":43.301939,"lon":5.366286,"is_reserved":false,"is_disabled":false,"rental_uris":{"android":"levelo://app?vid=6c0e783c-6ce0-4185-90f4-f800a81a0d3a","ios":"levelo://app?vid=6c0e783c-6ce0-4185-90f4-f800a81a0d3a"},"vehicle_type_id":"4","last_reported":1715713526,"current_range_meters":0,"station_id":"ce4bgrh2rcd13ifvqc8g","pricing_plan_id":"cebpf4jnsgd1na2vs0mg"},{"bike_id":"1db55084-b5b0-43a1-ae00-f96de46745f2","system_id":"levelo_inurba_marseille","lat":43.301939,"lon":5.366286,"is_reserved":false,"is_disabled":false,"rental_uris":{"android":"levelo://app?vid=1db55084-b5b0-43a1-ae00-f96de46745f2","ios":"levelo://app?vid=1db55084-b5b0-43a1-ae00-f96de46745f2"},"vehicle_type_id":"4","last_reported":1715713526,"current_range_meters":25200,"station_id":"ce4bgrh2rcd13ifvqc8g","pricing_plan_id":"cebpf4jnsgd1na2vs0mg"},{"bike_id":"53a64435-07f4-4124-ae28-b86356f325be","system_id":"levelo_inurba_marseille","lat":43.308012,"lon":5.381511,"is_reserved":false,"is_disabled":false,"rental_uris":{"android":"levelo://app?vid=53a64435-07f4-4124-ae28-b86356f325be","ios":"levelo://app?vid=53a64435-07f4-4124-ae28-b86356f325be"},"vehicle_type_id":"4","last_reported":1715713526,"current_range_meters":2800,"station_id":"ce4bgt12rcd13ifvqce0","pricing_plan_id":"cebpf4jnsgd1na2vs0mg"},{"bike_id":"a37cdda5-216b-490e-9d2b-eead123fc9e0","system_id":"levelo_inurba_marseille","lat":43.315289,"lon":5.380349,"is_reserved":false,"is_disabled":false,"rental_uris":{"android":"levelo://app?vid=a37cdda5-216b-490e-9d2b-eead123fc9e0","ios":"levelo://app?vid=a37cdda5-216b-490e-9d2b-eead123fc9e0"},"vehicle_type_id":"4","last_reported":1715713526,"current_range_meters":0,"station_id":"ce4bhsp2rcd13ifvqi50","pricing_plan_id":"cebpf4jnsgd1na2vs0mg"},{"bike_id":"3b9bd30c-79f8-48d6-a45f-3f96c3536847","system_id":"levelo_inurba_marseille","lat":43.308012,"lon":5.381511,"is_reserved":false,"is_disabled":false,"rental_uris":{"android":"levelo://app?vid=3b9bd30c-79f8-48d6-a45f-3f96c3536847","ios":"levelo://app?vid=3b9bd30c-79f8-48d6-a45f-3f96c3536847"},"vehicle_type_id":"4","last_reported":1715713526,"current_range_meters":5200,"station_id":"ce4bgt12rcd13ifvqce0","pricing_plan_id":"cebpf4jnsgd1na2vs0mg"},{"bike_id":"140d889c-8736-44a5-8639-9b8a59f67cae","system_id":"levelo_inurba_marseille","lat":43.308012,"lon":5.381511,"is_reserved":false,"is_disabled":false,"rental_uris":{"android":"levelo://app?vid=140d889c-8736-44a5-8639-9b8a59f67cae","ios":"levelo://app?vid=140d889c-8736-44a5-8639-9b8a59f67cae"},"vehicle_type_id":"4","last_reported":1715713526,"current_range_meters":8000,"station_id":"ce4bgt12rcd13ifvqce0","pricing_plan_id":"cebpf4jnsgd1na2vs0mg"},{"bike_id":"d677e702-8adc-4c8e-b75b-0ab94b025ae3","system_id":"levelo_inurba_marseille","lat":43.308012,"lon":5.381511,"is_reserved":false,"is_disabled":false,"rental_uris":{"android":"levelo://app?vid=d677e702-8adc-4c8e-b75b-0ab94b025ae3","ios":"levelo://app?vid=d677e702-8adc-4c8e-b75b-0ab94b025ae3"},"vehicle_type_id":"4","last_reported":1715713526,"current_range_meters":17600,"station_id":"ce4bgt12rcd13ifvqce0","pricing_plan_id":"cebpf4jnsgd1na2vs0mg"},{"bike_id":"c1477ec0-f2ff-475b-96bb-8f694f9def3b","system_id":"levelo_inurba_marseille","lat":43.308012,"lon":5.381511,"is_reserved":false,"is_disabled":false,"rental_uris":{"android":"levelo://app?vid=c1477ec0-f2ff-475b-96bb-8f694f9def3b","ios":"levelo://app?vid=c1477ec0-f2ff-475b-96bb-8f694f9def3b"},"vehicle_type_id":"4","last_reported":1715713526,"current_range_meters":20000,"station_id":"ce4bgt12rcd13ifvqce0","pricing_plan_id":"cebpf4jnsgd1na2vs0mg"},{"bike_id":"4548041c-a467-426f-8046-67aeb0a63ac7","system_id":"levelo_inurba_marseille","lat":43.308012,"lon":5.381511,"is_reserved":false,"is_disabled":false,"rental_uris":{"android":"levelo://app?vid=4548041c-a467-426f-8046-67aeb0a63ac7","ios":"levelo://app?vid=4548041c-a467-426f-8046-67aeb0a63ac7"},"vehicle_type_id":"4","last_reported":1715713526,"current_range_meters":0,"station_id":"ce4bgt12rcd13ifvqce0","pricing_plan_id":"cebpf4jnsgd1na2vs0mg"},{"bike_id":"14e06141-84dd-45ea-8a77-16b22c4977ac","system_id":"levelo_inurba_marseille","lat":43.308012,"lon":5.381511,"is_reserved":false,"is_disabled":false,"rental_uris":{"android":"levelo://app?vid=14e06141-84dd-45ea-8a77-16b22c4977ac","ios":"levelo://app?vid=14e06141-84dd-45ea-8a77-16b22c4977ac"},"vehicle_type_id":"4","last_reported":1715713526,"current_range_meters":13200,"station_id":"ce4bgt12rcd13ifvqce0","pricing_plan_id":"cebpf4jnsgd1na2vs0mg"},{"bike_id":"118027c2-983a-43d4-86b2-6aabd8234dca","system_id":"levelo_inurba_marseille","lat":43.304606,"lon":5.379026,"is_reserved":false,"is_disabled":false,"rental_uris":{"android":"levelo://app?vid=118027c2-983a-43d4-86b2-6aabd8234dca","ios":"levelo://app?vid=118027c2-983a-43d4-86b2-6aabd8234dca"},"vehicle_type_id":"4","last_reported":1715713526,"current_range_meters":9200,"station_id":"ce4bgup2rcd13ifvqcn0","pricing_plan_id":"cebpf4jnsgd1na2vs0mg"},{"bike_id":"26bd8217-5511-4bf1-a4d4-7323f3ee6d22","system_id":"levelo_inurba_marseille","lat":43.32474,"lon":5.36561,"is_reserved":false,"is_disabled":false,"rental_uris":{"android":"levelo://app?vid=26bd8217-5511-4bf1-a4d4-7323f3ee6d22","ios":"levelo://app?vid=26bd8217-5511-4bf1-a4d4-7323f3ee6d22"},"vehicle_type_id":"4","last_reported":1715713526,"current_range_meters":6400,"station_id":"ce4bhs12rcd13ifvqhvg","pricing_plan_id":"cebpf4jnsgd1na2vs0mg"},{"bike_id":"de363a9b-b8dd-4f25-97c4-05ca23eea0b0","system_id":"levelo_inurba_marseille","lat":43.324778,"lon":5.365573,"is_reserved":false,"is_disabled":false,"rental_uris":{"android":"levelo://app?vid=de363a9b-b8dd-4f25-97c4-05ca23eea0b0","ios":"levelo://app?vid=de363a9b-b8dd-4f25-97c4-05ca23eea0b0"},"vehicle_type_id":"4","last_reported":1715713526,"current_range_meters":17600,"station_id":"ce4bhs12rcd13ifvqhvg","pricing_plan_id":"cebpf4jnsgd1na2vs0mg"},{"bike_id":"b3305284-c927-4299-8648-9512a466e418","system_id":"levelo_inurba_marseille","lat":43.324771,"lon":5.36557,"is_reserved":false,"is_disabled":false,"rental_uris":{"android":"levelo://app?vid=b3305284-c927-4299-8648-9512a466e418","ios":"levelo://app?vid=b3305284-c927-4299-8648-9512a466e418"},"vehicle_type_id":"4","last_reported":1715713526,"current_range_meters":9200,"station_id":"ce4bhs12rcd13ifvqhvg","pricing_plan_id":"cebpf4jnsgd1na2vs0mg"},{"bike_id":"6f14d4b8-d745-4acc-afa4-80fb43413763","system_id":"levelo_inurba_marseille","lat":43.324771,"lon":5.36557,"is_reserved":false,"is_disabled":false,"rental_uris":{"android":"levelo://app?vid=6f14d4b8-d745-4acc-afa4-80fb43413763","ios":"levelo://app?vid=6f14d4b8-d745-4acc-afa4-80fb43413763"},"vehicle_type_id":"4","last_reported":1715713526,"current_range_meters":4400,"station_id":"ce4bhs12rcd13ifvqhvg","pricing_plan_id":"cebpf4jnsgd1na2vs0mg"},{"bike_id":"d4a18592-1898-44ad-a2df-d97add309de2","system_id":"levelo_inurba_marseille","lat":43.324771,"lon":5.36557,"is_reserved":false,"is_disabled":false,"rental_uris":{"android":"levelo://app?vid=d4a18592-1898-44ad-a2df-d97add309de2","ios":"levelo://app?vid=d4a18592-1898-44ad-a2df-d97add309de2"},"vehicle_type_id":"4","last_reported":1715713526,"current_range_meters":16000,"station_id":"ce4bhs12rcd13ifvqhvg","pricing_plan_id":"cebpf4jnsgd1na2vs0mg"},{"bike_id":"29c9570f-fcf3-488e-89d8-23e99063b819","system_id":"levelo_inurba_marseille","lat":43.324771,"lon":5.36557,"is_reserved":false,"is_disabled":false,"rental_uris":{"android":"levelo://app?vid=29c9570f-fcf3-488e-89d8-23e99063b819","ios":"levelo://app?vid=29c9570f-fcf3-488e-89d8-23e99063b819"},"vehicle_type_id":"4","last_reported":1715713526,"current_range_meters":3200,"station_id":"ce4bhs12rcd13ifvqhvg","pricing_plan_id":"cebpf4jnsgd1na2vs0mg"},{"bike_id":"fbb6cef2-0251-45ac-be4c-6827acb26d5a","system_id":"levelo_inurba_marseille","lat":43.324862,"lon":5.365675,"is_reserved":false,"is_disabled":false,"rental_uris":{"android":"levelo://app?vid=fbb6cef2-0251-45ac-be4c-6827acb26d5a","ios":"levelo://app?vid=fbb6cef2-0251-45ac-be4c-6827acb26d5a"},"vehicle_type_id":"4","last_reported":1715713526,"current_range_meters":3200,"station_id":"ce4bhs12rcd13ifvqhvg","pricing_plan_id":"cebpf4jnsgd1na2vs0mg"},{"bike_id":"fc836051-5de0-46f8-a792-c6a0deea6ceb","system_id":"levelo_inurba_marseille","lat":43.32488,"lon":5.36559,"is_reserved":false,"is_disabled":false,"rental_uris":{"android":"levelo://app?vid=fc836051-5de0-46f8-a792-c6a0deea6ceb","ios":"levelo://app?vid=fc836051-5de0-46f8-a792-c6a0deea6ceb"},"vehicle_type_id":"4","last_reported":1715713526,"current_range_meters":6400,"station_id":"ce4bhs12rcd13ifvqhvg","pricing_plan_id":"cebpf4jnsgd1na2vs0mg"},{"bike_id":"792b36fb-fddd-4c78-bafb-f57cf2d604fe","system_id":"levelo_inurba_marseille","lat":43.324771,"lon":5.36557,"is_reserved":false,"is_disabled":false,"rental_uris":{"android":"levelo://app?vid=792b36fb-fddd-4c78-bafb-f57cf2d604fe","ios":"levelo://app?vid=792b36fb-fddd-4c78-bafb-f57cf2d604fe"},"vehicle_type_id":"4","last_reported":1715713526,"current_range_meters":11200,"station_id":"ce4bhs12rcd13ifvqhvg","pricing_plan_id":"cebpf4jnsgd1na2vs0mg"},{"bike_id":"8d096ad2-ca6c-471a-8999-f12667167a4a","system_id":"levelo_inurba_marseille","lat":43.324771,"lon":5.36557,"is_reserved":false,"is_disabled":false,"rental_uris":{"android":"levelo://app?vid=8d096ad2-ca6c-471a-8999-f12667167a4a","ios":"levelo://app?vid=8d096ad2-ca6c-471a-8999-f12667167a4a"},"vehicle_type_id":"4","last_reported":1715713526,"current_range_meters":14000,"station_id":"ce4bhs12rcd13ifvqhvg","pricing_plan_id":"cebpf4jnsgd1na2vs0mg"},{"bike_id":"8a4c057b-7fbb-4f73-a083-f1243d2c8945","system_id":"levelo_inurba_marseille","lat":43.324771,"lon":5.36557,"is_reserved":false,"is_disabled":false,"rental_uris":{"android":"levelo://app?vid=8a4c057b-7fbb-4f73-a083-f1243d2c8945","ios":"levelo://app?vid=8a4c057b-7fbb-4f73-a083-f1243d2c8945"},"vehicle_type_id":"4","last_reported":1715713526,"current_range_meters":22000,"station_id":"ce4bhs12rcd13ifvqhvg","pricing_plan_id":"cebpf4jnsgd1na2vs0mg"},{"bike_id":"d5ca4df8-643e-456f-8890-2ddc7af8e99a","system_id":"levelo_inurba_marseille","lat":43.310715,"lon":5.383512,"is_reserved":false,"is_disabled":false,"rental_uris":{"android":"levelo://app?vid=d5ca4df8-643e-456f-8890-2ddc7af8e99a","ios":"levelo://app?vid=d5ca4df8-643e-456f-8890-2ddc7af8e99a"},"vehicle_type_id":"4","last_reported":1715713526,"current_range_meters":2800,"station_id":"ce4bgv92rcd13ifvqcr0","pricing_plan_id":"cebpf4jnsgd1na2vs0mg"},{"bike_id":"dbc333a8-a572-4f9c-9a21-a8faa7113592","system_id":"levelo_inurba_marseille","lat":43.31065,"lon":5.3835,"is_reserved":false,"is_disabled":false,"rental_uris":{"android":"levelo://app?vid=dbc333a8-a572-4f9c-9a21-a8faa7113592","ios":"levelo://app?vid=dbc333a8-a572-4f9c-9a21-a8faa7113592"},"vehicle_type_id":"4","last_reported":1715713526,"current_range_meters":13200,"station_id":"ce4bgv92rcd13ifvqcr0","pricing_plan_id":"cebpf4jnsgd1na2vs0mg"},{"bike_id":"3a23cce6-1013-478d-89dd-bc4b1989e7ae","system_id":"levelo_inurba_marseille","lat":43.31068,"lon":5.38352,"is_reserved":false,"is_disabled":false,"rental_uris":{"android":"levelo://app?vid=3a23cce6-1013-478d-89dd-bc4b1989e7ae","ios":"levelo://app?vid=3a23cce6-1013-478d-89dd-bc4b1989e7ae"},"vehicle_type_id":"4","last_reported":1715713526,"current_range_meters":20000,"station_id":"ce4bgv92rcd13ifvqcr0","pricing_plan_id":"cebpf4jnsgd1na2vs0mg"},{"bike_id":"1b99ba07-a9e6-4b52-9387-0a0cdde8bbad","system_id":"levelo_inurba_marseille","lat":43.31068,"lon":5.38352,"is_reserved":false,"is_disabled":false,"rental_uris":{"android":"levelo://app?vid=1b99ba07-a9e6-4b52-9387-0a0cdde8bbad","ios":"levelo://app?vid=1b99ba07-a9e6-4b52-9387-0a0cdde8bbad"},"vehicle_type_id":"4","last_reported":1715713526,"current_range_meters":21200,"station_id":"ce4bgv92rcd13ifvqcr0","pricing_plan_id":"cebpf4jnsgd1na2vs0mg"},{"bike_id":"502b746f-3353-452d-b691-13d6388973c7","system_id":"levelo_inurba_marseille","lat":43.310715,"lon":5.38355,"is_reserved":false,"is_disabled":false,"rental_uris":{"android":"levelo://app?vid=502b746f-3353-452d-b691-13d6388973c7","ios":"levelo://app?vid=502b746f-3353-452d-b691-13d6388973c7"},"vehicle_type_id":"4","last_reported":1715713526,"current_range_meters":10000,"station_id":"ce4bgv92rcd13ifvqcr0","pricing_plan_id":"cebpf4jnsgd1na2vs0mg"},{"bike_id":"f49f2bbd-16a5-408f-9194-feed226f5622","system_id":"levelo_inurba_marseille","lat":43.310686,"lon":5.383545,"is_reserved":false,"is_disabled":false,"rental_uris":{"android":"levelo://app?vid=f49f2bbd-16a5-408f-9194-feed226f5622","ios":"levelo://app?vid=f49f2bbd-16a5-408f-9194-feed226f5622"},"vehicle_type_id":"4","last_reported":1715713526,"current_range_meters":17600,"station_id":"ce4bgv92rcd13ifvqcr0","pricing_plan_id":"cebpf4jnsgd1na2vs0mg"},{"bike_id":"76caf31b-6b32-422b-85ab-d3fe90f18316","system_id":"levelo_inurba_marseille","lat":43.31075,"lon":5.38356,"is_reserved":false,"is_disabled":false,"rental_uris":{"android":"levelo://app?vid=76caf31b-6b32-422b-85ab-d3fe90f18316","ios":"levelo://app?vid=76caf31b-6b32-422b-85ab-d3fe90f18316"},"vehicle_type_id":"4","last_reported":1715713526,"current_range_meters":12000,"station_id":"ce4bgv92rcd13ifvqcr0","pricing_plan_id":"cebpf4jnsgd1na2vs0mg"},{"bike_id":"26fb6b3e-70db-45bc-bdfd-91132de9c041","system_id":"levelo_inurba_marseille","lat":43.31063,"lon":5.38354,"is_reserved":false,"is_disabled":false,"rental_uris":{"android":"levelo://app?vid=26fb6b3e-70db-45bc-bdfd-91132de9c041","ios":"levelo://app?vid=26fb6b3e-70db-45bc-bdfd-91132de9c041"},"vehicle_type_id":"4","last_reported":1715713526,"current_range_meters":23200,"station_id":"ce4bgv92rcd13ifvqcr0","pricing_plan_id":"cebpf4jnsgd1na2vs0mg"},{"bike_id":"e8efcd67-2ab4-4fd0-a872-a0a8d15b6dde","system_id":"levelo_inurba_marseille","lat":43.31076,"lon":5.38359,"is_reserved":false,"is_disabled":false,"rental_uris":{"android":"levelo://app?vid=e8efcd67-2ab4-4fd0-a872-a0a8d15b6dde","ios":"levelo://app?vid=e8efcd67-2ab4-4fd0-a872-a0a8d15b6dde"},"vehicle_type_id":"4","last_reported":1715713526,"current_range_meters":10400,"station_id":"ce4bgv92rcd13ifvqcr0","pricing_plan_id":"cebpf4jnsgd1na2vs0mg"},{"bike_id":"34ce25e4-e4e7-4bdd-a1f7-c83ebddb10c1","system_id":"levelo_inurba_marseille","lat":43.31072,"lon":5.38361,"is_reserved":false,"is_disabled":false,"rental_uris":{"android":"levelo://app?vid=34ce25e4-e4e7-4bdd-a1f7-c83ebddb10c1","ios":"levelo://app?vid=34ce25e4-e4e7-4bdd-a1f7-c83ebddb10c1"},"vehicle_type_id":"4","last_reported":1715713526,"current_range_meters":26400,"station_id":"ce4bgv92rcd13ifvqcr0","pricing_plan_id":"cebpf4jnsgd1na2vs0mg"},{"bike_id":"aaa4a1f9-a30f-4c3f-94ad-38ec6cecbc4d","system_id":"levelo_inurba_marseille","lat":43.310715,"lon":5.383615,"is_reserved":false,"is_disabled":false,"rental_uris":{"android":"levelo://app?vid=aaa4a1f9-a30f-4c3f-94ad-38ec6cecbc4d","ios":"levelo://app?vid=aaa4a1f9-a30f-4c3f-94ad-38ec6cecbc4d"},"vehicle_type_id":"4","last_reported":1715713526,"current_range_meters":5600,"station_id":"ce4bgv92rcd13ifvqcr0","pricing_plan_id":"cebpf4jnsgd1na2vs0mg"},{"bike_id":"4be734c1-8161-4ccb-9602-ba3c9ae0dd89","system_id":"levelo_inurba_marseille","lat":43.31072,"lon":5.383617,"is_reserved":false,"is_disabled":false,"rental_uris":{"android":"levelo://app?vid=4be734c1-8161-4ccb-9602-ba3c9ae0dd89","ios":"levelo://app?vid=4be734c1-8161-4ccb-9602-ba3c9ae0dd89"},"vehicle_type_id":"4","last_reported":1715713526,"current_range_meters":28400,"station_id":"ce4bgv92rcd13ifvqcr0","pricing_plan_id":"cebpf4jnsgd1na2vs0mg"},{"bike_id":"a7ca4237-9ccb-421e-b935-823a569ee764","system_id":"levelo_inurba_marseille","lat":43.302784,"lon":5.377158,"is_reserved":false,"is_disabled":false,"rental_uris":{"android":"levelo://app?vid=a7ca4237-9ccb-421e-b935-823a569ee764","ios":"levelo://app?vid=a7ca4237-9ccb-421e-b935-823a569ee764"},"vehicle_type_id":"4","last_reported":1715713526,"current_range_meters":4400,"station_id":"ce4bguh2rcd13ifvqcj0","pricing_plan_id":"cebpf4jnsgd1na2vs0mg"},{"bike_id":"d6b69f8e-fdb8-48d2-9222-b3e4add2b47b","system_id":"levelo_inurba_marseille","lat":43.31077,"lon":5.38368,"is_reserved":false,"is_disabled":false,"rental_uris":{"android":"levelo://app?vid=d6b69f8e-fdb8-48d2-9222-b3e4add2b47b","ios":"levelo://app?vid=d6b69f8e-fdb8-48d2-9222-b3e4add2b47b"},"vehicle_type_id":"4","last_reported":1715713526,"current_range_meters":16800,"station_id":"ce4bgv92rcd13ifvqcr0","pricing_plan_id":"cebpf4jnsgd1na2vs0mg"},{"bike_id":"61f072c6-0481-4a5d-9cbe-5e7d1a2e5d17","system_id":"levelo_inurba_marseille","lat":43.30143,"lon":5.37413,"is_reserved":false,"is_disabled":false,"rental_uris":{"android":"levelo://app?vid=61f072c6-0481-4a5d-9cbe-5e7d1a2e5d17","ios":"levelo://app?vid=61f072c6-0481-4a5d-9cbe-5e7d1a2e5d17"},"vehicle_type_id":"4","last_reported":1715713526,"current_range_meters":0,"station_id":"ce4bgs92rcd13ifvqcc0","pricing_plan_id":"cebpf4jnsgd1na2vs0mg"},{"bike_id":"43d9a25c-9072-4a4d-8090-ef71e985fe57","system_id":"levelo_inurba_marseille","lat":43.30143,"lon":5.37417,"is_reserved":false,"is_disabled":false,"rental_uris":{"android":"levelo://app?vid=43d9a25c-9072-4a4d-8090-ef71e985fe57","ios":"levelo://app?vid=43d9a25c-9072-4a4d-8090-ef71e985fe57"},"vehicle_type_id":"4","last_reported":1715713526,"current_range_meters":14000,"station_id":"ce4bgs92rcd13ifvqcc0","pricing_plan_id":"cebpf4jnsgd1na2vs0mg"},{"bike_id":"322dc9f5-1c77-411f-93f9-2f0dd2188f06","system_id":"levelo_inurba_marseille","lat":43.31997,"lon":5.38151,"is_reserved":false,"is_disabled":false,"rental_uris":{"android":"levelo://app?vid=322dc9f5-1c77-411f-93f9-2f0dd2188f06","ios":"levelo://app?vid=322dc9f5-1c77-411f-93f9-2f0dd2188f06"},"vehicle_type_id":"4","last_reported":1715713526,"current_range_meters":21200,"station_id":"ce4bhr12rcd13ifvqhpg","pricing_plan_id":"cebpf4jnsgd1na2vs0mg"},{"bike_id":"7c9964ee-3146-428f-9f07-e4e7befd1917","system_id":"levelo_inurba_marseille","lat":43.319935,"lon":5.381699,"is_reserved":false,"is_disabled":false,"rental_uris":{"android":"levelo://app?vid=7c9964ee-3146-428f-9f07-e4e7befd1917","ios":"levelo://app?vid=7c9964ee-3146-428f-9f07-e4e7befd1917"},"vehicle_type_id":"4","last_reported":1715713526,"current_range_meters":6800,"station_id":"ce4bhr12rcd13ifvqhpg","pricing_plan_id":"cebpf4jnsgd1na2vs0mg"},{"bike_id":"91b2df23-7233-40b8-8d77-b4760f92a357","system_id":"levelo_inurba_marseille","lat":43.31365,"lon":5.38505,"is_reserved":false,"is_disabled":false,"rental_uris":{"android":"levelo://app?vid=91b2df23-7233-40b8-8d77-b4760f92a357","ios":"levelo://app?vid=91b2df23-7233-40b8-8d77-b4760f92a357"},"vehicle_type_id":"4","last_reported":1715713526,"current_range_meters":5600,"station_id":"ce4bgt92rcd13ifvqcf0","pricing_plan_id":"cebpf4jnsgd1na2vs0mg"},{"bike_id":"55242f21-4cbb-4274-8ecf-627563edc326","system_id":"levelo_inurba_marseille","lat":43.31363,"lon":5.38508,"is_reserved":false,"is_disabled":false,"rental_uris":{"android":"levelo://app?vid=55242f21-4cbb-4274-8ecf-627563edc326","ios":"levelo://app?vid=55242f21-4cbb-4274-8ecf-627563edc326"},"vehicle_type_id":"4","last_reported":1715713526,"current_range_meters":0,"station_id":"ce4bgt92rcd13ifvqcf0","pricing_plan_id":"cebpf4jnsgd1na2vs0mg"},{"bike_id":"b3e6aeac-8a60-45a9-a6df-c1ff96056393","system_id":"levelo_inurba_marseille","lat":43.299724,"lon":5.371829,"is_reserved":false,"is_disabled":false,"rental_uris":{"android":"levelo://app?vid=b3e6aeac-8a60-45a9-a6df-c1ff96056393","ios":"levelo://app?vid=b3e6aeac-8a60-45a9-a6df-c1ff96056393"},"vehicle_type_id":"4","last_reported":1715713526,"current_range_meters":7200,"station_id":"ce4bgr92rcd13ifvqc7g","pricing_plan_id":"cebpf4jnsgd1na2vs0mg"},{"bike_id":"bb465212-92bd-42b7-886a-e3fa9bbc5fff","system_id":"levelo_inurba_marseille","lat":43.299222,"lon":5.365554,"is_reserved":false,"is_disabled":false,"rental_uris":{"android":"levelo://app?vid=bb465212-92bd-42b7-886a-e3fa9bbc5fff","ios":"levelo://app?vid=bb465212-92bd-42b7-886a-e3fa9bbc5fff"},"vehicle_type_id":"4","last_reported":1715713526,"current_range_meters":3200,"station_id":"ce4bgm92rcd13ifvqbr0","pricing_plan_id":"cebpf4jnsgd1na2vs0mg"},{"bike_id":"a77df889-3ca2-4016-a984-0a0f63d81958","system_id":"levelo_inurba_marseille","lat":43.299724,"lon":5.371829,"is_reserved":false,"is_disabled":false,"rental_uris":{"android":"levelo://app?vid=a77df889-3ca2-4016-a984-0a0f63d81958","ios":"levelo://app?vid=a77df889-3ca2-4016-a984-0a0f63d81958"},"vehicle_type_id":"4","last_reported":1715713526,"current_range_meters":30400,"station_id":"ce4bgr92rcd13ifvqc7g","pricing_plan_id":"cebpf4jnsgd1na2vs0mg"},{"bike_id":"53185cc0-cacb-4dcd-b54d-21832b31f5cf","system_id":"levelo_inurba_marseille","lat":43.299222,"lon":5.365554,"is_reserved":false,"is_disabled":false,"rental_uris":{"android":"levelo://app?vid=53185cc0-cacb-4dcd-b54d-21832b31f5cf","ios":"levelo://app?vid=53185cc0-cacb-4dcd-b54d-21832b31f5cf"},"vehicle_type_id":"4","last_reported":1715713526,"current_range_meters":26400,"station_id":"ce4bgm92rcd13ifvqbr0","pricing_plan_id":"cebpf4jnsgd1na2vs0mg"},{"bike_id":"7f18c4c8-5f8b-4aac-b00a-508fa1da9bee","system_id":"levelo_inurba_marseille","lat":43.299222,"lon":5.365554,"is_reserved":false,"is_disabled":false,"rental_uris":{"android":"levelo://app?vid=7f18c4c8-5f8b-4aac-b00a-508fa1da9bee","ios":"levelo://app?vid=7f18c4c8-5f8b-4aac-b00a-508fa1da9bee"},"vehicle_type_id":"4","last_reported":1715713526,"current_range_meters":23200,"station_id":"ce4bgm92rcd13ifvqbr0","pricing_plan_id":"cebpf4jnsgd1na2vs0mg"},{"bike_id":"a86bb463-1995-45f3-8994-ba902f7b6040","system_id":"levelo_inurba_marseille","lat":43.299724,"lon":5.371829,"is_reserved":false,"is_disabled":false,"rental_uris":{"android":"levelo://app?vid=a86bb463-1995-45f3-8994-ba902f7b6040","ios":"levelo://app?vid=a86bb463-1995-45f3-8994-ba902f7b6040"},"vehicle_type_id":"4","last_reported":1715713526,"current_range_meters":21200,"station_id":"ce4bgr92rcd13ifvqc7g","pricing_plan_id":"cebpf4jnsgd1na2vs0mg"},{"bike_id":"36987a22-a46c-429b-a31b-8f8602893247","system_id":"levelo_inurba_marseille","lat":43.299724,"lon":5.371829,"is_reserved":false,"is_disabled":false,"rental_uris":{"android":"levelo://app?vid=36987a22-a46c-429b-a31b-8f8602893247","ios":"levelo://app?vid=36987a22-a46c-429b-a31b-8f8602893247"},"vehicle_type_id":"4","last_reported":1715713526,"current_range_meters":7600,"station_id":"ce4bgr92rcd13ifvqc7g","pricing_plan_id":"cebpf4jnsgd1na2vs0mg"},{"bike_id":"c3ea422e-7067-45af-8548-d108ad510b58","system_id":"levelo_inurba_marseille","lat":43.299222,"lon":5.365554,"is_reserved":false,"is_disabled":false,"rental_uris":{"android":"levelo://app?vid=c3ea422e-7067-45af-8548-d108ad510b58","ios":"levelo://app?vid=c3ea422e-7067-45af-8548-d108ad510b58"},"vehicle_type_id":"4","last_reported":1715713526,"current_range_meters":13200,"station_id":"ce4bgm92rcd13ifvqbr0","pricing_plan_id":"cebpf4jnsgd1na2vs0mg"},{"bike_id":"d0d38e88-706c-47c6-9b4c-8b80adcb3d47","system_id":"levelo_inurba_marseille","lat":43.299724,"lon":5.371829,"is_reserved":false,"is_disabled":false,"rental_uris":{"android":"levelo://app?vid=d0d38e88-706c-47c6-9b4c-8b80adcb3d47","ios":"levelo://app?vid=d0d38e88-706c-47c6-9b4c-8b80adcb3d47"},"vehicle_type_id":"4","last_reported":1715713526,"current_range_meters":28000,"station_id":"ce4bgr92rcd13ifvqc7g","pricing_plan_id":"cebpf4jnsgd1na2vs0mg"},{"bike_id":"fa090121-a1c6-44a6-bafc-289395de4cfc","system_id":"levelo_inurba_marseille","lat":43.299724,"lon":5.371829,"is_reserved":false,"is_disabled":false,"rental_uris":{"android":"levelo://app?vid=fa090121-a1c6-44a6-bafc-289395de4cfc","ios":"levelo://app?vid=fa090121-a1c6-44a6-bafc-289395de4cfc"},"vehicle_type_id":"4","last_reported":1715713526,"current_range_meters":3200,"station_id":"ce4bgr92rcd13ifvqc7g","pricing_plan_id":"cebpf4jnsgd1na2vs0mg"},{"bike_id":"1eb8dcae-3127-4e6c-a419-698accc12214","system_id":"levelo_inurba_marseille","lat":43.299222,"lon":5.365554,"is_reserved":false,"is_disabled":false,"rental_uris":{"android":"levelo://app?vid=1eb8dcae-3127-4e6c-a419-698accc12214","ios":"levelo://app?vid=1eb8dcae-3127-4e6c-a419-698accc12214"},"vehicle_type_id":"4","last_reported":1715713526,"current_range_meters":30000,"station_id":"ce4bgm92rcd13ifvqbr0","pricing_plan_id":"cebpf4jnsgd1na2vs0mg"},{"bike_id":"5e0c19b5-ecb6-4723-8b8a-8171257c4647","system_id":"levelo_inurba_marseille","lat":43.29974,"lon":5.37185,"is_reserved":false,"is_disabled":false,"rental_uris":{"android":"levelo://app?vid=5e0c19b5-ecb6-4723-8b8a-8171257c4647","ios":"levelo://app?vid=5e0c19b5-ecb6-4723-8b8a-8171257c4647"},"vehicle_type_id":"4","last_reported":1715713526,"current_range_meters":15600,"station_id":"ce4bgr92rcd13ifvqc7g","pricing_plan_id":"cebpf4jnsgd1na2vs0mg"},{"bike_id":"5174a0da-23f5-4b92-943f-80a7fae591d1","system_id":"levelo_inurba_marseille","lat":43.299724,"lon":5.371829,"is_reserved":false,"is_disabled":false,"rental_uris":{"android":"levelo://app?vid=5174a0da-23f5-4b92-943f-80a7fae591d1","ios":"levelo://app?vid=5174a0da-23f5-4b92-943f-80a7fae591d1"},"vehicle_type_id":"4","last_reported":1715713526,"current_range_meters":14000,"station_id":"ce4bgr92rcd13ifvqc7g","pricing_plan_id":"cebpf4jnsgd1na2vs0mg"},{"bike_id":"fb217fc2-b896-46fa-9b95-bf7c10248118","system_id":"levelo_inurba_marseille","lat":43.299724,"lon":5.371829,"is_reserved":false,"is_disabled":false,"rental_uris":{"android":"levelo://app?vid=fb217fc2-b896-46fa-9b95-bf7c10248118","ios":"levelo://app?vid=fb217fc2-b896-46fa-9b95-bf7c10248118"},"vehicle_type_id":"4","last_reported":1715713526,"current_range_meters":10800,"station_id":"ce4bgr92rcd13ifvqc7g","pricing_plan_id":"cebpf4jnsgd1na2vs0mg"},{"bike_id":"cc52b3db-dcbe-4e49-b472-4d938a6b91e1","system_id":"levelo_inurba_marseille","lat":43.299724,"lon":5.371829,"is_reserved":false,"is_disabled":false,"rental_uris":{"android":"levelo://app?vid=cc52b3db-dcbe-4e49-b472-4d938a6b91e1","ios":"levelo://app?vid=cc52b3db-dcbe-4e49-b472-4d938a6b91e1"},"vehicle_type_id":"4","last_reported":1715713526,"current_range_meters":20000,"station_id":"ce4bgr92rcd13ifvqc7g","pricing_plan_id":"cebpf4jnsgd1na2vs0mg"},{"bike_id":"b22bc25e-2601-4133-bbc4-f1c0578e9ae6","system_id":"levelo_inurba_marseille","lat":43.2985,"lon":5.36285,"is_reserved":false,"is_disabled":false,"rental_uris":{"android":"levelo://app?vid=b22bc25e-2601-4133-bbc4-f1c0578e9ae6","ios":"levelo://app?vid=b22bc25e-2601-4133-bbc4-f1c0578e9ae6"},"vehicle_type_id":"4","last_reported":1715713526,"current_range_meters":8800,"station_id":"ce4bgpp2rcd13ifvqc3g","pricing_plan_id":"cebpf4jnsgd1na2vs0mg"},{"bike_id":"3d1694a0-0538-4631-a014-4ee8ce283f41","system_id":"levelo_inurba_marseille","lat":43.311722,"lon":5.387247,"is_reserved":false,"is_disabled":false,"rental_uris":{"android":"levelo://app?vid=3d1694a0-0538-4631-a014-4ee8ce283f41","ios":"levelo://app?vid=3d1694a0-0538-4631-a014-4ee8ce283f41"},"vehicle_type_id":"4","last_reported":1715713526,"current_range_meters":14800,"station_id":"ce4bgv12rcd13ifvqcp0","pricing_plan_id":"cebpf4jnsgd1na2vs0mg"},{"bike_id":"177e959e-f79e-4405-bc5a-58b35914399c","system_id":"levelo_inurba_marseille","lat":43.311777,"lon":5.387123,"is_reserved":false,"is_disabled":false,"rental_uris":{"android":"levelo://app?vid=177e959e-f79e-4405-bc5a-58b35914399c","ios":"levelo://app?vid=177e959e-f79e-4405-bc5a-58b35914399c"},"vehicle_type_id":"4","last_reported":1715713526,"current_range_meters":21200,"station_id":"ce4bgv12rcd13ifvqcp0","pricing_plan_id":"cebpf4jnsgd1na2vs0mg"},{"bike_id":"2f001db5-b6cf-4fd4-a9d1-3f2bec4ddff5","system_id":"levelo_inurba_marseille","lat":43.31178,"lon":5.38713,"is_reserved":false,"is_disabled":false,"rental_uris":{"android":"levelo://app?vid=2f001db5-b6cf-4fd4-a9d1-3f2bec4ddff5","ios":"levelo://app?vid=2f001db5-b6cf-4fd4-a9d1-3f2bec4ddff5"},"vehicle_type_id":"4","last_reported":1715713526,"current_range_meters":400,"station_id":"ce4bgv12rcd13ifvqcp0","pricing_plan_id":"cebpf4jnsgd1na2vs0mg"},{"bike_id":"09ede002-171b-4ccb-a0e9-cdc69f12186e","system_id":"levelo_inurba_marseille","lat":43.311722,"lon":5.387247,"is_reserved":false,"is_disabled":false,"rental_uris":{"android":"levelo://app?vid=09ede002-171b-4ccb-a0e9-cdc69f12186e","ios":"levelo://app?vid=09ede002-171b-4ccb-a0e9-cdc69f12186e"},"vehicle_type_id":"4","last_reported":1715713526,"current_range_meters":25200,"station_id":"ce4bgv12rcd13ifvqcp0","pricing_plan_id":"cebpf4jnsgd1na2vs0mg"},{"bike_id":"db715c03-a3bc-478f-a7b4-7af75630c45c","system_id":"levelo_inurba_marseille","lat":43.322872,"lon":5.382756,"is_reserved":false,"is_disabled":false,"rental_uris":{"android":"levelo://app?vid=db715c03-a3bc-478f-a7b4-7af75630c45c","ios":"levelo://app?vid=db715c03-a3bc-478f-a7b4-7af75630c45c"},"vehicle_type_id":"4","last_reported":1715713526,"current_range_meters":0,"station_id":"ce4bhr12rcd13ifvqhqg","pricing_plan_id":"cebpf4jnsgd1na2vs0mg"},{"bike_id":"67a0c948-7317-4464-924c-526d4ce2b24c","system_id":"levelo_inurba_marseille","lat":43.322872,"lon":5.382756,"is_reserved":false,"is_disabled":false,"rental_uris":{"android":"levelo://app?vid=67a0c948-7317-4464-924c-526d4ce2b24c","ios":"levelo://app?vid=67a0c948-7317-4464-924c-526d4ce2b24c"},"vehicle_type_id":"4","last_reported":1715713526,"current_range_meters":12800,"station_id":"ce4bhr12rcd13ifvqhqg","pricing_plan_id":"cebpf4jnsgd1na2vs0mg"},{"bike_id":"e0c0350c-2fd9-45ce-8734-dbfb0ce320df","system_id":"levelo_inurba_marseille","lat":43.322872,"lon":5.382756,"is_reserved":false,"is_disabled":false,"rental_uris":{"android":"levelo://app?vid=e0c0350c-2fd9-45ce-8734-dbfb0ce320df","ios":"levelo://app?vid=e0c0350c-2fd9-45ce-8734-dbfb0ce320df"},"vehicle_type_id":"4","last_reported":1715713526,"current_range_meters":13200,"station_id":"ce4bhr12rcd13ifvqhqg","pricing_plan_id":"cebpf4jnsgd1na2vs0mg"},{"bike_id":"d91e0fb7-214c-4ee6-abdc-3908842fa705","system_id":"levelo_inurba_marseille","lat":43.322872,"lon":5.382756,"is_reserved":false,"is_disabled":false,"rental_uris":{"android":"levelo://app?vid=d91e0fb7-214c-4ee6-abdc-3908842fa705","ios":"levelo://app?vid=d91e0fb7-214c-4ee6-abdc-3908842fa705"},"vehicle_type_id":"4","last_reported":1715713526,"current_range_meters":31200,"station_id":"ce4bhr12rcd13ifvqhqg","pricing_plan_id":"cebpf4jnsgd1na2vs0mg"},{"bike_id":"f4bcaac7-0b24-41b4-8d07-a878eab53800","system_id":"levelo_inurba_marseille","lat":43.322872,"lon":5.382756,"is_reserved":false,"is_disabled":false,"rental_uris":{"android":"levelo://app?vid=f4bcaac7-0b24-41b4-8d07-a878eab53800","ios":"levelo://app?vid=f4bcaac7-0b24-41b4-8d07-a878eab53800"},"vehicle_type_id":"4","last_reported":1715713526,"current_range_meters":14800,"station_id":"ce4bhr12rcd13ifvqhqg","pricing_plan_id":"cebpf4jnsgd1na2vs0mg"},{"bike_id":"2f385012-e130-4082-b673-459681c4efc9","system_id":"levelo_inurba_marseille","lat":43.322872,"lon":5.382756,"is_reserved":false,"is_disabled":false,"rental_uris":{"android":"levelo://app?vid=2f385012-e130-4082-b673-459681c4efc9","ios":"levelo://app?vid=2f385012-e130-4082-b673-459681c4efc9"},"vehicle_type_id":"4","last_reported":1715713526,"current_range_meters":21600,"station_id":"ce4bhr12rcd13ifvqhqg","pricing_plan_id":"cebpf4jnsgd1na2vs0mg"},{"bike_id":"d70e29f3-9757-4b17-a228-3dd0ca943895","system_id":"levelo_inurba_marseille","lat":43.297163,"lon":5.365866,"is_reserved":false,"is_disabled":false,"rental_uris":{"android":"levelo://app?vid=d70e29f3-9757-4b17-a228-3dd0ca943895","ios":"levelo://app?vid=d70e29f3-9757-4b17-a228-3dd0ca943895"},"vehicle_type_id":"4","last_reported":1715713526,"current_range_meters":29600,"station_id":"ce4bgn12rcd13ifvqbt0","pricing_plan_id":"cebpf4jnsgd1na2vs0mg"},{"bike_id":"4e3c5e3f-bb0f-45c5-a338-f12bc493077a","system_id":"levelo_inurba_marseille","lat":43.297163,"lon":5.365866,"is_reserved":false,"is_disabled":false,"rental_uris":{"android":"levelo://app?vid=4e3c5e3f-bb0f-45c5-a338-f12bc493077a","ios":"levelo://app?vid=4e3c5e3f-bb0f-45c5-a338-f12bc493077a"},"vehicle_type_id":"4","last_reported":1715713526,"current_range_meters":7200,"station_id":"ce4bgn12rcd13ifvqbt0","pricing_plan_id":"cebpf4jnsgd1na2vs0mg"},{"bike_id":"eb32690f-9b92-49bd-8d6e-871767db58ea","system_id":"levelo_inurba_marseille","lat":43.297163,"lon":5.365866,"is_reserved":false,"is_disabled":false,"rental_uris":{"android":"levelo://app?vid=eb32690f-9b92-49bd-8d6e-871767db58ea","ios":"levelo://app?vid=eb32690f-9b92-49bd-8d6e-871767db58ea"},"vehicle_type_id":"4","last_reported":1715713526,"current_range_meters":30000,"station_id":"ce4bgn12rcd13ifvqbt0","pricing_plan_id":"cebpf4jnsgd1na2vs0mg"},{"bike_id":"c25bcbea-5413-48de-8c8b-8a82fea12b9c","system_id":"levelo_inurba_marseille","lat":43.297163,"lon":5.365866,"is_reserved":false,"is_disabled":false,"rental_uris":{"android":"levelo://app?vid=c25bcbea-5413-48de-8c8b-8a82fea12b9c","ios":"levelo://app?vid=c25bcbea-5413-48de-8c8b-8a82fea12b9c"},"vehicle_type_id":"4","last_reported":1715713526,"current_range_meters":2800,"station_id":"ce4bgn12rcd13ifvqbt0","pricing_plan_id":"cebpf4jnsgd1na2vs0mg"},{"bike_id":"29cc725d-4faf-46bd-a890-0684afd1aa17","system_id":"levelo_inurba_marseille","lat":43.297163,"lon":5.365866,"is_reserved":false,"is_disabled":false,"rental_uris":{"android":"levelo://app?vid=29cc725d-4faf-46bd-a890-0684afd1aa17","ios":"levelo://app?vid=29cc725d-4faf-46bd-a890-0684afd1aa17"},"vehicle_type_id":"4","last_reported":1715713526,"current_range_meters":8000,"station_id":"ce4bgn12rcd13ifvqbt0","pricing_plan_id":"cebpf4jnsgd1na2vs0mg"},{"bike_id":"07f0d640-5e43-42b0-a2f3-7911e41afb15","system_id":"levelo_inurba_marseille","lat":43.297163,"lon":5.365866,"is_reserved":false,"is_disabled":false,"rental_uris":{"android":"levelo://app?vid=07f0d640-5e43-42b0-a2f3-7911e41afb15","ios":"levelo://app?vid=07f0d640-5e43-42b0-a2f3-7911e41afb15"},"vehicle_type_id":"4","last_reported":1715713526,"current_range_meters":22400,"station_id":"ce4bgn12rcd13ifvqbt0","pricing_plan_id":"cebpf4jnsgd1na2vs0mg"},{"bike_id":"54287409-c09b-46a4-a1d0-9de32e647536","system_id":"levelo_inurba_marseille","lat":43.3002,"lon":5.380892,"is_reserved":false,"is_disabled":false,"rental_uris":{"android":"levelo://app?vid=54287409-c09b-46a4-a1d0-9de32e647536","ios":"levelo://app?vid=54287409-c09b-46a4-a1d0-9de32e647536"},"vehicle_type_id":"4","last_reported":1715713526,"current_range_meters":21200,"station_id":"","pricing_plan_id":"cebpf4jnsgd1na2vs0mg"},{"bike_id":"990055a2-b25d-4646-b20d-2dad0a1fca3b","system_id":"levelo_inurba_marseille","lat":43.2968,"lon":5.37291,"is_reserved":false,"is_disabled":false,"rental_uris":{"android":"levelo://app?vid=990055a2-b25d-4646-b20d-2dad0a1fca3b","ios":"levelo://app?vid=990055a2-b25d-4646-b20d-2dad0a1fca3b"},"vehicle_type_id":"4","last_reported":1715713526,"current_range_meters":6800,"station_id":"ce4bgk12rcd13ifvqbj0","pricing_plan_id":"cebpf4jnsgd1na2vs0mg"},{"bike_id":"cc532351-c6c3-4236-828e-c12bb8d8da73","system_id":"levelo_inurba_marseille","lat":43.296131,"lon":5.370791,"is_reserved":false,"is_disabled":false,"rental_uris":{"android":"levelo://app?vid=cc532351-c6c3-4236-828e-c12bb8d8da73","ios":"levelo://app?vid=cc532351-c6c3-4236-828e-c12bb8d8da73"},"vehicle_type_id":"4","last_reported":1715713526,"current_range_meters":4800,"station_id":"ce4bgnh2rcd13ifvqc0g","pricing_plan_id":"cebpf4jnsgd1na2vs0mg"},{"bike_id":"f0ba651f-6b11-4276-a237-7cfd1e9a188f","system_id":"levelo_inurba_marseille","lat":43.296129,"lon":5.370777,"is_reserved":false,"is_disabled":false,"rental_uris":{"android":"levelo://app?vid=f0ba651f-6b11-4276-a237-7cfd1e9a188f","ios":"levelo://app?vid=f0ba651f-6b11-4276-a237-7cfd1e9a188f"},"vehicle_type_id":"4","last_reported":1715713526,"current_range_meters":400,"station_id":"ce4bgnh2rcd13ifvqc0g","pricing_plan_id":"cebpf4jnsgd1na2vs0mg"},{"bike_id":"a63f996a-5793-4cc0-856d-9b402cf69791","system_id":"levelo_inurba_marseille","lat":43.296131,"lon":5.370791,"is_reserved":false,"is_disabled":false,"rental_uris":{"android":"levelo://app?vid=a63f996a-5793-4cc0-856d-9b402cf69791","ios":"levelo://app?vid=a63f996a-5793-4cc0-856d-9b402cf69791"},"vehicle_type_id":"4","last_reported":1715713526,"current_range_meters":24800,"station_id":"ce4bgnh2rcd13ifvqc0g","pricing_plan_id":"cebpf4jnsgd1na2vs0mg"},{"bike_id":"c2929806-cbb9-40b4-9438-21bdda28a02c","system_id":"levelo_inurba_marseille","lat":43.29573,"lon":5.367355,"is_reserved":false,"is_disabled":false,"rental_uris":{"android":"levelo://app?vid=c2929806-cbb9-40b4-9438-21bdda28a02c","ios":"levelo://app?vid=c2929806-cbb9-40b4-9438-21bdda28a02c"},"vehicle_type_id":"4","last_reported":1715713526,"current_range_meters":20800,"station_id":"ce4bgph2rcd13ifvqc2g","pricing_plan_id":"cebpf4jnsgd1na2vs0mg"},{"bike_id":"aa059b1c-41e7-4588-8bd6-cccb8d47e955","system_id":"levelo_inurba_marseille","lat":43.296935,"lon":5.376544,"is_reserved":false,"is_disabled":false,"rental_uris":{"android":"levelo://app?vid=aa059b1c-41e7-4588-8bd6-cccb8d47e955","ios":"levelo://app?vid=aa059b1c-41e7-4588-8bd6-cccb8d47e955"},"vehicle_type_id":"4","last_reported":1715713526,"current_range_meters":18400,"station_id":"ce4bgkh2rcd13ifvqbl0","pricing_plan_id":"cebpf4jnsgd1na2vs0mg"},{"bike_id":"ae60a63f-b4e7-47cc-8467-546472668562","system_id":"levelo_inurba_marseille","lat":43.309589,"lon":5.390258,"is_reserved":false,"is_disabled":false,"rental_uris":{"android":"levelo://app?vid=ae60a63f-b4e7-47cc-8467-546472668562","ios":"levelo://app?vid=ae60a63f-b4e7-47cc-8467-546472668562"},"vehicle_type_id":"4","last_reported":1715713526,"current_range_meters":2800,"station_id":"ce4bgup2rcd13ifvqco0","pricing_plan_id":"cebpf4jnsgd1na2vs0mg"},{"bike_id":"7f13ee3f-b56b-4131-bc2b-ac1c15134dff","system_id":"levelo_inurba_marseille","lat":43.29906,"lon":5.38147,"is_reserved":false,"is_disabled":false,"rental_uris":{"android":"levelo://app?vid=7f13ee3f-b56b-4131-bc2b-ac1c15134dff","ios":"levelo://app?vid=7f13ee3f-b56b-4131-bc2b-ac1c15134dff"},"vehicle_type_id":"4","last_reported":1715713526,"current_range_meters":0,"station_id":"ce4bgj12rcd13ifvqbc0","pricing_plan_id":"cebpf4jnsgd1na2vs0mg"},{"bike_id":"c14cab4f-9ce9-430d-ab2b-c03fdc679a4e","system_id":"levelo_inurba_marseille","lat":43.309589,"lon":5.390258,"is_reserved":false,"is_disabled":false,"rental_uris":{"android":"levelo://app?vid=c14cab4f-9ce9-430d-ab2b-c03fdc679a4e","ios":"levelo://app?vid=c14cab4f-9ce9-430d-ab2b-c03fdc679a4e"},"vehicle_type_id":"4","last_reported":1715713526,"current_range_meters":0,"station_id":"ce4bgup2rcd13ifvqco0","pricing_plan_id":"cebpf4jnsgd1na2vs0mg"},{"bike_id":"2c07997c-7a34-411b-9f63-63990e7b303a","system_id":"levelo_inurba_marseille","lat":43.296921,"lon":5.376579,"is_reserved":false,"is_disabled":false,"rental_uris":{"android":"levelo://app?vid=2c07997c-7a34-411b-9f63-63990e7b303a","ios":"levelo://app?vid=2c07997c-7a34-411b-9f63-63990e7b303a"},"vehicle_type_id":"4","last_reported":1715713526,"current_range_meters":22800,"station_id":"ce4bgkh2rcd13ifvqbl0","pricing_plan_id":"cebpf4jnsgd1na2vs0mg"},{"bike_id":"585ab414-65bb-46a8-8588-d7e966926b60","system_id":"levelo_inurba_marseille","lat":43.317557,"lon":5.390173,"is_reserved":false,"is_disabled":false,"rental_uris":{"android":"levelo://app?vid=585ab414-65bb-46a8-8588-d7e966926b60","ios":"levelo://app?vid=585ab414-65bb-46a8-8588-d7e966926b60"},"vehicle_type_id":"4","last_reported":1715713526,"current_range_meters":24000,"station_id":"ce4bhqp2rcd13ifvqhng","pricing_plan_id":"cebpf4jnsgd1na2vs0mg"},{"bike_id":"a7f7ea1c-2b20-49ec-8d3c-29d10357b155","system_id":"levelo_inurba_marseille","lat":43.317557,"lon":5.390173,"is_reserved":false,"is_disabled":false,"rental_uris":{"android":"levelo://app?vid=a7f7ea1c-2b20-49ec-8d3c-29d10357b155","ios":"levelo://app?vid=a7f7ea1c-2b20-49ec-8d3c-29d10357b155"},"vehicle_type_id":"4","last_reported":1715713526,"current_range_meters":21600,"station_id":"ce4bhqp2rcd13ifvqhng","pricing_plan_id":"cebpf4jnsgd1na2vs0mg"},{"bike_id":"9f92934e-359e-4ec3-a2ce-e7425242753a","system_id":"levelo_inurba_marseille","lat":43.317557,"lon":5.390173,"is_reserved":false,"is_disabled":false,"rental_uris":{"android":"levelo://app?vid=9f92934e-359e-4ec3-a2ce-e7425242753a","ios":"levelo://app?vid=9f92934e-359e-4ec3-a2ce-e7425242753a"},"vehicle_type_id":"4","last_reported":1715713526,"current_range_meters":31200,"station_id":"ce4bhqp2rcd13ifvqhng","pricing_plan_id":"cebpf4jnsgd1na2vs0mg"},{"bike_id":"3fca99d0-3b12-4a35-9226-2099fb230415","system_id":"levelo_inurba_marseille","lat":43.317557,"lon":5.390173,"is_reserved":false,"is_disabled":false,"rental_uris":{"android":"levelo://app?vid=3fca99d0-3b12-4a35-9226-2099fb230415","ios":"levelo://app?vid=3fca99d0-3b12-4a35-9226-2099fb230415"},"vehicle_type_id":"4","last_reported":1715713526,"current_range_meters":16400,"station_id":"ce4bhqp2rcd13ifvqhng","pricing_plan_id":"cebpf4jnsgd1na2vs0mg"},{"bike_id":"bb57081d-60a6-4ab0-8108-222ef8c25b01","system_id":"levelo_inurba_marseille","lat":43.317557,"lon":5.390173,"is_reserved":false,"is_disabled":false,"rental_uris":{"android":"levelo://app?vid=bb57081d-60a6-4ab0-8108-222ef8c25b01","ios":"levelo://app?vid=bb57081d-60a6-4ab0-8108-222ef8c25b01"},"vehicle_type_id":"4","last_reported":1715713526,"current_range_meters":12400,"station_id":"ce4bhqp2rcd13ifvqhng","pricing_plan_id":"cebpf4jnsgd1na2vs0mg"},{"bike_id":"c5d87719-624c-4088-9cc1-ac290b3aaebd","system_id":"levelo_inurba_marseille","lat":43.317557,"lon":5.390173,"is_reserved":false,"is_disabled":false,"rental_uris":{"android":"levelo://app?vid=c5d87719-624c-4088-9cc1-ac290b3aaebd","ios":"levelo://app?vid=c5d87719-624c-4088-9cc1-ac290b3aaebd"},"vehicle_type_id":"4","last_reported":1715713526,"current_range_meters":31600,"station_id":"ce4bhqp2rcd13ifvqhng","pricing_plan_id":"cebpf4jnsgd1na2vs0mg"},{"bike_id":"2e3e3723-e59a-4fac-9056-2f8e028989a6","system_id":"levelo_inurba_marseille","lat":43.317557,"lon":5.390173,"is_reserved":false,"is_disabled":false,"rental_uris":{"android":"levelo://app?vid=2e3e3723-e59a-4fac-9056-2f8e028989a6","ios":"levelo://app?vid=2e3e3723-e59a-4fac-9056-2f8e028989a6"},"vehicle_type_id":"4","last_reported":1715713526,"current_range_meters":25600,"station_id":"ce4bhqp2rcd13ifvqhng","pricing_plan_id":"cebpf4jnsgd1na2vs0mg"},{"bike_id":"2efdd286-5466-44fe-97f9-683c4bf6f31d","system_id":"levelo_inurba_marseille","lat":43.317557,"lon":5.390173,"is_reserved":false,"is_disabled":false,"rental_uris":{"android":"levelo://app?vid=2efdd286-5466-44fe-97f9-683c4bf6f31d","ios":"levelo://app?vid=2efdd286-5466-44fe-97f9-683c4bf6f31d"},"vehicle_type_id":"4","last_reported":1715713526,"current_range_meters":12800,"station_id":"ce4bhqp2rcd13ifvqhng","pricing_plan_id":"cebpf4jnsgd1na2vs0mg"},{"bike_id":"3b1b2b66-bb05-4321-bfc2-c5dcc5ad802e","system_id":"levelo_inurba_marseille","lat":43.298072,"lon":5.381009,"is_reserved":false,"is_disabled":false,"rental_uris":{"android":"levelo://app?vid=3b1b2b66-bb05-4321-bfc2-c5dcc5ad802e","ios":"levelo://app?vid=3b1b2b66-bb05-4321-bfc2-c5dcc5ad802e"},"vehicle_type_id":"4","last_reported":1715713526,"current_range_meters":5200,"station_id":"ce4bgip2rcd13ifvqbb0","pricing_plan_id":"cebpf4jnsgd1na2vs0mg"},{"bike_id":"9d812af6-8558-477b-975a-fb55e6145eaa","system_id":"levelo_inurba_marseille","lat":43.29804,"lon":5.381053,"is_reserved":false,"is_disabled":false,"rental_uris":{"android":"levelo://app?vid=9d812af6-8558-477b-975a-fb55e6145eaa","ios":"levelo://app?vid=9d812af6-8558-477b-975a-fb55e6145eaa"},"vehicle_type_id":"4","last_reported":1715713526,"current_range_meters":0,"station_id":"ce4bgip2rcd13ifvqbb0","pricing_plan_id":"cebpf4jnsgd1na2vs0mg"},{"bike_id":"8955f168-fbde-4ed2-a88c-c5ef2d9a4cd3","system_id":"levelo_inurba_marseille","lat":43.304274,"lon":5.388873,"is_reserved":false,"is_disabled":false,"rental_uris":{"android":"levelo://app?vid=8955f168-fbde-4ed2-a88c-c5ef2d9a4cd3","ios":"levelo://app?vid=8955f168-fbde-4ed2-a88c-c5ef2d9a4cd3"},"vehicle_type_id":"4","last_reported":1715713526,"current_range_meters":0,"station_id":"ce4bgk12rcd13ifvqbi0","pricing_plan_id":"cebpf4jnsgd1na2vs0mg"},{"bike_id":"14b7e683-b11d-4a6c-9223-cb084640bad9","system_id":"levelo_inurba_marseille","lat":43.304274,"lon":5.388873,"is_reserved":false,"is_disabled":false,"rental_uris":{"android":"levelo://app?vid=14b7e683-b11d-4a6c-9223-cb084640bad9","ios":"levelo://app?vid=14b7e683-b11d-4a6c-9223-cb084640bad9"},"vehicle_type_id":"4","last_reported":1715713526,"current_range_meters":400,"station_id":"ce4bgk12rcd13ifvqbi0","pricing_plan_id":"cebpf4jnsgd1na2vs0mg"},{"bike_id":"5bd247f9-c9c0-4830-a82f-4dad46257c4f","system_id":"levelo_inurba_marseille","lat":43.304348,"lon":5.388885,"is_reserved":false,"is_disabled":false,"rental_uris":{"android":"levelo://app?vid=5bd247f9-c9c0-4830-a82f-4dad46257c4f","ios":"levelo://app?vid=5bd247f9-c9c0-4830-a82f-4dad46257c4f"},"vehicle_type_id":"4","last_reported":1715713526,"current_range_meters":20000,"station_id":"ce4bgk12rcd13ifvqbi0","pricing_plan_id":"cebpf4jnsgd1na2vs0mg"},{"bike_id":"4d871724-1518-471c-a3df-94fd78b8d216","system_id":"levelo_inurba_marseille","lat":43.304274,"lon":5.388873,"is_reserved":false,"is_disabled":false,"rental_uris":{"android":"levelo://app?vid=4d871724-1518-471c-a3df-94fd78b8d216","ios":"levelo://app?vid=4d871724-1518-471c-a3df-94fd78b8d216"},"vehicle_type_id":"4","last_reported":1715713526,"current_range_meters":7600,"station_id":"ce4bgk12rcd13ifvqbi0","pricing_plan_id":"cebpf4jnsgd1na2vs0mg"},{"bike_id":"bf06c540-2667-40ca-99c7-4359b1bd141d","system_id":"levelo_inurba_marseille","lat":43.304274,"lon":5.388873,"is_reserved":false,"is_disabled":false,"rental_uris":{"android":"levelo://app?vid=bf06c540-2667-40ca-99c7-4359b1bd141d","ios":"levelo://app?vid=bf06c540-2667-40ca-99c7-4359b1bd141d"},"vehicle_type_id":"4","last_reported":1715713526,"current_range_meters":29600,"station_id":"ce4bgk12rcd13ifvqbi0","pricing_plan_id":"cebpf4jnsgd1na2vs0mg"},{"bike_id":"74ea3d90-6fd6-4892-b55f-a05e9cb3a3bf","system_id":"levelo_inurba_marseille","lat":43.295748,"lon":5.37522,"is_reserved":false,"is_disabled":false,"rental_uris":{"android":"levelo://app?vid=74ea3d90-6fd6-4892-b55f-a05e9cb3a3bf","ios":"levelo://app?vid=74ea3d90-6fd6-4892-b55f-a05e9cb3a3bf"},"vehicle_type_id":"4","last_reported":1715713526,"current_range_meters":24800,"station_id":"ce4bgh92rcd13ifvqb50","pricing_plan_id":"cebpf4jnsgd1na2vs0mg"},{"bike_id":"a304df2e-a0e8-4a1c-a4ae-27d2dad56f47","system_id":"levelo_inurba_marseille","lat":43.304294,"lon":5.38887,"is_reserved":false,"is_disabled":false,"rental_uris":{"android":"levelo://app?vid=a304df2e-a0e8-4a1c-a4ae-27d2dad56f47","ios":"levelo://app?vid=a304df2e-a0e8-4a1c-a4ae-27d2dad56f47"},"vehicle_type_id":"4","last_reported":1715713526,"current_range_meters":6400,"station_id":"ce4bgk12rcd13ifvqbi0","pricing_plan_id":"cebpf4jnsgd1na2vs0mg"},{"bike_id":"f5b4d262-c733-4a22-bf3a-b44a1f4db3cf","system_id":"levelo_inurba_marseille","lat":43.295748,"lon":5.37522,"is_reserved":false,"is_disabled":false,"rental_uris":{"android":"levelo://app?vid=f5b4d262-c733-4a22-bf3a-b44a1f4db3cf","ios":"levelo://app?vid=f5b4d262-c733-4a22-bf3a-b44a1f4db3cf"},"vehicle_type_id":"4","last_reported":1715713526,"current_range_meters":17200,"station_id":"ce4bgh92rcd13ifvqb50","pricing_plan_id":"cebpf4jnsgd1na2vs0mg"},{"bike_id":"7457285b-3b5a-4f2a-9381-efe119363e9a","system_id":"levelo_inurba_marseille","lat":43.304257,"lon":5.388894,"is_reserved":false,"is_disabled":false,"rental_uris":{"android":"levelo://app?vid=7457285b-3b5a-4f2a-9381-efe119363e9a","ios":"levelo://app?vid=7457285b-3b5a-4f2a-9381-efe119363e9a"},"vehicle_type_id":"4","last_reported":1715713526,"current_range_meters":22000,"station_id":"ce4bgk12rcd13ifvqbi0","pricing_plan_id":"cebpf4jnsgd1na2vs0mg"},{"bike_id":"51076e19-9e7b-4d8b-96b8-fe71fa55d641","system_id":"levelo_inurba_marseille","lat":43.304358,"lon":5.388983,"is_reserved":false,"is_disabled":false,"rental_uris":{"android":"levelo://app?vid=51076e19-9e7b-4d8b-96b8-fe71fa55d641","ios":"levelo://app?vid=51076e19-9e7b-4d8b-96b8-fe71fa55d641"},"vehicle_type_id":"4","last_reported":1715713526,"current_range_meters":2400,"station_id":"ce4bgk12rcd13ifvqbi0","pricing_plan_id":"cebpf4jnsgd1na2vs0mg"},{"bike_id":"3cc3d3b3-9549-4ccd-b1b2-387dfadd8e82","system_id":"levelo_inurba_marseille","lat":43.304274,"lon":5.388873,"is_reserved":false,"is_disabled":false,"rental_uris":{"android":"levelo://app?vid=3cc3d3b3-9549-4ccd-b1b2-387dfadd8e82","ios":"levelo://app?vid=3cc3d3b3-9549-4ccd-b1b2-387dfadd8e82"},"vehicle_type_id":"4","last_reported":1715713526,"current_range_meters":23200,"station_id":"ce4bgk12rcd13ifvqbi0","pricing_plan_id":"cebpf4jnsgd1na2vs0mg"},{"bike_id":"71a92ccd-81a5-47f5-bf41-dee76a838325","system_id":"levelo_inurba_marseille","lat":43.304274,"lon":5.388873,"is_reserved":false,"is_disabled":false,"rental_uris":{"android":"levelo://app?vid=71a92ccd-81a5-47f5-bf41-dee76a838325","ios":"levelo://app?vid=71a92ccd-81a5-47f5-bf41-dee76a838325"},"vehicle_type_id":"4","last_reported":1715713526,"current_range_meters":12800,"station_id":"ce4bgk12rcd13ifvqbi0","pricing_plan_id":"cebpf4jnsgd1na2vs0mg"},{"bike_id":"1b0624ac-b588-4636-aa4f-6fa6626cc852","system_id":"levelo_inurba_marseille","lat":43.304274,"lon":5.388873,"is_reserved":false,"is_disabled":false,"rental_uris":{"android":"levelo://app?vid=1b0624ac-b588-4636-aa4f-6fa6626cc852","ios":"levelo://app?vid=1b0624ac-b588-4636-aa4f-6fa6626cc852"},"vehicle_type_id":"4","last_reported":1715713526,"current_range_meters":20000,"station_id":"ce4bgk12rcd13ifvqbi0","pricing_plan_id":"cebpf4jnsgd1na2vs0mg"},{"bike_id":"9ae2f7d2-8190-4dba-8d78-def27693df4e","system_id":"levelo_inurba_marseille","lat":43.30426,"lon":5.38896,"is_reserved":false,"is_disabled":false,"rental_uris":{"android":"levelo://app?vid=9ae2f7d2-8190-4dba-8d78-def27693df4e","ios":"levelo://app?vid=9ae2f7d2-8190-4dba-8d78-def27693df4e"},"vehicle_type_id":"4","last_reported":1715713526,"current_range_meters":10800,"station_id":"ce4bgk12rcd13ifvqbi0","pricing_plan_id":"cebpf4jnsgd1na2vs0mg"},{"bike_id":"a8277087-9a81-4aa1-b341-9faacd300b3a","system_id":"levelo_inurba_marseille","lat":43.296263,"lon":5.377094,"is_reserved":false,"is_disabled":false,"rental_uris":{"android":"levelo://app?vid=a8277087-9a81-4aa1-b341-9faacd300b3a","ios":"levelo://app?vid=a8277087-9a81-4aa1-b341-9faacd300b3a"},"vehicle_type_id":"4","last_reported":1715713526,"current_range_meters":13200,"station_id":"ce4bgi92rcd13ifvqb90","pricing_plan_id":"cebpf4jnsgd1na2vs0mg"},{"bike_id":"545e0ffa-a03e-490b-b0c3-966a224385d3","system_id":"levelo_inurba_marseille","lat":43.29987,"lon":5.38496,"is_reserved":false,"is_disabled":false,"rental_uris":{"android":"levelo://app?vid=545e0ffa-a03e-490b-b0c3-966a224385d3","ios":"levelo://app?vid=545e0ffa-a03e-490b-b0c3-966a224385d3"},"vehicle_type_id":"4","last_reported":1715713526,"current_range_meters":28000,"station_id":"ce4bgj92rcd13ifvqbd0","pricing_plan_id":"cebpf4jnsgd1na2vs0mg"},{"bike_id":"b62ae5c8-c1b9-4cdd-bae1-8cc79ca5525a","system_id":"levelo_inurba_marseille","lat":43.299707,"lon":5.384859,"is_reserved":false,"is_disabled":false,"rental_uris":{"android":"levelo://app?vid=b62ae5c8-c1b9-4cdd-bae1-8cc79ca5525a","ios":"levelo://app?vid=b62ae5c8-c1b9-4cdd-bae1-8cc79ca5525a"},"vehicle_type_id":"4","last_reported":1715713526,"current_range_meters":26400,"station_id":"ce4bgj92rcd13ifvqbd0","pricing_plan_id":"cebpf4jnsgd1na2vs0mg"},{"bike_id":"395358b1-dbde-4af9-8d5c-b97d76694da1","system_id":"levelo_inurba_marseille","lat":43.299707,"lon":5.384859,"is_reserved":false,"is_disabled":false,"rental_uris":{"android":"levelo://app?vid=395358b1-dbde-4af9-8d5c-b97d76694da1","ios":"levelo://app?vid=395358b1-dbde-4af9-8d5c-b97d76694da1"},"vehicle_type_id":"4","last_reported":1715713526,"current_range_meters":22400,"station_id":"ce4bgj92rcd13ifvqbd0","pricing_plan_id":"cebpf4jnsgd1na2vs0mg"},{"bike_id":"5266ae84-e6f5-4f6f-91f6-cdb8d4570538","system_id":"levelo_inurba_marseille","lat":43.299724,"lon":5.384848,"is_reserved":false,"is_disabled":false,"rental_uris":{"android":"levelo://app?vid=5266ae84-e6f5-4f6f-91f6-cdb8d4570538","ios":"levelo://app?vid=5266ae84-e6f5-4f6f-91f6-cdb8d4570538"},"vehicle_type_id":"4","last_reported":1715713526,"current_range_meters":0,"station_id":"ce4bgj92rcd13ifvqbd0","pricing_plan_id":"cebpf4jnsgd1na2vs0mg"},{"bike_id":"f027fa8c-b71c-43c5-a901-f2f05f342bdd","system_id":"levelo_inurba_marseille","lat":43.32361,"lon":5.3888,"is_reserved":false,"is_disabled":false,"rental_uris":{"android":"levelo://app?vid=f027fa8c-b71c-43c5-a901-f2f05f342bdd","ios":"levelo://app?vid=f027fa8c-b71c-43c5-a901-f2f05f342bdd"},"vehicle_type_id":"4","last_reported":1715713526,"current_range_meters":1600,"station_id":"ce4bhqp2rcd13ifvqhog","pricing_plan_id":"cebpf4jnsgd1na2vs0mg"},{"bike_id":"f1839aa8-d2b5-4e2c-a0cc-8c118a7c52d7","system_id":"levelo_inurba_marseille","lat":43.32367,"lon":5.388836,"is_reserved":false,"is_disabled":false,"rental_uris":{"android":"levelo://app?vid=f1839aa8-d2b5-4e2c-a0cc-8c118a7c52d7","ios":"levelo://app?vid=f1839aa8-d2b5-4e2c-a0cc-8c118a7c52d7"},"vehicle_type_id":"4","last_reported":1715713526,"current_range_meters":14400,"station_id":"ce4bhqp2rcd13ifvqhog","pricing_plan_id":"cebpf4jnsgd1na2vs0mg"},{"bike_id":"150f9ad8-d5fa-45ae-a613-ec1b7f216e33","system_id":"levelo_inurba_marseille","lat":43.323698,"lon":5.388846,"is_reserved":false,"is_disabled":false,"rental_uris":{"android":"levelo://app?vid=150f9ad8-d5fa-45ae-a613-ec1b7f216e33","ios":"levelo://app?vid=150f9ad8-d5fa-45ae-a613-ec1b7f216e33"},"vehicle_type_id":"4","last_reported":1715713526,"current_range_meters":7600,"station_id":"ce4bhqp2rcd13ifvqhog","pricing_plan_id":"cebpf4jnsgd1na2vs0mg"},{"bike_id":"c0a12801-a229-461f-b8cb-7ffc627d2291","system_id":"levelo_inurba_marseille","lat":43.32368,"lon":5.38887,"is_reserved":false,"is_disabled":false,"rental_uris":{"android":"levelo://app?vid=c0a12801-a229-461f-b8cb-7ffc627d2291","ios":"levelo://app?vid=c0a12801-a229-461f-b8cb-7ffc627d2291"},"vehicle_type_id":"4","last_reported":1715713526,"current_range_meters":0,"station_id":"ce4bhqp2rcd13ifvqhog","pricing_plan_id":"cebpf4jnsgd1na2vs0mg"},{"bike_id":"c457b344-55ea-4f60-9419-16977d65cd5c","system_id":"levelo_inurba_marseille","lat":43.32367,"lon":5.388836,"is_reserved":false,"is_disabled":false,"rental_uris":{"android":"levelo://app?vid=c457b344-55ea-4f60-9419-16977d65cd5c","ios":"levelo://app?vid=c457b344-55ea-4f60-9419-16977d65cd5c"},"vehicle_type_id":"4","last_reported":1715713526,"current_range_meters":17200,"station_id":"ce4bhqp2rcd13ifvqhog","pricing_plan_id":"cebpf4jnsgd1na2vs0mg"},{"bike_id":"b3326f62-e5a2-47c4-bbfa-b50e6d18cde7","system_id":"levelo_inurba_marseille","lat":43.29602,"lon":5.381084,"is_reserved":false,"is_disabled":false,"rental_uris":{"android":"levelo://app?vid=b3326f62-e5a2-47c4-bbfa-b50e6d18cde7","ios":"levelo://app?vid=b3326f62-e5a2-47c4-bbfa-b50e6d18cde7"},"vehicle_type_id":"4","last_reported":1715713526,"current_range_meters":14400,"station_id":"ce4bgl12rcd13ifvqbo0","pricing_plan_id":"cebpf4jnsgd1na2vs0mg"},{"bike_id":"607cd347-a368-4807-b9eb-439af33070a1","system_id":"levelo_inurba_marseille","lat":43.29592,"lon":5.381053,"is_reserved":false,"is_disabled":false,"rental_uris":{"android":"levelo://app?vid=607cd347-a368-4807-b9eb-439af33070a1","ios":"levelo://app?vid=607cd347-a368-4807-b9eb-439af33070a1"},"vehicle_type_id":"4","last_reported":1715713526,"current_range_meters":11600,"station_id":"ce4bgl12rcd13ifvqbo0","pricing_plan_id":"cebpf4jnsgd1na2vs0mg"},{"bike_id":"c7175dee-64f9-4904-a8db-b97be6e044af","system_id":"levelo_inurba_marseille","lat":43.293111,"lon":5.371662,"is_reserved":false,"is_disabled":false,"rental_uris":{"android":"levelo://app?vid=c7175dee-64f9-4904-a8db-b97be6e044af","ios":"levelo://app?vid=c7175dee-64f9-4904-a8db-b97be6e044af"},"vehicle_type_id":"4","last_reported":1715713526,"current_range_meters":24000,"station_id":"ce4bgh92rcd13ifvqb40","pricing_plan_id":"cebpf4jnsgd1na2vs0mg"},{"bike_id":"748badb8-62ee-499a-af8c-0db4a0bca464","system_id":"levelo_inurba_marseille","lat":43.29309,"lon":5.371633,"is_reserved":false,"is_disabled":false,"rental_uris":{"android":"levelo://app?vid=748badb8-62ee-499a-af8c-0db4a0bca464","ios":"levelo://app?vid=748badb8-62ee-499a-af8c-0db4a0bca464"},"vehicle_type_id":"4","last_reported":1715713526,"current_range_meters":14800,"station_id":"ce4bgh92rcd13ifvqb40","pricing_plan_id":"cebpf4jnsgd1na2vs0mg"},{"bike_id":"8f41a52a-113f-4bf4-b0bb-65fab8803cc0","system_id":"levelo_inurba_marseille","lat":43.29308,"lon":5.3717,"is_reserved":false,"is_disabled":false,"rental_uris":{"android":"levelo://app?vid=8f41a52a-113f-4bf4-b0bb-65fab8803cc0","ios":"levelo://app?vid=8f41a52a-113f-4bf4-b0bb-65fab8803cc0"},"vehicle_type_id":"4","last_reported":1715713526,"current_range_meters":31200,"station_id":"ce4bgh92rcd13ifvqb40","pricing_plan_id":"cebpf4jnsgd1na2vs0mg"},{"bike_id":"d6199891-f339-4e39-96ba-81df9f8b3f25","system_id":"levelo_inurba_marseille","lat":43.29303,"lon":5.3717,"is_reserved":false,"is_disabled":false,"rental_uris":{"android":"levelo://app?vid=d6199891-f339-4e39-96ba-81df9f8b3f25","ios":"levelo://app?vid=d6199891-f339-4e39-96ba-81df9f8b3f25"},"vehicle_type_id":"4","last_reported":1715713526,"current_range_meters":14000,"station_id":"ce4bgh92rcd13ifvqb40","pricing_plan_id":"cebpf4jnsgd1na2vs0mg"},{"bike_id":"7ea3b030-20c8-420e-9382-e532cf820962","system_id":"levelo_inurba_marseille","lat":43.293027,"lon":5.37173,"is_reserved":false,"is_disabled":false,"rental_uris":{"android":"levelo://app?vid=7ea3b030-20c8-420e-9382-e532cf820962","ios":"levelo://app?vid=7ea3b030-20c8-420e-9382-e532cf820962"},"vehicle_type_id":"4","last_reported":1715713526,"current_range_meters":22800,"station_id":"ce4bgh92rcd13ifvqb40","pricing_plan_id":"cebpf4jnsgd1na2vs0mg"},{"bike_id":"c65581c4-cf6d-4d73-a1fb-41f1374a9b19","system_id":"levelo_inurba_marseille","lat":43.29299,"lon":5.37163,"is_reserved":false,"is_disabled":false,"rental_uris":{"android":"levelo://app?vid=c65581c4-cf6d-4d73-a1fb-41f1374a9b19","ios":"levelo://app?vid=c65581c4-cf6d-4d73-a1fb-41f1374a9b19"},"vehicle_type_id":"4","last_reported":1715713526,"current_range_meters":23600,"station_id":"ce4bgh92rcd13ifvqb40","pricing_plan_id":"cebpf4jnsgd1na2vs0mg"},{"bike_id":"3d92ba5c-323c-41a7-9d20-276b2ca4a22e","system_id":"levelo_inurba_marseille","lat":43.292749,"lon":5.368402,"is_reserved":false,"is_disabled":false,"rental_uris":{"android":"levelo://app?vid=3d92ba5c-323c-41a7-9d20-276b2ca4a22e","ios":"levelo://app?vid=3d92ba5c-323c-41a7-9d20-276b2ca4a22e"},"vehicle_type_id":"4","last_reported":1715713526,"current_range_meters":16000,"station_id":"ce4bhbp2rcd13ifvqesg","pricing_plan_id":"cebpf4jnsgd1na2vs0mg"},{"bike_id":"7729471f-4c10-4e5f-8236-af9188bf2a1d","system_id":"levelo_inurba_marseille","lat":43.293009,"lon":5.374584,"is_reserved":false,"is_disabled":false,"rental_uris":{"android":"levelo://app?vid=7729471f-4c10-4e5f-8236-af9188bf2a1d","ios":"levelo://app?vid=7729471f-4c10-4e5f-8236-af9188bf2a1d"},"vehicle_type_id":"4","last_reported":1715713526,"current_range_meters":18800,"station_id":"ce4bgi12rcd13ifvqb70","pricing_plan_id":"cebpf4jnsgd1na2vs0mg"},{"bike_id":"4cfae902-0fc1-4370-a6d5-b6e9a3fa6299","system_id":"levelo_inurba_marseille","lat":43.293009,"lon":5.374584,"is_reserved":false,"is_disabled":false,"rental_uris":{"android":"levelo://app?vid=4cfae902-0fc1-4370-a6d5-b6e9a3fa6299","ios":"levelo://app?vid=4cfae902-0fc1-4370-a6d5-b6e9a3fa6299"},"vehicle_type_id":"4","last_reported":1715713526,"current_range_meters":28400,"station_id":"ce4bgi12rcd13ifvqb70","pricing_plan_id":"cebpf4jnsgd1na2vs0mg"},{"bike_id":"2a0b772c-a3c0-4789-aca1-c19788551426","system_id":"levelo_inurba_marseille","lat":43.29303,"lon":5.37459,"is_reserved":false,"is_disabled":false,"rental_uris":{"android":"levelo://app?vid=2a0b772c-a3c0-4789-aca1-c19788551426","ios":"levelo://app?vid=2a0b772c-a3c0-4789-aca1-c19788551426"},"vehicle_type_id":"4","last_reported":1715713526,"current_range_meters":22000,"station_id":"ce4bgi12rcd13ifvqb70","pricing_plan_id":"cebpf4jnsgd1na2vs0mg"},{"bike_id":"3000a145-4672-4794-9577-9108ba07e048","system_id":"levelo_inurba_marseille","lat":43.29296,"lon":5.37442,"is_reserved":false,"is_disabled":false,"rental_uris":{"android":"levelo://app?vid=3000a145-4672-4794-9577-9108ba07e048","ios":"levelo://app?vid=3000a145-4672-4794-9577-9108ba07e048"},"vehicle_type_id":"4","last_reported":1715713526,"current_range_meters":6400,"station_id":"ce4bgi12rcd13ifvqb70","pricing_plan_id":"cebpf4jnsgd1na2vs0mg"},{"bike_id":"b83d7230-7070-468d-a898-ba6ab2789156","system_id":"levelo_inurba_marseille","lat":43.305994,"lon":5.393687,"is_reserved":false,"is_disabled":false,"rental_uris":{"android":"levelo://app?vid=b83d7230-7070-468d-a898-ba6ab2789156","ios":"levelo://app?vid=b83d7230-7070-468d-a898-ba6ab2789156"},"vehicle_type_id":"4","last_reported":1715713526,"current_range_meters":8400,"station_id":"ce4bh0p2rcd13ifvqd80","pricing_plan_id":"cebpf4jnsgd1na2vs0mg"},{"bike_id":"26bcef86-7074-41ed-9346-1a03f2786a82","system_id":"levelo_inurba_marseille","lat":43.293009,"lon":5.374584,"is_reserved":false,"is_disabled":false,"rental_uris":{"android":"levelo://app?vid=26bcef86-7074-41ed-9346-1a03f2786a82","ios":"levelo://app?vid=26bcef86-7074-41ed-9346-1a03f2786a82"},"vehicle_type_id":"4","last_reported":1715713526,"current_range_meters":0,"station_id":"ce4bgi12rcd13ifvqb70","pricing_plan_id":"cebpf4jnsgd1na2vs0mg"},{"bike_id":"d5d74bc6-0800-4dab-9453-9e62b97cbc35","system_id":"levelo_inurba_marseille","lat":43.302992,"lon":5.392136,"is_reserved":false,"is_disabled":false,"rental_uris":{"android":"levelo://app?vid=d5d74bc6-0800-4dab-9453-9e62b97cbc35","ios":"levelo://app?vid=d5d74bc6-0800-4dab-9453-9e62b97cbc35"},"vehicle_type_id":"4","last_reported":1715713526,"current_range_meters":0,"station_id":"ce4bgkh2rcd13ifvqbk0","pricing_plan_id":"cebpf4jnsgd1na2vs0mg"},{"bike_id":"731b346c-c702-45b2-a014-473f48bb4777","system_id":"levelo_inurba_marseille","lat":43.303002,"lon":5.392142,"is_reserved":false,"is_disabled":false,"rental_uris":{"android":"levelo://app?vid=731b346c-c702-45b2-a014-473f48bb4777","ios":"levelo://app?vid=731b346c-c702-45b2-a014-473f48bb4777"},"vehicle_type_id":"4","last_reported":1715713526,"current_range_meters":22400,"station_id":"ce4bgkh2rcd13ifvqbk0","pricing_plan_id":"cebpf4jnsgd1na2vs0mg"},{"bike_id":"91266183-f089-41f9-b680-9b6f42362c41","system_id":"levelo_inurba_marseille","lat":43.293653,"lon":5.378497,"is_reserved":false,"is_disabled":false,"rental_uris":{"android":"levelo://app?vid=91266183-f089-41f9-b680-9b6f42362c41","ios":"levelo://app?vid=91266183-f089-41f9-b680-9b6f42362c41"},"vehicle_type_id":"4","last_reported":1715713526,"current_range_meters":12000,"station_id":"","pricing_plan_id":"cebpf4jnsgd1na2vs0mg"},{"bike_id":"3725d2c2-446a-4a74-96dd-0558f77c3be0","system_id":"levelo_inurba_marseille","lat":43.30085,"lon":5.390856,"is_reserved":false,"is_disabled":false,"rental_uris":{"android":"levelo://app?vid=3725d2c2-446a-4a74-96dd-0558f77c3be0","ios":"levelo://app?vid=3725d2c2-446a-4a74-96dd-0558f77c3be0"},"vehicle_type_id":"4","last_reported":1715713526,"current_range_meters":31200,"station_id":"ce4bh192rcd13ifvqdb0","pricing_plan_id":"cebpf4jnsgd1na2vs0mg"},{"bike_id":"6a149f53-7922-43e6-85ac-1308801f7e65","system_id":"levelo_inurba_marseille","lat":43.30085,"lon":5.390856,"is_reserved":false,"is_disabled":false,"rental_uris":{"android":"levelo://app?vid=6a149f53-7922-43e6-85ac-1308801f7e65","ios":"levelo://app?vid=6a149f53-7922-43e6-85ac-1308801f7e65"},"vehicle_type_id":"4","last_reported":1715713526,"current_range_meters":21600,"station_id":"ce4bh192rcd13ifvqdb0","pricing_plan_id":"cebpf4jnsgd1na2vs0mg"},{"bike_id":"190652de-ea94-4d8f-b0cc-c8708d5be6cd","system_id":"levelo_inurba_marseille","lat":43.2936,"lon":5.37835,"is_reserved":false,"is_disabled":false,"rental_uris":{"android":"levelo://app?vid=190652de-ea94-4d8f-b0cc-c8708d5be6cd","ios":"levelo://app?vid=190652de-ea94-4d8f-b0cc-c8708d5be6cd"},"vehicle_type_id":"4","last_reported":1715713526,"current_range_meters":21200,"station_id":"ce4bgjh2rcd13ifvqbf0","pricing_plan_id":"cebpf4jnsgd1na2vs0mg"},{"bike_id":"03e1d0bf-4287-43f8-b847-e9731c0d028d","system_id":"levelo_inurba_marseille","lat":43.292311,"lon":5.360731,"is_reserved":false,"is_disabled":false,"rental_uris":{"android":"levelo://app?vid=03e1d0bf-4287-43f8-b847-e9731c0d028d","ios":"levelo://app?vid=03e1d0bf-4287-43f8-b847-e9731c0d028d"},"vehicle_type_id":"4","last_reported":1715713526,"current_range_meters":26400,"station_id":"ce4bhbh2rcd13ifvqeqg","pricing_plan_id":"cebpf4jnsgd1na2vs0mg"},{"bike_id":"a06a7122-349e-408d-bb7d-029445989a04","system_id":"levelo_inurba_marseille","lat":43.292311,"lon":5.360731,"is_reserved":false,"is_disabled":false,"rental_uris":{"android":"levelo://app?vid=a06a7122-349e-408d-bb7d-029445989a04","ios":"levelo://app?vid=a06a7122-349e-408d-bb7d-029445989a04"},"vehicle_type_id":"4","last_reported":1715713526,"current_range_meters":29200,"station_id":"ce4bhbh2rcd13ifvqeqg","pricing_plan_id":"cebpf4jnsgd1na2vs0mg"},{"bike_id":"ccfb1427-032a-4dfb-a010-7845c270664b","system_id":"levelo_inurba_marseille","lat":43.30085,"lon":5.390856,"is_reserved":false,"is_disabled":false,"rental_uris":{"android":"levelo://app?vid=ccfb1427-032a-4dfb-a010-7845c270664b","ios":"levelo://app?vid=ccfb1427-032a-4dfb-a010-7845c270664b"},"vehicle_type_id":"4","last_reported":1715713526,"current_range_meters":22400,"station_id":"ce4bh192rcd13ifvqdb0","pricing_plan_id":"cebpf4jnsgd1na2vs0mg"},{"bike_id":"2c0f38e7-34f2-4dbd-9f94-4b7c35fe3c26","system_id":"levelo_inurba_marseille","lat":43.30085,"lon":5.390856,"is_reserved":false,"is_disabled":false,"rental_uris":{"android":"levelo://app?vid=2c0f38e7-34f2-4dbd-9f94-4b7c35fe3c26","ios":"levelo://app?vid=2c0f38e7-34f2-4dbd-9f94-4b7c35fe3c26"},"vehicle_type_id":"4","last_reported":1715713526,"current_range_meters":22800,"station_id":"ce4bh192rcd13ifvqdb0","pricing_plan_id":"cebpf4jnsgd1na2vs0mg"},{"bike_id":"fc49cdbc-e5ca-45ee-bef5-31f10d483cd2","system_id":"levelo_inurba_marseille","lat":43.292311,"lon":5.360731,"is_reserved":false,"is_disabled":false,"rental_uris":{"android":"levelo://app?vid=fc49cdbc-e5ca-45ee-bef5-31f10d483cd2","ios":"levelo://app?vid=fc49cdbc-e5ca-45ee-bef5-31f10d483cd2"},"vehicle_type_id":"4","last_reported":1715713526,"current_range_meters":18400,"station_id":"ce4bhbh2rcd13ifvqeqg","pricing_plan_id":"cebpf4jnsgd1na2vs0mg"},{"bike_id":"42a91008-3209-4fa5-a317-8fb4949a94c5","system_id":"levelo_inurba_marseille","lat":43.30085,"lon":5.390856,"is_reserved":false,"is_disabled":false,"rental_uris":{"android":"levelo://app?vid=42a91008-3209-4fa5-a317-8fb4949a94c5","ios":"levelo://app?vid=42a91008-3209-4fa5-a317-8fb4949a94c5"},"vehicle_type_id":"4","last_reported":1715713526,"current_range_meters":1600,"station_id":"ce4bh192rcd13ifvqdb0","pricing_plan_id":"cebpf4jnsgd1na2vs0mg"},{"bike_id":"c67ba5be-32c1-471b-9d14-1df77ca9f0ce","system_id":"levelo_inurba_marseille","lat":43.30085,"lon":5.390856,"is_reserved":false,"is_disabled":false,"rental_uris":{"android":"levelo://app?vid=c67ba5be-32c1-471b-9d14-1df77ca9f0ce","ios":"levelo://app?vid=c67ba5be-32c1-471b-9d14-1df77ca9f0ce"},"vehicle_type_id":"4","last_reported":1715713526,"current_range_meters":5600,"station_id":"ce4bh192rcd13ifvqdb0","pricing_plan_id":"cebpf4jnsgd1na2vs0mg"},{"bike_id":"c9ea2217-d72f-4fa2-80e0-d47d259d6726","system_id":"levelo_inurba_marseille","lat":43.291671,"lon":5.371575,"is_reserved":false,"is_disabled":false,"rental_uris":{"android":"levelo://app?vid=c9ea2217-d72f-4fa2-80e0-d47d259d6726","ios":"levelo://app?vid=c9ea2217-d72f-4fa2-80e0-d47d259d6726"},"vehicle_type_id":"4","last_reported":1715713526,"current_range_meters":32000,"station_id":"ce4bha92rcd13ifvqeh0","pricing_plan_id":"cebpf4jnsgd1na2vs0mg"},{"bike_id":"5a5e81f5-2ee7-4fac-bf1b-081e46886408","system_id":"levelo_inurba_marseille","lat":43.291671,"lon":5.371575,"is_reserved":false,"is_disabled":false,"rental_uris":{"android":"levelo://app?vid=5a5e81f5-2ee7-4fac-bf1b-081e46886408","ios":"levelo://app?vid=5a5e81f5-2ee7-4fac-bf1b-081e46886408"},"vehicle_type_id":"4","last_reported":1715713526,"current_range_meters":11600,"station_id":"ce4bha92rcd13ifvqeh0","pricing_plan_id":"cebpf4jnsgd1na2vs0mg"},{"bike_id":"6df31e91-5b6f-48c3-a1ff-c9befd29921e","system_id":"levelo_inurba_marseille","lat":43.298764,"lon":5.388973,"is_reserved":false,"is_disabled":false,"rental_uris":{"android":"levelo://app?vid=6df31e91-5b6f-48c3-a1ff-c9befd29921e","ios":"levelo://app?vid=6df31e91-5b6f-48c3-a1ff-c9befd29921e"},"vehicle_type_id":"4","last_reported":1715713526,"current_range_meters":22800,"station_id":"ce4bh392rcd13ifvqdl0","pricing_plan_id":"cebpf4jnsgd1na2vs0mg"},{"bike_id":"a6ff47c4-80ed-499e-a351-399f28d5379c","system_id":"levelo_inurba_marseille","lat":43.291671,"lon":5.371575,"is_reserved":false,"is_disabled":false,"rental_uris":{"android":"levelo://app?vid=a6ff47c4-80ed-499e-a351-399f28d5379c","ios":"levelo://app?vid=a6ff47c4-80ed-499e-a351-399f28d5379c"},"vehicle_type_id":"4","last_reported":1715713526,"current_range_meters":25600,"station_id":"ce4bha92rcd13ifvqeh0","pricing_plan_id":"cebpf4jnsgd1na2vs0mg"},{"bike_id":"0ccba4b9-50b6-4d0e-abaa-4bde69ea9539","system_id":"levelo_inurba_marseille","lat":43.291675,"lon":5.371583,"is_reserved":false,"is_disabled":false,"rental_uris":{"android":"levelo://app?vid=0ccba4b9-50b6-4d0e-abaa-4bde69ea9539","ios":"levelo://app?vid=0ccba4b9-50b6-4d0e-abaa-4bde69ea9539"},"vehicle_type_id":"4","last_reported":1715713526,"current_range_meters":31200,"station_id":"ce4bha92rcd13ifvqeh0","pricing_plan_id":"cebpf4jnsgd1na2vs0mg"},{"bike_id":"0b6ed3ce-bc58-4552-9e3a-fa2c1a57b3e1","system_id":"levelo_inurba_marseille","lat":43.291675,"lon":5.371583,"is_reserved":false,"is_disabled":false,"rental_uris":{"android":"levelo://app?vid=0b6ed3ce-bc58-4552-9e3a-fa2c1a57b3e1","ios":"levelo://app?vid=0b6ed3ce-bc58-4552-9e3a-fa2c1a57b3e1"},"vehicle_type_id":"4","last_reported":1715713526,"current_range_meters":28800,"station_id":"ce4bha92rcd13ifvqeh0","pricing_plan_id":"cebpf4jnsgd1na2vs0mg"},{"bike_id":"98bedc5e-9503-4c11-be6a-a6a49f078221","system_id":"levelo_inurba_marseille","lat":43.298764,"lon":5.388973,"is_reserved":false,"is_disabled":false,"rental_uris":{"android":"levelo://app?vid=98bedc5e-9503-4c11-be6a-a6a49f078221","ios":"levelo://app?vid=98bedc5e-9503-4c11-be6a-a6a49f078221"},"vehicle_type_id":"4","last_reported":1715713526,"current_range_meters":21600,"station_id":"ce4bh392rcd13ifvqdl0","pricing_plan_id":"cebpf4jnsgd1na2vs0mg"},{"bike_id":"4a820070-ce0a-43a2-a13a-63b08b257ed8","system_id":"levelo_inurba_marseille","lat":43.291671,"lon":5.371575,"is_reserved":false,"is_disabled":false,"rental_uris":{"android":"levelo://app?vid=4a820070-ce0a-43a2-a13a-63b08b257ed8","ios":"levelo://app?vid=4a820070-ce0a-43a2-a13a-63b08b257ed8"},"vehicle_type_id":"4","last_reported":1715713526,"current_range_meters":28800,"station_id":"ce4bha92rcd13ifvqeh0","pricing_plan_id":"cebpf4jnsgd1na2vs0mg"},{"bike_id":"a584a265-83df-4f01-9a5f-7be87eee3562","system_id":"levelo_inurba_marseille","lat":43.291671,"lon":5.371575,"is_reserved":false,"is_disabled":false,"rental_uris":{"android":"levelo://app?vid=a584a265-83df-4f01-9a5f-7be87eee3562","ios":"levelo://app?vid=a584a265-83df-4f01-9a5f-7be87eee3562"},"vehicle_type_id":"4","last_reported":1715713526,"current_range_meters":18000,"station_id":"ce4bha92rcd13ifvqeh0","pricing_plan_id":"cebpf4jnsgd1na2vs0mg"},{"bike_id":"d7f6a436-358a-4556-9564-e9e45c775855","system_id":"levelo_inurba_marseille","lat":43.298764,"lon":5.388973,"is_reserved":false,"is_disabled":false,"rental_uris":{"android":"levelo://app?vid=d7f6a436-358a-4556-9564-e9e45c775855","ios":"levelo://app?vid=d7f6a436-358a-4556-9564-e9e45c775855"},"vehicle_type_id":"4","last_reported":1715713526,"current_range_meters":24800,"station_id":"ce4bh392rcd13ifvqdl0","pricing_plan_id":"cebpf4jnsgd1na2vs0mg"},{"bike_id":"48559d8c-fbb3-4311-9a4e-cfb817031eac","system_id":"levelo_inurba_marseille","lat":43.291671,"lon":5.371575,"is_reserved":false,"is_disabled":false,"rental_uris":{"android":"levelo://app?vid=48559d8c-fbb3-4311-9a4e-cfb817031eac","ios":"levelo://app?vid=48559d8c-fbb3-4311-9a4e-cfb817031eac"},"vehicle_type_id":"4","last_reported":1715713526,"current_range_meters":22400,"station_id":"ce4bha92rcd13ifvqeh0","pricing_plan_id":"cebpf4jnsgd1na2vs0mg"},{"bike_id":"bfd9f069-a09d-4336-a15d-89e75e554072","system_id":"levelo_inurba_marseille","lat":43.298764,"lon":5.388973,"is_reserved":false,"is_disabled":false,"rental_uris":{"android":"levelo://app?vid=bfd9f069-a09d-4336-a15d-89e75e554072","ios":"levelo://app?vid=bfd9f069-a09d-4336-a15d-89e75e554072"},"vehicle_type_id":"4","last_reported":1715713526,"current_range_meters":8000,"station_id":"ce4bh392rcd13ifvqdl0","pricing_plan_id":"cebpf4jnsgd1na2vs0mg"},{"bike_id":"33ccd7eb-98f2-4559-9b54-5ac6961df37f","system_id":"levelo_inurba_marseille","lat":43.298764,"lon":5.388973,"is_reserved":false,"is_disabled":false,"rental_uris":{"android":"levelo://app?vid=33ccd7eb-98f2-4559-9b54-5ac6961df37f","ios":"levelo://app?vid=33ccd7eb-98f2-4559-9b54-5ac6961df37f"},"vehicle_type_id":"4","last_reported":1715713526,"current_range_meters":5200,"station_id":"ce4bh392rcd13ifvqdl0","pricing_plan_id":"cebpf4jnsgd1na2vs0mg"},{"bike_id":"e146427e-a4db-4420-8010-6f9e2af137a1","system_id":"levelo_inurba_marseille","lat":43.298764,"lon":5.388973,"is_reserved":false,"is_disabled":false,"rental_uris":{"android":"levelo://app?vid=e146427e-a4db-4420-8010-6f9e2af137a1","ios":"levelo://app?vid=e146427e-a4db-4420-8010-6f9e2af137a1"},"vehicle_type_id":"4","last_reported":1715713526,"current_range_meters":27600,"station_id":"ce4bh392rcd13ifvqdl0","pricing_plan_id":"cebpf4jnsgd1na2vs0mg"},{"bike_id":"49a86ca8-9fd8-440c-bfa7-6f6892b197a1","system_id":"levelo_inurba_marseille","lat":43.298764,"lon":5.388973,"is_reserved":false,"is_disabled":false,"rental_uris":{"android":"levelo://app?vid=49a86ca8-9fd8-440c-bfa7-6f6892b197a1","ios":"levelo://app?vid=49a86ca8-9fd8-440c-bfa7-6f6892b197a1"},"vehicle_type_id":"4","last_reported":1715713526,"current_range_meters":24800,"station_id":"ce4bh392rcd13ifvqdl0","pricing_plan_id":"cebpf4jnsgd1na2vs0mg"},{"bike_id":"44251bf3-e5b7-47ac-b00f-f25b79baee76","system_id":"levelo_inurba_marseille","lat":43.298764,"lon":5.388973,"is_reserved":false,"is_disabled":false,"rental_uris":{"android":"levelo://app?vid=44251bf3-e5b7-47ac-b00f-f25b79baee76","ios":"levelo://app?vid=44251bf3-e5b7-47ac-b00f-f25b79baee76"},"vehicle_type_id":"4","last_reported":1715713526,"current_range_meters":22400,"station_id":"ce4bh392rcd13ifvqdl0","pricing_plan_id":"cebpf4jnsgd1na2vs0mg"},{"bike_id":"cbdc2309-b7ca-453d-97f3-b804276cf9e4","system_id":"levelo_inurba_marseille","lat":43.291671,"lon":5.371575,"is_reserved":false,"is_disabled":false,"rental_uris":{"android":"levelo://app?vid=cbdc2309-b7ca-453d-97f3-b804276cf9e4","ios":"levelo://app?vid=cbdc2309-b7ca-453d-97f3-b804276cf9e4"},"vehicle_type_id":"4","last_reported":1715713526,"current_range_meters":4400,"station_id":"ce4bha92rcd13ifvqeh0","pricing_plan_id":"cebpf4jnsgd1na2vs0mg"},{"bike_id":"4bff2a29-a9af-4adf-b423-3ffc8e8c681b","system_id":"levelo_inurba_marseille","lat":43.291671,"lon":5.371575,"is_reserved":false,"is_disabled":false,"rental_uris":{"android":"levelo://app?vid=4bff2a29-a9af-4adf-b423-3ffc8e8c681b","ios":"levelo://app?vid=4bff2a29-a9af-4adf-b423-3ffc8e8c681b"},"vehicle_type_id":"4","last_reported":1715713526,"current_range_meters":26800,"station_id":"ce4bha92rcd13ifvqeh0","pricing_plan_id":"cebpf4jnsgd1na2vs0mg"},{"bike_id":"208701e0-eb2a-44d5-80a2-143614055bfd","system_id":"levelo_inurba_marseille","lat":43.298764,"lon":5.388973,"is_reserved":false,"is_disabled":false,"rental_uris":{"android":"levelo://app?vid=208701e0-eb2a-44d5-80a2-143614055bfd","ios":"levelo://app?vid=208701e0-eb2a-44d5-80a2-143614055bfd"},"vehicle_type_id":"4","last_reported":1715713526,"current_range_meters":3200,"station_id":"ce4bh392rcd13ifvqdl0","pricing_plan_id":"cebpf4jnsgd1na2vs0mg"},{"bike_id":"dd111766-0bde-46d1-bced-bfd4c26abb8b","system_id":"levelo_inurba_marseille","lat":43.298764,"lon":5.388973,"is_reserved":false,"is_disabled":false,"rental_uris":{"android":"levelo://app?vid=dd111766-0bde-46d1-bced-bfd4c26abb8b","ios":"levelo://app?vid=dd111766-0bde-46d1-bced-bfd4c26abb8b"},"vehicle_type_id":"4","last_reported":1715713526,"current_range_meters":11200,"station_id":"ce4bh392rcd13ifvqdl0","pricing_plan_id":"cebpf4jnsgd1na2vs0mg"},