{"last_updated":1728371319,"ttl":60,"version":"2.2","data":{"bikes":[{"bike_id":"57553b10-65c5-4902-93ea-d1debdf4f122","system_id":"levelo_inurba_marseille","lat":43.28266,"lon":5.35073,"is_reserved":false,"is_disabled":false,"rental_uris":{"android":"levelo://app?vid=57553b10-65c5-4902-93ea-d1debdf4f122","ios":"levelo://app?vid=57553b10-65c5-4902-93ea-d1debdf4f122"},"vehicle_type_id":"4","last_reported":1728371319,"current_range_meters":36800,"station_id":"ce4bhbp2rcd13ifvqerg","pricing_plan_id":"cebpf4jnsgd1na2vs0mg"},{"bike_id":"5f3854f2-c4fb-4de8-ae9d-700914348cb9","system_id":"levelo_inurba_marseille","lat":43.290154,"lon":5.356121,"is_reserved":false,"is_disabled":false,"rental_uris":{"android":"levelo://app?vid=5f3854f2-c4fb-4de8-ae9d-700914348cb9","ios":"levelo://app?vid=5f3854f2-c4fb-4de8-ae9d-700914348cb9"},"vehicle_type_id":"4","last_reported":1728371319,"current_range_meters":17200,"station_id":"ce4bhb92rcd13ifvqen0","pricing_plan_id":"cebpf4jnsgd1na2vs0mg"},{"bike_id":"68cc9b2e-3bdd-4866-a986-7cead00d4cfc","system_id":"levelo_inurba_marseille","lat":43.33746,"lon":5.37459,"is_reserved":false,"is_disabled":false,"rental_uris":{"android":"levelo://app?vid=68cc9b2e-3bdd-4866-a986-7cead00d4cfc","ios":"levelo://app?vid=68cc9b2e-3bdd-4866-a986-7cead00d4cfc"},"vehicle_type_id":"4","last_reported":1728371319,"current_range_meters":38400,"station_id":"","pricing_plan_id":"cebpf4jnsgd1na2vs0mg"},{"bike_id":"6ea71e61-0162-482a-8abc-aba97e9028bf","system_id":"levelo_inurba_marseille","lat":43.28153,"lon":5.42641,"is_reserved":false,"is_disabled":false,"rental_uris":{"android":"levelo://app?vid=6ea71e61-0162-482a-8abc-aba97e9028bf","ios":"levelo://app?vid=6ea71e61-0162-482a-8abc-aba97e9028bf"},"vehicle_type_id":"4","last_reported":1728371319,"current_range_meters":38000,"station_id":"ce4bhnh2rcd13ifvqgug","pricing_plan_id":"cebpf4jnsgd1na2vs0mg"},{"bike_id":"9f58e506-6d29-4e45-990a-39483a1d6b70","system_id":"levelo_inurba_marseille","lat":43.293152,"lon":5.374581,"is_reserved":false,"is_disabled":false,"rental_uris":{"android":"levelo://app?vid=9f58e506-6d29-4e45-990a-39483a1d6b70","ios":"levelo://app?vid=9f58e506-6d29-4e45-990a-39483a1d6b70"},"vehicle_type_id":"4","last_reported":1728371319,"current_range_meters":28400,"station_id":"ce4bh512rcd13ifvqe2g","pricing_plan_id":"cebpf4jnsgd1na2vs0mg"},{"bike_id":"3edccbad-c604-40df-acb2-6e9d91b67298","system_id":"levelo_inurba_marseille","lat":43.23053,"lon":5.35491,"is_reserved":false,"is_disabled":false,"rental_uris":{"android":"levelo://app?vid=3edccbad-c604-40df-acb2-6e9d91b67298","ios":"levelo://app?vid=3edccbad-c604-40df-acb2-6e9d91b67298"},"vehicle_type_id":"4","last_reported":1728371319,"current_range_meters":16000,"station_id":"cpo3342slgdg3j2ifvpg","pricing_plan_id":"cebpf4jnsgd1na2vs0mg"},{"bike_id":"5e55ff59-a486-4491-8e1d-bdae7e9aa0f4","system_id":"levelo_inurba_marseille","lat":43.30537,"lon":5.36713,"is_reserved":false,"is_disabled":false,"rental_uris":{"android":"levelo://app?vid=5e55ff59-a486-4491-8e1d-bdae7e9aa0f4","ios":"levelo://app?vid=5e55ff59-a486-4491-8e1d-bdae7e9aa0f4"},"vehicle_type_id":"4","last_reported":1728371319,"current_range_meters":5600,"station_id":"ce4bgrp2rcd13ifvqc9g","pricing_plan_id":"cebpf4jnsgd1na2vs0mg"},{"bike_id":"9e30128d-8534-4462-826e-e6d85697f9d5","system_id":"levelo_inurba_marseille","lat":43.25936,"lon":5.40915,"is_reserved":false,"is_disabled":false,"rental_uris":{"android":"levelo://app?vid=9e30128d-8534-4462-826e-e6d85697f9d5","ios":"levelo://app?vid=9e30128d-8534-4462-826e-e6d85697f9d5"},"vehicle_type_id":"4","last_reported":1728371319,"current_range_meters":15200,"station_id":"ce4bhm92rcd13ifvqglg","pricing_plan_id":"cebpf4jnsgd1na2vs0mg"},{"bike_id":"52f0b8b5-6eaf-4c1c-bebf-564bf53fe900","system_id":"levelo_inurba_marseille","lat":43.296196,"lon":5.405988,"is_reserved":false,"is_disabled":false,"rental_uris":{"android":"levelo://app?vid=52f0b8b5-6eaf-4c1c-bebf-564bf53fe900","ios":"levelo://app?vid=52f0b8b5-6eaf-4c1c-bebf-564bf53fe900"},"vehicle_type_id":"4","last_reported":1728371319,"current_range_meters":25600,"station_id":"ce4bh0h2rcd13ifvqd60","pricing_plan_id":"cebpf4jnsgd1na2vs0mg"},{"bike_id":"194545a4-9a17-410e-84e8-f3516539e740","system_id":"levelo_inurba_marseille","lat":43.28268,"lon":5.35077,"is_reserved":false,"is_disabled":false,"rental_uris":{"android":"levelo://app?vid=194545a4-9a17-410e-84e8-f3516539e740","ios":"levelo://app?vid=194545a4-9a17-410e-84e8-f3516539e740"},"vehicle_type_id":"4","last_reported":1728371319,"current_range_meters":38800,"station_id":"ce4bhbp2rcd13ifvqerg","pricing_plan_id":"cebpf4jnsgd1na2vs0mg"},{"bike_id":"4a2aa11a-a153-469f-88fd-3adfadc9f5b1","system_id":"levelo_inurba_marseille","lat":43.3176,"lon":5.39009,"is_reserved":false,"is_disabled":false,"rental_uris":{"android":"levelo://app?vid=4a2aa11a-a153-469f-88fd-3adfadc9f5b1","ios":"levelo://app?vid=4a2aa11a-a153-469f-88fd-3adfadc9f5b1"},"vehicle_type_id":"4","last_reported":1728371319,"current_range_meters":34800,"station_id":"ce4bhqp2rcd13ifvqhng","pricing_plan_id":"cebpf4jnsgd1na2vs0mg"},{"bike_id":"300fb82e-5c0c-4397-9e80-d64db571e663","system_id":"levelo_inurba_marseille","lat":43.33603,"lon":5.41024,"is_reserved":false,"is_disabled":false,"rental_uris":{"android":"levelo://app?vid=300fb82e-5c0c-4397-9e80-d64db571e663","ios":"levelo://app?vid=300fb82e-5c0c-4397-9e80-d64db571e663"},"vehicle_type_id":"4","last_reported":1728371319,"current_range_meters":38400,"station_id":"ce4bhqh2rcd13ifvqhmg","pricing_plan_id":"cebpf4jnsgd1na2vs0mg"},{"bike_id":"09c86d2a-7e11-4c9e-bec7-62f912b5a3ed","system_id":"levelo_inurba_marseille","lat":43.30639,"lon":5.40075,"is_reserved":false,"is_disabled":false,"rental_uris":{"android":"levelo://app?vid=09c86d2a-7e11-4c9e-bec7-62f912b5a3ed","ios":"levelo://app?vid=09c86d2a-7e11-4c9e-bec7-62f912b5a3ed"},"vehicle_type_id":"4","last_reported":1728371319,"current_range_meters":8400,"station_id":"ce4bh112rcd13ifvqda0","pricing_plan_id":"cebpf4jnsgd1na2vs0mg"},{"bike_id":"7f8896c9-e044-4169-ba02-75989da632b5","system_id":"levelo_inurba_marseille","lat":43.24812,"lon":5.37463,"is_reserved":false,"is_disabled":false,"rental_uris":{"android":"levelo://app?vid=7f8896c9-e044-4169-ba02-75989da632b5","ios":"levelo://app?vid=7f8896c9-e044-4169-ba02-75989da632b5"},"vehicle_type_id":"4","last_reported":1728371319,"current_range_meters":38400,"station_id":"ce4bhgh2rcd13ifvqfb0","pricing_plan_id":"cebpf4jnsgd1na2vs0mg"},{"bike_id":"42650ff9-dfab-44f1-bb99-1d690e6e1572","system_id":"levelo_inurba_marseille","lat":43.31363,"lon":5.38494,"is_reserved":false,"is_disabled":false,"rental_uris":{"android":"levelo://app?vid=42650ff9-dfab-44f1-bb99-1d690e6e1572","ios":"levelo://app?vid=42650ff9-dfab-44f1-bb99-1d690e6e1572"},"vehicle_type_id":"4","last_reported":1728371319,"current_range_meters":35600,"station_id":"ce4bgt92rcd13ifvqcf0","pricing_plan_id":"cebpf4jnsgd1na2vs0mg"},{"bike_id":"f1fcf759-323f-47ed-8065-17977692e5a8","system_id":"levelo_inurba_marseille","lat":43.33607,"lon":5.41005,"is_reserved":false,"is_disabled":false,"rental_uris":{"android":"levelo://app?vid=f1fcf759-323f-47ed-8065-17977692e5a8","ios":"levelo://app?vid=f1fcf759-323f-47ed-8065-17977692e5a8"},"vehicle_type_id":"4","last_reported":1728371319,"current_range_meters":32400,"station_id":"ce4bhqh2rcd13ifvqhmg","pricing_plan_id":"cebpf4jnsgd1na2vs0mg"},{"bike_id":"090d217f-272c-4dde-b079-22a5da880bb2","system_id":"levelo_inurba_marseille","lat":43.32659,"lon":5.40978,"is_reserved":false,"is_disabled":false,"rental_uris":{"android":"levelo://app?vid=090d217f-272c-4dde-b079-22a5da880bb2","ios":"levelo://app?vid=090d217f-272c-4dde-b079-22a5da880bb2"},"vehicle_type_id":"4","last_reported":1728371319,"current_range_meters":30800,"station_id":"ce4bhpp2rcd13ifvqhgg","pricing_plan_id":"cebpf4jnsgd1na2vs0mg"},{"bike_id":"e1b38def-68d5-43db-af28-189a909dd79b","system_id":"levelo_inurba_marseille","lat":43.28945,"lon":5.36644,"is_reserved":false,"is_disabled":false,"rental_uris":{"android":"levelo://app?vid=e1b38def-68d5-43db-af28-189a909dd79b","ios":"levelo://app?vid=e1b38def-68d5-43db-af28-189a909dd79b"},"vehicle_type_id":"4","last_reported":1728371319,"current_range_meters":30000,"station_id":"ce4bhap2rcd13ifvqek0","pricing_plan_id":"cebpf4jnsgd1na2vs0mg"},{"bike_id":"81b07a05-4c57-4e76-99d6-5f6e3acbb201","system_id":"levelo_inurba_marseille","lat":43.23062,"lon":5.35496,"is_reserved":false,"is_disabled":false,"rental_uris":{"android":"levelo://app?vid=81b07a05-4c57-4e76-99d6-5f6e3acbb201","ios":"levelo://app?vid=81b07a05-4c57-4e76-99d6-5f6e3acbb201"},"vehicle_type_id":"4","last_reported":1728371319,"current_range_meters":8400,"station_id":"cpo3342slgdg3j2ifvpg","pricing_plan_id":"cebpf4jnsgd1na2vs0mg"},{"bike_id":"caa1a0a4-f0d0-4d8b-bdff-7ca90d856e2b","system_id":"levelo_inurba_marseille","lat":43.31223,"lon":5.36851,"is_reserved":false,"is_disabled":false,"rental_uris":{"android":"levelo://app?vid=caa1a0a4-f0d0-4d8b-bdff-7ca90d856e2b","ios":"levelo://app?vid=caa1a0a4-f0d0-4d8b-bdff-7ca90d856e2b"},"vehicle_type_id":"4","last_reported":1728371319,"current_range_meters":28800,"station_id":"ce4bgl92rcd13ifvqbq0","pricing_plan_id":"cebpf4jnsgd1na2vs0mg"},{"bike_id":"f6f735b2-2c7f-4bda-80c2-a88a32bd651a","system_id":"levelo_inurba_marseille","lat":43.28454,"lon":5.35882,"is_reserved":false,"is_disabled":false,"rental_uris":{"android":"levelo://app?vid=f6f735b2-2c7f-4bda-80c2-a88a32bd651a","ios":"levelo://app?vid=f6f735b2-2c7f-4bda-80c2-a88a32bd651a"},"vehicle_type_id":"4","last_reported":1728371319,"current_range_meters":38800,"station_id":"ce4bhah2rcd13ifvqei0","pricing_plan_id":"cebpf4jnsgd1na2vs0mg"},{"bike_id":"b014f02c-99bd-498f-a572-9a513a2b9a99","system_id":"levelo_inurba_marseille","lat":43.28718,"lon":5.39997,"is_reserved":false,"is_disabled":false,"rental_uris":{"android":"levelo://app?vid=b014f02c-99bd-498f-a572-9a513a2b9a99","ios":"levelo://app?vid=b014f02c-99bd-498f-a572-9a513a2b9a99"},"vehicle_type_id":"4","last_reported":1728371319,"current_range_meters":38800,"station_id":"ce4bho92rcd13ifvqh3g","pricing_plan_id":"cebpf4jnsgd1na2vs0mg"},{"bike_id":"40a14c9c-68a7-40b3-82c0-7f5552954743","system_id":"levelo_inurba_marseille","lat":43.278992,"lon":5.391724,"is_reserved":false,"is_disabled":false,"rental_uris":{"android":"levelo://app?vid=40a14c9c-68a7-40b3-82c0-7f5552954743","ios":"levelo://app?vid=40a14c9c-68a7-40b3-82c0-7f5552954743"},"vehicle_type_id":"4","last_reported":1728371319,"current_range_meters":35600,"station_id":"ce4bhjp2rcd13ifvqga0","pricing_plan_id":"cebpf4jnsgd1na2vs0mg"},{"bike_id":"663d807d-5236-4795-8907-d41427101515","system_id":"levelo_inurba_marseille","lat":43.33019,"lon":5.39033,"is_reserved":false,"is_disabled":false,"rental_uris":{"android":"levelo://app?vid=663d807d-5236-4795-8907-d41427101515","ios":"levelo://app?vid=663d807d-5236-4795-8907-d41427101515"},"vehicle_type_id":"4","last_reported":1728371319,"current_range_meters":37600,"station_id":"ce4bhr92rcd13ifvqhrg","pricing_plan_id":"cebpf4jnsgd1na2vs0mg"},{"bike_id":"0190a491-52c0-46a5-be20-b72d156a36de","system_id":"levelo_inurba_marseille","lat":43.31276,"lon":5.40166,"is_reserved":false,"is_disabled":false,"rental_uris":{"android":"levelo://app?vid=0190a491-52c0-46a5-be20-b72d156a36de","ios":"levelo://app?vid=0190a491-52c0-46a5-be20-b72d156a36de"},"vehicle_type_id":"4","last_reported":1728371319,"current_range_meters":33600,"station_id":"ce4bh092rcd13ifvqd30","pricing_plan_id":"cebpf4jnsgd1na2vs0mg"},{"bike_id":"066ccb90-6b9a-4302-bde4-9c97dfce747d","system_id":"levelo_inurba_marseille","lat":43.33722,"lon":5.39188,"is_reserved":false,"is_disabled":false,"rental_uris":{"android":"levelo://app?vid=066ccb90-6b9a-4302-bde4-9c97dfce747d","ios":"levelo://app?vid=066ccb90-6b9a-4302-bde4-9c97dfce747d"},"vehicle_type_id":"4","last_reported":1728371319,"current_range_meters":37600,"station_id":"ce4bhr92rcd13ifvqhsg","pricing_plan_id":"cebpf4jnsgd1na2vs0mg"},{"bike_id":"12974a0f-2544-4d26-91a5-435eae1a2365","system_id":"levelo_inurba_marseille","lat":43.316933,"lon":5.40475,"is_reserved":false,"is_disabled":false,"rental_uris":{"android":"levelo://app?vid=12974a0f-2544-4d26-91a5-435eae1a2365","ios":"levelo://app?vid=12974a0f-2544-4d26-91a5-435eae1a2365"},"vehicle_type_id":"4","last_reported":1728371319,"current_range_meters":37600,"station_id":"ce4bh012rcd13ifvqd00","pricing_plan_id":"cebpf4jnsgd1na2vs0mg"},{"bike_id":"ad9f1b80-48fb-4116-b5c0-340c8a56fbad","system_id":"levelo_inurba_marseille","lat":43.292,"lon":5.3932,"is_reserved":false,"is_disabled":false,"rental_uris":{"android":"levelo://app?vid=ad9f1b80-48fb-4116-b5c0-340c8a56fbad","ios":"levelo://app?vid=ad9f1b80-48fb-4116-b5c0-340c8a56fbad"},"vehicle_type_id":"4","last_reported":1728371319,"current_range_meters":38800,"station_id":"ce4bh192rcd13ifvqdd0","pricing_plan_id":"cebpf4jnsgd1na2vs0mg"},{"bike_id":"acc98aff-5149-4b47-9960-d6248e233e6c","system_id":"levelo_inurba_marseille","lat":43.30892,"lon":5.39656,"is_reserved":false,"is_disabled":false,"rental_uris":{"android":"levelo://app?vid=acc98aff-5149-4b47-9960-d6248e233e6c","ios":"levelo://app?vid=acc98aff-5149-4b47-9960-d6248e233e6c"},"vehicle_type_id":"4","last_reported":1728371319,"current_range_meters":8000,"station_id":"ce4bh012rcd13ifvqcv0","pricing_plan_id":"cebpf4jnsgd1na2vs0mg"},{"bike_id":"a8ce887c-a758-454e-9c1a-6b6577112135","system_id":"levelo_inurba_marseille","lat":43.27188,"lon":5.40995,"is_reserved":false,"is_disabled":false,"rental_uris":{"android":"levelo://app?vid=a8ce887c-a758-454e-9c1a-6b6577112135","ios":"levelo://app?vid=a8ce887c-a758-454e-9c1a-6b6577112135"},"vehicle_type_id":"4","last_reported":1728371319,"current_range_meters":38000,"station_id":"ce4bhl12rcd13ifvqgf0","pricing_plan_id":"cebpf4jnsgd1na2vs0mg"},{"bike_id":"35db5aab-a536-4286-87d7-90ec43783f24","system_id":"levelo_inurba_marseille","lat":43.23199,"lon":5.35591,"is_reserved":false,"is_disabled":false,"rental_uris":{"android":"levelo://app?vid=35db5aab-a536-4286-87d7-90ec43783f24","ios":"levelo://app?vid=35db5aab-a536-4286-87d7-90ec43783f24"},"vehicle_type_id":"4","last_reported":1728371319,"current_range_meters":31200,"station_id":"ce4bhu92rcd13ifvqi70","pricing_plan_id":"cebpf4jnsgd1na2vs0mg"},{"bike_id":"24c4519e-310e-426d-93a1-ff44ec0f9d1d","system_id":"levelo_inurba_marseille","lat":43.23155,"lon":5.43736,"is_reserved":false,"is_disabled":false,"rental_uris":{"android":"levelo://app?vid=24c4519e-310e-426d-93a1-ff44ec0f9d1d","ios":"levelo://app?vid=24c4519e-310e-426d-93a1-ff44ec0f9d1d"},"vehicle_type_id":"4","last_reported":1728371319,"current_range_meters":31200,"station_id":"ce4bhmp2rcd13ifvqgog","pricing_plan_id":"cebpf4jnsgd1na2vs0mg"},{"bike_id":"62dfd99c-f976-4937-b2d0-5b50f5ae699f","system_id":"levelo_inurba_marseille","lat":43.24168,"lon":5.36398,"is_reserved":false,"is_disabled":false,"rental_uris":{"android":"levelo://app?vid=62dfd99c-f976-4937-b2d0-5b50f5ae699f","ios":"levelo://app?vid=62dfd99c-f976-4937-b2d0-5b50f5ae699f"},"vehicle_type_id":"4","last_reported":1728371319,"current_range_meters":6800,"station_id":"cpo36qri1sfpv3e86is0","pricing_plan_id":"cebpf4jnsgd1na2vs0mg"},{"bike_id":"686ba8de-2686-40e1-bbbf-4e3f4e7e94bd","system_id":"levelo_inurba_marseille","lat":43.30472,"lon":5.37909,"is_reserved":false,"is_disabled":false,"rental_uris":{"android":"levelo://app?vid=686ba8de-2686-40e1-bbbf-4e3f4e7e94bd","ios":"levelo://app?vid=686ba8de-2686-40e1-bbbf-4e3f4e7e94bd"},"vehicle_type_id":"4","last_reported":1728371319,"current_range_meters":38800,"station_id":"ce4bgup2rcd13ifvqcn0","pricing_plan_id":"cebpf4jnsgd1na2vs0mg"},{"bike_id":"d5b8bfb4-409c-4850-a69d-4732b5060224","system_id":"levelo_inurba_marseille","lat":43.31363,"lon":5.36703,"is_reserved":false,"is_disabled":false,"rental_uris":{"android":"levelo://app?vid=d5b8bfb4-409c-4850-a69d-4732b5060224","ios":"levelo://app?vid=d5b8bfb4-409c-4850-a69d-4732b5060224"},"vehicle_type_id":"4","last_reported":1728371319,"current_range_meters":37600,"station_id":"ce4bgr92rcd13ifvqc6g","pricing_plan_id":"cebpf4jnsgd1na2vs0mg"},{"bike_id":"f4793b99-7728-4628-8857-6672386d2140","system_id":"levelo_inurba_marseille","lat":43.30195,"lon":5.36614,"is_reserved":false,"is_disabled":false,"rental_uris":{"android":"levelo://app?vid=f4793b99-7728-4628-8857-6672386d2140","ios":"levelo://app?vid=f4793b99-7728-4628-8857-6672386d2140"},"vehicle_type_id":"4","last_reported":1728371319,"current_range_meters":38000,"station_id":"ce4bgrh2rcd13ifvqc8g","pricing_plan_id":"cebpf4jnsgd1na2vs0mg"},{"bike_id":"fffc7351-df53-4f3b-8136-ed132953a159","system_id":"levelo_inurba_marseille","lat":43.29101,"lon":5.38103,"is_reserved":false,"is_disabled":false,"rental_uris":{"android":"levelo://app?vid=fffc7351-df53-4f3b-8136-ed132953a159","ios":"levelo://app?vid=fffc7351-df53-4f3b-8136-ed132953a159"},"vehicle_type_id":"4","last_reported":1728371319,"current_range_meters":28400,"station_id":"ce4bh512rcd13ifvqe2g","pricing_plan_id":"cebpf4jnsgd1na2vs0mg"},{"bike_id":"9643a30a-8097-415b-ac7e-dde940e26ee0","system_id":"levelo_inurba_marseille","lat":43.29711,"lon":5.37693,"is_reserved":false,"is_disabled":false,"rental_uris":{"android":"levelo://app?vid=9643a30a-8097-415b-ac7e-dde940e26ee0","ios":"levelo://app?vid=9643a30a-8097-415b-ac7e-dde940e26ee0"},"vehicle_type_id":"4","last_reported":1728371319,"current_range_meters":15200,"station_id":"ce4bgkh2rcd13ifvqbl0","pricing_plan_id":"cebpf4jnsgd1na2vs0mg"},{"bike_id":"e2ccf4a1-3a30-455f-aee7-06171700f2b9","system_id":"levelo_inurba_marseille","lat":43.32657,"lon":5.40985,"is_reserved":false,"is_disabled":false,"rental_uris":{"android":"levelo://app?vid=e2ccf4a1-3a30-455f-aee7-06171700f2b9","ios":"levelo://app?vid=e2ccf4a1-3a30-455f-aee7-06171700f2b9"},"vehicle_type_id":"4","last_reported":1728371319,"current_range_meters":40000,"station_id":"ce4bhpp2rcd13ifvqhgg","pricing_plan_id":"cebpf4jnsgd1na2vs0mg"},{"bike_id":"e2ccd035-e2f6-4b13-8c3b-407f63e2c6d1","system_id":"levelo_inurba_marseille","lat":43.330265,"lon":5.390357,"is_reserved":false,"is_disabled":false,"rental_uris":{"android":"levelo://app?vid=e2ccd035-e2f6-4b13-8c3b-407f63e2c6d1","ios":"levelo://app?vid=e2ccd035-e2f6-4b13-8c3b-407f63e2c6d1"},"vehicle_type_id":"4","last_reported":1728371319,"current_range_meters":2800,"station_id":"ce4bhr92rcd13ifvqhrg","pricing_plan_id":"cebpf4jnsgd1na2vs0mg"},{"bike_id":"51ea515d-944c-489c-8a74-b1f09acd3971","system_id":"levelo_inurba_marseille","lat":43.25579,"lon":5.38235,"is_reserved":false,"is_disabled":false,"rental_uris":{"android":"levelo://app?vid=51ea515d-944c-489c-8a74-b1f09acd3971","ios":"levelo://app?vid=51ea515d-944c-489c-8a74-b1f09acd3971"},"vehicle_type_id":"4","last_reported":1728371319,"current_range_meters":40000,"station_id":"ce4bhih2rcd13ifvqfs0","pricing_plan_id":"cebpf4jnsgd1na2vs0mg"},{"bike_id":"a7a6ddea-d4ca-4d55-b8ce-c157abf492cd","system_id":"levelo_inurba_marseille","lat":43.25938,"lon":5.4091,"is_reserved":false,"is_disabled":false,"rental_uris":{"android":"levelo://app?vid=a7a6ddea-d4ca-4d55-b8ce-c157abf492cd","ios":"levelo://app?vid=a7a6ddea-d4ca-4d55-b8ce-c157abf492cd"},"vehicle_type_id":"4","last_reported":1728371319,"current_range_meters":26800,"station_id":"ce4bhm92rcd13ifvqglg","pricing_plan_id":"cebpf4jnsgd1na2vs0mg"},{"bike_id":"e7ca1121-dfae-49ab-95f7-00c35a3a4f04","system_id":"levelo_inurba_marseille","lat":43.30785,"lon":5.37653,"is_reserved":false,"is_disabled":false,"rental_uris":{"android":"levelo://app?vid=e7ca1121-dfae-49ab-95f7-00c35a3a4f04","ios":"levelo://app?vid=e7ca1121-dfae-49ab-95f7-00c35a3a4f04"},"vehicle_type_id":"4","last_reported":1728371319,"current_range_meters":37600,"station_id":"ce4bgv92rcd13ifvqcq0","pricing_plan_id":"cebpf4jnsgd1na2vs0mg"},{"bike_id":"3153071b-1440-4b2c-9b94-6fa92aabc195","system_id":"levelo_inurba_marseille","lat":43.30278,"lon":5.37717,"is_reserved":false,"is_disabled":false,"rental_uris":{"android":"levelo://app?vid=3153071b-1440-4b2c-9b94-6fa92aabc195","ios":"levelo://app?vid=3153071b-1440-4b2c-9b94-6fa92aabc195"},"vehicle_type_id":"4","last_reported":1728371319,"current_range_meters":30800,"station_id":"ce4bguh2rcd13ifvqcj0","pricing_plan_id":"cebpf4jnsgd1na2vs0mg"},{"bike_id":"71557b2f-0cba-4338-83db-d8c00bdfcacb","system_id":"levelo_inurba_marseille","lat":43.31708,"lon":5.37777,"is_reserved":false,"is_disabled":false,"rental_uris":{"android":"levelo://app?vid=71557b2f-0cba-4338-83db-d8c00bdfcacb","ios":"levelo://app?vid=71557b2f-0cba-4338-83db-d8c00bdfcacb"},"vehicle_type_id":"4","last_reported":1728371319,"current_range_meters":23200,"station_id":"ce4bgth2rcd13ifvqch0","pricing_plan_id":"cebpf4jnsgd1na2vs0mg"},{"bike_id":"72f390d6-8036-4225-a9fd-bbdc6e34eeea","system_id":"levelo_inurba_marseille","lat":43.23182,"lon":5.40001,"is_reserved":false,"is_disabled":false,"rental_uris":{"android":"levelo://app?vid=72f390d6-8036-4225-a9fd-bbdc6e34eeea","ios":"levelo://app?vid=72f390d6-8036-4225-a9fd-bbdc6e34eeea"},"vehicle_type_id":"4","last_reported":1728371319,"current_range_meters":38000,"station_id":"ce4bhn12rcd13ifvqgqg","pricing_plan_id":"cebpf4jnsgd1na2vs0mg"},{"bike_id":"28599adc-cefe-4dc4-9e60-2a07522c60e4","system_id":"levelo_inurba_marseille","lat":43.24803,"lon":5.37449,"is_reserved":false,"is_disabled":false,"rental_uris":{"android":"levelo://app?vid=28599adc-cefe-4dc4-9e60-2a07522c60e4","ios":"levelo://app?vid=28599adc-cefe-4dc4-9e60-2a07522c60e4"},"vehicle_type_id":"4","last_reported":1728371319,"current_range_meters":38800,"station_id":"ce4bhgh2rcd13ifvqfb0","pricing_plan_id":"cebpf4jnsgd1na2vs0mg"},{"bike_id":"4af55307-045f-4c66-a045-a91d88bb4c16","system_id":"levelo_inurba_marseille","lat":43.22932,"lon":5.35381,"is_reserved":false,"is_disabled":false,"rental_uris":{"android":"levelo://app?vid=4af55307-045f-4c66-a045-a91d88bb4c16","ios":"levelo://app?vid=4af55307-045f-4c66-a045-a91d88bb4c16"},"vehicle_type_id":"4","last_reported":1728371319,"current_range_meters":22800,"station_id":"cpo3532slgdg3j2ikp40","pricing_plan_id":"cebpf4jnsgd1na2vs0mg"},{"bike_id":"aa598db1-3c3a-48c0-acd0-1929a2b13407","system_id":"levelo_inurba_marseille","lat":43.31714,"lon":5.43706,"is_reserved":false,"is_disabled":false,"rental_uris":{"android":"levelo://app?vid=aa598db1-3c3a-48c0-acd0-1929a2b13407","ios":"levelo://app?vid=aa598db1-3c3a-48c0-acd0-1929a2b13407"},"vehicle_type_id":"4","last_reported":1728371319,"current_range_meters":38800,"station_id":"ce4bhp92rcd13ifvqhcg","pricing_plan_id":"cebpf4jnsgd1na2vs0mg"},{"bike_id":"47efe985-66e3-4fb1-a00d-60851f779f19","system_id":"levelo_inurba_marseille","lat":43.32545,"lon":5.41433,"is_reserved":false,"is_disabled":false,"rental_uris":{"android":"levelo://app?vid=47efe985-66e3-4fb1-a00d-60851f779f19","ios":"levelo://app?vid=47efe985-66e3-4fb1-a00d-60851f779f19"},"vehicle_type_id":"4","last_reported":1728371319,"current_range_meters":27200,"station_id":"ce4bhq12rcd13ifvqhhg","pricing_plan_id":"cebpf4jnsgd1na2vs0mg"},{"bike_id":"d854484a-6e20-4d4b-8405-8a49db0e9fa7","system_id":"levelo_inurba_marseille","lat":43.2549,"lon":5.37647,"is_reserved":false,"is_disabled":false,"rental_uris":{"android":"levelo://app?vid=d854484a-6e20-4d4b-8405-8a49db0e9fa7","ios":"levelo://app?vid=d854484a-6e20-4d4b-8405-8a49db0e9fa7"},"vehicle_type_id":"4","last_reported":1728371319,"current_range_meters":38000,"station_id":"ce4bhh12rcd13ifvqff0","pricing_plan_id":"cebpf4jnsgd1na2vs0mg"},{"bike_id":"294882e4-04ea-4ba9-8d89-0381ed6bba4d","system_id":"levelo_inurba_marseille","lat":43.31329,"lon":5.39683,"is_reserved":false,"is_disabled":false,"rental_uris":{"android":"levelo://app?vid=294882e4-04ea-4ba9-8d89-0381ed6bba4d","ios":"levelo://app?vid=294882e4-04ea-4ba9-8d89-0381ed6bba4d"},"vehicle_type_id":"4","last_reported":1728371319,"current_range_meters":40000,"station_id":"ce4bgvp2rcd13ifvqcu0","pricing_plan_id":"cebpf4jnsgd1na2vs0mg"},{"bike_id":"480eecf8-5d47-4f93-815e-826c050e484c","system_id":"levelo_inurba_marseille","lat":43.31333,"lon":5.39686,"is_reserved":false,"is_disabled":false,"rental_uris":{"android":"levelo://app?vid=480eecf8-5d47-4f93-815e-826c050e484c","ios":"levelo://app?vid=480eecf8-5d47-4f93-815e-826c050e484c"},"vehicle_type_id":"4","last_reported":1728371319,"current_range_meters":40000,"station_id":"ce4bgvp2rcd13ifvqcu0","pricing_plan_id":"cebpf4jnsgd1na2vs0mg"},{"bike_id":"c12c46a4-bd86-493d-803e-5d507cd7924b","system_id":"levelo_inurba_marseille","lat":43.23195,"lon":5.35542,"is_reserved":false,"is_disabled":false,"rental_uris":{"android":"levelo://app?vid=c12c46a4-bd86-493d-803e-5d507cd7924b","ios":"levelo://app?vid=c12c46a4-bd86-493d-803e-5d507cd7924b"},"vehicle_type_id":"4","last_reported":1728371319,"current_range_meters":20000,"station_id":"ce4bhu92rcd13ifvqi70","pricing_plan_id":"cebpf4jnsgd1na2vs0mg"},{"bike_id":"1e22ea5d-d406-4b63-92d6-06a783dc0af8","system_id":"levelo_inurba_marseille","lat":43.23185,"lon":5.39978,"is_reserved":false,"is_disabled":false,"rental_uris":{"android":"levelo://app?vid=1e22ea5d-d406-4b63-92d6-06a783dc0af8","ios":"levelo://app?vid=1e22ea5d-d406-4b63-92d6-06a783dc0af8"},"vehicle_type_id":"4","last_reported":1728371319,"current_range_meters":20000,"station_id":"ce4bhn12rcd13ifvqgqg","pricing_plan_id":"cebpf4jnsgd1na2vs0mg"},{"bike_id":"e0ef52ca-c7fa-41d7-a3ea-c3e5235a2597","system_id":"levelo_inurba_marseille","lat":43.25087,"lon":5.39513,"is_reserved":false,"is_disabled":false,"rental_uris":{"android":"levelo://app?vid=e0ef52ca-c7fa-41d7-a3ea-c3e5235a2597","ios":"levelo://app?vid=e0ef52ca-c7fa-41d7-a3ea-c3e5235a2597"},"vehicle_type_id":"4","last_reported":1728371319,"current_range_meters":24000,"station_id":"ce4bhm12rcd13ifvqgkg","pricing_plan_id":"cebpf4jnsgd1na2vs0mg"},{"bike_id":"0d7e782e-04f5-4dc8-b52f-56525b5e522e","system_id":"levelo_inurba_marseille","lat":43.26215,"lon":5.3745,"is_reserved":false,"is_disabled":false,"rental_uris":{"android":"levelo://app?vid=0d7e782e-04f5-4dc8-b52f-56525b5e522e","ios":"levelo://app?vid=0d7e782e-04f5-4dc8-b52f-56525b5e522e"},"vehicle_type_id":"4","last_reported":1728371319,"current_range_meters":34000,"station_id":"ce4bhgp2rcd13ifvqfc0","pricing_plan_id":"cebpf4jnsgd1na2vs0mg"},{"bike_id":"eb8fc8ee-c5fc-4298-a869-d0284f45a890","system_id":"levelo_inurba_marseille","lat":43.32366,"lon":5.38884,"is_reserved":false,"is_disabled":false,"rental_uris":{"android":"levelo://app?vid=eb8fc8ee-c5fc-4298-a869-d0284f45a890","ios":"levelo://app?vid=eb8fc8ee-c5fc-4298-a869-d0284f45a890"},"vehicle_type_id":"4","last_reported":1728371319,"current_range_meters":35600,"station_id":"ce4bhqp2rcd13ifvqhog","pricing_plan_id":"cebpf4jnsgd1na2vs0mg"},{"bike_id":"b6640f17-7ab3-4932-bbd1-5fe22e83845e","system_id":"levelo_inurba_marseille","lat":43.3229,"lon":5.38258,"is_reserved":false,"is_disabled":false,"rental_uris":{"android":"levelo://app?vid=b6640f17-7ab3-4932-bbd1-5fe22e83845e","ios":"levelo://app?vid=b6640f17-7ab3-4932-bbd1-5fe22e83845e"},"vehicle_type_id":"4","last_reported":1728371319,"current_range_meters":38800,"station_id":"ce4bhr12rcd13ifvqhqg","pricing_plan_id":"cebpf4jnsgd1na2vs0mg"},{"bike_id":"b5d0d5d7-5971-4c5e-bed9-a155ed94b0cf","system_id":"levelo_inurba_marseille","lat":43.30651,"lon":5.40082,"is_reserved":false,"is_disabled":false,"rental_uris":{"android":"levelo://app?vid=b5d0d5d7-5971-4c5e-bed9-a155ed94b0cf","ios":"levelo://app?vid=b5d0d5d7-5971-4c5e-bed9-a155ed94b0cf"},"vehicle_type_id":"4","last_reported":1728371319,"current_range_meters":38800,"station_id":"ce4bh112rcd13ifvqda0","pricing_plan_id":"cebpf4jnsgd1na2vs0mg"},{"bike_id":"bc884bab-7cdf-4100-874d-71d6c86a7840","system_id":"levelo_inurba_marseille","lat":43.28269,"lon":5.35064,"is_reserved":false,"is_disabled":false,"rental_uris":{"android":"levelo://app?vid=bc884bab-7cdf-4100-874d-71d6c86a7840","ios":"levelo://app?vid=bc884bab-7cdf-4100-874d-71d6c86a7840"},"vehicle_type_id":"4","last_reported":1728371319,"current_range_meters":38000,"station_id":"ce4bhbp2rcd13ifvqerg","pricing_plan_id":"cebpf4jnsgd1na2vs0mg"},{"bike_id":"1d8a8722-9820-4f3d-a130-18024aaa2b06","system_id":"levelo_inurba_marseille","lat":43.2694,"lon":5.40249,"is_reserved":false,"is_disabled":false,"rental_uris":{"android":"levelo://app?vid=1d8a8722-9820-4f3d-a130-18024aaa2b06","ios":"levelo://app?vid=1d8a8722-9820-4f3d-a130-18024aaa2b06"},"vehicle_type_id":"4","last_reported":1728371319,"current_range_meters":38800,"station_id":"cjm6bp8fraef2m0cb0m0","pricing_plan_id":"cebpf4jnsgd1na2vs0mg"},{"bike_id":"f87c1dd0-d204-4a41-ae92-687c3cddfed1","system_id":"levelo_inurba_marseille","lat":43.24667,"lon":5.3816,"is_reserved":false,"is_disabled":false,"rental_uris":{"android":"levelo://app?vid=f87c1dd0-d204-4a41-ae92-687c3cddfed1","ios":"levelo://app?vid=f87c1dd0-d204-4a41-ae92-687c3cddfed1"},"vehicle_type_id":"4","last_reported":1728371319,"current_range_meters":38000,"station_id":"ce4bhih2rcd13ifvqfr0","pricing_plan_id":"cebpf4jnsgd1na2vs0mg"},{"bike_id":"f2318ff9-1c48-414c-ba93-720ba21616ce","system_id":"levelo_inurba_marseille","lat":43.27491,"lon":5.42458,"is_reserved":false,"is_disabled":false,"rental_uris":{"android":"levelo://app?vid=f2318ff9-1c48-414c-ba93-720ba21616ce","ios":"levelo://app?vid=f2318ff9-1c48-414c-ba93-720ba21616ce"},"vehicle_type_id":"4","last_reported":1728371319,"current_range_meters":32800,"station_id":"ce4bhn92rcd13ifvqgrg","pricing_plan_id":"cebpf4jnsgd1na2vs0mg"},{"bike_id":"51518c00-b5c7-480d-8547-a82c8d12269e","system_id":"levelo_inurba_marseille","lat":43.23154,"lon":5.43724,"is_reserved":false,"is_disabled":false,"rental_uris":{"android":"levelo://app?vid=51518c00-b5c7-480d-8547-a82c8d12269e","ios":"levelo://app?vid=51518c00-b5c7-480d-8547-a82c8d12269e"},"vehicle_type_id":"4","last_reported":1728371319,"current_range_meters":17200,"station_id":"ce4bhmp2rcd13ifvqgog","pricing_plan_id":"cebpf4jnsgd1na2vs0mg"},{"bike_id":"62c20907-37b0-4a30-9212-04239ba69697","system_id":"levelo_inurba_marseille","lat":43.3133,"lon":5.39693,"is_reserved":false,"is_disabled":false,"rental_uris":{"android":"levelo://app?vid=62c20907-37b0-4a30-9212-04239ba69697","ios":"levelo://app?vid=62c20907-37b0-4a30-9212-04239ba69697"},"vehicle_type_id":"4","last_reported":1728371319,"current_range_meters":38800,"station_id":"ce4bgvp2rcd13ifvqcu0","pricing_plan_id":"cebpf4jnsgd1na2vs0mg"},{"bike_id":"d00a3477-782a-4de0-b711-15ed9dd434f4","system_id":"levelo_inurba_marseille","lat":43.23053,"lon":5.35487,"is_reserved":false,"is_disabled":false,"rental_uris":{"android":"levelo://app?vid=d00a3477-782a-4de0-b711-15ed9dd434f4","ios":"levelo://app?vid=d00a3477-782a-4de0-b711-15ed9dd434f4"},"vehicle_type_id":"4","last_reported":1728371319,"current_range_meters":6400,"station_id":"cpo3342slgdg3j2ifvpg","pricing_plan_id":"cebpf4jnsgd1na2vs0mg"},{"bike_id":"723a9ecd-2170-48ac-aed2-47ee1acfbf4e","system_id":"levelo_inurba_marseille","lat":43.30932,"lon":5.40148,"is_reserved":false,"is_disabled":false,"rental_uris":{"android":"levelo://app?vid=723a9ecd-2170-48ac-aed2-47ee1acfbf4e","ios":"levelo://app?vid=723a9ecd-2170-48ac-aed2-47ee1acfbf4e"},"vehicle_type_id":"4","last_reported":1728371319,"current_range_meters":38800,"station_id":"ce4bgvp2rcd13ifvqct0","pricing_plan_id":"cebpf4jnsgd1na2vs0mg"},{"bike_id":"1f2894cb-9f86-4c5b-bd23-4460a630d2a1","system_id":"levelo_inurba_marseille","lat":43.33605,"lon":5.41032,"is_reserved":false,"is_disabled":false,"rental_uris":{"android":"levelo://app?vid=1f2894cb-9f86-4c5b-bd23-4460a630d2a1","ios":"levelo://app?vid=1f2894cb-9f86-4c5b-bd23-4460a630d2a1"},"vehicle_type_id":"4","last_reported":1728371319,"current_range_meters":28400,"station_id":"ce4bhqh2rcd13ifvqhmg","pricing_plan_id":"cebpf4jnsgd1na2vs0mg"},{"bike_id":"9c5d863a-5a7e-4174-aa67-2817a0e74f57","system_id":"levelo_inurba_marseille","lat":43.28455,"lon":5.35894,"is_reserved":false,"is_disabled":false,"rental_uris":{"android":"levelo://app?vid=9c5d863a-5a7e-4174-aa67-2817a0e74f57","ios":"levelo://app?vid=9c5d863a-5a7e-4174-aa67-2817a0e74f57"},"vehicle_type_id":"4","last_reported":1728371319,"current_range_meters":38800,"station_id":"ce4bhah2rcd13ifvqei0","pricing_plan_id":"cebpf4jnsgd1na2vs0mg"},{"bike_id":"c41645cc-9ca8-4599-a273-1dfae7017ffb","system_id":"levelo_inurba_marseille","lat":43.31271,"lon":5.40171,"is_reserved":false,"is_disabled":false,"rental_uris":{"android":"levelo://app?vid=c41645cc-9ca8-4599-a273-1dfae7017ffb","ios":"levelo://app?vid=c41645cc-9ca8-4599-a273-1dfae7017ffb"},"vehicle_type_id":"4","last_reported":1728371319,"current_range_meters":9600,"station_id":"ce4bh092rcd13ifvqd30","pricing_plan_id":"cebpf4jnsgd1na2vs0mg"},{"bike_id":"0addcf89-f5f6-4899-92b3-5cd2981eb4de","system_id":"levelo_inurba_marseille","lat":43.31707,"lon":5.37762,"is_reserved":false,"is_disabled":false,"rental_uris":{"android":"levelo://app?vid=0addcf89-f5f6-4899-92b3-5cd2981eb4de","ios":"levelo://app?vid=0addcf89-f5f6-4899-92b3-5cd2981eb4de"},"vehicle_type_id":"4","last_reported":1728371319,"current_range_meters":36800,"station_id":"ce4bgth2rcd13ifvqch0","pricing_plan_id":"cebpf4jnsgd1na2vs0mg"},{"bike_id":"e8f38f77-6572-42be-9296-0cbe6e7cb972","system_id":"levelo_inurba_marseille","lat":43.23054,"lon":5.35492,"is_reserved":false,"is_disabled":false,"rental_uris":{"android":"levelo://app?vid=e8f38f77-6572-42be-9296-0cbe6e7cb972","ios":"levelo://app?vid=e8f38f77-6572-42be-9296-0cbe6e7cb972"},"vehicle_type_id":"4","last_reported":1728371319,"current_range_meters":33200,"station_id":"cpo3342slgdg3j2ifvpg","pricing_plan_id":"cebpf4jnsgd1na2vs0mg"},{"bike_id":"da2bef50-9604-4ee2-b6fe-7fbad7a1e331","system_id":"levelo_inurba_marseille","lat":43.31709,"lon":5.37758,"is_reserved":false,"is_disabled":false,"rental_uris":{"android":"levelo://app?vid=da2bef50-9604-4ee2-b6fe-7fbad7a1e331","ios":"levelo://app?vid=da2bef50-9604-4ee2-b6fe-7fbad7a1e331"},"vehicle_type_id":"4","last_reported":1728371319,"current_range_meters":38000,"station_id":"ce4bgth2rcd13ifvqch0","pricing_plan_id":"cebpf4jnsgd1na2vs0mg"},{"bike_id":"c82e04e9-ad0b-4de0-a926-3716c1e83d6c","system_id":"levelo_inurba_marseille","lat":43.2841,"lon":5.37524,"is_reserved":false,"is_disabled":false,"rental_uris":{"android":"levelo://app?vid=c82e04e9-ad0b-4de0-a926-3716c1e83d6c","ios":"levelo://app?vid=c82e04e9-ad0b-4de0-a926-3716c1e83d6c"},"vehicle_type_id":"4","last_reported":1728371319,"current_range_meters":38800,"station_id":"ce4bh412rcd13ifvqds0","pricing_plan_id":"cebpf4jnsgd1na2vs0mg"},{"bike_id":"6383107e-a90b-48e5-ad67-a00f3da06e6b","system_id":"levelo_inurba_marseille","lat":43.28092,"lon":5.39657,"is_reserved":false,"is_disabled":false,"rental_uris":{"android":"levelo://app?vid=6383107e-a90b-48e5-ad67-a00f3da06e6b","ios":"levelo://app?vid=6383107e-a90b-48e5-ad67-a00f3da06e6b"},"vehicle_type_id":"4","last_reported":1728371319,"current_range_meters":12000,"station_id":"ce4bho12rcd13ifvqh2g","pricing_plan_id":"cebpf4jnsgd1na2vs0mg"},{"bike_id":"aba7126a-32fe-4f2d-8597-35f362949104","system_id":"levelo_inurba_marseille","lat":43.28107,"lon":5.37838,"is_reserved":false,"is_disabled":false,"rental_uris":{"android":"levelo://app?vid=aba7126a-32fe-4f2d-8597-35f362949104","ios":"levelo://app?vid=aba7126a-32fe-4f2d-8597-35f362949104"},"vehicle_type_id":"4","last_reported":1728371319,"current_range_meters":38000,"station_id":"ce4bha12rcd13ifvqee0","pricing_plan_id":"cebpf4jnsgd1na2vs0mg"},{"bike_id":"485bc90e-76e5-4ef0-8a60-6695dcc5102a","system_id":"levelo_inurba_marseille","lat":43.32482,"lon":5.36573,"is_reserved":false,"is_disabled":false,"rental_uris":{"android":"levelo://app?vid=485bc90e-76e5-4ef0-8a60-6695dcc5102a","ios":"levelo://app?vid=485bc90e-76e5-4ef0-8a60-6695dcc5102a"},"vehicle_type_id":"4","last_reported":1728371319,"current_range_meters":13600,"station_id":"ce4bhs12rcd13ifvqhvg","pricing_plan_id":"cebpf4jnsgd1na2vs0mg"},{"bike_id":"2af27945-11b6-45fa-8d48-511a67589ce6","system_id":"levelo_inurba_marseille","lat":43.24666,"lon":5.38155,"is_reserved":false,"is_disabled":false,"rental_uris":{"android":"levelo://app?vid=2af27945-11b6-45fa-8d48-511a67589ce6","ios":"levelo://app?vid=2af27945-11b6-45fa-8d48-511a67589ce6"},"vehicle_type_id":"4","last_reported":1728371319,"current_range_meters":16400,"station_id":"ce4bhih2rcd13ifvqfr0","pricing_plan_id":"cebpf4jnsgd1na2vs0mg"},{"bike_id":"daf4cb02-43e6-40b1-af02-6448d898b1e4","system_id":"levelo_inurba_marseille","lat":43.28149,"lon":5.42641,"is_reserved":false,"is_disabled":false,"rental_uris":{"android":"levelo://app?vid=daf4cb02-43e6-40b1-af02-6448d898b1e4","ios":"levelo://app?vid=daf4cb02-43e6-40b1-af02-6448d898b1e4"},"vehicle_type_id":"4","last_reported":1728371319,"current_range_meters":28800,"station_id":"ce4bhnh2rcd13ifvqgug","pricing_plan_id":"cebpf4jnsgd1na2vs0mg"},{"bike_id":"26b10502-c168-4dc5-b070-1f18ddc4f76e","system_id":"levelo_inurba_marseille","lat":43.3302,"lon":5.39036,"is_reserved":false,"is_disabled":false,"rental_uris":{"android":"levelo://app?vid=26b10502-c168-4dc5-b070-1f18ddc4f76e","ios":"levelo://app?vid=26b10502-c168-4dc5-b070-1f18ddc4f76e"},"vehicle_type_id":"4","last_reported":1728371319,"current_range_meters":33600,"station_id":"ce4bhr92rcd13ifvqhrg","pricing_plan_id":"cebpf4jnsgd1na2vs0mg"},{"bike_id":"2fe9a872-9d35-432b-917d-ada3867c3c80","system_id":"levelo_inurba_marseille","lat":43.31535,"lon":5.38031,"is_reserved":false,"is_disabled":false,"rental_uris":{"android":"levelo://app?vid=2fe9a872-9d35-432b-917d-ada3867c3c80","ios":"levelo://app?vid=2fe9a872-9d35-432b-917d-ada3867c3c80"},"vehicle_type_id":"4","last_reported":1728371319,"current_range_meters":26800,"station_id":"ce4bhsp2rcd13ifvqi50","pricing_plan_id":"cebpf4jnsgd1na2vs0mg"},{"bike_id":"1e572d13-e9e5-4d70-a9f1-ccff66fd5efe","system_id":"levelo_inurba_marseille","lat":43.31223,"lon":5.36866,"is_reserved":false,"is_disabled":false,"rental_uris":{"android":"levelo://app?vid=1e572d13-e9e5-4d70-a9f1-ccff66fd5efe","ios":"levelo://app?vid=1e572d13-e9e5-4d70-a9f1-ccff66fd5efe"},"vehicle_type_id":"4","last_reported":1728371319,"current_range_meters":25200,"station_id":"ce4bgl92rcd13ifvqbq0","pricing_plan_id":"cebpf4jnsgd1na2vs0mg"},{"bike_id":"1d458ef6-e087-49c9-a1c6-43605559605c","system_id":"levelo_inurba_marseille","lat":43.31281,"lon":5.40162,"is_reserved":false,"is_disabled":false,"rental_uris":{"android":"levelo://app?vid=1d458ef6-e087-49c9-a1c6-43605559605c","ios":"levelo://app?vid=1d458ef6-e087-49c9-a1c6-43605559605c"},"vehicle_type_id":"4","last_reported":1728371319,"current_range_meters":28000,"station_id":"ce4bh092rcd13ifvqd30","pricing_plan_id":"cebpf4jnsgd1na2vs0mg"},{"bike_id":"2f4b888d-5c74-4153-900e-18576b429381","system_id":"levelo_inurba_marseille","lat":43.31695,"lon":5.40453,"is_reserved":false,"is_disabled":false,"rental_uris":{"android":"levelo://app?vid=2f4b888d-5c74-4153-900e-18576b429381","ios":"levelo://app?vid=2f4b888d-5c74-4153-900e-18576b429381"},"vehicle_type_id":"4","last_reported":1728371319,"current_range_meters":36800,"station_id":"ce4bh012rcd13ifvqd00","pricing_plan_id":"cebpf4jnsgd1na2vs0mg"},{"bike_id":"49244ba5-d85f-432a-9dcc-80e7eaef97ac","system_id":"levelo_inurba_marseille","lat":43.31333,"lon":5.39693,"is_reserved":false,"is_disabled":false,"rental_uris":{"android":"levelo://app?vid=49244ba5-d85f-432a-9dcc-80e7eaef97ac","ios":"levelo://app?vid=49244ba5-d85f-432a-9dcc-80e7eaef97ac"},"vehicle_type_id":"4","last_reported":1728371319,"current_range_meters":6000,"station_id":"ce4bgvp2rcd13ifvqcu0","pricing_plan_id":"cebpf4jnsgd1na2vs0mg"},{"bike_id":"6a7984cc-f518-40dd-ab2e-99cb03ed4821","system_id":"levelo_inurba_marseille","lat":43.26679,"lon":5.38268,"is_reserved":false,"is_disabled":false,"rental_uris":{"android":"levelo://app?vid=6a7984cc-f518-40dd-ab2e-99cb03ed4821","ios":"levelo://app?vid=6a7984cc-f518-40dd-ab2e-99cb03ed4821"},"vehicle_type_id":"4","last_reported":1728371319,"current_range_meters":14000,"station_id":"ce4bhg92rcd13ifvqf90","pricing_plan_id":"cebpf4jnsgd1na2vs0mg"},{"bike_id":"99d7cd76-f784-4b1b-bcf9-90460e159b56","system_id":"levelo_inurba_marseille","lat":43.28145,"lon":5.42642,"is_reserved":false,"is_disabled":false,"rental_uris":{"android":"levelo://app?vid=99d7cd76-f784-4b1b-bcf9-90460e159b56","ios":"levelo://app?vid=99d7cd76-f784-4b1b-bcf9-90460e159b56"},"vehicle_type_id":"4","last_reported":1728371319,"current_range_meters":19200,"station_id":"ce4bhnh2rcd13ifvqgug","pricing_plan_id":"cebpf4jnsgd1na2vs0mg"},{"bike_id":"b5142c12-3f3f-452c-853c-bcb33ce12fbf","system_id":"levelo_inurba_marseille","lat":43.231973,"lon":5.35553,"is_reserved":false,"is_disabled":false,"rental_uris":{"android":"levelo://app?vid=b5142c12-3f3f-452c-853c-bcb33ce12fbf","ios":"levelo://app?vid=b5142c12-3f3f-452c-853c-bcb33ce12fbf"},"vehicle_type_id":"4","last_reported":1728371319,"current_range_meters":38000,"station_id":"ce4bhu92rcd13ifvqi70","pricing_plan_id":"cebpf4jnsgd1na2vs0mg"},{"bike_id":"5af26391-b5ec-412b-a63a-253bd0101ef9","system_id":"levelo_inurba_marseille","lat":43.31693,"lon":5.40481,"is_reserved":false,"is_disabled":false,"rental_uris":{"android":"levelo://app?vid=5af26391-b5ec-412b-a63a-253bd0101ef9","ios":"levelo://app?vid=5af26391-b5ec-412b-a63a-253bd0101ef9"},"vehicle_type_id":"4","last_reported":1728371319,"current_range_meters":30400,"station_id":"ce4bh012rcd13ifvqd00","pricing_plan_id":"cebpf4jnsgd1na2vs0mg"},{"bike_id":"743b2a23-ccaa-44e2-810e-ba9784bf4280","system_id":"levelo_inurba_marseille","lat":43.30922,"lon":5.40147,"is_reserved":false,"is_disabled":false,"rental_uris":{"android":"levelo://app?vid=743b2a23-ccaa-44e2-810e-ba9784bf4280","ios":"levelo://app?vid=743b2a23-ccaa-44e2-810e-ba9784bf4280"},"vehicle_type_id":"4","last_reported":1728371319,"current_range_meters":34000,"station_id":"ce4bgvp2rcd13ifvqct0","pricing_plan_id":"cebpf4jnsgd1na2vs0mg"},{"bike_id":"285b25de-39a9-476e-b0a1-77f2594c2a5e","system_id":"levelo_inurba_marseille","lat":43.30932,"lon":5.40144,"is_reserved":false,"is_disabled":false,"rental_uris":{"android":"levelo://app?vid=285b25de-39a9-476e-b0a1-77f2594c2a5e","ios":"levelo://app?vid=285b25de-39a9-476e-b0a1-77f2594c2a5e"},"vehicle_type_id":"4","last_reported":1728371319,"current_range_meters":37600,"station_id":"ce4bgvp2rcd13ifvqct0","pricing_plan_id":"cebpf4jnsgd1na2vs0mg"},{"bike_id":"513184d9-4a6b-49fd-81e0-1b13bcd19fd6","system_id":"levelo_inurba_marseille","lat":43.28424,"lon":5.40041,"is_reserved":false,"is_disabled":false,"rental_uris":{"android":"levelo://app?vid=513184d9-4a6b-49fd-81e0-1b13bcd19fd6","ios":"levelo://app?vid=513184d9-4a6b-49fd-81e0-1b13bcd19fd6"},"vehicle_type_id":"4","last_reported":1728371319,"current_range_meters":24000,"station_id":"","pricing_plan_id":"cebpf4jnsgd1na2vs0mg"},{"bike_id":"49896526-4c14-4b68-bf37-b9c419e4a27d","system_id":"levelo_inurba_marseille","lat":43.2997,"lon":5.385,"is_reserved":false,"is_disabled":false,"rental_uris":{"android":"levelo://app?vid=49896526-4c14-4b68-bf37-b9c419e4a27d","ios":"levelo://app?vid=49896526-4c14-4b68-bf37-b9c419e4a27d"},"vehicle_type_id":"4","last_reported":1728371319,"current_range_meters":22800,"station_id":"ce4bgj92rcd13ifvqbd0","pricing_plan_id":"cebpf4jnsgd1na2vs0mg"},{"bike_id":"f15e7e2e-a7e1-47b2-877a-c595706545c7","system_id":"levelo_inurba_marseille","lat":43.28151,"lon":5.42646,"is_reserved":false,"is_disabled":false,"rental_uris":{"android":"levelo://app?vid=f15e7e2e-a7e1-47b2-877a-c595706545c7","ios":"levelo://app?vid=f15e7e2e-a7e1-47b2-877a-c595706545c7"},"vehicle_type_id":"4","last_reported":1728371319,"current_range_meters":39200,"station_id":"ce4bhnh2rcd13ifvqgug","pricing_plan_id":"cebpf4jnsgd1na2vs0mg"},{"bike_id":"529413b5-3e58-41ef-a18c-8f3ba1b334a4","system_id":"levelo_inurba_marseille","lat":43.31756,"lon":5.39018,"is_reserved":false,"is_disabled":false,"rental_uris":{"android":"levelo://app?vid=529413b5-3e58-41ef-a18c-8f3ba1b334a4","ios":"levelo://app?vid=529413b5-3e58-41ef-a18c-8f3ba1b334a4"},"vehicle_type_id":"4","last_reported":1728371319,"current_range_meters":37600,"station_id":"ce4bhqp2rcd13ifvqhng","pricing_plan_id":"cebpf4jnsgd1na2vs0mg"},{"bike_id":"93d45870-2e1c-4ed1-9664-7b219a4ed443","system_id":"levelo_inurba_marseille","lat":43.22931,"lon":5.35369,"is_reserved":false,"is_disabled":false,"rental_uris":{"android":"levelo://app?vid=93d45870-2e1c-4ed1-9664-7b219a4ed443","ios":"levelo://app?vid=93d45870-2e1c-4ed1-9664-7b219a4ed443"},"vehicle_type_id":"4","last_reported":1728371319,"current_range_meters":32400,"station_id":"cpo3532slgdg3j2ikp40","pricing_plan_id":"cebpf4jnsgd1na2vs0mg"},{"bike_id":"d4dfa52e-76b8-410b-b129-46d068df677c","system_id":"levelo_inurba_marseille","lat":43.31532,"lon":5.38036,"is_reserved":false,"is_disabled":false,"rental_uris":{"android":"levelo://app?vid=d4dfa52e-76b8-410b-b129-46d068df677c","ios":"levelo://app?vid=d4dfa52e-76b8-410b-b129-46d068df677c"},"vehicle_type_id":"4","last_reported":1728371319,"current_range_meters":26800,"station_id":"ce4bhsp2rcd13ifvqi50","pricing_plan_id":"cebpf4jnsgd1na2vs0mg"},{"bike_id":"897de76e-ad41-4185-9858-0e43dec53069","system_id":"levelo_inurba_marseille","lat":43.32546,"lon":5.414419,"is_reserved":false,"is_disabled":false,"rental_uris":{"android":"levelo://app?vid=897de76e-ad41-4185-9858-0e43dec53069","ios":"levelo://app?vid=897de76e-ad41-4185-9858-0e43dec53069"},"vehicle_type_id":"4","last_reported":1728371319,"current_range_meters":16000,"station_id":"ce4bhq12rcd13ifvqhhg","pricing_plan_id":"cebpf4jnsgd1na2vs0mg"},{"bike_id":"0e3bfff6-2bee-4be5-8568-766c0160a493","system_id":"levelo_inurba_marseille","lat":43.3171,"lon":5.43702,"is_reserved":false,"is_disabled":false,"rental_uris":{"android":"levelo://app?vid=0e3bfff6-2bee-4be5-8568-766c0160a493","ios":"levelo://app?vid=0e3bfff6-2bee-4be5-8568-766c0160a493"},"vehicle_type_id":"4","last_reported":1728371319,"current_range_meters":8800,"station_id":"ce4bhp92rcd13ifvqhcg","pricing_plan_id":"cebpf4jnsgd1na2vs0mg"},{"bike_id":"6e512044-ef12-457b-bcca-26bd86c5618a","system_id":"levelo_inurba_marseille","lat":43.23057,"lon":5.35495,"is_reserved":false,"is_disabled":false,"rental_uris":{"android":"levelo://app?vid=6e512044-ef12-457b-bcca-26bd86c5618a","ios":"levelo://app?vid=6e512044-ef12-457b-bcca-26bd86c5618a"},"vehicle_type_id":"4","last_reported":1728371319,"current_range_meters":32800,"station_id":"cpo3342slgdg3j2ifvpg","pricing_plan_id":"cebpf4jnsgd1na2vs0mg"},{"bike_id":"414a9a51-bf1f-44e9-bc05-c846ee304d6c","system_id":"levelo_inurba_marseille","lat":43.27909,"lon":5.38007,"is_reserved":false,"is_disabled":false,"rental_uris":{"android":"levelo://app?vid=414a9a51-bf1f-44e9-bc05-c846ee304d6c","ios":"levelo://app?vid=414a9a51-bf1f-44e9-bc05-c846ee304d6c"},"vehicle_type_id":"4","last_reported":1728371319,"current_range_meters":38800,"station_id":"ce4bhf92rcd13ifvqf50","pricing_plan_id":"cebpf4jnsgd1na2vs0mg"},{"bike_id":"ccc17164-6456-4916-af4b-b0ad35eeb52d","system_id":"levelo_inurba_marseille","lat":43.28155,"lon":5.42647,"is_reserved":false,"is_disabled":false,"rental_uris":{"android":"levelo://app?vid=ccc17164-6456-4916-af4b-b0ad35eeb52d","ios":"levelo://app?vid=ccc17164-6456-4916-af4b-b0ad35eeb52d"},"vehicle_type_id":"4","last_reported":1728371319,"current_range_meters":24400,"station_id":"ce4bhnh2rcd13ifvqgug","pricing_plan_id":"cebpf4jnsgd1na2vs0mg"},{"bike_id":"83ca7793-fb7f-4f63-843d-a13c4fc0bddf","system_id":"levelo_inurba_marseille","lat":43.25941,"lon":5.40899,"is_reserved":false,"is_disabled":false,"rental_uris":{"android":"levelo://app?vid=83ca7793-fb7f-4f63-843d-a13c4fc0bddf","ios":"levelo://app?vid=83ca7793-fb7f-4f63-843d-a13c4fc0bddf"},"vehicle_type_id":"4","last_reported":1728371319,"current_range_meters":32400,"station_id":"ce4bhm92rcd13ifvqglg","pricing_plan_id":"cebpf4jnsgd1na2vs0mg"},{"bike_id":"93a538e2-33d2-44e2-ac66-feb42e05dfad","system_id":"levelo_inurba_marseille","lat":43.24165,"lon":5.36392,"is_reserved":false,"is_disabled":false,"rental_uris":{"android":"levelo://app?vid=93a538e2-33d2-44e2-ac66-feb42e05dfad","ios":"levelo://app?vid=93a538e2-33d2-44e2-ac66-feb42e05dfad"},"vehicle_type_id":"4","last_reported":1728371319,"current_range_meters":25600,"station_id":"cpo36qri1sfpv3e86is0","pricing_plan_id":"cebpf4jnsgd1na2vs0mg"},{"bike_id":"d7e8c8cb-32d1-4098-b521-23fc9c27f8bb","system_id":"levelo_inurba_marseille","lat":43.2953,"lon":5.38542,"is_reserved":false,"is_disabled":false,"rental_uris":{"android":"levelo://app?vid=d7e8c8cb-32d1-4098-b521-23fc9c27f8bb","ios":"levelo://app?vid=d7e8c8cb-32d1-4098-b521-23fc9c27f8bb"},"vehicle_type_id":"4","last_reported":1728371319,"current_range_meters":38000,"station_id":"ce4bgih2rcd13ifvqba0","pricing_plan_id":"cebpf4jnsgd1na2vs0mg"},{"bike_id":"ddf7f00c-2f0f-4f0c-b59a-4471633d06e8","system_id":"levelo_inurba_marseille","lat":43.30465,"lon":5.37908,"is_reserved":false,"is_disabled":false,"rental_uris":{"android":"levelo://app?vid=ddf7f00c-2f0f-4f0c-b59a-4471633d06e8","ios":"levelo://app?vid=ddf7f00c-2f0f-4f0c-b59a-4471633d06e8"},"vehicle_type_id":"4","last_reported":1728371319,"current_range_meters":32000,"station_id":"ce4bgup2rcd13ifvqcn0","pricing_plan_id":"cebpf4jnsgd1na2vs0mg"},{"bike_id":"a9b41b92-6158-4482-b653-e5162e9a5800","system_id":"levelo_inurba_marseille","lat":43.30597,"lon":5.39352,"is_reserved":false,"is_disabled":false,"rental_uris":{"android":"levelo://app?vid=a9b41b92-6158-4482-b653-e5162e9a5800","ios":"levelo://app?vid=a9b41b92-6158-4482-b653-e5162e9a5800"},"vehicle_type_id":"4","last_reported":1728371319,"current_range_meters":38800,"station_id":"ce4bh0p2rcd13ifvqd80","pricing_plan_id":"cebpf4jnsgd1na2vs0mg"},{"bike_id":"a758b7ad-50ca-44a9-baf5-9b94eedca986","system_id":"levelo_inurba_marseille","lat":43.27494,"lon":5.42447,"is_reserved":false,"is_disabled":false,"rental_uris":{"android":"levelo://app?vid=a758b7ad-50ca-44a9-baf5-9b94eedca986","ios":"levelo://app?vid=a758b7ad-50ca-44a9-baf5-9b94eedca986"},"vehicle_type_id":"4","last_reported":1728371319,"current_range_meters":38800,"station_id":"ce4bhn92rcd13ifvqgrg","pricing_plan_id":"cebpf4jnsgd1na2vs0mg"},{"bike_id":"2a9899af-5714-4404-b731-ffd6243bebc6","system_id":"levelo_inurba_marseille","lat":43.28422,"lon":5.34984,"is_reserved":false,"is_disabled":false,"rental_uris":{"android":"levelo://app?vid=2a9899af-5714-4404-b731-ffd6243bebc6","ios":"levelo://app?vid=2a9899af-5714-4404-b731-ffd6243bebc6"},"vehicle_type_id":"4","last_reported":1728371319,"current_range_meters":28800,"station_id":"ce4bhbh2rcd13ifvqepg","pricing_plan_id":"cebpf4jnsgd1na2vs0mg"},{"bike_id":"a24a0a4b-89ff-4753-9358-b721c4492730","system_id":"levelo_inurba_marseille","lat":43.25002,"lon":5.3892,"is_reserved":false,"is_disabled":false,"rental_uris":{"android":"levelo://app?vid=a24a0a4b-89ff-4753-9358-b721c4492730","ios":"levelo://app?vid=a24a0a4b-89ff-4753-9358-b721c4492730"},"vehicle_type_id":"4","last_reported":1728371319,"current_range_meters":27600,"station_id":"ce4bhgp2rcd13ifvqfd0","pricing_plan_id":"cebpf4jnsgd1na2vs0mg"},{"bike_id":"51252150-6263-4793-9b8b-46506e295cb3","system_id":"levelo_inurba_marseille","lat":43.31697,"lon":5.40458,"is_reserved":false,"is_disabled":false,"rental_uris":{"android":"levelo://app?vid=51252150-6263-4793-9b8b-46506e295cb3","ios":"levelo://app?vid=51252150-6263-4793-9b8b-46506e295cb3"},"vehicle_type_id":"4","last_reported":1728371319,"current_range_meters":37600,"station_id":"ce4bh012rcd13ifvqd00","pricing_plan_id":"cebpf4jnsgd1na2vs0mg"},{"bike_id":"a92f6206-1720-4e29-9ed4-ca1db6a5dc4b","system_id":"levelo_inurba_marseille","lat":43.29917,"lon":5.3747,"is_reserved":false,"is_disabled":false,"rental_uris":{"android":"levelo://app?vid=a92f6206-1720-4e29-9ed4-ca1db6a5dc4b","ios":"levelo://app?vid=a92f6206-1720-4e29-9ed4-ca1db6a5dc4b"},"vehicle_type_id":"4","last_reported":1728371319,"current_range_meters":31200,"station_id":"ce4bgjh2rcd13ifvqbg0","pricing_plan_id":"cebpf4jnsgd1na2vs0mg"},{"bike_id":"7aa0ab8b-09e0-4724-b831-d9734d5ddcfd","system_id":"levelo_inurba_marseille","lat":43.30903,"lon":5.36843,"is_reserved":false,"is_disabled":false,"rental_uris":{"android":"levelo://app?vid=7aa0ab8b-09e0-4724-b831-d9734d5ddcfd","ios":"levelo://app?vid=7aa0ab8b-09e0-4724-b831-d9734d5ddcfd"},"vehicle_type_id":"4","last_reported":1728371319,"current_range_meters":30800,"station_id":"ce4bgn92rcd13ifvqbvg","pricing_plan_id":"cebpf4jnsgd1na2vs0mg"},{"bike_id":"72f40ed7-a504-4daf-b024-071eeacd5158","system_id":"levelo_inurba_marseille","lat":43.27371,"lon":5.3626,"is_reserved":false,"is_disabled":false,"rental_uris":{"android":"levelo://app?vid=72f40ed7-a504-4daf-b024-071eeacd5158","ios":"levelo://app?vid=72f40ed7-a504-4daf-b024-071eeacd5158"},"vehicle_type_id":"4","last_reported":1728371319,"current_range_meters":38000,"station_id":"ce4bhbh2rcd13ifvqeo0","pricing_plan_id":"cebpf4jnsgd1na2vs0mg"},{"bike_id":"bad407ce-83c2-4d24-a071-4f789679cba0","system_id":"levelo_inurba_marseille","lat":43.28436,"lon":5.39187,"is_reserved":false,"is_disabled":false,"rental_uris":{"android":"levelo://app?vid=bad407ce-83c2-4d24-a071-4f789679cba0","ios":"levelo://app?vid=bad407ce-83c2-4d24-a071-4f789679cba0"},"vehicle_type_id":"4","last_reported":1728371319,"current_range_meters":11200,"station_id":"ce4bhoh2rcd13ifvqh5g","pricing_plan_id":"cebpf4jnsgd1na2vs0mg"},{"bike_id":"7ad06205-868a-4802-a1e3-0dc7e4c673d2","system_id":"levelo_inurba_marseille","lat":43.32486,"lon":5.36569,"is_reserved":false,"is_disabled":false,"rental_uris":{"android":"levelo://app?vid=7ad06205-868a-4802-a1e3-0dc7e4c673d2","ios":"levelo://app?vid=7ad06205-868a-4802-a1e3-0dc7e4c673d2"},"vehicle_type_id":"4","last_reported":1728371319,"current_range_meters":32000,"station_id":"ce4bhs12rcd13ifvqhvg","pricing_plan_id":"cebpf4jnsgd1na2vs0mg"},{"bike_id":"6c80a266-5201-49fa-a634-06da8f620caa","system_id":"levelo_inurba_marseille","lat":43.27612,"lon":5.36106,"is_reserved":false,"is_disabled":false,"rental_uris":{"android":"levelo://app?vid=6c80a266-5201-49fa-a634-06da8f620caa","ios":"levelo://app?vid=6c80a266-5201-49fa-a634-06da8f620caa"},"vehicle_type_id":"4","last_reported":1728371319,"current_range_meters":12800,"station_id":"ce4bgj92rcd13ifvqbe0","pricing_plan_id":"cebpf4jnsgd1na2vs0mg"},{"bike_id":"ab0ef8f6-2d64-477f-ab35-7e54daa51f0f","system_id":"levelo_inurba_marseille","lat":43.31714,"lon":5.43707,"is_reserved":false,"is_disabled":false,"rental_uris":{"android":"levelo://app?vid=ab0ef8f6-2d64-477f-ab35-7e54daa51f0f","ios":"levelo://app?vid=ab0ef8f6-2d64-477f-ab35-7e54daa51f0f"},"vehicle_type_id":"4","last_reported":1728371319,"current_range_meters":22000,"station_id":"ce4bhp92rcd13ifvqhcg","pricing_plan_id":"cebpf4jnsgd1na2vs0mg"},{"bike_id":"c45340a7-5257-408a-897a-01994bd38219","system_id":"levelo_inurba_marseille","lat":43.284576,"lon":5.35878,"is_reserved":false,"is_disabled":false,"rental_uris":{"android":"levelo://app?vid=c45340a7-5257-408a-897a-01994bd38219","ios":"levelo://app?vid=c45340a7-5257-408a-897a-01994bd38219"},"vehicle_type_id":"4","last_reported":1728371319,"current_range_meters":38800,"station_id":"ce4bhah2rcd13ifvqei0","pricing_plan_id":"cebpf4jnsgd1na2vs0mg"},{"bike_id":"22e357fa-c099-46f6-b123-0f532103db8c","system_id":"levelo_inurba_marseille","lat":43.31327,"lon":5.39694,"is_reserved":false,"is_disabled":false,"rental_uris":{"android":"levelo://app?vid=22e357fa-c099-46f6-b123-0f532103db8c","ios":"levelo://app?vid=22e357fa-c099-46f6-b123-0f532103db8c"},"vehicle_type_id":"4","last_reported":1728371319,"current_range_meters":17200,"station_id":"ce4bgvp2rcd13ifvqcu0","pricing_plan_id":"cebpf4jnsgd1na2vs0mg"},{"bike_id":"a070df44-ca49-49b7-b4b2-82f3056092c4","system_id":"levelo_inurba_marseille","lat":43.32479,"lon":5.3657,"is_reserved":false,"is_disabled":false,"rental_uris":{"android":"levelo://app?vid=a070df44-ca49-49b7-b4b2-82f3056092c4","ios":"levelo://app?vid=a070df44-ca49-49b7-b4b2-82f3056092c4"},"vehicle_type_id":"4","last_reported":1728371319,"current_range_meters":29600,"station_id":"ce4bhs12rcd13ifvqhvg","pricing_plan_id":"cebpf4jnsgd1na2vs0mg"},{"bike_id":"f7612392-4f4b-453b-a64c-499de3c2600f","system_id":"levelo_inurba_marseille","lat":43.2417,"lon":5.3639,"is_reserved":false,"is_disabled":false,"rental_uris":{"android":"levelo://app?vid=f7612392-4f4b-453b-a64c-499de3c2600f","ios":"levelo://app?vid=f7612392-4f4b-453b-a64c-499de3c2600f"},"vehicle_type_id":"4","last_reported":1728371319,"current_range_meters":32800,"station_id":"cpo36qri1sfpv3e86is0","pricing_plan_id":"cebpf4jnsgd1na2vs0mg"},{"bike_id":"c4e56026-ef99-4078-aa9f-f2e4e78fcabe","system_id":"levelo_inurba_marseille","lat":43.26215,"lon":5.3744,"is_reserved":false,"is_disabled":false,"rental_uris":{"android":"levelo://app?vid=c4e56026-ef99-4078-aa9f-f2e4e78fcabe","ios":"levelo://app?vid=c4e56026-ef99-4078-aa9f-f2e4e78fcabe"},"vehicle_type_id":"4","last_reported":1728371319,"current_range_meters":38400,"station_id":"ce4bhgp2rcd13ifvqfc0","pricing_plan_id":"cebpf4jnsgd1na2vs0mg"},{"bike_id":"b9f7e217-2396-4f17-99e6-316574934f3f","system_id":"levelo_inurba_marseille","lat":43.284559,"lon":5.358854,"is_reserved":false,"is_disabled":false,"rental_uris":{"android":"levelo://app?vid=b9f7e217-2396-4f17-99e6-316574934f3f","ios":"levelo://app?vid=b9f7e217-2396-4f17-99e6-316574934f3f"},"vehicle_type_id":"4","last_reported":1728371319,"current_range_meters":38800,"station_id":"ce4bhah2rcd13ifvqei0","pricing_plan_id":"cebpf4jnsgd1na2vs0mg"},{"bike_id":"a0a650e6-c87c-4eea-a629-fe9b6c5d380b","system_id":"levelo_inurba_marseille","lat":43.2558,"lon":5.38231,"is_reserved":false,"is_disabled":false,"rental_uris":{"android":"levelo://app?vid=a0a650e6-c87c-4eea-a629-fe9b6c5d380b","ios":"levelo://app?vid=a0a650e6-c87c-4eea-a629-fe9b6c5d380b"},"vehicle_type_id":"4","last_reported":1728371319,"current_range_meters":38000,"station_id":"ce4bhih2rcd13ifvqfs0","pricing_plan_id":"cebpf4jnsgd1na2vs0mg"},{"bike_id":"e7244c4d-5cb8-439c-ad7b-ed13b630c5ff","system_id":"levelo_inurba_marseille","lat":43.32294,"lon":5.38262,"is_reserved":false,"is_disabled":false,"rental_uris":{"android":"levelo://app?vid=e7244c4d-5cb8-439c-ad7b-ed13b630c5ff","ios":"levelo://app?vid=e7244c4d-5cb8-439c-ad7b-ed13b630c5ff"},"vehicle_type_id":"4","last_reported":1728371319,"current_range_meters":38800,"station_id":"ce4bhr12rcd13ifvqhqg","pricing_plan_id":"cebpf4jnsgd1na2vs0mg"},{"bike_id":"94e7b118-5e4b-4650-b3d5-102af5c6bb9b","system_id":"levelo_inurba_marseille","lat":43.30944,"lon":5.39034,"is_reserved":false,"is_disabled":false,"rental_uris":{"android":"levelo://app?vid=94e7b118-5e4b-4650-b3d5-102af5c6bb9b","ios":"levelo://app?vid=94e7b118-5e4b-4650-b3d5-102af5c6bb9b"},"vehicle_type_id":"4","last_reported":1728371319,"current_range_meters":6400,"station_id":"ce4bgup2rcd13ifvqco0","pricing_plan_id":"cebpf4jnsgd1na2vs0mg"},{"bike_id":"5005bbdf-c11c-46c5-8e2f-61b3caedfbd1","system_id":"levelo_inurba_marseille","lat":43.27816,"lon":5.40706,"is_reserved":false,"is_disabled":false,"rental_uris":{"android":"levelo://app?vid=5005bbdf-c11c-46c5-8e2f-61b3caedfbd1","ios":"levelo://app?vid=5005bbdf-c11c-46c5-8e2f-61b3caedfbd1"},"vehicle_type_id":"4","last_reported":1728371319,"current_range_meters":38800,"station_id":"ce4bhnh2rcd13ifvqgtg","pricing_plan_id":"cebpf4jnsgd1na2vs0mg"},{"bike_id":"c5c92b30-a4fd-4638-95c2-adacabee43d1","system_id":"levelo_inurba_marseille","lat":43.25579,"lon":5.38235,"is_reserved":false,"is_disabled":false,"rental_uris":{"android":"levelo://app?vid=c5c92b30-a4fd-4638-95c2-adacabee43d1","ios":"levelo://app?vid=c5c92b30-a4fd-4638-95c2-adacabee43d1"},"vehicle_type_id":"4","last_reported":1728371319,"current_range_meters":16800,"station_id":"ce4bhih2rcd13ifvqfs0","pricing_plan_id":"cebpf4jnsgd1na2vs0mg"},{"bike_id":"0a8ccba5-237d-43b9-a077-96384e616267","system_id":"levelo_inurba_marseille","lat":43.25932,"lon":5.40915,"is_reserved":false,"is_disabled":false,"rental_uris":{"android":"levelo://app?vid=0a8ccba5-237d-43b9-a077-96384e616267","ios":"levelo://app?vid=0a8ccba5-237d-43b9-a077-96384e616267"},"vehicle_type_id":"4","last_reported":1728371319,"current_range_meters":23200,"station_id":"ce4bhm92rcd13ifvqglg","pricing_plan_id":"cebpf4jnsgd1na2vs0mg"},{"bike_id":"87ea1288-b035-4368-87b6-a8a946f83189","system_id":"levelo_inurba_marseille","lat":43.30906,"lon":5.36844,"is_reserved":false,"is_disabled":false,"rental_uris":{"android":"levelo://app?vid=87ea1288-b035-4368-87b6-a8a946f83189","ios":"levelo://app?vid=87ea1288-b035-4368-87b6-a8a946f83189"},"vehicle_type_id":"4","last_reported":1728371319,"current_range_meters":36800,"station_id":"ce4bgn92rcd13ifvqbvg","pricing_plan_id":"cebpf4jnsgd1na2vs0mg"},{"bike_id":"b356d79d-0fab-4432-9bdf-f65dc71a7233","system_id":"levelo_inurba_marseille","lat":43.30556,"lon":5.36548,"is_reserved":false,"is_disabled":false,"rental_uris":{"android":"levelo://app?vid=b356d79d-0fab-4432-9bdf-f65dc71a7233","ios":"levelo://app?vid=b356d79d-0fab-4432-9bdf-f65dc71a7233"},"vehicle_type_id":"4","last_reported":1728371319,"current_range_meters":39200,"station_id":"ce4bgs12rcd13ifvqcag","pricing_plan_id":"cebpf4jnsgd1na2vs0mg"},{"bike_id":"cf927195-cafe-4fe6-8a9b-b503bf9be2b0","system_id":"levelo_inurba_marseille","lat":43.23187,"lon":5.39984,"is_reserved":false,"is_disabled":false,"rental_uris":{"android":"levelo://app?vid=cf927195-cafe-4fe6-8a9b-b503bf9be2b0","ios":"levelo://app?vid=cf927195-cafe-4fe6-8a9b-b503bf9be2b0"},"vehicle_type_id":"4","last_reported":1728371319,"current_range_meters":38400,"station_id":"ce4bhn12rcd13ifvqgqg","pricing_plan_id":"cebpf4jnsgd1na2vs0mg"},{"bike_id":"76129591-a613-4282-b41e-158cb3581308","system_id":"levelo_inurba_marseille","lat":43.28849,"lon":5.39321,"is_reserved":false,"is_disabled":false,"rental_uris":{"android":"levelo://app?vid=76129591-a613-4282-b41e-158cb3581308","ios":"levelo://app?vid=76129591-a613-4282-b41e-158cb3581308"},"vehicle_type_id":"4","last_reported":1728371319,"current_range_meters":35200,"station_id":"ce4bh2p2rcd13ifvqdi0","pricing_plan_id":"cebpf4jnsgd1na2vs0mg"},{"bike_id":"22942128-eccb-447c-a404-8ab36ea27ffe","system_id":"levelo_inurba_marseille","lat":43.2594,"lon":5.40906,"is_reserved":false,"is_disabled":false,"rental_uris":{"android":"levelo://app?vid=22942128-eccb-447c-a404-8ab36ea27ffe","ios":"levelo://app?vid=22942128-eccb-447c-a404-8ab36ea27ffe"},"vehicle_type_id":"4","last_reported":1728371319,"current_range_meters":38000,"station_id":"ce4bhm92rcd13ifvqglg","pricing_plan_id":"cebpf4jnsgd1na2vs0mg"},{"bike_id":"09ce3500-b0d5-4223-a216-b8cfc269fa02","system_id":"levelo_inurba_marseille","lat":43.25579,"lon":5.38232,"is_reserved":false,"is_disabled":false,"rental_uris":{"android":"levelo://app?vid=09ce3500-b0d5-4223-a216-b8cfc269fa02","ios":"levelo://app?vid=09ce3500-b0d5-4223-a216-b8cfc269fa02"},"vehicle_type_id":"4","last_reported":1728371319,"current_range_meters":9600,"station_id":"ce4bhih2rcd13ifvqfs0","pricing_plan_id":"cebpf4jnsgd1na2vs0mg"},{"bike_id":"a742162b-a743-4da4-b4f1-018350754460","system_id":"levelo_inurba_marseille","lat":43.32366,"lon":5.38896,"is_reserved":false,"is_disabled":false,"rental_uris":{"android":"levelo://app?vid=a742162b-a743-4da4-b4f1-018350754460","ios":"levelo://app?vid=a742162b-a743-4da4-b4f1-018350754460"},"vehicle_type_id":"4","last_reported":1728371319,"current_range_meters":37600,"station_id":"ce4bhqp2rcd13ifvqhog","pricing_plan_id":"cebpf4jnsgd1na2vs0mg"},{"bike_id":"b0be541c-b486-4caf-8bf5-561e45d26d43","system_id":"levelo_inurba_marseille","lat":43.27203,"lon":5.39181,"is_reserved":false,"is_disabled":false,"rental_uris":{"android":"levelo://app?vid=b0be541c-b486-4caf-8bf5-561e45d26d43","ios":"levelo://app?vid=b0be541c-b486-4caf-8bf5-561e45d26d43"},"vehicle_type_id":"4","last_reported":1728371319,"current_range_meters":20000,"station_id":"ce4bhhp2rcd13ifvqfm0","pricing_plan_id":"cebpf4jnsgd1na2vs0mg"},{"bike_id":"542404d0-7ad8-4d88-9837-14b7ea9cdc5a","system_id":"levelo_inurba_marseille","lat":43.31716,"lon":5.43707,"is_reserved":false,"is_disabled":false,"rental_uris":{"android":"levelo://app?vid=542404d0-7ad8-4d88-9837-14b7ea9cdc5a","ios":"levelo://app?vid=542404d0-7ad8-4d88-9837-14b7ea9cdc5a"},"vehicle_type_id":"4","last_reported":1728371319,"current_range_meters":38400,"station_id":"ce4bhp92rcd13ifvqhcg","pricing_plan_id":"cebpf4jnsgd1na2vs0mg"},{"bike_id":"a774f550-3ce3-43eb-9d80-b5fdc228d567","system_id":"levelo_inurba_marseille","lat":43.31067,"lon":5.38348,"is_reserved":false,"is_disabled":false,"rental_uris":{"android":"levelo://app?vid=a774f550-3ce3-43eb-9d80-b5fdc228d567","ios":"levelo://app?vid=a774f550-3ce3-43eb-9d80-b5fdc228d567"},"vehicle_type_id":"4","last_reported":1728371319,"current_range_meters":37600,"station_id":"ce4bgv92rcd13ifvqcr0","pricing_plan_id":"cebpf4jnsgd1na2vs0mg"},{"bike_id":"6731d1b1-b391-47f7-84a2-e5222ded00d2","system_id":"levelo_inurba_marseille","lat":43.33025,"lon":5.3904,"is_reserved":false,"is_disabled":false,"rental_uris":{"android":"levelo://app?vid=6731d1b1-b391-47f7-84a2-e5222ded00d2","ios":"levelo://app?vid=6731d1b1-b391-47f7-84a2-e5222ded00d2"},"vehicle_type_id":"4","last_reported":1728371319,"current_range_meters":26800,"station_id":"ce4bhr92rcd13ifvqhrg","pricing_plan_id":"cebpf4jnsgd1na2vs0mg"},{"bike_id":"efe63f53-1625-4db0-9257-be14059d9f4d","system_id":"levelo_inurba_marseille","lat":43.30933,"lon":5.40134,"is_reserved":false,"is_disabled":false,"rental_uris":{"android":"levelo://app?vid=efe63f53-1625-4db0-9257-be14059d9f4d","ios":"levelo://app?vid=efe63f53-1625-4db0-9257-be14059d9f4d"},"vehicle_type_id":"4","last_reported":1728371319,"current_range_meters":32000,"station_id":"ce4bgvp2rcd13ifvqct0","pricing_plan_id":"cebpf4jnsgd1na2vs0mg"},{"bike_id":"c49a7ec7-b5e3-4704-bc56-e84b37bb455b","system_id":"levelo_inurba_marseille","lat":43.23963,"lon":5.36631,"is_reserved":false,"is_disabled":false,"rental_uris":{"android":"levelo://app?vid=c49a7ec7-b5e3-4704-bc56-e84b37bb455b","ios":"levelo://app?vid=c49a7ec7-b5e3-4704-bc56-e84b37bb455b"},"vehicle_type_id":"4","last_reported":1728371319,"current_range_meters":32400,"station_id":"ce4bhi12rcd13ifvqfp0","pricing_plan_id":"cebpf4jnsgd1na2vs0mg"},{"bike_id":"bbbd13b6-ea15-4495-bfdc-94e30fe3abb0","system_id":"levelo_inurba_marseille","lat":43.30351,"lon":5.41872,"is_reserved":false,"is_disabled":false,"rental_uris":{"android":"levelo://app?vid=bbbd13b6-ea15-4495-bfdc-94e30fe3abb0","ios":"levelo://app?vid=bbbd13b6-ea15-4495-bfdc-94e30fe3abb0"},"vehicle_type_id":"4","last_reported":1728371319,"current_range_meters":38000,"station_id":"ce4bhop2rcd13ifvqh7g","pricing_plan_id":"cebpf4jnsgd1na2vs0mg"},{"bike_id":"a3b71dc0-cf67-4b5c-be22-5b2a33c64592","system_id":"levelo_inurba_marseille","lat":43.31342,"lon":5.36734,"is_reserved":false,"is_disabled":false,"rental_uris":{"android":"levelo://app?vid=a3b71dc0-cf67-4b5c-be22-5b2a33c64592","ios":"levelo://app?vid=a3b71dc0-cf67-4b5c-be22-5b2a33c64592"},"vehicle_type_id":"4","last_reported":1728371319,"current_range_meters":27600,"station_id":"ce4bgr92rcd13ifvqc6g","pricing_plan_id":"cebpf4jnsgd1na2vs0mg"},{"bike_id":"cf438c20-8efe-4192-b15b-c6130f1961bb","system_id":"levelo_inurba_marseille","lat":43.29371,"lon":5.37864,"is_reserved":false,"is_disabled":false,"rental_uris":{"android":"levelo://app?vid=cf438c20-8efe-4192-b15b-c6130f1961bb","ios":"levelo://app?vid=cf438c20-8efe-4192-b15b-c6130f1961bb"},"vehicle_type_id":"4","last_reported":1728371319,"current_range_meters":38000,"station_id":"ce4bgjh2rcd13ifvqbf0","pricing_plan_id":"cebpf4jnsgd1na2vs0mg"},{"bike_id":"8c57ef0e-a429-4a21-8b4d-70eeecda1108","system_id":"levelo_inurba_marseille","lat":43.25937,"lon":5.40902,"is_reserved":false,"is_disabled":false,"rental_uris":{"android":"levelo://app?vid=8c57ef0e-a429-4a21-8b4d-70eeecda1108","ios":"levelo://app?vid=8c57ef0e-a429-4a21-8b4d-70eeecda1108"},"vehicle_type_id":"4","last_reported":1728371319,"current_range_meters":12400,"station_id":"ce4bhm92rcd13ifvqglg","pricing_plan_id":"cebpf4jnsgd1na2vs0mg"},{"bike_id":"c1975eeb-029e-4d79-92b5-3c802b1901e0","system_id":"levelo_inurba_marseille","lat":43.28466,"lon":5.35891,"is_reserved":false,"is_disabled":false,"rental_uris":{"android":"levelo://app?vid=c1975eeb-029e-4d79-92b5-3c802b1901e0","ios":"levelo://app?vid=c1975eeb-029e-4d79-92b5-3c802b1901e0"},"vehicle_type_id":"4","last_reported":1728371319,"current_range_meters":30800,"station_id":"ce4bhah2rcd13ifvqei0","pricing_plan_id":"cebpf4jnsgd1na2vs0mg"},{"bike_id":"1e988290-55c9-424f-98ec-3e019277f83d","system_id":"levelo_inurba_marseille","lat":43.26063,"lon":5.39392,"is_reserved":false,"is_disabled":false,"rental_uris":{"android":"levelo://app?vid=1e988290-55c9-424f-98ec-3e019277f83d","ios":"levelo://app?vid=1e988290-55c9-424f-98ec-3e019277f83d"},"vehicle_type_id":"4","last_reported":1728371319,"current_range_meters":38400,"station_id":"ce4bhh92rcd13ifvqfj0","pricing_plan_id":"cebpf4jnsgd1na2vs0mg"},{"bike_id":"f1510c6a-ec9a-4cb6-ba53-8ced3616703a","system_id":"levelo_inurba_marseille","lat":43.32478,"lon":5.36573,"is_reserved":false,"is_disabled":false,"rental_uris":{"android":"levelo://app?vid=f1510c6a-ec9a-4cb6-ba53-8ced3616703a","ios":"levelo://app?vid=f1510c6a-ec9a-4cb6-ba53-8ced3616703a"},"vehicle_type_id":"4","last_reported":1728371319,"current_range_meters":38400,"station_id":"ce4bhs12rcd13ifvqhvg","pricing_plan_id":"cebpf4jnsgd1na2vs0mg"},{"bike_id":"09ef71aa-0817-4eb5-83ac-bde0ebd31387","system_id":"levelo_inurba_marseille","lat":43.32365,"lon":5.38884,"is_reserved":false,"is_disabled":false,"rental_uris":{"android":"levelo://app?vid=09ef71aa-0817-4eb5-83ac-bde0ebd31387","ios":"levelo://app?vid=09ef71aa-0817-4eb5-83ac-bde0ebd31387"},"vehicle_type_id":"4","last_reported":1728371319,"current_range_meters":38000,"station_id":"ce4bhqp2rcd13ifvqhog","pricing_plan_id":"cebpf4jnsgd1na2vs0mg"},{"bike_id":"dfd8c5a1-8a93-4f4d-a10a-749816e7c454","system_id":"levelo_inurba_marseille","lat":43.24072,"lon":5.37762,"is_reserved":false,"is_disabled":false,"rental_uris":{"android":"levelo://app?vid=dfd8c5a1-8a93-4f4d-a10a-749816e7c454","ios":"levelo://app?vid=dfd8c5a1-8a93-4f4d-a10a-749816e7c454"},"vehicle_type_id":"4","last_reported":1728371319,"current_range_meters":36400,"station_id":"ce4bhnp2rcd13ifvqgvg","pricing_plan_id":"cebpf4jnsgd1na2vs0mg"},{"bike_id":"6e14ac97-d5ce-4f91-b9ed-3d3c9175f77d","system_id":"levelo_inurba_marseille","lat":43.30655,"lon":5.40086,"is_reserved":false,"is_disabled":false,"rental_uris":{"android":"levelo://app?vid=6e14ac97-d5ce-4f91-b9ed-3d3c9175f77d","ios":"levelo://app?vid=6e14ac97-d5ce-4f91-b9ed-3d3c9175f77d"},"vehicle_type_id":"4","last_reported":1728371319,"current_range_meters":29600,"station_id":"ce4bh112rcd13ifvqda0","pricing_plan_id":"cebpf4jnsgd1na2vs0mg"},{"bike_id":"6826c930-8aa2-4db5-96a6-4b67fd5214fe","system_id":"levelo_inurba_marseille","lat":43.28268,"lon":5.35065,"is_reserved":false,"is_disabled":false,"rental_uris":{"android":"levelo://app?vid=6826c930-8aa2-4db5-96a6-4b67fd5214fe","ios":"levelo://app?vid=6826c930-8aa2-4db5-96a6-4b67fd5214fe"},"vehicle_type_id":"4","last_reported":1728371319,"current_range_meters":38400,"station_id":"ce4bhbp2rcd13ifvqerg","pricing_plan_id":"cebpf4jnsgd1na2vs0mg"},{"bike_id":"c7c933ea-453c-4444-a304-2fa069327739","system_id":"levelo_inurba_marseille","lat":43.23065,"lon":5.35493,"is_reserved":false,"is_disabled":false,"rental_uris":{"android":"levelo://app?vid=c7c933ea-453c-4444-a304-2fa069327739","ios":"levelo://app?vid=c7c933ea-453c-4444-a304-2fa069327739"},"vehicle_type_id":"4","last_reported":1728371319,"current_range_meters":8400,"station_id":"cpo3342slgdg3j2ifvpg","pricing_plan_id":"cebpf4jnsgd1na2vs0mg"},{"bike_id":"90786cbd-eb4b-4172-b839-489cac0abc1b","system_id":"levelo_inurba_marseille","lat":43.3014,"lon":5.37402,"is_reserved":false,"is_disabled":false,"rental_uris":{"android":"levelo://app?vid=90786cbd-eb4b-4172-b839-489cac0abc1b","ios":"levelo://app?vid=90786cbd-eb4b-4172-b839-489cac0abc1b"},"vehicle_type_id":"4","last_reported":1728371319,"current_range_meters":23200,"station_id":"ce4bgs92rcd13ifvqcc0","pricing_plan_id":"cebpf4jnsgd1na2vs0mg"},{"bike_id":"0be0703a-3e82-4555-835c-8e9bfe177f7d","system_id":"levelo_inurba_marseille","lat":43.285004,"lon":5.359868,"is_reserved":false,"is_disabled":false,"rental_uris":{"android":"levelo://app?vid=0be0703a-3e82-4555-835c-8e9bfe177f7d","ios":"levelo://app?vid=0be0703a-3e82-4555-835c-8e9bfe177f7d"},"vehicle_type_id":"4","last_reported":1728371319,"current_range_meters":39200,"station_id":"ce4bh692rcd13ifvqe90","pricing_plan_id":"cebpf4jnsgd1na2vs0mg"},{"bike_id":"a8577d5d-bfb0-44ae-a8d2-f3f129896291","system_id":"levelo_inurba_marseille","lat":43.2857,"lon":5.3949,"is_reserved":false,"is_disabled":false,"rental_uris":{"android":"levelo://app?vid=a8577d5d-bfb0-44ae-a8d2-f3f129896291","ios":"levelo://app?vid=a8577d5d-bfb0-44ae-a8d2-f3f129896291"},"vehicle_type_id":"4","last_reported":1728371319,"current_range_meters":29600,"station_id":"ce4bh292rcd13ifvqdg0","pricing_plan_id":"cebpf4jnsgd1na2vs0mg"},{"bike_id":"7a284141-427f-4b3a-b279-a9138bc649ca","system_id":"levelo_inurba_marseille","lat":43.33024,"lon":5.39042,"is_reserved":false,"is_disabled":false,"rental_uris":{"android":"levelo://app?vid=7a284141-427f-4b3a-b279-a9138bc649ca","ios":"levelo://app?vid=7a284141-427f-4b3a-b279-a9138bc649ca"},"vehicle_type_id":"4","last_reported":1728371319,"current_range_meters":38000,"station_id":"ce4bhr92rcd13ifvqhrg","pricing_plan_id":"cebpf4jnsgd1na2vs0mg"},{"bike_id":"c190b4a1-ea1d-47e2-b2e8-eefa3099f9cc","system_id":"levelo_inurba_marseille","lat":43.23192,"lon":5.35552,"is_reserved":false,"is_disabled":false,"rental_uris":{"android":"levelo://app?vid=c190b4a1-ea1d-47e2-b2e8-eefa3099f9cc","ios":"levelo://app?vid=c190b4a1-ea1d-47e2-b2e8-eefa3099f9cc"},"vehicle_type_id":"4","last_reported":1728371319,"current_range_meters":36800,"station_id":"ce4bhu92rcd13ifvqi70","pricing_plan_id":"cebpf4jnsgd1na2vs0mg"},{"bike_id":"6f34ba66-dc7e-4580-ad03-13f9f6e9f96e","system_id":"levelo_inurba_marseille","lat":43.32494,"lon":5.36555,"is_reserved":false,"is_disabled":false,"rental_uris":{"android":"levelo://app?vid=6f34ba66-dc7e-4580-ad03-13f9f6e9f96e","ios":"levelo://app?vid=6f34ba66-dc7e-4580-ad03-13f9f6e9f96e"},"vehicle_type_id":"4","last_reported":1728371319,"current_range_meters":38800,"station_id":"ce4bhs12rcd13ifvqhvg","pricing_plan_id":"cebpf4jnsgd1na2vs0mg"},{"bike_id":"ff5ba5ff-b9bc-44eb-9be7-e35bd733d917","system_id":"levelo_inurba_marseille","lat":43.24169,"lon":5.36396,"is_reserved":false,"is_disabled":false,"rental_uris":{"android":"levelo://app?vid=ff5ba5ff-b9bc-44eb-9be7-e35bd733d917","ios":"levelo://app?vid=ff5ba5ff-b9bc-44eb-9be7-e35bd733d917"},"vehicle_type_id":"4","last_reported":1728371319,"current_range_meters":37600,"station_id":"cpo36qri1sfpv3e86is0","pricing_plan_id":"cebpf4jnsgd1na2vs0mg"},{"bike_id":"cb993cbe-db88-4a1d-8894-70c8e679ff80","system_id":"levelo_inurba_marseille","lat":43.27497,"lon":5.42449,"is_reserved":false,"is_disabled":false,"rental_uris":{"android":"levelo://app?vid=cb993cbe-db88-4a1d-8894-70c8e679ff80","ios":"levelo://app?vid=cb993cbe-db88-4a1d-8894-70c8e679ff80"},"vehicle_type_id":"4","last_reported":1728371319,"current_range_meters":36400,"station_id":"ce4bhn92rcd13ifvqgrg","pricing_plan_id":"cebpf4jnsgd1na2vs0mg"},{"bike_id":"2f072722-fd70-4c7d-97e1-d42f7892e2f2","system_id":"levelo_inurba_marseille","lat":43.30531,"lon":5.36702,"is_reserved":false,"is_disabled":false,"rental_uris":{"android":"levelo://app?vid=2f072722-fd70-4c7d-97e1-d42f7892e2f2","ios":"levelo://app?vid=2f072722-fd70-4c7d-97e1-d42f7892e2f2"},"vehicle_type_id":"4","last_reported":1728371319,"current_range_meters":32400,"station_id":"ce4bgrp2rcd13ifvqc9g","pricing_plan_id":"cebpf4jnsgd1na2vs0mg"},{"bike_id":"1350fd2c-b9e9-43cd-9325-cd67b9835ac5","system_id":"levelo_inurba_marseille","lat":43.28456,"lon":5.35888,"is_reserved":false,"is_disabled":false,"rental_uris":{"android":"levelo://app?vid=1350fd2c-b9e9-43cd-9325-cd67b9835ac5","ios":"levelo://app?vid=1350fd2c-b9e9-43cd-9325-cd67b9835ac5"},"vehicle_type_id":"4","last_reported":1728371319,"current_range_meters":38800,"station_id":"ce4bhah2rcd13ifvqei0","pricing_plan_id":"cebpf4jnsgd1na2vs0mg"},{"bike_id":"f1a587de-a4d9-42a8-8fe6-d4518f6dd1b0","system_id":"levelo_inurba_marseille","lat":43.23064,"lon":5.35492,"is_reserved":false,"is_disabled":false,"rental_uris":{"android":"levelo://app?vid=f1a587de-a4d9-42a8-8fe6-d4518f6dd1b0","ios":"levelo://app?vid=f1a587de-a4d9-42a8-8fe6-d4518f6dd1b0"},"vehicle_type_id":"4","last_reported":1728371319,"current_range_meters":8400,"station_id":"cpo3342slgdg3j2ifvpg","pricing_plan_id":"cebpf4jnsgd1na2vs0mg"},{"bike_id":"6b4618ac-bf15-42bd-b8ce-f62f3e28352b","system_id":"levelo_inurba_marseille","lat":43.23194,"lon":5.35555,"is_reserved":false,"is_disabled":false,"rental_uris":{"android":"levelo://app?vid=6b4618ac-bf15-42bd-b8ce-f62f3e28352b","ios":"levelo://app?vid=6b4618ac-bf15-42bd-b8ce-f62f3e28352b"},"vehicle_type_id":"4","last_reported":1728371319,"current_range_meters":28400,"station_id":"ce4bhu92rcd13ifvqi70","pricing_plan_id":"cebpf4jnsgd1na2vs0mg"},{"bike_id":"cc7f5472-6b9e-4cc3-bb4c-209f2ed90b9e","system_id":"levelo_inurba_marseille","lat":43.23856,"lon":5.38224,"is_reserved":false,"is_disabled":false,"rental_uris":{"android":"levelo://app?vid=cc7f5472-6b9e-4cc3-bb4c-209f2ed90b9e","ios":"levelo://app?vid=cc7f5472-6b9e-4cc3-bb4c-209f2ed90b9e"},"vehicle_type_id":"4","last_reported":1728371319,"current_range_meters":11600,"station_id":"ce4bhnp2rcd13ifvqgvg","pricing_plan_id":"cebpf4jnsgd1na2vs0mg"},{"bike_id":"982c0132-b6ab-4ea6-b543-88abb46ddc67","system_id":"levelo_inurba_marseille","lat":43.26792,"lon":5.39411,"is_reserved":false,"is_disabled":false,"rental_uris":{"android":"levelo://app?vid=982c0132-b6ab-4ea6-b543-88abb46ddc67","ios":"levelo://app?vid=982c0132-b6ab-4ea6-b543-88abb46ddc67"},"vehicle_type_id":"4","last_reported":1728371319,"current_range_meters":6400,"station_id":"ce4bhh12rcd13ifvqfg0","pricing_plan_id":"cebpf4jnsgd1na2vs0mg"},{"bike_id":"24de9f65-9f62-46f2-a55b-39194eb1533d","system_id":"levelo_inurba_marseille","lat":43.31329,"lon":5.39699,"is_reserved":false,"is_disabled":false,"rental_uris":{"android":"levelo://app?vid=24de9f65-9f62-46f2-a55b-39194eb1533d","ios":"levelo://app?vid=24de9f65-9f62-46f2-a55b-39194eb1533d"},"vehicle_type_id":"4","last_reported":1728371319,"current_range_meters":9600,"station_id":"ce4bgvp2rcd13ifvqcu0","pricing_plan_id":"cebpf4jnsgd1na2vs0mg"},{"bike_id":"0218b9f9-b9b4-4283-b620-9f734f674b51","system_id":"levelo_inurba_marseille","lat":43.30538,"lon":5.36562,"is_reserved":false,"is_disabled":false,"rental_uris":{"android":"levelo://app?vid=0218b9f9-b9b4-4283-b620-9f734f674b51","ios":"levelo://app?vid=0218b9f9-b9b4-4283-b620-9f734f674b51"},"vehicle_type_id":"4","last_reported":1728371319,"current_range_meters":2000,"station_id":"ce4bgs12rcd13ifvqcag","pricing_plan_id":"cebpf4jnsgd1na2vs0mg"},{"bike_id":"1a441d12-37af-4ce3-9086-170fa5ade927","system_id":"levelo_inurba_marseille","lat":43.32536,"lon":5.41419,"is_reserved":false,"is_disabled":false,"rental_uris":{"android":"levelo://app?vid=1a441d12-37af-4ce3-9086-170fa5ade927","ios":"levelo://app?vid=1a441d12-37af-4ce3-9086-170fa5ade927"},"vehicle_type_id":"4","last_reported":1728371319,"current_range_meters":22400,"station_id":"ce4bhq12rcd13ifvqhhg","pricing_plan_id":"cebpf4jnsgd1na2vs0mg"},{"bike_id":"997d8b24-24ff-4eb2-91bc-9f93e5ee6397","system_id":"levelo_inurba_marseille","lat":43.26494,"lon":5.39547,"is_reserved":false,"is_disabled":false,"rental_uris":{"android":"levelo://app?vid=997d8b24-24ff-4eb2-91bc-9f93e5ee6397","ios":"levelo://app?vid=997d8b24-24ff-4eb2-91bc-9f93e5ee6397"},"vehicle_type_id":"4","last_reported":1728371319,"current_range_meters":28400,"station_id":"ce4bhi12rcd13ifvqfq0","pricing_plan_id":"cebpf4jnsgd1na2vs0mg"},{"bike_id":"b21d74f7-f353-4bc0-8c95-a5aada38b0ee","system_id":"levelo_inurba_marseille","lat":43.2558,"lon":5.38235,"is_reserved":false,"is_disabled":false,"rental_uris":{"android":"levelo://app?vid=b21d74f7-f353-4bc0-8c95-a5aada38b0ee","ios":"levelo://app?vid=b21d74f7-f353-4bc0-8c95-a5aada38b0ee"},"vehicle_type_id":"4","last_reported":1728371319,"current_range_meters":38000,"station_id":"ce4bhih2rcd13ifvqfs0","pricing_plan_id":"cebpf4jnsgd1na2vs0mg"},{"bike_id":"dafbe001-ebbb-4e98-b3d7-c871b5fc47e0","system_id":"levelo_inurba_marseille","lat":43.31351,"lon":5.36709,"is_reserved":false,"is_disabled":false,"rental_uris":{"android":"levelo://app?vid=dafbe001-ebbb-4e98-b3d7-c871b5fc47e0","ios":"levelo://app?vid=dafbe001-ebbb-4e98-b3d7-c871b5fc47e0"},"vehicle_type_id":"4","last_reported":1728371319,"current_range_meters":32400,"station_id":"ce4bgr92rcd13ifvqc6g","pricing_plan_id":"cebpf4jnsgd1na2vs0mg"},{"bike_id":"8c071b9e-2db5-4e0d-a9f9-97dc98100095","system_id":"levelo_inurba_marseille","lat":43.23152,"lon":5.43703,"is_reserved":false,"is_disabled":false,"rental_uris":{"android":"levelo://app?vid=8c071b9e-2db5-4e0d-a9f9-97dc98100095","ios":"levelo://app?vid=8c071b9e-2db5-4e0d-a9f9-97dc98100095"},"vehicle_type_id":"4","last_reported":1728371319,"current_range_meters":29600,"station_id":"ce4bhmp2rcd13ifvqgog","pricing_plan_id":"cebpf4jnsgd1na2vs0mg"},{"bike_id":"9f7bb594-fb34-4e78-a4aa-b9e9b8fc8e6a","system_id":"levelo_inurba_marseille","lat":43.31326,"lon":5.39694,"is_reserved":false,"is_disabled":false,"rental_uris":{"android":"levelo://app?vid=9f7bb594-fb34-4e78-a4aa-b9e9b8fc8e6a","ios":"levelo://app?vid=9f7bb594-fb34-4e78-a4aa-b9e9b8fc8e6a"},"vehicle_type_id":"4","last_reported":1728371319,"current_range_meters":40000,"station_id":"ce4bgvp2rcd13ifvqcu0","pricing_plan_id":"cebpf4jnsgd1na2vs0mg"},{"bike_id":"ad6d9e33-5c42-4466-93c0-365a4d4696f9","system_id":"levelo_inurba_marseille","lat":43.31357,"lon":5.38497,"is_reserved":false,"is_disabled":false,"rental_uris":{"android":"levelo://app?vid=ad6d9e33-5c42-4466-93c0-365a4d4696f9","ios":"levelo://app?vid=ad6d9e33-5c42-4466-93c0-365a4d4696f9"},"vehicle_type_id":"4","last_reported":1728371319,"current_range_meters":28400,"station_id":"ce4bgt92rcd13ifvqcf0","pricing_plan_id":"cebpf4jnsgd1na2vs0mg"},{"bike_id":"926380f0-4ec2-45d5-8c58-de39b75f601e","system_id":"levelo_inurba_marseille","lat":43.2306,"lon":5.35493,"is_reserved":false,"is_disabled":false,"rental_uris":{"android":"levelo://app?vid=926380f0-4ec2-45d5-8c58-de39b75f601e","ios":"levelo://app?vid=926380f0-4ec2-45d5-8c58-de39b75f601e"},"vehicle_type_id":"4","last_reported":1728371319,"current_range_meters":9600,"station_id":"cpo3342slgdg3j2ifvpg","pricing_plan_id":"cebpf4jnsgd1na2vs0mg"},{"bike_id":"043eb5a6-5021-4443-9c24-3017c5a226e7","system_id":"levelo_inurba_marseille","lat":43.2861,"lon":5.35098,"is_reserved":false,"is_disabled":false,"rental_uris":{"android":"levelo://app?vid=043eb5a6-5021-4443-9c24-3017c5a226e7","ios":"levelo://app?vid=043eb5a6-5021-4443-9c24-3017c5a226e7"},"vehicle_type_id":"4","last_reported":1728371319,"current_range_meters":24000,"station_id":"ce4bhch2rcd13ifvqeug","pricing_plan_id":"cebpf4jnsgd1na2vs0mg"},{"bike_id":"f236458b-a68f-4be5-ae65-f5ccd4ea25a1","system_id":"levelo_inurba_marseille","lat":43.31987,"lon":5.38129,"is_reserved":false,"is_disabled":false,"rental_uris":{"android":"levelo://app?vid=f236458b-a68f-4be5-ae65-f5ccd4ea25a1","ios":"levelo://app?vid=f236458b-a68f-4be5-ae65-f5ccd4ea25a1"},"vehicle_type_id":"4","last_reported":1728371319,"current_range_meters":38800,"station_id":"ce4bhr12rcd13ifvqhpg","pricing_plan_id":"cebpf4jnsgd1na2vs0mg"},{"bike_id":"404b4697-2249-46d0-afb0-44351c2d122f","system_id":"levelo_inurba_marseille","lat":43.29542,"lon":5.42274,"is_reserved":false,"is_disabled":false,"rental_uris":{"android":"levelo://app?vid=404b4697-2249-46d0-afb0-44351c2d122f","ios":"levelo://app?vid=404b4697-2249-46d0-afb0-44351c2d122f"},"vehicle_type_id":"4","last_reported":1728371319,"current_range_meters":18000,"station_id":"ce4bhph2rcd13ifvqhdg","pricing_plan_id":"cebpf4jnsgd1na2vs0mg"},{"bike_id":"5a5f58a2-6b73-4ffc-8b15-2ebdc68cb38f","system_id":"levelo_inurba_marseille","lat":43.30922,"lon":5.40135,"is_reserved":false,"is_disabled":false,"rental_uris":{"android":"levelo://app?vid=5a5f58a2-6b73-4ffc-8b15-2ebdc68cb38f","ios":"levelo://app?vid=5a5f58a2-6b73-4ffc-8b15-2ebdc68cb38f"},"vehicle_type_id":"4","last_reported":1728371319,"current_range_meters":25600,"station_id":"ce4bgvp2rcd13ifvqct0","pricing_plan_id":"cebpf4jnsgd1na2vs0mg"},{"bike_id":"68147e9d-9b60-404a-89ed-43013ec4a763","system_id":"levelo_inurba_marseille","lat":43.30553,"lon":5.3656,"is_reserved":false,"is_disabled":false,"rental_uris":{"android":"levelo://app?vid=68147e9d-9b60-404a-89ed-43013ec4a763","ios":"levelo://app?vid=68147e9d-9b60-404a-89ed-43013ec4a763"},"vehicle_type_id":"4","last_reported":1728371319,"current_range_meters":37600,"station_id":"ce4bgs12rcd13ifvqcag","pricing_plan_id":"cebpf4jnsgd1na2vs0mg"},{"bike_id":"79c06d44-1cfb-4473-b0cd-9fc54eeab714","system_id":"levelo_inurba_marseille","lat":43.31071,"lon":5.3835,"is_reserved":false,"is_disabled":false,"rental_uris":{"android":"levelo://app?vid=79c06d44-1cfb-4473-b0cd-9fc54eeab714","ios":"levelo://app?vid=79c06d44-1cfb-4473-b0cd-9fc54eeab714"},"vehicle_type_id":"4","last_reported":1728371319,"current_range_meters":25600,"station_id":"ce4bgv92rcd13ifvqcr0","pricing_plan_id":"cebpf4jnsgd1na2vs0mg"},{"bike_id":"b625834a-54ef-4eab-8c9d-e8c85e149a97","system_id":"levelo_inurba_marseille","lat":43.31081,"lon":5.4243,"is_reserved":false,"is_disabled":false,"rental_uris":{"android":"levelo://app?vid=b625834a-54ef-4eab-8c9d-e8c85e149a97","ios":"levelo://app?vid=b625834a-54ef-4eab-8c9d-e8c85e149a97"},"vehicle_type_id":"4","last_reported":1728371319,"current_range_meters":38000,"station_id":"ce4bhp92rcd13ifvqhag","pricing_plan_id":"cebpf4jnsgd1na2vs0mg"},{"bike_id":"63592292-2dc9-4a32-9a4c-38846e6bd417","system_id":"levelo_inurba_marseille","lat":43.3107,"lon":5.3835,"is_reserved":false,"is_disabled":false,"rental_uris":{"android":"levelo://app?vid=63592292-2dc9-4a32-9a4c-38846e6bd417","ios":"levelo://app?vid=63592292-2dc9-4a32-9a4c-38846e6bd417"},"vehicle_type_id":"4","last_reported":1728371319,"current_range_meters":16000,"station_id":"ce4bgv92rcd13ifvqcr0","pricing_plan_id":"cebpf4jnsgd1na2vs0mg"},{"bike_id":"32bc99be-2f4d-4868-bdc0-258063cde47d","system_id":"levelo_inurba_marseille","lat":43.31359,"lon":5.36829,"is_reserved":false,"is_disabled":false,"rental_uris":{"android":"levelo://app?vid=32bc99be-2f4d-4868-bdc0-258063cde47d","ios":"levelo://app?vid=32bc99be-2f4d-4868-bdc0-258063cde47d"},"vehicle_type_id":"4","last_reported":1728371319,"current_range_meters":20400,"station_id":"ce4bgup2rcd13ifvqcn0","pricing_plan_id":"cebpf4jnsgd1na2vs0mg"},{"bike_id":"0fc4071b-24d9-40d3-8249-e1b3d1b77983","system_id":"levelo_inurba_marseille","lat":43.32311,"lon":5.40641,"is_reserved":false,"is_disabled":false,"rental_uris":{"android":"levelo://app?vid=0fc4071b-24d9-40d3-8249-e1b3d1b77983","ios":"levelo://app?vid=0fc4071b-24d9-40d3-8249-e1b3d1b77983"},"vehicle_type_id":"4","last_reported":1728371319,"current_range_meters":38800,"station_id":"ce4bhq92rcd13ifvqhjg","pricing_plan_id":"cebpf4jnsgd1na2vs0mg"},{"bike_id":"59d39fdf-306d-4218-a19c-262b47728bed","system_id":"levelo_inurba_marseille","lat":43.274969,"lon":5.424546,"is_reserved":false,"is_disabled":false,"rental_uris":{"android":"levelo://app?vid=59d39fdf-306d-4218-a19c-262b47728bed","ios":"levelo://app?vid=59d39fdf-306d-4218-a19c-262b47728bed"},"vehicle_type_id":"4","last_reported":1728371319,"current_range_meters":40000,"station_id":"ce4bhn92rcd13ifvqgrg","pricing_plan_id":"cebpf4jnsgd1na2vs0mg"},{"bike_id":"2cfe37f6-d8a6-4a1f-8399-509dfcecb891","system_id":"levelo_inurba_marseille","lat":43.30932,"lon":5.40137,"is_reserved":false,"is_disabled":false,"rental_uris":{"android":"levelo://app?vid=2cfe37f6-d8a6-4a1f-8399-509dfcecb891","ios":"levelo://app?vid=2cfe37f6-d8a6-4a1f-8399-509dfcecb891"},"vehicle_type_id":"4","last_reported":1728371319,"current_range_meters":38800,"station_id":"ce4bgvp2rcd13ifvqct0","pricing_plan_id":"cebpf4jnsgd1na2vs0mg"},{"bike_id":"278b6414-967a-41e9-a68a-1b8d85214884","system_id":"levelo_inurba_marseille","lat":43.30472,"lon":5.37908,"is_reserved":false,"is_disabled":false,"rental_uris":{"android":"levelo://app?vid=278b6414-967a-41e9-a68a-1b8d85214884","ios":"levelo://app?vid=278b6414-967a-41e9-a68a-1b8d85214884"},"vehicle_type_id":"4","last_reported":1728371319,"current_range_meters":34000,"station_id":"ce4bgup2rcd13ifvqcn0","pricing_plan_id":"cebpf4jnsgd1na2vs0mg"},{"bike_id":"67f20e24-a8ef-4518-b9c6-40edc789eb2a","system_id":"levelo_inurba_marseille","lat":43.29037,"lon":5.39968,"is_reserved":false,"is_disabled":false,"rental_uris":{"android":"levelo://app?vid=67f20e24-a8ef-4518-b9c6-40edc789eb2a","ios":"levelo://app?vid=67f20e24-a8ef-4518-b9c6-40edc789eb2a"},"vehicle_type_id":"4","last_reported":1728371319,"current_range_meters":30400,"station_id":"ce4bh392rcd13ifvqdm0","pricing_plan_id":"cebpf4jnsgd1na2vs0mg"},{"bike_id":"e63cbbc3-96e1-4a82-bb9c-5e3779d10128","system_id":"levelo_inurba_marseille","lat":43.31356,"lon":5.36696,"is_reserved":false,"is_disabled":false,"rental_uris":{"android":"levelo://app?vid=e63cbbc3-96e1-4a82-bb9c-5e3779d10128","ios":"levelo://app?vid=e63cbbc3-96e1-4a82-bb9c-5e3779d10128"},"vehicle_type_id":"4","last_reported":1728371319,"current_range_meters":32800,"station_id":"ce4bgr92rcd13ifvqc6g","pricing_plan_id":"cebpf4jnsgd1na2vs0mg"},{"bike_id":"0262b94b-7d5c-4c33-9eb3-0622389b445a","system_id":"levelo_inurba_marseille","lat":43.27431,"lon":5.394,"is_reserved":false,"is_disabled":false,"rental_uris":{"android":"levelo://app?vid=0262b94b-7d5c-4c33-9eb3-0622389b445a","ios":"levelo://app?vid=0262b94b-7d5c-4c33-9eb3-0622389b445a"},"vehicle_type_id":"4","last_reported":1728371319,"current_range_meters":38800,"station_id":"ce4bhdp2rcd13ifvqf20","pricing_plan_id":"cebpf4jnsgd1na2vs0mg"},{"bike_id":"7518b273-f466-4212-b479-0ee01a257114","system_id":"levelo_inurba_marseille","lat":43.29277,"lon":5.40119,"is_reserved":false,"is_disabled":false,"rental_uris":{"android":"levelo://app?vid=7518b273-f466-4212-b479-0ee01a257114","ios":"levelo://app?vid=7518b273-f466-4212-b479-0ee01a257114"},"vehicle_type_id":"4","last_reported":1728371319,"current_range_meters":36000,"station_id":"ce4bh312rcd13ifvqdk0","pricing_plan_id":"cebpf4jnsgd1na2vs0mg"},{"bike_id":"e7b8bbed-dedf-4a98-a0d2-ca122153fa92","system_id":"levelo_inurba_marseille","lat":43.28151,"lon":5.42638,"is_reserved":false,"is_disabled":false,"rental_uris":{"android":"levelo://app?vid=e7b8bbed-dedf-4a98-a0d2-ca122153fa92","ios":"levelo://app?vid=e7b8bbed-dedf-4a98-a0d2-ca122153fa92"},"vehicle_type_id":"4","last_reported":1728371319,"current_range_meters":38400,"station_id":"ce4bhnh2rcd13ifvqgug","pricing_plan_id":"cebpf4jnsgd1na2vs0mg"},{"bike_id":"13ff6795-8a71-4864-a3b8-7020e96cf074","system_id":"levelo_inurba_marseille","lat":43.26208,"lon":5.37443,"is_reserved":false,"is_disabled":false,"rental_uris":{"android":"levelo://app?vid=13ff6795-8a71-4864-a3b8-7020e96cf074","ios":"levelo://app?vid=13ff6795-8a71-4864-a3b8-7020e96cf074"},"vehicle_type_id":"4","last_reported":1728371319,"current_range_meters":38800,"station_id":"ce4bhgp2rcd13ifvqfc0","pricing_plan_id":"cebpf4jnsgd1na2vs0mg"},{"bike_id":"976ed948-598b-4db0-9503-1f109a2db256","system_id":"levelo_inurba_marseille","lat":43.26685,"lon":5.3827,"is_reserved":false,"is_disabled":false,"rental_uris":{"android":"levelo://app?vid=976ed948-598b-4db0-9503-1f109a2db256","ios":"levelo://app?vid=976ed948-598b-4db0-9503-1f109a2db256"},"vehicle_type_id":"4","last_reported":1728371319,"current_range_meters":28400,"station_id":"ce4bhg92rcd13ifvqf90","pricing_plan_id":"cebpf4jnsgd1na2vs0mg"},{"bike_id":"c54f17c1-f488-4066-b337-a77db024e147","system_id":"levelo_inurba_marseille","lat":43.25581,"lon":5.38235,"is_reserved":false,"is_disabled":false,"rental_uris":{"android":"levelo://app?vid=c54f17c1-f488-4066-b337-a77db024e147","ios":"levelo://app?vid=c54f17c1-f488-4066-b337-a77db024e147"},"vehicle_type_id":"4","last_reported":1728371319,"current_range_meters":36800,"station_id":"ce4bhih2rcd13ifvqfs0","pricing_plan_id":"cebpf4jnsgd1na2vs0mg"},{"bike_id":"539f8671-b618-4628-baed-1d3a108837b9","system_id":"levelo_inurba_marseille","lat":43.32479,"lon":5.36568,"is_reserved":false,"is_disabled":false,"rental_uris":{"android":"levelo://app?vid=539f8671-b618-4628-baed-1d3a108837b9","ios":"levelo://app?vid=539f8671-b618-4628-baed-1d3a108837b9"},"vehicle_type_id":"4","last_reported":1728371319,"current_range_meters":30400,"station_id":"ce4bhs12rcd13ifvqhvg","pricing_plan_id":"cebpf4jnsgd1na2vs0mg"},{"bike_id":"af101257-97d8-427d-926c-bfd575a5c827","system_id":"levelo_inurba_marseille","lat":43.23064,"lon":5.3549,"is_reserved":false,"is_disabled":false,"rental_uris":{"android":"levelo://app?vid=af101257-97d8-427d-926c-bfd575a5c827","ios":"levelo://app?vid=af101257-97d8-427d-926c-bfd575a5c827"},"vehicle_type_id":"4","last_reported":1728371319,"current_range_meters":6800,"station_id":"cpo3342slgdg3j2ifvpg","pricing_plan_id":"cebpf4jnsgd1na2vs0mg"},{"bike_id":"79d4ce44-dde0-4856-adfb-9d048612b764","system_id":"levelo_inurba_marseille","lat":43.2417,"lon":5.36399,"is_reserved":false,"is_disabled":false,"rental_uris":{"android":"levelo://app?vid=79d4ce44-dde0-4856-adfb-9d048612b764","ios":"levelo://app?vid=79d4ce44-dde0-4856-adfb-9d048612b764"},"vehicle_type_id":"4","last_reported":1728371319,"current_range_meters":25200,"station_id":"cpo36qri1sfpv3e86is0","pricing_plan_id":"cebpf4jnsgd1na2vs0mg"},{"bike_id":"6362dd7e-711b-4b82-af8e-291ea8f6ea1e","system_id":"levelo_inurba_marseille","lat":43.23065,"lon":5.3549,"is_reserved":false,"is_disabled":false,"rental_uris":{"android":"levelo://app?vid=6362dd7e-711b-4b82-af8e-291ea8f6ea1e","ios":"levelo://app?vid=6362dd7e-711b-4b82-af8e-291ea8f6ea1e"},"vehicle_type_id":"4","last_reported":1728371319,"current_range_meters":22800,"station_id":"cpo3342slgdg3j2ifvpg","pricing_plan_id":"cebpf4jnsgd1na2vs0mg"},{"bike_id":"5113d289-e20c-492f-844f-6188ff718d88","system_id":"levelo_inurba_marseille","lat":43.22937,"lon":5.35375,"is_reserved":false,"is_disabled":false,"rental_uris":{"android":"levelo://app?vid=5113d289-e20c-492f-844f-6188ff718d88","ios":"levelo://app?vid=5113d289-e20c-492f-844f-6188ff718d88"},"vehicle_type_id":"4","last_reported":1728371319,"current_range_meters":28800,"station_id":"cpo3532slgdg3j2ikp40","pricing_plan_id":"cebpf4jnsgd1na2vs0mg"},{"bike_id":"68ae2479-9f54-47f7-afbe-3192efae4820","system_id":"levelo_inurba_marseille","lat":43.29924,"lon":5.37503,"is_reserved":false,"is_disabled":false,"rental_uris":{"android":"levelo://app?vid=68ae2479-9f54-47f7-afbe-3192efae4820","ios":"levelo://app?vid=68ae2479-9f54-47f7-afbe-3192efae4820"},"vehicle_type_id":"4","last_reported":1728371319,"current_range_meters":26800,"station_id":"ce4bgjh2rcd13ifvqbg0","pricing_plan_id":"cebpf4jnsgd1na2vs0mg"},{"bike_id":"7384d5b8-3cc6-48b7-b9f3-61bae51efb51","system_id":"levelo_inurba_marseille","lat":43.2396,"lon":5.36633,"is_reserved":false,"is_disabled":false,"rental_uris":{"android":"levelo://app?vid=7384d5b8-3cc6-48b7-b9f3-61bae51efb51","ios":"levelo://app?vid=7384d5b8-3cc6-48b7-b9f3-61bae51efb51"},"vehicle_type_id":"4","last_reported":1728371319,"current_range_meters":39200,"station_id":"ce4bhi12rcd13ifvqfp0","pricing_plan_id":"cebpf4jnsgd1na2vs0mg"},{"bike_id":"c35fd4e7-3879-45a8-bc86-a3496f8feaf4","system_id":"levelo_inurba_marseille","lat":43.284664,"lon":5.358904,"is_reserved":false,"is_disabled":false,"rental_uris":{"android":"levelo://app?vid=c35fd4e7-3879-45a8-bc86-a3496f8feaf4","ios":"levelo://app?vid=c35fd4e7-3879-45a8-bc86-a3496f8feaf4"},"vehicle_type_id":"4","last_reported":1728371319,"current_range_meters":38800,"station_id":"ce4bhah2rcd13ifvqei0","pricing_plan_id":"cebpf4jnsgd1na2vs0mg"},{"bike_id":"6f8a7975-6a58-48b5-b97b-97a7f50e8e24","system_id":"levelo_inurba_marseille","lat":43.309622,"lon":5.390401,"is_reserved":false,"is_disabled":false,"rental_uris":{"android":"levelo://app?vid=6f8a7975-6a58-48b5-b97b-97a7f50e8e24","ios":"levelo://app?vid=6f8a7975-6a58-48b5-b97b-97a7f50e8e24"},"vehicle_type_id":"4","last_reported":1728371319,"current_range_meters":38800,"station_id":"ce4bgv12rcd13ifvqcp0","pricing_plan_id":"cebpf4jnsgd1na2vs0mg"},{"bike_id":"17e43355-07fa-45b5-bce5-84543494e9f7","system_id":"levelo_inurba_marseille","lat":43.30365,"lon":5.385821,"is_reserved":false,"is_disabled":false,"rental_uris":{"android":"levelo://app?vid=17e43355-07fa-45b5-bce5-84543494e9f7","ios":"levelo://app?vid=17e43355-07fa-45b5-bce5-84543494e9f7"},"vehicle_type_id":"4","last_reported":1728371319,"current_range_meters":28000,"station_id":"ce4bgg92rcd13ifvqb30","pricing_plan_id":"cebpf4jnsgd1na2vs0mg"},{"bike_id":"c67a0a92-d5d5-4ffb-aa5d-c2e2bc5b5e0e","system_id":"levelo_inurba_marseille","lat":43.24815,"lon":5.37455,"is_reserved":false,"is_disabled":false,"rental_uris":{"android":"levelo://app?vid=c67a0a92-d5d5-4ffb-aa5d-c2e2bc5b5e0e","ios":"levelo://app?vid=c67a0a92-d5d5-4ffb-aa5d-c2e2bc5b5e0e"},"vehicle_type_id":"4","last_reported":1728371319,"current_range_meters":30400,"station_id":"ce4bhgh2rcd13ifvqfb0","pricing_plan_id":"cebpf4jnsgd1na2vs0mg"},{"bike_id":"6139596d-bc45-4b14-ba08-335b34b9e02b","system_id":"levelo_inurba_marseille","lat":43.32032,"lon":5.41565,"is_reserved":false,"is_disabled":false,"rental_uris":{"android":"levelo://app?vid=6139596d-bc45-4b14-ba08-335b34b9e02b","ios":"levelo://app?vid=6139596d-bc45-4b14-ba08-335b34b9e02b"},"vehicle_type_id":"4","last_reported":1728371319,"current_range_meters":38000,"station_id":"ce4bhq92rcd13ifvqhkg","pricing_plan_id":"cebpf4jnsgd1na2vs0mg"},{"bike_id":"fbab334e-6568-46ac-88f7-b856d9d2d598","system_id":"levelo_inurba_marseille","lat":43.231959,"lon":5.355522,"is_reserved":false,"is_disabled":false,"rental_uris":{"android":"levelo://app?vid=fbab334e-6568-46ac-88f7-b856d9d2d598","ios":"levelo://app?vid=fbab334e-6568-46ac-88f7-b856d9d2d598"},"vehicle_type_id":"4","last_reported":1728371319,"current_range_meters":39200,"station_id":"ce4bhu92rcd13ifvqi70","pricing_plan_id":"cebpf4jnsgd1na2vs0mg"},{"bike_id":"34dea724-85c3-45ec-8c5a-454a8525aeae","system_id":"levelo_inurba_marseille","lat":43.32483,"lon":5.3657,"is_reserved":false,"is_disabled":false,"rental_uris":{"android":"levelo://app?vid=34dea724-85c3-45ec-8c5a-454a8525aeae","ios":"levelo://app?vid=34dea724-85c3-45ec-8c5a-454a8525aeae"},"vehicle_type_id":"4","last_reported":1728371319,"current_range_meters":37600,"station_id":"ce4bhs12rcd13ifvqhvg","pricing_plan_id":"cebpf4jnsgd1na2vs0mg"},{"bike_id":"54f12ae2-2e0b-4b96-83cf-66a21d401b75","system_id":"levelo_inurba_marseille","lat":43.24646,"lon":5.38893,"is_reserved":false,"is_disabled":false,"rental_uris":{"android":"levelo://app?vid=54f12ae2-2e0b-4b96-83cf-66a21d401b75","ios":"levelo://app?vid=54f12ae2-2e0b-4b96-83cf-66a21d401b75"},"vehicle_type_id":"4","last_reported":1728371319,"current_range_meters":38400,"station_id":"ce4bhg12rcd13ifvqf60","pricing_plan_id":"cebpf4jnsgd1na2vs0mg"},{"bike_id":"42ea332a-4837-40a2-a15d-70a164cc9030","system_id":"levelo_inurba_marseille","lat":43.30665,"lon":5.40079,"is_reserved":false,"is_disabled":false,"rental_uris":{"android":"levelo://app?vid=42ea332a-4837-40a2-a15d-70a164cc9030","ios":"levelo://app?vid=42ea332a-4837-40a2-a15d-70a164cc9030"},"vehicle_type_id":"4","last_reported":1728371319,"current_range_meters":38000,"station_id":"ce4bh112rcd13ifvqda0","pricing_plan_id":"cebpf4jnsgd1na2vs0mg"},{"bike_id":"4749ef33-7e98-49d4-b3a1-dc16547eb302","system_id":"levelo_inurba_marseille","lat":43.30529,"lon":5.36714,"is_reserved":false,"is_disabled":false,"rental_uris":{"android":"levelo://app?vid=4749ef33-7e98-49d4-b3a1-dc16547eb302","ios":"levelo://app?vid=4749ef33-7e98-49d4-b3a1-dc16547eb302"},"vehicle_type_id":"4","last_reported":1728371319,"current_range_meters":36000,"station_id":"ce4bgrp2rcd13ifvqc9g","pricing_plan_id":"cebpf4jnsgd1na2vs0mg"},{"bike_id":"353c6395-5a03-45dd-a855-2ffd45393205","system_id":"levelo_inurba_marseille","lat":43.28355,"lon":5.38097,"is_reserved":false,"is_disabled":false,"rental_uris":{"android":"levelo://app?vid=353c6395-5a03-45dd-a855-2ffd45393205","ios":"levelo://app?vid=353c6395-5a03-45dd-a855-2ffd45393205"},