{"last_updated":1707966529,"ttl":30,"version":"2.2","data":{"bikes":[{"bike_id":"cbae1457-4f6e-4685-8da9-d96b84dc3c37","system_id":"levelo_inurba_marseille","lat":43.31341,"lon":5.367098,"is_reserved":false,"is_disabled":false,"rental_uris":{"android":"levelo://app?vid=cbae1457-4f6e-4685-8da9-d96b84dc3c37","ios":"levelo://app?vid=cbae1457-4f6e-4685-8da9-d96b84dc3c37"},"vehicle_type_id":"4","last_reported":1707966529,"current_range_meters":28000,"station_id":"ce4bgr92rcd13ifvqc6g","pricing_plan_id":"cebpf4jnsgd1na2vs0mg"},{"bike_id":"dac63bb1-dd4a-443f-89e8-547bd8d48034","system_id":"levelo_inurba_marseille","lat":43.31341,"lon":5.367098,"is_reserved":false,"is_disabled":false,"rental_uris":{"android":"levelo://app?vid=dac63bb1-dd4a-443f-89e8-547bd8d48034","ios":"levelo://app?vid=dac63bb1-dd4a-443f-89e8-547bd8d48034"},"vehicle_type_id":"4","last_reported":1707966529,"current_range_meters":30000,"station_id":"ce4bgr92rcd13ifvqc6g","pricing_plan_id":"cebpf4jnsgd1na2vs0mg"},{"bike_id":"8ae179e0-1459-470e-94d1-f7ccd34c23f0","system_id":"levelo_inurba_marseille","lat":43.309076,"lon":5.368465,"is_reserved":false,"is_disabled":false,"rental_uris":{"android":"levelo://app?vid=8ae179e0-1459-470e-94d1-f7ccd34c23f0","ios":"levelo://app?vid=8ae179e0-1459-470e-94d1-f7ccd34c23f0"},"vehicle_type_id":"4","last_reported":1707966529,"current_range_meters":25200,"station_id":"ce4bgn92rcd13ifvqbvg","pricing_plan_id":"cebpf4jnsgd1na2vs0mg"},{"bike_id":"ed352ace-f826-4534-8557-525abc3081ef","system_id":"levelo_inurba_marseille","lat":43.314811,"lon":5.373103,"is_reserved":false,"is_disabled":false,"rental_uris":{"android":"levelo://app?vid=ed352ace-f826-4534-8557-525abc3081ef","ios":"levelo://app?vid=ed352ace-f826-4534-8557-525abc3081ef"},"vehicle_type_id":"4","last_reported":1707966529,"current_range_meters":15600,"station_id":"ce4bgt12rcd13ifvqcd0","pricing_plan_id":"cebpf4jnsgd1na2vs0mg"},{"bike_id":"341c86de-f9e6-474e-96ff-b82c74288de5","system_id":"levelo_inurba_marseille","lat":43.314811,"lon":5.373103,"is_reserved":false,"is_disabled":false,"rental_uris":{"android":"levelo://app?vid=341c86de-f9e6-474e-96ff-b82c74288de5","ios":"levelo://app?vid=341c86de-f9e6-474e-96ff-b82c74288de5"},"vehicle_type_id":"4","last_reported":1707966529,"current_range_meters":20000,"station_id":"ce4bgt12rcd13ifvqcd0","pricing_plan_id":"cebpf4jnsgd1na2vs0mg"},{"bike_id":"dc6a7971-fc5e-4a03-a84a-ace8ddf1f46a","system_id":"levelo_inurba_marseille","lat":43.314811,"lon":5.373103,"is_reserved":false,"is_disabled":false,"rental_uris":{"android":"levelo://app?vid=dc6a7971-fc5e-4a03-a84a-ace8ddf1f46a","ios":"levelo://app?vid=dc6a7971-fc5e-4a03-a84a-ace8ddf1f46a"},"vehicle_type_id":"4","last_reported":1707966529,"current_range_meters":24400,"station_id":"ce4bgt12rcd13ifvqcd0","pricing_plan_id":"cebpf4jnsgd1na2vs0mg"},{"bike_id":"4cacf6ac-ecdf-4902-a5ea-d5c380e87d83","system_id":"levelo_inurba_marseille","lat":43.314811,"lon":5.373103,"is_reserved":false,"is_disabled":false,"rental_uris":{"android":"levelo://app?vid=4cacf6ac-ecdf-4902-a5ea-d5c380e87d83","ios":"levelo://app?vid=4cacf6ac-ecdf-4902-a5ea-d5c380e87d83"},"vehicle_type_id":"4","last_reported":1707966529,"current_range_meters":22400,"station_id":"ce4bgt12rcd13ifvqcd0","pricing_plan_id":"cebpf4jnsgd1na2vs0mg"},{"bike_id":"ad399a15-c6fe-486c-89d0-43cfe634ceb1","system_id":"levelo_inurba_marseille","lat":43.314811,"lon":5.373103,"is_reserved":false,"is_disabled":false,"rental_uris":{"android":"levelo://app?vid=ad399a15-c6fe-486c-89d0-43cfe634ceb1","ios":"levelo://app?vid=ad399a15-c6fe-486c-89d0-43cfe634ceb1"},"vehicle_type_id":"4","last_reported":1707966529,"current_range_meters":16400,"station_id":"ce4bgt12rcd13ifvqcd0","pricing_plan_id":"cebpf4jnsgd1na2vs0mg"},{"bike_id":"c3ccd1ee-82f6-4881-8a25-54efed3a4122","system_id":"levelo_inurba_marseille","lat":43.314811,"lon":5.373103,"is_reserved":false,"is_disabled":false,"rental_uris":{"android":"levelo://app?vid=c3ccd1ee-82f6-4881-8a25-54efed3a4122","ios":"levelo://app?vid=c3ccd1ee-82f6-4881-8a25-54efed3a4122"},"vehicle_type_id":"4","last_reported":1707966529,"current_range_meters":28400,"station_id":"ce4bgt12rcd13ifvqcd0","pricing_plan_id":"cebpf4jnsgd1na2vs0mg"},{"bike_id":"8fe541a6-6964-4f4b-a498-29551a04346c","system_id":"levelo_inurba_marseille","lat":43.314811,"lon":5.373103,"is_reserved":false,"is_disabled":false,"rental_uris":{"android":"levelo://app?vid=8fe541a6-6964-4f4b-a498-29551a04346c","ios":"levelo://app?vid=8fe541a6-6964-4f4b-a498-29551a04346c"},"vehicle_type_id":"4","last_reported":1707966529,"current_range_meters":27600,"station_id":"ce4bgt12rcd13ifvqcd0","pricing_plan_id":"cebpf4jnsgd1na2vs0mg"},{"bike_id":"010698bc-93ad-4f31-ab18-01b9fe9df365","system_id":"levelo_inurba_marseille","lat":43.314809,"lon":5.37309,"is_reserved":false,"is_disabled":false,"rental_uris":{"android":"levelo://app?vid=010698bc-93ad-4f31-ab18-01b9fe9df365","ios":"levelo://app?vid=010698bc-93ad-4f31-ab18-01b9fe9df365"},"vehicle_type_id":"4","last_reported":1707966529,"current_range_meters":20400,"station_id":"","pricing_plan_id":"cebpf4jnsgd1na2vs0mg"},{"bike_id":"efa5831a-ecee-46b1-9313-66cbf5970225","system_id":"levelo_inurba_marseille","lat":43.314811,"lon":5.373103,"is_reserved":false,"is_disabled":false,"rental_uris":{"android":"levelo://app?vid=efa5831a-ecee-46b1-9313-66cbf5970225","ios":"levelo://app?vid=efa5831a-ecee-46b1-9313-66cbf5970225"},"vehicle_type_id":"4","last_reported":1707966529,"current_range_meters":0,"station_id":"ce4bgt12rcd13ifvqcd0","pricing_plan_id":"cebpf4jnsgd1na2vs0mg"},{"bike_id":"3de6263d-7bff-4703-8c51-f7665d9ad4eb","system_id":"levelo_inurba_marseille","lat":43.314811,"lon":5.373104,"is_reserved":false,"is_disabled":false,"rental_uris":{"android":"levelo://app?vid=3de6263d-7bff-4703-8c51-f7665d9ad4eb","ios":"levelo://app?vid=3de6263d-7bff-4703-8c51-f7665d9ad4eb"},"vehicle_type_id":"4","last_reported":1707966529,"current_range_meters":29600,"station_id":"ce4bgt12rcd13ifvqcd0","pricing_plan_id":"cebpf4jnsgd1na2vs0mg"},{"bike_id":"cbb09e4e-bc94-4b18-b374-0c7893ae263e","system_id":"levelo_inurba_marseille","lat":43.309039,"lon":5.371797,"is_reserved":false,"is_disabled":false,"rental_uris":{"android":"levelo://app?vid=cbb09e4e-bc94-4b18-b374-0c7893ae263e","ios":"levelo://app?vid=cbb09e4e-bc94-4b18-b374-0c7893ae263e"},"vehicle_type_id":"4","last_reported":1707966529,"current_range_meters":30800,"station_id":"ce4bguh2rcd13ifvqckg","pricing_plan_id":"cebpf4jnsgd1na2vs0mg"},{"bike_id":"d8cac527-067f-453c-9142-1383f7f64b94","system_id":"levelo_inurba_marseille","lat":43.309039,"lon":5.371797,"is_reserved":false,"is_disabled":false,"rental_uris":{"android":"levelo://app?vid=d8cac527-067f-453c-9142-1383f7f64b94","ios":"levelo://app?vid=d8cac527-067f-453c-9142-1383f7f64b94"},"vehicle_type_id":"4","last_reported":1707966529,"current_range_meters":31200,"station_id":"ce4bguh2rcd13ifvqckg","pricing_plan_id":"cebpf4jnsgd1na2vs0mg"},{"bike_id":"59518e46-1e3c-4007-90e6-85c9454eac7e","system_id":"levelo_inurba_marseille","lat":43.309034,"lon":5.371783,"is_reserved":false,"is_disabled":false,"rental_uris":{"android":"levelo://app?vid=59518e46-1e3c-4007-90e6-85c9454eac7e","ios":"levelo://app?vid=59518e46-1e3c-4007-90e6-85c9454eac7e"},"vehicle_type_id":"4","last_reported":1707966529,"current_range_meters":30000,"station_id":"ce4bguh2rcd13ifvqckg","pricing_plan_id":"cebpf4jnsgd1na2vs0mg"},{"bike_id":"a260498a-a444-4da3-9ae0-187943a25c37","system_id":"levelo_inurba_marseille","lat":43.310889,"lon":5.374931,"is_reserved":false,"is_disabled":false,"rental_uris":{"android":"levelo://app?vid=a260498a-a444-4da3-9ae0-187943a25c37","ios":"levelo://app?vid=a260498a-a444-4da3-9ae0-187943a25c37"},"vehicle_type_id":"4","last_reported":1707966529,"current_range_meters":1600,"station_id":"","pricing_plan_id":"cebpf4jnsgd1na2vs0mg"},{"bike_id":"75aa4acc-1d95-40e3-b4e2-26dc2c841820","system_id":"levelo_inurba_marseille","lat":43.312239,"lon":5.368562,"is_reserved":false,"is_disabled":false,"rental_uris":{"android":"levelo://app?vid=75aa4acc-1d95-40e3-b4e2-26dc2c841820","ios":"levelo://app?vid=75aa4acc-1d95-40e3-b4e2-26dc2c841820"},"vehicle_type_id":"4","last_reported":1707966529,"current_range_meters":28400,"station_id":"ce4bgl92rcd13ifvqbq0","pricing_plan_id":"cebpf4jnsgd1na2vs0mg"},{"bike_id":"6d49b0b9-61d5-41a0-ace4-815f3087d262","system_id":"levelo_inurba_marseille","lat":43.30537,"lon":5.367345,"is_reserved":false,"is_disabled":false,"rental_uris":{"android":"levelo://app?vid=6d49b0b9-61d5-41a0-ace4-815f3087d262","ios":"levelo://app?vid=6d49b0b9-61d5-41a0-ace4-815f3087d262"},"vehicle_type_id":"4","last_reported":1707966529,"current_range_meters":8800,"station_id":"ce4bgrp2rcd13ifvqc9g","pricing_plan_id":"cebpf4jnsgd1na2vs0mg"},{"bike_id":"a5788fc6-9cc5-40f6-809d-2a84b3df21a3","system_id":"levelo_inurba_marseille","lat":43.30537,"lon":5.367345,"is_reserved":false,"is_disabled":false,"rental_uris":{"android":"levelo://app?vid=a5788fc6-9cc5-40f6-809d-2a84b3df21a3","ios":"levelo://app?vid=a5788fc6-9cc5-40f6-809d-2a84b3df21a3"},"vehicle_type_id":"4","last_reported":1707966529,"current_range_meters":17200,"station_id":"ce4bgrp2rcd13ifvqc9g","pricing_plan_id":"cebpf4jnsgd1na2vs0mg"},{"bike_id":"233e376d-e483-44e1-99ef-dd79650777e5","system_id":"levelo_inurba_marseille","lat":43.305714,"lon":5.365633,"is_reserved":false,"is_disabled":false,"rental_uris":{"android":"levelo://app?vid=233e376d-e483-44e1-99ef-dd79650777e5","ios":"levelo://app?vid=233e376d-e483-44e1-99ef-dd79650777e5"},"vehicle_type_id":"4","last_reported":1707966529,"current_range_meters":0,"station_id":"ce4bgs12rcd13ifvqcag","pricing_plan_id":"cebpf4jnsgd1na2vs0mg"},{"bike_id":"495745a7-f104-43d9-bf8e-83f0856748ec","system_id":"levelo_inurba_marseille","lat":43.305706,"lon":5.365654,"is_reserved":false,"is_disabled":false,"rental_uris":{"android":"levelo://app?vid=495745a7-f104-43d9-bf8e-83f0856748ec","ios":"levelo://app?vid=495745a7-f104-43d9-bf8e-83f0856748ec"},"vehicle_type_id":"4","last_reported":1707966529,"current_range_meters":24000,"station_id":"ce4bgs12rcd13ifvqcag","pricing_plan_id":"cebpf4jnsgd1na2vs0mg"},{"bike_id":"85a27858-6e36-4670-af76-06b8c5b3e553","system_id":"levelo_inurba_marseille","lat":43.305989,"lon":5.37225,"is_reserved":false,"is_disabled":false,"rental_uris":{"android":"levelo://app?vid=85a27858-6e36-4670-af76-06b8c5b3e553","ios":"levelo://app?vid=85a27858-6e36-4670-af76-06b8c5b3e553"},"vehicle_type_id":"4","last_reported":1707966529,"current_range_meters":26000,"station_id":"ce4bgqh2rcd13ifvqc4g","pricing_plan_id":"cebpf4jnsgd1na2vs0mg"},{"bike_id":"1de3299c-19df-4105-be11-2f4285ba24f7","system_id":"levelo_inurba_marseille","lat":43.311125,"lon":5.377624,"is_reserved":false,"is_disabled":false,"rental_uris":{"android":"levelo://app?vid=1de3299c-19df-4105-be11-2f4285ba24f7","ios":"levelo://app?vid=1de3299c-19df-4105-be11-2f4285ba24f7"},"vehicle_type_id":"4","last_reported":1707966529,"current_range_meters":11600,"station_id":"ce4bgt92rcd13ifvqcg0","pricing_plan_id":"cebpf4jnsgd1na2vs0mg"},{"bike_id":"2a61bbee-55b2-4b37-b026-de7d6bac1a68","system_id":"levelo_inurba_marseille","lat":43.311125,"lon":5.377624,"is_reserved":false,"is_disabled":false,"rental_uris":{"android":"levelo://app?vid=2a61bbee-55b2-4b37-b026-de7d6bac1a68","ios":"levelo://app?vid=2a61bbee-55b2-4b37-b026-de7d6bac1a68"},"vehicle_type_id":"4","last_reported":1707966529,"current_range_meters":4400,"station_id":"ce4bgt92rcd13ifvqcg0","pricing_plan_id":"cebpf4jnsgd1na2vs0mg"},{"bike_id":"dd149910-dd99-41ff-bcdf-31bc20be258b","system_id":"levelo_inurba_marseille","lat":43.311125,"lon":5.377624,"is_reserved":false,"is_disabled":false,"rental_uris":{"android":"levelo://app?vid=dd149910-dd99-41ff-bcdf-31bc20be258b","ios":"levelo://app?vid=dd149910-dd99-41ff-bcdf-31bc20be258b"},"vehicle_type_id":"4","last_reported":1707966529,"current_range_meters":30400,"station_id":"ce4bgt92rcd13ifvqcg0","pricing_plan_id":"cebpf4jnsgd1na2vs0mg"},{"bike_id":"25efa783-53d5-49ae-b4ca-607d94b2f1c3","system_id":"levelo_inurba_marseille","lat":43.307945,"lon":5.376487,"is_reserved":false,"is_disabled":false,"rental_uris":{"android":"levelo://app?vid=25efa783-53d5-49ae-b4ca-607d94b2f1c3","ios":"levelo://app?vid=25efa783-53d5-49ae-b4ca-607d94b2f1c3"},"vehicle_type_id":"4","last_reported":1707966529,"current_range_meters":20000,"station_id":"ce4bgv92rcd13ifvqcq0","pricing_plan_id":"cebpf4jnsgd1na2vs0mg"},{"bike_id":"6961ad03-4325-4511-9cae-b3f7b4cf3b5a","system_id":"levelo_inurba_marseille","lat":43.307945,"lon":5.376487,"is_reserved":false,"is_disabled":false,"rental_uris":{"android":"levelo://app?vid=6961ad03-4325-4511-9cae-b3f7b4cf3b5a","ios":"levelo://app?vid=6961ad03-4325-4511-9cae-b3f7b4cf3b5a"},"vehicle_type_id":"4","last_reported":1707966529,"current_range_meters":16000,"station_id":"ce4bgv92rcd13ifvqcq0","pricing_plan_id":"cebpf4jnsgd1na2vs0mg"},{"bike_id":"d090574c-9489-4bfb-86b4-9957fa1ce725","system_id":"levelo_inurba_marseille","lat":43.307945,"lon":5.376487,"is_reserved":false,"is_disabled":false,"rental_uris":{"android":"levelo://app?vid=d090574c-9489-4bfb-86b4-9957fa1ce725","ios":"levelo://app?vid=d090574c-9489-4bfb-86b4-9957fa1ce725"},"vehicle_type_id":"4","last_reported":1707966529,"current_range_meters":25200,"station_id":"ce4bgv92rcd13ifvqcq0","pricing_plan_id":"cebpf4jnsgd1na2vs0mg"},{"bike_id":"85c33bcf-a434-4748-8043-4640d9db0081","system_id":"levelo_inurba_marseille","lat":43.307945,"lon":5.376487,"is_reserved":false,"is_disabled":false,"rental_uris":{"android":"levelo://app?vid=85c33bcf-a434-4748-8043-4640d9db0081","ios":"levelo://app?vid=85c33bcf-a434-4748-8043-4640d9db0081"},"vehicle_type_id":"4","last_reported":1707966529,"current_range_meters":4800,"station_id":"ce4bgv92rcd13ifvqcq0","pricing_plan_id":"cebpf4jnsgd1na2vs0mg"},{"bike_id":"29bb6d50-ad92-4816-9591-035899258542","system_id":"levelo_inurba_marseille","lat":43.307945,"lon":5.376487,"is_reserved":false,"is_disabled":false,"rental_uris":{"android":"levelo://app?vid=29bb6d50-ad92-4816-9591-035899258542","ios":"levelo://app?vid=29bb6d50-ad92-4816-9591-035899258542"},"vehicle_type_id":"4","last_reported":1707966529,"current_range_meters":25600,"station_id":"ce4bgv92rcd13ifvqcq0","pricing_plan_id":"cebpf4jnsgd1na2vs0mg"},{"bike_id":"22b62143-9536-46b7-94fd-dc1297249910","system_id":"levelo_inurba_marseille","lat":43.307945,"lon":5.376487,"is_reserved":false,"is_disabled":false,"rental_uris":{"android":"levelo://app?vid=22b62143-9536-46b7-94fd-dc1297249910","ios":"levelo://app?vid=22b62143-9536-46b7-94fd-dc1297249910"},"vehicle_type_id":"4","last_reported":1707966529,"current_range_meters":31600,"station_id":"ce4bgv92rcd13ifvqcq0","pricing_plan_id":"cebpf4jnsgd1na2vs0mg"},{"bike_id":"9b85f66d-a98f-43db-9ff4-4ba12e0a6dec","system_id":"levelo_inurba_marseille","lat":43.307945,"lon":5.376487,"is_reserved":false,"is_disabled":false,"rental_uris":{"android":"levelo://app?vid=9b85f66d-a98f-43db-9ff4-4ba12e0a6dec","ios":"levelo://app?vid=9b85f66d-a98f-43db-9ff4-4ba12e0a6dec"},"vehicle_type_id":"4","last_reported":1707966529,"current_range_meters":16000,"station_id":"ce4bgv92rcd13ifvqcq0","pricing_plan_id":"cebpf4jnsgd1na2vs0mg"},{"bike_id":"28cfa7b0-8fdb-4e50-9331-a3e8d341858f","system_id":"levelo_inurba_marseille","lat":43.317075,"lon":5.377367,"is_reserved":false,"is_disabled":false,"rental_uris":{"android":"levelo://app?vid=28cfa7b0-8fdb-4e50-9331-a3e8d341858f","ios":"levelo://app?vid=28cfa7b0-8fdb-4e50-9331-a3e8d341858f"},"vehicle_type_id":"4","last_reported":1707966529,"current_range_meters":16000,"station_id":"ce4bgth2rcd13ifvqch0","pricing_plan_id":"cebpf4jnsgd1na2vs0mg"},{"bike_id":"e0ab11de-fc9c-4d4b-971a-3b2ba2a23340","system_id":"levelo_inurba_marseille","lat":43.317075,"lon":5.377367,"is_reserved":false,"is_disabled":false,"rental_uris":{"android":"levelo://app?vid=e0ab11de-fc9c-4d4b-971a-3b2ba2a23340","ios":"levelo://app?vid=e0ab11de-fc9c-4d4b-971a-3b2ba2a23340"},"vehicle_type_id":"4","last_reported":1707966529,"current_range_meters":31200,"station_id":"ce4bgth2rcd13ifvqch0","pricing_plan_id":"cebpf4jnsgd1na2vs0mg"},{"bike_id":"e8396d9b-01ad-42aa-ae6a-25e7361077f6","system_id":"levelo_inurba_marseille","lat":43.317075,"lon":5.377367,"is_reserved":false,"is_disabled":false,"rental_uris":{"android":"levelo://app?vid=e8396d9b-01ad-42aa-ae6a-25e7361077f6","ios":"levelo://app?vid=e8396d9b-01ad-42aa-ae6a-25e7361077f6"},"vehicle_type_id":"4","last_reported":1707966529,"current_range_meters":31200,"station_id":"ce4bgth2rcd13ifvqch0","pricing_plan_id":"cebpf4jnsgd1na2vs0mg"},{"bike_id":"c4e8f8a8-7b17-47f4-9155-81481109dceb","system_id":"levelo_inurba_marseille","lat":43.315293,"lon":5.380349,"is_reserved":false,"is_disabled":false,"rental_uris":{"android":"levelo://app?vid=c4e8f8a8-7b17-47f4-9155-81481109dceb","ios":"levelo://app?vid=c4e8f8a8-7b17-47f4-9155-81481109dceb"},"vehicle_type_id":"4","last_reported":1707966529,"current_range_meters":29200,"station_id":"ce4bhsp2rcd13ifvqi50","pricing_plan_id":"cebpf4jnsgd1na2vs0mg"},{"bike_id":"c2e05856-d563-470c-a0cb-3f7b314f9a68","system_id":"levelo_inurba_marseille","lat":43.315293,"lon":5.380349,"is_reserved":false,"is_disabled":false,"rental_uris":{"android":"levelo://app?vid=c2e05856-d563-470c-a0cb-3f7b314f9a68","ios":"levelo://app?vid=c2e05856-d563-470c-a0cb-3f7b314f9a68"},"vehicle_type_id":"4","last_reported":1707966529,"current_range_meters":24400,"station_id":"ce4bhsp2rcd13ifvqi50","pricing_plan_id":"cebpf4jnsgd1na2vs0mg"},{"bike_id":"e2ad31be-c558-4456-a92f-7cb2ccc25ad3","system_id":"levelo_inurba_marseille","lat":43.315293,"lon":5.380349,"is_reserved":false,"is_disabled":false,"rental_uris":{"android":"levelo://app?vid=e2ad31be-c558-4456-a92f-7cb2ccc25ad3","ios":"levelo://app?vid=e2ad31be-c558-4456-a92f-7cb2ccc25ad3"},"vehicle_type_id":"4","last_reported":1707966529,"current_range_meters":4800,"station_id":"ce4bhsp2rcd13ifvqi50","pricing_plan_id":"cebpf4jnsgd1na2vs0mg"},{"bike_id":"def4006c-c9c5-4122-8a39-1d54599876b8","system_id":"levelo_inurba_marseille","lat":43.301939,"lon":5.366286,"is_reserved":false,"is_disabled":false,"rental_uris":{"android":"levelo://app?vid=def4006c-c9c5-4122-8a39-1d54599876b8","ios":"levelo://app?vid=def4006c-c9c5-4122-8a39-1d54599876b8"},"vehicle_type_id":"4","last_reported":1707966529,"current_range_meters":26400,"station_id":"ce4bgrh2rcd13ifvqc8g","pricing_plan_id":"cebpf4jnsgd1na2vs0mg"},{"bike_id":"6f9e393d-09ca-49a6-8c66-5fd6a869263c","system_id":"levelo_inurba_marseille","lat":43.308012,"lon":5.381511,"is_reserved":false,"is_disabled":false,"rental_uris":{"android":"levelo://app?vid=6f9e393d-09ca-49a6-8c66-5fd6a869263c","ios":"levelo://app?vid=6f9e393d-09ca-49a6-8c66-5fd6a869263c"},"vehicle_type_id":"4","last_reported":1707966529,"current_range_meters":0,"station_id":"ce4bgt12rcd13ifvqce0","pricing_plan_id":"cebpf4jnsgd1na2vs0mg"},{"bike_id":"f0131c31-1cf9-425e-849b-21b666434967","system_id":"levelo_inurba_marseille","lat":43.308012,"lon":5.381511,"is_reserved":false,"is_disabled":false,"rental_uris":{"android":"levelo://app?vid=f0131c31-1cf9-425e-849b-21b666434967","ios":"levelo://app?vid=f0131c31-1cf9-425e-849b-21b666434967"},"vehicle_type_id":"4","last_reported":1707966529,"current_range_meters":24800,"station_id":"ce4bgt12rcd13ifvqce0","pricing_plan_id":"cebpf4jnsgd1na2vs0mg"},{"bike_id":"f32a25a5-5123-4ca4-8bb4-6d104d8b5f76","system_id":"levelo_inurba_marseille","lat":43.308012,"lon":5.381511,"is_reserved":false,"is_disabled":false,"rental_uris":{"android":"levelo://app?vid=f32a25a5-5123-4ca4-8bb4-6d104d8b5f76","ios":"levelo://app?vid=f32a25a5-5123-4ca4-8bb4-6d104d8b5f76"},"vehicle_type_id":"4","last_reported":1707966529,"current_range_meters":18400,"station_id":"ce4bgt12rcd13ifvqce0","pricing_plan_id":"cebpf4jnsgd1na2vs0mg"},{"bike_id":"74380a0c-3da0-4d77-acf4-b297c9efc61c","system_id":"levelo_inurba_marseille","lat":43.308012,"lon":5.381511,"is_reserved":false,"is_disabled":false,"rental_uris":{"android":"levelo://app?vid=74380a0c-3da0-4d77-acf4-b297c9efc61c","ios":"levelo://app?vid=74380a0c-3da0-4d77-acf4-b297c9efc61c"},"vehicle_type_id":"4","last_reported":1707966529,"current_range_meters":26800,"station_id":"ce4bgt12rcd13ifvqce0","pricing_plan_id":"cebpf4jnsgd1na2vs0mg"},{"bike_id":"42b3d147-c9e8-4df8-9791-92fccd9b397a","system_id":"levelo_inurba_marseille","lat":43.308012,"lon":5.381511,"is_reserved":false,"is_disabled":false,"rental_uris":{"android":"levelo://app?vid=42b3d147-c9e8-4df8-9791-92fccd9b397a","ios":"levelo://app?vid=42b3d147-c9e8-4df8-9791-92fccd9b397a"},"vehicle_type_id":"4","last_reported":1707966529,"current_range_meters":28800,"station_id":"ce4bgt12rcd13ifvqce0","pricing_plan_id":"cebpf4jnsgd1na2vs0mg"},{"bike_id":"e80a6c1f-f570-4247-aeda-5ca90775b5f5","system_id":"levelo_inurba_marseille","lat":43.308012,"lon":5.381511,"is_reserved":false,"is_disabled":false,"rental_uris":{"android":"levelo://app?vid=e80a6c1f-f570-4247-aeda-5ca90775b5f5","ios":"levelo://app?vid=e80a6c1f-f570-4247-aeda-5ca90775b5f5"},"vehicle_type_id":"4","last_reported":1707966529,"current_range_meters":24000,"station_id":"ce4bgt12rcd13ifvqce0","pricing_plan_id":"cebpf4jnsgd1na2vs0mg"},{"bike_id":"bf5622e7-d28a-40e0-ac04-7b528303c4ec","system_id":"levelo_inurba_marseille","lat":43.308012,"lon":5.381511,"is_reserved":false,"is_disabled":false,"rental_uris":{"android":"levelo://app?vid=bf5622e7-d28a-40e0-ac04-7b528303c4ec","ios":"levelo://app?vid=bf5622e7-d28a-40e0-ac04-7b528303c4ec"},"vehicle_type_id":"4","last_reported":1707966529,"current_range_meters":28400,"station_id":"ce4bgt12rcd13ifvqce0","pricing_plan_id":"cebpf4jnsgd1na2vs0mg"},{"bike_id":"428e83a3-ed68-47bc-875c-e58c2c661511","system_id":"levelo_inurba_marseille","lat":43.304606,"lon":5.379026,"is_reserved":false,"is_disabled":false,"rental_uris":{"android":"levelo://app?vid=428e83a3-ed68-47bc-875c-e58c2c661511","ios":"levelo://app?vid=428e83a3-ed68-47bc-875c-e58c2c661511"},"vehicle_type_id":"4","last_reported":1707966529,"current_range_meters":22400,"station_id":"ce4bgup2rcd13ifvqcn0","pricing_plan_id":"cebpf4jnsgd1na2vs0mg"},{"bike_id":"2870336f-7229-4b49-9efa-9d3a645d8d6b","system_id":"levelo_inurba_marseille","lat":43.304274,"lon":5.378598,"is_reserved":false,"is_disabled":false,"rental_uris":{"android":"levelo://app?vid=2870336f-7229-4b49-9efa-9d3a645d8d6b","ios":"levelo://app?vid=2870336f-7229-4b49-9efa-9d3a645d8d6b"},"vehicle_type_id":"4","last_reported":1707966529,"current_range_meters":0,"station_id":"ce4bgup2rcd13ifvqcn0","pricing_plan_id":"cebpf4jnsgd1na2vs0mg"},{"bike_id":"eaf76b94-1cb5-4923-acc9-3ff87ec1a8c2","system_id":"levelo_inurba_marseille","lat":43.324771,"lon":5.36557,"is_reserved":false,"is_disabled":false,"rental_uris":{"android":"levelo://app?vid=eaf76b94-1cb5-4923-acc9-3ff87ec1a8c2","ios":"levelo://app?vid=eaf76b94-1cb5-4923-acc9-3ff87ec1a8c2"},"vehicle_type_id":"4","last_reported":1707966529,"current_range_meters":8000,"station_id":"ce4bhs12rcd13ifvqhvg","pricing_plan_id":"cebpf4jnsgd1na2vs0mg"},{"bike_id":"ce616d52-5fda-4dfc-9562-908adeb662ff","system_id":"levelo_inurba_marseille","lat":43.324771,"lon":5.36557,"is_reserved":false,"is_disabled":false,"rental_uris":{"android":"levelo://app?vid=ce616d52-5fda-4dfc-9562-908adeb662ff","ios":"levelo://app?vid=ce616d52-5fda-4dfc-9562-908adeb662ff"},"vehicle_type_id":"4","last_reported":1707966529,"current_range_meters":5600,"station_id":"ce4bhs12rcd13ifvqhvg","pricing_plan_id":"cebpf4jnsgd1na2vs0mg"},{"bike_id":"1f6e23da-7d91-4c57-ba22-e9ce507f2ace","system_id":"levelo_inurba_marseille","lat":43.310804,"lon":5.38359,"is_reserved":false,"is_disabled":false,"rental_uris":{"android":"levelo://app?vid=1f6e23da-7d91-4c57-ba22-e9ce507f2ace","ios":"levelo://app?vid=1f6e23da-7d91-4c57-ba22-e9ce507f2ace"},"vehicle_type_id":"4","last_reported":1707966529,"current_range_meters":20000,"station_id":"ce4bgv92rcd13ifvqcr0","pricing_plan_id":"cebpf4jnsgd1na2vs0mg"},{"bike_id":"003670cd-8418-4b70-9feb-40a490ec6db9","system_id":"levelo_inurba_marseille","lat":43.310804,"lon":5.38359,"is_reserved":false,"is_disabled":false,"rental_uris":{"android":"levelo://app?vid=003670cd-8418-4b70-9feb-40a490ec6db9","ios":"levelo://app?vid=003670cd-8418-4b70-9feb-40a490ec6db9"},"vehicle_type_id":"4","last_reported":1707966529,"current_range_meters":11600,"station_id":"ce4bgv92rcd13ifvqcr0","pricing_plan_id":"cebpf4jnsgd1na2vs0mg"},{"bike_id":"123f5c2d-29fa-4799-a252-52716f9d410e","system_id":"levelo_inurba_marseille","lat":43.310574,"lon":5.383481,"is_reserved":false,"is_disabled":false,"rental_uris":{"android":"levelo://app?vid=123f5c2d-29fa-4799-a252-52716f9d410e","ios":"levelo://app?vid=123f5c2d-29fa-4799-a252-52716f9d410e"},"vehicle_type_id":"4","last_reported":1707966529,"current_range_meters":6800,"station_id":"ce4bgv92rcd13ifvqcr0","pricing_plan_id":"cebpf4jnsgd1na2vs0mg"},{"bike_id":"03bd98fa-4eb3-4ef7-95d1-f7c83ba6e140","system_id":"levelo_inurba_marseille","lat":43.3107,"lon":5.38356,"is_reserved":false,"is_disabled":false,"rental_uris":{"android":"levelo://app?vid=03bd98fa-4eb3-4ef7-95d1-f7c83ba6e140","ios":"levelo://app?vid=03bd98fa-4eb3-4ef7-95d1-f7c83ba6e140"},"vehicle_type_id":"4","last_reported":1707966529,"current_range_meters":14400,"station_id":"ce4bgv92rcd13ifvqcr0","pricing_plan_id":"cebpf4jnsgd1na2vs0mg"},{"bike_id":"b91a38e7-759b-436f-bdf9-46b06d86f931","system_id":"levelo_inurba_marseille","lat":43.310722,"lon":5.383573,"is_reserved":false,"is_disabled":false,"rental_uris":{"android":"levelo://app?vid=b91a38e7-759b-436f-bdf9-46b06d86f931","ios":"levelo://app?vid=b91a38e7-759b-436f-bdf9-46b06d86f931"},"vehicle_type_id":"4","last_reported":1707966529,"current_range_meters":13600,"station_id":"ce4bgv92rcd13ifvqcr0","pricing_plan_id":"cebpf4jnsgd1na2vs0mg"},{"bike_id":"7a43cb56-e57f-4e21-b83d-fbe30286940b","system_id":"levelo_inurba_marseille","lat":43.31072,"lon":5.383584,"is_reserved":false,"is_disabled":false,"rental_uris":{"android":"levelo://app?vid=7a43cb56-e57f-4e21-b83d-fbe30286940b","ios":"levelo://app?vid=7a43cb56-e57f-4e21-b83d-fbe30286940b"},"vehicle_type_id":"4","last_reported":1707966529,"current_range_meters":0,"station_id":"ce4bgv92rcd13ifvqcr0","pricing_plan_id":"cebpf4jnsgd1na2vs0mg"},{"bike_id":"e556e65f-4ce8-4b13-919a-7d1c87a49462","system_id":"levelo_inurba_marseille","lat":43.310804,"lon":5.38359,"is_reserved":false,"is_disabled":false,"rental_uris":{"android":"levelo://app?vid=e556e65f-4ce8-4b13-919a-7d1c87a49462","ios":"levelo://app?vid=e556e65f-4ce8-4b13-919a-7d1c87a49462"},"vehicle_type_id":"4","last_reported":1707966529,"current_range_meters":22000,"station_id":"ce4bgv92rcd13ifvqcr0","pricing_plan_id":"cebpf4jnsgd1na2vs0mg"},{"bike_id":"7c327044-e695-422f-9a1c-a204a5d7f1a3","system_id":"levelo_inurba_marseille","lat":43.324771,"lon":5.36557,"is_reserved":false,"is_disabled":false,"rental_uris":{"android":"levelo://app?vid=7c327044-e695-422f-9a1c-a204a5d7f1a3","ios":"levelo://app?vid=7c327044-e695-422f-9a1c-a204a5d7f1a3"},"vehicle_type_id":"4","last_reported":1707966529,"current_range_meters":22400,"station_id":"ce4bhs12rcd13ifvqhvg","pricing_plan_id":"cebpf4jnsgd1na2vs0mg"},{"bike_id":"20e5f2ad-9f2c-493e-ac06-9865b2c8d0fa","system_id":"levelo_inurba_marseille","lat":43.301429,"lon":5.37413,"is_reserved":false,"is_disabled":false,"rental_uris":{"android":"levelo://app?vid=20e5f2ad-9f2c-493e-ac06-9865b2c8d0fa","ios":"levelo://app?vid=20e5f2ad-9f2c-493e-ac06-9865b2c8d0fa"},"vehicle_type_id":"4","last_reported":1707966529,"current_range_meters":28000,"station_id":"ce4bgs92rcd13ifvqcc0","pricing_plan_id":"cebpf4jnsgd1na2vs0mg"},{"bike_id":"4bb3e3a5-a73f-41c9-a7f7-9e4b5f9978c0","system_id":"levelo_inurba_marseille","lat":43.30143,"lon":5.37413,"is_reserved":false,"is_disabled":false,"rental_uris":{"android":"levelo://app?vid=4bb3e3a5-a73f-41c9-a7f7-9e4b5f9978c0","ios":"levelo://app?vid=4bb3e3a5-a73f-41c9-a7f7-9e4b5f9978c0"},"vehicle_type_id":"4","last_reported":1707966529,"current_range_meters":30000,"station_id":"ce4bgs92rcd13ifvqcc0","pricing_plan_id":"cebpf4jnsgd1na2vs0mg"},{"bike_id":"41402d30-1a5c-415e-8a13-7f7e2fa7e8cc","system_id":"levelo_inurba_marseille","lat":43.301429,"lon":5.37413,"is_reserved":false,"is_disabled":false,"rental_uris":{"android":"levelo://app?vid=41402d30-1a5c-415e-8a13-7f7e2fa7e8cc","ios":"levelo://app?vid=41402d30-1a5c-415e-8a13-7f7e2fa7e8cc"},"vehicle_type_id":"4","last_reported":1707966529,"current_range_meters":20000,"station_id":"ce4bgs92rcd13ifvqcc0","pricing_plan_id":"cebpf4jnsgd1na2vs0mg"},{"bike_id":"5766906c-d31c-4d5a-8296-2a75ea9846c1","system_id":"levelo_inurba_marseille","lat":43.301429,"lon":5.37413,"is_reserved":false,"is_disabled":false,"rental_uris":{"android":"levelo://app?vid=5766906c-d31c-4d5a-8296-2a75ea9846c1","ios":"levelo://app?vid=5766906c-d31c-4d5a-8296-2a75ea9846c1"},"vehicle_type_id":"4","last_reported":1707966529,"current_range_meters":29200,"station_id":"ce4bgs92rcd13ifvqcc0","pricing_plan_id":"cebpf4jnsgd1na2vs0mg"},{"bike_id":"1cc2603a-22f5-4e00-ad4a-7cebcc5e5594","system_id":"levelo_inurba_marseille","lat":43.319935,"lon":5.381699,"is_reserved":false,"is_disabled":false,"rental_uris":{"android":"levelo://app?vid=1cc2603a-22f5-4e00-ad4a-7cebcc5e5594","ios":"levelo://app?vid=1cc2603a-22f5-4e00-ad4a-7cebcc5e5594"},"vehicle_type_id":"4","last_reported":1707966529,"current_range_meters":18400,"station_id":"ce4bhr12rcd13ifvqhpg","pricing_plan_id":"cebpf4jnsgd1na2vs0mg"},{"bike_id":"4f9328d1-96d2-4c4d-b400-a2bcd35e43b4","system_id":"levelo_inurba_marseille","lat":43.319935,"lon":5.381699,"is_reserved":false,"is_disabled":false,"rental_uris":{"android":"levelo://app?vid=4f9328d1-96d2-4c4d-b400-a2bcd35e43b4","ios":"levelo://app?vid=4f9328d1-96d2-4c4d-b400-a2bcd35e43b4"},"vehicle_type_id":"4","last_reported":1707966529,"current_range_meters":28000,"station_id":"ce4bhr12rcd13ifvqhpg","pricing_plan_id":"cebpf4jnsgd1na2vs0mg"},{"bike_id":"9d586241-c832-456e-b8c2-42caa11d3c95","system_id":"levelo_inurba_marseille","lat":43.319935,"lon":5.381699,"is_reserved":false,"is_disabled":false,"rental_uris":{"android":"levelo://app?vid=9d586241-c832-456e-b8c2-42caa11d3c95","ios":"levelo://app?vid=9d586241-c832-456e-b8c2-42caa11d3c95"},"vehicle_type_id":"4","last_reported":1707966529,"current_range_meters":13200,"station_id":"ce4bhr12rcd13ifvqhpg","pricing_plan_id":"cebpf4jnsgd1na2vs0mg"},{"bike_id":"d7e1e4c7-d866-4ba1-992a-68bdf64f7e72","system_id":"levelo_inurba_marseille","lat":43.319935,"lon":5.381699,"is_reserved":false,"is_disabled":false,"rental_uris":{"android":"levelo://app?vid=d7e1e4c7-d866-4ba1-992a-68bdf64f7e72","ios":"levelo://app?vid=d7e1e4c7-d866-4ba1-992a-68bdf64f7e72"},"vehicle_type_id":"4","last_reported":1707966529,"current_range_meters":2000,"station_id":"ce4bhr12rcd13ifvqhpg","pricing_plan_id":"cebpf4jnsgd1na2vs0mg"},{"bike_id":"12152ff0-26d0-44c8-98bd-fdfbcd54aab2","system_id":"levelo_inurba_marseille","lat":43.319935,"lon":5.381699,"is_reserved":false,"is_disabled":false,"rental_uris":{"android":"levelo://app?vid=12152ff0-26d0-44c8-98bd-fdfbcd54aab2","ios":"levelo://app?vid=12152ff0-26d0-44c8-98bd-fdfbcd54aab2"},"vehicle_type_id":"4","last_reported":1707966529,"current_range_meters":8800,"station_id":"ce4bhr12rcd13ifvqhpg","pricing_plan_id":"cebpf4jnsgd1na2vs0mg"},{"bike_id":"4dbdcb69-73c3-4b88-94a1-74e1c6fda054","system_id":"levelo_inurba_marseille","lat":43.313571,"lon":5.384829,"is_reserved":false,"is_disabled":false,"rental_uris":{"android":"levelo://app?vid=4dbdcb69-73c3-4b88-94a1-74e1c6fda054","ios":"levelo://app?vid=4dbdcb69-73c3-4b88-94a1-74e1c6fda054"},"vehicle_type_id":"4","last_reported":1707966529,"current_range_meters":28000,"station_id":"ce4bgt92rcd13ifvqcf0","pricing_plan_id":"cebpf4jnsgd1na2vs0mg"},{"bike_id":"8f834963-3e2d-4ff6-af32-3bcf4f637d1c","system_id":"levelo_inurba_marseille","lat":43.313571,"lon":5.384829,"is_reserved":false,"is_disabled":false,"rental_uris":{"android":"levelo://app?vid=8f834963-3e2d-4ff6-af32-3bcf4f637d1c","ios":"levelo://app?vid=8f834963-3e2d-4ff6-af32-3bcf4f637d1c"},"vehicle_type_id":"4","last_reported":1707966529,"current_range_meters":0,"station_id":"ce4bgt92rcd13ifvqcf0","pricing_plan_id":"cebpf4jnsgd1na2vs0mg"},{"bike_id":"2569cebb-72e8-4864-8961-b7ffae8f683e","system_id":"levelo_inurba_marseille","lat":43.313571,"lon":5.384829,"is_reserved":false,"is_disabled":false,"rental_uris":{"android":"levelo://app?vid=2569cebb-72e8-4864-8961-b7ffae8f683e","ios":"levelo://app?vid=2569cebb-72e8-4864-8961-b7ffae8f683e"},"vehicle_type_id":"4","last_reported":1707966529,"current_range_meters":31200,"station_id":"ce4bgt92rcd13ifvqcf0","pricing_plan_id":"cebpf4jnsgd1na2vs0mg"},{"bike_id":"c1834786-f17f-46e5-9542-bb770fa10308","system_id":"levelo_inurba_marseille","lat":43.313571,"lon":5.384829,"is_reserved":false,"is_disabled":false,"rental_uris":{"android":"levelo://app?vid=c1834786-f17f-46e5-9542-bb770fa10308","ios":"levelo://app?vid=c1834786-f17f-46e5-9542-bb770fa10308"},"vehicle_type_id":"4","last_reported":1707966529,"current_range_meters":25200,"station_id":"ce4bgt92rcd13ifvqcf0","pricing_plan_id":"cebpf4jnsgd1na2vs0mg"},{"bike_id":"1452348a-eecf-457f-b4fa-0847055d03dd","system_id":"levelo_inurba_marseille","lat":43.313571,"lon":5.384829,"is_reserved":false,"is_disabled":false,"rental_uris":{"android":"levelo://app?vid=1452348a-eecf-457f-b4fa-0847055d03dd","ios":"levelo://app?vid=1452348a-eecf-457f-b4fa-0847055d03dd"},"vehicle_type_id":"4","last_reported":1707966529,"current_range_meters":26400,"station_id":"ce4bgt92rcd13ifvqcf0","pricing_plan_id":"cebpf4jnsgd1na2vs0mg"},{"bike_id":"32a6a968-1bfb-4aba-9eae-9ffe66342d16","system_id":"levelo_inurba_marseille","lat":43.313571,"lon":5.384829,"is_reserved":false,"is_disabled":false,"rental_uris":{"android":"levelo://app?vid=32a6a968-1bfb-4aba-9eae-9ffe66342d16","ios":"levelo://app?vid=32a6a968-1bfb-4aba-9eae-9ffe66342d16"},"vehicle_type_id":"4","last_reported":1707966529,"current_range_meters":27600,"station_id":"ce4bgt92rcd13ifvqcf0","pricing_plan_id":"cebpf4jnsgd1na2vs0mg"},{"bike_id":"ebb544a7-e1af-41e1-be4b-fe467b18c298","system_id":"levelo_inurba_marseille","lat":43.313571,"lon":5.384829,"is_reserved":false,"is_disabled":false,"rental_uris":{"android":"levelo://app?vid=ebb544a7-e1af-41e1-be4b-fe467b18c298","ios":"levelo://app?vid=ebb544a7-e1af-41e1-be4b-fe467b18c298"},"vehicle_type_id":"4","last_reported":1707966529,"current_range_meters":31200,"station_id":"ce4bgt92rcd13ifvqcf0","pricing_plan_id":"cebpf4jnsgd1na2vs0mg"},{"bike_id":"fe2076be-b95c-4c11-93d6-6a83363ffa71","system_id":"levelo_inurba_marseille","lat":43.313571,"lon":5.384829,"is_reserved":false,"is_disabled":false,"rental_uris":{"android":"levelo://app?vid=fe2076be-b95c-4c11-93d6-6a83363ffa71","ios":"levelo://app?vid=fe2076be-b95c-4c11-93d6-6a83363ffa71"},"vehicle_type_id":"4","last_reported":1707966529,"current_range_meters":31200,"station_id":"ce4bgt92rcd13ifvqcf0","pricing_plan_id":"cebpf4jnsgd1na2vs0mg"},{"bike_id":"a34149dd-9a20-4cde-9af3-ead890e6c25a","system_id":"levelo_inurba_marseille","lat":43.313571,"lon":5.384829,"is_reserved":false,"is_disabled":false,"rental_uris":{"android":"levelo://app?vid=a34149dd-9a20-4cde-9af3-ead890e6c25a","ios":"levelo://app?vid=a34149dd-9a20-4cde-9af3-ead890e6c25a"},"vehicle_type_id":"4","last_reported":1707966529,"current_range_meters":21600,"station_id":"ce4bgt92rcd13ifvqcf0","pricing_plan_id":"cebpf4jnsgd1na2vs0mg"},{"bike_id":"d0c7c1fc-7257-4324-a53d-d062ad3fd611","system_id":"levelo_inurba_marseille","lat":43.299724,"lon":5.371829,"is_reserved":false,"is_disabled":false,"rental_uris":{"android":"levelo://app?vid=d0c7c1fc-7257-4324-a53d-d062ad3fd611","ios":"levelo://app?vid=d0c7c1fc-7257-4324-a53d-d062ad3fd611"},"vehicle_type_id":"4","last_reported":1707966529,"current_range_meters":9600,"station_id":"ce4bgr92rcd13ifvqc7g","pricing_plan_id":"cebpf4jnsgd1na2vs0mg"},{"bike_id":"fb4ea1cb-258e-45c7-bb39-b31c24f183b7","system_id":"levelo_inurba_marseille","lat":43.299724,"lon":5.371829,"is_reserved":false,"is_disabled":false,"rental_uris":{"android":"levelo://app?vid=fb4ea1cb-258e-45c7-bb39-b31c24f183b7","ios":"levelo://app?vid=fb4ea1cb-258e-45c7-bb39-b31c24f183b7"},"vehicle_type_id":"4","last_reported":1707966529,"current_range_meters":28800,"station_id":"ce4bgr92rcd13ifvqc7g","pricing_plan_id":"cebpf4jnsgd1na2vs0mg"},{"bike_id":"ced1ea36-8ef6-4cd0-98e2-8a5787a96988","system_id":"levelo_inurba_marseille","lat":43.29974,"lon":5.37192,"is_reserved":false,"is_disabled":false,"rental_uris":{"android":"levelo://app?vid=ced1ea36-8ef6-4cd0-98e2-8a5787a96988","ios":"levelo://app?vid=ced1ea36-8ef6-4cd0-98e2-8a5787a96988"},"vehicle_type_id":"4","last_reported":1707966529,"current_range_meters":9600,"station_id":"ce4bgr92rcd13ifvqc7g","pricing_plan_id":"cebpf4jnsgd1na2vs0mg"},{"bike_id":"698484eb-60f3-4a5b-9c70-2da461ca6b35","system_id":"levelo_inurba_marseille","lat":43.299724,"lon":5.371829,"is_reserved":false,"is_disabled":false,"rental_uris":{"android":"levelo://app?vid=698484eb-60f3-4a5b-9c70-2da461ca6b35","ios":"levelo://app?vid=698484eb-60f3-4a5b-9c70-2da461ca6b35"},"vehicle_type_id":"4","last_reported":1707966529,"current_range_meters":26400,"station_id":"ce4bgr92rcd13ifvqc7g","pricing_plan_id":"cebpf4jnsgd1na2vs0mg"},{"bike_id":"2c4879e3-8a7d-4600-b41e-88f4713cb91a","system_id":"levelo_inurba_marseille","lat":43.305364,"lon":5.384119,"is_reserved":false,"is_disabled":false,"rental_uris":{"android":"levelo://app?vid=2c4879e3-8a7d-4600-b41e-88f4713cb91a","ios":"levelo://app?vid=2c4879e3-8a7d-4600-b41e-88f4713cb91a"},"vehicle_type_id":"4","last_reported":1707966529,"current_range_meters":25200,"station_id":"ce4bgg92rcd13ifvqb30","pricing_plan_id":"cebpf4jnsgd1na2vs0mg"},{"bike_id":"113cd3ba-76df-49cd-9584-6bd1bb2b8386","system_id":"levelo_inurba_marseille","lat":43.305364,"lon":5.384119,"is_reserved":false,"is_disabled":false,"rental_uris":{"android":"levelo://app?vid=113cd3ba-76df-49cd-9584-6bd1bb2b8386","ios":"levelo://app?vid=113cd3ba-76df-49cd-9584-6bd1bb2b8386"},"vehicle_type_id":"4","last_reported":1707966529,"current_range_meters":24000,"station_id":"ce4bgg92rcd13ifvqb30","pricing_plan_id":"cebpf4jnsgd1na2vs0mg"},{"bike_id":"4fa8f1d5-b6f3-4e0e-a7cf-4801f23255cc","system_id":"levelo_inurba_marseille","lat":43.311722,"lon":5.387247,"is_reserved":false,"is_disabled":false,"rental_uris":{"android":"levelo://app?vid=4fa8f1d5-b6f3-4e0e-a7cf-4801f23255cc","ios":"levelo://app?vid=4fa8f1d5-b6f3-4e0e-a7cf-4801f23255cc"},"vehicle_type_id":"4","last_reported":1707966529,"current_range_meters":14000,"station_id":"ce4bgv12rcd13ifvqcp0","pricing_plan_id":"cebpf4jnsgd1na2vs0mg"},{"bike_id":"9338cf16-05be-4ada-b4be-1b424ce71ded","system_id":"levelo_inurba_marseille","lat":43.311722,"lon":5.387247,"is_reserved":false,"is_disabled":false,"rental_uris":{"android":"levelo://app?vid=9338cf16-05be-4ada-b4be-1b424ce71ded","ios":"levelo://app?vid=9338cf16-05be-4ada-b4be-1b424ce71ded"},"vehicle_type_id":"4","last_reported":1707966529,"current_range_meters":24000,"station_id":"ce4bgv12rcd13ifvqcp0","pricing_plan_id":"cebpf4jnsgd1na2vs0mg"},{"bike_id":"875887cf-f4e3-4272-b63d-dfe0614966e4","system_id":"levelo_inurba_marseille","lat":43.311722,"lon":5.387247,"is_reserved":false,"is_disabled":false,"rental_uris":{"android":"levelo://app?vid=875887cf-f4e3-4272-b63d-dfe0614966e4","ios":"levelo://app?vid=875887cf-f4e3-4272-b63d-dfe0614966e4"},"vehicle_type_id":"4","last_reported":1707966529,"current_range_meters":31200,"station_id":"ce4bgv12rcd13ifvqcp0","pricing_plan_id":"cebpf4jnsgd1na2vs0mg"},{"bike_id":"423707e9-3a84-4db2-8748-53f348dbc63d","system_id":"levelo_inurba_marseille","lat":43.299127,"lon":5.374594,"is_reserved":false,"is_disabled":false,"rental_uris":{"android":"levelo://app?vid=423707e9-3a84-4db2-8748-53f348dbc63d","ios":"levelo://app?vid=423707e9-3a84-4db2-8748-53f348dbc63d"},"vehicle_type_id":"4","last_reported":1707966529,"current_range_meters":29600,"station_id":"ce4bgjh2rcd13ifvqbg0","pricing_plan_id":"cebpf4jnsgd1na2vs0mg"},{"bike_id":"01093a38-282a-4ecc-8f75-4573be9f2a70","system_id":"levelo_inurba_marseille","lat":43.311722,"lon":5.387247,"is_reserved":false,"is_disabled":false,"rental_uris":{"android":"levelo://app?vid=01093a38-282a-4ecc-8f75-4573be9f2a70","ios":"levelo://app?vid=01093a38-282a-4ecc-8f75-4573be9f2a70"},"vehicle_type_id":"4","last_reported":1707966529,"current_range_meters":28400,"station_id":"ce4bgv12rcd13ifvqcp0","pricing_plan_id":"cebpf4jnsgd1na2vs0mg"},{"bike_id":"3a80f44d-5328-4029-84e0-b6c040b8a44c","system_id":"levelo_inurba_marseille","lat":43.311722,"lon":5.387247,"is_reserved":false,"is_disabled":false,"rental_uris":{"android":"levelo://app?vid=3a80f44d-5328-4029-84e0-b6c040b8a44c","ios":"levelo://app?vid=3a80f44d-5328-4029-84e0-b6c040b8a44c"},"vehicle_type_id":"4","last_reported":1707966529,"current_range_meters":6800,"station_id":"ce4bgv12rcd13ifvqcp0","pricing_plan_id":"cebpf4jnsgd1na2vs0mg"},{"bike_id":"e5b0c3d3-ddeb-483e-bb29-2cfda6901597","system_id":"levelo_inurba_marseille","lat":43.311722,"lon":5.387247,"is_reserved":false,"is_disabled":false,"rental_uris":{"android":"levelo://app?vid=e5b0c3d3-ddeb-483e-bb29-2cfda6901597","ios":"levelo://app?vid=e5b0c3d3-ddeb-483e-bb29-2cfda6901597"},"vehicle_type_id":"4","last_reported":1707966529,"current_range_meters":3200,"station_id":"ce4bgv12rcd13ifvqcp0","pricing_plan_id":"cebpf4jnsgd1na2vs0mg"},{"bike_id":"1e2ed12b-5f17-4e8e-a940-18ecdcd86a6a","system_id":"levelo_inurba_marseille","lat":43.311722,"lon":5.387247,"is_reserved":false,"is_disabled":false,"rental_uris":{"android":"levelo://app?vid=1e2ed12b-5f17-4e8e-a940-18ecdcd86a6a","ios":"levelo://app?vid=1e2ed12b-5f17-4e8e-a940-18ecdcd86a6a"},"vehicle_type_id":"4","last_reported":1707966529,"current_range_meters":29600,"station_id":"ce4bgv12rcd13ifvqcp0","pricing_plan_id":"cebpf4jnsgd1na2vs0mg"},{"bike_id":"89bcf156-e523-4afb-abe3-b0777e1cc472","system_id":"levelo_inurba_marseille","lat":43.311722,"lon":5.387247,"is_reserved":false,"is_disabled":false,"rental_uris":{"android":"levelo://app?vid=89bcf156-e523-4afb-abe3-b0777e1cc472","ios":"levelo://app?vid=89bcf156-e523-4afb-abe3-b0777e1cc472"},"vehicle_type_id":"4","last_reported":1707966529,"current_range_meters":25600,"station_id":"ce4bgv12rcd13ifvqcp0","pricing_plan_id":"cebpf4jnsgd1na2vs0mg"},{"bike_id":"4c5542c7-78af-4094-b730-6be3120582ee","system_id":"levelo_inurba_marseille","lat":43.311722,"lon":5.387247,"is_reserved":false,"is_disabled":false,"rental_uris":{"android":"levelo://app?vid=4c5542c7-78af-4094-b730-6be3120582ee","ios":"levelo://app?vid=4c5542c7-78af-4094-b730-6be3120582ee"},"vehicle_type_id":"4","last_reported":1707966529,"current_range_meters":2400,"station_id":"ce4bgv12rcd13ifvqcp0","pricing_plan_id":"cebpf4jnsgd1na2vs0mg"},{"bike_id":"10eb3be7-2c23-4df5-8183-3eab3ac28e70","system_id":"levelo_inurba_marseille","lat":43.322872,"lon":5.382756,"is_reserved":false,"is_disabled":false,"rental_uris":{"android":"levelo://app?vid=10eb3be7-2c23-4df5-8183-3eab3ac28e70","ios":"levelo://app?vid=10eb3be7-2c23-4df5-8183-3eab3ac28e70"},"vehicle_type_id":"4","last_reported":1707966529,"current_range_meters":25600,"station_id":"ce4bhr12rcd13ifvqhqg","pricing_plan_id":"cebpf4jnsgd1na2vs0mg"},{"bike_id":"be38420d-f51a-4967-8251-f13390162da9","system_id":"levelo_inurba_marseille","lat":43.322872,"lon":5.382756,"is_reserved":false,"is_disabled":false,"rental_uris":{"android":"levelo://app?vid=be38420d-f51a-4967-8251-f13390162da9","ios":"levelo://app?vid=be38420d-f51a-4967-8251-f13390162da9"},"vehicle_type_id":"4","last_reported":1707966529,"current_range_meters":30000,"station_id":"ce4bhr12rcd13ifvqhqg","pricing_plan_id":"cebpf4jnsgd1na2vs0mg"},{"bike_id":"aed9e4ad-9c1a-4a51-8095-58a12f0b44f4","system_id":"levelo_inurba_marseille","lat":43.322872,"lon":5.382756,"is_reserved":false,"is_disabled":false,"rental_uris":{"android":"levelo://app?vid=aed9e4ad-9c1a-4a51-8095-58a12f0b44f4","ios":"levelo://app?vid=aed9e4ad-9c1a-4a51-8095-58a12f0b44f4"},"vehicle_type_id":"4","last_reported":1707966529,"current_range_meters":29600,"station_id":"ce4bhr12rcd13ifvqhqg","pricing_plan_id":"cebpf4jnsgd1na2vs0mg"},{"bike_id":"244b7149-7bde-4987-b654-88632569d8fb","system_id":"levelo_inurba_marseille","lat":43.32288,"lon":5.38276,"is_reserved":false,"is_disabled":false,"rental_uris":{"android":"levelo://app?vid=244b7149-7bde-4987-b654-88632569d8fb","ios":"levelo://app?vid=244b7149-7bde-4987-b654-88632569d8fb"},"vehicle_type_id":"4","last_reported":1707966529,"current_range_meters":27200,"station_id":"ce4bhr12rcd13ifvqhqg","pricing_plan_id":"cebpf4jnsgd1na2vs0mg"},{"bike_id":"118fcb4e-73cd-43af-8bf2-be4e0690f9d8","system_id":"levelo_inurba_marseille","lat":43.32291,"lon":5.38277,"is_reserved":false,"is_disabled":false,"rental_uris":{"android":"levelo://app?vid=118fcb4e-73cd-43af-8bf2-be4e0690f9d8","ios":"levelo://app?vid=118fcb4e-73cd-43af-8bf2-be4e0690f9d8"},"vehicle_type_id":"4","last_reported":1707966529,"current_range_meters":9200,"station_id":"ce4bhr12rcd13ifvqhqg","pricing_plan_id":"cebpf4jnsgd1na2vs0mg"},{"bike_id":"b354d40e-f748-45df-b8a4-085ee0f39b31","system_id":"levelo_inurba_marseille","lat":43.32824,"lon":5.3669,"is_reserved":false,"is_disabled":false,"rental_uris":{"android":"levelo://app?vid=b354d40e-f748-45df-b8a4-085ee0f39b31","ios":"levelo://app?vid=b354d40e-f748-45df-b8a4-085ee0f39b31"},"vehicle_type_id":"4","last_reported":1707966529,"current_range_meters":22400,"station_id":"ce4bhs92rcd13ifvqi0g","pricing_plan_id":"cebpf4jnsgd1na2vs0mg"},{"bike_id":"c579bad3-e2d0-4712-a783-f41c065e4e3f","system_id":"levelo_inurba_marseille","lat":43.32825,"lon":5.36673,"is_reserved":false,"is_disabled":false,"rental_uris":{"android":"levelo://app?vid=c579bad3-e2d0-4712-a783-f41c065e4e3f","ios":"levelo://app?vid=c579bad3-e2d0-4712-a783-f41c065e4e3f"},"vehicle_type_id":"4","last_reported":1707966529,"current_range_meters":8800,"station_id":"ce4bhs92rcd13ifvqi0g","pricing_plan_id":"cebpf4jnsgd1na2vs0mg"},{"bike_id":"d059372d-713e-4306-a0dc-ef5b2b5ad059","system_id":"levelo_inurba_marseille","lat":43.32826,"lon":5.36678,"is_reserved":false,"is_disabled":false,"rental_uris":{"android":"levelo://app?vid=d059372d-713e-4306-a0dc-ef5b2b5ad059","ios":"levelo://app?vid=d059372d-713e-4306-a0dc-ef5b2b5ad059"},"vehicle_type_id":"4","last_reported":1707966529,"current_range_meters":2000,"station_id":"ce4bhs92rcd13ifvqi0g","pricing_plan_id":"cebpf4jnsgd1na2vs0mg"},{"bike_id":"ba7e2d45-23a5-46a7-b5c1-beb1b5de7e04","system_id":"levelo_inurba_marseille","lat":43.328264,"lon":5.36691,"is_reserved":false,"is_disabled":false,"rental_uris":{"android":"levelo://app?vid=ba7e2d45-23a5-46a7-b5c1-beb1b5de7e04","ios":"levelo://app?vid=ba7e2d45-23a5-46a7-b5c1-beb1b5de7e04"},"vehicle_type_id":"4","last_reported":1707966529,"current_range_meters":16800,"station_id":"ce4bhs92rcd13ifvqi0g","pricing_plan_id":"cebpf4jnsgd1na2vs0mg"},{"bike_id":"c9b88aad-86c2-4a51-9436-08e8586a0048","system_id":"levelo_inurba_marseille","lat":43.328272,"lon":5.366792,"is_reserved":false,"is_disabled":false,"rental_uris":{"android":"levelo://app?vid=c9b88aad-86c2-4a51-9436-08e8586a0048","ios":"levelo://app?vid=c9b88aad-86c2-4a51-9436-08e8586a0048"},"vehicle_type_id":"4","last_reported":1707966529,"current_range_meters":18000,"station_id":"ce4bhs92rcd13ifvqi0g","pricing_plan_id":"cebpf4jnsgd1na2vs0mg"},{"bike_id":"2c0240b9-332f-43a4-b9ad-92a79e9225d2","system_id":"levelo_inurba_marseille","lat":43.32828,"lon":5.36678,"is_reserved":false,"is_disabled":false,"rental_uris":{"android":"levelo://app?vid=2c0240b9-332f-43a4-b9ad-92a79e9225d2","ios":"levelo://app?vid=2c0240b9-332f-43a4-b9ad-92a79e9225d2"},"vehicle_type_id":"4","last_reported":1707966529,"current_range_meters":10800,"station_id":"ce4bhs92rcd13ifvqi0g","pricing_plan_id":"cebpf4jnsgd1na2vs0mg"},{"bike_id":"ec21c626-faeb-41e5-9192-4d2bef3ee4d3","system_id":"levelo_inurba_marseille","lat":43.32828,"lon":5.36676,"is_reserved":false,"is_disabled":false,"rental_uris":{"android":"levelo://app?vid=ec21c626-faeb-41e5-9192-4d2bef3ee4d3","ios":"levelo://app?vid=ec21c626-faeb-41e5-9192-4d2bef3ee4d3"},"vehicle_type_id":"4","last_reported":1707966529,"current_range_meters":7600,"station_id":"ce4bhs92rcd13ifvqi0g","pricing_plan_id":"cebpf4jnsgd1na2vs0mg"},{"bike_id":"24cbb04a-c763-4b6c-91c7-7ce4ce9a6969","system_id":"levelo_inurba_marseille","lat":43.32829,"lon":5.36681,"is_reserved":false,"is_disabled":false,"rental_uris":{"android":"levelo://app?vid=24cbb04a-c763-4b6c-91c7-7ce4ce9a6969","ios":"levelo://app?vid=24cbb04a-c763-4b6c-91c7-7ce4ce9a6969"},"vehicle_type_id":"4","last_reported":1707966529,"current_range_meters":14800,"station_id":"ce4bhs92rcd13ifvqi0g","pricing_plan_id":"cebpf4jnsgd1na2vs0mg"},{"bike_id":"eec18b1c-bcf1-4268-8859-b234d772b467","system_id":"levelo_inurba_marseille","lat":43.32829,"lon":5.36675,"is_reserved":false,"is_disabled":false,"rental_uris":{"android":"levelo://app?vid=eec18b1c-bcf1-4268-8859-b234d772b467","ios":"levelo://app?vid=eec18b1c-bcf1-4268-8859-b234d772b467"},"vehicle_type_id":"4","last_reported":1707966529,"current_range_meters":10000,"station_id":"ce4bhs92rcd13ifvqi0g","pricing_plan_id":"cebpf4jnsgd1na2vs0mg"},{"bike_id":"57f57f96-aa15-40ae-a761-f5242a8c30b7","system_id":"levelo_inurba_marseille","lat":43.32829,"lon":5.36673,"is_reserved":false,"is_disabled":false,"rental_uris":{"android":"levelo://app?vid=57f57f96-aa15-40ae-a761-f5242a8c30b7","ios":"levelo://app?vid=57f57f96-aa15-40ae-a761-f5242a8c30b7"},"vehicle_type_id":"4","last_reported":1707966529,"current_range_meters":13600,"station_id":"ce4bhs92rcd13ifvqi0g","pricing_plan_id":"cebpf4jnsgd1na2vs0mg"},{"bike_id":"20747a73-3ec2-4ec7-9c3a-f0ad85525260","system_id":"levelo_inurba_marseille","lat":43.32829,"lon":5.36672,"is_reserved":false,"is_disabled":false,"rental_uris":{"android":"levelo://app?vid=20747a73-3ec2-4ec7-9c3a-f0ad85525260","ios":"levelo://app?vid=20747a73-3ec2-4ec7-9c3a-f0ad85525260"},"vehicle_type_id":"4","last_reported":1707966529,"current_range_meters":2000,"station_id":"ce4bhs92rcd13ifvqi0g","pricing_plan_id":"cebpf4jnsgd1na2vs0mg"},{"bike_id":"8d4d4aba-3495-4235-ada7-809a0bcb5c57","system_id":"levelo_inurba_marseille","lat":43.32832,"lon":5.36673,"is_reserved":false,"is_disabled":false,"rental_uris":{"android":"levelo://app?vid=8d4d4aba-3495-4235-ada7-809a0bcb5c57","ios":"levelo://app?vid=8d4d4aba-3495-4235-ada7-809a0bcb5c57"},"vehicle_type_id":"4","last_reported":1707966529,"current_range_meters":21200,"station_id":"ce4bhs92rcd13ifvqi0g","pricing_plan_id":"cebpf4jnsgd1na2vs0mg"},{"bike_id":"00c486e2-5b6f-4240-9c00-f34f4cd392e2","system_id":"levelo_inurba_marseille","lat":43.32832,"lon":5.36668,"is_reserved":false,"is_disabled":false,"rental_uris":{"android":"levelo://app?vid=00c486e2-5b6f-4240-9c00-f34f4cd392e2","ios":"levelo://app?vid=00c486e2-5b6f-4240-9c00-f34f4cd392e2"},"vehicle_type_id":"4","last_reported":1707966529,"current_range_meters":15600,"station_id":"ce4bhs92rcd13ifvqi0g","pricing_plan_id":"cebpf4jnsgd1na2vs0mg"},{"bike_id":"e53477e0-6f81-44d0-bf92-8c0c4ae8ef5b","system_id":"levelo_inurba_marseille","lat":43.328322,"lon":5.366824,"is_reserved":false,"is_disabled":false,"rental_uris":{"android":"levelo://app?vid=e53477e0-6f81-44d0-bf92-8c0c4ae8ef5b","ios":"levelo://app?vid=e53477e0-6f81-44d0-bf92-8c0c4ae8ef5b"},"vehicle_type_id":"4","last_reported":1707966529,"current_range_meters":16800,"station_id":"ce4bhs92rcd13ifvqi0g","pricing_plan_id":"cebpf4jnsgd1na2vs0mg"},{"bike_id":"21e34cb8-ab84-4bcf-af44-ce5eaa23f4a9","system_id":"levelo_inurba_marseille","lat":43.328333,"lon":5.366699,"is_reserved":false,"is_disabled":false,"rental_uris":{"android":"levelo://app?vid=21e34cb8-ab84-4bcf-af44-ce5eaa23f4a9","ios":"levelo://app?vid=21e34cb8-ab84-4bcf-af44-ce5eaa23f4a9"},"vehicle_type_id":"4","last_reported":1707966529,"current_range_meters":10400,"station_id":"ce4bhs92rcd13ifvqi0g","pricing_plan_id":"cebpf4jnsgd1na2vs0mg"},{"bike_id":"8b36ce43-3bc7-4f8a-bb1e-1f87c12ac26a","system_id":"levelo_inurba_marseille","lat":43.328339,"lon":5.366774,"is_reserved":false,"is_disabled":false,"rental_uris":{"android":"levelo://app?vid=8b36ce43-3bc7-4f8a-bb1e-1f87c12ac26a","ios":"levelo://app?vid=8b36ce43-3bc7-4f8a-bb1e-1f87c12ac26a"},"vehicle_type_id":"4","last_reported":1707966529,"current_range_meters":8000,"station_id":"ce4bhs92rcd13ifvqi0g","pricing_plan_id":"cebpf4jnsgd1na2vs0mg"},{"bike_id":"f41ceea4-9289-4d6b-990c-9f2656a72f3b","system_id":"levelo_inurba_marseille","lat":43.32834,"lon":5.36677,"is_reserved":false,"is_disabled":false,"rental_uris":{"android":"levelo://app?vid=f41ceea4-9289-4d6b-990c-9f2656a72f3b","ios":"levelo://app?vid=f41ceea4-9289-4d6b-990c-9f2656a72f3b"},"vehicle_type_id":"4","last_reported":1707966529,"current_range_meters":1200,"station_id":"ce4bhs92rcd13ifvqi0g","pricing_plan_id":"cebpf4jnsgd1na2vs0mg"},{"bike_id":"7c47e388-9433-4092-857a-2e1a28e7faaa","system_id":"levelo_inurba_marseille","lat":43.32834,"lon":5.366706,"is_reserved":false,"is_disabled":false,"rental_uris":{"android":"levelo://app?vid=7c47e388-9433-4092-857a-2e1a28e7faaa","ios":"levelo://app?vid=7c47e388-9433-4092-857a-2e1a28e7faaa"},"vehicle_type_id":"4","last_reported":1707966529,"current_range_meters":25600,"station_id":"ce4bhs92rcd13ifvqi0g","pricing_plan_id":"cebpf4jnsgd1na2vs0mg"},{"bike_id":"6df14f4e-5762-4688-823c-207c1d70636e","system_id":"levelo_inurba_marseille","lat":43.32834,"lon":5.3667,"is_reserved":false,"is_disabled":false,"rental_uris":{"android":"levelo://app?vid=6df14f4e-5762-4688-823c-207c1d70636e","ios":"levelo://app?vid=6df14f4e-5762-4688-823c-207c1d70636e"},"vehicle_type_id":"4","last_reported":1707966529,"current_range_meters":4000,"station_id":"ce4bhs92rcd13ifvqi0g","pricing_plan_id":"cebpf4jnsgd1na2vs0mg"},{"bike_id":"b338c1d7-627e-4015-898a-dcde5ba40d9d","system_id":"levelo_inurba_marseille","lat":43.328345,"lon":5.366739,"is_reserved":false,"is_disabled":false,"rental_uris":{"android":"levelo://app?vid=b338c1d7-627e-4015-898a-dcde5ba40d9d","ios":"levelo://app?vid=b338c1d7-627e-4015-898a-dcde5ba40d9d"},"vehicle_type_id":"4","last_reported":1707966529,"current_range_meters":0,"station_id":"ce4bhs92rcd13ifvqi0g","pricing_plan_id":"cebpf4jnsgd1na2vs0mg"},{"bike_id":"1f889055-349d-401d-9e29-d4ea20109cac","system_id":"levelo_inurba_marseille","lat":43.297163,"lon":5.365866,"is_reserved":false,"is_disabled":false,"rental_uris":{"android":"levelo://app?vid=1f889055-349d-401d-9e29-d4ea20109cac","ios":"levelo://app?vid=1f889055-349d-401d-9e29-d4ea20109cac"},"vehicle_type_id":"4","last_reported":1707966529,"current_range_meters":30800,"station_id":"ce4bgn12rcd13ifvqbt0","pricing_plan_id":"cebpf4jnsgd1na2vs0mg"},{"bike_id":"bd84e539-838d-442a-a573-70d27b755fc7","system_id":"levelo_inurba_marseille","lat":43.299028,"lon":5.381509,"is_reserved":false,"is_disabled":false,"rental_uris":{"android":"levelo://app?vid=bd84e539-838d-442a-a573-70d27b755fc7","ios":"levelo://app?vid=bd84e539-838d-442a-a573-70d27b755fc7"},"vehicle_type_id":"4","last_reported":1707966529,"current_range_meters":30000,"station_id":"ce4bgj12rcd13ifvqbc0","pricing_plan_id":"cebpf4jnsgd1na2vs0mg"},{"bike_id":"43233241-859b-48de-8612-b6c1b825776d","system_id":"levelo_inurba_marseille","lat":43.317604,"lon":5.390064,"is_reserved":false,"is_disabled":false,"rental_uris":{"android":"levelo://app?vid=43233241-859b-48de-8612-b6c1b825776d","ios":"levelo://app?vid=43233241-859b-48de-8612-b6c1b825776d"},"vehicle_type_id":"4","last_reported":1707966529,"current_range_meters":9200,"station_id":"ce4bhqp2rcd13ifvqhng","pricing_plan_id":"cebpf4jnsgd1na2vs0mg"},{"bike_id":"46fddee0-8afd-4938-8611-aae2e5c099d9","system_id":"levelo_inurba_marseille","lat":43.317556,"lon":5.390104,"is_reserved":false,"is_disabled":false,"rental_uris":{"android":"levelo://app?vid=46fddee0-8afd-4938-8611-aae2e5c099d9","ios":"levelo://app?vid=46fddee0-8afd-4938-8611-aae2e5c099d9"},"vehicle_type_id":"4","last_reported":1707966529,"current_range_meters":24000,"station_id":"ce4bhqp2rcd13ifvqhng","pricing_plan_id":"cebpf4jnsgd1na2vs0mg"},{"bike_id":"c4c3f9a0-53dc-445a-8ef4-97edc1f059b6","system_id":"levelo_inurba_marseille","lat":43.317575,"lon":5.390107,"is_reserved":false,"is_disabled":false,"rental_uris":{"android":"levelo://app?vid=c4c3f9a0-53dc-445a-8ef4-97edc1f059b6","ios":"levelo://app?vid=c4c3f9a0-53dc-445a-8ef4-97edc1f059b6"},"vehicle_type_id":"4","last_reported":1707966529,"current_range_meters":10400,"station_id":"ce4bhqp2rcd13ifvqhng","pricing_plan_id":"cebpf4jnsgd1na2vs0mg"},{"bike_id":"b3dcb9ba-bf07-48c1-aada-2fbdb761a352","system_id":"levelo_inurba_marseille","lat":43.317557,"lon":5.390173,"is_reserved":false,"is_disabled":false,"rental_uris":{"android":"levelo://app?vid=b3dcb9ba-bf07-48c1-aada-2fbdb761a352","ios":"levelo://app?vid=b3dcb9ba-bf07-48c1-aada-2fbdb761a352"},"vehicle_type_id":"4","last_reported":1707966529,"current_range_meters":31200,"station_id":"ce4bhqp2rcd13ifvqhng","pricing_plan_id":"cebpf4jnsgd1na2vs0mg"},{"bike_id":"0d568f49-9e25-417a-91e9-babe78949eca","system_id":"levelo_inurba_marseille","lat":43.317557,"lon":5.390173,"is_reserved":false,"is_disabled":false,"rental_uris":{"android":"levelo://app?vid=0d568f49-9e25-417a-91e9-babe78949eca","ios":"levelo://app?vid=0d568f49-9e25-417a-91e9-babe78949eca"},"vehicle_type_id":"4","last_reported":1707966529,"current_range_meters":29600,"station_id":"ce4bhqp2rcd13ifvqhng","pricing_plan_id":"cebpf4jnsgd1na2vs0mg"},{"bike_id":"4d1fc426-76ca-4e7f-b775-e8d4d4862683","system_id":"levelo_inurba_marseille","lat":43.317557,"lon":5.390173,"is_reserved":false,"is_disabled":false,"rental_uris":{"android":"levelo://app?vid=4d1fc426-76ca-4e7f-b775-e8d4d4862683","ios":"levelo://app?vid=4d1fc426-76ca-4e7f-b775-e8d4d4862683"},"vehicle_type_id":"4","last_reported":1707966529,"current_range_meters":28800,"station_id":"ce4bhqp2rcd13ifvqhng","pricing_plan_id":"cebpf4jnsgd1na2vs0mg"},{"bike_id":"13db1a0a-84c8-4ba0-87f6-9800285e27fa","system_id":"levelo_inurba_marseille","lat":43.31759,"lon":5.390183,"is_reserved":false,"is_disabled":false,"rental_uris":{"android":"levelo://app?vid=13db1a0a-84c8-4ba0-87f6-9800285e27fa","ios":"levelo://app?vid=13db1a0a-84c8-4ba0-87f6-9800285e27fa"},"vehicle_type_id":"4","last_reported":1707966529,"current_range_meters":31200,"station_id":"ce4bhqp2rcd13ifvqhng","pricing_plan_id":"cebpf4jnsgd1na2vs0mg"},{"bike_id":"bb6e54d1-0e60-4916-a05f-65ed728637f5","system_id":"levelo_inurba_marseille","lat":43.317557,"lon":5.390173,"is_reserved":false,"is_disabled":false,"rental_uris":{"android":"levelo://app?vid=bb6e54d1-0e60-4916-a05f-65ed728637f5","ios":"levelo://app?vid=bb6e54d1-0e60-4916-a05f-65ed728637f5"},"vehicle_type_id":"4","last_reported":1707966529,"current_range_meters":30400,"station_id":"ce4bhqp2rcd13ifvqhng","pricing_plan_id":"cebpf4jnsgd1na2vs0mg"},{"bike_id":"61113e6d-e1f4-49e1-94b1-ccb6fc9bcaf5","system_id":"levelo_inurba_marseille","lat":43.317557,"lon":5.390173,"is_reserved":false,"is_disabled":false,"rental_uris":{"android":"levelo://app?vid=61113e6d-e1f4-49e1-94b1-ccb6fc9bcaf5","ios":"levelo://app?vid=61113e6d-e1f4-49e1-94b1-ccb6fc9bcaf5"},"vehicle_type_id":"4","last_reported":1707966529,"current_range_meters":16400,"station_id":"ce4bhqp2rcd13ifvqhng","pricing_plan_id":"cebpf4jnsgd1na2vs0mg"},{"bike_id":"a66fec16-5c26-4073-bc2a-b4cafe2573db","system_id":"levelo_inurba_marseille","lat":43.2975,"lon":5.37929,"is_reserved":false,"is_disabled":false,"rental_uris":{"android":"levelo://app?vid=a66fec16-5c26-4073-bc2a-b4cafe2573db","ios":"levelo://app?vid=a66fec16-5c26-4073-bc2a-b4cafe2573db"},"vehicle_type_id":"4","last_reported":1707966529,"current_range_meters":0,"station_id":"","pricing_plan_id":"cebpf4jnsgd1na2vs0mg"},{"bike_id":"2de7a8c8-725d-4422-bab6-cd89636039ba","system_id":"levelo_inurba_marseille","lat":43.295831,"lon":5.37517,"is_reserved":false,"is_disabled":false,"rental_uris":{"android":"levelo://app?vid=2de7a8c8-725d-4422-bab6-cd89636039ba","ios":"levelo://app?vid=2de7a8c8-725d-4422-bab6-cd89636039ba"},"vehicle_type_id":"4","last_reported":1707966529,"current_range_meters":16000,"station_id":"","pricing_plan_id":"cebpf4jnsgd1na2vs0mg"},{"bike_id":"6898a7c6-d65b-4b26-9183-c0321a22ff1c","system_id":"levelo_inurba_marseille","lat":43.304274,"lon":5.388873,"is_reserved":false,"is_disabled":false,"rental_uris":{"android":"levelo://app?vid=6898a7c6-d65b-4b26-9183-c0321a22ff1c","ios":"levelo://app?vid=6898a7c6-d65b-4b26-9183-c0321a22ff1c"},"vehicle_type_id":"4","last_reported":1707966529,"current_range_meters":27600,"station_id":"ce4bgk12rcd13ifvqbi0","pricing_plan_id":"cebpf4jnsgd1na2vs0mg"},{"bike_id":"b8a48d1a-61d4-4bcd-a40c-a07f4791f68a","system_id":"levelo_inurba_marseille","lat":43.304278,"lon":5.388868,"is_reserved":false,"is_disabled":false,"rental_uris":{"android":"levelo://app?vid=b8a48d1a-61d4-4bcd-a40c-a07f4791f68a","ios":"levelo://app?vid=b8a48d1a-61d4-4bcd-a40c-a07f4791f68a"},"vehicle_type_id":"4","last_reported":1707966529,"current_range_meters":11600,"station_id":"ce4bgk12rcd13ifvqbi0","pricing_plan_id":"cebpf4jnsgd1na2vs0mg"},{"bike_id":"c4317630-d7e2-4db5-9250-1b2fd828896e","system_id":"levelo_inurba_marseille","lat":43.304274,"lon":5.388873,"is_reserved":false,"is_disabled":false,"rental_uris":{"android":"levelo://app?vid=c4317630-d7e2-4db5-9250-1b2fd828896e","ios":"levelo://app?vid=c4317630-d7e2-4db5-9250-1b2fd828896e"},"vehicle_type_id":"4","last_reported":1707966529,"current_range_meters":19200,"station_id":"ce4bgk12rcd13ifvqbi0","pricing_plan_id":"cebpf4jnsgd1na2vs0mg"},{"bike_id":"9ff12565-8b84-4d19-bc31-4f6a3d9b2c73","system_id":"levelo_inurba_marseille","lat":43.299707,"lon":5.384859,"is_reserved":false,"is_disabled":false,"rental_uris":{"android":"levelo://app?vid=9ff12565-8b84-4d19-bc31-4f6a3d9b2c73","ios":"levelo://app?vid=9ff12565-8b84-4d19-bc31-4f6a3d9b2c73"},"vehicle_type_id":"4","last_reported":1707966529,"current_range_meters":29200,"station_id":"ce4bgj92rcd13ifvqbd0","pricing_plan_id":"cebpf4jnsgd1na2vs0mg"},{"bike_id":"4614941c-f05f-4a35-aa3a-4a019f6f611d","system_id":"levelo_inurba_marseille","lat":43.299724,"lon":5.384848,"is_reserved":false,"is_disabled":false,"rental_uris":{"android":"levelo://app?vid=4614941c-f05f-4a35-aa3a-4a019f6f611d","ios":"levelo://app?vid=4614941c-f05f-4a35-aa3a-4a019f6f611d"},"vehicle_type_id":"4","last_reported":1707966529,"current_range_meters":30800,"station_id":"ce4bgj92rcd13ifvqbd0","pricing_plan_id":"cebpf4jnsgd1na2vs0mg"},{"bike_id":"cc36d624-ed66-4db6-bb3b-42695f88d813","system_id":"levelo_inurba_marseille","lat":43.323656,"lon":5.38879,"is_reserved":false,"is_disabled":false,"rental_uris":{"android":"levelo://app?vid=cc36d624-ed66-4db6-bb3b-42695f88d813","ios":"levelo://app?vid=cc36d624-ed66-4db6-bb3b-42695f88d813"},"vehicle_type_id":"4","last_reported":1707966529,"current_range_meters":7600,"station_id":"ce4bhqp2rcd13ifvqhog","pricing_plan_id":"cebpf4jnsgd1na2vs0mg"},{"bike_id":"14c4240b-6c6d-4f04-9d81-35e919fc3827","system_id":"levelo_inurba_marseille","lat":43.32367,"lon":5.388836,"is_reserved":false,"is_disabled":false,"rental_uris":{"android":"levelo://app?vid=14c4240b-6c6d-4f04-9d81-35e919fc3827","ios":"levelo://app?vid=14c4240b-6c6d-4f04-9d81-35e919fc3827"},"vehicle_type_id":"4","last_reported":1707966529,"current_range_meters":9600,"station_id":"ce4bhqp2rcd13ifvqhog","pricing_plan_id":"cebpf4jnsgd1na2vs0mg"},{"bike_id":"9a785585-c85b-4fa3-85aa-80d29ca57d9f","system_id":"levelo_inurba_marseille","lat":43.32367,"lon":5.388836,"is_reserved":false,"is_disabled":false,"rental_uris":{"android":"levelo://app?vid=9a785585-c85b-4fa3-85aa-80d29ca57d9f","ios":"levelo://app?vid=9a785585-c85b-4fa3-85aa-80d29ca57d9f"},"vehicle_type_id":"4","last_reported":1707966529,"current_range_meters":12000,"station_id":"ce4bhqp2rcd13ifvqhog","pricing_plan_id":"cebpf4jnsgd1na2vs0mg"},{"bike_id":"410bf392-d4a4-44a9-8b1d-d839486dc03c","system_id":"levelo_inurba_marseille","lat":43.32363,"lon":5.38887,"is_reserved":false,"is_disabled":false,"rental_uris":{"android":"levelo://app?vid=410bf392-d4a4-44a9-8b1d-d839486dc03c","ios":"levelo://app?vid=410bf392-d4a4-44a9-8b1d-d839486dc03c"},"vehicle_type_id":"4","last_reported":1707966529,"current_range_meters":4800,"station_id":"ce4bhqp2rcd13ifvqhog","pricing_plan_id":"cebpf4jnsgd1na2vs0mg"},{"bike_id":"7b8ae2a5-fea4-420f-9e1d-5f67a20c6887","system_id":"levelo_inurba_marseille","lat":43.32367,"lon":5.388836,"is_reserved":false,"is_disabled":false,"rental_uris":{"android":"levelo://app?vid=7b8ae2a5-fea4-420f-9e1d-5f67a20c6887","ios":"levelo://app?vid=7b8ae2a5-fea4-420f-9e1d-5f67a20c6887"},"vehicle_type_id":"4","last_reported":1707966529,"current_range_meters":22800,"station_id":"ce4bhqp2rcd13ifvqhog","pricing_plan_id":"cebpf4jnsgd1na2vs0mg"},{"bike_id":"24aefc00-aad1-4b8c-bf24-dea0a292f589","system_id":"levelo_inurba_marseille","lat":43.32364,"lon":5.38888,"is_reserved":false,"is_disabled":false,"rental_uris":{"android":"levelo://app?vid=24aefc00-aad1-4b8c-bf24-dea0a292f589","ios":"levelo://app?vid=24aefc00-aad1-4b8c-bf24-dea0a292f589"},"vehicle_type_id":"4","last_reported":1707966529,"current_range_meters":14800,"station_id":"ce4bhqp2rcd13ifvqhog","pricing_plan_id":"cebpf4jnsgd1na2vs0mg"},{"bike_id":"f7774fb3-e7a1-430a-8e08-d061763c1bd7","system_id":"levelo_inurba_marseille","lat":43.29602,"lon":5.381084,"is_reserved":false,"is_disabled":false,"rental_uris":{"android":"levelo://app?vid=f7774fb3-e7a1-430a-8e08-d061763c1bd7","ios":"levelo://app?vid=f7774fb3-e7a1-430a-8e08-d061763c1bd7"},"vehicle_type_id":"4","last_reported":1707966529,"current_range_meters":22800,"station_id":"ce4bgl12rcd13ifvqbo0","pricing_plan_id":"cebpf4jnsgd1na2vs0mg"},{"bike_id":"ff7d55d4-7265-4531-84c1-d75c092f6c66","system_id":"levelo_inurba_marseille","lat":43.29601,"lon":5.381084,"is_reserved":false,"is_disabled":false,"rental_uris":{"android":"levelo://app?vid=ff7d55d4-7265-4531-84c1-d75c092f6c66","ios":"levelo://app?vid=ff7d55d4-7265-4531-84c1-d75c092f6c66"},"vehicle_type_id":"4","last_reported":1707966529,"current_range_meters":3600,"station_id":"ce4bgl12rcd13ifvqbo0","pricing_plan_id":"cebpf4jnsgd1na2vs0mg"},{"bike_id":"cbcf65b6-3b7b-41e3-81b1-1c4603e36228","system_id":"levelo_inurba_marseille","lat":43.29601,"lon":5.381084,"is_reserved":false,"is_disabled":false,"rental_uris":{"android":"levelo://app?vid=cbcf65b6-3b7b-41e3-81b1-1c4603e36228","ios":"levelo://app?vid=cbcf65b6-3b7b-41e3-81b1-1c4603e36228"},"vehicle_type_id":"4","last_reported":1707966529,"current_range_meters":18400,"station_id":"ce4bgl12rcd13ifvqbo0","pricing_plan_id":"cebpf4jnsgd1na2vs0mg"},{"bike_id":"cf201748-fab7-4e77-933e-c147c6f3f48b","system_id":"levelo_inurba_marseille","lat":43.29307,"lon":5.371758,"is_reserved":false,"is_disabled":false,"rental_uris":{"android":"levelo://app?vid=cf201748-fab7-4e77-933e-c147c6f3f48b","ios":"levelo://app?vid=cf201748-fab7-4e77-933e-c147c6f3f48b"},"vehicle_type_id":"4","last_reported":1707966529,"current_range_meters":18000,"station_id":"ce4bgh92rcd13ifvqb40","pricing_plan_id":"cebpf4jnsgd1na2vs0mg"},{"bike_id":"d4653565-55b1-4aa7-a98f-f7951e27c6ec","system_id":"levelo_inurba_marseille","lat":43.305994,"lon":5.393687,"is_reserved":false,"is_disabled":false,"rental_uris":{"android":"levelo://app?vid=d4653565-55b1-4aa7-a98f-f7951e27c6ec","ios":"levelo://app?vid=d4653565-55b1-4aa7-a98f-f7951e27c6ec"},"vehicle_type_id":"4","last_reported":1707966529,"current_range_meters":20000,"station_id":"ce4bh0p2rcd13ifvqd80","pricing_plan_id":"cebpf4jnsgd1na2vs0mg"},{"bike_id":"8510471c-3813-4345-ae94-08ffb0948045","system_id":"levelo_inurba_marseille","lat":43.305994,"lon":5.393687,"is_reserved":false,"is_disabled":false,"rental_uris":{"android":"levelo://app?vid=8510471c-3813-4345-ae94-08ffb0948045","ios":"levelo://app?vid=8510471c-3813-4345-ae94-08ffb0948045"},"vehicle_type_id":"4","last_reported":1707966529,"current_range_meters":26000,"station_id":"ce4bh0p2rcd13ifvqd80","pricing_plan_id":"cebpf4jnsgd1na2vs0mg"},{"bike_id":"78084616-36e4-4b69-97b1-d43ec8e14582","system_id":"levelo_inurba_marseille","lat":43.305994,"lon":5.393687,"is_reserved":false,"is_disabled":false,"rental_uris":{"android":"levelo://app?vid=78084616-36e4-4b69-97b1-d43ec8e14582","ios":"levelo://app?vid=78084616-36e4-4b69-97b1-d43ec8e14582"},"vehicle_type_id":"4","last_reported":1707966529,"current_range_meters":28000,"station_id":"ce4bh0p2rcd13ifvqd80","pricing_plan_id":"cebpf4jnsgd1na2vs0mg"},{"bike_id":"5aef1e2d-6845-4a72-82fb-0c50c4bfccf3","system_id":"levelo_inurba_marseille","lat":43.305994,"lon":5.393687,"is_reserved":false,"is_disabled":false,"rental_uris":{"android":"levelo://app?vid=5aef1e2d-6845-4a72-82fb-0c50c4bfccf3","ios":"levelo://app?vid=5aef1e2d-6845-4a72-82fb-0c50c4bfccf3"},"vehicle_type_id":"4","last_reported":1707966529,"current_range_meters":21200,"station_id":"ce4bh0p2rcd13ifvqd80","pricing_plan_id":"cebpf4jnsgd1na2vs0mg"},{"bike_id":"dcc11e61-c78e-41c2-89eb-52af62303ee6","system_id":"levelo_inurba_marseille","lat":43.305994,"lon":5.393687,"is_reserved":false,"is_disabled":false,"rental_uris":{"android":"levelo://app?vid=dcc11e61-c78e-41c2-89eb-52af62303ee6","ios":"levelo://app?vid=dcc11e61-c78e-41c2-89eb-52af62303ee6"},"vehicle_type_id":"4","last_reported":1707966529,"current_range_meters":21600,"station_id":"ce4bh0p2rcd13ifvqd80","pricing_plan_id":"cebpf4jnsgd1na2vs0mg"},{"bike_id":"6b1b40eb-7df6-4e5f-b6b9-8345877823d9","system_id":"levelo_inurba_marseille","lat":43.305986,"lon":5.393646,"is_reserved":false,"is_disabled":false,"rental_uris":{"android":"levelo://app?vid=6b1b40eb-7df6-4e5f-b6b9-8345877823d9","ios":"levelo://app?vid=6b1b40eb-7df6-4e5f-b6b9-8345877823d9"},"vehicle_type_id":"4","last_reported":1707966529,"current_range_meters":0,"station_id":"","pricing_plan_id":"cebpf4jnsgd1na2vs0mg"},{"bike_id":"0d1a17dd-0bd8-4e13-bece-627b8bd05803","system_id":"levelo_inurba_marseille","lat":43.293009,"lon":5.374584,"is_reserved":false,"is_disabled":false,"rental_uris":{"android":"levelo://app?vid=0d1a17dd-0bd8-4e13-bece-627b8bd05803","ios":"levelo://app?vid=0d1a17dd-0bd8-4e13-bece-627b8bd05803"},"vehicle_type_id":"4","last_reported":1707966529,"current_range_meters":25200,"station_id":"ce4bgi12rcd13ifvqb70","pricing_plan_id":"cebpf4jnsgd1na2vs0mg"},{"bike_id":"e0281a04-e701-4e29-aaf0-436e0231284b","system_id":"levelo_inurba_marseille","lat":43.302985,"lon":5.392046,"is_reserved":false,"is_disabled":false,"rental_uris":{"android":"levelo://app?vid=e0281a04-e701-4e29-aaf0-436e0231284b","ios":"levelo://app?vid=e0281a04-e701-4e29-aaf0-436e0231284b"},"vehicle_type_id":"4","last_reported":1707966529,"current_range_meters":9600,"station_id":"ce4bgkh2rcd13ifvqbk0","pricing_plan_id":"cebpf4jnsgd1na2vs0mg"},{"bike_id":"c5641bd3-1774-42ee-8ad0-bf26838a01a7","system_id":"levelo_inurba_marseille","lat":43.302992,"lon":5.392136,"is_reserved":false,"is_disabled":false,"rental_uris":{"android":"levelo://app?vid=c5641bd3-1774-42ee-8ad0-bf26838a01a7","ios":"levelo://app?vid=c5641bd3-1774-42ee-8ad0-bf26838a01a7"},"vehicle_type_id":"4","last_reported":1707966529,"current_range_meters":26000,"station_id":"ce4bgkh2rcd13ifvqbk0","pricing_plan_id":"cebpf4jnsgd1na2vs0mg"},{"bike_id":"0427144b-6daa-45a2-8fac-c9a3eb32cd69","system_id":"levelo_inurba_marseille","lat":43.2936,"lon":5.37835,"is_reserved":false,"is_disabled":false,"rental_uris":{"android":"levelo://app?vid=0427144b-6daa-45a2-8fac-c9a3eb32cd69","ios":"levelo://app?vid=0427144b-6daa-45a2-8fac-c9a3eb32cd69"},"vehicle_type_id":"4","last_reported":1707966529,"current_range_meters":27600,"station_id":"ce4bgjh2rcd13ifvqbf0","pricing_plan_id":"cebpf4jnsgd1na2vs0mg"},{"bike_id":"e0d6539b-2a48-4794-862a-51b5231bf25f","system_id":"levelo_inurba_marseille","lat":43.292331,"lon":5.36048,"is_reserved":false,"is_disabled":false,"rental_uris":{"android":"levelo://app?vid=e0d6539b-2a48-4794-862a-51b5231bf25f","ios":"levelo://app?vid=e0d6539b-2a48-4794-862a-51b5231bf25f"},"vehicle_type_id":"4","last_reported":1707966529,"current_range_meters":14000,"station_id":"ce4bhbh2rcd13ifvqeqg","pricing_plan_id":"cebpf4jnsgd1na2vs0mg"},{"bike_id":"988bde5c-07b5-4155-9f70-57f9e321fc25","system_id":"levelo_inurba_marseille","lat":43.300852,"lon":5.390859,"is_reserved":false,"is_disabled":false,"rental_uris":{"android":"levelo://app?vid=988bde5c-07b5-4155-9f70-57f9e321fc25","ios":"levelo://app?vid=988bde5c-07b5-4155-9f70-57f9e321fc25"},"vehicle_type_id":"4","last_reported":1707966529,"current_range_meters":26800,"station_id":"ce4bh192rcd13ifvqdb0","pricing_plan_id":"cebpf4jnsgd1na2vs0mg"},{"bike_id":"dcaee538-aea4-47ce-8a2a-88089efbbd80","system_id":"levelo_inurba_marseille","lat":43.292311,"lon":5.360731,"is_reserved":false,"is_disabled":false,"rental_uris":{"android":"levelo://app?vid=dcaee538-aea4-47ce-8a2a-88089efbbd80","ios":"levelo://app?vid=dcaee538-aea4-47ce-8a2a-88089efbbd80"},"vehicle_type_id":"4","last_reported":1707966529,"current_range_meters":30400,"station_id":"ce4bhbh2rcd13ifvqeqg","pricing_plan_id":"cebpf4jnsgd1na2vs0mg"},{"bike_id":"1a15756f-f2b0-4fb6-9cd6-0260ad04f52c","system_id":"levelo_inurba_marseille","lat":43.291675,"lon":5.371583,"is_reserved":false,"is_disabled":false,"rental_uris":{"android":"levelo://app?vid=1a15756f-f2b0-4fb6-9cd6-0260ad04f52c","ios":"levelo://app?vid=1a15756f-f2b0-4fb6-9cd6-0260ad04f52c"},"vehicle_type_id":"4","last_reported":1707966529,"current_range_meters":28800,"station_id":"ce4bha92rcd13ifvqeh0","pricing_plan_id":"cebpf4jnsgd1na2vs0mg"},{"bike_id":"53b23731-ec39-4eb9-ade2-9e226873b0a7","system_id":"levelo_inurba_marseille","lat":43.30887,"lon":5.39632,"is_reserved":false,"is_disabled":false,"rental_uris":{"android":"levelo://app?vid=53b23731-ec39-4eb9-ade2-9e226873b0a7","ios":"levelo://app?vid=53b23731-ec39-4eb9-ade2-9e226873b0a7"},"vehicle_type_id":"4","last_reported":1707966529,"current_range_meters":0,"station_id":"ce4bh012rcd13ifvqcv0","pricing_plan_id":"cebpf4jnsgd1na2vs0mg"},{"bike_id":"e8eab736-9d99-43ab-9fae-1563662e1946","system_id":"levelo_inurba_marseille","lat":43.309038,"lon":5.396546,"is_reserved":false,"is_disabled":false,"rental_uris":{"android":"levelo://app?vid=e8eab736-9d99-43ab-9fae-1563662e1946","ios":"levelo://app?vid=e8eab736-9d99-43ab-9fae-1563662e1946"},"vehicle_type_id":"4","last_reported":1707966529,"current_range_meters":30400,"station_id":"ce4bh012rcd13ifvqcv0","pricing_plan_id":"cebpf4jnsgd1na2vs0mg"},{"bike_id":"c7224f08-f978-4bd7-950e-95780fe04c54","system_id":"levelo_inurba_marseille","lat":43.308858,"lon":5.396362,"is_reserved":false,"is_disabled":false,"rental_uris":{"android":"levelo://app?vid=c7224f08-f978-4bd7-950e-95780fe04c54","ios":"levelo://app?vid=c7224f08-f978-4bd7-950e-95780fe04c54"},"vehicle_type_id":"4","last_reported":1707966529,"current_range_meters":28000,"station_id":"ce4bh012rcd13ifvqcv0","pricing_plan_id":"cebpf4jnsgd1na2vs0mg"},{"bike_id":"a312db00-8016-45ee-aa34-fd0d1b42d90c","system_id":"levelo_inurba_marseille","lat":43.308835,"lon":5.396362,"is_reserved":false,"is_disabled":false,"rental_uris":{"android":"levelo://app?vid=a312db00-8016-45ee-aa34-fd0d1b42d90c","ios":"levelo://app?vid=a312db00-8016-45ee-aa34-fd0d1b42d90c"},"vehicle_type_id":"4","last_reported":1707966529,"current_range_meters":6400,"station_id":"ce4bh012rcd13ifvqcv0","pricing_plan_id":"cebpf4jnsgd1na2vs0mg"},{"bike_id":"d087176d-a72e-4ba9-a5b7-e333709c285b","system_id":"levelo_inurba_marseille","lat":43.309047,"lon":5.396551,"is_reserved":false,"is_disabled":false,"rental_uris":{"android":"levelo://app?vid=d087176d-a72e-4ba9-a5b7-e333709c285b","ios":"levelo://app?vid=d087176d-a72e-4ba9-a5b7-e333709c285b"},"vehicle_type_id":"4","last_reported":1707966529,"current_range_meters":29200,"station_id":"ce4bh012rcd13ifvqcv0","pricing_plan_id":"cebpf4jnsgd1na2vs0mg"},{"bike_id":"4f9b503d-4af5-4340-9207-0d0bbf38c0eb","system_id":"levelo_inurba_marseille","lat":43.308791,"lon":5.396371,"is_reserved":false,"is_disabled":false,"rental_uris":{"android":"levelo://app?vid=4f9b503d-4af5-4340-9207-0d0bbf38c0eb","ios":"levelo://app?vid=4f9b503d-4af5-4340-9207-0d0bbf38c0eb"},"vehicle_type_id":"4","last_reported":1707966529,"current_range_meters":2400,"station_id":"ce4bh012rcd13ifvqcv0","pricing_plan_id":"cebpf4jnsgd1na2vs0mg"},{"bike_id":"145fbc22-336e-4f0e-bd50-f82634132dd8","system_id":"levelo_inurba_marseille","lat":43.309038,"lon":5.396546,"is_reserved":false,"is_disabled":false,"rental_uris":{"android":"levelo://app?vid=145fbc22-336e-4f0e-bd50-f82634132dd8","ios":"levelo://app?vid=145fbc22-336e-4f0e-bd50-f82634132dd8"},"vehicle_type_id":"4","last_reported":1707966529,"current_range_meters":30000,"station_id":"ce4bh012rcd13ifvqcv0","pricing_plan_id":"cebpf4jnsgd1na2vs0mg"},{"bike_id":"ceed3ce9-017e-4a54-a8bd-449fe398328b","system_id":"levelo_inurba_marseille","lat":43.291994,"lon":5.357886,"is_reserved":false,"is_disabled":false,"rental_uris":{"android":"levelo://app?vid=ceed3ce9-017e-4a54-a8bd-449fe398328b","ios":"levelo://app?vid=ceed3ce9-017e-4a54-a8bd-449fe398328b"},"vehicle_type_id":"4","last_reported":1707966529,"current_range_meters":14400,"station_id":"ce4bhb12rcd13ifvqel0","pricing_plan_id":"cebpf4jnsgd1na2vs0mg"},{"bike_id":"41d7be42-4771-4c76-955d-aba7c0310b10","system_id":"levelo_inurba_marseille","lat":43.309038,"lon":5.396546,"is_reserved":false,"is_disabled":false,"rental_uris":{"android":"levelo://app?vid=41d7be42-4771-4c76-955d-aba7c0310b10","ios":"levelo://app?vid=41d7be42-4771-4c76-955d-aba7c0310b10"},"vehicle_type_id":"4","last_reported":1707966529,"current_range_meters":28000,"station_id":"ce4bh012rcd13ifvqcv0","pricing_plan_id":"cebpf4jnsgd1na2vs0mg"},{"bike_id":"12d3d59a-08ed-4fd5-9bf4-952936502efb","system_id":"levelo_inurba_marseille","lat":43.308849,"lon":5.396406,"is_reserved":false,"is_disabled":false,"rental_uris":{"android":"levelo://app?vid=12d3d59a-08ed-4fd5-9bf4-952936502efb","ios":"levelo://app?vid=12d3d59a-08ed-4fd5-9bf4-952936502efb"},"vehicle_type_id":"4","last_reported":1707966529,"current_range_meters":18000,"station_id":"ce4bh012rcd13ifvqcv0","pricing_plan_id":"cebpf4jnsgd1na2vs0mg"},{"bike_id":"97dfe3a1-96f9-4c8a-824d-f5598d8eaf48","system_id":"levelo_inurba_marseille","lat":43.309047,"lon":5.396551,"is_reserved":false,"is_disabled":false,"rental_uris":{"android":"levelo://app?vid=97dfe3a1-96f9-4c8a-824d-f5598d8eaf48","ios":"levelo://app?vid=97dfe3a1-96f9-4c8a-824d-f5598d8eaf48"},"vehicle_type_id":"4","last_reported":1707966529,"current_range_meters":30800,"station_id":"ce4bh012rcd13ifvqcv0","pricing_plan_id":"cebpf4jnsgd1na2vs0mg"},{"bike_id":"bb6c94db-f3f5-42a6-8870-d1d5bd46d02b","system_id":"levelo_inurba_marseille","lat":43.309038,"lon":5.396546,"is_reserved":false,"is_disabled":false,"rental_uris":{"android":"levelo://app?vid=bb6c94db-f3f5-42a6-8870-d1d5bd46d02b","ios":"levelo://app?vid=bb6c94db-f3f5-42a6-8870-d1d5bd46d02b"},"vehicle_type_id":"4","last_reported":1707966529,"current_range_meters":30000,"station_id":"ce4bh012rcd13ifvqcv0","pricing_plan_id":"cebpf4jnsgd1na2vs0mg"},{"bike_id":"52b13021-72a3-4806-bc77-baf67751191e","system_id":"levelo_inurba_marseille","lat":43.313291,"lon":5.396838,"is_reserved":false,"is_disabled":false,"rental_uris":{"android":"levelo://app?vid=52b13021-72a3-4806-bc77-baf67751191e","ios":"levelo://app?vid=52b13021-72a3-4806-bc77-baf67751191e"},"vehicle_type_id":"4","last_reported":1707966529,"current_range_meters":14800,"station_id":"ce4bgvp2rcd13ifvqcu0","pricing_plan_id":"cebpf4jnsgd1na2vs0mg"},{"bike_id":"6680fa66-514b-4f2f-8fa3-69f3c9a608f2","system_id":"levelo_inurba_marseille","lat":43.313291,"lon":5.396838,"is_reserved":false,"is_disabled":false,"rental_uris":{"android":"levelo://app?vid=6680fa66-514b-4f2f-8fa3-69f3c9a608f2","ios":"levelo://app?vid=6680fa66-514b-4f2f-8fa3-69f3c9a608f2"},"vehicle_type_id":"4","last_reported":1707966529,"current_range_meters":31200,"station_id":"ce4bgvp2rcd13ifvqcu0","pricing_plan_id":"cebpf4jnsgd1na2vs0mg"},{"bike_id":"5f01c236-b9eb-439a-86d7-a07f58180c4d","system_id":"levelo_inurba_marseille","lat":43.308811,"lon":5.396428,"is_reserved":false,"is_disabled":false,"rental_uris":{"android":"levelo://app?vid=5f01c236-b9eb-439a-86d7-a07f58180c4d","ios":"levelo://app?vid=5f01c236-b9eb-439a-86d7-a07f58180c4d"},"vehicle_type_id":"4","last_reported":1707966529,"current_range_meters":4800,"station_id":"ce4bh012rcd13ifvqcv0","pricing_plan_id":"cebpf4jnsgd1na2vs0mg"},{"bike_id":"c40a441f-b699-4482-a0aa-5bd2acc1afa0","system_id":"levelo_inurba_marseille","lat":43.313291,"lon":5.396838,"is_reserved":false,"is_disabled":false,"rental_uris":{"android":"levelo://app?vid=c40a441f-b699-4482-a0aa-5bd2acc1afa0","ios":"levelo://app?vid=c40a441f-b699-4482-a0aa-5bd2acc1afa0"},"vehicle_type_id":"4","last_reported":1707966529,"current_range_meters":7600,"station_id":"ce4bgvp2rcd13ifvqcu0","pricing_plan_id":"cebpf4jnsgd1na2vs0mg"},{"bike_id":"33b62021-2d51-466c-b4be-b0ce89d69a54","system_id":"levelo_inurba_marseille","lat":43.30882,"lon":5.39644,"is_reserved":false,"is_disabled":false,"rental_uris":{"android":"levelo://app?vid=33b62021-2d51-466c-b4be-b0ce89d69a54","ios":"levelo://app?vid=33b62021-2d51-466c-b4be-b0ce89d69a54"},"vehicle_type_id":"4","last_reported":1707966529,"current_range_meters":21600,"station_id":"ce4bh012rcd13ifvqcv0","pricing_plan_id":"cebpf4jnsgd1na2vs0mg"},{"bike_id":"9734e9f4-dabf-41b9-b1d9-a567e243ad06","system_id":"levelo_inurba_marseille","lat":43.313291,"lon":5.396838,"is_reserved":false,"is_disabled":false,"rental_uris":{"android":"levelo://app?vid=9734e9f4-dabf-41b9-b1d9-a567e243ad06","ios":"levelo://app?vid=9734e9f4-dabf-41b9-b1d9-a567e243ad06"},"vehicle_type_id":"4","last_reported":1707966529,"current_range_meters":0,"station_id":"ce4bgvp2rcd13ifvqcu0","pricing_plan_id":"cebpf4jnsgd1na2vs0mg"},{"bike_id":"40c1a6f5-3321-47e5-b70e-7466e814095c","system_id":"levelo_inurba_marseille","lat":43.313291,"lon":5.396838,"is_reserved":false,"is_disabled":false,"rental_uris":{"android":"levelo://app?vid=40c1a6f5-3321-47e5-b70e-7466e814095c","ios":"levelo://app?vid=40c1a6f5-3321-47e5-b70e-7466e814095c"},"vehicle_type_id":"4","last_reported":1707966529,"current_range_meters":29200,"station_id":"ce4bgvp2rcd13ifvqcu0","pricing_plan_id":"cebpf4jnsgd1na2vs0mg"},{"bike_id":"689707f0-cf35-46a5-93a6-d2c4c262cf1e","system_id":"levelo_inurba_marseille","lat":43.308858,"lon":5.396501,"is_reserved":false,"is_disabled":false,"rental_uris":{"android":"levelo://app?vid=689707f0-cf35-46a5-93a6-d2c4c262cf1e","ios":"levelo://app?vid=689707f0-cf35-46a5-93a6-d2c4c262cf1e"},"vehicle_type_id":"4","last_reported":1707966529,"current_range_meters":2000,"station_id":"ce4bh012rcd13ifvqcv0","pricing_plan_id":"cebpf4jnsgd1na2vs0mg"},{"bike_id":"6318754d-57cd-457b-9e62-23b0edcf4321","system_id":"levelo_inurba_marseille","lat":43.313291,"lon":5.396838,"is_reserved":false,"is_disabled":false,"rental_uris":{"android":"levelo://app?vid=6318754d-57cd-457b-9e62-23b0edcf4321","ios":"levelo://app?vid=6318754d-57cd-457b-9e62-23b0edcf4321"},"vehicle_type_id":"4","last_reported":1707966529,"current_range_meters":0,"station_id":"ce4bgvp2rcd13ifvqcu0","pricing_plan_id":"cebpf4jnsgd1na2vs0mg"},{"bike_id":"482d5379-516b-45af-a179-28f4bc89f307","system_id":"levelo_inurba_marseille","lat":43.313291,"lon":5.396838,"is_reserved":false,"is_disabled":false,"rental_uris":{"android":"levelo://app?vid=482d5379-516b-45af-a179-28f4bc89f307","ios":"levelo://app?vid=482d5379-516b-45af-a179-28f4bc89f307"},"vehicle_type_id":"4","last_reported":1707966529,"current_range_meters":16800,"station_id":"ce4bgvp2rcd13ifvqcu0","pricing_plan_id":"cebpf4jnsgd1na2vs0mg"},{"bike_id":"4d273257-ee93-4b4f-9d26-34031dca70bb","system_id":"levelo_inurba_marseille","lat":43.291994,"lon":5.357886,"is_reserved":false,"is_disabled":false,"rental_uris":{"android":"levelo://app?vid=4d273257-ee93-4b4f-9d26-34031dca70bb","ios":"levelo://app?vid=4d273257-ee93-4b4f-9d26-34031dca70bb"},"vehicle_type_id":"4","last_reported":1707966529,"current_range_meters":23200,"station_id":"ce4bhb12rcd13ifvqel0","pricing_plan_id":"cebpf4jnsgd1na2vs0mg"},{"bike_id":"daaf86a7-c2f6-4a43-8755-fb10ddc57f68","system_id":"levelo_inurba_marseille","lat":43.290779,"lon":5.371482,"is_reserved":false,"is_disabled":false,"rental_uris":{"android":"levelo://app?vid=daaf86a7-c2f6-4a43-8755-fb10ddc57f68","ios":"levelo://app?vid=daaf86a7-c2f6-4a43-8755-fb10ddc57f68"},"vehicle_type_id":"4","last_reported":1707966529,"current_range_meters":23600,"station_id":"ce4bh5p2rcd13ifvqe4g","pricing_plan_id":"cebpf4jnsgd1na2vs0mg"},{"bike_id":"0dde0c2a-bcdd-471e-adb7-0a56b50a4228","system_id":"levelo_inurba_marseille","lat":43.302008,"lon":5.394694,"is_reserved":false,"is_disabled":false,"rental_uris":{"android":"levelo://app?vid=0dde0c2a-bcdd-471e-adb7-0a56b50a4228","ios":"levelo://app?vid=0dde0c2a-bcdd-471e-adb7-0a56b50a4228"},"vehicle_type_id":"4","last_reported":1707966529,"current_range_meters":14400,"station_id":"ce4bh0p2rcd13ifvqd70","pricing_plan_id":"cebpf4jnsgd1na2vs0mg"},{"bike_id":"93d5c59a-9c2b-4efe-a9ac-500decaaba10","system_id":"levelo_inurba_marseille","lat":43.290631,"lon":5.359244,"is_reserved":false,"is_disabled":false,"rental_uris":{"android":"levelo://app?vid=93d5c59a-9c2b-4efe-a9ac-500decaaba10","ios":"levelo://app?vid=93d5c59a-9c2b-4efe-a9ac-500decaaba10"},"vehicle_type_id":"4","last_reported":1707966529,"current_range_meters":10800,"station_id":"ce4bha92rcd13ifvqeg0","pricing_plan_id":"cebpf4jnsgd1na2vs0mg"},{"bike_id":"4d40184a-8776-49ce-b459-1f4f5090d458","system_id":"levelo_inurba_marseille","lat":43.290631,"lon":5.359244,"is_reserved":false,"is_disabled":false,"rental_uris":{"android":"levelo://app?vid=4d40184a-8776-49ce-b459-1f4f5090d458","ios":"levelo://app?vid=4d40184a-8776-49ce-b459-1f4f5090d458"},"vehicle_type_id":"4","last_reported":1707966529,"current_range_meters":30400,"station_id":"ce4bha92rcd13ifvqeg0","pricing_plan_id":"cebpf4jnsgd1na2vs0mg"},{"bike_id":"cc8f68c8-09c2-4cd5-a5f3-7dcc0283f10e","system_id":"levelo_inurba_marseille","lat":43.290631,"lon":5.359244,"is_reserved":false,"is_disabled":false,"rental_uris":{"android":"levelo://app?vid=cc8f68c8-09c2-4cd5-a5f3-7dcc0283f10e","ios":"levelo://app?vid=cc8f68c8-09c2-4cd5-a5f3-7dcc0283f10e"},"vehicle_type_id":"4","last_reported":1707966529,"current_range_meters":26400,"station_id":"ce4bha92rcd13ifvqeg0","pricing_plan_id":"cebpf4jnsgd1na2vs0mg"},{"bike_id":"82b13660-fcaa-4c72-955b-cc7f7177144e","system_id":"levelo_inurba_marseille","lat":43.290631,"lon":5.359244,"is_reserved":false,"is_disabled":false,"rental_uris":{"android":"levelo://app?vid=82b13660-fcaa-4c72-955b-cc7f7177144e","ios":"levelo://app?vid=82b13660-fcaa-4c72-955b-cc7f7177144e"},"vehicle_type_id":"4","last_reported":1707966529,"current_range_meters":10400,"station_id":"ce4bha92rcd13ifvqeg0","pricing_plan_id":"cebpf4jnsgd1na2vs0mg"},{"bike_id":"0a91ee48-31bf-4993-9037-8fcddaf1e9b0","system_id":"levelo_inurba_marseille","lat":43.28939,"lon":5.36622,"is_reserved":false,"is_disabled":false,"rental_uris":{"android":"levelo://app?vid=0a91ee48-31bf-4993-9037-8fcddaf1e9b0","ios":"levelo://app?vid=0a91ee48-31bf-4993-9037-8fcddaf1e9b0"},"vehicle_type_id":"4","last_reported":1707966529,"current_range_meters":31200,"station_id":"ce4bhap2rcd13ifvqek0","pricing_plan_id":"cebpf4jnsgd1na2vs0mg"},{"bike_id":"8cd7efb9-35a6-4d88-aa0f-247de35dfa13","system_id":"levelo_inurba_marseille","lat":43.289468,"lon":5.363719,"is_reserved":false,"is_disabled":false,"rental_uris":{"android":"levelo://app?vid=8cd7efb9-35a6-4d88-aa0f-247de35dfa13","ios":"levelo://app?vid=8cd7efb9-35a6-4d88-aa0f-247de35dfa13"},"vehicle_type_id":"4","last_reported":1707966529,"current_range_meters":31200,"station_id":"ce4bhc92rcd13ifvqetg","pricing_plan_id":"cebpf4jnsgd1na2vs0mg"},{"bike_id":"fea50c46-e244-4347-87c5-8352b1329bdc","system_id":"levelo_inurba_marseille","lat":43.289442,"lon":5.363926,"is_reserved":false,"is_disabled":false,"rental_uris":{"android":"levelo://app?vid=fea50c46-e244-4347-87c5-8352b1329bdc","ios":"levelo://app?vid=fea50c46-e244-4347-87c5-8352b1329bdc"},"vehicle_type_id":"4","last_reported":1707966529,"current_range_meters":4000,"station_id":"ce4bhc92rcd13ifvqetg","pricing_plan_id":"cebpf4jnsgd1na2vs0mg"},{"bike_id":"935b9985-db86-43d7-965e-1f402d687c66","system_id":"levelo_inurba_marseille","lat":43.289468,"lon":5.363719,"is_reserved":false,"is_disabled":false,"rental_uris":{"android":"levelo://app?vid=935b9985-db86-43d7-965e-1f402d687c66","ios":"levelo://app?vid=935b9985-db86-43d7-965e-1f402d687c66"},"vehicle_type_id":"4","last_reported":1707966529,"current_range_meters":30000,"station_id":"ce4bhc92rcd13ifvqetg","pricing_plan_id":"cebpf4jnsgd1na2vs0mg"},{"bike_id":"55e4a566-d12c-4abf-8eb0-fc23c387b50e","system_id":"levelo_inurba_marseille","lat":43.289184,"lon":5.366408,"is_reserved":false,"is_disabled":false,"rental_uris":{"android":"levelo://app?vid=55e4a566-d12c-4abf-8eb0-fc23c387b50e","ios":"levelo://app?vid=55e4a566-d12c-4abf-8eb0-fc23c387b50e"},"vehicle_type_id":"4","last_reported":1707966529,"current_range_meters":16000,"station_id":"ce4bhap2rcd13ifvqek0","pricing_plan_id":"cebpf4jnsgd1na2vs0mg"},{"bike_id":"4dfb38b3-eaa7-4ed8-949b-a2c6469a88a1","system_id":"levelo_inurba_marseille","lat":43.289468,"lon":5.363719,"is_reserved":false,"is_disabled":false,"rental_uris":{"android":"levelo://app?vid=4dfb38b3-eaa7-4ed8-949b-a2c6469a88a1","ios":"levelo://app?vid=4dfb38b3-eaa7-4ed8-949b-a2c6469a88a1"},"vehicle_type_id":"4","last_reported":1707966529,"current_range_meters":23200,"station_id":"ce4bhc92rcd13ifvqetg","pricing_plan_id":"cebpf4jnsgd1na2vs0mg"},{"bike_id":"954210f2-0556-4b7d-849c-ba11c3e8be4f","system_id":"levelo_inurba_marseille","lat":43.304274,"lon":5.397513,"is_reserved":false,"is_disabled":false,"rental_uris":{"android":"levelo://app?vid=954210f2-0556-4b7d-849c-ba11c3e8be4f","ios":"levelo://app?vid=954210f2-0556-4b7d-849c-ba11c3e8be4f"},"vehicle_type_id":"4","last_reported":1707966529,"current_range_meters":26000,"station_id":"ce4bh092rcd13ifvqd20","pricing_plan_id":"cebpf4jnsgd1na2vs0mg"},{"bike_id":"b2909c7d-ebc6-44b5-b071-7c9b06b0b6ef","system_id":"levelo_inurba_marseille","lat":43.304296,"lon":5.397513,"is_reserved":false,"is_disabled":false,"rental_uris":{"android":"levelo://app?vid=b2909c7d-ebc6-44b5-b071-7c9b06b0b6ef","ios":"levelo://app?vid=b2909c7d-ebc6-44b5-b071-7c9b06b0b6ef"},"vehicle_type_id":"4","last_reported":1707966529,"current_range_meters":27200,"station_id":"ce4bh092rcd13ifvqd20","pricing_plan_id":"cebpf4jnsgd1na2vs0mg"},{"bike_id":"d1fb48fa-abe0-42a2-92a2-b014330ff143","system_id":"levelo_inurba_marseille","lat":43.304274,"lon":5.397513,"is_reserved":false,"is_disabled":false,"rental_uris":{"android":"levelo://app?vid=d1fb48fa-abe0-42a2-92a2-b014330ff143","ios":"levelo://app?vid=d1fb48fa-abe0-42a2-92a2-b014330ff143"},"vehicle_type_id":"4","last_reported":1707966529,"current_range_meters":13600,"station_id":"ce4bh092rcd13ifvqd20","pricing_plan_id":"cebpf4jnsgd1na2vs0mg"},{"bike_id":"80ae5709-3047-484b-bc4d-25f940037fed","system_id":"levelo_inurba_marseille","lat":43.304274,"lon":5.397513,"is_reserved":false,"is_disabled":false,"rental_uris":{"android":"levelo://app?vid=80ae5709-3047-484b-bc4d-25f940037fed","ios":"levelo://app?vid=80ae5709-3047-484b-bc4d-25f940037fed"},"vehicle_type_id":"4","last_reported":1707966529,"current_range_meters":28000,"station_id":"ce4bh092rcd13ifvqd20","pricing_plan_id":"cebpf4jnsgd1na2vs0mg"},{"bike_id":"40c231ed-d24d-47c9-a66b-0c4efd1ff2e0","system_id":"levelo_inurba_marseille","lat":43.304274,"lon":5.397513,"is_reserved":false,"is_disabled":false,"rental_uris":{"android":"levelo://app?vid=40c231ed-d24d-47c9-a66b-0c4efd1ff2e0","ios":"levelo://app?vid=40c231ed-d24d-47c9-a66b-0c4efd1ff2e0"},"vehicle_type_id":"4","last_reported":1707966529,"current_range_meters":28000,"station_id":"ce4bh092rcd13ifvqd20","pricing_plan_id":"cebpf4jnsgd1na2vs0mg"},{"bike_id":"9ec39e26-f78f-4070-900e-e2d2ad7e12b2","system_id":"levelo_inurba_marseille","lat":43.304296,"lon":5.397513,"is_reserved":false,"is_disabled":false,"rental_uris":{"android":"levelo://app?vid=9ec39e26-f78f-4070-900e-e2d2ad7e12b2","ios":"levelo://app?vid=9ec39e26-f78f-4070-900e-e2d2ad7e12b2"},"vehicle_type_id":"4","last_reported":1707966529,"current_range_meters":24400,"station_id":"ce4bh092rcd13ifvqd20","pricing_plan_id":"cebpf4jnsgd1na2vs0mg"},{"bike_id":"825d894b-0151-416f-98bc-b60ec00e62a7","system_id":"levelo_inurba_marseille","lat":43.290103,"lon":5.356114,"is_reserved":false,"is_disabled":false,"rental_uris":{"android":"levelo://app?vid=825d894b-0151-416f-98bc-b60ec00e62a7","ios":"levelo://app?vid=825d894b-0151-416f-98bc-b60ec00e62a7"},"vehicle_type_id":"4","last_reported":1707966529,"current_range_meters":27600,"station_id":"ce4bhb92rcd13ifvqen0","pricing_plan_id":"cebpf4jnsgd1na2vs0mg"},{"bike_id":"dc1595e6-50d5-45f5-ad24-6225a66ce5c2","system_id":"levelo_inurba_marseille","lat":43.290104,"lon":5.356111,"is_reserved":false,"is_disabled":false,"rental_uris":{"android":"levelo://app?vid=dc1595e6-50d5-45f5-ad24-6225a66ce5c2","ios":"levelo://app?vid=dc1595e6-50d5-45f5-ad24-6225a66ce5c2"},"vehicle_type_id":"4","last_reported":1707966529,"current_range_meters":29600,"station_id":"ce4bhb92rcd13ifvqen0","pricing_plan_id":"cebpf4jnsgd1na2vs0mg"},{"bike_id":"a9fd4df5-a241-4c73-bbc8-689f1a7f7ee1","system_id":"levelo_inurba_marseille","lat":43.29096,"lon":5.381456,"is_reserved":false,"is_disabled":false,"rental_uris":{"android":"levelo://app?vid=a9fd4df5-a241-4c73-bbc8-689f1a7f7ee1","ios":"levelo://app?vid=a9fd4df5-a241-4c73-bbc8-689f1a7f7ee1"},"vehicle_type_id":"4","last_reported":1707966529,"current_range_meters":13600,"station_id":"ce4bh512rcd13ifvqe2g","pricing_plan_id":"cebpf4jnsgd1na2vs0mg"},{"bike_id":"7f7a54be-2d7c-4de2-acaa-856b7123442f","system_id":"levelo_inurba_marseille","lat":43.29795,"lon":5.39334,"is_reserved":false,"is_disabled":false,"rental_uris":{"android":"levelo://app?vid=7f7a54be-2d7c-4de2-acaa-856b7123442f","ios":"levelo://app?vid=7f7a54be-2d7c-4de2-acaa-856b7123442f"},"vehicle_type_id":"4","last_reported":1707966529,"current_range_meters":22400,"station_id":"chh1huq6cuj3fo74tm60","pricing_plan_id":"cebpf4jnsgd1na2vs0mg"},{"bike_id":"01b06329-52bf-4391-9c94-3722098b070f","system_id":"levelo_inurba_marseille","lat":43.297815,"lon":5.393548,"is_reserved":false,"is_disabled":false,"rental_uris":{"android":"levelo://app?vid=01b06329-52bf-4391-9c94-3722098b070f","ios":"levelo://app?vid=01b06329-52bf-4391-9c94-3722098b070f"},"vehicle_type_id":"4","last_reported":1707966529,"current_range_meters":6000,"station_id":"chh1huq6cuj3fo74tm60","pricing_plan_id":"cebpf4jnsgd1na2vs0mg"},{"bike_id":"11b4e40f-8eab-4bce-947a-4de3396fd8d2","system_id":"levelo_inurba_marseille","lat":43.297815,"lon":5.393548,"is_reserved":false,"is_disabled":false,"rental_uris":{"android":"levelo://app?vid=11b4e40f-8eab-4bce-947a-4de3396fd8d2","ios":"levelo://app?vid=11b4e40f-8eab-4bce-947a-4de3396fd8d2"},"vehicle_type_id":"4","last_reported":1707966529,"current_range_meters":4800,"station_id":"chh1huq6cuj3fo74tm60","pricing_plan_id":"cebpf4jnsgd1na2vs0mg"},{"bike_id":"27b3871e-ce90-4c19-a42f-ea610a562b9d","system_id":"levelo_inurba_marseille","lat":43.297906,"lon":5.393454,"is_reserved":false,"is_disabled":false,"rental_uris":{"android":"levelo://app?vid=27b3871e-ce90-4c19-a42f-ea610a562b9d","ios":"levelo://app?vid=27b3871e-ce90-4c19-a42f-ea610a562b9d"},"vehicle_type_id":"4","last_reported":1707966529,"current_range_meters":7600,"station_id":"chh1huq6cuj3fo74tm60","pricing_plan_id":"cebpf4jnsgd1na2vs0mg"},{"bike_id":"f6d9b2f8-9c58-4120-ba20-54cb1ab8ba8a","system_id":"levelo_inurba_marseille","lat":43.29791,"lon":5.39346,"is_reserved":false,"is_disabled":false,"rental_uris":{"android":"levelo://app?vid=f6d9b2f8-9c58-4120-ba20-54cb1ab8ba8a","ios":"levelo://app?vid=f6d9b2f8-9c58-4120-ba20-54cb1ab8ba8a"},"vehicle_type_id":"4","last_reported":1707966529,"current_range_meters":4400,"station_id":"chh1huq6cuj3fo74tm60","pricing_plan_id":"cebpf4jnsgd1na2vs0mg"},{"bike_id":"40c395bc-942c-4a69-a864-0c2888af43a5","system_id":"levelo_inurba_marseille","lat":43.297815,"lon":5.393548,"is_reserved":false,"is_disabled":false,"rental_uris":{"android":"levelo://app?vid=40c395bc-942c-4a69-a864-0c2888af43a5","ios":"levelo://app?vid=40c395bc-942c-4a69-a864-0c2888af43a5"},"vehicle_type_id":"4","last_reported":1707966529,"current_range_meters":30000,"station_id":"chh1huq6cuj3fo74tm60","pricing_plan_id":"cebpf4jnsgd1na2vs0mg"},{"bike_id":"30262b00-fb71-4c64-853c-6f9fef11dbd0","system_id":"levelo_inurba_marseille","lat":43.29786,"lon":5.39344,"is_reserved":false,"is_disabled":false,"rental_uris":{"android":"levelo://app?vid=30262b00-fb71-4c64-853c-6f9fef11dbd0","ios":"levelo://app?vid=30262b00-fb71-4c64-853c-6f9fef11dbd0"},"vehicle_type_id":"4","last_reported":1707966529,"current_range_meters":14400,"station_id":"chh1huq6cuj3fo74tm60","pricing_plan_id":"cebpf4jnsgd1na2vs0mg"},{"bike_id":"b3d1c822-1f5c-404d-9310-15f1e639ebd0","system_id":"levelo_inurba_marseille","lat":43.297874,"lon":5.393466,"is_reserved":false,"is_disabled":false,"rental_uris":{"android":"levelo://app?vid=b3d1c822-1f5c-404d-9310-15f1e639ebd0","ios":"levelo://app?vid=b3d1c822-1f5c-404d-9310-15f1e639ebd0"},"vehicle_type_id":"4","last_reported":1707966529,"current_range_meters":6800,"station_id":"chh1huq6cuj3fo74tm60","pricing_plan_id":"cebpf4jnsgd1na2vs0mg"},{"bike_id":"0836a357-8713-4d2f-b85c-7657250e0d4a","system_id":"levelo_inurba_marseille","lat":43.330442,"lon":5.389148,"is_reserved":false,"is_disabled":false,"rental_uris":{"android":"levelo://app?vid=0836a357-8713-4d2f-b85c-7657250e0d4a","ios":"levelo://app?vid=0836a357-8713-4d2f-b85c-7657250e0d4a"},"vehicle_type_id":"4","last_reported":1707966529,"current_range_meters":15200,"station_id":"ce4bhr92rcd13ifvqhrg","pricing_plan_id":"cebpf4jnsgd1na2vs0mg"},{"bike_id":"dadbf2db-4e03-427b-b615-015d2053ead4","system_id":"levelo_inurba_marseille","lat":43.330442,"lon":5.389148,"is_reserved":false,"is_disabled":false,"rental_uris":{"android":"levelo://app?vid=dadbf2db-4e03-427b-b615-015d2053ead4","ios":"levelo://app?vid=dadbf2db-4e03-427b-b615-015d2053ead4"},"vehicle_type_id":"4","last_reported":1707966529,"current_range_meters":10000,"station_id":"ce4bhr92rcd13ifvqhrg","pricing_plan_id":"cebpf4jnsgd1na2vs0mg"},{"bike_id":"b193fe8e-1700-44c6-b8bb-8496361ddea4","system_id":"levelo_inurba_marseille","lat":43.330442,"lon":5.389148,"is_reserved":false,"is_disabled":false,"rental_uris":{"android":"levelo://app?vid=b193fe8e-1700-44c6-b8bb-8496361ddea4","ios":"levelo://app?vid=b193fe8e-1700-44c6-b8bb-8496361ddea4"},"vehicle_type_id":"4","last_reported":1707966529,"current_range_meters":2800,"station_id":"ce4bhr92rcd13ifvqhrg","pricing_plan_id":"cebpf4jnsgd1na2vs0mg"},{"bike_id":"a7b4fa92-4058-4abb-920e-d6e53b178ef9","system_id":"levelo_inurba_marseille","lat":43.330442,"lon":5.389148,"is_reserved":false,"is_disabled":false,"rental_uris":{"android":"levelo://app?vid=a7b4fa92-4058-4abb-920e-d6e53b178ef9","ios":"levelo://app?vid=a7b4fa92-4058-4abb-920e-d6e53b178ef9"},"vehicle_type_id":"4","last_reported":1707966529,"current_range_meters":9200,"station_id":"ce4bhr92rcd13ifvqhrg","pricing_plan_id":"cebpf4jnsgd1na2vs0mg"},{"bike_id":"8b1c1fc9-89ab-4ca2-bc5e-50496261f4c7","system_id":"levelo_inurba_marseille","lat":43.33023,"lon":5.39035,"is_reserved":false,"is_disabled":false,"rental_uris":{"android":"levelo://app?vid=8b1c1fc9-89ab-4ca2-bc5e-50496261f4c7","ios":"levelo://app?vid=8b1c1fc9-89ab-4ca2-bc5e-50496261f4c7"},"vehicle_type_id":"4","last_reported":1707966529,"current_range_meters":16400,"station_id":"ce4bhr92rcd13ifvqhrg","pricing_plan_id":"cebpf4jnsgd1na2vs0mg"},{"bike_id":"230c242e-a53d-417a-9bc6-36b05c32e120","system_id":"levelo_inurba_marseille","lat":43.330442,"lon":5.389148,"is_reserved":false,"is_disabled":false,"rental_uris":{"android":"levelo://app?vid=230c242e-a53d-417a-9bc6-36b05c32e120","ios":"levelo://app?vid=230c242e-a53d-417a-9bc6-36b05c32e120"},"vehicle_type_id":"4","last_reported":1707966529,"current_range_meters":11600,"station_id":"ce4bhr92rcd13ifvqhrg","pricing_plan_id":"cebpf4jnsgd1na2vs0mg"},