{"last_updated":1731838128,"ttl":60,"version":"2.2","data":{"bikes":[{"bike_id":"73806b4b-3409-4fe7-9bac-cc9da7355bda","system_id":"levelo_inurba_marseille","lat":43.31048,"lon":5.39993,"is_reserved":false,"is_disabled":false,"rental_uris":{"android":"levelo://app?vid=73806b4b-3409-4fe7-9bac-cc9da7355bda","ios":"levelo://app?vid=73806b4b-3409-4fe7-9bac-cc9da7355bda"},"vehicle_type_id":"4","last_reported":1731838128,"current_range_meters":30000,"station_id":"","pricing_plan_id":"cebpf4jnsgd1na2vs0mg"},{"bike_id":"9c319bd8-1c7c-46bb-824e-2a1d218223bc","system_id":"levelo_inurba_marseille","lat":43.2512,"lon":5.40325,"is_reserved":false,"is_disabled":false,"rental_uris":{"android":"levelo://app?vid=9c319bd8-1c7c-46bb-824e-2a1d218223bc","ios":"levelo://app?vid=9c319bd8-1c7c-46bb-824e-2a1d218223bc"},"vehicle_type_id":"4","last_reported":1731838128,"current_range_meters":32000,"station_id":"ce4bhlh2rcd13ifvqgig","pricing_plan_id":"cebpf4jnsgd1na2vs0mg"},{"bike_id":"8f64f783-a592-44e3-bbda-2c129afa1260","system_id":"levelo_inurba_marseille","lat":43.24654,"lon":5.38896,"is_reserved":false,"is_disabled":false,"rental_uris":{"android":"levelo://app?vid=8f64f783-a592-44e3-bbda-2c129afa1260","ios":"levelo://app?vid=8f64f783-a592-44e3-bbda-2c129afa1260"},"vehicle_type_id":"4","last_reported":1731838128,"current_range_meters":38800,"station_id":"ce4bhg12rcd13ifvqf60","pricing_plan_id":"cebpf4jnsgd1na2vs0mg"},{"bike_id":"b72a3afc-44c7-46c5-841c-3ff0bdffd996","system_id":"levelo_inurba_marseille","lat":43.25579,"lon":5.38236,"is_reserved":false,"is_disabled":false,"rental_uris":{"android":"levelo://app?vid=b72a3afc-44c7-46c5-841c-3ff0bdffd996","ios":"levelo://app?vid=b72a3afc-44c7-46c5-841c-3ff0bdffd996"},"vehicle_type_id":"4","last_reported":1731838128,"current_range_meters":25600,"station_id":"ce4bhih2rcd13ifvqfs0","pricing_plan_id":"cebpf4jnsgd1na2vs0mg"},{"bike_id":"5fc65484-ca9d-4d04-abb0-59c0c73b1826","system_id":"levelo_inurba_marseille","lat":43.29552,"lon":5.4228,"is_reserved":false,"is_disabled":false,"rental_uris":{"android":"levelo://app?vid=5fc65484-ca9d-4d04-abb0-59c0c73b1826","ios":"levelo://app?vid=5fc65484-ca9d-4d04-abb0-59c0c73b1826"},"vehicle_type_id":"4","last_reported":1731838128,"current_range_meters":6000,"station_id":"ce4bhph2rcd13ifvqhdg","pricing_plan_id":"cebpf4jnsgd1na2vs0mg"},{"bike_id":"641e3cf3-7cd4-4453-9ca4-19b1e8a5ec27","system_id":"levelo_inurba_marseille","lat":43.26028,"lon":5.37548,"is_reserved":false,"is_disabled":false,"rental_uris":{"android":"levelo://app?vid=641e3cf3-7cd4-4453-9ca4-19b1e8a5ec27","ios":"levelo://app?vid=641e3cf3-7cd4-4453-9ca4-19b1e8a5ec27"},"vehicle_type_id":"4","last_reported":1731838128,"current_range_meters":38800,"station_id":"ce4bhgh2rcd13ifvqfa0","pricing_plan_id":"cebpf4jnsgd1na2vs0mg"},{"bike_id":"545e4f27-6f2a-4447-9544-1edf625c7b46","system_id":"levelo_inurba_marseille","lat":43.26193,"lon":5.37452,"is_reserved":false,"is_disabled":false,"rental_uris":{"android":"levelo://app?vid=545e4f27-6f2a-4447-9544-1edf625c7b46","ios":"levelo://app?vid=545e4f27-6f2a-4447-9544-1edf625c7b46"},"vehicle_type_id":"4","last_reported":1731838128,"current_range_meters":24400,"station_id":"ce4bhgp2rcd13ifvqfc0","pricing_plan_id":"cebpf4jnsgd1na2vs0mg"},{"bike_id":"0672d165-d197-4474-bbec-2df95543fd2f","system_id":"levelo_inurba_marseille","lat":43.29899,"lon":5.43658,"is_reserved":false,"is_disabled":false,"rental_uris":{"android":"levelo://app?vid=0672d165-d197-4474-bbec-2df95543fd2f","ios":"levelo://app?vid=0672d165-d197-4474-bbec-2df95543fd2f"},"vehicle_type_id":"4","last_reported":1731838128,"current_range_meters":8400,"station_id":"ce4bhpp2rcd13ifvqhfg","pricing_plan_id":"cebpf4jnsgd1na2vs0mg"},{"bike_id":"d9d8a7d9-cde4-4fab-ab69-fcee8fe6a6da","system_id":"levelo_inurba_marseille","lat":43.2502,"lon":5.38922,"is_reserved":false,"is_disabled":false,"rental_uris":{"android":"levelo://app?vid=d9d8a7d9-cde4-4fab-ab69-fcee8fe6a6da","ios":"levelo://app?vid=d9d8a7d9-cde4-4fab-ab69-fcee8fe6a6da"},"vehicle_type_id":"4","last_reported":1731838128,"current_range_meters":9200,"station_id":"ce4bhgp2rcd13ifvqfd0","pricing_plan_id":"cebpf4jnsgd1na2vs0mg"},{"bike_id":"083dbee0-0e04-4a5e-93ff-4f8789a778b7","system_id":"levelo_inurba_marseille","lat":43.22937,"lon":5.35374,"is_reserved":false,"is_disabled":false,"rental_uris":{"android":"levelo://app?vid=083dbee0-0e04-4a5e-93ff-4f8789a778b7","ios":"levelo://app?vid=083dbee0-0e04-4a5e-93ff-4f8789a778b7"},"vehicle_type_id":"4","last_reported":1731838128,"current_range_meters":39200,"station_id":"cpo3532slgdg3j2ikp40","pricing_plan_id":"cebpf4jnsgd1na2vs0mg"},{"bike_id":"2958e594-4a74-4f61-ae81-5697075b2e95","system_id":"levelo_inurba_marseille","lat":43.28267,"lon":5.35058,"is_reserved":false,"is_disabled":false,"rental_uris":{"android":"levelo://app?vid=2958e594-4a74-4f61-ae81-5697075b2e95","ios":"levelo://app?vid=2958e594-4a74-4f61-ae81-5697075b2e95"},"vehicle_type_id":"4","last_reported":1731838128,"current_range_meters":18800,"station_id":"ce4bhbp2rcd13ifvqerg","pricing_plan_id":"cebpf4jnsgd1na2vs0mg"},{"bike_id":"6aab13fa-8ff7-4e0a-8bca-134dab8a3803","system_id":"levelo_inurba_marseille","lat":43.3009,"lon":5.39086,"is_reserved":false,"is_disabled":false,"rental_uris":{"android":"levelo://app?vid=6aab13fa-8ff7-4e0a-8bca-134dab8a3803","ios":"levelo://app?vid=6aab13fa-8ff7-4e0a-8bca-134dab8a3803"},"vehicle_type_id":"4","last_reported":1731838128,"current_range_meters":38000,"station_id":"ce4bh192rcd13ifvqdb0","pricing_plan_id":"cebpf4jnsgd1na2vs0mg"},{"bike_id":"b361c1fc-f63b-4883-ac7d-1a695da9acca","system_id":"levelo_inurba_marseille","lat":43.24174,"lon":5.39718,"is_reserved":false,"is_disabled":false,"rental_uris":{"android":"levelo://app?vid=b361c1fc-f63b-4883-ac7d-1a695da9acca","ios":"levelo://app?vid=b361c1fc-f63b-4883-ac7d-1a695da9acca"},"vehicle_type_id":"4","last_reported":1731838128,"current_range_meters":33200,"station_id":"ce4bhn12rcd13ifvqgpg","pricing_plan_id":"cebpf4jnsgd1na2vs0mg"},{"bike_id":"4c167bc3-2964-4625-adc0-c92e539ad80f","system_id":"levelo_inurba_marseille","lat":43.28282,"lon":5.40808,"is_reserved":false,"is_disabled":false,"rental_uris":{"android":"levelo://app?vid=4c167bc3-2964-4625-adc0-c92e539ad80f","ios":"levelo://app?vid=4c167bc3-2964-4625-adc0-c92e539ad80f"},"vehicle_type_id":"4","last_reported":1731838128,"current_range_meters":35600,"station_id":"","pricing_plan_id":"cebpf4jnsgd1na2vs0mg"},{"bike_id":"ebece2e7-cd1b-4190-b52a-8a13152f9205","system_id":"levelo_inurba_marseille","lat":43.28609,"lon":5.37061,"is_reserved":false,"is_disabled":false,"rental_uris":{"android":"levelo://app?vid=ebece2e7-cd1b-4190-b52a-8a13152f9205","ios":"levelo://app?vid=ebece2e7-cd1b-4190-b52a-8a13152f9205"},"vehicle_type_id":"4","last_reported":1731838128,"current_range_meters":32000,"station_id":"ce4bht12rcd13ifvqi60","pricing_plan_id":"cebpf4jnsgd1na2vs0mg"},{"bike_id":"59296fc1-5f2e-4e55-ac79-9143b6b3ae42","system_id":"levelo_inurba_marseille","lat":43.26029,"lon":5.37549,"is_reserved":false,"is_disabled":false,"rental_uris":{"android":"levelo://app?vid=59296fc1-5f2e-4e55-ac79-9143b6b3ae42","ios":"levelo://app?vid=59296fc1-5f2e-4e55-ac79-9143b6b3ae42"},"vehicle_type_id":"4","last_reported":1731838128,"current_range_meters":8800,"station_id":"ce4bhgh2rcd13ifvqfa0","pricing_plan_id":"cebpf4jnsgd1na2vs0mg"},{"bike_id":"33991907-8c1b-4aa7-9266-758ebe941d41","system_id":"levelo_inurba_marseille","lat":43.31268,"lon":5.4017,"is_reserved":false,"is_disabled":false,"rental_uris":{"android":"levelo://app?vid=33991907-8c1b-4aa7-9266-758ebe941d41","ios":"levelo://app?vid=33991907-8c1b-4aa7-9266-758ebe941d41"},"vehicle_type_id":"4","last_reported":1731838128,"current_range_meters":38800,"station_id":"ce4bh092rcd13ifvqd30","pricing_plan_id":"cebpf4jnsgd1na2vs0mg"},{"bike_id":"1a450a17-6ebf-4eb9-b8aa-995e4433c394","system_id":"levelo_inurba_marseille","lat":43.27058,"lon":5.4026,"is_reserved":false,"is_disabled":false,"rental_uris":{"android":"levelo://app?vid=1a450a17-6ebf-4eb9-b8aa-995e4433c394","ios":"levelo://app?vid=1a450a17-6ebf-4eb9-b8aa-995e4433c394"},"vehicle_type_id":"4","last_reported":1731838128,"current_range_meters":12400,"station_id":"ce4bhk92rcd13ifvqgc0","pricing_plan_id":"cebpf4jnsgd1na2vs0mg"},{"bike_id":"6b0ea79e-cb12-4a50-9845-e4686b3cacc8","system_id":"levelo_inurba_marseille","lat":43.295751,"lon":5.399791,"is_reserved":false,"is_disabled":false,"rental_uris":{"android":"levelo://app?vid=6b0ea79e-cb12-4a50-9845-e4686b3cacc8","ios":"levelo://app?vid=6b0ea79e-cb12-4a50-9845-e4686b3cacc8"},"vehicle_type_id":"4","last_reported":1731838128,"current_range_meters":10000,"station_id":"","pricing_plan_id":"cebpf4jnsgd1na2vs0mg"},{"bike_id":"6b3b29cc-0d16-4209-baf0-d9aa368351c0","system_id":"levelo_inurba_marseille","lat":43.32559,"lon":5.41482,"is_reserved":false,"is_disabled":false,"rental_uris":{"android":"levelo://app?vid=6b3b29cc-0d16-4209-baf0-d9aa368351c0","ios":"levelo://app?vid=6b3b29cc-0d16-4209-baf0-d9aa368351c0"},"vehicle_type_id":"4","last_reported":1731838128,"current_range_meters":38800,"station_id":"ce4bhq12rcd13ifvqhhg","pricing_plan_id":"cebpf4jnsgd1na2vs0mg"},{"bike_id":"ab1e2336-b4d1-4295-8ba5-67ecc35322d1","system_id":"levelo_inurba_marseille","lat":43.24996,"lon":5.38941,"is_reserved":false,"is_disabled":false,"rental_uris":{"android":"levelo://app?vid=ab1e2336-b4d1-4295-8ba5-67ecc35322d1","ios":"levelo://app?vid=ab1e2336-b4d1-4295-8ba5-67ecc35322d1"},"vehicle_type_id":"4","last_reported":1731838128,"current_range_meters":10800,"station_id":"ce4bhgp2rcd13ifvqfd0","pricing_plan_id":"cebpf4jnsgd1na2vs0mg"},{"bike_id":"72499688-a320-4333-843e-c093213a74e4","system_id":"levelo_inurba_marseille","lat":43.23057,"lon":5.35493,"is_reserved":false,"is_disabled":false,"rental_uris":{"android":"levelo://app?vid=72499688-a320-4333-843e-c093213a74e4","ios":"levelo://app?vid=72499688-a320-4333-843e-c093213a74e4"},"vehicle_type_id":"4","last_reported":1731838128,"current_range_meters":4800,"station_id":"cpo3342slgdg3j2ifvpg","pricing_plan_id":"cebpf4jnsgd1na2vs0mg"},{"bike_id":"c3e6cf90-dfec-4b8e-883c-e89785d628df","system_id":"levelo_inurba_marseille","lat":43.29675,"lon":5.37285,"is_reserved":false,"is_disabled":false,"rental_uris":{"android":"levelo://app?vid=c3e6cf90-dfec-4b8e-883c-e89785d628df","ios":"levelo://app?vid=c3e6cf90-dfec-4b8e-883c-e89785d628df"},"vehicle_type_id":"4","last_reported":1731838128,"current_range_meters":38800,"station_id":"ce4bgk12rcd13ifvqbj0","pricing_plan_id":"cebpf4jnsgd1na2vs0mg"},{"bike_id":"2dbb2de1-6b20-470a-a5a8-98f709fd3897","system_id":"levelo_inurba_marseille","lat":43.25005,"lon":5.3893,"is_reserved":false,"is_disabled":false,"rental_uris":{"android":"levelo://app?vid=2dbb2de1-6b20-470a-a5a8-98f709fd3897","ios":"levelo://app?vid=2dbb2de1-6b20-470a-a5a8-98f709fd3897"},"vehicle_type_id":"4","last_reported":1731838128,"current_range_meters":27200,"station_id":"ce4bhgp2rcd13ifvqfd0","pricing_plan_id":"cebpf4jnsgd1na2vs0mg"},{"bike_id":"cfb84728-fd61-4b96-a4bf-5bedd95d8ccb","system_id":"levelo_inurba_marseille","lat":43.32342,"lon":5.40616,"is_reserved":false,"is_disabled":false,"rental_uris":{"android":"levelo://app?vid=cfb84728-fd61-4b96-a4bf-5bedd95d8ccb","ios":"levelo://app?vid=cfb84728-fd61-4b96-a4bf-5bedd95d8ccb"},"vehicle_type_id":"4","last_reported":1731838128,"current_range_meters":38000,"station_id":"ce4bhq92rcd13ifvqhjg","pricing_plan_id":"cebpf4jnsgd1na2vs0mg"},{"bike_id":"656fd475-855a-451f-9bd4-cda5dd5bf3e7","system_id":"levelo_inurba_marseille","lat":43.2762,"lon":5.36111,"is_reserved":false,"is_disabled":false,"rental_uris":{"android":"levelo://app?vid=656fd475-855a-451f-9bd4-cda5dd5bf3e7","ios":"levelo://app?vid=656fd475-855a-451f-9bd4-cda5dd5bf3e7"},"vehicle_type_id":"4","last_reported":1731838128,"current_range_meters":38400,"station_id":"ce4bgj92rcd13ifvqbe0","pricing_plan_id":"cebpf4jnsgd1na2vs0mg"},{"bike_id":"0e1d2e7a-8318-45fe-af1b-31857eb1aac8","system_id":"levelo_inurba_marseille","lat":43.23955,"lon":5.3664,"is_reserved":false,"is_disabled":false,"rental_uris":{"android":"levelo://app?vid=0e1d2e7a-8318-45fe-af1b-31857eb1aac8","ios":"levelo://app?vid=0e1d2e7a-8318-45fe-af1b-31857eb1aac8"},"vehicle_type_id":"4","last_reported":1731838128,"current_range_meters":24800,"station_id":"ce4bhi12rcd13ifvqfp0","pricing_plan_id":"cebpf4jnsgd1na2vs0mg"},{"bike_id":"d3d6c01f-3a4b-4f9b-a5b9-2d9687fae2ab","system_id":"levelo_inurba_marseille","lat":43.27947,"lon":5.41042,"is_reserved":false,"is_disabled":false,"rental_uris":{"android":"levelo://app?vid=d3d6c01f-3a4b-4f9b-a5b9-2d9687fae2ab","ios":"levelo://app?vid=d3d6c01f-3a4b-4f9b-a5b9-2d9687fae2ab"},"vehicle_type_id":"4","last_reported":1731838128,"current_range_meters":34800,"station_id":"ce4bhnp2rcd13ifvqh0g","pricing_plan_id":"cebpf4jnsgd1na2vs0mg"},{"bike_id":"2bd3ae1c-22d2-4b0f-9fd7-42d6b84fc3a3","system_id":"levelo_inurba_marseille","lat":43.33601,"lon":5.41028,"is_reserved":false,"is_disabled":false,"rental_uris":{"android":"levelo://app?vid=2bd3ae1c-22d2-4b0f-9fd7-42d6b84fc3a3","ios":"levelo://app?vid=2bd3ae1c-22d2-4b0f-9fd7-42d6b84fc3a3"},"vehicle_type_id":"4","last_reported":1731838128,"current_range_meters":19600,"station_id":"ce4bhqh2rcd13ifvqhmg","pricing_plan_id":"cebpf4jnsgd1na2vs0mg"},{"bike_id":"79b76398-f4aa-422b-b325-2360d07a8784","system_id":"levelo_inurba_marseille","lat":43.33725,"lon":5.3919,"is_reserved":false,"is_disabled":false,"rental_uris":{"android":"levelo://app?vid=79b76398-f4aa-422b-b325-2360d07a8784","ios":"levelo://app?vid=79b76398-f4aa-422b-b325-2360d07a8784"},"vehicle_type_id":"4","last_reported":1731838128,"current_range_meters":38800,"station_id":"ce4bhr92rcd13ifvqhsg","pricing_plan_id":"cebpf4jnsgd1na2vs0mg"},{"bike_id":"f0198fe6-382b-4ee8-a34b-f1fe3cb2d0a7","system_id":"levelo_inurba_marseille","lat":43.26683,"lon":5.38268,"is_reserved":false,"is_disabled":false,"rental_uris":{"android":"levelo://app?vid=f0198fe6-382b-4ee8-a34b-f1fe3cb2d0a7","ios":"levelo://app?vid=f0198fe6-382b-4ee8-a34b-f1fe3cb2d0a7"},"vehicle_type_id":"4","last_reported":1731838128,"current_range_meters":38800,"station_id":"ce4bhg92rcd13ifvqf90","pricing_plan_id":"cebpf4jnsgd1na2vs0mg"},{"bike_id":"f4bcdbe2-cd9e-4614-b9de-2219b28777c2","system_id":"levelo_inurba_marseille","lat":43.30461,"lon":5.37901,"is_reserved":false,"is_disabled":false,"rental_uris":{"android":"levelo://app?vid=f4bcdbe2-cd9e-4614-b9de-2219b28777c2","ios":"levelo://app?vid=f4bcdbe2-cd9e-4614-b9de-2219b28777c2"},"vehicle_type_id":"4","last_reported":1731838128,"current_range_meters":38000,"station_id":"ce4bgup2rcd13ifvqcn0","pricing_plan_id":"cebpf4jnsgd1na2vs0mg"},{"bike_id":"efd07578-0d87-479b-a620-d02e7740eb0d","system_id":"levelo_inurba_marseille","lat":43.24388,"lon":5.37057,"is_reserved":false,"is_disabled":false,"rental_uris":{"android":"levelo://app?vid=efd07578-0d87-479b-a620-d02e7740eb0d","ios":"levelo://app?vid=efd07578-0d87-479b-a620-d02e7740eb0d"},"vehicle_type_id":"4","last_reported":1731838128,"current_range_meters":38000,"station_id":"ce4bhhh2rcd13ifvqfk0","pricing_plan_id":"cebpf4jnsgd1na2vs0mg"},{"bike_id":"17c79e0e-27fe-43dc-acb4-348307ee2e97","system_id":"levelo_inurba_marseille","lat":43.243103,"lon":5.370153,"is_reserved":false,"is_disabled":false,"rental_uris":{"android":"levelo://app?vid=17c79e0e-27fe-43dc-acb4-348307ee2e97","ios":"levelo://app?vid=17c79e0e-27fe-43dc-acb4-348307ee2e97"},"vehicle_type_id":"4","last_reported":1731838128,"current_range_meters":18000,"station_id":"ce4bhhh2rcd13ifvqfk0","pricing_plan_id":"cebpf4jnsgd1na2vs0mg"},{"bike_id":"0fc20d1f-280c-411b-b181-c5cd22797b5b","system_id":"levelo_inurba_marseille","lat":43.2978,"lon":5.37091,"is_reserved":false,"is_disabled":false,"rental_uris":{"android":"levelo://app?vid=0fc20d1f-280c-411b-b181-c5cd22797b5b","ios":"levelo://app?vid=0fc20d1f-280c-411b-b181-c5cd22797b5b"},"vehicle_type_id":"4","last_reported":1731838128,"current_range_meters":38800,"station_id":"ce4bgop2rcd13ifvqc1g","pricing_plan_id":"cebpf4jnsgd1na2vs0mg"},{"bike_id":"3fcbe528-45e3-439d-80db-ce667e24fe73","system_id":"levelo_inurba_marseille","lat":43.23059,"lon":5.35492,"is_reserved":false,"is_disabled":false,"rental_uris":{"android":"levelo://app?vid=3fcbe528-45e3-439d-80db-ce667e24fe73","ios":"levelo://app?vid=3fcbe528-45e3-439d-80db-ce667e24fe73"},"vehicle_type_id":"4","last_reported":1731838128,"current_range_meters":16800,"station_id":"cpo3342slgdg3j2ifvpg","pricing_plan_id":"cebpf4jnsgd1na2vs0mg"},{"bike_id":"21bfb291-9ab4-4d92-8f95-3d85f941cc20","system_id":"levelo_inurba_marseille","lat":43.26681,"lon":5.38271,"is_reserved":false,"is_disabled":false,"rental_uris":{"android":"levelo://app?vid=21bfb291-9ab4-4d92-8f95-3d85f941cc20","ios":"levelo://app?vid=21bfb291-9ab4-4d92-8f95-3d85f941cc20"},"vehicle_type_id":"4","last_reported":1731838128,"current_range_meters":17200,"station_id":"ce4bhg92rcd13ifvqf90","pricing_plan_id":"cebpf4jnsgd1na2vs0mg"},{"bike_id":"b2f45d15-d036-4f36-a361-a492e289342e","system_id":"levelo_inurba_marseille","lat":43.22928,"lon":5.35372,"is_reserved":false,"is_disabled":false,"rental_uris":{"android":"levelo://app?vid=b2f45d15-d036-4f36-a361-a492e289342e","ios":"levelo://app?vid=b2f45d15-d036-4f36-a361-a492e289342e"},"vehicle_type_id":"4","last_reported":1731838128,"current_range_meters":36000,"station_id":"cpo3532slgdg3j2ikp40","pricing_plan_id":"cebpf4jnsgd1na2vs0mg"},{"bike_id":"87eb6580-c17b-476d-9207-abb70c64f69c","system_id":"levelo_inurba_marseille","lat":43.2572,"lon":5.41112,"is_reserved":false,"is_disabled":false,"rental_uris":{"android":"levelo://app?vid=87eb6580-c17b-476d-9207-abb70c64f69c","ios":"levelo://app?vid=87eb6580-c17b-476d-9207-abb70c64f69c"},"vehicle_type_id":"4","last_reported":1731838128,"current_range_meters":38000,"station_id":"ce4bhkp2rcd13ifvqgd0","pricing_plan_id":"cebpf4jnsgd1na2vs0mg"},{"bike_id":"0eb5a0ee-db9b-4a72-a5c7-31db4ce16207","system_id":"levelo_inurba_marseille","lat":43.26206,"lon":5.37929,"is_reserved":false,"is_disabled":false,"rental_uris":{"android":"levelo://app?vid=0eb5a0ee-db9b-4a72-a5c7-31db4ce16207","ios":"levelo://app?vid=0eb5a0ee-db9b-4a72-a5c7-31db4ce16207"},"vehicle_type_id":"4","last_reported":1731838128,"current_range_meters":23200,"station_id":"ce4bhjp2rcd13ifvqg90","pricing_plan_id":"cebpf4jnsgd1na2vs0mg"},{"bike_id":"10694117-1a43-4a08-93b5-62ad2c7be916","system_id":"levelo_inurba_marseille","lat":43.26206,"lon":5.37442,"is_reserved":false,"is_disabled":false,"rental_uris":{"android":"levelo://app?vid=10694117-1a43-4a08-93b5-62ad2c7be916","ios":"levelo://app?vid=10694117-1a43-4a08-93b5-62ad2c7be916"},"vehicle_type_id":"4","last_reported":1731838128,"current_range_meters":24000,"station_id":"ce4bhgp2rcd13ifvqfc0","pricing_plan_id":"cebpf4jnsgd1na2vs0mg"},{"bike_id":"c3979bf8-19b8-44f8-9c55-905eeba667a1","system_id":"levelo_inurba_marseille","lat":43.25109,"lon":5.4032,"is_reserved":false,"is_disabled":false,"rental_uris":{"android":"levelo://app?vid=c3979bf8-19b8-44f8-9c55-905eeba667a1","ios":"levelo://app?vid=c3979bf8-19b8-44f8-9c55-905eeba667a1"},"vehicle_type_id":"4","last_reported":1731838128,"current_range_meters":38800,"station_id":"ce4bhlh2rcd13ifvqgig","pricing_plan_id":"cebpf4jnsgd1na2vs0mg"},{"bike_id":"7b949614-ed79-4b61-8270-4bf13d0bba9e","system_id":"levelo_inurba_marseille","lat":43.25587,"lon":5.38236,"is_reserved":false,"is_disabled":false,"rental_uris":{"android":"levelo://app?vid=7b949614-ed79-4b61-8270-4bf13d0bba9e","ios":"levelo://app?vid=7b949614-ed79-4b61-8270-4bf13d0bba9e"},"vehicle_type_id":"4","last_reported":1731838128,"current_range_meters":22800,"station_id":"ce4bhih2rcd13ifvqfs0","pricing_plan_id":"cebpf4jnsgd1na2vs0mg"},{"bike_id":"813af9a4-9b14-40c9-8204-9843d74ef545","system_id":"levelo_inurba_marseille","lat":43.29587,"lon":5.36738,"is_reserved":false,"is_disabled":false,"rental_uris":{"android":"levelo://app?vid=813af9a4-9b14-40c9-8204-9843d74ef545","ios":"levelo://app?vid=813af9a4-9b14-40c9-8204-9843d74ef545"},"vehicle_type_id":"4","last_reported":1731838128,"current_range_meters":38800,"station_id":"ce4bgph2rcd13ifvqc2g","pricing_plan_id":"cebpf4jnsgd1na2vs0mg"},{"bike_id":"dbc49ba9-b89e-4b21-a8bb-1b8eb8b29e4f","system_id":"levelo_inurba_marseille","lat":43.25109,"lon":5.40324,"is_reserved":false,"is_disabled":false,"rental_uris":{"android":"levelo://app?vid=dbc49ba9-b89e-4b21-a8bb-1b8eb8b29e4f","ios":"levelo://app?vid=dbc49ba9-b89e-4b21-a8bb-1b8eb8b29e4f"},"vehicle_type_id":"4","last_reported":1731838128,"current_range_meters":4400,"station_id":"ce4bhlh2rcd13ifvqgig","pricing_plan_id":"cebpf4jnsgd1na2vs0mg"},{"bike_id":"198276e4-5069-4053-b9b6-17b7283bbcfd","system_id":"levelo_inurba_marseille","lat":43.29711,"lon":5.37695,"is_reserved":false,"is_disabled":false,"rental_uris":{"android":"levelo://app?vid=198276e4-5069-4053-b9b6-17b7283bbcfd","ios":"levelo://app?vid=198276e4-5069-4053-b9b6-17b7283bbcfd"},"vehicle_type_id":"4","last_reported":1731838128,"current_range_meters":25600,"station_id":"ce4bgkh2rcd13ifvqbl0","pricing_plan_id":"cebpf4jnsgd1na2vs0mg"},{"bike_id":"41b88041-886b-40fb-a6a6-43530d254872","system_id":"levelo_inurba_marseille","lat":43.26502,"lon":5.39535,"is_reserved":false,"is_disabled":false,"rental_uris":{"android":"levelo://app?vid=41b88041-886b-40fb-a6a6-43530d254872","ios":"levelo://app?vid=41b88041-886b-40fb-a6a6-43530d254872"},"vehicle_type_id":"4","last_reported":1731838128,"current_range_meters":38000,"station_id":"ce4bhi12rcd13ifvqfq0","pricing_plan_id":"cebpf4jnsgd1na2vs0mg"},{"bike_id":"b128a8d7-7942-4d37-9966-cfc17584ff0d","system_id":"levelo_inurba_marseille","lat":43.28078,"lon":5.4077,"is_reserved":false,"is_disabled":false,"rental_uris":{"android":"levelo://app?vid=b128a8d7-7942-4d37-9966-cfc17584ff0d","ios":"levelo://app?vid=b128a8d7-7942-4d37-9966-cfc17584ff0d"},"vehicle_type_id":"4","last_reported":1731838128,"current_range_meters":14400,"station_id":"","pricing_plan_id":"cebpf4jnsgd1na2vs0mg"},{"bike_id":"e7647f15-3dee-464b-8074-f6c351682565","system_id":"levelo_inurba_marseille","lat":43.273896,"lon":5.36269,"is_reserved":false,"is_disabled":false,"rental_uris":{"android":"levelo://app?vid=e7647f15-3dee-464b-8074-f6c351682565","ios":"levelo://app?vid=e7647f15-3dee-464b-8074-f6c351682565"},"vehicle_type_id":"4","last_reported":1731838128,"current_range_meters":31200,"station_id":"ce4bhbh2rcd13ifvqeo0","pricing_plan_id":"cebpf4jnsgd1na2vs0mg"},{"bike_id":"78f7063c-01cd-4514-96f5-e9c548d4aba9","system_id":"levelo_inurba_marseille","lat":43.25585,"lon":5.3823,"is_reserved":false,"is_disabled":false,"rental_uris":{"android":"levelo://app?vid=78f7063c-01cd-4514-96f5-e9c548d4aba9","ios":"levelo://app?vid=78f7063c-01cd-4514-96f5-e9c548d4aba9"},"vehicle_type_id":"4","last_reported":1731838128,"current_range_meters":30400,"station_id":"ce4bhih2rcd13ifvqfs0","pricing_plan_id":"cebpf4jnsgd1na2vs0mg"},{"bike_id":"98e8f116-8e6d-44de-aa8d-307238c5688c","system_id":"levelo_inurba_marseille","lat":43.30794,"lon":5.43532,"is_reserved":false,"is_disabled":false,"rental_uris":{"android":"levelo://app?vid=98e8f116-8e6d-44de-aa8d-307238c5688c","ios":"levelo://app?vid=98e8f116-8e6d-44de-aa8d-307238c5688c"},"vehicle_type_id":"4","last_reported":1731838128,"current_range_meters":39200,"station_id":"ce4bhph2rcd13ifvqheg","pricing_plan_id":"cebpf4jnsgd1na2vs0mg"},{"bike_id":"8b8091d9-8831-4b6c-ad12-201ff8e72ec6","system_id":"levelo_inurba_marseille","lat":43.27918,"lon":5.41431,"is_reserved":false,"is_disabled":false,"rental_uris":{"android":"levelo://app?vid=8b8091d9-8831-4b6c-ad12-201ff8e72ec6","ios":"levelo://app?vid=8b8091d9-8831-4b6c-ad12-201ff8e72ec6"},"vehicle_type_id":"4","last_reported":1731838128,"current_range_meters":34800,"station_id":"","pricing_plan_id":"cebpf4jnsgd1na2vs0mg"},{"bike_id":"98fe6ff0-e88b-47fc-9158-b544f19bda87","system_id":"levelo_inurba_marseille","lat":43.2938,"lon":5.37371,"is_reserved":false,"is_disabled":false,"rental_uris":{"android":"levelo://app?vid=98fe6ff0-e88b-47fc-9158-b544f19bda87","ios":"levelo://app?vid=98fe6ff0-e88b-47fc-9158-b544f19bda87"},"vehicle_type_id":"4","last_reported":1731838128,"current_range_meters":16000,"station_id":"ce4bhbh2rcd13ifvqepg","pricing_plan_id":"cebpf4jnsgd1na2vs0mg"},{"bike_id":"c7819d65-71cb-421a-85c6-b48855dedfc5","system_id":"levelo_inurba_marseille","lat":43.32341,"lon":5.40621,"is_reserved":false,"is_disabled":false,"rental_uris":{"android":"levelo://app?vid=c7819d65-71cb-421a-85c6-b48855dedfc5","ios":"levelo://app?vid=c7819d65-71cb-421a-85c6-b48855dedfc5"},"vehicle_type_id":"4","last_reported":1731838128,"current_range_meters":39200,"station_id":"ce4bhq92rcd13ifvqhjg","pricing_plan_id":"cebpf4jnsgd1na2vs0mg"},{"bike_id":"75920a68-20af-4e25-8f9a-eebdafdde0c1","system_id":"levelo_inurba_marseille","lat":43.32344,"lon":5.40626,"is_reserved":false,"is_disabled":false,"rental_uris":{"android":"levelo://app?vid=75920a68-20af-4e25-8f9a-eebdafdde0c1","ios":"levelo://app?vid=75920a68-20af-4e25-8f9a-eebdafdde0c1"},"vehicle_type_id":"4","last_reported":1731838128,"current_range_meters":38400,"station_id":"ce4bhq92rcd13ifvqhjg","pricing_plan_id":"cebpf4jnsgd1na2vs0mg"},{"bike_id":"0ece85f4-e736-4389-a3cc-3765002dc8dc","system_id":"levelo_inurba_marseille","lat":43.27565,"lon":5.38428,"is_reserved":false,"is_disabled":false,"rental_uris":{"android":"levelo://app?vid=0ece85f4-e736-4389-a3cc-3765002dc8dc","ios":"levelo://app?vid=0ece85f4-e736-4389-a3cc-3765002dc8dc"},"vehicle_type_id":"4","last_reported":1731838128,"current_range_meters":38800,"station_id":"ce4bhh92rcd13ifvqfi0","pricing_plan_id":"cebpf4jnsgd1na2vs0mg"},{"bike_id":"23e5e119-83f6-4211-ade1-a250a82ab7db","system_id":"levelo_inurba_marseille","lat":43.22934,"lon":5.35371,"is_reserved":false,"is_disabled":false,"rental_uris":{"android":"levelo://app?vid=23e5e119-83f6-4211-ade1-a250a82ab7db","ios":"levelo://app?vid=23e5e119-83f6-4211-ade1-a250a82ab7db"},"vehicle_type_id":"4","last_reported":1731838128,"current_range_meters":17200,"station_id":"cpo3532slgdg3j2ikp40","pricing_plan_id":"cebpf4jnsgd1na2vs0mg"},{"bike_id":"0b580216-b07f-4821-a19d-686462be0488","system_id":"levelo_inurba_marseille","lat":43.22935,"lon":5.35378,"is_reserved":false,"is_disabled":false,"rental_uris":{"android":"levelo://app?vid=0b580216-b07f-4821-a19d-686462be0488","ios":"levelo://app?vid=0b580216-b07f-4821-a19d-686462be0488"},"vehicle_type_id":"4","last_reported":1731838128,"current_range_meters":36400,"station_id":"cpo3532slgdg3j2ikp40","pricing_plan_id":"cebpf4jnsgd1na2vs0mg"},{"bike_id":"01272bd5-a2c0-44b6-b76e-87cd305d9451","system_id":"levelo_inurba_marseille","lat":43.33023,"lon":5.39047,"is_reserved":false,"is_disabled":false,"rental_uris":{"android":"levelo://app?vid=01272bd5-a2c0-44b6-b76e-87cd305d9451","ios":"levelo://app?vid=01272bd5-a2c0-44b6-b76e-87cd305d9451"},"vehicle_type_id":"4","last_reported":1731838128,"current_range_meters":16400,"station_id":"ce4bhr92rcd13ifvqhrg","pricing_plan_id":"cebpf4jnsgd1na2vs0mg"},{"bike_id":"6c09764b-b705-4bff-8274-3ff08e7b8ec5","system_id":"levelo_inurba_marseille","lat":43.25581,"lon":5.38237,"is_reserved":false,"is_disabled":false,"rental_uris":{"android":"levelo://app?vid=6c09764b-b705-4bff-8274-3ff08e7b8ec5","ios":"levelo://app?vid=6c09764b-b705-4bff-8274-3ff08e7b8ec5"},"vehicle_type_id":"4","last_reported":1731838128,"current_range_meters":38000,"station_id":"ce4bhih2rcd13ifvqfs0","pricing_plan_id":"cebpf4jnsgd1na2vs0mg"},{"bike_id":"4138345b-cc1d-40b0-8916-e8013770729a","system_id":"levelo_inurba_marseille","lat":43.24644,"lon":5.3889,"is_reserved":false,"is_disabled":false,"rental_uris":{"android":"levelo://app?vid=4138345b-cc1d-40b0-8916-e8013770729a","ios":"levelo://app?vid=4138345b-cc1d-40b0-8916-e8013770729a"},"vehicle_type_id":"4","last_reported":1731838128,"current_range_meters":36800,"station_id":"ce4bhg12rcd13ifvqf60","pricing_plan_id":"cebpf4jnsgd1na2vs0mg"},{"bike_id":"d332e933-cded-40f1-a449-8f27d433e53d","system_id":"levelo_inurba_marseille","lat":43.28417,"lon":5.34987,"is_reserved":false,"is_disabled":false,"rental_uris":{"android":"levelo://app?vid=d332e933-cded-40f1-a449-8f27d433e53d","ios":"levelo://app?vid=d332e933-cded-40f1-a449-8f27d433e53d"},"vehicle_type_id":"4","last_reported":1731838128,"current_range_meters":35200,"station_id":"ce4bhbh2rcd13ifvqepg","pricing_plan_id":"cebpf4jnsgd1na2vs0mg"},{"bike_id":"10473ae9-343a-42a2-916b-9f1475a0a3bc","system_id":"levelo_inurba_marseille","lat":43.23965,"lon":5.36628,"is_reserved":false,"is_disabled":false,"rental_uris":{"android":"levelo://app?vid=10473ae9-343a-42a2-916b-9f1475a0a3bc","ios":"levelo://app?vid=10473ae9-343a-42a2-916b-9f1475a0a3bc"},"vehicle_type_id":"4","last_reported":1731838128,"current_range_meters":28000,"station_id":"ce4bhi12rcd13ifvqfp0","pricing_plan_id":"cebpf4jnsgd1na2vs0mg"},{"bike_id":"87119aad-ad8b-4504-8d03-d8d8d5751481","system_id":"levelo_inurba_marseille","lat":43.27922,"lon":5.41216,"is_reserved":false,"is_disabled":false,"rental_uris":{"android":"levelo://app?vid=87119aad-ad8b-4504-8d03-d8d8d5751481","ios":"levelo://app?vid=87119aad-ad8b-4504-8d03-d8d8d5751481"},"vehicle_type_id":"4","last_reported":1731838128,"current_range_meters":24000,"station_id":"","pricing_plan_id":"cebpf4jnsgd1na2vs0mg"},{"bike_id":"ba57f1ef-3fbb-4816-9e62-2e0737689f5e","system_id":"levelo_inurba_marseille","lat":43.33608,"lon":5.41019,"is_reserved":false,"is_disabled":false,"rental_uris":{"android":"levelo://app?vid=ba57f1ef-3fbb-4816-9e62-2e0737689f5e","ios":"levelo://app?vid=ba57f1ef-3fbb-4816-9e62-2e0737689f5e"},"vehicle_type_id":"4","last_reported":1731838128,"current_range_meters":38800,"station_id":"ce4bhqh2rcd13ifvqhmg","pricing_plan_id":"cebpf4jnsgd1na2vs0mg"},{"bike_id":"4df96d24-58e7-4ba9-9234-e475332e4941","system_id":"levelo_inurba_marseille","lat":43.26054,"lon":5.39391,"is_reserved":false,"is_disabled":false,"rental_uris":{"android":"levelo://app?vid=4df96d24-58e7-4ba9-9234-e475332e4941","ios":"levelo://app?vid=4df96d24-58e7-4ba9-9234-e475332e4941"},"vehicle_type_id":"4","last_reported":1731838128,"current_range_meters":38800,"station_id":"ce4bhh92rcd13ifvqfj0","pricing_plan_id":"cebpf4jnsgd1na2vs0mg"},{"bike_id":"1fa8472f-247f-472b-b695-c278165e172c","system_id":"levelo_inurba_marseille","lat":43.29594,"lon":5.381,"is_reserved":false,"is_disabled":false,"rental_uris":{"android":"levelo://app?vid=1fa8472f-247f-472b-b695-c278165e172c","ios":"levelo://app?vid=1fa8472f-247f-472b-b695-c278165e172c"},"vehicle_type_id":"4","last_reported":1731838128,"current_range_meters":24400,"station_id":"ce4bgl12rcd13ifvqbo0","pricing_plan_id":"cebpf4jnsgd1na2vs0mg"},{"bike_id":"6da298a1-b1e6-4ba8-a57a-5400211d4b87","system_id":"levelo_inurba_marseille","lat":43.27985,"lon":5.41658,"is_reserved":false,"is_disabled":false,"rental_uris":{"android":"levelo://app?vid=6da298a1-b1e6-4ba8-a57a-5400211d4b87","ios":"levelo://app?vid=6da298a1-b1e6-4ba8-a57a-5400211d4b87"},"vehicle_type_id":"4","last_reported":1731838128,"current_range_meters":28800,"station_id":"ce4bho12rcd13ifvqh1g","pricing_plan_id":"cebpf4jnsgd1na2vs0mg"},{"bike_id":"2a6ea6c1-25ee-49ad-aa08-9c77096a4896","system_id":"levelo_inurba_marseille","lat":43.25108,"lon":5.40324,"is_reserved":false,"is_disabled":false,"rental_uris":{"android":"levelo://app?vid=2a6ea6c1-25ee-49ad-aa08-9c77096a4896","ios":"levelo://app?vid=2a6ea6c1-25ee-49ad-aa08-9c77096a4896"},"vehicle_type_id":"4","last_reported":1731838128,"current_range_meters":23200,"station_id":"ce4bhlh2rcd13ifvqgig","pricing_plan_id":"cebpf4jnsgd1na2vs0mg"},{"bike_id":"74c7ab3a-77b8-4f2f-b99a-e5157133511e","system_id":"levelo_inurba_marseille","lat":43.27617,"lon":5.36115,"is_reserved":false,"is_disabled":false,"rental_uris":{"android":"levelo://app?vid=74c7ab3a-77b8-4f2f-b99a-e5157133511e","ios":"levelo://app?vid=74c7ab3a-77b8-4f2f-b99a-e5157133511e"},"vehicle_type_id":"4","last_reported":1731838128,"current_range_meters":30800,"station_id":"ce4bgj92rcd13ifvqbe0","pricing_plan_id":"cebpf4jnsgd1na2vs0mg"},{"bike_id":"12867844-fa2a-41b2-8d74-706d4ef15909","system_id":"levelo_inurba_marseille","lat":43.33761,"lon":5.37444,"is_reserved":false,"is_disabled":false,"rental_uris":{"android":"levelo://app?vid=12867844-fa2a-41b2-8d74-706d4ef15909","ios":"levelo://app?vid=12867844-fa2a-41b2-8d74-706d4ef15909"},"vehicle_type_id":"4","last_reported":1731838128,"current_range_meters":34000,"station_id":"","pricing_plan_id":"cebpf4jnsgd1na2vs0mg"},{"bike_id":"3455c789-2e35-4152-8de0-fa613ba872df","system_id":"levelo_inurba_marseille","lat":43.32366,"lon":5.3888,"is_reserved":false,"is_disabled":false,"rental_uris":{"android":"levelo://app?vid=3455c789-2e35-4152-8de0-fa613ba872df","ios":"levelo://app?vid=3455c789-2e35-4152-8de0-fa613ba872df"},"vehicle_type_id":"4","last_reported":1731838128,"current_range_meters":33600,"station_id":"ce4bhqp2rcd13ifvqhog","pricing_plan_id":"cebpf4jnsgd1na2vs0mg"},{"bike_id":"dd9c4fe9-c4fa-4f18-a937-bf35cdcb91f8","system_id":"levelo_inurba_marseille","lat":43.26215,"lon":5.37441,"is_reserved":false,"is_disabled":false,"rental_uris":{"android":"levelo://app?vid=dd9c4fe9-c4fa-4f18-a937-bf35cdcb91f8","ios":"levelo://app?vid=dd9c4fe9-c4fa-4f18-a937-bf35cdcb91f8"},"vehicle_type_id":"4","last_reported":1731838128,"current_range_meters":26800,"station_id":"ce4bhgp2rcd13ifvqfc0","pricing_plan_id":"cebpf4jnsgd1na2vs0mg"},{"bike_id":"0f94c962-6bca-4904-9b9e-b573544d963c","system_id":"levelo_inurba_marseille","lat":43.27616,"lon":5.36112,"is_reserved":false,"is_disabled":false,"rental_uris":{"android":"levelo://app?vid=0f94c962-6bca-4904-9b9e-b573544d963c","ios":"levelo://app?vid=0f94c962-6bca-4904-9b9e-b573544d963c"},"vehicle_type_id":"4","last_reported":1731838128,"current_range_meters":29600,"station_id":"ce4bgj92rcd13ifvqbe0","pricing_plan_id":"cebpf4jnsgd1na2vs0mg"},{"bike_id":"97faa686-8ac5-4334-953b-addc56393061","system_id":"levelo_inurba_marseille","lat":43.2511,"lon":5.40324,"is_reserved":false,"is_disabled":false,"rental_uris":{"android":"levelo://app?vid=97faa686-8ac5-4334-953b-addc56393061","ios":"levelo://app?vid=97faa686-8ac5-4334-953b-addc56393061"},"vehicle_type_id":"4","last_reported":1731838128,"current_range_meters":34000,"station_id":"ce4bhlh2rcd13ifvqgig","pricing_plan_id":"cebpf4jnsgd1na2vs0mg"},{"bike_id":"31e29244-199a-40ed-a965-d83e963d726f","system_id":"levelo_inurba_marseille","lat":43.30086,"lon":5.39076,"is_reserved":false,"is_disabled":false,"rental_uris":{"android":"levelo://app?vid=31e29244-199a-40ed-a965-d83e963d726f","ios":"levelo://app?vid=31e29244-199a-40ed-a965-d83e963d726f"},"vehicle_type_id":"4","last_reported":1731838128,"current_range_meters":28000,"station_id":"ce4bh192rcd13ifvqdb0","pricing_plan_id":"cebpf4jnsgd1na2vs0mg"},{"bike_id":"08556236-18aa-48b5-821c-02152b23fea2","system_id":"levelo_inurba_marseille","lat":43.27066,"lon":5.42275,"is_reserved":false,"is_disabled":false,"rental_uris":{"android":"levelo://app?vid=08556236-18aa-48b5-821c-02152b23fea2","ios":"levelo://app?vid=08556236-18aa-48b5-821c-02152b23fea2"},"vehicle_type_id":"4","last_reported":1731838128,"current_range_meters":16400,"station_id":"ce4bhk92rcd13ifvqgb0","pricing_plan_id":"cebpf4jnsgd1na2vs0mg"},{"bike_id":"56428505-172c-4b4f-906d-8c6ca9064f2c","system_id":"levelo_inurba_marseille","lat":43.24393,"lon":5.3706,"is_reserved":false,"is_disabled":false,"rental_uris":{"android":"levelo://app?vid=56428505-172c-4b4f-906d-8c6ca9064f2c","ios":"levelo://app?vid=56428505-172c-4b4f-906d-8c6ca9064f2c"},"vehicle_type_id":"4","last_reported":1731838128,"current_range_meters":8800,"station_id":"ce4bhhh2rcd13ifvqfk0","pricing_plan_id":"cebpf4jnsgd1na2vs0mg"},{"bike_id":"28b79275-ade8-45ee-b25a-14126dd5c2bf","system_id":"levelo_inurba_marseille","lat":43.24813,"lon":5.3746,"is_reserved":false,"is_disabled":false,"rental_uris":{"android":"levelo://app?vid=28b79275-ade8-45ee-b25a-14126dd5c2bf","ios":"levelo://app?vid=28b79275-ade8-45ee-b25a-14126dd5c2bf"},"vehicle_type_id":"4","last_reported":1731838128,"current_range_meters":37600,"station_id":"ce4bhgh2rcd13ifvqfb0","pricing_plan_id":"cebpf4jnsgd1na2vs0mg"},{"bike_id":"28fe91f4-1c9c-4c09-88d8-86be0825305d","system_id":"levelo_inurba_marseille","lat":43.261901,"lon":5.374487,"is_reserved":false,"is_disabled":false,"rental_uris":{"android":"levelo://app?vid=28fe91f4-1c9c-4c09-88d8-86be0825305d","ios":"levelo://app?vid=28fe91f4-1c9c-4c09-88d8-86be0825305d"},"vehicle_type_id":"4","last_reported":1731838128,"current_range_meters":10800,"station_id":"ce4bhgp2rcd13ifvqfc0","pricing_plan_id":"cebpf4jnsgd1na2vs0mg"},{"bike_id":"6b76da8b-8346-4b5f-a49b-cdde5bffd08b","system_id":"levelo_inurba_marseille","lat":43.27809,"lon":5.407142,"is_reserved":false,"is_disabled":false,"rental_uris":{"android":"levelo://app?vid=6b76da8b-8346-4b5f-a49b-cdde5bffd08b","ios":"levelo://app?vid=6b76da8b-8346-4b5f-a49b-cdde5bffd08b"},"vehicle_type_id":"4","last_reported":1731838128,"current_range_meters":38800,"station_id":"ce4bhnh2rcd13ifvqgtg","pricing_plan_id":"cebpf4jnsgd1na2vs0mg"},{"bike_id":"0cb14d59-5c1d-45c7-a2a7-d9114e06e131","system_id":"levelo_inurba_marseille","lat":43.25107,"lon":5.40323,"is_reserved":false,"is_disabled":false,"rental_uris":{"android":"levelo://app?vid=0cb14d59-5c1d-45c7-a2a7-d9114e06e131","ios":"levelo://app?vid=0cb14d59-5c1d-45c7-a2a7-d9114e06e131"},"vehicle_type_id":"4","last_reported":1731838128,"current_range_meters":22400,"station_id":"ce4bhlh2rcd13ifvqgig","pricing_plan_id":"cebpf4jnsgd1na2vs0mg"},{"bike_id":"275c8bb2-fd59-4f20-9489-571272d538f1","system_id":"levelo_inurba_marseille","lat":43.291959,"lon":5.393104,"is_reserved":false,"is_disabled":false,"rental_uris":{"android":"levelo://app?vid=275c8bb2-fd59-4f20-9489-571272d538f1","ios":"levelo://app?vid=275c8bb2-fd59-4f20-9489-571272d538f1"},"vehicle_type_id":"4","last_reported":1731838128,"current_range_meters":35200,"station_id":"ce4bh192rcd13ifvqdd0","pricing_plan_id":"cebpf4jnsgd1na2vs0mg"},{"bike_id":"ef14df2e-76a6-4463-9e17-7726d237e6a7","system_id":"levelo_inurba_marseille","lat":43.3361,"lon":5.41029,"is_reserved":false,"is_disabled":false,"rental_uris":{"android":"levelo://app?vid=ef14df2e-76a6-4463-9e17-7726d237e6a7","ios":"levelo://app?vid=ef14df2e-76a6-4463-9e17-7726d237e6a7"},"vehicle_type_id":"4","last_reported":1731838128,"current_range_meters":38800,"station_id":"ce4bhqh2rcd13ifvqhmg","pricing_plan_id":"cebpf4jnsgd1na2vs0mg"},{"bike_id":"81cf6351-3327-4488-b284-573f1582e694","system_id":"levelo_inurba_marseille","lat":43.2668,"lon":5.38264,"is_reserved":false,"is_disabled":false,"rental_uris":{"android":"levelo://app?vid=81cf6351-3327-4488-b284-573f1582e694","ios":"levelo://app?vid=81cf6351-3327-4488-b284-573f1582e694"},"vehicle_type_id":"4","last_reported":1731838128,"current_range_meters":39200,"station_id":"ce4bhg92rcd13ifvqf90","pricing_plan_id":"cebpf4jnsgd1na2vs0mg"},{"bike_id":"38745989-9e9a-4946-859d-5aa430e9ea79","system_id":"levelo_inurba_marseille","lat":43.29558,"lon":5.42283,"is_reserved":false,"is_disabled":false,"rental_uris":{"android":"levelo://app?vid=38745989-9e9a-4946-859d-5aa430e9ea79","ios":"levelo://app?vid=38745989-9e9a-4946-859d-5aa430e9ea79"},"vehicle_type_id":"4","last_reported":1731838128,"current_range_meters":37600,"station_id":"ce4bhph2rcd13ifvqhdg","pricing_plan_id":"cebpf4jnsgd1na2vs0mg"},{"bike_id":"4258d21d-8c3c-4917-ad97-e31e2d7f3728","system_id":"levelo_inurba_marseille","lat":43.24386,"lon":5.37057,"is_reserved":false,"is_disabled":false,"rental_uris":{"android":"levelo://app?vid=4258d21d-8c3c-4917-ad97-e31e2d7f3728","ios":"levelo://app?vid=4258d21d-8c3c-4917-ad97-e31e2d7f3728"},"vehicle_type_id":"4","last_reported":1731838128,"current_range_meters":11600,"station_id":"ce4bhhh2rcd13ifvqfk0","pricing_plan_id":"cebpf4jnsgd1na2vs0mg"},{"bike_id":"8f847559-8f97-447e-91d6-2a4a9029f31d","system_id":"levelo_inurba_marseille","lat":43.23957,"lon":5.36626,"is_reserved":false,"is_disabled":false,"rental_uris":{"android":"levelo://app?vid=8f847559-8f97-447e-91d6-2a4a9029f31d","ios":"levelo://app?vid=8f847559-8f97-447e-91d6-2a4a9029f31d"},"vehicle_type_id":"4","last_reported":1731838128,"current_range_meters":26800,"station_id":"ce4bhi12rcd13ifvqfp0","pricing_plan_id":"cebpf4jnsgd1na2vs0mg"},{"bike_id":"d663e219-aed2-4e56-8788-d140d0f35f54","system_id":"levelo_inurba_marseille","lat":43.31326,"lon":5.397,"is_reserved":false,"is_disabled":false,"rental_uris":{"android":"levelo://app?vid=d663e219-aed2-4e56-8788-d140d0f35f54","ios":"levelo://app?vid=d663e219-aed2-4e56-8788-d140d0f35f54"},"vehicle_type_id":"4","last_reported":1731838128,"current_range_meters":38800,"station_id":"ce4bgvp2rcd13ifvqcu0","pricing_plan_id":"cebpf4jnsgd1na2vs0mg"},{"bike_id":"16e3de90-cdab-40a0-975d-f264f65e738c","system_id":"levelo_inurba_marseille","lat":43.28155,"lon":5.42641,"is_reserved":false,"is_disabled":false,"rental_uris":{"android":"levelo://app?vid=16e3de90-cdab-40a0-975d-f264f65e738c","ios":"levelo://app?vid=16e3de90-cdab-40a0-975d-f264f65e738c"},"vehicle_type_id":"4","last_reported":1731838128,"current_range_meters":33600,"station_id":"ce4bhnh2rcd13ifvqgug","pricing_plan_id":"cebpf4jnsgd1na2vs0mg"},{"bike_id":"f3c2c3fe-2caa-4c62-a831-2cfeca2e0124","system_id":"levelo_inurba_marseille","lat":43.295837,"lon":5.375221,"is_reserved":false,"is_disabled":false,"rental_uris":{"android":"levelo://app?vid=f3c2c3fe-2caa-4c62-a831-2cfeca2e0124","ios":"levelo://app?vid=f3c2c3fe-2caa-4c62-a831-2cfeca2e0124"},"vehicle_type_id":"4","last_reported":1731838128,"current_range_meters":30000,"station_id":"ce4bhc92rcd13ifvqetg","pricing_plan_id":"cebpf4jnsgd1na2vs0mg"},{"bike_id":"6a00dd81-f496-4486-aae9-67ff1cc715bf","system_id":"levelo_inurba_marseille","lat":43.28417,"lon":5.34988,"is_reserved":false,"is_disabled":false,"rental_uris":{"android":"levelo://app?vid=6a00dd81-f496-4486-aae9-67ff1cc715bf","ios":"levelo://app?vid=6a00dd81-f496-4486-aae9-67ff1cc715bf"},"vehicle_type_id":"4","last_reported":1731838128,"current_range_meters":30400,"station_id":"ce4bhbh2rcd13ifvqepg","pricing_plan_id":"cebpf4jnsgd1na2vs0mg"},{"bike_id":"4785683e-4d30-4133-994e-74abe37a6557","system_id":"levelo_inurba_marseille","lat":43.24181,"lon":5.3973,"is_reserved":false,"is_disabled":false,"rental_uris":{"android":"levelo://app?vid=4785683e-4d30-4133-994e-74abe37a6557","ios":"levelo://app?vid=4785683e-4d30-4133-994e-74abe37a6557"},"vehicle_type_id":"4","last_reported":1731838128,"current_range_meters":6000,"station_id":"ce4bhn12rcd13ifvqgpg","pricing_plan_id":"cebpf4jnsgd1na2vs0mg"},{"bike_id":"bcf6da04-9e6e-40e0-801e-722cd7b1d7d6","system_id":"levelo_inurba_marseille","lat":43.25859,"lon":5.39892,"is_reserved":false,"is_disabled":false,"rental_uris":{"android":"levelo://app?vid=bcf6da04-9e6e-40e0-801e-722cd7b1d7d6","ios":"levelo://app?vid=bcf6da04-9e6e-40e0-801e-722cd7b1d7d6"},"vehicle_type_id":"4","last_reported":1731838128,"current_range_meters":34000,"station_id":"ce4bhl92rcd13ifvqghg","pricing_plan_id":"cebpf4jnsgd1na2vs0mg"},{"bike_id":"a855f92c-bbd4-4004-b8f1-8aaf2b455447","system_id":"levelo_inurba_marseille","lat":43.25117,"lon":5.40318,"is_reserved":false,"is_disabled":false,"rental_uris":{"android":"levelo://app?vid=a855f92c-bbd4-4004-b8f1-8aaf2b455447","ios":"levelo://app?vid=a855f92c-bbd4-4004-b8f1-8aaf2b455447"},"vehicle_type_id":"4","last_reported":1731838128,"current_range_meters":20000,"station_id":"ce4bhlh2rcd13ifvqgig","pricing_plan_id":"cebpf4jnsgd1na2vs0mg"},{"bike_id":"90925457-87b8-44b0-a947-705f55ac3518","system_id":"levelo_inurba_marseille","lat":43.28268,"lon":5.35061,"is_reserved":false,"is_disabled":false,"rental_uris":{"android":"levelo://app?vid=90925457-87b8-44b0-a947-705f55ac3518","ios":"levelo://app?vid=90925457-87b8-44b0-a947-705f55ac3518"},"vehicle_type_id":"4","last_reported":1731838128,"current_range_meters":8400,"station_id":"ce4bhbp2rcd13ifvqerg","pricing_plan_id":"cebpf4jnsgd1na2vs0mg"},{"bike_id":"9f92a7ac-738d-40f9-93b9-933c1f0ff525","system_id":"levelo_inurba_marseille","lat":43.32361,"lon":5.38885,"is_reserved":false,"is_disabled":false,"rental_uris":{"android":"levelo://app?vid=9f92a7ac-738d-40f9-93b9-933c1f0ff525","ios":"levelo://app?vid=9f92a7ac-738d-40f9-93b9-933c1f0ff525"},"vehicle_type_id":"4","last_reported":1731838128,"current_range_meters":20400,"station_id":"ce4bhqp2rcd13ifvqhog","pricing_plan_id":"cebpf4jnsgd1na2vs0mg"},{"bike_id":"67a228d1-a47f-48fe-8fa7-84b592be5578","system_id":"levelo_inurba_marseille","lat":43.26195,"lon":5.37447,"is_reserved":false,"is_disabled":false,"rental_uris":{"android":"levelo://app?vid=67a228d1-a47f-48fe-8fa7-84b592be5578","ios":"levelo://app?vid=67a228d1-a47f-48fe-8fa7-84b592be5578"},"vehicle_type_id":"4","last_reported":1731838128,"current_range_meters":9600,"station_id":"ce4bhgp2rcd13ifvqfc0","pricing_plan_id":"cebpf4jnsgd1na2vs0mg"},{"bike_id":"83cd5d40-2827-4054-87fe-7e355c369d74","system_id":"levelo_inurba_marseille","lat":43.29911,"lon":5.38133,"is_reserved":false,"is_disabled":false,"rental_uris":{"android":"levelo://app?vid=83cd5d40-2827-4054-87fe-7e355c369d74","ios":"levelo://app?vid=83cd5d40-2827-4054-87fe-7e355c369d74"},"vehicle_type_id":"4","last_reported":1731838128,"current_range_meters":24800,"station_id":"ce4bgj12rcd13ifvqbc0","pricing_plan_id":"cebpf4jnsgd1na2vs0mg"},{"bike_id":"4b65d93a-a2e2-4e4e-a517-b94c00e506f8","system_id":"levelo_inurba_marseille","lat":43.30801,"lon":5.43524,"is_reserved":false,"is_disabled":false,"rental_uris":{"android":"levelo://app?vid=4b65d93a-a2e2-4e4e-a517-b94c00e506f8","ios":"levelo://app?vid=4b65d93a-a2e2-4e4e-a517-b94c00e506f8"},"vehicle_type_id":"4","last_reported":1731838128,"current_range_meters":6800,"station_id":"ce4bhph2rcd13ifvqheg","pricing_plan_id":"cebpf4jnsgd1na2vs0mg"},{"bike_id":"b117ce81-ae91-4466-bc7d-09a9b54c6f00","system_id":"levelo_inurba_marseille","lat":43.23185,"lon":5.39984,"is_reserved":false,"is_disabled":false,"rental_uris":{"android":"levelo://app?vid=b117ce81-ae91-4466-bc7d-09a9b54c6f00","ios":"levelo://app?vid=b117ce81-ae91-4466-bc7d-09a9b54c6f00"},"vehicle_type_id":"4","last_reported":1731838128,"current_range_meters":12000,"station_id":"ce4bhn12rcd13ifvqgqg","pricing_plan_id":"cebpf4jnsgd1na2vs0mg"},{"bike_id":"6812be0c-bf33-4852-96bf-44a22c1ff27d","system_id":"levelo_inurba_marseille","lat":43.26678,"lon":5.38269,"is_reserved":false,"is_disabled":false,"rental_uris":{"android":"levelo://app?vid=6812be0c-bf33-4852-96bf-44a22c1ff27d","ios":"levelo://app?vid=6812be0c-bf33-4852-96bf-44a22c1ff27d"},"vehicle_type_id":"4","last_reported":1731838128,"current_range_meters":24400,"station_id":"ce4bhg92rcd13ifvqf90","pricing_plan_id":"cebpf4jnsgd1na2vs0mg"},{"bike_id":"d54f2dfa-2ad2-469a-8720-163ef98eb87d","system_id":"levelo_inurba_marseille","lat":43.25084,"lon":5.39508,"is_reserved":false,"is_disabled":false,"rental_uris":{"android":"levelo://app?vid=d54f2dfa-2ad2-469a-8720-163ef98eb87d","ios":"levelo://app?vid=d54f2dfa-2ad2-469a-8720-163ef98eb87d"},"vehicle_type_id":"4","last_reported":1731838128,"current_range_meters":18000,"station_id":"ce4bhm12rcd13ifvqgkg","pricing_plan_id":"cebpf4jnsgd1na2vs0mg"},{"bike_id":"9e9f28b6-ab80-48f1-b68f-9daad28c4a88","system_id":"levelo_inurba_marseille","lat":43.3054,"lon":5.36552,"is_reserved":false,"is_disabled":false,"rental_uris":{"android":"levelo://app?vid=9e9f28b6-ab80-48f1-b68f-9daad28c4a88","ios":"levelo://app?vid=9e9f28b6-ab80-48f1-b68f-9daad28c4a88"},"vehicle_type_id":"4","last_reported":1731838128,"current_range_meters":24800,"station_id":"ce4bgs12rcd13ifvqcag","pricing_plan_id":"cebpf4jnsgd1na2vs0mg"},{"bike_id":"8ececd69-9dd7-4454-8800-2ed6cafdfac6","system_id":"levelo_inurba_marseille","lat":43.28415,"lon":5.34994,"is_reserved":false,"is_disabled":false,"rental_uris":{"android":"levelo://app?vid=8ececd69-9dd7-4454-8800-2ed6cafdfac6","ios":"levelo://app?vid=8ececd69-9dd7-4454-8800-2ed6cafdfac6"},"vehicle_type_id":"4","last_reported":1731838128,"current_range_meters":33600,"station_id":"ce4bhbh2rcd13ifvqepg","pricing_plan_id":"cebpf4jnsgd1na2vs0mg"},{"bike_id":"40131c97-5534-4979-8808-2f9e4d317ef9","system_id":"levelo_inurba_marseille","lat":43.3234,"lon":5.40624,"is_reserved":false,"is_disabled":false,"rental_uris":{"android":"levelo://app?vid=40131c97-5534-4979-8808-2f9e4d317ef9","ios":"levelo://app?vid=40131c97-5534-4979-8808-2f9e4d317ef9"},"vehicle_type_id":"4","last_reported":1731838128,"current_range_meters":8800,"station_id":"ce4bhq92rcd13ifvqhjg","pricing_plan_id":"cebpf4jnsgd1na2vs0mg"},{"bike_id":"4f01fa73-c9c0-4fc0-986b-b2a94d270e4a","system_id":"levelo_inurba_marseille","lat":43.302519,"lon":5.400883,"is_reserved":false,"is_disabled":false,"rental_uris":{"android":"levelo://app?vid=4f01fa73-c9c0-4fc0-986b-b2a94d270e4a","ios":"levelo://app?vid=4f01fa73-c9c0-4fc0-986b-b2a94d270e4a"},"vehicle_type_id":"4","last_reported":1731838128,"current_range_meters":10000,"station_id":"ce4bgvh2rcd13ifvqcs0","pricing_plan_id":"cebpf4jnsgd1na2vs0mg"},{"bike_id":"6d757fef-4f26-43f9-ac2c-ffab39bf7dae","system_id":"levelo_inurba_marseille","lat":43.32249,"lon":5.36901,"is_reserved":false,"is_disabled":false,"rental_uris":{"android":"levelo://app?vid=6d757fef-4f26-43f9-ac2c-ffab39bf7dae","ios":"levelo://app?vid=6d757fef-4f26-43f9-ac2c-ffab39bf7dae"},"vehicle_type_id":"4","last_reported":1731838128,"current_range_meters":16000,"station_id":"","pricing_plan_id":"cebpf4jnsgd1na2vs0mg"},{"bike_id":"baa2c15b-a930-4c06-8a2a-efb858f1b5de","system_id":"levelo_inurba_marseille","lat":43.29546,"lon":5.42288,"is_reserved":false,"is_disabled":false,"rental_uris":{"android":"levelo://app?vid=baa2c15b-a930-4c06-8a2a-efb858f1b5de","ios":"levelo://app?vid=baa2c15b-a930-4c06-8a2a-efb858f1b5de"},"vehicle_type_id":"4","last_reported":1731838128,"current_range_meters":38800,"station_id":"ce4bhph2rcd13ifvqhdg","pricing_plan_id":"cebpf4jnsgd1na2vs0mg"},{"bike_id":"ff11d8e1-7db3-495c-af42-9cd750bfa704","system_id":"levelo_inurba_marseille","lat":43.311693,"lon":5.387194,"is_reserved":false,"is_disabled":false,"rental_uris":{"android":"levelo://app?vid=ff11d8e1-7db3-495c-af42-9cd750bfa704","ios":"levelo://app?vid=ff11d8e1-7db3-495c-af42-9cd750bfa704"},"vehicle_type_id":"4","last_reported":1731838128,"current_range_meters":34800,"station_id":"ce4bh9p2rcd13ifvqec0","pricing_plan_id":"cebpf4jnsgd1na2vs0mg"},{"bike_id":"6e7559ea-6a54-4439-a9a7-804f6d3c0372","system_id":"levelo_inurba_marseille","lat":43.29922,"lon":5.37486,"is_reserved":false,"is_disabled":false,"rental_uris":{"android":"levelo://app?vid=6e7559ea-6a54-4439-a9a7-804f6d3c0372","ios":"levelo://app?vid=6e7559ea-6a54-4439-a9a7-804f6d3c0372"},"vehicle_type_id":"4","last_reported":1731838128,"current_range_meters":36800,"station_id":"ce4bgjh2rcd13ifvqbg0","pricing_plan_id":"cebpf4jnsgd1na2vs0mg"},{"bike_id":"1708caf0-81f1-4803-9d07-64cd73e914c6","system_id":"levelo_inurba_marseille","lat":43.28717,"lon":5.37933,"is_reserved":false,"is_disabled":false,"rental_uris":{"android":"levelo://app?vid=1708caf0-81f1-4803-9d07-64cd73e914c6","ios":"levelo://app?vid=1708caf0-81f1-4803-9d07-64cd73e914c6"},"vehicle_type_id":"4","last_reported":1731838128,"current_range_meters":19200,"station_id":"ce4bh9p2rcd13ifvqec0","pricing_plan_id":"cebpf4jnsgd1na2vs0mg"},{"bike_id":"53437ef7-ee07-4a39-81f3-2dc3ce6bea74","system_id":"levelo_inurba_marseille","lat":43.26555,"lon":5.37284,"is_reserved":false,"is_disabled":false,"rental_uris":{"android":"levelo://app?vid=53437ef7-ee07-4a39-81f3-2dc3ce6bea74","ios":"levelo://app?vid=53437ef7-ee07-4a39-81f3-2dc3ce6bea74"},"vehicle_type_id":"4","last_reported":1731838128,"current_range_meters":38400,"station_id":"ce4bhg12rcd13ifvqf70","pricing_plan_id":"cebpf4jnsgd1na2vs0mg"},{"bike_id":"07091935-3899-4e62-9eed-5bfc275dc1db","system_id":"levelo_inurba_marseille","lat":43.32369,"lon":5.38878,"is_reserved":false,"is_disabled":false,"rental_uris":{"android":"levelo://app?vid=07091935-3899-4e62-9eed-5bfc275dc1db","ios":"levelo://app?vid=07091935-3899-4e62-9eed-5bfc275dc1db"},"vehicle_type_id":"4","last_reported":1731838128,"current_range_meters":20800,"station_id":"ce4bhqp2rcd13ifvqhog","pricing_plan_id":"cebpf4jnsgd1na2vs0mg"},{"bike_id":"3cb028b2-e9b4-4b5d-869e-e3723400af16","system_id":"levelo_inurba_marseille","lat":43.3303,"lon":5.39033,"is_reserved":false,"is_disabled":false,"rental_uris":{"android":"levelo://app?vid=3cb028b2-e9b4-4b5d-869e-e3723400af16","ios":"levelo://app?vid=3cb028b2-e9b4-4b5d-869e-e3723400af16"},"vehicle_type_id":"4","last_reported":1731838128,"current_range_meters":32800,"station_id":"ce4bhr92rcd13ifvqhrg","pricing_plan_id":"cebpf4jnsgd1na2vs0mg"},{"bike_id":"b6f60280-e752-4c05-8d32-67b1e7f66a53","system_id":"levelo_inurba_marseille","lat":43.27555,"lon":5.38422,"is_reserved":false,"is_disabled":false,"rental_uris":{"android":"levelo://app?vid=b6f60280-e752-4c05-8d32-67b1e7f66a53","ios":"levelo://app?vid=b6f60280-e752-4c05-8d32-67b1e7f66a53"},"vehicle_type_id":"4","last_reported":1731838128,"current_range_meters":16400,"station_id":"ce4bhh92rcd13ifvqfi0","pricing_plan_id":"cebpf4jnsgd1na2vs0mg"},{"bike_id":"637a3be3-17de-4bfd-beec-875b6061698d","system_id":"levelo_inurba_marseille","lat":43.2827,"lon":5.35062,"is_reserved":false,"is_disabled":false,"rental_uris":{"android":"levelo://app?vid=637a3be3-17de-4bfd-beec-875b6061698d","ios":"levelo://app?vid=637a3be3-17de-4bfd-beec-875b6061698d"},"vehicle_type_id":"4","last_reported":1731838128,"current_range_meters":29600,"station_id":"ce4bhbp2rcd13ifvqerg","pricing_plan_id":"cebpf4jnsgd1na2vs0mg"},{"bike_id":"655b5f68-c2ce-4c16-8154-f43cf940a3fe","system_id":"levelo_inurba_marseille","lat":43.28267,"lon":5.35073,"is_reserved":false,"is_disabled":false,"rental_uris":{"android":"levelo://app?vid=655b5f68-c2ce-4c16-8154-f43cf940a3fe","ios":"levelo://app?vid=655b5f68-c2ce-4c16-8154-f43cf940a3fe"},"vehicle_type_id":"4","last_reported":1731838128,"current_range_meters":24400,"station_id":"ce4bhbp2rcd13ifvqerg","pricing_plan_id":"cebpf4jnsgd1na2vs0mg"},{"bike_id":"2df83a66-96bd-4a57-8f73-b85ac1a99443","system_id":"levelo_inurba_marseille","lat":43.29528,"lon":5.39037,"is_reserved":false,"is_disabled":false,"rental_uris":{"android":"levelo://app?vid=2df83a66-96bd-4a57-8f73-b85ac1a99443","ios":"levelo://app?vid=2df83a66-96bd-4a57-8f73-b85ac1a99443"},"vehicle_type_id":"4","last_reported":1731838128,"current_range_meters":21600,"station_id":"ce4bh3p2rcd13ifvqdp0","pricing_plan_id":"cebpf4jnsgd1na2vs0mg"},{"bike_id":"a7f9b1ff-073c-4bb9-865b-47d795a80a25","system_id":"levelo_inurba_marseille","lat":43.27991,"lon":5.41657,"is_reserved":false,"is_disabled":false,"rental_uris":{"android":"levelo://app?vid=a7f9b1ff-073c-4bb9-865b-47d795a80a25","ios":"levelo://app?vid=a7f9b1ff-073c-4bb9-865b-47d795a80a25"},"vehicle_type_id":"4","last_reported":1731838128,"current_range_meters":38800,"station_id":"ce4bho12rcd13ifvqh1g","pricing_plan_id":"cebpf4jnsgd1na2vs0mg"},{"bike_id":"16814d94-632a-433a-8823-e428f8c7db44","system_id":"levelo_inurba_marseille","lat":43.33027,"lon":5.39035,"is_reserved":false,"is_disabled":false,"rental_uris":{"android":"levelo://app?vid=16814d94-632a-433a-8823-e428f8c7db44","ios":"levelo://app?vid=16814d94-632a-433a-8823-e428f8c7db44"},"vehicle_type_id":"4","last_reported":1731838128,"current_range_meters":18000,"station_id":"ce4bhr92rcd13ifvqhrg","pricing_plan_id":"cebpf4jnsgd1na2vs0mg"},{"bike_id":"a4e8e96c-867e-4521-9861-087b3f6c78bd","system_id":"levelo_inurba_marseille","lat":43.25003,"lon":5.38927,"is_reserved":false,"is_disabled":false,"rental_uris":{"android":"levelo://app?vid=a4e8e96c-867e-4521-9861-087b3f6c78bd","ios":"levelo://app?vid=a4e8e96c-867e-4521-9861-087b3f6c78bd"},"vehicle_type_id":"4","last_reported":1731838128,"current_range_meters":38400,"station_id":"ce4bhgp2rcd13ifvqfd0","pricing_plan_id":"cebpf4jnsgd1na2vs0mg"},{"bike_id":"65536ea3-9a59-46f2-8745-2212511bd00b","system_id":"levelo_inurba_marseille","lat":43.27373,"lon":5.36252,"is_reserved":false,"is_disabled":false,"rental_uris":{"android":"levelo://app?vid=65536ea3-9a59-46f2-8745-2212511bd00b","ios":"levelo://app?vid=65536ea3-9a59-46f2-8745-2212511bd00b"},"vehicle_type_id":"4","last_reported":1731838128,"current_range_meters":27200,"station_id":"ce4bhbh2rcd13ifvqeo0","pricing_plan_id":"cebpf4jnsgd1na2vs0mg"},{"bike_id":"9b255d94-ee94-41ce-968c-16898d9f52f3","system_id":"levelo_inurba_marseille","lat":43.23965,"lon":5.366318,"is_reserved":false,"is_disabled":false,"rental_uris":{"android":"levelo://app?vid=9b255d94-ee94-41ce-968c-16898d9f52f3","ios":"levelo://app?vid=9b255d94-ee94-41ce-968c-16898d9f52f3"},"vehicle_type_id":"4","last_reported":1731838128,"current_range_meters":38800,"station_id":"ce4bhi12rcd13ifvqfp0","pricing_plan_id":"cebpf4jnsgd1na2vs0mg"},{"bike_id":"dbac105c-b691-4a79-95cd-229048f50c8a","system_id":"levelo_inurba_marseille","lat":43.296303,"lon":5.40602,"is_reserved":false,"is_disabled":false,"rental_uris":{"android":"levelo://app?vid=dbac105c-b691-4a79-95cd-229048f50c8a","ios":"levelo://app?vid=dbac105c-b691-4a79-95cd-229048f50c8a"},"vehicle_type_id":"4","last_reported":1731838128,"current_range_meters":30800,"station_id":"ce4bh0h2rcd13ifvqd60","pricing_plan_id":"cebpf4jnsgd1na2vs0mg"},{"bike_id":"eb93b13e-d79d-4675-a72c-ca067641e771","system_id":"levelo_inurba_marseille","lat":43.25115,"lon":5.40316,"is_reserved":false,"is_disabled":false,"rental_uris":{"android":"levelo://app?vid=eb93b13e-d79d-4675-a72c-ca067641e771","ios":"levelo://app?vid=eb93b13e-d79d-4675-a72c-ca067641e771"},"vehicle_type_id":"4","last_reported":1731838128,"current_range_meters":28400,"station_id":"ce4bhlh2rcd13ifvqgig","pricing_plan_id":"cebpf4jnsgd1na2vs0mg"},{"bike_id":"e18ff774-8836-43bc-9a96-111b7f960167","system_id":"levelo_inurba_marseille","lat":43.3171,"lon":5.4371,"is_reserved":false,"is_disabled":false,"rental_uris":{"android":"levelo://app?vid=e18ff774-8836-43bc-9a96-111b7f960167","ios":"levelo://app?vid=e18ff774-8836-43bc-9a96-111b7f960167"},"vehicle_type_id":"4","last_reported":1731838128,"current_range_meters":38800,"station_id":"ce4bhp92rcd13ifvqhcg","pricing_plan_id":"cebpf4jnsgd1na2vs0mg"},{"bike_id":"ae335726-259a-4375-8971-887bdf305583","system_id":"levelo_inurba_marseille","lat":43.27498,"lon":5.42444,"is_reserved":false,"is_disabled":false,"rental_uris":{"android":"levelo://app?vid=ae335726-259a-4375-8971-887bdf305583","ios":"levelo://app?vid=ae335726-259a-4375-8971-887bdf305583"},"vehicle_type_id":"4","last_reported":1731838128,"current_range_meters":27600,"station_id":"ce4bhn92rcd13ifvqgrg","pricing_plan_id":"cebpf4jnsgd1na2vs0mg"},{"bike_id":"d4cf1962-c4fc-4987-82ad-e066e34a5012","system_id":"levelo_inurba_marseille","lat":43.3413,"lon":5.40907,"is_reserved":false,"is_disabled":false,"rental_uris":{"android":"levelo://app?vid=d4cf1962-c4fc-4987-82ad-e066e34a5012","ios":"levelo://app?vid=d4cf1962-c4fc-4987-82ad-e066e34a5012"},"vehicle_type_id":"4","last_reported":1731838128,"current_range_meters":38800,"station_id":"ce4bhqh2rcd13ifvqhlg","pricing_plan_id":"cebpf4jnsgd1na2vs0mg"},{"bike_id":"55de28cf-e37c-4724-b81f-8a648780c5b9","system_id":"levelo_inurba_marseille","lat":43.23193,"lon":5.3555,"is_reserved":false,"is_disabled":false,"rental_uris":{"android":"levelo://app?vid=55de28cf-e37c-4724-b81f-8a648780c5b9","ios":"levelo://app?vid=55de28cf-e37c-4724-b81f-8a648780c5b9"},"vehicle_type_id":"4","last_reported":1731838128,"current_range_meters":36400,"station_id":"ce4bhu92rcd13ifvqi70","pricing_plan_id":"cebpf4jnsgd1na2vs0mg"},{"bike_id":"2f6691ff-ffc8-41d1-b035-0ad1ebbf23ea","system_id":"levelo_inurba_marseille","lat":43.29202,"lon":5.35796,"is_reserved":false,"is_disabled":false,"rental_uris":{"android":"levelo://app?vid=2f6691ff-ffc8-41d1-b035-0ad1ebbf23ea","ios":"levelo://app?vid=2f6691ff-ffc8-41d1-b035-0ad1ebbf23ea"},"vehicle_type_id":"4","last_reported":1731838128,"current_range_meters":11600,"station_id":"ce4bhb12rcd13ifvqel0","pricing_plan_id":"cebpf4jnsgd1na2vs0mg"},{"bike_id":"e4058c54-631b-487c-86f1-404480460db4","system_id":"levelo_inurba_marseille","lat":43.30535,"lon":5.36543,"is_reserved":false,"is_disabled":false,"rental_uris":{"android":"levelo://app?vid=e4058c54-631b-487c-86f1-404480460db4","ios":"levelo://app?vid=e4058c54-631b-487c-86f1-404480460db4"},"vehicle_type_id":"4","last_reported":1731838128,"current_range_meters":28800,"station_id":"ce4bgs12rcd13ifvqcag","pricing_plan_id":"cebpf4jnsgd1na2vs0mg"},{"bike_id":"b79639c8-f683-439e-96da-8387beb8a08f","system_id":"levelo_inurba_marseille","lat":43.31083,"lon":5.42432,"is_reserved":false,"is_disabled":false,"rental_uris":{"android":"levelo://app?vid=b79639c8-f683-439e-96da-8387beb8a08f","ios":"levelo://app?vid=b79639c8-f683-439e-96da-8387beb8a08f"},"vehicle_type_id":"4","last_reported":1731838128,"current_range_meters":38800,"station_id":"ce4bhp92rcd13ifvqhag","pricing_plan_id":"cebpf4jnsgd1na2vs0mg"},{"bike_id":"93caaebf-68db-4e53-9065-fd8518dd3a57","system_id":"levelo_inurba_marseille","lat":43.31113,"lon":5.37779,"is_reserved":false,"is_disabled":false,"rental_uris":{"android":"levelo://app?vid=93caaebf-68db-4e53-9065-fd8518dd3a57","ios":"levelo://app?vid=93caaebf-68db-4e53-9065-fd8518dd3a57"},"vehicle_type_id":"4","last_reported":1731838128,"current_range_meters":24800,"station_id":"ce4bgt92rcd13ifvqcg0","pricing_plan_id":"cebpf4jnsgd1na2vs0mg"},{"bike_id":"d38dfc2d-cadc-472a-8185-849d08b5b43d","system_id":"levelo_inurba_marseille","lat":43.32658,"lon":5.40988,"is_reserved":false,"is_disabled":false,"rental_uris":{"android":"levelo://app?vid=d38dfc2d-cadc-472a-8185-849d08b5b43d","ios":"levelo://app?vid=d38dfc2d-cadc-472a-8185-849d08b5b43d"},"vehicle_type_id":"4","last_reported":1731838128,"current_range_meters":38800,"station_id":"ce4bhpp2rcd13ifvqhgg","pricing_plan_id":"cebpf4jnsgd1na2vs0mg"},{"bike_id":"6fa3fac0-8051-4805-a39b-93957ad10f92","system_id":"levelo_inurba_marseille","lat":43.269592,"lon":5.386266,"is_reserved":false,"is_disabled":false,"rental_uris":{"android":"levelo://app?vid=6fa3fac0-8051-4805-a39b-93957ad10f92","ios":"levelo://app?vid=6fa3fac0-8051-4805-a39b-93957ad10f92"},"vehicle_type_id":"4","last_reported":1731838128,"current_range_meters":38800,"station_id":"ce4bhh92rcd13ifvqfh0","pricing_plan_id":"cebpf4jnsgd1na2vs0mg"},{"bike_id":"eb9a84f5-6092-4dc4-a3c0-a07efb437c77","system_id":"levelo_inurba_marseille","lat":43.33764,"lon":5.37435,"is_reserved":false,"is_disabled":false,"rental_uris":{"android":"levelo://app?vid=eb9a84f5-6092-4dc4-a3c0-a07efb437c77","ios":"levelo://app?vid=eb9a84f5-6092-4dc4-a3c0-a07efb437c77"},"vehicle_type_id":"4","last_reported":1731838128,"current_range_meters":6800,"station_id":"","pricing_plan_id":"cebpf4jnsgd1na2vs0mg"},{"bike_id":"7c3e29f0-a0e1-40f0-8438-7b12cb91c5c5","system_id":"levelo_inurba_marseille","lat":43.27371,"lon":5.36257,"is_reserved":false,"is_disabled":false,"rental_uris":{"android":"levelo://app?vid=7c3e29f0-a0e1-40f0-8438-7b12cb91c5c5","ios":"levelo://app?vid=7c3e29f0-a0e1-40f0-8438-7b12cb91c5c5"},"vehicle_type_id":"4","last_reported":1731838128,"current_range_meters":23200,"station_id":"ce4bhbh2rcd13ifvqeo0","pricing_plan_id":"cebpf4jnsgd1na2vs0mg"},{"bike_id":"f51e66dc-57d9-4030-acd5-169360a569e5","system_id":"levelo_inurba_marseille","lat":43.29582,"lon":5.36745,"is_reserved":false,"is_disabled":false,"rental_uris":{"android":"levelo://app?vid=f51e66dc-57d9-4030-acd5-169360a569e5","ios":"levelo://app?vid=f51e66dc-57d9-4030-acd5-169360a569e5"},"vehicle_type_id":"4","last_reported":1731838128,"current_range_meters":33200,"station_id":"ce4bgph2rcd13ifvqc2g","pricing_plan_id":"cebpf4jnsgd1na2vs0mg"},{"bike_id":"96827665-f69f-433c-a2c6-a4be4724e012","system_id":"levelo_inurba_marseille","lat":43.27369,"lon":5.36254,"is_reserved":false,"is_disabled":false,"rental_uris":{"android":"levelo://app?vid=96827665-f69f-433c-a2c6-a4be4724e012","ios":"levelo://app?vid=96827665-f69f-433c-a2c6-a4be4724e012"},"vehicle_type_id":"4","last_reported":1731838128,"current_range_meters":12400,"station_id":"ce4bhbh2rcd13ifvqeo0","pricing_plan_id":"cebpf4jnsgd1na2vs0mg"},{"bike_id":"22ea48db-755d-43c3-a7d2-0beff01815d8","system_id":"levelo_inurba_marseille","lat":43.337674,"lon":5.37434,"is_reserved":false,"is_disabled":false,"rental_uris":{"android":"levelo://app?vid=22ea48db-755d-43c3-a7d2-0beff01815d8","ios":"levelo://app?vid=22ea48db-755d-43c3-a7d2-0beff01815d8"},"vehicle_type_id":"4","last_reported":1731838128,"current_range_meters":8800,"station_id":"","pricing_plan_id":"cebpf4jnsgd1na2vs0mg"},{"bike_id":"e572c8c8-2c29-468a-9de9-47bf2d2e9b00","system_id":"levelo_inurba_marseille","lat":43.27489,"lon":5.42458,"is_reserved":false,"is_disabled":false,"rental_uris":{"android":"levelo://app?vid=e572c8c8-2c29-468a-9de9-47bf2d2e9b00","ios":"levelo://app?vid=e572c8c8-2c29-468a-9de9-47bf2d2e9b00"},"vehicle_type_id":"4","last_reported":1731838128,"current_range_meters":28800,"station_id":"ce4bhn92rcd13ifvqgrg","pricing_plan_id":"cebpf4jnsgd1na2vs0mg"},{"bike_id":"eacd9ebb-691f-4a83-85ee-81beefc74253","system_id":"levelo_inurba_marseille","lat":43.33719,"lon":5.39186,"is_reserved":false,"is_disabled":false,"rental_uris":{"android":"levelo://app?vid=eacd9ebb-691f-4a83-85ee-81beefc74253","ios":"levelo://app?vid=eacd9ebb-691f-4a83-85ee-81beefc74253"},"vehicle_type_id":"4","last_reported":1731838128,"current_range_meters":38000,"station_id":"ce4bhr92rcd13ifvqhsg","pricing_plan_id":"cebpf4jnsgd1na2vs0mg"},{"bike_id":"a1862017-f597-4949-a306-4d7c53cc8b86","system_id":"levelo_inurba_marseille","lat":43.24166,"lon":5.36403,"is_reserved":false,"is_disabled":false,"rental_uris":{"android":"levelo://app?vid=a1862017-f597-4949-a306-4d7c53cc8b86","ios":"levelo://app?vid=a1862017-f597-4949-a306-4d7c53cc8b86"},"vehicle_type_id":"4","last_reported":1731838128,"current_range_meters":8000,"station_id":"cpo36qri1sfpv3e86is0","pricing_plan_id":"cebpf4jnsgd1na2vs0mg"},{"bike_id":"93d2376b-d24b-4c4a-bf7c-d9d7da5c25f0","system_id":"levelo_inurba_marseille","lat":43.2306,"lon":5.35489,"is_reserved":false,"is_disabled":false,"rental_uris":{"android":"levelo://app?vid=93d2376b-d24b-4c4a-bf7c-d9d7da5c25f0","ios":"levelo://app?vid=93d2376b-d24b-4c4a-bf7c-d9d7da5c25f0"},"vehicle_type_id":"4","last_reported":1731838128,"current_range_meters":14000,"station_id":"cpo3342slgdg3j2ifvpg","pricing_plan_id":"cebpf4jnsgd1na2vs0mg"},{"bike_id":"9bc771c0-32f2-45e4-aab6-5ca13b1421b2","system_id":"levelo_inurba_marseille","lat":43.26792,"lon":5.39414,"is_reserved":false,"is_disabled":false,"rental_uris":{"android":"levelo://app?vid=9bc771c0-32f2-45e4-aab6-5ca13b1421b2","ios":"levelo://app?vid=9bc771c0-32f2-45e4-aab6-5ca13b1421b2"},"vehicle_type_id":"4","last_reported":1731838128,"current_range_meters":36800,"station_id":"ce4bhh12rcd13ifvqfg0","pricing_plan_id":"cebpf4jnsgd1na2vs0mg"},{"bike_id":"eb0b6258-25b5-4174-825d-16bccd206154","system_id":"levelo_inurba_marseille","lat":43.33026,"lon":5.39039,"is_reserved":false,"is_disabled":false,"rental_uris":{"android":"levelo://app?vid=eb0b6258-25b5-4174-825d-16bccd206154","ios":"levelo://app?vid=eb0b6258-25b5-4174-825d-16bccd206154"},"vehicle_type_id":"4","last_reported":1731838128,"current_range_meters":8000,"station_id":"ce4bhr92rcd13ifvqhrg","pricing_plan_id":"cebpf4jnsgd1na2vs0mg"},{"bike_id":"ca655f3b-8380-4045-b3f8-8acaa0e83ede","system_id":"levelo_inurba_marseille","lat":43.33739,"lon":5.37423,"is_reserved":false,"is_disabled":false,"rental_uris":{"android":"levelo://app?vid=ca655f3b-8380-4045-b3f8-8acaa0e83ede","ios":"levelo://app?vid=ca655f3b-8380-4045-b3f8-8acaa0e83ede"},"vehicle_type_id":"4","last_reported":1731838128,"current_range_meters":33600,"station_id":"","pricing_plan_id":"cebpf4jnsgd1na2vs0mg"},{"bike_id":"a6b8c285-acc9-4039-9531-1aae39136a33","system_id":"levelo_inurba_marseille","lat":43.312042,"lon":5.367348,"is_reserved":false,"is_disabled":false,"rental_uris":{"android":"levelo://app?vid=a6b8c285-acc9-4039-9531-1aae39136a33","ios":"levelo://app?vid=a6b8c285-acc9-4039-9531-1aae39136a33"},"vehicle_type_id":"4","last_reported":1731838128,"current_range_meters":11200,"station_id":"","pricing_plan_id":"cebpf4jnsgd1na2vs0mg"},{"bike_id":"04e579be-d930-46e5-bb29-40fdc45896e1","system_id":"levelo_inurba_marseille","lat":43.326363,"lon":5.36221,"is_reserved":false,"is_disabled":false,"rental_uris":{"android":"levelo://app?vid=04e579be-d930-46e5-bb29-40fdc45896e1","ios":"levelo://app?vid=04e579be-d930-46e5-bb29-40fdc45896e1"},"vehicle_type_id":"4","last_reported":1731838128,"current_range_meters":6800,"station_id":"","pricing_plan_id":"cebpf4jnsgd1na2vs0mg"},{"bike_id":"37b940f2-53f1-40b3-bcdc-a092eab2c248","system_id":"levelo_inurba_marseille","lat":43.23958,"lon":5.36647,"is_reserved":false,"is_disabled":false,"rental_uris":{"android":"levelo://app?vid=37b940f2-53f1-40b3-bcdc-a092eab2c248","ios":"levelo://app?vid=37b940f2-53f1-40b3-bcdc-a092eab2c248"},"vehicle_type_id":"4","last_reported":1731838128,"current_range_meters":20800,"station_id":"ce4bhi12rcd13ifvqfp0","pricing_plan_id":"cebpf4jnsgd1na2vs0mg"},{"bike_id":"bbeb7822-bbdc-4b5f-9b91-3274d599676e","system_id":"levelo_inurba_marseille","lat":43.25118,"lon":5.40318,"is_reserved":false,"is_disabled":false,"rental_uris":{"android":"levelo://app?vid=bbeb7822-bbdc-4b5f-9b91-3274d599676e","ios":"levelo://app?vid=bbeb7822-bbdc-4b5f-9b91-3274d599676e"},"vehicle_type_id":"4","last_reported":1731838128,"current_range_meters":38800,"station_id":"ce4bhlh2rcd13ifvqgig","pricing_plan_id":"cebpf4jnsgd1na2vs0mg"},{"bike_id":"900707cc-26f2-4ea2-8fed-9690c6b8ed62","system_id":"levelo_inurba_marseille","lat":43.25583,"lon":5.38236,"is_reserved":false,"is_disabled":false,"rental_uris":{"android":"levelo://app?vid=900707cc-26f2-4ea2-8fed-9690c6b8ed62","ios":"levelo://app?vid=900707cc-26f2-4ea2-8fed-9690c6b8ed62"},"vehicle_type_id":"4","last_reported":1731838128,"current_range_meters":17600,"station_id":"ce4bhih2rcd13ifvqfs0","pricing_plan_id":"cebpf4jnsgd1na2vs0mg"},{"bike_id":"599eb141-73b9-4a5d-86c3-e3bf05ec8e4c","system_id":"levelo_inurba_marseille","lat":43.25862,"lon":5.39891,"is_reserved":false,"is_disabled":false,"rental_uris":{"android":"levelo://app?vid=599eb141-73b9-4a5d-86c3-e3bf05ec8e4c","ios":"levelo://app?vid=599eb141-73b9-4a5d-86c3-e3bf05ec8e4c"},"vehicle_type_id":"4","last_reported":1731838128,"current_range_meters":34000,"station_id":"ce4bhl92rcd13ifvqghg","pricing_plan_id":"cebpf4jnsgd1na2vs0mg"},{"bike_id":"7a4e811d-3d4b-451e-8b8c-0883284769c4","system_id":"levelo_inurba_marseille","lat":43.285919,"lon":5.384843,"is_reserved":false,"is_disabled":false,"rental_uris":{"android":"levelo://app?vid=7a4e811d-3d4b-451e-8b8c-0883284769c4","ios":"levelo://app?vid=7a4e811d-3d4b-451e-8b8c-0883284769c4"},"vehicle_type_id":"4","last_reported":1731838128,"current_range_meters":37600,"station_id":"ce4bh512rcd13ifvqe3g","pricing_plan_id":"cebpf4jnsgd1na2vs0mg"},{"bike_id":"56075252-74df-41bd-8879-5a4ae6ac7900","system_id":"levelo_inurba_marseille","lat":43.24385,"lon":5.37051,"is_reserved":false,"is_disabled":false,"rental_uris":{"android":"levelo://app?vid=56075252-74df-41bd-8879-5a4ae6ac7900","ios":"levelo://app?vid=56075252-74df-41bd-8879-5a4ae6ac7900"},"vehicle_type_id":"4","last_reported":1731838128,"current_range_meters":12400,"station_id":"ce4bhhh2rcd13ifvqfk0","pricing_plan_id":"cebpf4jnsgd1na2vs0mg"},{"bike_id":"070f5e20-646d-4f2e-a76c-3dd02e2d0887","system_id":"levelo_inurba_marseille","lat":43.25499,"lon":5.37647,"is_reserved":false,"is_disabled":false,"rental_uris":{"android":"levelo://app?vid=070f5e20-646d-4f2e-a76c-3dd02e2d0887","ios":"levelo://app?vid=070f5e20-646d-4f2e-a76c-3dd02e2d0887"},"vehicle_type_id":"4","last_reported":1731838128,"current_range_meters":25200,"station_id":"ce4bhh12rcd13ifvqff0","pricing_plan_id":"cebpf4jnsgd1na2vs0mg"},{"bike_id":"776c19bb-9271-4d1b-b450-71b28ade05f5","system_id":"levelo_inurba_marseille","lat":43.23192,"lon":5.35558,"is_reserved":false,"is_disabled":false,"rental_uris":{"android":"levelo://app?vid=776c19bb-9271-4d1b-b450-71b28ade05f5","ios":"levelo://app?vid=776c19bb-9271-4d1b-b450-71b28ade05f5"},"vehicle_type_id":"4","last_reported":1731838128,"current_range_meters":36000,"station_id":"ce4bhu92rcd13ifvqi70","pricing_plan_id":"cebpf4jnsgd1na2vs0mg"},{"bike_id":"3731846e-2218-45f1-ac96-76a41185ff9d","system_id":"levelo_inurba_marseille","lat":43.24167,"lon":5.36396,"is_reserved":false,"is_disabled":false,"rental_uris":{"android":"levelo://app?vid=3731846e-2218-45f1-ac96-76a41185ff9d","ios":"levelo://app?vid=3731846e-2218-45f1-ac96-76a41185ff9d"},"vehicle_type_id":"4","last_reported":1731838128,"current_range_meters":36800,"station_id":"cpo36qri1sfpv3e86is0","pricing_plan_id":"cebpf4jnsgd1na2vs0mg"},{"bike_id":"14471b0b-f241-446d-ba5b-8a94d9ac3b68","system_id":"levelo_inurba_marseille","lat":43.22932,"lon":5.35375,"is_reserved":false,"is_disabled":false,"rental_uris":{"android":"levelo://app?vid=14471b0b-f241-446d-ba5b-8a94d9ac3b68","ios":"levelo://app?vid=14471b0b-f241-446d-ba5b-8a94d9ac3b68"},"vehicle_type_id":"4","last_reported":1731838128,"current_range_meters":27600,"station_id":"cpo3532slgdg3j2ikp40","pricing_plan_id":"cebpf4jnsgd1na2vs0mg"},{"bike_id":"92ac4858-87d6-4ceb-8f6e-004635a816a8","system_id":"levelo_inurba_marseille","lat":43.27784,"lon":5.40725,"is_reserved":false,"is_disabled":false,"rental_uris":{"android":"levelo://app?vid=92ac4858-87d6-4ceb-8f6e-004635a816a8","ios":"levelo://app?vid=92ac4858-87d6-4ceb-8f6e-004635a816a8"},"vehicle_type_id":"4","last_reported":1731838128,"current_range_meters":27600,"station_id":"ce4bhnh2rcd13ifvqgtg","pricing_plan_id":"cebpf4jnsgd1na2vs0mg"},{"bike_id":"1396ab55-0e44-4ee6-a17e-86cf36813da1","system_id":"levelo_inurba_marseille","lat":43.24186,"lon":5.39729,"is_reserved":false,"is_disabled":false,"rental_uris":{"android":"levelo://app?vid=1396ab55-0e44-4ee6-a17e-86cf36813da1","ios":"levelo://app?vid=1396ab55-0e44-4ee6-a17e-86cf36813da1"},"vehicle_type_id":"4","last_reported":1731838128,"current_range_meters":28400,"station_id":"ce4bhn12rcd13ifvqgpg","pricing_plan_id":"cebpf4jnsgd1na2vs0mg"},{"bike_id":"0a014134-405b-4dc1-8f23-0f60986e5d81","system_id":"levelo_inurba_marseille","lat":43.2621,"lon":5.37445,"is_reserved":false,"is_disabled":false,"rental_uris":{"android":"levelo://app?vid=0a014134-405b-4dc1-8f23-0f60986e5d81","ios":"levelo://app?vid=0a014134-405b-4dc1-8f23-0f60986e5d81"},"vehicle_type_id":"4","last_reported":1731838128,"current_range_meters":27600,"station_id":"ce4bhgp2rcd13ifvqfc0","pricing_plan_id":"cebpf4jnsgd1na2vs0mg"},{"bike_id":"c672d820-b380-433d-8d45-8da953bb8e69","system_id":"levelo_inurba_marseille","lat":43.29196,"lon":5.35798,"is_reserved":false,"is_disabled":false,"rental_uris":{"android":"levelo://app?vid=c672d820-b380-433d-8d45-8da953bb8e69","ios":"levelo://app?vid=c672d820-b380-433d-8d45-8da953bb8e69"},"vehicle_type_id":"4","last_reported":1731838128,"current_range_meters":6800,"station_id":"ce4bhb12rcd13ifvqel0","pricing_plan_id":"cebpf4jnsgd1na2vs0mg"},{"bike_id":"0abaee7c-263f-48fb-b298-f7ba47431902","system_id":"levelo_inurba_marseille","lat":43.26558,"lon":5.39006,"is_reserved":false,"is_disabled":false,"rental_uris":{"android":"levelo://app?vid=0abaee7c-263f-48fb-b298-f7ba47431902","ios":"levelo://app?vid=0abaee7c-263f-48fb-b298-f7ba47431902"},"vehicle_type_id":"4","last_reported":1731838128,"current_range_meters":30400,"station_id":"ce4bhe12rcd13ifvqf30","pricing_plan_id":"cebpf4jnsgd1na2vs0mg"},{"bike_id":"d4498861-3c60-4389-beb1-4767aeaaf2a0","system_id":"levelo_inurba_marseille","lat":43.28621,"lon":5.35104,"is_reserved":false,"is_disabled":false,"rental_uris":{"android":"levelo://app?vid=d4498861-3c60-4389-beb1-4767aeaaf2a0","ios":"levelo://app?vid=d4498861-3c60-4389-beb1-4767aeaaf2a0"},"vehicle_type_id":"4","last_reported":1731838128,"current_range_meters":6400,"station_id":"ce4bhch2rcd13ifvqeug","pricing_plan_id":"cebpf4jnsgd1na2vs0mg"},{"bike_id":"066e5740-ba19-4443-af92-bce7a05497c2","system_id":"levelo_inurba_marseille","lat":43.24179,"lon":5.39728,"is_reserved":false,"is_disabled":false,"rental_uris":{"android":"levelo://app?vid=066e5740-ba19-4443-af92-bce7a05497c2","ios":"levelo://app?vid=066e5740-ba19-4443-af92-bce7a05497c2"},"vehicle_type_id":"4","last_reported":1731838128,"current_range_meters":16000,"station_id":"ce4bhn12rcd13ifvqgpg","pricing_plan_id":"cebpf4jnsgd1na2vs0mg"},{"bike_id":"538ff880-7009-4230-aa76-28de0d1a5a41","system_id":"levelo_inurba_marseille","lat":43.24392,"lon":5.3706,"is_reserved":false,"is_disabled":false,"rental_uris":{"android":"levelo://app?vid=538ff880-7009-4230-aa76-28de0d1a5a41","ios":"levelo://app?vid=538ff880-7009-4230-aa76-28de0d1a5a41"},"vehicle_type_id":"4","last_reported":1731838128,"current_range_meters":14400,"station_id":"ce4bhhh2rcd13ifvqfk0","pricing_plan_id":"cebpf4jnsgd1na2vs0mg"},{"bike_id":"3b3cdb38-8c6d-42d4-99b9-4fef005d7e67","system_id":"levelo_inurba_marseille","lat":43.28038,"lon":5.36933,"is_reserved":false,"is_disabled":false,"rental_uris":{"android":"levelo://app?vid=3b3cdb38-8c6d-42d4-99b9-4fef005d7e67","ios":"levelo://app?vid=3b3cdb38-8c6d-42d4-99b9-4fef005d7e67"},"vehicle_type_id":"4","last_reported":1731838128,"current_range_meters":38000,"station_id":"ce4bha12rcd13ifvqef0","pricing_plan_id":"cebpf4jnsgd1na2vs0mg"},{"bike_id":"a84f5389-258d-4508-9c0f-32ee5d326b43","system_id":"levelo_inurba_marseille","lat":43.33767,"lon":5.37475,"is_reserved":false,"is_disabled":false,"rental_uris":{"android":"levelo://app?vid=a84f5389-258d-4508-9c0f-32ee5d326b43","ios":"levelo://app?vid=a84f5389-258d-4508-9c0f-32ee5d326b43"},"vehicle_type_id":"4","last_reported":1731838128,"current_range_meters":30400,"station_id":"","pricing_plan_id":"cebpf4jnsgd1na2vs0mg"},{"bike_id":"e7d7f3cf-bc77-4769-8411-2c08d663e043","system_id":"levelo_inurba_marseille","lat":43.28613,"lon":5.35107,"is_reserved":false,"is_disabled":false,"rental_uris":{"android":"levelo://app?vid=e7d7f3cf-bc77-4769-8411-2c08d663e043","ios":"levelo://app?vid=e7d7f3cf-bc77-4769-8411-2c08d663e043"},"vehicle_type_id":"4","last_reported":1731838128,"current_range_meters":36800,"station_id":"ce4bhch2rcd13ifvqeug","pricing_plan_id":"cebpf4jnsgd1na2vs0mg"},{"bike_id":"85e04372-53d4-4775-939e-d05c86eae748","system_id":"levelo_inurba_marseille","lat":43.26207,"lon":5.37927,"is_reserved":false,"is_disabled":false,"rental_uris":{"android":"levelo://app?vid=85e04372-53d4-4775-939e-d05c86eae748","ios":"levelo://app?vid=85e04372-53d4-4775-939e-d05c86eae748"},"vehicle_type_id":"4","last_reported":1731838128,"current_range_meters":24400,"station_id":"ce4bhjp2rcd13ifvqg90","pricing_plan_id":"cebpf4jnsgd1na2vs0mg"},{"bike_id":"ed8cfcce-fcd3-4866-b7bb-3032e5fedbfd","system_id":"levelo_inurba_marseille","lat":43.3234,"lon":5.40628,"is_reserved":false,"is_disabled":false,"rental_uris":{"android":"levelo://app?vid=ed8cfcce-fcd3-4866-b7bb-3032e5fedbfd","ios":"levelo://app?vid=ed8cfcce-fcd3-4866-b7bb-3032e5fedbfd"},"vehicle_type_id":"4","last_reported":1731838128,"current_range_meters":27200,"station_id":"ce4bhq92rcd13ifvqhjg","pricing_plan_id":"cebpf4jnsgd1na2vs0mg"},{"bike_id":"37cbc846-394f-4616-a1f5-b07491a99957","system_id":"levelo_inurba_marseille","lat":43.281766,"lon":5.407196,"is_reserved":false,"is_disabled":false,"rental_uris":{"android":"levelo://app?vid=37cbc846-394f-4616-a1f5-b07491a99957","ios":"levelo://app?vid=37cbc846-394f-4616-a1f5-b07491a99957"},"vehicle_type_id":"4","last_reported":1731838128,"current_range_meters":30400,"station_id":"ce4bgup2rcd13ifvqco0","pricing_plan_id":"cebpf4jnsgd1na2vs0mg"},{"bike_id":"d6ea0d18-09c5-4a16-8d92-16497ecc1e85","system_id":"levelo_inurba_marseille","lat":43.2749,"lon":5.42447,"is_reserved":false,"is_disabled":false,"rental_uris":{"android":"levelo://app?vid=d6ea0d18-09c5-4a16-8d92-16497ecc1e85","ios":"levelo://app?vid=d6ea0d18-09c5-4a16-8d92-16497ecc1e85"},"vehicle_type_id":"4","last_reported":1731838128,"current_range_meters":9600,"station_id":"ce4bhn92rcd13ifvqgrg","pricing_plan_id":"cebpf4jnsgd1na2vs0mg"},{"bike_id":"5adf6b94-c814-4119-99c5-e02a322e3608","system_id":"levelo_inurba_marseille","lat":43.26683,"lon":5.38267,"is_reserved":false,"is_disabled":false,"rental_uris":{"android":"levelo://app?vid=5adf6b94-c814-4119-99c5-e02a322e3608","ios":"levelo://app?vid=5adf6b94-c814-4119-99c5-e02a322e3608"},"vehicle_type_id":"4","last_reported":1731838128,"current_range_meters":20400,"station_id":"ce4bhg92rcd13ifvqf90","pricing_plan_id":"cebpf4jnsgd1na2vs0mg"},{"bike_id":"ae7aa9df-9b30-4ca1-9d8c-301e689f0c14","system_id":"levelo_inurba_marseille","lat":43.33734,"lon":5.3917,"is_reserved":false,"is_disabled":false,"rental_uris":{"android":"levelo://app?vid=ae7aa9df-9b30-4ca1-9d8c-301e689f0c14","ios":"levelo://app?vid=ae7aa9df-9b30-4ca1-9d8c-301e689f0c14"},"vehicle_type_id":"4","last_reported":1731838128,"current_range_meters":36800,"station_id":"ce4bhr92rcd13ifvqhsg","pricing_plan_id":"cebpf4jnsgd1na2vs0mg"},{"bike_id":"165ba178-bbfa-435b-8901-d912bc87af1e","system_id":"levelo_inurba_marseille","lat":43.26205,"lon":5.37923,"is_reserved":false,"is_disabled":false,"rental_uris":{"android":"levelo://app?vid=165ba178-bbfa-435b-8901-d912bc87af1e","ios":"levelo://app?vid=165ba178-bbfa-435b-8901-d912bc87af1e"},"vehicle_type_id":"4","last_reported":1731838128,"current_range_meters":31200,"station_id":"ce4bhjp2rcd13ifvqg90","pricing_plan_id":"cebpf4jnsgd1na2vs0mg"},{"bike_id":"6d6992bf-ade3-4a22-a168-306dafdc4544","system_id":"levelo_inurba_marseille","lat":43.24169,"lon":5.36402,"is_reserved":false,"is_disabled":false,"rental_uris":{"android":"levelo://app?vid=6d6992bf-ade3-4a22-a168-306dafdc4544","ios":"levelo://app?vid=6d6992bf-ade3-4a22-a168-306dafdc4544"},"vehicle_type_id":"4","last_reported":1731838128,"current_range_meters":29600,"station_id":"cpo36qri1sfpv3e86is0","pricing_plan_id":"cebpf4jnsgd1na2vs0mg"},{"bike_id":"074c6971-4ae7-4906-8673-1607af29a7e1","system_id":"levelo_inurba_marseille","lat":43.25092,"lon":5.3951,"is_reserved":false,"is_disabled":false,"rental_uris":{"android":"levelo://app?vid=074c6971-4ae7-4906-8673-1607af29a7e1","ios":"levelo://app?vid=074c6971-4ae7-4906-8673-1607af29a7e1"},"vehicle_type_id":"4","last_reported":1731838128,"current_range_meters":28800,"station_id":"ce4bhm12rcd13ifvqgkg","pricing_plan_id":"cebpf4jnsgd1na2vs0mg"},{"bike_id":"70f50580-6160-438d-81fb-4dc715fa4696","system_id":"levelo_inurba_marseille","lat":43.246704,"lon":5.381548,"is_reserved":false,"is_disabled":false,"rental_uris":{"android":"levelo://app?vid=70f50580-6160-438d-81fb-4dc715fa4696","ios":"levelo://app?vid=70f50580-6160-438d-81fb-4dc715fa4696"},"vehicle_type_id":"4","last_reported":1731838128,"current_range_meters":22400,"station_id":"ce4bhlh2rcd13ifvqgig","pricing_plan_id":"cebpf4jnsgd1na2vs0mg"},{"bike_id":"f7612cb9-64e6-456e-b407-47173cb6e342","system_id":"levelo_inurba_marseille","lat":43.28611,"lon":5.37067,"is_reserved":false,"is_disabled":false,"rental_uris":{"android":"levelo://app?vid=f7612cb9-64e6-456e-b407-47173cb6e342","ios":"levelo://app?vid=f7612cb9-64e6-456e-b407-47173cb6e342"},"vehicle_type_id":"4","last_reported":1731838128,"current_range_meters":38800,"station_id":"ce4bht12rcd13ifvqi60","pricing_plan_id":"cebpf4jnsgd1na2vs0mg"},{"bike_id":"fca868f5-9fd0-45d8-90bd-4e6ce3d8eb68","system_id":"levelo_inurba_marseille","lat":43.23188,"lon":5.39978,"is_reserved":false,"is_disabled":false,"rental_uris":{"android":"levelo://app?vid=fca868f5-9fd0-45d8-90bd-4e6ce3d8eb68","ios":"levelo://app?vid=fca868f5-9fd0-45d8-90bd-4e6ce3d8eb68"},"vehicle_type_id":"4","last_reported":1731838128,"current_range_meters":17200,"station_id":"ce4bhn12rcd13ifvqgqg","pricing_plan_id":"cebpf4jnsgd1na2vs0mg"},{"bike_id":"bf675fc8-0130-44b9-812c-65f72b5109e1","system_id":"levelo_inurba_marseille","lat":43.24662,"lon":5.38161,"is_reserved":false,"is_disabled":false,"rental_uris":{"android":"levelo://app?vid=bf675fc8-0130-44b9-812c-65f72b5109e1","ios":"levelo://app?vid=bf675fc8-0130-44b9-812c-65f72b5109e1"},"vehicle_type_id":"4","last_reported":1731838128,"current_range_meters":22800,"station_id":"ce4bhih2rcd13ifvqfr0","pricing_plan_id":"cebpf4jnsgd1na2vs0mg"},{"bike_id":"5441b711-998f-40d9-ac61-97d208e1b990","system_id":"levelo_inurba_marseille","lat":43.26204,"lon":5.3793,"is_reserved":false,"is_disabled":false,"rental_uris":{"android":"levelo://app?vid=5441b711-998f-40d9-ac61-97d208e1b990","ios":"levelo://app?vid=5441b711-998f-40d9-ac61-97d208e1b990"},"vehicle_type_id":"4","last_reported":1731838128,"current_range_meters":7200,"station_id":"ce4bhjp2rcd13ifvqg90","pricing_plan_id":"cebpf4jnsgd1na2vs0mg"},{"bike_id":"262adcf6-713c-45e5-9167-ef03b215d3c0","system_id":"levelo_inurba_marseille","lat":43.27562,"lon":5.38423,"is_reserved":false,"is_disabled":false,"rental_uris":{"android":"levelo://app?vid=262adcf6-713c-45e5-9167-ef03b215d3c0","ios":"levelo://app?vid=262adcf6-713c-45e5-9167-ef03b215d3c0"},"vehicle_type_id":"4","last_reported":1731838128,"current_range_meters":38800,"station_id":"ce4bhh92rcd13ifvqfi0","pricing_plan_id":"cebpf4jnsgd1na2vs0mg"},{"bike_id":"4ee4605c-22f2-4532-b44d-f5fb03fd5142","system_id":"levelo_inurba_marseille","lat":43.30799,"lon":5.43516,"is_reserved":false,"is_disabled":false,"rental_uris":{"android":"levelo://app?vid=4ee4605c-22f2-4532-b44d-f5fb03fd5142","ios":"levelo://app?vid=4ee4605c-22f2-4532-b44d-f5fb03fd5142"},"vehicle_type_id":"4","last_reported":1731838128,"current_range_meters":8800,"station_id":"ce4bhph2rcd13ifvqheg","pricing_plan_id":"cebpf4jnsgd1na2vs0mg"},{"bike_id":"023b2787-0926-44b0-bab6-4deae4339abe","system_id":"levelo_inurba_marseille","lat":43.23149,"lon":5.43716,"is_reserved":false,"is_disabled":false,"rental_uris":{"android":"levelo://app?vid=023b2787-0926-44b0-bab6-4deae4339abe","ios":"levelo://app?vid=023b2787-0926-44b0-bab6-4deae4339abe"},"vehicle_type_id":"4","last_reported":1731838128,"current_range_meters":37600,"station_id":"ce4bhmp2rcd13ifvqgog","pricing_plan_id":"cebpf4jnsgd1na2vs0mg"},{"bike_id":"87c6772f-5c88-4d20-99e7-0fab985857cc","system_id":"levelo_inurba_marseille","lat":43.28159,"lon":5.4264,"is_reserved":false,"is_disabled":false,"rental_uris":{"android":"levelo://app?vid=87c6772f-5c88-4d20-99e7-0fab985857cc","ios":"levelo://app?vid=87c6772f-5c88-4d20-99e7-0fab985857cc"},"vehicle_type_id":"4","last_reported":1731838128,"current_range_meters":25600,"station_id":"ce4bhnh2rcd13ifvqgug","pricing_plan_id":"cebpf4jnsgd1na2vs0mg"},{"bike_id":"48a37d92-8ec2-4788-bb19-38e3f375e57c","system_id":"levelo_inurba_marseille","lat":43.26203,"lon":5.37927,"is_reserved":false,"is_disabled":false,"rental_uris":{"android":"levelo://app?vid=48a37d92-8ec2-4788-bb19-38e3f375e57c","ios":"levelo://app?vid=48a37d92-8ec2-4788-bb19-38e3f375e57c"},"vehicle_type_id":"4","last_reported":1731838128,"current_range_meters":20000,"station_id":"ce4bhjp2rcd13ifvqg90","pricing_plan_id":"cebpf4jnsgd1na2vs0mg"},{"bike_id":"9521021b-f515-436a-bbdd-ead309b8bece","system_id":"levelo_inurba_marseille","lat":43.304571,"lon":5.389946,"is_reserved":false,"is_disabled":false,"rental_uris":{"android":"levelo://app?vid=9521021b-f515-436a-bbdd-ead309b8bece","ios":"levelo://app?vid=9521021b-f515-436a-bbdd-ead309b8bece"},"vehicle_type_id":"4","last_reported":1731838128,"current_range_meters":28800,"station_id":"ce4bh312rcd13ifvqdj0","pricing_plan_id":"cebpf4jnsgd1na2vs0mg"},{"bike_id":"75a2c732-436f-4c88-bb72-85c5ab536c81","system_id":"levelo_inurba_marseille","lat":43.32051,"lon":5.41556,"is_reserved":false,"is_disabled":false,"rental_uris":{"android":"levelo://app?vid=75a2c732-436f-4c88-bb72-85c5ab536c81","ios":"levelo://app?vid=75a2c732-436f-4c88-bb72-85c5ab536c81"},"vehicle_type_id":"4","last_reported":1731838128,"current_range_meters":38800,"station_id":"ce4bhq92rcd13ifvqhkg","pricing_plan_id":"cebpf4jnsgd1na2vs0mg"},{"bike_id":"1e730ee4-2d8d-4021-979d-8e8d2bbc3bcb","system_id":"levelo_inurba_marseille","lat":43.2707,"lon":5.42279,"is_reserved":false,"is_disabled":false,"rental_uris":{"android":"levelo://app?vid=1e730ee4-2d8d-4021-979d-8e8d2bbc3bcb","ios":"levelo://app?vid=1e730ee4-2d8d-4021-979d-8e8d2bbc3bcb"},"vehicle_type_id":"4","last_reported":1731838128,"current_range_meters":16000,"station_id":"ce4bhk92rcd13ifvqgb0","pricing_plan_id":"cebpf4jnsgd1na2vs0mg"},{"bike_id":"022f478e-da93-4eda-9d1b-2d0e36905c07","system_id":"levelo_inurba_marseille","lat":43.33766,"lon":5.37439,"is_reserved":false,"is_disabled":false,"rental_uris":{"android":"levelo://app?vid=022f478e-da93-4eda-9d1b-2d0e36905c07","ios":"levelo://app?vid=022f478e-da93-4eda-9d1b-2d0e36905c07"},"vehicle_type_id":"4","last_reported":1731838128,"current_range_meters":11200,"station_id":"","pricing_plan_id":"cebpf4jnsgd1na2vs0mg"},{"bike_id":"6a257add-b37a-478c-9e25-45498208a0c5","system_id":"levelo_inurba_marseille","lat":43.25105,"lon":5.40326,"is_reserved":false,"is_disabled":false,"rental_uris":{"android":"levelo://app?vid=6a257add-b37a-478c-9e25-45498208a0c5","ios":"levelo://app?vid=6a257add-b37a-478c-9e25-45498208a0c5"},"vehicle_type_id":"4","last_reported":1731838128,"current_range_meters":2000,"station_id":"ce4bhlh2rcd13ifvqgig","pricing_plan_id":"cebpf4jnsgd1na2vs0mg"},{"bike_id":"3c7108fb-85fe-43b6-95ce-e6a5e6d34b1a","system_id":"levelo_inurba_marseille","lat":43.33741,"lon":5.39201,"is_reserved":false,"is_disabled":false,"rental_uris":{"android":"levelo://app?vid=3c7108fb-85fe-43b6-95ce-e6a5e6d34b1a","ios":"levelo://app?vid=3c7108fb-85fe-43b6-95ce-e6a5e6d34b1a"},"vehicle_type_id":"4","last_reported":1731838128,"current_range_meters":28400,"station_id":"ce4bhr92rcd13ifvqhsg","pricing_plan_id":"cebpf4jnsgd1na2vs0mg"},{"bike_id":"d590481c-00cb-4025-8f07-4fd736d07046","system_id":"levelo_inurba_marseille","lat":43.301086,"lon":5.364071,"is_reserved":false,"is_disabled":false,"rental_uris":{"android":"levelo://app?vid=d590481c-00cb-4025-8f07-4fd736d07046","ios":"levelo://app?vid=d590481c-00cb-4025-8f07-4fd736d07046"},"vehicle_type_id":"4","last_reported":1731838128,"current_range_meters":34800,"station_id":"","pricing_plan_id":"cebpf4jnsgd1na2vs0mg"},{"bike_id":"e61c661d-6298-42c0-9535-e657b472df71","system_id":"levelo_inurba_marseille","lat":43.26681,"lon":5.3827,"is_reserved":false,"is_disabled":false,"rental_uris":{"android":"levelo://app?vid=e61c661d-6298-42c0-9535-e657b472df71","ios":"levelo://app?vid=e61c661d-6298-42c0-9535-e657b472df71"},"vehicle_type_id":"4","last_reported":1731838128,"current_range_meters":15200,"station_id":"ce4bhg92rcd13ifvqf90","pricing_plan_id":"cebpf4jnsgd1na2vs0mg"},{"bike_id":"5b44eeef-e9d7-4f84-88d4-57826525780f","system_id":"levelo_inurba_marseille","lat":43.25114,"lon":5.40322,"is_reserved":false,"is_disabled":false,"rental_uris":{"android":"levelo://app?vid=5b44eeef-e9d7-4f84-88d4-57826525780f","ios":"levelo://app?vid=5b44eeef-e9d7-4f84-88d4-57826525780f"},"vehicle_type_id":"4","last_reported":1731838128,"current_range_meters":32800,"station_id":"ce4bhlh2rcd13ifvqgig","pricing_plan_id":"cebpf4jnsgd1na2vs0mg"},{"bike_id":"ad028661-e8af-4980-956f-f4513c68948b","system_id":"levelo_inurba_marseille","lat":43.26203,"lon":5.37923,"is_reserved":false,"is_disabled":false,"rental_uris":{"android":"levelo://app?vid=ad028661-e8af-4980-956f-f4513c68948b","ios":"levelo://app?vid=ad028661-e8af-4980-956f-f4513c68948b"},"vehicle_type_id":"4","last_reported":1731838128,"current_range_meters":32400,"station_id":"ce4bhjp2rcd13ifvqg90","pricing_plan_id":"cebpf4jnsgd1na2vs0mg"},{"bike_id":"251d8918-1250-4853-9293-89ee39d3be92","system_id":"levelo_inurba_marseille","lat":43.33021,"lon":5.39036,"is_reserved":false,"is_disabled":false,"rental_uris":{"android":"levelo://app?vid=251d8918-1250-4853-9293-89ee39d3be92","ios":"levelo://app?vid=251d8918-1250-4853-9293-89ee39d3be92"},"vehicle_type_id":"4","last_reported":1731838128,"current_range_meters":32000,"station_id":"ce4bhr92rcd13ifvqhrg","pricing_plan_id":"cebpf4jnsgd1na2vs0mg"},{"bike_id":"4cadb9b7-600d-4165-a622-b9ea872a81d0","system_id":"levelo_inurba_marseille","lat":43.2995,"lon":5.4132,"is_reserved":false,"is_disabled":false,"rental_uris":{"android":"levelo://app?vid=4cadb9b7-600d-4165-a622-b9ea872a81d0","ios":"levelo://app?vid=4cadb9b7-600d-4165-a622-b9ea872a81d0"},"vehicle_type_id":"4","last_reported":1731838128,"current_range_meters":14400,"station_id":"ce4bhp12rcd13ifvqh9g","pricing_plan_id":"cebpf4jnsgd1na2vs0mg"},{"bike_id":"809471e3-ec39-4f2b-b271-49c8263623d6","system_id":"levelo_inurba_marseille","lat":43.25007,"lon":5.38922,"is_reserved":false,"is_disabled":false,"rental_uris":{"android":"levelo://app?vid=809471e3-ec39-4f2b-b271-49c8263623d6","ios":"levelo://app?vid=809471e3-ec39-4f2b-b271-49c8263623d6"},"vehicle_type_id":"4","last_reported":1731838128,"current_range_meters":38800,"station_id":"ce4bhgp2rcd13ifvqfd0","pricing_plan_id":"cebpf4jnsgd1na2vs0mg"},{"bike_id":"745398d6-8d30-4609-bc6d-d834d1b44ccd","system_id":"levelo_inurba_marseille","lat":43.31257,"lon":5.40176,"is_reserved":false,"is_disabled":false,"rental_uris":{"android":"levelo://app?vid=745398d6-8d30-4609-bc6d-d834d1b44ccd","ios":"levelo://app?vid=745398d6-8d30-4609-bc6d-d834d1b44ccd"},"vehicle_type_id":"4","last_reported":1731838128,"current_range_meters":38800,"station_id":"ce4bh092rcd13ifvqd30","pricing_plan_id":"cebpf4jnsgd1na2vs0mg"},{"bike_id":"fd5d72f1-4c95-467f-bfc9-ffb633b19d7e","system_id":"levelo_inurba_marseille","lat":43.30546,"lon":5.36538,"is_reserved":false,"is_disabled":false,"rental_uris":{"android":"levelo://app?vid=fd5d72f1-4c95-467f-bfc9-ffb633b19d7e","ios":"levelo://app?vid=fd5d72f1-4c95-467f-bfc9-ffb633b19d7e"},"vehicle_type_id":"4","last_reported":1731838128,"current_range_meters":37600,"station_id":"ce4bgs12rcd13ifvqcag","pricing_plan_id":"cebpf4jnsgd1na2vs0mg"},{"bike_id":"bb83ca96-b8e6-4d38-8da0-61243a06413f","system_id":"levelo_inurba_marseille","lat":43.23193,"lon":5.35554,"is_reserved":false,"is_disabled":false,"rental_uris":{"android":"levelo://app?vid=bb83ca96-b8e6-4d38-8da0-61243a06413f","ios":"levelo://app?vid=bb83ca96-b8e6-4d38-8da0-61243a06413f"},"vehicle_type_id":"4","last_reported":1731838128,"current_range_meters":30000,"station_id":"ce4bhu92rcd13ifvqi70","pricing_plan_id":"cebpf4jnsgd1na2vs0mg"},{"bike_id":"2f4b7bbd-64ec-4719-82e4-f9122f9447af","system_id":"levelo_inurba_marseille","lat":43.25821,"lon":5.39438,"is_reserved":false,"is_disabled":false,"rental_uris":{"android":"levelo://app?vid=2f4b7bbd-64ec-4719-82e4-f9122f9447af","ios":"levelo://app?vid=2f4b7bbd-64ec-4719-82e4-f9122f9447af"},"vehicle_type_id":"4","last_reported":1731838128,"current_range_meters":28400,"station_id":"ce4bhip2rcd13ifvqft0","pricing_plan_id":"cebpf4jnsgd1na2vs0mg"},{"bike_id":"71d52017-341a-4f4d-a7ae-ab5a1e66cbd1","system_id":"levelo_inurba_marseille","lat":43.24169,"lon":5.36403,"is_reserved":false,"is_disabled":false,"rental_uris":{"android":"levelo://app?vid=71d52017-341a-4f4d-a7ae-ab5a1e66cbd1","ios":"levelo://app?vid=71d52017-341a-4f4d-a7ae-ab5a1e66cbd1"},"vehicle_type_id":"4","last_reported":1731838128,"current_range_meters":28800,"station_id":"cpo36qri1sfpv3e86is0","pricing_plan_id":"cebpf4jnsgd1na2vs0mg"},{"bike_id":"d74ee0d3-cc75-4016-984c-91f72c584f3f","system_id":"levelo_inurba_marseille","lat":43.26204,"lon":5.37928,"is_reserved":false,"is_disabled":false,"rental_uris":{"android":"levelo://app?vid=d74ee0d3-cc75-4016-984c-91f72c584f3f","ios":"levelo://app?vid=d74ee0d3-cc75-4016-984c-91f72c584f3f"},"vehicle_type_id":"4","last_reported":1731838128,"current_range_meters":30400,"station_id":"ce4bhjp2rcd13ifvqg90","pricing_plan_id":"cebpf4jnsgd1na2vs0mg"},{"bike_id":"92ae6e09-1f39-49c2-9455-cdbd4d0c4b63","system_id":"levelo_inurba_marseille","lat":43.29215,"lon":5.40022,"is_reserved":false,"is_disabled":false,"rental_uris":{"android":"levelo://app?vid=92ae6e09-1f39-49c2-9455-cdbd4d0c4b63","ios":"levelo://app?vid=92ae6e09-1f39-49c2-9455-cdbd4d0c4b63"},"vehicle_type_id":"4","last_reported":1731838128,"current_range_meters":14000,"station_id":"","pricing_plan_id":"cebpf4jnsgd1na2vs0mg"},{"bike_id":"a72542a6-e7db-4ecb-b27a-7f3bf7a04ee9","system_id":"levelo_inurba_marseille","lat":43.26207,"lon":5.37926,"is_reserved":false,"is_disabled":false,"rental_uris":{"android":"levelo://app?vid=a72542a6-e7db-4ecb-b27a-7f3bf7a04ee9","ios":"levelo://app?vid=a72542a6-e7db-4ecb-b27a-7f3bf7a04ee9"},"vehicle_type_id":"4","last_reported":1731838128,"current_range_meters":28800,"station_id":"ce4bhjp2rcd13ifvqg90","pricing_plan_id":"cebpf4jnsgd1na2vs0mg"},{"bike_id":"449ba085-7fdc-42d7-9338-c61538916ec7","system_id":"levelo_inurba_marseille","lat":43.30053,"lon":5.37051,"is_reserved":false,"is_disabled":false,"rental_uris":{"android":"levelo://app?vid=449ba085-7fdc-42d7-9338-c61538916ec7","ios":"levelo://app?vid=449ba085-7fdc-42d7-9338-c61538916ec7"},"vehicle_type_id":"4","last_reported":1731838128,"current_range_meters":38400,"station_id":"","pricing_plan_id":"cebpf4jnsgd1na2vs0mg"},{"bike_id":"89a7b83e-394e-4395-9831-e5a049c5e9f2","system_id":"levelo_inurba_marseille","lat":43.29902,"lon":5.38134,"is_reserved":false,"is_disabled":false,"rental_uris":{"android":"levelo://app?vid=89a7b83e-394e-4395-9831-e5a049c5e9f2","ios":"levelo://app?vid=89a7b83e-394e-4395-9831-e5a049c5e9f2"},"vehicle_type_id":"4","last_reported":1731838128,"current_range_meters":33600,"station_id":"ce4bgj12rcd13ifvqbc0","pricing_plan_id":"cebpf4jnsgd1na2vs0mg"},{"bike_id":"442c0903-f40e-4bdf-be0d-6587cc076f59","system_id":"levelo_inurba_marseille","lat":43.23187,"lon":5.35556,"is_reserved":false,"is_disabled":false,"rental_uris":{"android":"levelo://app?vid=442c0903-f40e-4bdf-be0d-6587cc076f59","ios":"levelo://app?vid=442c0903-f40e-4bdf-be0d-6587cc076f59"},"vehicle_type_id":"4","last_reported":1731838128,"current_range_meters":36400,"station_id":"ce4bhu92rcd13ifvqi70","pricing_plan_id":"cebpf4jnsgd1na2vs0mg"},{"bike_id":"d5a6f94c-31ca-4b11-bcd3-392666e4c4a5","system_id":"levelo_inurba_marseille","lat":43.28204,"lon":5.36283,"is_reserved":false,"is_disabled":false,"rental_uris":{"android":"levelo://app?vid=d5a6f94c-31ca-4b11-bcd3-392666e4c4a5","ios":"levelo://app?vid=d5a6f94c-31ca-4b11-bcd3-392666e4c4a5"},"vehicle_type_id":"4","last_reported":1731838128,"current_range_meters":32000,"station_id":"","pricing_plan_id":"cebpf4jnsgd1na2vs0mg"},{"bike_id":"98ce335f-7e3b-4137-a9bc-e3bf60ee7a71","system_id":"levelo_inurba_marseille","lat":43.29792,"lon":5.38117,"is_reserved":false,"is_disabled":false,"rental_uris":{"android":"levelo://app?vid=98ce335f-7e3b-4137-a9bc-e3bf60ee7a71","ios":"levelo://app?vid=98ce335f-7e3b-4137-a9bc-e3bf60ee7a71"},"vehicle_type_id":"4","last_reported":1731838128,"current_range_meters":37600,"station_id":"ce4bgip2rcd13ifvqbb0","pricing_plan_id":"cebpf4jnsgd1na2vs0mg"},{"bike_id":"cac5e537-1b5b-4e1e-b49c-4cff112ff32e","system_id":"levelo_inurba_marseille","lat":43.24389,"lon":5.37055,"is_reserved":false,"is_disabled":false,"rental_uris":{"android":"levelo://app?vid=cac5e537-1b5b-4e1e-b49c-4cff112ff32e","ios":"levelo://app?vid=cac5e537-1b5b-4e1e-b49c-4cff112ff32e"},"vehicle_type_id":"4","last_reported":1731838128,"current_range_meters":22000,"station_id":"ce4bhhh2rcd13ifvqfk0","pricing_plan_id":"cebpf4jnsgd1na2vs0mg"},{"bike_id":"1c4774a7-a2d4-4020-9a1a-c36e307e75d8","system_id":"levelo_inurba_marseille","lat":43.32366,"lon":5.38881,"is_reserved":false,"is_disabled":false,"rental_uris":{"android":"levelo://app?vid=1c4774a7-a2d4-4020-9a1a-c36e307e75d8","ios":"levelo://app?vid=1c4774a7-a2d4-4020-9a1a-c36e307e75d8"},"vehicle_type_id":"4","last_reported":1731838128,"current_range_meters":22800,"station_id":"ce4bhqp2rcd13ifvqhog","pricing_plan_id":"cebpf4jnsgd1na2vs0mg"},{"bike_id":"dd33b562-d990-4efd-8968-3c1161d4e1c3","system_id":"levelo_inurba_marseille","lat":43.26212,"lon":5.37441,"is_reserved":false,"is_disabled":false,"rental_uris":{"android":"levelo://app?vid=dd33b562-d990-4efd-8968-3c1161d4e1c3","ios":"levelo://app?vid=dd33b562-d990-4efd-8968-3c1161d4e1c3"},"vehicle_type_id":"4","last_reported":1731838128,"current_range_meters":38400,"station_id":"ce4bhgp2rcd13ifvqfc0","pricing_plan_id":"cebpf4jnsgd1na2vs0mg"},