{"last_updated":1749672644,"ttl":60,"version":"2.2","data":{"bikes":[{"bike_id":"b31f0139-170f-4194-984f-4386218a1e9d","system_id":"levelo_inurba_marseille","lat":43.33771,"lon":5.37424,"is_reserved":false,"is_disabled":true,"rental_uris":{"android":"levelo://app?vid=b31f0139-170f-4194-984f-4386218a1e9d","ios":"levelo://app?vid=b31f0139-170f-4194-984f-4386218a1e9d"},"vehicle_type_id":"4","last_reported":1749672644,"current_range_meters":0,"station_id":"","pricing_plan_id":"cebpf4jnsgd1na2vs0mg"},{"bike_id":"1acfb620-cad7-48c0-8901-d7a5b74a5b65","system_id":"levelo_inurba_marseille","lat":43.33751,"lon":5.37456,"is_reserved":false,"is_disabled":false,"rental_uris":{"android":"levelo://app?vid=1acfb620-cad7-48c0-8901-d7a5b74a5b65","ios":"levelo://app?vid=1acfb620-cad7-48c0-8901-d7a5b74a5b65"},"vehicle_type_id":"4","last_reported":1749672644,"current_range_meters":11600,"station_id":"","pricing_plan_id":"cebpf4jnsgd1na2vs0mg"},{"bike_id":"2add4495-ac90-463d-867d-acf170a6a28d","system_id":"levelo_inurba_marseille","lat":43.337499,"lon":5.374469,"is_reserved":false,"is_disabled":true,"rental_uris":{"android":"levelo://app?vid=2add4495-ac90-463d-867d-acf170a6a28d","ios":"levelo://app?vid=2add4495-ac90-463d-867d-acf170a6a28d"},"vehicle_type_id":"4","last_reported":1749672644,"current_range_meters":0,"station_id":"","pricing_plan_id":"cebpf4jnsgd1na2vs0mg"},{"bike_id":"bf89d78c-eb96-40d5-beb0-f402ef102cc1","system_id":"levelo_inurba_marseille","lat":43.337444,"lon":5.374475,"is_reserved":false,"is_disabled":true,"rental_uris":{"android":"levelo://app?vid=bf89d78c-eb96-40d5-beb0-f402ef102cc1","ios":"levelo://app?vid=bf89d78c-eb96-40d5-beb0-f402ef102cc1"},"vehicle_type_id":"4","last_reported":1749672644,"current_range_meters":0,"station_id":"","pricing_plan_id":"cebpf4jnsgd1na2vs0mg"},{"bike_id":"c66e000c-2aa1-49f0-87d5-e55349a0c1a8","system_id":"levelo_inurba_marseille","lat":43.31994,"lon":5.37397,"is_reserved":false,"is_disabled":true,"rental_uris":{"android":"levelo://app?vid=c66e000c-2aa1-49f0-87d5-e55349a0c1a8","ios":"levelo://app?vid=c66e000c-2aa1-49f0-87d5-e55349a0c1a8"},"vehicle_type_id":"4","last_reported":1749672644,"current_range_meters":0,"station_id":"","pricing_plan_id":"cebpf4jnsgd1na2vs0mg"},{"bike_id":"2fb1f445-0c17-42a7-8ba5-eed28cb31ea0","system_id":"levelo_inurba_marseille","lat":43.29728,"lon":5.36248,"is_reserved":false,"is_disabled":true,"rental_uris":{"android":"levelo://app?vid=2fb1f445-0c17-42a7-8ba5-eed28cb31ea0","ios":"levelo://app?vid=2fb1f445-0c17-42a7-8ba5-eed28cb31ea0"},"vehicle_type_id":"4","last_reported":1749672644,"current_range_meters":0,"station_id":"","pricing_plan_id":"cebpf4jnsgd1na2vs0mg"},{"bike_id":"78a3b051-1d76-41f7-a264-df07ffa40f1e","system_id":"levelo_inurba_marseille","lat":43.25327,"lon":5.39356,"is_reserved":false,"is_disabled":true,"rental_uris":{"android":"levelo://app?vid=78a3b051-1d76-41f7-a264-df07ffa40f1e","ios":"levelo://app?vid=78a3b051-1d76-41f7-a264-df07ffa40f1e"},"vehicle_type_id":"4","last_reported":1749672644,"current_range_meters":0,"station_id":"","pricing_plan_id":"cebpf4jnsgd1na2vs0mg"},{"bike_id":"9e55e93e-42c5-4c2c-9154-2d3c316cb5d9","system_id":"levelo_inurba_marseille","lat":43.31868,"lon":5.39427,"is_reserved":false,"is_disabled":true,"rental_uris":{"android":"levelo://app?vid=9e55e93e-42c5-4c2c-9154-2d3c316cb5d9","ios":"levelo://app?vid=9e55e93e-42c5-4c2c-9154-2d3c316cb5d9"},"vehicle_type_id":"4","last_reported":1749672644,"current_range_meters":0,"station_id":"","pricing_plan_id":"cebpf4jnsgd1na2vs0mg"},{"bike_id":"492f4bbd-1190-4ef2-b66a-479ffe91b09b","system_id":"levelo_inurba_marseille","lat":43.337444,"lon":5.374475,"is_reserved":false,"is_disabled":true,"rental_uris":{"android":"levelo://app?vid=492f4bbd-1190-4ef2-b66a-479ffe91b09b","ios":"levelo://app?vid=492f4bbd-1190-4ef2-b66a-479ffe91b09b"},"vehicle_type_id":"4","last_reported":1749672644,"current_range_meters":0,"station_id":"","pricing_plan_id":"cebpf4jnsgd1na2vs0mg"},{"bike_id":"10cbbb64-b31e-491d-8c4f-9e2285400f6e","system_id":"levelo_inurba_marseille","lat":43.29387,"lon":5.37853,"is_reserved":false,"is_disabled":false,"rental_uris":{"android":"levelo://app?vid=10cbbb64-b31e-491d-8c4f-9e2285400f6e","ios":"levelo://app?vid=10cbbb64-b31e-491d-8c4f-9e2285400f6e"},"vehicle_type_id":"4","last_reported":1749672644,"current_range_meters":0,"station_id":"ce4bgjh2rcd13ifvqbf0","pricing_plan_id":"cebpf4jnsgd1na2vs0mg"},{"bike_id":"a8b8b04a-4676-4140-87db-844d96cfad4b","system_id":"levelo_inurba_marseille","lat":43.30168,"lon":5.3809,"is_reserved":false,"is_disabled":true,"rental_uris":{"android":"levelo://app?vid=a8b8b04a-4676-4140-87db-844d96cfad4b","ios":"levelo://app?vid=a8b8b04a-4676-4140-87db-844d96cfad4b"},"vehicle_type_id":"4","last_reported":1749672644,"current_range_meters":0,"station_id":"ce4bgjp2rcd13ifvqbh0","pricing_plan_id":"cebpf4jnsgd1na2vs0mg"},{"bike_id":"38859133-a096-4b4e-b4e5-9dc2ebaf335e","system_id":"levelo_inurba_marseille","lat":43.30307,"lon":5.39212,"is_reserved":false,"is_disabled":true,"rental_uris":{"android":"levelo://app?vid=38859133-a096-4b4e-b4e5-9dc2ebaf335e","ios":"levelo://app?vid=38859133-a096-4b4e-b4e5-9dc2ebaf335e"},"vehicle_type_id":"4","last_reported":1749672644,"current_range_meters":0,"station_id":"ce4bgkh2rcd13ifvqbk0","pricing_plan_id":"cebpf4jnsgd1na2vs0mg"},{"bike_id":"13b8f27a-084c-475c-a49b-4ba1b8794248","system_id":"levelo_inurba_marseille","lat":43.28407,"lon":5.37506,"is_reserved":false,"is_disabled":true,"rental_uris":{"android":"levelo://app?vid=13b8f27a-084c-475c-a49b-4ba1b8794248","ios":"levelo://app?vid=13b8f27a-084c-475c-a49b-4ba1b8794248"},"vehicle_type_id":"4","last_reported":1749672644,"current_range_meters":0,"station_id":"ce4bh412rcd13ifvqds0","pricing_plan_id":"cebpf4jnsgd1na2vs0mg"},{"bike_id":"35ccbc31-f5fd-4e30-b4b1-2d30db9cf6d5","system_id":"levelo_inurba_marseille","lat":43.273682,"lon":5.362324,"is_reserved":false,"is_disabled":true,"rental_uris":{"android":"levelo://app?vid=35ccbc31-f5fd-4e30-b4b1-2d30db9cf6d5","ios":"levelo://app?vid=35ccbc31-f5fd-4e30-b4b1-2d30db9cf6d5"},"vehicle_type_id":"4","last_reported":1749672644,"current_range_meters":0,"station_id":"ce4bhbh2rcd13ifvqeo0","pricing_plan_id":"cebpf4jnsgd1na2vs0mg"},{"bike_id":"97d081d4-21ea-4318-8cec-119e0696eed0","system_id":"levelo_inurba_marseille","lat":43.27185,"lon":5.40971,"is_reserved":false,"is_disabled":true,"rental_uris":{"android":"levelo://app?vid=97d081d4-21ea-4318-8cec-119e0696eed0","ios":"levelo://app?vid=97d081d4-21ea-4318-8cec-119e0696eed0"},"vehicle_type_id":"4","last_reported":1749672644,"current_range_meters":0,"station_id":"ce4bhl12rcd13ifvqgf0","pricing_plan_id":"cebpf4jnsgd1na2vs0mg"},{"bike_id":"084d3747-180e-4f96-975c-4f6b199ba953","system_id":"levelo_inurba_marseille","lat":43.28139,"lon":5.42633,"is_reserved":false,"is_disabled":true,"rental_uris":{"android":"levelo://app?vid=084d3747-180e-4f96-975c-4f6b199ba953","ios":"levelo://app?vid=084d3747-180e-4f96-975c-4f6b199ba953"},"vehicle_type_id":"4","last_reported":1749672644,"current_range_meters":0,"station_id":"ce4bhnh2rcd13ifvqgug","pricing_plan_id":"cebpf4jnsgd1na2vs0mg"},{"bike_id":"584efb5b-b799-4466-8619-8fa6b0fae267","system_id":"levelo_inurba_marseille","lat":43.29967,"lon":5.41308,"is_reserved":false,"is_disabled":true,"rental_uris":{"android":"levelo://app?vid=584efb5b-b799-4466-8619-8fa6b0fae267","ios":"levelo://app?vid=584efb5b-b799-4466-8619-8fa6b0fae267"},"vehicle_type_id":"4","last_reported":1749672644,"current_range_meters":0,"station_id":"ce4bhp12rcd13ifvqh9g","pricing_plan_id":"cebpf4jnsgd1na2vs0mg"},{"bike_id":"fe0a3841-1877-4fb7-b244-9bcbe5307971","system_id":"levelo_inurba_marseille","lat":43.33721,"lon":5.39192,"is_reserved":false,"is_disabled":true,"rental_uris":{"android":"levelo://app?vid=fe0a3841-1877-4fb7-b244-9bcbe5307971","ios":"levelo://app?vid=fe0a3841-1877-4fb7-b244-9bcbe5307971"},"vehicle_type_id":"4","last_reported":1749672644,"current_range_meters":0,"station_id":"ce4bhr92rcd13ifvqhsg","pricing_plan_id":"cebpf4jnsgd1na2vs0mg"},{"bike_id":"ca6df3d9-d4af-470a-82cd-b5e969e09c9b","system_id":"levelo_inurba_marseille","lat":43.21758,"lon":5.34588,"is_reserved":false,"is_disabled":true,"rental_uris":{"android":"levelo://app?vid=ca6df3d9-d4af-470a-82cd-b5e969e09c9b","ios":"levelo://app?vid=ca6df3d9-d4af-470a-82cd-b5e969e09c9b"},"vehicle_type_id":"4","last_reported":1749672644,"current_range_meters":0,"station_id":"st_cvj6r9ubvosntc0bgbag","pricing_plan_id":"cebpf4jnsgd1na2vs0mg"},{"bike_id":"285c1561-ef21-46bf-910e-b45fae159db3","system_id":"levelo_inurba_marseille","lat":43.28481,"lon":5.38429,"is_reserved":false,"is_disabled":true,"rental_uris":{"android":"levelo://app?vid=285c1561-ef21-46bf-910e-b45fae159db3","ios":"levelo://app?vid=285c1561-ef21-46bf-910e-b45fae159db3"},"vehicle_type_id":"4","last_reported":1749672644,"current_range_meters":400,"station_id":"ce4bh512rcd13ifvqe3g","pricing_plan_id":"cebpf4jnsgd1na2vs0mg"},{"bike_id":"3e7a864d-06ed-4c13-bbe0-be85c25d2544","system_id":"levelo_inurba_marseille","lat":43.28105,"lon":5.37837,"is_reserved":false,"is_disabled":true,"rental_uris":{"android":"levelo://app?vid=3e7a864d-06ed-4c13-bbe0-be85c25d2544","ios":"levelo://app?vid=3e7a864d-06ed-4c13-bbe0-be85c25d2544"},"vehicle_type_id":"4","last_reported":1749672644,"current_range_meters":400,"station_id":"ce4bha12rcd13ifvqee0","pricing_plan_id":"cebpf4jnsgd1na2vs0mg"},{"bike_id":"94328c05-95f8-4a59-b4f9-06117b4828da","system_id":"levelo_inurba_marseille","lat":43.26206,"lon":5.37427,"is_reserved":false,"is_disabled":true,"rental_uris":{"android":"levelo://app?vid=94328c05-95f8-4a59-b4f9-06117b4828da","ios":"levelo://app?vid=94328c05-95f8-4a59-b4f9-06117b4828da"},"vehicle_type_id":"4","last_reported":1749672644,"current_range_meters":800,"station_id":"ce4bhgp2rcd13ifvqfc0","pricing_plan_id":"cebpf4jnsgd1na2vs0mg"},{"bike_id":"04d5afe9-f49d-4c81-9807-c2e359934071","system_id":"levelo_inurba_marseille","lat":43.27979,"lon":5.41672,"is_reserved":false,"is_disabled":true,"rental_uris":{"android":"levelo://app?vid=04d5afe9-f49d-4c81-9807-c2e359934071","ios":"levelo://app?vid=04d5afe9-f49d-4c81-9807-c2e359934071"},"vehicle_type_id":"4","last_reported":1749672644,"current_range_meters":800,"station_id":"ce4bho12rcd13ifvqh1g","pricing_plan_id":"cebpf4jnsgd1na2vs0mg"},{"bike_id":"e2d57724-166a-43f5-b9eb-85d94906b54e","system_id":"levelo_inurba_marseille","lat":43.29269,"lon":5.40138,"is_reserved":false,"is_disabled":true,"rental_uris":{"android":"levelo://app?vid=e2d57724-166a-43f5-b9eb-85d94906b54e","ios":"levelo://app?vid=e2d57724-166a-43f5-b9eb-85d94906b54e"},"vehicle_type_id":"4","last_reported":1749672644,"current_range_meters":1200,"station_id":"ce4bh312rcd13ifvqdk0","pricing_plan_id":"cebpf4jnsgd1na2vs0mg"},{"bike_id":"ce526313-e4c7-47eb-856f-183916936663","system_id":"levelo_inurba_marseille","lat":43.26192,"lon":5.39545,"is_reserved":false,"is_disabled":true,"rental_uris":{"android":"levelo://app?vid=ce526313-e4c7-47eb-856f-183916936663","ios":"levelo://app?vid=ce526313-e4c7-47eb-856f-183916936663"},"vehicle_type_id":"4","last_reported":1749672644,"current_range_meters":1600,"station_id":"","pricing_plan_id":"cebpf4jnsgd1na2vs0mg"},{"bike_id":"4405893e-8b5d-4d17-b9e6-7688641f2434","system_id":"levelo_inurba_marseille","lat":43.29782,"lon":5.37083,"is_reserved":false,"is_disabled":true,"rental_uris":{"android":"levelo://app?vid=4405893e-8b5d-4d17-b9e6-7688641f2434","ios":"levelo://app?vid=4405893e-8b5d-4d17-b9e6-7688641f2434"},"vehicle_type_id":"4","last_reported":1749672644,"current_range_meters":1600,"station_id":"ce4bgop2rcd13ifvqc1g","pricing_plan_id":"cebpf4jnsgd1na2vs0mg"},{"bike_id":"56bd101c-54c6-4409-9744-b82119c3c030","system_id":"levelo_inurba_marseille","lat":43.26202,"lon":5.37444,"is_reserved":false,"is_disabled":true,"rental_uris":{"android":"levelo://app?vid=56bd101c-54c6-4409-9744-b82119c3c030","ios":"levelo://app?vid=56bd101c-54c6-4409-9744-b82119c3c030"},"vehicle_type_id":"4","last_reported":1749672644,"current_range_meters":1600,"station_id":"ce4bhgp2rcd13ifvqfc0","pricing_plan_id":"cebpf4jnsgd1na2vs0mg"},{"bike_id":"bad08a73-6d64-43e6-9a39-098dfcc0dc7d","system_id":"levelo_inurba_marseille","lat":43.32038,"lon":5.41553,"is_reserved":false,"is_disabled":true,"rental_uris":{"android":"levelo://app?vid=bad08a73-6d64-43e6-9a39-098dfcc0dc7d","ios":"levelo://app?vid=bad08a73-6d64-43e6-9a39-098dfcc0dc7d"},"vehicle_type_id":"4","last_reported":1749672644,"current_range_meters":1600,"station_id":"ce4bhq92rcd13ifvqhkg","pricing_plan_id":"cebpf4jnsgd1na2vs0mg"},{"bike_id":"6feeaf16-fa7e-4082-816e-e63f0e6b3063","system_id":"levelo_inurba_marseille","lat":43.29429,"lon":5.39755,"is_reserved":false,"is_disabled":true,"rental_uris":{"android":"levelo://app?vid=6feeaf16-fa7e-4082-816e-e63f0e6b3063","ios":"levelo://app?vid=6feeaf16-fa7e-4082-816e-e63f0e6b3063"},"vehicle_type_id":"4","last_reported":1749672644,"current_range_meters":2000,"station_id":"ce4bh3h2rcd13ifvqdo0","pricing_plan_id":"cebpf4jnsgd1na2vs0mg"},{"bike_id":"b1ad198b-5919-477f-a9ea-0a373d04cb3f","system_id":"levelo_inurba_marseille","lat":43.28717,"lon":5.37941,"is_reserved":false,"is_disabled":true,"rental_uris":{"android":"levelo://app?vid=b1ad198b-5919-477f-a9ea-0a373d04cb3f","ios":"levelo://app?vid=b1ad198b-5919-477f-a9ea-0a373d04cb3f"},"vehicle_type_id":"4","last_reported":1749672644,"current_range_meters":2000,"station_id":"ce4bh9p2rcd13ifvqec0","pricing_plan_id":"cebpf4jnsgd1na2vs0mg"},{"bike_id":"d7dbd4a0-dd09-4737-8d2c-9d46028e2177","system_id":"levelo_inurba_marseille","lat":43.28614,"lon":5.35105,"is_reserved":false,"is_disabled":true,"rental_uris":{"android":"levelo://app?vid=d7dbd4a0-dd09-4737-8d2c-9d46028e2177","ios":"levelo://app?vid=d7dbd4a0-dd09-4737-8d2c-9d46028e2177"},"vehicle_type_id":"4","last_reported":1749672644,"current_range_meters":2000,"station_id":"ce4bhch2rcd13ifvqeug","pricing_plan_id":"cebpf4jnsgd1na2vs0mg"},{"bike_id":"71a6ad24-4e18-4bd8-917d-5666aa0c4d76","system_id":"levelo_inurba_marseille","lat":43.33768,"lon":5.37487,"is_reserved":false,"is_disabled":false,"rental_uris":{"android":"levelo://app?vid=71a6ad24-4e18-4bd8-917d-5666aa0c4d76","ios":"levelo://app?vid=71a6ad24-4e18-4bd8-917d-5666aa0c4d76"},"vehicle_type_id":"4","last_reported":1749672644,"current_range_meters":2800,"station_id":"","pricing_plan_id":"cebpf4jnsgd1na2vs0mg"},{"bike_id":"2aec02f0-bb72-4299-a7d4-46c7be426b0a","system_id":"levelo_inurba_marseille","lat":43.30956,"lon":5.39035,"is_reserved":false,"is_disabled":false,"rental_uris":{"android":"levelo://app?vid=2aec02f0-bb72-4299-a7d4-46c7be426b0a","ios":"levelo://app?vid=2aec02f0-bb72-4299-a7d4-46c7be426b0a"},"vehicle_type_id":"4","last_reported":1749672644,"current_range_meters":2800,"station_id":"ce4bgup2rcd13ifvqco0","pricing_plan_id":"cebpf4jnsgd1na2vs0mg"},{"bike_id":"1c0c8547-cb9f-42c5-a619-a031bcf8793a","system_id":"levelo_inurba_marseille","lat":43.294159,"lon":5.386279,"is_reserved":false,"is_disabled":true,"rental_uris":{"android":"levelo://app?vid=1c0c8547-cb9f-42c5-a619-a031bcf8793a","ios":"levelo://app?vid=1c0c8547-cb9f-42c5-a619-a031bcf8793a"},"vehicle_type_id":"4","last_reported":1749672644,"current_range_meters":2800,"station_id":"ce4bh2h2rcd13ifvqdh0","pricing_plan_id":"cebpf4jnsgd1na2vs0mg"},{"bike_id":"b957465a-0b44-4497-aa8d-ee957f6dcbbc","system_id":"levelo_inurba_marseille","lat":43.29013,"lon":5.38129,"is_reserved":false,"is_disabled":false,"rental_uris":{"android":"levelo://app?vid=b957465a-0b44-4497-aa8d-ee957f6dcbbc","ios":"levelo://app?vid=b957465a-0b44-4497-aa8d-ee957f6dcbbc"},"vehicle_type_id":"4","last_reported":1749672644,"current_range_meters":2800,"station_id":"ce4bh4p2rcd13ifvqe1g","pricing_plan_id":"cebpf4jnsgd1na2vs0mg"},{"bike_id":"be167491-54ab-41fe-bb9d-84b23663f348","system_id":"levelo_inurba_marseille","lat":43.27806,"lon":5.40706,"is_reserved":false,"is_disabled":false,"rental_uris":{"android":"levelo://app?vid=be167491-54ab-41fe-bb9d-84b23663f348","ios":"levelo://app?vid=be167491-54ab-41fe-bb9d-84b23663f348"},"vehicle_type_id":"4","last_reported":1749672644,"current_range_meters":2800,"station_id":"ce4bhnh2rcd13ifvqgtg","pricing_plan_id":"cebpf4jnsgd1na2vs0mg"},{"bike_id":"95226295-390a-455e-8146-aad5f5245ed7","system_id":"levelo_inurba_marseille","lat":43.24071,"lon":5.37761,"is_reserved":false,"is_disabled":false,"rental_uris":{"android":"levelo://app?vid=95226295-390a-455e-8146-aad5f5245ed7","ios":"levelo://app?vid=95226295-390a-455e-8146-aad5f5245ed7"},"vehicle_type_id":"4","last_reported":1749672644,"current_range_meters":2800,"station_id":"ce4bhnp2rcd13ifvqgvg","pricing_plan_id":"cebpf4jnsgd1na2vs0mg"},{"bike_id":"b79e6632-e539-4983-9b08-6efbf8d3630f","system_id":"levelo_inurba_marseille","lat":43.295319,"lon":5.385406,"is_reserved":false,"is_disabled":false,"rental_uris":{"android":"levelo://app?vid=b79e6632-e539-4983-9b08-6efbf8d3630f","ios":"levelo://app?vid=b79e6632-e539-4983-9b08-6efbf8d3630f"},"vehicle_type_id":"4","last_reported":1749672644,"current_range_meters":3600,"station_id":"ce4bgih2rcd13ifvqba0","pricing_plan_id":"cebpf4jnsgd1na2vs0mg"},{"bike_id":"7fea685d-3169-45af-ae21-877c02197edf","system_id":"levelo_inurba_marseille","lat":43.26932,"lon":5.38931,"is_reserved":false,"is_disabled":false,"rental_uris":{"android":"levelo://app?vid=7fea685d-3169-45af-ae21-877c02197edf","ios":"levelo://app?vid=7fea685d-3169-45af-ae21-877c02197edf"},"vehicle_type_id":"4","last_reported":1749672644,"current_range_meters":3600,"station_id":"ce4bhhh2rcd13ifvqfl0","pricing_plan_id":"cebpf4jnsgd1na2vs0mg"},{"bike_id":"08d0471b-1fa3-4842-aead-d976fa7f0b26","system_id":"levelo_inurba_marseille","lat":43.2781,"lon":5.40718,"is_reserved":false,"is_disabled":false,"rental_uris":{"android":"levelo://app?vid=08d0471b-1fa3-4842-aead-d976fa7f0b26","ios":"levelo://app?vid=08d0471b-1fa3-4842-aead-d976fa7f0b26"},"vehicle_type_id":"4","last_reported":1749672644,"current_range_meters":3600,"station_id":"ce4bhnh2rcd13ifvqgtg","pricing_plan_id":"cebpf4jnsgd1na2vs0mg"},{"bike_id":"a0a8b5ba-a808-4a76-b40c-ff2e3e7cbf2a","system_id":"levelo_inurba_marseille","lat":43.28694,"lon":5.37409,"is_reserved":false,"is_disabled":false,"rental_uris":{"android":"levelo://app?vid=a0a8b5ba-a808-4a76-b40c-ff2e3e7cbf2a","ios":"levelo://app?vid=a0a8b5ba-a808-4a76-b40c-ff2e3e7cbf2a"},"vehicle_type_id":"4","last_reported":1749672644,"current_range_meters":4000,"station_id":"ce4bh3p2rcd13ifvqdq0","pricing_plan_id":"cebpf4jnsgd1na2vs0mg"},{"bike_id":"56138557-abf0-4c74-8d62-91eb2991f07b","system_id":"levelo_inurba_marseille","lat":43.26218,"lon":5.37942,"is_reserved":false,"is_disabled":false,"rental_uris":{"android":"levelo://app?vid=56138557-abf0-4c74-8d62-91eb2991f07b","ios":"levelo://app?vid=56138557-abf0-4c74-8d62-91eb2991f07b"},"vehicle_type_id":"4","last_reported":1749672644,"current_range_meters":4000,"station_id":"ce4bhjp2rcd13ifvqg90","pricing_plan_id":"cebpf4jnsgd1na2vs0mg"},{"bike_id":"971f698e-4331-47da-b992-dff6ff5a62a3","system_id":"levelo_inurba_marseille","lat":43.29971,"lon":5.38482,"is_reserved":false,"is_disabled":false,"rental_uris":{"android":"levelo://app?vid=971f698e-4331-47da-b992-dff6ff5a62a3","ios":"levelo://app?vid=971f698e-4331-47da-b992-dff6ff5a62a3"},"vehicle_type_id":"4","last_reported":1749672644,"current_range_meters":4400,"station_id":"ce4bgj92rcd13ifvqbd0","pricing_plan_id":"cebpf4jnsgd1na2vs0mg"},{"bike_id":"46f5d888-43cc-40f8-b6bb-6339c9252eb3","system_id":"levelo_inurba_marseille","lat":43.30302,"lon":5.39213,"is_reserved":false,"is_disabled":false,"rental_uris":{"android":"levelo://app?vid=46f5d888-43cc-40f8-b6bb-6339c9252eb3","ios":"levelo://app?vid=46f5d888-43cc-40f8-b6bb-6339c9252eb3"},"vehicle_type_id":"4","last_reported":1749672644,"current_range_meters":4400,"station_id":"ce4bgkh2rcd13ifvqbk0","pricing_plan_id":"cebpf4jnsgd1na2vs0mg"},{"bike_id":"b191e59a-ff0a-4fa5-8b16-83fd7821d878","system_id":"levelo_inurba_marseille","lat":43.29018,"lon":5.38125,"is_reserved":false,"is_disabled":false,"rental_uris":{"android":"levelo://app?vid=b191e59a-ff0a-4fa5-8b16-83fd7821d878","ios":"levelo://app?vid=b191e59a-ff0a-4fa5-8b16-83fd7821d878"},"vehicle_type_id":"4","last_reported":1749672644,"current_range_meters":4400,"station_id":"ce4bh4p2rcd13ifvqe1g","pricing_plan_id":"cebpf4jnsgd1na2vs0mg"},{"bike_id":"ec1533c1-ce75-4745-a40e-0c87af4bfa7e","system_id":"levelo_inurba_marseille","lat":43.29404,"lon":5.38632,"is_reserved":false,"is_disabled":false,"rental_uris":{"android":"levelo://app?vid=ec1533c1-ce75-4745-a40e-0c87af4bfa7e","ios":"levelo://app?vid=ec1533c1-ce75-4745-a40e-0c87af4bfa7e"},"vehicle_type_id":"4","last_reported":1749672644,"current_range_meters":4800,"station_id":"ce4bh2h2rcd13ifvqdh0","pricing_plan_id":"cebpf4jnsgd1na2vs0mg"},{"bike_id":"36380a40-acdb-4e5d-88ca-23a0e899f454","system_id":"levelo_inurba_marseille","lat":43.278392,"lon":5.392054,"is_reserved":false,"is_disabled":false,"rental_uris":{"android":"levelo://app?vid=36380a40-acdb-4e5d-88ca-23a0e899f454","ios":"levelo://app?vid=36380a40-acdb-4e5d-88ca-23a0e899f454"},"vehicle_type_id":"4","last_reported":1749672644,"current_range_meters":4800,"station_id":"ce4bhjp2rcd13ifvqga0","pricing_plan_id":"cebpf4jnsgd1na2vs0mg"},{"bike_id":"a9334c0d-cdfc-464f-8eab-e98192ed3454","system_id":"levelo_inurba_marseille","lat":43.29223,"lon":5.39943,"is_reserved":false,"is_disabled":false,"rental_uris":{"android":"levelo://app?vid=a9334c0d-cdfc-464f-8eab-e98192ed3454","ios":"levelo://app?vid=a9334c0d-cdfc-464f-8eab-e98192ed3454"},"vehicle_type_id":"4","last_reported":1749672644,"current_range_meters":5600,"station_id":"","pricing_plan_id":"cebpf4jnsgd1na2vs0mg"},{"bike_id":"7e0c6425-7d48-419a-9929-d9a5e50547fd","system_id":"levelo_inurba_marseille","lat":43.30879,"lon":5.3966,"is_reserved":false,"is_disabled":false,"rental_uris":{"android":"levelo://app?vid=7e0c6425-7d48-419a-9929-d9a5e50547fd","ios":"levelo://app?vid=7e0c6425-7d48-419a-9929-d9a5e50547fd"},"vehicle_type_id":"4","last_reported":1749672644,"current_range_meters":5600,"station_id":"ce4bh012rcd13ifvqcv0","pricing_plan_id":"cebpf4jnsgd1na2vs0mg"},{"bike_id":"943d9a6c-6d13-4203-adf8-702de2889dae","system_id":"levelo_inurba_marseille","lat":43.27497,"lon":5.42456,"is_reserved":false,"is_disabled":false,"rental_uris":{"android":"levelo://app?vid=943d9a6c-6d13-4203-adf8-702de2889dae","ios":"levelo://app?vid=943d9a6c-6d13-4203-adf8-702de2889dae"},"vehicle_type_id":"4","last_reported":1749672644,"current_range_meters":5600,"station_id":"ce4bhn92rcd13ifvqgrg","pricing_plan_id":"cebpf4jnsgd1na2vs0mg"},{"bike_id":"5af8f883-5e73-4f6e-8a50-74328fd7d797","system_id":"levelo_inurba_marseille","lat":43.27811,"lon":5.40711,"is_reserved":false,"is_disabled":false,"rental_uris":{"android":"levelo://app?vid=5af8f883-5e73-4f6e-8a50-74328fd7d797","ios":"levelo://app?vid=5af8f883-5e73-4f6e-8a50-74328fd7d797"},"vehicle_type_id":"4","last_reported":1749672644,"current_range_meters":5600,"station_id":"ce4bhnh2rcd13ifvqgtg","pricing_plan_id":"cebpf4jnsgd1na2vs0mg"},{"bike_id":"8d51b70c-6c40-4142-bbb0-9c00a36cef09","system_id":"levelo_inurba_marseille","lat":43.31172,"lon":5.3872,"is_reserved":false,"is_disabled":false,"rental_uris":{"android":"levelo://app?vid=8d51b70c-6c40-4142-bbb0-9c00a36cef09","ios":"levelo://app?vid=8d51b70c-6c40-4142-bbb0-9c00a36cef09"},"vehicle_type_id":"4","last_reported":1749672644,"current_range_meters":6000,"station_id":"ce4bgv12rcd13ifvqcp0","pricing_plan_id":"cebpf4jnsgd1na2vs0mg"},{"bike_id":"a6f9b91c-4f75-4039-a66b-74a6a0ac1d88","system_id":"levelo_inurba_marseille","lat":43.31684,"lon":5.40472,"is_reserved":false,"is_disabled":false,"rental_uris":{"android":"levelo://app?vid=a6f9b91c-4f75-4039-a66b-74a6a0ac1d88","ios":"levelo://app?vid=a6f9b91c-4f75-4039-a66b-74a6a0ac1d88"},"vehicle_type_id":"4","last_reported":1749672644,"current_range_meters":6000,"station_id":"ce4bh012rcd13ifvqd00","pricing_plan_id":"cebpf4jnsgd1na2vs0mg"},{"bike_id":"67d74f50-a85c-495b-8c76-5e6c681d49d9","system_id":"levelo_inurba_marseille","lat":43.31698,"lon":5.4046,"is_reserved":false,"is_disabled":false,"rental_uris":{"android":"levelo://app?vid=67d74f50-a85c-495b-8c76-5e6c681d49d9","ios":"levelo://app?vid=67d74f50-a85c-495b-8c76-5e6c681d49d9"},"vehicle_type_id":"4","last_reported":1749672644,"current_range_meters":6000,"station_id":"ce4bh012rcd13ifvqd00","pricing_plan_id":"cebpf4jnsgd1na2vs0mg"},{"bike_id":"d10e37c2-83cd-444a-b4e7-7ba71ab26d18","system_id":"levelo_inurba_marseille","lat":43.28104,"lon":5.37838,"is_reserved":false,"is_disabled":false,"rental_uris":{"android":"levelo://app?vid=d10e37c2-83cd-444a-b4e7-7ba71ab26d18","ios":"levelo://app?vid=d10e37c2-83cd-444a-b4e7-7ba71ab26d18"},"vehicle_type_id":"4","last_reported":1749672644,"current_range_meters":6000,"station_id":"ce4bha12rcd13ifvqee0","pricing_plan_id":"cebpf4jnsgd1na2vs0mg"},{"bike_id":"b0cf9763-f5ae-4b0c-8232-1ae0ab46c421","system_id":"levelo_inurba_marseille","lat":43.26556,"lon":5.37285,"is_reserved":false,"is_disabled":false,"rental_uris":{"android":"levelo://app?vid=b0cf9763-f5ae-4b0c-8232-1ae0ab46c421","ios":"levelo://app?vid=b0cf9763-f5ae-4b0c-8232-1ae0ab46c421"},"vehicle_type_id":"4","last_reported":1749672644,"current_range_meters":6000,"station_id":"ce4bhg12rcd13ifvqf70","pricing_plan_id":"cebpf4jnsgd1na2vs0mg"},{"bike_id":"0f01db36-14cd-4e8c-bdfd-4a14e9bb514b","system_id":"levelo_inurba_marseille","lat":43.2511,"lon":5.40319,"is_reserved":false,"is_disabled":false,"rental_uris":{"android":"levelo://app?vid=0f01db36-14cd-4e8c-bdfd-4a14e9bb514b","ios":"levelo://app?vid=0f01db36-14cd-4e8c-bdfd-4a14e9bb514b"},"vehicle_type_id":"4","last_reported":1749672644,"current_range_meters":6000,"station_id":"ce4bhlh2rcd13ifvqgig","pricing_plan_id":"cebpf4jnsgd1na2vs0mg"},{"bike_id":"e9aa47e9-3218-4c61-a0fa-c537960d0f71","system_id":"levelo_inurba_marseille","lat":43.27816,"lon":5.40718,"is_reserved":false,"is_disabled":false,"rental_uris":{"android":"levelo://app?vid=e9aa47e9-3218-4c61-a0fa-c537960d0f71","ios":"levelo://app?vid=e9aa47e9-3218-4c61-a0fa-c537960d0f71"},"vehicle_type_id":"4","last_reported":1749672644,"current_range_meters":6000,"station_id":"ce4bhnh2rcd13ifvqgtg","pricing_plan_id":"cebpf4jnsgd1na2vs0mg"},{"bike_id":"57c1f1cc-024a-4538-bb73-9ba1927e974e","system_id":"levelo_inurba_marseille","lat":43.31988,"lon":5.38145,"is_reserved":false,"is_disabled":false,"rental_uris":{"android":"levelo://app?vid=57c1f1cc-024a-4538-bb73-9ba1927e974e","ios":"levelo://app?vid=57c1f1cc-024a-4538-bb73-9ba1927e974e"},"vehicle_type_id":"4","last_reported":1749672644,"current_range_meters":6000,"station_id":"ce4bhr12rcd13ifvqhpg","pricing_plan_id":"cebpf4jnsgd1na2vs0mg"},{"bike_id":"f5835cd8-5aa4-486e-a5c8-ba74cff41c41","system_id":"levelo_inurba_marseille","lat":43.29705,"lon":5.36609,"is_reserved":false,"is_disabled":false,"rental_uris":{"android":"levelo://app?vid=f5835cd8-5aa4-486e-a5c8-ba74cff41c41","ios":"levelo://app?vid=f5835cd8-5aa4-486e-a5c8-ba74cff41c41"},"vehicle_type_id":"4","last_reported":1749672644,"current_range_meters":6400,"station_id":"ce4bgn12rcd13ifvqbt0","pricing_plan_id":"cebpf4jnsgd1na2vs0mg"},{"bike_id":"32966f76-088a-44fe-8b13-eb7bee594cd4","system_id":"levelo_inurba_marseille","lat":43.29022,"lon":5.38638,"is_reserved":false,"is_disabled":false,"rental_uris":{"android":"levelo://app?vid=32966f76-088a-44fe-8b13-eb7bee594cd4","ios":"levelo://app?vid=32966f76-088a-44fe-8b13-eb7bee594cd4"},"vehicle_type_id":"4","last_reported":1749672644,"current_range_meters":6400,"station_id":"ce4bh4p2rcd13ifvqe0g","pricing_plan_id":"cebpf4jnsgd1na2vs0mg"},{"bike_id":"0953206b-54dd-49c3-bff3-08c023838b74","system_id":"levelo_inurba_marseille","lat":43.29264,"lon":5.38439,"is_reserved":false,"is_disabled":false,"rental_uris":{"android":"levelo://app?vid=0953206b-54dd-49c3-bff3-08c023838b74","ios":"levelo://app?vid=0953206b-54dd-49c3-bff3-08c023838b74"},"vehicle_type_id":"4","last_reported":1749672644,"current_range_meters":6400,"station_id":"ce4bh692rcd13ifvqea0","pricing_plan_id":"cebpf4jnsgd1na2vs0mg"},{"bike_id":"e8c1ce90-0d78-45f2-88cb-2bc58ade24b4","system_id":"levelo_inurba_marseille","lat":43.28853,"lon":5.35865,"is_reserved":false,"is_disabled":false,"rental_uris":{"android":"levelo://app?vid=e8c1ce90-0d78-45f2-88cb-2bc58ade24b4","ios":"levelo://app?vid=e8c1ce90-0d78-45f2-88cb-2bc58ade24b4"},"vehicle_type_id":"4","last_reported":1749672644,"current_range_meters":6400,"station_id":"ce4bhb12rcd13ifvqem0","pricing_plan_id":"cebpf4jnsgd1na2vs0mg"},{"bike_id":"002e1035-e5f1-494c-a5b3-358dc63f6a27","system_id":"levelo_inurba_marseille","lat":43.2925,"lon":5.37622,"is_reserved":false,"is_disabled":false,"rental_uris":{"android":"levelo://app?vid=002e1035-e5f1-494c-a5b3-358dc63f6a27","ios":"levelo://app?vid=002e1035-e5f1-494c-a5b3-358dc63f6a27"},"vehicle_type_id":"4","last_reported":1749672644,"current_range_meters":6800,"station_id":"ce4bgi12rcd13ifvqb80","pricing_plan_id":"cebpf4jnsgd1na2vs0mg"},{"bike_id":"6cf5ed1b-9688-4383-bef5-8cb881a194e6","system_id":"levelo_inurba_marseille","lat":43.248084,"lon":5.374614,"is_reserved":false,"is_disabled":false,"rental_uris":{"android":"levelo://app?vid=6cf5ed1b-9688-4383-bef5-8cb881a194e6","ios":"levelo://app?vid=6cf5ed1b-9688-4383-bef5-8cb881a194e6"},"vehicle_type_id":"4","last_reported":1749672644,"current_range_meters":6800,"station_id":"ce4bhgh2rcd13ifvqfb0","pricing_plan_id":"cebpf4jnsgd1na2vs0mg"},{"bike_id":"3a3ba338-e186-45e7-ba73-82bed1681b7d","system_id":"levelo_inurba_marseille","lat":43.26786,"lon":5.39413,"is_reserved":false,"is_disabled":false,"rental_uris":{"android":"levelo://app?vid=3a3ba338-e186-45e7-ba73-82bed1681b7d","ios":"levelo://app?vid=3a3ba338-e186-45e7-ba73-82bed1681b7d"},"vehicle_type_id":"4","last_reported":1749672644,"current_range_meters":6800,"station_id":"ce4bhh12rcd13ifvqfg0","pricing_plan_id":"cebpf4jnsgd1na2vs0mg"},{"bike_id":"5077581b-cebb-46fc-ba69-4fa8272d4810","system_id":"levelo_inurba_marseille","lat":43.21381,"lon":5.35526,"is_reserved":false,"is_disabled":false,"rental_uris":{"android":"levelo://app?vid=5077581b-cebb-46fc-ba69-4fa8272d4810","ios":"levelo://app?vid=5077581b-cebb-46fc-ba69-4fa8272d4810"},"vehicle_type_id":"4","last_reported":1749672644,"current_range_meters":7200,"station_id":"","pricing_plan_id":"cebpf4jnsgd1na2vs0mg"},{"bike_id":"37917bde-fd78-4150-87a7-08b9b5d5fdce","system_id":"levelo_inurba_marseille","lat":43.29199,"lon":5.39319,"is_reserved":false,"is_disabled":false,"rental_uris":{"android":"levelo://app?vid=37917bde-fd78-4150-87a7-08b9b5d5fdce","ios":"levelo://app?vid=37917bde-fd78-4150-87a7-08b9b5d5fdce"},"vehicle_type_id":"4","last_reported":1749672644,"current_range_meters":7200,"station_id":"ce4bh192rcd13ifvqdd0","pricing_plan_id":"cebpf4jnsgd1na2vs0mg"},{"bike_id":"74c8df75-0ae2-42fc-8ebf-6dc71942e1a8","system_id":"levelo_inurba_marseille","lat":43.28727,"lon":5.37934,"is_reserved":false,"is_disabled":false,"rental_uris":{"android":"levelo://app?vid=74c8df75-0ae2-42fc-8ebf-6dc71942e1a8","ios":"levelo://app?vid=74c8df75-0ae2-42fc-8ebf-6dc71942e1a8"},"vehicle_type_id":"4","last_reported":1749672644,"current_range_meters":7200,"station_id":"ce4bh9p2rcd13ifvqec0","pricing_plan_id":"cebpf4jnsgd1na2vs0mg"},{"bike_id":"a3b59b05-acfc-4b37-8933-10b2b52c1966","system_id":"levelo_inurba_marseille","lat":43.2781,"lon":5.40713,"is_reserved":false,"is_disabled":false,"rental_uris":{"android":"levelo://app?vid=a3b59b05-acfc-4b37-8933-10b2b52c1966","ios":"levelo://app?vid=a3b59b05-acfc-4b37-8933-10b2b52c1966"},"vehicle_type_id":"4","last_reported":1749672644,"current_range_meters":7200,"station_id":"ce4bhnh2rcd13ifvqgtg","pricing_plan_id":"cebpf4jnsgd1na2vs0mg"},{"bike_id":"7c6c6adc-a3da-49a6-8136-247da3b5ec06","system_id":"levelo_inurba_marseille","lat":43.24457,"lon":5.40054,"is_reserved":false,"is_disabled":false,"rental_uris":{"android":"levelo://app?vid=7c6c6adc-a3da-49a6-8136-247da3b5ec06","ios":"levelo://app?vid=7c6c6adc-a3da-49a6-8136-247da3b5ec06"},"vehicle_type_id":"4","last_reported":1749672644,"current_range_meters":8000,"station_id":"","pricing_plan_id":"cebpf4jnsgd1na2vs0mg"},{"bike_id":"41222728-5add-4acf-a925-fea2c6e40c6b","system_id":"levelo_inurba_marseille","lat":43.29961,"lon":5.38492,"is_reserved":false,"is_disabled":false,"rental_uris":{"android":"levelo://app?vid=41222728-5add-4acf-a925-fea2c6e40c6b","ios":"levelo://app?vid=41222728-5add-4acf-a925-fea2c6e40c6b"},"vehicle_type_id":"4","last_reported":1749672644,"current_range_meters":8000,"station_id":"ce4bgj92rcd13ifvqbd0","pricing_plan_id":"cebpf4jnsgd1na2vs0mg"},{"bike_id":"f3ae331d-05a4-4746-9163-0728fa791df2","system_id":"levelo_inurba_marseille","lat":43.2919,"lon":5.39307,"is_reserved":false,"is_disabled":false,"rental_uris":{"android":"levelo://app?vid=f3ae331d-05a4-4746-9163-0728fa791df2","ios":"levelo://app?vid=f3ae331d-05a4-4746-9163-0728fa791df2"},"vehicle_type_id":"4","last_reported":1749672644,"current_range_meters":8000,"station_id":"ce4bh192rcd13ifvqdd0","pricing_plan_id":"cebpf4jnsgd1na2vs0mg"},{"bike_id":"49c725f9-bed8-4a8f-bee3-07c90331964c","system_id":"levelo_inurba_marseille","lat":43.295431,"lon":5.39339,"is_reserved":false,"is_disabled":false,"rental_uris":{"android":"levelo://app?vid=49c725f9-bed8-4a8f-bee3-07c90331964c","ios":"levelo://app?vid=49c725f9-bed8-4a8f-bee3-07c90331964c"},"vehicle_type_id":"4","last_reported":1749672644,"current_range_meters":8000,"station_id":"ce4bh292rcd13ifvqdf0","pricing_plan_id":"cebpf4jnsgd1na2vs0mg"},{"bike_id":"396739df-a62b-4dd7-873d-5a4aa1569e28","system_id":"levelo_inurba_marseille","lat":43.29398,"lon":5.38595,"is_reserved":false,"is_disabled":false,"rental_uris":{"android":"levelo://app?vid=396739df-a62b-4dd7-873d-5a4aa1569e28","ios":"levelo://app?vid=396739df-a62b-4dd7-873d-5a4aa1569e28"},"vehicle_type_id":"4","last_reported":1749672644,"current_range_meters":8000,"station_id":"ce4bh2h2rcd13ifvqdh0","pricing_plan_id":"cebpf4jnsgd1na2vs0mg"},{"bike_id":"34443a68-2c26-4700-809c-65d689d01b0f","system_id":"levelo_inurba_marseille","lat":43.27169,"lon":5.40972,"is_reserved":false,"is_disabled":false,"rental_uris":{"android":"levelo://app?vid=34443a68-2c26-4700-809c-65d689d01b0f","ios":"levelo://app?vid=34443a68-2c26-4700-809c-65d689d01b0f"},"vehicle_type_id":"4","last_reported":1749672644,"current_range_meters":8000,"station_id":"ce4bhl12rcd13ifvqgf0","pricing_plan_id":"cebpf4jnsgd1na2vs0mg"},{"bike_id":"4d859a0e-06c0-456e-9377-ee9a49f82a78","system_id":"levelo_inurba_marseille","lat":43.29788,"lon":5.39344,"is_reserved":false,"is_disabled":false,"rental_uris":{"android":"levelo://app?vid=4d859a0e-06c0-456e-9377-ee9a49f82a78","ios":"levelo://app?vid=4d859a0e-06c0-456e-9377-ee9a49f82a78"},"vehicle_type_id":"4","last_reported":1749672644,"current_range_meters":8000,"station_id":"chh1huq6cuj3fo74tm60","pricing_plan_id":"cebpf4jnsgd1na2vs0mg"},{"bike_id":"6c300130-a97b-4792-a130-444400099a0a","system_id":"levelo_inurba_marseille","lat":43.21196,"lon":5.35066,"is_reserved":false,"is_disabled":false,"rental_uris":{"android":"levelo://app?vid=6c300130-a97b-4792-a130-444400099a0a","ios":"levelo://app?vid=6c300130-a97b-4792-a130-444400099a0a"},"vehicle_type_id":"4","last_reported":1749672644,"current_range_meters":8000,"station_id":"st_cvj6sg6p6f1abm77japg","pricing_plan_id":"cebpf4jnsgd1na2vs0mg"},{"bike_id":"0e92a489-6bfe-4488-b5ee-b5b5c177afe9","system_id":"levelo_inurba_marseille","lat":43.29048,"lon":5.37865,"is_reserved":false,"is_disabled":false,"rental_uris":{"android":"levelo://app?vid=0e92a489-6bfe-4488-b5ee-b5b5c177afe9","ios":"levelo://app?vid=0e92a489-6bfe-4488-b5ee-b5b5c177afe9"},"vehicle_type_id":"4","last_reported":1749672644,"current_range_meters":8400,"station_id":"","pricing_plan_id":"cebpf4jnsgd1na2vs0mg"},{"bike_id":"1e20f032-0f6a-40b2-ad29-e4d2225496fa","system_id":"levelo_inurba_marseille","lat":43.3032,"lon":5.37032,"is_reserved":false,"is_disabled":false,"rental_uris":{"android":"levelo://app?vid=1e20f032-0f6a-40b2-ad29-e4d2225496fa","ios":"levelo://app?vid=1e20f032-0f6a-40b2-ad29-e4d2225496fa"},"vehicle_type_id":"4","last_reported":1749672644,"current_range_meters":8400,"station_id":"","pricing_plan_id":"cebpf4jnsgd1na2vs0mg"},{"bike_id":"ecc8db03-cda1-49cd-8dee-bec6f19442f6","system_id":"levelo_inurba_marseille","lat":43.302862,"lon":5.368101,"is_reserved":false,"is_disabled":false,"rental_uris":{"android":"levelo://app?vid=ecc8db03-cda1-49cd-8dee-bec6f19442f6","ios":"levelo://app?vid=ecc8db03-cda1-49cd-8dee-bec6f19442f6"},"vehicle_type_id":"4","last_reported":1749672644,"current_range_meters":8400,"station_id":"ce4bgrh2rcd13ifvqc8g","pricing_plan_id":"cebpf4jnsgd1na2vs0mg"},{"bike_id":"632693d0-0815-4706-b045-8b917066586c","system_id":"levelo_inurba_marseille","lat":43.26801,"lon":5.4027,"is_reserved":false,"is_disabled":false,"rental_uris":{"android":"levelo://app?vid=632693d0-0815-4706-b045-8b917066586c","ios":"levelo://app?vid=632693d0-0815-4706-b045-8b917066586c"},"vehicle_type_id":"4","last_reported":1749672644,"current_range_meters":8400,"station_id":"ce501612rcd8frsf0b60","pricing_plan_id":"cebpf4jnsgd1na2vs0mg"},{"bike_id":"66314ca9-30a7-4c0a-8507-6f89f4c9b4e1","system_id":"levelo_inurba_marseille","lat":43.26247,"lon":5.37113,"is_reserved":false,"is_disabled":false,"rental_uris":{"android":"levelo://app?vid=66314ca9-30a7-4c0a-8507-6f89f4c9b4e1","ios":"levelo://app?vid=66314ca9-30a7-4c0a-8507-6f89f4c9b4e1"},"vehicle_type_id":"4","last_reported":1749672644,"current_range_meters":8800,"station_id":"","pricing_plan_id":"cebpf4jnsgd1na2vs0mg"},{"bike_id":"2e6d355d-1c2c-49e9-a1da-5fb3e09abbaa","system_id":"levelo_inurba_marseille","lat":43.29623,"lon":5.37725,"is_reserved":false,"is_disabled":false,"rental_uris":{"android":"levelo://app?vid=2e6d355d-1c2c-49e9-a1da-5fb3e09abbaa","ios":"levelo://app?vid=2e6d355d-1c2c-49e9-a1da-5fb3e09abbaa"},"vehicle_type_id":"4","last_reported":1749672644,"current_range_meters":8800,"station_id":"ce4bgi92rcd13ifvqb90","pricing_plan_id":"cebpf4jnsgd1na2vs0mg"},{"bike_id":"0dfdbc5c-1e64-4b7e-958d-52855e61338c","system_id":"levelo_inurba_marseille","lat":43.29539,"lon":5.3854,"is_reserved":false,"is_disabled":false,"rental_uris":{"android":"levelo://app?vid=0dfdbc5c-1e64-4b7e-958d-52855e61338c","ios":"levelo://app?vid=0dfdbc5c-1e64-4b7e-958d-52855e61338c"},"vehicle_type_id":"4","last_reported":1749672644,"current_range_meters":8800,"station_id":"ce4bgih2rcd13ifvqba0","pricing_plan_id":"cebpf4jnsgd1na2vs0mg"},{"bike_id":"b0454cf8-f68c-4290-9acc-9bbcbfdfd641","system_id":"levelo_inurba_marseille","lat":43.29913,"lon":5.37482,"is_reserved":false,"is_disabled":false,"rental_uris":{"android":"levelo://app?vid=b0454cf8-f68c-4290-9acc-9bbcbfdfd641","ios":"levelo://app?vid=b0454cf8-f68c-4290-9acc-9bbcbfdfd641"},"vehicle_type_id":"4","last_reported":1749672644,"current_range_meters":8800,"station_id":"ce4bgjh2rcd13ifvqbg0","pricing_plan_id":"cebpf4jnsgd1na2vs0mg"},{"bike_id":"32218a25-210a-430a-a864-1a7b362aaaf2","system_id":"levelo_inurba_marseille","lat":43.2971,"lon":5.37694,"is_reserved":false,"is_disabled":false,"rental_uris":{"android":"levelo://app?vid=32218a25-210a-430a-a864-1a7b362aaaf2","ios":"levelo://app?vid=32218a25-210a-430a-a864-1a7b362aaaf2"},"vehicle_type_id":"4","last_reported":1749672644,"current_range_meters":8800,"station_id":"ce4bgkh2rcd13ifvqbl0","pricing_plan_id":"cebpf4jnsgd1na2vs0mg"},{"bike_id":"36754c54-73e8-4ee7-a70a-26454a799f39","system_id":"levelo_inurba_marseille","lat":43.29931,"lon":5.36548,"is_reserved":false,"is_disabled":false,"rental_uris":{"android":"levelo://app?vid=36754c54-73e8-4ee7-a70a-26454a799f39","ios":"levelo://app?vid=36754c54-73e8-4ee7-a70a-26454a799f39"},"vehicle_type_id":"4","last_reported":1749672644,"current_range_meters":8800,"station_id":"ce4bgm92rcd13ifvqbr0","pricing_plan_id":"cebpf4jnsgd1na2vs0mg"},{"bike_id":"9703006c-3096-4535-b526-301aa1adc3e8","system_id":"levelo_inurba_marseille","lat":43.30088,"lon":5.39079,"is_reserved":false,"is_disabled":false,"rental_uris":{"android":"levelo://app?vid=9703006c-3096-4535-b526-301aa1adc3e8","ios":"levelo://app?vid=9703006c-3096-4535-b526-301aa1adc3e8"},"vehicle_type_id":"4","last_reported":1749672644,"current_range_meters":8800,"station_id":"ce4bh192rcd13ifvqdb0","pricing_plan_id":"cebpf4jnsgd1na2vs0mg"},{"bike_id":"f48ab685-f7fc-46ff-aa77-d7432aec07ed","system_id":"levelo_inurba_marseille","lat":43.29208,"lon":5.39321,"is_reserved":false,"is_disabled":false,"rental_uris":{"android":"levelo://app?vid=f48ab685-f7fc-46ff-aa77-d7432aec07ed","ios":"levelo://app?vid=f48ab685-f7fc-46ff-aa77-d7432aec07ed"},"vehicle_type_id":"4","last_reported":1749672644,"current_range_meters":8800,"station_id":"ce4bh192rcd13ifvqdd0","pricing_plan_id":"cebpf4jnsgd1na2vs0mg"},{"bike_id":"8788c77c-0f34-4575-8a05-13ed008c1d96","system_id":"levelo_inurba_marseille","lat":43.29193,"lon":5.39316,"is_reserved":false,"is_disabled":false,"rental_uris":{"android":"levelo://app?vid=8788c77c-0f34-4575-8a05-13ed008c1d96","ios":"levelo://app?vid=8788c77c-0f34-4575-8a05-13ed008c1d96"},"vehicle_type_id":"4","last_reported":1749672644,"current_range_meters":8800,"station_id":"ce4bh192rcd13ifvqdd0","pricing_plan_id":"cebpf4jnsgd1na2vs0mg"},{"bike_id":"70f79207-1ab9-46af-9ebc-cc9fa93b99f9","system_id":"levelo_inurba_marseille","lat":43.28613,"lon":5.35106,"is_reserved":false,"is_disabled":false,"rental_uris":{"android":"levelo://app?vid=70f79207-1ab9-46af-9ebc-cc9fa93b99f9","ios":"levelo://app?vid=70f79207-1ab9-46af-9ebc-cc9fa93b99f9"},"vehicle_type_id":"4","last_reported":1749672644,"current_range_meters":8800,"station_id":"ce4bhch2rcd13ifvqeug","pricing_plan_id":"cebpf4jnsgd1na2vs0mg"},{"bike_id":"67954f39-e792-42c6-9a04-a6a791c27a20","system_id":"levelo_inurba_marseille","lat":43.27556,"lon":5.38422,"is_reserved":false,"is_disabled":false,"rental_uris":{"android":"levelo://app?vid=67954f39-e792-42c6-9a04-a6a791c27a20","ios":"levelo://app?vid=67954f39-e792-42c6-9a04-a6a791c27a20"},"vehicle_type_id":"4","last_reported":1749672644,"current_range_meters":8800,"station_id":"ce4bhh92rcd13ifvqfi0","pricing_plan_id":"cebpf4jnsgd1na2vs0mg"},{"bike_id":"cee61032-0806-419e-9a04-9a141cd1b646","system_id":"levelo_inurba_marseille","lat":43.29036,"lon":5.37561,"is_reserved":false,"is_disabled":false,"rental_uris":{"android":"levelo://app?vid=cee61032-0806-419e-9a04-9a141cd1b646","ios":"levelo://app?vid=cee61032-0806-419e-9a04-9a141cd1b646"},"vehicle_type_id":"4","last_reported":1749672644,"current_range_meters":9200,"station_id":"ce4bh692rcd13ifvqe90","pricing_plan_id":"cebpf4jnsgd1na2vs0mg"},{"bike_id":"a5d8bf67-e00f-4b3f-8720-d6497651122a","system_id":"levelo_inurba_marseille","lat":43.28443,"lon":5.34998,"is_reserved":false,"is_disabled":false,"rental_uris":{"android":"levelo://app?vid=a5d8bf67-e00f-4b3f-8720-d6497651122a","ios":"levelo://app?vid=a5d8bf67-e00f-4b3f-8720-d6497651122a"},"vehicle_type_id":"4","last_reported":1749672644,"current_range_meters":9200,"station_id":"ce4bhbh2rcd13ifvqepg","pricing_plan_id":"cebpf4jnsgd1na2vs0mg"},{"bike_id":"0c22a90a-2316-471e-b970-b8b570fbae44","system_id":"levelo_inurba_marseille","lat":43.31761,"lon":5.39017,"is_reserved":false,"is_disabled":false,"rental_uris":{"android":"levelo://app?vid=0c22a90a-2316-471e-b970-b8b570fbae44","ios":"levelo://app?vid=0c22a90a-2316-471e-b970-b8b570fbae44"},"vehicle_type_id":"4","last_reported":1749672644,"current_range_meters":9200,"station_id":"ce4bhqp2rcd13ifvqhng","pricing_plan_id":"cebpf4jnsgd1na2vs0mg"},{"bike_id":"70988bc6-594f-45b4-83eb-37d9fa0d8cc5","system_id":"levelo_inurba_marseille","lat":43.30257,"lon":5.40059,"is_reserved":false,"is_disabled":false,"rental_uris":{"android":"levelo://app?vid=70988bc6-594f-45b4-83eb-37d9fa0d8cc5","ios":"levelo://app?vid=70988bc6-594f-45b4-83eb-37d9fa0d8cc5"},"vehicle_type_id":"4","last_reported":1749672644,"current_range_meters":9600,"station_id":"ce4bgvh2rcd13ifvqcs0","pricing_plan_id":"cebpf4jnsgd1na2vs0mg"},{"bike_id":"bb8d963c-f5c0-4e68-a17d-40f45b2fd1bd","system_id":"levelo_inurba_marseille","lat":43.28619,"lon":5.35109,"is_reserved":false,"is_disabled":false,"rental_uris":{"android":"levelo://app?vid=bb8d963c-f5c0-4e68-a17d-40f45b2fd1bd","ios":"levelo://app?vid=bb8d963c-f5c0-4e68-a17d-40f45b2fd1bd"},"vehicle_type_id":"4","last_reported":1749672644,"current_range_meters":9600,"station_id":"ce4bhch2rcd13ifvqeug","pricing_plan_id":"cebpf4jnsgd1na2vs0mg"},{"bike_id":"5973208a-3c35-4f27-a4e7-fcb93fb1f411","system_id":"levelo_inurba_marseille","lat":43.294209,"lon":5.386123,"is_reserved":false,"is_disabled":false,"rental_uris":{"android":"levelo://app?vid=5973208a-3c35-4f27-a4e7-fcb93fb1f411","ios":"levelo://app?vid=5973208a-3c35-4f27-a4e7-fcb93fb1f411"},"vehicle_type_id":"4","last_reported":1749672644,"current_range_meters":10000,"station_id":"ce4bh2h2rcd13ifvqdh0","pricing_plan_id":"cebpf4jnsgd1na2vs0mg"},{"bike_id":"abb5c0f5-fd2d-4a3e-a30a-87a97c294f9b","system_id":"levelo_inurba_marseille","lat":43.283465,"lon":5.381065,"is_reserved":false,"is_disabled":false,"rental_uris":{"android":"levelo://app?vid=abb5c0f5-fd2d-4a3e-a30a-87a97c294f9b","ios":"levelo://app?vid=abb5c0f5-fd2d-4a3e-a30a-87a97c294f9b"},"vehicle_type_id":"4","last_reported":1749672644,"current_range_meters":10000,"station_id":"ce4bh412rcd13ifvqdr0","pricing_plan_id":"cebpf4jnsgd1na2vs0mg"},{"bike_id":"85274a9d-a0fb-46c5-a828-b8a66650baa9","system_id":"levelo_inurba_marseille","lat":43.28404,"lon":5.37506,"is_reserved":false,"is_disabled":false,"rental_uris":{"android":"levelo://app?vid=85274a9d-a0fb-46c5-a828-b8a66650baa9","ios":"levelo://app?vid=85274a9d-a0fb-46c5-a828-b8a66650baa9"},"vehicle_type_id":"4","last_reported":1749672644,"current_range_meters":10000,"station_id":"ce4bh412rcd13ifvqds0","pricing_plan_id":"cebpf4jnsgd1na2vs0mg"},{"bike_id":"1cf093e0-3c5f-4310-a1b5-a8bd10fa660d","system_id":"levelo_inurba_marseille","lat":43.28104,"lon":5.37838,"is_reserved":false,"is_disabled":false,"rental_uris":{"android":"levelo://app?vid=1cf093e0-3c5f-4310-a1b5-a8bd10fa660d","ios":"levelo://app?vid=1cf093e0-3c5f-4310-a1b5-a8bd10fa660d"},"vehicle_type_id":"4","last_reported":1749672644,"current_range_meters":10000,"station_id":"ce4bha12rcd13ifvqee0","pricing_plan_id":"cebpf4jnsgd1na2vs0mg"},{"bike_id":"7ebdfed7-2caf-4b6a-bf37-36b342845777","system_id":"levelo_inurba_marseille","lat":43.27971,"lon":5.38738,"is_reserved":false,"is_disabled":false,"rental_uris":{"android":"levelo://app?vid=7ebdfed7-2caf-4b6a-bf37-36b342845777","ios":"levelo://app?vid=7ebdfed7-2caf-4b6a-bf37-36b342845777"},"vehicle_type_id":"4","last_reported":1749672644,"current_range_meters":10000,"station_id":"ce4bhg12rcd13ifvqf80","pricing_plan_id":"cebpf4jnsgd1na2vs0mg"},{"bike_id":"84f5a926-1dd6-4535-b647-2764ce0ca103","system_id":"levelo_inurba_marseille","lat":43.32121,"lon":5.36778,"is_reserved":false,"is_disabled":false,"rental_uris":{"android":"levelo://app?vid=84f5a926-1dd6-4535-b647-2764ce0ca103","ios":"levelo://app?vid=84f5a926-1dd6-4535-b647-2764ce0ca103"},"vehicle_type_id":"4","last_reported":1749672644,"current_range_meters":10000,"station_id":"ce4bhrh2rcd13ifvqhug","pricing_plan_id":"cebpf4jnsgd1na2vs0mg"},{"bike_id":"c1ac01b6-e011-4f56-b71d-95203168d0f0","system_id":"levelo_inurba_marseille","lat":43.299064,"lon":5.381506,"is_reserved":false,"is_disabled":false,"rental_uris":{"android":"levelo://app?vid=c1ac01b6-e011-4f56-b71d-95203168d0f0","ios":"levelo://app?vid=c1ac01b6-e011-4f56-b71d-95203168d0f0"},"vehicle_type_id":"4","last_reported":1749672644,"current_range_meters":10800,"station_id":"ce4bgj12rcd13ifvqbc0","pricing_plan_id":"cebpf4jnsgd1na2vs0mg"},{"bike_id":"9747a3c4-e857-4ab7-9bb7-4de7e20453db","system_id":"levelo_inurba_marseille","lat":43.29251,"lon":5.38428,"is_reserved":false,"is_disabled":false,"rental_uris":{"android":"levelo://app?vid=9747a3c4-e857-4ab7-9bb7-4de7e20453db","ios":"levelo://app?vid=9747a3c4-e857-4ab7-9bb7-4de7e20453db"},"vehicle_type_id":"4","last_reported":1749672644,"current_range_meters":10800,"station_id":"ce4bh692rcd13ifvqea0","pricing_plan_id":"cebpf4jnsgd1na2vs0mg"},{"bike_id":"5e2328c0-149c-49a4-a884-8e5262a1ebad","system_id":"levelo_inurba_marseille","lat":43.29262,"lon":5.38445,"is_reserved":false,"is_disabled":false,"rental_uris":{"android":"levelo://app?vid=5e2328c0-149c-49a4-a884-8e5262a1ebad","ios":"levelo://app?vid=5e2328c0-149c-49a4-a884-8e5262a1ebad"},"vehicle_type_id":"4","last_reported":1749672644,"current_range_meters":10800,"station_id":"ce4bh692rcd13ifvqea0","pricing_plan_id":"cebpf4jnsgd1na2vs0mg"},{"bike_id":"f0efac9f-68cb-46b1-ae63-d592bf2cad02","system_id":"levelo_inurba_marseille","lat":43.2841,"lon":5.34974,"is_reserved":false,"is_disabled":false,"rental_uris":{"android":"levelo://app?vid=f0efac9f-68cb-46b1-ae63-d592bf2cad02","ios":"levelo://app?vid=f0efac9f-68cb-46b1-ae63-d592bf2cad02"},"vehicle_type_id":"4","last_reported":1749672644,"current_range_meters":10800,"station_id":"ce4bhbh2rcd13ifvqepg","pricing_plan_id":"cebpf4jnsgd1na2vs0mg"},{"bike_id":"50fe938f-a580-48ba-9868-a6c9a5734c0f","system_id":"levelo_inurba_marseille","lat":43.290205,"lon":5.386385,"is_reserved":false,"is_disabled":false,"rental_uris":{"android":"levelo://app?vid=50fe938f-a580-48ba-9868-a6c9a5734c0f","ios":"levelo://app?vid=50fe938f-a580-48ba-9868-a6c9a5734c0f"},"vehicle_type_id":"4","last_reported":1749672644,"current_range_meters":11200,"station_id":"ce4bh4p2rcd13ifvqe0g","pricing_plan_id":"cebpf4jnsgd1na2vs0mg"},{"bike_id":"1424ca46-6afd-4bfb-b52e-a41fd4c73931","system_id":"levelo_inurba_marseille","lat":43.29265,"lon":5.38435,"is_reserved":false,"is_disabled":false,"rental_uris":{"android":"levelo://app?vid=1424ca46-6afd-4bfb-b52e-a41fd4c73931","ios":"levelo://app?vid=1424ca46-6afd-4bfb-b52e-a41fd4c73931"},"vehicle_type_id":"4","last_reported":1749672644,"current_range_meters":11200,"station_id":"ce4bh692rcd13ifvqea0","pricing_plan_id":"cebpf4jnsgd1na2vs0mg"},{"bike_id":"ab3b208f-d2c9-4b82-85ad-f08b701ede5f","system_id":"levelo_inurba_marseille","lat":43.294151,"lon":5.386269,"is_reserved":false,"is_disabled":false,"rental_uris":{"android":"levelo://app?vid=ab3b208f-d2c9-4b82-85ad-f08b701ede5f","ios":"levelo://app?vid=ab3b208f-d2c9-4b82-85ad-f08b701ede5f"},"vehicle_type_id":"4","last_reported":1749672644,"current_range_meters":11600,"station_id":"ce4bh2h2rcd13ifvqdh0","pricing_plan_id":"cebpf4jnsgd1na2vs0mg"},{"bike_id":"99ac7e9d-504a-4a62-a30a-50edc6583f00","system_id":"levelo_inurba_marseille","lat":43.28615,"lon":5.351,"is_reserved":false,"is_disabled":false,"rental_uris":{"android":"levelo://app?vid=99ac7e9d-504a-4a62-a30a-50edc6583f00","ios":"levelo://app?vid=99ac7e9d-504a-4a62-a30a-50edc6583f00"},"vehicle_type_id":"4","last_reported":1749672644,"current_range_meters":11600,"station_id":"ce4bhch2rcd13ifvqeug","pricing_plan_id":"cebpf4jnsgd1na2vs0mg"},{"bike_id":"d348d3bf-5be7-4c44-884c-898c972b028f","system_id":"levelo_inurba_marseille","lat":43.26558,"lon":5.37285,"is_reserved":false,"is_disabled":false,"rental_uris":{"android":"levelo://app?vid=d348d3bf-5be7-4c44-884c-898c972b028f","ios":"levelo://app?vid=d348d3bf-5be7-4c44-884c-898c972b028f"},"vehicle_type_id":"4","last_reported":1749672644,"current_range_meters":11600,"station_id":"ce4bhg12rcd13ifvqf70","pricing_plan_id":"cebpf4jnsgd1na2vs0mg"},{"bike_id":"c6edfdc3-cd6e-441f-a718-33721acd308d","system_id":"levelo_inurba_marseille","lat":43.32328,"lon":5.40636,"is_reserved":false,"is_disabled":false,"rental_uris":{"android":"levelo://app?vid=c6edfdc3-cd6e-441f-a718-33721acd308d","ios":"levelo://app?vid=c6edfdc3-cd6e-441f-a718-33721acd308d"},"vehicle_type_id":"4","last_reported":1749672644,"current_range_meters":11600,"station_id":"ce4bhq92rcd13ifvqhjg","pricing_plan_id":"cebpf4jnsgd1na2vs0mg"},{"bike_id":"c81f5e32-10fd-4050-9062-9c375e4cabf0","system_id":"levelo_inurba_marseille","lat":43.29114,"lon":5.36636,"is_reserved":false,"is_disabled":false,"rental_uris":{"android":"levelo://app?vid=c81f5e32-10fd-4050-9062-9c375e4cabf0","ios":"levelo://app?vid=c81f5e32-10fd-4050-9062-9c375e4cabf0"},"vehicle_type_id":"4","last_reported":1749672644,"current_range_meters":12000,"station_id":"","pricing_plan_id":"cebpf4jnsgd1na2vs0mg"},{"bike_id":"917121e5-f491-4863-b595-15ac60ec1a1a","system_id":"levelo_inurba_marseille","lat":43.29721,"lon":5.36599,"is_reserved":false,"is_disabled":false,"rental_uris":{"android":"levelo://app?vid=917121e5-f491-4863-b595-15ac60ec1a1a","ios":"levelo://app?vid=917121e5-f491-4863-b595-15ac60ec1a1a"},"vehicle_type_id":"4","last_reported":1749672644,"current_range_meters":12000,"station_id":"ce4bgn12rcd13ifvqbt0","pricing_plan_id":"cebpf4jnsgd1na2vs0mg"},{"bike_id":"614c1cea-3454-4f06-9c69-bc56f3c1254c","system_id":"levelo_inurba_marseille","lat":43.30949,"lon":5.39021,"is_reserved":false,"is_disabled":false,"rental_uris":{"android":"levelo://app?vid=614c1cea-3454-4f06-9c69-bc56f3c1254c","ios":"levelo://app?vid=614c1cea-3454-4f06-9c69-bc56f3c1254c"},"vehicle_type_id":"4","last_reported":1749672644,"current_range_meters":12000,"station_id":"ce4bgup2rcd13ifvqco0","pricing_plan_id":"cebpf4jnsgd1na2vs0mg"},{"bike_id":"e7d59380-bcad-4452-aee3-3b408d0984f3","system_id":"levelo_inurba_marseille","lat":43.30082,"lon":5.39076,"is_reserved":false,"is_disabled":false,"rental_uris":{"android":"levelo://app?vid=e7d59380-bcad-4452-aee3-3b408d0984f3","ios":"levelo://app?vid=e7d59380-bcad-4452-aee3-3b408d0984f3"},"vehicle_type_id":"4","last_reported":1749672644,"current_range_meters":12000,"station_id":"ce4bh192rcd13ifvqdb0","pricing_plan_id":"cebpf4jnsgd1na2vs0mg"},{"bike_id":"387cdfc9-0de6-401f-90ac-9ee972ae0f89","system_id":"levelo_inurba_marseille","lat":43.2867,"lon":5.38661,"is_reserved":false,"is_disabled":false,"rental_uris":{"android":"levelo://app?vid=387cdfc9-0de6-401f-90ac-9ee972ae0f89","ios":"levelo://app?vid=387cdfc9-0de6-401f-90ac-9ee972ae0f89"},"vehicle_type_id":"4","last_reported":1749672644,"current_range_meters":12000,"station_id":"ce4bh492rcd13ifvqdug","pricing_plan_id":"cebpf4jnsgd1na2vs0mg"},{"bike_id":"451dbcf7-69ca-44c8-be22-8c32346dd0d2","system_id":"levelo_inurba_marseille","lat":43.28678,"lon":5.36355,"is_reserved":false,"is_disabled":false,"rental_uris":{"android":"levelo://app?vid=451dbcf7-69ca-44c8-be22-8c32346dd0d2","ios":"levelo://app?vid=451dbcf7-69ca-44c8-be22-8c32346dd0d2"},"vehicle_type_id":"4","last_reported":1749672644,"current_range_meters":12000,"station_id":"ce4bhah2rcd13ifvqej0","pricing_plan_id":"cebpf4jnsgd1na2vs0mg"},{"bike_id":"e70c17ea-cf15-4cd8-8ca9-87d54374f23f","system_id":"levelo_inurba_marseille","lat":43.2863,"lon":5.35104,"is_reserved":false,"is_disabled":false,"rental_uris":{"android":"levelo://app?vid=e70c17ea-cf15-4cd8-8ca9-87d54374f23f","ios":"levelo://app?vid=e70c17ea-cf15-4cd8-8ca9-87d54374f23f"},"vehicle_type_id":"4","last_reported":1749672644,"current_range_meters":12000,"station_id":"ce4bhch2rcd13ifvqeug","pricing_plan_id":"cebpf4jnsgd1na2vs0mg"},{"bike_id":"3b97e0ee-566f-48ee-9a91-4415d8cb60cd","system_id":"levelo_inurba_marseille","lat":43.25581,"lon":5.38232,"is_reserved":false,"is_disabled":false,"rental_uris":{"android":"levelo://app?vid=3b97e0ee-566f-48ee-9a91-4415d8cb60cd","ios":"levelo://app?vid=3b97e0ee-566f-48ee-9a91-4415d8cb60cd"},"vehicle_type_id":"4","last_reported":1749672644,"current_range_meters":12000,"station_id":"ce4bhih2rcd13ifvqfs0","pricing_plan_id":"cebpf4jnsgd1na2vs0mg"},{"bike_id":"10690812-c8bd-45a6-b4d4-2dbcd5909337","system_id":"levelo_inurba_marseille","lat":43.25869,"lon":5.39895,"is_reserved":false,"is_disabled":false,"rental_uris":{"android":"levelo://app?vid=10690812-c8bd-45a6-b4d4-2dbcd5909337","ios":"levelo://app?vid=10690812-c8bd-45a6-b4d4-2dbcd5909337"},"vehicle_type_id":"4","last_reported":1749672644,"current_range_meters":12000,"station_id":"ce4bhl92rcd13ifvqghg","pricing_plan_id":"cebpf4jnsgd1na2vs0mg"},{"bike_id":"5b05ad8a-dadd-4dc1-bdfc-5a12be69bdae","system_id":"levelo_inurba_marseille","lat":43.31873,"lon":5.4028,"is_reserved":false,"is_disabled":false,"rental_uris":{"android":"levelo://app?vid=5b05ad8a-dadd-4dc1-bdfc-5a12be69bdae","ios":"levelo://app?vid=5b05ad8a-dadd-4dc1-bdfc-5a12be69bdae"},"vehicle_type_id":"4","last_reported":1749672644,"current_range_meters":12400,"station_id":"","pricing_plan_id":"cebpf4jnsgd1na2vs0mg"},{"bike_id":"91252cb4-db98-4cff-ba49-0337a6eacf8f","system_id":"levelo_inurba_marseille","lat":43.31977,"lon":5.38809,"is_reserved":false,"is_disabled":false,"rental_uris":{"android":"levelo://app?vid=91252cb4-db98-4cff-ba49-0337a6eacf8f","ios":"levelo://app?vid=91252cb4-db98-4cff-ba49-0337a6eacf8f"},"vehicle_type_id":"4","last_reported":1749672644,"current_range_meters":12400,"station_id":"","pricing_plan_id":"cebpf4jnsgd1na2vs0mg"},{"bike_id":"b328e078-8016-4dd5-982f-04b693432695","system_id":"levelo_inurba_marseille","lat":43.29921,"lon":5.37476,"is_reserved":false,"is_disabled":false,"rental_uris":{"android":"levelo://app?vid=b328e078-8016-4dd5-982f-04b693432695","ios":"levelo://app?vid=b328e078-8016-4dd5-982f-04b693432695"},"vehicle_type_id":"4","last_reported":1749672644,"current_range_meters":12400,"station_id":"ce4bgjh2rcd13ifvqbg0","pricing_plan_id":"cebpf4jnsgd1na2vs0mg"},{"bike_id":"1edf3646-081b-48c4-99ef-6234d173a5fa","system_id":"levelo_inurba_marseille","lat":43.30594,"lon":5.37214,"is_reserved":false,"is_disabled":false,"rental_uris":{"android":"levelo://app?vid=1edf3646-081b-48c4-99ef-6234d173a5fa","ios":"levelo://app?vid=1edf3646-081b-48c4-99ef-6234d173a5fa"},"vehicle_type_id":"4","last_reported":1749672644,"current_range_meters":12400,"station_id":"ce4bgqh2rcd13ifvqc4g","pricing_plan_id":"cebpf4jnsgd1na2vs0mg"},{"bike_id":"c9bf68a9-3353-43a2-8402-1ef0d18dd3cb","system_id":"levelo_inurba_marseille","lat":43.30647,"lon":5.40088,"is_reserved":false,"is_disabled":false,"rental_uris":{"android":"levelo://app?vid=c9bf68a9-3353-43a2-8402-1ef0d18dd3cb","ios":"levelo://app?vid=c9bf68a9-3353-43a2-8402-1ef0d18dd3cb"},"vehicle_type_id":"4","last_reported":1749672644,"current_range_meters":12400,"station_id":"ce4bh112rcd13ifvqda0","pricing_plan_id":"cebpf4jnsgd1na2vs0mg"},{"bike_id":"3b288e0d-f860-434b-ab76-2fa310b25a17","system_id":"levelo_inurba_marseille","lat":43.26807,"lon":5.40271,"is_reserved":false,"is_disabled":false,"rental_uris":{"android":"levelo://app?vid=3b288e0d-f860-434b-ab76-2fa310b25a17","ios":"levelo://app?vid=3b288e0d-f860-434b-ab76-2fa310b25a17"},"vehicle_type_id":"4","last_reported":1749672644,"current_range_meters":12400,"station_id":"ce501612rcd8frsf0b60","pricing_plan_id":"cebpf4jnsgd1na2vs0mg"},{"bike_id":"e0157195-0cce-4c00-8719-e35143d5d077","system_id":"levelo_inurba_marseille","lat":43.30947,"lon":5.39026,"is_reserved":false,"is_disabled":false,"rental_uris":{"android":"levelo://app?vid=e0157195-0cce-4c00-8719-e35143d5d077","ios":"levelo://app?vid=e0157195-0cce-4c00-8719-e35143d5d077"},"vehicle_type_id":"4","last_reported":1749672644,"current_range_meters":12800,"station_id":"ce4bgup2rcd13ifvqco0","pricing_plan_id":"cebpf4jnsgd1na2vs0mg"},{"bike_id":"cb02af0b-4e5b-4fd3-8ba9-baa585643cd3","system_id":"levelo_inurba_marseille","lat":43.31326,"lon":5.39694,"is_reserved":false,"is_disabled":false,"rental_uris":{"android":"levelo://app?vid=cb02af0b-4e5b-4fd3-8ba9-baa585643cd3","ios":"levelo://app?vid=cb02af0b-4e5b-4fd3-8ba9-baa585643cd3"},"vehicle_type_id":"4","last_reported":1749672644,"current_range_meters":12800,"station_id":"ce4bgvp2rcd13ifvqcu0","pricing_plan_id":"cebpf4jnsgd1na2vs0mg"},{"bike_id":"01e6000e-5ce5-4a45-8eef-b86afb7209ef","system_id":"levelo_inurba_marseille","lat":43.28853,"lon":5.39331,"is_reserved":false,"is_disabled":false,"rental_uris":{"android":"levelo://app?vid=01e6000e-5ce5-4a45-8eef-b86afb7209ef","ios":"levelo://app?vid=01e6000e-5ce5-4a45-8eef-b86afb7209ef"},"vehicle_type_id":"4","last_reported":1749672644,"current_range_meters":12800,"station_id":"ce4bh2p2rcd13ifvqdi0","pricing_plan_id":"cebpf4jnsgd1na2vs0mg"},{"bike_id":"8da7d559-05bd-4788-8576-9e3f906cfb37","system_id":"levelo_inurba_marseille","lat":43.29041,"lon":5.38667,"is_reserved":false,"is_disabled":false,"rental_uris":{"android":"levelo://app?vid=8da7d559-05bd-4788-8576-9e3f906cfb37","ios":"levelo://app?vid=8da7d559-05bd-4788-8576-9e3f906cfb37"},"vehicle_type_id":"4","last_reported":1749672644,"current_range_meters":12800,"station_id":"ce4bh4p2rcd13ifvqe0g","pricing_plan_id":"cebpf4jnsgd1na2vs0mg"},{"bike_id":"8105426e-eb6c-4b79-bfaa-254c1b037d55","system_id":"levelo_inurba_marseille","lat":43.32362,"lon":5.36755,"is_reserved":false,"is_disabled":false,"rental_uris":{"android":"levelo://app?vid=8105426e-eb6c-4b79-bfaa-254c1b037d55","ios":"levelo://app?vid=8105426e-eb6c-4b79-bfaa-254c1b037d55"},"vehicle_type_id":"4","last_reported":1749672644,"current_range_meters":12800,"station_id":"ce4bhsh2rcd13ifvqi2g","pricing_plan_id":"cebpf4jnsgd1na2vs0mg"},{"bike_id":"a2421370-e442-436f-a98a-844d44299694","system_id":"levelo_inurba_marseille","lat":43.32387,"lon":5.36736,"is_reserved":false,"is_disabled":false,"rental_uris":{"android":"levelo://app?vid=a2421370-e442-436f-a98a-844d44299694","ios":"levelo://app?vid=a2421370-e442-436f-a98a-844d44299694"},"vehicle_type_id":"4","last_reported":1749672644,"current_range_meters":13600,"station_id":"","pricing_plan_id":"cebpf4jnsgd1na2vs0mg"},{"bike_id":"e5ff82fd-cc37-4e1f-aade-050998fb0f61","system_id":"levelo_inurba_marseille","lat":43.26262,"lon":5.37083,"is_reserved":false,"is_disabled":false,"rental_uris":{"android":"levelo://app?vid=e5ff82fd-cc37-4e1f-aade-050998fb0f61","ios":"levelo://app?vid=e5ff82fd-cc37-4e1f-aade-050998fb0f61"},"vehicle_type_id":"4","last_reported":1749672644,"current_range_meters":13600,"station_id":"","pricing_plan_id":"cebpf4jnsgd1na2vs0mg"},{"bike_id":"751bd1d1-e299-4687-a355-50cdb0fff524","system_id":"levelo_inurba_marseille","lat":43.30188,"lon":5.36626,"is_reserved":false,"is_disabled":false,"rental_uris":{"android":"levelo://app?vid=751bd1d1-e299-4687-a355-50cdb0fff524","ios":"levelo://app?vid=751bd1d1-e299-4687-a355-50cdb0fff524"},"vehicle_type_id":"4","last_reported":1749672644,"current_range_meters":13600,"station_id":"ce4bgrh2rcd13ifvqc8g","pricing_plan_id":"cebpf4jnsgd1na2vs0mg"},{"bike_id":"890cd41b-38dc-46ec-9dc0-391e6a99b544","system_id":"levelo_inurba_marseille","lat":43.30883,"lon":5.39657,"is_reserved":false,"is_disabled":false,"rental_uris":{"android":"levelo://app?vid=890cd41b-38dc-46ec-9dc0-391e6a99b544","ios":"levelo://app?vid=890cd41b-38dc-46ec-9dc0-391e6a99b544"},"vehicle_type_id":"4","last_reported":1749672644,"current_range_meters":13600,"station_id":"ce4bh012rcd13ifvqcv0","pricing_plan_id":"cebpf4jnsgd1na2vs0mg"},{"bike_id":"0ae4f5e6-b319-4c3b-901c-6610ac77ab83","system_id":"levelo_inurba_marseille","lat":43.28416,"lon":5.37505,"is_reserved":false,"is_disabled":false,"rental_uris":{"android":"levelo://app?vid=0ae4f5e6-b319-4c3b-901c-6610ac77ab83","ios":"levelo://app?vid=0ae4f5e6-b319-4c3b-901c-6610ac77ab83"},"vehicle_type_id":"4","last_reported":1749672644,"current_range_meters":13600,"station_id":"ce4bh412rcd13ifvqds0","pricing_plan_id":"cebpf4jnsgd1na2vs0mg"},{"bike_id":"c3a82885-2b55-459d-82d6-8e2407740dab","system_id":"levelo_inurba_marseille","lat":43.24799,"lon":5.37452,"is_reserved":false,"is_disabled":false,"rental_uris":{"android":"levelo://app?vid=c3a82885-2b55-459d-82d6-8e2407740dab","ios":"levelo://app?vid=c3a82885-2b55-459d-82d6-8e2407740dab"},"vehicle_type_id":"4","last_reported":1749672644,"current_range_meters":13600,"station_id":"ce4bhgh2rcd13ifvqfb0","pricing_plan_id":"cebpf4jnsgd1na2vs0mg"},{"bike_id":"640c2017-86dc-487c-a9f4-f3964a220af0","system_id":"levelo_inurba_marseille","lat":43.24077,"lon":5.37734,"is_reserved":false,"is_disabled":false,"rental_uris":{"android":"levelo://app?vid=640c2017-86dc-487c-a9f4-f3964a220af0","ios":"levelo://app?vid=640c2017-86dc-487c-a9f4-f3964a220af0"},"vehicle_type_id":"4","last_reported":1749672644,"current_range_meters":13600,"station_id":"ce4bhnp2rcd13ifvqgvg","pricing_plan_id":"cebpf4jnsgd1na2vs0mg"},{"bike_id":"64fb63da-c8a1-4b07-bc53-c1f4246d8cbd","system_id":"levelo_inurba_marseille","lat":43.29538,"lon":5.38545,"is_reserved":false,"is_disabled":false,"rental_uris":{"android":"levelo://app?vid=64fb63da-c8a1-4b07-bc53-c1f4246d8cbd","ios":"levelo://app?vid=64fb63da-c8a1-4b07-bc53-c1f4246d8cbd"},"vehicle_type_id":"4","last_reported":1749672644,"current_range_meters":14000,"station_id":"ce4bgih2rcd13ifvqba0","pricing_plan_id":"cebpf4jnsgd1na2vs0mg"},{"bike_id":"631b34d3-c10f-40bd-bacb-71d34917979a","system_id":"levelo_inurba_marseille","lat":43.309508,"lon":5.390308,"is_reserved":false,"is_disabled":false,"rental_uris":{"android":"levelo://app?vid=631b34d3-c10f-40bd-bacb-71d34917979a","ios":"levelo://app?vid=631b34d3-c10f-40bd-bacb-71d34917979a"},"vehicle_type_id":"4","last_reported":1749672644,"current_range_meters":14000,"station_id":"ce4bgup2rcd13ifvqco0","pricing_plan_id":"cebpf4jnsgd1na2vs0mg"},{"bike_id":"22392492-89fd-4b4c-960b-1ce96717ca66","system_id":"levelo_inurba_marseille","lat":43.31175,"lon":5.3872,"is_reserved":false,"is_disabled":false,"rental_uris":{"android":"levelo://app?vid=22392492-89fd-4b4c-960b-1ce96717ca66","ios":"levelo://app?vid=22392492-89fd-4b4c-960b-1ce96717ca66"},"vehicle_type_id":"4","last_reported":1749672644,"current_range_meters":14000,"station_id":"ce4bgv12rcd13ifvqcp0","pricing_plan_id":"cebpf4jnsgd1na2vs0mg"},{"bike_id":"44aca783-a235-4df5-b2a0-2b55b28f4fcd","system_id":"levelo_inurba_marseille","lat":43.30932,"lon":5.40148,"is_reserved":false,"is_disabled":false,"rental_uris":{"android":"levelo://app?vid=44aca783-a235-4df5-b2a0-2b55b28f4fcd","ios":"levelo://app?vid=44aca783-a235-4df5-b2a0-2b55b28f4fcd"},"vehicle_type_id":"4","last_reported":1749672644,"current_range_meters":14000,"station_id":"ce4bgvp2rcd13ifvqct0","pricing_plan_id":"cebpf4jnsgd1na2vs0mg"},{"bike_id":"6e77bde1-ad59-4fc2-b85a-e15b57a872e0","system_id":"levelo_inurba_marseille","lat":43.295216,"lon":5.394106,"is_reserved":false,"is_disabled":false,"rental_uris":{"android":"levelo://app?vid=6e77bde1-ad59-4fc2-b85a-e15b57a872e0","ios":"levelo://app?vid=6e77bde1-ad59-4fc2-b85a-e15b57a872e0"},"vehicle_type_id":"4","last_reported":1749672644,"current_range_meters":14000,"station_id":"ce4bh292rcd13ifvqdf0","pricing_plan_id":"cebpf4jnsgd1na2vs0mg"},{"bike_id":"569ee613-7295-4d42-8497-75d2881c4406","system_id":"levelo_inurba_marseille","lat":43.27493,"lon":5.42453,"is_reserved":false,"is_disabled":false,"rental_uris":{"android":"levelo://app?vid=569ee613-7295-4d42-8497-75d2881c4406","ios":"levelo://app?vid=569ee613-7295-4d42-8497-75d2881c4406"},"vehicle_type_id":"4","last_reported":1749672644,"current_range_meters":14000,"station_id":"ce4bhn92rcd13ifvqgrg","pricing_plan_id":"cebpf4jnsgd1na2vs0mg"},{"bike_id":"613b10c6-811b-46ce-82a3-9763b128afa0","system_id":"levelo_inurba_marseille","lat":43.2943,"lon":5.39748,"is_reserved":false,"is_disabled":false,"rental_uris":{"android":"levelo://app?vid=613b10c6-811b-46ce-82a3-9763b128afa0","ios":"levelo://app?vid=613b10c6-811b-46ce-82a3-9763b128afa0"},"vehicle_type_id":"4","last_reported":1749672644,"current_range_meters":14400,"station_id":"ce4bh3h2rcd13ifvqdo0","pricing_plan_id":"cebpf4jnsgd1na2vs0mg"},{"bike_id":"84d375a7-dc19-430a-ab18-317ace3ab3c5","system_id":"levelo_inurba_marseille","lat":43.27504,"lon":5.42444,"is_reserved":false,"is_disabled":false,"rental_uris":{"android":"levelo://app?vid=84d375a7-dc19-430a-ab18-317ace3ab3c5","ios":"levelo://app?vid=84d375a7-dc19-430a-ab18-317ace3ab3c5"},"vehicle_type_id":"4","last_reported":1749672644,"current_range_meters":14400,"station_id":"ce4bhn92rcd13ifvqgrg","pricing_plan_id":"cebpf4jnsgd1na2vs0mg"},{"bike_id":"b868eaf1-390f-454e-b101-6dab88922e4f","system_id":"levelo_inurba_marseille","lat":43.28074,"lon":5.39656,"is_reserved":false,"is_disabled":false,"rental_uris":{"android":"levelo://app?vid=b868eaf1-390f-454e-b101-6dab88922e4f","ios":"levelo://app?vid=b868eaf1-390f-454e-b101-6dab88922e4f"},"vehicle_type_id":"4","last_reported":1749672644,"current_range_meters":14400,"station_id":"ce4bho12rcd13ifvqh2g","pricing_plan_id":"cebpf4jnsgd1na2vs0mg"},{"bike_id":"6dfd5595-654e-42ee-8e58-2a5c3df13ff8","system_id":"levelo_inurba_marseille","lat":43.30965,"lon":5.37269,"is_reserved":false,"is_disabled":false,"rental_uris":{"android":"levelo://app?vid=6dfd5595-654e-42ee-8e58-2a5c3df13ff8","ios":"levelo://app?vid=6dfd5595-654e-42ee-8e58-2a5c3df13ff8"},"vehicle_type_id":"4","last_reported":1749672644,"current_range_meters":14800,"station_id":"","pricing_plan_id":"cebpf4jnsgd1na2vs0mg"},{"bike_id":"80b28675-5ef0-4929-ba6d-9e76fbc5b6d5","system_id":"levelo_inurba_marseille","lat":43.29506,"lon":5.37509,"is_reserved":false,"is_disabled":false,"rental_uris":{"android":"levelo://app?vid=80b28675-5ef0-4929-ba6d-9e76fbc5b6d5","ios":"levelo://app?vid=80b28675-5ef0-4929-ba6d-9e76fbc5b6d5"},"vehicle_type_id":"4","last_reported":1749672644,"current_range_meters":14800,"station_id":"ce4bgkp2rcd13ifvqbmg","pricing_plan_id":"cebpf4jnsgd1na2vs0mg"},{"bike_id":"c703d846-8a6d-4d0c-9f85-e9fd5d561c3d","system_id":"levelo_inurba_marseille","lat":43.29018,"lon":5.38134,"is_reserved":false,"is_disabled":false,"rental_uris":{"android":"levelo://app?vid=c703d846-8a6d-4d0c-9f85-e9fd5d561c3d","ios":"levelo://app?vid=c703d846-8a6d-4d0c-9f85-e9fd5d561c3d"},"vehicle_type_id":"4","last_reported":1749672644,"current_range_meters":14800,"station_id":"ce4bh4p2rcd13ifvqe1g","pricing_plan_id":"cebpf4jnsgd1na2vs0mg"},{"bike_id":"c36d22b3-7377-4ccc-bf83-f5ec41fda982","system_id":"levelo_inurba_marseille","lat":43.29264,"lon":5.38432,"is_reserved":false,"is_disabled":false,"rental_uris":{"android":"levelo://app?vid=c36d22b3-7377-4ccc-bf83-f5ec41fda982","ios":"levelo://app?vid=c36d22b3-7377-4ccc-bf83-f5ec41fda982"},"vehicle_type_id":"4","last_reported":1749672644,"current_range_meters":14800,"station_id":"ce4bh692rcd13ifvqea0","pricing_plan_id":"cebpf4jnsgd1na2vs0mg"},{"bike_id":"eaa22867-e9a5-41e6-b446-2c83571e963b","system_id":"levelo_inurba_marseille","lat":43.29724,"lon":5.377127,"is_reserved":false,"is_disabled":false,"rental_uris":{"android":"levelo://app?vid=eaa22867-e9a5-41e6-b446-2c83571e963b","ios":"levelo://app?vid=eaa22867-e9a5-41e6-b446-2c83571e963b"},"vehicle_type_id":"4","last_reported":1749672644,"current_range_meters":15200,"station_id":"ce4bgkh2rcd13ifvqbl0","pricing_plan_id":"cebpf4jnsgd1na2vs0mg"},{"bike_id":"b4066818-921b-4ded-a2e2-5e7e671ad7aa","system_id":"levelo_inurba_marseille","lat":43.25087,"lon":5.39525,"is_reserved":false,"is_disabled":false,"rental_uris":{"android":"levelo://app?vid=b4066818-921b-4ded-a2e2-5e7e671ad7aa","ios":"levelo://app?vid=b4066818-921b-4ded-a2e2-5e7e671ad7aa"},"vehicle_type_id":"4","last_reported":1749672644,"current_range_meters":15200,"station_id":"ce4bhm12rcd13ifvqgkg","pricing_plan_id":"cebpf4jnsgd1na2vs0mg"},{"bike_id":"a862a7ea-a61d-4008-91de-fa6d1aba1ad4","system_id":"levelo_inurba_marseille","lat":43.27999,"lon":5.41665,"is_reserved":false,"is_disabled":false,"rental_uris":{"android":"levelo://app?vid=a862a7ea-a61d-4008-91de-fa6d1aba1ad4","ios":"levelo://app?vid=a862a7ea-a61d-4008-91de-fa6d1aba1ad4"},"vehicle_type_id":"4","last_reported":1749672644,"current_range_meters":15200,"station_id":"ce4bho12rcd13ifvqh1g","pricing_plan_id":"cebpf4jnsgd1na2vs0mg"},{"bike_id":"9da0f625-8d8e-45dc-b879-598279e4aeb6","system_id":"levelo_inurba_marseille","lat":43.31872,"lon":5.40726,"is_reserved":false,"is_disabled":false,"rental_uris":{"android":"levelo://app?vid=9da0f625-8d8e-45dc-b879-598279e4aeb6","ios":"levelo://app?vid=9da0f625-8d8e-45dc-b879-598279e4aeb6"},"vehicle_type_id":"4","last_reported":1749672644,"current_range_meters":15200,"station_id":"ce4bhq12rcd13ifvqhig","pricing_plan_id":"cebpf4jnsgd1na2vs0mg"},{"bike_id":"048f2f2b-8e86-4fe8-80fa-0a30dafb1ed2","system_id":"levelo_inurba_marseille","lat":43.298596,"lon":5.362928,"is_reserved":false,"is_disabled":false,"rental_uris":{"android":"levelo://app?vid=048f2f2b-8e86-4fe8-80fa-0a30dafb1ed2","ios":"levelo://app?vid=048f2f2b-8e86-4fe8-80fa-0a30dafb1ed2"},"vehicle_type_id":"4","last_reported":1749672644,"current_range_meters":16000,"station_id":"","pricing_plan_id":"cebpf4jnsgd1na2vs0mg"},{"bike_id":"c8acc72b-5ece-4e56-907d-33af210c0702","system_id":"levelo_inurba_marseille","lat":43.26208,"lon":5.37039,"is_reserved":false,"is_disabled":false,"rental_uris":{"android":"levelo://app?vid=c8acc72b-5ece-4e56-907d-33af210c0702","ios":"levelo://app?vid=c8acc72b-5ece-4e56-907d-33af210c0702"},"vehicle_type_id":"4","last_reported":1749672644,"current_range_meters":16000,"station_id":"","pricing_plan_id":"cebpf4jnsgd1na2vs0mg"},{"bike_id":"ce1d990d-c5e9-47f2-ace7-119ee1692ecd","system_id":"levelo_inurba_marseille","lat":43.29531,"lon":5.38545,"is_reserved":false,"is_disabled":false,"rental_uris":{"android":"levelo://app?vid=ce1d990d-c5e9-47f2-ace7-119ee1692ecd","ios":"levelo://app?vid=ce1d990d-c5e9-47f2-ace7-119ee1692ecd"},"vehicle_type_id":"4","last_reported":1749672644,"current_range_meters":16000,"station_id":"ce4bgih2rcd13ifvqba0","pricing_plan_id":"cebpf4jnsgd1na2vs0mg"},{"bike_id":"6ad8d1aa-02aa-448a-84a2-430b829aa10d","system_id":"levelo_inurba_marseille","lat":43.29973,"lon":5.38496,"is_reserved":false,"is_disabled":false,"rental_uris":{"android":"levelo://app?vid=6ad8d1aa-02aa-448a-84a2-430b829aa10d","ios":"levelo://app?vid=6ad8d1aa-02aa-448a-84a2-430b829aa10d"},"vehicle_type_id":"4","last_reported":1749672644,"current_range_meters":16000,"station_id":"ce4bgj92rcd13ifvqbd0","pricing_plan_id":"cebpf4jnsgd1na2vs0mg"},{"bike_id":"c1f50d61-672b-4319-8e90-1ccaf3dfe250","system_id":"levelo_inurba_marseille","lat":43.31362,"lon":5.39679,"is_reserved":false,"is_disabled":false,"rental_uris":{"android":"levelo://app?vid=c1f50d61-672b-4319-8e90-1ccaf3dfe250","ios":"levelo://app?vid=c1f50d61-672b-4319-8e90-1ccaf3dfe250"},"vehicle_type_id":"4","last_reported":1749672644,"current_range_meters":16000,"station_id":"ce4bgvp2rcd13ifvqcu0","pricing_plan_id":"cebpf4jnsgd1na2vs0mg"},{"bike_id":"2b72c1b9-5141-487a-8c46-0dacf2fc5bb7","system_id":"levelo_inurba_marseille","lat":43.28411,"lon":5.37508,"is_reserved":false,"is_disabled":false,"rental_uris":{"android":"levelo://app?vid=2b72c1b9-5141-487a-8c46-0dacf2fc5bb7","ios":"levelo://app?vid=2b72c1b9-5141-487a-8c46-0dacf2fc5bb7"},"vehicle_type_id":"4","last_reported":1749672644,"current_range_meters":16000,"station_id":"ce4bh412rcd13ifvqds0","pricing_plan_id":"cebpf4jnsgd1na2vs0mg"},{"bike_id":"b0ad9193-808e-4359-9c20-84d81e92d4fd","system_id":"levelo_inurba_marseille","lat":43.29027,"lon":5.38647,"is_reserved":false,"is_disabled":false,"rental_uris":{"android":"levelo://app?vid=b0ad9193-808e-4359-9c20-84d81e92d4fd","ios":"levelo://app?vid=b0ad9193-808e-4359-9c20-84d81e92d4fd"},"vehicle_type_id":"4","last_reported":1749672644,"current_range_meters":16000,"station_id":"ce4bh4p2rcd13ifvqe0g","pricing_plan_id":"cebpf4jnsgd1na2vs0mg"},{"bike_id":"6a5a7c02-27fc-49e6-814f-c82310ca8afa","system_id":"levelo_inurba_marseille","lat":43.29265,"lon":5.38425,"is_reserved":false,"is_disabled":false,"rental_uris":{"android":"levelo://app?vid=6a5a7c02-27fc-49e6-814f-c82310ca8afa","ios":"levelo://app?vid=6a5a7c02-27fc-49e6-814f-c82310ca8afa"},"vehicle_type_id":"4","last_reported":1749672644,"current_range_meters":16000,"station_id":"ce4bh692rcd13ifvqea0","pricing_plan_id":"cebpf4jnsgd1na2vs0mg"},{"bike_id":"165ecccf-321b-45ee-abfd-553d9801aac0","system_id":"levelo_inurba_marseille","lat":43.290453,"lon":5.355887,"is_reserved":false,"is_disabled":false,"rental_uris":{"android":"levelo://app?vid=165ecccf-321b-45ee-abfd-553d9801aac0","ios":"levelo://app?vid=165ecccf-321b-45ee-abfd-553d9801aac0"},"vehicle_type_id":"4","last_reported":1749672644,"current_range_meters":16000,"station_id":"ce4bhb92rcd13ifvqen0","pricing_plan_id":"cebpf4jnsgd1na2vs0mg"},{"bike_id":"473ca4da-1636-40de-a33c-8b3d26d01b3f","system_id":"levelo_inurba_marseille","lat":43.28591,"lon":5.35115,"is_reserved":false,"is_disabled":false,"rental_uris":{"android":"levelo://app?vid=473ca4da-1636-40de-a33c-8b3d26d01b3f","ios":"levelo://app?vid=473ca4da-1636-40de-a33c-8b3d26d01b3f"},"vehicle_type_id":"4","last_reported":1749672644,"current_range_meters":16000,"station_id":"ce4bhch2rcd13ifvqeug","pricing_plan_id":"cebpf4jnsgd1na2vs0mg"},{"bike_id":"00e80b5b-9ba8-4d44-93ae-7aabaf6dc5c7","system_id":"levelo_inurba_marseille","lat":43.24812,"lon":5.37457,"is_reserved":false,"is_disabled":false,"rental_uris":{"android":"levelo://app?vid=00e80b5b-9ba8-4d44-93ae-7aabaf6dc5c7","ios":"levelo://app?vid=00e80b5b-9ba8-4d44-93ae-7aabaf6dc5c7"},"vehicle_type_id":"4","last_reported":1749672644,"current_range_meters":16000,"station_id":"ce4bhgh2rcd13ifvqfb0","pricing_plan_id":"cebpf4jnsgd1na2vs0mg"},{"bike_id":"743245d4-5457-49b9-9efc-d95c90d69b8e","system_id":"levelo_inurba_marseille","lat":43.314873,"lon":5.373081,"is_reserved":false,"is_disabled":false,"rental_uris":{"android":"levelo://app?vid=743245d4-5457-49b9-9efc-d95c90d69b8e","ios":"levelo://app?vid=743245d4-5457-49b9-9efc-d95c90d69b8e"},"vehicle_type_id":"4","last_reported":1749672644,"current_range_meters":16000,"station_id":"ce4bhip2rcd13ifvqft0","pricing_plan_id":"cebpf4jnsgd1na2vs0mg"},{"bike_id":"51c9c3d1-050f-47d1-8726-c1814cd19d79","system_id":"levelo_inurba_marseille","lat":43.3125,"lon":5.38907,"is_reserved":false,"is_disabled":false,"rental_uris":{"android":"levelo://app?vid=51c9c3d1-050f-47d1-8726-c1814cd19d79","ios":"levelo://app?vid=51c9c3d1-050f-47d1-8726-c1814cd19d79"},"vehicle_type_id":"4","last_reported":1749672644,"current_range_meters":16400,"station_id":"","pricing_plan_id":"cebpf4jnsgd1na2vs0mg"},{"bike_id":"c0bd4251-d527-48a7-9378-e4e80c1c274f","system_id":"levelo_inurba_marseille","lat":43.31827,"lon":5.37372,"is_reserved":false,"is_disabled":false,"rental_uris":{"android":"levelo://app?vid=c0bd4251-d527-48a7-9378-e4e80c1c274f","ios":"levelo://app?vid=c0bd4251-d527-48a7-9378-e4e80c1c274f"},"vehicle_type_id":"4","last_reported":1749672644,"current_range_meters":16800,"station_id":"","pricing_plan_id":"cebpf4jnsgd1na2vs0mg"},{"bike_id":"501fe5cc-ec9f-4031-8e12-9c9a87dfd25d","system_id":"levelo_inurba_marseille","lat":43.31773,"lon":5.40566,"is_reserved":false,"is_disabled":false,"rental_uris":{"android":"levelo://app?vid=501fe5cc-ec9f-4031-8e12-9c9a87dfd25d","ios":"levelo://app?vid=501fe5cc-ec9f-4031-8e12-9c9a87dfd25d"},"vehicle_type_id":"4","last_reported":1749672644,"current_range_meters":16800,"station_id":"","pricing_plan_id":"cebpf4jnsgd1na2vs0mg"},{"bike_id":"e7da88b2-8050-42b6-a3df-2975590ea5ee","system_id":"levelo_inurba_marseille","lat":43.29526,"lon":5.38541,"is_reserved":false,"is_disabled":false,"rental_uris":{"android":"levelo://app?vid=e7da88b2-8050-42b6-a3df-2975590ea5ee","ios":"levelo://app?vid=e7da88b2-8050-42b6-a3df-2975590ea5ee"},"vehicle_type_id":"4","last_reported":1749672644,"current_range_meters":16800,"station_id":"ce4bgih2rcd13ifvqba0","pricing_plan_id":"cebpf4jnsgd1na2vs0mg"},{"bike_id":"c464b6cf-d2d1-4f1a-ada6-82f270dc20c1","system_id":"levelo_inurba_marseille","lat":43.29791,"lon":5.38096,"is_reserved":false,"is_disabled":false,"rental_uris":{"android":"levelo://app?vid=c464b6cf-d2d1-4f1a-ada6-82f270dc20c1","ios":"levelo://app?vid=c464b6cf-d2d1-4f1a-ada6-82f270dc20c1"},"vehicle_type_id":"4","last_reported":1749672644,"current_range_meters":16800,"station_id":"ce4bgip2rcd13ifvqbb0","pricing_plan_id":"cebpf4jnsgd1na2vs0mg"},{"bike_id":"b3594aee-5acf-4184-be3f-cd50aff1b57e","system_id":"levelo_inurba_marseille","lat":43.29616,"lon":5.38124,"is_reserved":false,"is_disabled":false,"rental_uris":{"android":"levelo://app?vid=b3594aee-5acf-4184-be3f-cd50aff1b57e","ios":"levelo://app?vid=b3594aee-5acf-4184-be3f-cd50aff1b57e"},"vehicle_type_id":"4","last_reported":1749672644,"current_range_meters":16800,"station_id":"ce4bgl12rcd13ifvqbo0","pricing_plan_id":"cebpf4jnsgd1na2vs0mg"},{"bike_id":"95241164-3fc8-4dfd-8031-9838c9266ad6","system_id":"levelo_inurba_marseille","lat":43.3012,"lon":5.39843,"is_reserved":false,"is_disabled":false,"rental_uris":{"android":"levelo://app?vid=95241164-3fc8-4dfd-8031-9838c9266ad6","ios":"levelo://app?vid=95241164-3fc8-4dfd-8031-9838c9266ad6"},"vehicle_type_id":"4","last_reported":1749672644,"current_range_meters":16800,"station_id":"ce4bh0h2rcd13ifvqd40","pricing_plan_id":"cebpf4jnsgd1na2vs0mg"},{"bike_id":"48b21724-7d1b-4c59-ac52-eea7d3ecedb0","system_id":"levelo_inurba_marseille","lat":43.28347,"lon":5.38104,"is_reserved":false,"is_disabled":false,"rental_uris":{"android":"levelo://app?vid=48b21724-7d1b-4c59-ac52-eea7d3ecedb0","ios":"levelo://app?vid=48b21724-7d1b-4c59-ac52-eea7d3ecedb0"},"vehicle_type_id":"4","last_reported":1749672644,"current_range_meters":16800,"station_id":"ce4bh412rcd13ifvqdr0","pricing_plan_id":"cebpf4jnsgd1na2vs0mg"},{"bike_id":"f7c290e1-96e1-42d5-b979-5024967a17b9","system_id":"levelo_inurba_marseille","lat":43.29261,"lon":5.38438,"is_reserved":false,"is_disabled":false,"rental_uris":{"android":"levelo://app?vid=f7c290e1-96e1-42d5-b979-5024967a17b9","ios":"levelo://app?vid=f7c290e1-96e1-42d5-b979-5024967a17b9"},"vehicle_type_id":"4","last_reported":1749672644,"current_range_meters":16800,"station_id":"ce4bh692rcd13ifvqea0","pricing_plan_id":"cebpf4jnsgd1na2vs0mg"},{"bike_id":"8ba15619-aca4-4541-bba1-4aecdf870dee","system_id":"levelo_inurba_marseille","lat":43.28424,"lon":5.34979,"is_reserved":false,"is_disabled":false,"rental_uris":{"android":"levelo://app?vid=8ba15619-aca4-4541-bba1-4aecdf870dee","ios":"levelo://app?vid=8ba15619-aca4-4541-bba1-4aecdf870dee"},"vehicle_type_id":"4","last_reported":1749672644,"current_range_meters":16800,"station_id":"ce4bhbh2rcd13ifvqepg","pricing_plan_id":"cebpf4jnsgd1na2vs0mg"},{"bike_id":"34acf372-0457-460c-aaff-9d418f453e90","system_id":"levelo_inurba_marseille","lat":43.29269,"lon":5.36845,"is_reserved":false,"is_disabled":false,"rental_uris":{"android":"levelo://app?vid=34acf372-0457-460c-aaff-9d418f453e90","ios":"levelo://app?vid=34acf372-0457-460c-aaff-9d418f453e90"},"vehicle_type_id":"4","last_reported":1749672644,"current_range_meters":16800,"station_id":"ce4bhbp2rcd13ifvqesg","pricing_plan_id":"cebpf4jnsgd1na2vs0mg"},{"bike_id":"d665cf93-d005-4a69-ade5-22d2ab25dd5a","system_id":"levelo_inurba_marseille","lat":43.25107,"lon":5.403242,"is_reserved":false,"is_disabled":false,"rental_uris":{"android":"levelo://app?vid=d665cf93-d005-4a69-ade5-22d2ab25dd5a","ios":"levelo://app?vid=d665cf93-d005-4a69-ade5-22d2ab25dd5a"},"vehicle_type_id":"4","last_reported":1749672644,"current_range_meters":16800,"station_id":"ce4bhlh2rcd13ifvqgig","pricing_plan_id":"cebpf4jnsgd1na2vs0mg"},{"bike_id":"ce81f804-a274-484f-a641-28706f036e77","system_id":"levelo_inurba_marseille","lat":43.319,"lon":5.40774,"is_reserved":false,"is_disabled":false,"rental_uris":{"android":"levelo://app?vid=ce81f804-a274-484f-a641-28706f036e77","ios":"levelo://app?vid=ce81f804-a274-484f-a641-28706f036e77"},"vehicle_type_id":"4","last_reported":1749672644,"current_range_meters":16800,"station_id":"ce4bhq12rcd13ifvqhig","pricing_plan_id":"cebpf4jnsgd1na2vs0mg"},{"bike_id":"ef4b3f6f-96f1-4234-a50d-b4c9dd787743","system_id":"levelo_inurba_marseille","lat":43.30896,"lon":5.39646,"is_reserved":false,"is_disabled":false,"rental_uris":{"android":"levelo://app?vid=ef4b3f6f-96f1-4234-a50d-b4c9dd787743","ios":"levelo://app?vid=ef4b3f6f-96f1-4234-a50d-b4c9dd787743"},"vehicle_type_id":"4","last_reported":1749672644,"current_range_meters":17200,"station_id":"ce4bh012rcd13ifvqcv0","pricing_plan_id":"cebpf4jnsgd1na2vs0mg"},{"bike_id":"ed886e85-b0e6-447e-bb16-69563bf35bf2","system_id":"levelo_inurba_marseille","lat":43.30212,"lon":5.39463,"is_reserved":false,"is_disabled":false,"rental_uris":{"android":"levelo://app?vid=ed886e85-b0e6-447e-bb16-69563bf35bf2","ios":"levelo://app?vid=ed886e85-b0e6-447e-bb16-69563bf35bf2"},"vehicle_type_id":"4","last_reported":1749672644,"current_range_meters":17200,"station_id":"ce4bh0p2rcd13ifvqd70","pricing_plan_id":"cebpf4jnsgd1na2vs0mg"},{"bike_id":"10d685d8-b11c-42dc-91ae-a20021b01a2a","system_id":"levelo_inurba_marseille","lat":43.29008,"lon":5.38629,"is_reserved":false,"is_disabled":false,"rental_uris":{"android":"levelo://app?vid=10d685d8-b11c-42dc-91ae-a20021b01a2a","ios":"levelo://app?vid=10d685d8-b11c-42dc-91ae-a20021b01a2a"},"vehicle_type_id":"4","last_reported":1749672644,"current_range_meters":17200,"station_id":"ce4bh4p2rcd13ifvqe0g","pricing_plan_id":"cebpf4jnsgd1na2vs0mg"},{"bike_id":"e0249f4b-8d8b-4dc7-a224-9ea697947c37","system_id":"levelo_inurba_marseille","lat":43.31708,"lon":5.4241,"is_reserved":false,"is_disabled":false,"rental_uris":{"android":"levelo://app?vid=e0249f4b-8d8b-4dc7-a224-9ea697947c37","ios":"levelo://app?vid=e0249f4b-8d8b-4dc7-a224-9ea697947c37"},"vehicle_type_id":"4","last_reported":1749672644,"current_range_meters":17200,"station_id":"ce4bhp92rcd13ifvqhbg","pricing_plan_id":"cebpf4jnsgd1na2vs0mg"},{"bike_id":"cc7079a1-554c-40b6-b64f-02d77aba0bd1","system_id":"levelo_inurba_marseille","lat":43.292667,"lon":5.384342,"is_reserved":false,"is_disabled":false,"rental_uris":{"android":"levelo://app?vid=cc7079a1-554c-40b6-b64f-02d77aba0bd1","ios":"levelo://app?vid=cc7079a1-554c-40b6-b64f-02d77aba0bd1"},"vehicle_type_id":"4","last_reported":1749672644,"current_range_meters":17600,"station_id":"","pricing_plan_id":"cebpf4jnsgd1na2vs0mg"},{"bike_id":"4377a65e-878f-40ce-8ed9-de858399a7a5","system_id":"levelo_inurba_marseille","lat":43.29199,"lon":5.35787,"is_reserved":false,"is_disabled":false,"rental_uris":{"android":"levelo://app?vid=4377a65e-878f-40ce-8ed9-de858399a7a5","ios":"levelo://app?vid=4377a65e-878f-40ce-8ed9-de858399a7a5"},"vehicle_type_id":"4","last_reported":1749672644,"current_range_meters":17600,"station_id":"ce4bhb12rcd13ifvqel0","pricing_plan_id":"cebpf4jnsgd1na2vs0mg"},{"bike_id":"a1ff6074-f159-4eaf-9b2e-24e3a3db1dc0","system_id":"levelo_inurba_marseille","lat":43.24081,"lon":5.37755,"is_reserved":false,"is_disabled":false,"rental_uris":{"android":"levelo://app?vid=a1ff6074-f159-4eaf-9b2e-24e3a3db1dc0","ios":"levelo://app?vid=a1ff6074-f159-4eaf-9b2e-24e3a3db1dc0"},"vehicle_type_id":"4","last_reported":1749672644,"current_range_meters":17600,"station_id":"ce4bhnp2rcd13ifvqgvg","pricing_plan_id":"cebpf4jnsgd1na2vs0mg"},{"bike_id":"9946dc27-0dd5-4a7b-b3e6-3fa45c5b292c","system_id":"levelo_inurba_marseille","lat":43.32375,"lon":5.388883,"is_reserved":false,"is_disabled":false,"rental_uris":{"android":"levelo://app?vid=9946dc27-0dd5-4a7b-b3e6-3fa45c5b292c","ios":"levelo://app?vid=9946dc27-0dd5-4a7b-b3e6-3fa45c5b292c"},"vehicle_type_id":"4","last_reported":1749672644,"current_range_meters":17600,"station_id":"ce4bhqp2rcd13ifvqhog","pricing_plan_id":"cebpf4jnsgd1na2vs0mg"},{"bike_id":"7d7170dd-d55e-43db-a9c2-1ed74c433fd7","system_id":"levelo_inurba_marseille","lat":43.30988,"lon":5.42032,"is_reserved":false,"is_disabled":false,"rental_uris":{"android":"levelo://app?vid=7d7170dd-d55e-43db-a9c2-1ed74c433fd7","ios":"levelo://app?vid=7d7170dd-d55e-43db-a9c2-1ed74c433fd7"},"vehicle_type_id":"4","last_reported":1749672644,"current_range_meters":18000,"station_id":"","pricing_plan_id":"cebpf4jnsgd1na2vs0mg"},{"bike_id":"8eb26cde-27cc-4a9b-8830-7505ff99ffad","system_id":"levelo_inurba_marseille","lat":43.29532,"lon":5.38539,"is_reserved":false,"is_disabled":false,"rental_uris":{"android":"levelo://app?vid=8eb26cde-27cc-4a9b-8830-7505ff99ffad","ios":"levelo://app?vid=8eb26cde-27cc-4a9b-8830-7505ff99ffad"},"vehicle_type_id":"4","last_reported":1749672644,"current_range_meters":18000,"station_id":"ce4bgih2rcd13ifvqba0","pricing_plan_id":"cebpf4jnsgd1na2vs0mg"},{"bike_id":"94108fd2-c774-46f7-8eee-a7fc780f2984","system_id":"levelo_inurba_marseille","lat":43.306,"lon":5.37221,"is_reserved":false,"is_disabled":false,"rental_uris":{"android":"levelo://app?vid=94108fd2-c774-46f7-8eee-a7fc780f2984","ios":"levelo://app?vid=94108fd2-c774-46f7-8eee-a7fc780f2984"},"vehicle_type_id":"4","last_reported":1749672644,"current_range_meters":18000,"station_id":"ce4bgqh2rcd13ifvqc4g","pricing_plan_id":"cebpf4jnsgd1na2vs0mg"},{"bike_id":"d152427f-44a0-40b6-8807-dee7fdb74a77","system_id":"levelo_inurba_marseille","lat":43.30138,"lon":5.39861,"is_reserved":false,"is_disabled":false,"rental_uris":{"android":"levelo://app?vid=d152427f-44a0-40b6-8807-dee7fdb74a77","ios":"levelo://app?vid=d152427f-44a0-40b6-8807-dee7fdb74a77"},"vehicle_type_id":"4","last_reported":1749672644,"current_range_meters":18000,"station_id":"ce4bh0h2rcd13ifvqd40","pricing_plan_id":"cebpf4jnsgd1na2vs0mg"},{"bike_id":"afd7c744-c063-415e-abc8-82568e138369","system_id":"levelo_inurba_marseille","lat":43.29038,"lon":5.38626,"is_reserved":false,"is_disabled":false,"rental_uris":{"android":"levelo://app?vid=afd7c744-c063-415e-abc8-82568e138369","ios":"levelo://app?vid=afd7c744-c063-415e-abc8-82568e138369"},"vehicle_type_id":"4","last_reported":1749672644,"current_range_meters":18000,"station_id":"ce4bh4p2rcd13ifvqe0g","pricing_plan_id":"cebpf4jnsgd1na2vs0mg"},{"bike_id":"b48f0314-4fb3-4f17-ac63-b671ed1f949f","system_id":"levelo_inurba_marseille","lat":43.33731,"lon":5.39188,"is_reserved":false,"is_disabled":false,"rental_uris":{"android":"levelo://app?vid=b48f0314-4fb3-4f17-ac63-b671ed1f949f","ios":"levelo://app?vid=b48f0314-4fb3-4f17-ac63-b671ed1f949f"},"vehicle_type_id":"4","last_reported":1749672644,"current_range_meters":18000,"station_id":"ce4bhr92rcd13ifvqhsg","pricing_plan_id":"cebpf4jnsgd1na2vs0mg"},{"bike_id":"45cb9171-bb7e-418e-bf45-5916b7d21e5e","system_id":"levelo_inurba_marseille","lat":43.32113,"lon":5.36796,"is_reserved":false,"is_disabled":false,"rental_uris":{"android":"levelo://app?vid=45cb9171-bb7e-418e-bf45-5916b7d21e5e","ios":"levelo://app?vid=45cb9171-bb7e-418e-bf45-5916b7d21e5e"},"vehicle_type_id":"4","last_reported":1749672644,"current_range_meters":18000,"station_id":"ce4bhrh2rcd13ifvqhug","pricing_plan_id":"cebpf4jnsgd1na2vs0mg"},{"bike_id":"7003b93c-725d-412e-9127-fbade718cbc3","system_id":"levelo_inurba_marseille","lat":43.212156,"lon":5.350886,"is_reserved":false,"is_disabled":false,"rental_uris":{"android":"levelo://app?vid=7003b93c-725d-412e-9127-fbade718cbc3","ios":"levelo://app?vid=7003b93c-725d-412e-9127-fbade718cbc3"},"vehicle_type_id":"4","last_reported":1749672644,"current_range_meters":18000,"station_id":"st_cvj6sg6p6f1abm77japg","pricing_plan_id":"cebpf4jnsgd1na2vs0mg"},{"bike_id":"39d96496-529e-4438-ac0b-4445af6bf0f5","system_id":"levelo_inurba_marseille","lat":43.2972,"lon":5.36602,"is_reserved":false,"is_disabled":false,"rental_uris":{"android":"levelo://app?vid=39d96496-529e-4438-ac0b-4445af6bf0f5","ios":"levelo://app?vid=39d96496-529e-4438-ac0b-4445af6bf0f5"},"vehicle_type_id":"4","last_reported":1749672644,"current_range_meters":18800,"station_id":"","pricing_plan_id":"cebpf4jnsgd1na2vs0mg"},{"bike_id":"1989215c-378c-442b-a262-e4741c2e9de7","system_id":"levelo_inurba_marseille","lat":43.30237,"lon":5.40369,"is_reserved":false,"is_disabled":false,"rental_uris":{"android":"levelo://app?vid=1989215c-378c-442b-a262-e4741c2e9de7","ios":"levelo://app?vid=1989215c-378c-442b-a262-e4741c2e9de7"},"vehicle_type_id":"4","last_reported":1749672644,"current_range_meters":18800,"station_id":"","pricing_plan_id":"cebpf4jnsgd1na2vs0mg"},{"bike_id":"6e464720-93b0-4699-80fe-881649eb71cd","system_id":"levelo_inurba_marseille","lat":43.23251,"lon":5.3558,"is_reserved":false,"is_disabled":false,"rental_uris":{"android":"levelo://app?vid=6e464720-93b0-4699-80fe-881649eb71cd","ios":"levelo://app?vid=6e464720-93b0-4699-80fe-881649eb71cd"},"vehicle_type_id":"4","last_reported":1749672644,"current_range_meters":18800,"station_id":"","pricing_plan_id":"cebpf4jnsgd1na2vs0mg"},{"bike_id":"a15aa3ab-66bc-492a-800c-d77f3fa188cb","system_id":"levelo_inurba_marseille","lat":43.27621,"lon":5.3611,"is_reserved":false,"is_disabled":false,"rental_uris":{"android":"levelo://app?vid=a15aa3ab-66bc-492a-800c-d77f3fa188cb","ios":"levelo://app?vid=a15aa3ab-66bc-492a-800c-d77f3fa188cb"},"vehicle_type_id":"4","last_reported":1749672644,"current_range_meters":18800,"station_id":"ce4bgj92rcd13ifvqbe0","pricing_plan_id":"cebpf4jnsgd1na2vs0mg"},{"bike_id":"f85b2c50-4d2b-4d55-957c-2751e1f8c7c4","system_id":"levelo_inurba_marseille","lat":43.31346,"lon":5.39662,"is_reserved":false,"is_disabled":false,"rental_uris":{"android":"levelo://app?vid=f85b2c50-4d2b-4d55-957c-2751e1f8c7c4","ios":"levelo://app?vid=f85b2c50-4d2b-4d55-957c-2751e1f8c7c4"},"vehicle_type_id":"4","last_reported":1749672644,"current_range_meters":18800,"station_id":"ce4bgvp2rcd13ifvqcu0","pricing_plan_id":"cebpf4jnsgd1na2vs0mg"},{"bike_id":"95bda8ba-690b-4e63-b168-04e4de98ccef","system_id":"levelo_inurba_marseille","lat":43.294159,"lon":5.386191,"is_reserved":false,"is_disabled":false,"rental_uris":{"android":"levelo://app?vid=95bda8ba-690b-4e63-b168-04e4de98ccef","ios":"levelo://app?vid=95bda8ba-690b-4e63-b168-04e4de98ccef"},"vehicle_type_id":"4","last_reported":1749672644,"current_range_meters":18800,"station_id":"ce4bh2h2rcd13ifvqdh0","pricing_plan_id":"cebpf4jnsgd1na2vs0mg"},{"bike_id":"19b3bfa4-0564-4f71-9cf5-4b3fa965529e","system_id":"levelo_inurba_marseille","lat":43.28345,"lon":5.3809,"is_reserved":false,"is_disabled":false,"rental_uris":{"android":"levelo://app?vid=19b3bfa4-0564-4f71-9cf5-4b3fa965529e","ios":"levelo://app?vid=19b3bfa4-0564-4f71-9cf5-4b3fa965529e"},"vehicle_type_id":"4","last_reported":1749672644,"current_range_meters":18800,"station_id":"ce4bh412rcd13ifvqdr0","pricing_plan_id":"cebpf4jnsgd1na2vs0mg"},{"bike_id":"63c841b4-dd43-4cf7-88f9-e65452a9fc1e","system_id":"levelo_inurba_marseille","lat":43.284117,"lon":5.37518,"is_reserved":false,"is_disabled":false,"rental_uris":{"android":"levelo://app?vid=63c841b4-dd43-4cf7-88f9-e65452a9fc1e","ios":"levelo://app?vid=63c841b4-dd43-4cf7-88f9-e65452a9fc1e"},"vehicle_type_id":"4","last_reported":1749672644,"current_range_meters":18800,"station_id":"ce4bh412rcd13ifvqds0","pricing_plan_id":"cebpf4jnsgd1na2vs0mg"},{"bike_id":"ed53a5a1-21c3-4274-bf4a-9581f017f746","system_id":"levelo_inurba_marseille","lat":43.29101,"lon":5.38122,"is_reserved":false,"is_disabled":false,"rental_uris":{"android":"levelo://app?vid=ed53a5a1-21c3-4274-bf4a-9581f017f746","ios":"levelo://app?vid=ed53a5a1-21c3-4274-bf4a-9581f017f746"},"vehicle_type_id":"4","last_reported":1749672644,"current_range_meters":18800,"station_id":"ce4bh512rcd13ifvqe2g","pricing_plan_id":"cebpf4jnsgd1na2vs0mg"},{"bike_id":"f1b90a12-12a4-4cae-9fb9-1e497d261b93","system_id":"levelo_inurba_marseille","lat":43.28665,"lon":5.3635,"is_reserved":false,"is_disabled":false,"rental_uris":{"android":"levelo://app?vid=f1b90a12-12a4-4cae-9fb9-1e497d261b93","ios":"levelo://app?vid=f1b90a12-12a4-4cae-9fb9-1e497d261b93"},"vehicle_type_id":"4","last_reported":1749672644,"current_range_meters":18800,"station_id":"ce4bhah2rcd13ifvqej0","pricing_plan_id":"cebpf4jnsgd1na2vs0mg"},{"bike_id":"7ecde9b2-0848-4631-b23e-d505a87ecd32","system_id":"levelo_inurba_marseille","lat":43.28422,"lon":5.349895,"is_reserved":false,"is_disabled":false,"rental_uris":{"android":"levelo://app?vid=7ecde9b2-0848-4631-b23e-d505a87ecd32","ios":"levelo://app?vid=7ecde9b2-0848-4631-b23e-d505a87ecd32"},"vehicle_type_id":"4","last_reported":1749672644,"current_range_meters":18800,"station_id":"ce4bhbh2rcd13ifvqepg","pricing_plan_id":"cebpf4jnsgd1na2vs0mg"},{"bike_id":"9bfcb56e-b9ef-4e71-a664-03f3958d9961","system_id":"levelo_inurba_marseille","lat":43.28624,"lon":5.35093,"is_reserved":false,"is_disabled":false,"rental_uris":{"android":"levelo://app?vid=9bfcb56e-b9ef-4e71-a664-03f3958d9961","ios":"levelo://app?vid=9bfcb56e-b9ef-4e71-a664-03f3958d9961"},"vehicle_type_id":"4","last_reported":1749672644,"current_range_meters":18800,"station_id":"ce4bhch2rcd13ifvqeug","pricing_plan_id":"cebpf4jnsgd1na2vs0mg"},{"bike_id":"1268e070-f02d-4537-93df-0bfd5c4daa05","system_id":"levelo_inurba_marseille","lat":43.32669,"lon":5.37629,"is_reserved":false,"is_disabled":false,"rental_uris":{"android":"levelo://app?vid=1268e070-f02d-4537-93df-0bfd5c4daa05","ios":"levelo://app?vid=1268e070-f02d-4537-93df-0bfd5c4daa05"},"vehicle_type_id":"4","last_reported":1749672644,"current_range_meters":19200,"station_id":"","pricing_plan_id":"cebpf4jnsgd1na2vs0mg"},{"bike_id":"7aadb33f-87aa-40f3-86ca-34d2886e1622","system_id":"levelo_inurba_marseille","lat":43.28218,"lon":5.35088,"is_reserved":false,"is_disabled":false,"rental_uris":{"android":"levelo://app?vid=7aadb33f-87aa-40f3-86ca-34d2886e1622","ios":"levelo://app?vid=7aadb33f-87aa-40f3-86ca-34d2886e1622"},"vehicle_type_id":"4","last_reported":1749672644,"current_range_meters":19200,"station_id":"","pricing_plan_id":"cebpf4jnsgd1na2vs0mg"},{"bike_id":"d24133ff-b3b7-4bc8-975b-6c012903b7dd","system_id":"levelo_inurba_marseille","lat":43.31226,"lon":5.36873,"is_reserved":false,"is_disabled":false,"rental_uris":{"android":"levelo://app?vid=d24133ff-b3b7-4bc8-975b-6c012903b7dd","ios":"levelo://app?vid=d24133ff-b3b7-4bc8-975b-6c012903b7dd"},"vehicle_type_id":"4","last_reported":1749672644,"current_range_meters":19200,"station_id":"ce4bgl92rcd13ifvqbq0","pricing_plan_id":"cebpf4jnsgd1na2vs0mg"},{"bike_id":"c4d71991-0450-4599-bb84-4abba26b6f4d","system_id":"levelo_inurba_marseille","lat":43.30819,"lon":5.38145,"is_reserved":false,"is_disabled":false,"rental_uris":{"android":"levelo://app?vid=c4d71991-0450-4599-bb84-4abba26b6f4d","ios":"levelo://app?vid=c4d71991-0450-4599-bb84-4abba26b6f4d"},"vehicle_type_id":"4","last_reported":1749672644,"current_range_meters":19200,"station_id":"ce4bgt12rcd13ifvqce0","pricing_plan_id":"cebpf4jnsgd1na2vs0mg"},{"bike_id":"495012b1-992d-4fa9-b0a1-55f46aedda05","system_id":"levelo_inurba_marseille","lat":43.292573,"lon":5.384447,"is_reserved":false,"is_disabled":false,"rental_uris":{"android":"levelo://app?vid=495012b1-992d-4fa9-b0a1-55f46aedda05","ios":"levelo://app?vid=495012b1-992d-4fa9-b0a1-55f46aedda05"},"vehicle_type_id":"4","last_reported":1749672644,"current_range_meters":19200,"station_id":"ce4bh692rcd13ifvqea0","pricing_plan_id":"cebpf4jnsgd1na2vs0mg"},{"bike_id":"db906fa1-446f-4316-84d9-c3cb72d16d16","system_id":"levelo_inurba_marseille","lat":43.24227,"lon":5.38418,"is_reserved":false,"is_disabled":false,"rental_uris":{"android":"levelo://app?vid=db906fa1-446f-4316-84d9-c3cb72d16d16","ios":"levelo://app?vid=db906fa1-446f-4316-84d9-c3cb72d16d16"},"vehicle_type_id":"4","last_reported":1749672644,"current_range_meters":19600,"station_id":"","pricing_plan_id":"cebpf4jnsgd1na2vs0mg"},{"bike_id":"c81ce172-8397-4e94-b7fc-6ca6c456c4c8","system_id":"levelo_inurba_marseille","lat":43.29599,"lon":5.38096,"is_reserved":false,"is_disabled":false,"rental_uris":{"android":"levelo://app?vid=c81ce172-8397-4e94-b7fc-6ca6c456c4c8","ios":"levelo://app?vid=c81ce172-8397-4e94-b7fc-6ca6c456c4c8"},"vehicle_type_id":"4","last_reported":1749672644,"current_range_meters":19600,"station_id":"ce4bgl12rcd13ifvqbo0","pricing_plan_id":"cebpf4jnsgd1na2vs0mg"},{"bike_id":"b3edde10-f433-440e-8c87-3d0de87075c0","system_id":"levelo_inurba_marseille","lat":43.30913,"lon":5.36852,"is_reserved":false,"is_disabled":false,"rental_uris":{"android":"levelo://app?vid=b3edde10-f433-440e-8c87-3d0de87075c0","ios":"levelo://app?vid=b3edde10-f433-440e-8c87-3d0de87075c0"},"vehicle_type_id":"4","last_reported":1749672644,"current_range_meters":19600,"station_id":"ce4bgn92rcd13ifvqbvg","pricing_plan_id":"cebpf4jnsgd1na2vs0mg"},{"bike_id":"cee85ad5-9f70-43fe-a608-87df4904a50f","system_id":"levelo_inurba_marseille","lat":43.29421,"lon":5.38627,"is_reserved":false,"is_disabled":false,"rental_uris":{"android":"levelo://app?vid=cee85ad5-9f70-43fe-a608-87df4904a50f","ios":"levelo://app?vid=cee85ad5-9f70-43fe-a608-87df4904a50f"},"vehicle_type_id":"4","last_reported":1749672644,"current_range_meters":19600,"station_id":"ce4bh2h2rcd13ifvqdh0","pricing_plan_id":"cebpf4jnsgd1na2vs0mg"},