{"last_updated":1684715948,"ttl":30,"version":"2.2","data":{"bikes":[{"bike_id":"046009cb-4bdf-41da-822e-c4f84db95fe8","system_id":"levelo_inurba_marseille","lat":43.31265,"lon":5.36839,"is_reserved":false,"is_disabled":false,"rental_uris":{"android":"levelo://app?vid=046009cb-4bdf-41da-822e-c4f84db95fe8","ios":"levelo://app?vid=046009cb-4bdf-41da-822e-c4f84db95fe8"},"vehicle_type_id":"4","last_reported":1684715949,"current_range_meters":16800,"station_id":"ce4bgl92rcd13ifvqbq0","pricing_plan_id":"free"},{"bike_id":"72e2d9e9-3c95-44f2-9509-3b80ee789e45","system_id":"levelo_inurba_marseille","lat":43.31257,"lon":5.36844,"is_reserved":false,"is_disabled":false,"rental_uris":{"android":"levelo://app?vid=72e2d9e9-3c95-44f2-9509-3b80ee789e45","ios":"levelo://app?vid=72e2d9e9-3c95-44f2-9509-3b80ee789e45"},"vehicle_type_id":"4","last_reported":1684715949,"current_range_meters":10000,"station_id":"","pricing_plan_id":"free"},{"bike_id":"072cb109-d689-4513-a2c2-f4f6a95b5e89","system_id":"levelo_inurba_marseille","lat":43.31266,"lon":5.36851,"is_reserved":false,"is_disabled":false,"rental_uris":{"android":"levelo://app?vid=072cb109-d689-4513-a2c2-f4f6a95b5e89","ios":"levelo://app?vid=072cb109-d689-4513-a2c2-f4f6a95b5e89"},"vehicle_type_id":"4","last_reported":1684715949,"current_range_meters":6800,"station_id":"","pricing_plan_id":"free"},{"bike_id":"1566cbb7-e4df-4100-bd70-ee92bad8aa82","system_id":"levelo_inurba_marseille","lat":43.30912,"lon":5.36848,"is_reserved":false,"is_disabled":false,"rental_uris":{"android":"levelo://app?vid=1566cbb7-e4df-4100-bd70-ee92bad8aa82","ios":"levelo://app?vid=1566cbb7-e4df-4100-bd70-ee92bad8aa82"},"vehicle_type_id":"4","last_reported":1684715949,"current_range_meters":31200,"station_id":"ce4bgn92rcd13ifvqbvg","pricing_plan_id":"free"},{"bike_id":"c9ae9858-fbdf-4d3c-8b8b-7b1ea750fbc1","system_id":"levelo_inurba_marseille","lat":43.309076,"lon":5.368465,"is_reserved":false,"is_disabled":false,"rental_uris":{"android":"levelo://app?vid=c9ae9858-fbdf-4d3c-8b8b-7b1ea750fbc1","ios":"levelo://app?vid=c9ae9858-fbdf-4d3c-8b8b-7b1ea750fbc1"},"vehicle_type_id":"4","last_reported":1684715949,"current_range_meters":20800,"station_id":"ce4bgn92rcd13ifvqbvg","pricing_plan_id":"free"},{"bike_id":"7583070c-7503-48ee-b0e9-a121346637ed","system_id":"levelo_inurba_marseille","lat":43.309076,"lon":5.368465,"is_reserved":false,"is_disabled":false,"rental_uris":{"android":"levelo://app?vid=7583070c-7503-48ee-b0e9-a121346637ed","ios":"levelo://app?vid=7583070c-7503-48ee-b0e9-a121346637ed"},"vehicle_type_id":"4","last_reported":1684715949,"current_range_meters":24400,"station_id":"ce4bgn92rcd13ifvqbvg","pricing_plan_id":"free"},{"bike_id":"f3bb4b7d-9f6e-4a5f-8551-33eff56329f2","system_id":"levelo_inurba_marseille","lat":43.314811,"lon":5.373103,"is_reserved":false,"is_disabled":false,"rental_uris":{"android":"levelo://app?vid=f3bb4b7d-9f6e-4a5f-8551-33eff56329f2","ios":"levelo://app?vid=f3bb4b7d-9f6e-4a5f-8551-33eff56329f2"},"vehicle_type_id":"4","last_reported":1684715949,"current_range_meters":16800,"station_id":"ce4bgt12rcd13ifvqcd0","pricing_plan_id":"free"},{"bike_id":"26faffab-269c-43d6-a030-3ceebba08bc9","system_id":"levelo_inurba_marseille","lat":43.314811,"lon":5.373103,"is_reserved":false,"is_disabled":false,"rental_uris":{"android":"levelo://app?vid=26faffab-269c-43d6-a030-3ceebba08bc9","ios":"levelo://app?vid=26faffab-269c-43d6-a030-3ceebba08bc9"},"vehicle_type_id":"4","last_reported":1684715949,"current_range_meters":11600,"station_id":"ce4bgt12rcd13ifvqcd0","pricing_plan_id":"free"},{"bike_id":"c2662780-3c9b-422f-b8f7-6b46c01f62b2","system_id":"levelo_inurba_marseille","lat":43.314811,"lon":5.373104,"is_reserved":false,"is_disabled":false,"rental_uris":{"android":"levelo://app?vid=c2662780-3c9b-422f-b8f7-6b46c01f62b2","ios":"levelo://app?vid=c2662780-3c9b-422f-b8f7-6b46c01f62b2"},"vehicle_type_id":"4","last_reported":1684715949,"current_range_meters":28400,"station_id":"ce4bgt12rcd13ifvqcd0","pricing_plan_id":"free"},{"bike_id":"977b54c6-e434-4543-8807-be393560f60f","system_id":"levelo_inurba_marseille","lat":43.314811,"lon":5.373104,"is_reserved":false,"is_disabled":false,"rental_uris":{"android":"levelo://app?vid=977b54c6-e434-4543-8807-be393560f60f","ios":"levelo://app?vid=977b54c6-e434-4543-8807-be393560f60f"},"vehicle_type_id":"4","last_reported":1684715949,"current_range_meters":29200,"station_id":"ce4bgt12rcd13ifvqcd0","pricing_plan_id":"free"},{"bike_id":"333ced2d-aec9-4bd0-a2db-0709f0747053","system_id":"levelo_inurba_marseille","lat":43.30906,"lon":5.37192,"is_reserved":false,"is_disabled":false,"rental_uris":{"android":"levelo://app?vid=333ced2d-aec9-4bd0-a2db-0709f0747053","ios":"levelo://app?vid=333ced2d-aec9-4bd0-a2db-0709f0747053"},"vehicle_type_id":"4","last_reported":1684715949,"current_range_meters":21600,"station_id":"","pricing_plan_id":"free"},{"bike_id":"50b803b1-eea5-46d2-85fa-77de9c4cc158","system_id":"levelo_inurba_marseille","lat":43.308614,"lon":5.372098,"is_reserved":false,"is_disabled":false,"rental_uris":{"android":"levelo://app?vid=50b803b1-eea5-46d2-85fa-77de9c4cc158","ios":"levelo://app?vid=50b803b1-eea5-46d2-85fa-77de9c4cc158"},"vehicle_type_id":"4","last_reported":1684715949,"current_range_meters":30400,"station_id":"ce4bguh2rcd13ifvqckg","pricing_plan_id":"free"},{"bike_id":"89377698-26f6-4ec0-9e67-f3b074263ead","system_id":"levelo_inurba_marseille","lat":43.308614,"lon":5.372098,"is_reserved":false,"is_disabled":false,"rental_uris":{"android":"levelo://app?vid=89377698-26f6-4ec0-9e67-f3b074263ead","ios":"levelo://app?vid=89377698-26f6-4ec0-9e67-f3b074263ead"},"vehicle_type_id":"4","last_reported":1684715949,"current_range_meters":29200,"station_id":"ce4bguh2rcd13ifvqckg","pricing_plan_id":"free"},{"bike_id":"356cf0db-1a57-476d-9a35-1fd349653ab5","system_id":"levelo_inurba_marseille","lat":43.30895,"lon":5.37194,"is_reserved":false,"is_disabled":false,"rental_uris":{"android":"levelo://app?vid=356cf0db-1a57-476d-9a35-1fd349653ab5","ios":"levelo://app?vid=356cf0db-1a57-476d-9a35-1fd349653ab5"},"vehicle_type_id":"4","last_reported":1684715949,"current_range_meters":31200,"station_id":"","pricing_plan_id":"free"},{"bike_id":"1736d041-f749-4846-a2f8-dea0923d6d54","system_id":"levelo_inurba_marseille","lat":43.30552,"lon":5.36525,"is_reserved":false,"is_disabled":false,"rental_uris":{"android":"levelo://app?vid=1736d041-f749-4846-a2f8-dea0923d6d54","ios":"levelo://app?vid=1736d041-f749-4846-a2f8-dea0923d6d54"},"vehicle_type_id":"4","last_reported":1684715949,"current_range_meters":30800,"station_id":"","pricing_plan_id":"free"},{"bike_id":"ce1fbad4-5590-4451-84b7-f53b7f436ad1","system_id":"levelo_inurba_marseille","lat":43.30544,"lon":5.36528,"is_reserved":false,"is_disabled":false,"rental_uris":{"android":"levelo://app?vid=ce1fbad4-5590-4451-84b7-f53b7f436ad1","ios":"levelo://app?vid=ce1fbad4-5590-4451-84b7-f53b7f436ad1"},"vehicle_type_id":"4","last_reported":1684715949,"current_range_meters":31200,"station_id":"","pricing_plan_id":"free"},{"bike_id":"f4ddd169-c7e4-441d-aad5-d98c570b4bbb","system_id":"levelo_inurba_marseille","lat":43.311131,"lon":5.377651,"is_reserved":false,"is_disabled":false,"rental_uris":{"android":"levelo://app?vid=f4ddd169-c7e4-441d-aad5-d98c570b4bbb","ios":"levelo://app?vid=f4ddd169-c7e4-441d-aad5-d98c570b4bbb"},"vehicle_type_id":"4","last_reported":1684715949,"current_range_meters":5600,"station_id":"ce4bgt92rcd13ifvqcg0","pricing_plan_id":"free"},{"bike_id":"30ce27af-910a-466e-abca-e49c84c9a066","system_id":"levelo_inurba_marseille","lat":43.317075,"lon":5.377367,"is_reserved":false,"is_disabled":false,"rental_uris":{"android":"levelo://app?vid=30ce27af-910a-466e-abca-e49c84c9a066","ios":"levelo://app?vid=30ce27af-910a-466e-abca-e49c84c9a066"},"vehicle_type_id":"4","last_reported":1684715949,"current_range_meters":28400,"station_id":"ce4bgth2rcd13ifvqch0","pricing_plan_id":"free"},{"bike_id":"764a8ad9-d1d7-4195-8dc4-426a45679f54","system_id":"levelo_inurba_marseille","lat":43.317075,"lon":5.377367,"is_reserved":false,"is_disabled":false,"rental_uris":{"android":"levelo://app?vid=764a8ad9-d1d7-4195-8dc4-426a45679f54","ios":"levelo://app?vid=764a8ad9-d1d7-4195-8dc4-426a45679f54"},"vehicle_type_id":"4","last_reported":1684715949,"current_range_meters":29200,"station_id":"ce4bgth2rcd13ifvqch0","pricing_plan_id":"free"},{"bike_id":"82afe0fe-0e6b-41d0-b990-7d8d8a7b0baa","system_id":"levelo_inurba_marseille","lat":43.317075,"lon":5.377367,"is_reserved":false,"is_disabled":false,"rental_uris":{"android":"levelo://app?vid=82afe0fe-0e6b-41d0-b990-7d8d8a7b0baa","ios":"levelo://app?vid=82afe0fe-0e6b-41d0-b990-7d8d8a7b0baa"},"vehicle_type_id":"4","last_reported":1684715949,"current_range_meters":27600,"station_id":"ce4bgth2rcd13ifvqch0","pricing_plan_id":"free"},{"bike_id":"4e0203a2-427e-4b5e-9064-c09161b27c61","system_id":"levelo_inurba_marseille","lat":43.317075,"lon":5.377367,"is_reserved":false,"is_disabled":false,"rental_uris":{"android":"levelo://app?vid=4e0203a2-427e-4b5e-9064-c09161b27c61","ios":"levelo://app?vid=4e0203a2-427e-4b5e-9064-c09161b27c61"},"vehicle_type_id":"4","last_reported":1684715949,"current_range_meters":28800,"station_id":"ce4bgth2rcd13ifvqch0","pricing_plan_id":"free"},{"bike_id":"c27523af-0050-40ba-86ce-6f147ab29d86","system_id":"levelo_inurba_marseille","lat":43.31716,"lon":5.37775,"is_reserved":false,"is_disabled":false,"rental_uris":{"android":"levelo://app?vid=c27523af-0050-40ba-86ce-6f147ab29d86","ios":"levelo://app?vid=c27523af-0050-40ba-86ce-6f147ab29d86"},"vehicle_type_id":"4","last_reported":1684715949,"current_range_meters":11200,"station_id":"ce4bgth2rcd13ifvqch0","pricing_plan_id":"free"},{"bike_id":"c7f2e15d-d95e-4711-9762-6eb5a4f9e359","system_id":"levelo_inurba_marseille","lat":43.315293,"lon":5.380349,"is_reserved":false,"is_disabled":false,"rental_uris":{"android":"levelo://app?vid=c7f2e15d-d95e-4711-9762-6eb5a4f9e359","ios":"levelo://app?vid=c7f2e15d-d95e-4711-9762-6eb5a4f9e359"},"vehicle_type_id":"4","last_reported":1684715949,"current_range_meters":27200,"station_id":"ce4bhsp2rcd13ifvqi50","pricing_plan_id":"free"},{"bike_id":"74ce93af-61ea-47f5-8833-500d6b11fbf2","system_id":"levelo_inurba_marseille","lat":43.315293,"lon":5.380349,"is_reserved":false,"is_disabled":false,"rental_uris":{"android":"levelo://app?vid=74ce93af-61ea-47f5-8833-500d6b11fbf2","ios":"levelo://app?vid=74ce93af-61ea-47f5-8833-500d6b11fbf2"},"vehicle_type_id":"4","last_reported":1684715949,"current_range_meters":30000,"station_id":"ce4bhsp2rcd13ifvqi50","pricing_plan_id":"free"},{"bike_id":"1ca8ea15-a36e-422b-8b15-3e4ae7d6553f","system_id":"levelo_inurba_marseille","lat":43.315289,"lon":5.380349,"is_reserved":false,"is_disabled":false,"rental_uris":{"android":"levelo://app?vid=1ca8ea15-a36e-422b-8b15-3e4ae7d6553f","ios":"levelo://app?vid=1ca8ea15-a36e-422b-8b15-3e4ae7d6553f"},"vehicle_type_id":"4","last_reported":1684715949,"current_range_meters":29200,"station_id":"ce4bhsp2rcd13ifvqi50","pricing_plan_id":"free"},{"bike_id":"0a01f79a-9fca-4fda-9261-93e2b1d3f651","system_id":"levelo_inurba_marseille","lat":43.315289,"lon":5.380349,"is_reserved":false,"is_disabled":false,"rental_uris":{"android":"levelo://app?vid=0a01f79a-9fca-4fda-9261-93e2b1d3f651","ios":"levelo://app?vid=0a01f79a-9fca-4fda-9261-93e2b1d3f651"},"vehicle_type_id":"4","last_reported":1684715949,"current_range_meters":12400,"station_id":"ce4bhsp2rcd13ifvqi50","pricing_plan_id":"free"},{"bike_id":"26d1fb7a-03bb-452a-8180-9757a66a82f8","system_id":"levelo_inurba_marseille","lat":43.308012,"lon":5.381511,"is_reserved":false,"is_disabled":false,"rental_uris":{"android":"levelo://app?vid=26d1fb7a-03bb-452a-8180-9757a66a82f8","ios":"levelo://app?vid=26d1fb7a-03bb-452a-8180-9757a66a82f8"},"vehicle_type_id":"4","last_reported":1684715949,"current_range_meters":27600,"station_id":"ce4bgt12rcd13ifvqce0","pricing_plan_id":"free"},{"bike_id":"d647dc9d-425a-4f6a-bd8b-4be0a566187a","system_id":"levelo_inurba_marseille","lat":43.308012,"lon":5.381511,"is_reserved":false,"is_disabled":false,"rental_uris":{"android":"levelo://app?vid=d647dc9d-425a-4f6a-bd8b-4be0a566187a","ios":"levelo://app?vid=d647dc9d-425a-4f6a-bd8b-4be0a566187a"},"vehicle_type_id":"4","last_reported":1684715949,"current_range_meters":31200,"station_id":"ce4bgt12rcd13ifvqce0","pricing_plan_id":"free"},{"bike_id":"c36c787b-42d4-44cb-b856-4061f49a2261","system_id":"levelo_inurba_marseille","lat":43.308012,"lon":5.381511,"is_reserved":false,"is_disabled":false,"rental_uris":{"android":"levelo://app?vid=c36c787b-42d4-44cb-b856-4061f49a2261","ios":"levelo://app?vid=c36c787b-42d4-44cb-b856-4061f49a2261"},"vehicle_type_id":"4","last_reported":1684715949,"current_range_meters":23200,"station_id":"ce4bgt12rcd13ifvqce0","pricing_plan_id":"free"},{"bike_id":"cac5f46e-9661-40cc-8979-e3a4dc5ee7ff","system_id":"levelo_inurba_marseille","lat":43.308012,"lon":5.381511,"is_reserved":false,"is_disabled":false,"rental_uris":{"android":"levelo://app?vid=cac5f46e-9661-40cc-8979-e3a4dc5ee7ff","ios":"levelo://app?vid=cac5f46e-9661-40cc-8979-e3a4dc5ee7ff"},"vehicle_type_id":"4","last_reported":1684715949,"current_range_meters":28800,"station_id":"ce4bgt12rcd13ifvqce0","pricing_plan_id":"free"},{"bike_id":"849e1ae3-7391-406f-b58a-7060c7c9d813","system_id":"levelo_inurba_marseille","lat":43.308012,"lon":5.381511,"is_reserved":false,"is_disabled":false,"rental_uris":{"android":"levelo://app?vid=849e1ae3-7391-406f-b58a-7060c7c9d813","ios":"levelo://app?vid=849e1ae3-7391-406f-b58a-7060c7c9d813"},"vehicle_type_id":"4","last_reported":1684715949,"current_range_meters":11600,"station_id":"ce4bgt12rcd13ifvqce0","pricing_plan_id":"free"},{"bike_id":"dd222cdb-6e46-4c6f-938b-262920e35a29","system_id":"levelo_inurba_marseille","lat":43.308012,"lon":5.381511,"is_reserved":false,"is_disabled":false,"rental_uris":{"android":"levelo://app?vid=dd222cdb-6e46-4c6f-938b-262920e35a29","ios":"levelo://app?vid=dd222cdb-6e46-4c6f-938b-262920e35a29"},"vehicle_type_id":"4","last_reported":1684715949,"current_range_meters":22000,"station_id":"ce4bgt12rcd13ifvqce0","pricing_plan_id":"free"},{"bike_id":"296c33f7-512f-4eb4-9be3-490e2cd90e69","system_id":"levelo_inurba_marseille","lat":43.304606,"lon":5.379026,"is_reserved":false,"is_disabled":false,"rental_uris":{"android":"levelo://app?vid=296c33f7-512f-4eb4-9be3-490e2cd90e69","ios":"levelo://app?vid=296c33f7-512f-4eb4-9be3-490e2cd90e69"},"vehicle_type_id":"4","last_reported":1684715949,"current_range_meters":16000,"station_id":"ce4bgup2rcd13ifvqcn0","pricing_plan_id":"free"},{"bike_id":"48bac715-8f81-487a-9780-9257a1422add","system_id":"levelo_inurba_marseille","lat":43.30146,"lon":5.37411,"is_reserved":false,"is_disabled":false,"rental_uris":{"android":"levelo://app?vid=48bac715-8f81-487a-9780-9257a1422add","ios":"levelo://app?vid=48bac715-8f81-487a-9780-9257a1422add"},"vehicle_type_id":"4","last_reported":1684715949,"current_range_meters":11600,"station_id":"","pricing_plan_id":"free"},{"bike_id":"56c93b58-80fb-4140-9e20-c35a824d17ea","system_id":"levelo_inurba_marseille","lat":43.319935,"lon":5.381699,"is_reserved":false,"is_disabled":false,"rental_uris":{"android":"levelo://app?vid=56c93b58-80fb-4140-9e20-c35a824d17ea","ios":"levelo://app?vid=56c93b58-80fb-4140-9e20-c35a824d17ea"},"vehicle_type_id":"4","last_reported":1684715949,"current_range_meters":20400,"station_id":"ce4bhr12rcd13ifvqhpg","pricing_plan_id":"free"},{"bike_id":"9bb6c568-1b70-4c4f-a855-2042d5d6e5da","system_id":"levelo_inurba_marseille","lat":43.319935,"lon":5.381699,"is_reserved":false,"is_disabled":false,"rental_uris":{"android":"levelo://app?vid=9bb6c568-1b70-4c4f-a855-2042d5d6e5da","ios":"levelo://app?vid=9bb6c568-1b70-4c4f-a855-2042d5d6e5da"},"vehicle_type_id":"4","last_reported":1684715949,"current_range_meters":14000,"station_id":"ce4bhr12rcd13ifvqhpg","pricing_plan_id":"free"},{"bike_id":"cd173530-4374-4ee9-b203-9ec424b90fdf","system_id":"levelo_inurba_marseille","lat":43.319935,"lon":5.381699,"is_reserved":false,"is_disabled":false,"rental_uris":{"android":"levelo://app?vid=cd173530-4374-4ee9-b203-9ec424b90fdf","ios":"levelo://app?vid=cd173530-4374-4ee9-b203-9ec424b90fdf"},"vehicle_type_id":"4","last_reported":1684715949,"current_range_meters":400,"station_id":"ce4bhr12rcd13ifvqhpg","pricing_plan_id":"free"},{"bike_id":"3f8a8413-8fb6-406d-a461-2766afbe14f8","system_id":"levelo_inurba_marseille","lat":43.313571,"lon":5.384829,"is_reserved":false,"is_disabled":false,"rental_uris":{"android":"levelo://app?vid=3f8a8413-8fb6-406d-a461-2766afbe14f8","ios":"levelo://app?vid=3f8a8413-8fb6-406d-a461-2766afbe14f8"},"vehicle_type_id":"4","last_reported":1684715949,"current_range_meters":31200,"station_id":"ce4bgt92rcd13ifvqcf0","pricing_plan_id":"free"},{"bike_id":"2451c753-655b-4080-bb80-38059d434247","system_id":"levelo_inurba_marseille","lat":43.313571,"lon":5.384829,"is_reserved":false,"is_disabled":false,"rental_uris":{"android":"levelo://app?vid=2451c753-655b-4080-bb80-38059d434247","ios":"levelo://app?vid=2451c753-655b-4080-bb80-38059d434247"},"vehicle_type_id":"4","last_reported":1684715949,"current_range_meters":16000,"station_id":"ce4bgt92rcd13ifvqcf0","pricing_plan_id":"free"},{"bike_id":"d7fefad8-5f76-49c3-8f00-17bb38d31be9","system_id":"levelo_inurba_marseille","lat":43.313571,"lon":5.384829,"is_reserved":false,"is_disabled":false,"rental_uris":{"android":"levelo://app?vid=d7fefad8-5f76-49c3-8f00-17bb38d31be9","ios":"levelo://app?vid=d7fefad8-5f76-49c3-8f00-17bb38d31be9"},"vehicle_type_id":"4","last_reported":1684715949,"current_range_meters":12800,"station_id":"ce4bgt92rcd13ifvqcf0","pricing_plan_id":"free"},{"bike_id":"c80c6abb-97e0-436e-a64b-4e2bd4d07b0a","system_id":"levelo_inurba_marseille","lat":43.313571,"lon":5.384829,"is_reserved":false,"is_disabled":false,"rental_uris":{"android":"levelo://app?vid=c80c6abb-97e0-436e-a64b-4e2bd4d07b0a","ios":"levelo://app?vid=c80c6abb-97e0-436e-a64b-4e2bd4d07b0a"},"vehicle_type_id":"4","last_reported":1684715949,"current_range_meters":19200,"station_id":"ce4bgt92rcd13ifvqcf0","pricing_plan_id":"free"},{"bike_id":"a8b0c08b-1ecc-4d1c-9e5a-3f1460b7d939","system_id":"levelo_inurba_marseille","lat":43.313571,"lon":5.384829,"is_reserved":false,"is_disabled":false,"rental_uris":{"android":"levelo://app?vid=a8b0c08b-1ecc-4d1c-9e5a-3f1460b7d939","ios":"levelo://app?vid=a8b0c08b-1ecc-4d1c-9e5a-3f1460b7d939"},"vehicle_type_id":"4","last_reported":1684715949,"current_range_meters":28000,"station_id":"ce4bgt92rcd13ifvqcf0","pricing_plan_id":"free"},{"bike_id":"cb31e149-07f0-4ac5-ad2c-a080dd87516b","system_id":"levelo_inurba_marseille","lat":43.313571,"lon":5.384829,"is_reserved":false,"is_disabled":false,"rental_uris":{"android":"levelo://app?vid=cb31e149-07f0-4ac5-ad2c-a080dd87516b","ios":"levelo://app?vid=cb31e149-07f0-4ac5-ad2c-a080dd87516b"},"vehicle_type_id":"4","last_reported":1684715949,"current_range_meters":20800,"station_id":"ce4bgt92rcd13ifvqcf0","pricing_plan_id":"free"},{"bike_id":"19ad8094-99b9-4575-9aba-cd53c644a739","system_id":"levelo_inurba_marseille","lat":43.299222,"lon":5.365554,"is_reserved":false,"is_disabled":false,"rental_uris":{"android":"levelo://app?vid=19ad8094-99b9-4575-9aba-cd53c644a739","ios":"levelo://app?vid=19ad8094-99b9-4575-9aba-cd53c644a739"},"vehicle_type_id":"4","last_reported":1684715949,"current_range_meters":20800,"station_id":"ce4bgm92rcd13ifvqbr0","pricing_plan_id":"free"},{"bike_id":"a8dd4053-2d67-47fe-b76f-2dfb879d21b8","system_id":"levelo_inurba_marseille","lat":43.305364,"lon":5.384119,"is_reserved":false,"is_disabled":false,"rental_uris":{"android":"levelo://app?vid=a8dd4053-2d67-47fe-b76f-2dfb879d21b8","ios":"levelo://app?vid=a8dd4053-2d67-47fe-b76f-2dfb879d21b8"},"vehicle_type_id":"4","last_reported":1684715949,"current_range_meters":22000,"station_id":"ce4bgg92rcd13ifvqb30","pricing_plan_id":"free"},{"bike_id":"8c9f6b0a-8dd3-4894-905f-1ed600568762","system_id":"levelo_inurba_marseille","lat":43.299243,"lon":5.374807,"is_reserved":false,"is_disabled":false,"rental_uris":{"android":"levelo://app?vid=8c9f6b0a-8dd3-4894-905f-1ed600568762","ios":"levelo://app?vid=8c9f6b0a-8dd3-4894-905f-1ed600568762"},"vehicle_type_id":"4","last_reported":1684715949,"current_range_meters":28800,"station_id":"ce4bgjh2rcd13ifvqbg0","pricing_plan_id":"free"},{"bike_id":"3f0e9356-fa60-49bc-8d24-0a85961b020b","system_id":"levelo_inurba_marseille","lat":43.299243,"lon":5.37481,"is_reserved":false,"is_disabled":false,"rental_uris":{"android":"levelo://app?vid=3f0e9356-fa60-49bc-8d24-0a85961b020b","ios":"levelo://app?vid=3f0e9356-fa60-49bc-8d24-0a85961b020b"},"vehicle_type_id":"4","last_reported":1684715949,"current_range_meters":25200,"station_id":"ce4bgjh2rcd13ifvqbg0","pricing_plan_id":"free"},{"bike_id":"4a7c0306-7b5d-491d-8ccf-4a3d122a1327","system_id":"levelo_inurba_marseille","lat":43.299243,"lon":5.37481,"is_reserved":false,"is_disabled":false,"rental_uris":{"android":"levelo://app?vid=4a7c0306-7b5d-491d-8ccf-4a3d122a1327","ios":"levelo://app?vid=4a7c0306-7b5d-491d-8ccf-4a3d122a1327"},"vehicle_type_id":"4","last_reported":1684715949,"current_range_meters":29600,"station_id":"ce4bgjh2rcd13ifvqbg0","pricing_plan_id":"free"},{"bike_id":"5b459370-bea7-4f5a-895e-0e6a2685cb05","system_id":"levelo_inurba_marseille","lat":43.311722,"lon":5.387247,"is_reserved":false,"is_disabled":false,"rental_uris":{"android":"levelo://app?vid=5b459370-bea7-4f5a-895e-0e6a2685cb05","ios":"levelo://app?vid=5b459370-bea7-4f5a-895e-0e6a2685cb05"},"vehicle_type_id":"4","last_reported":1684715949,"current_range_meters":6400,"station_id":"ce4bgv12rcd13ifvqcp0","pricing_plan_id":"free"},{"bike_id":"c768b428-0d3c-4291-89df-5656dc596f25","system_id":"levelo_inurba_marseille","lat":43.311722,"lon":5.387247,"is_reserved":false,"is_disabled":false,"rental_uris":{"android":"levelo://app?vid=c768b428-0d3c-4291-89df-5656dc596f25","ios":"levelo://app?vid=c768b428-0d3c-4291-89df-5656dc596f25"},"vehicle_type_id":"4","last_reported":1684715949,"current_range_meters":800,"station_id":"ce4bgv12rcd13ifvqcp0","pricing_plan_id":"free"},{"bike_id":"3fc9a936-4a92-45db-aa14-9269405f3a2c","system_id":"levelo_inurba_marseille","lat":43.311722,"lon":5.387247,"is_reserved":false,"is_disabled":false,"rental_uris":{"android":"levelo://app?vid=3fc9a936-4a92-45db-aa14-9269405f3a2c","ios":"levelo://app?vid=3fc9a936-4a92-45db-aa14-9269405f3a2c"},"vehicle_type_id":"4","last_reported":1684715949,"current_range_meters":24400,"station_id":"ce4bgv12rcd13ifvqcp0","pricing_plan_id":"free"},{"bike_id":"ab60bb38-0137-4467-94c2-d1f73ca46aff","system_id":"levelo_inurba_marseille","lat":43.311722,"lon":5.387247,"is_reserved":false,"is_disabled":false,"rental_uris":{"android":"levelo://app?vid=ab60bb38-0137-4467-94c2-d1f73ca46aff","ios":"levelo://app?vid=ab60bb38-0137-4467-94c2-d1f73ca46aff"},"vehicle_type_id":"4","last_reported":1684715949,"current_range_meters":19200,"station_id":"ce4bgv12rcd13ifvqcp0","pricing_plan_id":"free"},{"bike_id":"3e41ee65-e603-4a50-a0db-118f00491820","system_id":"levelo_inurba_marseille","lat":43.311722,"lon":5.387247,"is_reserved":false,"is_disabled":false,"rental_uris":{"android":"levelo://app?vid=3e41ee65-e603-4a50-a0db-118f00491820","ios":"levelo://app?vid=3e41ee65-e603-4a50-a0db-118f00491820"},"vehicle_type_id":"4","last_reported":1684715949,"current_range_meters":1200,"station_id":"ce4bgv12rcd13ifvqcp0","pricing_plan_id":"free"},{"bike_id":"32f2c18e-c864-4d84-b92c-586517c801a4","system_id":"levelo_inurba_marseille","lat":43.299243,"lon":5.37481,"is_reserved":false,"is_disabled":false,"rental_uris":{"android":"levelo://app?vid=32f2c18e-c864-4d84-b92c-586517c801a4","ios":"levelo://app?vid=32f2c18e-c864-4d84-b92c-586517c801a4"},"vehicle_type_id":"4","last_reported":1684715949,"current_range_meters":31200,"station_id":"ce4bgjh2rcd13ifvqbg0","pricing_plan_id":"free"},{"bike_id":"7a4b79ce-7453-464d-beac-4e75ca73d00d","system_id":"levelo_inurba_marseille","lat":43.311722,"lon":5.387247,"is_reserved":false,"is_disabled":false,"rental_uris":{"android":"levelo://app?vid=7a4b79ce-7453-464d-beac-4e75ca73d00d","ios":"levelo://app?vid=7a4b79ce-7453-464d-beac-4e75ca73d00d"},"vehicle_type_id":"4","last_reported":1684715949,"current_range_meters":31600,"station_id":"ce4bgv12rcd13ifvqcp0","pricing_plan_id":"free"},{"bike_id":"b5274d1e-a2e5-4b6e-95f7-c9851fc6bc3d","system_id":"levelo_inurba_marseille","lat":43.311722,"lon":5.387247,"is_reserved":false,"is_disabled":false,"rental_uris":{"android":"levelo://app?vid=b5274d1e-a2e5-4b6e-95f7-c9851fc6bc3d","ios":"levelo://app?vid=b5274d1e-a2e5-4b6e-95f7-c9851fc6bc3d"},"vehicle_type_id":"4","last_reported":1684715949,"current_range_meters":28400,"station_id":"ce4bgv12rcd13ifvqcp0","pricing_plan_id":"free"},{"bike_id":"71a7cd51-c98e-4b63-902f-c2f5a808a065","system_id":"levelo_inurba_marseille","lat":43.3277,"lon":5.36701,"is_reserved":false,"is_disabled":false,"rental_uris":{"android":"levelo://app?vid=71a7cd51-c98e-4b63-902f-c2f5a808a065","ios":"levelo://app?vid=71a7cd51-c98e-4b63-902f-c2f5a808a065"},"vehicle_type_id":"4","last_reported":1684715949,"current_range_meters":16400,"station_id":"","pricing_plan_id":"free"},{"bike_id":"3abc81e1-879b-4b21-9f52-fd14025a07f1","system_id":"levelo_inurba_marseille","lat":43.297774,"lon":5.370875,"is_reserved":false,"is_disabled":false,"rental_uris":{"android":"levelo://app?vid=3abc81e1-879b-4b21-9f52-fd14025a07f1","ios":"levelo://app?vid=3abc81e1-879b-4b21-9f52-fd14025a07f1"},"vehicle_type_id":"4","last_reported":1684715949,"current_range_meters":28000,"station_id":"ce4bgop2rcd13ifvqc1g","pricing_plan_id":"free"},{"bike_id":"a7fb6a73-9ebf-4b56-938e-67995ffda768","system_id":"levelo_inurba_marseille","lat":43.32826,"lon":5.36688,"is_reserved":false,"is_disabled":false,"rental_uris":{"android":"levelo://app?vid=a7fb6a73-9ebf-4b56-938e-67995ffda768","ios":"levelo://app?vid=a7fb6a73-9ebf-4b56-938e-67995ffda768"},"vehicle_type_id":"4","last_reported":1684715949,"current_range_meters":27200,"station_id":"ce4bhs92rcd13ifvqi0g","pricing_plan_id":"free"},{"bike_id":"411c53dc-8a67-493a-b123-b1e299cae53c","system_id":"levelo_inurba_marseille","lat":43.32827,"lon":5.36681,"is_reserved":false,"is_disabled":false,"rental_uris":{"android":"levelo://app?vid=411c53dc-8a67-493a-b123-b1e299cae53c","ios":"levelo://app?vid=411c53dc-8a67-493a-b123-b1e299cae53c"},"vehicle_type_id":"4","last_reported":1684715949,"current_range_meters":25600,"station_id":"ce4bhs92rcd13ifvqi0g","pricing_plan_id":"free"},{"bike_id":"56569103-3d78-4795-9074-b49cf021049d","system_id":"levelo_inurba_marseille","lat":43.32829,"lon":5.36685,"is_reserved":false,"is_disabled":false,"rental_uris":{"android":"levelo://app?vid=56569103-3d78-4795-9074-b49cf021049d","ios":"levelo://app?vid=56569103-3d78-4795-9074-b49cf021049d"},"vehicle_type_id":"4","last_reported":1684715949,"current_range_meters":2800,"station_id":"ce4bhs92rcd13ifvqi0g","pricing_plan_id":"free"},{"bike_id":"9d891959-73d6-4c5c-ad12-227228d64e9d","system_id":"levelo_inurba_marseille","lat":43.3283,"lon":5.36681,"is_reserved":false,"is_disabled":false,"rental_uris":{"android":"levelo://app?vid=9d891959-73d6-4c5c-ad12-227228d64e9d","ios":"levelo://app?vid=9d891959-73d6-4c5c-ad12-227228d64e9d"},"vehicle_type_id":"4","last_reported":1684715949,"current_range_meters":14000,"station_id":"ce4bhs92rcd13ifvqi0g","pricing_plan_id":"free"},{"bike_id":"4bd0bc50-eb27-4447-b60f-a26a73dad528","system_id":"levelo_inurba_marseille","lat":43.32831,"lon":5.36687,"is_reserved":false,"is_disabled":false,"rental_uris":{"android":"levelo://app?vid=4bd0bc50-eb27-4447-b60f-a26a73dad528","ios":"levelo://app?vid=4bd0bc50-eb27-4447-b60f-a26a73dad528"},"vehicle_type_id":"4","last_reported":1684715949,"current_range_meters":23200,"station_id":"ce4bhs92rcd13ifvqi0g","pricing_plan_id":"free"},{"bike_id":"3737530b-ca7b-4728-b36f-2127ef24fc71","system_id":"levelo_inurba_marseille","lat":43.328371,"lon":5.366912,"is_reserved":false,"is_disabled":false,"rental_uris":{"android":"levelo://app?vid=3737530b-ca7b-4728-b36f-2127ef24fc71","ios":"levelo://app?vid=3737530b-ca7b-4728-b36f-2127ef24fc71"},"vehicle_type_id":"4","last_reported":1684715949,"current_range_meters":21600,"station_id":"ce4bhs92rcd13ifvqi0g","pricing_plan_id":"free"},{"bike_id":"e536a9df-1e8b-4f13-a019-b892008d14a9","system_id":"levelo_inurba_marseille","lat":43.29716,"lon":5.36603,"is_reserved":false,"is_disabled":false,"rental_uris":{"android":"levelo://app?vid=e536a9df-1e8b-4f13-a019-b892008d14a9","ios":"levelo://app?vid=e536a9df-1e8b-4f13-a019-b892008d14a9"},"vehicle_type_id":"4","last_reported":1684715949,"current_range_meters":26800,"station_id":"","pricing_plan_id":"free"},{"bike_id":"c53a0104-d7a0-440e-b71c-74098b355a77","system_id":"levelo_inurba_marseille","lat":43.29713,"lon":5.3661,"is_reserved":false,"is_disabled":false,"rental_uris":{"android":"levelo://app?vid=c53a0104-d7a0-440e-b71c-74098b355a77","ios":"levelo://app?vid=c53a0104-d7a0-440e-b71c-74098b355a77"},"vehicle_type_id":"4","last_reported":1684715949,"current_range_meters":25600,"station_id":"","pricing_plan_id":"free"},{"bike_id":"2d291edd-04b3-4a31-bc5e-638432229d02","system_id":"levelo_inurba_marseille","lat":43.328371,"lon":5.366912,"is_reserved":false,"is_disabled":false,"rental_uris":{"android":"levelo://app?vid=2d291edd-04b3-4a31-bc5e-638432229d02","ios":"levelo://app?vid=2d291edd-04b3-4a31-bc5e-638432229d02"},"vehicle_type_id":"4","last_reported":1684715949,"current_range_meters":2800,"station_id":"ce4bhs92rcd13ifvqi0g","pricing_plan_id":"free"},{"bike_id":"ee9ab9b1-5601-4c9a-9461-8bb6f0f5260f","system_id":"levelo_inurba_marseille","lat":43.2968,"lon":5.37291,"is_reserved":false,"is_disabled":false,"rental_uris":{"android":"levelo://app?vid=ee9ab9b1-5601-4c9a-9461-8bb6f0f5260f","ios":"levelo://app?vid=ee9ab9b1-5601-4c9a-9461-8bb6f0f5260f"},"vehicle_type_id":"4","last_reported":1684715949,"current_range_meters":26800,"station_id":"ce4bgk12rcd13ifvqbj0","pricing_plan_id":"free"},{"bike_id":"00ff49ea-ac95-4ae2-9e35-90b39d9dc5a6","system_id":"levelo_inurba_marseille","lat":43.296217,"lon":5.37152,"is_reserved":false,"is_disabled":false,"rental_uris":{"android":"levelo://app?vid=00ff49ea-ac95-4ae2-9e35-90b39d9dc5a6","ios":"levelo://app?vid=00ff49ea-ac95-4ae2-9e35-90b39d9dc5a6"},"vehicle_type_id":"4","last_reported":1684715949,"current_range_meters":12000,"station_id":"ce4bhq92rcd13ifvqhjg","pricing_plan_id":"free"},{"bike_id":"2d4fc561-8ed6-4f5c-92cd-5a2c95b938ee","system_id":"levelo_inurba_marseille","lat":43.317557,"lon":5.390173,"is_reserved":false,"is_disabled":false,"rental_uris":{"android":"levelo://app?vid=2d4fc561-8ed6-4f5c-92cd-5a2c95b938ee","ios":"levelo://app?vid=2d4fc561-8ed6-4f5c-92cd-5a2c95b938ee"},"vehicle_type_id":"4","last_reported":1684715949,"current_range_meters":31200,"station_id":"ce4bhqp2rcd13ifvqhng","pricing_plan_id":"free"},{"bike_id":"e22a5551-37a5-4ed7-ab31-1b2518e2b87c","system_id":"levelo_inurba_marseille","lat":43.304274,"lon":5.388873,"is_reserved":false,"is_disabled":false,"rental_uris":{"android":"levelo://app?vid=e22a5551-37a5-4ed7-ab31-1b2518e2b87c","ios":"levelo://app?vid=e22a5551-37a5-4ed7-ab31-1b2518e2b87c"},"vehicle_type_id":"4","last_reported":1684715949,"current_range_meters":0,"station_id":"ce4bgk12rcd13ifvqbi0","pricing_plan_id":"free"},{"bike_id":"4e99c11d-7529-4f53-b4ce-14ecf4f4c017","system_id":"levelo_inurba_marseille","lat":43.29575,"lon":5.37518,"is_reserved":false,"is_disabled":false,"rental_uris":{"android":"levelo://app?vid=4e99c11d-7529-4f53-b4ce-14ecf4f4c017","ios":"levelo://app?vid=4e99c11d-7529-4f53-b4ce-14ecf4f4c017"},"vehicle_type_id":"4","last_reported":1684715949,"current_range_meters":28000,"station_id":"ce4bgh92rcd13ifvqb50","pricing_plan_id":"free"},{"bike_id":"a3fa0e27-7296-46a9-bd0e-8a36e9082f56","system_id":"levelo_inurba_marseille","lat":43.304274,"lon":5.388873,"is_reserved":false,"is_disabled":false,"rental_uris":{"android":"levelo://app?vid=a3fa0e27-7296-46a9-bd0e-8a36e9082f56","ios":"levelo://app?vid=a3fa0e27-7296-46a9-bd0e-8a36e9082f56"},"vehicle_type_id":"4","last_reported":1684715949,"current_range_meters":22000,"station_id":"ce4bgk12rcd13ifvqbi0","pricing_plan_id":"free"},{"bike_id":"135c6325-c097-40b6-92fc-14cf98ab4463","system_id":"levelo_inurba_marseille","lat":43.295748,"lon":5.37522,"is_reserved":false,"is_disabled":false,"rental_uris":{"android":"levelo://app?vid=135c6325-c097-40b6-92fc-14cf98ab4463","ios":"levelo://app?vid=135c6325-c097-40b6-92fc-14cf98ab4463"},"vehicle_type_id":"4","last_reported":1684715949,"current_range_meters":16000,"station_id":"ce4bgh92rcd13ifvqb50","pricing_plan_id":"free"},{"bike_id":"aea4c755-8e80-438a-a19c-01287b54f344","system_id":"levelo_inurba_marseille","lat":43.32366,"lon":5.38866,"is_reserved":false,"is_disabled":false,"rental_uris":{"android":"levelo://app?vid=aea4c755-8e80-438a-a19c-01287b54f344","ios":"levelo://app?vid=aea4c755-8e80-438a-a19c-01287b54f344"},"vehicle_type_id":"4","last_reported":1684715949,"current_range_meters":22400,"station_id":"ce4bhqp2rcd13ifvqhog","pricing_plan_id":"free"},{"bike_id":"d39153fb-3bdf-494f-a5d9-c0fbd6691de7","system_id":"levelo_inurba_marseille","lat":43.3237,"lon":5.38869,"is_reserved":false,"is_disabled":false,"rental_uris":{"android":"levelo://app?vid=d39153fb-3bdf-494f-a5d9-c0fbd6691de7","ios":"levelo://app?vid=d39153fb-3bdf-494f-a5d9-c0fbd6691de7"},"vehicle_type_id":"4","last_reported":1684715949,"current_range_meters":9200,"station_id":"ce4bhqp2rcd13ifvqhog","pricing_plan_id":"free"},{"bike_id":"e267f340-98f6-4e1c-9dff-034ba5864fb0","system_id":"levelo_inurba_marseille","lat":43.32367,"lon":5.38874,"is_reserved":false,"is_disabled":false,"rental_uris":{"android":"levelo://app?vid=e267f340-98f6-4e1c-9dff-034ba5864fb0","ios":"levelo://app?vid=e267f340-98f6-4e1c-9dff-034ba5864fb0"},"vehicle_type_id":"4","last_reported":1684715949,"current_range_meters":29200,"station_id":"ce4bhqp2rcd13ifvqhog","pricing_plan_id":"free"},{"bike_id":"b2239e09-41dc-4cde-9b2f-b27fe7d0a355","system_id":"levelo_inurba_marseille","lat":43.32368,"lon":5.38874,"is_reserved":false,"is_disabled":false,"rental_uris":{"android":"levelo://app?vid=b2239e09-41dc-4cde-9b2f-b27fe7d0a355","ios":"levelo://app?vid=b2239e09-41dc-4cde-9b2f-b27fe7d0a355"},"vehicle_type_id":"4","last_reported":1684715949,"current_range_meters":28000,"station_id":"ce4bhqp2rcd13ifvqhog","pricing_plan_id":"free"},{"bike_id":"4ac8d894-44aa-44fe-a5bc-75ed68bed853","system_id":"levelo_inurba_marseille","lat":43.32363,"lon":5.38881,"is_reserved":false,"is_disabled":false,"rental_uris":{"android":"levelo://app?vid=4ac8d894-44aa-44fe-a5bc-75ed68bed853","ios":"levelo://app?vid=4ac8d894-44aa-44fe-a5bc-75ed68bed853"},"vehicle_type_id":"4","last_reported":1684715949,"current_range_meters":15200,"station_id":"ce4bhqp2rcd13ifvqhog","pricing_plan_id":"free"},{"bike_id":"e93e9afc-a4d8-40a8-acd4-6ce3c457187d","system_id":"levelo_inurba_marseille","lat":43.32365,"lon":5.38882,"is_reserved":false,"is_disabled":false,"rental_uris":{"android":"levelo://app?vid=e93e9afc-a4d8-40a8-acd4-6ce3c457187d","ios":"levelo://app?vid=e93e9afc-a4d8-40a8-acd4-6ce3c457187d"},"vehicle_type_id":"4","last_reported":1684715949,"current_range_meters":17600,"station_id":"ce4bhqp2rcd13ifvqhog","pricing_plan_id":"free"},{"bike_id":"54116cb7-e06e-44b7-b6c6-7288ee4c40a3","system_id":"levelo_inurba_marseille","lat":43.3237,"lon":5.38878,"is_reserved":false,"is_disabled":false,"rental_uris":{"android":"levelo://app?vid=54116cb7-e06e-44b7-b6c6-7288ee4c40a3","ios":"levelo://app?vid=54116cb7-e06e-44b7-b6c6-7288ee4c40a3"},"vehicle_type_id":"4","last_reported":1684715949,"current_range_meters":25200,"station_id":"ce4bhqp2rcd13ifvqhog","pricing_plan_id":"free"},{"bike_id":"73045699-9656-449f-aed1-96552ac57a20","system_id":"levelo_inurba_marseille","lat":43.32366,"lon":5.38882,"is_reserved":false,"is_disabled":false,"rental_uris":{"android":"levelo://app?vid=73045699-9656-449f-aed1-96552ac57a20","ios":"levelo://app?vid=73045699-9656-449f-aed1-96552ac57a20"},"vehicle_type_id":"4","last_reported":1684715949,"current_range_meters":28800,"station_id":"ce4bhqp2rcd13ifvqhog","pricing_plan_id":"free"},{"bike_id":"4801f3fd-1e36-4ac4-90da-a6af93fab01d","system_id":"levelo_inurba_marseille","lat":43.3237,"lon":5.38879,"is_reserved":false,"is_disabled":false,"rental_uris":{"android":"levelo://app?vid=4801f3fd-1e36-4ac4-90da-a6af93fab01d","ios":"levelo://app?vid=4801f3fd-1e36-4ac4-90da-a6af93fab01d"},"vehicle_type_id":"4","last_reported":1684715949,"current_range_meters":19200,"station_id":"ce4bhqp2rcd13ifvqhog","pricing_plan_id":"free"},{"bike_id":"81343f62-2d4a-4850-8480-f129af56a333","system_id":"levelo_inurba_marseille","lat":43.32367,"lon":5.388836,"is_reserved":false,"is_disabled":false,"rental_uris":{"android":"levelo://app?vid=81343f62-2d4a-4850-8480-f129af56a333","ios":"levelo://app?vid=81343f62-2d4a-4850-8480-f129af56a333"},"vehicle_type_id":"4","last_reported":1684715949,"current_range_meters":20400,"station_id":"ce4bhqp2rcd13ifvqhog","pricing_plan_id":"free"},{"bike_id":"278cf516-bd46-4a4e-b2c7-90ce64b42f33","system_id":"levelo_inurba_marseille","lat":43.32367,"lon":5.388836,"is_reserved":false,"is_disabled":false,"rental_uris":{"android":"levelo://app?vid=278cf516-bd46-4a4e-b2c7-90ce64b42f33","ios":"levelo://app?vid=278cf516-bd46-4a4e-b2c7-90ce64b42f33"},"vehicle_type_id":"4","last_reported":1684715949,"current_range_meters":23200,"station_id":"ce4bhqp2rcd13ifvqhog","pricing_plan_id":"free"},{"bike_id":"01d401da-ad68-4b2e-a4ac-24f3f8771d91","system_id":"levelo_inurba_marseille","lat":43.32367,"lon":5.388836,"is_reserved":false,"is_disabled":false,"rental_uris":{"android":"levelo://app?vid=01d401da-ad68-4b2e-a4ac-24f3f8771d91","ios":"levelo://app?vid=01d401da-ad68-4b2e-a4ac-24f3f8771d91"},"vehicle_type_id":"4","last_reported":1684715949,"current_range_meters":19600,"station_id":"ce4bhqp2rcd13ifvqhog","pricing_plan_id":"free"},{"bike_id":"53c80b4b-d032-45da-9217-748d7d82aa73","system_id":"levelo_inurba_marseille","lat":43.32378,"lon":5.3888,"is_reserved":false,"is_disabled":false,"rental_uris":{"android":"levelo://app?vid=53c80b4b-d032-45da-9217-748d7d82aa73","ios":"levelo://app?vid=53c80b4b-d032-45da-9217-748d7d82aa73"},"vehicle_type_id":"4","last_reported":1684715949,"current_range_meters":10400,"station_id":"ce4bhqp2rcd13ifvqhog","pricing_plan_id":"free"},{"bike_id":"dd6fddd5-6fc1-485e-9b2e-aac663332039","system_id":"levelo_inurba_marseille","lat":43.29601,"lon":5.381084,"is_reserved":false,"is_disabled":false,"rental_uris":{"android":"levelo://app?vid=dd6fddd5-6fc1-485e-9b2e-aac663332039","ios":"levelo://app?vid=dd6fddd5-6fc1-485e-9b2e-aac663332039"},"vehicle_type_id":"4","last_reported":1684715949,"current_range_meters":12000,"station_id":"ce4bgl12rcd13ifvqbo0","pricing_plan_id":"free"},{"bike_id":"670b361f-56fc-4668-b0d4-283285a19129","system_id":"levelo_inurba_marseille","lat":43.293009,"lon":5.374584,"is_reserved":false,"is_disabled":false,"rental_uris":{"android":"levelo://app?vid=670b361f-56fc-4668-b0d4-283285a19129","ios":"levelo://app?vid=670b361f-56fc-4668-b0d4-283285a19129"},"vehicle_type_id":"4","last_reported":1684715949,"current_range_meters":31200,"station_id":"ce4bgi12rcd13ifvqb70","pricing_plan_id":"free"},{"bike_id":"410e7f1d-c5b5-4356-894f-a45532c05fae","system_id":"levelo_inurba_marseille","lat":43.305994,"lon":5.393687,"is_reserved":false,"is_disabled":false,"rental_uris":{"android":"levelo://app?vid=410e7f1d-c5b5-4356-894f-a45532c05fae","ios":"levelo://app?vid=410e7f1d-c5b5-4356-894f-a45532c05fae"},"vehicle_type_id":"4","last_reported":1684715949,"current_range_meters":19200,"station_id":"ce4bh0p2rcd13ifvqd80","pricing_plan_id":"free"},{"bike_id":"157b8275-13fd-4b3a-9d31-989366f12823","system_id":"levelo_inurba_marseille","lat":43.293009,"lon":5.374584,"is_reserved":false,"is_disabled":false,"rental_uris":{"android":"levelo://app?vid=157b8275-13fd-4b3a-9d31-989366f12823","ios":"levelo://app?vid=157b8275-13fd-4b3a-9d31-989366f12823"},"vehicle_type_id":"4","last_reported":1684715949,"current_range_meters":29600,"station_id":"ce4bgi12rcd13ifvqb70","pricing_plan_id":"free"},{"bike_id":"433e1f3d-f97d-442a-8669-adf2ba7d94d4","system_id":"levelo_inurba_marseille","lat":43.30594,"lon":5.39358,"is_reserved":false,"is_disabled":false,"rental_uris":{"android":"levelo://app?vid=433e1f3d-f97d-442a-8669-adf2ba7d94d4","ios":"levelo://app?vid=433e1f3d-f97d-442a-8669-adf2ba7d94d4"},"vehicle_type_id":"4","last_reported":1684715949,"current_range_meters":24400,"station_id":"ce4bh0p2rcd13ifvqd80","pricing_plan_id":"free"},{"bike_id":"e0f91c61-5df8-45c9-a069-fc6aa51ac636","system_id":"levelo_inurba_marseille","lat":43.30315,"lon":5.39194,"is_reserved":false,"is_disabled":false,"rental_uris":{"android":"levelo://app?vid=e0f91c61-5df8-45c9-a069-fc6aa51ac636","ios":"levelo://app?vid=e0f91c61-5df8-45c9-a069-fc6aa51ac636"},"vehicle_type_id":"4","last_reported":1684715949,"current_range_meters":30000,"station_id":"ce4bgkh2rcd13ifvqbk0","pricing_plan_id":"free"},{"bike_id":"8731bb19-3ae0-4468-a0b5-febd6863bff2","system_id":"levelo_inurba_marseille","lat":43.30085,"lon":5.390856,"is_reserved":false,"is_disabled":false,"rental_uris":{"android":"levelo://app?vid=8731bb19-3ae0-4468-a0b5-febd6863bff2","ios":"levelo://app?vid=8731bb19-3ae0-4468-a0b5-febd6863bff2"},"vehicle_type_id":"4","last_reported":1684715949,"current_range_meters":29200,"station_id":"ce4bh192rcd13ifvqdb0","pricing_plan_id":"free"},{"bike_id":"1950c7c2-a1e3-4913-aaf2-b2b97102bd51","system_id":"levelo_inurba_marseille","lat":43.30085,"lon":5.390856,"is_reserved":false,"is_disabled":false,"rental_uris":{"android":"levelo://app?vid=1950c7c2-a1e3-4913-aaf2-b2b97102bd51","ios":"levelo://app?vid=1950c7c2-a1e3-4913-aaf2-b2b97102bd51"},"vehicle_type_id":"4","last_reported":1684715949,"current_range_meters":27200,"station_id":"ce4bh192rcd13ifvqdb0","pricing_plan_id":"free"},{"bike_id":"f013014a-f236-46ba-af11-a9406810e1dc","system_id":"levelo_inurba_marseille","lat":43.300852,"lon":5.390859,"is_reserved":false,"is_disabled":false,"rental_uris":{"android":"levelo://app?vid=f013014a-f236-46ba-af11-a9406810e1dc","ios":"levelo://app?vid=f013014a-f236-46ba-af11-a9406810e1dc"},"vehicle_type_id":"4","last_reported":1684715949,"current_range_meters":22800,"station_id":"ce4bh192rcd13ifvqdb0","pricing_plan_id":"free"},{"bike_id":"cf5590de-3261-4cab-a11b-3885824ca53f","system_id":"levelo_inurba_marseille","lat":43.2922,"lon":5.36054,"is_reserved":false,"is_disabled":false,"rental_uris":{"android":"levelo://app?vid=cf5590de-3261-4cab-a11b-3885824ca53f","ios":"levelo://app?vid=cf5590de-3261-4cab-a11b-3885824ca53f"},"vehicle_type_id":"4","last_reported":1684715949,"current_range_meters":0,"station_id":"","pricing_plan_id":"free"},{"bike_id":"a9347715-c81d-4f0d-b36b-b48ef200db1a","system_id":"levelo_inurba_marseille","lat":43.309038,"lon":5.396546,"is_reserved":false,"is_disabled":false,"rental_uris":{"android":"levelo://app?vid=a9347715-c81d-4f0d-b36b-b48ef200db1a","ios":"levelo://app?vid=a9347715-c81d-4f0d-b36b-b48ef200db1a"},"vehicle_type_id":"4","last_reported":1684715949,"current_range_meters":14800,"station_id":"ce4bh012rcd13ifvqcv0","pricing_plan_id":"free"},{"bike_id":"77dd8b81-301c-449d-99a3-53f80dae1245","system_id":"levelo_inurba_marseille","lat":43.313291,"lon":5.396838,"is_reserved":false,"is_disabled":false,"rental_uris":{"android":"levelo://app?vid=77dd8b81-301c-449d-99a3-53f80dae1245","ios":"levelo://app?vid=77dd8b81-301c-449d-99a3-53f80dae1245"},"vehicle_type_id":"4","last_reported":1684715949,"current_range_meters":19600,"station_id":"ce4bgvp2rcd13ifvqcu0","pricing_plan_id":"free"},{"bike_id":"17b10b0e-d68d-4375-b6d7-465d1a390f8c","system_id":"levelo_inurba_marseille","lat":43.309038,"lon":5.396546,"is_reserved":false,"is_disabled":false,"rental_uris":{"android":"levelo://app?vid=17b10b0e-d68d-4375-b6d7-465d1a390f8c","ios":"levelo://app?vid=17b10b0e-d68d-4375-b6d7-465d1a390f8c"},"vehicle_type_id":"4","last_reported":1684715949,"current_range_meters":31200,"station_id":"ce4bh012rcd13ifvqcv0","pricing_plan_id":"free"},{"bike_id":"2fc50160-b929-4a4c-a8cb-64259b533cc1","system_id":"levelo_inurba_marseille","lat":43.309038,"lon":5.396546,"is_reserved":false,"is_disabled":false,"rental_uris":{"android":"levelo://app?vid=2fc50160-b929-4a4c-a8cb-64259b533cc1","ios":"levelo://app?vid=2fc50160-b929-4a4c-a8cb-64259b533cc1"},"vehicle_type_id":"4","last_reported":1684715949,"current_range_meters":31200,"station_id":"ce4bh012rcd13ifvqcv0","pricing_plan_id":"free"},{"bike_id":"aa4fd7dc-1da9-4ee6-af1b-0874c294a946","system_id":"levelo_inurba_marseille","lat":43.309038,"lon":5.396546,"is_reserved":false,"is_disabled":false,"rental_uris":{"android":"levelo://app?vid=aa4fd7dc-1da9-4ee6-af1b-0874c294a946","ios":"levelo://app?vid=aa4fd7dc-1da9-4ee6-af1b-0874c294a946"},"vehicle_type_id":"4","last_reported":1684715949,"current_range_meters":11200,"station_id":"ce4bh012rcd13ifvqcv0","pricing_plan_id":"free"},{"bike_id":"942bd61a-0dc8-40ee-a448-0e63f89a641e","system_id":"levelo_inurba_marseille","lat":43.309038,"lon":5.396546,"is_reserved":false,"is_disabled":false,"rental_uris":{"android":"levelo://app?vid=942bd61a-0dc8-40ee-a448-0e63f89a641e","ios":"levelo://app?vid=942bd61a-0dc8-40ee-a448-0e63f89a641e"},"vehicle_type_id":"4","last_reported":1684715949,"current_range_meters":4000,"station_id":"ce4bh012rcd13ifvqcv0","pricing_plan_id":"free"},{"bike_id":"946f8436-efc7-49ae-b3c5-baa103c4b83f","system_id":"levelo_inurba_marseille","lat":43.309038,"lon":5.396546,"is_reserved":false,"is_disabled":false,"rental_uris":{"android":"levelo://app?vid=946f8436-efc7-49ae-b3c5-baa103c4b83f","ios":"levelo://app?vid=946f8436-efc7-49ae-b3c5-baa103c4b83f"},"vehicle_type_id":"4","last_reported":1684715949,"current_range_meters":30400,"station_id":"ce4bh012rcd13ifvqcv0","pricing_plan_id":"free"},{"bike_id":"3792d515-34af-431c-9707-4a5fa24da28f","system_id":"levelo_inurba_marseille","lat":43.309038,"lon":5.396546,"is_reserved":false,"is_disabled":false,"rental_uris":{"android":"levelo://app?vid=3792d515-34af-431c-9707-4a5fa24da28f","ios":"levelo://app?vid=3792d515-34af-431c-9707-4a5fa24da28f"},"vehicle_type_id":"4","last_reported":1684715949,"current_range_meters":19600,"station_id":"ce4bh012rcd13ifvqcv0","pricing_plan_id":"free"},{"bike_id":"bbadd2d8-fa59-4d26-97dc-3828c970d04c","system_id":"levelo_inurba_marseille","lat":43.309038,"lon":5.396546,"is_reserved":false,"is_disabled":false,"rental_uris":{"android":"levelo://app?vid=bbadd2d8-fa59-4d26-97dc-3828c970d04c","ios":"levelo://app?vid=bbadd2d8-fa59-4d26-97dc-3828c970d04c"},"vehicle_type_id":"4","last_reported":1684715949,"current_range_meters":24400,"station_id":"ce4bh012rcd13ifvqcv0","pricing_plan_id":"free"},{"bike_id":"0754a0a8-f034-4eff-9d6d-87cdd8adedc5","system_id":"levelo_inurba_marseille","lat":43.309038,"lon":5.396546,"is_reserved":false,"is_disabled":false,"rental_uris":{"android":"levelo://app?vid=0754a0a8-f034-4eff-9d6d-87cdd8adedc5","ios":"levelo://app?vid=0754a0a8-f034-4eff-9d6d-87cdd8adedc5"},"vehicle_type_id":"4","last_reported":1684715949,"current_range_meters":12400,"station_id":"ce4bh012rcd13ifvqcv0","pricing_plan_id":"free"},{"bike_id":"c33643a0-f8d0-40ad-b780-2bf912064667","system_id":"levelo_inurba_marseille","lat":43.309038,"lon":5.396546,"is_reserved":false,"is_disabled":false,"rental_uris":{"android":"levelo://app?vid=c33643a0-f8d0-40ad-b780-2bf912064667","ios":"levelo://app?vid=c33643a0-f8d0-40ad-b780-2bf912064667"},"vehicle_type_id":"4","last_reported":1684715949,"current_range_meters":28400,"station_id":"ce4bh012rcd13ifvqcv0","pricing_plan_id":"free"},{"bike_id":"cb44302b-1107-4134-9908-445e870ef38f","system_id":"levelo_inurba_marseille","lat":43.309038,"lon":5.396546,"is_reserved":false,"is_disabled":false,"rental_uris":{"android":"levelo://app?vid=cb44302b-1107-4134-9908-445e870ef38f","ios":"levelo://app?vid=cb44302b-1107-4134-9908-445e870ef38f"},"vehicle_type_id":"4","last_reported":1684715949,"current_range_meters":30400,"station_id":"ce4bh012rcd13ifvqcv0","pricing_plan_id":"free"},{"bike_id":"f7a62b77-d607-4b86-9f99-09d6351bf3a1","system_id":"levelo_inurba_marseille","lat":43.30021,"lon":5.39139,"is_reserved":false,"is_disabled":false,"rental_uris":{"android":"levelo://app?vid=f7a62b77-d607-4b86-9f99-09d6351bf3a1","ios":"levelo://app?vid=f7a62b77-d607-4b86-9f99-09d6351bf3a1"},"vehicle_type_id":"4","last_reported":1684715949,"current_range_meters":17600,"station_id":"","pricing_plan_id":"free"},{"bike_id":"29aace73-b171-4ca6-b714-e9cc43875f25","system_id":"levelo_inurba_marseille","lat":43.313291,"lon":5.396838,"is_reserved":false,"is_disabled":false,"rental_uris":{"android":"levelo://app?vid=29aace73-b171-4ca6-b714-e9cc43875f25","ios":"levelo://app?vid=29aace73-b171-4ca6-b714-e9cc43875f25"},"vehicle_type_id":"4","last_reported":1684715949,"current_range_meters":5600,"station_id":"ce4bgvp2rcd13ifvqcu0","pricing_plan_id":"free"},{"bike_id":"50ffc5d6-ecb8-4e0c-bc65-0dc1ef7d7801","system_id":"levelo_inurba_marseille","lat":43.313291,"lon":5.396838,"is_reserved":false,"is_disabled":false,"rental_uris":{"android":"levelo://app?vid=50ffc5d6-ecb8-4e0c-bc65-0dc1ef7d7801","ios":"levelo://app?vid=50ffc5d6-ecb8-4e0c-bc65-0dc1ef7d7801"},"vehicle_type_id":"4","last_reported":1684715949,"current_range_meters":6800,"station_id":"ce4bgvp2rcd13ifvqcu0","pricing_plan_id":"free"},{"bike_id":"1f84f264-3a2e-45a2-a4d3-c31af4f7d30e","system_id":"levelo_inurba_marseille","lat":43.291994,"lon":5.357886,"is_reserved":false,"is_disabled":false,"rental_uris":{"android":"levelo://app?vid=1f84f264-3a2e-45a2-a4d3-c31af4f7d30e","ios":"levelo://app?vid=1f84f264-3a2e-45a2-a4d3-c31af4f7d30e"},"vehicle_type_id":"4","last_reported":1684715949,"current_range_meters":0,"station_id":"ce4bhb12rcd13ifvqel0","pricing_plan_id":"free"},{"bike_id":"085277d5-6a1b-47ac-8b05-9f66b60c4721","system_id":"levelo_inurba_marseille","lat":43.313291,"lon":5.396838,"is_reserved":false,"is_disabled":false,"rental_uris":{"android":"levelo://app?vid=085277d5-6a1b-47ac-8b05-9f66b60c4721","ios":"levelo://app?vid=085277d5-6a1b-47ac-8b05-9f66b60c4721"},"vehicle_type_id":"4","last_reported":1684715949,"current_range_meters":8400,"station_id":"ce4bgvp2rcd13ifvqcu0","pricing_plan_id":"free"},{"bike_id":"e49b5417-2f94-4fa4-a4ff-9869d22b5b90","system_id":"levelo_inurba_marseille","lat":43.313291,"lon":5.396838,"is_reserved":false,"is_disabled":false,"rental_uris":{"android":"levelo://app?vid=e49b5417-2f94-4fa4-a4ff-9869d22b5b90","ios":"levelo://app?vid=e49b5417-2f94-4fa4-a4ff-9869d22b5b90"},"vehicle_type_id":"4","last_reported":1684715949,"current_range_meters":26800,"station_id":"ce4bgvp2rcd13ifvqcu0","pricing_plan_id":"free"},{"bike_id":"97a11e30-43ce-4829-b51d-659838e7a0af","system_id":"levelo_inurba_marseille","lat":43.313291,"lon":5.396838,"is_reserved":false,"is_disabled":false,"rental_uris":{"android":"levelo://app?vid=97a11e30-43ce-4829-b51d-659838e7a0af","ios":"levelo://app?vid=97a11e30-43ce-4829-b51d-659838e7a0af"},"vehicle_type_id":"4","last_reported":1684715949,"current_range_meters":19200,"station_id":"ce4bgvp2rcd13ifvqcu0","pricing_plan_id":"free"},{"bike_id":"d4f00183-f1e0-4565-a747-b90eb1b6df9d","system_id":"levelo_inurba_marseille","lat":43.313291,"lon":5.396838,"is_reserved":false,"is_disabled":false,"rental_uris":{"android":"levelo://app?vid=d4f00183-f1e0-4565-a747-b90eb1b6df9d","ios":"levelo://app?vid=d4f00183-f1e0-4565-a747-b90eb1b6df9d"},"vehicle_type_id":"4","last_reported":1684715949,"current_range_meters":4400,"station_id":"ce4bgvp2rcd13ifvqcu0","pricing_plan_id":"free"},{"bike_id":"c907f9bf-5d64-4ac2-a447-37f4bafbb9d9","system_id":"levelo_inurba_marseille","lat":43.309038,"lon":5.396546,"is_reserved":false,"is_disabled":false,"rental_uris":{"android":"levelo://app?vid=c907f9bf-5d64-4ac2-a447-37f4bafbb9d9","ios":"levelo://app?vid=c907f9bf-5d64-4ac2-a447-37f4bafbb9d9"},"vehicle_type_id":"4","last_reported":1684715949,"current_range_meters":30000,"station_id":"ce4bh012rcd13ifvqcv0","pricing_plan_id":"free"},{"bike_id":"d2037b6e-eca8-41d9-b8d6-9c1e599e01f7","system_id":"levelo_inurba_marseille","lat":43.29538,"lon":5.3854,"is_reserved":false,"is_disabled":false,"rental_uris":{"android":"levelo://app?vid=d2037b6e-eca8-41d9-b8d6-9c1e599e01f7","ios":"levelo://app?vid=d2037b6e-eca8-41d9-b8d6-9c1e599e01f7"},"vehicle_type_id":"4","last_reported":1684715949,"current_range_meters":0,"station_id":"ce4bgih2rcd13ifvqba0","pricing_plan_id":"free"},{"bike_id":"b443ad7e-31cf-4edb-ad7d-18ca4fdcfc0d","system_id":"levelo_inurba_marseille","lat":43.290631,"lon":5.359244,"is_reserved":false,"is_disabled":false,"rental_uris":{"android":"levelo://app?vid=b443ad7e-31cf-4edb-ad7d-18ca4fdcfc0d","ios":"levelo://app?vid=b443ad7e-31cf-4edb-ad7d-18ca4fdcfc0d"},"vehicle_type_id":"4","last_reported":1684715949,"current_range_meters":13600,"station_id":"ce4bha92rcd13ifvqeg0","pricing_plan_id":"free"},{"bike_id":"009f9267-f846-4ec5-82b6-c991e3a56440","system_id":"levelo_inurba_marseille","lat":43.302008,"lon":5.394694,"is_reserved":false,"is_disabled":false,"rental_uris":{"android":"levelo://app?vid=009f9267-f846-4ec5-82b6-c991e3a56440","ios":"levelo://app?vid=009f9267-f846-4ec5-82b6-c991e3a56440"},"vehicle_type_id":"4","last_reported":1684715949,"current_range_meters":26000,"station_id":"ce4bh0p2rcd13ifvqd70","pricing_plan_id":"free"},{"bike_id":"80bdbdb7-1f18-4bbe-b6c3-1708e578df57","system_id":"levelo_inurba_marseille","lat":43.30211,"lon":5.39471,"is_reserved":false,"is_disabled":false,"rental_uris":{"android":"levelo://app?vid=80bdbdb7-1f18-4bbe-b6c3-1708e578df57","ios":"levelo://app?vid=80bdbdb7-1f18-4bbe-b6c3-1708e578df57"},"vehicle_type_id":"4","last_reported":1684715949,"current_range_meters":24000,"station_id":"ce4bh0p2rcd13ifvqd70","pricing_plan_id":"free"},{"bike_id":"c658c07e-9c20-47bc-9b49-f562424fa4af","system_id":"levelo_inurba_marseille","lat":43.290631,"lon":5.359244,"is_reserved":false,"is_disabled":false,"rental_uris":{"android":"levelo://app?vid=c658c07e-9c20-47bc-9b49-f562424fa4af","ios":"levelo://app?vid=c658c07e-9c20-47bc-9b49-f562424fa4af"},"vehicle_type_id":"4","last_reported":1684715949,"current_range_meters":23200,"station_id":"ce4bha92rcd13ifvqeg0","pricing_plan_id":"free"},{"bike_id":"18606bd3-164e-4338-956a-3b1b7770e3c4","system_id":"levelo_inurba_marseille","lat":43.290631,"lon":5.359244,"is_reserved":false,"is_disabled":false,"rental_uris":{"android":"levelo://app?vid=18606bd3-164e-4338-956a-3b1b7770e3c4","ios":"levelo://app?vid=18606bd3-164e-4338-956a-3b1b7770e3c4"},"vehicle_type_id":"4","last_reported":1684715949,"current_range_meters":28000,"station_id":"ce4bha92rcd13ifvqeg0","pricing_plan_id":"free"},{"bike_id":"b6feda86-f787-4c77-9e0a-0ea8724c0050","system_id":"levelo_inurba_marseille","lat":43.290319,"lon":5.375732,"is_reserved":false,"is_disabled":false,"rental_uris":{"android":"levelo://app?vid=b6feda86-f787-4c77-9e0a-0ea8724c0050","ios":"levelo://app?vid=b6feda86-f787-4c77-9e0a-0ea8724c0050"},"vehicle_type_id":"4","last_reported":1684715949,"current_range_meters":25200,"station_id":"ce4bh692rcd13ifvqe90","pricing_plan_id":"free"},{"bike_id":"ab5d6f04-416e-4cc5-9b1d-3fa226408fca","system_id":"levelo_inurba_marseille","lat":43.290327,"lon":5.375711,"is_reserved":false,"is_disabled":false,"rental_uris":{"android":"levelo://app?vid=ab5d6f04-416e-4cc5-9b1d-3fa226408fca","ios":"levelo://app?vid=ab5d6f04-416e-4cc5-9b1d-3fa226408fca"},"vehicle_type_id":"4","last_reported":1684715949,"current_range_meters":22400,"station_id":"ce4bh692rcd13ifvqe90","pricing_plan_id":"free"},{"bike_id":"024f8b56-48b5-4214-9598-64b90082b907","system_id":"levelo_inurba_marseille","lat":43.289184,"lon":5.366408,"is_reserved":false,"is_disabled":false,"rental_uris":{"android":"levelo://app?vid=024f8b56-48b5-4214-9598-64b90082b907","ios":"levelo://app?vid=024f8b56-48b5-4214-9598-64b90082b907"},"vehicle_type_id":"4","last_reported":1684715949,"current_range_meters":24000,"station_id":"ce4bhap2rcd13ifvqek0","pricing_plan_id":"free"},{"bike_id":"807445fa-400f-490c-8afd-333c5f66f884","system_id":"levelo_inurba_marseille","lat":43.289184,"lon":5.366408,"is_reserved":false,"is_disabled":false,"rental_uris":{"android":"levelo://app?vid=807445fa-400f-490c-8afd-333c5f66f884","ios":"levelo://app?vid=807445fa-400f-490c-8afd-333c5f66f884"},"vehicle_type_id":"4","last_reported":1684715949,"current_range_meters":18400,"station_id":"ce4bhap2rcd13ifvqek0","pricing_plan_id":"free"},{"bike_id":"85fe3bb4-c35b-4e7d-91dd-78fca92b0b25","system_id":"levelo_inurba_marseille","lat":43.289184,"lon":5.366408,"is_reserved":false,"is_disabled":false,"rental_uris":{"android":"levelo://app?vid=85fe3bb4-c35b-4e7d-91dd-78fca92b0b25","ios":"levelo://app?vid=85fe3bb4-c35b-4e7d-91dd-78fca92b0b25"},"vehicle_type_id":"4","last_reported":1684715949,"current_range_meters":8800,"station_id":"ce4bhap2rcd13ifvqek0","pricing_plan_id":"free"},{"bike_id":"8b794642-2dc1-4b90-8853-7e5a084a96b8","system_id":"levelo_inurba_marseille","lat":43.289184,"lon":5.366408,"is_reserved":false,"is_disabled":false,"rental_uris":{"android":"levelo://app?vid=8b794642-2dc1-4b90-8853-7e5a084a96b8","ios":"levelo://app?vid=8b794642-2dc1-4b90-8853-7e5a084a96b8"},"vehicle_type_id":"4","last_reported":1684715949,"current_range_meters":21600,"station_id":"ce4bhap2rcd13ifvqek0","pricing_plan_id":"free"},{"bike_id":"d2cd4606-ef2a-4843-a3f9-eb72b2157ad8","system_id":"levelo_inurba_marseille","lat":43.289184,"lon":5.366408,"is_reserved":false,"is_disabled":false,"rental_uris":{"android":"levelo://app?vid=d2cd4606-ef2a-4843-a3f9-eb72b2157ad8","ios":"levelo://app?vid=d2cd4606-ef2a-4843-a3f9-eb72b2157ad8"},"vehicle_type_id":"4","last_reported":1684715949,"current_range_meters":28400,"station_id":"ce4bhap2rcd13ifvqek0","pricing_plan_id":"free"},{"bike_id":"c2f69ee4-0e08-460f-a620-89b26619a68d","system_id":"levelo_inurba_marseille","lat":43.289468,"lon":5.363719,"is_reserved":false,"is_disabled":false,"rental_uris":{"android":"levelo://app?vid=c2f69ee4-0e08-460f-a620-89b26619a68d","ios":"levelo://app?vid=c2f69ee4-0e08-460f-a620-89b26619a68d"},"vehicle_type_id":"4","last_reported":1684715949,"current_range_meters":26400,"station_id":"ce4bhc92rcd13ifvqetg","pricing_plan_id":"free"},{"bike_id":"0f724104-12ec-44fe-86df-e3420db5bc6d","system_id":"levelo_inurba_marseille","lat":43.289184,"lon":5.366408,"is_reserved":false,"is_disabled":false,"rental_uris":{"android":"levelo://app?vid=0f724104-12ec-44fe-86df-e3420db5bc6d","ios":"levelo://app?vid=0f724104-12ec-44fe-86df-e3420db5bc6d"},"vehicle_type_id":"4","last_reported":1684715949,"current_range_meters":31200,"station_id":"ce4bhap2rcd13ifvqek0","pricing_plan_id":"free"},{"bike_id":"9234c189-9e9d-42fd-9007-7aa3e2ed642b","system_id":"levelo_inurba_marseille","lat":43.289468,"lon":5.363719,"is_reserved":false,"is_disabled":false,"rental_uris":{"android":"levelo://app?vid=9234c189-9e9d-42fd-9007-7aa3e2ed642b","ios":"levelo://app?vid=9234c189-9e9d-42fd-9007-7aa3e2ed642b"},"vehicle_type_id":"4","last_reported":1684715949,"current_range_meters":28000,"station_id":"ce4bhc92rcd13ifvqetg","pricing_plan_id":"free"},{"bike_id":"b5fdfc20-b769-4abb-abeb-85612739a7a4","system_id":"levelo_inurba_marseille","lat":43.304274,"lon":5.397513,"is_reserved":false,"is_disabled":false,"rental_uris":{"android":"levelo://app?vid=b5fdfc20-b769-4abb-abeb-85612739a7a4","ios":"levelo://app?vid=b5fdfc20-b769-4abb-abeb-85612739a7a4"},"vehicle_type_id":"4","last_reported":1684715949,"current_range_meters":24800,"station_id":"ce4bh092rcd13ifvqd20","pricing_plan_id":"free"},{"bike_id":"a1b52718-4cd4-4568-aed4-4b99bb736668","system_id":"levelo_inurba_marseille","lat":43.304274,"lon":5.397513,"is_reserved":false,"is_disabled":false,"rental_uris":{"android":"levelo://app?vid=a1b52718-4cd4-4568-aed4-4b99bb736668","ios":"levelo://app?vid=a1b52718-4cd4-4568-aed4-4b99bb736668"},"vehicle_type_id":"4","last_reported":1684715949,"current_range_meters":17200,"station_id":"ce4bh092rcd13ifvqd20","pricing_plan_id":"free"},{"bike_id":"41216ec7-cb7d-416a-ab16-570ec4e043b4","system_id":"levelo_inurba_marseille","lat":43.29261,"lon":5.3844,"is_reserved":false,"is_disabled":false,"rental_uris":{"android":"levelo://app?vid=41216ec7-cb7d-416a-ab16-570ec4e043b4","ios":"levelo://app?vid=41216ec7-cb7d-416a-ab16-570ec4e043b4"},"vehicle_type_id":"4","last_reported":1684715949,"current_range_meters":14000,"station_id":"ce4bh692rcd13ifvqea0","pricing_plan_id":"free"},{"bike_id":"2d6b17e1-3cda-475f-83e8-051dbd613984","system_id":"levelo_inurba_marseille","lat":43.30424,"lon":5.3975,"is_reserved":false,"is_disabled":false,"rental_uris":{"android":"levelo://app?vid=2d6b17e1-3cda-475f-83e8-051dbd613984","ios":"levelo://app?vid=2d6b17e1-3cda-475f-83e8-051dbd613984"},"vehicle_type_id":"4","last_reported":1684715949,"current_range_meters":10800,"station_id":"ce4bh092rcd13ifvqd20","pricing_plan_id":"free"},{"bike_id":"fbd2d27a-ad98-438e-9daa-8ed2cb42e964","system_id":"levelo_inurba_marseille","lat":43.304296,"lon":5.397513,"is_reserved":false,"is_disabled":false,"rental_uris":{"android":"levelo://app?vid=fbd2d27a-ad98-438e-9daa-8ed2cb42e964","ios":"levelo://app?vid=fbd2d27a-ad98-438e-9daa-8ed2cb42e964"},"vehicle_type_id":"4","last_reported":1684715949,"current_range_meters":24400,"station_id":"ce4bh092rcd13ifvqd20","pricing_plan_id":"free"},{"bike_id":"a43ae4d1-69bf-4053-9c77-85f179f99fff","system_id":"levelo_inurba_marseille","lat":43.3043,"lon":5.39755,"is_reserved":false,"is_disabled":false,"rental_uris":{"android":"levelo://app?vid=a43ae4d1-69bf-4053-9c77-85f179f99fff","ios":"levelo://app?vid=a43ae4d1-69bf-4053-9c77-85f179f99fff"},"vehicle_type_id":"4","last_reported":1684715949,"current_range_meters":15200,"station_id":"ce4bh092rcd13ifvqd20","pricing_plan_id":"free"},{"bike_id":"7395cc22-f516-46eb-90f2-05f2e9a715bb","system_id":"levelo_inurba_marseille","lat":43.30429,"lon":5.39756,"is_reserved":false,"is_disabled":false,"rental_uris":{"android":"levelo://app?vid=7395cc22-f516-46eb-90f2-05f2e9a715bb","ios":"levelo://app?vid=7395cc22-f516-46eb-90f2-05f2e9a715bb"},"vehicle_type_id":"4","last_reported":1684715949,"current_range_meters":7600,"station_id":"ce4bh092rcd13ifvqd20","pricing_plan_id":"free"},{"bike_id":"56ce9f6b-6808-45d2-9e0f-64eeb12179cf","system_id":"levelo_inurba_marseille","lat":43.33038,"lon":5.38913,"is_reserved":false,"is_disabled":false,"rental_uris":{"android":"levelo://app?vid=56ce9f6b-6808-45d2-9e0f-64eeb12179cf","ios":"levelo://app?vid=56ce9f6b-6808-45d2-9e0f-64eeb12179cf"},"vehicle_type_id":"4","last_reported":1684715949,"current_range_meters":22800,"station_id":"ce4bhr92rcd13ifvqhrg","pricing_plan_id":"free"},{"bike_id":"dc561eec-74b8-4a9d-8360-fde7940ea8ed","system_id":"levelo_inurba_marseille","lat":43.33041,"lon":5.38916,"is_reserved":false,"is_disabled":false,"rental_uris":{"android":"levelo://app?vid=dc561eec-74b8-4a9d-8360-fde7940ea8ed","ios":"levelo://app?vid=dc561eec-74b8-4a9d-8360-fde7940ea8ed"},"vehicle_type_id":"4","last_reported":1684715949,"current_range_meters":13600,"station_id":"ce4bhr92rcd13ifvqhrg","pricing_plan_id":"free"},{"bike_id":"ff5c1717-0caa-403f-a11d-5eda7b6077f9","system_id":"levelo_inurba_marseille","lat":43.33044,"lon":5.38917,"is_reserved":false,"is_disabled":false,"rental_uris":{"android":"levelo://app?vid=ff5c1717-0caa-403f-a11d-5eda7b6077f9","ios":"levelo://app?vid=ff5c1717-0caa-403f-a11d-5eda7b6077f9"},"vehicle_type_id":"4","last_reported":1684715949,"current_range_meters":0,"station_id":"ce4bhr92rcd13ifvqhrg","pricing_plan_id":"free"},{"bike_id":"d2ee21b2-66ce-4151-b3d5-5f9e68e59be0","system_id":"levelo_inurba_marseille","lat":43.3306,"lon":5.38898,"is_reserved":false,"is_disabled":false,"rental_uris":{"android":"levelo://app?vid=d2ee21b2-66ce-4151-b3d5-5f9e68e59be0","ios":"levelo://app?vid=d2ee21b2-66ce-4151-b3d5-5f9e68e59be0"},"vehicle_type_id":"4","last_reported":1684715949,"current_range_meters":19200,"station_id":"ce4bhr92rcd13ifvqhrg","pricing_plan_id":"free"},{"bike_id":"8299692c-2102-46eb-a150-3c6e2b9900d8","system_id":"levelo_inurba_marseille","lat":43.290104,"lon":5.356111,"is_reserved":false,"is_disabled":false,"rental_uris":{"android":"levelo://app?vid=8299692c-2102-46eb-a150-3c6e2b9900d8","ios":"levelo://app?vid=8299692c-2102-46eb-a150-3c6e2b9900d8"},"vehicle_type_id":"4","last_reported":1684715949,"current_range_meters":19600,"station_id":"ce4bhb92rcd13ifvqen0","pricing_plan_id":"free"},{"bike_id":"78ac205d-bd76-4b47-b716-71da10e6bef7","system_id":"levelo_inurba_marseille","lat":43.290104,"lon":5.356111,"is_reserved":false,"is_disabled":false,"rental_uris":{"android":"levelo://app?vid=78ac205d-bd76-4b47-b716-71da10e6bef7","ios":"levelo://app?vid=78ac205d-bd76-4b47-b716-71da10e6bef7"},"vehicle_type_id":"4","last_reported":1684715949,"current_range_meters":26400,"station_id":"ce4bhb92rcd13ifvqen0","pricing_plan_id":"free"},{"bike_id":"2acecaf4-3007-47d0-a1e8-725add926587","system_id":"levelo_inurba_marseille","lat":43.297814,"lon":5.393513,"is_reserved":false,"is_disabled":false,"rental_uris":{"android":"levelo://app?vid=2acecaf4-3007-47d0-a1e8-725add926587","ios":"levelo://app?vid=2acecaf4-3007-47d0-a1e8-725add926587"},"vehicle_type_id":"4","last_reported":1684715949,"current_range_meters":18000,"station_id":"chh1huq6cuj3fo74tm60","pricing_plan_id":"free"},{"bike_id":"e09d03ef-e8ee-469a-a7d6-22e1891a3d8a","system_id":"levelo_inurba_marseille","lat":43.297814,"lon":5.393513,"is_reserved":false,"is_disabled":false,"rental_uris":{"android":"levelo://app?vid=e09d03ef-e8ee-469a-a7d6-22e1891a3d8a","ios":"levelo://app?vid=e09d03ef-e8ee-469a-a7d6-22e1891a3d8a"},"vehicle_type_id":"4","last_reported":1684715949,"current_range_meters":21600,"station_id":"chh1huq6cuj3fo74tm60","pricing_plan_id":"free"},{"bike_id":"95025965-3dc1-45a0-a0b5-387aa44d2644","system_id":"levelo_inurba_marseille","lat":43.297814,"lon":5.393513,"is_reserved":false,"is_disabled":false,"rental_uris":{"android":"levelo://app?vid=95025965-3dc1-45a0-a0b5-387aa44d2644","ios":"levelo://app?vid=95025965-3dc1-45a0-a0b5-387aa44d2644"},"vehicle_type_id":"4","last_reported":1684715949,"current_range_meters":12800,"station_id":"chh1huq6cuj3fo74tm60","pricing_plan_id":"free"},{"bike_id":"08c095e2-3bf4-43bf-99fb-a576e84c73d5","system_id":"levelo_inurba_marseille","lat":43.297814,"lon":5.393513,"is_reserved":false,"is_disabled":false,"rental_uris":{"android":"levelo://app?vid=08c095e2-3bf4-43bf-99fb-a576e84c73d5","ios":"levelo://app?vid=08c095e2-3bf4-43bf-99fb-a576e84c73d5"},"vehicle_type_id":"4","last_reported":1684715949,"current_range_meters":13200,"station_id":"chh1huq6cuj3fo74tm60","pricing_plan_id":"free"},{"bike_id":"1e51de50-5eee-4734-a726-ded41f7572c1","system_id":"levelo_inurba_marseille","lat":43.297814,"lon":5.393513,"is_reserved":false,"is_disabled":false,"rental_uris":{"android":"levelo://app?vid=1e51de50-5eee-4734-a726-ded41f7572c1","ios":"levelo://app?vid=1e51de50-5eee-4734-a726-ded41f7572c1"},"vehicle_type_id":"4","last_reported":1684715949,"current_range_meters":28000,"station_id":"chh1huq6cuj3fo74tm60","pricing_plan_id":"free"},{"bike_id":"5e075a4e-4db0-443a-9efd-6b7976c72ca7","system_id":"levelo_inurba_marseille","lat":43.29133,"lon":5.38296,"is_reserved":false,"is_disabled":false,"rental_uris":{"android":"levelo://app?vid=5e075a4e-4db0-443a-9efd-6b7976c72ca7","ios":"levelo://app?vid=5e075a4e-4db0-443a-9efd-6b7976c72ca7"},"vehicle_type_id":"4","last_reported":1684715949,"current_range_meters":22400,"station_id":"","pricing_plan_id":"free"},{"bike_id":"0c80b646-cedc-43c1-9d4c-8685187cf3ac","system_id":"levelo_inurba_marseille","lat":43.289743,"lon":5.378304,"is_reserved":false,"is_disabled":false,"rental_uris":{"android":"levelo://app?vid=0c80b646-cedc-43c1-9d4c-8685187cf3ac","ios":"levelo://app?vid=0c80b646-cedc-43c1-9d4c-8685187cf3ac"},"vehicle_type_id":"4","last_reported":1684715949,"current_range_meters":28800,"station_id":"ce4bh9p2rcd13ifvqed0","pricing_plan_id":"free"},{"bike_id":"16fd87f3-72c6-48ff-a8dc-db3d8e59bb00","system_id":"levelo_inurba_marseille","lat":43.30514,"lon":5.39927,"is_reserved":false,"is_disabled":false,"rental_uris":{"android":"levelo://app?vid=16fd87f3-72c6-48ff-a8dc-db3d8e59bb00","ios":"levelo://app?vid=16fd87f3-72c6-48ff-a8dc-db3d8e59bb00"},"vehicle_type_id":"4","last_reported":1684715949,"current_range_meters":11600,"station_id":"","pricing_plan_id":"free"},{"bike_id":"2cc3c107-da8c-4934-b14b-b7345c78e333","system_id":"levelo_inurba_marseille","lat":43.2901,"lon":5.381269,"is_reserved":false,"is_disabled":false,"rental_uris":{"android":"levelo://app?vid=2cc3c107-da8c-4934-b14b-b7345c78e333","ios":"levelo://app?vid=2cc3c107-da8c-4934-b14b-b7345c78e333"},"vehicle_type_id":"4","last_reported":1684715949,"current_range_meters":31200,"station_id":"ce4bh4p2rcd13ifvqe1g","pricing_plan_id":"free"},{"bike_id":"7aa59bf5-0240-4b14-8b5a-57d015ce7a10","system_id":"levelo_inurba_marseille","lat":43.29023,"lon":5.38139,"is_reserved":false,"is_disabled":false,"rental_uris":{"android":"levelo://app?vid=7aa59bf5-0240-4b14-8b5a-57d015ce7a10","ios":"levelo://app?vid=7aa59bf5-0240-4b14-8b5a-57d015ce7a10"},"vehicle_type_id":"4","last_reported":1684715949,"current_range_meters":14000,"station_id":"ce4bh4p2rcd13ifvqe1g","pricing_plan_id":"free"},{"bike_id":"9495254d-884e-4bc1-904a-e3b16f68a43c","system_id":"levelo_inurba_marseille","lat":43.29021,"lon":5.38135,"is_reserved":false,"is_disabled":false,"rental_uris":{"android":"levelo://app?vid=9495254d-884e-4bc1-904a-e3b16f68a43c","ios":"levelo://app?vid=9495254d-884e-4bc1-904a-e3b16f68a43c"},"vehicle_type_id":"4","last_reported":1684715949,"current_range_meters":27600,"station_id":"ce4bh4p2rcd13ifvqe1g","pricing_plan_id":"free"},{"bike_id":"758b15f1-b2b2-42b0-ad30-f5738c7c6c18","system_id":"levelo_inurba_marseille","lat":43.28856,"lon":5.358371,"is_reserved":false,"is_disabled":false,"rental_uris":{"android":"levelo://app?vid=758b15f1-b2b2-42b0-ad30-f5738c7c6c18","ios":"levelo://app?vid=758b15f1-b2b2-42b0-ad30-f5738c7c6c18"},"vehicle_type_id":"4","last_reported":1684715949,"current_range_meters":17200,"station_id":"ce4bhb12rcd13ifvqem0","pricing_plan_id":"free"},{"bike_id":"3184b603-ce36-401c-9f60-99f96b19288f","system_id":"levelo_inurba_marseille","lat":43.28856,"lon":5.358371,"is_reserved":false,"is_disabled":false,"rental_uris":{"android":"levelo://app?vid=3184b603-ce36-401c-9f60-99f96b19288f","ios":"levelo://app?vid=3184b603-ce36-401c-9f60-99f96b19288f"},"vehicle_type_id":"4","last_reported":1684715949,"current_range_meters":24400,"station_id":"ce4bhb12rcd13ifvqem0","pricing_plan_id":"free"},{"bike_id":"50b8ef83-f953-4855-b490-5c99bae794be","system_id":"levelo_inurba_marseille","lat":43.28856,"lon":5.358371,"is_reserved":false,"is_disabled":false,"rental_uris":{"android":"levelo://app?vid=50b8ef83-f953-4855-b490-5c99bae794be","ios":"levelo://app?vid=50b8ef83-f953-4855-b490-5c99bae794be"},"vehicle_type_id":"4","last_reported":1684715949,"current_range_meters":11200,"station_id":"ce4bhb12rcd13ifvqem0","pricing_plan_id":"free"},{"bike_id":"27fddc98-f3da-4e3c-b526-49c9e14be8ca","system_id":"levelo_inurba_marseille","lat":43.28856,"lon":5.358371,"is_reserved":false,"is_disabled":false,"rental_uris":{"android":"levelo://app?vid=27fddc98-f3da-4e3c-b526-49c9e14be8ca","ios":"levelo://app?vid=27fddc98-f3da-4e3c-b526-49c9e14be8ca"},"vehicle_type_id":"4","last_reported":1684715949,"current_range_meters":8400,"station_id":"ce4bhb12rcd13ifvqem0","pricing_plan_id":"free"},{"bike_id":"59fb6869-f7ec-4e7a-b4ca-00eac6dcd5b2","system_id":"levelo_inurba_marseille","lat":43.28856,"lon":5.358371,"is_reserved":false,"is_disabled":false,"rental_uris":{"android":"levelo://app?vid=59fb6869-f7ec-4e7a-b4ca-00eac6dcd5b2","ios":"levelo://app?vid=59fb6869-f7ec-4e7a-b4ca-00eac6dcd5b2"},"vehicle_type_id":"4","last_reported":1684715949,"current_range_meters":29200,"station_id":"ce4bhb12rcd13ifvqem0","pricing_plan_id":"free"},{"bike_id":"29f6da61-59ea-489c-8a6d-80ee0756730a","system_id":"levelo_inurba_marseille","lat":43.28856,"lon":5.358371,"is_reserved":false,"is_disabled":false,"rental_uris":{"android":"levelo://app?vid=29f6da61-59ea-489c-8a6d-80ee0756730a","ios":"levelo://app?vid=29f6da61-59ea-489c-8a6d-80ee0756730a"},"vehicle_type_id":"4","last_reported":1684715949,"current_range_meters":26800,"station_id":"ce4bhb12rcd13ifvqem0","pricing_plan_id":"free"},{"bike_id":"ef83ee5d-784c-4ddc-8f10-a33a4a8e511c","system_id":"levelo_inurba_marseille","lat":43.28856,"lon":5.358371,"is_reserved":false,"is_disabled":false,"rental_uris":{"android":"levelo://app?vid=ef83ee5d-784c-4ddc-8f10-a33a4a8e511c","ios":"levelo://app?vid=ef83ee5d-784c-4ddc-8f10-a33a4a8e511c"},"vehicle_type_id":"4","last_reported":1684715949,"current_range_meters":18000,"station_id":"ce4bhb12rcd13ifvqem0","pricing_plan_id":"free"},{"bike_id":"1cf9bf59-8f18-471c-a6c9-35363fdac573","system_id":"levelo_inurba_marseille","lat":43.28856,"lon":5.358371,"is_reserved":false,"is_disabled":false,"rental_uris":{"android":"levelo://app?vid=1cf9bf59-8f18-471c-a6c9-35363fdac573","ios":"levelo://app?vid=1cf9bf59-8f18-471c-a6c9-35363fdac573"},"vehicle_type_id":"4","last_reported":1684715949,"current_range_meters":26800,"station_id":"ce4bhb12rcd13ifvqem0","pricing_plan_id":"free"},{"bike_id":"67ed130c-5055-4146-aabf-e5bbf62ce430","system_id":"levelo_inurba_marseille","lat":43.28856,"lon":5.358371,"is_reserved":false,"is_disabled":false,"rental_uris":{"android":"levelo://app?vid=67ed130c-5055-4146-aabf-e5bbf62ce430","ios":"levelo://app?vid=67ed130c-5055-4146-aabf-e5bbf62ce430"},"vehicle_type_id":"4","last_reported":1684715949,"current_range_meters":31200,"station_id":"ce4bhb12rcd13ifvqem0","pricing_plan_id":"free"},{"bike_id":"11890e3e-1509-467c-9755-c497148f042f","system_id":"levelo_inurba_marseille","lat":43.28856,"lon":5.358371,"is_reserved":false,"is_disabled":false,"rental_uris":{"android":"levelo://app?vid=11890e3e-1509-467c-9755-c497148f042f","ios":"levelo://app?vid=11890e3e-1509-467c-9755-c497148f042f"},"vehicle_type_id":"4","last_reported":1684715949,"current_range_meters":32000,"station_id":"ce4bhb12rcd13ifvqem0","pricing_plan_id":"free"},{"bike_id":"49de1932-5605-4f42-a41d-dbe1ab081000","system_id":"levelo_inurba_marseille","lat":43.28856,"lon":5.358371,"is_reserved":false,"is_disabled":false,"rental_uris":{"android":"levelo://app?vid=49de1932-5605-4f42-a41d-dbe1ab081000","ios":"levelo://app?vid=49de1932-5605-4f42-a41d-dbe1ab081000"},"vehicle_type_id":"4","last_reported":1684715949,"current_range_meters":25200,"station_id":"ce4bhb12rcd13ifvqem0","pricing_plan_id":"free"},{"bike_id":"7abee93f-d2c1-426f-badf-6f6f82de238c","system_id":"levelo_inurba_marseille","lat":43.30642,"lon":5.401031,"is_reserved":false,"is_disabled":false,"rental_uris":{"android":"levelo://app?vid=7abee93f-d2c1-426f-badf-6f6f82de238c","ios":"levelo://app?vid=7abee93f-d2c1-426f-badf-6f6f82de238c"},"vehicle_type_id":"4","last_reported":1684715949,"current_range_meters":24400,"station_id":"ce4bh112rcd13ifvqda0","pricing_plan_id":"free"},{"bike_id":"1d291aae-0e76-4830-b1d8-2b4e3d778262","system_id":"levelo_inurba_marseille","lat":43.30642,"lon":5.401031,"is_reserved":false,"is_disabled":false,"rental_uris":{"android":"levelo://app?vid=1d291aae-0e76-4830-b1d8-2b4e3d778262","ios":"levelo://app?vid=1d291aae-0e76-4830-b1d8-2b4e3d778262"},"vehicle_type_id":"4","last_reported":1684715949,"current_range_meters":18000,"station_id":"ce4bh112rcd13ifvqda0","pricing_plan_id":"free"},{"bike_id":"659d7a52-b00b-48c8-a8d3-a1b739109ef6","system_id":"levelo_inurba_marseille","lat":43.288501,"lon":5.393087,"is_reserved":false,"is_disabled":false,"rental_uris":{"android":"levelo://app?vid=659d7a52-b00b-48c8-a8d3-a1b739109ef6","ios":"levelo://app?vid=659d7a52-b00b-48c8-a8d3-a1b739109ef6"},"vehicle_type_id":"4","last_reported":1684715949,"current_range_meters":19600,"station_id":"ce4bh2p2rcd13ifvqdi0","pricing_plan_id":"free"},{"bike_id":"9214154f-41b1-4579-bbae-93c27c32db19","system_id":"levelo_inurba_marseille","lat":43.30642,"lon":5.401031,"is_reserved":false,"is_disabled":false,"rental_uris":{"android":"levelo://app?vid=9214154f-41b1-4579-bbae-93c27c32db19","ios":"levelo://app?vid=9214154f-41b1-4579-bbae-93c27c32db19"},"vehicle_type_id":"4","last_reported":1684715949,"current_range_meters":2000,"station_id":"ce4bh112rcd13ifvqda0","pricing_plan_id":"free"},{"bike_id":"5af14fb2-d542-4c89-b4f8-85f0fe30b205","system_id":"levelo_inurba_marseille","lat":43.30642,"lon":5.401031,"is_reserved":false,"is_disabled":false,"rental_uris":{"android":"levelo://app?vid=5af14fb2-d542-4c89-b4f8-85f0fe30b205","ios":"levelo://app?vid=5af14fb2-d542-4c89-b4f8-85f0fe30b205"},"vehicle_type_id":"4","last_reported":1684715949,"current_range_meters":26800,"station_id":"ce4bh112rcd13ifvqda0","pricing_plan_id":"free"},{"bike_id":"66a74e04-1afd-4831-9866-d6b53dc382c7","system_id":"levelo_inurba_marseille","lat":43.33761,"lon":5.3744,"is_reserved":false,"is_disabled":false,"rental_uris":{"android":"levelo://app?vid=66a74e04-1afd-4831-9866-d6b53dc382c7","ios":"levelo://app?vid=66a74e04-1afd-4831-9866-d6b53dc382c7"},"vehicle_type_id":"4","last_reported":1684715949,"current_range_meters":5200,"station_id":"","pricing_plan_id":"free"},{"bike_id":"359a0ffd-233f-4421-8690-3965c63d4004","system_id":"levelo_inurba_marseille","lat":43.33758,"lon":5.37459,"is_reserved":false,"is_disabled":false,"rental_uris":{"android":"levelo://app?vid=359a0ffd-233f-4421-8690-3965c63d4004","ios":"levelo://app?vid=359a0ffd-233f-4421-8690-3965c63d4004"},"vehicle_type_id":"4","last_reported":1684715949,"current_range_meters":9600,"station_id":"","pricing_plan_id":"free"},{"bike_id":"3659adea-bd44-4154-846b-1c4cccfa3bf5","system_id":"levelo_inurba_marseille","lat":43.30642,"lon":5.401031,"is_reserved":false,"is_disabled":false,"rental_uris":{"android":"levelo://app?vid=3659adea-bd44-4154-846b-1c4cccfa3bf5","ios":"levelo://app?vid=3659adea-bd44-4154-846b-1c4cccfa3bf5"},"vehicle_type_id":"4","last_reported":1684715949,"current_range_meters":18000,"station_id":"ce4bh112rcd13ifvqda0","pricing_plan_id":"free"},{"bike_id":"6a760224-e52f-46ca-80dd-cc48e00cf59b","system_id":"levelo_inurba_marseille","lat":43.30642,"lon":5.401031,"is_reserved":false,"is_disabled":false,"rental_uris":{"android":"levelo://app?vid=6a760224-e52f-46ca-80dd-cc48e00cf59b","ios":"levelo://app?vid=6a760224-e52f-46ca-80dd-cc48e00cf59b"},"vehicle_type_id":"4","last_reported":1684715949,"current_range_meters":8800,"station_id":"ce4bh112rcd13ifvqda0","pricing_plan_id":"free"},{"bike_id":"26dd98ad-a4de-43b2-883f-24ba8b4540a2","system_id":"levelo_inurba_marseille","lat":43.30642,"lon":5.401031,"is_reserved":false,"is_disabled":false,"rental_uris":{"android":"levelo://app?vid=26dd98ad-a4de-43b2-883f-24ba8b4540a2","ios":"levelo://app?vid=26dd98ad-a4de-43b2-883f-24ba8b4540a2"},"vehicle_type_id":"4","last_reported":1684715949,"current_range_meters":16000,"station_id":"ce4bh112rcd13ifvqda0","pricing_plan_id":"free"},{"bike_id":"d2c02be4-ad92-40f9-b152-bac6acb46e4f","system_id":"levelo_inurba_marseille","lat":43.30642,"lon":5.401031,"is_reserved":false,"is_disabled":false,"rental_uris":{"android":"levelo://app?vid=d2c02be4-ad92-40f9-b152-bac6acb46e4f","ios":"levelo://app?vid=d2c02be4-ad92-40f9-b152-bac6acb46e4f"},"vehicle_type_id":"4","last_reported":1684715949,"current_range_meters":31200,"station_id":"ce4bh112rcd13ifvqda0","pricing_plan_id":"free"},{"bike_id":"e123cd43-562a-427d-b741-98d33ce5dea2","system_id":"levelo_inurba_marseille","lat":43.3377,"lon":5.37435,"is_reserved":false,"is_disabled":false,"rental_uris":{"android":"levelo://app?vid=e123cd43-562a-427d-b741-98d33ce5dea2","ios":"levelo://app?vid=e123cd43-562a-427d-b741-98d33ce5dea2"},"vehicle_type_id":"4","last_reported":1684715949,"current_range_meters":31200,"station_id":"","pricing_plan_id":"free"},{"bike_id":"c3b66989-b85e-4172-b369-d5cd98ae4ea7","system_id":"levelo_inurba_marseille","lat":43.33771,"lon":5.37469,"is_reserved":false,"is_disabled":false,"rental_uris":{"android":"levelo://app?vid=c3b66989-b85e-4172-b369-d5cd98ae4ea7","ios":"levelo://app?vid=c3b66989-b85e-4172-b369-d5cd98ae4ea7"},"vehicle_type_id":"4","last_reported":1684715949,"current_range_meters":8800,"station_id":"","pricing_plan_id":"free"},{"bike_id":"24d9bb82-5c80-4a0c-934a-86ff68bb6154","system_id":"levelo_inurba_marseille","lat":43.288501,"lon":5.393087,"is_reserved":false,"is_disabled":false,"rental_uris":{"android":"levelo://app?vid=24d9bb82-5c80-4a0c-934a-86ff68bb6154","ios":"levelo://app?vid=24d9bb82-5c80-4a0c-934a-86ff68bb6154"},"vehicle_type_id":"4","last_reported":1684715949,"current_range_meters":23200,"station_id":"ce4bh2p2rcd13ifvqdi0","pricing_plan_id":"free"},{"bike_id":"6ee73762-292d-4d68-8787-c4e3df538987","system_id":"levelo_inurba_marseille","lat":43.301117,"lon":5.398795,"is_reserved":false,"is_disabled":false,"rental_uris":{"android":"levelo://app?vid=6ee73762-292d-4d68-8787-c4e3df538987","ios":"levelo://app?vid=6ee73762-292d-4d68-8787-c4e3df538987"},"vehicle_type_id":"4","last_reported":1684715949,"current_range_meters":21200,"station_id":"ce4bh0h2rcd13ifvqd40","pricing_plan_id":"free"},{"bike_id":"97f6d6fc-fd2d-4b80-ba62-efd4626eb1cd","system_id":"levelo_inurba_marseille","lat":43.30135,"lon":5.39871,"is_reserved":false,"is_disabled":false,"rental_uris":{"android":"levelo://app?vid=97f6d6fc-fd2d-4b80-ba62-efd4626eb1cd","ios":"levelo://app?vid=97f6d6fc-fd2d-4b80-ba62-efd4626eb1cd"},"vehicle_type_id":"4","last_reported":1684715949,"current_range_meters":25600,"station_id":"","pricing_plan_id":"free"},{"bike_id":"6b021158-7d17-416c-8ea6-296563d3fc4f","system_id":"levelo_inurba_marseille","lat":43.286591,"lon":5.363346,"is_reserved":false,"is_disabled":false,"rental_uris":{"android":"levelo://app?vid=6b021158-7d17-416c-8ea6-296563d3fc4f","ios":"levelo://app?vid=6b021158-7d17-416c-8ea6-296563d3fc4f"},"vehicle_type_id":"4","last_reported":1684715949,"current_range_meters":27600,"station_id":"ce4bhah2rcd13ifvqej0","pricing_plan_id":"free"},{"bike_id":"cc4800bb-7b61-44e7-a375-4138c0848036","system_id":"levelo_inurba_marseille","lat":43.298681,"lon":5.397225,"is_reserved":false,"is_disabled":false,"rental_uris":{"android":"levelo://app?vid=cc4800bb-7b61-44e7-a375-4138c0848036","ios":"levelo://app?vid=cc4800bb-7b61-44e7-a375-4138c0848036"},"vehicle_type_id":"4","last_reported":1684715949,"current_range_meters":28400,"station_id":"ce4bh0h2rcd13ifvqd50","pricing_plan_id":"free"},{"bike_id":"f0acee53-c19f-48a8-a307-8e0dab29426f","system_id":"levelo_inurba_marseille","lat":43.298681,"lon":5.397225,"is_reserved":false,"is_disabled":false,"rental_uris":{"android":"levelo://app?vid=f0acee53-c19f-48a8-a307-8e0dab29426f","ios":"levelo://app?vid=f0acee53-c19f-48a8-a307-8e0dab29426f"},"vehicle_type_id":"4","last_reported":1684715949,"current_range_meters":0,"station_id":"ce4bh0h2rcd13ifvqd50","pricing_plan_id":"free"},{"bike_id":"9275511f-3301-4b1f-b0f6-b9690e19fbb3","system_id":"levelo_inurba_marseille","lat":43.295194,"lon":5.39397,"is_reserved":false,"is_disabled":false,"rental_uris":{"android":"levelo://app?vid=9275511f-3301-4b1f-b0f6-b9690e19fbb3","ios":"levelo://app?vid=9275511f-3301-4b1f-b0f6-b9690e19fbb3"},"vehicle_type_id":"4","last_reported":1684715949,"current_range_meters":12000,"station_id":"ce4bh292rcd13ifvqdf0","pricing_plan_id":"free"},{"bike_id":"ee10c97b-87b1-4861-b7ff-4e61de0e6ce2","system_id":"levelo_inurba_marseille","lat":43.298681,"lon":5.397225,"is_reserved":false,"is_disabled":false,"rental_uris":{"android":"levelo://app?vid=ee10c97b-87b1-4861-b7ff-4e61de0e6ce2","ios":"levelo://app?vid=ee10c97b-87b1-4861-b7ff-4e61de0e6ce2"},"vehicle_type_id":"4","last_reported":1684715949,"current_range_meters":25200,"station_id":"ce4bh0h2rcd13ifvqd50","pricing_plan_id":"free"},{"bike_id":"0b6f1411-8ed8-4878-aad2-1e93359c7d5a","system_id":"levelo_inurba_marseille","lat":43.295196,"lon":5.39397,"is_reserved":false,"is_disabled":false,"rental_uris":{"android":"levelo://app?vid=0b6f1411-8ed8-4878-aad2-1e93359c7d5a","ios":"levelo://app?vid=0b6f1411-8ed8-4878-aad2-1e93359c7d5a"},"vehicle_type_id":"4","last_reported":1684715949,"current_range_meters":21600,"station_id":"ce4bh292rcd13ifvqdf0","pricing_plan_id":"free"},{"bike_id":"ef1e84e7-4238-4ba0-bb24-f3256498b7a9","system_id":"levelo_inurba_marseille","lat":43.295196,"lon":5.39397,"is_reserved":false,"is_disabled":false,"rental_uris":{"android":"levelo://app?vid=ef1e84e7-4238-4ba0-bb24-f3256498b7a9","ios":"levelo://app?vid=ef1e84e7-4238-4ba0-bb24-f3256498b7a9"},"vehicle_type_id":"4","last_reported":1684715949,"current_range_meters":26800,"station_id":"ce4bh292rcd13ifvqdf0","pricing_plan_id":"free"},{"bike_id":"3a457b40-d788-4e93-b636-5c654f49a7f1","system_id":"levelo_inurba_marseille","lat":43.295194,"lon":5.39397,"is_reserved":false,"is_disabled":false,"rental_uris":{"android":"levelo://app?vid=3a457b40-d788-4e93-b636-5c654f49a7f1","ios":"levelo://app?vid=3a457b40-d788-4e93-b636-5c654f49a7f1"},"vehicle_type_id":"4","last_reported":1684715949,"current_range_meters":11200,"station_id":"ce4bh292rcd13ifvqdf0","pricing_plan_id":"free"},{"bike_id":"38ec4b64-5800-48eb-ba0f-6cfbfa033d98","system_id":"levelo_inurba_marseille","lat":43.295196,"lon":5.39397,"is_reserved":false,"is_disabled":false,"rental_uris":{"android":"levelo://app?vid=38ec4b64-5800-48eb-ba0f-6cfbfa033d98","ios":"levelo://app?vid=38ec4b64-5800-48eb-ba0f-6cfbfa033d98"},"vehicle_type_id":"4","last_reported":1684715949,"current_range_meters":31200,"station_id":"ce4bh292rcd13ifvqdf0","pricing_plan_id":"free"},{"bike_id":"723e68f1-4f1a-45cd-815c-073b8932d58f","system_id":"levelo_inurba_marseille","lat":43.295196,"lon":5.39397,"is_reserved":false,"is_disabled":false,"rental_uris":{"android":"levelo://app?vid=723e68f1-4f1a-45cd-815c-073b8932d58f","ios":"levelo://app?vid=723e68f1-4f1a-45cd-815c-073b8932d58f"},"vehicle_type_id":"4","last_reported":1684715949,"current_range_meters":20400,"station_id":"ce4bh292rcd13ifvqdf0","pricing_plan_id":"free"},{"bike_id":"2b449e53-b752-4994-8c02-29a8125a3fa0","system_id":"levelo_inurba_marseille","lat":43.302759,"lon":5.400793,"is_reserved":false,"is_disabled":false,"rental_uris":{"android":"levelo://app?vid=2b449e53-b752-4994-8c02-29a8125a3fa0","ios":"levelo://app?vid=2b449e53-b752-4994-8c02-29a8125a3fa0"},"vehicle_type_id":"4","last_reported":1684715949,"current_range_meters":31600,"station_id":"ce4bgvh2rcd13ifvqcs0","pricing_plan_id":"free"},{"bike_id":"a241a6fb-7b2f-43ca-8ee4-ddcda2acd99a","system_id":"levelo_inurba_marseille","lat":43.302759,"lon":5.400793,"is_reserved":false,"is_disabled":false,"rental_uris":{"android":"levelo://app?vid=a241a6fb-7b2f-43ca-8ee4-ddcda2acd99a","ios":"levelo://app?vid=a241a6fb-7b2f-43ca-8ee4-ddcda2acd99a"},"vehicle_type_id":"4","last_reported":1684715949,"current_range_meters":23600,"station_id":"ce4bgvh2rcd13ifvqcs0","pricing_plan_id":"free"},{"bike_id":"9702895a-c237-4250-a509-528d7eceeec3","system_id":"levelo_inurba_marseille","lat":43.302759,"lon":5.400793,"is_reserved":false,"is_disabled":false,"rental_uris":{"android":"levelo://app?vid=9702895a-c237-4250-a509-528d7eceeec3","ios":"levelo://app?vid=9702895a-c237-4250-a509-528d7eceeec3"},"vehicle_type_id":"4","last_reported":1684715949,"current_range_meters":22000,"station_id":"ce4bgvh2rcd13ifvqcs0","pricing_plan_id":"free"},{"bike_id":"a93bd6d5-b681-4cc5-b3d2-2871c33bee9f","system_id":"levelo_inurba_marseille","lat":43.302759,"lon":5.400793,"is_reserved":false,"is_disabled":false,"rental_uris":{"android":"levelo://app?vid=a93bd6d5-b681-4cc5-b3d2-2871c33bee9f","ios":"levelo://app?vid=a93bd6d5-b681-4cc5-b3d2-2871c33bee9f"},"vehicle_type_id":"4","last_reported":1684715949,"current_range_meters":21600,"station_id":"ce4bgvh2rcd13ifvqcs0","pricing_plan_id":"free"},{"bike_id":"91b7f7e3-d294-4b84-a2c5-7be3c4cadb9a","system_id":"levelo_inurba_marseille","lat":43.302759,"lon":5.400793,"is_reserved":false,"is_disabled":false,"rental_uris":{"android":"levelo://app?vid=91b7f7e3-d294-4b84-a2c5-7be3c4cadb9a","ios":"levelo://app?vid=91b7f7e3-d294-4b84-a2c5-7be3c4cadb9a"},"vehicle_type_id":"4","last_reported":1684715949,"current_range_meters":30400,"station_id":"ce4bgvh2rcd13ifvqcs0","pricing_plan_id":"free"},{"bike_id":"7cbf5f04-a2ff-4271-9393-4386af5b912c","system_id":"levelo_inurba_marseille","lat":43.30252,"lon":5.40067,"is_reserved":false,"is_disabled":false,"rental_uris":{"android":"levelo://app?vid=7cbf5f04-a2ff-4271-9393-4386af5b912c","ios":"levelo://app?vid=7cbf5f04-a2ff-4271-9393-4386af5b912c"},"vehicle_type_id":"4","last_reported":1684715949,"current_range_meters":28000,"station_id":"ce4bgvh2rcd13ifvqcs0","pricing_plan_id":"free"},{"bike_id":"22d1e5fa-f97d-4ba6-a83b-17f271cf7b64","system_id":"levelo_inurba_marseille","lat":43.30255,"lon":5.40077,"is_reserved":false,"is_disabled":false,"rental_uris":{"android":"levelo://app?vid=22d1e5fa-f97d-4ba6-a83b-17f271cf7b64","ios":"levelo://app?vid=22d1e5fa-f97d-4ba6-a83b-17f271cf7b64"},"vehicle_type_id":"4","last_reported":1684715949,"current_range_meters":5600,"station_id":"ce4bgvh2rcd13ifvqcs0","pricing_plan_id":"free"},{"bike_id":"fde9b6a4-8dff-402d-b3b2-a8c1b16eaefe","system_id":"levelo_inurba_marseille","lat":43.302759,"lon":5.400793,"is_reserved":false,"is_disabled":false,"rental_uris":{"android":"levelo://app?vid=fde9b6a4-8dff-402d-b3b2-a8c1b16eaefe","ios":"levelo://app?vid=fde9b6a4-8dff-402d-b3b2-a8c1b16eaefe"},"vehicle_type_id":"4","last_reported":1684715949,"current_range_meters":31200,"station_id":"ce4bgvh2rcd13ifvqcs0","pricing_plan_id":"free"},{"bike_id":"bd5fb5c5-9707-45c2-b810-c1b547bb17e1","system_id":"levelo_inurba_marseille","lat":43.28611,"lon":5.37062,"is_reserved":false,"is_disabled":false,"rental_uris":{"android":"levelo://app?vid=bd5fb5c5-9707-45c2-b810-c1b547bb17e1","ios":"levelo://app?vid=bd5fb5c5-9707-45c2-b810-c1b547bb17e1"},"vehicle_type_id":"4","last_reported":1684715949,"current_range_meters":0,"station_id":"","pricing_plan_id":"free"},{"bike_id":"502c0185-b468-4c94-b627-00fbc17bde3a","system_id":"levelo_inurba_marseille","lat":43.286039,"lon":5.370679,"is_reserved":false,"is_disabled":false,"rental_uris":{"android":"levelo://app?vid=502c0185-b468-4c94-b627-00fbc17bde3a","ios":"levelo://app?vid=502c0185-b468-4c94-b627-00fbc17bde3a"},"vehicle_type_id":"4","last_reported":1684715949,"current_range_meters":28800,"station_id":"ce4bht12rcd13ifvqi60","pricing_plan_id":"free"},{"bike_id":"218fc5b0-1635-4be4-a7b8-83b5981bfdbe","system_id":"levelo_inurba_marseille","lat":43.28608,"lon":5.37065,"is_reserved":false,"is_disabled":false,"rental_uris":{"android":"levelo://app?vid=218fc5b0-1635-4be4-a7b8-83b5981bfdbe","ios":"levelo://app?vid=218fc5b0-1635-4be4-a7b8-83b5981bfdbe"},"vehicle_type_id":"4","last_reported":1684715949,"current_range_meters":8400,"station_id":"ce4bht12rcd13ifvqi60","pricing_plan_id":"free"},{"bike_id":"014d3835-60bc-4943-90b4-c67be7bfac5b","system_id":"levelo_inurba_marseille","lat":43.30918,"lon":5.40343,"is_reserved":false,"is_disabled":false,"rental_uris":{"android":"levelo://app?vid=014d3835-60bc-4943-90b4-c67be7bfac5b","ios":"levelo://app?vid=014d3835-60bc-4943-90b4-c67be7bfac5b"},"vehicle_type_id":"4","last_reported":1684715949,"current_range_meters":18000,"station_id":"","pricing_plan_id":"free"},{"bike_id":"26987d3f-cb7d-46b5-816f-22564cd1fb4a","system_id":"levelo_inurba_marseille","lat":43.287184,"lon":5.37937,"is_reserved":false,"is_disabled":false,"rental_uris":{"android":"levelo://app?vid=26987d3f-cb7d-46b5-816f-22564cd1fb4a","ios":"levelo://app?vid=26987d3f-cb7d-46b5-816f-22564cd1fb4a"},"vehicle_type_id":"4","last_reported":1684715949,"current_range_meters":26000,"station_id":"ce4bh9p2rcd13ifvqec0","pricing_plan_id":"free"},{"bike_id":"ed760c33-7e0d-4971-acef-b424a53c85d2","system_id":"levelo_inurba_marseille","lat":43.287184,"lon":5.37937,"is_reserved":false,"is_disabled":false,"rental_uris":{"android":"levelo://app?vid=ed760c33-7e0d-4971-acef-b424a53c85d2","ios":"levelo://app?vid=ed760c33-7e0d-4971-acef-b424a53c85d2"},"vehicle_type_id":"4","last_reported":1684715949,"current_range_meters":24000,"station_id":"ce4bh9p2rcd13ifvqec0","pricing_plan_id":"free"},{"bike_id":"a0d8f9d8-7900-4164-ad7b-9028c9927747","system_id":"levelo_inurba_marseille","lat":43.287184,"lon":5.37937,"is_reserved":false,"is_disabled":false,"rental_uris":{"android":"levelo://app?vid=a0d8f9d8-7900-4164-ad7b-9028c9927747","ios":"levelo://app?vid=a0d8f9d8-7900-4164-ad7b-9028c9927747"},"vehicle_type_id":"4","last_reported":1684715949,"current_range_meters":31600,"station_id":"ce4bh9p2rcd13ifvqec0","pricing_plan_id":"free"},{"bike_id":"ef42977e-425a-44e5-9c75-4435888e09e0","system_id":"levelo_inurba_marseille","lat":43.287184,"lon":5.37937,"is_reserved":false,"is_disabled":false,"rental_uris":{"android":"levelo://app?vid=ef42977e-425a-44e5-9c75-4435888e09e0","ios":"levelo://app?vid=ef42977e-425a-44e5-9c75-4435888e09e0"},"vehicle_type_id":"4","last_reported":1684715949,"current_range_meters":31200,"station_id":"ce4bh9p2rcd13ifvqec0","pricing_plan_id":"free"},{"bike_id":"1aec7370-5055-426f-8a26-e709bb1a2e36","system_id":"levelo_inurba_marseille","lat":43.287184,"lon":5.37937,"is_reserved":false,"is_disabled":false,"rental_uris":{"android":"levelo://app?vid=1aec7370-5055-426f-8a26-e709bb1a2e36","ios":"levelo://app?vid=1aec7370-5055-426f-8a26-e709bb1a2e36"},"vehicle_type_id":"4","last_reported":1684715949,"current_range_meters":31600,"station_id":"ce4bh9p2rcd13ifvqec0","pricing_plan_id":"free"},{"bike_id":"6f303b2e-a67c-4e6a-bf2d-b6cecf9a5325","system_id":"levelo_inurba_marseille","lat":43.287184,"lon":5.37937,"is_reserved":false,"is_disabled":false,"rental_uris":{"android":"levelo://app?vid=6f303b2e-a67c-4e6a-bf2d-b6cecf9a5325","ios":"levelo://app?vid=6f303b2e-a67c-4e6a-bf2d-b6cecf9a5325"},"vehicle_type_id":"4","last_reported":1684715949,"current_range_meters":31600,"station_id":"ce4bh9p2rcd13ifvqec0","pricing_plan_id":"free"},{"bike_id":"57c6f99b-19c1-477e-a9de-b6b73f17563a","system_id":"levelo_inurba_marseille","lat":43.316517,"lon":5.404375,"is_reserved":false,"is_disabled":false,"rental_uris":{"android":"levelo://app?vid=57c6f99b-19c1-477e-a9de-b6b73f17563a","ios":"levelo://app?vid=57c6f99b-19c1-477e-a9de-b6b73f17563a"},"vehicle_type_id":"4","last_reported":1684715949,"current_range_meters":18000,"station_id":"ce4bh012rcd13ifvqd00","pricing_plan_id":"free"},{"bike_id":"ecd2fd12-03d8-4049-aa60-dd8bef2dc7c9","system_id":"levelo_inurba_marseille","lat":43.316517,"lon":5.404375,"is_reserved":false,"is_disabled":false,"rental_uris":{"android":"levelo://app?vid=ecd2fd12-03d8-4049-aa60-dd8bef2dc7c9","ios":"levelo://app?vid=ecd2fd12-03d8-4049-aa60-dd8bef2dc7c9"},"vehicle_type_id":"4","last_reported":1684715949,"current_range_meters":16800,"station_id":"ce4bh012rcd13ifvqd00","pricing_plan_id":"free"},{"bike_id":"1974d5f7-6e23-405e-8039-61e809455ce6","system_id":"levelo_inurba_marseille","lat":43.316517,"lon":5.404375,"is_reserved":false,"is_disabled":false,"rental_uris":{"android":"levelo://app?vid=1974d5f7-6e23-405e-8039-61e809455ce6","ios":"levelo://app?vid=1974d5f7-6e23-405e-8039-61e809455ce6"},"vehicle_type_id":"4","last_reported":1684715949,"current_range_meters":16400,"station_id":"ce4bh012rcd13ifvqd00","pricing_plan_id":"free"},{"bike_id":"f8e0685c-67c6-48af-adac-f8520899cebf","system_id":"levelo_inurba_marseille","lat":43.291994,"lon":5.392907,"is_reserved":false,"is_disabled":false,"rental_uris":{"android":"levelo://app?vid=f8e0685c-67c6-48af-adac-f8520899cebf","ios":"levelo://app?vid=f8e0685c-67c6-48af-adac-f8520899cebf"},"vehicle_type_id":"4","last_reported":1684715949,"current_range_meters":30400,"station_id":"ce4bh192rcd13ifvqdd0","pricing_plan_id":"free"},{"bike_id":"939d933a-870b-45b0-9736-83035f02c9bb","system_id":"levelo_inurba_marseille","lat":43.31387,"lon":5.4056,"is_reserved":false,"is_disabled":false,"rental_uris":{"android":"levelo://app?vid=939d933a-870b-45b0-9736-83035f02c9bb","ios":"levelo://app?vid=939d933a-870b-45b0-9736-83035f02c9bb"},"vehicle_type_id":"4","last_reported":1684715949,"current_range_meters":9200,"station_id":"","pricing_plan_id":"free"},{"bike_id":"f6e03ebb-952e-4ada-9e34-1effbc4e49da","system_id":"levelo_inurba_marseille","lat":43.292,"lon":5.39323,"is_reserved":false,"is_disabled":false,"rental_uris":{"android":"levelo://app?vid=f6e03ebb-952e-4ada-9e34-1effbc4e49da","ios":"levelo://app?vid=f6e03ebb-952e-4ada-9e34-1effbc4e49da"},"vehicle_type_id":"4","last_reported":1684715949,"current_range_meters":31200,"station_id":"ce4bh192rcd13ifvqdd0","pricing_plan_id":"free"},{"bike_id":"e2c23d44-97b3-44d9-9c74-85a4a42b8b52","system_id":"levelo_inurba_marseille","lat":43.291994,"lon":5.392907,"is_reserved":false,"is_disabled":false,"rental_uris":{"android":"levelo://app?vid=e2c23d44-97b3-44d9-9c74-85a4a42b8b52","ios":"levelo://app?vid=e2c23d44-97b3-44d9-9c74-85a4a42b8b52"},"vehicle_type_id":"4","last_reported":1684715949,"current_range_meters":29200,"station_id":"ce4bh192rcd13ifvqdd0","pricing_plan_id":"free"},{"bike_id":"d44b6653-17ae-4e86-bc2d-dfa4d002231a","system_id":"levelo_inurba_marseille","lat":43.284534,"lon":5.358662,"is_reserved":false,"is_disabled":false,"rental_uris":{"android":"levelo://app?vid=d44b6653-17ae-4e86-bc2d-dfa4d002231a","ios":"levelo://app?vid=d44b6653-17ae-4e86-bc2d-dfa4d002231a"},"vehicle_type_id":"4","last_reported":1684715949,"current_range_meters":24800,"station_id":"ce4bhah2rcd13ifvqei0","pricing_plan_id":"free"},{"bike_id":"02c7fea5-656e-45dd-b87f-cec020083542","system_id":"levelo_inurba_marseille","lat":43.284534,"lon":5.358662,"is_reserved":false,"is_disabled":false,"rental_uris":{"android":"levelo://app?vid=02c7fea5-656e-45dd-b87f-cec020083542","ios":"levelo://app?vid=02c7fea5-656e-45dd-b87f-cec020083542"},"vehicle_type_id":"4","last_reported":1684715949,"current_range_meters":0,"station_id":"ce4bhah2rcd13ifvqei0","pricing_plan_id":"free"},{"bike_id":"2d039cfd-2cf1-4cee-9bd5-f917122a56e4","system_id":"levelo_inurba_marseille","lat":43.28468,"lon":5.3588,"is_reserved":false,"is_disabled":false,"rental_uris":{"android":"levelo://app?vid=2d039cfd-2cf1-4cee-9bd5-f917122a56e4","ios":"levelo://app?vid=2d039cfd-2cf1-4cee-9bd5-f917122a56e4"},"vehicle_type_id":"4","last_reported":1684715949,"current_range_meters":12000,"station_id":"ce4bhah2rcd13ifvqei0","pricing_plan_id":"free"},{"bike_id":"8e552b57-3f1c-4cc8-a805-57a11b4d56d9","system_id":"levelo_inurba_marseille","lat":43.284534,"lon":5.358662,"is_reserved":false,"is_disabled":false,"rental_uris":{"android":"levelo://app?vid=8e552b57-3f1c-4cc8-a805-57a11b4d56d9","ios":"levelo://app?vid=8e552b57-3f1c-4cc8-a805-57a11b4d56d9"},"vehicle_type_id":"4","last_reported":1684715949,"current_range_meters":7200,"station_id":"ce4bhah2rcd13ifvqei0","pricing_plan_id":"free"},{"bike_id":"b8c06158-a5dc-4590-b53f-da980c5988f4","system_id":"levelo_inurba_marseille","lat":43.284534,"lon":5.358662,"is_reserved":false,"is_disabled":false,"rental_uris":{"android":"levelo://app?vid=b8c06158-a5dc-4590-b53f-da980c5988f4","ios":"levelo://app?vid=b8c06158-a5dc-4590-b53f-da980c5988f4"},"vehicle_type_id":"4","last_reported":1684715949,"current_range_meters":19200,"station_id":"ce4bhah2rcd13ifvqei0","pricing_plan_id":"free"},{"bike_id":"30941edf-ac29-43ff-b620-09230c52cb47","system_id":"levelo_inurba_marseille","lat":43.284534,"lon":5.358662,"is_reserved":false,"is_disabled":false,"rental_uris":{"android":"levelo://app?vid=30941edf-ac29-43ff-b620-09230c52cb47","ios":"levelo://app?vid=30941edf-ac29-43ff-b620-09230c52cb47"},"vehicle_type_id":"4","last_reported":1684715949,"current_range_meters":10400,"station_id":"ce4bhah2rcd13ifvqei0","pricing_plan_id":"free"},{"bike_id":"7668483d-e892-450b-a432-5cfa4c3ad28b","system_id":"levelo_inurba_marseille","lat":43.284534,"lon":5.358662,"is_reserved":false,"is_disabled":false,"rental_uris":{"android":"levelo://app?vid=7668483d-e892-450b-a432-5cfa4c3ad28b","ios":"levelo://app?vid=7668483d-e892-450b-a432-5cfa4c3ad28b"},"vehicle_type_id":"4","last_reported":1684715949,"current_range_meters":18400,"station_id":"ce4bhah2rcd13ifvqei0","pricing_plan_id":"free"},