{"last_updated":1779466409,"ttl":60,"version":"2.2","data":{"bikes":[{"bike_id":"7d641315-6110-49cb-a9dd-d637ff032de1","system_id":"levelo_inurba_marseille","lat":43.337444,"lon":5.374475,"is_reserved":false,"is_disabled":false,"rental_uris":{"android":"levelo://app?vid=7d641315-6110-49cb-a9dd-d637ff032de1","ios":"levelo://app?vid=7d641315-6110-49cb-a9dd-d637ff032de1"},"vehicle_type_id":"4","last_reported":1779466410,"current_range_meters":0,"station_id":"","pricing_plan_id":"cebpf4jnsgd1na2vs0mg"},{"bike_id":"fc4ffe82-b935-4c1c-9a65-997975c15436","system_id":"levelo_inurba_marseille","lat":43.306,"lon":5.39367,"is_reserved":false,"is_disabled":false,"rental_uris":{"android":"levelo://app?vid=fc4ffe82-b935-4c1c-9a65-997975c15436","ios":"levelo://app?vid=fc4ffe82-b935-4c1c-9a65-997975c15436"},"vehicle_type_id":"4","last_reported":1779466410,"current_range_meters":2800,"station_id":"ce4bh0p2rcd13ifvqd80","pricing_plan_id":"cebpf4jnsgd1na2vs0mg"},{"bike_id":"b2de66b8-b389-47d5-b252-a60b71a36cb8","system_id":"levelo_inurba_marseille","lat":43.28102,"lon":5.37834,"is_reserved":false,"is_disabled":false,"rental_uris":{"android":"levelo://app?vid=b2de66b8-b389-47d5-b252-a60b71a36cb8","ios":"levelo://app?vid=b2de66b8-b389-47d5-b252-a60b71a36cb8"},"vehicle_type_id":"4","last_reported":1779466410,"current_range_meters":2800,"station_id":"ce4bha12rcd13ifvqee0","pricing_plan_id":"cebpf4jnsgd1na2vs0mg"},{"bike_id":"94c07e10-940d-43f7-ac35-eca6032c21e7","system_id":"levelo_inurba_marseille","lat":43.288598,"lon":5.42517,"is_reserved":false,"is_disabled":false,"rental_uris":{"android":"levelo://app?vid=94c07e10-940d-43f7-ac35-eca6032c21e7","ios":"levelo://app?vid=94c07e10-940d-43f7-ac35-eca6032c21e7"},"vehicle_type_id":"4","last_reported":1779466410,"current_range_meters":2800,"station_id":"st_d3b462108ojc7389ooeg","pricing_plan_id":"cebpf4jnsgd1na2vs0mg"},{"bike_id":"70bd1697-29a9-464f-a79a-74a540437e6e","system_id":"levelo_inurba_marseille","lat":43.33754,"lon":5.37469,"is_reserved":false,"is_disabled":false,"rental_uris":{"android":"levelo://app?vid=70bd1697-29a9-464f-a79a-74a540437e6e","ios":"levelo://app?vid=70bd1697-29a9-464f-a79a-74a540437e6e"},"vehicle_type_id":"4","last_reported":1779466410,"current_range_meters":2800,"station_id":"","pricing_plan_id":"cebpf4jnsgd1na2vs0mg"},{"bike_id":"0c445360-5b97-4a98-9735-f685c7e549d4","system_id":"levelo_inurba_marseille","lat":43.272031,"lon":5.3919,"is_reserved":false,"is_disabled":false,"rental_uris":{"android":"levelo://app?vid=0c445360-5b97-4a98-9735-f685c7e549d4","ios":"levelo://app?vid=0c445360-5b97-4a98-9735-f685c7e549d4"},"vehicle_type_id":"4","last_reported":1779466410,"current_range_meters":2800,"station_id":"ce4bhhp2rcd13ifvqfm0","pricing_plan_id":"cebpf4jnsgd1na2vs0mg"},{"bike_id":"f7cfc1a1-bfc6-4446-a306-a5728d0c599c","system_id":"levelo_inurba_marseille","lat":43.28708,"lon":5.39993,"is_reserved":false,"is_disabled":false,"rental_uris":{"android":"levelo://app?vid=f7cfc1a1-bfc6-4446-a306-a5728d0c599c","ios":"levelo://app?vid=f7cfc1a1-bfc6-4446-a306-a5728d0c599c"},"vehicle_type_id":"4","last_reported":1779466410,"current_range_meters":2800,"station_id":"ce4bho92rcd13ifvqh3g","pricing_plan_id":"cebpf4jnsgd1na2vs0mg"},{"bike_id":"0b3a0509-bb8d-48e6-b2de-84041a7dcab7","system_id":"levelo_inurba_marseille","lat":43.270625,"lon":5.402615,"is_reserved":false,"is_disabled":false,"rental_uris":{"android":"levelo://app?vid=0b3a0509-bb8d-48e6-b2de-84041a7dcab7","ios":"levelo://app?vid=0b3a0509-bb8d-48e6-b2de-84041a7dcab7"},"vehicle_type_id":"4","last_reported":1779466410,"current_range_meters":2800,"station_id":"ce4bhk92rcd13ifvqgc0","pricing_plan_id":"cebpf4jnsgd1na2vs0mg"},{"bike_id":"17680e4e-5d73-49bb-9608-cbce26d1ada0","system_id":"levelo_inurba_marseille","lat":43.22543,"lon":5.34845,"is_reserved":false,"is_disabled":false,"rental_uris":{"android":"levelo://app?vid=17680e4e-5d73-49bb-9608-cbce26d1ada0","ios":"levelo://app?vid=17680e4e-5d73-49bb-9608-cbce26d1ada0"},"vehicle_type_id":"4","last_reported":1779466410,"current_range_meters":2800,"station_id":"st_cvj5dfep6f1abm77gieg","pricing_plan_id":"cebpf4jnsgd1na2vs0mg"},{"bike_id":"5ce847d1-81ca-4ef9-a933-aa7409db69be","system_id":"levelo_inurba_marseille","lat":43.28698,"lon":5.46691,"is_reserved":false,"is_disabled":false,"rental_uris":{"android":"levelo://app?vid=5ce847d1-81ca-4ef9-a933-aa7409db69be","ios":"levelo://app?vid=5ce847d1-81ca-4ef9-a933-aa7409db69be"},"vehicle_type_id":"4","last_reported":1779466410,"current_range_meters":2800,"station_id":"st_d6tc3vkotcvc738tfjhg","pricing_plan_id":"cebpf4jnsgd1na2vs0mg"},{"bike_id":"38800158-e4b3-4c2c-93ba-090e29a5d0e6","system_id":"levelo_inurba_marseille","lat":43.2738,"lon":5.36252,"is_reserved":false,"is_disabled":false,"rental_uris":{"android":"levelo://app?vid=38800158-e4b3-4c2c-93ba-090e29a5d0e6","ios":"levelo://app?vid=38800158-e4b3-4c2c-93ba-090e29a5d0e6"},"vehicle_type_id":"4","last_reported":1779466410,"current_range_meters":2800,"station_id":"ce4bhbh2rcd13ifvqeo0","pricing_plan_id":"cebpf4jnsgd1na2vs0mg"},{"bike_id":"d876f250-8123-419d-a895-9645003d3c01","system_id":"levelo_inurba_marseille","lat":43.27262,"lon":5.41632,"is_reserved":false,"is_disabled":false,"rental_uris":{"android":"levelo://app?vid=d876f250-8123-419d-a895-9645003d3c01","ios":"levelo://app?vid=d876f250-8123-419d-a895-9645003d3c01"},"vehicle_type_id":"4","last_reported":1779466410,"current_range_meters":2800,"station_id":"","pricing_plan_id":"cebpf4jnsgd1na2vs0mg"},{"bike_id":"63001148-a141-4a50-9134-11f3bdb1afb3","system_id":"levelo_inurba_marseille","lat":43.29183,"lon":5.39328,"is_reserved":false,"is_disabled":false,"rental_uris":{"android":"levelo://app?vid=63001148-a141-4a50-9134-11f3bdb1afb3","ios":"levelo://app?vid=63001148-a141-4a50-9134-11f3bdb1afb3"},"vehicle_type_id":"4","last_reported":1779466410,"current_range_meters":2800,"station_id":"ce4bh192rcd13ifvqdd0","pricing_plan_id":"cebpf4jnsgd1na2vs0mg"},{"bike_id":"5e36e6f8-d1d3-4fd7-9697-257bc4f66b52","system_id":"levelo_inurba_marseille","lat":43.3014,"lon":5.39896,"is_reserved":false,"is_disabled":false,"rental_uris":{"android":"levelo://app?vid=5e36e6f8-d1d3-4fd7-9697-257bc4f66b52","ios":"levelo://app?vid=5e36e6f8-d1d3-4fd7-9697-257bc4f66b52"},"vehicle_type_id":"4","last_reported":1779466410,"current_range_meters":2800,"station_id":"ce4bh0h2rcd13ifvqd40","pricing_plan_id":"cebpf4jnsgd1na2vs0mg"},{"bike_id":"ad6d8b73-6259-410d-979f-09e40ec16dc9","system_id":"levelo_inurba_marseille","lat":43.3082,"lon":5.37198,"is_reserved":false,"is_disabled":false,"rental_uris":{"android":"levelo://app?vid=ad6d8b73-6259-410d-979f-09e40ec16dc9","ios":"levelo://app?vid=ad6d8b73-6259-410d-979f-09e40ec16dc9"},"vehicle_type_id":"4","last_reported":1779466410,"current_range_meters":3200,"station_id":"","pricing_plan_id":"cebpf4jnsgd1na2vs0mg"},{"bike_id":"b64e9c0d-4003-4ce3-9a77-7ea68878e4b9","system_id":"levelo_inurba_marseille","lat":43.28109,"lon":5.39853,"is_reserved":false,"is_disabled":false,"rental_uris":{"android":"levelo://app?vid=b64e9c0d-4003-4ce3-9a77-7ea68878e4b9","ios":"levelo://app?vid=b64e9c0d-4003-4ce3-9a77-7ea68878e4b9"},"vehicle_type_id":"4","last_reported":1779466410,"current_range_meters":3200,"station_id":"","pricing_plan_id":"cebpf4jnsgd1na2vs0mg"},{"bike_id":"6ecace9b-c16d-43aa-9c1a-0ebc2e7bcfc4","system_id":"levelo_inurba_marseille","lat":43.32122,"lon":5.36771,"is_reserved":false,"is_disabled":false,"rental_uris":{"android":"levelo://app?vid=6ecace9b-c16d-43aa-9c1a-0ebc2e7bcfc4","ios":"levelo://app?vid=6ecace9b-c16d-43aa-9c1a-0ebc2e7bcfc4"},"vehicle_type_id":"4","last_reported":1779466410,"current_range_meters":3200,"station_id":"ce4bhrh2rcd13ifvqhug","pricing_plan_id":"cebpf4jnsgd1na2vs0mg"},{"bike_id":"678c2486-f208-445a-a253-9dfac60b0dc7","system_id":"levelo_inurba_marseille","lat":43.3244,"lon":5.369,"is_reserved":false,"is_disabled":false,"rental_uris":{"android":"levelo://app?vid=678c2486-f208-445a-a253-9dfac60b0dc7","ios":"levelo://app?vid=678c2486-f208-445a-a253-9dfac60b0dc7"},"vehicle_type_id":"4","last_reported":1779466410,"current_range_meters":3200,"station_id":"","pricing_plan_id":"cebpf4jnsgd1na2vs0mg"},{"bike_id":"4a859c6a-7454-444e-b6ad-68a9645a75b7","system_id":"levelo_inurba_marseille","lat":43.29302,"lon":5.37437,"is_reserved":false,"is_disabled":false,"rental_uris":{"android":"levelo://app?vid=4a859c6a-7454-444e-b6ad-68a9645a75b7","ios":"levelo://app?vid=4a859c6a-7454-444e-b6ad-68a9645a75b7"},"vehicle_type_id":"4","last_reported":1779466410,"current_range_meters":3200,"station_id":"ce4bgi12rcd13ifvqb70","pricing_plan_id":"cebpf4jnsgd1na2vs0mg"},{"bike_id":"12ac6ebb-3af8-410f-9e03-16d5b48de301","system_id":"levelo_inurba_marseille","lat":43.29281,"lon":5.38428,"is_reserved":false,"is_disabled":false,"rental_uris":{"android":"levelo://app?vid=12ac6ebb-3af8-410f-9e03-16d5b48de301","ios":"levelo://app?vid=12ac6ebb-3af8-410f-9e03-16d5b48de301"},"vehicle_type_id":"4","last_reported":1779466410,"current_range_meters":3200,"station_id":"ce4bh692rcd13ifvqea0","pricing_plan_id":"cebpf4jnsgd1na2vs0mg"},{"bike_id":"12481d7b-ca53-44d2-a72d-3641cbe06950","system_id":"levelo_inurba_marseille","lat":43.29917,"lon":5.40944,"is_reserved":false,"is_disabled":false,"rental_uris":{"android":"levelo://app?vid=12481d7b-ca53-44d2-a72d-3641cbe06950","ios":"levelo://app?vid=12481d7b-ca53-44d2-a72d-3641cbe06950"},"vehicle_type_id":"4","last_reported":1779466410,"current_range_meters":3200,"station_id":"","pricing_plan_id":"cebpf4jnsgd1na2vs0mg"},{"bike_id":"9198ddb3-2895-4c48-912c-62123bf003f7","system_id":"levelo_inurba_marseille","lat":43.29033,"lon":5.38659,"is_reserved":false,"is_disabled":false,"rental_uris":{"android":"levelo://app?vid=9198ddb3-2895-4c48-912c-62123bf003f7","ios":"levelo://app?vid=9198ddb3-2895-4c48-912c-62123bf003f7"},"vehicle_type_id":"4","last_reported":1779466410,"current_range_meters":3200,"station_id":"ce4bh4p2rcd13ifvqe0g","pricing_plan_id":"cebpf4jnsgd1na2vs0mg"},{"bike_id":"f1e0c070-f120-414b-ba52-6d5511548f79","system_id":"levelo_inurba_marseille","lat":43.225304,"lon":5.34842,"is_reserved":false,"is_disabled":false,"rental_uris":{"android":"levelo://app?vid=f1e0c070-f120-414b-ba52-6d5511548f79","ios":"levelo://app?vid=f1e0c070-f120-414b-ba52-6d5511548f79"},"vehicle_type_id":"4","last_reported":1779466410,"current_range_meters":3200,"station_id":"st_cvj5dfep6f1abm77gieg","pricing_plan_id":"cebpf4jnsgd1na2vs0mg"},{"bike_id":"0d3f15c1-6ac5-455c-b399-61c0d6cd3e0a","system_id":"levelo_inurba_marseille","lat":43.27385,"lon":5.36269,"is_reserved":false,"is_disabled":false,"rental_uris":{"android":"levelo://app?vid=0d3f15c1-6ac5-455c-b399-61c0d6cd3e0a","ios":"levelo://app?vid=0d3f15c1-6ac5-455c-b399-61c0d6cd3e0a"},"vehicle_type_id":"4","last_reported":1779466410,"current_range_meters":3200,"station_id":"ce4bhbh2rcd13ifvqeo0","pricing_plan_id":"cebpf4jnsgd1na2vs0mg"},{"bike_id":"d4dc1599-adf7-42ed-bd9e-6a1adfa38c30","system_id":"levelo_inurba_marseille","lat":43.26558,"lon":5.37293,"is_reserved":false,"is_disabled":false,"rental_uris":{"android":"levelo://app?vid=d4dc1599-adf7-42ed-bd9e-6a1adfa38c30","ios":"levelo://app?vid=d4dc1599-adf7-42ed-bd9e-6a1adfa38c30"},"vehicle_type_id":"4","last_reported":1779466410,"current_range_meters":3200,"station_id":"ce4bhg12rcd13ifvqf70","pricing_plan_id":"cebpf4jnsgd1na2vs0mg"},{"bike_id":"3164d9e8-c839-4029-b458-2d3d9b344e5f","system_id":"levelo_inurba_marseille","lat":43.275716,"lon":5.396434,"is_reserved":false,"is_disabled":false,"rental_uris":{"android":"levelo://app?vid=3164d9e8-c839-4029-b458-2d3d9b344e5f","ios":"levelo://app?vid=3164d9e8-c839-4029-b458-2d3d9b344e5f"},"vehicle_type_id":"4","last_reported":1779466410,"current_range_meters":3200,"station_id":"","pricing_plan_id":"cebpf4jnsgd1na2vs0mg"},{"bike_id":"3b3648bc-114e-4573-b5a4-e0750016f792","system_id":"levelo_inurba_marseille","lat":43.23848,"lon":5.41315,"is_reserved":false,"is_disabled":false,"rental_uris":{"android":"levelo://app?vid=3b3648bc-114e-4573-b5a4-e0750016f792","ios":"levelo://app?vid=3b3648bc-114e-4573-b5a4-e0750016f792"},"vehicle_type_id":"4","last_reported":1779466410,"current_range_meters":3200,"station_id":"","pricing_plan_id":"cebpf4jnsgd1na2vs0mg"},{"bike_id":"e27feea1-9bc4-4f71-870f-9ba99b38e6d2","system_id":"levelo_inurba_marseille","lat":43.29181,"lon":5.3724,"is_reserved":false,"is_disabled":false,"rental_uris":{"android":"levelo://app?vid=e27feea1-9bc4-4f71-870f-9ba99b38e6d2","ios":"levelo://app?vid=e27feea1-9bc4-4f71-870f-9ba99b38e6d2"},"vehicle_type_id":"4","last_reported":1779466410,"current_range_meters":3200,"station_id":"","pricing_plan_id":"cebpf4jnsgd1na2vs0mg"},{"bike_id":"72990549-565e-44c2-8673-3a1f3d742861","system_id":"levelo_inurba_marseille","lat":43.31889,"lon":5.36819,"is_reserved":false,"is_disabled":false,"rental_uris":{"android":"levelo://app?vid=72990549-565e-44c2-8673-3a1f3d742861","ios":"levelo://app?vid=72990549-565e-44c2-8673-3a1f3d742861"},"vehicle_type_id":"4","last_reported":1779466410,"current_range_meters":3200,"station_id":"st_d6o2h0d0559c73evc1b0","pricing_plan_id":"cebpf4jnsgd1na2vs0mg"},{"bike_id":"3936af97-ef4d-4f58-a35e-a0221d7e9a6c","system_id":"levelo_inurba_marseille","lat":43.22563,"lon":5.41646,"is_reserved":false,"is_disabled":false,"rental_uris":{"android":"levelo://app?vid=3936af97-ef4d-4f58-a35e-a0221d7e9a6c","ios":"levelo://app?vid=3936af97-ef4d-4f58-a35e-a0221d7e9a6c"},"vehicle_type_id":"4","last_reported":1779466410,"current_range_meters":3600,"station_id":"st_d2o4gvlbi1j2169b742g","pricing_plan_id":"cebpf4jnsgd1na2vs0mg"},{"bike_id":"7ec93175-8d9c-4b31-b534-34e06405c4e0","system_id":"levelo_inurba_marseille","lat":43.29623,"lon":5.44692,"is_reserved":false,"is_disabled":false,"rental_uris":{"android":"levelo://app?vid=7ec93175-8d9c-4b31-b534-34e06405c4e0","ios":"levelo://app?vid=7ec93175-8d9c-4b31-b534-34e06405c4e0"},"vehicle_type_id":"4","last_reported":1779466410,"current_range_meters":3600,"station_id":"","pricing_plan_id":"cebpf4jnsgd1na2vs0mg"},{"bike_id":"d6ff3646-0274-4dd9-a106-3da2b6ba4b7a","system_id":"levelo_inurba_marseille","lat":43.31089,"lon":5.42442,"is_reserved":false,"is_disabled":false,"rental_uris":{"android":"levelo://app?vid=d6ff3646-0274-4dd9-a106-3da2b6ba4b7a","ios":"levelo://app?vid=d6ff3646-0274-4dd9-a106-3da2b6ba4b7a"},"vehicle_type_id":"4","last_reported":1779466410,"current_range_meters":3600,"station_id":"ce4bhp92rcd13ifvqhag","pricing_plan_id":"cebpf4jnsgd1na2vs0mg"},{"bike_id":"12f718f5-e184-4868-8dcf-ac24dd7a1291","system_id":"levelo_inurba_marseille","lat":43.279449,"lon":5.410541,"is_reserved":false,"is_disabled":false,"rental_uris":{"android":"levelo://app?vid=12f718f5-e184-4868-8dcf-ac24dd7a1291","ios":"levelo://app?vid=12f718f5-e184-4868-8dcf-ac24dd7a1291"},"vehicle_type_id":"4","last_reported":1779466410,"current_range_meters":3600,"station_id":"ce4bhnp2rcd13ifvqh0g","pricing_plan_id":"cebpf4jnsgd1na2vs0mg"},{"bike_id":"953f8bea-602d-4417-a267-2c901d054fa7","system_id":"levelo_inurba_marseille","lat":43.275674,"lon":5.384254,"is_reserved":false,"is_disabled":false,"rental_uris":{"android":"levelo://app?vid=953f8bea-602d-4417-a267-2c901d054fa7","ios":"levelo://app?vid=953f8bea-602d-4417-a267-2c901d054fa7"},"vehicle_type_id":"4","last_reported":1779466410,"current_range_meters":3600,"station_id":"ce4bhh92rcd13ifvqfi0","pricing_plan_id":"cebpf4jnsgd1na2vs0mg"},{"bike_id":"371d5220-e3c9-41c1-af27-6b7ea0d183d0","system_id":"levelo_inurba_marseille","lat":43.25359,"lon":5.40886,"is_reserved":false,"is_disabled":false,"rental_uris":{"android":"levelo://app?vid=371d5220-e3c9-41c1-af27-6b7ea0d183d0","ios":"levelo://app?vid=371d5220-e3c9-41c1-af27-6b7ea0d183d0"},"vehicle_type_id":"4","last_reported":1779466410,"current_range_meters":3600,"station_id":"","pricing_plan_id":"cebpf4jnsgd1na2vs0mg"},{"bike_id":"ca8a2f0a-5935-4f1a-8f98-7a83aa5c69de","system_id":"levelo_inurba_marseille","lat":43.30672,"lon":5.36873,"is_reserved":false,"is_disabled":false,"rental_uris":{"android":"levelo://app?vid=ca8a2f0a-5935-4f1a-8f98-7a83aa5c69de","ios":"levelo://app?vid=ca8a2f0a-5935-4f1a-8f98-7a83aa5c69de"},"vehicle_type_id":"4","last_reported":1779466410,"current_range_meters":3600,"station_id":"","pricing_plan_id":"cebpf4jnsgd1na2vs0mg"},{"bike_id":"7eebbda7-66b3-4973-bb8a-7ba5bc875a88","system_id":"levelo_inurba_marseille","lat":43.27223,"lon":5.40959,"is_reserved":false,"is_disabled":false,"rental_uris":{"android":"levelo://app?vid=7eebbda7-66b3-4973-bb8a-7ba5bc875a88","ios":"levelo://app?vid=7eebbda7-66b3-4973-bb8a-7ba5bc875a88"},"vehicle_type_id":"4","last_reported":1779466410,"current_range_meters":3600,"station_id":"","pricing_plan_id":"cebpf4jnsgd1na2vs0mg"},{"bike_id":"01e0d0eb-aceb-45d0-b448-f190cc7530a6","system_id":"levelo_inurba_marseille","lat":43.2253,"lon":5.34833,"is_reserved":false,"is_disabled":false,"rental_uris":{"android":"levelo://app?vid=01e0d0eb-aceb-45d0-b448-f190cc7530a6","ios":"levelo://app?vid=01e0d0eb-aceb-45d0-b448-f190cc7530a6"},"vehicle_type_id":"4","last_reported":1779466410,"current_range_meters":3600,"station_id":"st_cvj5dfep6f1abm77gieg","pricing_plan_id":"cebpf4jnsgd1na2vs0mg"},{"bike_id":"296ae167-f142-480d-a2c4-fc8c19fbc4e0","system_id":"levelo_inurba_marseille","lat":43.23381,"lon":5.41231,"is_reserved":false,"is_disabled":false,"rental_uris":{"android":"levelo://app?vid=296ae167-f142-480d-a2c4-fc8c19fbc4e0","ios":"levelo://app?vid=296ae167-f142-480d-a2c4-fc8c19fbc4e0"},"vehicle_type_id":"4","last_reported":1779466410,"current_range_meters":3600,"station_id":"st_d75pvndhf9lc73cqq3eg","pricing_plan_id":"cebpf4jnsgd1na2vs0mg"},{"bike_id":"29f5556a-eab8-4dae-99c4-ccb646fae2ec","system_id":"levelo_inurba_marseille","lat":43.23193,"lon":5.35554,"is_reserved":false,"is_disabled":false,"rental_uris":{"android":"levelo://app?vid=29f5556a-eab8-4dae-99c4-ccb646fae2ec","ios":"levelo://app?vid=29f5556a-eab8-4dae-99c4-ccb646fae2ec"},"vehicle_type_id":"4","last_reported":1779466410,"current_range_meters":3600,"station_id":"ce4bhu92rcd13ifvqi70","pricing_plan_id":"cebpf4jnsgd1na2vs0mg"},{"bike_id":"972e4029-acc2-47bb-a7c9-18c55104124c","system_id":"levelo_inurba_marseille","lat":43.29491,"lon":5.43311,"is_reserved":false,"is_disabled":false,"rental_uris":{"android":"levelo://app?vid=972e4029-acc2-47bb-a7c9-18c55104124c","ios":"levelo://app?vid=972e4029-acc2-47bb-a7c9-18c55104124c"},"vehicle_type_id":"4","last_reported":1779466410,"current_range_meters":3600,"station_id":"st_d3j5ugp08ojc73fj9d10","pricing_plan_id":"cebpf4jnsgd1na2vs0mg"},{"bike_id":"58f08ebb-b0c6-47ad-85e5-88369ba3049c","system_id":"levelo_inurba_marseille","lat":43.25107,"lon":5.40331,"is_reserved":false,"is_disabled":true,"rental_uris":{"android":"levelo://app?vid=58f08ebb-b0c6-47ad-85e5-88369ba3049c","ios":"levelo://app?vid=58f08ebb-b0c6-47ad-85e5-88369ba3049c"},"vehicle_type_id":"4","last_reported":1779466410,"current_range_meters":4000,"station_id":"ce4bhlh2rcd13ifvqgig","pricing_plan_id":"cebpf4jnsgd1na2vs0mg"},{"bike_id":"a84fab8c-089a-4371-8813-a34f0edb4145","system_id":"levelo_inurba_marseille","lat":43.22938,"lon":5.35375,"is_reserved":false,"is_disabled":false,"rental_uris":{"android":"levelo://app?vid=a84fab8c-089a-4371-8813-a34f0edb4145","ios":"levelo://app?vid=a84fab8c-089a-4371-8813-a34f0edb4145"},"vehicle_type_id":"4","last_reported":1779466410,"current_range_meters":4000,"station_id":"cpo3532slgdg3j2ikp40","pricing_plan_id":"cebpf4jnsgd1na2vs0mg"},{"bike_id":"7c6b2c22-9f0b-4035-8d77-46097baebab1","system_id":"levelo_inurba_marseille","lat":43.316462,"lon":5.423956,"is_reserved":false,"is_disabled":false,"rental_uris":{"android":"levelo://app?vid=7c6b2c22-9f0b-4035-8d77-46097baebab1","ios":"levelo://app?vid=7c6b2c22-9f0b-4035-8d77-46097baebab1"},"vehicle_type_id":"4","last_reported":1779466410,"current_range_meters":4000,"station_id":"ce4bhp92rcd13ifvqhbg","pricing_plan_id":"cebpf4jnsgd1na2vs0mg"},{"bike_id":"b916dc26-3594-41bd-b79f-127b3208b674","system_id":"levelo_inurba_marseille","lat":43.25556,"lon":5.38336,"is_reserved":false,"is_disabled":true,"rental_uris":{"android":"levelo://app?vid=b916dc26-3594-41bd-b79f-127b3208b674","ios":"levelo://app?vid=b916dc26-3594-41bd-b79f-127b3208b674"},"vehicle_type_id":"4","last_reported":1779466410,"current_range_meters":4000,"station_id":"","pricing_plan_id":"cebpf4jnsgd1na2vs0mg"},{"bike_id":"bf4065d7-24ef-4fa4-8c32-8fb7f9a10c21","system_id":"levelo_inurba_marseille","lat":43.299436,"lon":5.365612,"is_reserved":false,"is_disabled":false,"rental_uris":{"android":"levelo://app?vid=bf4065d7-24ef-4fa4-8c32-8fb7f9a10c21","ios":"levelo://app?vid=bf4065d7-24ef-4fa4-8c32-8fb7f9a10c21"},"vehicle_type_id":"4","last_reported":1779466410,"current_range_meters":4000,"station_id":"ce4bgm92rcd13ifvqbr0","pricing_plan_id":"cebpf4jnsgd1na2vs0mg"},{"bike_id":"5e35b8f0-2ec6-46ec-af35-d1eec60b0a9c","system_id":"levelo_inurba_marseille","lat":43.301518,"lon":5.398341,"is_reserved":false,"is_disabled":false,"rental_uris":{"android":"levelo://app?vid=5e35b8f0-2ec6-46ec-af35-d1eec60b0a9c","ios":"levelo://app?vid=5e35b8f0-2ec6-46ec-af35-d1eec60b0a9c"},"vehicle_type_id":"4","last_reported":1779466410,"current_range_meters":4000,"station_id":"ce4bh0h2rcd13ifvqd40","pricing_plan_id":"cebpf4jnsgd1na2vs0mg"},{"bike_id":"7f30c892-ec6b-453f-9bd1-0caea65eb4f8","system_id":"levelo_inurba_marseille","lat":43.269586,"lon":5.386354,"is_reserved":false,"is_disabled":false,"rental_uris":{"android":"levelo://app?vid=7f30c892-ec6b-453f-9bd1-0caea65eb4f8","ios":"levelo://app?vid=7f30c892-ec6b-453f-9bd1-0caea65eb4f8"},"vehicle_type_id":"4","last_reported":1779466410,"current_range_meters":4000,"station_id":"ce4bhh92rcd13ifvqfh0","pricing_plan_id":"cebpf4jnsgd1na2vs0mg"},{"bike_id":"831eb3fe-58c0-43aa-9c3c-e788c914eb48","system_id":"levelo_inurba_marseille","lat":43.27616,"lon":5.36111,"is_reserved":false,"is_disabled":true,"rental_uris":{"android":"levelo://app?vid=831eb3fe-58c0-43aa-9c3c-e788c914eb48","ios":"levelo://app?vid=831eb3fe-58c0-43aa-9c3c-e788c914eb48"},"vehicle_type_id":"4","last_reported":1779466410,"current_range_meters":4000,"station_id":"ce4bgj92rcd13ifvqbe0","pricing_plan_id":"cebpf4jnsgd1na2vs0mg"},{"bike_id":"013939bc-c53d-4e6f-be2a-05c79303cd52","system_id":"levelo_inurba_marseille","lat":43.30997,"lon":5.36646,"is_reserved":false,"is_disabled":false,"rental_uris":{"android":"levelo://app?vid=013939bc-c53d-4e6f-be2a-05c79303cd52","ios":"levelo://app?vid=013939bc-c53d-4e6f-be2a-05c79303cd52"},"vehicle_type_id":"4","last_reported":1779466410,"current_range_meters":4000,"station_id":"","pricing_plan_id":"cebpf4jnsgd1na2vs0mg"},{"bike_id":"3aa7999e-07b9-4a99-b080-09787761ed8e","system_id":"levelo_inurba_marseille","lat":43.2397,"lon":5.36625,"is_reserved":false,"is_disabled":false,"rental_uris":{"android":"levelo://app?vid=3aa7999e-07b9-4a99-b080-09787761ed8e","ios":"levelo://app?vid=3aa7999e-07b9-4a99-b080-09787761ed8e"},"vehicle_type_id":"4","last_reported":1779466410,"current_range_meters":4000,"station_id":"ce4bhi12rcd13ifvqfp0","pricing_plan_id":"cebpf4jnsgd1na2vs0mg"},{"bike_id":"b5f78969-2d9d-448d-8f6d-b8c13de13c70","system_id":"levelo_inurba_marseille","lat":43.23189,"lon":5.39981,"is_reserved":false,"is_disabled":false,"rental_uris":{"android":"levelo://app?vid=b5f78969-2d9d-448d-8f6d-b8c13de13c70","ios":"levelo://app?vid=b5f78969-2d9d-448d-8f6d-b8c13de13c70"},"vehicle_type_id":"4","last_reported":1779466410,"current_range_meters":4000,"station_id":"ce4bhn12rcd13ifvqgqg","pricing_plan_id":"cebpf4jnsgd1na2vs0mg"},{"bike_id":"686d7acf-9eb4-4a30-82c0-6882e1ffe4a9","system_id":"levelo_inurba_marseille","lat":43.29941,"lon":5.36565,"is_reserved":false,"is_disabled":false,"rental_uris":{"android":"levelo://app?vid=686d7acf-9eb4-4a30-82c0-6882e1ffe4a9","ios":"levelo://app?vid=686d7acf-9eb4-4a30-82c0-6882e1ffe4a9"},"vehicle_type_id":"4","last_reported":1779466410,"current_range_meters":4000,"station_id":"ce4bgm92rcd13ifvqbr0","pricing_plan_id":"cebpf4jnsgd1na2vs0mg"},{"bike_id":"65096337-3580-49eb-8763-b8f121f2c2d3","system_id":"levelo_inurba_marseille","lat":43.30444,"lon":5.38889,"is_reserved":false,"is_disabled":false,"rental_uris":{"android":"levelo://app?vid=65096337-3580-49eb-8763-b8f121f2c2d3","ios":"levelo://app?vid=65096337-3580-49eb-8763-b8f121f2c2d3"},"vehicle_type_id":"4","last_reported":1779466410,"current_range_meters":4000,"station_id":"ce4bgk12rcd13ifvqbi0","pricing_plan_id":"cebpf4jnsgd1na2vs0mg"},{"bike_id":"0b1d9180-7fce-4658-9299-38a3619f4bfa","system_id":"levelo_inurba_marseille","lat":43.28848,"lon":5.42529,"is_reserved":false,"is_disabled":false,"rental_uris":{"android":"levelo://app?vid=0b1d9180-7fce-4658-9299-38a3619f4bfa","ios":"levelo://app?vid=0b1d9180-7fce-4658-9299-38a3619f4bfa"},"vehicle_type_id":"4","last_reported":1779466410,"current_range_meters":4000,"station_id":"st_d3b462108ojc7389ooeg","pricing_plan_id":"cebpf4jnsgd1na2vs0mg"},{"bike_id":"e01e9a76-7559-40e0-bc65-36123416e7b0","system_id":"levelo_inurba_marseille","lat":43.31209,"lon":5.36844,"is_reserved":false,"is_disabled":false,"rental_uris":{"android":"levelo://app?vid=e01e9a76-7559-40e0-bc65-36123416e7b0","ios":"levelo://app?vid=e01e9a76-7559-40e0-bc65-36123416e7b0"},"vehicle_type_id":"4","last_reported":1779466410,"current_range_meters":4400,"station_id":"ce4bgl92rcd13ifvqbq0","pricing_plan_id":"cebpf4jnsgd1na2vs0mg"},{"bike_id":"238e2120-c332-49db-8eff-3f61fe07f1b4","system_id":"levelo_inurba_marseille","lat":43.29002,"lon":5.35615,"is_reserved":false,"is_disabled":true,"rental_uris":{"android":"levelo://app?vid=238e2120-c332-49db-8eff-3f61fe07f1b4","ios":"levelo://app?vid=238e2120-c332-49db-8eff-3f61fe07f1b4"},"vehicle_type_id":"4","last_reported":1779466410,"current_range_meters":4400,"station_id":"ce4bhb92rcd13ifvqen0","pricing_plan_id":"cebpf4jnsgd1na2vs0mg"},{"bike_id":"a5819c80-56cd-4c46-9985-15e0dddaef6c","system_id":"levelo_inurba_marseille","lat":43.28943,"lon":5.36644,"is_reserved":false,"is_disabled":false,"rental_uris":{"android":"levelo://app?vid=a5819c80-56cd-4c46-9985-15e0dddaef6c","ios":"levelo://app?vid=a5819c80-56cd-4c46-9985-15e0dddaef6c"},"vehicle_type_id":"4","last_reported":1779466410,"current_range_meters":4400,"station_id":"ce4bhap2rcd13ifvqek0","pricing_plan_id":"cebpf4jnsgd1na2vs0mg"},{"bike_id":"60a16368-519a-4aa5-889a-f31cdc0a5be1","system_id":"levelo_inurba_marseille","lat":43.32005,"lon":5.41512,"is_reserved":false,"is_disabled":false,"rental_uris":{"android":"levelo://app?vid=60a16368-519a-4aa5-889a-f31cdc0a5be1","ios":"levelo://app?vid=60a16368-519a-4aa5-889a-f31cdc0a5be1"},"vehicle_type_id":"4","last_reported":1779466410,"current_range_meters":4400,"station_id":"","pricing_plan_id":"cebpf4jnsgd1na2vs0mg"},{"bike_id":"6d1175b3-fe92-4f2a-be12-b8c8425de077","system_id":"levelo_inurba_marseille","lat":43.23058,"lon":5.35491,"is_reserved":false,"is_disabled":false,"rental_uris":{"android":"levelo://app?vid=6d1175b3-fe92-4f2a-be12-b8c8425de077","ios":"levelo://app?vid=6d1175b3-fe92-4f2a-be12-b8c8425de077"},"vehicle_type_id":"4","last_reported":1779466410,"current_range_meters":4400,"station_id":"cpo3342slgdg3j2ifvpg","pricing_plan_id":"cebpf4jnsgd1na2vs0mg"},{"bike_id":"4fd71387-5464-406a-8960-7d8b8ea649a5","system_id":"levelo_inurba_marseille","lat":43.279211,"lon":5.395836,"is_reserved":false,"is_disabled":false,"rental_uris":{"android":"levelo://app?vid=4fd71387-5464-406a-8960-7d8b8ea649a5","ios":"levelo://app?vid=4fd71387-5464-406a-8960-7d8b8ea649a5"},"vehicle_type_id":"4","last_reported":1779466410,"current_range_meters":4400,"station_id":"ce4bhf92rcd13ifvqf40","pricing_plan_id":"cebpf4jnsgd1na2vs0mg"},{"bike_id":"74ecb71a-d43d-47f3-998b-1ac0e0521495","system_id":"levelo_inurba_marseille","lat":43.293036,"lon":5.374627,"is_reserved":false,"is_disabled":false,"rental_uris":{"android":"levelo://app?vid=74ecb71a-d43d-47f3-998b-1ac0e0521495","ios":"levelo://app?vid=74ecb71a-d43d-47f3-998b-1ac0e0521495"},"vehicle_type_id":"4","last_reported":1779466410,"current_range_meters":4400,"station_id":"ce4bgi12rcd13ifvqb70","pricing_plan_id":"cebpf4jnsgd1na2vs0mg"},{"bike_id":"2bcc92ef-bf71-497b-a5ab-81a7f1ac67d9","system_id":"levelo_inurba_marseille","lat":43.23061,"lon":5.35493,"is_reserved":false,"is_disabled":false,"rental_uris":{"android":"levelo://app?vid=2bcc92ef-bf71-497b-a5ab-81a7f1ac67d9","ios":"levelo://app?vid=2bcc92ef-bf71-497b-a5ab-81a7f1ac67d9"},"vehicle_type_id":"4","last_reported":1779466410,"current_range_meters":4400,"station_id":"cpo3342slgdg3j2ifvpg","pricing_plan_id":"cebpf4jnsgd1na2vs0mg"},{"bike_id":"5c572bfb-1a1a-48eb-996d-c13e3036f341","system_id":"levelo_inurba_marseille","lat":43.30556,"lon":5.36572,"is_reserved":false,"is_disabled":false,"rental_uris":{"android":"levelo://app?vid=5c572bfb-1a1a-48eb-996d-c13e3036f341","ios":"levelo://app?vid=5c572bfb-1a1a-48eb-996d-c13e3036f341"},"vehicle_type_id":"4","last_reported":1779466410,"current_range_meters":4400,"station_id":"ce4bgs12rcd13ifvqcag","pricing_plan_id":"cebpf4jnsgd1na2vs0mg"},{"bike_id":"a2cf98fc-da23-4539-b1fb-889fbd8dde87","system_id":"levelo_inurba_marseille","lat":43.295718,"lon":5.399812,"is_reserved":false,"is_disabled":false,"rental_uris":{"android":"levelo://app?vid=a2cf98fc-da23-4539-b1fb-889fbd8dde87","ios":"levelo://app?vid=a2cf98fc-da23-4539-b1fb-889fbd8dde87"},"vehicle_type_id":"4","last_reported":1779466410,"current_range_meters":4400,"station_id":"ce4bh312rcd13ifvqdj0","pricing_plan_id":"cebpf4jnsgd1na2vs0mg"},{"bike_id":"0f68bd3a-f5ba-4870-83ae-1373ddd66fc8","system_id":"levelo_inurba_marseille","lat":43.3205,"lon":5.41538,"is_reserved":false,"is_disabled":false,"rental_uris":{"android":"levelo://app?vid=0f68bd3a-f5ba-4870-83ae-1373ddd66fc8","ios":"levelo://app?vid=0f68bd3a-f5ba-4870-83ae-1373ddd66fc8"},"vehicle_type_id":"4","last_reported":1779466410,"current_range_meters":4400,"station_id":"ce4bhq92rcd13ifvqhkg","pricing_plan_id":"cebpf4jnsgd1na2vs0mg"},{"bike_id":"294449bd-2101-4455-8779-5c207b70eb6b","system_id":"levelo_inurba_marseille","lat":43.30447,"lon":5.38883,"is_reserved":false,"is_disabled":false,"rental_uris":{"android":"levelo://app?vid=294449bd-2101-4455-8779-5c207b70eb6b","ios":"levelo://app?vid=294449bd-2101-4455-8779-5c207b70eb6b"},"vehicle_type_id":"4","last_reported":1779466410,"current_range_meters":4400,"station_id":"ce4bgk12rcd13ifvqbi0","pricing_plan_id":"cebpf4jnsgd1na2vs0mg"},{"bike_id":"f61f39fc-f6a0-4503-86d0-297aa2b99be5","system_id":"levelo_inurba_marseille","lat":43.23794,"lon":5.36631,"is_reserved":false,"is_disabled":false,"rental_uris":{"android":"levelo://app?vid=f61f39fc-f6a0-4503-86d0-297aa2b99be5","ios":"levelo://app?vid=f61f39fc-f6a0-4503-86d0-297aa2b99be5"},"vehicle_type_id":"4","last_reported":1779466410,"current_range_meters":4400,"station_id":"st_d3nk18o9ro0c73en2l3g","pricing_plan_id":"cebpf4jnsgd1na2vs0mg"},{"bike_id":"0dd6b029-0464-489f-b101-a506cad4fc82","system_id":"levelo_inurba_marseille","lat":43.23189,"lon":5.35554,"is_reserved":false,"is_disabled":false,"rental_uris":{"android":"levelo://app?vid=0dd6b029-0464-489f-b101-a506cad4fc82","ios":"levelo://app?vid=0dd6b029-0464-489f-b101-a506cad4fc82"},"vehicle_type_id":"4","last_reported":1779466410,"current_range_meters":4400,"station_id":"ce4bhu92rcd13ifvqi70","pricing_plan_id":"cebpf4jnsgd1na2vs0mg"},{"bike_id":"5876920c-0705-4d4a-9dbf-6bb43afd1c02","system_id":"levelo_inurba_marseille","lat":43.2293,"lon":5.353755,"is_reserved":false,"is_disabled":false,"rental_uris":{"android":"levelo://app?vid=5876920c-0705-4d4a-9dbf-6bb43afd1c02","ios":"levelo://app?vid=5876920c-0705-4d4a-9dbf-6bb43afd1c02"},"vehicle_type_id":"4","last_reported":1779466410,"current_range_meters":4400,"station_id":"cpo3532slgdg3j2ikp40","pricing_plan_id":"cebpf4jnsgd1na2vs0mg"},{"bike_id":"c97309d8-44c6-4946-84f5-9a696edce419","system_id":"levelo_inurba_marseille","lat":43.31713,"lon":5.37771,"is_reserved":false,"is_disabled":false,"rental_uris":{"android":"levelo://app?vid=c97309d8-44c6-4946-84f5-9a696edce419","ios":"levelo://app?vid=c97309d8-44c6-4946-84f5-9a696edce419"},"vehicle_type_id":"4","last_reported":1779466410,"current_range_meters":4800,"station_id":"ce4bgth2rcd13ifvqch0","pricing_plan_id":"cebpf4jnsgd1na2vs0mg"},{"bike_id":"e3186371-0391-47d4-9927-7c8a3c2904ba","system_id":"levelo_inurba_marseille","lat":43.28304,"lon":5.38538,"is_reserved":false,"is_disabled":false,"rental_uris":{"android":"levelo://app?vid=e3186371-0391-47d4-9927-7c8a3c2904ba","ios":"levelo://app?vid=e3186371-0391-47d4-9927-7c8a3c2904ba"},"vehicle_type_id":"4","last_reported":1779466410,"current_range_meters":4800,"station_id":"","pricing_plan_id":"cebpf4jnsgd1na2vs0mg"},{"bike_id":"d2fd7dd9-7aa9-4fba-8623-ab64b15bceaf","system_id":"levelo_inurba_marseille","lat":43.2509,"lon":5.39513,"is_reserved":false,"is_disabled":false,"rental_uris":{"android":"levelo://app?vid=d2fd7dd9-7aa9-4fba-8623-ab64b15bceaf","ios":"levelo://app?vid=d2fd7dd9-7aa9-4fba-8623-ab64b15bceaf"},"vehicle_type_id":"4","last_reported":1779466410,"current_range_meters":4800,"station_id":"ce4bhm12rcd13ifvqgkg","pricing_plan_id":"cebpf4jnsgd1na2vs0mg"},{"bike_id":"936efd8c-4ba7-4c43-9116-1a8338e319af","system_id":"levelo_inurba_marseille","lat":43.29261,"lon":5.40907,"is_reserved":false,"is_disabled":false,"rental_uris":{"android":"levelo://app?vid=936efd8c-4ba7-4c43-9116-1a8338e319af","ios":"levelo://app?vid=936efd8c-4ba7-4c43-9116-1a8338e319af"},"vehicle_type_id":"4","last_reported":1779466410,"current_range_meters":4800,"station_id":"ce4bh192rcd13ifvqdc0","pricing_plan_id":"cebpf4jnsgd1na2vs0mg"},{"bike_id":"b45e4448-ee2b-44cc-b30f-f1a02ee56d36","system_id":"levelo_inurba_marseille","lat":43.28268,"lon":5.35083,"is_reserved":false,"is_disabled":false,"rental_uris":{"android":"levelo://app?vid=b45e4448-ee2b-44cc-b30f-f1a02ee56d36","ios":"levelo://app?vid=b45e4448-ee2b-44cc-b30f-f1a02ee56d36"},"vehicle_type_id":"4","last_reported":1779466410,"current_range_meters":4800,"station_id":"ce4bhbp2rcd13ifvqerg","pricing_plan_id":"cebpf4jnsgd1na2vs0mg"},{"bike_id":"43b1661a-689b-4380-8252-61fb2d287625","system_id":"levelo_inurba_marseille","lat":43.24169,"lon":5.36394,"is_reserved":false,"is_disabled":false,"rental_uris":{"android":"levelo://app?vid=43b1661a-689b-4380-8252-61fb2d287625","ios":"levelo://app?vid=43b1661a-689b-4380-8252-61fb2d287625"},"vehicle_type_id":"4","last_reported":1779466410,"current_range_meters":4800,"station_id":"cpo36qri1sfpv3e86is0","pricing_plan_id":"cebpf4jnsgd1na2vs0mg"},{"bike_id":"fe91a5bc-8b01-4ab0-bd30-07f192048a66","system_id":"levelo_inurba_marseille","lat":43.28404,"lon":5.35003,"is_reserved":false,"is_disabled":false,"rental_uris":{"android":"levelo://app?vid=fe91a5bc-8b01-4ab0-bd30-07f192048a66","ios":"levelo://app?vid=fe91a5bc-8b01-4ab0-bd30-07f192048a66"},"vehicle_type_id":"4","last_reported":1779466410,"current_range_meters":4800,"station_id":"ce4bhbh2rcd13ifvqepg","pricing_plan_id":"cebpf4jnsgd1na2vs0mg"},{"bike_id":"0515141f-c245-4fd9-bbd6-8bc3719eeff2","system_id":"levelo_inurba_marseille","lat":43.28892,"lon":5.36059,"is_reserved":false,"is_disabled":true,"rental_uris":{"android":"levelo://app?vid=0515141f-c245-4fd9-bbd6-8bc3719eeff2","ios":"levelo://app?vid=0515141f-c245-4fd9-bbd6-8bc3719eeff2"},"vehicle_type_id":"4","last_reported":1779466410,"current_range_meters":4800,"station_id":"","pricing_plan_id":"cebpf4jnsgd1na2vs0mg"},{"bike_id":"4c73ac5b-f848-44b9-9488-246344552796","system_id":"levelo_inurba_marseille","lat":43.28536,"lon":5.44097,"is_reserved":false,"is_disabled":false,"rental_uris":{"android":"levelo://app?vid=4c73ac5b-f848-44b9-9488-246344552796","ios":"levelo://app?vid=4c73ac5b-f848-44b9-9488-246344552796"},"vehicle_type_id":"4","last_reported":1779466410,"current_range_meters":4800,"station_id":"st_d3j3df2ikq2c7380ej80","pricing_plan_id":"cebpf4jnsgd1na2vs0mg"},{"bike_id":"ae73dd5f-c448-475f-be97-7d9f664d23a6","system_id":"levelo_inurba_marseille","lat":43.28538,"lon":5.38464,"is_reserved":false,"is_disabled":false,"rental_uris":{"android":"levelo://app?vid=ae73dd5f-c448-475f-be97-7d9f664d23a6","ios":"levelo://app?vid=ae73dd5f-c448-475f-be97-7d9f664d23a6"},"vehicle_type_id":"4","last_reported":1779466410,"current_range_meters":4800,"station_id":"","pricing_plan_id":"cebpf4jnsgd1na2vs0mg"},{"bike_id":"71a6361e-7515-4d49-9a73-de9321ffc52d","system_id":"levelo_inurba_marseille","lat":43.305406,"lon":5.367063,"is_reserved":false,"is_disabled":false,"rental_uris":{"android":"levelo://app?vid=71a6361e-7515-4d49-9a73-de9321ffc52d","ios":"levelo://app?vid=71a6361e-7515-4d49-9a73-de9321ffc52d"},"vehicle_type_id":"4","last_reported":1779466410,"current_range_meters":4800,"station_id":"ce4bgrp2rcd13ifvqc9g","pricing_plan_id":"cebpf4jnsgd1na2vs0mg"},{"bike_id":"3d25de43-3ca6-4496-b70c-e09decce2140","system_id":"levelo_inurba_marseille","lat":43.24163,"lon":5.36393,"is_reserved":false,"is_disabled":false,"rental_uris":{"android":"levelo://app?vid=3d25de43-3ca6-4496-b70c-e09decce2140","ios":"levelo://app?vid=3d25de43-3ca6-4496-b70c-e09decce2140"},"vehicle_type_id":"4","last_reported":1779466410,"current_range_meters":4800,"station_id":"cpo36qri1sfpv3e86is0","pricing_plan_id":"cebpf4jnsgd1na2vs0mg"},{"bike_id":"97b6fce0-26e2-47c5-85d3-36b505159985","system_id":"levelo_inurba_marseille","lat":43.29977,"lon":5.41304,"is_reserved":false,"is_disabled":false,"rental_uris":{"android":"levelo://app?vid=97b6fce0-26e2-47c5-85d3-36b505159985","ios":"levelo://app?vid=97b6fce0-26e2-47c5-85d3-36b505159985"},"vehicle_type_id":"4","last_reported":1779466410,"current_range_meters":4800,"station_id":"ce4bhp12rcd13ifvqh9g","pricing_plan_id":"cebpf4jnsgd1na2vs0mg"},{"bike_id":"418d34b1-f4b3-4f0f-9c64-708746fc2476","system_id":"levelo_inurba_marseille","lat":43.28399,"lon":5.34999,"is_reserved":false,"is_disabled":false,"rental_uris":{"android":"levelo://app?vid=418d34b1-f4b3-4f0f-9c64-708746fc2476","ios":"levelo://app?vid=418d34b1-f4b3-4f0f-9c64-708746fc2476"},"vehicle_type_id":"4","last_reported":1779466410,"current_range_meters":4800,"station_id":"ce4bhbh2rcd13ifvqepg","pricing_plan_id":"cebpf4jnsgd1na2vs0mg"},{"bike_id":"c8cd67c3-75be-4d24-a740-e53655182891","system_id":"levelo_inurba_marseille","lat":43.28417,"lon":5.3498,"is_reserved":false,"is_disabled":false,"rental_uris":{"android":"levelo://app?vid=c8cd67c3-75be-4d24-a740-e53655182891","ios":"levelo://app?vid=c8cd67c3-75be-4d24-a740-e53655182891"},"vehicle_type_id":"4","last_reported":1779466410,"current_range_meters":4800,"station_id":"ce4bhbh2rcd13ifvqepg","pricing_plan_id":"cebpf4jnsgd1na2vs0mg"},{"bike_id":"b5acb177-4611-4761-8f6f-07e2fc7d26ee","system_id":"levelo_inurba_marseille","lat":43.24818,"lon":5.37459,"is_reserved":false,"is_disabled":false,"rental_uris":{"android":"levelo://app?vid=b5acb177-4611-4761-8f6f-07e2fc7d26ee","ios":"levelo://app?vid=b5acb177-4611-4761-8f6f-07e2fc7d26ee"},"vehicle_type_id":"4","last_reported":1779466410,"current_range_meters":4800,"station_id":"ce4bhgh2rcd13ifvqfb0","pricing_plan_id":"cebpf4jnsgd1na2vs0mg"},{"bike_id":"3d436a0d-575b-42d3-8681-5c87057b3b7f","system_id":"levelo_inurba_marseille","lat":43.27971,"lon":5.43623,"is_reserved":false,"is_disabled":false,"rental_uris":{"android":"levelo://app?vid=3d436a0d-575b-42d3-8681-5c87057b3b7f","ios":"levelo://app?vid=3d436a0d-575b-42d3-8681-5c87057b3b7f"},"vehicle_type_id":"4","last_reported":1779466410,"current_range_meters":4800,"station_id":"","pricing_plan_id":"cebpf4jnsgd1na2vs0mg"},{"bike_id":"ee266bb6-fdad-43ee-8b31-ce2b7478048a","system_id":"levelo_inurba_marseille","lat":43.28376,"lon":5.38645,"is_reserved":false,"is_disabled":false,"rental_uris":{"android":"levelo://app?vid=ee266bb6-fdad-43ee-8b31-ce2b7478048a","ios":"levelo://app?vid=ee266bb6-fdad-43ee-8b31-ce2b7478048a"},"vehicle_type_id":"4","last_reported":1779466410,"current_range_meters":4800,"station_id":"ce4bh492rcd13ifvqdvg","pricing_plan_id":"cebpf4jnsgd1na2vs0mg"},{"bike_id":"bef469d5-84f4-4585-ad2d-886bbb2ed126","system_id":"levelo_inurba_marseille","lat":43.29273,"lon":5.36846,"is_reserved":false,"is_disabled":false,"rental_uris":{"android":"levelo://app?vid=bef469d5-84f4-4585-ad2d-886bbb2ed126","ios":"levelo://app?vid=bef469d5-84f4-4585-ad2d-886bbb2ed126"},"vehicle_type_id":"4","last_reported":1779466410,"current_range_meters":4800,"station_id":"ce4bhbp2rcd13ifvqesg","pricing_plan_id":"cebpf4jnsgd1na2vs0mg"},{"bike_id":"37893482-1ca7-4e65-a3f3-86c49eda4a22","system_id":"levelo_inurba_marseille","lat":43.30392,"lon":5.42472,"is_reserved":false,"is_disabled":true,"rental_uris":{"android":"levelo://app?vid=37893482-1ca7-4e65-a3f3-86c49eda4a22","ios":"levelo://app?vid=37893482-1ca7-4e65-a3f3-86c49eda4a22"},"vehicle_type_id":"4","last_reported":1779466410,"current_range_meters":5600,"station_id":"ce4bhoh2rcd13ifvqh6g","pricing_plan_id":"cebpf4jnsgd1na2vs0mg"},{"bike_id":"5915260f-920f-4d53-a473-9bf298dfc2c9","system_id":"levelo_inurba_marseille","lat":43.292752,"lon":5.368319,"is_reserved":false,"is_disabled":false,"rental_uris":{"android":"levelo://app?vid=5915260f-920f-4d53-a473-9bf298dfc2c9","ios":"levelo://app?vid=5915260f-920f-4d53-a473-9bf298dfc2c9"},"vehicle_type_id":"4","last_reported":1779466410,"current_range_meters":5600,"station_id":"ce4bhbp2rcd13ifvqesg","pricing_plan_id":"cebpf4jnsgd1na2vs0mg"},{"bike_id":"36b06536-cd57-42ca-8455-a6f2fd96b496","system_id":"levelo_inurba_marseille","lat":43.29547,"lon":5.3853,"is_reserved":false,"is_disabled":false,"rental_uris":{"android":"levelo://app?vid=36b06536-cd57-42ca-8455-a6f2fd96b496","ios":"levelo://app?vid=36b06536-cd57-42ca-8455-a6f2fd96b496"},"vehicle_type_id":"4","last_reported":1779466410,"current_range_meters":5600,"station_id":"ce4bgih2rcd13ifvqba0","pricing_plan_id":"cebpf4jnsgd1na2vs0mg"},{"bike_id":"fbfe7ec6-9a71-4bd2-b0f4-800516019f41","system_id":"levelo_inurba_marseille","lat":43.2907,"lon":5.37162,"is_reserved":false,"is_disabled":false,"rental_uris":{"android":"levelo://app?vid=fbfe7ec6-9a71-4bd2-b0f4-800516019f41","ios":"levelo://app?vid=fbfe7ec6-9a71-4bd2-b0f4-800516019f41"},"vehicle_type_id":"4","last_reported":1779466410,"current_range_meters":5600,"station_id":"ce4bh5p2rcd13ifvqe4g","pricing_plan_id":"cebpf4jnsgd1na2vs0mg"},{"bike_id":"3de0a22c-f7a1-4ff6-8efb-126f6ce78565","system_id":"levelo_inurba_marseille","lat":43.21745,"lon":5.34604,"is_reserved":false,"is_disabled":false,"rental_uris":{"android":"levelo://app?vid=3de0a22c-f7a1-4ff6-8efb-126f6ce78565","ios":"levelo://app?vid=3de0a22c-f7a1-4ff6-8efb-126f6ce78565"},"vehicle_type_id":"4","last_reported":1779466410,"current_range_meters":5600,"station_id":"st_cvj6r9ubvosntc0bgbag","pricing_plan_id":"cebpf4jnsgd1na2vs0mg"},{"bike_id":"5c530a9e-7c4a-4aa6-adac-4172a237ef4e","system_id":"levelo_inurba_marseille","lat":43.28604,"lon":5.35021,"is_reserved":false,"is_disabled":false,"rental_uris":{"android":"levelo://app?vid=5c530a9e-7c4a-4aa6-adac-4172a237ef4e","ios":"levelo://app?vid=5c530a9e-7c4a-4aa6-adac-4172a237ef4e"},"vehicle_type_id":"4","last_reported":1779466410,"current_range_meters":5600,"station_id":"","pricing_plan_id":"cebpf4jnsgd1na2vs0mg"},{"bike_id":"b7e0fa63-60b1-4ef3-814a-19fe58151f8d","system_id":"levelo_inurba_marseille","lat":43.24167,"lon":5.36389,"is_reserved":false,"is_disabled":false,"rental_uris":{"android":"levelo://app?vid=b7e0fa63-60b1-4ef3-814a-19fe58151f8d","ios":"levelo://app?vid=b7e0fa63-60b1-4ef3-814a-19fe58151f8d"},"vehicle_type_id":"4","last_reported":1779466410,"current_range_meters":5600,"station_id":"cpo36qri1sfpv3e86is0","pricing_plan_id":"cebpf4jnsgd1na2vs0mg"},{"bike_id":"a9e3094f-9665-4dbd-8127-bdedb200fdf0","system_id":"levelo_inurba_marseille","lat":43.28281,"lon":5.35089,"is_reserved":false,"is_disabled":false,"rental_uris":{"android":"levelo://app?vid=a9e3094f-9665-4dbd-8127-bdedb200fdf0","ios":"levelo://app?vid=a9e3094f-9665-4dbd-8127-bdedb200fdf0"},"vehicle_type_id":"4","last_reported":1779466410,"current_range_meters":5600,"station_id":"ce4bhbp2rcd13ifvqerg","pricing_plan_id":"cebpf4jnsgd1na2vs0mg"},{"bike_id":"f18be1f5-6c24-4b34-8ca7-799ce93b41bf","system_id":"levelo_inurba_marseille","lat":43.29513,"lon":5.39033,"is_reserved":false,"is_disabled":false,"rental_uris":{"android":"levelo://app?vid=f18be1f5-6c24-4b34-8ca7-799ce93b41bf","ios":"levelo://app?vid=f18be1f5-6c24-4b34-8ca7-799ce93b41bf"},"vehicle_type_id":"4","last_reported":1779466410,"current_range_meters":5600,"station_id":"ce4bh3p2rcd13ifvqdp0","pricing_plan_id":"cebpf4jnsgd1na2vs0mg"},{"bike_id":"5b3df7fe-24ee-4ebc-a818-a68fe903b927","system_id":"levelo_inurba_marseille","lat":43.2175,"lon":5.34605,"is_reserved":false,"is_disabled":false,"rental_uris":{"android":"levelo://app?vid=5b3df7fe-24ee-4ebc-a818-a68fe903b927","ios":"levelo://app?vid=5b3df7fe-24ee-4ebc-a818-a68fe903b927"},"vehicle_type_id":"4","last_reported":1779466410,"current_range_meters":5600,"station_id":"st_cvj6r9ubvosntc0bgbag","pricing_plan_id":"cebpf4jnsgd1na2vs0mg"},{"bike_id":"a40d16d1-fc16-4ffa-a016-95f01fcf4742","system_id":"levelo_inurba_marseille","lat":43.28401,"lon":5.34995,"is_reserved":false,"is_disabled":false,"rental_uris":{"android":"levelo://app?vid=a40d16d1-fc16-4ffa-a016-95f01fcf4742","ios":"levelo://app?vid=a40d16d1-fc16-4ffa-a016-95f01fcf4742"},"vehicle_type_id":"4","last_reported":1779466410,"current_range_meters":5600,"station_id":"ce4bhbh2rcd13ifvqepg","pricing_plan_id":"cebpf4jnsgd1na2vs0mg"},{"bike_id":"e968e56d-71a3-4bbd-830d-133e47788fcc","system_id":"levelo_inurba_marseille","lat":43.302995,"lon":5.3921,"is_reserved":false,"is_disabled":false,"rental_uris":{"android":"levelo://app?vid=e968e56d-71a3-4bbd-830d-133e47788fcc","ios":"levelo://app?vid=e968e56d-71a3-4bbd-830d-133e47788fcc"},"vehicle_type_id":"4","last_reported":1779466410,"current_range_meters":5600,"station_id":"ce4bgkh2rcd13ifvqbk0","pricing_plan_id":"cebpf4jnsgd1na2vs0mg"},{"bike_id":"1c18f7e7-efdd-45f7-ba21-e0d32607c74c","system_id":"levelo_inurba_marseille","lat":43.28696,"lon":5.46684,"is_reserved":false,"is_disabled":false,"rental_uris":{"android":"levelo://app?vid=1c18f7e7-efdd-45f7-ba21-e0d32607c74c","ios":"levelo://app?vid=1c18f7e7-efdd-45f7-ba21-e0d32607c74c"},"vehicle_type_id":"4","last_reported":1779466410,"current_range_meters":5600,"station_id":"st_d6tc3vkotcvc738tfjhg","pricing_plan_id":"cebpf4jnsgd1na2vs0mg"},{"bike_id":"7f25c4e8-001e-4b39-bd23-364cb1d5a530","system_id":"levelo_inurba_marseille","lat":43.27375,"lon":5.36252,"is_reserved":false,"is_disabled":false,"rental_uris":{"android":"levelo://app?vid=7f25c4e8-001e-4b39-bd23-364cb1d5a530","ios":"levelo://app?vid=7f25c4e8-001e-4b39-bd23-364cb1d5a530"},"vehicle_type_id":"4","last_reported":1779466410,"current_range_meters":5600,"station_id":"ce4bhbh2rcd13ifvqeo0","pricing_plan_id":"cebpf4jnsgd1na2vs0mg"},{"bike_id":"023605ee-46db-483d-a1f3-4fcdfd0b7a51","system_id":"levelo_inurba_marseille","lat":43.30061,"lon":5.39955,"is_reserved":false,"is_disabled":true,"rental_uris":{"android":"levelo://app?vid=023605ee-46db-483d-a1f3-4fcdfd0b7a51","ios":"levelo://app?vid=023605ee-46db-483d-a1f3-4fcdfd0b7a51"},"vehicle_type_id":"4","last_reported":1779466410,"current_range_meters":5600,"station_id":"","pricing_plan_id":"cebpf4jnsgd1na2vs0mg"},{"bike_id":"9bd2c99d-831a-4bd4-9d28-b381a9585878","system_id":"levelo_inurba_marseille","lat":43.23964,"lon":5.36623,"is_reserved":false,"is_disabled":false,"rental_uris":{"android":"levelo://app?vid=9bd2c99d-831a-4bd4-9d28-b381a9585878","ios":"levelo://app?vid=9bd2c99d-831a-4bd4-9d28-b381a9585878"},"vehicle_type_id":"4","last_reported":1779466410,"current_range_meters":5600,"station_id":"ce4bhi12rcd13ifvqfp0","pricing_plan_id":"cebpf4jnsgd1na2vs0mg"},{"bike_id":"71a6361e-7515-4d49-9a73-de9321ffc52d","system_id":"levelo_inurba_marseille","lat":43.305406,"lon":5.367063,"is_reserved":false,"is_disabled":false,"rental_uris":{"android":"levelo://app?vid=71a6361e-7515-4d49-9a73-de9321ffc52d","ios":"levelo://app?vid=71a6361e-7515-4d49-9a73-de9321ffc52d"},"vehicle_type_id":"4","last_reported":1779466410,"current_range_meters":5600,"station_id":"ce4bgrp2rcd13ifvqc9g","pricing_plan_id":"cebpf4jnsgd1na2vs0mg"},{"bike_id":"bef83bfd-1a8d-41b5-902a-0f2c89dd063e","system_id":"levelo_inurba_marseille","lat":43.23973,"lon":5.36629,"is_reserved":false,"is_disabled":false,"rental_uris":{"android":"levelo://app?vid=bef83bfd-1a8d-41b5-902a-0f2c89dd063e","ios":"levelo://app?vid=bef83bfd-1a8d-41b5-902a-0f2c89dd063e"},"vehicle_type_id":"4","last_reported":1779466410,"current_range_meters":5600,"station_id":"ce4bhi12rcd13ifvqfp0","pricing_plan_id":"cebpf4jnsgd1na2vs0mg"},{"bike_id":"0635bb7c-973c-4709-b9eb-60a87d1ea7ed","system_id":"levelo_inurba_marseille","lat":43.29979,"lon":5.37174,"is_reserved":false,"is_disabled":false,"rental_uris":{"android":"levelo://app?vid=0635bb7c-973c-4709-b9eb-60a87d1ea7ed","ios":"levelo://app?vid=0635bb7c-973c-4709-b9eb-60a87d1ea7ed"},"vehicle_type_id":"4","last_reported":1779466410,"current_range_meters":5600,"station_id":"ce4bgr92rcd13ifvqc7g","pricing_plan_id":"cebpf4jnsgd1na2vs0mg"},{"bike_id":"f44ef889-fefb-4092-8a33-a0040b6a0c67","system_id":"levelo_inurba_marseille","lat":43.3009,"lon":5.39072,"is_reserved":false,"is_disabled":false,"rental_uris":{"android":"levelo://app?vid=f44ef889-fefb-4092-8a33-a0040b6a0c67","ios":"levelo://app?vid=f44ef889-fefb-4092-8a33-a0040b6a0c67"},"vehicle_type_id":"4","last_reported":1779466410,"current_range_meters":5600,"station_id":"ce4bh192rcd13ifvqdb0","pricing_plan_id":"cebpf4jnsgd1na2vs0mg"},{"bike_id":"bb346935-9088-4c13-8a11-b62bc06ed1da","system_id":"levelo_inurba_marseille","lat":43.269388,"lon":5.386345,"is_reserved":false,"is_disabled":false,"rental_uris":{"android":"levelo://app?vid=bb346935-9088-4c13-8a11-b62bc06ed1da","ios":"levelo://app?vid=bb346935-9088-4c13-8a11-b62bc06ed1da"},"vehicle_type_id":"4","last_reported":1779466410,"current_range_meters":5600,"station_id":"ce4bhh92rcd13ifvqfh0","pricing_plan_id":"cebpf4jnsgd1na2vs0mg"},{"bike_id":"225c47f5-20e7-4396-90fa-ce8412a430ad","system_id":"levelo_inurba_marseille","lat":43.23624,"lon":5.37484,"is_reserved":false,"is_disabled":false,"rental_uris":{"android":"levelo://app?vid=225c47f5-20e7-4396-90fa-ce8412a430ad","ios":"levelo://app?vid=225c47f5-20e7-4396-90fa-ce8412a430ad"},"vehicle_type_id":"4","last_reported":1779466410,"current_range_meters":5600,"station_id":"","pricing_plan_id":"cebpf4jnsgd1na2vs0mg"},{"bike_id":"8a59138f-e9ab-4084-bd9c-4a7113ee474f","system_id":"levelo_inurba_marseille","lat":43.25508,"lon":5.3767,"is_reserved":false,"is_disabled":false,"rental_uris":{"android":"levelo://app?vid=8a59138f-e9ab-4084-bd9c-4a7113ee474f","ios":"levelo://app?vid=8a59138f-e9ab-4084-bd9c-4a7113ee474f"},"vehicle_type_id":"4","last_reported":1779466410,"current_range_meters":6000,"station_id":"ce4bhh12rcd13ifvqff0","pricing_plan_id":"cebpf4jnsgd1na2vs0mg"},{"bike_id":"04c63912-095e-401c-ad25-ccb7776a5453","system_id":"levelo_inurba_marseille","lat":43.23965,"lon":5.36627,"is_reserved":false,"is_disabled":false,"rental_uris":{"android":"levelo://app?vid=04c63912-095e-401c-ad25-ccb7776a5453","ios":"levelo://app?vid=04c63912-095e-401c-ad25-ccb7776a5453"},"vehicle_type_id":"4","last_reported":1779466410,"current_range_meters":6000,"station_id":"ce4bhi12rcd13ifvqfp0","pricing_plan_id":"cebpf4jnsgd1na2vs0mg"},{"bike_id":"953377cf-ed60-4f2b-827e-5d32a60b75f9","system_id":"levelo_inurba_marseille","lat":43.28619,"lon":5.35102,"is_reserved":false,"is_disabled":false,"rental_uris":{"android":"levelo://app?vid=953377cf-ed60-4f2b-827e-5d32a60b75f9","ios":"levelo://app?vid=953377cf-ed60-4f2b-827e-5d32a60b75f9"},"vehicle_type_id":"4","last_reported":1779466410,"current_range_meters":6000,"station_id":"ce4bhch2rcd13ifvqeug","pricing_plan_id":"cebpf4jnsgd1na2vs0mg"},{"bike_id":"7c9e5ac3-1519-4965-bb63-f000818eb55c","system_id":"levelo_inurba_marseille","lat":43.27616,"lon":5.36103,"is_reserved":false,"is_disabled":false,"rental_uris":{"android":"levelo://app?vid=7c9e5ac3-1519-4965-bb63-f000818eb55c","ios":"levelo://app?vid=7c9e5ac3-1519-4965-bb63-f000818eb55c"},"vehicle_type_id":"4","last_reported":1779466410,"current_range_meters":6000,"station_id":"ce4bgj92rcd13ifvqbe0","pricing_plan_id":"cebpf4jnsgd1na2vs0mg"},{"bike_id":"669755b1-4bec-434c-9d11-dd7c750b4c3b","system_id":"levelo_inurba_marseille","lat":43.30122,"lon":5.43124,"is_reserved":false,"is_disabled":false,"rental_uris":{"android":"levelo://app?vid=669755b1-4bec-434c-9d11-dd7c750b4c3b","ios":"levelo://app?vid=669755b1-4bec-434c-9d11-dd7c750b4c3b"},"vehicle_type_id":"4","last_reported":1779466410,"current_range_meters":6000,"station_id":"st_d3js3co5814s73ftftug","pricing_plan_id":"cebpf4jnsgd1na2vs0mg"},{"bike_id":"d600d52a-a45c-494e-8af3-c1b2faf29f97","system_id":"levelo_inurba_marseille","lat":43.28416,"lon":5.34982,"is_reserved":false,"is_disabled":false,"rental_uris":{"android":"levelo://app?vid=d600d52a-a45c-494e-8af3-c1b2faf29f97","ios":"levelo://app?vid=d600d52a-a45c-494e-8af3-c1b2faf29f97"},"vehicle_type_id":"4","last_reported":1779466410,"current_range_meters":6000,"station_id":"ce4bhbh2rcd13ifvqepg","pricing_plan_id":"cebpf4jnsgd1na2vs0mg"},{"bike_id":"3200b978-002a-4bf0-9ea7-51cc9e75e711","system_id":"levelo_inurba_marseille","lat":43.2719,"lon":5.40986,"is_reserved":false,"is_disabled":false,"rental_uris":{"android":"levelo://app?vid=3200b978-002a-4bf0-9ea7-51cc9e75e711","ios":"levelo://app?vid=3200b978-002a-4bf0-9ea7-51cc9e75e711"},"vehicle_type_id":"4","last_reported":1779466410,"current_range_meters":6000,"station_id":"ce4bhl12rcd13ifvqgf0","pricing_plan_id":"cebpf4jnsgd1na2vs0mg"},{"bike_id":"0f04383f-5830-4982-a4e8-0dd36e58f7f8","system_id":"levelo_inurba_marseille","lat":43.28266,"lon":5.35083,"is_reserved":false,"is_disabled":false,"rental_uris":{"android":"levelo://app?vid=0f04383f-5830-4982-a4e8-0dd36e58f7f8","ios":"levelo://app?vid=0f04383f-5830-4982-a4e8-0dd36e58f7f8"},"vehicle_type_id":"4","last_reported":1779466410,"current_range_meters":6000,"station_id":"ce4bhbp2rcd13ifvqerg","pricing_plan_id":"cebpf4jnsgd1na2vs0mg"},{"bike_id":"da8bb56d-e4e7-4ef7-b02f-a49aeb3aec65","system_id":"levelo_inurba_marseille","lat":43.298419,"lon":5.383254,"is_reserved":false,"is_disabled":false,"rental_uris":{"android":"levelo://app?vid=da8bb56d-e4e7-4ef7-b02f-a49aeb3aec65","ios":"levelo://app?vid=da8bb56d-e4e7-4ef7-b02f-a49aeb3aec65"},"vehicle_type_id":"4","last_reported":1779466410,"current_range_meters":6000,"station_id":"ce4bgih2rcd13ifvqba0","pricing_plan_id":"cebpf4jnsgd1na2vs0mg"},{"bike_id":"ea610f71-40c3-4290-995b-efd60f138f5c","system_id":"levelo_inurba_marseille","lat":43.29604,"lon":5.37712,"is_reserved":false,"is_disabled":false,"rental_uris":{"android":"levelo://app?vid=ea610f71-40c3-4290-995b-efd60f138f5c","ios":"levelo://app?vid=ea610f71-40c3-4290-995b-efd60f138f5c"},"vehicle_type_id":"4","last_reported":1779466410,"current_range_meters":6000,"station_id":"ce4bgi92rcd13ifvqb90","pricing_plan_id":"cebpf4jnsgd1na2vs0mg"},{"bike_id":"ca8270b4-d39a-47bc-a5ba-46cea51aa1f5","system_id":"levelo_inurba_marseille","lat":43.28063,"lon":5.35285,"is_reserved":false,"is_disabled":false,"rental_uris":{"android":"levelo://app?vid=ca8270b4-d39a-47bc-a5ba-46cea51aa1f5","ios":"levelo://app?vid=ca8270b4-d39a-47bc-a5ba-46cea51aa1f5"},"vehicle_type_id":"4","last_reported":1779466410,"current_range_meters":6000,"station_id":"","pricing_plan_id":"cebpf4jnsgd1na2vs0mg"},{"bike_id":"a0789018-2c68-4a2f-8146-a8f2b8e4a119","system_id":"levelo_inurba_marseille","lat":43.27962,"lon":5.3871,"is_reserved":false,"is_disabled":true,"rental_uris":{"android":"levelo://app?vid=a0789018-2c68-4a2f-8146-a8f2b8e4a119","ios":"levelo://app?vid=a0789018-2c68-4a2f-8146-a8f2b8e4a119"},"vehicle_type_id":"4","last_reported":1779466410,"current_range_meters":6000,"station_id":"ce4bhg12rcd13ifvqf80","pricing_plan_id":"cebpf4jnsgd1na2vs0mg"},{"bike_id":"b604c48a-5848-471f-b2be-ce8c707b6e98","system_id":"levelo_inurba_marseille","lat":43.29046,"lon":5.35909,"is_reserved":false,"is_disabled":false,"rental_uris":{"android":"levelo://app?vid=b604c48a-5848-471f-b2be-ce8c707b6e98","ios":"levelo://app?vid=b604c48a-5848-471f-b2be-ce8c707b6e98"},"vehicle_type_id":"4","last_reported":1779466410,"current_range_meters":6000,"station_id":"ce4bha92rcd13ifvqeg0","pricing_plan_id":"cebpf4jnsgd1na2vs0mg"},{"bike_id":"e1e8d0c5-7cff-4a52-a548-b6f5342738ad","system_id":"levelo_inurba_marseille","lat":43.31389,"lon":5.36698,"is_reserved":false,"is_disabled":false,"rental_uris":{"android":"levelo://app?vid=e1e8d0c5-7cff-4a52-a548-b6f5342738ad","ios":"levelo://app?vid=e1e8d0c5-7cff-4a52-a548-b6f5342738ad"},"vehicle_type_id":"4","last_reported":1779466410,"current_range_meters":6000,"station_id":"ce4bgr92rcd13ifvqc6g","pricing_plan_id":"cebpf4jnsgd1na2vs0mg"},{"bike_id":"a9c29066-eb32-4540-b020-1a2617148d25","system_id":"levelo_inurba_marseille","lat":43.28703,"lon":5.37394,"is_reserved":false,"is_disabled":false,"rental_uris":{"android":"levelo://app?vid=a9c29066-eb32-4540-b020-1a2617148d25","ios":"levelo://app?vid=a9c29066-eb32-4540-b020-1a2617148d25"},"vehicle_type_id":"4","last_reported":1779466410,"current_range_meters":6000,"station_id":"ce4bh3p2rcd13ifvqdq0","pricing_plan_id":"cebpf4jnsgd1na2vs0mg"},{"bike_id":"90083786-a4d1-4349-a5af-fa9390770c07","system_id":"levelo_inurba_marseille","lat":43.2953,"lon":5.38545,"is_reserved":false,"is_disabled":false,"rental_uris":{"android":"levelo://app?vid=90083786-a4d1-4349-a5af-fa9390770c07","ios":"levelo://app?vid=90083786-a4d1-4349-a5af-fa9390770c07"},"vehicle_type_id":"4","last_reported":1779466410,"current_range_meters":6000,"station_id":"ce4bgih2rcd13ifvqba0","pricing_plan_id":"cebpf4jnsgd1na2vs0mg"},{"bike_id":"5e82c222-43d8-44b5-8aae-6242e1a7385e","system_id":"levelo_inurba_marseille","lat":43.290059,"lon":5.399421,"is_reserved":false,"is_disabled":false,"rental_uris":{"android":"levelo://app?vid=5e82c222-43d8-44b5-8aae-6242e1a7385e","ios":"levelo://app?vid=5e82c222-43d8-44b5-8aae-6242e1a7385e"},"vehicle_type_id":"4","last_reported":1779466410,"current_range_meters":6000,"station_id":"ce4bh392rcd13ifvqdm0","pricing_plan_id":"cebpf4jnsgd1na2vs0mg"},{"bike_id":"c81578b0-3090-4572-82e6-3bb3211cd5d7","system_id":"levelo_inurba_marseille","lat":43.30548,"lon":5.36558,"is_reserved":false,"is_disabled":false,"rental_uris":{"android":"levelo://app?vid=c81578b0-3090-4572-82e6-3bb3211cd5d7","ios":"levelo://app?vid=c81578b0-3090-4572-82e6-3bb3211cd5d7"},"vehicle_type_id":"4","last_reported":1779466410,"current_range_meters":6000,"station_id":"ce4bgs12rcd13ifvqcag","pricing_plan_id":"cebpf4jnsgd1na2vs0mg"},{"bike_id":"103c3925-0fed-4670-8dde-c29c1ddbe606","system_id":"levelo_inurba_marseille","lat":43.246323,"lon":5.431301,"is_reserved":false,"is_disabled":false,"rental_uris":{"android":"levelo://app?vid=103c3925-0fed-4670-8dde-c29c1ddbe606","ios":"levelo://app?vid=103c3925-0fed-4670-8dde-c29c1ddbe606"},"vehicle_type_id":"4","last_reported":1779466410,"current_range_meters":6000,"station_id":"st_d2m6c4gdas8pm72e190g","pricing_plan_id":"cebpf4jnsgd1na2vs0mg"},{"bike_id":"875ff3ec-3d53-4289-87d8-004996e2dc85","system_id":"levelo_inurba_marseille","lat":43.292646,"lon":5.38435,"is_reserved":false,"is_disabled":false,"rental_uris":{"android":"levelo://app?vid=875ff3ec-3d53-4289-87d8-004996e2dc85","ios":"levelo://app?vid=875ff3ec-3d53-4289-87d8-004996e2dc85"},"vehicle_type_id":"4","last_reported":1779466410,"current_range_meters":6000,"station_id":"ce4bh692rcd13ifvqea0","pricing_plan_id":"cebpf4jnsgd1na2vs0mg"},{"bike_id":"b36f6250-7319-4924-8bcd-74f03836ee41","system_id":"levelo_inurba_marseille","lat":43.23961,"lon":5.36626,"is_reserved":false,"is_disabled":false,"rental_uris":{"android":"levelo://app?vid=b36f6250-7319-4924-8bcd-74f03836ee41","ios":"levelo://app?vid=b36f6250-7319-4924-8bcd-74f03836ee41"},"vehicle_type_id":"4","last_reported":1779466410,"current_range_meters":6400,"station_id":"ce4bhi12rcd13ifvqfp0","pricing_plan_id":"cebpf4jnsgd1na2vs0mg"},{"bike_id":"d6ef5181-9c65-4b14-a132-bd2560a893a3","system_id":"levelo_inurba_marseille","lat":43.25842,"lon":5.3942,"is_reserved":false,"is_disabled":false,"rental_uris":{"android":"levelo://app?vid=d6ef5181-9c65-4b14-a132-bd2560a893a3","ios":"levelo://app?vid=d6ef5181-9c65-4b14-a132-bd2560a893a3"},"vehicle_type_id":"4","last_reported":1779466410,"current_range_meters":6400,"station_id":"ce4bhip2rcd13ifvqft0","pricing_plan_id":"cebpf4jnsgd1na2vs0mg"},{"bike_id":"2d09449d-df92-4d3e-9412-ea34f0e8afc0","system_id":"levelo_inurba_marseille","lat":43.29672,"lon":5.38545,"is_reserved":false,"is_disabled":false,"rental_uris":{"android":"levelo://app?vid=2d09449d-df92-4d3e-9412-ea34f0e8afc0","ios":"levelo://app?vid=2d09449d-df92-4d3e-9412-ea34f0e8afc0"},"vehicle_type_id":"4","last_reported":1779466410,"current_range_meters":6400,"station_id":"","pricing_plan_id":"cebpf4jnsgd1na2vs0mg"},{"bike_id":"881b3f11-4eaa-49fc-9d30-fd1e922f3c3b","system_id":"levelo_inurba_marseille","lat":43.29288,"lon":5.40101,"is_reserved":false,"is_disabled":false,"rental_uris":{"android":"levelo://app?vid=881b3f11-4eaa-49fc-9d30-fd1e922f3c3b","ios":"levelo://app?vid=881b3f11-4eaa-49fc-9d30-fd1e922f3c3b"},"vehicle_type_id":"4","last_reported":1779466410,"current_range_meters":6400,"station_id":"ce4bh312rcd13ifvqdk0","pricing_plan_id":"cebpf4jnsgd1na2vs0mg"},{"bike_id":"11c3f11e-8e75-4364-b04c-259c43c7246b","system_id":"levelo_inurba_marseille","lat":43.29579,"lon":5.37504,"is_reserved":false,"is_disabled":false,"rental_uris":{"android":"levelo://app?vid=11c3f11e-8e75-4364-b04c-259c43c7246b","ios":"levelo://app?vid=11c3f11e-8e75-4364-b04c-259c43c7246b"},"vehicle_type_id":"4","last_reported":1779466410,"current_range_meters":6400,"station_id":"ce4bgh92rcd13ifvqb50","pricing_plan_id":"cebpf4jnsgd1na2vs0mg"},{"bike_id":"ba7d2364-1a0a-42a9-97a3-dba2ea978fd9","system_id":"levelo_inurba_marseille","lat":43.30369,"lon":5.39344,"is_reserved":false,"is_disabled":false,"rental_uris":{"android":"levelo://app?vid=ba7d2364-1a0a-42a9-97a3-dba2ea978fd9","ios":"levelo://app?vid=ba7d2364-1a0a-42a9-97a3-dba2ea978fd9"},"vehicle_type_id":"4","last_reported":1779466410,"current_range_meters":6400,"station_id":"","pricing_plan_id":"cebpf4jnsgd1na2vs0mg"},{"bike_id":"fe353279-4464-4e7a-8755-1a17e4019b6c","system_id":"levelo_inurba_marseille","lat":43.29883,"lon":5.38914,"is_reserved":false,"is_disabled":false,"rental_uris":{"android":"levelo://app?vid=fe353279-4464-4e7a-8755-1a17e4019b6c","ios":"levelo://app?vid=fe353279-4464-4e7a-8755-1a17e4019b6c"},"vehicle_type_id":"4","last_reported":1779466410,"current_range_meters":6400,"station_id":"ce4bh392rcd13ifvqdl0","pricing_plan_id":"cebpf4jnsgd1na2vs0mg"},{"bike_id":"aa71664e-fae7-4d97-8515-ddae352558ad","system_id":"levelo_inurba_marseille","lat":43.29277,"lon":5.40106,"is_reserved":false,"is_disabled":true,"rental_uris":{"android":"levelo://app?vid=aa71664e-fae7-4d97-8515-ddae352558ad","ios":"levelo://app?vid=aa71664e-fae7-4d97-8515-ddae352558ad"},"vehicle_type_id":"4","last_reported":1779466410,"current_range_meters":6400,"station_id":"ce4bh312rcd13ifvqdk0","pricing_plan_id":"cebpf4jnsgd1na2vs0mg"},{"bike_id":"7f6487f5-e43b-4f39-8482-0522b88a7c84","system_id":"levelo_inurba_marseille","lat":43.27373,"lon":5.36261,"is_reserved":false,"is_disabled":false,"rental_uris":{"android":"levelo://app?vid=7f6487f5-e43b-4f39-8482-0522b88a7c84","ios":"levelo://app?vid=7f6487f5-e43b-4f39-8482-0522b88a7c84"},"vehicle_type_id":"4","last_reported":1779466410,"current_range_meters":6400,"station_id":"ce4bhbh2rcd13ifvqeo0","pricing_plan_id":"cebpf4jnsgd1na2vs0mg"},{"bike_id":"55ff971c-f753-4ef7-83e4-054f84d32949","system_id":"levelo_inurba_marseille","lat":43.29958,"lon":5.36636,"is_reserved":false,"is_disabled":true,"rental_uris":{"android":"levelo://app?vid=55ff971c-f753-4ef7-83e4-054f84d32949","ios":"levelo://app?vid=55ff971c-f753-4ef7-83e4-054f84d32949"},"vehicle_type_id":"4","last_reported":1779466410,"current_range_meters":6400,"station_id":"","pricing_plan_id":"cebpf4jnsgd1na2vs0mg"},{"bike_id":"c881b344-7fcb-4a99-869e-baebc0950842","system_id":"levelo_inurba_marseille","lat":43.30567,"lon":5.36544,"is_reserved":false,"is_disabled":false,"rental_uris":{"android":"levelo://app?vid=c881b344-7fcb-4a99-869e-baebc0950842","ios":"levelo://app?vid=c881b344-7fcb-4a99-869e-baebc0950842"},"vehicle_type_id":"4","last_reported":1779466410,"current_range_meters":6400,"station_id":"ce4bgs12rcd13ifvqcag","pricing_plan_id":"cebpf4jnsgd1na2vs0mg"},{"bike_id":"1b17501a-39a9-4e31-b3f5-756186aa4e3c","system_id":"levelo_inurba_marseille","lat":43.27626,"lon":5.36102,"is_reserved":false,"is_disabled":false,"rental_uris":{"android":"levelo://app?vid=1b17501a-39a9-4e31-b3f5-756186aa4e3c","ios":"levelo://app?vid=1b17501a-39a9-4e31-b3f5-756186aa4e3c"},"vehicle_type_id":"4","last_reported":1779466410,"current_range_meters":6400,"station_id":"ce4bgj92rcd13ifvqbe0","pricing_plan_id":"cebpf4jnsgd1na2vs0mg"},{"bike_id":"ce1257fa-2ee4-4500-b86b-8956ada98213","system_id":"levelo_inurba_marseille","lat":43.30627,"lon":5.39285,"is_reserved":false,"is_disabled":true,"rental_uris":{"android":"levelo://app?vid=ce1257fa-2ee4-4500-b86b-8956ada98213","ios":"levelo://app?vid=ce1257fa-2ee4-4500-b86b-8956ada98213"},"vehicle_type_id":"4","last_reported":1779466410,"current_range_meters":6400,"station_id":"","pricing_plan_id":"cebpf4jnsgd1na2vs0mg"},{"bike_id":"8e76cb12-d75f-473d-bd85-8ecd4d198c8f","system_id":"levelo_inurba_marseille","lat":43.29855,"lon":5.42084,"is_reserved":false,"is_disabled":false,"rental_uris":{"android":"levelo://app?vid=8e76cb12-d75f-473d-bd85-8ecd4d198c8f","ios":"levelo://app?vid=8e76cb12-d75f-473d-bd85-8ecd4d198c8f"},"vehicle_type_id":"4","last_reported":1779466410,"current_range_meters":6400,"station_id":"st_d6tc004otcvc738tfe70","pricing_plan_id":"cebpf4jnsgd1na2vs0mg"},{"bike_id":"ae813e1c-f002-41c2-ab00-93a6ceca7521","system_id":"levelo_inurba_marseille","lat":43.30781,"lon":5.39241,"is_reserved":false,"is_disabled":false,"rental_uris":{"android":"levelo://app?vid=ae813e1c-f002-41c2-ab00-93a6ceca7521","ios":"levelo://app?vid=ae813e1c-f002-41c2-ab00-93a6ceca7521"},"vehicle_type_id":"4","last_reported":1779466410,"current_range_meters":6400,"station_id":"","pricing_plan_id":"cebpf4jnsgd1na2vs0mg"},{"bike_id":"f66f5dd3-db48-47b7-a4c4-f9e46a41c177","system_id":"levelo_inurba_marseille","lat":43.232,"lon":5.35553,"is_reserved":false,"is_disabled":false,"rental_uris":{"android":"levelo://app?vid=f66f5dd3-db48-47b7-a4c4-f9e46a41c177","ios":"levelo://app?vid=f66f5dd3-db48-47b7-a4c4-f9e46a41c177"},"vehicle_type_id":"4","last_reported":1779466410,"current_range_meters":6400,"station_id":"ce4bhu92rcd13ifvqi70","pricing_plan_id":"cebpf4jnsgd1na2vs0mg"},{"bike_id":"c5a1c0a5-ea8d-41bc-9c3c-439667fc7d02","system_id":"levelo_inurba_marseille","lat":43.302211,"lon":5.400897,"is_reserved":false,"is_disabled":false,"rental_uris":{"android":"levelo://app?vid=c5a1c0a5-ea8d-41bc-9c3c-439667fc7d02","ios":"levelo://app?vid=c5a1c0a5-ea8d-41bc-9c3c-439667fc7d02"},"vehicle_type_id":"4","last_reported":1779466410,"current_range_meters":6400,"station_id":"ce4bgkh2rcd13ifvqbk0","pricing_plan_id":"cebpf4jnsgd1na2vs0mg"},{"bike_id":"5eb47de2-6d0b-4d6a-b931-7c6d8bfe6b8f","system_id":"levelo_inurba_marseille","lat":43.26209,"lon":5.38783,"is_reserved":false,"is_disabled":false,"rental_uris":{"android":"levelo://app?vid=5eb47de2-6d0b-4d6a-b931-7c6d8bfe6b8f","ios":"levelo://app?vid=5eb47de2-6d0b-4d6a-b931-7c6d8bfe6b8f"},"vehicle_type_id":"4","last_reported":1779466410,"current_range_meters":6400,"station_id":"","pricing_plan_id":"cebpf4jnsgd1na2vs0mg"},{"bike_id":"d2de6c56-ca85-4d13-a68a-df066813443e","system_id":"levelo_inurba_marseille","lat":43.293333,"lon":5.38754,"is_reserved":false,"is_disabled":false,"rental_uris":{"android":"levelo://app?vid=d2de6c56-ca85-4d13-a68a-df066813443e","ios":"levelo://app?vid=d2de6c56-ca85-4d13-a68a-df066813443e"},"vehicle_type_id":"4","last_reported":1779466410,"current_range_meters":6400,"station_id":"ce4bh4p2rcd13ifvqe0g","pricing_plan_id":"cebpf4jnsgd1na2vs0mg"},{"bike_id":"c7352d91-a351-4741-9e2e-3bbeeac985d0","system_id":"levelo_inurba_marseille","lat":43.30736,"lon":5.42436,"is_reserved":false,"is_disabled":false,"rental_uris":{"android":"levelo://app?vid=c7352d91-a351-4741-9e2e-3bbeeac985d0","ios":"levelo://app?vid=c7352d91-a351-4741-9e2e-3bbeeac985d0"},"vehicle_type_id":"4","last_reported":1779466410,"current_range_meters":6400,"station_id":"st_cvj6ca6bvosntc0bfgr0","pricing_plan_id":"cebpf4jnsgd1na2vs0mg"},{"bike_id":"92f55a06-09e7-490e-aef6-78292570638c","system_id":"levelo_inurba_marseille","lat":43.23085,"lon":5.35527,"is_reserved":false,"is_disabled":false,"rental_uris":{"android":"levelo://app?vid=92f55a06-09e7-490e-aef6-78292570638c","ios":"levelo://app?vid=92f55a06-09e7-490e-aef6-78292570638c"},"vehicle_type_id":"4","last_reported":1779466410,"current_range_meters":6800,"station_id":"cpo3342slgdg3j2ifvpg","pricing_plan_id":"cebpf4jnsgd1na2vs0mg"},{"bike_id":"efcc1335-da4a-4d4a-bc29-691a8e8a6f8a","system_id":"levelo_inurba_marseille","lat":43.31363,"lon":5.38492,"is_reserved":false,"is_disabled":false,"rental_uris":{"android":"levelo://app?vid=efcc1335-da4a-4d4a-bc29-691a8e8a6f8a","ios":"levelo://app?vid=efcc1335-da4a-4d4a-bc29-691a8e8a6f8a"},"vehicle_type_id":"4","last_reported":1779466410,"current_range_meters":6800,"station_id":"ce4bgt92rcd13ifvqcf0","pricing_plan_id":"cebpf4jnsgd1na2vs0mg"},{"bike_id":"08a04690-7f5a-473c-a37f-ee42e139ce60","system_id":"levelo_inurba_marseille","lat":43.25821,"lon":5.39437,"is_reserved":false,"is_disabled":false,"rental_uris":{"android":"levelo://app?vid=08a04690-7f5a-473c-a37f-ee42e139ce60","ios":"levelo://app?vid=08a04690-7f5a-473c-a37f-ee42e139ce60"},"vehicle_type_id":"4","last_reported":1779466410,"current_range_meters":6800,"station_id":"ce4bhip2rcd13ifvqft0","pricing_plan_id":"cebpf4jnsgd1na2vs0mg"},{"bike_id":"5cd16571-7e0f-4f01-8cf6-d8caba7f9ec5","system_id":"levelo_inurba_marseille","lat":43.28872,"lon":5.35819,"is_reserved":false,"is_disabled":false,"rental_uris":{"android":"levelo://app?vid=5cd16571-7e0f-4f01-8cf6-d8caba7f9ec5","ios":"levelo://app?vid=5cd16571-7e0f-4f01-8cf6-d8caba7f9ec5"},"vehicle_type_id":"4","last_reported":1779466410,"current_range_meters":6800,"station_id":"ce4bhb12rcd13ifvqem0","pricing_plan_id":"cebpf4jnsgd1na2vs0mg"},{"bike_id":"94c9505c-0a97-46e0-8422-31f73034a750","system_id":"levelo_inurba_marseille","lat":43.231879,"lon":5.399909,"is_reserved":false,"is_disabled":false,"rental_uris":{"android":"levelo://app?vid=94c9505c-0a97-46e0-8422-31f73034a750","ios":"levelo://app?vid=94c9505c-0a97-46e0-8422-31f73034a750"},"vehicle_type_id":"4","last_reported":1779466410,"current_range_meters":6800,"station_id":"ce4bhn12rcd13ifvqgqg","pricing_plan_id":"cebpf4jnsgd1na2vs0mg"},{"bike_id":"625e0753-dc06-48cf-b131-3e736e7cef28","system_id":"levelo_inurba_marseille","lat":43.2844,"lon":5.34995,"is_reserved":false,"is_disabled":false,"rental_uris":{"android":"levelo://app?vid=625e0753-dc06-48cf-b131-3e736e7cef28","ios":"levelo://app?vid=625e0753-dc06-48cf-b131-3e736e7cef28"},"vehicle_type_id":"4","last_reported":1779466410,"current_range_meters":6800,"station_id":"ce4bhbh2rcd13ifvqepg","pricing_plan_id":"cebpf4jnsgd1na2vs0mg"},{"bike_id":"3b326105-ca6d-4f73-8cac-8527fdd59fa6","system_id":"levelo_inurba_marseille","lat":43.25016,"lon":5.38913,"is_reserved":false,"is_disabled":false,"rental_uris":{"android":"levelo://app?vid=3b326105-ca6d-4f73-8cac-8527fdd59fa6","ios":"levelo://app?vid=3b326105-ca6d-4f73-8cac-8527fdd59fa6"},"vehicle_type_id":"4","last_reported":1779466410,"current_range_meters":6800,"station_id":"ce4bhgp2rcd13ifvqfd0","pricing_plan_id":"cebpf4jnsgd1na2vs0mg"},{"bike_id":"ca7bec4c-c9ce-4816-988f-528f79a7e440","system_id":"levelo_inurba_marseille","lat":43.32057,"lon":5.41519,"is_reserved":false,"is_disabled":false,"rental_uris":{"android":"levelo://app?vid=ca7bec4c-c9ce-4816-988f-528f79a7e440","ios":"levelo://app?vid=ca7bec4c-c9ce-4816-988f-528f79a7e440"},"vehicle_type_id":"4","last_reported":1779466410,"current_range_meters":6800,"station_id":"ce4bhq92rcd13ifvqhkg","pricing_plan_id":"cebpf4jnsgd1na2vs0mg"},{"bike_id":"87bf801c-7c45-4eb9-953d-3590d50566b9","system_id":"levelo_inurba_marseille","lat":43.28308,"lon":5.35088,"is_reserved":false,"is_disabled":false,"rental_uris":{"android":"levelo://app?vid=87bf801c-7c45-4eb9-953d-3590d50566b9","ios":"levelo://app?vid=87bf801c-7c45-4eb9-953d-3590d50566b9"},"vehicle_type_id":"4","last_reported":1779466410,"current_range_meters":6800,"station_id":"ce4bhbp2rcd13ifvqerg","pricing_plan_id":"cebpf4jnsgd1na2vs0mg"},{"bike_id":"ffd53158-4574-470f-825a-07c56015133e","system_id":"levelo_inurba_marseille","lat":43.28608,"lon":5.39874,"is_reserved":false,"is_disabled":false,"rental_uris":{"android":"levelo://app?vid=ffd53158-4574-470f-825a-07c56015133e","ios":"levelo://app?vid=ffd53158-4574-470f-825a-07c56015133e"},"vehicle_type_id":"4","last_reported":1779466410,"current_range_meters":6800,"station_id":"st_d4a7ka997mjs738ck50g","pricing_plan_id":"cebpf4jnsgd1na2vs0mg"},{"bike_id":"842bc819-110f-4368-b3ff-9e842854a1ed","system_id":"levelo_inurba_marseille","lat":43.24796,"lon":5.37454,"is_reserved":false,"is_disabled":false,"rental_uris":{"android":"levelo://app?vid=842bc819-110f-4368-b3ff-9e842854a1ed","ios":"levelo://app?vid=842bc819-110f-4368-b3ff-9e842854a1ed"},"vehicle_type_id":"4","last_reported":1779466410,"current_range_meters":6800,"station_id":"ce4bhgh2rcd13ifvqfb0","pricing_plan_id":"cebpf4jnsgd1na2vs0mg"},{"bike_id":"7e4d6cb5-2d6e-4a02-8514-7b4f8e790ca8","system_id":"levelo_inurba_marseille","lat":43.32341,"lon":5.36755,"is_reserved":false,"is_disabled":false,"rental_uris":{"android":"levelo://app?vid=7e4d6cb5-2d6e-4a02-8514-7b4f8e790ca8","ios":"levelo://app?vid=7e4d6cb5-2d6e-4a02-8514-7b4f8e790ca8"},"vehicle_type_id":"4","last_reported":1779466410,"current_range_meters":6800,"station_id":"ce4bhsh2rcd13ifvqi2g","pricing_plan_id":"cebpf4jnsgd1na2vs0mg"},{"bike_id":"0db8267b-0e02-4e40-9b69-4889ebb416f0","system_id":"levelo_inurba_marseille","lat":43.29587,"lon":5.37509,"is_reserved":false,"is_disabled":true,"rental_uris":{"android":"levelo://app?vid=0db8267b-0e02-4e40-9b69-4889ebb416f0","ios":"levelo://app?vid=0db8267b-0e02-4e40-9b69-4889ebb416f0"},"vehicle_type_id":"4","last_reported":1779466410,"current_range_meters":6800,"station_id":"ce4bgh92rcd13ifvqb50","pricing_plan_id":"cebpf4jnsgd1na2vs0mg"},{"bike_id":"ad0ce0a0-b313-407e-b7d9-63b7147a0c85","system_id":"levelo_inurba_marseille","lat":43.24483,"lon":5.42518,"is_reserved":false,"is_disabled":false,"rental_uris":{"android":"levelo://app?vid=ad0ce0a0-b313-407e-b7d9-63b7147a0c85","ios":"levelo://app?vid=ad0ce0a0-b313-407e-b7d9-63b7147a0c85"},"vehicle_type_id":"4","last_reported":1779466410,"current_range_meters":6800,"station_id":"st_d4a3vfp97mjs738cd8kg","pricing_plan_id":"cebpf4jnsgd1na2vs0mg"},{"bike_id":"d89aab4f-9874-4fd6-8a64-ba02cf0591f6","system_id":"levelo_inurba_marseille","lat":43.28616,"lon":5.35103,"is_reserved":false,"is_disabled":false,"rental_uris":{"android":"levelo://app?vid=d89aab4f-9874-4fd6-8a64-ba02cf0591f6","ios":"levelo://app?vid=d89aab4f-9874-4fd6-8a64-ba02cf0591f6"},"vehicle_type_id":"4","last_reported":1779466410,"current_range_meters":6800,"station_id":"ce4bhch2rcd13ifvqeug","pricing_plan_id":"cebpf4jnsgd1na2vs0mg"},{"bike_id":"898345a5-015f-4e7c-abad-d69e931303cd","system_id":"levelo_inurba_marseille","lat":43.30606,"lon":5.36657,"is_reserved":false,"is_disabled":false,"rental_uris":{"android":"levelo://app?vid=898345a5-015f-4e7c-abad-d69e931303cd","ios":"levelo://app?vid=898345a5-015f-4e7c-abad-d69e931303cd"},"vehicle_type_id":"4","last_reported":1779466410,"current_range_meters":6800,"station_id":"","pricing_plan_id":"cebpf4jnsgd1na2vs0mg"},{"bike_id":"c516bbb8-9fd5-45a9-b4c7-396d31ba42ad","system_id":"levelo_inurba_marseille","lat":43.26545,"lon":5.37291,"is_reserved":false,"is_disabled":false,"rental_uris":{"android":"levelo://app?vid=c516bbb8-9fd5-45a9-b4c7-396d31ba42ad","ios":"levelo://app?vid=c516bbb8-9fd5-45a9-b4c7-396d31ba42ad"},"vehicle_type_id":"4","last_reported":1779466410,"current_range_meters":6800,"station_id":"ce4bhg12rcd13ifvqf70","pricing_plan_id":"cebpf4jnsgd1na2vs0mg"},{"bike_id":"29f4756e-20ba-48af-83c2-b5be4ce60e4e","system_id":"levelo_inurba_marseille","lat":43.28418,"lon":5.3499,"is_reserved":false,"is_disabled":false,"rental_uris":{"android":"levelo://app?vid=29f4756e-20ba-48af-83c2-b5be4ce60e4e","ios":"levelo://app?vid=29f4756e-20ba-48af-83c2-b5be4ce60e4e"},"vehicle_type_id":"4","last_reported":1779466410,"current_range_meters":6800,"station_id":"ce4bhbh2rcd13ifvqepg","pricing_plan_id":"cebpf4jnsgd1na2vs0mg"},{"bike_id":"42c1a0a3-51f6-43a2-87de-32d8811ca144","system_id":"levelo_inurba_marseille","lat":43.29192,"lon":5.358,"is_reserved":false,"is_disabled":false,"rental_uris":{"android":"levelo://app?vid=42c1a0a3-51f6-43a2-87de-32d8811ca144","ios":"levelo://app?vid=42c1a0a3-51f6-43a2-87de-32d8811ca144"},"vehicle_type_id":"4","last_reported":1779466410,"current_range_meters":6800,"station_id":"ce4bhb12rcd13ifvqel0","pricing_plan_id":"cebpf4jnsgd1na2vs0mg"},{"bike_id":"c4e41134-97fa-4cc8-9b92-ebaab1c3984f","system_id":"levelo_inurba_marseille","lat":43.23188,"lon":5.39992,"is_reserved":false,"is_disabled":false,"rental_uris":{"android":"levelo://app?vid=c4e41134-97fa-4cc8-9b92-ebaab1c3984f","ios":"levelo://app?vid=c4e41134-97fa-4cc8-9b92-ebaab1c3984f"},"vehicle_type_id":"4","last_reported":1779466410,"current_range_meters":6800,"station_id":"ce4bhn12rcd13ifvqgqg","pricing_plan_id":"cebpf4jnsgd1na2vs0mg"},{"bike_id":"7f182fcd-00cb-465f-b9fd-c2d11fd2261e","system_id":"levelo_inurba_marseille","lat":43.27373,"lon":5.36245,"is_reserved":false,"is_disabled":false,"rental_uris":{"android":"levelo://app?vid=7f182fcd-00cb-465f-b9fd-c2d11fd2261e","ios":"levelo://app?vid=7f182fcd-00cb-465f-b9fd-c2d11fd2261e"},"vehicle_type_id":"4","last_reported":1779466410,"current_range_meters":6800,"station_id":"ce4bhbh2rcd13ifvqeo0","pricing_plan_id":"cebpf4jnsgd1na2vs0mg"},{"bike_id":"125c4d5b-9f0c-4f70-b053-7773cea0e270","system_id":"levelo_inurba_marseille","lat":43.28175,"lon":5.43782,"is_reserved":false,"is_disabled":false,"rental_uris":{"android":"levelo://app?vid=125c4d5b-9f0c-4f70-b053-7773cea0e270","ios":"levelo://app?vid=125c4d5b-9f0c-4f70-b053-7773cea0e270"},"vehicle_type_id":"4","last_reported":1779466410,"current_range_meters":6800,"station_id":"","pricing_plan_id":"cebpf4jnsgd1na2vs0mg"},{"bike_id":"0cefa4d1-e9f1-4448-9dfa-553e729afb65","system_id":"levelo_inurba_marseille","lat":43.23189,"lon":5.35551,"is_reserved":false,"is_disabled":false,"rental_uris":{"android":"levelo://app?vid=0cefa4d1-e9f1-4448-9dfa-553e729afb65","ios":"levelo://app?vid=0cefa4d1-e9f1-4448-9dfa-553e729afb65"},"vehicle_type_id":"4","last_reported":1779466410,"current_range_meters":6800,"station_id":"ce4bhu92rcd13ifvqi70","pricing_plan_id":"cebpf4jnsgd1na2vs0mg"},{"bike_id":"04ce9ec4-b429-41b0-89f3-05e0d971f9a9","system_id":"levelo_inurba_marseille","lat":43.258692,"lon":5.398979,"is_reserved":false,"is_disabled":false,"rental_uris":{"android":"levelo://app?vid=04ce9ec4-b429-41b0-89f3-05e0d971f9a9","ios":"levelo://app?vid=04ce9ec4-b429-41b0-89f3-05e0d971f9a9"},"vehicle_type_id":"4","last_reported":1779466410,"current_range_meters":6800,"station_id":"ce4bhl92rcd13ifvqghg","pricing_plan_id":"cebpf4jnsgd1na2vs0mg"},{"bike_id":"8e5683c2-4140-4ca4-b466-7b671c6130d0","system_id":"levelo_inurba_marseille","lat":43.29449,"lon":5.38074,"is_reserved":false,"is_disabled":false,"rental_uris":{"android":"levelo://app?vid=8e5683c2-4140-4ca4-b466-7b671c6130d0","ios":"levelo://app?vid=8e5683c2-4140-4ca4-b466-7b671c6130d0"},"vehicle_type_id":"4","last_reported":1779466410,"current_range_meters":6800,"station_id":"","pricing_plan_id":"cebpf4jnsgd1na2vs0mg"},{"bike_id":"4f560fc2-8ce0-4e79-b9bb-0ebd0535c6dd","system_id":"levelo_inurba_marseille","lat":43.29055,"lon":5.359148,"is_reserved":false,"is_disabled":false,"rental_uris":{"android":"levelo://app?vid=4f560fc2-8ce0-4e79-b9bb-0ebd0535c6dd","ios":"levelo://app?vid=4f560fc2-8ce0-4e79-b9bb-0ebd0535c6dd"},"vehicle_type_id":"4","last_reported":1779466410,"current_range_meters":6800,"station_id":"ce4bha92rcd13ifvqeg0","pricing_plan_id":"cebpf4jnsgd1na2vs0mg"},{"bike_id":"a59e2711-f8aa-42a4-97d2-4c0a32cbbb0e","system_id":"levelo_inurba_marseille","lat":43.28431,"lon":5.34995,"is_reserved":false,"is_disabled":false,"rental_uris":{"android":"levelo://app?vid=a59e2711-f8aa-42a4-97d2-4c0a32cbbb0e","ios":"levelo://app?vid=a59e2711-f8aa-42a4-97d2-4c0a32cbbb0e"},"vehicle_type_id":"4","last_reported":1779466410,"current_range_meters":6800,"station_id":"ce4bhbh2rcd13ifvqepg","pricing_plan_id":"cebpf4jnsgd1na2vs0mg"},{"bike_id":"a9d5bbe3-7865-4683-ae2e-a509d3d0a495","system_id":"levelo_inurba_marseille","lat":43.27361,"lon":5.36255,"is_reserved":false,"is_disabled":false,"rental_uris":{"android":"levelo://app?vid=a9d5bbe3-7865-4683-ae2e-a509d3d0a495","ios":"levelo://app?vid=a9d5bbe3-7865-4683-ae2e-a509d3d0a495"},"vehicle_type_id":"4","last_reported":1779466410,"current_range_meters":6800,"station_id":"ce4bhbh2rcd13ifvqeo0","pricing_plan_id":"cebpf4jnsgd1na2vs0mg"},{"bike_id":"531e6b23-1b60-475a-9411-24d6c208971a","system_id":"levelo_inurba_marseille","lat":43.25642,"lon":5.38533,"is_reserved":false,"is_disabled":false,"rental_uris":{"android":"levelo://app?vid=531e6b23-1b60-475a-9411-24d6c208971a","ios":"levelo://app?vid=531e6b23-1b60-475a-9411-24d6c208971a"},"vehicle_type_id":"4","last_reported":1779466410,"current_range_meters":6800,"station_id":"","pricing_plan_id":"cebpf4jnsgd1na2vs0mg"},{"bike_id":"20f52871-1aed-4877-a3a3-cb10650ae58f","system_id":"levelo_inurba_marseille","lat":43.28409,"lon":5.35018,"is_reserved":false,"is_disabled":false,"rental_uris":{"android":"levelo://app?vid=20f52871-1aed-4877-a3a3-cb10650ae58f","ios":"levelo://app?vid=20f52871-1aed-4877-a3a3-cb10650ae58f"},"vehicle_type_id":"4","last_reported":1779466410,"current_range_meters":7200,"station_id":"ce4bhbh2rcd13ifvqepg","pricing_plan_id":"cebpf4jnsgd1na2vs0mg"},{"bike_id":"eff40c56-7ccd-49af-b99d-fb1e5b6991f1","system_id":"levelo_inurba_marseille","lat":43.24161,"lon":5.3641,"is_reserved":false,"is_disabled":false,"rental_uris":{"android":"levelo://app?vid=eff40c56-7ccd-49af-b99d-fb1e5b6991f1","ios":"levelo://app?vid=eff40c56-7ccd-49af-b99d-fb1e5b6991f1"},"vehicle_type_id":"4","last_reported":1779466410,"current_range_meters":7200,"station_id":"cpo36qri1sfpv3e86is0","pricing_plan_id":"cebpf4jnsgd1na2vs0mg"},{"bike_id":"d827e303-aea2-4311-8dc0-b4274f2eb69c","system_id":"levelo_inurba_marseille","lat":43.28867,"lon":5.42504,"is_reserved":false,"is_disabled":false,"rental_uris":{"android":"levelo://app?vid=d827e303-aea2-4311-8dc0-b4274f2eb69c","ios":"levelo://app?vid=d827e303-aea2-4311-8dc0-b4274f2eb69c"},"vehicle_type_id":"4","last_reported":1779466410,"current_range_meters":7200,"station_id":"st_d3b462108ojc7389ooeg","pricing_plan_id":"cebpf4jnsgd1na2vs0mg"},{"bike_id":"9513ec20-5cd0-4a8a-9475-019e1af1dc88","system_id":"levelo_inurba_marseille","lat":43.29259,"lon":5.40891,"is_reserved":false,"is_disabled":false,"rental_uris":{"android":"levelo://app?vid=9513ec20-5cd0-4a8a-9475-019e1af1dc88","ios":"levelo://app?vid=9513ec20-5cd0-4a8a-9475-019e1af1dc88"},"vehicle_type_id":"4","last_reported":1779466410,"current_range_meters":7200,"station_id":"ce4bh192rcd13ifvqdc0","pricing_plan_id":"cebpf4jnsgd1na2vs0mg"},{"bike_id":"f67ee4e9-b66d-42eb-bd7c-cfe630778221","system_id":"levelo_inurba_marseille","lat":43.21782,"lon":5.34587,"is_reserved":false,"is_disabled":false,"rental_uris":{"android":"levelo://app?vid=f67ee4e9-b66d-42eb-bd7c-cfe630778221","ios":"levelo://app?vid=f67ee4e9-b66d-42eb-bd7c-cfe630778221"},"vehicle_type_id":"4","last_reported":1779466410,"current_range_meters":7200,"station_id":"","pricing_plan_id":"cebpf4jnsgd1na2vs0mg"},{"bike_id":"33fd2c4d-0195-4fe3-9b07-cb7d63fcd224","system_id":"levelo_inurba_marseille","lat":43.25338,"lon":5.42188,"is_reserved":false,"is_disabled":false,"rental_uris":{"android":"levelo://app?vid=33fd2c4d-0195-4fe3-9b07-cb7d63fcd224","ios":"levelo://app?vid=33fd2c4d-0195-4fe3-9b07-cb7d63fcd224"},"vehicle_type_id":"4","last_reported":1779466410,"current_range_meters":7200,"station_id":"st_d2m65c5bi1j21697t3ng","pricing_plan_id":"cebpf4jnsgd1na2vs0mg"},{"bike_id":"89ea6a67-11b8-4fe1-8a6c-0b3121d012be","system_id":"levelo_inurba_marseille","lat":43.28261,"lon":5.35079,"is_reserved":false,"is_disabled":false,"rental_uris":{"android":"levelo://app?vid=89ea6a67-11b8-4fe1-8a6c-0b3121d012be","ios":"levelo://app?vid=89ea6a67-11b8-4fe1-8a6c-0b3121d012be"},"vehicle_type_id":"4","last_reported":1779466410,"current_range_meters":7200,"station_id":"ce4bhbp2rcd13ifvqerg","pricing_plan_id":"cebpf4jnsgd1na2vs0mg"},{"bike_id":"f00aec81-3899-4ff5-99a5-1ac5ac689022","system_id":"levelo_inurba_marseille","lat":43.30616,"lon":5.37161,"is_reserved":false,"is_disabled":false,"rental_uris":{"android":"levelo://app?vid=f00aec81-3899-4ff5-99a5-1ac5ac689022","ios":"levelo://app?vid=f00aec81-3899-4ff5-99a5-1ac5ac689022"},"vehicle_type_id":"4","last_reported":1779466410,"current_range_meters":7200,"station_id":"","pricing_plan_id":"cebpf4jnsgd1na2vs0mg"},{"bike_id":"cd7c0980-5abf-48aa-9c8a-fb3c933e1711","system_id":"levelo_inurba_marseille","lat":43.30441,"lon":5.38874,"is_reserved":false,"is_disabled":false,"rental_uris":{"android":"levelo://app?vid=cd7c0980-5abf-48aa-9c8a-fb3c933e1711","ios":"levelo://app?vid=cd7c0980-5abf-48aa-9c8a-fb3c933e1711"},"vehicle_type_id":"4","last_reported":1779466410,"current_range_meters":7200,"station_id":"ce4bgk12rcd13ifvqbi0","pricing_plan_id":"cebpf4jnsgd1na2vs0mg"},{"bike_id":"21365cae-86d6-4d77-a777-80caf46a8b04","system_id":"levelo_inurba_marseille","lat":43.33765,"lon":5.37483,"is_reserved":false,"is_disabled":false,"rental_uris":{"android":"levelo://app?vid=21365cae-86d6-4d77-a777-80caf46a8b04","ios":"levelo://app?vid=21365cae-86d6-4d77-a777-80caf46a8b04"},"vehicle_type_id":"4","last_reported":1779466410,"current_range_meters":7200,"station_id":"st_d46tts09ee8s73dlu43g","pricing_plan_id":"cebpf4jnsgd1na2vs0mg"},{"bike_id":"67fd4f56-d6e3-41be-8298-e0a75fdcdf70","system_id":"levelo_inurba_marseille","lat":43.29755,"lon":5.37645,"is_reserved":false,"is_disabled":true,"rental_uris":{"android":"levelo://app?vid=67fd4f56-d6e3-41be-8298-e0a75fdcdf70","ios":"levelo://app?vid=67fd4f56-d6e3-41be-8298-e0a75fdcdf70"},"vehicle_type_id":"4","last_reported":1779466410,"current_range_meters":7200,"station_id":"","pricing_plan_id":"cebpf4jnsgd1na2vs0mg"},{"bike_id":"f4c0b23e-43a3-4715-8696-99bddc13e830","system_id":"levelo_inurba_marseille","lat":43.30809,"lon":5.4462,"is_reserved":false,"is_disabled":false,"rental_uris":{"android":"levelo://app?vid=f4c0b23e-43a3-4715-8696-99bddc13e830","ios":"levelo://app?vid=f4c0b23e-43a3-4715-8696-99bddc13e830"},"vehicle_type_id":"4","last_reported":1779466410,"current_range_meters":7200,"station_id":"","pricing_plan_id":"cebpf4jnsgd1na2vs0mg"},{"bike_id":"e5765682-87e3-4649-97f1-cbe838483508","system_id":"levelo_inurba_marseille","lat":43.32113,"lon":5.36817,"is_reserved":false,"is_disabled":false,"rental_uris":{"android":"levelo://app?vid=e5765682-87e3-4649-97f1-cbe838483508","ios":"levelo://app?vid=e5765682-87e3-4649-97f1-cbe838483508"},"vehicle_type_id":"4","last_reported":1779466410,"current_range_meters":7200,"station_id":"ce4bhrh2rcd13ifvqhug","pricing_plan_id":"cebpf4jnsgd1na2vs0mg"},{"bike_id":"9ababcea-6d2c-4b63-b274-5f3326cd3fee","system_id":"levelo_inurba_marseille","lat":43.25509,"lon":5.37656,"is_reserved":false,"is_disabled":false,"rental_uris":{"android":"levelo://app?vid=9ababcea-6d2c-4b63-b274-5f3326cd3fee","ios":"levelo://app?vid=9ababcea-6d2c-4b63-b274-5f3326cd3fee"},"vehicle_type_id":"4","last_reported":1779466410,"current_range_meters":7200,"station_id":"ce4bhh12rcd13ifvqff0","pricing_plan_id":"cebpf4jnsgd1na2vs0mg"},{"bike_id":"a24c5b9c-25e5-4872-8a32-16bb1a08adbe","system_id":"levelo_inurba_marseille","lat":43.31215,"lon":5.36908,"is_reserved":false,"is_disabled":false,"rental_uris":{"android":"levelo://app?vid=a24c5b9c-25e5-4872-8a32-16bb1a08adbe","ios":"levelo://app?vid=a24c5b9c-25e5-4872-8a32-16bb1a08adbe"},"vehicle_type_id":"4","last_reported":1779466410,"current_range_meters":7200,"station_id":"ce4bgl92rcd13ifvqbq0","pricing_plan_id":"cebpf4jnsgd1na2vs0mg"},{"bike_id":"e33b0a92-9f77-42e0-8957-d52e504cdca9","system_id":"levelo_inurba_marseille","lat":43.24464,"lon":5.42539,"is_reserved":false,"is_disabled":false,"rental_uris":{"android":"levelo://app?vid=e33b0a92-9f77-42e0-8957-d52e504cdca9","ios":"levelo://app?vid=e33b0a92-9f77-42e0-8957-d52e504cdca9"},"vehicle_type_id":"4","last_reported":1779466410,"current_range_meters":7200,"station_id":"st_d4a3vfp97mjs738cd8kg","pricing_plan_id":"cebpf4jnsgd1na2vs0mg"},{"bike_id":"2aa43b8a-e8a0-4968-87ae-d3fd74283d5c","system_id":"levelo_inurba_marseille","lat":43.3046,"lon":5.3791,"is_reserved":false,"is_disabled":false,"rental_uris":{"android":"levelo://app?vid=2aa43b8a-e8a0-4968-87ae-d3fd74283d5c","ios":"levelo://app?vid=2aa43b8a-e8a0-4968-87ae-d3fd74283d5c"},"vehicle_type_id":"4","last_reported":1779466410,"current_range_meters":7200,"station_id":"ce4bgup2rcd13ifvqcn0","pricing_plan_id":"cebpf4jnsgd1na2vs0mg"},{"bike_id":"a821a46f-2560-423c-9235-2c6ca27aa55b","system_id":"levelo_inurba_marseille","lat":43.28092,"lon":5.35666,"is_reserved":false,"is_disabled":false,"rental_uris":{"android":"levelo://app?vid=a821a46f-2560-423c-9235-2c6ca27aa55b","ios":"levelo://app?vid=a821a46f-2560-423c-9235-2c6ca27aa55b"},"vehicle_type_id":"4","last_reported":1779466410,"current_range_meters":7200,"station_id":"","pricing_plan_id":"cebpf4jnsgd1na2vs0mg"},{"bike_id":"a06e9d5d-6bcb-4fc7-b6c7-23dbf200556d","system_id":"levelo_inurba_marseille","lat":43.32975,"lon":5.37482,"is_reserved":false,"is_disabled":false,"rental_uris":{"android":"levelo://app?vid=a06e9d5d-6bcb-4fc7-b6c7-23dbf200556d","ios":"levelo://app?vid=a06e9d5d-6bcb-4fc7-b6c7-23dbf200556d"},"vehicle_type_id":"4","last_reported":1779466410,"current_range_meters":7200,"station_id":"","pricing_plan_id":"cebpf4jnsgd1na2vs0mg"},{"bike_id":"4441972b-7bcd-41ec-a161-75d1792b802d","system_id":"levelo_inurba_marseille","lat":43.30796,"lon":5.37661,"is_reserved":false,"is_disabled":true,"rental_uris":{"android":"levelo://app?vid=4441972b-7bcd-41ec-a161-75d1792b802d","ios":"levelo://app?vid=4441972b-7bcd-41ec-a161-75d1792b802d"},"vehicle_type_id":"4","last_reported":1779466410,"current_range_meters":7200,"station_id":"ce4bgv92rcd13ifvqcq0","pricing_plan_id":"cebpf4jnsgd1na2vs0mg"},{"bike_id":"35fdd4c8-41b7-4f07-811b-d849d0e61082","system_id":"levelo_inurba_marseille","lat":43.25582,"lon":5.38226,"is_reserved":false,"is_disabled":false,"rental_uris":{"android":"levelo://app?vid=35fdd4c8-41b7-4f07-811b-d849d0e61082","ios":"levelo://app?vid=35fdd4c8-41b7-4f07-811b-d849d0e61082"},"vehicle_type_id":"4","last_reported":1779466410,"current_range_meters":7200,"station_id":"ce4bhih2rcd13ifvqfs0","pricing_plan_id":"cebpf4jnsgd1na2vs0mg"},{"bike_id":"29f177f7-be7f-4da8-8bcc-664e10bce6bf","system_id":"levelo_inurba_marseille","lat":43.28537,"lon":5.44103,"is_reserved":false,"is_disabled":false,"rental_uris":{"android":"levelo://app?vid=29f177f7-be7f-4da8-8bcc-664e10bce6bf","ios":"levelo://app?vid=29f177f7-be7f-4da8-8bcc-664e10bce6bf"},"vehicle_type_id":"4","last_reported":1779466410,"current_range_meters":7200,"station_id":"st_d3j3df2ikq2c7380ej80","pricing_plan_id":"cebpf4jnsgd1na2vs0mg"},{"bike_id":"b46e2f96-bb25-41b8-a262-209dc0c5d5b9","system_id":"levelo_inurba_marseille","lat":43.21752,"lon":5.34601,"is_reserved":false,"is_disabled":false,"rental_uris":{"android":"levelo://app?vid=b46e2f96-bb25-41b8-a262-209dc0c5d5b9","ios":"levelo://app?vid=b46e2f96-bb25-41b8-a262-209dc0c5d5b9"},"vehicle_type_id":"4","last_reported":1779466410,"current_range_meters":7200,"station_id":"st_cvj6r9ubvosntc0bgbag","pricing_plan_id":"cebpf4jnsgd1na2vs0mg"},{"bike_id":"af96915a-3359-4852-b046-a23bfe1fa564","system_id":"levelo_inurba_marseille","lat":43.33017,"lon":5.39043,"is_reserved":false,"is_disabled":false,"rental_uris":{"android":"levelo://app?vid=af96915a-3359-4852-b046-a23bfe1fa564","ios":"levelo://app?vid=af96915a-3359-4852-b046-a23bfe1fa564"},"vehicle_type_id":"4","last_reported":1779466410,"current_range_meters":7200,"station_id":"ce4bhr92rcd13ifvqhrg","pricing_plan_id":"cebpf4jnsgd1na2vs0mg"},{"bike_id":"9344265d-ff03-45ef-9121-0085bc1a43ad","system_id":"levelo_inurba_marseille","lat":43.28399,"lon":5.37534,"is_reserved":false,"is_disabled":true,"rental_uris":{"android":"levelo://app?vid=9344265d-ff03-45ef-9121-0085bc1a43ad","ios":"levelo://app?vid=9344265d-ff03-45ef-9121-0085bc1a43ad"},"vehicle_type_id":"4","last_reported":1779466410,"current_range_meters":7200,"station_id":"ce4bh412rcd13ifvqds0","pricing_plan_id":"cebpf4jnsgd1na2vs0mg"},{"bike_id":"3160e3e6-6b68-4e40-ab65-95b531ffcf77","system_id":"levelo_inurba_marseille","lat":43.24638,"lon":5.38929,"is_reserved":false,"is_disabled":false,"rental_uris":{"android":"levelo://app?vid=3160e3e6-6b68-4e40-ab65-95b531ffcf77","ios":"levelo://app?vid=3160e3e6-6b68-4e40-ab65-95b531ffcf77"},"vehicle_type_id":"4","last_reported":1779466410,"current_range_meters":7200,"station_id":"ce4bhg12rcd13ifvqf60","pricing_plan_id":"cebpf4jnsgd1na2vs0mg"},{"bike_id":"d9bc738a-85a7-496c-981f-2d53247f0711","system_id":"levelo_inurba_marseille","lat":43.26586,"lon":5.39046,"is_reserved":false,"is_disabled":false,"rental_uris":{"android":"levelo://app?vid=d9bc738a-85a7-496c-981f-2d53247f0711","ios":"levelo://app?vid=d9bc738a-85a7-496c-981f-2d53247f0711"},"vehicle_type_id":"4","last_reported":1779466410,"current_range_meters":7200,"station_id":"ce4bhe12rcd13ifvqf30","pricing_plan_id":"cebpf4jnsgd1na2vs0mg"},{"bike_id":"12251dad-9efe-40f3-bbcf-0bf514ab703a","system_id":"levelo_inurba_marseille","lat":43.30315,"lon":5.39215,"is_reserved":false,"is_disabled":true,"rental_uris":{"android":"levelo://app?vid=12251dad-9efe-40f3-bbcf-0bf514ab703a","ios":"levelo://app?vid=12251dad-9efe-40f3-bbcf-0bf514ab703a"},"vehicle_type_id":"4","last_reported":1779466410,"current_range_meters":8000,"station_id":"ce4bgkh2rcd13ifvqbk0","pricing_plan_id":"cebpf4jnsgd1na2vs0mg"},{"bike_id":"b16a8ab1-8776-4858-b327-2b6ab2aac083","system_id":"levelo_inurba_marseille","lat":43.24964,"lon":5.40482,"is_reserved":false,"is_disabled":false,"rental_uris":{"android":"levelo://app?vid=b16a8ab1-8776-4858-b327-2b6ab2aac083","ios":"levelo://app?vid=b16a8ab1-8776-4858-b327-2b6ab2aac083"},"vehicle_type_id":"4","last_reported":1779466410,"current_range_meters":8000,"station_id":"st_d2ngiaodas8pm72gd1h0","pricing_plan_id":"cebpf4jnsgd1na2vs0mg"},{"bike_id":"9fb74047-56c4-40a2-a30a-c2d7f57a9404","system_id":"levelo_inurba_marseille","lat":43.31195,"lon":5.36843,"is_reserved":false,"is_disabled":false,"rental_uris":{"android":"levelo://app?vid=9fb74047-56c4-40a2-a30a-c2d7f57a9404","ios":"levelo://app?vid=9fb74047-56c4-40a2-a30a-c2d7f57a9404"},"vehicle_type_id":"4","last_reported":1779466410,"current_range_meters":8000,"station_id":"ce4bgl92rcd13ifvqbq0","pricing_plan_id":"cebpf4jnsgd1na2vs0mg"},{"bike_id":"19d560fb-9684-4fe5-bdd7-d4311796f32e","system_id":"levelo_inurba_marseille","lat":43.3061,"lon":5.37225,"is_reserved":false,"is_disabled":false,"rental_uris":{"android":"levelo://app?vid=19d560fb-9684-4fe5-bdd7-d4311796f32e","ios":"levelo://app?vid=19d560fb-9684-4fe5-bdd7-d4311796f32e"},"vehicle_type_id":"4","last_reported":1779466410,"current_range_meters":8000,"station_id":"ce4bgqh2rcd13ifvqc4g","pricing_plan_id":"cebpf4jnsgd1na2vs0mg"},{"bike_id":"93df9143-2e1b-43f7-9996-4687b46264af","system_id":"levelo_inurba_marseille","lat":43.3042,"lon":5.39751,"is_reserved":false,"is_disabled":false,"rental_uris":{"android":"levelo://app?vid=93df9143-2e1b-43f7-9996-4687b46264af","ios":"levelo://app?vid=93df9143-2e1b-43f7-9996-4687b46264af"},"vehicle_type_id":"4","last_reported":1779466410,"current_range_meters":8000,"station_id":"ce4bh092rcd13ifvqd20","pricing_plan_id":"cebpf4jnsgd1na2vs0mg"},{"bike_id":"d2079e8b-c4a9-4c9e-9e7b-5ccf20aaee73","system_id":"levelo_inurba_marseille","lat":43.297096,"lon":5.376938,"is_reserved":false,"is_disabled":false,"rental_uris":{"android":"levelo://app?vid=d2079e8b-c4a9-4c9e-9e7b-5ccf20aaee73","ios":"levelo://app?vid=d2079e8b-c4a9-4c9e-9e7b-5ccf20aaee73"},"vehicle_type_id":"4","last_reported":1779466410,"current_range_meters":8000,"station_id":"ce4bgkh2rcd13ifvqbl0","pricing_plan_id":"cebpf4jnsgd1na2vs0mg"},{"bike_id":"6ff98694-372e-4586-abc0-22516642d6cf","system_id":"levelo_inurba_marseille","lat":43.284807,"lon":5.385688,"is_reserved":false,"is_disabled":false,"rental_uris":{"android":"levelo://app?vid=6ff98694-372e-4586-abc0-22516642d6cf","ios":"levelo://app?vid=6ff98694-372e-4586-abc0-22516642d6cf"},"vehicle_type_id":"4","last_reported":1779466410,"current_range_meters":8000,"station_id":"ce4bh8p2rcd13ifvqeb0","pricing_plan_id":"cebpf4jnsgd1na2vs0mg"},{"bike_id":"507fcc13-7157-4701-b3a7-42992723dafc","system_id":"levelo_inurba_marseille","lat":43.29198,"lon":5.39323,"is_reserved":false,"is_disabled":false,"rental_uris":{"android":"levelo://app?vid=507fcc13-7157-4701-b3a7-42992723dafc","ios":"levelo://app?vid=507fcc13-7157-4701-b3a7-42992723dafc"},"vehicle_type_id":"4","last_reported":1779466410,"current_range_meters":8000,"station_id":"ce4bh192rcd13ifvqdd0","pricing_plan_id":"cebpf4jnsgd1na2vs0mg"},{"bike_id":"60a52e78-8d8e-4106-89fa-66acd0b47d65","system_id":"levelo_inurba_marseille","lat":43.2319,"lon":5.35556,"is_reserved":false,"is_disabled":false,"rental_uris":{"android":"levelo://app?vid=60a52e78-8d8e-4106-89fa-66acd0b47d65","ios":"levelo://app?vid=60a52e78-8d8e-4106-89fa-66acd0b47d65"},"vehicle_type_id":"4","last_reported":1779466410,"current_range_meters":8000,"station_id":"ce4bhu92rcd13ifvqi70","pricing_plan_id":"cebpf4jnsgd1na2vs0mg"},{"bike_id":"999d3ebd-e3d7-4530-b990-3ec06b375240","system_id":"levelo_inurba_marseille","lat":43.28102,"lon":5.3783,"is_reserved":false,"is_disabled":true,"rental_uris":{"android":"levelo://app?vid=999d3ebd-e3d7-4530-b990-3ec06b375240","ios":"levelo://app?vid=999d3ebd-e3d7-4530-b990-3ec06b375240"},"vehicle_type_id":"4","last_reported":1779466410,"current_range_meters":8000,"station_id":"ce4bha12rcd13ifvqee0","pricing_plan_id":"cebpf4jnsgd1na2vs0mg"},{"bike_id":"79dbf66e-862c-4af8-8163-5604465d08fd","system_id":"levelo_inurba_marseille","lat":43.21752,"lon":5.34603,"is_reserved":false,"is_disabled":false,"rental_uris":{"android":"levelo://app?vid=79dbf66e-862c-4af8-8163-5604465d08fd","ios":"levelo://app?vid=79dbf66e-862c-4af8-8163-5604465d08fd"},"vehicle_type_id":"4","last_reported":1779466410,"current_range_meters":8000,"station_id":"st_cvj6r9ubvosntc0bgbag","pricing_plan_id":"cebpf4jnsgd1na2vs0mg"},{"bike_id":"6a94ba67-44c6-4208-b305-a9f0a5c4db3e","system_id":"levelo_inurba_marseille","lat":43.22563,"lon":5.4165,"is_reserved":false,"is_disabled":false,"rental_uris":{"android":"levelo://app?vid=6a94ba67-44c6-4208-b305-a9f0a5c4db3e","ios":"levelo://app?vid=6a94ba67-44c6-4208-b305-a9f0a5c4db3e"},"vehicle_type_id":"4","last_reported":1779466410,"current_range_meters":8000,"station_id":"st_d2o4gvlbi1j2169b742g","pricing_plan_id":"cebpf4jnsgd1na2vs0mg"},{"bike_id":"a468becb-cfcc-4425-88fd-08f2a5a23757","system_id":"levelo_inurba_marseille","lat":43.29278,"lon":5.36843,"is_reserved":false,"is_disabled":false,"rental_uris":{"android":"levelo://app?vid=a468becb-cfcc-4425-88fd-08f2a5a23757","ios":"levelo://app?vid=a468becb-cfcc-4425-88fd-08f2a5a23757"},"vehicle_type_id":"4","last_reported":1779466410,"current_range_meters":8000,"station_id":"ce4bhbp2rcd13ifvqesg","pricing_plan_id":"cebpf4jnsgd1na2vs0mg"},{"bike_id":"e4de3b3b-d2e6-4c2a-adc3-6834ab3c7631","system_id":"levelo_inurba_marseille","lat":43.28643,"lon":5.40475,"is_reserved":false,"is_disabled":false,"rental_uris":{"android":"levelo://app?vid=e4de3b3b-d2e6-4c2a-adc3-6834ab3c7631","ios":"levelo://app?vid=e4de3b3b-d2e6-4c2a-adc3-6834ab3c7631"},