{"last_updated":1698426262,"ttl":30,"version":"2.2","data":{"bikes":[{"bike_id":"f25378e9-91bf-4374-8d82-56c319f2e36c","system_id":"levelo_inurba_marseille","lat":43.312239,"lon":5.368562,"is_reserved":false,"is_disabled":false,"rental_uris":{"android":"levelo://app?vid=f25378e9-91bf-4374-8d82-56c319f2e36c","ios":"levelo://app?vid=f25378e9-91bf-4374-8d82-56c319f2e36c"},"vehicle_type_id":"4","last_reported":1698426262,"current_range_meters":31200,"station_id":"ce4bgl92rcd13ifvqbq0","pricing_plan_id":"free"},{"bike_id":"5cf9d430-4144-41f2-afc2-75f7a47d2e24","system_id":"levelo_inurba_marseille","lat":43.312239,"lon":5.368562,"is_reserved":false,"is_disabled":false,"rental_uris":{"android":"levelo://app?vid=5cf9d430-4144-41f2-afc2-75f7a47d2e24","ios":"levelo://app?vid=5cf9d430-4144-41f2-afc2-75f7a47d2e24"},"vehicle_type_id":"4","last_reported":1698426262,"current_range_meters":30000,"station_id":"ce4bgl92rcd13ifvqbq0","pricing_plan_id":"free"},{"bike_id":"206a0d03-4f5f-4b67-80d1-2c19e2467dcc","system_id":"levelo_inurba_marseille","lat":43.312239,"lon":5.368562,"is_reserved":false,"is_disabled":false,"rental_uris":{"android":"levelo://app?vid=206a0d03-4f5f-4b67-80d1-2c19e2467dcc","ios":"levelo://app?vid=206a0d03-4f5f-4b67-80d1-2c19e2467dcc"},"vehicle_type_id":"4","last_reported":1698426262,"current_range_meters":8800,"station_id":"ce4bgl92rcd13ifvqbq0","pricing_plan_id":"free"},{"bike_id":"60a93298-5ebd-4770-b036-4a6a7aa14bb1","system_id":"levelo_inurba_marseille","lat":43.312239,"lon":5.368562,"is_reserved":false,"is_disabled":false,"rental_uris":{"android":"levelo://app?vid=60a93298-5ebd-4770-b036-4a6a7aa14bb1","ios":"levelo://app?vid=60a93298-5ebd-4770-b036-4a6a7aa14bb1"},"vehicle_type_id":"4","last_reported":1698426262,"current_range_meters":31600,"station_id":"ce4bgl92rcd13ifvqbq0","pricing_plan_id":"free"},{"bike_id":"ee686378-144b-4380-8c1c-81845a3d594f","system_id":"levelo_inurba_marseille","lat":43.312239,"lon":5.368562,"is_reserved":false,"is_disabled":false,"rental_uris":{"android":"levelo://app?vid=ee686378-144b-4380-8c1c-81845a3d594f","ios":"levelo://app?vid=ee686378-144b-4380-8c1c-81845a3d594f"},"vehicle_type_id":"4","last_reported":1698426262,"current_range_meters":28800,"station_id":"ce4bgl92rcd13ifvqbq0","pricing_plan_id":"free"},{"bike_id":"e90497a0-1224-435d-8c12-25e3ffc573ec","system_id":"levelo_inurba_marseille","lat":43.309076,"lon":5.368465,"is_reserved":false,"is_disabled":false,"rental_uris":{"android":"levelo://app?vid=e90497a0-1224-435d-8c12-25e3ffc573ec","ios":"levelo://app?vid=e90497a0-1224-435d-8c12-25e3ffc573ec"},"vehicle_type_id":"4","last_reported":1698426262,"current_range_meters":31200,"station_id":"ce4bgn92rcd13ifvqbvg","pricing_plan_id":"free"},{"bike_id":"571394a1-4594-4cac-a9d5-ac296ff371f2","system_id":"levelo_inurba_marseille","lat":43.309076,"lon":5.368465,"is_reserved":false,"is_disabled":false,"rental_uris":{"android":"levelo://app?vid=571394a1-4594-4cac-a9d5-ac296ff371f2","ios":"levelo://app?vid=571394a1-4594-4cac-a9d5-ac296ff371f2"},"vehicle_type_id":"4","last_reported":1698426262,"current_range_meters":30800,"station_id":"ce4bgn92rcd13ifvqbvg","pricing_plan_id":"free"},{"bike_id":"dbc38b5e-7ae4-4dc3-be87-5d8a01409b52","system_id":"levelo_inurba_marseille","lat":43.30884,"lon":5.37096,"is_reserved":false,"is_disabled":false,"rental_uris":{"android":"levelo://app?vid=dbc38b5e-7ae4-4dc3-be87-5d8a01409b52","ios":"levelo://app?vid=dbc38b5e-7ae4-4dc3-be87-5d8a01409b52"},"vehicle_type_id":"4","last_reported":1698426262,"current_range_meters":0,"station_id":"ce4bgqh2rcd13ifvqc5g","pricing_plan_id":"free"},{"bike_id":"dbbdea51-7e3d-4271-bd96-c3aabecbd7e2","system_id":"levelo_inurba_marseille","lat":43.315783,"lon":5.372523,"is_reserved":false,"is_disabled":false,"rental_uris":{"android":"levelo://app?vid=dbbdea51-7e3d-4271-bd96-c3aabecbd7e2","ios":"levelo://app?vid=dbbdea51-7e3d-4271-bd96-c3aabecbd7e2"},"vehicle_type_id":"4","last_reported":1698426262,"current_range_meters":11200,"station_id":"","pricing_plan_id":"free"},{"bike_id":"330b5e7f-7ab8-4e05-8e09-4f1664a854dd","system_id":"levelo_inurba_marseille","lat":43.305313,"lon":5.367116,"is_reserved":false,"is_disabled":false,"rental_uris":{"android":"levelo://app?vid=330b5e7f-7ab8-4e05-8e09-4f1664a854dd","ios":"levelo://app?vid=330b5e7f-7ab8-4e05-8e09-4f1664a854dd"},"vehicle_type_id":"4","last_reported":1698426262,"current_range_meters":10400,"station_id":"ce4bgs12rcd13ifvqcag","pricing_plan_id":"free"},{"bike_id":"f252b071-dddd-4e5f-ad07-506846af6d1a","system_id":"levelo_inurba_marseille","lat":43.305706,"lon":5.365654,"is_reserved":false,"is_disabled":false,"rental_uris":{"android":"levelo://app?vid=f252b071-dddd-4e5f-ad07-506846af6d1a","ios":"levelo://app?vid=f252b071-dddd-4e5f-ad07-506846af6d1a"},"vehicle_type_id":"4","last_reported":1698426262,"current_range_meters":23600,"station_id":"ce4bgs12rcd13ifvqcag","pricing_plan_id":"free"},{"bike_id":"20ff1add-675e-40bb-b3c9-67fb27b0e670","system_id":"levelo_inurba_marseille","lat":43.305351,"lon":5.365563,"is_reserved":false,"is_disabled":false,"rental_uris":{"android":"levelo://app?vid=20ff1add-675e-40bb-b3c9-67fb27b0e670","ios":"levelo://app?vid=20ff1add-675e-40bb-b3c9-67fb27b0e670"},"vehicle_type_id":"4","last_reported":1698426262,"current_range_meters":0,"station_id":"ce4bgs12rcd13ifvqcag","pricing_plan_id":"free"},{"bike_id":"858b0454-f600-4bf0-a050-77ffb90eed69","system_id":"levelo_inurba_marseille","lat":43.306086,"lon":5.371597,"is_reserved":false,"is_disabled":false,"rental_uris":{"android":"levelo://app?vid=858b0454-f600-4bf0-a050-77ffb90eed69","ios":"levelo://app?vid=858b0454-f600-4bf0-a050-77ffb90eed69"},"vehicle_type_id":"4","last_reported":1698426262,"current_range_meters":11600,"station_id":"","pricing_plan_id":"free"},{"bike_id":"0d0fa432-09d3-45e1-9abf-a37d2f92ab43","system_id":"levelo_inurba_marseille","lat":43.30517,"lon":5.36721,"is_reserved":false,"is_disabled":false,"rental_uris":{"android":"levelo://app?vid=0d0fa432-09d3-45e1-9abf-a37d2f92ab43","ios":"levelo://app?vid=0d0fa432-09d3-45e1-9abf-a37d2f92ab43"},"vehicle_type_id":"4","last_reported":1698426262,"current_range_meters":4000,"station_id":"ce4bgrp2rcd13ifvqc9g","pricing_plan_id":"free"},{"bike_id":"4c550a16-3f75-4a13-ad96-4dd7b0eea088","system_id":"levelo_inurba_marseille","lat":43.311131,"lon":5.377651,"is_reserved":false,"is_disabled":false,"rental_uris":{"android":"levelo://app?vid=4c550a16-3f75-4a13-ad96-4dd7b0eea088","ios":"levelo://app?vid=4c550a16-3f75-4a13-ad96-4dd7b0eea088"},"vehicle_type_id":"4","last_reported":1698426262,"current_range_meters":27200,"station_id":"ce4bgt92rcd13ifvqcg0","pricing_plan_id":"free"},{"bike_id":"103c2d52-2b34-41a5-b1e0-1a8d0619bc60","system_id":"levelo_inurba_marseille","lat":43.31117,"lon":5.37774,"is_reserved":false,"is_disabled":false,"rental_uris":{"android":"levelo://app?vid=103c2d52-2b34-41a5-b1e0-1a8d0619bc60","ios":"levelo://app?vid=103c2d52-2b34-41a5-b1e0-1a8d0619bc60"},"vehicle_type_id":"4","last_reported":1698426262,"current_range_meters":0,"station_id":"ce4bgt92rcd13ifvqcg0","pricing_plan_id":"free"},{"bike_id":"56a3dee9-23a7-4fd1-bfa5-ab06f723286f","system_id":"levelo_inurba_marseille","lat":43.317075,"lon":5.377367,"is_reserved":false,"is_disabled":false,"rental_uris":{"android":"levelo://app?vid=56a3dee9-23a7-4fd1-bfa5-ab06f723286f","ios":"levelo://app?vid=56a3dee9-23a7-4fd1-bfa5-ab06f723286f"},"vehicle_type_id":"4","last_reported":1698426262,"current_range_meters":30400,"station_id":"ce4bgth2rcd13ifvqch0","pricing_plan_id":"free"},{"bike_id":"e0f2c637-ead8-469f-bac8-634778de7f40","system_id":"levelo_inurba_marseille","lat":43.307888,"lon":5.37653,"is_reserved":false,"is_disabled":false,"rental_uris":{"android":"levelo://app?vid=e0f2c637-ead8-469f-bac8-634778de7f40","ios":"levelo://app?vid=e0f2c637-ead8-469f-bac8-634778de7f40"},"vehicle_type_id":"4","last_reported":1698426262,"current_range_meters":0,"station_id":"ce4bgv92rcd13ifvqcq0","pricing_plan_id":"free"},{"bike_id":"ad0c58f8-c8f1-45f1-8870-c43c42a7d531","system_id":"levelo_inurba_marseille","lat":43.3078,"lon":5.37647,"is_reserved":false,"is_disabled":false,"rental_uris":{"android":"levelo://app?vid=ad0c58f8-c8f1-45f1-8870-c43c42a7d531","ios":"levelo://app?vid=ad0c58f8-c8f1-45f1-8870-c43c42a7d531"},"vehicle_type_id":"4","last_reported":1698426262,"current_range_meters":19200,"station_id":"ce4bgv92rcd13ifvqcq0","pricing_plan_id":"free"},{"bike_id":"acbd4cdb-a7f7-4f76-94b7-13509e3e479a","system_id":"levelo_inurba_marseille","lat":43.317075,"lon":5.377367,"is_reserved":false,"is_disabled":false,"rental_uris":{"android":"levelo://app?vid=acbd4cdb-a7f7-4f76-94b7-13509e3e479a","ios":"levelo://app?vid=acbd4cdb-a7f7-4f76-94b7-13509e3e479a"},"vehicle_type_id":"4","last_reported":1698426262,"current_range_meters":10400,"station_id":"ce4bgth2rcd13ifvqch0","pricing_plan_id":"free"},{"bike_id":"497e2360-1e8c-498e-b67c-90bc13a03220","system_id":"levelo_inurba_marseille","lat":43.317075,"lon":5.377367,"is_reserved":false,"is_disabled":false,"rental_uris":{"android":"levelo://app?vid=497e2360-1e8c-498e-b67c-90bc13a03220","ios":"levelo://app?vid=497e2360-1e8c-498e-b67c-90bc13a03220"},"vehicle_type_id":"4","last_reported":1698426262,"current_range_meters":8400,"station_id":"ce4bgth2rcd13ifvqch0","pricing_plan_id":"free"},{"bike_id":"51c15eb4-6097-4f48-b9f2-a46f48840449","system_id":"levelo_inurba_marseille","lat":43.317075,"lon":5.377367,"is_reserved":false,"is_disabled":false,"rental_uris":{"android":"levelo://app?vid=51c15eb4-6097-4f48-b9f2-a46f48840449","ios":"levelo://app?vid=51c15eb4-6097-4f48-b9f2-a46f48840449"},"vehicle_type_id":"4","last_reported":1698426262,"current_range_meters":11200,"station_id":"ce4bgth2rcd13ifvqch0","pricing_plan_id":"free"},{"bike_id":"59442139-08e5-4d97-808b-7e9d5af1e88a","system_id":"levelo_inurba_marseille","lat":43.31112,"lon":5.381308,"is_reserved":false,"is_disabled":false,"rental_uris":{"android":"levelo://app?vid=59442139-08e5-4d97-808b-7e9d5af1e88a","ios":"levelo://app?vid=59442139-08e5-4d97-808b-7e9d5af1e88a"},"vehicle_type_id":"4","last_reported":1698426262,"current_range_meters":0,"station_id":"","pricing_plan_id":"free"},{"bike_id":"e88b8deb-0d5a-4362-bf72-32f64bb4dc6d","system_id":"levelo_inurba_marseille","lat":43.292749,"lon":5.368402,"is_reserved":false,"is_disabled":false,"rental_uris":{"android":"levelo://app?vid=e88b8deb-0d5a-4362-bf72-32f64bb4dc6d","ios":"levelo://app?vid=e88b8deb-0d5a-4362-bf72-32f64bb4dc6d"},"vehicle_type_id":"4","last_reported":1698426262,"current_range_meters":15600,"station_id":"ce4bhbp2rcd13ifvqesg","pricing_plan_id":"free"},{"bike_id":"8d4c644e-261f-4057-be35-35ae2e40a55e","system_id":"levelo_inurba_marseille","lat":43.304606,"lon":5.379026,"is_reserved":false,"is_disabled":false,"rental_uris":{"android":"levelo://app?vid=8d4c644e-261f-4057-be35-35ae2e40a55e","ios":"levelo://app?vid=8d4c644e-261f-4057-be35-35ae2e40a55e"},"vehicle_type_id":"4","last_reported":1698426262,"current_range_meters":25200,"station_id":"ce4bgup2rcd13ifvqcn0","pricing_plan_id":"free"},{"bike_id":"614bf7a1-5a08-4220-8743-2313d110760c","system_id":"levelo_inurba_marseille","lat":43.28856,"lon":5.358371,"is_reserved":false,"is_disabled":false,"rental_uris":{"android":"levelo://app?vid=614bf7a1-5a08-4220-8743-2313d110760c","ios":"levelo://app?vid=614bf7a1-5a08-4220-8743-2313d110760c"},"vehicle_type_id":"4","last_reported":1698426262,"current_range_meters":23600,"station_id":"ce4bhb12rcd13ifvqem0","pricing_plan_id":"free"},{"bike_id":"4edfc80b-f13e-47b8-b087-5c0676526ba9","system_id":"levelo_inurba_marseille","lat":43.304606,"lon":5.379026,"is_reserved":false,"is_disabled":false,"rental_uris":{"android":"levelo://app?vid=4edfc80b-f13e-47b8-b087-5c0676526ba9","ios":"levelo://app?vid=4edfc80b-f13e-47b8-b087-5c0676526ba9"},"vehicle_type_id":"4","last_reported":1698426262,"current_range_meters":10400,"station_id":"ce4bgup2rcd13ifvqcn0","pricing_plan_id":"free"},{"bike_id":"d797f1e6-f3ca-4ad7-8b56-5ed6191da53c","system_id":"levelo_inurba_marseille","lat":43.304606,"lon":5.379026,"is_reserved":false,"is_disabled":false,"rental_uris":{"android":"levelo://app?vid=d797f1e6-f3ca-4ad7-8b56-5ed6191da53c","ios":"levelo://app?vid=d797f1e6-f3ca-4ad7-8b56-5ed6191da53c"},"vehicle_type_id":"4","last_reported":1698426262,"current_range_meters":31200,"station_id":"ce4bgup2rcd13ifvqcn0","pricing_plan_id":"free"},{"bike_id":"a9b08259-b74e-4ba2-9d5d-697493409f92","system_id":"levelo_inurba_marseille","lat":43.304606,"lon":5.379026,"is_reserved":false,"is_disabled":false,"rental_uris":{"android":"levelo://app?vid=a9b08259-b74e-4ba2-9d5d-697493409f92","ios":"levelo://app?vid=a9b08259-b74e-4ba2-9d5d-697493409f92"},"vehicle_type_id":"4","last_reported":1698426262,"current_range_meters":24000,"station_id":"ce4bgup2rcd13ifvqcn0","pricing_plan_id":"free"},{"bike_id":"33ee12c1-bfff-4ae7-ad6d-77b569898cd1","system_id":"levelo_inurba_marseille","lat":43.324762,"lon":5.365713,"is_reserved":false,"is_disabled":false,"rental_uris":{"android":"levelo://app?vid=33ee12c1-bfff-4ae7-ad6d-77b569898cd1","ios":"levelo://app?vid=33ee12c1-bfff-4ae7-ad6d-77b569898cd1"},"vehicle_type_id":"4","last_reported":1698426262,"current_range_meters":19600,"station_id":"","pricing_plan_id":"free"},{"bike_id":"5faecab5-e941-4d50-8f53-9d379224611c","system_id":"levelo_inurba_marseille","lat":43.304606,"lon":5.379026,"is_reserved":false,"is_disabled":false,"rental_uris":{"android":"levelo://app?vid=5faecab5-e941-4d50-8f53-9d379224611c","ios":"levelo://app?vid=5faecab5-e941-4d50-8f53-9d379224611c"},"vehicle_type_id":"4","last_reported":1698426262,"current_range_meters":30800,"station_id":"ce4bgup2rcd13ifvqcn0","pricing_plan_id":"free"},{"bike_id":"d8ea1809-c307-4dbe-9960-749b328b75c3","system_id":"levelo_inurba_marseille","lat":43.30447,"lon":5.37921,"is_reserved":false,"is_disabled":false,"rental_uris":{"android":"levelo://app?vid=d8ea1809-c307-4dbe-9960-749b328b75c3","ios":"levelo://app?vid=d8ea1809-c307-4dbe-9960-749b328b75c3"},"vehicle_type_id":"4","last_reported":1698426262,"current_range_meters":20800,"station_id":"ce4bgup2rcd13ifvqcn0","pricing_plan_id":"free"},{"bike_id":"1047bcc5-10ff-460b-bd6f-eac1d4a67db4","system_id":"levelo_inurba_marseille","lat":43.31745,"lon":5.382537,"is_reserved":false,"is_disabled":false,"rental_uris":{"android":"levelo://app?vid=1047bcc5-10ff-460b-bd6f-eac1d4a67db4","ios":"levelo://app?vid=1047bcc5-10ff-460b-bd6f-eac1d4a67db4"},"vehicle_type_id":"4","last_reported":1698426262,"current_range_meters":0,"station_id":"","pricing_plan_id":"free"},{"bike_id":"f9c3990f-464a-414b-9881-573bc1e3d44b","system_id":"levelo_inurba_marseille","lat":43.302784,"lon":5.377158,"is_reserved":false,"is_disabled":false,"rental_uris":{"android":"levelo://app?vid=f9c3990f-464a-414b-9881-573bc1e3d44b","ios":"levelo://app?vid=f9c3990f-464a-414b-9881-573bc1e3d44b"},"vehicle_type_id":"4","last_reported":1698426262,"current_range_meters":21600,"station_id":"ce4bguh2rcd13ifvqcj0","pricing_plan_id":"free"},{"bike_id":"229325fa-c7ea-4408-8cc7-31fcb00ae2d4","system_id":"levelo_inurba_marseille","lat":43.302784,"lon":5.377158,"is_reserved":false,"is_disabled":false,"rental_uris":{"android":"levelo://app?vid=229325fa-c7ea-4408-8cc7-31fcb00ae2d4","ios":"levelo://app?vid=229325fa-c7ea-4408-8cc7-31fcb00ae2d4"},"vehicle_type_id":"4","last_reported":1698426262,"current_range_meters":12000,"station_id":"ce4bguh2rcd13ifvqcj0","pricing_plan_id":"free"},{"bike_id":"9dce505a-85b1-419d-805b-4559e32eabf7","system_id":"levelo_inurba_marseille","lat":43.313571,"lon":5.384829,"is_reserved":false,"is_disabled":false,"rental_uris":{"android":"levelo://app?vid=9dce505a-85b1-419d-805b-4559e32eabf7","ios":"levelo://app?vid=9dce505a-85b1-419d-805b-4559e32eabf7"},"vehicle_type_id":"4","last_reported":1698426262,"current_range_meters":11200,"station_id":"ce4bgt92rcd13ifvqcf0","pricing_plan_id":"free"},{"bike_id":"e1f4b5ee-7100-44e0-9c07-b542756be124","system_id":"levelo_inurba_marseille","lat":43.261782,"lon":5.374515,"is_reserved":false,"is_disabled":false,"rental_uris":{"android":"levelo://app?vid=e1f4b5ee-7100-44e0-9c07-b542756be124","ios":"levelo://app?vid=e1f4b5ee-7100-44e0-9c07-b542756be124"},"vehicle_type_id":"4","last_reported":1698426262,"current_range_meters":8400,"station_id":"ce4bhgp2rcd13ifvqfc0","pricing_plan_id":"free"},{"bike_id":"88c671c3-22fb-40f5-a647-eaf5409cade4","system_id":"levelo_inurba_marseille","lat":43.299724,"lon":5.371829,"is_reserved":false,"is_disabled":false,"rental_uris":{"android":"levelo://app?vid=88c671c3-22fb-40f5-a647-eaf5409cade4","ios":"levelo://app?vid=88c671c3-22fb-40f5-a647-eaf5409cade4"},"vehicle_type_id":"4","last_reported":1698426262,"current_range_meters":5200,"station_id":"ce4bgr92rcd13ifvqc7g","pricing_plan_id":"free"},{"bike_id":"a3594cbc-0441-4d62-8dce-2ea63a32b5e5","system_id":"levelo_inurba_marseille","lat":43.2996,"lon":5.37161,"is_reserved":false,"is_disabled":false,"rental_uris":{"android":"levelo://app?vid=a3594cbc-0441-4d62-8dce-2ea63a32b5e5","ios":"levelo://app?vid=a3594cbc-0441-4d62-8dce-2ea63a32b5e5"},"vehicle_type_id":"4","last_reported":1698426262,"current_range_meters":2800,"station_id":"ce4bgr92rcd13ifvqc7g","pricing_plan_id":"free"},{"bike_id":"97997ef7-b347-4148-ba57-9a15ecc4912d","system_id":"levelo_inurba_marseille","lat":43.320945,"lon":5.38306,"is_reserved":false,"is_disabled":false,"rental_uris":{"android":"levelo://app?vid=97997ef7-b347-4148-ba57-9a15ecc4912d","ios":"levelo://app?vid=97997ef7-b347-4148-ba57-9a15ecc4912d"},"vehicle_type_id":"4","last_reported":1698426262,"current_range_meters":0,"station_id":"","pricing_plan_id":"free"},{"bike_id":"11559a21-7d6a-4c8a-827e-17cb09885c74","system_id":"levelo_inurba_marseille","lat":43.305364,"lon":5.384119,"is_reserved":false,"is_disabled":false,"rental_uris":{"android":"levelo://app?vid=11559a21-7d6a-4c8a-827e-17cb09885c74","ios":"levelo://app?vid=11559a21-7d6a-4c8a-827e-17cb09885c74"},"vehicle_type_id":"4","last_reported":1698426262,"current_range_meters":25600,"station_id":"ce4bgg92rcd13ifvqb30","pricing_plan_id":"free"},{"bike_id":"6da8a4ee-2779-4f5c-804b-caa26cc95208","system_id":"levelo_inurba_marseille","lat":43.305364,"lon":5.384119,"is_reserved":false,"is_disabled":false,"rental_uris":{"android":"levelo://app?vid=6da8a4ee-2779-4f5c-804b-caa26cc95208","ios":"levelo://app?vid=6da8a4ee-2779-4f5c-804b-caa26cc95208"},"vehicle_type_id":"4","last_reported":1698426262,"current_range_meters":9200,"station_id":"ce4bgg92rcd13ifvqb30","pricing_plan_id":"free"},{"bike_id":"60cb8787-095d-459e-be6f-a0fb12bc51ce","system_id":"levelo_inurba_marseille","lat":43.322872,"lon":5.382756,"is_reserved":false,"is_disabled":false,"rental_uris":{"android":"levelo://app?vid=60cb8787-095d-459e-be6f-a0fb12bc51ce","ios":"levelo://app?vid=60cb8787-095d-459e-be6f-a0fb12bc51ce"},"vehicle_type_id":"4","last_reported":1698426262,"current_range_meters":400,"station_id":"ce4bhr12rcd13ifvqhqg","pricing_plan_id":"free"},{"bike_id":"4e7c11df-5013-4d01-9ed6-bdc691d5b5cc","system_id":"levelo_inurba_marseille","lat":43.32822,"lon":5.36685,"is_reserved":false,"is_disabled":false,"rental_uris":{"android":"levelo://app?vid=4e7c11df-5013-4d01-9ed6-bdc691d5b5cc","ios":"levelo://app?vid=4e7c11df-5013-4d01-9ed6-bdc691d5b5cc"},"vehicle_type_id":"4","last_reported":1698426262,"current_range_meters":0,"station_id":"ce4bhs92rcd13ifvqi0g","pricing_plan_id":"free"},{"bike_id":"598cdf7e-a9a6-463e-81da-c896ec5c5080","system_id":"levelo_inurba_marseille","lat":43.328371,"lon":5.366912,"is_reserved":false,"is_disabled":false,"rental_uris":{"android":"levelo://app?vid=598cdf7e-a9a6-463e-81da-c896ec5c5080","ios":"levelo://app?vid=598cdf7e-a9a6-463e-81da-c896ec5c5080"},"vehicle_type_id":"4","last_reported":1698426262,"current_range_meters":0,"station_id":"ce4bhs92rcd13ifvqi0g","pricing_plan_id":"free"},{"bike_id":"7c721af1-a5b0-41f9-a74b-effa6685822a","system_id":"levelo_inurba_marseille","lat":43.323121,"lon":5.382853,"is_reserved":false,"is_disabled":false,"rental_uris":{"android":"levelo://app?vid=7c721af1-a5b0-41f9-a74b-effa6685822a","ios":"levelo://app?vid=7c721af1-a5b0-41f9-a74b-effa6685822a"},"vehicle_type_id":"4","last_reported":1698426262,"current_range_meters":10800,"station_id":"ce4bhr12rcd13ifvqhqg","pricing_plan_id":"free"},{"bike_id":"2bf09692-7151-4aba-9fa7-8ce1d6106004","system_id":"levelo_inurba_marseille","lat":43.328303,"lon":5.366873,"is_reserved":false,"is_disabled":false,"rental_uris":{"android":"levelo://app?vid=2bf09692-7151-4aba-9fa7-8ce1d6106004","ios":"levelo://app?vid=2bf09692-7151-4aba-9fa7-8ce1d6106004"},"vehicle_type_id":"4","last_reported":1698426262,"current_range_meters":16400,"station_id":"","pricing_plan_id":"free"},{"bike_id":"b3e63496-ef57-4fe7-9649-3ee98b2a4e91","system_id":"levelo_inurba_marseille","lat":43.32831,"lon":5.36697,"is_reserved":false,"is_disabled":false,"rental_uris":{"android":"levelo://app?vid=b3e63496-ef57-4fe7-9649-3ee98b2a4e91","ios":"levelo://app?vid=b3e63496-ef57-4fe7-9649-3ee98b2a4e91"},"vehicle_type_id":"4","last_reported":1698426262,"current_range_meters":12800,"station_id":"","pricing_plan_id":"free"},{"bike_id":"015deeab-55de-4663-930b-74a14d4a9598","system_id":"levelo_inurba_marseille","lat":43.297163,"lon":5.365866,"is_reserved":false,"is_disabled":false,"rental_uris":{"android":"levelo://app?vid=015deeab-55de-4663-930b-74a14d4a9598","ios":"levelo://app?vid=015deeab-55de-4663-930b-74a14d4a9598"},"vehicle_type_id":"4","last_reported":1698426262,"current_range_meters":23200,"station_id":"ce4bgn12rcd13ifvqbt0","pricing_plan_id":"free"},{"bike_id":"ba8aeec8-31f7-4e4c-8f0c-402f985a78fc","system_id":"levelo_inurba_marseille","lat":43.297163,"lon":5.365866,"is_reserved":false,"is_disabled":false,"rental_uris":{"android":"levelo://app?vid=ba8aeec8-31f7-4e4c-8f0c-402f985a78fc","ios":"levelo://app?vid=ba8aeec8-31f7-4e4c-8f0c-402f985a78fc"},"vehicle_type_id":"4","last_reported":1698426262,"current_range_meters":22800,"station_id":"ce4bgn12rcd13ifvqbt0","pricing_plan_id":"free"},{"bike_id":"9618dd21-4bd2-454a-aab5-d0b74f2001a4","system_id":"levelo_inurba_marseille","lat":43.2968,"lon":5.37291,"is_reserved":false,"is_disabled":false,"rental_uris":{"android":"levelo://app?vid=9618dd21-4bd2-454a-aab5-d0b74f2001a4","ios":"levelo://app?vid=9618dd21-4bd2-454a-aab5-d0b74f2001a4"},"vehicle_type_id":"4","last_reported":1698426262,"current_range_meters":14800,"station_id":"ce4bgk12rcd13ifvqbj0","pricing_plan_id":"free"},{"bike_id":"f3d0381f-7a2d-409e-a12f-bd3d9095653d","system_id":"levelo_inurba_marseille","lat":43.329673,"lon":5.365468,"is_reserved":false,"is_disabled":false,"rental_uris":{"android":"levelo://app?vid=f3d0381f-7a2d-409e-a12f-bd3d9095653d","ios":"levelo://app?vid=f3d0381f-7a2d-409e-a12f-bd3d9095653d"},"vehicle_type_id":"4","last_reported":1698426262,"current_range_meters":8400,"station_id":"","pricing_plan_id":"free"},{"bike_id":"86d22c88-91cc-49f2-bba4-9de186e20241","system_id":"levelo_inurba_marseille","lat":43.296921,"lon":5.376579,"is_reserved":false,"is_disabled":false,"rental_uris":{"android":"levelo://app?vid=86d22c88-91cc-49f2-bba4-9de186e20241","ios":"levelo://app?vid=86d22c88-91cc-49f2-bba4-9de186e20241"},"vehicle_type_id":"4","last_reported":1698426262,"current_range_meters":12000,"station_id":"ce4bgkh2rcd13ifvqbl0","pricing_plan_id":"free"},{"bike_id":"f5d8db61-3091-459f-a1d6-93ef4840b409","system_id":"levelo_inurba_marseille","lat":43.317557,"lon":5.390173,"is_reserved":false,"is_disabled":false,"rental_uris":{"android":"levelo://app?vid=f5d8db61-3091-459f-a1d6-93ef4840b409","ios":"levelo://app?vid=f5d8db61-3091-459f-a1d6-93ef4840b409"},"vehicle_type_id":"4","last_reported":1698426262,"current_range_meters":17600,"station_id":"ce4bhqp2rcd13ifvqhng","pricing_plan_id":"free"},{"bike_id":"e1009b8a-3847-4185-8518-cbef51b2ba30","system_id":"levelo_inurba_marseille","lat":43.304274,"lon":5.388873,"is_reserved":false,"is_disabled":false,"rental_uris":{"android":"levelo://app?vid=e1009b8a-3847-4185-8518-cbef51b2ba30","ios":"levelo://app?vid=e1009b8a-3847-4185-8518-cbef51b2ba30"},"vehicle_type_id":"4","last_reported":1698426262,"current_range_meters":18000,"station_id":"ce4bgk12rcd13ifvqbi0","pricing_plan_id":"free"},{"bike_id":"216e8356-71cc-4fe5-b1ba-23856559a886","system_id":"levelo_inurba_marseille","lat":43.30435,"lon":5.38902,"is_reserved":false,"is_disabled":false,"rental_uris":{"android":"levelo://app?vid=216e8356-71cc-4fe5-b1ba-23856559a886","ios":"levelo://app?vid=216e8356-71cc-4fe5-b1ba-23856559a886"},"vehicle_type_id":"4","last_reported":1698426262,"current_range_meters":0,"station_id":"ce4bgk12rcd13ifvqbi0","pricing_plan_id":"free"},{"bike_id":"c4bd290a-8d51-4bc0-8cc8-c8f71391fd0f","system_id":"levelo_inurba_marseille","lat":43.29785,"lon":5.38119,"is_reserved":false,"is_disabled":false,"rental_uris":{"android":"levelo://app?vid=c4bd290a-8d51-4bc0-8cc8-c8f71391fd0f","ios":"levelo://app?vid=c4bd290a-8d51-4bc0-8cc8-c8f71391fd0f"},"vehicle_type_id":"4","last_reported":1698426262,"current_range_meters":0,"station_id":"ce4bgip2rcd13ifvqbb0","pricing_plan_id":"free"},{"bike_id":"426802d5-f513-4c40-a38c-93280fe8c1f5","system_id":"levelo_inurba_marseille","lat":43.29616,"lon":5.3771,"is_reserved":false,"is_disabled":false,"rental_uris":{"android":"levelo://app?vid=426802d5-f513-4c40-a38c-93280fe8c1f5","ios":"levelo://app?vid=426802d5-f513-4c40-a38c-93280fe8c1f5"},"vehicle_type_id":"4","last_reported":1698426262,"current_range_meters":0,"station_id":"ce4bgi92rcd13ifvqb90","pricing_plan_id":"free"},{"bike_id":"31a5a1f3-5b09-42b0-ae75-43845f9395bc","system_id":"levelo_inurba_marseille","lat":43.296182,"lon":5.377254,"is_reserved":false,"is_disabled":false,"rental_uris":{"android":"levelo://app?vid=31a5a1f3-5b09-42b0-ae75-43845f9395bc","ios":"levelo://app?vid=31a5a1f3-5b09-42b0-ae75-43845f9395bc"},"vehicle_type_id":"4","last_reported":1698426262,"current_range_meters":24400,"station_id":"ce4bhhh2rcd13ifvqfl0","pricing_plan_id":"free"},{"bike_id":"6475d4a9-4c5b-4612-8338-b30f1d86c9be","system_id":"levelo_inurba_marseille","lat":43.299707,"lon":5.384859,"is_reserved":false,"is_disabled":false,"rental_uris":{"android":"levelo://app?vid=6475d4a9-4c5b-4612-8338-b30f1d86c9be","ios":"levelo://app?vid=6475d4a9-4c5b-4612-8338-b30f1d86c9be"},"vehicle_type_id":"4","last_reported":1698426262,"current_range_meters":29200,"station_id":"ce4bgj92rcd13ifvqbd0","pricing_plan_id":"free"},{"bike_id":"23ece899-8b15-47d6-8435-1bfbbd91fc6f","system_id":"levelo_inurba_marseille","lat":43.31412,"lon":5.39275,"is_reserved":false,"is_disabled":false,"rental_uris":{"android":"levelo://app?vid=23ece899-8b15-47d6-8435-1bfbbd91fc6f","ios":"levelo://app?vid=23ece899-8b15-47d6-8435-1bfbbd91fc6f"},"vehicle_type_id":"4","last_reported":1698426262,"current_range_meters":20400,"station_id":"","pricing_plan_id":"free"},{"bike_id":"50ba0a4e-dc52-4b36-bbea-ef74378b458b","system_id":"levelo_inurba_marseille","lat":43.29698,"lon":5.3812,"is_reserved":false,"is_disabled":false,"rental_uris":{"android":"levelo://app?vid=50ba0a4e-dc52-4b36-bbea-ef74378b458b","ios":"levelo://app?vid=50ba0a4e-dc52-4b36-bbea-ef74378b458b"},"vehicle_type_id":"4","last_reported":1698426262,"current_range_meters":0,"station_id":"","pricing_plan_id":"free"},{"bike_id":"dd53f42d-32f3-4d00-b5fd-d6ea44bf49ee","system_id":"levelo_inurba_marseille","lat":43.323702,"lon":5.389175,"is_reserved":false,"is_disabled":false,"rental_uris":{"android":"levelo://app?vid=dd53f42d-32f3-4d00-b5fd-d6ea44bf49ee","ios":"levelo://app?vid=dd53f42d-32f3-4d00-b5fd-d6ea44bf49ee"},"vehicle_type_id":"4","last_reported":1698426262,"current_range_meters":26800,"station_id":"","pricing_plan_id":"free"},{"bike_id":"7e9be232-5943-4f72-992d-e6b45c8c40e7","system_id":"levelo_inurba_marseille","lat":43.293068,"lon":5.371811,"is_reserved":false,"is_disabled":false,"rental_uris":{"android":"levelo://app?vid=7e9be232-5943-4f72-992d-e6b45c8c40e7","ios":"levelo://app?vid=7e9be232-5943-4f72-992d-e6b45c8c40e7"},"vehicle_type_id":"4","last_reported":1698426262,"current_range_meters":11200,"station_id":"","pricing_plan_id":"free"},{"bike_id":"4c8c3c32-9d49-4d09-a3a5-38f704ce3101","system_id":"levelo_inurba_marseille","lat":43.293249,"lon":5.371578,"is_reserved":false,"is_disabled":false,"rental_uris":{"android":"levelo://app?vid=4c8c3c32-9d49-4d09-a3a5-38f704ce3101","ios":"levelo://app?vid=4c8c3c32-9d49-4d09-a3a5-38f704ce3101"},"vehicle_type_id":"4","last_reported":1698426262,"current_range_meters":1600,"station_id":"ce4bgh92rcd13ifvqb40","pricing_plan_id":"free"},{"bike_id":"03afe375-6da1-42d7-b24e-5ae2adf9135a","system_id":"levelo_inurba_marseille","lat":43.29304,"lon":5.3718,"is_reserved":false,"is_disabled":false,"rental_uris":{"android":"levelo://app?vid=03afe375-6da1-42d7-b24e-5ae2adf9135a","ios":"levelo://app?vid=03afe375-6da1-42d7-b24e-5ae2adf9135a"},"vehicle_type_id":"4","last_reported":1698426262,"current_range_meters":23200,"station_id":"ce4bgh92rcd13ifvqb40","pricing_plan_id":"free"},{"bike_id":"3074b3e6-b9b9-454d-9e30-f87ff7c2b0f0","system_id":"levelo_inurba_marseille","lat":43.29304,"lon":5.37185,"is_reserved":false,"is_disabled":false,"rental_uris":{"android":"levelo://app?vid=3074b3e6-b9b9-454d-9e30-f87ff7c2b0f0","ios":"levelo://app?vid=3074b3e6-b9b9-454d-9e30-f87ff7c2b0f0"},"vehicle_type_id":"4","last_reported":1698426262,"current_range_meters":1200,"station_id":"ce4bgh92rcd13ifvqb40","pricing_plan_id":"free"},{"bike_id":"bbab7e28-ee01-4080-b12e-dd8baccd43d0","system_id":"levelo_inurba_marseille","lat":43.32394,"lon":5.389747,"is_reserved":false,"is_disabled":false,"rental_uris":{"android":"levelo://app?vid=bbab7e28-ee01-4080-b12e-dd8baccd43d0","ios":"levelo://app?vid=bbab7e28-ee01-4080-b12e-dd8baccd43d0"},"vehicle_type_id":"4","last_reported":1698426262,"current_range_meters":12400,"station_id":"","pricing_plan_id":"free"},{"bike_id":"a7fea641-1e13-4dfe-99de-5bd9ab386e9b","system_id":"levelo_inurba_marseille","lat":43.29272,"lon":5.36842,"is_reserved":false,"is_disabled":false,"rental_uris":{"android":"levelo://app?vid=a7fea641-1e13-4dfe-99de-5bd9ab386e9b","ios":"levelo://app?vid=a7fea641-1e13-4dfe-99de-5bd9ab386e9b"},"vehicle_type_id":"4","last_reported":1698426262,"current_range_meters":25600,"station_id":"ce4bhbp2rcd13ifvqesg","pricing_plan_id":"free"},{"bike_id":"651ce3e0-1e3e-4357-b926-10e90e81db9e","system_id":"levelo_inurba_marseille","lat":43.292749,"lon":5.368398,"is_reserved":false,"is_disabled":false,"rental_uris":{"android":"levelo://app?vid=651ce3e0-1e3e-4357-b926-10e90e81db9e","ios":"levelo://app?vid=651ce3e0-1e3e-4357-b926-10e90e81db9e"},"vehicle_type_id":"4","last_reported":1698426262,"current_range_meters":0,"station_id":"ce4bhbp2rcd13ifvqesg","pricing_plan_id":"free"},{"bike_id":"d8544237-0ba2-479a-9ff6-48fee2b345e5","system_id":"levelo_inurba_marseille","lat":43.293009,"lon":5.374584,"is_reserved":false,"is_disabled":false,"rental_uris":{"android":"levelo://app?vid=d8544237-0ba2-479a-9ff6-48fee2b345e5","ios":"levelo://app?vid=d8544237-0ba2-479a-9ff6-48fee2b345e5"},"vehicle_type_id":"4","last_reported":1698426262,"current_range_meters":27200,"station_id":"ce4bgi12rcd13ifvqb70","pricing_plan_id":"free"},{"bike_id":"12b0cf44-d2ad-44db-ad50-e9ea064d3cda","system_id":"levelo_inurba_marseille","lat":43.293012,"lon":5.37462,"is_reserved":false,"is_disabled":false,"rental_uris":{"android":"levelo://app?vid=12b0cf44-d2ad-44db-ad50-e9ea064d3cda","ios":"levelo://app?vid=12b0cf44-d2ad-44db-ad50-e9ea064d3cda"},"vehicle_type_id":"4","last_reported":1698426262,"current_range_meters":0,"station_id":"ce4bgi12rcd13ifvqb70","pricing_plan_id":"free"},{"bike_id":"bcb69065-2771-425a-b46f-cc07e4f07f71","system_id":"levelo_inurba_marseille","lat":43.324824,"lon":5.389788,"is_reserved":false,"is_disabled":false,"rental_uris":{"android":"levelo://app?vid=bcb69065-2771-425a-b46f-cc07e4f07f71","ios":"levelo://app?vid=bcb69065-2771-425a-b46f-cc07e4f07f71"},"vehicle_type_id":"4","last_reported":1698426262,"current_range_meters":16400,"station_id":"","pricing_plan_id":"free"},{"bike_id":"df589c34-8649-4b8f-9417-ca74309a95e2","system_id":"levelo_inurba_marseille","lat":43.30589,"lon":5.39363,"is_reserved":false,"is_disabled":false,"rental_uris":{"android":"levelo://app?vid=df589c34-8649-4b8f-9417-ca74309a95e2","ios":"levelo://app?vid=df589c34-8649-4b8f-9417-ca74309a95e2"},"vehicle_type_id":"4","last_reported":1698426262,"current_range_meters":0,"station_id":"ce4bh0p2rcd13ifvqd80","pricing_plan_id":"free"},{"bike_id":"3e687950-82b4-4088-af54-bf06b43252ee","system_id":"levelo_inurba_marseille","lat":43.293009,"lon":5.374584,"is_reserved":false,"is_disabled":false,"rental_uris":{"android":"levelo://app?vid=3e687950-82b4-4088-af54-bf06b43252ee","ios":"levelo://app?vid=3e687950-82b4-4088-af54-bf06b43252ee"},"vehicle_type_id":"4","last_reported":1698426262,"current_range_meters":5600,"station_id":"ce4bgi12rcd13ifvqb70","pricing_plan_id":"free"},{"bike_id":"3d1738be-8142-4f6b-924a-646912d69f99","system_id":"levelo_inurba_marseille","lat":43.29376,"lon":5.37855,"is_reserved":false,"is_disabled":false,"rental_uris":{"android":"levelo://app?vid=3d1738be-8142-4f6b-924a-646912d69f99","ios":"levelo://app?vid=3d1738be-8142-4f6b-924a-646912d69f99"},"vehicle_type_id":"4","last_reported":1698426262,"current_range_meters":0,"station_id":"ce4bgjh2rcd13ifvqbf0","pricing_plan_id":"free"},{"bike_id":"5c0dea52-aa9c-413e-838d-70cd2481a1ed","system_id":"levelo_inurba_marseille","lat":43.303002,"lon":5.392142,"is_reserved":false,"is_disabled":false,"rental_uris":{"android":"levelo://app?vid=5c0dea52-aa9c-413e-838d-70cd2481a1ed","ios":"levelo://app?vid=5c0dea52-aa9c-413e-838d-70cd2481a1ed"},"vehicle_type_id":"4","last_reported":1698426262,"current_range_meters":26000,"station_id":"ce4bgkh2rcd13ifvqbk0","pricing_plan_id":"free"},{"bike_id":"cfa0acc8-260a-4912-898e-fa532249fcf0","system_id":"levelo_inurba_marseille","lat":43.302957,"lon":5.392223,"is_reserved":false,"is_disabled":false,"rental_uris":{"android":"levelo://app?vid=cfa0acc8-260a-4912-898e-fa532249fcf0","ios":"levelo://app?vid=cfa0acc8-260a-4912-898e-fa532249fcf0"},"vehicle_type_id":"4","last_reported":1698426262,"current_range_meters":18800,"station_id":"ce4bgkh2rcd13ifvqbk0","pricing_plan_id":"free"},{"bike_id":"49e2fb52-7712-4209-83d6-74a05c6e32d8","system_id":"levelo_inurba_marseille","lat":43.29218,"lon":5.361765,"is_reserved":false,"is_disabled":false,"rental_uris":{"android":"levelo://app?vid=49e2fb52-7712-4209-83d6-74a05c6e32d8","ios":"levelo://app?vid=49e2fb52-7712-4209-83d6-74a05c6e32d8"},"vehicle_type_id":"4","last_reported":1698426262,"current_range_meters":30800,"station_id":"ce4bhbh2rcd13ifvqeqg","pricing_plan_id":"free"},{"bike_id":"3f870126-20e4-4d01-b825-3ca4d9b6a266","system_id":"levelo_inurba_marseille","lat":43.292311,"lon":5.360731,"is_reserved":false,"is_disabled":false,"rental_uris":{"android":"levelo://app?vid=3f870126-20e4-4d01-b825-3ca4d9b6a266","ios":"levelo://app?vid=3f870126-20e4-4d01-b825-3ca4d9b6a266"},"vehicle_type_id":"4","last_reported":1698426262,"current_range_meters":10400,"station_id":"ce4bhbh2rcd13ifvqeqg","pricing_plan_id":"free"},{"bike_id":"de469597-d045-4e7e-8bc4-715bed348780","system_id":"levelo_inurba_marseille","lat":43.292311,"lon":5.360731,"is_reserved":false,"is_disabled":false,"rental_uris":{"android":"levelo://app?vid=de469597-d045-4e7e-8bc4-715bed348780","ios":"levelo://app?vid=de469597-d045-4e7e-8bc4-715bed348780"},"vehicle_type_id":"4","last_reported":1698426262,"current_range_meters":20800,"station_id":"ce4bhbh2rcd13ifvqeqg","pricing_plan_id":"free"},{"bike_id":"0e8726a9-2a98-40ff-adbf-d4ed4ad21a79","system_id":"levelo_inurba_marseille","lat":43.29227,"lon":5.36061,"is_reserved":false,"is_disabled":false,"rental_uris":{"android":"levelo://app?vid=0e8726a9-2a98-40ff-adbf-d4ed4ad21a79","ios":"levelo://app?vid=0e8726a9-2a98-40ff-adbf-d4ed4ad21a79"},"vehicle_type_id":"4","last_reported":1698426262,"current_range_meters":8000,"station_id":"ce4bhbh2rcd13ifvqeqg","pricing_plan_id":"free"},{"bike_id":"ff940495-4e95-4c96-b290-6ce63f9dc3cf","system_id":"levelo_inurba_marseille","lat":43.292311,"lon":5.360731,"is_reserved":false,"is_disabled":false,"rental_uris":{"android":"levelo://app?vid=ff940495-4e95-4c96-b290-6ce63f9dc3cf","ios":"levelo://app?vid=ff940495-4e95-4c96-b290-6ce63f9dc3cf"},"vehicle_type_id":"4","last_reported":1698426262,"current_range_meters":30400,"station_id":"ce4bhbh2rcd13ifvqeqg","pricing_plan_id":"free"},{"bike_id":"675f70bd-09fe-4500-b8df-3cf2343e66d6","system_id":"levelo_inurba_marseille","lat":43.30085,"lon":5.390856,"is_reserved":false,"is_disabled":false,"rental_uris":{"android":"levelo://app?vid=675f70bd-09fe-4500-b8df-3cf2343e66d6","ios":"levelo://app?vid=675f70bd-09fe-4500-b8df-3cf2343e66d6"},"vehicle_type_id":"4","last_reported":1698426262,"current_range_meters":30000,"station_id":"ce4bh192rcd13ifvqdb0","pricing_plan_id":"free"},{"bike_id":"5565c98c-b81a-47da-8c09-6687aaf8f323","system_id":"levelo_inurba_marseille","lat":43.292311,"lon":5.360731,"is_reserved":false,"is_disabled":false,"rental_uris":{"android":"levelo://app?vid=5565c98c-b81a-47da-8c09-6687aaf8f323","ios":"levelo://app?vid=5565c98c-b81a-47da-8c09-6687aaf8f323"},"vehicle_type_id":"4","last_reported":1698426262,"current_range_meters":0,"station_id":"ce4bhbh2rcd13ifvqeqg","pricing_plan_id":"free"},{"bike_id":"c4692940-8018-40a1-a4be-4194cbdd39d3","system_id":"levelo_inurba_marseille","lat":43.29886,"lon":5.38901,"is_reserved":false,"is_disabled":false,"rental_uris":{"android":"levelo://app?vid=c4692940-8018-40a1-a4be-4194cbdd39d3","ios":"levelo://app?vid=c4692940-8018-40a1-a4be-4194cbdd39d3"},"vehicle_type_id":"4","last_reported":1698426262,"current_range_meters":28000,"station_id":"ce4bh392rcd13ifvqdl0","pricing_plan_id":"free"},{"bike_id":"c4d2fcee-0567-408b-b2fc-72b3f090a1c1","system_id":"levelo_inurba_marseille","lat":43.29885,"lon":5.389,"is_reserved":false,"is_disabled":false,"rental_uris":{"android":"levelo://app?vid=c4d2fcee-0567-408b-b2fc-72b3f090a1c1","ios":"levelo://app?vid=c4d2fcee-0567-408b-b2fc-72b3f090a1c1"},"vehicle_type_id":"4","last_reported":1698426262,"current_range_meters":15600,"station_id":"ce4bh392rcd13ifvqdl0","pricing_plan_id":"free"},{"bike_id":"779c9109-d21f-44c6-ac09-f51173344612","system_id":"levelo_inurba_marseille","lat":43.291675,"lon":5.371583,"is_reserved":false,"is_disabled":false,"rental_uris":{"android":"levelo://app?vid=779c9109-d21f-44c6-ac09-f51173344612","ios":"levelo://app?vid=779c9109-d21f-44c6-ac09-f51173344612"},"vehicle_type_id":"4","last_reported":1698426262,"current_range_meters":21200,"station_id":"ce4bha92rcd13ifvqeh0","pricing_plan_id":"free"},{"bike_id":"912a7b71-4b69-4e4d-9f3d-5aa0717fadc1","system_id":"levelo_inurba_marseille","lat":43.29867,"lon":5.38905,"is_reserved":false,"is_disabled":false,"rental_uris":{"android":"levelo://app?vid=912a7b71-4b69-4e4d-9f3d-5aa0717fadc1","ios":"levelo://app?vid=912a7b71-4b69-4e4d-9f3d-5aa0717fadc1"},"vehicle_type_id":"4","last_reported":1698426262,"current_range_meters":17600,"station_id":"ce4bh392rcd13ifvqdl0","pricing_plan_id":"free"},{"bike_id":"9395d638-bc74-4456-acd2-e7abce3e2203","system_id":"levelo_inurba_marseille","lat":43.291994,"lon":5.357886,"is_reserved":false,"is_disabled":false,"rental_uris":{"android":"levelo://app?vid=9395d638-bc74-4456-acd2-e7abce3e2203","ios":"levelo://app?vid=9395d638-bc74-4456-acd2-e7abce3e2203"},"vehicle_type_id":"4","last_reported":1698426262,"current_range_meters":31200,"station_id":"ce4bhb12rcd13ifvqel0","pricing_plan_id":"free"},{"bike_id":"4f843f0c-50e5-400c-ab5e-83fcbbd25ea2","system_id":"levelo_inurba_marseille","lat":43.29193,"lon":5.358005,"is_reserved":false,"is_disabled":false,"rental_uris":{"android":"levelo://app?vid=4f843f0c-50e5-400c-ab5e-83fcbbd25ea2","ios":"levelo://app?vid=4f843f0c-50e5-400c-ab5e-83fcbbd25ea2"},"vehicle_type_id":"4","last_reported":1698426262,"current_range_meters":31200,"station_id":"ce4bhb12rcd13ifvqel0","pricing_plan_id":"free"},{"bike_id":"ca3ea02c-cdb3-49a9-8dc5-c8df9ba5680f","system_id":"levelo_inurba_marseille","lat":43.291994,"lon":5.357886,"is_reserved":false,"is_disabled":false,"rental_uris":{"android":"levelo://app?vid=ca3ea02c-cdb3-49a9-8dc5-c8df9ba5680f","ios":"levelo://app?vid=ca3ea02c-cdb3-49a9-8dc5-c8df9ba5680f"},"vehicle_type_id":"4","last_reported":1698426262,"current_range_meters":12000,"station_id":"ce4bhb12rcd13ifvqel0","pricing_plan_id":"free"},{"bike_id":"5a758270-0e82-40a2-ac00-2cb2f6a03db9","system_id":"levelo_inurba_marseille","lat":43.309047,"lon":5.396551,"is_reserved":false,"is_disabled":false,"rental_uris":{"android":"levelo://app?vid=5a758270-0e82-40a2-ac00-2cb2f6a03db9","ios":"levelo://app?vid=5a758270-0e82-40a2-ac00-2cb2f6a03db9"},"vehicle_type_id":"4","last_reported":1698426262,"current_range_meters":6000,"station_id":"ce4bh012rcd13ifvqcv0","pricing_plan_id":"free"},{"bike_id":"3dc17a7c-9fe1-46dd-83bc-0d75c3e47e62","system_id":"levelo_inurba_marseille","lat":43.309047,"lon":5.396551,"is_reserved":false,"is_disabled":false,"rental_uris":{"android":"levelo://app?vid=3dc17a7c-9fe1-46dd-83bc-0d75c3e47e62","ios":"levelo://app?vid=3dc17a7c-9fe1-46dd-83bc-0d75c3e47e62"},"vehicle_type_id":"4","last_reported":1698426262,"current_range_meters":29200,"station_id":"ce4bh012rcd13ifvqcv0","pricing_plan_id":"free"},{"bike_id":"732893ac-0054-4c00-bcf6-d22f22833485","system_id":"levelo_inurba_marseille","lat":43.309038,"lon":5.396546,"is_reserved":false,"is_disabled":false,"rental_uris":{"android":"levelo://app?vid=732893ac-0054-4c00-bcf6-d22f22833485","ios":"levelo://app?vid=732893ac-0054-4c00-bcf6-d22f22833485"},"vehicle_type_id":"4","last_reported":1698426262,"current_range_meters":4800,"station_id":"ce4bh012rcd13ifvqcv0","pricing_plan_id":"free"},{"bike_id":"1bd34b98-e70f-4f31-a95c-ffa05d689ed2","system_id":"levelo_inurba_marseille","lat":43.309038,"lon":5.396546,"is_reserved":false,"is_disabled":false,"rental_uris":{"android":"levelo://app?vid=1bd34b98-e70f-4f31-a95c-ffa05d689ed2","ios":"levelo://app?vid=1bd34b98-e70f-4f31-a95c-ffa05d689ed2"},"vehicle_type_id":"4","last_reported":1698426262,"current_range_meters":7200,"station_id":"ce4bh012rcd13ifvqcv0","pricing_plan_id":"free"},{"bike_id":"747bfe30-6fe4-45f3-ba8f-09335b281d37","system_id":"levelo_inurba_marseille","lat":43.309038,"lon":5.396546,"is_reserved":false,"is_disabled":false,"rental_uris":{"android":"levelo://app?vid=747bfe30-6fe4-45f3-ba8f-09335b281d37","ios":"levelo://app?vid=747bfe30-6fe4-45f3-ba8f-09335b281d37"},"vehicle_type_id":"4","last_reported":1698426262,"current_range_meters":15600,"station_id":"ce4bh012rcd13ifvqcv0","pricing_plan_id":"free"},{"bike_id":"c1ee4f88-9c60-4af0-b422-816416b340b6","system_id":"levelo_inurba_marseille","lat":43.29528,"lon":5.38551,"is_reserved":false,"is_disabled":false,"rental_uris":{"android":"levelo://app?vid=c1ee4f88-9c60-4af0-b422-816416b340b6","ios":"levelo://app?vid=c1ee4f88-9c60-4af0-b422-816416b340b6"},"vehicle_type_id":"4","last_reported":1698426262,"current_range_meters":0,"station_id":"ce4bgih2rcd13ifvqba0","pricing_plan_id":"free"},{"bike_id":"126d4670-e812-40c6-9f2a-535ee2ec9a6b","system_id":"levelo_inurba_marseille","lat":43.33219,"lon":5.38149,"is_reserved":false,"is_disabled":false,"rental_uris":{"android":"levelo://app?vid=126d4670-e812-40c6-9f2a-535ee2ec9a6b","ios":"levelo://app?vid=126d4670-e812-40c6-9f2a-535ee2ec9a6b"},"vehicle_type_id":"4","last_reported":1698426262,"current_range_meters":0,"station_id":"","pricing_plan_id":"free"},{"bike_id":"e4f5a21a-eee1-42ec-8caf-bd268f8a3c80","system_id":"levelo_inurba_marseille","lat":43.290779,"lon":5.371482,"is_reserved":false,"is_disabled":false,"rental_uris":{"android":"levelo://app?vid=e4f5a21a-eee1-42ec-8caf-bd268f8a3c80","ios":"levelo://app?vid=e4f5a21a-eee1-42ec-8caf-bd268f8a3c80"},"vehicle_type_id":"4","last_reported":1698426262,"current_range_meters":29600,"station_id":"ce4bh5p2rcd13ifvqe4g","pricing_plan_id":"free"},{"bike_id":"fbd3ea67-eb88-433c-9ff8-17d8f002ebc6","system_id":"levelo_inurba_marseille","lat":43.290779,"lon":5.371482,"is_reserved":false,"is_disabled":false,"rental_uris":{"android":"levelo://app?vid=fbd3ea67-eb88-433c-9ff8-17d8f002ebc6","ios":"levelo://app?vid=fbd3ea67-eb88-433c-9ff8-17d8f002ebc6"},"vehicle_type_id":"4","last_reported":1698426262,"current_range_meters":27600,"station_id":"ce4bh5p2rcd13ifvqe4g","pricing_plan_id":"free"},{"bike_id":"d445e7dc-8f39-4198-8d15-1838ad42556e","system_id":"levelo_inurba_marseille","lat":43.302071,"lon":5.39461,"is_reserved":false,"is_disabled":false,"rental_uris":{"android":"levelo://app?vid=d445e7dc-8f39-4198-8d15-1838ad42556e","ios":"levelo://app?vid=d445e7dc-8f39-4198-8d15-1838ad42556e"},"vehicle_type_id":"4","last_reported":1698426262,"current_range_meters":20400,"station_id":"ce4bh0p2rcd13ifvqd70","pricing_plan_id":"free"},{"bike_id":"3ba9337c-3a4c-4b79-bb22-9c08f678ee27","system_id":"levelo_inurba_marseille","lat":43.3339,"lon":5.37907,"is_reserved":false,"is_disabled":false,"rental_uris":{"android":"levelo://app?vid=3ba9337c-3a4c-4b79-bb22-9c08f678ee27","ios":"levelo://app?vid=3ba9337c-3a4c-4b79-bb22-9c08f678ee27"},"vehicle_type_id":"4","last_reported":1698426262,"current_range_meters":18000,"station_id":"","pricing_plan_id":"free"},{"bike_id":"06aed820-a82f-4b72-8104-1d3495a827ff","system_id":"levelo_inurba_marseille","lat":43.290631,"lon":5.359244,"is_reserved":false,"is_disabled":false,"rental_uris":{"android":"levelo://app?vid=06aed820-a82f-4b72-8104-1d3495a827ff","ios":"levelo://app?vid=06aed820-a82f-4b72-8104-1d3495a827ff"},"vehicle_type_id":"4","last_reported":1698426262,"current_range_meters":26800,"station_id":"ce4bha92rcd13ifvqeg0","pricing_plan_id":"free"},{"bike_id":"53f5ec2f-96da-4b35-b134-9ab566ed3a69","system_id":"levelo_inurba_marseille","lat":43.29418,"lon":5.386304,"is_reserved":false,"is_disabled":false,"rental_uris":{"android":"levelo://app?vid=53f5ec2f-96da-4b35-b134-9ab566ed3a69","ios":"levelo://app?vid=53f5ec2f-96da-4b35-b134-9ab566ed3a69"},"vehicle_type_id":"4","last_reported":1698426262,"current_range_meters":0,"station_id":"ce4bh2h2rcd13ifvqdh0","pricing_plan_id":"free"},{"bike_id":"41a8d9e3-4047-44dc-8980-55f4a0cfbd0b","system_id":"levelo_inurba_marseille","lat":43.294162,"lon":5.386292,"is_reserved":false,"is_disabled":false,"rental_uris":{"android":"levelo://app?vid=41a8d9e3-4047-44dc-8980-55f4a0cfbd0b","ios":"levelo://app?vid=41a8d9e3-4047-44dc-8980-55f4a0cfbd0b"},"vehicle_type_id":"4","last_reported":1698426262,"current_range_meters":2000,"station_id":"ce4bh2h2rcd13ifvqdh0","pricing_plan_id":"free"},{"bike_id":"4540dae1-e168-46a1-836f-60a5e0a8514c","system_id":"levelo_inurba_marseille","lat":43.289468,"lon":5.363719,"is_reserved":false,"is_disabled":false,"rental_uris":{"android":"levelo://app?vid=4540dae1-e168-46a1-836f-60a5e0a8514c","ios":"levelo://app?vid=4540dae1-e168-46a1-836f-60a5e0a8514c"},"vehicle_type_id":"4","last_reported":1698426262,"current_range_meters":2000,"station_id":"ce4bhc92rcd13ifvqetg","pricing_plan_id":"free"},{"bike_id":"8f2f0fe0-f05e-461b-891f-4d9ff103040d","system_id":"levelo_inurba_marseille","lat":43.289184,"lon":5.366408,"is_reserved":false,"is_disabled":false,"rental_uris":{"android":"levelo://app?vid=8f2f0fe0-f05e-461b-891f-4d9ff103040d","ios":"levelo://app?vid=8f2f0fe0-f05e-461b-891f-4d9ff103040d"},"vehicle_type_id":"4","last_reported":1698426262,"current_range_meters":6400,"station_id":"ce4bhap2rcd13ifvqek0","pricing_plan_id":"free"},{"bike_id":"0ab2c9fa-d319-4f2b-b957-2a890089c452","system_id":"levelo_inurba_marseille","lat":43.28933,"lon":5.36638,"is_reserved":false,"is_disabled":false,"rental_uris":{"android":"levelo://app?vid=0ab2c9fa-d319-4f2b-b957-2a890089c452","ios":"levelo://app?vid=0ab2c9fa-d319-4f2b-b957-2a890089c452"},"vehicle_type_id":"4","last_reported":1698426262,"current_range_meters":2400,"station_id":"ce4bhap2rcd13ifvqek0","pricing_plan_id":"free"},{"bike_id":"6d41866f-3802-4e12-b5b2-d72551c29c43","system_id":"levelo_inurba_marseille","lat":43.28931,"lon":5.363878,"is_reserved":false,"is_disabled":false,"rental_uris":{"android":"levelo://app?vid=6d41866f-3802-4e12-b5b2-d72551c29c43","ios":"levelo://app?vid=6d41866f-3802-4e12-b5b2-d72551c29c43"},"vehicle_type_id":"4","last_reported":1698426262,"current_range_meters":25600,"station_id":"ce4bhc92rcd13ifvqetg","pricing_plan_id":"free"},{"bike_id":"ce138283-f05b-4607-8334-b99069e7b96e","system_id":"levelo_inurba_marseille","lat":43.292642,"lon":5.384254,"is_reserved":false,"is_disabled":false,"rental_uris":{"android":"levelo://app?vid=ce138283-f05b-4607-8334-b99069e7b96e","ios":"levelo://app?vid=ce138283-f05b-4607-8334-b99069e7b96e"},"vehicle_type_id":"4","last_reported":1698426262,"current_range_meters":400,"station_id":"ce4bh692rcd13ifvqea0","pricing_plan_id":"free"},{"bike_id":"8df40672-5735-40a8-9341-659e7b08e577","system_id":"levelo_inurba_marseille","lat":43.290052,"lon":5.356163,"is_reserved":false,"is_disabled":false,"rental_uris":{"android":"levelo://app?vid=8df40672-5735-40a8-9341-659e7b08e577","ios":"levelo://app?vid=8df40672-5735-40a8-9341-659e7b08e577"},"vehicle_type_id":"4","last_reported":1698426262,"current_range_meters":31200,"station_id":"ce4bhb92rcd13ifvqen0","pricing_plan_id":"free"},{"bike_id":"10744d58-ed58-4c7d-966d-34131621a7cb","system_id":"levelo_inurba_marseille","lat":43.290103,"lon":5.356114,"is_reserved":false,"is_disabled":false,"rental_uris":{"android":"levelo://app?vid=10744d58-ed58-4c7d-966d-34131621a7cb","ios":"levelo://app?vid=10744d58-ed58-4c7d-966d-34131621a7cb"},"vehicle_type_id":"4","last_reported":1698426262,"current_range_meters":10000,"station_id":"ce4bhb92rcd13ifvqen0","pricing_plan_id":"free"},{"bike_id":"0a407356-668e-4a39-9582-7897c26a4499","system_id":"levelo_inurba_marseille","lat":43.290104,"lon":5.356111,"is_reserved":false,"is_disabled":false,"rental_uris":{"android":"levelo://app?vid=0a407356-668e-4a39-9582-7897c26a4499","ios":"levelo://app?vid=0a407356-668e-4a39-9582-7897c26a4499"},"vehicle_type_id":"4","last_reported":1698426262,"current_range_meters":13600,"station_id":"ce4bhb92rcd13ifvqen0","pricing_plan_id":"free"},{"bike_id":"ca92e9ff-55cd-4146-b273-1aaabcce6600","system_id":"levelo_inurba_marseille","lat":43.289743,"lon":5.378304,"is_reserved":false,"is_disabled":false,"rental_uris":{"android":"levelo://app?vid=ca92e9ff-55cd-4146-b273-1aaabcce6600","ios":"levelo://app?vid=ca92e9ff-55cd-4146-b273-1aaabcce6600"},"vehicle_type_id":"4","last_reported":1698426262,"current_range_meters":28800,"station_id":"ce4bh9p2rcd13ifvqed0","pricing_plan_id":"free"},{"bike_id":"c69e57a0-67f7-4b31-b143-1f8ab17f66e1","system_id":"levelo_inurba_marseille","lat":43.29785,"lon":5.39336,"is_reserved":false,"is_disabled":false,"rental_uris":{"android":"levelo://app?vid=c69e57a0-67f7-4b31-b143-1f8ab17f66e1","ios":"levelo://app?vid=c69e57a0-67f7-4b31-b143-1f8ab17f66e1"},"vehicle_type_id":"4","last_reported":1698426262,"current_range_meters":0,"station_id":"chh1huq6cuj3fo74tm60","pricing_plan_id":"free"},{"bike_id":"1678ae78-a0a0-4664-86d7-74e7aed75624","system_id":"levelo_inurba_marseille","lat":43.295194,"lon":5.390391,"is_reserved":false,"is_disabled":false,"rental_uris":{"android":"levelo://app?vid=1678ae78-a0a0-4664-86d7-74e7aed75624","ios":"levelo://app?vid=1678ae78-a0a0-4664-86d7-74e7aed75624"},"vehicle_type_id":"4","last_reported":1698426262,"current_range_meters":0,"station_id":"ce4bh3p2rcd13ifvqdp0","pricing_plan_id":"free"},{"bike_id":"3e82c494-f75b-42cd-b5f5-b875904cda54","system_id":"levelo_inurba_marseille","lat":43.290094,"lon":5.381264,"is_reserved":false,"is_disabled":false,"rental_uris":{"android":"levelo://app?vid=3e82c494-f75b-42cd-b5f5-b875904cda54","ios":"levelo://app?vid=3e82c494-f75b-42cd-b5f5-b875904cda54"},"vehicle_type_id":"4","last_reported":1698426262,"current_range_meters":0,"station_id":"ce4bh4p2rcd13ifvqe1g","pricing_plan_id":"free"},{"bike_id":"610a8790-a335-481b-b65c-791b9937d68b","system_id":"levelo_inurba_marseille","lat":43.288515,"lon":5.358439,"is_reserved":false,"is_disabled":false,"rental_uris":{"android":"levelo://app?vid=610a8790-a335-481b-b65c-791b9937d68b","ios":"levelo://app?vid=610a8790-a335-481b-b65c-791b9937d68b"},"vehicle_type_id":"4","last_reported":1698426262,"current_range_meters":30800,"station_id":"ce4bhb12rcd13ifvqem0","pricing_plan_id":"free"},{"bike_id":"268f5789-dc9d-4936-b986-118a96f603d3","system_id":"levelo_inurba_marseille","lat":43.309396,"lon":5.401411,"is_reserved":false,"is_disabled":false,"rental_uris":{"android":"levelo://app?vid=268f5789-dc9d-4936-b986-118a96f603d3","ios":"levelo://app?vid=268f5789-dc9d-4936-b986-118a96f603d3"},"vehicle_type_id":"4","last_reported":1698426262,"current_range_meters":16000,"station_id":"","pricing_plan_id":"free"},{"bike_id":"69939921-e616-4ed0-9ae7-a6990e4de72f","system_id":"levelo_inurba_marseille","lat":43.312609,"lon":5.401662,"is_reserved":false,"is_disabled":false,"rental_uris":{"android":"levelo://app?vid=69939921-e616-4ed0-9ae7-a6990e4de72f","ios":"levelo://app?vid=69939921-e616-4ed0-9ae7-a6990e4de72f"},"vehicle_type_id":"4","last_reported":1698426262,"current_range_meters":6800,"station_id":"ce4bh092rcd13ifvqd30","pricing_plan_id":"free"},{"bike_id":"b8f17436-859b-4ccf-8451-8e18ebe8f55c","system_id":"levelo_inurba_marseille","lat":43.33752,"lon":5.37452,"is_reserved":false,"is_disabled":false,"rental_uris":{"android":"levelo://app?vid=b8f17436-859b-4ccf-8451-8e18ebe8f55c","ios":"levelo://app?vid=b8f17436-859b-4ccf-8451-8e18ebe8f55c"},"vehicle_type_id":"4","last_reported":1698426262,"current_range_meters":10800,"station_id":"","pricing_plan_id":"free"},{"bike_id":"eab2a8c0-cb07-4446-afcc-5e3c523db345","system_id":"levelo_inurba_marseille","lat":43.301117,"lon":5.398795,"is_reserved":false,"is_disabled":false,"rental_uris":{"android":"levelo://app?vid=eab2a8c0-cb07-4446-afcc-5e3c523db345","ios":"levelo://app?vid=eab2a8c0-cb07-4446-afcc-5e3c523db345"},"vehicle_type_id":"4","last_reported":1698426262,"current_range_meters":16800,"station_id":"ce4bh0h2rcd13ifvqd40","pricing_plan_id":"free"},{"bike_id":"3e070d68-1c62-41a9-961b-8cd000875b0a","system_id":"levelo_inurba_marseille","lat":43.301312,"lon":5.398562,"is_reserved":false,"is_disabled":false,"rental_uris":{"android":"levelo://app?vid=3e070d68-1c62-41a9-961b-8cd000875b0a","ios":"levelo://app?vid=3e070d68-1c62-41a9-961b-8cd000875b0a"},"vehicle_type_id":"4","last_reported":1698426262,"current_range_meters":16000,"station_id":"ce4bh0h2rcd13ifvqd40","pricing_plan_id":"free"},{"bike_id":"5ebcf434-7d20-423e-b668-fa22108db78a","system_id":"levelo_inurba_marseille","lat":43.301117,"lon":5.398795,"is_reserved":false,"is_disabled":false,"rental_uris":{"android":"levelo://app?vid=5ebcf434-7d20-423e-b668-fa22108db78a","ios":"levelo://app?vid=5ebcf434-7d20-423e-b668-fa22108db78a"},"vehicle_type_id":"4","last_reported":1698426262,"current_range_meters":29600,"station_id":"ce4bh0h2rcd13ifvqd40","pricing_plan_id":"free"},{"bike_id":"bdbc3db6-263e-4c49-b9dc-6016ba7b7c03","system_id":"levelo_inurba_marseille","lat":43.28727,"lon":5.36078,"is_reserved":false,"is_disabled":false,"rental_uris":{"android":"levelo://app?vid=bdbc3db6-263e-4c49-b9dc-6016ba7b7c03","ios":"levelo://app?vid=bdbc3db6-263e-4c49-b9dc-6016ba7b7c03"},"vehicle_type_id":"4","last_reported":1698426262,"current_range_meters":27200,"station_id":"cki0cbj6b192h4jlfktg","pricing_plan_id":"free"},{"bike_id":"3d2c473f-bd38-4f50-adf3-835fa59c81c0","system_id":"levelo_inurba_marseille","lat":43.286591,"lon":5.363346,"is_reserved":false,"is_disabled":false,"rental_uris":{"android":"levelo://app?vid=3d2c473f-bd38-4f50-adf3-835fa59c81c0","ios":"levelo://app?vid=3d2c473f-bd38-4f50-adf3-835fa59c81c0"},"vehicle_type_id":"4","last_reported":1698426262,"current_range_meters":400,"station_id":"ce4bhah2rcd13ifvqej0","pricing_plan_id":"free"},{"bike_id":"9f05d3d2-9ba5-465b-b5b2-e4fe78bdafb1","system_id":"levelo_inurba_marseille","lat":43.286591,"lon":5.363346,"is_reserved":false,"is_disabled":false,"rental_uris":{"android":"levelo://app?vid=9f05d3d2-9ba5-465b-b5b2-e4fe78bdafb1","ios":"levelo://app?vid=9f05d3d2-9ba5-465b-b5b2-e4fe78bdafb1"},"vehicle_type_id":"4","last_reported":1698426262,"current_range_meters":25200,"station_id":"ce4bhah2rcd13ifvqej0","pricing_plan_id":"free"},{"bike_id":"b0312a81-96e9-48ee-aa94-e80017334783","system_id":"levelo_inurba_marseille","lat":43.287016,"lon":5.373796,"is_reserved":false,"is_disabled":false,"rental_uris":{"android":"levelo://app?vid=b0312a81-96e9-48ee-aa94-e80017334783","ios":"levelo://app?vid=b0312a81-96e9-48ee-aa94-e80017334783"},"vehicle_type_id":"4","last_reported":1698426262,"current_range_meters":6000,"station_id":"ce4bh3p2rcd13ifvqdq0","pricing_plan_id":"free"},{"bike_id":"de5131f7-c688-4955-84cb-2b3a5a3e0faf","system_id":"levelo_inurba_marseille","lat":43.284217,"lon":5.349697,"is_reserved":false,"is_disabled":false,"rental_uris":{"android":"levelo://app?vid=de5131f7-c688-4955-84cb-2b3a5a3e0faf","ios":"levelo://app?vid=de5131f7-c688-4955-84cb-2b3a5a3e0faf"},"vehicle_type_id":"4","last_reported":1698426262,"current_range_meters":19200,"station_id":"ce4bhbh2rcd13ifvqepg","pricing_plan_id":"free"},{"bike_id":"c9e4766e-b3c2-4d93-96fc-efa9cba93094","system_id":"levelo_inurba_marseille","lat":43.298681,"lon":5.397225,"is_reserved":false,"is_disabled":false,"rental_uris":{"android":"levelo://app?vid=c9e4766e-b3c2-4d93-96fc-efa9cba93094","ios":"levelo://app?vid=c9e4766e-b3c2-4d93-96fc-efa9cba93094"},"vehicle_type_id":"4","last_reported":1698426262,"current_range_meters":1200,"station_id":"ce4bh0h2rcd13ifvqd50","pricing_plan_id":"free"},{"bike_id":"628969ca-605d-4566-b307-87c7e7b98b2a","system_id":"levelo_inurba_marseille","lat":43.295196,"lon":5.39397,"is_reserved":false,"is_disabled":false,"rental_uris":{"android":"levelo://app?vid=628969ca-605d-4566-b307-87c7e7b98b2a","ios":"levelo://app?vid=628969ca-605d-4566-b307-87c7e7b98b2a"},"vehicle_type_id":"4","last_reported":1698426262,"current_range_meters":16800,"station_id":"ce4bh292rcd13ifvqdf0","pricing_plan_id":"free"},{"bike_id":"0decef2f-b0a3-4ecb-bb5d-a1139c0c37ff","system_id":"levelo_inurba_marseille","lat":43.2903,"lon":5.38642,"is_reserved":false,"is_disabled":false,"rental_uris":{"android":"levelo://app?vid=0decef2f-b0a3-4ecb-bb5d-a1139c0c37ff","ios":"levelo://app?vid=0decef2f-b0a3-4ecb-bb5d-a1139c0c37ff"},"vehicle_type_id":"4","last_reported":1698426262,"current_range_meters":25200,"station_id":"ce4bh4p2rcd13ifvqe0g","pricing_plan_id":"free"},{"bike_id":"1c2bdc34-b7a1-4006-b75c-3ab22dc020bf","system_id":"levelo_inurba_marseille","lat":43.29027,"lon":5.38649,"is_reserved":false,"is_disabled":false,"rental_uris":{"android":"levelo://app?vid=1c2bdc34-b7a1-4006-b75c-3ab22dc020bf","ios":"levelo://app?vid=1c2bdc34-b7a1-4006-b75c-3ab22dc020bf"},"vehicle_type_id":"4","last_reported":1698426262,"current_range_meters":19600,"station_id":"ce4bh4p2rcd13ifvqe0g","pricing_plan_id":"free"},{"bike_id":"bad93e06-9a23-4355-afba-372d2593101a","system_id":"levelo_inurba_marseille","lat":43.302759,"lon":5.400793,"is_reserved":false,"is_disabled":false,"rental_uris":{"android":"levelo://app?vid=bad93e06-9a23-4355-afba-372d2593101a","ios":"levelo://app?vid=bad93e06-9a23-4355-afba-372d2593101a"},"vehicle_type_id":"4","last_reported":1698426262,"current_range_meters":28000,"station_id":"ce4bgvh2rcd13ifvqcs0","pricing_plan_id":"free"},{"bike_id":"c4991c54-c7db-4cff-9fc5-f9220f077854","system_id":"levelo_inurba_marseille","lat":43.302759,"lon":5.400793,"is_reserved":false,"is_disabled":false,"rental_uris":{"android":"levelo://app?vid=c4991c54-c7db-4cff-9fc5-f9220f077854","ios":"levelo://app?vid=c4991c54-c7db-4cff-9fc5-f9220f077854"},"vehicle_type_id":"4","last_reported":1698426262,"current_range_meters":9600,"station_id":"ce4bgvh2rcd13ifvqcs0","pricing_plan_id":"free"},{"bike_id":"bba7aa4c-1284-43dd-a946-4f46f95f0b40","system_id":"levelo_inurba_marseille","lat":43.302759,"lon":5.400793,"is_reserved":false,"is_disabled":false,"rental_uris":{"android":"levelo://app?vid=bba7aa4c-1284-43dd-a946-4f46f95f0b40","ios":"levelo://app?vid=bba7aa4c-1284-43dd-a946-4f46f95f0b40"},"vehicle_type_id":"4","last_reported":1698426262,"current_range_meters":6400,"station_id":"ce4bgvh2rcd13ifvqcs0","pricing_plan_id":"free"},{"bike_id":"f062af0c-b405-4eda-9338-44f896c23996","system_id":"levelo_inurba_marseille","lat":43.286039,"lon":5.370681,"is_reserved":false,"is_disabled":false,"rental_uris":{"android":"levelo://app?vid=f062af0c-b405-4eda-9338-44f896c23996","ios":"levelo://app?vid=f062af0c-b405-4eda-9338-44f896c23996"},"vehicle_type_id":"4","last_reported":1698426262,"current_range_meters":20000,"station_id":"ce4bht12rcd13ifvqi60","pricing_plan_id":"free"},{"bike_id":"84dfbd87-a66b-4b9a-b2a5-1ff3a1d5d030","system_id":"levelo_inurba_marseille","lat":43.3025,"lon":5.4008,"is_reserved":false,"is_disabled":false,"rental_uris":{"android":"levelo://app?vid=84dfbd87-a66b-4b9a-b2a5-1ff3a1d5d030","ios":"levelo://app?vid=84dfbd87-a66b-4b9a-b2a5-1ff3a1d5d030"},"vehicle_type_id":"4","last_reported":1698426262,"current_range_meters":23200,"station_id":"ce4bgvh2rcd13ifvqcs0","pricing_plan_id":"free"},{"bike_id":"d79eac86-c2de-4f69-b890-622dd7a6ee3d","system_id":"levelo_inurba_marseille","lat":43.302759,"lon":5.400793,"is_reserved":false,"is_disabled":false,"rental_uris":{"android":"levelo://app?vid=d79eac86-c2de-4f69-b890-622dd7a6ee3d","ios":"levelo://app?vid=d79eac86-c2de-4f69-b890-622dd7a6ee3d"},"vehicle_type_id":"4","last_reported":1698426262,"current_range_meters":21200,"station_id":"ce4bgvh2rcd13ifvqcs0","pricing_plan_id":"free"},{"bike_id":"c79f5eff-1fa7-499f-ba39-9a2b436ea1e3","system_id":"levelo_inurba_marseille","lat":43.286039,"lon":5.370679,"is_reserved":false,"is_disabled":false,"rental_uris":{"android":"levelo://app?vid=c79f5eff-1fa7-499f-ba39-9a2b436ea1e3","ios":"levelo://app?vid=c79f5eff-1fa7-499f-ba39-9a2b436ea1e3"},"vehicle_type_id":"4","last_reported":1698426262,"current_range_meters":8000,"station_id":"ce4bht12rcd13ifvqi60","pricing_plan_id":"free"},{"bike_id":"8c01911e-0d77-452b-a22a-f84a7d4a5ad3","system_id":"levelo_inurba_marseille","lat":43.286039,"lon":5.370679,"is_reserved":false,"is_disabled":false,"rental_uris":{"android":"levelo://app?vid=8c01911e-0d77-452b-a22a-f84a7d4a5ad3","ios":"levelo://app?vid=8c01911e-0d77-452b-a22a-f84a7d4a5ad3"},"vehicle_type_id":"4","last_reported":1698426262,"current_range_meters":13600,"station_id":"ce4bht12rcd13ifvqi60","pricing_plan_id":"free"},{"bike_id":"bc368e20-93c0-495a-bb4f-cd8ed7ee7f0d","system_id":"levelo_inurba_marseille","lat":43.335307,"lon":5.388143,"is_reserved":false,"is_disabled":false,"rental_uris":{"android":"levelo://app?vid=bc368e20-93c0-495a-bb4f-cd8ed7ee7f0d","ios":"levelo://app?vid=bc368e20-93c0-495a-bb4f-cd8ed7ee7f0d"},"vehicle_type_id":"4","last_reported":1698426262,"current_range_meters":0,"station_id":"","pricing_plan_id":"free"},{"bike_id":"dd67012e-06c9-451a-b4e6-7f0cdc95a701","system_id":"levelo_inurba_marseille","lat":43.316517,"lon":5.404375,"is_reserved":false,"is_disabled":false,"rental_uris":{"android":"levelo://app?vid=dd67012e-06c9-451a-b4e6-7f0cdc95a701","ios":"levelo://app?vid=dd67012e-06c9-451a-b4e6-7f0cdc95a701"},"vehicle_type_id":"4","last_reported":1698426262,"current_range_meters":3200,"station_id":"ce4bh012rcd13ifvqd00","pricing_plan_id":"free"},{"bike_id":"c6cb8ba7-086f-4e1d-b31e-5bbafb7dd5a7","system_id":"levelo_inurba_marseille","lat":43.2847,"lon":5.35902,"is_reserved":false,"is_disabled":false,"rental_uris":{"android":"levelo://app?vid=c6cb8ba7-086f-4e1d-b31e-5bbafb7dd5a7","ios":"levelo://app?vid=c6cb8ba7-086f-4e1d-b31e-5bbafb7dd5a7"},"vehicle_type_id":"4","last_reported":1698426262,"current_range_meters":31200,"station_id":"ce4bhah2rcd13ifvqei0","pricing_plan_id":"free"},{"bike_id":"923636bc-ef92-4005-8250-33256dc549c1","system_id":"levelo_inurba_marseille","lat":43.284628,"lon":5.358945,"is_reserved":false,"is_disabled":false,"rental_uris":{"android":"levelo://app?vid=923636bc-ef92-4005-8250-33256dc549c1","ios":"levelo://app?vid=923636bc-ef92-4005-8250-33256dc549c1"},"vehicle_type_id":"4","last_reported":1698426262,"current_range_meters":30800,"station_id":"ce4bhah2rcd13ifvqei0","pricing_plan_id":"free"},{"bike_id":"8b8e54a1-f6f1-495e-97e3-f7e464d634a0","system_id":"levelo_inurba_marseille","lat":43.284592,"lon":5.358956,"is_reserved":false,"is_disabled":false,"rental_uris":{"android":"levelo://app?vid=8b8e54a1-f6f1-495e-97e3-f7e464d634a0","ios":"levelo://app?vid=8b8e54a1-f6f1-495e-97e3-f7e464d634a0"},"vehicle_type_id":"4","last_reported":1698426262,"current_range_meters":31200,"station_id":"ce4bhah2rcd13ifvqei0","pricing_plan_id":"free"},{"bike_id":"1a3da184-35bf-47c9-b422-f373d9c5fbdb","system_id":"levelo_inurba_marseille","lat":43.28459,"lon":5.35893,"is_reserved":false,"is_disabled":false,"rental_uris":{"android":"levelo://app?vid=1a3da184-35bf-47c9-b422-f373d9c5fbdb","ios":"levelo://app?vid=1a3da184-35bf-47c9-b422-f373d9c5fbdb"},"vehicle_type_id":"4","last_reported":1698426262,"current_range_meters":2000,"station_id":"ce4bhah2rcd13ifvqei0","pricing_plan_id":"free"},{"bike_id":"aa11ab24-68d9-4ce9-9fe5-b81ef5125170","system_id":"levelo_inurba_marseille","lat":43.28459,"lon":5.35892,"is_reserved":false,"is_disabled":false,"rental_uris":{"android":"levelo://app?vid=aa11ab24-68d9-4ce9-9fe5-b81ef5125170","ios":"levelo://app?vid=aa11ab24-68d9-4ce9-9fe5-b81ef5125170"},"vehicle_type_id":"4","last_reported":1698426262,"current_range_meters":0,"station_id":"ce4bhah2rcd13ifvqei0","pricing_plan_id":"free"},{"bike_id":"8cb530bd-b95f-41a0-b49c-54c72e64c1ad","system_id":"levelo_inurba_marseille","lat":43.285848,"lon":5.350787,"is_reserved":false,"is_disabled":false,"rental_uris":{"android":"levelo://app?vid=8cb530bd-b95f-41a0-b49c-54c72e64c1ad","ios":"levelo://app?vid=8cb530bd-b95f-41a0-b49c-54c72e64c1ad"},"vehicle_type_id":"4","last_reported":1698426262,"current_range_meters":30400,"station_id":"ce4bhch2rcd13ifvqeug","pricing_plan_id":"free"},{"bike_id":"a86e1b98-f933-4133-8ac3-347ac2bee4a9","system_id":"levelo_inurba_marseille","lat":43.283998,"lon":5.375062,"is_reserved":false,"is_disabled":false,"rental_uris":{"android":"levelo://app?vid=a86e1b98-f933-4133-8ac3-347ac2bee4a9","ios":"levelo://app?vid=a86e1b98-f933-4133-8ac3-347ac2bee4a9"},"vehicle_type_id":"4","last_reported":1698426262,"current_range_meters":0,"station_id":"ce4bh412rcd13ifvqds0","pricing_plan_id":"free"},{"bike_id":"2d36e54f-9bb8-4581-9edb-ce6aaf9e2c51","system_id":"levelo_inurba_marseille","lat":43.29571,"lon":5.39989,"is_reserved":false,"is_disabled":false,"rental_uris":{"android":"levelo://app?vid=2d36e54f-9bb8-4581-9edb-ce6aaf9e2c51","ios":"levelo://app?vid=2d36e54f-9bb8-4581-9edb-ce6aaf9e2c51"},"vehicle_type_id":"4","last_reported":1698426262,"current_range_meters":13200,"station_id":"ce4bh312rcd13ifvqdj0","pricing_plan_id":"free"},{"bike_id":"32dcdb2d-74ec-4708-b307-e200698a3a37","system_id":"levelo_inurba_marseille","lat":43.295713,"lon":5.399639,"is_reserved":false,"is_disabled":false,"rental_uris":{"android":"levelo://app?vid=32dcdb2d-74ec-4708-b307-e200698a3a37","ios":"levelo://app?vid=32dcdb2d-74ec-4708-b307-e200698a3a37"},"vehicle_type_id":"4","last_reported":1698426262,"current_range_meters":29200,"station_id":"ce4bh312rcd13ifvqdj0","pricing_plan_id":"free"},{"bike_id":"a06c47aa-6a2c-4a00-8bb7-f12d882232e2","system_id":"levelo_inurba_marseille","lat":43.286595,"lon":5.386795,"is_reserved":false,"is_disabled":false,"rental_uris":{"android":"levelo://app?vid=a06c47aa-6a2c-4a00-8bb7-f12d882232e2","ios":"levelo://app?vid=a06c47aa-6a2c-4a00-8bb7-f12d882232e2"},"vehicle_type_id":"4","last_reported":1698426262,"current_range_meters":0,"station_id":"ce4bh492rcd13ifvqdug","pricing_plan_id":"free"},{"bike_id":"a04dca67-8317-445e-90d6-5788929468fd","system_id":"levelo_inurba_marseille","lat":43.33674,"lon":5.39198,"is_reserved":false,"is_disabled":false,"rental_uris":{"android":"levelo://app?vid=a04dca67-8317-445e-90d6-5788929468fd","ios":"levelo://app?vid=a04dca67-8317-445e-90d6-5788929468fd"},"vehicle_type_id":"4","last_reported":1698426262,"current_range_meters":9200,"station_id":"","pricing_plan_id":"free"},{"bike_id":"6d20e4df-3114-4247-8797-329a6849b186","system_id":"levelo_inurba_marseille","lat":43.28469,"lon":5.38418,"is_reserved":false,"is_disabled":false,"rental_uris":{"android":"levelo://app?vid=6d20e4df-3114-4247-8797-329a6849b186","ios":"levelo://app?vid=6d20e4df-3114-4247-8797-329a6849b186"},"vehicle_type_id":"4","last_reported":1698426262,"current_range_meters":0,"station_id":"ce4bh512rcd13ifvqe3g","pricing_plan_id":"free"},{"bike_id":"6bbf8be1-5d19-43fa-9d54-51934f0b8d30","system_id":"levelo_inurba_marseille","lat":43.29795,"lon":5.404086,"is_reserved":false,"is_disabled":false,"rental_uris":{"android":"levelo://app?vid=6bbf8be1-5d19-43fa-9d54-51934f0b8d30","ios":"levelo://app?vid=6bbf8be1-5d19-43fa-9d54-51934f0b8d30"},"vehicle_type_id":"4","last_reported":1698426262,"current_range_meters":7600,"station_id":"ce4bh112rcd13ifvqd90","pricing_plan_id":"free"},{"bike_id":"2f666bbb-190f-4291-ade2-95e2c0cfd815","system_id":"levelo_inurba_marseille","lat":43.325281,"lon":5.405683,"is_reserved":false,"is_disabled":false,"rental_uris":{"android":"levelo://app?vid=2f666bbb-190f-4291-ade2-95e2c0cfd815","ios":"levelo://app?vid=2f666bbb-190f-4291-ade2-95e2c0cfd815"},"vehicle_type_id":"4","last_reported":1698426262,"current_range_meters":21200,"station_id":"","pricing_plan_id":"free"},{"bike_id":"d6b64e40-35fe-48a4-a484-e1aab580d471","system_id":"levelo_inurba_marseille","lat":43.292724,"lon":5.401131,"is_reserved":false,"is_disabled":false,"rental_uris":{"android":"levelo://app?vid=d6b64e40-35fe-48a4-a484-e1aab580d471","ios":"levelo://app?vid=d6b64e40-35fe-48a4-a484-e1aab580d471"},"vehicle_type_id":"4","last_reported":1698426262,"current_range_meters":20400,"station_id":"ce4bh312rcd13ifvqdk0","pricing_plan_id":"free"},{"bike_id":"dc8fdd29-7c00-4dcb-a294-34bc0ebaafc2","system_id":"levelo_inurba_marseille","lat":43.292724,"lon":5.401131,"is_reserved":false,"is_disabled":false,"rental_uris":{"android":"levelo://app?vid=dc8fdd29-7c00-4dcb-a294-34bc0ebaafc2","ios":"levelo://app?vid=dc8fdd29-7c00-4dcb-a294-34bc0ebaafc2"},"vehicle_type_id":"4","last_reported":1698426262,"current_range_meters":0,"station_id":"ce4bh312rcd13ifvqdk0","pricing_plan_id":"free"},{"bike_id":"1d1fb236-1466-4be1-a9f1-181f00c1c3c6","system_id":"levelo_inurba_marseille","lat":43.28039,"lon":5.369297,"is_reserved":false,"is_disabled":false,"rental_uris":{"android":"levelo://app?vid=1d1fb236-1466-4be1-a9f1-181f00c1c3c6","ios":"levelo://app?vid=1d1fb236-1466-4be1-a9f1-181f00c1c3c6"},"vehicle_type_id":"4","last_reported":1698426262,"current_range_meters":0,"station_id":"ce4bha12rcd13ifvqef0","pricing_plan_id":"free"},{"bike_id":"f11c9f56-582f-48de-8f48-15d5ad990936","system_id":"levelo_inurba_marseille","lat":43.28039,"lon":5.369297,"is_reserved":false,"is_disabled":false,"rental_uris":{"android":"levelo://app?vid=f11c9f56-582f-48de-8f48-15d5ad990936","ios":"levelo://app?vid=f11c9f56-582f-48de-8f48-15d5ad990936"},"vehicle_type_id":"4","last_reported":1698426262,"current_range_meters":18800,"station_id":"ce4bha12rcd13ifvqef0","pricing_plan_id":"free"},{"bike_id":"13161788-db19-4f90-8248-92a0674444c2","system_id":"levelo_inurba_marseille","lat":43.29039,"lon":5.39966,"is_reserved":false,"is_disabled":false,"rental_uris":{"android":"levelo://app?vid=13161788-db19-4f90-8248-92a0674444c2","ios":"levelo://app?vid=13161788-db19-4f90-8248-92a0674444c2"},"vehicle_type_id":"4","last_reported":1698426262,"current_range_meters":0,"station_id":"ce4bh392rcd13ifvqdm0","pricing_plan_id":"free"},{"bike_id":"1ca242fe-6084-4f9b-8b54-35d465872844","system_id":"levelo_inurba_marseille","lat":43.290412,"lon":5.399633,"is_reserved":false,"is_disabled":false,"rental_uris":{"android":"levelo://app?vid=1ca242fe-6084-4f9b-8b54-35d465872844","ios":"levelo://app?vid=1ca242fe-6084-4f9b-8b54-35d465872844"},"vehicle_type_id":"4","last_reported":1698426262,"current_range_meters":22000,"station_id":"ce4bh392rcd13ifvqdm0","pricing_plan_id":"free"},{"bike_id":"5f7bcdb1-407a-4127-b062-0cba6f93565d","system_id":"levelo_inurba_marseille","lat":43.281044,"lon":5.378308,"is_reserved":false,"is_disabled":false,"rental_uris":{"android":"levelo://app?vid=5f7bcdb1-407a-4127-b062-0cba6f93565d","ios":"levelo://app?vid=5f7bcdb1-407a-4127-b062-0cba6f93565d"},"vehicle_type_id":"4","last_reported":1698426262,"current_range_meters":12800,"station_id":"ce4bha12rcd13ifvqee0","pricing_plan_id":"free"},{"bike_id":"e6eb5337-e5d6-440d-bdd6-2125436ca275","system_id":"levelo_inurba_marseille","lat":43.320045,"lon":5.415046,"is_reserved":false,"is_disabled":false,"rental_uris":{"android":"levelo://app?vid=e6eb5337-e5d6-440d-bdd6-2125436ca275","ios":"levelo://app?vid=e6eb5337-e5d6-440d-bdd6-2125436ca275"},"vehicle_type_id":"4","last_reported":1698426262,"current_range_meters":14000,"station_id":"ce4bhq92rcd13ifvqhkg","pricing_plan_id":"free"},{"bike_id":"533db56f-f5bb-42cb-a691-66b9dc5ea367","system_id":"levelo_inurba_marseille","lat":43.281044,"lon":5.378308,"is_reserved":false,"is_disabled":false,"rental_uris":{"android":"levelo://app?vid=533db56f-f5bb-42cb-a691-66b9dc5ea367","ios":"levelo://app?vid=533db56f-f5bb-42cb-a691-66b9dc5ea367"},"vehicle_type_id":"4","last_reported":1698426262,"current_range_meters":2000,"station_id":"ce4bha12rcd13ifvqee0","pricing_plan_id":"free"},{"bike_id":"e85a37de-2800-4355-b6af-1c90d7b2f2d8","system_id":"levelo_inurba_marseille","lat":43.30382,"lon":5.410231,"is_reserved":false,"is_disabled":false,"rental_uris":{"android":"levelo://app?vid=e85a37de-2800-4355-b6af-1c90d7b2f2d8","ios":"levelo://app?vid=e85a37de-2800-4355-b6af-1c90d7b2f2d8"},"vehicle_type_id":"4","last_reported":1698426262,"current_range_meters":3600,"station_id":"ce4bhop2rcd13ifvqh8g","pricing_plan_id":"free"},{"bike_id":"50a3db0b-eb6f-492b-af43-961b9c7034a2","system_id":"levelo_inurba_marseille","lat":43.281044,"lon":5.378308,"is_reserved":false,"is_disabled":false,"rental_uris":{"android":"levelo://app?vid=50a3db0b-eb6f-492b-af43-961b9c7034a2","ios":"levelo://app?vid=50a3db0b-eb6f-492b-af43-961b9c7034a2"},"vehicle_type_id":"4","last_reported":1698426262,"current_range_meters":22400,"station_id":"ce4bha12rcd13ifvqee0","pricing_plan_id":"free"},{"bike_id":"2427233c-a4f4-4879-9a71-b4d3d8580045","system_id":"levelo_inurba_marseille","lat":43.296263,"lon":5.40601,"is_reserved":false,"is_disabled":false,"rental_uris":{"android":"levelo://app?vid=2427233c-a4f4-4879-9a71-b4d3d8580045","ios":"levelo://app?vid=2427233c-a4f4-4879-9a71-b4d3d8580045"},"vehicle_type_id":"4","last_reported":1698426262,"current_range_meters":19600,"station_id":"ce4bh0h2rcd13ifvqd60","pricing_plan_id":"free"},{"bike_id":"0c5cfab6-51ec-43f8-ba01-30caf6095790","system_id":"levelo_inurba_marseille","lat":43.284462,"lon":5.392121,"is_reserved":false,"is_disabled":false,"rental_uris":{"android":"levelo://app?vid=0c5cfab6-51ec-43f8-ba01-30caf6095790","ios":"levelo://app?vid=0c5cfab6-51ec-43f8-ba01-30caf6095790"},"vehicle_type_id":"4","last_reported":1698426262,"current_range_meters":5600,"station_id":"ce4bhoh2rcd13ifvqh5g","pricing_plan_id":"free"},{"bike_id":"82490be5-080a-40ce-b6b8-d33ccf9f6210","system_id":"levelo_inurba_marseille","lat":43.284462,"lon":5.392121,"is_reserved":false,"is_disabled":false,"rental_uris":{"android":"levelo://app?vid=82490be5-080a-40ce-b6b8-d33ccf9f6210","ios":"levelo://app?vid=82490be5-080a-40ce-b6b8-d33ccf9f6210"},"vehicle_type_id":"4","last_reported":1698426262,"current_range_meters":20000,"station_id":"ce4bhoh2rcd13ifvqh5g","pricing_plan_id":"free"},{"bike_id":"724ae923-fa98-40ce-975e-8ab386348d37","system_id":"levelo_inurba_marseille","lat":43.284462,"lon":5.392121,"is_reserved":false,"is_disabled":false,"rental_uris":{"android":"levelo://app?vid=724ae923-fa98-40ce-975e-8ab386348d37","ios":"levelo://app?vid=724ae923-fa98-40ce-975e-8ab386348d37"},"vehicle_type_id":"4","last_reported":1698426262,"current_range_meters":800,"station_id":"ce4bhoh2rcd13ifvqh5g","pricing_plan_id":"free"},{"bike_id":"e42647c1-387e-401d-a06e-dcaf9f0a0f6f","system_id":"levelo_inurba_marseille","lat":43.284462,"lon":5.392121,"is_reserved":false,"is_disabled":false,"rental_uris":{"android":"levelo://app?vid=e42647c1-387e-401d-a06e-dcaf9f0a0f6f","ios":"levelo://app?vid=e42647c1-387e-401d-a06e-dcaf9f0a0f6f"},"vehicle_type_id":"4","last_reported":1698426262,"current_range_meters":27600,"station_id":"ce4bhoh2rcd13ifvqh5g","pricing_plan_id":"free"},{"bike_id":"18738a08-aafb-43e2-8213-13de0fe23fa6","system_id":"levelo_inurba_marseille","lat":43.28573,"lon":5.394992,"is_reserved":false,"is_disabled":false,"rental_uris":{"android":"levelo://app?vid=18738a08-aafb-43e2-8213-13de0fe23fa6","ios":"levelo://app?vid=18738a08-aafb-43e2-8213-13de0fe23fa6"},"vehicle_type_id":"4","last_reported":1698426262,"current_range_meters":13600,"station_id":"ce4bh292rcd13ifvqdg0","pricing_plan_id":"free"},{"bike_id":"8a7a1ccc-0309-448e-aaab-4d747968b112","system_id":"levelo_inurba_marseille","lat":43.326605,"lon":5.409903,"is_reserved":false,"is_disabled":false,"rental_uris":{"android":"levelo://app?vid=8a7a1ccc-0309-448e-aaab-4d747968b112","ios":"levelo://app?vid=8a7a1ccc-0309-448e-aaab-4d747968b112"},"vehicle_type_id":"4","last_reported":1698426262,"current_range_meters":16400,"station_id":"ce4bhpp2rcd13ifvqhgg","pricing_plan_id":"free"},{"bike_id":"b219bb4c-bc23-4e28-9e62-69c1fdf0f730","system_id":"levelo_inurba_marseille","lat":43.304188,"lon":5.412904,"is_reserved":false,"is_disabled":false,"rental_uris":{"android":"levelo://app?vid=b219bb4c-bc23-4e28-9e62-69c1fdf0f730","ios":"levelo://app?vid=b219bb4c-bc23-4e28-9e62-69c1fdf0f730"},"vehicle_type_id":"4","last_reported":1698426262,"current_range_meters":0,"station_id":"ce4bhop2rcd13ifvqh8g","pricing_plan_id":"free"},{"bike_id":"bad0e2f7-1ff5-43f6-97ef-4823acfd9c4a","system_id":"levelo_inurba_marseille","lat":43.279087,"lon":5.380114,"is_reserved":false,"is_disabled":false,"rental_uris":{"android":"levelo://app?vid=bad0e2f7-1ff5-43f6-97ef-4823acfd9c4a","ios":"levelo://app?vid=bad0e2f7-1ff5-43f6-97ef-4823acfd9c4a"},"vehicle_type_id":"4","last_reported":1698426262,"current_range_meters":5600,"station_id":"ce4bhf92rcd13ifvqf50","pricing_plan_id":"free"},{"bike_id":"c9ff28b6-6458-4c23-8d1d-722932ec8cba","system_id":"levelo_inurba_marseille","lat":43.279087,"lon":5.380114,"is_reserved":false,"is_disabled":false,"rental_uris":{"android":"levelo://app?vid=c9ff28b6-6458-4c23-8d1d-722932ec8cba","ios":"levelo://app?vid=c9ff28b6-6458-4c23-8d1d-722932ec8cba"},"vehicle_type_id":"4","last_reported":1698426262,"current_range_meters":9600,"station_id":"ce4bhf92rcd13ifvqf50","pricing_plan_id":"free"},{"bike_id":"db449aa2-0b76-4f70-be74-d8c1a92c70e7","system_id":"levelo_inurba_marseille","lat":43.279087,"lon":5.380114,"is_reserved":false,"is_disabled":false,"rental_uris":{"android":"levelo://app?vid=db449aa2-0b76-4f70-be74-d8c1a92c70e7","ios":"levelo://app?vid=db449aa2-0b76-4f70-be74-d8c1a92c70e7"},"vehicle_type_id":"4","last_reported":1698426262,"current_range_meters":19200,"station_id":"ce4bhf92rcd13ifvqf50","pricing_plan_id":"free"},{"bike_id":"2858e470-079c-4600-a260-d4ebf5dd62f0","system_id":"levelo_inurba_marseille","lat":43.28182,"lon":5.39197,"is_reserved":false,"is_disabled":false,"rental_uris":{"android":"levelo://app?vid=2858e470-079c-4600-a260-d4ebf5dd62f0","ios":"levelo://app?vid=2858e470-079c-4600-a260-d4ebf5dd62f0"},"vehicle_type_id":"4","last_reported":1698426262,"current_range_meters":11200,"station_id":"","pricing_plan_id":"free"},{"bike_id":"ab441268-3e03-4104-94cc-7705d60c6788","system_id":"levelo_inurba_marseille","lat":43.34891,"lon":5.37356,"is_reserved":false,"is_disabled":false,"rental_uris":{"android":"levelo://app?vid=ab441268-3e03-4104-94cc-7705d60c6788","ios":"levelo://app?vid=ab441268-3e03-4104-94cc-7705d60c6788"},"vehicle_type_id":"4","last_reported":1698426262,"current_range_meters":20000,"station_id":"","pricing_plan_id":"free"},{"bike_id":"8fde6381-d38b-4ba9-981e-70eda17a7a14","system_id":"levelo_inurba_marseille","lat":43.292569,"lon":5.409107,"is_reserved":false,"is_disabled":false,"rental_uris":{"android":"levelo://app?vid=8fde6381-d38b-4ba9-981e-70eda17a7a14","ios":"levelo://app?vid=8fde6381-d38b-4ba9-981e-70eda17a7a14"},"vehicle_type_id":"4","last_reported":1698426262,"current_range_meters":6800,"station_id":"ce4bh192rcd13ifvqdc0","pricing_plan_id":"free"},{"bike_id":"fa930d45-7d13-46ca-8e5e-9dbe3fe5ccb2","system_id":"levelo_inurba_marseille","lat":43.292571,"lon":5.409107,"is_reserved":false,"is_disabled":false,"rental_uris":{"android":"levelo://app?vid=fa930d45-7d13-46ca-8e5e-9dbe3fe5ccb2","ios":"levelo://app?vid=fa930d45-7d13-46ca-8e5e-9dbe3fe5ccb2"},"vehicle_type_id":"4","last_reported":1698426262,"current_range_meters":23200,"station_id":"ce4bh192rcd13ifvqdc0","pricing_plan_id":"free"},{"bike_id":"a5e0fa18-4820-4b22-9724-cc7a547bcbf5","system_id":"levelo_inurba_marseille","lat":43.292571,"lon":5.409107,"is_reserved":false,"is_disabled":false,"rental_uris":{"android":"levelo://app?vid=a5e0fa18-4820-4b22-9724-cc7a547bcbf5","ios":"levelo://app?vid=a5e0fa18-4820-4b22-9724-cc7a547bcbf5"},"vehicle_type_id":"4","last_reported":1698426262,"current_range_meters":26000,"station_id":"ce4bh192rcd13ifvqdc0","pricing_plan_id":"free"},{"bike_id":"55d1a1e5-7635-4cf4-b3b0-9a1b40eb8f05","system_id":"levelo_inurba_marseille","lat":43.292569,"lon":5.409107,"is_reserved":false,"is_disabled":false,"rental_uris":{"android":"levelo://app?vid=55d1a1e5-7635-4cf4-b3b0-9a1b40eb8f05","ios":"levelo://app?vid=55d1a1e5-7635-4cf4-b3b0-9a1b40eb8f05"},"vehicle_type_id":"4","last_reported":1698426262,"current_range_meters":22400,"station_id":"ce4bh192rcd13ifvqdc0","pricing_plan_id":"free"},{"bike_id":"fa1410ed-1f97-41a3-a24b-805bc43a67ef","system_id":"levelo_inurba_marseille","lat":43.325233,"lon":5.414318,"is_reserved":false,"is_disabled":false,"rental_uris":{"android":"levelo://app?vid=fa1410ed-1f97-41a3-a24b-805bc43a67ef","ios":"levelo://app?vid=fa1410ed-1f97-41a3-a24b-805bc43a67ef"},"vehicle_type_id":"4","last_reported":1698426262,"current_range_meters":21200,"station_id":"ce4bhq12rcd13ifvqhhg","pricing_plan_id":"free"},{"bike_id":"d3fe9c6f-7c90-446e-a09b-853a2a8d178c","system_id":"levelo_inurba_marseille","lat":43.292569,"lon":5.409107,"is_reserved":false,"is_disabled":false,"rental_uris":{"android":"levelo://app?vid=d3fe9c6f-7c90-446e-a09b-853a2a8d178c","ios":"levelo://app?vid=d3fe9c6f-7c90-446e-a09b-853a2a8d178c"},"vehicle_type_id":"4","last_reported":1698426262,"current_range_meters":22800,"station_id":"ce4bh192rcd13ifvqdc0","pricing_plan_id":"free"},{"bike_id":"9098cda4-4994-4077-a826-a31732dcba91","system_id":"levelo_inurba_marseille","lat":43.29255,"lon":5.40914,"is_reserved":false,"is_disabled":false,"rental_uris":{"android":"levelo://app?vid=9098cda4-4994-4077-a826-a31732dcba91","ios":"levelo://app?vid=9098cda4-4994-4077-a826-a31732dcba91"},"vehicle_type_id":"4","last_reported":1698426262,"current_range_meters":13200,"station_id":"ce4bh192rcd13ifvqdc0","pricing_plan_id":"free"},{"bike_id":"8053d694-6a92-46ec-af17-75769087d34d","system_id":"levelo_inurba_marseille","lat":43.27618,"lon":5.361009,"is_reserved":false,"is_disabled":false,"rental_uris":{"android":"levelo://app?vid=8053d694-6a92-46ec-af17-75769087d34d","ios":"levelo://app?vid=8053d694-6a92-46ec-af17-75769087d34d"},"vehicle_type_id":"4","last_reported":1698426262,"current_range_meters":23200,"station_id":"ce4bgj92rcd13ifvqbe0","pricing_plan_id":"free"},{"bike_id":"c7ca29b1-c64f-4cca-a31c-7b28a6a717ce","system_id":"levelo_inurba_marseille","lat":43.27618,"lon":5.361009,"is_reserved":false,"is_disabled":false,"rental_uris":{"android":"levelo://app?vid=c7ca29b1-c64f-4cca-a31c-7b28a6a717ce","ios":"levelo://app?vid=c7ca29b1-c64f-4cca-a31c-7b28a6a717ce"},"vehicle_type_id":"4","last_reported":1698426262,"current_range_meters":22400,"station_id":"ce4bgj92rcd13ifvqbe0","pricing_plan_id":"free"},{"bike_id":"1593545a-0012-4675-aca8-b994354b711f","system_id":"levelo_inurba_marseille","lat":43.27619,"lon":5.36109,"is_reserved":false,"is_disabled":false,"rental_uris":{"android":"levelo://app?vid=1593545a-0012-4675-aca8-b994354b711f","ios":"levelo://app?vid=1593545a-0012-4675-aca8-b994354b711f"},"vehicle_type_id":"4","last_reported":1698426262,"current_range_meters":22400,"station_id":"ce4bgj92rcd13ifvqbe0","pricing_plan_id":"free"},{"bike_id":"50ae4ee5-4372-40c9-8282-4977652f6818","system_id":"levelo_inurba_marseille","lat":43.292571,"lon":5.409107,"is_reserved":false,"is_disabled":false,"rental_uris":{"android":"levelo://app?vid=50ae4ee5-4372-40c9-8282-4977652f6818","ios":"levelo://app?vid=50ae4ee5-4372-40c9-8282-4977652f6818"},"vehicle_type_id":"4","last_reported":1698426262,"current_range_meters":30400,"station_id":"ce4bh192rcd13ifvqdc0","pricing_plan_id":"free"},{"bike_id":"fc4dd679-eb01-4e7a-b1ce-ebdcdcaad755","system_id":"levelo_inurba_marseille","lat":43.27609,"lon":5.36117,"is_reserved":false,"is_disabled":false,"rental_uris":{"android":"levelo://app?vid=fc4dd679-eb01-4e7a-b1ce-ebdcdcaad755","ios":"levelo://app?vid=fc4dd679-eb01-4e7a-b1ce-ebdcdcaad755"},"vehicle_type_id":"4","last_reported":1698426262,"current_range_meters":8000,"station_id":"ce4bgj92rcd13ifvqbe0","pricing_plan_id":"free"},{"bike_id":"56659e9e-a6d2-434f-a132-302728275fd2","system_id":"levelo_inurba_marseille","lat":43.280784,"lon":5.396622,"is_reserved":false,"is_disabled":false,"rental_uris":{"android":"levelo://app?vid=56659e9e-a6d2-434f-a132-302728275fd2","ios":"levelo://app?vid=56659e9e-a6d2-434f-a132-302728275fd2"},"vehicle_type_id":"4","last_reported":1698426262,"current_range_meters":22000,"station_id":"ce4bho12rcd13ifvqh2g","pricing_plan_id":"free"},{"bike_id":"b772e6f1-43c4-4d04-8e93-237286df6f1e","system_id":"levelo_inurba_marseille","lat":43.280784,"lon":5.396622,"is_reserved":false,"is_disabled":false,"rental_uris":{"android":"levelo://app?vid=b772e6f1-43c4-4d04-8e93-237286df6f1e","ios":"levelo://app?vid=b772e6f1-43c4-4d04-8e93-237286df6f1e"},"vehicle_type_id":"4","last_reported":1698426262,"current_range_meters":18800,"station_id":"ce4bho12rcd13ifvqh2g","pricing_plan_id":"free"},{"bike_id":"2f628a63-15e5-4295-9a2f-24aba1189a36","system_id":"levelo_inurba_marseille","lat":43.280784,"lon":5.396622,"is_reserved":false,"is_disabled":false,"rental_uris":{"android":"levelo://app?vid=2f628a63-15e5-4295-9a2f-24aba1189a36","ios":"levelo://app?vid=2f628a63-15e5-4295-9a2f-24aba1189a36"},"vehicle_type_id":"4","last_reported":1698426262,"current_range_meters":10000,"station_id":"ce4bho12rcd13ifvqh2g","pricing_plan_id":"free"},{"bike_id":"e87d1e92-c5fa-40c6-a1d6-af410ef15e32","system_id":"levelo_inurba_marseille","lat":43.280784,"lon":5.396622,"is_reserved":false,"is_disabled":false,"rental_uris":{"android":"levelo://app?vid=e87d1e92-c5fa-40c6-a1d6-af410ef15e32","ios":"levelo://app?vid=e87d1e92-c5fa-40c6-a1d6-af410ef15e32"},"vehicle_type_id":"4","last_reported":1698426262,"current_range_meters":14400,"station_id":"ce4bho12rcd13ifvqh2g","pricing_plan_id":"free"},{"bike_id":"bc55de17-6d4f-4d44-89ec-c454bc3e6023","system_id":"levelo_inurba_marseille","lat":43.280784,"lon":5.396622,"is_reserved":false,"is_disabled":false,"rental_uris":{"android":"levelo://app?vid=bc55de17-6d4f-4d44-89ec-c454bc3e6023","ios":"levelo://app?vid=bc55de17-6d4f-4d44-89ec-c454bc3e6023"},"vehicle_type_id":"4","last_reported":1698426262,"current_range_meters":20000,"station_id":"ce4bho12rcd13ifvqh2g","pricing_plan_id":"free"},{"bike_id":"54f49907-ffe9-4a57-8d15-ce41709657da","system_id":"levelo_inurba_marseille","lat":43.280784,"lon":5.396622,"is_reserved":false,"is_disabled":false,"rental_uris":{"android":"levelo://app?vid=54f49907-ffe9-4a57-8d15-ce41709657da","ios":"levelo://app?vid=54f49907-ffe9-4a57-8d15-ce41709657da"},"vehicle_type_id":"4","last_reported":1698426262,"current_range_meters":6000,"station_id":"ce4bho12rcd13ifvqh2g","pricing_plan_id":"free"},{"bike_id":"81d3fcd4-d1c8-4ab1-a243-dc1e1212698e","system_id":"levelo_inurba_marseille","lat":43.278401,"lon":5.392152,"is_reserved":false,"is_disabled":false,"rental_uris":{"android":"levelo://app?vid=81d3fcd4-d1c8-4ab1-a243-dc1e1212698e","ios":"levelo://app?vid=81d3fcd4-d1c8-4ab1-a243-dc1e1212698e"},"vehicle_type_id":"4","last_reported":1698426262,"current_range_meters":14800,"station_id":"ce4bhjp2rcd13ifvqga0","pricing_plan_id":"free"},{"bike_id":"d70463b9-734e-45a8-95ef-2db0816fd168","system_id":"levelo_inurba_marseille","lat":43.27376,"lon":5.3624,"is_reserved":false,"is_disabled":false,"rental_uris":{"android":"levelo://app?vid=d70463b9-734e-45a8-95ef-2db0816fd168","ios":"levelo://app?vid=d70463b9-734e-45a8-95ef-2db0816fd168"},"vehicle_type_id":"4","last_reported":1698426262,"current_range_meters":31200,"station_id":"ce4bhbh2rcd13ifvqeo0","pricing_plan_id":"free"},{"bike_id":"8a7667be-f934-439e-9e6c-60fa42219b62","system_id":"levelo_inurba_marseille","lat":43.273609,"lon":5.362708,"is_reserved":false,"is_disabled":false,"rental_uris":{"android":"levelo://app?vid=8a7667be-f934-439e-9e6c-60fa42219b62","ios":"levelo://app?vid=8a7667be-f934-439e-9e6c-60fa42219b62"},"vehicle_type_id":"4","last_reported":1698426262,"current_range_meters":4400,"station_id":"ce4bhbh2rcd13ifvqeo0","pricing_plan_id":"free"},{"bike_id":"66e810f9-1a1d-4b0e-a092-b2a76569f62c","system_id":"levelo_inurba_marseille","lat":43.273609,"lon":5.362708,"is_reserved":false,"is_disabled":false,"rental_uris":{"android":"levelo://app?vid=66e810f9-1a1d-4b0e-a092-b2a76569f62c","ios":"levelo://app?vid=66e810f9-1a1d-4b0e-a092-b2a76569f62c"},"vehicle_type_id":"4","last_reported":1698426262,"current_range_meters":21600,"station_id":"ce4bhbh2rcd13ifvqeo0","pricing_plan_id":"free"},{"bike_id":"a420ef18-f5ad-433b-be29-a45eb189fc53","system_id":"levelo_inurba_marseille","lat":43.275625,"lon":5.384392,"is_reserved":false,"is_disabled":false,"rental_uris":{"android":"levelo://app?vid=a420ef18-f5ad-433b-be29-a45eb189fc53","ios":"levelo://app?vid=a420ef18-f5ad-433b-be29-a45eb189fc53"},"vehicle_type_id":"4","last_reported":1698426262,"current_range_meters":29600,"station_id":"ce4bhh92rcd13ifvqfi0","pricing_plan_id":"free"},{"bike_id":"38d87940-221b-4144-986b-7e632b7b1d11","system_id":"levelo_inurba_marseille","lat":43.275625,"lon":5.384392,"is_reserved":false,"is_disabled":false,"rental_uris":{"android":"levelo://app?vid=38d87940-221b-4144-986b-7e632b7b1d11","ios":"levelo://app?vid=38d87940-221b-4144-986b-7e632b7b1d11"},"vehicle_type_id":"4","last_reported":1698426262,"current_range_meters":14000,"station_id":"ce4bhh92rcd13ifvqfi0","pricing_plan_id":"free"},{"bike_id":"a67901b2-868e-45a5-914f-19e36a55044a","system_id":"levelo_inurba_marseille","lat":43.275625,"lon":5.384392,"is_reserved":false,"is_disabled":false,"rental_uris":{"android":"levelo://app?vid=a67901b2-868e-45a5-914f-19e36a55044a","ios":"levelo://app?vid=a67901b2-868e-45a5-914f-19e36a55044a"},"vehicle_type_id":"4","last_reported":1698426262,"current_range_meters":28800,"station_id":"ce4bhh92rcd13ifvqfi0","pricing_plan_id":"free"},{"bike_id":"8b5f750d-36f5-43ec-8165-96b943a67933","system_id":"levelo_inurba_marseille","lat":43.276771,"lon":5.388799,"is_reserved":false,"is_disabled":false,"rental_uris":{"android":"levelo://app?vid=8b5f750d-36f5-43ec-8165-96b943a67933","ios":"levelo://app?vid=8b5f750d-36f5-43ec-8165-96b943a67933"},"vehicle_type_id":"4","last_reported":1698426262,"current_range_meters":800,"station_id":"ce4bhi12rcd13ifvqfo0","pricing_plan_id":"free"},{"bike_id":"bd1d2962-e358-4a6a-ac06-439079960044","system_id":"levelo_inurba_marseille","lat":43.2781,"lon":5.3949,"is_reserved":false,"is_disabled":false,"rental_uris":{"android":"levelo://app?vid=bd1d2962-e358-4a6a-ac06-439079960044","ios":"levelo://app?vid=bd1d2962-e358-4a6a-ac06-439079960044"},"vehicle_type_id":"4","last_reported":1698426262,"current_range_meters":3600,"station_id":"","pricing_plan_id":"free"},{"bike_id":"5d557b8e-696a-4a15-9bb4-d60cfbb65045","system_id":"levelo_inurba_marseille","lat":43.28012,"lon":5.400214,"is_reserved":false,"is_disabled":false,"rental_uris":{"android":"levelo://app?vid=5d557b8e-696a-4a15-9bb4-d60cfbb65045","ios":"levelo://app?vid=5d557b8e-696a-4a15-9bb4-d60cfbb65045"},"vehicle_type_id":"4","last_reported":1698426262,"current_range_meters":26800,"station_id":"ce4bho92rcd13ifvqh4g","pricing_plan_id":"free"},{"bike_id":"ae5e1297-0e05-4853-b8fa-f1efe5d58a3e","system_id":"levelo_inurba_marseille","lat":43.279952,"lon":5.400085,"is_reserved":false,"is_disabled":false,"rental_uris":{"android":"levelo://app?vid=ae5e1297-0e05-4853-b8fa-f1efe5d58a3e","ios":"levelo://app?vid=ae5e1297-0e05-4853-b8fa-f1efe5d58a3e"},"vehicle_type_id":"4","last_reported":1698426262,"current_range_meters":30000,"station_id":"ce4bho92rcd13ifvqh4g","pricing_plan_id":"free"},{"bike_id":"59c68d8b-7aee-48fa-816b-f6c40e97bc02","system_id":"levelo_inurba_marseille","lat":43.279952,"lon":5.400085,"is_reserved":false,"is_disabled":false,"rental_uris":{"android":"levelo://app?vid=59c68d8b-7aee-48fa-816b-f6c40e97bc02","ios":"levelo://app?vid=59c68d8b-7aee-48fa-816b-f6c40e97bc02"},"vehicle_type_id":"4","last_reported":1698426262,"current_range_meters":28400,"station_id":"ce4bho92rcd13ifvqh4g","pricing_plan_id":"free"},{"bike_id":"8b82fee7-cc60-4dc1-ba16-d5b332eaffa3","system_id":"levelo_inurba_marseille","lat":43.279964,"lon":5.400095,"is_reserved":false,"is_disabled":false,"rental_uris":{"android":"levelo://app?vid=8b82fee7-cc60-4dc1-ba16-d5b332eaffa3","ios":"levelo://app?vid=8b82fee7-cc60-4dc1-ba16-d5b332eaffa3"},"vehicle_type_id":"4","last_reported":1698426262,"current_range_meters":28400,"station_id":"ce4bho92rcd13ifvqh4g","pricing_plan_id":"free"},{"bike_id":"71337037-598f-424a-a30d-6047f1e3c044","system_id":"levelo_inurba_marseille","lat":43.279952,"lon":5.400085,"is_reserved":false,"is_disabled":false,"rental_uris":{"android":"levelo://app?vid=71337037-598f-424a-a30d-6047f1e3c044","ios":"levelo://app?vid=71337037-598f-424a-a30d-6047f1e3c044"},"vehicle_type_id":"4","last_reported":1698426262,"current_range_meters":0,"station_id":"ce4bho92rcd13ifvqh4g","pricing_plan_id":"free"},{"bike_id":"18634d36-5093-44ec-a052-a484ecfe3204","system_id":"levelo_inurba_marseille","lat":43.27996,"lon":5.40012,"is_reserved":false,"is_disabled":false,"rental_uris":{"android":"levelo://app?vid=18634d36-5093-44ec-a052-a484ecfe3204","ios":"levelo://app?vid=18634d36-5093-44ec-a052-a484ecfe3204"},"vehicle_type_id":"4","last_reported":1698426262,"current_range_meters":20800,"station_id":"ce4bho92rcd13ifvqh4g","pricing_plan_id":"free"},{"bike_id":"6f9534d1-cc9d-4cbe-999e-5796ef3cd2b0","system_id":"levelo_inurba_marseille","lat":43.27997,"lon":5.40016,"is_reserved":false,"is_disabled":false,"rental_uris":{"android":"levelo://app?vid=6f9534d1-cc9d-4cbe-999e-5796ef3cd2b0","ios":"levelo://app?vid=6f9534d1-cc9d-4cbe-999e-5796ef3cd2b0"},"vehicle_type_id":"4","last_reported":1698426262,"current_range_meters":18800,"station_id":"ce4bho92rcd13ifvqh4g","pricing_plan_id":"free"},{"bike_id":"1b61a196-5ec2-4ebb-a329-a5da70cc725e","system_id":"levelo_inurba_marseille","lat":43.27995,"lon":5.40013,"is_reserved":false,"is_disabled":false,"rental_uris":{"android":"levelo://app?vid=1b61a196-5ec2-4ebb-a329-a5da70cc725e","ios":"levelo://app?vid=1b61a196-5ec2-4ebb-a329-a5da70cc725e"},"vehicle_type_id":"4","last_reported":1698426262,"current_range_meters":400,"station_id":"ce4bho92rcd13ifvqh4g","pricing_plan_id":"free"},{"bike_id":"f6104f83-d9e6-4569-b606-ccb98aaed75c","system_id":"levelo_inurba_marseille","lat":43.27997,"lon":5.40017,"is_reserved":false,"is_disabled":false,"rental_uris":{"android":"levelo://app?vid=f6104f83-d9e6-4569-b606-ccb98aaed75c","ios":"levelo://app?vid=f6104f83-d9e6-4569-b606-ccb98aaed75c"},"vehicle_type_id":"4","last_reported":1698426262,"current_range_meters":8000,"station_id":"ce4bho92rcd13ifvqh4g","pricing_plan_id":"free"},{"bike_id":"4541ff03-39ea-43e8-a974-6fde4ecd81fd","system_id":"levelo_inurba_marseille","lat":43.27997,"lon":5.40022,"is_reserved":false,"is_disabled":false,"rental_uris":{"android":"levelo://app?vid=4541ff03-39ea-43e8-a974-6fde4ecd81fd","ios":"levelo://app?vid=4541ff03-39ea-43e8-a974-6fde4ecd81fd"},"vehicle_type_id":"4","last_reported":1698426262,"current_range_meters":19200,"station_id":"ce4bho92rcd13ifvqh4g","pricing_plan_id":"free"},{"bike_id":"576b66eb-37cc-419e-8cff-f50cb9f47d45","system_id":"levelo_inurba_marseille","lat":43.310669,"lon":5.423673,"is_reserved":false,"is_disabled":false,"rental_uris":{"android":"levelo://app?vid=576b66eb-37cc-419e-8cff-f50cb9f47d45","ios":"levelo://app?vid=576b66eb-37cc-419e-8cff-f50cb9f47d45"},"vehicle_type_id":"4","last_reported":1698426262,"current_range_meters":9600,"station_id":"","pricing_plan_id":"free"},{"bike_id":"10771e27-9dfa-483f-a879-18ff14f74247","system_id":"levelo_inurba_marseille","lat":43.310021,"lon":5.425067,"is_reserved":false,"is_disabled":false,"rental_uris":{"android":"levelo://app?vid=10771e27-9dfa-483f-a879-18ff14f74247","ios":"levelo://app?vid=10771e27-9dfa-483f-a879-18ff14f74247"},"vehicle_type_id":"4","last_reported":1698426262,"current_range_meters":400,"station_id":"","pricing_plan_id":"free"},{"bike_id":"3274dc49-72ef-45e8-bf69-91dd126e1130","system_id":"levelo_inurba_marseille","lat":43.27325,"lon":5.39085,"is_reserved":false,"is_disabled":false,"rental_uris":{"android":"levelo://app?vid=3274dc49-72ef-45e8-bf69-91dd126e1130","ios":"levelo://app?vid=3274dc49-72ef-45e8-bf69-91dd126e1130"},"vehicle_type_id":"4","last_reported":1698426262,"current_range_meters":0,"station_id":"","pricing_plan_id":"free"},{"bike_id":"b1c08ac9-fcb0-4253-8340-3f71748b40a8","system_id":"levelo_inurba_marseille","lat":43.274294,"lon":5.394224,"is_reserved":false,"is_disabled":false,"rental_uris":{"android":"levelo://app?vid=b1c08ac9-fcb0-4253-8340-3f71748b40a8","ios":"levelo://app?vid=b1c08ac9-fcb0-4253-8340-3f71748b40a8"},"vehicle_type_id":"4","last_reported":1698426262,"current_range_meters":17600,"station_id":"","pricing_plan_id":"free"},{"bike_id":"b538149e-b1ca-49e4-81d6-8bf98fbcd396","system_id":"levelo_inurba_marseille","lat":43.295473,"lon":5.422813,"is_reserved":false,"is_disabled":false,"rental_uris":{"android":"levelo://app?vid=b538149e-b1ca-49e4-81d6-8bf98fbcd396","ios":"levelo://app?vid=b538149e-b1ca-49e4-81d6-8bf98fbcd396"},"vehicle_type_id":"4","last_reported":1698426262,"current_range_meters":31200,"station_id":"ce4bhph2rcd13ifvqhdg","pricing_plan_id":"free"},{"bike_id":"69008444-ab5b-44f5-902c-25c48e6f0be1","system_id":"levelo_inurba_marseille","lat":43.295541,"lon":5.422878,"is_reserved":false,"is_disabled":false,"rental_uris":{"android":"levelo://app?vid=69008444-ab5b-44f5-902c-25c48e6f0be1","ios":"levelo://app?vid=69008444-ab5b-44f5-902c-25c48e6f0be1"},"vehicle_type_id":"4","last_reported":1698426262,"current_range_meters":31200,"station_id":"ce4bhph2rcd13ifvqhdg","pricing_plan_id":"free"},{"bike_id":"675b1345-44e1-4d4f-85fa-4b33bcd3a8fe","system_id":"levelo_inurba_marseille","lat":43.295523,"lon":5.422926,"is_reserved":false,"is_disabled":false,"rental_uris":{"android":"levelo://app?vid=675b1345-44e1-4d4f-85fa-4b33bcd3a8fe","ios":"levelo://app?vid=675b1345-44e1-4d4f-85fa-4b33bcd3a8fe"},"vehicle_type_id":"4","last_reported":1698426262,"current_range_meters":25600,"station_id":"ce4bhph2rcd13ifvqhdg","pricing_plan_id":"free"},{"bike_id":"ffa29f65-006d-4d7f-b146-3ad3033ade2f","system_id":"levelo_inurba_marseille","lat":43.272162,"lon":5.391845,"is_reserved":false,"is_disabled":false,"rental_uris":{"android":"levelo://app?vid=ffa29f65-006d-4d7f-b146-3ad3033ade2f","ios":"levelo://app?vid=ffa29f65-006d-4d7f-b146-3ad3033ade2f"},"vehicle_type_id":"4","last_reported":1698426262,"current_range_meters":28800,"station_id":"","pricing_plan_id":"free"},{"bike_id":"f69e163c-0059-4cfc-978b-436215596b62","system_id":"levelo_inurba_marseille","lat":43.272124,"lon":5.391768,"is_reserved":false,"is_disabled":false,"rental_uris":{"android":"levelo://app?vid=f69e163c-0059-4cfc-978b-436215596b62","ios":"levelo://app?vid=f69e163c-0059-4cfc-978b-436215596b62"},