{"last_updated":1742893844,"ttl":60,"version":"2.2","data":{"bikes":[{"bike_id":"38c86b9d-9dd3-4ede-a2a3-f44b312eecca","system_id":"levelo_inurba_marseille","lat":43.31167,"lon":5.36836,"is_reserved":false,"is_disabled":false,"rental_uris":{"android":"levelo://app?vid=38c86b9d-9dd3-4ede-a2a3-f44b312eecca","ios":"levelo://app?vid=38c86b9d-9dd3-4ede-a2a3-f44b312eecca"},"vehicle_type_id":"4","last_reported":1742893844,"current_range_meters":2800,"station_id":"ce4bgl92rcd13ifvqbq0","pricing_plan_id":"cebpf4jnsgd1na2vs0mg"},{"bike_id":"a555f56a-beff-4a12-bf7c-a5bfb9b0b6f7","system_id":"levelo_inurba_marseille","lat":43.24072,"lon":5.37766,"is_reserved":false,"is_disabled":false,"rental_uris":{"android":"levelo://app?vid=a555f56a-beff-4a12-bf7c-a5bfb9b0b6f7","ios":"levelo://app?vid=a555f56a-beff-4a12-bf7c-a5bfb9b0b6f7"},"vehicle_type_id":"4","last_reported":1742893844,"current_range_meters":3200,"station_id":"ce4bhnp2rcd13ifvqgvg","pricing_plan_id":"cebpf4jnsgd1na2vs0mg"},{"bike_id":"875ad3dd-390b-4d5d-8bf8-63f06072de28","system_id":"levelo_inurba_marseille","lat":43.279437,"lon":5.410545,"is_reserved":false,"is_disabled":false,"rental_uris":{"android":"levelo://app?vid=875ad3dd-390b-4d5d-8bf8-63f06072de28","ios":"levelo://app?vid=875ad3dd-390b-4d5d-8bf8-63f06072de28"},"vehicle_type_id":"4","last_reported":1742893844,"current_range_meters":3200,"station_id":"ce4bhnp2rcd13ifvqh0g","pricing_plan_id":"cebpf4jnsgd1na2vs0mg"},{"bike_id":"1b7c5e4e-130d-4e75-8db2-feee0d51fa46","system_id":"levelo_inurba_marseille","lat":43.24141,"lon":5.39745,"is_reserved":false,"is_disabled":false,"rental_uris":{"android":"levelo://app?vid=1b7c5e4e-130d-4e75-8db2-feee0d51fa46","ios":"levelo://app?vid=1b7c5e4e-130d-4e75-8db2-feee0d51fa46"},"vehicle_type_id":"4","last_reported":1742893844,"current_range_meters":3200,"station_id":"ce4bhn12rcd13ifvqgpg","pricing_plan_id":"cebpf4jnsgd1na2vs0mg"},{"bike_id":"d1f993ec-8e82-4e82-a38b-e848ded0cf74","system_id":"levelo_inurba_marseille","lat":43.25093,"lon":5.39518,"is_reserved":false,"is_disabled":false,"rental_uris":{"android":"levelo://app?vid=d1f993ec-8e82-4e82-a38b-e848ded0cf74","ios":"levelo://app?vid=d1f993ec-8e82-4e82-a38b-e848ded0cf74"},"vehicle_type_id":"4","last_reported":1742893844,"current_range_meters":3200,"station_id":"","pricing_plan_id":"cebpf4jnsgd1na2vs0mg"},{"bike_id":"abd212ef-7821-43c0-9759-c71e062504ef","system_id":"levelo_inurba_marseille","lat":43.27312,"lon":5.39113,"is_reserved":false,"is_disabled":false,"rental_uris":{"android":"levelo://app?vid=abd212ef-7821-43c0-9759-c71e062504ef","ios":"levelo://app?vid=abd212ef-7821-43c0-9759-c71e062504ef"},"vehicle_type_id":"4","last_reported":1742893844,"current_range_meters":3200,"station_id":"ce4bhgp2rcd13ifvqfe0","pricing_plan_id":"cebpf4jnsgd1na2vs0mg"},{"bike_id":"c36cefb3-0db7-45d8-b171-a7dea51fd330","system_id":"levelo_inurba_marseille","lat":43.25739,"lon":5.41105,"is_reserved":false,"is_disabled":false,"rental_uris":{"android":"levelo://app?vid=c36cefb3-0db7-45d8-b171-a7dea51fd330","ios":"levelo://app?vid=c36cefb3-0db7-45d8-b171-a7dea51fd330"},"vehicle_type_id":"4","last_reported":1742893844,"current_range_meters":3600,"station_id":"ce4bhkp2rcd13ifvqgd0","pricing_plan_id":"cebpf4jnsgd1na2vs0mg"},{"bike_id":"bebbaaa4-9324-461e-b685-01f74c9202e0","system_id":"levelo_inurba_marseille","lat":43.23951,"lon":5.36629,"is_reserved":false,"is_disabled":false,"rental_uris":{"android":"levelo://app?vid=bebbaaa4-9324-461e-b685-01f74c9202e0","ios":"levelo://app?vid=bebbaaa4-9324-461e-b685-01f74c9202e0"},"vehicle_type_id":"4","last_reported":1742893844,"current_range_meters":3600,"station_id":"ce4bhi12rcd13ifvqfp0","pricing_plan_id":"cebpf4jnsgd1na2vs0mg"},{"bike_id":"0814c752-717d-4d82-8dc2-7eb7f3b777fb","system_id":"levelo_inurba_marseille","lat":43.23179,"lon":5.4374,"is_reserved":false,"is_disabled":false,"rental_uris":{"android":"levelo://app?vid=0814c752-717d-4d82-8dc2-7eb7f3b777fb","ios":"levelo://app?vid=0814c752-717d-4d82-8dc2-7eb7f3b777fb"},"vehicle_type_id":"4","last_reported":1742893844,"current_range_meters":3600,"station_id":"ce4bhmp2rcd13ifvqgog","pricing_plan_id":"cebpf4jnsgd1na2vs0mg"},{"bike_id":"634c433d-3db3-4fd8-8be9-8b653dae530e","system_id":"levelo_inurba_marseille","lat":43.28032,"lon":5.38993,"is_reserved":false,"is_disabled":true,"rental_uris":{"android":"levelo://app?vid=634c433d-3db3-4fd8-8be9-8b653dae530e","ios":"levelo://app?vid=634c433d-3db3-4fd8-8be9-8b653dae530e"},"vehicle_type_id":"4","last_reported":1742893844,"current_range_meters":3600,"station_id":"","pricing_plan_id":"cebpf4jnsgd1na2vs0mg"},{"bike_id":"b45c1543-4ec6-4441-a485-cd1fd1de8cfe","system_id":"levelo_inurba_marseille","lat":43.295738,"lon":5.367357,"is_reserved":false,"is_disabled":false,"rental_uris":{"android":"levelo://app?vid=b45c1543-4ec6-4441-a485-cd1fd1de8cfe","ios":"levelo://app?vid=b45c1543-4ec6-4441-a485-cd1fd1de8cfe"},"vehicle_type_id":"4","last_reported":1742893844,"current_range_meters":4000,"station_id":"ce4bhi12rcd13ifvqfq0","pricing_plan_id":"cebpf4jnsgd1na2vs0mg"},{"bike_id":"aeef45df-94a2-4430-9a10-e07be240b315","system_id":"levelo_inurba_marseille","lat":43.29274,"lon":5.36847,"is_reserved":false,"is_disabled":false,"rental_uris":{"android":"levelo://app?vid=aeef45df-94a2-4430-9a10-e07be240b315","ios":"levelo://app?vid=aeef45df-94a2-4430-9a10-e07be240b315"},"vehicle_type_id":"4","last_reported":1742893844,"current_range_meters":4000,"station_id":"ce4bhbp2rcd13ifvqesg","pricing_plan_id":"cebpf4jnsgd1na2vs0mg"},{"bike_id":"65a8b4a2-0499-4bb6-a7b9-112a5c30f0ad","system_id":"levelo_inurba_marseille","lat":43.26795,"lon":5.39415,"is_reserved":false,"is_disabled":false,"rental_uris":{"android":"levelo://app?vid=65a8b4a2-0499-4bb6-a7b9-112a5c30f0ad","ios":"levelo://app?vid=65a8b4a2-0499-4bb6-a7b9-112a5c30f0ad"},"vehicle_type_id":"4","last_reported":1742893844,"current_range_meters":4000,"station_id":"ce4bhh12rcd13ifvqfg0","pricing_plan_id":"cebpf4jnsgd1na2vs0mg"},{"bike_id":"b1d2d13a-c810-4f32-b6a2-1e53a9ea01ff","system_id":"levelo_inurba_marseille","lat":43.2407,"lon":5.37758,"is_reserved":false,"is_disabled":false,"rental_uris":{"android":"levelo://app?vid=b1d2d13a-c810-4f32-b6a2-1e53a9ea01ff","ios":"levelo://app?vid=b1d2d13a-c810-4f32-b6a2-1e53a9ea01ff"},"vehicle_type_id":"4","last_reported":1742893844,"current_range_meters":4000,"station_id":"ce4bhnp2rcd13ifvqgvg","pricing_plan_id":"cebpf4jnsgd1na2vs0mg"},{"bike_id":"6f215761-e3c1-4670-9c14-c1e4afb855cb","system_id":"levelo_inurba_marseille","lat":43.26687,"lon":5.38269,"is_reserved":false,"is_disabled":false,"rental_uris":{"android":"levelo://app?vid=6f215761-e3c1-4670-9c14-c1e4afb855cb","ios":"levelo://app?vid=6f215761-e3c1-4670-9c14-c1e4afb855cb"},"vehicle_type_id":"4","last_reported":1742893844,"current_range_meters":4000,"station_id":"ce4bhg92rcd13ifvqf90","pricing_plan_id":"cebpf4jnsgd1na2vs0mg"},{"bike_id":"e8a8681a-90be-4ab3-80a0-95a4b8b4cbd9","system_id":"levelo_inurba_marseille","lat":43.31225,"lon":5.36907,"is_reserved":false,"is_disabled":false,"rental_uris":{"android":"levelo://app?vid=e8a8681a-90be-4ab3-80a0-95a4b8b4cbd9","ios":"levelo://app?vid=e8a8681a-90be-4ab3-80a0-95a4b8b4cbd9"},"vehicle_type_id":"4","last_reported":1742893844,"current_range_meters":4000,"station_id":"ce4bgl92rcd13ifvqbq0","pricing_plan_id":"cebpf4jnsgd1na2vs0mg"},{"bike_id":"76d51541-486a-4349-9655-bb4c29d42ba0","system_id":"levelo_inurba_marseille","lat":43.29574,"lon":5.37507,"is_reserved":false,"is_disabled":false,"rental_uris":{"android":"levelo://app?vid=76d51541-486a-4349-9655-bb4c29d42ba0","ios":"levelo://app?vid=76d51541-486a-4349-9655-bb4c29d42ba0"},"vehicle_type_id":"4","last_reported":1742893844,"current_range_meters":4000,"station_id":"ce4bgh92rcd13ifvqb50","pricing_plan_id":"cebpf4jnsgd1na2vs0mg"},{"bike_id":"d364c9d1-8f93-42f6-8f78-b84d8eb00161","system_id":"levelo_inurba_marseille","lat":43.24075,"lon":5.37762,"is_reserved":false,"is_disabled":false,"rental_uris":{"android":"levelo://app?vid=d364c9d1-8f93-42f6-8f78-b84d8eb00161","ios":"levelo://app?vid=d364c9d1-8f93-42f6-8f78-b84d8eb00161"},"vehicle_type_id":"4","last_reported":1742893844,"current_range_meters":4000,"station_id":"ce4bhnp2rcd13ifvqgvg","pricing_plan_id":"cebpf4jnsgd1na2vs0mg"},{"bike_id":"86a65fab-1faf-4fc4-885c-2b086e92c069","system_id":"levelo_inurba_marseille","lat":43.24163,"lon":5.36405,"is_reserved":false,"is_disabled":false,"rental_uris":{"android":"levelo://app?vid=86a65fab-1faf-4fc4-885c-2b086e92c069","ios":"levelo://app?vid=86a65fab-1faf-4fc4-885c-2b086e92c069"},"vehicle_type_id":"4","last_reported":1742893844,"current_range_meters":4000,"station_id":"cpo36qri1sfpv3e86is0","pricing_plan_id":"cebpf4jnsgd1na2vs0mg"},{"bike_id":"a1467c8d-d458-48fa-ae2a-398452ffafde","system_id":"levelo_inurba_marseille","lat":43.31752,"lon":5.39019,"is_reserved":false,"is_disabled":false,"rental_uris":{"android":"levelo://app?vid=a1467c8d-d458-48fa-ae2a-398452ffafde","ios":"levelo://app?vid=a1467c8d-d458-48fa-ae2a-398452ffafde"},"vehicle_type_id":"4","last_reported":1742893844,"current_range_meters":4400,"station_id":"ce4bhqp2rcd13ifvqhng","pricing_plan_id":"cebpf4jnsgd1na2vs0mg"},{"bike_id":"f7a445a3-6bcb-4711-98e1-33cb1800bee0","system_id":"levelo_inurba_marseille","lat":43.31251,"lon":5.36871,"is_reserved":false,"is_disabled":false,"rental_uris":{"android":"levelo://app?vid=f7a445a3-6bcb-4711-98e1-33cb1800bee0","ios":"levelo://app?vid=f7a445a3-6bcb-4711-98e1-33cb1800bee0"},"vehicle_type_id":"4","last_reported":1742893844,"current_range_meters":4400,"station_id":"ce4bgl92rcd13ifvqbq0","pricing_plan_id":"cebpf4jnsgd1na2vs0mg"},{"bike_id":"76f3d16e-d7a5-4684-96dc-ab38a67e3c56","system_id":"levelo_inurba_marseille","lat":43.27844,"lon":5.407,"is_reserved":false,"is_disabled":false,"rental_uris":{"android":"levelo://app?vid=76f3d16e-d7a5-4684-96dc-ab38a67e3c56","ios":"levelo://app?vid=76f3d16e-d7a5-4684-96dc-ab38a67e3c56"},"vehicle_type_id":"4","last_reported":1742893844,"current_range_meters":4400,"station_id":"ce4bhnh2rcd13ifvqgtg","pricing_plan_id":"cebpf4jnsgd1na2vs0mg"},{"bike_id":"74d5caef-4f0a-4dd1-8ccd-cedd3cd8ec58","system_id":"levelo_inurba_marseille","lat":43.23156,"lon":5.4371,"is_reserved":false,"is_disabled":false,"rental_uris":{"android":"levelo://app?vid=74d5caef-4f0a-4dd1-8ccd-cedd3cd8ec58","ios":"levelo://app?vid=74d5caef-4f0a-4dd1-8ccd-cedd3cd8ec58"},"vehicle_type_id":"4","last_reported":1742893844,"current_range_meters":5600,"station_id":"ce4bhmp2rcd13ifvqgog","pricing_plan_id":"cebpf4jnsgd1na2vs0mg"},{"bike_id":"12015a92-bd2b-46d3-8e29-142e3e5ec9a9","system_id":"levelo_inurba_marseille","lat":43.31756,"lon":5.39022,"is_reserved":false,"is_disabled":false,"rental_uris":{"android":"levelo://app?vid=12015a92-bd2b-46d3-8e29-142e3e5ec9a9","ios":"levelo://app?vid=12015a92-bd2b-46d3-8e29-142e3e5ec9a9"},"vehicle_type_id":"4","last_reported":1742893844,"current_range_meters":4800,"station_id":"ce4bhqp2rcd13ifvqhng","pricing_plan_id":"cebpf4jnsgd1na2vs0mg"},{"bike_id":"b89d5c58-0d7b-4f4f-8e36-d3e693accc3c","system_id":"levelo_inurba_marseille","lat":43.32364,"lon":5.36754,"is_reserved":false,"is_disabled":false,"rental_uris":{"android":"levelo://app?vid=b89d5c58-0d7b-4f4f-8e36-d3e693accc3c","ios":"levelo://app?vid=b89d5c58-0d7b-4f4f-8e36-d3e693accc3c"},"vehicle_type_id":"4","last_reported":1742893844,"current_range_meters":4800,"station_id":"ce4bhsh2rcd13ifvqi2g","pricing_plan_id":"cebpf4jnsgd1na2vs0mg"},{"bike_id":"bb7d553e-f91c-478a-a14a-5f3ea0dc4964","system_id":"levelo_inurba_marseille","lat":43.24562,"lon":5.3952,"is_reserved":false,"is_disabled":false,"rental_uris":{"android":"levelo://app?vid=bb7d553e-f91c-478a-a14a-5f3ea0dc4964","ios":"levelo://app?vid=bb7d553e-f91c-478a-a14a-5f3ea0dc4964"},"vehicle_type_id":"4","last_reported":1742893844,"current_range_meters":4800,"station_id":"ce4bhlp2rcd13ifvqgjg","pricing_plan_id":"cebpf4jnsgd1na2vs0mg"},{"bike_id":"ba77c809-1111-412f-8eae-c3c885fbd6c5","system_id":"levelo_inurba_marseille","lat":43.24174,"lon":5.36396,"is_reserved":false,"is_disabled":false,"rental_uris":{"android":"levelo://app?vid=ba77c809-1111-412f-8eae-c3c885fbd6c5","ios":"levelo://app?vid=ba77c809-1111-412f-8eae-c3c885fbd6c5"},"vehicle_type_id":"4","last_reported":1742893844,"current_range_meters":4800,"station_id":"cpo36qri1sfpv3e86is0","pricing_plan_id":"cebpf4jnsgd1na2vs0mg"},{"bike_id":"58a0f6b3-49c3-4a9b-a89a-6f3c372501a9","system_id":"levelo_inurba_marseille","lat":43.28942,"lon":5.36631,"is_reserved":false,"is_disabled":false,"rental_uris":{"android":"levelo://app?vid=58a0f6b3-49c3-4a9b-a89a-6f3c372501a9","ios":"levelo://app?vid=58a0f6b3-49c3-4a9b-a89a-6f3c372501a9"},"vehicle_type_id":"4","last_reported":1742893844,"current_range_meters":4800,"station_id":"ce4bhap2rcd13ifvqek0","pricing_plan_id":"cebpf4jnsgd1na2vs0mg"},{"bike_id":"97c91074-15f4-45b5-97e5-7a7486479552","system_id":"levelo_inurba_marseille","lat":43.3046,"lon":5.37903,"is_reserved":false,"is_disabled":false,"rental_uris":{"android":"levelo://app?vid=97c91074-15f4-45b5-97e5-7a7486479552","ios":"levelo://app?vid=97c91074-15f4-45b5-97e5-7a7486479552"},"vehicle_type_id":"4","last_reported":1742893844,"current_range_meters":4800,"station_id":"ce4bgup2rcd13ifvqcn0","pricing_plan_id":"cebpf4jnsgd1na2vs0mg"},{"bike_id":"5fdfd777-d0fd-4e90-95e0-838add0f5dc8","system_id":"levelo_inurba_marseille","lat":43.29043,"lon":5.36996,"is_reserved":false,"is_disabled":false,"rental_uris":{"android":"levelo://app?vid=5fdfd777-d0fd-4e90-95e0-838add0f5dc8","ios":"levelo://app?vid=5fdfd777-d0fd-4e90-95e0-838add0f5dc8"},"vehicle_type_id":"4","last_reported":1742893844,"current_range_meters":4800,"station_id":"","pricing_plan_id":"cebpf4jnsgd1na2vs0mg"},{"bike_id":"763cfa5b-c33b-448e-9f64-07102448a732","system_id":"levelo_inurba_marseille","lat":43.28144,"lon":5.42648,"is_reserved":false,"is_disabled":true,"rental_uris":{"android":"levelo://app?vid=763cfa5b-c33b-448e-9f64-07102448a732","ios":"levelo://app?vid=763cfa5b-c33b-448e-9f64-07102448a732"},"vehicle_type_id":"4","last_reported":1742893844,"current_range_meters":4800,"station_id":"ce4bhnh2rcd13ifvqgug","pricing_plan_id":"cebpf4jnsgd1na2vs0mg"},{"bike_id":"ec60c32b-5ee6-4a49-9920-594d37999be6","system_id":"levelo_inurba_marseille","lat":43.32533,"lon":5.41464,"is_reserved":false,"is_disabled":false,"rental_uris":{"android":"levelo://app?vid=ec60c32b-5ee6-4a49-9920-594d37999be6","ios":"levelo://app?vid=ec60c32b-5ee6-4a49-9920-594d37999be6"},"vehicle_type_id":"4","last_reported":1742893844,"current_range_meters":5600,"station_id":"ce4bhq12rcd13ifvqhhg","pricing_plan_id":"cebpf4jnsgd1na2vs0mg"},{"bike_id":"9fc87cb3-4f61-4e11-a37d-bb25cfffc8b7","system_id":"levelo_inurba_marseille","lat":43.24525,"lon":5.42881,"is_reserved":false,"is_disabled":false,"rental_uris":{"android":"levelo://app?vid=9fc87cb3-4f61-4e11-a37d-bb25cfffc8b7","ios":"levelo://app?vid=9fc87cb3-4f61-4e11-a37d-bb25cfffc8b7"},"vehicle_type_id":"4","last_reported":1742893844,"current_range_meters":5600,"station_id":"","pricing_plan_id":"cebpf4jnsgd1na2vs0mg"},{"bike_id":"1aad0a36-287c-4b19-83c7-6fafc3583ccc","system_id":"levelo_inurba_marseille","lat":43.30542,"lon":5.36717,"is_reserved":false,"is_disabled":false,"rental_uris":{"android":"levelo://app?vid=1aad0a36-287c-4b19-83c7-6fafc3583ccc","ios":"levelo://app?vid=1aad0a36-287c-4b19-83c7-6fafc3583ccc"},"vehicle_type_id":"4","last_reported":1742893844,"current_range_meters":5600,"station_id":"ce4bgrp2rcd13ifvqc9g","pricing_plan_id":"cebpf4jnsgd1na2vs0mg"},{"bike_id":"cc9f697d-0143-4277-a913-e9e1c9dce4a3","system_id":"levelo_inurba_marseille","lat":43.296331,"lon":5.405964,"is_reserved":false,"is_disabled":false,"rental_uris":{"android":"levelo://app?vid=cc9f697d-0143-4277-a913-e9e1c9dce4a3","ios":"levelo://app?vid=cc9f697d-0143-4277-a913-e9e1c9dce4a3"},"vehicle_type_id":"4","last_reported":1742893844,"current_range_meters":5600,"station_id":"ce4bh012rcd13ifvqcv0","pricing_plan_id":"cebpf4jnsgd1na2vs0mg"},{"bike_id":"d2c82901-ca9e-4287-975d-e4cf510ea572","system_id":"levelo_inurba_marseille","lat":43.2731,"lon":5.39074,"is_reserved":false,"is_disabled":false,"rental_uris":{"android":"levelo://app?vid=d2c82901-ca9e-4287-975d-e4cf510ea572","ios":"levelo://app?vid=d2c82901-ca9e-4287-975d-e4cf510ea572"},"vehicle_type_id":"4","last_reported":1742893844,"current_range_meters":5600,"station_id":"ce4bhgp2rcd13ifvqfe0","pricing_plan_id":"cebpf4jnsgd1na2vs0mg"},{"bike_id":"2898d5cc-3a00-4b94-92e2-84f947fa3463","system_id":"levelo_inurba_marseille","lat":43.26677,"lon":5.38267,"is_reserved":false,"is_disabled":false,"rental_uris":{"android":"levelo://app?vid=2898d5cc-3a00-4b94-92e2-84f947fa3463","ios":"levelo://app?vid=2898d5cc-3a00-4b94-92e2-84f947fa3463"},"vehicle_type_id":"4","last_reported":1742893844,"current_range_meters":5600,"station_id":"ce4bhg92rcd13ifvqf90","pricing_plan_id":"cebpf4jnsgd1na2vs0mg"},{"bike_id":"3e5bf0fa-864a-411e-8a19-905a073af9d2","system_id":"levelo_inurba_marseille","lat":43.262,"lon":5.37923,"is_reserved":false,"is_disabled":false,"rental_uris":{"android":"levelo://app?vid=3e5bf0fa-864a-411e-8a19-905a073af9d2","ios":"levelo://app?vid=3e5bf0fa-864a-411e-8a19-905a073af9d2"},"vehicle_type_id":"4","last_reported":1742893844,"current_range_meters":5600,"station_id":"ce4bhjp2rcd13ifvqg90","pricing_plan_id":"cebpf4jnsgd1na2vs0mg"},{"bike_id":"c5bb87a9-bb5d-4434-a6b4-9bcea1b9ef74","system_id":"levelo_inurba_marseille","lat":43.26773,"lon":5.39432,"is_reserved":false,"is_disabled":false,"rental_uris":{"android":"levelo://app?vid=c5bb87a9-bb5d-4434-a6b4-9bcea1b9ef74","ios":"levelo://app?vid=c5bb87a9-bb5d-4434-a6b4-9bcea1b9ef74"},"vehicle_type_id":"4","last_reported":1742893844,"current_range_meters":5600,"station_id":"ce4bhh12rcd13ifvqfg0","pricing_plan_id":"cebpf4jnsgd1na2vs0mg"},{"bike_id":"0a2fc798-b1e7-44b9-9288-c76e9d567eee","system_id":"levelo_inurba_marseille","lat":43.29967,"lon":5.37168,"is_reserved":false,"is_disabled":false,"rental_uris":{"android":"levelo://app?vid=0a2fc798-b1e7-44b9-9288-c76e9d567eee","ios":"levelo://app?vid=0a2fc798-b1e7-44b9-9288-c76e9d567eee"},"vehicle_type_id":"4","last_reported":1742893844,"current_range_meters":5600,"station_id":"ce4bgr92rcd13ifvqc7g","pricing_plan_id":"cebpf4jnsgd1na2vs0mg"},{"bike_id":"813284b6-9c9e-4f50-9d4d-dbc01d46338b","system_id":"levelo_inurba_marseille","lat":43.24664,"lon":5.38167,"is_reserved":false,"is_disabled":false,"rental_uris":{"android":"levelo://app?vid=813284b6-9c9e-4f50-9d4d-dbc01d46338b","ios":"levelo://app?vid=813284b6-9c9e-4f50-9d4d-dbc01d46338b"},"vehicle_type_id":"4","last_reported":1742893844,"current_range_meters":6000,"station_id":"ce4bhih2rcd13ifvqfr0","pricing_plan_id":"cebpf4jnsgd1na2vs0mg"},{"bike_id":"fa2f04c9-0d94-461f-a10d-f63fbd1c41a9","system_id":"levelo_inurba_marseille","lat":43.30358,"lon":5.41873,"is_reserved":false,"is_disabled":false,"rental_uris":{"android":"levelo://app?vid=fa2f04c9-0d94-461f-a10d-f63fbd1c41a9","ios":"levelo://app?vid=fa2f04c9-0d94-461f-a10d-f63fbd1c41a9"},"vehicle_type_id":"4","last_reported":1742893844,"current_range_meters":6000,"station_id":"ce4bhop2rcd13ifvqh7g","pricing_plan_id":"cebpf4jnsgd1na2vs0mg"},{"bike_id":"4984db66-5241-446c-94cd-2a35586b6040","system_id":"levelo_inurba_marseille","lat":43.2782,"lon":5.40714,"is_reserved":false,"is_disabled":false,"rental_uris":{"android":"levelo://app?vid=4984db66-5241-446c-94cd-2a35586b6040","ios":"levelo://app?vid=4984db66-5241-446c-94cd-2a35586b6040"},"vehicle_type_id":"4","last_reported":1742893844,"current_range_meters":6000,"station_id":"ce4bhnh2rcd13ifvqgtg","pricing_plan_id":"cebpf4jnsgd1na2vs0mg"},{"bike_id":"e22b4409-ad89-44bc-9897-fb42e1599873","system_id":"levelo_inurba_marseille","lat":43.28932,"lon":5.36366,"is_reserved":false,"is_disabled":false,"rental_uris":{"android":"levelo://app?vid=e22b4409-ad89-44bc-9897-fb42e1599873","ios":"levelo://app?vid=e22b4409-ad89-44bc-9897-fb42e1599873"},"vehicle_type_id":"4","last_reported":1742893844,"current_range_meters":6000,"station_id":"ce4bhc92rcd13ifvqetg","pricing_plan_id":"cebpf4jnsgd1na2vs0mg"},{"bike_id":"f7354dda-867a-4582-95bf-c6caab060a8f","system_id":"levelo_inurba_marseille","lat":43.310784,"lon":5.383547,"is_reserved":false,"is_disabled":false,"rental_uris":{"android":"levelo://app?vid=f7354dda-867a-4582-95bf-c6caab060a8f","ios":"levelo://app?vid=f7354dda-867a-4582-95bf-c6caab060a8f"},"vehicle_type_id":"4","last_reported":1742893844,"current_range_meters":6000,"station_id":"ce4bgv92rcd13ifvqcr0","pricing_plan_id":"cebpf4jnsgd1na2vs0mg"},{"bike_id":"6817dbe6-8e6e-4ad8-9510-3e5a79dbb19a","system_id":"levelo_inurba_marseille","lat":43.28928,"lon":5.36402,"is_reserved":false,"is_disabled":false,"rental_uris":{"android":"levelo://app?vid=6817dbe6-8e6e-4ad8-9510-3e5a79dbb19a","ios":"levelo://app?vid=6817dbe6-8e6e-4ad8-9510-3e5a79dbb19a"},"vehicle_type_id":"4","last_reported":1742893844,"current_range_meters":6000,"station_id":"ce4bhc92rcd13ifvqetg","pricing_plan_id":"cebpf4jnsgd1na2vs0mg"},{"bike_id":"8dbdc25a-a8ec-4b7e-9651-9867cba9b494","system_id":"levelo_inurba_marseille","lat":43.29622,"lon":5.37175,"is_reserved":false,"is_disabled":false,"rental_uris":{"android":"levelo://app?vid=8dbdc25a-a8ec-4b7e-9651-9867cba9b494","ios":"levelo://app?vid=8dbdc25a-a8ec-4b7e-9651-9867cba9b494"},"vehicle_type_id":"4","last_reported":1742893844,"current_range_meters":6000,"station_id":"ce4bgnh2rcd13ifvqc0g","pricing_plan_id":"cebpf4jnsgd1na2vs0mg"},{"bike_id":"3db50893-67a3-44ca-8b6d-9cbedead82bf","system_id":"levelo_inurba_marseille","lat":43.29195,"lon":5.35802,"is_reserved":false,"is_disabled":false,"rental_uris":{"android":"levelo://app?vid=3db50893-67a3-44ca-8b6d-9cbedead82bf","ios":"levelo://app?vid=3db50893-67a3-44ca-8b6d-9cbedead82bf"},"vehicle_type_id":"4","last_reported":1742893844,"current_range_meters":6400,"station_id":"ce4bhb12rcd13ifvqel0","pricing_plan_id":"cebpf4jnsgd1na2vs0mg"},{"bike_id":"f02a77b8-f810-41ff-bf5b-5ab742b469a7","system_id":"levelo_inurba_marseille","lat":43.23158,"lon":5.43694,"is_reserved":false,"is_disabled":false,"rental_uris":{"android":"levelo://app?vid=f02a77b8-f810-41ff-bf5b-5ab742b469a7","ios":"levelo://app?vid=f02a77b8-f810-41ff-bf5b-5ab742b469a7"},"vehicle_type_id":"4","last_reported":1742893844,"current_range_meters":6400,"station_id":"ce4bhmp2rcd13ifvqgog","pricing_plan_id":"cebpf4jnsgd1na2vs0mg"},{"bike_id":"a0a460eb-34d7-43d6-85ef-87b30455cbf0","system_id":"levelo_inurba_marseille","lat":43.23943,"lon":5.3665,"is_reserved":false,"is_disabled":false,"rental_uris":{"android":"levelo://app?vid=a0a460eb-34d7-43d6-85ef-87b30455cbf0","ios":"levelo://app?vid=a0a460eb-34d7-43d6-85ef-87b30455cbf0"},"vehicle_type_id":"4","last_reported":1742893844,"current_range_meters":6400,"station_id":"ce4bhi12rcd13ifvqfp0","pricing_plan_id":"cebpf4jnsgd1na2vs0mg"},{"bike_id":"ed445230-2d21-4498-afb7-fd4aa4bf3d47","system_id":"levelo_inurba_marseille","lat":43.2668,"lon":5.38268,"is_reserved":false,"is_disabled":false,"rental_uris":{"android":"levelo://app?vid=ed445230-2d21-4498-afb7-fd4aa4bf3d47","ios":"levelo://app?vid=ed445230-2d21-4498-afb7-fd4aa4bf3d47"},"vehicle_type_id":"4","last_reported":1742893844,"current_range_meters":6400,"station_id":"ce4bhg92rcd13ifvqf90","pricing_plan_id":"cebpf4jnsgd1na2vs0mg"},{"bike_id":"df632c8e-92f6-4b8a-9524-6d142d68aad1","system_id":"levelo_inurba_marseille","lat":43.25587,"lon":5.38247,"is_reserved":false,"is_disabled":false,"rental_uris":{"android":"levelo://app?vid=df632c8e-92f6-4b8a-9524-6d142d68aad1","ios":"levelo://app?vid=df632c8e-92f6-4b8a-9524-6d142d68aad1"},"vehicle_type_id":"4","last_reported":1742893844,"current_range_meters":6400,"station_id":"ce4bhih2rcd13ifvqfs0","pricing_plan_id":"cebpf4jnsgd1na2vs0mg"},{"bike_id":"ebf86de8-a3f7-4563-b9cd-62f5316ef4ec","system_id":"levelo_inurba_marseille","lat":43.309144,"lon":5.401513,"is_reserved":false,"is_disabled":true,"rental_uris":{"android":"levelo://app?vid=ebf86de8-a3f7-4563-b9cd-62f5316ef4ec","ios":"levelo://app?vid=ebf86de8-a3f7-4563-b9cd-62f5316ef4ec"},"vehicle_type_id":"4","last_reported":1742893844,"current_range_meters":6800,"station_id":"ce4bgvp2rcd13ifvqct0","pricing_plan_id":"cebpf4jnsgd1na2vs0mg"},{"bike_id":"19c4d38c-721f-4a6d-8de0-ad162aee3dc3","system_id":"levelo_inurba_marseille","lat":43.29865,"lon":5.38902,"is_reserved":false,"is_disabled":true,"rental_uris":{"android":"levelo://app?vid=19c4d38c-721f-4a6d-8de0-ad162aee3dc3","ios":"levelo://app?vid=19c4d38c-721f-4a6d-8de0-ad162aee3dc3"},"vehicle_type_id":"4","last_reported":1742893844,"current_range_meters":6800,"station_id":"ce4bh392rcd13ifvqdl0","pricing_plan_id":"cebpf4jnsgd1na2vs0mg"},{"bike_id":"f8a4a175-4655-4f3f-b7b9-8b2d4f2a1d43","system_id":"levelo_inurba_marseille","lat":43.30144,"lon":5.37419,"is_reserved":false,"is_disabled":false,"rental_uris":{"android":"levelo://app?vid=f8a4a175-4655-4f3f-b7b9-8b2d4f2a1d43","ios":"levelo://app?vid=f8a4a175-4655-4f3f-b7b9-8b2d4f2a1d43"},"vehicle_type_id":"4","last_reported":1742893844,"current_range_meters":6800,"station_id":"ce4bgs92rcd13ifvqcc0","pricing_plan_id":"cebpf4jnsgd1na2vs0mg"},{"bike_id":"76356a35-2bef-4e13-9025-27f32224e678","system_id":"levelo_inurba_marseille","lat":43.26952,"lon":5.38639,"is_reserved":false,"is_disabled":false,"rental_uris":{"android":"levelo://app?vid=76356a35-2bef-4e13-9025-27f32224e678","ios":"levelo://app?vid=76356a35-2bef-4e13-9025-27f32224e678"},"vehicle_type_id":"4","last_reported":1742893844,"current_range_meters":6800,"station_id":"ce4bhh92rcd13ifvqfh0","pricing_plan_id":"cebpf4jnsgd1na2vs0mg"},{"bike_id":"1b8779ee-15bd-411f-8230-66fb3b9d06b8","system_id":"levelo_inurba_marseille","lat":43.29891,"lon":5.43665,"is_reserved":false,"is_disabled":false,"rental_uris":{"android":"levelo://app?vid=1b8779ee-15bd-411f-8230-66fb3b9d06b8","ios":"levelo://app?vid=1b8779ee-15bd-411f-8230-66fb3b9d06b8"},"vehicle_type_id":"4","last_reported":1742893844,"current_range_meters":7200,"station_id":"ce4bhpp2rcd13ifvqhfg","pricing_plan_id":"cebpf4jnsgd1na2vs0mg"},{"bike_id":"0168e9a8-279f-493a-9598-07d4f32d9454","system_id":"levelo_inurba_marseille","lat":43.26947,"lon":5.38627,"is_reserved":false,"is_disabled":false,"rental_uris":{"android":"levelo://app?vid=0168e9a8-279f-493a-9598-07d4f32d9454","ios":"levelo://app?vid=0168e9a8-279f-493a-9598-07d4f32d9454"},"vehicle_type_id":"4","last_reported":1742893844,"current_range_meters":7200,"station_id":"ce4bhh92rcd13ifvqfh0","pricing_plan_id":"cebpf4jnsgd1na2vs0mg"},{"bike_id":"28a4388a-1551-4780-a465-a3ba2a4869e8","system_id":"levelo_inurba_marseille","lat":43.24065,"lon":5.37762,"is_reserved":false,"is_disabled":false,"rental_uris":{"android":"levelo://app?vid=28a4388a-1551-4780-a465-a3ba2a4869e8","ios":"levelo://app?vid=28a4388a-1551-4780-a465-a3ba2a4869e8"},"vehicle_type_id":"4","last_reported":1742893844,"current_range_meters":7200,"station_id":"ce4bhnp2rcd13ifvqgvg","pricing_plan_id":"cebpf4jnsgd1na2vs0mg"},{"bike_id":"dde122d3-41f4-4a98-a9d3-cb3d2e63454b","system_id":"levelo_inurba_marseille","lat":43.24084,"lon":5.37752,"is_reserved":false,"is_disabled":false,"rental_uris":{"android":"levelo://app?vid=dde122d3-41f4-4a98-a9d3-cb3d2e63454b","ios":"levelo://app?vid=dde122d3-41f4-4a98-a9d3-cb3d2e63454b"},"vehicle_type_id":"4","last_reported":1742893844,"current_range_meters":7200,"station_id":"ce4bhnp2rcd13ifvqgvg","pricing_plan_id":"cebpf4jnsgd1na2vs0mg"},{"bike_id":"8723922e-320e-4649-af0a-8190d390afa0","system_id":"levelo_inurba_marseille","lat":43.32109,"lon":5.3677,"is_reserved":false,"is_disabled":false,"rental_uris":{"android":"levelo://app?vid=8723922e-320e-4649-af0a-8190d390afa0","ios":"levelo://app?vid=8723922e-320e-4649-af0a-8190d390afa0"},"vehicle_type_id":"4","last_reported":1742893844,"current_range_meters":7200,"station_id":"ce4bhrh2rcd13ifvqhug","pricing_plan_id":"cebpf4jnsgd1na2vs0mg"},{"bike_id":"f8bc93c6-f382-4deb-a4a1-765f8fd5994c","system_id":"levelo_inurba_marseille","lat":43.30547,"lon":5.36543,"is_reserved":false,"is_disabled":false,"rental_uris":{"android":"levelo://app?vid=f8bc93c6-f382-4deb-a4a1-765f8fd5994c","ios":"levelo://app?vid=f8bc93c6-f382-4deb-a4a1-765f8fd5994c"},"vehicle_type_id":"4","last_reported":1742893844,"current_range_meters":7200,"station_id":"ce4bgs12rcd13ifvqcag","pricing_plan_id":"cebpf4jnsgd1na2vs0mg"},{"bike_id":"0153ba75-2626-4a5f-bec7-5089befab79a","system_id":"levelo_inurba_marseille","lat":43.23962,"lon":5.36633,"is_reserved":false,"is_disabled":false,"rental_uris":{"android":"levelo://app?vid=0153ba75-2626-4a5f-bec7-5089befab79a","ios":"levelo://app?vid=0153ba75-2626-4a5f-bec7-5089befab79a"},"vehicle_type_id":"4","last_reported":1742893844,"current_range_meters":7200,"station_id":"ce4bhi12rcd13ifvqfp0","pricing_plan_id":"cebpf4jnsgd1na2vs0mg"},{"bike_id":"5b921547-230c-4ae0-91f3-83af2f10df0e","system_id":"levelo_inurba_marseille","lat":43.314923,"lon":5.373097,"is_reserved":false,"is_disabled":false,"rental_uris":{"android":"levelo://app?vid=5b921547-230c-4ae0-91f3-83af2f10df0e","ios":"levelo://app?vid=5b921547-230c-4ae0-91f3-83af2f10df0e"},"vehicle_type_id":"4","last_reported":1742893844,"current_range_meters":8000,"station_id":"ce4bgt12rcd13ifvqcd0","pricing_plan_id":"cebpf4jnsgd1na2vs0mg"},{"bike_id":"2462aff4-312c-46a9-ae18-d864ef42c20c","system_id":"levelo_inurba_marseille","lat":43.24176,"lon":5.36424,"is_reserved":false,"is_disabled":false,"rental_uris":{"android":"levelo://app?vid=2462aff4-312c-46a9-ae18-d864ef42c20c","ios":"levelo://app?vid=2462aff4-312c-46a9-ae18-d864ef42c20c"},"vehicle_type_id":"4","last_reported":1742893844,"current_range_meters":8000,"station_id":"cpo36qri1sfpv3e86is0","pricing_plan_id":"cebpf4jnsgd1na2vs0mg"},{"bike_id":"f7e0df3d-f8dd-4aab-b001-f708f9ac4782","system_id":"levelo_inurba_marseille","lat":43.30278,"lon":5.37694,"is_reserved":false,"is_disabled":false,"rental_uris":{"android":"levelo://app?vid=f7e0df3d-f8dd-4aab-b001-f708f9ac4782","ios":"levelo://app?vid=f7e0df3d-f8dd-4aab-b001-f708f9ac4782"},"vehicle_type_id":"4","last_reported":1742893844,"current_range_meters":8000,"station_id":"ce4bguh2rcd13ifvqcj0","pricing_plan_id":"cebpf4jnsgd1na2vs0mg"},{"bike_id":"d6d4755b-6317-4814-bb26-03c367586df3","system_id":"levelo_inurba_marseille","lat":43.29852,"lon":5.36269,"is_reserved":false,"is_disabled":false,"rental_uris":{"android":"levelo://app?vid=d6d4755b-6317-4814-bb26-03c367586df3","ios":"levelo://app?vid=d6d4755b-6317-4814-bb26-03c367586df3"},"vehicle_type_id":"4","last_reported":1742893844,"current_range_meters":8000,"station_id":"ce4bgpp2rcd13ifvqc3g","pricing_plan_id":"cebpf4jnsgd1na2vs0mg"},{"bike_id":"f28c0c94-d4e7-41d2-bcc2-de39a5af2bd0","system_id":"levelo_inurba_marseille","lat":43.31355,"lon":5.36699,"is_reserved":false,"is_disabled":false,"rental_uris":{"android":"levelo://app?vid=f28c0c94-d4e7-41d2-bcc2-de39a5af2bd0","ios":"levelo://app?vid=f28c0c94-d4e7-41d2-bcc2-de39a5af2bd0"},"vehicle_type_id":"4","last_reported":1742893844,"current_range_meters":8000,"station_id":"ce4bgr92rcd13ifvqc6g","pricing_plan_id":"cebpf4jnsgd1na2vs0mg"},{"bike_id":"37a4605d-399a-450a-9795-72966e4a4553","system_id":"levelo_inurba_marseille","lat":43.28568,"lon":5.39499,"is_reserved":false,"is_disabled":false,"rental_uris":{"android":"levelo://app?vid=37a4605d-399a-450a-9795-72966e4a4553","ios":"levelo://app?vid=37a4605d-399a-450a-9795-72966e4a4553"},"vehicle_type_id":"4","last_reported":1742893844,"current_range_meters":8000,"station_id":"ce4bh292rcd13ifvqdg0","pricing_plan_id":"cebpf4jnsgd1na2vs0mg"},{"bike_id":"11146d89-280c-4ffa-9e2e-3ca463658b6b","system_id":"levelo_inurba_marseille","lat":43.26952,"lon":5.38625,"is_reserved":false,"is_disabled":false,"rental_uris":{"android":"levelo://app?vid=11146d89-280c-4ffa-9e2e-3ca463658b6b","ios":"levelo://app?vid=11146d89-280c-4ffa-9e2e-3ca463658b6b"},"vehicle_type_id":"4","last_reported":1742893844,"current_range_meters":8000,"station_id":"ce4bhh92rcd13ifvqfh0","pricing_plan_id":"cebpf4jnsgd1na2vs0mg"},{"bike_id":"831548ca-18c3-4266-8090-99bf3a6d137e","system_id":"levelo_inurba_marseille","lat":43.29379,"lon":5.37855,"is_reserved":false,"is_disabled":false,"rental_uris":{"android":"levelo://app?vid=831548ca-18c3-4266-8090-99bf3a6d137e","ios":"levelo://app?vid=831548ca-18c3-4266-8090-99bf3a6d137e"},"vehicle_type_id":"4","last_reported":1742893844,"current_range_meters":8000,"station_id":"ce4bgjh2rcd13ifvqbf0","pricing_plan_id":"cebpf4jnsgd1na2vs0mg"},{"bike_id":"2307e763-747a-4c32-8236-db9f47a00252","system_id":"levelo_inurba_marseille","lat":43.30414,"lon":5.41284,"is_reserved":false,"is_disabled":false,"rental_uris":{"android":"levelo://app?vid=2307e763-747a-4c32-8236-db9f47a00252","ios":"levelo://app?vid=2307e763-747a-4c32-8236-db9f47a00252"},"vehicle_type_id":"4","last_reported":1742893844,"current_range_meters":8000,"station_id":"ce4bhop2rcd13ifvqh8g","pricing_plan_id":"cebpf4jnsgd1na2vs0mg"},{"bike_id":"2ff570d2-4d8e-48ed-9e8e-8a83ca9149b2","system_id":"levelo_inurba_marseille","lat":43.27084,"lon":5.42275,"is_reserved":false,"is_disabled":true,"rental_uris":{"android":"levelo://app?vid=2ff570d2-4d8e-48ed-9e8e-8a83ca9149b2","ios":"levelo://app?vid=2ff570d2-4d8e-48ed-9e8e-8a83ca9149b2"},"vehicle_type_id":"4","last_reported":1742893844,"current_range_meters":8000,"station_id":"ce4bhk92rcd13ifvqgb0","pricing_plan_id":"cebpf4jnsgd1na2vs0mg"},{"bike_id":"fbfecbb6-5794-4d9a-9176-1810e4b4a7ef","system_id":"levelo_inurba_marseille","lat":43.2306,"lon":5.35497,"is_reserved":false,"is_disabled":false,"rental_uris":{"android":"levelo://app?vid=fbfecbb6-5794-4d9a-9176-1810e4b4a7ef","ios":"levelo://app?vid=fbfecbb6-5794-4d9a-9176-1810e4b4a7ef"},"vehicle_type_id":"4","last_reported":1742893844,"current_range_meters":8000,"station_id":"","pricing_plan_id":"cebpf4jnsgd1na2vs0mg"},{"bike_id":"23b950d7-1aaa-4faf-aa38-9d41edf1a1ad","system_id":"levelo_inurba_marseille","lat":43.303264,"lon":5.404374,"is_reserved":false,"is_disabled":false,"rental_uris":{"android":"levelo://app?vid=23b950d7-1aaa-4faf-aa38-9d41edf1a1ad","ios":"levelo://app?vid=23b950d7-1aaa-4faf-aa38-9d41edf1a1ad"},"vehicle_type_id":"4","last_reported":1742893844,"current_range_meters":7200,"station_id":"ce4bhop2rcd13ifvqh8g","pricing_plan_id":"cebpf4jnsgd1na2vs0mg"},{"bike_id":"379b9c8a-0bf3-4edf-ac5a-21e3921d4ff9","system_id":"levelo_inurba_marseille","lat":43.27993,"lon":5.38717,"is_reserved":false,"is_disabled":false,"rental_uris":{"android":"levelo://app?vid=379b9c8a-0bf3-4edf-ac5a-21e3921d4ff9","ios":"levelo://app?vid=379b9c8a-0bf3-4edf-ac5a-21e3921d4ff9"},"vehicle_type_id":"4","last_reported":1742893844,"current_range_meters":8400,"station_id":"ce4bhg12rcd13ifvqf80","pricing_plan_id":"cebpf4jnsgd1na2vs0mg"},{"bike_id":"3e089a20-86d8-4244-979c-5b7762bbd749","system_id":"levelo_inurba_marseille","lat":43.3237,"lon":5.3888,"is_reserved":false,"is_disabled":false,"rental_uris":{"android":"levelo://app?vid=3e089a20-86d8-4244-979c-5b7762bbd749","ios":"levelo://app?vid=3e089a20-86d8-4244-979c-5b7762bbd749"},"vehicle_type_id":"4","last_reported":1742893844,"current_range_meters":8400,"station_id":"ce4bhqp2rcd13ifvqhog","pricing_plan_id":"cebpf4jnsgd1na2vs0mg"},{"bike_id":"7d2c4b31-612a-4999-80c5-0bd40a54e182","system_id":"levelo_inurba_marseille","lat":43.28608,"lon":5.37064,"is_reserved":false,"is_disabled":false,"rental_uris":{"android":"levelo://app?vid=7d2c4b31-612a-4999-80c5-0bd40a54e182","ios":"levelo://app?vid=7d2c4b31-612a-4999-80c5-0bd40a54e182"},"vehicle_type_id":"4","last_reported":1742893844,"current_range_meters":8400,"station_id":"ce4bht12rcd13ifvqi60","pricing_plan_id":"cebpf4jnsgd1na2vs0mg"},{"bike_id":"f1681b6a-7497-4c7b-a00f-0c281574068a","system_id":"levelo_inurba_marseille","lat":43.30999,"lon":5.37543,"is_reserved":false,"is_disabled":false,"rental_uris":{"android":"levelo://app?vid=f1681b6a-7497-4c7b-a00f-0c281574068a","ios":"levelo://app?vid=f1681b6a-7497-4c7b-a00f-0c281574068a"},"vehicle_type_id":"4","last_reported":1742893844,"current_range_meters":8400,"station_id":"","pricing_plan_id":"cebpf4jnsgd1na2vs0mg"},{"bike_id":"21be2ddd-a33f-4821-9edb-0782de7ee7c9","system_id":"levelo_inurba_marseille","lat":43.23138,"lon":5.43724,"is_reserved":false,"is_disabled":false,"rental_uris":{"android":"levelo://app?vid=21be2ddd-a33f-4821-9edb-0782de7ee7c9","ios":"levelo://app?vid=21be2ddd-a33f-4821-9edb-0782de7ee7c9"},"vehicle_type_id":"4","last_reported":1742893844,"current_range_meters":8400,"station_id":"ce4bhmp2rcd13ifvqgog","pricing_plan_id":"cebpf4jnsgd1na2vs0mg"},{"bike_id":"fe0493e6-c8d8-4f02-8b3f-763ef441a4da","system_id":"levelo_inurba_marseille","lat":43.30545,"lon":5.36535,"is_reserved":false,"is_disabled":false,"rental_uris":{"android":"levelo://app?vid=fe0493e6-c8d8-4f02-8b3f-763ef441a4da","ios":"levelo://app?vid=fe0493e6-c8d8-4f02-8b3f-763ef441a4da"},"vehicle_type_id":"4","last_reported":1742893844,"current_range_meters":8400,"station_id":"ce4bgs12rcd13ifvqcag","pricing_plan_id":"cebpf4jnsgd1na2vs0mg"},{"bike_id":"9eef2c13-4412-429d-a6b0-e32bea5d5b99","system_id":"levelo_inurba_marseille","lat":43.32467,"lon":5.36575,"is_reserved":false,"is_disabled":false,"rental_uris":{"android":"levelo://app?vid=9eef2c13-4412-429d-a6b0-e32bea5d5b99","ios":"levelo://app?vid=9eef2c13-4412-429d-a6b0-e32bea5d5b99"},"vehicle_type_id":"4","last_reported":1742893844,"current_range_meters":8400,"station_id":"ce4bhs12rcd13ifvqhvg","pricing_plan_id":"cebpf4jnsgd1na2vs0mg"},{"bike_id":"7955c63a-7365-402f-bd5c-0f6460ac413a","system_id":"levelo_inurba_marseille","lat":43.2507,"lon":5.39526,"is_reserved":false,"is_disabled":false,"rental_uris":{"android":"levelo://app?vid=7955c63a-7365-402f-bd5c-0f6460ac413a","ios":"levelo://app?vid=7955c63a-7365-402f-bd5c-0f6460ac413a"},"vehicle_type_id":"4","last_reported":1742893844,"current_range_meters":8400,"station_id":"","pricing_plan_id":"cebpf4jnsgd1na2vs0mg"},{"bike_id":"0dfb0d89-73f2-49b8-91e9-15d856e46939","system_id":"levelo_inurba_marseille","lat":43.24177,"lon":5.39733,"is_reserved":false,"is_disabled":false,"rental_uris":{"android":"levelo://app?vid=0dfb0d89-73f2-49b8-91e9-15d856e46939","ios":"levelo://app?vid=0dfb0d89-73f2-49b8-91e9-15d856e46939"},"vehicle_type_id":"4","last_reported":1742893844,"current_range_meters":8400,"station_id":"ce4bhn12rcd13ifvqgpg","pricing_plan_id":"cebpf4jnsgd1na2vs0mg"},{"bike_id":"dc50d0f2-491f-4133-a01f-5fe02da3daa6","system_id":"levelo_inurba_marseille","lat":43.28474,"lon":5.3856,"is_reserved":false,"is_disabled":false,"rental_uris":{"android":"levelo://app?vid=dc50d0f2-491f-4133-a01f-5fe02da3daa6","ios":"levelo://app?vid=dc50d0f2-491f-4133-a01f-5fe02da3daa6"},"vehicle_type_id":"4","last_reported":1742893844,"current_range_meters":8400,"station_id":"ce4bh8p2rcd13ifvqeb0","pricing_plan_id":"cebpf4jnsgd1na2vs0mg"},{"bike_id":"d6b9068b-bec0-4f76-9c03-273151aa3d54","system_id":"levelo_inurba_marseille","lat":43.26556,"lon":5.37289,"is_reserved":false,"is_disabled":false,"rental_uris":{"android":"levelo://app?vid=d6b9068b-bec0-4f76-9c03-273151aa3d54","ios":"levelo://app?vid=d6b9068b-bec0-4f76-9c03-273151aa3d54"},"vehicle_type_id":"4","last_reported":1742893844,"current_range_meters":8400,"station_id":"","pricing_plan_id":"cebpf4jnsgd1na2vs0mg"},{"bike_id":"a0d4632a-7a87-4031-aeeb-061ca0feaca6","system_id":"levelo_inurba_marseille","lat":43.23963,"lon":5.36635,"is_reserved":false,"is_disabled":false,"rental_uris":{"android":"levelo://app?vid=a0d4632a-7a87-4031-aeeb-061ca0feaca6","ios":"levelo://app?vid=a0d4632a-7a87-4031-aeeb-061ca0feaca6"},"vehicle_type_id":"4","last_reported":1742893844,"current_range_meters":8800,"station_id":"","pricing_plan_id":"cebpf4jnsgd1na2vs0mg"},{"bike_id":"e5ca58cd-4fb3-46c9-8884-d446cccfbc30","system_id":"levelo_inurba_marseille","lat":43.25939,"lon":5.40885,"is_reserved":false,"is_disabled":false,"rental_uris":{"android":"levelo://app?vid=e5ca58cd-4fb3-46c9-8884-d446cccfbc30","ios":"levelo://app?vid=e5ca58cd-4fb3-46c9-8884-d446cccfbc30"},"vehicle_type_id":"4","last_reported":1742893844,"current_range_meters":8800,"station_id":"ce4bhm92rcd13ifvqglg","pricing_plan_id":"cebpf4jnsgd1na2vs0mg"},{"bike_id":"60f041d6-b146-4ab8-b44b-0cfaba0dfcf9","system_id":"levelo_inurba_marseille","lat":43.30547,"lon":5.36688,"is_reserved":false,"is_disabled":false,"rental_uris":{"android":"levelo://app?vid=60f041d6-b146-4ab8-b44b-0cfaba0dfcf9","ios":"levelo://app?vid=60f041d6-b146-4ab8-b44b-0cfaba0dfcf9"},"vehicle_type_id":"4","last_reported":1742893844,"current_range_meters":8800,"station_id":"ce4bgrp2rcd13ifvqc9g","pricing_plan_id":"cebpf4jnsgd1na2vs0mg"},{"bike_id":"c9c19aa6-3fe4-401b-ab2c-9612f3df5e72","system_id":"levelo_inurba_marseille","lat":43.3096,"lon":5.39049,"is_reserved":false,"is_disabled":true,"rental_uris":{"android":"levelo://app?vid=c9c19aa6-3fe4-401b-ab2c-9612f3df5e72","ios":"levelo://app?vid=c9c19aa6-3fe4-401b-ab2c-9612f3df5e72"},"vehicle_type_id":"4","last_reported":1742893844,"current_range_meters":8800,"station_id":"ce4bgup2rcd13ifvqco0","pricing_plan_id":"cebpf4jnsgd1na2vs0mg"},{"bike_id":"cf38a855-c83b-40e7-88f8-26504e103af6","system_id":"levelo_inurba_marseille","lat":43.30144,"lon":5.37424,"is_reserved":false,"is_disabled":false,"rental_uris":{"android":"levelo://app?vid=cf38a855-c83b-40e7-88f8-26504e103af6","ios":"levelo://app?vid=cf38a855-c83b-40e7-88f8-26504e103af6"},"vehicle_type_id":"4","last_reported":1742893844,"current_range_meters":8800,"station_id":"ce4bgs92rcd13ifvqcc0","pricing_plan_id":"cebpf4jnsgd1na2vs0mg"},{"bike_id":"fdc900a3-d212-4811-b277-8ef5639975dc","system_id":"levelo_inurba_marseille","lat":43.2919,"lon":5.35806,"is_reserved":false,"is_disabled":false,"rental_uris":{"android":"levelo://app?vid=fdc900a3-d212-4811-b277-8ef5639975dc","ios":"levelo://app?vid=fdc900a3-d212-4811-b277-8ef5639975dc"},"vehicle_type_id":"4","last_reported":1742893844,"current_range_meters":8800,"station_id":"ce4bhb12rcd13ifvqel0","pricing_plan_id":"cebpf4jnsgd1na2vs0mg"},{"bike_id":"8284de5c-d227-47cd-b1ac-1bc2e0170d0f","system_id":"levelo_inurba_marseille","lat":43.2782,"lon":5.40718,"is_reserved":false,"is_disabled":false,"rental_uris":{"android":"levelo://app?vid=8284de5c-d227-47cd-b1ac-1bc2e0170d0f","ios":"levelo://app?vid=8284de5c-d227-47cd-b1ac-1bc2e0170d0f"},"vehicle_type_id":"4","last_reported":1742893844,"current_range_meters":9200,"station_id":"ce4bhnh2rcd13ifvqgtg","pricing_plan_id":"cebpf4jnsgd1na2vs0mg"},{"bike_id":"07273ad5-0d14-41f9-aa20-8a351943b18a","system_id":"levelo_inurba_marseille","lat":43.28157,"lon":5.42677,"is_reserved":false,"is_disabled":false,"rental_uris":{"android":"levelo://app?vid=07273ad5-0d14-41f9-aa20-8a351943b18a","ios":"levelo://app?vid=07273ad5-0d14-41f9-aa20-8a351943b18a"},"vehicle_type_id":"4","last_reported":1742893844,"current_range_meters":9200,"station_id":"ce4bhnh2rcd13ifvqgug","pricing_plan_id":"cebpf4jnsgd1na2vs0mg"},{"bike_id":"3e903c35-724b-4c50-bd5d-8b2bb4f010aa","system_id":"levelo_inurba_marseille","lat":43.28479,"lon":5.38558,"is_reserved":false,"is_disabled":false,"rental_uris":{"android":"levelo://app?vid=3e903c35-724b-4c50-bd5d-8b2bb4f010aa","ios":"levelo://app?vid=3e903c35-724b-4c50-bd5d-8b2bb4f010aa"},"vehicle_type_id":"4","last_reported":1742893844,"current_range_meters":9200,"station_id":"ce4bh8p2rcd13ifvqeb0","pricing_plan_id":"cebpf4jnsgd1na2vs0mg"},{"bike_id":"ef43d9bd-e531-4a59-b8a9-fdc80b41fa34","system_id":"levelo_inurba_marseille","lat":43.31286,"lon":5.40173,"is_reserved":false,"is_disabled":true,"rental_uris":{"android":"levelo://app?vid=ef43d9bd-e531-4a59-b8a9-fdc80b41fa34","ios":"levelo://app?vid=ef43d9bd-e531-4a59-b8a9-fdc80b41fa34"},"vehicle_type_id":"4","last_reported":1742893844,"current_range_meters":9200,"station_id":"ce4bh092rcd13ifvqd30","pricing_plan_id":"cebpf4jnsgd1na2vs0mg"},{"bike_id":"6597b679-7a68-4357-8331-877088e74551","system_id":"levelo_inurba_marseille","lat":43.30598,"lon":5.37232,"is_reserved":false,"is_disabled":false,"rental_uris":{"android":"levelo://app?vid=6597b679-7a68-4357-8331-877088e74551","ios":"levelo://app?vid=6597b679-7a68-4357-8331-877088e74551"},"vehicle_type_id":"4","last_reported":1742893844,"current_range_meters":8800,"station_id":"ce4bgqh2rcd13ifvqc4g","pricing_plan_id":"cebpf4jnsgd1na2vs0mg"},{"bike_id":"4fe82e65-425c-453e-9e10-5bbbfdd7a6b8","system_id":"levelo_inurba_marseille","lat":43.24187,"lon":5.39733,"is_reserved":false,"is_disabled":false,"rental_uris":{"android":"levelo://app?vid=4fe82e65-425c-453e-9e10-5bbbfdd7a6b8","ios":"levelo://app?vid=4fe82e65-425c-453e-9e10-5bbbfdd7a6b8"},"vehicle_type_id":"4","last_reported":1742893844,"current_range_meters":9200,"station_id":"ce4bhn12rcd13ifvqgpg","pricing_plan_id":"cebpf4jnsgd1na2vs0mg"},{"bike_id":"938c0f4e-65bf-479a-ba6e-fe7a68ff9b08","system_id":"levelo_inurba_marseille","lat":43.26508,"lon":5.3732,"is_reserved":false,"is_disabled":false,"rental_uris":{"android":"levelo://app?vid=938c0f4e-65bf-479a-ba6e-fe7a68ff9b08","ios":"levelo://app?vid=938c0f4e-65bf-479a-ba6e-fe7a68ff9b08"},"vehicle_type_id":"4","last_reported":1742893844,"current_range_meters":9200,"station_id":"","pricing_plan_id":"cebpf4jnsgd1na2vs0mg"},{"bike_id":"c353c957-fbb8-408a-9097-46c8d6b68074","system_id":"levelo_inurba_marseille","lat":43.24169,"lon":5.39711,"is_reserved":false,"is_disabled":false,"rental_uris":{"android":"levelo://app?vid=c353c957-fbb8-408a-9097-46c8d6b68074","ios":"levelo://app?vid=c353c957-fbb8-408a-9097-46c8d6b68074"},"vehicle_type_id":"4","last_reported":1742893844,"current_range_meters":9200,"station_id":"ce4bhn12rcd13ifvqgpg","pricing_plan_id":"cebpf4jnsgd1na2vs0mg"},{"bike_id":"735b28c5-cc85-4a9d-9b9a-3636b31a90c0","system_id":"levelo_inurba_marseille","lat":43.24182,"lon":5.39711,"is_reserved":false,"is_disabled":false,"rental_uris":{"android":"levelo://app?vid=735b28c5-cc85-4a9d-9b9a-3636b31a90c0","ios":"levelo://app?vid=735b28c5-cc85-4a9d-9b9a-3636b31a90c0"},"vehicle_type_id":"4","last_reported":1742893844,"current_range_meters":9200,"station_id":"ce4bhn12rcd13ifvqgpg","pricing_plan_id":"cebpf4jnsgd1na2vs0mg"},{"bike_id":"2a99ecb7-4bf0-4c00-89bb-11ff019b8a6d","system_id":"levelo_inurba_marseille","lat":43.22943,"lon":5.35372,"is_reserved":false,"is_disabled":false,"rental_uris":{"android":"levelo://app?vid=2a99ecb7-4bf0-4c00-89bb-11ff019b8a6d","ios":"levelo://app?vid=2a99ecb7-4bf0-4c00-89bb-11ff019b8a6d"},"vehicle_type_id":"4","last_reported":1742893844,"current_range_meters":9600,"station_id":"cpo3532slgdg3j2ikp40","pricing_plan_id":"cebpf4jnsgd1na2vs0mg"},{"bike_id":"73d683db-dd00-4df7-b499-652da74ca5e8","system_id":"levelo_inurba_marseille","lat":43.30541,"lon":5.36717,"is_reserved":false,"is_disabled":false,"rental_uris":{"android":"levelo://app?vid=73d683db-dd00-4df7-b499-652da74ca5e8","ios":"levelo://app?vid=73d683db-dd00-4df7-b499-652da74ca5e8"},"vehicle_type_id":"4","last_reported":1742893844,"current_range_meters":9600,"station_id":"ce4bgrp2rcd13ifvqc9g","pricing_plan_id":"cebpf4jnsgd1na2vs0mg"},{"bike_id":"d0ce6a4c-8c1a-4117-b620-bb8816808dbc","system_id":"levelo_inurba_marseille","lat":43.23959,"lon":5.36646,"is_reserved":false,"is_disabled":false,"rental_uris":{"android":"levelo://app?vid=d0ce6a4c-8c1a-4117-b620-bb8816808dbc","ios":"levelo://app?vid=d0ce6a4c-8c1a-4117-b620-bb8816808dbc"},"vehicle_type_id":"4","last_reported":1742893844,"current_range_meters":9600,"station_id":"ce4bhi12rcd13ifvqfp0","pricing_plan_id":"cebpf4jnsgd1na2vs0mg"},{"bike_id":"c40f59d2-c969-474c-ae7b-d7a7f07f2a43","system_id":"levelo_inurba_marseille","lat":43.29189,"lon":5.35805,"is_reserved":false,"is_disabled":false,"rental_uris":{"android":"levelo://app?vid=c40f59d2-c969-474c-ae7b-d7a7f07f2a43","ios":"levelo://app?vid=c40f59d2-c969-474c-ae7b-d7a7f07f2a43"},"vehicle_type_id":"4","last_reported":1742893844,"current_range_meters":9600,"station_id":"ce4bhb12rcd13ifvqel0","pricing_plan_id":"cebpf4jnsgd1na2vs0mg"},{"bike_id":"16d1a1e8-6833-46ef-8ac2-dd05daf383fb","system_id":"levelo_inurba_marseille","lat":43.26388,"lon":5.39888,"is_reserved":false,"is_disabled":false,"rental_uris":{"android":"levelo://app?vid=16d1a1e8-6833-46ef-8ac2-dd05daf383fb","ios":"levelo://app?vid=16d1a1e8-6833-46ef-8ac2-dd05daf383fb"},"vehicle_type_id":"4","last_reported":1742893844,"current_range_meters":9600,"station_id":"","pricing_plan_id":"cebpf4jnsgd1na2vs0mg"},{"bike_id":"04574071-608f-48bc-9f80-1124d551d542","system_id":"levelo_inurba_marseille","lat":43.30465,"lon":5.37912,"is_reserved":false,"is_disabled":false,"rental_uris":{"android":"levelo://app?vid=04574071-608f-48bc-9f80-1124d551d542","ios":"levelo://app?vid=04574071-608f-48bc-9f80-1124d551d542"},"vehicle_type_id":"4","last_reported":1742893844,"current_range_meters":9600,"station_id":"ce4bgup2rcd13ifvqcn0","pricing_plan_id":"cebpf4jnsgd1na2vs0mg"},{"bike_id":"be8d066e-565b-4d3d-aab2-462108dfc7de","system_id":"levelo_inurba_marseille","lat":43.2928,"lon":5.40117,"is_reserved":false,"is_disabled":false,"rental_uris":{"android":"levelo://app?vid=be8d066e-565b-4d3d-aab2-462108dfc7de","ios":"levelo://app?vid=be8d066e-565b-4d3d-aab2-462108dfc7de"},"vehicle_type_id":"4","last_reported":1742893844,"current_range_meters":9600,"station_id":"ce4bh312rcd13ifvqdk0","pricing_plan_id":"cebpf4jnsgd1na2vs0mg"},{"bike_id":"8871fee1-c30f-4721-bb9f-022f22051a94","system_id":"levelo_inurba_marseille","lat":43.2418,"lon":5.39739,"is_reserved":false,"is_disabled":false,"rental_uris":{"android":"levelo://app?vid=8871fee1-c30f-4721-bb9f-022f22051a94","ios":"levelo://app?vid=8871fee1-c30f-4721-bb9f-022f22051a94"},"vehicle_type_id":"4","last_reported":1742893844,"current_range_meters":10000,"station_id":"","pricing_plan_id":"cebpf4jnsgd1na2vs0mg"},{"bike_id":"d88ae71b-bc05-4cbf-b4ba-b40ffcf72176","system_id":"levelo_inurba_marseille","lat":43.297915,"lon":5.38068,"is_reserved":false,"is_disabled":false,"rental_uris":{"android":"levelo://app?vid=d88ae71b-bc05-4cbf-b4ba-b40ffcf72176","ios":"levelo://app?vid=d88ae71b-bc05-4cbf-b4ba-b40ffcf72176"},"vehicle_type_id":"4","last_reported":1742893844,"current_range_meters":10000,"station_id":"ce4bgip2rcd13ifvqbb0","pricing_plan_id":"cebpf4jnsgd1na2vs0mg"},{"bike_id":"1887fe37-51a0-4284-bd26-ea9ec274ce5e","system_id":"levelo_inurba_marseille","lat":43.25713,"lon":5.41111,"is_reserved":false,"is_disabled":false,"rental_uris":{"android":"levelo://app?vid=1887fe37-51a0-4284-bd26-ea9ec274ce5e","ios":"levelo://app?vid=1887fe37-51a0-4284-bd26-ea9ec274ce5e"},"vehicle_type_id":"4","last_reported":1742893844,"current_range_meters":10000,"station_id":"","pricing_plan_id":"cebpf4jnsgd1na2vs0mg"},{"bike_id":"f9c9aa98-e1c3-4b06-abab-f4b6d21ba612","system_id":"levelo_inurba_marseille","lat":43.23153,"lon":5.43718,"is_reserved":false,"is_disabled":false,"rental_uris":{"android":"levelo://app?vid=f9c9aa98-e1c3-4b06-abab-f4b6d21ba612","ios":"levelo://app?vid=f9c9aa98-e1c3-4b06-abab-f4b6d21ba612"},"vehicle_type_id":"4","last_reported":1742893844,"current_range_meters":10000,"station_id":"ce4bhmp2rcd13ifvqgog","pricing_plan_id":"cebpf4jnsgd1na2vs0mg"},{"bike_id":"e1e35c11-11be-4d6b-9a98-3de91e1bd819","system_id":"levelo_inurba_marseille","lat":43.324823,"lon":5.366066,"is_reserved":false,"is_disabled":false,"rental_uris":{"android":"levelo://app?vid=e1e35c11-11be-4d6b-9a98-3de91e1bd819","ios":"levelo://app?vid=e1e35c11-11be-4d6b-9a98-3de91e1bd819"},"vehicle_type_id":"4","last_reported":1742893844,"current_range_meters":10000,"station_id":"ce4bhs12rcd13ifvqhvg","pricing_plan_id":"cebpf4jnsgd1na2vs0mg"},{"bike_id":"324ac744-0939-44b0-9d31-93160d66cb65","system_id":"levelo_inurba_marseille","lat":43.30563,"lon":5.36522,"is_reserved":false,"is_disabled":false,"rental_uris":{"android":"levelo://app?vid=324ac744-0939-44b0-9d31-93160d66cb65","ios":"levelo://app?vid=324ac744-0939-44b0-9d31-93160d66cb65"},"vehicle_type_id":"4","last_reported":1742893844,"current_range_meters":10000,"station_id":"ce4bgs12rcd13ifvqcag","pricing_plan_id":"cebpf4jnsgd1na2vs0mg"},{"bike_id":"cf73cd3c-03fb-47a0-8093-e19dd0c7596f","system_id":"levelo_inurba_marseille","lat":43.259382,"lon":5.409076,"is_reserved":false,"is_disabled":false,"rental_uris":{"android":"levelo://app?vid=cf73cd3c-03fb-47a0-8093-e19dd0c7596f","ios":"levelo://app?vid=cf73cd3c-03fb-47a0-8093-e19dd0c7596f"},"vehicle_type_id":"4","last_reported":1742893844,"current_range_meters":10000,"station_id":"ce4bhm92rcd13ifvqglg","pricing_plan_id":"cebpf4jnsgd1na2vs0mg"},{"bike_id":"9c6d3ffa-1fc9-404c-9dc5-4837e1233b7c","system_id":"levelo_inurba_marseille","lat":43.31322,"lon":5.36711,"is_reserved":false,"is_disabled":false,"rental_uris":{"android":"levelo://app?vid=9c6d3ffa-1fc9-404c-9dc5-4837e1233b7c","ios":"levelo://app?vid=9c6d3ffa-1fc9-404c-9dc5-4837e1233b7c"},"vehicle_type_id":"4","last_reported":1742893844,"current_range_meters":10000,"station_id":"","pricing_plan_id":"cebpf4jnsgd1na2vs0mg"},{"bike_id":"b6fd1ec3-47b2-486f-8b84-f71e2b87ecef","system_id":"levelo_inurba_marseille","lat":43.31078,"lon":5.42436,"is_reserved":false,"is_disabled":true,"rental_uris":{"android":"levelo://app?vid=b6fd1ec3-47b2-486f-8b84-f71e2b87ecef","ios":"levelo://app?vid=b6fd1ec3-47b2-486f-8b84-f71e2b87ecef"},"vehicle_type_id":"4","last_reported":1742893844,"current_range_meters":10000,"station_id":"ce4bhp92rcd13ifvqhag","pricing_plan_id":"cebpf4jnsgd1na2vs0mg"},{"bike_id":"bf9315d0-8503-43cc-be5d-2a0d8d6ed54e","system_id":"levelo_inurba_marseille","lat":43.25582,"lon":5.38238,"is_reserved":false,"is_disabled":false,"rental_uris":{"android":"levelo://app?vid=bf9315d0-8503-43cc-be5d-2a0d8d6ed54e","ios":"levelo://app?vid=bf9315d0-8503-43cc-be5d-2a0d8d6ed54e"},"vehicle_type_id":"4","last_reported":1742893844,"current_range_meters":10000,"station_id":"ce4bhih2rcd13ifvqfs0","pricing_plan_id":"cebpf4jnsgd1na2vs0mg"},{"bike_id":"6bb6f1fc-5b4f-4f3d-97c1-f093e7e9a8ef","system_id":"levelo_inurba_marseille","lat":43.230571,"lon":5.355102,"is_reserved":false,"is_disabled":false,"rental_uris":{"android":"levelo://app?vid=6bb6f1fc-5b4f-4f3d-97c1-f093e7e9a8ef","ios":"levelo://app?vid=6bb6f1fc-5b4f-4f3d-97c1-f093e7e9a8ef"},"vehicle_type_id":"4","last_reported":1742893844,"current_range_meters":10000,"station_id":"cpo3342slgdg3j2ifvpg","pricing_plan_id":"cebpf4jnsgd1na2vs0mg"},{"bike_id":"6457a7c3-e47d-4e22-a706-55621349603c","system_id":"levelo_inurba_marseille","lat":43.26103,"lon":5.3941,"is_reserved":false,"is_disabled":false,"rental_uris":{"android":"levelo://app?vid=6457a7c3-e47d-4e22-a706-55621349603c","ios":"levelo://app?vid=6457a7c3-e47d-4e22-a706-55621349603c"},"vehicle_type_id":"4","last_reported":1742893844,"current_range_meters":10000,"station_id":"","pricing_plan_id":"cebpf4jnsgd1na2vs0mg"},{"bike_id":"f8d9e271-1395-4359-b702-1bb66f9e2939","system_id":"levelo_inurba_marseille","lat":43.25581,"lon":5.38232,"is_reserved":false,"is_disabled":false,"rental_uris":{"android":"levelo://app?vid=f8d9e271-1395-4359-b702-1bb66f9e2939","ios":"levelo://app?vid=f8d9e271-1395-4359-b702-1bb66f9e2939"},"vehicle_type_id":"4","last_reported":1742893844,"current_range_meters":10800,"station_id":"ce4bhih2rcd13ifvqfs0","pricing_plan_id":"cebpf4jnsgd1na2vs0mg"},{"bike_id":"e3f76d45-4904-44a7-aac2-e04832e991bb","system_id":"levelo_inurba_marseille","lat":43.29968,"lon":5.41334,"is_reserved":false,"is_disabled":true,"rental_uris":{"android":"levelo://app?vid=e3f76d45-4904-44a7-aac2-e04832e991bb","ios":"levelo://app?vid=e3f76d45-4904-44a7-aac2-e04832e991bb"},"vehicle_type_id":"4","last_reported":1742893844,"current_range_meters":10800,"station_id":"ce4bhp12rcd13ifvqh9g","pricing_plan_id":"cebpf4jnsgd1na2vs0mg"},{"bike_id":"fe530f07-9acb-412a-aac0-e0563f38240b","system_id":"levelo_inurba_marseille","lat":43.272825,"lon":5.399372,"is_reserved":false,"is_disabled":false,"rental_uris":{"android":"levelo://app?vid=fe530f07-9acb-412a-aac0-e0563f38240b","ios":"levelo://app?vid=fe530f07-9acb-412a-aac0-e0563f38240b"},"vehicle_type_id":"4","last_reported":1742893844,"current_range_meters":10800,"station_id":"cjm6bp8fraef2m0cb0m0","pricing_plan_id":"cebpf4jnsgd1na2vs0mg"},{"bike_id":"2f3e2a92-1301-4a27-8eaa-7b0ea525530e","system_id":"levelo_inurba_marseille","lat":43.31719,"lon":5.43709,"is_reserved":false,"is_disabled":false,"rental_uris":{"android":"levelo://app?vid=2f3e2a92-1301-4a27-8eaa-7b0ea525530e","ios":"levelo://app?vid=2f3e2a92-1301-4a27-8eaa-7b0ea525530e"},"vehicle_type_id":"4","last_reported":1742893844,"current_range_meters":10800,"station_id":"","pricing_plan_id":"cebpf4jnsgd1na2vs0mg"},{"bike_id":"8524e949-afbc-426e-b01c-cb759a66ab2b","system_id":"levelo_inurba_marseille","lat":43.31115,"lon":5.37773,"is_reserved":false,"is_disabled":false,"rental_uris":{"android":"levelo://app?vid=8524e949-afbc-426e-b01c-cb759a66ab2b","ios":"levelo://app?vid=8524e949-afbc-426e-b01c-cb759a66ab2b"},"vehicle_type_id":"4","last_reported":1742893844,"current_range_meters":10800,"station_id":"ce4bgt92rcd13ifvqcg0","pricing_plan_id":"cebpf4jnsgd1na2vs0mg"},{"bike_id":"8f208df7-81e0-45c5-bd98-a49c85a38fa2","system_id":"levelo_inurba_marseille","lat":43.30325,"lon":5.36913,"is_reserved":false,"is_disabled":false,"rental_uris":{"android":"levelo://app?vid=8f208df7-81e0-45c5-bd98-a49c85a38fa2","ios":"levelo://app?vid=8f208df7-81e0-45c5-bd98-a49c85a38fa2"},"vehicle_type_id":"4","last_reported":1742893844,"current_range_meters":10800,"station_id":"ce4bgqh2rcd13ifvqc5g","pricing_plan_id":"cebpf4jnsgd1na2vs0mg"},{"bike_id":"0ab4b5e7-0b73-47f0-969d-209a112d9f93","system_id":"levelo_inurba_marseille","lat":43.29622,"lon":5.37716,"is_reserved":false,"is_disabled":false,"rental_uris":{"android":"levelo://app?vid=0ab4b5e7-0b73-47f0-969d-209a112d9f93","ios":"levelo://app?vid=0ab4b5e7-0b73-47f0-969d-209a112d9f93"},"vehicle_type_id":"4","last_reported":1742893844,"current_range_meters":10800,"station_id":"ce4bgi92rcd13ifvqb90","pricing_plan_id":"cebpf4jnsgd1na2vs0mg"},{"bike_id":"0ff5c1b1-7832-4431-921a-f9e33b47c9ed","system_id":"levelo_inurba_marseille","lat":43.2695,"lon":5.38641,"is_reserved":false,"is_disabled":false,"rental_uris":{"android":"levelo://app?vid=0ff5c1b1-7832-4431-921a-f9e33b47c9ed","ios":"levelo://app?vid=0ff5c1b1-7832-4431-921a-f9e33b47c9ed"},"vehicle_type_id":"4","last_reported":1742893844,"current_range_meters":10800,"station_id":"ce4bhh92rcd13ifvqfh0","pricing_plan_id":"cebpf4jnsgd1na2vs0mg"},{"bike_id":"6adb5407-e228-44f4-a1da-80d9852b3164","system_id":"levelo_inurba_marseille","lat":43.25008,"lon":5.38908,"is_reserved":false,"is_disabled":false,"rental_uris":{"android":"levelo://app?vid=6adb5407-e228-44f4-a1da-80d9852b3164","ios":"levelo://app?vid=6adb5407-e228-44f4-a1da-80d9852b3164"},"vehicle_type_id":"4","last_reported":1742893844,"current_range_meters":10800,"station_id":"ce4bhgp2rcd13ifvqfd0","pricing_plan_id":"cebpf4jnsgd1na2vs0mg"},{"bike_id":"89e75ed9-7f20-48f7-ad37-e0033e47c633","system_id":"levelo_inurba_marseille","lat":43.24648,"lon":5.38883,"is_reserved":false,"is_disabled":false,"rental_uris":{"android":"levelo://app?vid=89e75ed9-7f20-48f7-ad37-e0033e47c633","ios":"levelo://app?vid=89e75ed9-7f20-48f7-ad37-e0033e47c633"},"vehicle_type_id":"4","last_reported":1742893844,"current_range_meters":10800,"station_id":"ce4bhg12rcd13ifvqf60","pricing_plan_id":"cebpf4jnsgd1na2vs0mg"},{"bike_id":"93dfac62-b280-4e5d-86af-998b7610fe77","system_id":"levelo_inurba_marseille","lat":43.24169,"lon":5.39729,"is_reserved":false,"is_disabled":false,"rental_uris":{"android":"levelo://app?vid=93dfac62-b280-4e5d-86af-998b7610fe77","ios":"levelo://app?vid=93dfac62-b280-4e5d-86af-998b7610fe77"},"vehicle_type_id":"4","last_reported":1742893844,"current_range_meters":11200,"station_id":"ce4bhn12rcd13ifvqgpg","pricing_plan_id":"cebpf4jnsgd1na2vs0mg"},{"bike_id":"56586a75-9919-40fe-9025-2a8232ec3238","system_id":"levelo_inurba_marseille","lat":43.29554,"lon":5.42283,"is_reserved":false,"is_disabled":false,"rental_uris":{"android":"levelo://app?vid=56586a75-9919-40fe-9025-2a8232ec3238","ios":"levelo://app?vid=56586a75-9919-40fe-9025-2a8232ec3238"},"vehicle_type_id":"4","last_reported":1742893844,"current_range_meters":11200,"station_id":"ce4bhph2rcd13ifvqhdg","pricing_plan_id":"cebpf4jnsgd1na2vs0mg"},{"bike_id":"fdcc714d-c762-4a16-91da-437181feabf2","system_id":"levelo_inurba_marseille","lat":43.26674,"lon":5.38269,"is_reserved":false,"is_disabled":false,"rental_uris":{"android":"levelo://app?vid=fdcc714d-c762-4a16-91da-437181feabf2","ios":"levelo://app?vid=fdcc714d-c762-4a16-91da-437181feabf2"},"vehicle_type_id":"4","last_reported":1742893844,"current_range_meters":11200,"station_id":"ce4bhg92rcd13ifvqf90","pricing_plan_id":"cebpf4jnsgd1na2vs0mg"},{"bike_id":"74406c35-ee35-437d-be26-2d7711378046","system_id":"levelo_inurba_marseille","lat":43.32365,"lon":5.36768,"is_reserved":false,"is_disabled":false,"rental_uris":{"android":"levelo://app?vid=74406c35-ee35-437d-be26-2d7711378046","ios":"levelo://app?vid=74406c35-ee35-437d-be26-2d7711378046"},"vehicle_type_id":"4","last_reported":1742893844,"current_range_meters":11200,"station_id":"ce4bhsh2rcd13ifvqi2g","pricing_plan_id":"cebpf4jnsgd1na2vs0mg"},{"bike_id":"d7c9b119-99cc-4acd-80c4-6ecaf67a26b1","system_id":"levelo_inurba_marseille","lat":43.230667,"lon":5.35501,"is_reserved":false,"is_disabled":false,"rental_uris":{"android":"levelo://app?vid=d7c9b119-99cc-4acd-80c4-6ecaf67a26b1","ios":"levelo://app?vid=d7c9b119-99cc-4acd-80c4-6ecaf67a26b1"},"vehicle_type_id":"4","last_reported":1742893844,"current_range_meters":11200,"station_id":"cpo3342slgdg3j2ifvpg","pricing_plan_id":"cebpf4jnsgd1na2vs0mg"},{"bike_id":"3b0a7a40-2561-42ac-804d-cb85064eaca6","system_id":"levelo_inurba_marseille","lat":43.27494,"lon":5.42454,"is_reserved":false,"is_disabled":false,"rental_uris":{"android":"levelo://app?vid=3b0a7a40-2561-42ac-804d-cb85064eaca6","ios":"levelo://app?vid=3b0a7a40-2561-42ac-804d-cb85064eaca6"},"vehicle_type_id":"4","last_reported":1742893844,"current_range_meters":11200,"station_id":"ce4bhn92rcd13ifvqgrg","pricing_plan_id":"cebpf4jnsgd1na2vs0mg"},{"bike_id":"6b178147-dd20-4a43-82bc-aad171f10049","system_id":"levelo_inurba_marseille","lat":43.305518,"lon":5.365571,"is_reserved":false,"is_disabled":false,"rental_uris":{"android":"levelo://app?vid=6b178147-dd20-4a43-82bc-aad171f10049","ios":"levelo://app?vid=6b178147-dd20-4a43-82bc-aad171f10049"},"vehicle_type_id":"4","last_reported":1742893844,"current_range_meters":11600,"station_id":"ce4bgs12rcd13ifvqcag","pricing_plan_id":"cebpf4jnsgd1na2vs0mg"},{"bike_id":"e8eec122-897f-4919-9ee8-6b5e49b87083","system_id":"levelo_inurba_marseille","lat":43.2592,"lon":5.40876,"is_reserved":false,"is_disabled":false,"rental_uris":{"android":"levelo://app?vid=e8eec122-897f-4919-9ee8-6b5e49b87083","ios":"levelo://app?vid=e8eec122-897f-4919-9ee8-6b5e49b87083"},"vehicle_type_id":"4","last_reported":1742893844,"current_range_meters":11200,"station_id":"ce4bhm92rcd13ifvqglg","pricing_plan_id":"cebpf4jnsgd1na2vs0mg"},{"bike_id":"9d6cee4b-2c8a-4e85-af80-220eb7a86ba4","system_id":"levelo_inurba_marseille","lat":43.26196,"lon":5.37932,"is_reserved":false,"is_disabled":false,"rental_uris":{"android":"levelo://app?vid=9d6cee4b-2c8a-4e85-af80-220eb7a86ba4","ios":"levelo://app?vid=9d6cee4b-2c8a-4e85-af80-220eb7a86ba4"},"vehicle_type_id":"4","last_reported":1742893844,"current_range_meters":11200,"station_id":"ce4bhjp2rcd13ifvqg90","pricing_plan_id":"cebpf4jnsgd1na2vs0mg"},{"bike_id":"bb58f931-d39b-4674-bcbc-5096c1d815e7","system_id":"levelo_inurba_marseille","lat":43.241788,"lon":5.397276,"is_reserved":false,"is_disabled":false,"rental_uris":{"android":"levelo://app?vid=bb58f931-d39b-4674-bcbc-5096c1d815e7","ios":"levelo://app?vid=bb58f931-d39b-4674-bcbc-5096c1d815e7"},"vehicle_type_id":"4","last_reported":1742893844,"current_range_meters":11200,"station_id":"","pricing_plan_id":"cebpf4jnsgd1na2vs0mg"},{"bike_id":"670214b8-0c1a-44c6-9ec1-e4e7883cf534","system_id":"levelo_inurba_marseille","lat":43.30535,"lon":5.36519,"is_reserved":false,"is_disabled":false,"rental_uris":{"android":"levelo://app?vid=670214b8-0c1a-44c6-9ec1-e4e7883cf534","ios":"levelo://app?vid=670214b8-0c1a-44c6-9ec1-e4e7883cf534"},"vehicle_type_id":"4","last_reported":1742893844,"current_range_meters":11600,"station_id":"","pricing_plan_id":"cebpf4jnsgd1na2vs0mg"},{"bike_id":"719a1301-5ab4-47b5-bcca-d89a71d72932","system_id":"levelo_inurba_marseille","lat":43.30458,"lon":5.37915,"is_reserved":false,"is_disabled":false,"rental_uris":{"android":"levelo://app?vid=719a1301-5ab4-47b5-bcca-d89a71d72932","ios":"levelo://app?vid=719a1301-5ab4-47b5-bcca-d89a71d72932"},"vehicle_type_id":"4","last_reported":1742893844,"current_range_meters":11600,"station_id":"ce4bgup2rcd13ifvqcn0","pricing_plan_id":"cebpf4jnsgd1na2vs0mg"},{"bike_id":"c0f2612b-634c-4908-a605-d903f724111e","system_id":"levelo_inurba_marseille","lat":43.23139,"lon":5.43728,"is_reserved":false,"is_disabled":false,"rental_uris":{"android":"levelo://app?vid=c0f2612b-634c-4908-a605-d903f724111e","ios":"levelo://app?vid=c0f2612b-634c-4908-a605-d903f724111e"},"vehicle_type_id":"4","last_reported":1742893844,"current_range_meters":11600,"station_id":"ce4bhmp2rcd13ifvqgog","pricing_plan_id":"cebpf4jnsgd1na2vs0mg"},{"bike_id":"008c8db6-be2b-43ce-8a53-8af51fd8b577","system_id":"levelo_inurba_marseille","lat":43.24179,"lon":5.39732,"is_reserved":false,"is_disabled":false,"rental_uris":{"android":"levelo://app?vid=008c8db6-be2b-43ce-8a53-8af51fd8b577","ios":"levelo://app?vid=008c8db6-be2b-43ce-8a53-8af51fd8b577"},"vehicle_type_id":"4","last_reported":1742893844,"current_range_meters":11600,"station_id":"","pricing_plan_id":"cebpf4jnsgd1na2vs0mg"},{"bike_id":"46774e41-cc26-42e2-8ed3-a8ea17d2f850","system_id":"levelo_inurba_marseille","lat":43.31389,"lon":5.36701,"is_reserved":false,"is_disabled":false,"rental_uris":{"android":"levelo://app?vid=46774e41-cc26-42e2-8ed3-a8ea17d2f850","ios":"levelo://app?vid=46774e41-cc26-42e2-8ed3-a8ea17d2f850"},"vehicle_type_id":"4","last_reported":1742893844,"current_range_meters":11600,"station_id":"","pricing_plan_id":"cebpf4jnsgd1na2vs0mg"},{"bike_id":"f8b353ba-e785-4fb9-b9e9-6d6782ca4aa8","system_id":"levelo_inurba_marseille","lat":43.34135,"lon":5.40907,"is_reserved":false,"is_disabled":false,"rental_uris":{"android":"levelo://app?vid=f8b353ba-e785-4fb9-b9e9-6d6782ca4aa8","ios":"levelo://app?vid=f8b353ba-e785-4fb9-b9e9-6d6782ca4aa8"},"vehicle_type_id":"4","last_reported":1742893844,"current_range_meters":11600,"station_id":"ce4bhqh2rcd13ifvqhlg","pricing_plan_id":"cebpf4jnsgd1na2vs0mg"},{"bike_id":"f1c0b357-aaf4-49ea-ba54-47d989634115","system_id":"levelo_inurba_marseille","lat":43.32485,"lon":5.36557,"is_reserved":false,"is_disabled":false,"rental_uris":{"android":"levelo://app?vid=f1c0b357-aaf4-49ea-ba54-47d989634115","ios":"levelo://app?vid=f1c0b357-aaf4-49ea-ba54-47d989634115"},"vehicle_type_id":"4","last_reported":1742893844,"current_range_meters":11600,"station_id":"ce4bhs12rcd13ifvqhvg","pricing_plan_id":"cebpf4jnsgd1na2vs0mg"},{"bike_id":"fccb3d1f-d221-460d-8e7e-96b944966360","system_id":"levelo_inurba_marseille","lat":43.26808,"lon":5.40273,"is_reserved":false,"is_disabled":false,"rental_uris":{"android":"levelo://app?vid=fccb3d1f-d221-460d-8e7e-96b944966360","ios":"levelo://app?vid=fccb3d1f-d221-460d-8e7e-96b944966360"},"vehicle_type_id":"4","last_reported":1742893844,"current_range_meters":11600,"station_id":"ce501612rcd8frsf0b60","pricing_plan_id":"cebpf4jnsgd1na2vs0mg"},{"bike_id":"31853493-08cd-48ca-8af6-a1f588cefafe","system_id":"levelo_inurba_marseille","lat":43.258202,"lon":5.394489,"is_reserved":false,"is_disabled":false,"rental_uris":{"android":"levelo://app?vid=31853493-08cd-48ca-8af6-a1f588cefafe","ios":"levelo://app?vid=31853493-08cd-48ca-8af6-a1f588cefafe"},"vehicle_type_id":"4","last_reported":1742893844,"current_range_meters":11600,"station_id":"ce4bhip2rcd13ifvqft0","pricing_plan_id":"cebpf4jnsgd1na2vs0mg"},{"bike_id":"03c93768-8412-4f6c-83a0-b010f4c1b248","system_id":"levelo_inurba_marseille","lat":43.24075,"lon":5.37763,"is_reserved":false,"is_disabled":false,"rental_uris":{"android":"levelo://app?vid=03c93768-8412-4f6c-83a0-b010f4c1b248","ios":"levelo://app?vid=03c93768-8412-4f6c-83a0-b010f4c1b248"},"vehicle_type_id":"4","last_reported":1742893844,"current_range_meters":11600,"station_id":"ce4bhnp2rcd13ifvqgvg","pricing_plan_id":"cebpf4jnsgd1na2vs0mg"},{"bike_id":"992f3646-1e77-44ef-9ab7-8bb0ad2e4f54","system_id":"levelo_inurba_marseille","lat":43.28106,"lon":5.37832,"is_reserved":false,"is_disabled":false,"rental_uris":{"android":"levelo://app?vid=992f3646-1e77-44ef-9ab7-8bb0ad2e4f54","ios":"levelo://app?vid=992f3646-1e77-44ef-9ab7-8bb0ad2e4f54"},"vehicle_type_id":"4","last_reported":1742893844,"current_range_meters":11600,"station_id":"ce4bha12rcd13ifvqee0","pricing_plan_id":"cebpf4jnsgd1na2vs0mg"},{"bike_id":"6633349b-54ae-41b8-88d5-61ec5d012302","system_id":"levelo_inurba_marseille","lat":43.32113,"lon":5.36799,"is_reserved":false,"is_disabled":false,"rental_uris":{"android":"levelo://app?vid=6633349b-54ae-41b8-88d5-61ec5d012302","ios":"levelo://app?vid=6633349b-54ae-41b8-88d5-61ec5d012302"},"vehicle_type_id":"4","last_reported":1742893844,"current_range_meters":12000,"station_id":"ce4bhrh2rcd13ifvqhug","pricing_plan_id":"cebpf4jnsgd1na2vs0mg"},{"bike_id":"844d3370-21e5-4de2-9d45-2b091e1157d6","system_id":"levelo_inurba_marseille","lat":43.23949,"lon":5.36663,"is_reserved":false,"is_disabled":false,"rental_uris":{"android":"levelo://app?vid=844d3370-21e5-4de2-9d45-2b091e1157d6","ios":"levelo://app?vid=844d3370-21e5-4de2-9d45-2b091e1157d6"},"vehicle_type_id":"4","last_reported":1742893844,"current_range_meters":12000,"station_id":"ce4bhi12rcd13ifvqfp0","pricing_plan_id":"cebpf4jnsgd1na2vs0mg"},{"bike_id":"04357187-31a2-4621-9b88-fc476381d72a","system_id":"levelo_inurba_marseille","lat":43.25828,"lon":5.3944,"is_reserved":false,"is_disabled":false,"rental_uris":{"android":"levelo://app?vid=04357187-31a2-4621-9b88-fc476381d72a","ios":"levelo://app?vid=04357187-31a2-4621-9b88-fc476381d72a"},"vehicle_type_id":"4","last_reported":1742893844,"current_range_meters":12000,"station_id":"ce4bhip2rcd13ifvqft0","pricing_plan_id":"cebpf4jnsgd1na2vs0mg"},{"bike_id":"c399abc1-27d9-4f60-9f80-a530bde7065a","system_id":"levelo_inurba_marseille","lat":43.26211,"lon":5.37445,"is_reserved":false,"is_disabled":false,"rental_uris":{"android":"levelo://app?vid=c399abc1-27d9-4f60-9f80-a530bde7065a","ios":"levelo://app?vid=c399abc1-27d9-4f60-9f80-a530bde7065a"},"vehicle_type_id":"4","last_reported":1742893844,"current_range_meters":11600,"station_id":"ce4bhgp2rcd13ifvqfc0","pricing_plan_id":"cebpf4jnsgd1na2vs0mg"},{"bike_id":"cb99f196-2fd6-42e2-b2d0-0d9c12f33972","system_id":"levelo_inurba_marseille","lat":43.2857,"lon":5.39494,"is_reserved":false,"is_disabled":false,"rental_uris":{"android":"levelo://app?vid=cb99f196-2fd6-42e2-b2d0-0d9c12f33972","ios":"levelo://app?vid=cb99f196-2fd6-42e2-b2d0-0d9c12f33972"},"vehicle_type_id":"4","last_reported":1742893844,"current_range_meters":12000,"station_id":"ce4bh292rcd13ifvqdg0","pricing_plan_id":"cebpf4jnsgd1na2vs0mg"},{"bike_id":"50e3359a-15f1-4f66-bbc8-eed7afb5cb08","system_id":"levelo_inurba_marseille","lat":43.25917,"lon":5.40966,"is_reserved":false,"is_disabled":false,"rental_uris":{"android":"levelo://app?vid=50e3359a-15f1-4f66-bbc8-eed7afb5cb08","ios":"levelo://app?vid=50e3359a-15f1-4f66-bbc8-eed7afb5cb08"},"vehicle_type_id":"4","last_reported":1742893844,"current_range_meters":12000,"station_id":"ce4bhm92rcd13ifvqglg","pricing_plan_id":"cebpf4jnsgd1na2vs0mg"},{"bike_id":"8583bcae-e817-4db7-ab92-448c595780ea","system_id":"levelo_inurba_marseille","lat":43.33027,"lon":5.39039,"is_reserved":false,"is_disabled":false,"rental_uris":{"android":"levelo://app?vid=8583bcae-e817-4db7-ab92-448c595780ea","ios":"levelo://app?vid=8583bcae-e817-4db7-ab92-448c595780ea"},"vehicle_type_id":"4","last_reported":1742893844,"current_range_meters":12000,"station_id":"","pricing_plan_id":"cebpf4jnsgd1na2vs0mg"},{"bike_id":"6809453f-ea61-471c-ac2a-1aec4ccf7917","system_id":"levelo_inurba_marseille","lat":43.2856,"lon":5.39503,"is_reserved":false,"is_disabled":false,"rental_uris":{"android":"levelo://app?vid=6809453f-ea61-471c-ac2a-1aec4ccf7917","ios":"levelo://app?vid=6809453f-ea61-471c-ac2a-1aec4ccf7917"},"vehicle_type_id":"4","last_reported":1742893844,"current_range_meters":12400,"station_id":"ce4bh292rcd13ifvqdg0","pricing_plan_id":"cebpf4jnsgd1na2vs0mg"},{"bike_id":"7036b117-8f19-49f9-9d96-28656aebee81","system_id":"levelo_inurba_marseille","lat":43.3247,"lon":5.36572,"is_reserved":false,"is_disabled":false,"rental_uris":{"android":"levelo://app?vid=7036b117-8f19-49f9-9d96-28656aebee81","ios":"levelo://app?vid=7036b117-8f19-49f9-9d96-28656aebee81"},"vehicle_type_id":"4","last_reported":1742893844,"current_range_meters":12400,"station_id":"ce4bhs12rcd13ifvqhvg","pricing_plan_id":"cebpf4jnsgd1na2vs0mg"},{"bike_id":"0d716845-03fc-4662-a302-92a240d886b4","system_id":"levelo_inurba_marseille","lat":43.28607,"lon":5.37067,"is_reserved":false,"is_disabled":false,"rental_uris":{"android":"levelo://app?vid=0d716845-03fc-4662-a302-92a240d886b4","ios":"levelo://app?vid=0d716845-03fc-4662-a302-92a240d886b4"},"vehicle_type_id":"4","last_reported":1742893844,"current_range_meters":12400,"station_id":"ce4bht12rcd13ifvqi60","pricing_plan_id":"cebpf4jnsgd1na2vs0mg"},{"bike_id":"2e9f3c86-391e-4e76-918d-a6a6f7e15794","system_id":"levelo_inurba_marseille","lat":43.292,"lon":5.36084,"is_reserved":false,"is_disabled":false,"rental_uris":{"android":"levelo://app?vid=2e9f3c86-391e-4e76-918d-a6a6f7e15794","ios":"levelo://app?vid=2e9f3c86-391e-4e76-918d-a6a6f7e15794"},"vehicle_type_id":"4","last_reported":1742893844,"current_range_meters":12400,"station_id":"ce4bhbh2rcd13ifvqeqg","pricing_plan_id":"cebpf4jnsgd1na2vs0mg"},{"bike_id":"b599ec8c-9116-4cb3-980c-d0a7d1e83114","system_id":"levelo_inurba_marseille","lat":43.32464,"lon":5.36596,"is_reserved":false,"is_disabled":false,"rental_uris":{"android":"levelo://app?vid=b599ec8c-9116-4cb3-980c-d0a7d1e83114","ios":"levelo://app?vid=b599ec8c-9116-4cb3-980c-d0a7d1e83114"},"vehicle_type_id":"4","last_reported":1742893844,"current_range_meters":12400,"station_id":"ce4bhs12rcd13ifvqhvg","pricing_plan_id":"cebpf4jnsgd1na2vs0mg"},{"bike_id":"01e18a58-61c0-4135-8f06-6020e1d348ce","system_id":"levelo_inurba_marseille","lat":43.28345,"lon":5.38097,"is_reserved":false,"is_disabled":false,"rental_uris":{"android":"levelo://app?vid=01e18a58-61c0-4135-8f06-6020e1d348ce","ios":"levelo://app?vid=01e18a58-61c0-4135-8f06-6020e1d348ce"},"vehicle_type_id":"4","last_reported":1742893844,"current_range_meters":12400,"station_id":"ce4bh412rcd13ifvqdr0","pricing_plan_id":"cebpf4jnsgd1na2vs0mg"},{"bike_id":"c3455cc7-fcc3-49ce-a64c-10ec65c67994","system_id":"levelo_inurba_marseille","lat":43.300853,"lon":5.39073,"is_reserved":false,"is_disabled":false,"rental_uris":{"android":"levelo://app?vid=c3455cc7-fcc3-49ce-a64c-10ec65c67994","ios":"levelo://app?vid=c3455cc7-fcc3-49ce-a64c-10ec65c67994"},"vehicle_type_id":"4","last_reported":1742893844,"current_range_meters":12400,"station_id":"ce4bh192rcd13ifvqdb0","pricing_plan_id":"cebpf4jnsgd1na2vs0mg"},{"bike_id":"14a7fa2c-fac1-4321-b2bc-58f9d1899727","system_id":"levelo_inurba_marseille","lat":43.31336,"lon":5.36723,"is_reserved":false,"is_disabled":false,"rental_uris":{"android":"levelo://app?vid=14a7fa2c-fac1-4321-b2bc-58f9d1899727","ios":"levelo://app?vid=14a7fa2c-fac1-4321-b2bc-58f9d1899727"},"vehicle_type_id":"4","last_reported":1742893844,"current_range_meters":12400,"station_id":"","pricing_plan_id":"cebpf4jnsgd1na2vs0mg"},{"bike_id":"1d3b7ffd-6d73-465a-9ef1-0a4fb7a2b9ce","system_id":"levelo_inurba_marseille","lat":43.30546,"lon":5.36699,"is_reserved":false,"is_disabled":false,"rental_uris":{"android":"levelo://app?vid=1d3b7ffd-6d73-465a-9ef1-0a4fb7a2b9ce","ios":"levelo://app?vid=1d3b7ffd-6d73-465a-9ef1-0a4fb7a2b9ce"},"vehicle_type_id":"4","last_reported":1742893844,"current_range_meters":12800,"station_id":"ce4bgrp2rcd13ifvqc9g","pricing_plan_id":"cebpf4jnsgd1na2vs0mg"},{"bike_id":"79664a4a-5126-480e-aac5-9e18e06e32ce","system_id":"levelo_inurba_marseille","lat":43.30901,"lon":5.36853,"is_reserved":false,"is_disabled":false,"rental_uris":{"android":"levelo://app?vid=79664a4a-5126-480e-aac5-9e18e06e32ce","ios":"levelo://app?vid=79664a4a-5126-480e-aac5-9e18e06e32ce"},"vehicle_type_id":"4","last_reported":1742893844,"current_range_meters":12800,"station_id":"ce4bgn92rcd13ifvqbvg","pricing_plan_id":"cebpf4jnsgd1na2vs0mg"},{"bike_id":"fbc7ddf0-b77f-4285-92a1-af712eccc382","system_id":"levelo_inurba_marseille","lat":43.26929,"lon":5.3864,"is_reserved":false,"is_disabled":false,"rental_uris":{"android":"levelo://app?vid=fbc7ddf0-b77f-4285-92a1-af712eccc382","ios":"levelo://app?vid=fbc7ddf0-b77f-4285-92a1-af712eccc382"},"vehicle_type_id":"4","last_reported":1742893844,"current_range_meters":12800,"station_id":"ce4bhh92rcd13ifvqfh0","pricing_plan_id":"cebpf4jnsgd1na2vs0mg"},{"bike_id":"98d38a64-15b2-410c-b614-5635d097b9ba","system_id":"levelo_inurba_marseille","lat":43.30308,"lon":5.39189,"is_reserved":false,"is_disabled":true,"rental_uris":{"android":"levelo://app?vid=98d38a64-15b2-410c-b614-5635d097b9ba","ios":"levelo://app?vid=98d38a64-15b2-410c-b614-5635d097b9ba"},"vehicle_type_id":"4","last_reported":1742893844,"current_range_meters":12800,"station_id":"ce4bgkh2rcd13ifvqbk0","pricing_plan_id":"cebpf4jnsgd1na2vs0mg"},{"bike_id":"7d359a05-fece-4af0-b096-9f117586bd52","system_id":"levelo_inurba_marseille","lat":43.29612,"lon":5.37163,"is_reserved":false,"is_disabled":false,"rental_uris":{"android":"levelo://app?vid=7d359a05-fece-4af0-b096-9f117586bd52","ios":"levelo://app?vid=7d359a05-fece-4af0-b096-9f117586bd52"},"vehicle_type_id":"4","last_reported":1742893844,"current_range_meters":12800,"station_id":"ce4bgnh2rcd13ifvqc0g","pricing_plan_id":"cebpf4jnsgd1na2vs0mg"},{"bike_id":"c7e4f9b6-ef9d-4c18-93a6-9d7c570d7304","system_id":"levelo_inurba_marseille","lat":43.25929,"lon":5.40886,"is_reserved":false,"is_disabled":false,"rental_uris":{"android":"levelo://app?vid=c7e4f9b6-ef9d-4c18-93a6-9d7c570d7304","ios":"levelo://app?vid=c7e4f9b6-ef9d-4c18-93a6-9d7c570d7304"},"vehicle_type_id":"4","last_reported":1742893844,"current_range_meters":13600,"station_id":"ce4bhm92rcd13ifvqglg","pricing_plan_id":"cebpf4jnsgd1na2vs0mg"},{"bike_id":"5aeb641c-8c67-430e-bd09-77076d22412d","system_id":"levelo_inurba_marseille","lat":43.31038,"lon":5.37535,"is_reserved":false,"is_disabled":false,"rental_uris":{"android":"levelo://app?vid=5aeb641c-8c67-430e-bd09-77076d22412d","ios":"levelo://app?vid=5aeb641c-8c67-430e-bd09-77076d22412d"},"vehicle_type_id":"4","last_reported":1742893844,"current_range_meters":13600,"station_id":"","pricing_plan_id":"cebpf4jnsgd1na2vs0mg"},{"bike_id":"38351309-2dec-417c-a558-74c8bc991036","system_id":"levelo_inurba_marseille","lat":43.30827,"lon":5.40628,"is_reserved":false,"is_disabled":true,"rental_uris":{"android":"levelo://app?vid=38351309-2dec-417c-a558-74c8bc991036","ios":"levelo://app?vid=38351309-2dec-417c-a558-74c8bc991036"},"vehicle_type_id":"4","last_reported":1742893844,"current_range_meters":13600,"station_id":"","pricing_plan_id":"cebpf4jnsgd1na2vs0mg"},{"bike_id":"4a3cef67-7854-486a-96a1-875577c9d100","system_id":"levelo_inurba_marseille","lat":43.28097,"lon":5.39654,"is_reserved":false,"is_disabled":true,"rental_uris":{"android":"levelo://app?vid=4a3cef67-7854-486a-96a1-875577c9d100","ios":"levelo://app?vid=4a3cef67-7854-486a-96a1-875577c9d100"},"vehicle_type_id":"4","last_reported":1742893844,"current_range_meters":13600,"station_id":"ce4bho12rcd13ifvqh2g","pricing_plan_id":"cebpf4jnsgd1na2vs0mg"},{"bike_id":"b052d2e2-e875-4904-a7e7-4c54f441a36b","system_id":"levelo_inurba_marseille","lat":43.31223,"lon":5.36857,"is_reserved":false,"is_disabled":false,"rental_uris":{"android":"levelo://app?vid=b052d2e2-e875-4904-a7e7-4c54f441a36b","ios":"levelo://app?vid=b052d2e2-e875-4904-a7e7-4c54f441a36b"},"vehicle_type_id":"4","last_reported":1742893844,"current_range_meters":13600,"station_id":"ce4bgl92rcd13ifvqbq0","pricing_plan_id":"cebpf4jnsgd1na2vs0mg"},{"bike_id":"348aafb6-710f-4f70-a308-412fbd7b5b6c","system_id":"levelo_inurba_marseille","lat":43.31361,"lon":5.36694,"is_reserved":false,"is_disabled":false,"rental_uris":{"android":"levelo://app?vid=348aafb6-710f-4f70-a308-412fbd7b5b6c","ios":"levelo://app?vid=348aafb6-710f-4f70-a308-412fbd7b5b6c"},"vehicle_type_id":"4","last_reported":1742893844,"current_range_meters":13600,"station_id":"ce4bgr92rcd13ifvqc6g","pricing_plan_id":"cebpf4jnsgd1na2vs0mg"},{"bike_id":"a633c1d9-f373-4662-85a7-8f506afe41cc","system_id":"levelo_inurba_marseille","lat":43.27683,"lon":5.38899,"is_reserved":false,"is_disabled":false,"rental_uris":{"android":"levelo://app?vid=a633c1d9-f373-4662-85a7-8f506afe41cc","ios":"levelo://app?vid=a633c1d9-f373-4662-85a7-8f506afe41cc"},"vehicle_type_id":"4","last_reported":1742893844,"current_range_meters":13600,"station_id":"ce4bhi12rcd13ifvqfo0","pricing_plan_id":"cebpf4jnsgd1na2vs0mg"},{"bike_id":"f28a28aa-72bf-4178-ad8f-4eaeef70955b","system_id":"levelo_inurba_marseille","lat":43.27489,"lon":5.42459,"is_reserved":false,"is_disabled":false,"rental_uris":{"android":"levelo://app?vid=f28a28aa-72bf-4178-ad8f-4eaeef70955b","ios":"levelo://app?vid=f28a28aa-72bf-4178-ad8f-4eaeef70955b"},"vehicle_type_id":"4","last_reported":1742893844,"current_range_meters":14000,"station_id":"ce4bhn92rcd13ifvqgrg","pricing_plan_id":"cebpf4jnsgd1na2vs0mg"},{"bike_id":"e7821985-bd6b-4983-9a36-d04864b7badf","system_id":"levelo_inurba_marseille","lat":43.2694,"lon":5.40249,"is_reserved":false,"is_disabled":false,"rental_uris":{"android":"levelo://app?vid=e7821985-bd6b-4983-9a36-d04864b7badf","ios":"levelo://app?vid=e7821985-bd6b-4983-9a36-d04864b7badf"},"vehicle_type_id":"4","last_reported":1742893844,"current_range_meters":14000,"station_id":"cjm6bp8fraef2m0cb0m0","pricing_plan_id":"cebpf4jnsgd1na2vs0mg"},{"bike_id":"dc3f7e81-4db1-4d44-ae55-bd23b43a48c1","system_id":"levelo_inurba_marseille","lat":43.28152,"lon":5.42644,"is_reserved":false,"is_disabled":false,"rental_uris":{"android":"levelo://app?vid=dc3f7e81-4db1-4d44-ae55-bd23b43a48c1","ios":"levelo://app?vid=dc3f7e81-4db1-4d44-ae55-bd23b43a48c1"},"vehicle_type_id":"4","last_reported":1742893844,"current_range_meters":14000,"station_id":"ce4bhnh2rcd13ifvqgug","pricing_plan_id":"cebpf4jnsgd1na2vs0mg"},{"bike_id":"42c5abe4-9779-4faf-80f4-0022f8de1aa0","system_id":"levelo_inurba_marseille","lat":43.31216,"lon":5.36859,"is_reserved":false,"is_disabled":false,"rental_uris":{"android":"levelo://app?vid=42c5abe4-9779-4faf-80f4-0022f8de1aa0","ios":"levelo://app?vid=42c5abe4-9779-4faf-80f4-0022f8de1aa0"},"vehicle_type_id":"4","last_reported":1742893844,"current_range_meters":14000,"station_id":"ce4bgl92rcd13ifvqbq0","pricing_plan_id":"cebpf4jnsgd1na2vs0mg"},{"bike_id":"669a03dd-86fc-4194-9d1f-57d32977ea07","system_id":"levelo_inurba_marseille","lat":43.25092,"lon":5.39512,"is_reserved":false,"is_disabled":false,"rental_uris":{"android":"levelo://app?vid=669a03dd-86fc-4194-9d1f-57d32977ea07","ios":"levelo://app?vid=669a03dd-86fc-4194-9d1f-57d32977ea07"},"vehicle_type_id":"4","last_reported":1742893844,"current_range_meters":14400,"station_id":"ce4bhm12rcd13ifvqgkg","pricing_plan_id":"cebpf4jnsgd1na2vs0mg"},{"bike_id":"1697d1ce-8d8b-44cc-8fbe-26493ede4c93","system_id":"levelo_inurba_marseille","lat":43.25926,"lon":5.40887,"is_reserved":false,"is_disabled":false,"rental_uris":{"android":"levelo://app?vid=1697d1ce-8d8b-44cc-8fbe-26493ede4c93","ios":"levelo://app?vid=1697d1ce-8d8b-44cc-8fbe-26493ede4c93"},"vehicle_type_id":"4","last_reported":1742893844,"current_range_meters":14400,"station_id":"ce4bhm92rcd13ifvqglg","pricing_plan_id":"cebpf4jnsgd1na2vs0mg"},{"bike_id":"6b3230c1-64ca-4015-a5d9-d813fff43dfc","system_id":"levelo_inurba_marseille","lat":43.28936,"lon":5.36626,"is_reserved":false,"is_disabled":false,"rental_uris":{"android":"levelo://app?vid=6b3230c1-64ca-4015-a5d9-d813fff43dfc","ios":"levelo://app?vid=6b3230c1-64ca-4015-a5d9-d813fff43dfc"},"vehicle_type_id":"4","last_reported":1742893844,"current_range_meters":14400,"station_id":"ce4bhap2rcd13ifvqek0","pricing_plan_id":"cebpf4jnsgd1na2vs0mg"},{"bike_id":"fc3eec86-5c89-461a-b54f-15ec4ee366fd","system_id":"levelo_inurba_marseille","lat":43.26564,"lon":5.39052,"is_reserved":false,"is_disabled":true,"rental_uris":{"android":"levelo://app?vid=fc3eec86-5c89-461a-b54f-15ec4ee366fd","ios":"levelo://app?vid=fc3eec86-5c89-461a-b54f-15ec4ee366fd"},"vehicle_type_id":"4","last_reported":1742893844,"current_range_meters":14400,"station_id":"ce4bhe12rcd13ifvqf30","pricing_plan_id":"cebpf4jnsgd1na2vs0mg"},{"bike_id":"eb3cf5a8-e446-415b-83af-d17232ace529","system_id":"levelo_inurba_marseille","lat":43.2314,"lon":5.43719,"is_reserved":false,"is_disabled":false,"rental_uris":{"android":"levelo://app?vid=eb3cf5a8-e446-415b-83af-d17232ace529","ios":"levelo://app?vid=eb3cf5a8-e446-415b-83af-d17232ace529"},"vehicle_type_id":"4","last_reported":1742893844,"current_range_meters":14400,"station_id":"ce4bhmp2rcd13ifvqgog","pricing_plan_id":"cebpf4jnsgd1na2vs0mg"},{"bike_id":"a664c280-0f85-4300-8ddf-2ac4585f71ba","system_id":"levelo_inurba_marseille","lat":43.25922,"lon":5.40918,"is_reserved":false,"is_disabled":false,"rental_uris":{"android":"levelo://app?vid=a664c280-0f85-4300-8ddf-2ac4585f71ba","ios":"levelo://app?vid=a664c280-0f85-4300-8ddf-2ac4585f71ba"},"vehicle_type_id":"4","last_reported":1742893844,"current_range_meters":14800,"station_id":"ce4bhm92rcd13ifvqglg","pricing_plan_id":"cebpf4jnsgd1na2vs0mg"},{"bike_id":"1f3fcced-d087-4db2-9c1d-8745101f6e3a","system_id":"levelo_inurba_marseille","lat":43.32487,"lon":5.36562,"is_reserved":false,"is_disabled":false,"rental_uris":{"android":"levelo://app?vid=1f3fcced-d087-4db2-9c1d-8745101f6e3a","ios":"levelo://app?vid=1f3fcced-d087-4db2-9c1d-8745101f6e3a"},"vehicle_type_id":"4","last_reported":1742893844,"current_range_meters":14400,"station_id":"ce4bhs12rcd13ifvqhvg","pricing_plan_id":"cebpf4jnsgd1na2vs0mg"},{"bike_id":"e63df07c-22d4-4f89-9f5e-6f332e38081d","system_id":"levelo_inurba_marseille","lat":43.30168,"lon":5.37409,"is_reserved":false,"is_disabled":false,"rental_uris":{"android":"levelo://app?vid=e63df07c-22d4-4f89-9f5e-6f332e38081d","ios":"levelo://app?vid=e63df07c-22d4-4f89-9f5e-6f332e38081d"},"vehicle_type_id":"4","last_reported":1742893844,"current_range_meters":14800,"station_id":"ce4bgs92rcd13ifvqcc0","pricing_plan_id":"cebpf4jnsgd1na2vs0mg"},{"bike_id":"fd8a75d3-0882-41af-8e38-82df19569887","system_id":"levelo_inurba_marseille","lat":43.31035,"lon":5.37899,"is_reserved":false,"is_disabled":false,"rental_uris":{"android":"levelo://app?vid=fd8a75d3-0882-41af-8e38-82df19569887","ios":"levelo://app?vid=fd8a75d3-0882-41af-8e38-82df19569887"},"vehicle_type_id":"4","last_reported":1742893844,"current_range_meters":14800,"station_id":"","pricing_plan_id":"cebpf4jnsgd1na2vs0mg"},{"bike_id":"4bf82290-6c34-4724-be7a-fccc387df49e","system_id":"levelo_inurba_marseille","lat":43.31518,"lon":5.37282,"is_reserved":false,"is_disabled":false,"rental_uris":{"android":"levelo://app?vid=4bf82290-6c34-4724-be7a-fccc387df49e","ios":"levelo://app?vid=4bf82290-6c34-4724-be7a-fccc387df49e"},"vehicle_type_id":"4","last_reported":1742893844,"current_range_meters":14800,"station_id":"ce4bgt12rcd13ifvqcd0","pricing_plan_id":"cebpf4jnsgd1na2vs0mg"},{"bike_id":"682f6eaa-4c29-4c3b-a483-b3baee9bd977","system_id":"levelo_inurba_marseille","lat":43.2593,"lon":5.40908,"is_reserved":false,"is_disabled":true,"rental_uris":{"android":"levelo://app?vid=682f6eaa-4c29-4c3b-a483-b3baee9bd977","ios":"levelo://app?vid=682f6eaa-4c29-4c3b-a483-b3baee9bd977"},"vehicle_type_id":"4","last_reported":1742893844,"current_range_meters":14800,"station_id":"ce4bhm92rcd13ifvqglg","pricing_plan_id":"cebpf4jnsgd1na2vs0mg"},{"bike_id":"16425bab-e3d0-42ef-9237-8019cc2f40cd","system_id":"levelo_inurba_marseille","lat":43.265573,"lon":5.372917,"is_reserved":false,"is_disabled":false,"rental_uris":{"android":"levelo://app?vid=16425bab-e3d0-42ef-9237-8019cc2f40cd","ios":"levelo://app?vid=16425bab-e3d0-42ef-9237-8019cc2f40cd"},"vehicle_type_id":"4","last_reported":1742893844,"current_range_meters":14800,"station_id":"ce4bhg12rcd13ifvqf70","pricing_plan_id":"cebpf4jnsgd1na2vs0mg"},{"bike_id":"afd4e15f-0884-4215-b93f-ae85fd5be86d","system_id":"levelo_inurba_marseille","lat":43.30265,"lon":5.40071,"is_reserved":false,"is_disabled":false,"rental_uris":{"android":"levelo://app?vid=afd4e15f-0884-4215-b93f-ae85fd5be86d","ios":"levelo://app?vid=afd4e15f-0884-4215-b93f-ae85fd5be86d"},"vehicle_type_id":"4","last_reported":1742893844,"current_range_meters":14800,"station_id":"ce4bgvh2rcd13ifvqcs0","pricing_plan_id":"cebpf4jnsgd1na2vs0mg"},{"bike_id":"566a8886-e010-4357-b81b-ec36ecb02c50","system_id":"levelo_inurba_marseille","lat":43.2959,"lon":5.37734,"is_reserved":false,"is_disabled":false,"rental_uris":{"android":"levelo://app?vid=566a8886-e010-4357-b81b-ec36ecb02c50","ios":"levelo://app?vid=566a8886-e010-4357-b81b-ec36ecb02c50"},"vehicle_type_id":"4","last_reported":1742893844,"current_range_meters":14800,"station_id":"ce4bgi92rcd13ifvqb90","pricing_plan_id":"cebpf4jnsgd1na2vs0mg"},{"bike_id":"f27a066d-098a-4f38-98f0-ce8cad730371","system_id":"levelo_inurba_marseille","lat":43.24175,"lon":5.3973,"is_reserved":false,"is_disabled":false,"rental_uris":{"android":"levelo://app?vid=f27a066d-098a-4f38-98f0-ce8cad730371","ios":"levelo://app?vid=f27a066d-098a-4f38-98f0-ce8cad730371"},"vehicle_type_id":"4","last_reported":1742893844,"current_range_meters":14800,"station_id":"ce4bhn12rcd13ifvqgpg","pricing_plan_id":"cebpf4jnsgd1na2vs0mg"},{"bike_id":"f7d630ab-464c-4b77-a6e3-d48c110c7e85","system_id":"levelo_inurba_marseille","lat":43.30273,"lon":5.37691,"is_reserved":false,"is_disabled":false,"rental_uris":{"android":"levelo://app?vid=f7d630ab-464c-4b77-a6e3-d48c110c7e85","ios":"levelo://app?vid=f7d630ab-464c-4b77-a6e3-d48c110c7e85"},"vehicle_type_id":"4","last_reported":1742893844,"current_range_meters":15200,"station_id":"ce4bguh2rcd13ifvqcj0","pricing_plan_id":"cebpf4jnsgd1na2vs0mg"},{"bike_id":"df1efd5f-be49-4301-af80-2a80146ee489","system_id":"levelo_inurba_marseille","lat":43.27493,"lon":5.42455,"is_reserved":false,"is_disabled":true,"rental_uris":{"android":"levelo://app?vid=df1efd5f-be49-4301-af80-2a80146ee489","ios":"levelo://app?vid=df1efd5f-be49-4301-af80-2a80146ee489"},"vehicle_type_id":"4","last_reported":1742893844,"current_range_meters":15200,"station_id":"ce4bhn92rcd13ifvqgrg","pricing_plan_id":"cebpf4jnsgd1na2vs0mg"},{"bike_id":"c0a6ee91-e903-4e25-865c-83e501e7c028","system_id":"levelo_inurba_marseille","lat":43.27497,"lon":5.42465,"is_reserved":false,"is_disabled":false,"rental_uris":{"android":"levelo://app?vid=c0a6ee91-e903-4e25-865c-83e501e7c028","ios":"levelo://app?vid=c0a6ee91-e903-4e25-865c-83e501e7c028"},"vehicle_type_id":"4","last_reported":1742893844,"current_range_meters":15200,"station_id":"ce4bhn92rcd13ifvqgrg","pricing_plan_id":"cebpf4jnsgd1na2vs0mg"},{"bike_id":"da43d894-069e-486e-a738-14255c3635ad","system_id":"levelo_inurba_marseille","lat":43.260591,"lon":5.394001,"is_reserved":false,"is_disabled":false,"rental_uris":{"android":"levelo://app?vid=da43d894-069e-486e-a738-14255c3635ad","ios":"levelo://app?vid=da43d894-069e-486e-a738-14255c3635ad"},"vehicle_type_id":"4","last_reported":1742893844,"current_range_meters":15200,"station_id":"","pricing_plan_id":"cebpf4jnsgd1na2vs0mg"},{"bike_id":"4f819467-3097-4b84-bceb-7748358d258e","system_id":"levelo_inurba_marseille","lat":43.23971,"lon":5.3664,"is_reserved":false,"is_disabled":false,"rental_uris":{"android":"levelo://app?vid=4f819467-3097-4b84-bceb-7748358d258e","ios":"levelo://app?vid=4f819467-3097-4b84-bceb-7748358d258e"},"vehicle_type_id":"4","last_reported":1742893844,"current_range_meters":15200,"station_id":"ce4bhi12rcd13ifvqfp0","pricing_plan_id":"cebpf4jnsgd1na2vs0mg"},{"bike_id":"b16da0db-7e1a-4063-b03d-e6ade693b0d1","system_id":"levelo_inurba_marseille","lat":43.25935,"lon":5.40913,"is_reserved":false,"is_disabled":false,"rental_uris":{"android":"levelo://app?vid=b16da0db-7e1a-4063-b03d-e6ade693b0d1","ios":"levelo://app?vid=b16da0db-7e1a-4063-b03d-e6ade693b0d1"},"vehicle_type_id":"4","last_reported":1742893844,"current_range_meters":15200,"station_id":"ce4bhm92rcd13ifvqglg","pricing_plan_id":"cebpf4jnsgd1na2vs0mg"},{"bike_id":"b949dccb-c8af-4318-9be7-4d2310eb048a","system_id":"levelo_inurba_marseille","lat":43.26062,"lon":5.40675,"is_reserved":false,"is_disabled":false,"rental_uris":{"android":"levelo://app?vid=b949dccb-c8af-4318-9be7-4d2310eb048a","ios":"levelo://app?vid=b949dccb-c8af-4318-9be7-4d2310eb048a"},"vehicle_type_id":"4","last_reported":1742893844,"current_range_meters":15200,"station_id":"","pricing_plan_id":"cebpf4jnsgd1na2vs0mg"},{"bike_id":"ccb7e9b2-e1da-4475-b002-ea2df1a5517f","system_id":"levelo_inurba_marseille","lat":43.30519,"lon":5.36711,"is_reserved":false,"is_disabled":true,"rental_uris":{"android":"levelo://app?vid=ccb7e9b2-e1da-4475-b002-ea2df1a5517f","ios":"levelo://app?vid=ccb7e9b2-e1da-4475-b002-ea2df1a5517f"},"vehicle_type_id":"4","last_reported":1742893844,"current_range_meters":15200,"station_id":"ce4bgrp2rcd13ifvqc9g","pricing_plan_id":"cebpf4jnsgd1na2vs0mg"},{"bike_id":"2c83bb50-fba3-4607-af66-38f35a150383","system_id":"levelo_inurba_marseille","lat":43.30454,"lon":5.37912,"is_reserved":false,"is_disabled":false,"rental_uris":{"android":"levelo://app?vid=2c83bb50-fba3-4607-af66-38f35a150383","ios":"levelo://app?vid=2c83bb50-fba3-4607-af66-38f35a150383"},"vehicle_type_id":"4","last_reported":1742893844,"current_range_meters":15200,"station_id":"ce4bgup2rcd13ifvqcn0","pricing_plan_id":"cebpf4jnsgd1na2vs0mg"},{"bike_id":"4c2d390b-dd02-452a-b439-73d7800da70f","system_id":"levelo_inurba_marseille","lat":43.25931,"lon":5.40896,"is_reserved":false,"is_disabled":false,"rental_uris":{"android":"levelo://app?vid=4c2d390b-dd02-452a-b439-73d7800da70f","ios":"levelo://app?vid=4c2d390b-dd02-452a-b439-73d7800da70f"},"vehicle_type_id":"4","last_reported":1742893844,"current_range_meters":15200,"station_id":"ce4bhm92rcd13ifvqglg","pricing_plan_id":"cebpf4jnsgd1na2vs0mg"},{"bike_id":"7ce11575-e97f-4612-b902-072bfedc7f4e","system_id":"levelo_inurba_marseille","lat":43.30308,"lon":5.3691,"is_reserved":false,"is_disabled":false,"rental_uris":{"android":"levelo://app?vid=7ce11575-e97f-4612-b902-072bfedc7f4e","ios":"levelo://app?vid=7ce11575-e97f-4612-b902-072bfedc7f4e"},"vehicle_type_id":"4","last_reported":1742893844,"current_range_meters":16000,"station_id":"ce4bgqh2rcd13ifvqc5g","pricing_plan_id":"cebpf4jnsgd1na2vs0mg"},{"bike_id":"5d4199de-8ab8-4d41-9036-2533d82e1cab","system_id":"levelo_inurba_marseille","lat":43.27995,"lon":5.41667,"is_reserved":false,"is_disabled":false,"rental_uris":{"android":"levelo://app?vid=5d4199de-8ab8-4d41-9036-2533d82e1cab","ios":"levelo://app?vid=5d4199de-8ab8-4d41-9036-2533d82e1cab"},"vehicle_type_id":"4","last_reported":1742893844,"current_range_meters":16000,"station_id":"ce4bho12rcd13ifvqh1g","pricing_plan_id":"cebpf4jnsgd1na2vs0mg"},{"bike_id":"653815b1-cbe6-45a2-92aa-a1b7d05a609d","system_id":"levelo_inurba_marseille","lat":43.27496,"lon":5.42454,"is_reserved":false,"is_disabled":false,"rental_uris":{"android":"levelo://app?vid=653815b1-cbe6-45a2-92aa-a1b7d05a609d","ios":"levelo://app?vid=653815b1-cbe6-45a2-92aa-a1b7d05a609d"},"vehicle_type_id":"4","last_reported":1742893844,"current_range_meters":16000,"station_id":"ce4bhn92rcd13ifvqgrg","pricing_plan_id":"cebpf4jnsgd1na2vs0mg"},{"bike_id":"683e2991-3a8d-4e8d-84a1-3b3ecc52105d","system_id":"levelo_inurba_marseille","lat":43.27432,"lon":5.39401,"is_reserved":false,"is_disabled":false,"rental_uris":{"android":"levelo://app?vid=683e2991-3a8d-4e8d-84a1-3b3ecc52105d","ios":"levelo://app?vid=683e2991-3a8d-4e8d-84a1-3b3ecc52105d"},"vehicle_type_id":"4","last_reported":1742893844,"current_range_meters":16000,"station_id":"ce4bhdp2rcd13ifvqf20","pricing_plan_id":"cebpf4jnsgd1na2vs0mg"},{"bike_id":"f366f6ae-d892-4c2a-9304-09f4734e4cdf","system_id":"levelo_inurba_marseille","lat":43.29537,"lon":5.37501,"is_reserved":false,"is_disabled":false,"rental_uris":{"android":"levelo://app?vid=f366f6ae-d892-4c2a-9304-09f4734e4cdf","ios":"levelo://app?vid=f366f6ae-d892-4c2a-9304-09f4734e4cdf"},"vehicle_type_id":"4","last_reported":1742893844,"current_range_meters":15200,"station_id":"ce4bgkp2rcd13ifvqbmg","pricing_plan_id":"cebpf4jnsgd1na2vs0mg"},{"bike_id":"84a7a785-5392-42bc-8088-fb903bcc7f5c","system_id":"levelo_inurba_marseille","lat":43.230633,"lon":5.354977,"is_reserved":false,"is_disabled":false,"rental_uris":{"android":"levelo://app?vid=84a7a785-5392-42bc-8088-fb903bcc7f5c","ios":"levelo://app?vid=84a7a785-5392-42bc-8088-fb903bcc7f5c"},"vehicle_type_id":"4","last_reported":1742893844,"current_range_meters":16000,"station_id":"cpo3342slgdg3j2ifvpg","pricing_plan_id":"cebpf4jnsgd1na2vs0mg"},{"bike_id":"0d20b273-875a-432a-ba76-d960497c4a6a","system_id":"levelo_inurba_marseille","lat":43.30559,"lon":5.36525,"is_reserved":false,"is_disabled":false,"rental_uris":{"android":"levelo://app?vid=0d20b273-875a-432a-ba76-d960497c4a6a","ios":"levelo://app?vid=0d20b273-875a-432a-ba76-d960497c4a6a"},"vehicle_type_id":"4","last_reported":1742893844,"current_range_meters":16000,"station_id":"ce4bgs12rcd13ifvqcag","pricing_plan_id":"cebpf4jnsgd1na2vs0mg"},{"bike_id":"56cdda37-ce98-40ee-a8cf-1237548ad2ed","system_id":"levelo_inurba_marseille","lat":43.23932,"lon":5.36643,"is_reserved":false,"is_disabled":false,"rental_uris":{"android":"levelo://app?vid=56cdda37-ce98-40ee-a8cf-1237548ad2ed","ios":"levelo://app?vid=56cdda37-ce98-40ee-a8cf-1237548ad2ed"},"vehicle_type_id":"4","last_reported":1742893844,"current_range_meters":16000,"station_id":"","pricing_plan_id":"cebpf4jnsgd1na2vs0mg"},{"bike_id":"a2a4dbc2-a9e8-44b5-a596-aa42699b8c22","system_id":"levelo_inurba_marseille","lat":43.25098,"lon":5.39502,"is_reserved":false,"is_disabled":true,"rental_uris":{"android":"levelo://app?vid=a2a4dbc2-a9e8-44b5-a596-aa42699b8c22","ios":"levelo://app?vid=a2a4dbc2-a9e8-44b5-a596-aa42699b8c22"},"vehicle_type_id":"4","last_reported":1742893844,"current_range_meters":16000,"station_id":"","pricing_plan_id":"cebpf4jnsgd1na2vs0mg"},{"bike_id":"06d0c0ce-4bb2-4ebb-bb76-968b1a33d24c","system_id":"levelo_inurba_marseille","lat":43.27058,"lon":5.40257,"is_reserved":false,"is_disabled":false,"rental_uris":{"android":"levelo://app?vid=06d0c0ce-4bb2-4ebb-bb76-968b1a33d24c","ios":"levelo://app?vid=06d0c0ce-4bb2-4ebb-bb76-968b1a33d24c"},"vehicle_type_id":"4","last_reported":1742893844,"current_range_meters":16000,"station_id":"ce4bhk92rcd13ifvqgc0","pricing_plan_id":"cebpf4jnsgd1na2vs0mg"},{"bike_id":"b6b09f1e-aff5-4874-9bcf-607b083d39df","system_id":"levelo_inurba_marseille","lat":43.29029,"lon":5.35926,"is_reserved":false,"is_disabled":true,"rental_uris":{"android":"levelo://app?vid=b6b09f1e-aff5-4874-9bcf-607b083d39df","ios":"levelo://app?vid=b6b09f1e-aff5-4874-9bcf-607b083d39df"},"vehicle_type_id":"4","last_reported":1742893844,"current_range_meters":16000,"station_id":"ce4bha92rcd13ifvqeg0","pricing_plan_id":"cebpf4jnsgd1na2vs0mg"},{"bike_id":"974f5876-effd-44d0-911c-76ea7a107a8c","system_id":"levelo_inurba_marseille","lat":43.33284,"lon":5.35883,"is_reserved":false,"is_disabled":false,"rental_uris":{"android":"levelo://app?vid=974f5876-effd-44d0-911c-76ea7a107a8c","ios":"levelo://app?vid=974f5876-effd-44d0-911c-76ea7a107a8c"},"vehicle_type_id":"4","last_reported":1742893844,"current_range_meters":16000,"station_id":"","pricing_plan_id":"cebpf4jnsgd1na2vs0mg"},{"bike_id":"a7ba97f8-94fd-49ae-9006-ab2c383704cb","system_id":"levelo_inurba_marseille","lat":43.30226,"lon":5.37347,"is_reserved":false,"is_disabled":false,"rental_uris":{"android":"levelo://app?vid=a7ba97f8-94fd-49ae-9006-ab2c383704cb","ios":"levelo://app?vid=a7ba97f8-94fd-49ae-9006-ab2c383704cb"},"vehicle_type_id":"4","last_reported":1742893844,"current_range_meters":16000,"station_id":"","pricing_plan_id":"cebpf4jnsgd1na2vs0mg"},