{"last_updated":1728925681,"ttl":60,"version":"2.2","data":{"bikes":[{"bike_id":"75ddcfd7-3d4a-46f0-b4f1-065d786ab289","system_id":"levelo_inurba_marseille","lat":43.31755,"lon":5.39016,"is_reserved":false,"is_disabled":false,"rental_uris":{"android":"levelo://app?vid=75ddcfd7-3d4a-46f0-b4f1-065d786ab289","ios":"levelo://app?vid=75ddcfd7-3d4a-46f0-b4f1-065d786ab289"},"vehicle_type_id":"4","last_reported":1728925682,"current_range_meters":2000,"station_id":"ce4bhqp2rcd13ifvqhng","pricing_plan_id":"cebpf4jnsgd1na2vs0mg"},{"bike_id":"10530386-7ea2-4630-9cfd-fe14c55cdb58","system_id":"levelo_inurba_marseille","lat":43.31757,"lon":5.39018,"is_reserved":false,"is_disabled":false,"rental_uris":{"android":"levelo://app?vid=10530386-7ea2-4630-9cfd-fe14c55cdb58","ios":"levelo://app?vid=10530386-7ea2-4630-9cfd-fe14c55cdb58"},"vehicle_type_id":"4","last_reported":1728925682,"current_range_meters":11600,"station_id":"ce4bhqp2rcd13ifvqhng","pricing_plan_id":"cebpf4jnsgd1na2vs0mg"},{"bike_id":"d79c8d79-cb40-43d2-ae09-e48d77741ae8","system_id":"levelo_inurba_marseille","lat":43.317,"lon":5.37609,"is_reserved":false,"is_disabled":false,"rental_uris":{"android":"levelo://app?vid=d79c8d79-cb40-43d2-ae09-e48d77741ae8","ios":"levelo://app?vid=d79c8d79-cb40-43d2-ae09-e48d77741ae8"},"vehicle_type_id":"4","last_reported":1728925682,"current_range_meters":14400,"station_id":"ce4bgt92rcd13ifvqcf0","pricing_plan_id":"cebpf4jnsgd1na2vs0mg"},{"bike_id":"cf4cabc2-1787-4d02-a606-03a61104119e","system_id":"levelo_inurba_marseille","lat":43.31329,"lon":5.39705,"is_reserved":false,"is_disabled":false,"rental_uris":{"android":"levelo://app?vid=cf4cabc2-1787-4d02-a606-03a61104119e","ios":"levelo://app?vid=cf4cabc2-1787-4d02-a606-03a61104119e"},"vehicle_type_id":"4","last_reported":1728925682,"current_range_meters":31200,"station_id":"ce4bgvp2rcd13ifvqcu0","pricing_plan_id":"cebpf4jnsgd1na2vs0mg"},{"bike_id":"43973f84-d47c-4c1e-b0d1-2f0f2fcd884a","system_id":"levelo_inurba_marseille","lat":43.31322,"lon":5.39698,"is_reserved":false,"is_disabled":false,"rental_uris":{"android":"levelo://app?vid=43973f84-d47c-4c1e-b0d1-2f0f2fcd884a","ios":"levelo://app?vid=43973f84-d47c-4c1e-b0d1-2f0f2fcd884a"},"vehicle_type_id":"4","last_reported":1728925682,"current_range_meters":22000,"station_id":"ce4bgvp2rcd13ifvqcu0","pricing_plan_id":"cebpf4jnsgd1na2vs0mg"},{"bike_id":"ab06f5b3-3c08-4bb2-ab1c-a3aa34c68d36","system_id":"levelo_inurba_marseille","lat":43.25088,"lon":5.39525,"is_reserved":false,"is_disabled":false,"rental_uris":{"android":"levelo://app?vid=ab06f5b3-3c08-4bb2-ab1c-a3aa34c68d36","ios":"levelo://app?vid=ab06f5b3-3c08-4bb2-ab1c-a3aa34c68d36"},"vehicle_type_id":"4","last_reported":1728925682,"current_range_meters":5600,"station_id":"ce4bhm12rcd13ifvqgkg","pricing_plan_id":"cebpf4jnsgd1na2vs0mg"},{"bike_id":"ce5dd935-4305-4348-ba0e-4f35bc95ef2a","system_id":"levelo_inurba_marseille","lat":43.27823,"lon":5.39213,"is_reserved":false,"is_disabled":false,"rental_uris":{"android":"levelo://app?vid=ce5dd935-4305-4348-ba0e-4f35bc95ef2a","ios":"levelo://app?vid=ce5dd935-4305-4348-ba0e-4f35bc95ef2a"},"vehicle_type_id":"4","last_reported":1728925682,"current_range_meters":22800,"station_id":"ce4bhjp2rcd13ifvqga0","pricing_plan_id":"cebpf4jnsgd1na2vs0mg"},{"bike_id":"6c769316-75e3-4eba-8bca-7dffbdb7e41c","system_id":"levelo_inurba_marseille","lat":43.28463,"lon":5.35887,"is_reserved":false,"is_disabled":false,"rental_uris":{"android":"levelo://app?vid=6c769316-75e3-4eba-8bca-7dffbdb7e41c","ios":"levelo://app?vid=6c769316-75e3-4eba-8bca-7dffbdb7e41c"},"vehicle_type_id":"4","last_reported":1728925682,"current_range_meters":3200,"station_id":"ce4bhah2rcd13ifvqei0","pricing_plan_id":"cebpf4jnsgd1na2vs0mg"},{"bike_id":"7ba0dbef-da71-4878-bc95-e8c4fafde7ef","system_id":"levelo_inurba_marseille","lat":43.29865,"lon":5.39752,"is_reserved":false,"is_disabled":false,"rental_uris":{"android":"levelo://app?vid=7ba0dbef-da71-4878-bc95-e8c4fafde7ef","ios":"levelo://app?vid=7ba0dbef-da71-4878-bc95-e8c4fafde7ef"},"vehicle_type_id":"4","last_reported":1728925682,"current_range_meters":20000,"station_id":"ce4bh0h2rcd13ifvqd50","pricing_plan_id":"cebpf4jnsgd1na2vs0mg"},{"bike_id":"10695e76-6294-4ebb-9f83-5228c4d121d8","system_id":"levelo_inurba_marseille","lat":43.30546,"lon":5.38425,"is_reserved":false,"is_disabled":false,"rental_uris":{"android":"levelo://app?vid=10695e76-6294-4ebb-9f83-5228c4d121d8","ios":"levelo://app?vid=10695e76-6294-4ebb-9f83-5228c4d121d8"},"vehicle_type_id":"4","last_reported":1728925682,"current_range_meters":23200,"station_id":"ce4bgg92rcd13ifvqb30","pricing_plan_id":"cebpf4jnsgd1na2vs0mg"},{"bike_id":"ae994560-3b81-4837-98e6-7b053092bc0b","system_id":"levelo_inurba_marseille","lat":43.28851,"lon":5.35856,"is_reserved":false,"is_disabled":false,"rental_uris":{"android":"levelo://app?vid=ae994560-3b81-4837-98e6-7b053092bc0b","ios":"levelo://app?vid=ae994560-3b81-4837-98e6-7b053092bc0b"},"vehicle_type_id":"4","last_reported":1728925682,"current_range_meters":8800,"station_id":"ce4bhb12rcd13ifvqem0","pricing_plan_id":"cebpf4jnsgd1na2vs0mg"},{"bike_id":"be134651-89ed-4b2d-a340-739e8b66329b","system_id":"levelo_inurba_marseille","lat":43.31074,"lon":5.38355,"is_reserved":false,"is_disabled":false,"rental_uris":{"android":"levelo://app?vid=be134651-89ed-4b2d-a340-739e8b66329b","ios":"levelo://app?vid=be134651-89ed-4b2d-a340-739e8b66329b"},"vehicle_type_id":"4","last_reported":1728925682,"current_range_meters":11600,"station_id":"ce4bgv92rcd13ifvqcr0","pricing_plan_id":"cebpf4jnsgd1na2vs0mg"},{"bike_id":"6692caa7-712f-4211-8b98-6d47eb8d2b05","system_id":"levelo_inurba_marseille","lat":43.2917,"lon":5.37148,"is_reserved":false,"is_disabled":false,"rental_uris":{"android":"levelo://app?vid=6692caa7-712f-4211-8b98-6d47eb8d2b05","ios":"levelo://app?vid=6692caa7-712f-4211-8b98-6d47eb8d2b05"},"vehicle_type_id":"4","last_reported":1728925682,"current_range_meters":10000,"station_id":"ce4bha92rcd13ifvqeh0","pricing_plan_id":"cebpf4jnsgd1na2vs0mg"},{"bike_id":"d166bc6b-652b-4c77-b931-1a4d0627cf6f","system_id":"levelo_inurba_marseille","lat":43.29896,"lon":5.43668,"is_reserved":false,"is_disabled":false,"rental_uris":{"android":"levelo://app?vid=d166bc6b-652b-4c77-b931-1a4d0627cf6f","ios":"levelo://app?vid=d166bc6b-652b-4c77-b931-1a4d0627cf6f"},"vehicle_type_id":"4","last_reported":1728925682,"current_range_meters":39200,"station_id":"ce4bhpp2rcd13ifvqhfg","pricing_plan_id":"cebpf4jnsgd1na2vs0mg"},{"bike_id":"4fb899fb-c7f7-4299-8856-d588065fcc96","system_id":"levelo_inurba_marseille","lat":43.31726,"lon":5.42411,"is_reserved":false,"is_disabled":false,"rental_uris":{"android":"levelo://app?vid=4fb899fb-c7f7-4299-8856-d588065fcc96","ios":"levelo://app?vid=4fb899fb-c7f7-4299-8856-d588065fcc96"},"vehicle_type_id":"4","last_reported":1728925682,"current_range_meters":38400,"station_id":"ce4bhp92rcd13ifvqhbg","pricing_plan_id":"cebpf4jnsgd1na2vs0mg"},{"bike_id":"91188d5c-6222-4e42-a0cf-cef3069459ef","system_id":"levelo_inurba_marseille","lat":43.28862,"lon":5.35852,"is_reserved":false,"is_disabled":false,"rental_uris":{"android":"levelo://app?vid=91188d5c-6222-4e42-a0cf-cef3069459ef","ios":"levelo://app?vid=91188d5c-6222-4e42-a0cf-cef3069459ef"},"vehicle_type_id":"4","last_reported":1728925682,"current_range_meters":13600,"station_id":"ce4bhb12rcd13ifvqem0","pricing_plan_id":"cebpf4jnsgd1na2vs0mg"},{"bike_id":"26428b1f-d06c-45f2-9913-ec73f4540388","system_id":"levelo_inurba_marseille","lat":43.26933,"lon":5.38923,"is_reserved":false,"is_disabled":false,"rental_uris":{"android":"levelo://app?vid=26428b1f-d06c-45f2-9913-ec73f4540388","ios":"levelo://app?vid=26428b1f-d06c-45f2-9913-ec73f4540388"},"vehicle_type_id":"4","last_reported":1728925682,"current_range_meters":38800,"station_id":"ce4bhhh2rcd13ifvqfl0","pricing_plan_id":"cebpf4jnsgd1na2vs0mg"},{"bike_id":"1c9343e4-7b78-402e-b1fe-6599c269887e","system_id":"levelo_inurba_marseille","lat":43.314515,"lon":5.37384,"is_reserved":false,"is_disabled":false,"rental_uris":{"android":"levelo://app?vid=1c9343e4-7b78-402e-b1fe-6599c269887e","ios":"levelo://app?vid=1c9343e4-7b78-402e-b1fe-6599c269887e"},"vehicle_type_id":"4","last_reported":1728925682,"current_range_meters":27200,"station_id":"","pricing_plan_id":"cebpf4jnsgd1na2vs0mg"},{"bike_id":"2f2dab0b-f859-4a5a-972a-e47ad0ac0da9","system_id":"levelo_inurba_marseille","lat":43.29422,"lon":5.386293,"is_reserved":false,"is_disabled":false,"rental_uris":{"android":"levelo://app?vid=2f2dab0b-f859-4a5a-972a-e47ad0ac0da9","ios":"levelo://app?vid=2f2dab0b-f859-4a5a-972a-e47ad0ac0da9"},"vehicle_type_id":"4","last_reported":1728925682,"current_range_meters":1200,"station_id":"ce4bh2h2rcd13ifvqdh0","pricing_plan_id":"cebpf4jnsgd1na2vs0mg"},{"bike_id":"e4b6c3cf-31f2-45b4-ae6a-ad275303477e","system_id":"levelo_inurba_marseille","lat":43.28459,"lon":5.35892,"is_reserved":false,"is_disabled":false,"rental_uris":{"android":"levelo://app?vid=e4b6c3cf-31f2-45b4-ae6a-ad275303477e","ios":"levelo://app?vid=e4b6c3cf-31f2-45b4-ae6a-ad275303477e"},"vehicle_type_id":"4","last_reported":1728925682,"current_range_meters":37600,"station_id":"ce4bhah2rcd13ifvqei0","pricing_plan_id":"cebpf4jnsgd1na2vs0mg"},{"bike_id":"5fe20323-0016-4ce7-9d5f-2acc9cf04e86","system_id":"levelo_inurba_marseille","lat":43.3173,"lon":5.37178,"is_reserved":false,"is_disabled":false,"rental_uris":{"android":"levelo://app?vid=5fe20323-0016-4ce7-9d5f-2acc9cf04e86","ios":"levelo://app?vid=5fe20323-0016-4ce7-9d5f-2acc9cf04e86"},"vehicle_type_id":"4","last_reported":1728925682,"current_range_meters":21600,"station_id":"","pricing_plan_id":"cebpf4jnsgd1na2vs0mg"},{"bike_id":"8c6faa7d-536e-4497-880c-e4def196a4cd","system_id":"levelo_inurba_marseille","lat":43.30585,"lon":5.37225,"is_reserved":false,"is_disabled":false,"rental_uris":{"android":"levelo://app?vid=8c6faa7d-536e-4497-880c-e4def196a4cd","ios":"levelo://app?vid=8c6faa7d-536e-4497-880c-e4def196a4cd"},"vehicle_type_id":"4","last_reported":1728925682,"current_range_meters":39200,"station_id":"ce4bgqh2rcd13ifvqc4g","pricing_plan_id":"cebpf4jnsgd1na2vs0mg"},{"bike_id":"8be68fe5-0560-44f0-aaa0-c0bba0c671eb","system_id":"levelo_inurba_marseille","lat":43.32042,"lon":5.41548,"is_reserved":false,"is_disabled":false,"rental_uris":{"android":"levelo://app?vid=8be68fe5-0560-44f0-aaa0-c0bba0c671eb","ios":"levelo://app?vid=8be68fe5-0560-44f0-aaa0-c0bba0c671eb"},"vehicle_type_id":"4","last_reported":1728925682,"current_range_meters":6800,"station_id":"ce4bhq92rcd13ifvqhkg","pricing_plan_id":"cebpf4jnsgd1na2vs0mg"},{"bike_id":"2da782a0-1060-4b87-a8e4-a6dc26fbaca8","system_id":"levelo_inurba_marseille","lat":43.23962,"lon":5.36639,"is_reserved":false,"is_disabled":false,"rental_uris":{"android":"levelo://app?vid=2da782a0-1060-4b87-a8e4-a6dc26fbaca8","ios":"levelo://app?vid=2da782a0-1060-4b87-a8e4-a6dc26fbaca8"},"vehicle_type_id":"4","last_reported":1728925682,"current_range_meters":22800,"station_id":"ce4bhi12rcd13ifvqfp0","pricing_plan_id":"cebpf4jnsgd1na2vs0mg"},{"bike_id":"2983c3cb-27e8-4284-a169-68ba0502e2c0","system_id":"levelo_inurba_marseille","lat":43.29518,"lon":5.39412,"is_reserved":false,"is_disabled":false,"rental_uris":{"android":"levelo://app?vid=2983c3cb-27e8-4284-a169-68ba0502e2c0","ios":"levelo://app?vid=2983c3cb-27e8-4284-a169-68ba0502e2c0"},"vehicle_type_id":"4","last_reported":1728925682,"current_range_meters":38400,"station_id":"ce4bh292rcd13ifvqdf0","pricing_plan_id":"cebpf4jnsgd1na2vs0mg"},{"bike_id":"d74f15f0-82da-40c1-a93d-cc8378dbde19","system_id":"levelo_inurba_marseille","lat":43.29005,"lon":5.35616,"is_reserved":false,"is_disabled":false,"rental_uris":{"android":"levelo://app?vid=d74f15f0-82da-40c1-a93d-cc8378dbde19","ios":"levelo://app?vid=d74f15f0-82da-40c1-a93d-cc8378dbde19"},"vehicle_type_id":"4","last_reported":1728925682,"current_range_meters":39200,"station_id":"ce4bhb92rcd13ifvqen0","pricing_plan_id":"cebpf4jnsgd1na2vs0mg"},{"bike_id":"51a43f96-867e-4ab9-8ec5-999842e38d95","system_id":"levelo_inurba_marseille","lat":43.31064,"lon":5.40103,"is_reserved":false,"is_disabled":false,"rental_uris":{"android":"levelo://app?vid=51a43f96-867e-4ab9-8ec5-999842e38d95","ios":"levelo://app?vid=51a43f96-867e-4ab9-8ec5-999842e38d95"},"vehicle_type_id":"4","last_reported":1728925682,"current_range_meters":24800,"station_id":"","pricing_plan_id":"cebpf4jnsgd1na2vs0mg"},{"bike_id":"27521189-a10b-488a-82b8-973812fa95e1","system_id":"levelo_inurba_marseille","lat":43.32475,"lon":5.36574,"is_reserved":false,"is_disabled":false,"rental_uris":{"android":"levelo://app?vid=27521189-a10b-488a-82b8-973812fa95e1","ios":"levelo://app?vid=27521189-a10b-488a-82b8-973812fa95e1"},"vehicle_type_id":"4","last_reported":1728925682,"current_range_meters":2000,"station_id":"ce4bhs12rcd13ifvqhvg","pricing_plan_id":"cebpf4jnsgd1na2vs0mg"},{"bike_id":"39693a0a-783d-4a52-8de2-c33c7d1658b2","system_id":"levelo_inurba_marseille","lat":43.25105,"lon":5.40326,"is_reserved":false,"is_disabled":false,"rental_uris":{"android":"levelo://app?vid=39693a0a-783d-4a52-8de2-c33c7d1658b2","ios":"levelo://app?vid=39693a0a-783d-4a52-8de2-c33c7d1658b2"},"vehicle_type_id":"4","last_reported":1728925682,"current_range_meters":9200,"station_id":"ce4bhlh2rcd13ifvqgig","pricing_plan_id":"cebpf4jnsgd1na2vs0mg"},{"bike_id":"09a2e575-ef21-47f1-afdd-66b4617de5a0","system_id":"levelo_inurba_marseille","lat":43.28081,"lon":5.39657,"is_reserved":false,"is_disabled":false,"rental_uris":{"android":"levelo://app?vid=09a2e575-ef21-47f1-afdd-66b4617de5a0","ios":"levelo://app?vid=09a2e575-ef21-47f1-afdd-66b4617de5a0"},"vehicle_type_id":"4","last_reported":1728925682,"current_range_meters":39200,"station_id":"ce4bho12rcd13ifvqh2g","pricing_plan_id":"cebpf4jnsgd1na2vs0mg"},{"bike_id":"3825ecfc-e2b7-4629-8a28-ea487e242a07","system_id":"levelo_inurba_marseille","lat":43.31887,"lon":5.40745,"is_reserved":false,"is_disabled":false,"rental_uris":{"android":"levelo://app?vid=3825ecfc-e2b7-4629-8a28-ea487e242a07","ios":"levelo://app?vid=3825ecfc-e2b7-4629-8a28-ea487e242a07"},"vehicle_type_id":"4","last_reported":1728925682,"current_range_meters":28000,"station_id":"ce4bhq12rcd13ifvqhig","pricing_plan_id":"cebpf4jnsgd1na2vs0mg"},{"bike_id":"8eadc69f-1a2d-47cb-9e34-477395472250","system_id":"levelo_inurba_marseille","lat":43.29517,"lon":5.39418,"is_reserved":false,"is_disabled":false,"rental_uris":{"android":"levelo://app?vid=8eadc69f-1a2d-47cb-9e34-477395472250","ios":"levelo://app?vid=8eadc69f-1a2d-47cb-9e34-477395472250"},"vehicle_type_id":"4","last_reported":1728925682,"current_range_meters":4400,"station_id":"ce4bh292rcd13ifvqdf0","pricing_plan_id":"cebpf4jnsgd1na2vs0mg"},{"bike_id":"4482dbd3-0d31-4b43-bbd3-5cfbb130291d","system_id":"levelo_inurba_marseille","lat":43.2319,"lon":5.35555,"is_reserved":false,"is_disabled":false,"rental_uris":{"android":"levelo://app?vid=4482dbd3-0d31-4b43-bbd3-5cfbb130291d","ios":"levelo://app?vid=4482dbd3-0d31-4b43-bbd3-5cfbb130291d"},"vehicle_type_id":"4","last_reported":1728925682,"current_range_meters":4800,"station_id":"ce4bhu92rcd13ifvqi70","pricing_plan_id":"cebpf4jnsgd1na2vs0mg"},{"bike_id":"a6d599a3-8c41-4fbe-bbd1-027a7218f7a4","system_id":"levelo_inurba_marseille","lat":43.29424,"lon":5.38616,"is_reserved":false,"is_disabled":false,"rental_uris":{"android":"levelo://app?vid=a6d599a3-8c41-4fbe-bbd1-027a7218f7a4","ios":"levelo://app?vid=a6d599a3-8c41-4fbe-bbd1-027a7218f7a4"},"vehicle_type_id":"4","last_reported":1728925682,"current_range_meters":3200,"station_id":"ce4bh2h2rcd13ifvqdh0","pricing_plan_id":"cebpf4jnsgd1na2vs0mg"},{"bike_id":"870cdfd3-a237-4937-8e0b-e46806ee4933","system_id":"levelo_inurba_marseille","lat":43.25703,"lon":5.41073,"is_reserved":false,"is_disabled":false,"rental_uris":{"android":"levelo://app?vid=870cdfd3-a237-4937-8e0b-e46806ee4933","ios":"levelo://app?vid=870cdfd3-a237-4937-8e0b-e46806ee4933"},"vehicle_type_id":"4","last_reported":1728925682,"current_range_meters":12000,"station_id":"ce4bhkp2rcd13ifvqgd0","pricing_plan_id":"cebpf4jnsgd1na2vs0mg"},{"bike_id":"43453fc3-f15a-4bcf-8f5c-3ec3188e9761","system_id":"levelo_inurba_marseille","lat":43.33028,"lon":5.39039,"is_reserved":false,"is_disabled":false,"rental_uris":{"android":"levelo://app?vid=43453fc3-f15a-4bcf-8f5c-3ec3188e9761","ios":"levelo://app?vid=43453fc3-f15a-4bcf-8f5c-3ec3188e9761"},"vehicle_type_id":"4","last_reported":1728925682,"current_range_meters":20800,"station_id":"ce4bhr92rcd13ifvqhrg","pricing_plan_id":"cebpf4jnsgd1na2vs0mg"},{"bike_id":"b178b062-35cd-4f92-91db-f4ae171fe0ea","system_id":"levelo_inurba_marseille","lat":43.292851,"lon":5.368404,"is_reserved":false,"is_disabled":false,"rental_uris":{"android":"levelo://app?vid=b178b062-35cd-4f92-91db-f4ae171fe0ea","ios":"levelo://app?vid=b178b062-35cd-4f92-91db-f4ae171fe0ea"},"vehicle_type_id":"4","last_reported":1728925682,"current_range_meters":14000,"station_id":"","pricing_plan_id":"cebpf4jnsgd1na2vs0mg"},{"bike_id":"5ccc40fc-135e-4a46-8e38-1b0157b782fd","system_id":"levelo_inurba_marseille","lat":43.27613,"lon":5.36106,"is_reserved":false,"is_disabled":false,"rental_uris":{"android":"levelo://app?vid=5ccc40fc-135e-4a46-8e38-1b0157b782fd","ios":"levelo://app?vid=5ccc40fc-135e-4a46-8e38-1b0157b782fd"},"vehicle_type_id":"4","last_reported":1728925682,"current_range_meters":26800,"station_id":"ce4bgj92rcd13ifvqbe0","pricing_plan_id":"cebpf4jnsgd1na2vs0mg"},{"bike_id":"b17bd6a0-4c14-4c8c-96d0-fdc1bec84ba5","system_id":"levelo_inurba_marseille","lat":43.31063,"lon":5.38352,"is_reserved":false,"is_disabled":false,"rental_uris":{"android":"levelo://app?vid=b17bd6a0-4c14-4c8c-96d0-fdc1bec84ba5","ios":"levelo://app?vid=b17bd6a0-4c14-4c8c-96d0-fdc1bec84ba5"},"vehicle_type_id":"4","last_reported":1728925682,"current_range_meters":12400,"station_id":"ce4bgv92rcd13ifvqcr0","pricing_plan_id":"cebpf4jnsgd1na2vs0mg"},{"bike_id":"a0004b86-0108-4a59-8420-8474f739e195","system_id":"levelo_inurba_marseille","lat":43.31752,"lon":5.39032,"is_reserved":false,"is_disabled":false,"rental_uris":{"android":"levelo://app?vid=a0004b86-0108-4a59-8420-8474f739e195","ios":"levelo://app?vid=a0004b86-0108-4a59-8420-8474f739e195"},"vehicle_type_id":"4","last_reported":1728925682,"current_range_meters":38800,"station_id":"ce4bhqp2rcd13ifvqhng","pricing_plan_id":"cebpf4jnsgd1na2vs0mg"},{"bike_id":"c0670d96-b06e-446b-a07e-6b5eeebc59d7","system_id":"levelo_inurba_marseille","lat":43.274948,"lon":5.424466,"is_reserved":false,"is_disabled":false,"rental_uris":{"android":"levelo://app?vid=c0670d96-b06e-446b-a07e-6b5eeebc59d7","ios":"levelo://app?vid=c0670d96-b06e-446b-a07e-6b5eeebc59d7"},"vehicle_type_id":"4","last_reported":1728925682,"current_range_meters":16000,"station_id":"ce4bhn92rcd13ifvqgrg","pricing_plan_id":"cebpf4jnsgd1na2vs0mg"},{"bike_id":"80ea82cb-fdc6-4f40-b9be-6332a9de722d","system_id":"levelo_inurba_marseille","lat":43.23184,"lon":5.39988,"is_reserved":false,"is_disabled":false,"rental_uris":{"android":"levelo://app?vid=80ea82cb-fdc6-4f40-b9be-6332a9de722d","ios":"levelo://app?vid=80ea82cb-fdc6-4f40-b9be-6332a9de722d"},"vehicle_type_id":"4","last_reported":1728925682,"current_range_meters":8000,"station_id":"ce4bhn12rcd13ifvqgqg","pricing_plan_id":"cebpf4jnsgd1na2vs0mg"},{"bike_id":"cc160756-c5be-47df-8986-85e756db12d6","system_id":"levelo_inurba_marseille","lat":43.29647,"lon":5.37258,"is_reserved":false,"is_disabled":false,"rental_uris":{"android":"levelo://app?vid=cc160756-c5be-47df-8986-85e756db12d6","ios":"levelo://app?vid=cc160756-c5be-47df-8986-85e756db12d6"},"vehicle_type_id":"4","last_reported":1728925682,"current_range_meters":9600,"station_id":"ce4bgk12rcd13ifvqbj0","pricing_plan_id":"cebpf4jnsgd1na2vs0mg"},{"bike_id":"d89b2695-5aa6-4a92-91a8-0fb5024fb82d","system_id":"levelo_inurba_marseille","lat":43.30958,"lon":5.39041,"is_reserved":false,"is_disabled":false,"rental_uris":{"android":"levelo://app?vid=d89b2695-5aa6-4a92-91a8-0fb5024fb82d","ios":"levelo://app?vid=d89b2695-5aa6-4a92-91a8-0fb5024fb82d"},"vehicle_type_id":"4","last_reported":1728925682,"current_range_meters":38800,"station_id":"ce4bgup2rcd13ifvqco0","pricing_plan_id":"cebpf4jnsgd1na2vs0mg"},{"bike_id":"a0d3d324-fa7e-4417-aee7-85012ecab44e","system_id":"levelo_inurba_marseille","lat":43.34234,"lon":5.44565,"is_reserved":false,"is_disabled":false,"rental_uris":{"android":"levelo://app?vid=a0d3d324-fa7e-4417-aee7-85012ecab44e","ios":"levelo://app?vid=a0d3d324-fa7e-4417-aee7-85012ecab44e"},"vehicle_type_id":"4","last_reported":1728925682,"current_range_meters":27600,"station_id":"","pricing_plan_id":"cebpf4jnsgd1na2vs0mg"},{"bike_id":"62bf91f0-b1a6-4dd5-a5a2-40b9d87500c7","system_id":"levelo_inurba_marseille","lat":43.28616,"lon":5.35108,"is_reserved":false,"is_disabled":false,"rental_uris":{"android":"levelo://app?vid=62bf91f0-b1a6-4dd5-a5a2-40b9d87500c7","ios":"levelo://app?vid=62bf91f0-b1a6-4dd5-a5a2-40b9d87500c7"},"vehicle_type_id":"4","last_reported":1728925682,"current_range_meters":10000,"station_id":"ce4bhch2rcd13ifvqeug","pricing_plan_id":"cebpf4jnsgd1na2vs0mg"},{"bike_id":"2b7e1507-3293-42c7-b21e-b79470cff341","system_id":"levelo_inurba_marseille","lat":43.23155,"lon":5.43699,"is_reserved":false,"is_disabled":false,"rental_uris":{"android":"levelo://app?vid=2b7e1507-3293-42c7-b21e-b79470cff341","ios":"levelo://app?vid=2b7e1507-3293-42c7-b21e-b79470cff341"},"vehicle_type_id":"4","last_reported":1728925682,"current_range_meters":38000,"station_id":"ce4bhmp2rcd13ifvqgog","pricing_plan_id":"cebpf4jnsgd1na2vs0mg"},{"bike_id":"6a6e8901-7cf8-4ec1-b6aa-3e523137d174","system_id":"levelo_inurba_marseille","lat":43.31177,"lon":5.38727,"is_reserved":false,"is_disabled":false,"rental_uris":{"android":"levelo://app?vid=6a6e8901-7cf8-4ec1-b6aa-3e523137d174","ios":"levelo://app?vid=6a6e8901-7cf8-4ec1-b6aa-3e523137d174"},"vehicle_type_id":"4","last_reported":1728925682,"current_range_meters":10000,"station_id":"ce4bgv12rcd13ifvqcp0","pricing_plan_id":"cebpf4jnsgd1na2vs0mg"},{"bike_id":"3a6440f7-d8d6-444b-bcb5-c18d16425ed6","system_id":"levelo_inurba_marseille","lat":43.32109,"lon":5.36783,"is_reserved":false,"is_disabled":false,"rental_uris":{"android":"levelo://app?vid=3a6440f7-d8d6-444b-bcb5-c18d16425ed6","ios":"levelo://app?vid=3a6440f7-d8d6-444b-bcb5-c18d16425ed6"},"vehicle_type_id":"4","last_reported":1728925682,"current_range_meters":38800,"station_id":"ce4bhrh2rcd13ifvqhug","pricing_plan_id":"cebpf4jnsgd1na2vs0mg"},{"bike_id":"6bbb8237-ac67-415f-8641-6574e2cf7abb","system_id":"levelo_inurba_marseille","lat":43.28078,"lon":5.39663,"is_reserved":false,"is_disabled":false,"rental_uris":{"android":"levelo://app?vid=6bbb8237-ac67-415f-8641-6574e2cf7abb","ios":"levelo://app?vid=6bbb8237-ac67-415f-8641-6574e2cf7abb"},"vehicle_type_id":"4","last_reported":1728925682,"current_range_meters":24800,"station_id":"ce4bho12rcd13ifvqh2g","pricing_plan_id":"cebpf4jnsgd1na2vs0mg"},{"bike_id":"8ca7a4b7-6a2f-413c-970f-612bc6879f05","system_id":"levelo_inurba_marseille","lat":43.25074,"lon":5.39505,"is_reserved":false,"is_disabled":false,"rental_uris":{"android":"levelo://app?vid=8ca7a4b7-6a2f-413c-970f-612bc6879f05","ios":"levelo://app?vid=8ca7a4b7-6a2f-413c-970f-612bc6879f05"},"vehicle_type_id":"4","last_reported":1728925682,"current_range_meters":28000,"station_id":"ce4bhm12rcd13ifvqgkg","pricing_plan_id":"cebpf4jnsgd1na2vs0mg"},{"bike_id":"df818b9f-1228-4637-b219-e44497a55caa","system_id":"levelo_inurba_marseille","lat":43.29418,"lon":5.3861,"is_reserved":false,"is_disabled":false,"rental_uris":{"android":"levelo://app?vid=df818b9f-1228-4637-b219-e44497a55caa","ios":"levelo://app?vid=df818b9f-1228-4637-b219-e44497a55caa"},"vehicle_type_id":"4","last_reported":1728925682,"current_range_meters":38800,"station_id":"ce4bh2h2rcd13ifvqdh0","pricing_plan_id":"cebpf4jnsgd1na2vs0mg"},{"bike_id":"e5d8f2cc-c58d-49bd-81b3-2cc32f8354b6","system_id":"levelo_inurba_marseille","lat":43.3013,"lon":5.39867,"is_reserved":false,"is_disabled":false,"rental_uris":{"android":"levelo://app?vid=e5d8f2cc-c58d-49bd-81b3-2cc32f8354b6","ios":"levelo://app?vid=e5d8f2cc-c58d-49bd-81b3-2cc32f8354b6"},"vehicle_type_id":"4","last_reported":1728925682,"current_range_meters":22400,"station_id":"ce4bh0h2rcd13ifvqd40","pricing_plan_id":"cebpf4jnsgd1na2vs0mg"},{"bike_id":"d0ae21b3-08ca-4f0d-96c1-a1cbf5aca234","system_id":"levelo_inurba_marseille","lat":43.24182,"lon":5.39725,"is_reserved":false,"is_disabled":false,"rental_uris":{"android":"levelo://app?vid=d0ae21b3-08ca-4f0d-96c1-a1cbf5aca234","ios":"levelo://app?vid=d0ae21b3-08ca-4f0d-96c1-a1cbf5aca234"},"vehicle_type_id":"4","last_reported":1728925682,"current_range_meters":36000,"station_id":"ce4bhn12rcd13ifvqgpg","pricing_plan_id":"cebpf4jnsgd1na2vs0mg"},{"bike_id":"3afb0681-8fbd-47fe-8917-e12bc3cf488b","system_id":"levelo_inurba_marseille","lat":43.3372,"lon":5.39191,"is_reserved":false,"is_disabled":false,"rental_uris":{"android":"levelo://app?vid=3afb0681-8fbd-47fe-8917-e12bc3cf488b","ios":"levelo://app?vid=3afb0681-8fbd-47fe-8917-e12bc3cf488b"},"vehicle_type_id":"4","last_reported":1728925682,"current_range_meters":39200,"station_id":"ce4bhr92rcd13ifvqhsg","pricing_plan_id":"cebpf4jnsgd1na2vs0mg"},{"bike_id":"c447c9b7-602e-47e0-a52e-d02ec28e91bf","system_id":"levelo_inurba_marseille","lat":43.29176,"lon":5.37151,"is_reserved":false,"is_disabled":false,"rental_uris":{"android":"levelo://app?vid=c447c9b7-602e-47e0-a52e-d02ec28e91bf","ios":"levelo://app?vid=c447c9b7-602e-47e0-a52e-d02ec28e91bf"},"vehicle_type_id":"4","last_reported":1728925682,"current_range_meters":32400,"station_id":"ce4bha92rcd13ifvqeh0","pricing_plan_id":"cebpf4jnsgd1na2vs0mg"},{"bike_id":"a732941c-85bc-42aa-bd93-04ae552d110c","system_id":"levelo_inurba_marseille","lat":43.30802,"lon":5.43523,"is_reserved":false,"is_disabled":false,"rental_uris":{"android":"levelo://app?vid=a732941c-85bc-42aa-bd93-04ae552d110c","ios":"levelo://app?vid=a732941c-85bc-42aa-bd93-04ae552d110c"},"vehicle_type_id":"4","last_reported":1728925682,"current_range_meters":8800,"station_id":"ce4bhph2rcd13ifvqheg","pricing_plan_id":"cebpf4jnsgd1na2vs0mg"},{"bike_id":"5362a23f-b4ac-4e72-aadf-b1e9cd5f2ae8","system_id":"levelo_inurba_marseille","lat":43.26936,"lon":5.40253,"is_reserved":false,"is_disabled":false,"rental_uris":{"android":"levelo://app?vid=5362a23f-b4ac-4e72-aadf-b1e9cd5f2ae8","ios":"levelo://app?vid=5362a23f-b4ac-4e72-aadf-b1e9cd5f2ae8"},"vehicle_type_id":"4","last_reported":1728925682,"current_range_meters":8000,"station_id":"cjm6bp8fraef2m0cb0m0","pricing_plan_id":"cebpf4jnsgd1na2vs0mg"},{"bike_id":"0aa24254-1147-4847-8b08-06033f0bb6c7","system_id":"levelo_inurba_marseille","lat":43.33023,"lon":5.39043,"is_reserved":false,"is_disabled":false,"rental_uris":{"android":"levelo://app?vid=0aa24254-1147-4847-8b08-06033f0bb6c7","ios":"levelo://app?vid=0aa24254-1147-4847-8b08-06033f0bb6c7"},"vehicle_type_id":"4","last_reported":1728925682,"current_range_meters":29600,"station_id":"ce4bhr92rcd13ifvqhrg","pricing_plan_id":"cebpf4jnsgd1na2vs0mg"},{"bike_id":"6b91a36d-6082-409e-955e-4c4cc472df57","system_id":"levelo_inurba_marseille","lat":43.27821,"lon":5.39218,"is_reserved":false,"is_disabled":false,"rental_uris":{"android":"levelo://app?vid=6b91a36d-6082-409e-955e-4c4cc472df57","ios":"levelo://app?vid=6b91a36d-6082-409e-955e-4c4cc472df57"},"vehicle_type_id":"4","last_reported":1728925682,"current_range_meters":17200,"station_id":"ce4bhjp2rcd13ifvqga0","pricing_plan_id":"cebpf4jnsgd1na2vs0mg"},{"bike_id":"ef45f16f-1220-44b9-bceb-9ced11085627","system_id":"levelo_inurba_marseille","lat":43.30544,"lon":5.38436,"is_reserved":false,"is_disabled":false,"rental_uris":{"android":"levelo://app?vid=ef45f16f-1220-44b9-bceb-9ced11085627","ios":"levelo://app?vid=ef45f16f-1220-44b9-bceb-9ced11085627"},"vehicle_type_id":"4","last_reported":1728925682,"current_range_meters":24800,"station_id":"ce4bgg92rcd13ifvqb30","pricing_plan_id":"cebpf4jnsgd1na2vs0mg"},{"bike_id":"912fb237-3e2c-405a-9ef1-e3ebf193d8bb","system_id":"levelo_inurba_marseille","lat":43.29542,"lon":5.38551,"is_reserved":false,"is_disabled":false,"rental_uris":{"android":"levelo://app?vid=912fb237-3e2c-405a-9ef1-e3ebf193d8bb","ios":"levelo://app?vid=912fb237-3e2c-405a-9ef1-e3ebf193d8bb"},"vehicle_type_id":"4","last_reported":1728925682,"current_range_meters":30800,"station_id":"ce4bgih2rcd13ifvqba0","pricing_plan_id":"cebpf4jnsgd1na2vs0mg"},{"bike_id":"b97ac990-8c0e-4aa6-a428-6bf3d623b8ab","system_id":"levelo_inurba_marseille","lat":43.24547,"lon":5.39523,"is_reserved":false,"is_disabled":false,"rental_uris":{"android":"levelo://app?vid=b97ac990-8c0e-4aa6-a428-6bf3d623b8ab","ios":"levelo://app?vid=b97ac990-8c0e-4aa6-a428-6bf3d623b8ab"},"vehicle_type_id":"4","last_reported":1728925682,"current_range_meters":4400,"station_id":"ce4bhlp2rcd13ifvqgjg","pricing_plan_id":"cebpf4jnsgd1na2vs0mg"},{"bike_id":"fad5bbff-40ae-465f-98ff-41072bf1ee97","system_id":"levelo_inurba_marseille","lat":43.29897,"lon":5.43658,"is_reserved":false,"is_disabled":false,"rental_uris":{"android":"levelo://app?vid=fad5bbff-40ae-465f-98ff-41072bf1ee97","ios":"levelo://app?vid=fad5bbff-40ae-465f-98ff-41072bf1ee97"},"vehicle_type_id":"4","last_reported":1728925682,"current_range_meters":20400,"station_id":"ce4bhpp2rcd13ifvqhfg","pricing_plan_id":"cebpf4jnsgd1na2vs0mg"},{"bike_id":"7306f698-d49d-44bc-94bc-25fe8f6e403f","system_id":"levelo_inurba_marseille","lat":43.2951,"lon":5.39051,"is_reserved":false,"is_disabled":false,"rental_uris":{"android":"levelo://app?vid=7306f698-d49d-44bc-94bc-25fe8f6e403f","ios":"levelo://app?vid=7306f698-d49d-44bc-94bc-25fe8f6e403f"},"vehicle_type_id":"4","last_reported":1728925682,"current_range_meters":11200,"station_id":"ce4bh3p2rcd13ifvqdp0","pricing_plan_id":"cebpf4jnsgd1na2vs0mg"},{"bike_id":"68f0940b-be9e-475b-8564-d68c406b5f14","system_id":"levelo_inurba_marseille","lat":43.25861,"lon":5.39907,"is_reserved":false,"is_disabled":false,"rental_uris":{"android":"levelo://app?vid=68f0940b-be9e-475b-8564-d68c406b5f14","ios":"levelo://app?vid=68f0940b-be9e-475b-8564-d68c406b5f14"},"vehicle_type_id":"4","last_reported":1728925682,"current_range_meters":33200,"station_id":"ce4bhl92rcd13ifvqghg","pricing_plan_id":"cebpf4jnsgd1na2vs0mg"},{"bike_id":"b80c714b-6a66-4d5c-832e-bd487c535a72","system_id":"levelo_inurba_marseille","lat":43.31109,"lon":5.38064,"is_reserved":false,"is_disabled":false,"rental_uris":{"android":"levelo://app?vid=b80c714b-6a66-4d5c-832e-bd487c535a72","ios":"levelo://app?vid=b80c714b-6a66-4d5c-832e-bd487c535a72"},"vehicle_type_id":"4","last_reported":1728925682,"current_range_meters":19200,"station_id":"ce4bgt92rcd13ifvqcf0","pricing_plan_id":"cebpf4jnsgd1na2vs0mg"},{"bike_id":"2140b6a3-5118-4150-823e-9225aeb56201","system_id":"levelo_inurba_marseille","lat":43.231936,"lon":5.355496,"is_reserved":false,"is_disabled":false,"rental_uris":{"android":"levelo://app?vid=2140b6a3-5118-4150-823e-9225aeb56201","ios":"levelo://app?vid=2140b6a3-5118-4150-823e-9225aeb56201"},"vehicle_type_id":"4","last_reported":1728925682,"current_range_meters":8000,"station_id":"ce4bhu92rcd13ifvqi70","pricing_plan_id":"cebpf4jnsgd1na2vs0mg"},{"bike_id":"c33261ac-4d14-48c4-b085-1cdb5da4f858","system_id":"levelo_inurba_marseille","lat":43.298651,"lon":5.397444,"is_reserved":false,"is_disabled":false,"rental_uris":{"android":"levelo://app?vid=c33261ac-4d14-48c4-b085-1cdb5da4f858","ios":"levelo://app?vid=c33261ac-4d14-48c4-b085-1cdb5da4f858"},"vehicle_type_id":"4","last_reported":1728925682,"current_range_meters":31200,"station_id":"ce4bh392rcd13ifvqdm0","pricing_plan_id":"cebpf4jnsgd1na2vs0mg"},{"bike_id":"0a76a1f0-392f-4c16-9c64-3b5183d6aad9","system_id":"levelo_inurba_marseille","lat":43.23964,"lon":5.36636,"is_reserved":false,"is_disabled":false,"rental_uris":{"android":"levelo://app?vid=0a76a1f0-392f-4c16-9c64-3b5183d6aad9","ios":"levelo://app?vid=0a76a1f0-392f-4c16-9c64-3b5183d6aad9"},"vehicle_type_id":"4","last_reported":1728925682,"current_range_meters":30000,"station_id":"ce4bhi12rcd13ifvqfp0","pricing_plan_id":"cebpf4jnsgd1na2vs0mg"},{"bike_id":"94e36800-0876-449f-ab73-0d327298c706","system_id":"levelo_inurba_marseille","lat":43.31363,"lon":5.38505,"is_reserved":false,"is_disabled":false,"rental_uris":{"android":"levelo://app?vid=94e36800-0876-449f-ab73-0d327298c706","ios":"levelo://app?vid=94e36800-0876-449f-ab73-0d327298c706"},"vehicle_type_id":"4","last_reported":1728925682,"current_range_meters":30400,"station_id":"ce4bgt92rcd13ifvqcf0","pricing_plan_id":"cebpf4jnsgd1na2vs0mg"},{"bike_id":"fb722ff1-0970-44f2-856e-210f2bf3fe47","system_id":"levelo_inurba_marseille","lat":43.29601,"lon":5.38102,"is_reserved":false,"is_disabled":false,"rental_uris":{"android":"levelo://app?vid=fb722ff1-0970-44f2-856e-210f2bf3fe47","ios":"levelo://app?vid=fb722ff1-0970-44f2-856e-210f2bf3fe47"},"vehicle_type_id":"4","last_reported":1728925682,"current_range_meters":23200,"station_id":"ce4bgl12rcd13ifvqbo0","pricing_plan_id":"cebpf4jnsgd1na2vs0mg"},{"bike_id":"e0c84cd7-1238-4635-a3fd-37be910012d7","system_id":"levelo_inurba_marseille","lat":43.27667,"lon":5.3889,"is_reserved":false,"is_disabled":false,"rental_uris":{"android":"levelo://app?vid=e0c84cd7-1238-4635-a3fd-37be910012d7","ios":"levelo://app?vid=e0c84cd7-1238-4635-a3fd-37be910012d7"},"vehicle_type_id":"4","last_reported":1728925682,"current_range_meters":9200,"station_id":"ce4bhi12rcd13ifvqfo0","pricing_plan_id":"cebpf4jnsgd1na2vs0mg"},{"bike_id":"02edf250-0bdc-44d6-9936-04b527fbc30e","system_id":"levelo_inurba_marseille","lat":43.24386,"lon":5.37057,"is_reserved":false,"is_disabled":false,"rental_uris":{"android":"levelo://app?vid=02edf250-0bdc-44d6-9936-04b527fbc30e","ios":"levelo://app?vid=02edf250-0bdc-44d6-9936-04b527fbc30e"},"vehicle_type_id":"4","last_reported":1728925682,"current_range_meters":15200,"station_id":"ce4bhhh2rcd13ifvqfk0","pricing_plan_id":"cebpf4jnsgd1na2vs0mg"},{"bike_id":"78bdb84b-c1ee-4965-b64e-1cd2c42960aa","system_id":"levelo_inurba_marseille","lat":43.26809,"lon":5.40265,"is_reserved":false,"is_disabled":false,"rental_uris":{"android":"levelo://app?vid=78bdb84b-c1ee-4965-b64e-1cd2c42960aa","ios":"levelo://app?vid=78bdb84b-c1ee-4965-b64e-1cd2c42960aa"},"vehicle_type_id":"4","last_reported":1728925682,"current_range_meters":37600,"station_id":"ce501612rcd8frsf0b60","pricing_plan_id":"cebpf4jnsgd1na2vs0mg"},{"bike_id":"6b757537-365a-4560-9e93-020fdfecc172","system_id":"levelo_inurba_marseille","lat":43.28034,"lon":5.36951,"is_reserved":false,"is_disabled":false,"rental_uris":{"android":"levelo://app?vid=6b757537-365a-4560-9e93-020fdfecc172","ios":"levelo://app?vid=6b757537-365a-4560-9e93-020fdfecc172"},"vehicle_type_id":"4","last_reported":1728925682,"current_range_meters":5600,"station_id":"ce4bha12rcd13ifvqef0","pricing_plan_id":"cebpf4jnsgd1na2vs0mg"},{"bike_id":"2bd92e0b-d081-497d-aee3-5b8287c4e7e6","system_id":"levelo_inurba_marseille","lat":43.27173,"lon":5.40992,"is_reserved":false,"is_disabled":false,"rental_uris":{"android":"levelo://app?vid=2bd92e0b-d081-497d-aee3-5b8287c4e7e6","ios":"levelo://app?vid=2bd92e0b-d081-497d-aee3-5b8287c4e7e6"},"vehicle_type_id":"4","last_reported":1728925682,"current_range_meters":3200,"station_id":"ce4bhl12rcd13ifvqgf0","pricing_plan_id":"cebpf4jnsgd1na2vs0mg"},{"bike_id":"9eae6d3f-4b7a-4ce6-be20-1ed05087b08a","system_id":"levelo_inurba_marseille","lat":43.29534,"lon":5.39033,"is_reserved":false,"is_disabled":false,"rental_uris":{"android":"levelo://app?vid=9eae6d3f-4b7a-4ce6-be20-1ed05087b08a","ios":"levelo://app?vid=9eae6d3f-4b7a-4ce6-be20-1ed05087b08a"},"vehicle_type_id":"4","last_reported":1728925682,"current_range_meters":12800,"station_id":"ce4bh3p2rcd13ifvqdp0","pricing_plan_id":"cebpf4jnsgd1na2vs0mg"},{"bike_id":"c6f1c670-56f1-422c-b84d-3a04939da413","system_id":"levelo_inurba_marseille","lat":43.24389,"lon":5.37058,"is_reserved":false,"is_disabled":false,"rental_uris":{"android":"levelo://app?vid=c6f1c670-56f1-422c-b84d-3a04939da413","ios":"levelo://app?vid=c6f1c670-56f1-422c-b84d-3a04939da413"},"vehicle_type_id":"4","last_reported":1728925682,"current_range_meters":26800,"station_id":"ce4bhhh2rcd13ifvqfk0","pricing_plan_id":"cebpf4jnsgd1na2vs0mg"},{"bike_id":"e01e41b6-906b-4d38-bd47-8409331ef9cb","system_id":"levelo_inurba_marseille","lat":43.24166,"lon":5.3639,"is_reserved":false,"is_disabled":false,"rental_uris":{"android":"levelo://app?vid=e01e41b6-906b-4d38-bd47-8409331ef9cb","ios":"levelo://app?vid=e01e41b6-906b-4d38-bd47-8409331ef9cb"},"vehicle_type_id":"4","last_reported":1728925682,"current_range_meters":36800,"station_id":"cpo36qri1sfpv3e86is0","pricing_plan_id":"cebpf4jnsgd1na2vs0mg"},{"bike_id":"5fa385c9-31dc-4a25-97be-ac88aa734055","system_id":"levelo_inurba_marseille","lat":43.33022,"lon":5.39053,"is_reserved":false,"is_disabled":false,"rental_uris":{"android":"levelo://app?vid=5fa385c9-31dc-4a25-97be-ac88aa734055","ios":"levelo://app?vid=5fa385c9-31dc-4a25-97be-ac88aa734055"},"vehicle_type_id":"4","last_reported":1728925682,"current_range_meters":24000,"station_id":"ce4bhr92rcd13ifvqhrg","pricing_plan_id":"cebpf4jnsgd1na2vs0mg"},{"bike_id":"89211ee2-076f-4df3-92bd-cd8885f2e76d","system_id":"levelo_inurba_marseille","lat":43.23191,"lon":5.35557,"is_reserved":false,"is_disabled":false,"rental_uris":{"android":"levelo://app?vid=89211ee2-076f-4df3-92bd-cd8885f2e76d","ios":"levelo://app?vid=89211ee2-076f-4df3-92bd-cd8885f2e76d"},"vehicle_type_id":"4","last_reported":1728925682,"current_range_meters":39200,"station_id":"ce4bhu92rcd13ifvqi70","pricing_plan_id":"cebpf4jnsgd1na2vs0mg"},{"bike_id":"6f108c79-169f-46fd-b08b-6b93e5050ee6","system_id":"levelo_inurba_marseille","lat":43.33719,"lon":5.39202,"is_reserved":false,"is_disabled":false,"rental_uris":{"android":"levelo://app?vid=6f108c79-169f-46fd-b08b-6b93e5050ee6","ios":"levelo://app?vid=6f108c79-169f-46fd-b08b-6b93e5050ee6"},"vehicle_type_id":"4","last_reported":1728925682,"current_range_meters":9600,"station_id":"ce4bhr92rcd13ifvqhsg","pricing_plan_id":"cebpf4jnsgd1na2vs0mg"},{"bike_id":"07d66f84-a01d-40e5-91b4-9bef731fcb95","system_id":"levelo_inurba_marseille","lat":43.29428,"lon":5.38635,"is_reserved":false,"is_disabled":false,"rental_uris":{"android":"levelo://app?vid=07d66f84-a01d-40e5-91b4-9bef731fcb95","ios":"levelo://app?vid=07d66f84-a01d-40e5-91b4-9bef731fcb95"},"vehicle_type_id":"4","last_reported":1728925682,"current_range_meters":38800,"station_id":"ce4bh2h2rcd13ifvqdh0","pricing_plan_id":"cebpf4jnsgd1na2vs0mg"},{"bike_id":"4401e9fe-8fae-4df0-be02-0119e3aeedbd","system_id":"levelo_inurba_marseille","lat":43.33774,"lon":5.37436,"is_reserved":false,"is_disabled":false,"rental_uris":{"android":"levelo://app?vid=4401e9fe-8fae-4df0-be02-0119e3aeedbd","ios":"levelo://app?vid=4401e9fe-8fae-4df0-be02-0119e3aeedbd"},"vehicle_type_id":"4","last_reported":1728925682,"current_range_meters":36000,"station_id":"","pricing_plan_id":"cebpf4jnsgd1na2vs0mg"},{"bike_id":"7407b431-bff5-4398-a903-ce772c985ca2","system_id":"levelo_inurba_marseille","lat":43.24389,"lon":5.37075,"is_reserved":false,"is_disabled":false,"rental_uris":{"android":"levelo://app?vid=7407b431-bff5-4398-a903-ce772c985ca2","ios":"levelo://app?vid=7407b431-bff5-4398-a903-ce772c985ca2"},"vehicle_type_id":"4","last_reported":1728925682,"current_range_meters":23200,"station_id":"ce4bhhh2rcd13ifvqfk0","pricing_plan_id":"cebpf4jnsgd1na2vs0mg"},{"bike_id":"1ffa878e-7475-4e16-bedf-e1edad73f932","system_id":"levelo_inurba_marseille","lat":43.26803,"lon":5.40266,"is_reserved":false,"is_disabled":false,"rental_uris":{"android":"levelo://app?vid=1ffa878e-7475-4e16-bedf-e1edad73f932","ios":"levelo://app?vid=1ffa878e-7475-4e16-bedf-e1edad73f932"},"vehicle_type_id":"4","last_reported":1728925682,"current_range_meters":26800,"station_id":"ce501612rcd8frsf0b60","pricing_plan_id":"cebpf4jnsgd1na2vs0mg"},{"bike_id":"64b4f0d1-5dda-4d28-b144-76d474371987","system_id":"levelo_inurba_marseille","lat":43.316942,"lon":5.404708,"is_reserved":false,"is_disabled":false,"rental_uris":{"android":"levelo://app?vid=64b4f0d1-5dda-4d28-b144-76d474371987","ios":"levelo://app?vid=64b4f0d1-5dda-4d28-b144-76d474371987"},"vehicle_type_id":"4","last_reported":1728925682,"current_range_meters":17200,"station_id":"ce4bhh92rcd13ifvqfi0","pricing_plan_id":"cebpf4jnsgd1na2vs0mg"},{"bike_id":"f86c0e4c-e675-4813-89ef-9c087542fa2b","system_id":"levelo_inurba_marseille","lat":43.28458,"lon":5.35883,"is_reserved":false,"is_disabled":false,"rental_uris":{"android":"levelo://app?vid=f86c0e4c-e675-4813-89ef-9c087542fa2b","ios":"levelo://app?vid=f86c0e4c-e675-4813-89ef-9c087542fa2b"},"vehicle_type_id":"4","last_reported":1728925682,"current_range_meters":6400,"station_id":"ce4bhah2rcd13ifvqei0","pricing_plan_id":"cebpf4jnsgd1na2vs0mg"},{"bike_id":"e1dbdf7e-8de9-4d87-8707-13f0ac1fa945","system_id":"levelo_inurba_marseille","lat":43.27433,"lon":5.39423,"is_reserved":false,"is_disabled":false,"rental_uris":{"android":"levelo://app?vid=e1dbdf7e-8de9-4d87-8707-13f0ac1fa945","ios":"levelo://app?vid=e1dbdf7e-8de9-4d87-8707-13f0ac1fa945"},"vehicle_type_id":"4","last_reported":1728925682,"current_range_meters":18000,"station_id":"ce4bhdp2rcd13ifvqf20","pricing_plan_id":"cebpf4jnsgd1na2vs0mg"},{"bike_id":"88dadc7b-6cf8-4008-8ec1-c71b75a44767","system_id":"levelo_inurba_marseille","lat":43.2512,"lon":5.40323,"is_reserved":false,"is_disabled":false,"rental_uris":{"android":"levelo://app?vid=88dadc7b-6cf8-4008-8ec1-c71b75a44767","ios":"levelo://app?vid=88dadc7b-6cf8-4008-8ec1-c71b75a44767"},"vehicle_type_id":"4","last_reported":1728925682,"current_range_meters":17200,"station_id":"ce4bhlh2rcd13ifvqgig","pricing_plan_id":"cebpf4jnsgd1na2vs0mg"},{"bike_id":"8eca1db8-c7a5-4c55-a530-7e36502bac8b","system_id":"levelo_inurba_marseille","lat":43.33024,"lon":5.39036,"is_reserved":false,"is_disabled":false,"rental_uris":{"android":"levelo://app?vid=8eca1db8-c7a5-4c55-a530-7e36502bac8b","ios":"levelo://app?vid=8eca1db8-c7a5-4c55-a530-7e36502bac8b"},"vehicle_type_id":"4","last_reported":1728925682,"current_range_meters":30800,"station_id":"ce4bhr92rcd13ifvqhrg","pricing_plan_id":"cebpf4jnsgd1na2vs0mg"},{"bike_id":"d0ec2960-1685-4144-8de4-162ef81ffa1d","system_id":"levelo_inurba_marseille","lat":43.32102,"lon":5.36777,"is_reserved":false,"is_disabled":false,"rental_uris":{"android":"levelo://app?vid=d0ec2960-1685-4144-8de4-162ef81ffa1d","ios":"levelo://app?vid=d0ec2960-1685-4144-8de4-162ef81ffa1d"},"vehicle_type_id":"4","last_reported":1728925682,"current_range_meters":24000,"station_id":"ce4bhrh2rcd13ifvqhug","pricing_plan_id":"cebpf4jnsgd1na2vs0mg"},{"bike_id":"8559340f-5fe6-4a24-9630-82f941748c08","system_id":"levelo_inurba_marseille","lat":43.31074,"lon":5.38352,"is_reserved":false,"is_disabled":false,"rental_uris":{"android":"levelo://app?vid=8559340f-5fe6-4a24-9630-82f941748c08","ios":"levelo://app?vid=8559340f-5fe6-4a24-9630-82f941748c08"},"vehicle_type_id":"4","last_reported":1728925682,"current_range_meters":9600,"station_id":"ce4bgv92rcd13ifvqcr0","pricing_plan_id":"cebpf4jnsgd1na2vs0mg"},{"bike_id":"3c9a80a7-6d68-4bb8-9474-fe0e2b009cb0","system_id":"levelo_inurba_marseille","lat":43.31758,"lon":5.39008,"is_reserved":false,"is_disabled":false,"rental_uris":{"android":"levelo://app?vid=3c9a80a7-6d68-4bb8-9474-fe0e2b009cb0","ios":"levelo://app?vid=3c9a80a7-6d68-4bb8-9474-fe0e2b009cb0"},"vehicle_type_id":"4","last_reported":1728925682,"current_range_meters":8000,"station_id":"ce4bhqp2rcd13ifvqhng","pricing_plan_id":"cebpf4jnsgd1na2vs0mg"},{"bike_id":"e3c21e81-f579-407f-a9fb-8a48fbd070d7","system_id":"levelo_inurba_marseille","lat":43.25588,"lon":5.38233,"is_reserved":false,"is_disabled":false,"rental_uris":{"android":"levelo://app?vid=e3c21e81-f579-407f-a9fb-8a48fbd070d7","ios":"levelo://app?vid=e3c21e81-f579-407f-a9fb-8a48fbd070d7"},"vehicle_type_id":"4","last_reported":1728925682,"current_range_meters":3600,"station_id":"ce4bhih2rcd13ifvqfs0","pricing_plan_id":"cebpf4jnsgd1na2vs0mg"},{"bike_id":"ff96eee3-1ac8-4888-9ae7-e4b6cc8154af","system_id":"levelo_inurba_marseille","lat":43.33739,"lon":5.3746,"is_reserved":false,"is_disabled":false,"rental_uris":{"android":"levelo://app?vid=ff96eee3-1ac8-4888-9ae7-e4b6cc8154af","ios":"levelo://app?vid=ff96eee3-1ac8-4888-9ae7-e4b6cc8154af"},"vehicle_type_id":"4","last_reported":1728925682,"current_range_meters":37600,"station_id":"","pricing_plan_id":"cebpf4jnsgd1na2vs0mg"},{"bike_id":"9ea5018b-5344-41e5-bc7c-c6f703a700db","system_id":"levelo_inurba_marseille","lat":43.27995,"lon":5.40015,"is_reserved":false,"is_disabled":false,"rental_uris":{"android":"levelo://app?vid=9ea5018b-5344-41e5-bc7c-c6f703a700db","ios":"levelo://app?vid=9ea5018b-5344-41e5-bc7c-c6f703a700db"},"vehicle_type_id":"4","last_reported":1728925682,"current_range_meters":22800,"station_id":"ce4bho92rcd13ifvqh4g","pricing_plan_id":"cebpf4jnsgd1na2vs0mg"},{"bike_id":"cd363b9d-6497-4226-b5ac-906c98f50152","system_id":"levelo_inurba_marseille","lat":43.26495,"lon":5.39536,"is_reserved":false,"is_disabled":false,"rental_uris":{"android":"levelo://app?vid=cd363b9d-6497-4226-b5ac-906c98f50152","ios":"levelo://app?vid=cd363b9d-6497-4226-b5ac-906c98f50152"},"vehicle_type_id":"4","last_reported":1728925682,"current_range_meters":9200,"station_id":"ce4bhi12rcd13ifvqfq0","pricing_plan_id":"cebpf4jnsgd1na2vs0mg"},{"bike_id":"c50c599b-7eb4-4ae0-bc1f-a366e21ec0ac","system_id":"levelo_inurba_marseille","lat":43.33026,"lon":5.3904,"is_reserved":false,"is_disabled":false,"rental_uris":{"android":"levelo://app?vid=c50c599b-7eb4-4ae0-bc1f-a366e21ec0ac","ios":"levelo://app?vid=c50c599b-7eb4-4ae0-bc1f-a366e21ec0ac"},"vehicle_type_id":"4","last_reported":1728925682,"current_range_meters":38800,"station_id":"ce4bhr92rcd13ifvqhrg","pricing_plan_id":"cebpf4jnsgd1na2vs0mg"},{"bike_id":"36a5d3da-1eed-4fff-9fd7-9ae5da8b0d0e","system_id":"levelo_inurba_marseille","lat":43.28456,"lon":5.35893,"is_reserved":false,"is_disabled":false,"rental_uris":{"android":"levelo://app?vid=36a5d3da-1eed-4fff-9fd7-9ae5da8b0d0e","ios":"levelo://app?vid=36a5d3da-1eed-4fff-9fd7-9ae5da8b0d0e"},"vehicle_type_id":"4","last_reported":1728925682,"current_range_meters":9600,"station_id":"ce4bhah2rcd13ifvqei0","pricing_plan_id":"cebpf4jnsgd1na2vs0mg"},{"bike_id":"124fe4c8-d877-453b-88bd-af8d62d24653","system_id":"levelo_inurba_marseille","lat":43.2465,"lon":5.389,"is_reserved":false,"is_disabled":false,"rental_uris":{"android":"levelo://app?vid=124fe4c8-d877-453b-88bd-af8d62d24653","ios":"levelo://app?vid=124fe4c8-d877-453b-88bd-af8d62d24653"},"vehicle_type_id":"4","last_reported":1728925682,"current_range_meters":9600,"station_id":"ce4bhg12rcd13ifvqf60","pricing_plan_id":"cebpf4jnsgd1na2vs0mg"},{"bike_id":"75741e2b-14cf-40c6-ad29-090ea81b0cf6","system_id":"levelo_inurba_marseille","lat":43.29006,"lon":5.35614,"is_reserved":false,"is_disabled":false,"rental_uris":{"android":"levelo://app?vid=75741e2b-14cf-40c6-ad29-090ea81b0cf6","ios":"levelo://app?vid=75741e2b-14cf-40c6-ad29-090ea81b0cf6"},"vehicle_type_id":"4","last_reported":1728925682,"current_range_meters":39200,"station_id":"ce4bhb92rcd13ifvqen0","pricing_plan_id":"cebpf4jnsgd1na2vs0mg"},{"bike_id":"9f5358fb-e58d-4813-87a8-0dd724bf0e09","system_id":"levelo_inurba_marseille","lat":43.28338,"lon":5.38108,"is_reserved":false,"is_disabled":false,"rental_uris":{"android":"levelo://app?vid=9f5358fb-e58d-4813-87a8-0dd724bf0e09","ios":"levelo://app?vid=9f5358fb-e58d-4813-87a8-0dd724bf0e09"},"vehicle_type_id":"4","last_reported":1728925682,"current_range_meters":12000,"station_id":"ce4bh412rcd13ifvqdr0","pricing_plan_id":"cebpf4jnsgd1na2vs0mg"},{"bike_id":"ab617728-3765-486d-8d32-c08c557af6ab","system_id":"levelo_inurba_marseille","lat":43.25872,"lon":5.39906,"is_reserved":false,"is_disabled":false,"rental_uris":{"android":"levelo://app?vid=ab617728-3765-486d-8d32-c08c557af6ab","ios":"levelo://app?vid=ab617728-3765-486d-8d32-c08c557af6ab"},"vehicle_type_id":"4","last_reported":1728925682,"current_range_meters":39200,"station_id":"ce4bhl92rcd13ifvqghg","pricing_plan_id":"cebpf4jnsgd1na2vs0mg"},{"bike_id":"e55ce7e2-8e60-47b5-844e-977029bd08ba","system_id":"levelo_inurba_marseille","lat":43.29555,"lon":5.42288,"is_reserved":false,"is_disabled":false,"rental_uris":{"android":"levelo://app?vid=e55ce7e2-8e60-47b5-844e-977029bd08ba","ios":"levelo://app?vid=e55ce7e2-8e60-47b5-844e-977029bd08ba"},"vehicle_type_id":"4","last_reported":1728925682,"current_range_meters":39200,"station_id":"ce4bhph2rcd13ifvqhdg","pricing_plan_id":"cebpf4jnsgd1na2vs0mg"},{"bike_id":"292b9425-1372-40d4-bf0a-fe57aa779a41","system_id":"levelo_inurba_marseille","lat":43.23058,"lon":5.35495,"is_reserved":false,"is_disabled":false,"rental_uris":{"android":"levelo://app?vid=292b9425-1372-40d4-bf0a-fe57aa779a41","ios":"levelo://app?vid=292b9425-1372-40d4-bf0a-fe57aa779a41"},"vehicle_type_id":"4","last_reported":1728925682,"current_range_meters":37600,"station_id":"cpo3342slgdg3j2ifvpg","pricing_plan_id":"cebpf4jnsgd1na2vs0mg"},{"bike_id":"5a93c171-a25f-41a5-a9a9-1ca7b044339d","system_id":"levelo_inurba_marseille","lat":43.31277,"lon":5.40179,"is_reserved":false,"is_disabled":false,"rental_uris":{"android":"levelo://app?vid=5a93c171-a25f-41a5-a9a9-1ca7b044339d","ios":"levelo://app?vid=5a93c171-a25f-41a5-a9a9-1ca7b044339d"},"vehicle_type_id":"4","last_reported":1728925682,"current_range_meters":9600,"station_id":"ce4bh092rcd13ifvqd30","pricing_plan_id":"cebpf4jnsgd1na2vs0mg"},{"bike_id":"2c1638e5-4be7-4564-a61a-45b1d6f91a3c","system_id":"levelo_inurba_marseille","lat":43.30585,"lon":5.37246,"is_reserved":false,"is_disabled":false,"rental_uris":{"android":"levelo://app?vid=2c1638e5-4be7-4564-a61a-45b1d6f91a3c","ios":"levelo://app?vid=2c1638e5-4be7-4564-a61a-45b1d6f91a3c"},"vehicle_type_id":"4","last_reported":1728925682,"current_range_meters":35600,"station_id":"ce4bgqh2rcd13ifvqc4g","pricing_plan_id":"cebpf4jnsgd1na2vs0mg"},{"bike_id":"f9431acc-4158-4e63-bbe0-7544277cc35e","system_id":"levelo_inurba_marseille","lat":43.29032,"lon":5.37567,"is_reserved":false,"is_disabled":false,"rental_uris":{"android":"levelo://app?vid=f9431acc-4158-4e63-bbe0-7544277cc35e","ios":"levelo://app?vid=f9431acc-4158-4e63-bbe0-7544277cc35e"},"vehicle_type_id":"4","last_reported":1728925682,"current_range_meters":30000,"station_id":"ce4bh692rcd13ifvqe90","pricing_plan_id":"cebpf4jnsgd1na2vs0mg"},{"bike_id":"e42a5c5b-19d2-48bc-8dfc-c8514ef28621","system_id":"levelo_inurba_marseille","lat":43.24167,"lon":5.36407,"is_reserved":false,"is_disabled":false,"rental_uris":{"android":"levelo://app?vid=e42a5c5b-19d2-48bc-8dfc-c8514ef28621","ios":"levelo://app?vid=e42a5c5b-19d2-48bc-8dfc-c8514ef28621"},"vehicle_type_id":"4","last_reported":1728925682,"current_range_meters":29600,"station_id":"cpo36qri1sfpv3e86is0","pricing_plan_id":"cebpf4jnsgd1na2vs0mg"},{"bike_id":"c60b094a-9a48-40a8-ae40-ee85da9b4b9e","system_id":"levelo_inurba_marseille","lat":43.32102,"lon":5.36773,"is_reserved":false,"is_disabled":false,"rental_uris":{"android":"levelo://app?vid=c60b094a-9a48-40a8-ae40-ee85da9b4b9e","ios":"levelo://app?vid=c60b094a-9a48-40a8-ae40-ee85da9b4b9e"},"vehicle_type_id":"4","last_reported":1728925682,"current_range_meters":25200,"station_id":"ce4bhrh2rcd13ifvqhug","pricing_plan_id":"cebpf4jnsgd1na2vs0mg"},{"bike_id":"b06fad3a-c976-49a7-9eef-73d7ba88f78c","system_id":"levelo_inurba_marseille","lat":43.29202,"lon":5.35807,"is_reserved":false,"is_disabled":false,"rental_uris":{"android":"levelo://app?vid=b06fad3a-c976-49a7-9eef-73d7ba88f78c","ios":"levelo://app?vid=b06fad3a-c976-49a7-9eef-73d7ba88f78c"},"vehicle_type_id":"4","last_reported":1728925682,"current_range_meters":23200,"station_id":"ce4bhb12rcd13ifvqel0","pricing_plan_id":"cebpf4jnsgd1na2vs0mg"},{"bike_id":"8becb787-9362-450e-acf3-b50622951eab","system_id":"levelo_inurba_marseille","lat":43.30886,"lon":5.39639,"is_reserved":false,"is_disabled":false,"rental_uris":{"android":"levelo://app?vid=8becb787-9362-450e-acf3-b50622951eab","ios":"levelo://app?vid=8becb787-9362-450e-acf3-b50622951eab"},"vehicle_type_id":"4","last_reported":1728925682,"current_range_meters":20800,"station_id":"ce4bh012rcd13ifvqcv0","pricing_plan_id":"cebpf4jnsgd1na2vs0mg"},{"bike_id":"339289c4-7b38-4d77-815f-139b6ca78fd9","system_id":"levelo_inurba_marseille","lat":43.291931,"lon":5.358038,"is_reserved":false,"is_disabled":false,"rental_uris":{"android":"levelo://app?vid=339289c4-7b38-4d77-815f-139b6ca78fd9","ios":"levelo://app?vid=339289c4-7b38-4d77-815f-139b6ca78fd9"},"vehicle_type_id":"4","last_reported":1728925682,"current_range_meters":22800,"station_id":"ce4bhb12rcd13ifvqel0","pricing_plan_id":"cebpf4jnsgd1na2vs0mg"},{"bike_id":"d06f24f3-1961-4c39-8b26-c72733863fe9","system_id":"levelo_inurba_marseille","lat":43.33781,"lon":5.37443,"is_reserved":false,"is_disabled":false,"rental_uris":{"android":"levelo://app?vid=d06f24f3-1961-4c39-8b26-c72733863fe9","ios":"levelo://app?vid=d06f24f3-1961-4c39-8b26-c72733863fe9"},"vehicle_type_id":"4","last_reported":1728925682,"current_range_meters":28000,"station_id":"","pricing_plan_id":"cebpf4jnsgd1na2vs0mg"},{"bike_id":"ae94bb89-aaa1-4bc8-a96a-a64c3ef5642e","system_id":"levelo_inurba_marseille","lat":43.28039,"lon":5.36946,"is_reserved":false,"is_disabled":false,"rental_uris":{"android":"levelo://app?vid=ae94bb89-aaa1-4bc8-a96a-a64c3ef5642e","ios":"levelo://app?vid=ae94bb89-aaa1-4bc8-a96a-a64c3ef5642e"},"vehicle_type_id":"4","last_reported":1728925682,"current_range_meters":16400,"station_id":"ce4bha12rcd13ifvqef0","pricing_plan_id":"cebpf4jnsgd1na2vs0mg"},{"bike_id":"2da6aa54-ad0c-484f-8279-5aac8ad1d94b","system_id":"levelo_inurba_marseille","lat":43.31718,"lon":5.42397,"is_reserved":false,"is_disabled":false,"rental_uris":{"android":"levelo://app?vid=2da6aa54-ad0c-484f-8279-5aac8ad1d94b","ios":"levelo://app?vid=2da6aa54-ad0c-484f-8279-5aac8ad1d94b"},"vehicle_type_id":"4","last_reported":1728925682,"current_range_meters":38000,"station_id":"ce4bhp92rcd13ifvqhbg","pricing_plan_id":"cebpf4jnsgd1na2vs0mg"},{"bike_id":"59801407-972f-4a36-807e-85d5772337bc","system_id":"levelo_inurba_marseille","lat":43.28077,"lon":5.39661,"is_reserved":false,"is_disabled":false,"rental_uris":{"android":"levelo://app?vid=59801407-972f-4a36-807e-85d5772337bc","ios":"levelo://app?vid=59801407-972f-4a36-807e-85d5772337bc"},"vehicle_type_id":"4","last_reported":1728925682,"current_range_meters":19200,"station_id":"ce4bho12rcd13ifvqh2g","pricing_plan_id":"cebpf4jnsgd1na2vs0mg"},{"bike_id":"de55ef64-fd38-455a-b0e1-1ae601486694","system_id":"levelo_inurba_marseille","lat":43.28459,"lon":5.35895,"is_reserved":false,"is_disabled":false,"rental_uris":{"android":"levelo://app?vid=de55ef64-fd38-455a-b0e1-1ae601486694","ios":"levelo://app?vid=de55ef64-fd38-455a-b0e1-1ae601486694"},"vehicle_type_id":"4","last_reported":1728925682,"current_range_meters":30000,"station_id":"ce4bhah2rcd13ifvqei0","pricing_plan_id":"cebpf4jnsgd1na2vs0mg"},{"bike_id":"d41309ab-1a1f-4395-acaa-455483c3f8e1","system_id":"levelo_inurba_marseille","lat":43.23193,"lon":5.35559,"is_reserved":false,"is_disabled":false,"rental_uris":{"android":"levelo://app?vid=d41309ab-1a1f-4395-acaa-455483c3f8e1","ios":"levelo://app?vid=d41309ab-1a1f-4395-acaa-455483c3f8e1"},"vehicle_type_id":"4","last_reported":1728925682,"current_range_meters":37600,"station_id":"ce4bhu92rcd13ifvqi70","pricing_plan_id":"cebpf4jnsgd1na2vs0mg"},{"bike_id":"6d1a3a50-a67f-430e-85a2-668b4797ead9","system_id":"levelo_inurba_marseille","lat":43.25,"lon":5.38923,"is_reserved":false,"is_disabled":false,"rental_uris":{"android":"levelo://app?vid=6d1a3a50-a67f-430e-85a2-668b4797ead9","ios":"levelo://app?vid=6d1a3a50-a67f-430e-85a2-668b4797ead9"},"vehicle_type_id":"4","last_reported":1728925682,"current_range_meters":4000,"station_id":"ce4bhgp2rcd13ifvqfd0","pricing_plan_id":"cebpf4jnsgd1na2vs0mg"},{"bike_id":"696de668-1a94-4eb4-af45-a1246ae7231d","system_id":"levelo_inurba_marseille","lat":43.31074,"lon":5.38362,"is_reserved":false,"is_disabled":false,"rental_uris":{"android":"levelo://app?vid=696de668-1a94-4eb4-af45-a1246ae7231d","ios":"levelo://app?vid=696de668-1a94-4eb4-af45-a1246ae7231d"},"vehicle_type_id":"4","last_reported":1728925682,"current_range_meters":32800,"station_id":"ce4bgv92rcd13ifvqcr0","pricing_plan_id":"cebpf4jnsgd1na2vs0mg"},{"bike_id":"dce2a24e-4edb-4f0e-a1c6-d77b2f8167c2","system_id":"levelo_inurba_marseille","lat":43.29877,"lon":5.39726,"is_reserved":false,"is_disabled":false,"rental_uris":{"android":"levelo://app?vid=dce2a24e-4edb-4f0e-a1c6-d77b2f8167c2","ios":"levelo://app?vid=dce2a24e-4edb-4f0e-a1c6-d77b2f8167c2"},"vehicle_type_id":"4","last_reported":1728925682,"current_range_meters":12400,"station_id":"ce4bh0h2rcd13ifvqd50","pricing_plan_id":"cebpf4jnsgd1na2vs0mg"},{"bike_id":"eaedc49c-645c-4444-a4d2-8456bbc17d70","system_id":"levelo_inurba_marseille","lat":43.299,"lon":5.43665,"is_reserved":false,"is_disabled":false,"rental_uris":{"android":"levelo://app?vid=eaedc49c-645c-4444-a4d2-8456bbc17d70","ios":"levelo://app?vid=eaedc49c-645c-4444-a4d2-8456bbc17d70"},"vehicle_type_id":"4","last_reported":1728925682,"current_range_meters":16800,"station_id":"ce4bhpp2rcd13ifvqhfg","pricing_plan_id":"cebpf4jnsgd1na2vs0mg"},{"bike_id":"cfd3f9cb-6592-46ec-a18d-aae895d50c51","system_id":"levelo_inurba_marseille","lat":43.28445,"lon":5.39208,"is_reserved":false,"is_disabled":false,"rental_uris":{"android":"levelo://app?vid=cfd3f9cb-6592-46ec-a18d-aae895d50c51","ios":"levelo://app?vid=cfd3f9cb-6592-46ec-a18d-aae895d50c51"},"vehicle_type_id":"4","last_reported":1728925682,"current_range_meters":38400,"station_id":"ce4bhoh2rcd13ifvqh5g","pricing_plan_id":"cebpf4jnsgd1na2vs0mg"},{"bike_id":"69b09ac4-905b-4dfb-80eb-2afebc7708ea","system_id":"levelo_inurba_marseille","lat":43.27813,"lon":5.39213,"is_reserved":false,"is_disabled":false,"rental_uris":{"android":"levelo://app?vid=69b09ac4-905b-4dfb-80eb-2afebc7708ea","ios":"levelo://app?vid=69b09ac4-905b-4dfb-80eb-2afebc7708ea"},"vehicle_type_id":"4","last_reported":1728925682,"current_range_meters":31200,"station_id":"ce4bhjp2rcd13ifvqga0","pricing_plan_id":"cebpf4jnsgd1na2vs0mg"},{"bike_id":"f33ca04e-0fdd-4816-b4fc-80bcd342b78a","system_id":"levelo_inurba_marseille","lat":43.29555,"lon":5.42288,"is_reserved":false,"is_disabled":false,"rental_uris":{"android":"levelo://app?vid=f33ca04e-0fdd-4816-b4fc-80bcd342b78a","ios":"levelo://app?vid=f33ca04e-0fdd-4816-b4fc-80bcd342b78a"},"vehicle_type_id":"4","last_reported":1728925682,"current_range_meters":6800,"station_id":"ce4bhph2rcd13ifvqhdg","pricing_plan_id":"cebpf4jnsgd1na2vs0mg"},{"bike_id":"92abd203-a3b3-44c8-b284-849151100775","system_id":"levelo_inurba_marseille","lat":43.2781,"lon":5.40722,"is_reserved":false,"is_disabled":false,"rental_uris":{"android":"levelo://app?vid=92abd203-a3b3-44c8-b284-849151100775","ios":"levelo://app?vid=92abd203-a3b3-44c8-b284-849151100775"},"vehicle_type_id":"4","last_reported":1728925682,"current_range_meters":32400,"station_id":"ce4bhnh2rcd13ifvqgtg","pricing_plan_id":"cebpf4jnsgd1na2vs0mg"},{"bike_id":"3647aa2c-7787-46b0-96c3-cfb94b2fcdcc","system_id":"levelo_inurba_marseille","lat":43.29005,"lon":5.35616,"is_reserved":false,"is_disabled":false,"rental_uris":{"android":"levelo://app?vid=3647aa2c-7787-46b0-96c3-cfb94b2fcdcc","ios":"levelo://app?vid=3647aa2c-7787-46b0-96c3-cfb94b2fcdcc"},"vehicle_type_id":"4","last_reported":1728925682,"current_range_meters":27600,"station_id":"ce4bhb92rcd13ifvqen0","pricing_plan_id":"cebpf4jnsgd1na2vs0mg"},{"bike_id":"3b95cb80-dbf5-4911-8f54-b8818843c02b","system_id":"levelo_inurba_marseille","lat":43.33024,"lon":5.39042,"is_reserved":false,"is_disabled":false,"rental_uris":{"android":"levelo://app?vid=3b95cb80-dbf5-4911-8f54-b8818843c02b","ios":"levelo://app?vid=3b95cb80-dbf5-4911-8f54-b8818843c02b"},"vehicle_type_id":"4","last_reported":1728925682,"current_range_meters":5600,"station_id":"ce4bhr92rcd13ifvqhrg","pricing_plan_id":"cebpf4jnsgd1na2vs0mg"},{"bike_id":"669dca4c-39e7-46a0-8b85-0f016ab8d6d5","system_id":"levelo_inurba_marseille","lat":43.29315,"lon":5.37435,"is_reserved":false,"is_disabled":false,"rental_uris":{"android":"levelo://app?vid=669dca4c-39e7-46a0-8b85-0f016ab8d6d5","ios":"levelo://app?vid=669dca4c-39e7-46a0-8b85-0f016ab8d6d5"},"vehicle_type_id":"4","last_reported":1728925682,"current_range_meters":32000,"station_id":"ce4bha92rcd13ifvqeh0","pricing_plan_id":"cebpf4jnsgd1na2vs0mg"},{"bike_id":"1af2813b-98a0-4b62-aaf8-89652b30f639","system_id":"levelo_inurba_marseille","lat":43.22936,"lon":5.35378,"is_reserved":false,"is_disabled":false,"rental_uris":{"android":"levelo://app?vid=1af2813b-98a0-4b62-aaf8-89652b30f639","ios":"levelo://app?vid=1af2813b-98a0-4b62-aaf8-89652b30f639"},"vehicle_type_id":"4","last_reported":1728925682,"current_range_meters":35600,"station_id":"cpo3532slgdg3j2ikp40","pricing_plan_id":"cebpf4jnsgd1na2vs0mg"},{"bike_id":"2afd0a6a-9fab-4877-b7ac-3251f218816c","system_id":"levelo_inurba_marseille","lat":43.29179,"lon":5.39322,"is_reserved":false,"is_disabled":false,"rental_uris":{"android":"levelo://app?vid=2afd0a6a-9fab-4877-b7ac-3251f218816c","ios":"levelo://app?vid=2afd0a6a-9fab-4877-b7ac-3251f218816c"},"vehicle_type_id":"4","last_reported":1728925682,"current_range_meters":28000,"station_id":"ce4bh192rcd13ifvqdd0","pricing_plan_id":"cebpf4jnsgd1na2vs0mg"},{"bike_id":"924dcebd-6f14-4b48-bdd9-71b7ecd3af87","system_id":"levelo_inurba_marseille","lat":43.27925,"lon":5.39582,"is_reserved":false,"is_disabled":false,"rental_uris":{"android":"levelo://app?vid=924dcebd-6f14-4b48-bdd9-71b7ecd3af87","ios":"levelo://app?vid=924dcebd-6f14-4b48-bdd9-71b7ecd3af87"},"vehicle_type_id":"4","last_reported":1728925682,"current_range_meters":38800,"station_id":"ce4bhf92rcd13ifvqf40","pricing_plan_id":"cebpf4jnsgd1na2vs0mg"},{"bike_id":"f93454e1-a669-4c63-a4ca-b572042c7971","system_id":"levelo_inurba_marseille","lat":43.23193,"lon":5.35554,"is_reserved":false,"is_disabled":false,"rental_uris":{"android":"levelo://app?vid=f93454e1-a669-4c63-a4ca-b572042c7971","ios":"levelo://app?vid=f93454e1-a669-4c63-a4ca-b572042c7971"},"vehicle_type_id":"4","last_reported":1728925682,"current_range_meters":29600,"station_id":"ce4bhu92rcd13ifvqi70","pricing_plan_id":"cebpf4jnsgd1na2vs0mg"},{"bike_id":"2f5ff739-6d41-4f2c-929d-ed4311b1c92d","system_id":"levelo_inurba_marseille","lat":43.29895,"lon":5.43668,"is_reserved":false,"is_disabled":false,"rental_uris":{"android":"levelo://app?vid=2f5ff739-6d41-4f2c-929d-ed4311b1c92d","ios":"levelo://app?vid=2f5ff739-6d41-4f2c-929d-ed4311b1c92d"},"vehicle_type_id":"4","last_reported":1728925682,"current_range_meters":26000,"station_id":"ce4bhpp2rcd13ifvqhfg","pricing_plan_id":"cebpf4jnsgd1na2vs0mg"},{"bike_id":"25f31db3-1832-4fa9-9620-294854643f7c","system_id":"levelo_inurba_marseille","lat":43.29253,"lon":5.40912,"is_reserved":false,"is_disabled":false,"rental_uris":{"android":"levelo://app?vid=25f31db3-1832-4fa9-9620-294854643f7c","ios":"levelo://app?vid=25f31db3-1832-4fa9-9620-294854643f7c"},"vehicle_type_id":"4","last_reported":1728925682,"current_range_meters":39200,"station_id":"ce4bh192rcd13ifvqdc0","pricing_plan_id":"cebpf4jnsgd1na2vs0mg"},{"bike_id":"4c94bfca-6498-4fc4-88ce-a5348fb759b2","system_id":"levelo_inurba_marseille","lat":43.30591,"lon":5.37221,"is_reserved":false,"is_disabled":false,"rental_uris":{"android":"levelo://app?vid=4c94bfca-6498-4fc4-88ce-a5348fb759b2","ios":"levelo://app?vid=4c94bfca-6498-4fc4-88ce-a5348fb759b2"},"vehicle_type_id":"4","last_reported":1728925682,"current_range_meters":9200,"station_id":"ce4bgqh2rcd13ifvqc4g","pricing_plan_id":"cebpf4jnsgd1na2vs0mg"},{"bike_id":"a16089cf-18e3-4953-bc07-6008633f47a5","system_id":"levelo_inurba_marseille","lat":43.29799,"lon":5.40398,"is_reserved":false,"is_disabled":false,"rental_uris":{"android":"levelo://app?vid=a16089cf-18e3-4953-bc07-6008633f47a5","ios":"levelo://app?vid=a16089cf-18e3-4953-bc07-6008633f47a5"},"vehicle_type_id":"4","last_reported":1728925682,"current_range_meters":24000,"station_id":"ce4bh112rcd13ifvqd90","pricing_plan_id":"cebpf4jnsgd1na2vs0mg"},{"bike_id":"d5b84305-ba1f-4a54-b140-9e582ecc9d6c","system_id":"levelo_inurba_marseille","lat":43.292,"lon":5.39316,"is_reserved":false,"is_disabled":false,"rental_uris":{"android":"levelo://app?vid=d5b84305-ba1f-4a54-b140-9e582ecc9d6c","ios":"levelo://app?vid=d5b84305-ba1f-4a54-b140-9e582ecc9d6c"},"vehicle_type_id":"4","last_reported":1728925682,"current_range_meters":38800,"station_id":"ce4bh192rcd13ifvqdd0","pricing_plan_id":"cebpf4jnsgd1na2vs0mg"},{"bike_id":"6a344486-14e7-432e-98bf-b8beed8e06c6","system_id":"levelo_inurba_marseille","lat":43.32336,"lon":5.38328,"is_reserved":false,"is_disabled":false,"rental_uris":{"android":"levelo://app?vid=6a344486-14e7-432e-98bf-b8beed8e06c6","ios":"levelo://app?vid=6a344486-14e7-432e-98bf-b8beed8e06c6"},"vehicle_type_id":"4","last_reported":1728925682,"current_range_meters":34000,"station_id":"","pricing_plan_id":"cebpf4jnsgd1na2vs0mg"},{"bike_id":"9b8845d4-eac8-47c1-9fcb-2671037ed195","system_id":"levelo_inurba_marseille","lat":43.31753,"lon":5.39032,"is_reserved":false,"is_disabled":false,"rental_uris":{"android":"levelo://app?vid=9b8845d4-eac8-47c1-9fcb-2671037ed195","ios":"levelo://app?vid=9b8845d4-eac8-47c1-9fcb-2671037ed195"},"vehicle_type_id":"4","last_reported":1728925682,"current_range_meters":9200,"station_id":"ce4bhqp2rcd13ifvqhng","pricing_plan_id":"cebpf4jnsgd1na2vs0mg"},{"bike_id":"98ca0d4b-6854-411c-a1fe-d984be4778ed","system_id":"levelo_inurba_marseille","lat":43.24648,"lon":5.38897,"is_reserved":false,"is_disabled":false,"rental_uris":{"android":"levelo://app?vid=98ca0d4b-6854-411c-a1fe-d984be4778ed","ios":"levelo://app?vid=98ca0d4b-6854-411c-a1fe-d984be4778ed"},"vehicle_type_id":"4","last_reported":1728925682,"current_range_meters":2000,"station_id":"ce4bhg12rcd13ifvqf60","pricing_plan_id":"cebpf4jnsgd1na2vs0mg"},{"bike_id":"fc9ea00d-8057-4ce8-96b9-a98501c16984","system_id":"levelo_inurba_marseille","lat":43.28275,"lon":5.35069,"is_reserved":false,"is_disabled":false,"rental_uris":{"android":"levelo://app?vid=fc9ea00d-8057-4ce8-96b9-a98501c16984","ios":"levelo://app?vid=fc9ea00d-8057-4ce8-96b9-a98501c16984"},"vehicle_type_id":"4","last_reported":1728925682,"current_range_meters":3200,"station_id":"ce4bhbp2rcd13ifvqerg","pricing_plan_id":"cebpf4jnsgd1na2vs0mg"},{"bike_id":"3bad0a29-c6b9-4d89-8ff7-850668526b6b","system_id":"levelo_inurba_marseille","lat":43.31352,"lon":5.38499,"is_reserved":false,"is_disabled":false,"rental_uris":{"android":"levelo://app?vid=3bad0a29-c6b9-4d89-8ff7-850668526b6b","ios":"levelo://app?vid=3bad0a29-c6b9-4d89-8ff7-850668526b6b"},"vehicle_type_id":"4","last_reported":1728925682,"current_range_meters":22400,"station_id":"ce4bgt92rcd13ifvqcf0","pricing_plan_id":"cebpf4jnsgd1na2vs0mg"},{"bike_id":"151bc1bc-0028-4ad3-a60a-35e94ddb18a1","system_id":"levelo_inurba_marseille","lat":43.30892,"lon":5.37196,"is_reserved":false,"is_disabled":false,"rental_uris":{"android":"levelo://app?vid=151bc1bc-0028-4ad3-a60a-35e94ddb18a1","ios":"levelo://app?vid=151bc1bc-0028-4ad3-a60a-35e94ddb18a1"},"vehicle_type_id":"4","last_reported":1728925682,"current_range_meters":21600,"station_id":"ce4bguh2rcd13ifvqckg","pricing_plan_id":"cebpf4jnsgd1na2vs0mg"},{"bike_id":"826e67a1-1f1b-48d5-9965-734aa482296d","system_id":"levelo_inurba_marseille","lat":43.30797,"lon":5.43524,"is_reserved":false,"is_disabled":false,"rental_uris":{"android":"levelo://app?vid=826e67a1-1f1b-48d5-9965-734aa482296d","ios":"levelo://app?vid=826e67a1-1f1b-48d5-9965-734aa482296d"},"vehicle_type_id":"4","last_reported":1728925682,"current_range_meters":10800,"station_id":"ce4bhph2rcd13ifvqheg","pricing_plan_id":"cebpf4jnsgd1na2vs0mg"},{"bike_id":"754da881-cbc9-4b35-beb2-51d368048841","system_id":"levelo_inurba_marseille","lat":43.33743,"lon":5.37472,"is_reserved":false,"is_disabled":false,"rental_uris":{"android":"levelo://app?vid=754da881-cbc9-4b35-beb2-51d368048841","ios":"levelo://app?vid=754da881-cbc9-4b35-beb2-51d368048841"},"vehicle_type_id":"4","last_reported":1728925682,"current_range_meters":37600,"station_id":"","pricing_plan_id":"cebpf4jnsgd1na2vs0mg"},{"bike_id":"956bada6-4f8a-49df-af82-7c642add0862","system_id":"levelo_inurba_marseille","lat":43.287786,"lon":5.390516,"is_reserved":false,"is_disabled":false,"rental_uris":{"android":"levelo://app?vid=956bada6-4f8a-49df-af82-7c642add0862","ios":"levelo://app?vid=956bada6-4f8a-49df-af82-7c642add0862"},"vehicle_type_id":"4","last_reported":1728925682,"current_range_meters":25200,"station_id":"ce4bh292rcd13ifvqdg0","pricing_plan_id":"cebpf4jnsgd1na2vs0mg"},{"bike_id":"dcd9c2d3-0fb7-41e9-a6a9-4039f2f8d9b8","system_id":"levelo_inurba_marseille","lat":43.22934,"lon":5.35375,"is_reserved":false,"is_disabled":false,"rental_uris":{"android":"levelo://app?vid=dcd9c2d3-0fb7-41e9-a6a9-4039f2f8d9b8","ios":"levelo://app?vid=dcd9c2d3-0fb7-41e9-a6a9-4039f2f8d9b8"},"vehicle_type_id":"4","last_reported":1728925682,"current_range_meters":22400,"station_id":"cpo3532slgdg3j2ikp40","pricing_plan_id":"cebpf4jnsgd1na2vs0mg"},{"bike_id":"80004c0b-1888-4bc4-861c-1bb18fe1efd7","system_id":"levelo_inurba_marseille","lat":43.29554,"lon":5.42293,"is_reserved":false,"is_disabled":false,"rental_uris":{"android":"levelo://app?vid=80004c0b-1888-4bc4-861c-1bb18fe1efd7","ios":"levelo://app?vid=80004c0b-1888-4bc4-861c-1bb18fe1efd7"},"vehicle_type_id":"4","last_reported":1728925682,"current_range_meters":30000,"station_id":"ce4bhph2rcd13ifvqhdg","pricing_plan_id":"cebpf4jnsgd1na2vs0mg"},{"bike_id":"552ef3f0-704a-498c-ae10-da5e2e2c864e","system_id":"levelo_inurba_marseille","lat":43.3133,"lon":5.397,"is_reserved":false,"is_disabled":false,"rental_uris":{"android":"levelo://app?vid=552ef3f0-704a-498c-ae10-da5e2e2c864e","ios":"levelo://app?vid=552ef3f0-704a-498c-ae10-da5e2e2c864e"},"vehicle_type_id":"4","last_reported":1728925682,"current_range_meters":39200,"station_id":"ce4bgvp2rcd13ifvqcu0","pricing_plan_id":"cebpf4jnsgd1na2vs0mg"},{"bike_id":"b5d7dcd2-8a72-43ec-b95b-bda03c934296","system_id":"levelo_inurba_marseille","lat":43.29244,"lon":5.40923,"is_reserved":false,"is_disabled":false,"rental_uris":{"android":"levelo://app?vid=b5d7dcd2-8a72-43ec-b95b-bda03c934296","ios":"levelo://app?vid=b5d7dcd2-8a72-43ec-b95b-bda03c934296"},"vehicle_type_id":"4","last_reported":1728925682,"current_range_meters":38800,"station_id":"ce4bh192rcd13ifvqdc0","pricing_plan_id":"cebpf4jnsgd1na2vs0mg"},{"bike_id":"209e8694-acda-4e22-9e88-15e54b5087e5","system_id":"levelo_inurba_marseille","lat":43.289093,"lon":5.362122,"is_reserved":false,"is_disabled":false,"rental_uris":{"android":"levelo://app?vid=209e8694-acda-4e22-9e88-15e54b5087e5","ios":"levelo://app?vid=209e8694-acda-4e22-9e88-15e54b5087e5"},"vehicle_type_id":"4","last_reported":1728925682,"current_range_meters":22800,"station_id":"ce4bhc92rcd13ifvqetg","pricing_plan_id":"cebpf4jnsgd1na2vs0mg"},{"bike_id":"62457f56-b0dc-49b5-a61f-6d80b652d62a","system_id":"levelo_inurba_marseille","lat":43.2465,"lon":5.38904,"is_reserved":false,"is_disabled":false,"rental_uris":{"android":"levelo://app?vid=62457f56-b0dc-49b5-a61f-6d80b652d62a","ios":"levelo://app?vid=62457f56-b0dc-49b5-a61f-6d80b652d62a"},"vehicle_type_id":"4","last_reported":1728925682,"current_range_meters":38400,"station_id":"ce4bhg12rcd13ifvqf60","pricing_plan_id":"cebpf4jnsgd1na2vs0mg"},{"bike_id":"fb5b6ac3-90c5-497f-8aba-cb395b961950","system_id":"levelo_inurba_marseille","lat":43.29585,"lon":5.3675,"is_reserved":false,"is_disabled":false,"rental_uris":{"android":"levelo://app?vid=fb5b6ac3-90c5-497f-8aba-cb395b961950","ios":"levelo://app?vid=fb5b6ac3-90c5-497f-8aba-cb395b961950"},"vehicle_type_id":"4","last_reported":1728925682,"current_range_meters":28000,"station_id":"ce4bgph2rcd13ifvqc2g","pricing_plan_id":"cebpf4jnsgd1na2vs0mg"},{"bike_id":"5ff4e58d-7b6d-47db-8ceb-86716a11a6b9","system_id":"levelo_inurba_marseille","lat":43.30142,"lon":5.3987,"is_reserved":false,"is_disabled":false,"rental_uris":{"android":"levelo://app?vid=5ff4e58d-7b6d-47db-8ceb-86716a11a6b9","ios":"levelo://app?vid=5ff4e58d-7b6d-47db-8ceb-86716a11a6b9"},"vehicle_type_id":"4","last_reported":1728925682,"current_range_meters":12800,"station_id":"ce4bh0h2rcd13ifvqd40","pricing_plan_id":"cebpf4jnsgd1na2vs0mg"},{"bike_id":"824fc291-63f2-4605-b264-772dcd3cef17","system_id":"levelo_inurba_marseille","lat":43.33729,"lon":5.39186,"is_reserved":false,"is_disabled":false,"rental_uris":{"android":"levelo://app?vid=824fc291-63f2-4605-b264-772dcd3cef17","ios":"levelo://app?vid=824fc291-63f2-4605-b264-772dcd3cef17"},"vehicle_type_id":"4","last_reported":1728925682,"current_range_meters":38400,"station_id":"ce4bhr92rcd13ifvqhsg","pricing_plan_id":"cebpf4jnsgd1na2vs0mg"},{"bike_id":"c09fc152-46f1-4eec-a9cd-1a79d6120523","system_id":"levelo_inurba_marseille","lat":43.27204,"lon":5.39187,"is_reserved":false,"is_disabled":false,"rental_uris":{"android":"levelo://app?vid=c09fc152-46f1-4eec-a9cd-1a79d6120523","ios":"levelo://app?vid=c09fc152-46f1-4eec-a9cd-1a79d6120523"},"vehicle_type_id":"4","last_reported":1728925682,"current_range_meters":39200,"station_id":"ce4bhhp2rcd13ifvqfm0","pricing_plan_id":"cebpf4jnsgd1na2vs0mg"},{"bike_id":"f269126c-1b0b-4a1a-a1d6-f8c3716f5336","system_id":"levelo_inurba_marseille","lat":43.23196,"lon":5.35552,"is_reserved":false,"is_disabled":false,"rental_uris":{"android":"levelo://app?vid=f269126c-1b0b-4a1a-a1d6-f8c3716f5336","ios":"levelo://app?vid=f269126c-1b0b-4a1a-a1d6-f8c3716f5336"},"vehicle_type_id":"4","last_reported":1728925682,"current_range_meters":37600,"station_id":"ce4bhu92rcd13ifvqi70","pricing_plan_id":"cebpf4jnsgd1na2vs0mg"},{"bike_id":"c266f43a-8dc8-4729-aa21-2f97b2f817ac","system_id":"levelo_inurba_marseille","lat":43.29037,"lon":5.37569,"is_reserved":false,"is_disabled":false,"rental_uris":{"android":"levelo://app?vid=c266f43a-8dc8-4729-aa21-2f97b2f817ac","ios":"levelo://app?vid=c266f43a-8dc8-4729-aa21-2f97b2f817ac"},"vehicle_type_id":"4","last_reported":1728925682,"current_range_meters":36000,"station_id":"ce4bh692rcd13ifvqe90","pricing_plan_id":"cebpf4jnsgd1na2vs0mg"},{"bike_id":"172c6f0b-db2a-426e-82d7-b2e5ca3bb238","system_id":"levelo_inurba_marseille","lat":43.29125,"lon":5.35919,"is_reserved":false,"is_disabled":false,"rental_uris":{"android":"levelo://app?vid=172c6f0b-db2a-426e-82d7-b2e5ca3bb238","ios":"levelo://app?vid=172c6f0b-db2a-426e-82d7-b2e5ca3bb238"},"vehicle_type_id":"4","last_reported":1728925682,"current_range_meters":37600,"station_id":"","pricing_plan_id":"cebpf4jnsgd1na2vs0mg"},{"bike_id":"c377bb64-5d0e-4a64-a6a8-1e2f69242577","system_id":"levelo_inurba_marseille","lat":43.29896,"lon":5.43671,"is_reserved":false,"is_disabled":false,"rental_uris":{"android":"levelo://app?vid=c377bb64-5d0e-4a64-a6a8-1e2f69242577","ios":"levelo://app?vid=c377bb64-5d0e-4a64-a6a8-1e2f69242577"},"vehicle_type_id":"4","last_reported":1728925682,"current_range_meters":8400,"station_id":"ce4bhpp2rcd13ifvqhfg","pricing_plan_id":"cebpf4jnsgd1na2vs0mg"},{"bike_id":"c908b8db-4bbf-4d53-b33b-e7420fb46b0a","system_id":"levelo_inurba_marseille","lat":43.30248,"lon":5.40075,"is_reserved":false,"is_disabled":false,"rental_uris":{"android":"levelo://app?vid=c908b8db-4bbf-4d53-b33b-e7420fb46b0a","ios":"levelo://app?vid=c908b8db-4bbf-4d53-b33b-e7420fb46b0a"},"vehicle_type_id":"4","last_reported":1728925682,"current_range_meters":39200,"station_id":"ce4bgvh2rcd13ifvqcs0","pricing_plan_id":"cebpf4jnsgd1na2vs0mg"},{"bike_id":"fc408314-a8ae-46a2-8015-9fa787404479","system_id":"levelo_inurba_marseille","lat":43.25822,"lon":5.39443,"is_reserved":false,"is_disabled":false,"rental_uris":{"android":"levelo://app?vid=fc408314-a8ae-46a2-8015-9fa787404479","ios":"levelo://app?vid=fc408314-a8ae-46a2-8015-9fa787404479"},"vehicle_type_id":"4","last_reported":1728925682,"current_range_meters":19600,"station_id":"ce4bhip2rcd13ifvqft0","pricing_plan_id":"cebpf4jnsgd1na2vs0mg"},{"bike_id":"4943c5ec-3563-423a-9303-c56ee778f007","system_id":"levelo_inurba_marseille","lat":43.26942,"lon":5.40259,"is_reserved":false,"is_disabled":false,"rental_uris":{"android":"levelo://app?vid=4943c5ec-3563-423a-9303-c56ee778f007","ios":"levelo://app?vid=4943c5ec-3563-423a-9303-c56ee778f007"},"vehicle_type_id":"4","last_reported":1728925682,"current_range_meters":38400,"station_id":"cjm6bp8fraef2m0cb0m0","pricing_plan_id":"cebpf4jnsgd1na2vs0mg"},{"bike_id":"262fd014-e30d-43d7-ad9d-63c21a7313a2","system_id":"levelo_inurba_marseille","lat":43.29897,"lon":5.4367,"is_reserved":false,"is_disabled":false,"rental_uris":{"android":"levelo://app?vid=262fd014-e30d-43d7-ad9d-63c21a7313a2","ios":"levelo://app?vid=262fd014-e30d-43d7-ad9d-63c21a7313a2"},"vehicle_type_id":"4","last_reported":1728925682,"current_range_meters":39200,"station_id":"ce4bhpp2rcd13ifvqhfg","pricing_plan_id":"cebpf4jnsgd1na2vs0mg"},{"bike_id":"589777ee-c65a-4dea-a40b-f7ed4a3a8f99","system_id":"levelo_inurba_marseille","lat":43.29373,"lon":5.378581,"is_reserved":false,"is_disabled":false,"rental_uris":{"android":"levelo://app?vid=589777ee-c65a-4dea-a40b-f7ed4a3a8f99","ios":"levelo://app?vid=589777ee-c65a-4dea-a40b-f7ed4a3a8f99"},"vehicle_type_id":"4","last_reported":1728925682,"current_range_meters":20000,"station_id":"ce4bgjh2rcd13ifvqbf0","pricing_plan_id":"cebpf4jnsgd1na2vs0mg"},{"bike_id":"94d48054-be54-488d-a425-2deb433f452c","system_id":"levelo_inurba_marseille","lat":43.29801,"lon":5.36439,"is_reserved":false,"is_disabled":false,"rental_uris":{"android":"levelo://app?vid=94d48054-be54-488d-a425-2deb433f452c","ios":"levelo://app?vid=94d48054-be54-488d-a425-2deb433f452c"},"vehicle_type_id":"4","last_reported":1728925682,"current_range_meters":28400,"station_id":"ce4bgnh2rcd13ifvqc0g","pricing_plan_id":"cebpf4jnsgd1na2vs0mg"},{"bike_id":"2146558d-993b-4010-bf4d-b2b87f16d98f","system_id":"levelo_inurba_marseille","lat":43.30797,"lon":5.43532,"is_reserved":false,"is_disabled":false,"rental_uris":{"android":"levelo://app?vid=2146558d-993b-4010-bf4d-b2b87f16d98f","ios":"levelo://app?vid=2146558d-993b-4010-bf4d-b2b87f16d98f"},"vehicle_type_id":"4","last_reported":1728925682,"current_range_meters":27200,"station_id":"ce4bhph2rcd13ifvqheg","pricing_plan_id":"cebpf4jnsgd1na2vs0mg"},{"bike_id":"c6710237-b445-4862-8616-47ea11d83d0f","system_id":"levelo_inurba_marseille","lat":43.24161,"lon":5.36394,"is_reserved":false,"is_disabled":false,"rental_uris":{"android":"levelo://app?vid=c6710237-b445-4862-8616-47ea11d83d0f","ios":"levelo://app?vid=c6710237-b445-4862-8616-47ea11d83d0f"},"vehicle_type_id":"4","last_reported":1728925682,"current_range_meters":28800,"station_id":"cpo36qri1sfpv3e86is0","pricing_plan_id":"cebpf4jnsgd1na2vs0mg"},{"bike_id":"403bfd01-4e2c-41de-8653-d3cba62f4f0e","system_id":"levelo_inurba_marseille","lat":43.308,"lon":5.43531,"is_reserved":false,"is_disabled":false,"rental_uris":{"android":"levelo://app?vid=403bfd01-4e2c-41de-8653-d3cba62f4f0e","ios":"levelo://app?vid=403bfd01-4e2c-41de-8653-d3cba62f4f0e"},"vehicle_type_id":"4","last_reported":1728925682,"current_range_meters":11600,"station_id":"ce4bhph2rcd13ifvqheg","pricing_plan_id":"cebpf4jnsgd1na2vs0mg"},{"bike_id":"85aea9e2-9f24-4618-9fbe-0bb7940b8dbe","system_id":"levelo_inurba_marseille","lat":43.29533,"lon":5.38541,"is_reserved":false,"is_disabled":false,"rental_uris":{"android":"levelo://app?vid=85aea9e2-9f24-4618-9fbe-0bb7940b8dbe","ios":"levelo://app?vid=85aea9e2-9f24-4618-9fbe-0bb7940b8dbe"},"vehicle_type_id":"4","last_reported":1728925682,"current_range_meters":23200,"station_id":"ce4bgih2rcd13ifvqba0","pricing_plan_id":"cebpf4jnsgd1na2vs0mg"},{"bike_id":"a69949f3-b1de-434f-a682-78844d4461de","system_id":"levelo_inurba_marseille","lat":43.33023,"lon":5.39039,"is_reserved":false,"is_disabled":false,"rental_uris":{"android":"levelo://app?vid=a69949f3-b1de-434f-a682-78844d4461de","ios":"levelo://app?vid=a69949f3-b1de-434f-a682-78844d4461de"},"vehicle_type_id":"4","last_reported":1728925682,"current_range_meters":22400,"station_id":"ce4bhr92rcd13ifvqhrg","pricing_plan_id":"cebpf4jnsgd1na2vs0mg"},{"bike_id":"51a16d46-75a4-444a-9e13-12ca198af870","system_id":"levelo_inurba_marseille","lat":43.30247,"lon":5.40073,"is_reserved":false,"is_disabled":false,"rental_uris":{"android":"levelo://app?vid=51a16d46-75a4-444a-9e13-12ca198af870","ios":"levelo://app?vid=51a16d46-75a4-444a-9e13-12ca198af870"},"vehicle_type_id":"4","last_reported":1728925682,"current_range_meters":14800,"station_id":"ce4bgvh2rcd13ifvqcs0","pricing_plan_id":"cebpf4jnsgd1na2vs0mg"},{"bike_id":"7e57da64-3af7-4a5a-954e-66618d4b5fe4","system_id":"levelo_inurba_marseille","lat":43.25823,"lon":5.39441,"is_reserved":false,"is_disabled":false,"rental_uris":{"android":"levelo://app?vid=7e57da64-3af7-4a5a-954e-66618d4b5fe4","ios":"levelo://app?vid=7e57da64-3af7-4a5a-954e-66618d4b5fe4"},"vehicle_type_id":"4","last_reported":1728925682,"current_range_meters":30800,"station_id":"ce4bhip2rcd13ifvqft0","pricing_plan_id":"cebpf4jnsgd1na2vs0mg"},{"bike_id":"a3d92d5d-06a6-491a-a900-e94736046b32","system_id":"levelo_inurba_marseille","lat":43.27613,"lon":5.36117,"is_reserved":false,"is_disabled":false,"rental_uris":{"android":"levelo://app?vid=a3d92d5d-06a6-491a-a900-e94736046b32","ios":"levelo://app?vid=a3d92d5d-06a6-491a-a900-e94736046b32"},"vehicle_type_id":"4","last_reported":1728925682,"current_range_meters":30400,"station_id":"ce4bgj92rcd13ifvqbe0","pricing_plan_id":"cebpf4jnsgd1na2vs0mg"},{"bike_id":"1952ca34-d5ad-42f6-b6c4-fef35f195d52","system_id":"levelo_inurba_marseille","lat":43.27946,"lon":5.41053,"is_reserved":false,"is_disabled":false,"rental_uris":{"android":"levelo://app?vid=1952ca34-d5ad-42f6-b6c4-fef35f195d52","ios":"levelo://app?vid=1952ca34-d5ad-42f6-b6c4-fef35f195d52"},"vehicle_type_id":"4","last_reported":1728925682,"current_range_meters":6400,"station_id":"ce4bhnp2rcd13ifvqh0g","pricing_plan_id":"cebpf4jnsgd1na2vs0mg"},{"bike_id":"94e11af5-c82c-46ba-a34a-523a9d332fc3","system_id":"levelo_inurba_marseille","lat":43.28078,"lon":5.39662,"is_reserved":false,"is_disabled":false,"rental_uris":{"android":"levelo://app?vid=94e11af5-c82c-46ba-a34a-523a9d332fc3","ios":"levelo://app?vid=94e11af5-c82c-46ba-a34a-523a9d332fc3"},"vehicle_type_id":"4","last_reported":1728925682,"current_range_meters":37600,"station_id":"ce4bho12rcd13ifvqh2g","pricing_plan_id":"cebpf4jnsgd1na2vs0mg"},{"bike_id":"bef2fd9d-ff07-4a0e-81ee-7eae6c4d24c4","system_id":"levelo_inurba_marseille","lat":43.33753,"lon":5.37458,"is_reserved":false,"is_disabled":false,"rental_uris":{"android":"levelo://app?vid=bef2fd9d-ff07-4a0e-81ee-7eae6c4d24c4","ios":"levelo://app?vid=bef2fd9d-ff07-4a0e-81ee-7eae6c4d24c4"},"vehicle_type_id":"4","last_reported":1728925682,"current_range_meters":13600,"station_id":"","pricing_plan_id":"cebpf4jnsgd1na2vs0mg"},{"bike_id":"152e6629-aadd-486c-8a37-1d5861bd7719","system_id":"levelo_inurba_marseille","lat":43.297913,"lon":5.393401,"is_reserved":false,"is_disabled":false,"rental_uris":{"android":"levelo://app?vid=152e6629-aadd-486c-8a37-1d5861bd7719","ios":"levelo://app?vid=152e6629-aadd-486c-8a37-1d5861bd7719"},"vehicle_type_id":"4","last_reported":1728925682,"current_range_meters":4800,"station_id":"chh1huq6cuj3fo74tm60","pricing_plan_id":"cebpf4jnsgd1na2vs0mg"},{"bike_id":"95ee9f93-8dcf-4c7c-889f-f0872419266f","system_id":"levelo_inurba_marseille","lat":43.30145,"lon":5.39892,"is_reserved":false,"is_disabled":false,"rental_uris":{"android":"levelo://app?vid=95ee9f93-8dcf-4c7c-889f-f0872419266f","ios":"levelo://app?vid=95ee9f93-8dcf-4c7c-889f-f0872419266f"},"vehicle_type_id":"4","last_reported":1728925682,"current_range_meters":39200,"station_id":"ce4bh0h2rcd13ifvqd40","pricing_plan_id":"cebpf4jnsgd1na2vs0mg"},{"bike_id":"92773fd4-a74b-4100-a5f2-c08a5554649e","system_id":"levelo_inurba_marseille","lat":43.29512,"lon":5.39404,"is_reserved":false,"is_disabled":false,"rental_uris":{"android":"levelo://app?vid=92773fd4-a74b-4100-a5f2-c08a5554649e","ios":"levelo://app?vid=92773fd4-a74b-4100-a5f2-c08a5554649e"},"vehicle_type_id":"4","last_reported":1728925682,"current_range_meters":17600,"station_id":"ce4bh292rcd13ifvqdf0","pricing_plan_id":"cebpf4jnsgd1na2vs0mg"},{"bike_id":"1ed24797-1c82-48a1-80e1-b83800dfa5de","system_id":"levelo_inurba_marseille","lat":43.2558,"lon":5.38247,"is_reserved":false,"is_disabled":false,"rental_uris":{"android":"levelo://app?vid=1ed24797-1c82-48a1-80e1-b83800dfa5de","ios":"levelo://app?vid=1ed24797-1c82-48a1-80e1-b83800dfa5de"},"vehicle_type_id":"4","last_reported":1728925682,"current_range_meters":14400,"station_id":"ce4bhih2rcd13ifvqfs0","pricing_plan_id":"cebpf4jnsgd1na2vs0mg"},{"bike_id":"d5b38a18-367e-40cf-b7f8-801e7cb622ad","system_id":"levelo_inurba_marseille","lat":43.28572,"lon":5.39508,"is_reserved":false,"is_disabled":false,"rental_uris":{"android":"levelo://app?vid=d5b38a18-367e-40cf-b7f8-801e7cb622ad","ios":"levelo://app?vid=d5b38a18-367e-40cf-b7f8-801e7cb622ad"},"vehicle_type_id":"4","last_reported":1728925682,"current_range_meters":25200,"station_id":"ce4bh292rcd13ifvqdg0","pricing_plan_id":"cebpf4jnsgd1na2vs0mg"},{"bike_id":"d9b0031d-a4b3-4097-8467-61395f8169b9","system_id":"levelo_inurba_marseille","lat":43.25824,"lon":5.39445,"is_reserved":false,"is_disabled":false,"rental_uris":{"android":"levelo://app?vid=d9b0031d-a4b3-4097-8467-61395f8169b9","ios":"levelo://app?vid=d9b0031d-a4b3-4097-8467-61395f8169b9"},"vehicle_type_id":"4","last_reported":1728925682,"current_range_meters":3200,"station_id":"ce4bhip2rcd13ifvqft0","pricing_plan_id":"cebpf4jnsgd1na2vs0mg"},{"bike_id":"bdf1b602-49f3-4433-87ef-2d43667ca464","system_id":"levelo_inurba_marseille","lat":43.31172,"lon":5.3873,"is_reserved":false,"is_disabled":false,"rental_uris":{"android":"levelo://app?vid=bdf1b602-49f3-4433-87ef-2d43667ca464","ios":"levelo://app?vid=bdf1b602-49f3-4433-87ef-2d43667ca464"},"vehicle_type_id":"4","last_reported":1728925682,"current_range_meters":39200,"station_id":"ce4bgv12rcd13ifvqcp0","pricing_plan_id":"cebpf4jnsgd1na2vs0mg"},{"bike_id":"ec2817c0-ba1a-4bc3-a42e-74ac1ca3ca33","system_id":"levelo_inurba_marseille","lat":43.31536,"lon":5.38039,"is_reserved":false,"is_disabled":false,"rental_uris":{"android":"levelo://app?vid=ec2817c0-ba1a-4bc3-a42e-74ac1ca3ca33","ios":"levelo://app?vid=ec2817c0-ba1a-4bc3-a42e-74ac1ca3ca33"},"vehicle_type_id":"4","last_reported":1728925682,"current_range_meters":16000,"station_id":"ce4bhsp2rcd13ifvqi50","pricing_plan_id":"cebpf4jnsgd1na2vs0mg"},{"bike_id":"5a13336d-aa24-485a-80c5-aefc1a4e9f35","system_id":"levelo_inurba_marseille","lat":43.29542,"lon":5.38551,"is_reserved":false,"is_disabled":false,"rental_uris":{"android":"levelo://app?vid=5a13336d-aa24-485a-80c5-aefc1a4e9f35","ios":"levelo://app?vid=5a13336d-aa24-485a-80c5-aefc1a4e9f35"},"vehicle_type_id":"4","last_reported":1728925682,"current_range_meters":26800,"station_id":"ce4bgih2rcd13ifvqba0","pricing_plan_id":"cebpf4jnsgd1na2vs0mg"},{"bike_id":"0e11b2e7-91c7-46af-b7d1-0bf14f2741a9","system_id":"levelo_inurba_marseille","lat":43.28077,"lon":5.39667,"is_reserved":false,"is_disabled":false,"rental_uris":{"android":"levelo://app?vid=0e11b2e7-91c7-46af-b7d1-0bf14f2741a9","ios":"levelo://app?vid=0e11b2e7-91c7-46af-b7d1-0bf14f2741a9"},"vehicle_type_id":"4","last_reported":1728925682,"current_range_meters":7200,"station_id":"ce4bho12rcd13ifvqh2g","pricing_plan_id":"cebpf4jnsgd1na2vs0mg"},{"bike_id":"8611d067-720f-48e5-81c0-3b52ff36bf90","system_id":"levelo_inurba_marseille","lat":43.29414,"lon":5.38632,"is_reserved":false,"is_disabled":false,"rental_uris":{"android":"levelo://app?vid=8611d067-720f-48e5-81c0-3b52ff36bf90","ios":"levelo://app?vid=8611d067-720f-48e5-81c0-3b52ff36bf90"},"vehicle_type_id":"4","last_reported":1728925682,"current_range_meters":9600,"station_id":"ce4bh2h2rcd13ifvqdh0","pricing_plan_id":"cebpf4jnsgd1na2vs0mg"},{"bike_id":"fcc89236-1716-4619-9358-0312417a4bd9","system_id":"levelo_inurba_marseille","lat":43.29532,"lon":5.38541,"is_reserved":false,"is_disabled":false,"rental_uris":{"android":"levelo://app?vid=fcc89236-1716-4619-9358-0312417a4bd9","ios":"levelo://app?vid=fcc89236-1716-4619-9358-0312417a4bd9"},"vehicle_type_id":"4","last_reported":1728925682,"current_range_meters":25200,"station_id":"ce4bgih2rcd13ifvqba0","pricing_plan_id":"cebpf4jnsgd1na2vs0mg"},{"bike_id":"7f54a1b2-3f73-41ba-9bbe-10229afe8d5b","system_id":"levelo_inurba_marseille","lat":43.305525,"lon":5.367067,"is_reserved":false,"is_disabled":false,"rental_uris":{"android":"levelo://app?vid=7f54a1b2-3f73-41ba-9bbe-10229afe8d5b","ios":"levelo://app?vid=7f54a1b2-3f73-41ba-9bbe-10229afe8d5b"},"vehicle_type_id":"4","last_reported":1728925682,"current_range_meters":38400,"station_id":"ce4bgrp2rcd13ifvqc9g","pricing_plan_id":"cebpf4jnsgd1na2vs0mg"},{"bike_id":"7feaaa42-294f-491f-a16e-aa608e0114eb","system_id":"levelo_inurba_marseille","lat":43.2761,"lon":5.36109,"is_reserved":false,"is_disabled":false,"rental_uris":{"android":"levelo://app?vid=7feaaa42-294f-491f-a16e-aa608e0114eb","ios":"levelo://app?vid=7feaaa42-294f-491f-a16e-aa608e0114eb"},"vehicle_type_id":"4","last_reported":1728925682,"current_range_meters":38000,"station_id":"ce4bgj92rcd13ifvqbe0","pricing_plan_id":"cebpf4jnsgd1na2vs0mg"},{"bike_id":"8a15f835-2006-45b4-b87b-439134071dbd","system_id":"levelo_inurba_marseille","lat":43.303926,"lon":5.377817,"is_reserved":false,"is_disabled":false,"rental_uris":{"android":"levelo://app?vid=8a15f835-2006-45b4-b87b-439134071dbd","ios":"levelo://app?vid=8a15f835-2006-45b4-b87b-439134071dbd"},"vehicle_type_id":"4","last_reported":1728925682,"current_range_meters":32000,"station_id":"ce4bgup2rcd13ifvqcn0","pricing_plan_id":"cebpf4jnsgd1na2vs0mg"},{"bike_id":"653f8350-f18d-4f28-8853-92b601b9a643","system_id":"levelo_inurba_marseille","lat":43.23188,"lon":5.35556,"is_reserved":false,"is_disabled":false,"rental_uris":{"android":"levelo://app?vid=653f8350-f18d-4f28-8853-92b601b9a643","ios":"levelo://app?vid=653f8350-f18d-4f28-8853-92b601b9a643"},"vehicle_type_id":"4","last_reported":1728925682,"current_range_meters":35200,"station_id":"ce4bhu92rcd13ifvqi70","pricing_plan_id":"cebpf4jnsgd1na2vs0mg"},{"bike_id":"12581159-48aa-4347-92a9-871cf3ee5ce8","system_id":"levelo_inurba_marseille","lat":43.296945,"lon":5.373611,"is_reserved":false,"is_disabled":false,"rental_uris":{"android":"levelo://app?vid=12581159-48aa-4347-92a9-871cf3ee5ce8","ios":"levelo://app?vid=12581159-48aa-4347-92a9-871cf3ee5ce8"},"vehicle_type_id":"4","last_reported":1728925682,"current_range_meters":36800,"station_id":"","pricing_plan_id":"cebpf4jnsgd1na2vs0mg"},{"bike_id":"4601ab99-f41d-4381-bac9-7cf8187fcd16","system_id":"levelo_inurba_marseille","lat":43.31075,"lon":5.3835,"is_reserved":false,"is_disabled":false,"rental_uris":{"android":"levelo://app?vid=4601ab99-f41d-4381-bac9-7cf8187fcd16","ios":"levelo://app?vid=4601ab99-f41d-4381-bac9-7cf8187fcd16"},"vehicle_type_id":"4","last_reported":1728925682,"current_range_meters":33600,"station_id":"ce4bgv92rcd13ifvqcr0","pricing_plan_id":"cebpf4jnsgd1na2vs0mg"},{"bike_id":"a1e0278e-920e-4eea-a381-891331e8e403","system_id":"levelo_inurba_marseille","lat":43.23196,"lon":5.35549,"is_reserved":false,"is_disabled":false,"rental_uris":{"android":"levelo://app?vid=a1e0278e-920e-4eea-a381-891331e8e403","ios":"levelo://app?vid=a1e0278e-920e-4eea-a381-891331e8e403"},"vehicle_type_id":"4","last_reported":1728925682,"current_range_meters":10800,"station_id":"ce4bhu92rcd13ifvqi70","pricing_plan_id":"cebpf4jnsgd1na2vs0mg"},{"bike_id":"e0277ec7-67f2-4cf7-80d0-ae4d12db7bcc","system_id":"levelo_inurba_marseille","lat":43.31325,"lon":5.39696,"is_reserved":false,"is_disabled":false,"rental_uris":{"android":"levelo://app?vid=e0277ec7-67f2-4cf7-80d0-ae4d12db7bcc","ios":"levelo://app?vid=e0277ec7-67f2-4cf7-80d0-ae4d12db7bcc"},"vehicle_type_id":"4","last_reported":1728925682,"current_range_meters":33600,"station_id":"ce4bgvp2rcd13ifvqcu0","pricing_plan_id":"cebpf4jnsgd1na2vs0mg"},{"bike_id":"88a1c9e8-58e0-4981-84b3-0daa2dde0719","system_id":"levelo_inurba_marseille","lat":43.231792,"lon":5.399897,"is_reserved":false,"is_disabled":false,"rental_uris":{"android":"levelo://app?vid=88a1c9e8-58e0-4981-84b3-0daa2dde0719","ios":"levelo://app?vid=88a1c9e8-58e0-4981-84b3-0daa2dde0719"},"vehicle_type_id":"4","last_reported":1728925682,"current_range_meters":10800,"station_id":"ce4bhn12rcd13ifvqgqg","pricing_plan_id":"cebpf4jnsgd1na2vs0mg"},{"bike_id":"92eeffb1-b123-41fc-8203-0ab7fbed07a1","system_id":"levelo_inurba_marseille","lat":43.28107,"lon":5.37845,"is_reserved":false,"is_disabled":false,"rental_uris":{"android":"levelo://app?vid=92eeffb1-b123-41fc-8203-0ab7fbed07a1","ios":"levelo://app?vid=92eeffb1-b123-41fc-8203-0ab7fbed07a1"},"vehicle_type_id":"4","last_reported":1728925682,"current_range_meters":13600,"station_id":"ce4bha12rcd13ifvqee0","pricing_plan_id":"cebpf4jnsgd1na2vs0mg"},{"bike_id":"f3b56d9b-fbf2-41ad-ab1f-d667bbdecbe7","system_id":"levelo_inurba_marseille","lat":43.27812,"lon":5.40714,"is_reserved":false,"is_disabled":false,"rental_uris":{"android":"levelo://app?vid=f3b56d9b-fbf2-41ad-ab1f-d667bbdecbe7","ios":"levelo://app?vid=f3b56d9b-fbf2-41ad-ab1f-d667bbdecbe7"},"vehicle_type_id":"4","last_reported":1728925682,"current_range_meters":8800,"station_id":"ce4bhnh2rcd13ifvqgtg","pricing_plan_id":"cebpf4jnsgd1na2vs0mg"},{"bike_id":"ca282c9d-ede6-40bd-8d78-b7a99e365f50","system_id":"levelo_inurba_marseille","lat":43.31065,"lon":5.38351,"is_reserved":false,"is_disabled":false,"rental_uris":{"android":"levelo://app?vid=ca282c9d-ede6-40bd-8d78-b7a99e365f50","ios":"levelo://app?vid=ca282c9d-ede6-40bd-8d78-b7a99e365f50"},"vehicle_type_id":"4","last_reported":1728925682,"current_range_meters":36400,"station_id":"ce4bgv92rcd13ifvqcr0","pricing_plan_id":"cebpf4jnsgd1na2vs0mg"},{"bike_id":"4236d834-0f94-45a0-ab27-9fad5564085b","system_id":"levelo_inurba_marseille","lat":43.28467,"lon":5.35879,"is_reserved":false,"is_disabled":false,"rental_uris":{"android":"levelo://app?vid=4236d834-0f94-45a0-ab27-9fad5564085b","ios":"levelo://app?vid=4236d834-0f94-45a0-ab27-9fad5564085b"},"vehicle_type_id":"4","last_reported":1728925682,"current_range_meters":6800,"station_id":"ce4bhah2rcd13ifvqei0","pricing_plan_id":"cebpf4jnsgd1na2vs0mg"},{"bike_id":"01349898-7d0c-48b2-b18b-91a7e46953ec","system_id":"levelo_inurba_marseille","lat":43.29184,"lon":5.35811,"is_reserved":false,"is_disabled":false,"rental_uris":{"android":"levelo://app?vid=01349898-7d0c-48b2-b18b-91a7e46953ec","ios":"levelo://app?vid=01349898-7d0c-48b2-b18b-91a7e46953ec"},"vehicle_type_id":"4","last_reported":1728925682,"current_range_meters":33600,"station_id":"ce4bhb12rcd13ifvqel0","pricing_plan_id":"cebpf4jnsgd1na2vs0mg"},{"bike_id":"c7c9317a-b31e-41d4-97b8-1e63cb6583c9","system_id":"levelo_inurba_marseille","lat":43.23187,"lon":5.3998,"is_reserved":false,"is_disabled":false,"rental_uris":{"android":"levelo://app?vid=c7c9317a-b31e-41d4-97b8-1e63cb6583c9","ios":"levelo://app?vid=c7c9317a-b31e-41d4-97b8-1e63cb6583c9"},"vehicle_type_id":"4","last_reported":1728925682,"current_range_meters":10800,"station_id":"ce4bhn12rcd13ifvqgqg","pricing_plan_id":"cebpf4jnsgd1na2vs0mg"},{"bike_id":"7d3f4d50-841f-47c2-8a71-1d4ef4039119","system_id":"levelo_inurba_marseille","lat":43.26568,"lon":5.39011,"is_reserved":false,"is_disabled":false,"rental_uris":{"android":"levelo://app?vid=7d3f4d50-841f-47c2-8a71-1d4ef4039119","ios":"levelo://app?vid=7d3f4d50-841f-47c2-8a71-1d4ef4039119"},"vehicle_type_id":"4","last_reported":1728925682,"current_range_meters":6400,"station_id":"ce4bhe12rcd13ifvqf30","pricing_plan_id":"cebpf4jnsgd1na2vs0mg"},{"bike_id":"21220a1a-6a25-4592-9b1b-001dab27945e","system_id":"levelo_inurba_marseille","lat":43.28001,"lon":5.40024,"is_reserved":false,"is_disabled":false,"rental_uris":{"android":"levelo://app?vid=21220a1a-6a25-4592-9b1b-001dab27945e","ios":"levelo://app?vid=21220a1a-6a25-4592-9b1b-001dab27945e"},"vehicle_type_id":"4","last_reported":1728925682,"current_range_meters":17600,"station_id":"ce4bho92rcd13ifvqh4g","pricing_plan_id":"cebpf4jnsgd1na2vs0mg"},{"bike_id":"f904a28b-f444-4976-83f9-84004dc0db15","system_id":"levelo_inurba_marseille","lat":43.31757,"lon":5.39026,"is_reserved":false,"is_disabled":false,"rental_uris":{"android":"levelo://app?vid=f904a28b-f444-4976-83f9-84004dc0db15","ios":"levelo://app?vid=f904a28b-f444-4976-83f9-84004dc0db15"},"vehicle_type_id":"4","last_reported":1728925682,"current_range_meters":10800,"station_id":"ce4bhqp2rcd13ifvqhng","pricing_plan_id":"cebpf4jnsgd1na2vs0mg"},{"bike_id":"8f6f07d7-8df5-4bb4-8b90-2e4417bffa91","system_id":"levelo_inurba_marseille","lat":43.23967,"lon":5.36639,"is_reserved":false,"is_disabled":false,"rental_uris":{"android":"levelo://app?vid=8f6f07d7-8df5-4bb4-8b90-2e4417bffa91","ios":"levelo://app?vid=8f6f07d7-8df5-4bb4-8b90-2e4417bffa91"},"vehicle_type_id":"4","last_reported":1728925682,"current_range_meters":27600,"station_id":"ce4bhi12rcd13ifvqfp0","pricing_plan_id":"cebpf4jnsgd1na2vs0mg"},{"bike_id":"5416030c-bfd0-4414-b308-d9eba9cdd96e","system_id":"levelo_inurba_marseille","lat":43.28098,"lon":5.37842,"is_reserved":false,"is_disabled":false,"rental_uris":{"android":"levelo://app?vid=5416030c-bfd0-4414-b308-d9eba9cdd96e","ios":"levelo://app?vid=5416030c-bfd0-4414-b308-d9eba9cdd96e"},"vehicle_type_id":"4","last_reported":1728925682,"current_range_meters":11600,"station_id":"ce4bha12rcd13ifvqee0","pricing_plan_id":"cebpf4jnsgd1na2vs0mg"},{"bike_id":"c5b3232a-5302-45ed-86ae-e6fb97e42ade","system_id":"levelo_inurba_marseille","lat":43.24182,"lon":5.39732,"is_reserved":false,"is_disabled":false,"rental_uris":{"android":"levelo://app?vid=c5b3232a-5302-45ed-86ae-e6fb97e42ade","ios":"levelo://app?vid=c5b3232a-5302-45ed-86ae-e6fb97e42ade"},"vehicle_type_id":"4","last_reported":1728925682,"current_range_meters":8000,"station_id":"ce4bhn12rcd13ifvqgpg","pricing_plan_id":"cebpf4jnsgd1na2vs0mg"},{"bike_id":"4eefa1ec-0d89-406a-9ba6-ab04341864b0","system_id":"levelo_inurba_marseille","lat":43.23195,"lon":5.35552,"is_reserved":false,"is_disabled":false,"rental_uris":{"android":"levelo://app?vid=4eefa1ec-0d89-406a-9ba6-ab04341864b0","ios":"levelo://app?vid=4eefa1ec-0d89-406a-9ba6-ab04341864b0"},"vehicle_type_id":"4","last_reported":1728925682,"current_range_meters":39200,"station_id":"ce4bhu92rcd13ifvqi70","pricing_plan_id":"cebpf4jnsgd1na2vs0mg"},{"bike_id":"e0c0124e-4dc2-4e33-92f0-414e45f2dffb","system_id":"levelo_inurba_marseille","lat":43.31327,"lon":5.39692,"is_reserved":false,"is_disabled":false,"rental_uris":{"android":"levelo://app?vid=e0c0124e-4dc2-4e33-92f0-414e45f2dffb","ios":"levelo://app?vid=e0c0124e-4dc2-4e33-92f0-414e45f2dffb"},"vehicle_type_id":"4","last_reported":1728925682,"current_range_meters":35600,"station_id":"ce4bgvp2rcd13ifvqcu0","pricing_plan_id":"cebpf4jnsgd1na2vs0mg"},{"bike_id":"fc6603e8-1e69-46a6-b0d3-92038eda336f","system_id":"levelo_inurba_marseille","lat":43.26957,"lon":5.38626,"is_reserved":false,"is_disabled":false,"rental_uris":{"android":"levelo://app?vid=fc6603e8-1e69-46a6-b0d3-92038eda336f","ios":"levelo://app?vid=fc6603e8-1e69-46a6-b0d3-92038eda336f"},"vehicle_type_id":"4","last_reported":1728925682,"current_range_meters":12800,"station_id":"ce4bhh92rcd13ifvqfh0","pricing_plan_id":"cebpf4jnsgd1na2vs0mg"},{"bike_id":"e41feae0-c64a-4550-866d-2ad6f5dcf3c1","system_id":"levelo_inurba_marseille","lat":43.311052,"lon":5.403609,"is_reserved":false,"is_disabled":false,"rental_uris":{"android":"levelo://app?vid=e41feae0-c64a-4550-866d-2ad6f5dcf3c1","ios":"levelo://app?vid=e41feae0-c64a-4550-866d-2ad6f5dcf3c1"},"vehicle_type_id":"4","last_reported":1728925682,"current_range_meters":10000,"station_id":"chh1huq6cuj3fo74tm60","pricing_plan_id":"cebpf4jnsgd1na2vs0mg"},{"bike_id":"c8dfa174-f476-4d46-a7fd-8adfa4a4ab0a","system_id":"levelo_inurba_marseille","lat":43.29073,"lon":5.37168,"is_reserved":false,"is_disabled":false,"rental_uris":{"android":"levelo://app?vid=c8dfa174-f476-4d46-a7fd-8adfa4a4ab0a","ios":"levelo://app?vid=c8dfa174-f476-4d46-a7fd-8adfa4a4ab0a"},"vehicle_type_id":"4","last_reported":1728925682,"current_range_meters":38400,"station_id":"ce4bh5p2rcd13ifvqe4g","pricing_plan_id":"cebpf4jnsgd1na2vs0mg"},