{"last_updated":1769931024,"ttl":60,"version":"2.2","data":{"bikes":[{"bike_id":"55e12a44-5227-40a5-8cea-0722c92ca3fa","system_id":"levelo_inurba_marseille","lat":43.28639,"lon":5.35124,"is_reserved":false,"is_disabled":false,"rental_uris":{"android":"levelo://app?vid=55e12a44-5227-40a5-8cea-0722c92ca3fa","ios":"levelo://app?vid=55e12a44-5227-40a5-8cea-0722c92ca3fa"},"vehicle_type_id":"4","last_reported":1769931024,"current_range_meters":2800,"station_id":"ce4bhch2rcd13ifvqeug","pricing_plan_id":"cebpf4jnsgd1na2vs0mg"},{"bike_id":"857d574d-acab-4300-abe6-da5d50e50003","system_id":"levelo_inurba_marseille","lat":43.265,"lon":5.39533,"is_reserved":false,"is_disabled":false,"rental_uris":{"android":"levelo://app?vid=857d574d-acab-4300-abe6-da5d50e50003","ios":"levelo://app?vid=857d574d-acab-4300-abe6-da5d50e50003"},"vehicle_type_id":"4","last_reported":1769931024,"current_range_meters":2800,"station_id":"ce4bhi12rcd13ifvqfq0","pricing_plan_id":"cebpf4jnsgd1na2vs0mg"},{"bike_id":"a633dcb8-69cc-416a-ac75-271c195c29ed","system_id":"levelo_inurba_marseille","lat":43.25525,"lon":5.3773,"is_reserved":false,"is_disabled":false,"rental_uris":{"android":"levelo://app?vid=a633dcb8-69cc-416a-ac75-271c195c29ed","ios":"levelo://app?vid=a633dcb8-69cc-416a-ac75-271c195c29ed"},"vehicle_type_id":"4","last_reported":1769931024,"current_range_meters":2800,"station_id":"ce4bhh12rcd13ifvqff0","pricing_plan_id":"cebpf4jnsgd1na2vs0mg"},{"bike_id":"2290aeab-1c04-4b1c-907e-b9f9c3fdbcbe","system_id":"levelo_inurba_marseille","lat":43.29424,"lon":5.39753,"is_reserved":false,"is_disabled":false,"rental_uris":{"android":"levelo://app?vid=2290aeab-1c04-4b1c-907e-b9f9c3fdbcbe","ios":"levelo://app?vid=2290aeab-1c04-4b1c-907e-b9f9c3fdbcbe"},"vehicle_type_id":"4","last_reported":1769931024,"current_range_meters":2800,"station_id":"ce4bh3h2rcd13ifvqdo0","pricing_plan_id":"cebpf4jnsgd1na2vs0mg"},{"bike_id":"658afd91-c693-4dbc-8a13-2319a767c279","system_id":"levelo_inurba_marseille","lat":43.31247,"lon":5.38954,"is_reserved":false,"is_disabled":false,"rental_uris":{"android":"levelo://app?vid=658afd91-c693-4dbc-8a13-2319a767c279","ios":"levelo://app?vid=658afd91-c693-4dbc-8a13-2319a767c279"},"vehicle_type_id":"4","last_reported":1769931024,"current_range_meters":2800,"station_id":"","pricing_plan_id":"cebpf4jnsgd1na2vs0mg"},{"bike_id":"4cad1348-59d5-4475-bf02-9720c9be6205","system_id":"levelo_inurba_marseille","lat":43.23955,"lon":5.3662,"is_reserved":false,"is_disabled":false,"rental_uris":{"android":"levelo://app?vid=4cad1348-59d5-4475-bf02-9720c9be6205","ios":"levelo://app?vid=4cad1348-59d5-4475-bf02-9720c9be6205"},"vehicle_type_id":"4","last_reported":1769931024,"current_range_meters":2800,"station_id":"ce4bhi12rcd13ifvqfp0","pricing_plan_id":"cebpf4jnsgd1na2vs0mg"},{"bike_id":"b559b272-5796-43b3-908a-ffbd6751cf49","system_id":"levelo_inurba_marseille","lat":43.24004,"lon":5.36701,"is_reserved":false,"is_disabled":false,"rental_uris":{"android":"levelo://app?vid=b559b272-5796-43b3-908a-ffbd6751cf49","ios":"levelo://app?vid=b559b272-5796-43b3-908a-ffbd6751cf49"},"vehicle_type_id":"4","last_reported":1769931024,"current_range_meters":2800,"station_id":"","pricing_plan_id":"cebpf4jnsgd1na2vs0mg"},{"bike_id":"f99c0e56-a861-4817-a5cc-7aa9138a394f","system_id":"levelo_inurba_marseille","lat":43.27052,"lon":5.38273,"is_reserved":false,"is_disabled":false,"rental_uris":{"android":"levelo://app?vid=f99c0e56-a861-4817-a5cc-7aa9138a394f","ios":"levelo://app?vid=f99c0e56-a861-4817-a5cc-7aa9138a394f"},"vehicle_type_id":"4","last_reported":1769931024,"current_range_meters":3200,"station_id":"st_d3n2fo6cfp8s73cte1j0","pricing_plan_id":"cebpf4jnsgd1na2vs0mg"},{"bike_id":"cd0a500f-4a41-4a8c-a0cd-79a4e015ddcf","system_id":"levelo_inurba_marseille","lat":43.29253,"lon":5.40931,"is_reserved":false,"is_disabled":false,"rental_uris":{"android":"levelo://app?vid=cd0a500f-4a41-4a8c-a0cd-79a4e015ddcf","ios":"levelo://app?vid=cd0a500f-4a41-4a8c-a0cd-79a4e015ddcf"},"vehicle_type_id":"4","last_reported":1769931024,"current_range_meters":3200,"station_id":"ce4bh192rcd13ifvqdc0","pricing_plan_id":"cebpf4jnsgd1na2vs0mg"},{"bike_id":"880586ef-6fbd-48f3-a326-6ebac57e39cd","system_id":"levelo_inurba_marseille","lat":43.25513,"lon":5.37653,"is_reserved":false,"is_disabled":false,"rental_uris":{"android":"levelo://app?vid=880586ef-6fbd-48f3-a326-6ebac57e39cd","ios":"levelo://app?vid=880586ef-6fbd-48f3-a326-6ebac57e39cd"},"vehicle_type_id":"4","last_reported":1769931024,"current_range_meters":3200,"station_id":"ce4bhh12rcd13ifvqff0","pricing_plan_id":"cebpf4jnsgd1na2vs0mg"},{"bike_id":"0fa8fafe-2680-41a4-95b1-88881925a052","system_id":"levelo_inurba_marseille","lat":43.30748,"lon":5.42451,"is_reserved":false,"is_disabled":false,"rental_uris":{"android":"levelo://app?vid=0fa8fafe-2680-41a4-95b1-88881925a052","ios":"levelo://app?vid=0fa8fafe-2680-41a4-95b1-88881925a052"},"vehicle_type_id":"4","last_reported":1769931024,"current_range_meters":3200,"station_id":"st_cvj6ca6bvosntc0bfgr0","pricing_plan_id":"cebpf4jnsgd1na2vs0mg"},{"bike_id":"08015b95-f541-4439-bbb3-b8cea8f7952d","system_id":"levelo_inurba_marseille","lat":43.25344,"lon":5.42177,"is_reserved":false,"is_disabled":false,"rental_uris":{"android":"levelo://app?vid=08015b95-f541-4439-bbb3-b8cea8f7952d","ios":"levelo://app?vid=08015b95-f541-4439-bbb3-b8cea8f7952d"},"vehicle_type_id":"4","last_reported":1769931024,"current_range_meters":3200,"station_id":"st_d2m65c5bi1j21697t3ng","pricing_plan_id":"cebpf4jnsgd1na2vs0mg"},{"bike_id":"7cf2279d-37fb-4eea-9fcd-fa006a6f498b","system_id":"levelo_inurba_marseille","lat":43.27365,"lon":5.36267,"is_reserved":false,"is_disabled":false,"rental_uris":{"android":"levelo://app?vid=7cf2279d-37fb-4eea-9fcd-fa006a6f498b","ios":"levelo://app?vid=7cf2279d-37fb-4eea-9fcd-fa006a6f498b"},"vehicle_type_id":"4","last_reported":1769931024,"current_range_meters":3200,"station_id":"ce4bhbh2rcd13ifvqeo0","pricing_plan_id":"cebpf4jnsgd1na2vs0mg"},{"bike_id":"4561b101-df9b-4a07-8c08-785ae7c91c29","system_id":"levelo_inurba_marseille","lat":43.300206,"lon":5.383899,"is_reserved":false,"is_disabled":false,"rental_uris":{"android":"levelo://app?vid=4561b101-df9b-4a07-8c08-785ae7c91c29","ios":"levelo://app?vid=4561b101-df9b-4a07-8c08-785ae7c91c29"},"vehicle_type_id":"4","last_reported":1769931024,"current_range_meters":3200,"station_id":"","pricing_plan_id":"cebpf4jnsgd1na2vs0mg"},{"bike_id":"24463bdf-362a-44c7-a065-1582958089af","system_id":"levelo_inurba_marseille","lat":43.302114,"lon":5.394618,"is_reserved":false,"is_disabled":false,"rental_uris":{"android":"levelo://app?vid=24463bdf-362a-44c7-a065-1582958089af","ios":"levelo://app?vid=24463bdf-362a-44c7-a065-1582958089af"},"vehicle_type_id":"4","last_reported":1769931024,"current_range_meters":3200,"station_id":"ce4bh0p2rcd13ifvqd70","pricing_plan_id":"cebpf4jnsgd1na2vs0mg"},{"bike_id":"667f7189-0ff0-4468-a821-96f30d95245d","system_id":"levelo_inurba_marseille","lat":43.29915,"lon":5.43674,"is_reserved":false,"is_disabled":false,"rental_uris":{"android":"levelo://app?vid=667f7189-0ff0-4468-a821-96f30d95245d","ios":"levelo://app?vid=667f7189-0ff0-4468-a821-96f30d95245d"},"vehicle_type_id":"4","last_reported":1769931024,"current_range_meters":3600,"station_id":"ce4bhpp2rcd13ifvqhfg","pricing_plan_id":"cebpf4jnsgd1na2vs0mg"},{"bike_id":"a10fd5ac-f488-49bb-9865-a9b9fcb4d879","system_id":"levelo_inurba_marseille","lat":43.32386,"lon":5.37438,"is_reserved":false,"is_disabled":false,"rental_uris":{"android":"levelo://app?vid=a10fd5ac-f488-49bb-9865-a9b9fcb4d879","ios":"levelo://app?vid=a10fd5ac-f488-49bb-9865-a9b9fcb4d879"},"vehicle_type_id":"4","last_reported":1769931024,"current_range_meters":3600,"station_id":"","pricing_plan_id":"cebpf4jnsgd1na2vs0mg"},{"bike_id":"1cfacfb2-9d22-4e0d-89b6-9121f33f9ef0","system_id":"levelo_inurba_marseille","lat":43.30102,"lon":5.39048,"is_reserved":false,"is_disabled":false,"rental_uris":{"android":"levelo://app?vid=1cfacfb2-9d22-4e0d-89b6-9121f33f9ef0","ios":"levelo://app?vid=1cfacfb2-9d22-4e0d-89b6-9121f33f9ef0"},"vehicle_type_id":"4","last_reported":1769931024,"current_range_meters":3600,"station_id":"ce4bh192rcd13ifvqdb0","pricing_plan_id":"cebpf4jnsgd1na2vs0mg"},{"bike_id":"e62bf17d-777c-405e-87cc-f81784440870","system_id":"levelo_inurba_marseille","lat":43.25344,"lon":5.42158,"is_reserved":false,"is_disabled":false,"rental_uris":{"android":"levelo://app?vid=e62bf17d-777c-405e-87cc-f81784440870","ios":"levelo://app?vid=e62bf17d-777c-405e-87cc-f81784440870"},"vehicle_type_id":"4","last_reported":1769931024,"current_range_meters":3600,"station_id":"st_d2m65c5bi1j21697t3ng","pricing_plan_id":"cebpf4jnsgd1na2vs0mg"},{"bike_id":"f955b312-f85f-4776-bb87-c1f9bceb8274","system_id":"levelo_inurba_marseille","lat":43.22553,"lon":5.41633,"is_reserved":false,"is_disabled":false,"rental_uris":{"android":"levelo://app?vid=f955b312-f85f-4776-bb87-c1f9bceb8274","ios":"levelo://app?vid=f955b312-f85f-4776-bb87-c1f9bceb8274"},"vehicle_type_id":"4","last_reported":1769931024,"current_range_meters":3600,"station_id":"st_d2o4gvlbi1j2169b742g","pricing_plan_id":"cebpf4jnsgd1na2vs0mg"},{"bike_id":"1adbbfc3-50de-4f6d-8fd3-70470a85d8ae","system_id":"levelo_inurba_marseille","lat":43.27943,"lon":5.41044,"is_reserved":false,"is_disabled":false,"rental_uris":{"android":"levelo://app?vid=1adbbfc3-50de-4f6d-8fd3-70470a85d8ae","ios":"levelo://app?vid=1adbbfc3-50de-4f6d-8fd3-70470a85d8ae"},"vehicle_type_id":"4","last_reported":1769931024,"current_range_meters":3600,"station_id":"ce4bhnp2rcd13ifvqh0g","pricing_plan_id":"cebpf4jnsgd1na2vs0mg"},{"bike_id":"f4d6efa2-00bd-44bb-b3f9-95bebe7bedd2","system_id":"levelo_inurba_marseille","lat":43.30181,"lon":5.37946,"is_reserved":false,"is_disabled":false,"rental_uris":{"android":"levelo://app?vid=f4d6efa2-00bd-44bb-b3f9-95bebe7bedd2","ios":"levelo://app?vid=f4d6efa2-00bd-44bb-b3f9-95bebe7bedd2"},"vehicle_type_id":"4","last_reported":1769931024,"current_range_meters":3600,"station_id":"","pricing_plan_id":"cebpf4jnsgd1na2vs0mg"},{"bike_id":"fb42c967-dcba-4520-b63c-d979f56a78dc","system_id":"levelo_inurba_marseille","lat":43.29366,"lon":5.38,"is_reserved":false,"is_disabled":false,"rental_uris":{"android":"levelo://app?vid=fb42c967-dcba-4520-b63c-d979f56a78dc","ios":"levelo://app?vid=fb42c967-dcba-4520-b63c-d979f56a78dc"},"vehicle_type_id":"4","last_reported":1769931024,"current_range_meters":4000,"station_id":"ce4bgjh2rcd13ifvqbf0","pricing_plan_id":"cebpf4jnsgd1na2vs0mg"},{"bike_id":"db89fefb-6011-4017-8d46-077ffa4c12c9","system_id":"levelo_inurba_marseille","lat":43.29653,"lon":5.36627,"is_reserved":false,"is_disabled":false,"rental_uris":{"android":"levelo://app?vid=db89fefb-6011-4017-8d46-077ffa4c12c9","ios":"levelo://app?vid=db89fefb-6011-4017-8d46-077ffa4c12c9"},"vehicle_type_id":"4","last_reported":1769931024,"current_range_meters":4000,"station_id":"","pricing_plan_id":"cebpf4jnsgd1na2vs0mg"},{"bike_id":"9463c920-ece7-47a5-84ed-6de056b5dc28","system_id":"levelo_inurba_marseille","lat":43.27194,"lon":5.41003,"is_reserved":false,"is_disabled":false,"rental_uris":{"android":"levelo://app?vid=9463c920-ece7-47a5-84ed-6de056b5dc28","ios":"levelo://app?vid=9463c920-ece7-47a5-84ed-6de056b5dc28"},"vehicle_type_id":"4","last_reported":1769931024,"current_range_meters":4000,"station_id":"ce4bhl12rcd13ifvqgf0","pricing_plan_id":"cebpf4jnsgd1na2vs0mg"},{"bike_id":"e063da5b-4820-4962-b1c8-99eec874281e","system_id":"levelo_inurba_marseille","lat":43.23194,"lon":5.40002,"is_reserved":false,"is_disabled":true,"rental_uris":{"android":"levelo://app?vid=e063da5b-4820-4962-b1c8-99eec874281e","ios":"levelo://app?vid=e063da5b-4820-4962-b1c8-99eec874281e"},"vehicle_type_id":"4","last_reported":1769931024,"current_range_meters":4400,"station_id":"ce4bhn12rcd13ifvqgqg","pricing_plan_id":"cebpf4jnsgd1na2vs0mg"},{"bike_id":"1b187523-973b-43bd-a56f-a5d6c41d569b","system_id":"levelo_inurba_marseille","lat":43.29802,"lon":5.44075,"is_reserved":false,"is_disabled":false,"rental_uris":{"android":"levelo://app?vid=1b187523-973b-43bd-a56f-a5d6c41d569b","ios":"levelo://app?vid=1b187523-973b-43bd-a56f-a5d6c41d569b"},"vehicle_type_id":"4","last_reported":1769931024,"current_range_meters":4400,"station_id":"st_d3jp68qikq2c7381ktn0","pricing_plan_id":"cebpf4jnsgd1na2vs0mg"},{"bike_id":"6259a571-4c97-41bc-9e30-1f15710670c6","system_id":"levelo_inurba_marseille","lat":43.24684,"lon":5.40104,"is_reserved":false,"is_disabled":false,"rental_uris":{"android":"levelo://app?vid=6259a571-4c97-41bc-9e30-1f15710670c6","ios":"levelo://app?vid=6259a571-4c97-41bc-9e30-1f15710670c6"},"vehicle_type_id":"4","last_reported":1769931024,"current_range_meters":4400,"station_id":"","pricing_plan_id":"cebpf4jnsgd1na2vs0mg"},{"bike_id":"fd0924a1-005f-4230-b4d1-6e8409283367","system_id":"levelo_inurba_marseille","lat":43.2308,"lon":5.35491,"is_reserved":false,"is_disabled":false,"rental_uris":{"android":"levelo://app?vid=fd0924a1-005f-4230-b4d1-6e8409283367","ios":"levelo://app?vid=fd0924a1-005f-4230-b4d1-6e8409283367"},"vehicle_type_id":"4","last_reported":1769931024,"current_range_meters":4400,"station_id":"cpo3342slgdg3j2ifvpg","pricing_plan_id":"cebpf4jnsgd1na2vs0mg"},{"bike_id":"e0a954d6-819c-4021-8d0c-f1ef581b8ddb","system_id":"levelo_inurba_marseille","lat":43.29265,"lon":5.38439,"is_reserved":false,"is_disabled":true,"rental_uris":{"android":"levelo://app?vid=e0a954d6-819c-4021-8d0c-f1ef581b8ddb","ios":"levelo://app?vid=e0a954d6-819c-4021-8d0c-f1ef581b8ddb"},"vehicle_type_id":"4","last_reported":1769931024,"current_range_meters":4400,"station_id":"ce4bh692rcd13ifvqea0","pricing_plan_id":"cebpf4jnsgd1na2vs0mg"},{"bike_id":"717049a8-34e3-4337-a2f2-fb47536e2d56","system_id":"levelo_inurba_marseille","lat":43.29013,"lon":5.38673,"is_reserved":false,"is_disabled":false,"rental_uris":{"android":"levelo://app?vid=717049a8-34e3-4337-a2f2-fb47536e2d56","ios":"levelo://app?vid=717049a8-34e3-4337-a2f2-fb47536e2d56"},"vehicle_type_id":"4","last_reported":1769931024,"current_range_meters":4400,"station_id":"ce4bh4p2rcd13ifvqe0g","pricing_plan_id":"cebpf4jnsgd1na2vs0mg"},{"bike_id":"77619699-b354-480e-91d4-1d10d13baf79","system_id":"levelo_inurba_marseille","lat":43.30869,"lon":5.39615,"is_reserved":false,"is_disabled":false,"rental_uris":{"android":"levelo://app?vid=77619699-b354-480e-91d4-1d10d13baf79","ios":"levelo://app?vid=77619699-b354-480e-91d4-1d10d13baf79"},"vehicle_type_id":"4","last_reported":1769931024,"current_range_meters":4400,"station_id":"ce4bh012rcd13ifvqcv0","pricing_plan_id":"cebpf4jnsgd1na2vs0mg"},{"bike_id":"126f0f08-61cc-4a91-b5e4-336294f6c642","system_id":"levelo_inurba_marseille","lat":43.28402,"lon":5.35007,"is_reserved":false,"is_disabled":false,"rental_uris":{"android":"levelo://app?vid=126f0f08-61cc-4a91-b5e4-336294f6c642","ios":"levelo://app?vid=126f0f08-61cc-4a91-b5e4-336294f6c642"},"vehicle_type_id":"4","last_reported":1769931024,"current_range_meters":4400,"station_id":"ce4bhbh2rcd13ifvqepg","pricing_plan_id":"cebpf4jnsgd1na2vs0mg"},{"bike_id":"1e6e9fcd-377f-4a83-a467-d5b81de873c8","system_id":"levelo_inurba_marseille","lat":43.28192,"lon":5.39091,"is_reserved":false,"is_disabled":false,"rental_uris":{"android":"levelo://app?vid=1e6e9fcd-377f-4a83-a467-d5b81de873c8","ios":"levelo://app?vid=1e6e9fcd-377f-4a83-a467-d5b81de873c8"},"vehicle_type_id":"4","last_reported":1769931024,"current_range_meters":4800,"station_id":"ce4bhn92rcd13ifvqgsg","pricing_plan_id":"cebpf4jnsgd1na2vs0mg"},{"bike_id":"3c07e8db-1d64-4b7a-879d-8b774c3d7e0c","system_id":"levelo_inurba_marseille","lat":43.27375,"lon":5.36253,"is_reserved":false,"is_disabled":false,"rental_uris":{"android":"levelo://app?vid=3c07e8db-1d64-4b7a-879d-8b774c3d7e0c","ios":"levelo://app?vid=3c07e8db-1d64-4b7a-879d-8b774c3d7e0c"},"vehicle_type_id":"4","last_reported":1769931024,"current_range_meters":4800,"station_id":"ce4bhbh2rcd13ifvqeo0","pricing_plan_id":"cebpf4jnsgd1na2vs0mg"},{"bike_id":"51487434-2c5b-44ec-b6f1-b2d802fd5baf","system_id":"levelo_inurba_marseille","lat":43.295842,"lon":5.367472,"is_reserved":false,"is_disabled":false,"rental_uris":{"android":"levelo://app?vid=51487434-2c5b-44ec-b6f1-b2d802fd5baf","ios":"levelo://app?vid=51487434-2c5b-44ec-b6f1-b2d802fd5baf"},"vehicle_type_id":"4","last_reported":1769931024,"current_range_meters":4800,"station_id":"ce4bgph2rcd13ifvqc2g","pricing_plan_id":"cebpf4jnsgd1na2vs0mg"},{"bike_id":"318133aa-3b05-4452-b847-cf5a32021652","system_id":"levelo_inurba_marseille","lat":43.25088,"lon":5.39524,"is_reserved":false,"is_disabled":false,"rental_uris":{"android":"levelo://app?vid=318133aa-3b05-4452-b847-cf5a32021652","ios":"levelo://app?vid=318133aa-3b05-4452-b847-cf5a32021652"},"vehicle_type_id":"4","last_reported":1769931024,"current_range_meters":4800,"station_id":"ce4bhm12rcd13ifvqgkg","pricing_plan_id":"cebpf4jnsgd1na2vs0mg"},{"bike_id":"a591b198-ffd8-42c1-96f8-07f7188eff82","system_id":"levelo_inurba_marseille","lat":43.25583,"lon":5.38238,"is_reserved":false,"is_disabled":false,"rental_uris":{"android":"levelo://app?vid=a591b198-ffd8-42c1-96f8-07f7188eff82","ios":"levelo://app?vid=a591b198-ffd8-42c1-96f8-07f7188eff82"},"vehicle_type_id":"4","last_reported":1769931024,"current_range_meters":5600,"station_id":"ce4bhih2rcd13ifvqfs0","pricing_plan_id":"cebpf4jnsgd1na2vs0mg"},{"bike_id":"47a128cb-f685-436c-b5dc-7582740e4ba8","system_id":"levelo_inurba_marseille","lat":43.31068,"lon":5.38344,"is_reserved":false,"is_disabled":false,"rental_uris":{"android":"levelo://app?vid=47a128cb-f685-436c-b5dc-7582740e4ba8","ios":"levelo://app?vid=47a128cb-f685-436c-b5dc-7582740e4ba8"},"vehicle_type_id":"4","last_reported":1769931024,"current_range_meters":5600,"station_id":"ce4bgv92rcd13ifvqcr0","pricing_plan_id":"cebpf4jnsgd1na2vs0mg"},{"bike_id":"055d8d39-c891-472e-8a0d-a9ee39d8b8c7","system_id":"levelo_inurba_marseille","lat":43.32934,"lon":5.37592,"is_reserved":false,"is_disabled":true,"rental_uris":{"android":"levelo://app?vid=055d8d39-c891-472e-8a0d-a9ee39d8b8c7","ios":"levelo://app?vid=055d8d39-c891-472e-8a0d-a9ee39d8b8c7"},"vehicle_type_id":"4","last_reported":1769931024,"current_range_meters":5600,"station_id":"st_d46cu089ee8s73dldbu0","pricing_plan_id":"cebpf4jnsgd1na2vs0mg"},{"bike_id":"bd0b3557-9fd7-4e9c-b122-eda4f40b316d","system_id":"levelo_inurba_marseille","lat":43.24805,"lon":5.37457,"is_reserved":false,"is_disabled":false,"rental_uris":{"android":"levelo://app?vid=bd0b3557-9fd7-4e9c-b122-eda4f40b316d","ios":"levelo://app?vid=bd0b3557-9fd7-4e9c-b122-eda4f40b316d"},"vehicle_type_id":"4","last_reported":1769931024,"current_range_meters":6000,"station_id":"ce4bhgh2rcd13ifvqfb0","pricing_plan_id":"cebpf4jnsgd1na2vs0mg"},{"bike_id":"9b0b72ce-8292-47cd-b165-f4a28fe1cfff","system_id":"levelo_inurba_marseille","lat":43.28475,"lon":5.38523,"is_reserved":false,"is_disabled":true,"rental_uris":{"android":"levelo://app?vid=9b0b72ce-8292-47cd-b165-f4a28fe1cfff","ios":"levelo://app?vid=9b0b72ce-8292-47cd-b165-f4a28fe1cfff"},"vehicle_type_id":"4","last_reported":1769931024,"current_range_meters":6000,"station_id":"ce4bh512rcd13ifvqe3g","pricing_plan_id":"cebpf4jnsgd1na2vs0mg"},{"bike_id":"7725ea14-335e-4d54-91ac-40d50e39e00e","system_id":"levelo_inurba_marseille","lat":43.23196,"lon":5.39959,"is_reserved":false,"is_disabled":false,"rental_uris":{"android":"levelo://app?vid=7725ea14-335e-4d54-91ac-40d50e39e00e","ios":"levelo://app?vid=7725ea14-335e-4d54-91ac-40d50e39e00e"},"vehicle_type_id":"4","last_reported":1769931024,"current_range_meters":6000,"station_id":"ce4bhn12rcd13ifvqgqg","pricing_plan_id":"cebpf4jnsgd1na2vs0mg"},{"bike_id":"3d2668d9-3c48-4068-83fd-9f01b377bc30","system_id":"levelo_inurba_marseille","lat":43.32104,"lon":5.36838,"is_reserved":false,"is_disabled":false,"rental_uris":{"android":"levelo://app?vid=3d2668d9-3c48-4068-83fd-9f01b377bc30","ios":"levelo://app?vid=3d2668d9-3c48-4068-83fd-9f01b377bc30"},"vehicle_type_id":"4","last_reported":1769931024,"current_range_meters":6000,"station_id":"ce4bhrh2rcd13ifvqhug","pricing_plan_id":"cebpf4jnsgd1na2vs0mg"},{"bike_id":"7cf56b5d-4513-486d-9216-3f938f14c405","system_id":"levelo_inurba_marseille","lat":43.243954,"lon":5.370739,"is_reserved":false,"is_disabled":false,"rental_uris":{"android":"levelo://app?vid=7cf56b5d-4513-486d-9216-3f938f14c405","ios":"levelo://app?vid=7cf56b5d-4513-486d-9216-3f938f14c405"},"vehicle_type_id":"4","last_reported":1769931024,"current_range_meters":6000,"station_id":"ce4bhhh2rcd13ifvqfk0","pricing_plan_id":"cebpf4jnsgd1na2vs0mg"},{"bike_id":"d4d18011-2bf0-4a2b-a896-7a5c21af3b9d","system_id":"levelo_inurba_marseille","lat":43.28477,"lon":5.48411,"is_reserved":false,"is_disabled":false,"rental_uris":{"android":"levelo://app?vid=d4d18011-2bf0-4a2b-a896-7a5c21af3b9d","ios":"levelo://app?vid=d4d18011-2bf0-4a2b-a896-7a5c21af3b9d"},"vehicle_type_id":"4","last_reported":1769931024,"current_range_meters":6000,"station_id":"st_d3svhcjqgbts73a3dn0g","pricing_plan_id":"cebpf4jnsgd1na2vs0mg"},{"bike_id":"a4c4467a-de4f-4b56-8893-ebacb492a7a6","system_id":"levelo_inurba_marseille","lat":43.253489,"lon":5.421806,"is_reserved":false,"is_disabled":false,"rental_uris":{"android":"levelo://app?vid=a4c4467a-de4f-4b56-8893-ebacb492a7a6","ios":"levelo://app?vid=a4c4467a-de4f-4b56-8893-ebacb492a7a6"},"vehicle_type_id":"4","last_reported":1769931024,"current_range_meters":6000,"station_id":"st_d2m65c5bi1j21697t3ng","pricing_plan_id":"cebpf4jnsgd1na2vs0mg"},{"bike_id":"9a51c59d-9df1-4272-bf8a-962f7f317a04","system_id":"levelo_inurba_marseille","lat":43.25483,"lon":5.37677,"is_reserved":false,"is_disabled":false,"rental_uris":{"android":"levelo://app?vid=9a51c59d-9df1-4272-bf8a-962f7f317a04","ios":"levelo://app?vid=9a51c59d-9df1-4272-bf8a-962f7f317a04"},"vehicle_type_id":"4","last_reported":1769931024,"current_range_meters":6000,"station_id":"ce4bhh12rcd13ifvqff0","pricing_plan_id":"cebpf4jnsgd1na2vs0mg"},{"bike_id":"cbd2b069-d3d5-4340-9dd6-17dbd63057c5","system_id":"levelo_inurba_marseille","lat":43.29582,"lon":5.39599,"is_reserved":false,"is_disabled":false,"rental_uris":{"android":"levelo://app?vid=cbd2b069-d3d5-4340-9dd6-17dbd63057c5","ios":"levelo://app?vid=cbd2b069-d3d5-4340-9dd6-17dbd63057c5"},"vehicle_type_id":"4","last_reported":1769931024,"current_range_meters":6000,"station_id":"","pricing_plan_id":"cebpf4jnsgd1na2vs0mg"},{"bike_id":"1f7b8b6d-e79f-4d5a-80ba-1168600653c7","system_id":"levelo_inurba_marseille","lat":43.2321,"lon":5.35562,"is_reserved":false,"is_disabled":false,"rental_uris":{"android":"levelo://app?vid=1f7b8b6d-e79f-4d5a-80ba-1168600653c7","ios":"levelo://app?vid=1f7b8b6d-e79f-4d5a-80ba-1168600653c7"},"vehicle_type_id":"4","last_reported":1769931024,"current_range_meters":6000,"station_id":"ce4bhu92rcd13ifvqi70","pricing_plan_id":"cebpf4jnsgd1na2vs0mg"},{"bike_id":"04da1df6-4b42-4515-bc71-2524c0008b6a","system_id":"levelo_inurba_marseille","lat":43.27462,"lon":5.43593,"is_reserved":false,"is_disabled":false,"rental_uris":{"android":"levelo://app?vid=04da1df6-4b42-4515-bc71-2524c0008b6a","ios":"levelo://app?vid=04da1df6-4b42-4515-bc71-2524c0008b6a"},"vehicle_type_id":"4","last_reported":1769931024,"current_range_meters":6400,"station_id":"","pricing_plan_id":"cebpf4jnsgd1na2vs0mg"},{"bike_id":"e17fafcf-c85c-46cd-aeba-830af14a1980","system_id":"levelo_inurba_marseille","lat":43.27567,"lon":5.38435,"is_reserved":false,"is_disabled":false,"rental_uris":{"android":"levelo://app?vid=e17fafcf-c85c-46cd-aeba-830af14a1980","ios":"levelo://app?vid=e17fafcf-c85c-46cd-aeba-830af14a1980"},"vehicle_type_id":"4","last_reported":1769931024,"current_range_meters":6400,"station_id":"ce4bhh92rcd13ifvqfi0","pricing_plan_id":"cebpf4jnsgd1na2vs0mg"},{"bike_id":"18fac332-3f37-4402-a2c5-fd894778b438","system_id":"levelo_inurba_marseille","lat":43.30185,"lon":5.38062,"is_reserved":false,"is_disabled":false,"rental_uris":{"android":"levelo://app?vid=18fac332-3f37-4402-a2c5-fd894778b438","ios":"levelo://app?vid=18fac332-3f37-4402-a2c5-fd894778b438"},"vehicle_type_id":"4","last_reported":1769931024,"current_range_meters":6400,"station_id":"","pricing_plan_id":"cebpf4jnsgd1na2vs0mg"},{"bike_id":"e385d1cd-1cb5-4e3d-8733-264efbfc417e","system_id":"levelo_inurba_marseille","lat":43.29624,"lon":5.406,"is_reserved":false,"is_disabled":false,"rental_uris":{"android":"levelo://app?vid=e385d1cd-1cb5-4e3d-8733-264efbfc417e","ios":"levelo://app?vid=e385d1cd-1cb5-4e3d-8733-264efbfc417e"},"vehicle_type_id":"4","last_reported":1769931024,"current_range_meters":6400,"station_id":"ce4bh0h2rcd13ifvqd60","pricing_plan_id":"cebpf4jnsgd1na2vs0mg"},{"bike_id":"0b54222e-0ec6-491f-b1f2-77bedbbe81bd","system_id":"levelo_inurba_marseille","lat":43.290404,"lon":5.359226,"is_reserved":false,"is_disabled":false,"rental_uris":{"android":"levelo://app?vid=0b54222e-0ec6-491f-b1f2-77bedbbe81bd","ios":"levelo://app?vid=0b54222e-0ec6-491f-b1f2-77bedbbe81bd"},"vehicle_type_id":"4","last_reported":1769931024,"current_range_meters":6400,"station_id":"ce4bha92rcd13ifvqeg0","pricing_plan_id":"cebpf4jnsgd1na2vs0mg"},{"bike_id":"a0f4c4d9-b17d-4551-87f4-b3e192df9153","system_id":"levelo_inurba_marseille","lat":43.23038,"lon":5.35484,"is_reserved":false,"is_disabled":false,"rental_uris":{"android":"levelo://app?vid=a0f4c4d9-b17d-4551-87f4-b3e192df9153","ios":"levelo://app?vid=a0f4c4d9-b17d-4551-87f4-b3e192df9153"},"vehicle_type_id":"4","last_reported":1769931024,"current_range_meters":6400,"station_id":"cpo3342slgdg3j2ifvpg","pricing_plan_id":"cebpf4jnsgd1na2vs0mg"},{"bike_id":"9378c7cb-4c3a-475f-ba28-80a4781f7ffa","system_id":"levelo_inurba_marseille","lat":43.29765,"lon":5.42772,"is_reserved":false,"is_disabled":false,"rental_uris":{"android":"levelo://app?vid=9378c7cb-4c3a-475f-ba28-80a4781f7ffa","ios":"levelo://app?vid=9378c7cb-4c3a-475f-ba28-80a4781f7ffa"},"vehicle_type_id":"4","last_reported":1769931024,"current_range_meters":6400,"station_id":"st_d3md5207bmas73dh9klg","pricing_plan_id":"cebpf4jnsgd1na2vs0mg"},{"bike_id":"b27a0d4f-f345-47b9-b9a8-196c40313931","system_id":"levelo_inurba_marseille","lat":43.28412,"lon":5.34991,"is_reserved":false,"is_disabled":false,"rental_uris":{"android":"levelo://app?vid=b27a0d4f-f345-47b9-b9a8-196c40313931","ios":"levelo://app?vid=b27a0d4f-f345-47b9-b9a8-196c40313931"},"vehicle_type_id":"4","last_reported":1769931024,"current_range_meters":6400,"station_id":"ce4bhbh2rcd13ifvqepg","pricing_plan_id":"cebpf4jnsgd1na2vs0mg"},{"bike_id":"ce82ab3e-8722-48bf-b3dc-98421a0f2a7b","system_id":"levelo_inurba_marseille","lat":43.29609,"lon":5.40599,"is_reserved":false,"is_disabled":false,"rental_uris":{"android":"levelo://app?vid=ce82ab3e-8722-48bf-b3dc-98421a0f2a7b","ios":"levelo://app?vid=ce82ab3e-8722-48bf-b3dc-98421a0f2a7b"},"vehicle_type_id":"4","last_reported":1769931024,"current_range_meters":6400,"station_id":"ce4bh0h2rcd13ifvqd60","pricing_plan_id":"cebpf4jnsgd1na2vs0mg"},{"bike_id":"4ae21097-68ff-4a44-bcb7-3e142e11d517","system_id":"levelo_inurba_marseille","lat":43.24164,"lon":5.36405,"is_reserved":false,"is_disabled":false,"rental_uris":{"android":"levelo://app?vid=4ae21097-68ff-4a44-bcb7-3e142e11d517","ios":"levelo://app?vid=4ae21097-68ff-4a44-bcb7-3e142e11d517"},"vehicle_type_id":"4","last_reported":1769931024,"current_range_meters":6400,"station_id":"cpo36qri1sfpv3e86is0","pricing_plan_id":"cebpf4jnsgd1na2vs0mg"},{"bike_id":"bcd58453-c6d3-458d-8c23-f0e115fa2945","system_id":"levelo_inurba_marseille","lat":43.28867,"lon":5.42513,"is_reserved":false,"is_disabled":false,"rental_uris":{"android":"levelo://app?vid=bcd58453-c6d3-458d-8c23-f0e115fa2945","ios":"levelo://app?vid=bcd58453-c6d3-458d-8c23-f0e115fa2945"},"vehicle_type_id":"4","last_reported":1769931024,"current_range_meters":6400,"station_id":"st_d3b462108ojc7389ooeg","pricing_plan_id":"cebpf4jnsgd1na2vs0mg"},{"bike_id":"e701a3f7-2e1f-487e-bad5-83c9140f1723","system_id":"levelo_inurba_marseille","lat":43.31791,"lon":5.37381,"is_reserved":false,"is_disabled":false,"rental_uris":{"android":"levelo://app?vid=e701a3f7-2e1f-487e-bad5-83c9140f1723","ios":"levelo://app?vid=e701a3f7-2e1f-487e-bad5-83c9140f1723"},"vehicle_type_id":"4","last_reported":1769931024,"current_range_meters":6400,"station_id":"","pricing_plan_id":"cebpf4jnsgd1na2vs0mg"},{"bike_id":"837f081a-e646-4c00-93df-f959748be000","system_id":"levelo_inurba_marseille","lat":43.24669,"lon":5.38158,"is_reserved":false,"is_disabled":false,"rental_uris":{"android":"levelo://app?vid=837f081a-e646-4c00-93df-f959748be000","ios":"levelo://app?vid=837f081a-e646-4c00-93df-f959748be000"},"vehicle_type_id":"4","last_reported":1769931024,"current_range_meters":6400,"station_id":"ce4bhih2rcd13ifvqfr0","pricing_plan_id":"cebpf4jnsgd1na2vs0mg"},{"bike_id":"5be20501-8e04-4673-9119-891aadf1acc1","system_id":"levelo_inurba_marseille","lat":43.28454,"lon":5.48407,"is_reserved":false,"is_disabled":false,"rental_uris":{"android":"levelo://app?vid=5be20501-8e04-4673-9119-891aadf1acc1","ios":"levelo://app?vid=5be20501-8e04-4673-9119-891aadf1acc1"},"vehicle_type_id":"4","last_reported":1769931024,"current_range_meters":6400,"station_id":"st_d3svhcjqgbts73a3dn0g","pricing_plan_id":"cebpf4jnsgd1na2vs0mg"},{"bike_id":"0e681b67-3fdf-40b6-b942-590e1536d0c5","system_id":"levelo_inurba_marseille","lat":43.244037,"lon":5.370676,"is_reserved":false,"is_disabled":false,"rental_uris":{"android":"levelo://app?vid=0e681b67-3fdf-40b6-b942-590e1536d0c5","ios":"levelo://app?vid=0e681b67-3fdf-40b6-b942-590e1536d0c5"},"vehicle_type_id":"4","last_reported":1769931024,"current_range_meters":6400,"station_id":"ce4bhhh2rcd13ifvqfk0","pricing_plan_id":"cebpf4jnsgd1na2vs0mg"},{"bike_id":"9ec284a7-5619-4e2b-9311-1a9349102c34","system_id":"levelo_inurba_marseille","lat":43.24455,"lon":5.42547,"is_reserved":false,"is_disabled":false,"rental_uris":{"android":"levelo://app?vid=9ec284a7-5619-4e2b-9311-1a9349102c34","ios":"levelo://app?vid=9ec284a7-5619-4e2b-9311-1a9349102c34"},"vehicle_type_id":"4","last_reported":1769931024,"current_range_meters":6400,"station_id":"st_d4a3vfp97mjs738cd8kg","pricing_plan_id":"cebpf4jnsgd1na2vs0mg"},{"bike_id":"e2bce0e5-c739-4939-9e60-5d1a18c005a4","system_id":"levelo_inurba_marseille","lat":43.2796,"lon":5.41054,"is_reserved":false,"is_disabled":false,"rental_uris":{"android":"levelo://app?vid=e2bce0e5-c739-4939-9e60-5d1a18c005a4","ios":"levelo://app?vid=e2bce0e5-c739-4939-9e60-5d1a18c005a4"},"vehicle_type_id":"4","last_reported":1769931024,"current_range_meters":6400,"station_id":"ce4bhnp2rcd13ifvqh0g","pricing_plan_id":"cebpf4jnsgd1na2vs0mg"},{"bike_id":"74856cd2-f709-469e-b628-27ee18812e7c","system_id":"levelo_inurba_marseille","lat":43.28162,"lon":5.426,"is_reserved":false,"is_disabled":false,"rental_uris":{"android":"levelo://app?vid=74856cd2-f709-469e-b628-27ee18812e7c","ios":"levelo://app?vid=74856cd2-f709-469e-b628-27ee18812e7c"},"vehicle_type_id":"4","last_reported":1769931024,"current_range_meters":6400,"station_id":"ce4bhnh2rcd13ifvqgug","pricing_plan_id":"cebpf4jnsgd1na2vs0mg"},{"bike_id":"d5e67bfe-03c5-4643-9903-6eac267b87da","system_id":"levelo_inurba_marseille","lat":43.24025,"lon":5.37829,"is_reserved":false,"is_disabled":false,"rental_uris":{"android":"levelo://app?vid=d5e67bfe-03c5-4643-9903-6eac267b87da","ios":"levelo://app?vid=d5e67bfe-03c5-4643-9903-6eac267b87da"},"vehicle_type_id":"4","last_reported":1769931024,"current_range_meters":6400,"station_id":"","pricing_plan_id":"cebpf4jnsgd1na2vs0mg"},{"bike_id":"7bd46305-b209-4807-8a44-605f196b92c2","system_id":"levelo_inurba_marseille","lat":43.28411,"lon":5.37523,"is_reserved":false,"is_disabled":false,"rental_uris":{"android":"levelo://app?vid=7bd46305-b209-4807-8a44-605f196b92c2","ios":"levelo://app?vid=7bd46305-b209-4807-8a44-605f196b92c2"},"vehicle_type_id":"4","last_reported":1769931024,"current_range_meters":6800,"station_id":"ce4bh412rcd13ifvqds0","pricing_plan_id":"cebpf4jnsgd1na2vs0mg"},{"bike_id":"eae001be-3b34-469f-b5f5-7615da95a4ed","system_id":"levelo_inurba_marseille","lat":43.278163,"lon":5.407161,"is_reserved":false,"is_disabled":false,"rental_uris":{"android":"levelo://app?vid=eae001be-3b34-469f-b5f5-7615da95a4ed","ios":"levelo://app?vid=eae001be-3b34-469f-b5f5-7615da95a4ed"},"vehicle_type_id":"4","last_reported":1769931024,"current_range_meters":6800,"station_id":"ce4bhnh2rcd13ifvqgtg","pricing_plan_id":"cebpf4jnsgd1na2vs0mg"},{"bike_id":"fb793f9e-27c8-4aa6-9e5b-d172f980944b","system_id":"levelo_inurba_marseille","lat":43.27949,"lon":5.41039,"is_reserved":false,"is_disabled":true,"rental_uris":{"android":"levelo://app?vid=fb793f9e-27c8-4aa6-9e5b-d172f980944b","ios":"levelo://app?vid=fb793f9e-27c8-4aa6-9e5b-d172f980944b"},"vehicle_type_id":"4","last_reported":1769931024,"current_range_meters":6800,"station_id":"ce4bhnp2rcd13ifvqh0g","pricing_plan_id":"cebpf4jnsgd1na2vs0mg"},{"bike_id":"0209bc56-beb4-4095-b758-2ebe14281480","system_id":"levelo_inurba_marseille","lat":43.28724,"lon":5.36102,"is_reserved":false,"is_disabled":false,"rental_uris":{"android":"levelo://app?vid=0209bc56-beb4-4095-b758-2ebe14281480","ios":"levelo://app?vid=0209bc56-beb4-4095-b758-2ebe14281480"},"vehicle_type_id":"4","last_reported":1769931024,"current_range_meters":6800,"station_id":"cki0cbj6b192h4jlfktg","pricing_plan_id":"cebpf4jnsgd1na2vs0mg"},{"bike_id":"7a4412cf-c498-4121-be46-049419c026d4","system_id":"levelo_inurba_marseille","lat":43.279406,"lon":5.410361,"is_reserved":false,"is_disabled":false,"rental_uris":{"android":"levelo://app?vid=7a4412cf-c498-4121-be46-049419c026d4","ios":"levelo://app?vid=7a4412cf-c498-4121-be46-049419c026d4"},"vehicle_type_id":"4","last_reported":1769931024,"current_range_meters":6800,"station_id":"ce4bhnp2rcd13ifvqh0g","pricing_plan_id":"cebpf4jnsgd1na2vs0mg"},{"bike_id":"f47b5364-d86e-414e-a4d7-612bcf40da53","system_id":"levelo_inurba_marseille","lat":43.24163,"lon":5.36389,"is_reserved":false,"is_disabled":false,"rental_uris":{"android":"levelo://app?vid=f47b5364-d86e-414e-a4d7-612bcf40da53","ios":"levelo://app?vid=f47b5364-d86e-414e-a4d7-612bcf40da53"},"vehicle_type_id":"4","last_reported":1769931024,"current_range_meters":6800,"station_id":"cpo36qri1sfpv3e86is0","pricing_plan_id":"cebpf4jnsgd1na2vs0mg"},{"bike_id":"e66c0050-63ae-4842-902f-7ed4f4ed8737","system_id":"levelo_inurba_marseille","lat":43.22554,"lon":5.41639,"is_reserved":false,"is_disabled":false,"rental_uris":{"android":"levelo://app?vid=e66c0050-63ae-4842-902f-7ed4f4ed8737","ios":"levelo://app?vid=e66c0050-63ae-4842-902f-7ed4f4ed8737"},"vehicle_type_id":"4","last_reported":1769931024,"current_range_meters":6800,"station_id":"st_d2o4gvlbi1j2169b742g","pricing_plan_id":"cebpf4jnsgd1na2vs0mg"},{"bike_id":"d0765df0-cc90-4cba-8b79-61ce95080b49","system_id":"levelo_inurba_marseille","lat":43.2257,"lon":5.41629,"is_reserved":false,"is_disabled":false,"rental_uris":{"android":"levelo://app?vid=d0765df0-cc90-4cba-8b79-61ce95080b49","ios":"levelo://app?vid=d0765df0-cc90-4cba-8b79-61ce95080b49"},"vehicle_type_id":"4","last_reported":1769931024,"current_range_meters":6800,"station_id":"st_d2o4gvlbi1j2169b742g","pricing_plan_id":"cebpf4jnsgd1na2vs0mg"},{"bike_id":"1b262235-a4c8-42b2-9b62-c37b9e14300f","system_id":"levelo_inurba_marseille","lat":43.27812,"lon":5.40705,"is_reserved":false,"is_disabled":false,"rental_uris":{"android":"levelo://app?vid=1b262235-a4c8-42b2-9b62-c37b9e14300f","ios":"levelo://app?vid=1b262235-a4c8-42b2-9b62-c37b9e14300f"},"vehicle_type_id":"4","last_reported":1769931024,"current_range_meters":6800,"station_id":"ce4bhnh2rcd13ifvqgtg","pricing_plan_id":"cebpf4jnsgd1na2vs0mg"},{"bike_id":"38b77181-b3ce-4754-b533-7792bcc3267e","system_id":"levelo_inurba_marseille","lat":43.27394,"lon":5.36287,"is_reserved":false,"is_disabled":false,"rental_uris":{"android":"levelo://app?vid=38b77181-b3ce-4754-b533-7792bcc3267e","ios":"levelo://app?vid=38b77181-b3ce-4754-b533-7792bcc3267e"},"vehicle_type_id":"4","last_reported":1769931024,"current_range_meters":6800,"station_id":"ce4bhbh2rcd13ifvqeo0","pricing_plan_id":"cebpf4jnsgd1na2vs0mg"},{"bike_id":"16fde6d1-f51a-48e7-a728-f69430b0136e","system_id":"levelo_inurba_marseille","lat":43.24384,"lon":5.37137,"is_reserved":false,"is_disabled":false,"rental_uris":{"android":"levelo://app?vid=16fde6d1-f51a-48e7-a728-f69430b0136e","ios":"levelo://app?vid=16fde6d1-f51a-48e7-a728-f69430b0136e"},"vehicle_type_id":"4","last_reported":1769931024,"current_range_meters":6800,"station_id":"","pricing_plan_id":"cebpf4jnsgd1na2vs0mg"},{"bike_id":"ccd91842-56ad-439e-893f-220a7e358296","system_id":"levelo_inurba_marseille","lat":43.24072,"lon":5.37763,"is_reserved":false,"is_disabled":false,"rental_uris":{"android":"levelo://app?vid=ccd91842-56ad-439e-893f-220a7e358296","ios":"levelo://app?vid=ccd91842-56ad-439e-893f-220a7e358296"},"vehicle_type_id":"4","last_reported":1769931024,"current_range_meters":6800,"station_id":"ce4bhnp2rcd13ifvqgvg","pricing_plan_id":"cebpf4jnsgd1na2vs0mg"},{"bike_id":"9c2cc992-186a-4b4e-a8c4-2416ec14609e","system_id":"levelo_inurba_marseille","lat":43.25867,"lon":5.39914,"is_reserved":false,"is_disabled":false,"rental_uris":{"android":"levelo://app?vid=9c2cc992-186a-4b4e-a8c4-2416ec14609e","ios":"levelo://app?vid=9c2cc992-186a-4b4e-a8c4-2416ec14609e"},"vehicle_type_id":"4","last_reported":1769931024,"current_range_meters":6800,"station_id":"ce4bhl92rcd13ifvqghg","pricing_plan_id":"cebpf4jnsgd1na2vs0mg"},{"bike_id":"ea996b6a-e4df-4475-a81a-600ad94271b6","system_id":"levelo_inurba_marseille","lat":43.30275,"lon":5.39793,"is_reserved":false,"is_disabled":false,"rental_uris":{"android":"levelo://app?vid=ea996b6a-e4df-4475-a81a-600ad94271b6","ios":"levelo://app?vid=ea996b6a-e4df-4475-a81a-600ad94271b6"},"vehicle_type_id":"4","last_reported":1769931024,"current_range_meters":6800,"station_id":"","pricing_plan_id":"cebpf4jnsgd1na2vs0mg"},{"bike_id":"3a9d9d6b-764f-4558-a4a3-5611921af6a1","system_id":"levelo_inurba_marseille","lat":43.27959,"lon":5.40983,"is_reserved":false,"is_disabled":false,"rental_uris":{"android":"levelo://app?vid=3a9d9d6b-764f-4558-a4a3-5611921af6a1","ios":"levelo://app?vid=3a9d9d6b-764f-4558-a4a3-5611921af6a1"},"vehicle_type_id":"4","last_reported":1769931024,"current_range_meters":6800,"station_id":"","pricing_plan_id":"cebpf4jnsgd1na2vs0mg"},{"bike_id":"180701fc-3466-4739-9acb-7f11e893ebe6","system_id":"levelo_inurba_marseille","lat":43.24464,"lon":5.42538,"is_reserved":false,"is_disabled":false,"rental_uris":{"android":"levelo://app?vid=180701fc-3466-4739-9acb-7f11e893ebe6","ios":"levelo://app?vid=180701fc-3466-4739-9acb-7f11e893ebe6"},"vehicle_type_id":"4","last_reported":1769931024,"current_range_meters":6800,"station_id":"st_d4a3vfp97mjs738cd8kg","pricing_plan_id":"cebpf4jnsgd1na2vs0mg"},{"bike_id":"8a25a112-bffb-4bc9-b86f-e44087c71e58","system_id":"levelo_inurba_marseille","lat":43.282035,"lon":5.390633,"is_reserved":false,"is_disabled":false,"rental_uris":{"android":"levelo://app?vid=8a25a112-bffb-4bc9-b86f-e44087c71e58","ios":"levelo://app?vid=8a25a112-bffb-4bc9-b86f-e44087c71e58"},"vehicle_type_id":"4","last_reported":1769931024,"current_range_meters":6800,"station_id":"ce4bhn92rcd13ifvqgsg","pricing_plan_id":"cebpf4jnsgd1na2vs0mg"},{"bike_id":"cda423b0-114c-4365-aeb1-89fb80c8de39","system_id":"levelo_inurba_marseille","lat":43.24801,"lon":5.37452,"is_reserved":false,"is_disabled":false,"rental_uris":{"android":"levelo://app?vid=cda423b0-114c-4365-aeb1-89fb80c8de39","ios":"levelo://app?vid=cda423b0-114c-4365-aeb1-89fb80c8de39"},"vehicle_type_id":"4","last_reported":1769931024,"current_range_meters":7200,"station_id":"ce4bhgh2rcd13ifvqfb0","pricing_plan_id":"cebpf4jnsgd1na2vs0mg"},{"bike_id":"f63ad825-b273-458f-bf2e-2ef630e3fede","system_id":"levelo_inurba_marseille","lat":43.2257,"lon":5.41637,"is_reserved":false,"is_disabled":false,"rental_uris":{"android":"levelo://app?vid=f63ad825-b273-458f-bf2e-2ef630e3fede","ios":"levelo://app?vid=f63ad825-b273-458f-bf2e-2ef630e3fede"},"vehicle_type_id":"4","last_reported":1769931024,"current_range_meters":7200,"station_id":"st_d2o4gvlbi1j2169b742g","pricing_plan_id":"cebpf4jnsgd1na2vs0mg"},{"bike_id":"1b85baa8-054d-452c-96ac-e14de5f87229","system_id":"levelo_inurba_marseille","lat":43.26563,"lon":5.40325,"is_reserved":false,"is_disabled":false,"rental_uris":{"android":"levelo://app?vid=1b85baa8-054d-452c-96ac-e14de5f87229","ios":"levelo://app?vid=1b85baa8-054d-452c-96ac-e14de5f87229"},"vehicle_type_id":"4","last_reported":1769931024,"current_range_meters":7200,"station_id":"ce4bhmp2rcd13ifvqgng","pricing_plan_id":"cebpf4jnsgd1na2vs0mg"},{"bike_id":"8d19955e-e09c-4b47-a6e3-ae607dbe5088","system_id":"levelo_inurba_marseille","lat":43.26223,"lon":5.37467,"is_reserved":false,"is_disabled":true,"rental_uris":{"android":"levelo://app?vid=8d19955e-e09c-4b47-a6e3-ae607dbe5088","ios":"levelo://app?vid=8d19955e-e09c-4b47-a6e3-ae607dbe5088"},"vehicle_type_id":"4","last_reported":1769931024,"current_range_meters":7200,"station_id":"","pricing_plan_id":"cebpf4jnsgd1na2vs0mg"},{"bike_id":"39a0c9b8-bd19-456f-ac9a-f7111895b8d4","system_id":"levelo_inurba_marseille","lat":43.24071,"lon":5.37783,"is_reserved":false,"is_disabled":false,"rental_uris":{"android":"levelo://app?vid=39a0c9b8-bd19-456f-ac9a-f7111895b8d4","ios":"levelo://app?vid=39a0c9b8-bd19-456f-ac9a-f7111895b8d4"},"vehicle_type_id":"4","last_reported":1769931024,"current_range_meters":7200,"station_id":"ce4bhnp2rcd13ifvqgvg","pricing_plan_id":"cebpf4jnsgd1na2vs0mg"},{"bike_id":"a8f57f70-acfc-420e-90e9-80b5fb4e7a51","system_id":"levelo_inurba_marseille","lat":43.29624,"lon":5.37188,"is_reserved":false,"is_disabled":false,"rental_uris":{"android":"levelo://app?vid=a8f57f70-acfc-420e-90e9-80b5fb4e7a51","ios":"levelo://app?vid=a8f57f70-acfc-420e-90e9-80b5fb4e7a51"},"vehicle_type_id":"4","last_reported":1769931024,"current_range_meters":7200,"station_id":"ce4bgnh2rcd13ifvqc0g","pricing_plan_id":"cebpf4jnsgd1na2vs0mg"},{"bike_id":"3471e8e7-8da3-45e0-a561-cdc2e5b04adf","system_id":"levelo_inurba_marseille","lat":43.24637,"lon":5.43141,"is_reserved":false,"is_disabled":false,"rental_uris":{"android":"levelo://app?vid=3471e8e7-8da3-45e0-a561-cdc2e5b04adf","ios":"levelo://app?vid=3471e8e7-8da3-45e0-a561-cdc2e5b04adf"},"vehicle_type_id":"4","last_reported":1769931024,"current_range_meters":7200,"station_id":"st_d2m6c4gdas8pm72e190g","pricing_plan_id":"cebpf4jnsgd1na2vs0mg"},{"bike_id":"6ceb9059-7b97-4347-94e0-23342b519359","system_id":"levelo_inurba_marseille","lat":43.29794,"lon":5.39365,"is_reserved":false,"is_disabled":false,"rental_uris":{"android":"levelo://app?vid=6ceb9059-7b97-4347-94e0-23342b519359","ios":"levelo://app?vid=6ceb9059-7b97-4347-94e0-23342b519359"},"vehicle_type_id":"4","last_reported":1769931024,"current_range_meters":7200,"station_id":"chh1huq6cuj3fo74tm60","pricing_plan_id":"cebpf4jnsgd1na2vs0mg"},{"bike_id":"f74d4c3d-96e9-4afd-9bc9-921171cd5c0f","system_id":"levelo_inurba_marseille","lat":43.27805,"lon":5.40732,"is_reserved":false,"is_disabled":false,"rental_uris":{"android":"levelo://app?vid=f74d4c3d-96e9-4afd-9bc9-921171cd5c0f","ios":"levelo://app?vid=f74d4c3d-96e9-4afd-9bc9-921171cd5c0f"},"vehicle_type_id":"4","last_reported":1769931024,"current_range_meters":7200,"station_id":"ce4bhnh2rcd13ifvqgtg","pricing_plan_id":"cebpf4jnsgd1na2vs0mg"},{"bike_id":"17f7a6ee-3ea2-47b2-a6b2-af428a254ad3","system_id":"levelo_inurba_marseille","lat":43.28615,"lon":5.35076,"is_reserved":false,"is_disabled":false,"rental_uris":{"android":"levelo://app?vid=17f7a6ee-3ea2-47b2-a6b2-af428a254ad3","ios":"levelo://app?vid=17f7a6ee-3ea2-47b2-a6b2-af428a254ad3"},"vehicle_type_id":"4","last_reported":1769931024,"current_range_meters":7200,"station_id":"ce4bhch2rcd13ifvqeug","pricing_plan_id":"cebpf4jnsgd1na2vs0mg"},{"bike_id":"b233dd4b-f1ae-41da-a580-dcfbbd843fa2","system_id":"levelo_inurba_marseille","lat":43.30772,"lon":5.37656,"is_reserved":false,"is_disabled":false,"rental_uris":{"android":"levelo://app?vid=b233dd4b-f1ae-41da-a580-dcfbbd843fa2","ios":"levelo://app?vid=b233dd4b-f1ae-41da-a580-dcfbbd843fa2"},"vehicle_type_id":"4","last_reported":1769931024,"current_range_meters":7200,"station_id":"ce4bgv92rcd13ifvqcq0","pricing_plan_id":"cebpf4jnsgd1na2vs0mg"},{"bike_id":"5a24432b-b7ab-43a0-9cbd-10c4e13ca14b","system_id":"levelo_inurba_marseille","lat":43.28946,"lon":5.36635,"is_reserved":false,"is_disabled":false,"rental_uris":{"android":"levelo://app?vid=5a24432b-b7ab-43a0-9cbd-10c4e13ca14b","ios":"levelo://app?vid=5a24432b-b7ab-43a0-9cbd-10c4e13ca14b"},"vehicle_type_id":"4","last_reported":1769931024,"current_range_meters":7200,"station_id":"ce4bhap2rcd13ifvqek0","pricing_plan_id":"cebpf4jnsgd1na2vs0mg"},{"bike_id":"d23a8d1a-e7ed-4e5a-babe-dd094021a3b8","system_id":"levelo_inurba_marseille","lat":43.31262,"lon":5.40182,"is_reserved":false,"is_disabled":false,"rental_uris":{"android":"levelo://app?vid=d23a8d1a-e7ed-4e5a-babe-dd094021a3b8","ios":"levelo://app?vid=d23a8d1a-e7ed-4e5a-babe-dd094021a3b8"},"vehicle_type_id":"4","last_reported":1769931024,"current_range_meters":7200,"station_id":"ce4bh092rcd13ifvqd30","pricing_plan_id":"cebpf4jnsgd1na2vs0mg"},{"bike_id":"5b4c0c7a-c0c9-4273-96c2-faded5f9cc26","system_id":"levelo_inurba_marseille","lat":43.27934,"lon":5.41057,"is_reserved":false,"is_disabled":false,"rental_uris":{"android":"levelo://app?vid=5b4c0c7a-c0c9-4273-96c2-faded5f9cc26","ios":"levelo://app?vid=5b4c0c7a-c0c9-4273-96c2-faded5f9cc26"},"vehicle_type_id":"4","last_reported":1769931024,"current_range_meters":8000,"station_id":"ce4bhnp2rcd13ifvqh0g","pricing_plan_id":"cebpf4jnsgd1na2vs0mg"},{"bike_id":"d3215a18-ac25-47b2-bc57-dcaef897eb36","system_id":"levelo_inurba_marseille","lat":43.314,"lon":5.38574,"is_reserved":false,"is_disabled":false,"rental_uris":{"android":"levelo://app?vid=d3215a18-ac25-47b2-bc57-dcaef897eb36","ios":"levelo://app?vid=d3215a18-ac25-47b2-bc57-dcaef897eb36"},"vehicle_type_id":"4","last_reported":1769931024,"current_range_meters":8000,"station_id":"","pricing_plan_id":"cebpf4jnsgd1na2vs0mg"},{"bike_id":"667a8115-c025-4bf7-9ff4-f5acd84dd723","system_id":"levelo_inurba_marseille","lat":43.29812,"lon":5.44077,"is_reserved":false,"is_disabled":false,"rental_uris":{"android":"levelo://app?vid=667a8115-c025-4bf7-9ff4-f5acd84dd723","ios":"levelo://app?vid=667a8115-c025-4bf7-9ff4-f5acd84dd723"},"vehicle_type_id":"4","last_reported":1769931024,"current_range_meters":8000,"station_id":"st_d3jp68qikq2c7381ktn0","pricing_plan_id":"cebpf4jnsgd1na2vs0mg"},{"bike_id":"1b9e7bf5-f399-4b7a-935f-44d1badb48a9","system_id":"levelo_inurba_marseille","lat":43.292661,"lon":5.384371,"is_reserved":false,"is_disabled":false,"rental_uris":{"android":"levelo://app?vid=1b9e7bf5-f399-4b7a-935f-44d1badb48a9","ios":"levelo://app?vid=1b9e7bf5-f399-4b7a-935f-44d1badb48a9"},"vehicle_type_id":"4","last_reported":1769931024,"current_range_meters":8000,"station_id":"ce4bh3p2rcd13ifvqdp0","pricing_plan_id":"cebpf4jnsgd1na2vs0mg"},{"bike_id":"b839137b-0a8e-4fb5-af84-e07b5e0e60bc","system_id":"levelo_inurba_marseille","lat":43.26369,"lon":5.41084,"is_reserved":false,"is_disabled":false,"rental_uris":{"android":"levelo://app?vid=b839137b-0a8e-4fb5-af84-e07b5e0e60bc","ios":"levelo://app?vid=b839137b-0a8e-4fb5-af84-e07b5e0e60bc"},"vehicle_type_id":"4","last_reported":1769931024,"current_range_meters":8000,"station_id":"st_d4e5ca6na9uc73bfl5fg","pricing_plan_id":"cebpf4jnsgd1na2vs0mg"},{"bike_id":"2c9d9ec4-87d2-4a0f-9375-615bf9c41c46","system_id":"levelo_inurba_marseille","lat":43.26182,"lon":5.37453,"is_reserved":false,"is_disabled":false,"rental_uris":{"android":"levelo://app?vid=2c9d9ec4-87d2-4a0f-9375-615bf9c41c46","ios":"levelo://app?vid=2c9d9ec4-87d2-4a0f-9375-615bf9c41c46"},"vehicle_type_id":"4","last_reported":1769931024,"current_range_meters":8000,"station_id":"ce4bhgp2rcd13ifvqfc0","pricing_plan_id":"cebpf4jnsgd1na2vs0mg"},{"bike_id":"935bb1e1-ef06-45ae-8872-378ba3a79a19","system_id":"levelo_inurba_marseille","lat":43.309235,"lon":5.401412,"is_reserved":false,"is_disabled":false,"rental_uris":{"android":"levelo://app?vid=935bb1e1-ef06-45ae-8872-378ba3a79a19","ios":"levelo://app?vid=935bb1e1-ef06-45ae-8872-378ba3a79a19"},"vehicle_type_id":"4","last_reported":1769931024,"current_range_meters":8000,"station_id":"ce4bgvp2rcd13ifvqct0","pricing_plan_id":"cebpf4jnsgd1na2vs0mg"},{"bike_id":"767dc731-f365-45e9-b7a0-0144ed9ff9a5","system_id":"levelo_inurba_marseille","lat":43.31203,"lon":5.36859,"is_reserved":false,"is_disabled":false,"rental_uris":{"android":"levelo://app?vid=767dc731-f365-45e9-b7a0-0144ed9ff9a5","ios":"levelo://app?vid=767dc731-f365-45e9-b7a0-0144ed9ff9a5"},"vehicle_type_id":"4","last_reported":1769931024,"current_range_meters":8000,"station_id":"ce4bgl92rcd13ifvqbq0","pricing_plan_id":"cebpf4jnsgd1na2vs0mg"},{"bike_id":"1b66b988-980e-4a67-85f9-95de820b03bb","system_id":"levelo_inurba_marseille","lat":43.31067,"lon":5.38354,"is_reserved":false,"is_disabled":false,"rental_uris":{"android":"levelo://app?vid=1b66b988-980e-4a67-85f9-95de820b03bb","ios":"levelo://app?vid=1b66b988-980e-4a67-85f9-95de820b03bb"},"vehicle_type_id":"4","last_reported":1769931024,"current_range_meters":8000,"station_id":"ce4bgv92rcd13ifvqcr0","pricing_plan_id":"cebpf4jnsgd1na2vs0mg"},{"bike_id":"fdd2fa3c-e616-4a70-8908-7dce39319097","system_id":"levelo_inurba_marseille","lat":43.310716,"lon":5.383549,"is_reserved":false,"is_disabled":false,"rental_uris":{"android":"levelo://app?vid=fdd2fa3c-e616-4a70-8908-7dce39319097","ios":"levelo://app?vid=fdd2fa3c-e616-4a70-8908-7dce39319097"},"vehicle_type_id":"4","last_reported":1769931024,"current_range_meters":8000,"station_id":"ce4bgv92rcd13ifvqcr0","pricing_plan_id":"cebpf4jnsgd1na2vs0mg"},{"bike_id":"26bd2557-3046-4212-82fc-da1fdbd42b2c","system_id":"levelo_inurba_marseille","lat":43.28522,"lon":5.4412,"is_reserved":false,"is_disabled":false,"rental_uris":{"android":"levelo://app?vid=26bd2557-3046-4212-82fc-da1fdbd42b2c","ios":"levelo://app?vid=26bd2557-3046-4212-82fc-da1fdbd42b2c"},"vehicle_type_id":"4","last_reported":1769931024,"current_range_meters":8000,"station_id":"st_d3j3df2ikq2c7380ej80","pricing_plan_id":"cebpf4jnsgd1na2vs0mg"},{"bike_id":"2faa9fe0-abb5-4943-ad0c-3af90cda9fc7","system_id":"levelo_inurba_marseille","lat":43.27991,"lon":5.41667,"is_reserved":false,"is_disabled":false,"rental_uris":{"android":"levelo://app?vid=2faa9fe0-abb5-4943-ad0c-3af90cda9fc7","ios":"levelo://app?vid=2faa9fe0-abb5-4943-ad0c-3af90cda9fc7"},"vehicle_type_id":"4","last_reported":1769931024,"current_range_meters":8000,"station_id":"ce4bho12rcd13ifvqh1g","pricing_plan_id":"cebpf4jnsgd1na2vs0mg"},{"bike_id":"fdb152c1-6e47-4a4a-a2d9-3ab5de199a7b","system_id":"levelo_inurba_marseille","lat":43.25862,"lon":5.39903,"is_reserved":false,"is_disabled":false,"rental_uris":{"android":"levelo://app?vid=fdb152c1-6e47-4a4a-a2d9-3ab5de199a7b","ios":"levelo://app?vid=fdb152c1-6e47-4a4a-a2d9-3ab5de199a7b"},"vehicle_type_id":"4","last_reported":1769931024,"current_range_meters":8000,"station_id":"ce4bhl92rcd13ifvqghg","pricing_plan_id":"cebpf4jnsgd1na2vs0mg"},{"bike_id":"16ff074f-bc01-46e6-afd4-16d11e14e883","system_id":"levelo_inurba_marseille","lat":43.29933,"lon":5.38156,"is_reserved":false,"is_disabled":false,"rental_uris":{"android":"levelo://app?vid=16ff074f-bc01-46e6-afd4-16d11e14e883","ios":"levelo://app?vid=16ff074f-bc01-46e6-afd4-16d11e14e883"},"vehicle_type_id":"4","last_reported":1769931024,"current_range_meters":8000,"station_id":"ce4bgj12rcd13ifvqbc0","pricing_plan_id":"cebpf4jnsgd1na2vs0mg"},{"bike_id":"99da9daa-2a07-4749-a52e-c8ec1377f28d","system_id":"levelo_inurba_marseille","lat":43.23216,"lon":5.35558,"is_reserved":false,"is_disabled":false,"rental_uris":{"android":"levelo://app?vid=99da9daa-2a07-4749-a52e-c8ec1377f28d","ios":"levelo://app?vid=99da9daa-2a07-4749-a52e-c8ec1377f28d"},"vehicle_type_id":"4","last_reported":1769931024,"current_range_meters":8000,"station_id":"ce4bhu92rcd13ifvqi70","pricing_plan_id":"cebpf4jnsgd1na2vs0mg"},{"bike_id":"bd3e9f4a-b909-4049-a15b-7cd6caee90b2","system_id":"levelo_inurba_marseille","lat":43.3015,"lon":5.38091,"is_reserved":false,"is_disabled":false,"rental_uris":{"android":"levelo://app?vid=bd3e9f4a-b909-4049-a15b-7cd6caee90b2","ios":"levelo://app?vid=bd3e9f4a-b909-4049-a15b-7cd6caee90b2"},"vehicle_type_id":"4","last_reported":1769931024,"current_range_meters":8000,"station_id":"ce4bgjp2rcd13ifvqbh0","pricing_plan_id":"cebpf4jnsgd1na2vs0mg"},{"bike_id":"0b595329-88a5-4dab-8a2c-b70bbda22e84","system_id":"levelo_inurba_marseille","lat":43.27929,"lon":5.41046,"is_reserved":false,"is_disabled":false,"rental_uris":{"android":"levelo://app?vid=0b595329-88a5-4dab-8a2c-b70bbda22e84","ios":"levelo://app?vid=0b595329-88a5-4dab-8a2c-b70bbda22e84"},"vehicle_type_id":"4","last_reported":1769931024,"current_range_meters":8000,"station_id":"ce4bhnp2rcd13ifvqh0g","pricing_plan_id":"cebpf4jnsgd1na2vs0mg"},{"bike_id":"4e9c4013-698b-41c0-b7c8-ea7e558f61a3","system_id":"levelo_inurba_marseille","lat":43.26757,"lon":5.39826,"is_reserved":false,"is_disabled":false,"rental_uris":{"android":"levelo://app?vid=4e9c4013-698b-41c0-b7c8-ea7e558f61a3","ios":"levelo://app?vid=4e9c4013-698b-41c0-b7c8-ea7e558f61a3"},"vehicle_type_id":"4","last_reported":1769931024,"current_range_meters":8000,"station_id":"ce4bhh12rcd13ifvqfg0","pricing_plan_id":"cebpf4jnsgd1na2vs0mg"},{"bike_id":"479e280d-6f59-4cb3-b941-fd6915cbd251","system_id":"levelo_inurba_marseille","lat":43.2861,"lon":5.3987,"is_reserved":false,"is_disabled":false,"rental_uris":{"android":"levelo://app?vid=479e280d-6f59-4cb3-b941-fd6915cbd251","ios":"levelo://app?vid=479e280d-6f59-4cb3-b941-fd6915cbd251"},"vehicle_type_id":"4","last_reported":1769931024,"current_range_meters":8000,"station_id":"ce4bho92rcd13ifvqh3g","pricing_plan_id":"cebpf4jnsgd1na2vs0mg"},{"bike_id":"967e1832-468e-48d4-b164-1bb5ff385d3e","system_id":"levelo_inurba_marseille","lat":43.24631,"lon":5.43154,"is_reserved":false,"is_disabled":false,"rental_uris":{"android":"levelo://app?vid=967e1832-468e-48d4-b164-1bb5ff385d3e","ios":"levelo://app?vid=967e1832-468e-48d4-b164-1bb5ff385d3e"},"vehicle_type_id":"4","last_reported":1769931024,"current_range_meters":8000,"station_id":"st_d2m6c4gdas8pm72e190g","pricing_plan_id":"cebpf4jnsgd1na2vs0mg"},{"bike_id":"ee39f90f-3222-4732-9961-b784c72f0999","system_id":"levelo_inurba_marseille","lat":43.23195,"lon":5.3556,"is_reserved":false,"is_disabled":false,"rental_uris":{"android":"levelo://app?vid=ee39f90f-3222-4732-9961-b784c72f0999","ios":"levelo://app?vid=ee39f90f-3222-4732-9961-b784c72f0999"},"vehicle_type_id":"4","last_reported":1769931024,"current_range_meters":8000,"station_id":"ce4bhu92rcd13ifvqi70","pricing_plan_id":"cebpf4jnsgd1na2vs0mg"},{"bike_id":"b4fbeb64-1fb9-4178-ae15-4108561043c9","system_id":"levelo_inurba_marseille","lat":43.24644,"lon":5.38886,"is_reserved":false,"is_disabled":false,"rental_uris":{"android":"levelo://app?vid=b4fbeb64-1fb9-4178-ae15-4108561043c9","ios":"levelo://app?vid=b4fbeb64-1fb9-4178-ae15-4108561043c9"},"vehicle_type_id":"4","last_reported":1769931024,"current_range_meters":8400,"station_id":"ce4bhg12rcd13ifvqf60","pricing_plan_id":"cebpf4jnsgd1na2vs0mg"},{"bike_id":"87a354e2-aacd-4ec9-ade6-6f6c8860ce28","system_id":"levelo_inurba_marseille","lat":43.28042,"lon":5.36955,"is_reserved":false,"is_disabled":false,"rental_uris":{"android":"levelo://app?vid=87a354e2-aacd-4ec9-ade6-6f6c8860ce28","ios":"levelo://app?vid=87a354e2-aacd-4ec9-ade6-6f6c8860ce28"},"vehicle_type_id":"4","last_reported":1769931024,"current_range_meters":8400,"station_id":"ce4bha12rcd13ifvqef0","pricing_plan_id":"cebpf4jnsgd1na2vs0mg"},{"bike_id":"7538f3bc-c504-457b-8867-886447e19dda","system_id":"levelo_inurba_marseille","lat":43.28025,"lon":5.36944,"is_reserved":false,"is_disabled":false,"rental_uris":{"android":"levelo://app?vid=7538f3bc-c504-457b-8867-886447e19dda","ios":"levelo://app?vid=7538f3bc-c504-457b-8867-886447e19dda"},"vehicle_type_id":"4","last_reported":1769931024,"current_range_meters":8400,"station_id":"ce4bha12rcd13ifvqef0","pricing_plan_id":"cebpf4jnsgd1na2vs0mg"},{"bike_id":"a5fa5eb4-dba4-4657-ad87-40acdd8b2f31","system_id":"levelo_inurba_marseille","lat":43.31072,"lon":5.42433,"is_reserved":false,"is_disabled":false,"rental_uris":{"android":"levelo://app?vid=a5fa5eb4-dba4-4657-ad87-40acdd8b2f31","ios":"levelo://app?vid=a5fa5eb4-dba4-4657-ad87-40acdd8b2f31"},"vehicle_type_id":"4","last_reported":1769931024,"current_range_meters":8400,"station_id":"ce4bhp92rcd13ifvqhag","pricing_plan_id":"cebpf4jnsgd1na2vs0mg"},{"bike_id":"c264a993-cd3d-4651-98f5-66184e7cd94c","system_id":"levelo_inurba_marseille","lat":43.2396,"lon":5.36649,"is_reserved":false,"is_disabled":false,"rental_uris":{"android":"levelo://app?vid=c264a993-cd3d-4651-98f5-66184e7cd94c","ios":"levelo://app?vid=c264a993-cd3d-4651-98f5-66184e7cd94c"},"vehicle_type_id":"4","last_reported":1769931024,"current_range_meters":8400,"station_id":"ce4bhi12rcd13ifvqfp0","pricing_plan_id":"cebpf4jnsgd1na2vs0mg"},{"bike_id":"93e60425-8aae-4f4b-b447-57ef8147db67","system_id":"levelo_inurba_marseille","lat":43.28491,"lon":5.48396,"is_reserved":false,"is_disabled":false,"rental_uris":{"android":"levelo://app?vid=93e60425-8aae-4f4b-b447-57ef8147db67","ios":"levelo://app?vid=93e60425-8aae-4f4b-b447-57ef8147db67"},"vehicle_type_id":"4","last_reported":1769931024,"current_range_meters":8400,"station_id":"st_d3svhcjqgbts73a3dn0g","pricing_plan_id":"cebpf4jnsgd1na2vs0mg"},{"bike_id":"5e1c4385-fefc-40d8-9043-9539df7efdd8","system_id":"levelo_inurba_marseille","lat":43.337444,"lon":5.374475,"is_reserved":false,"is_disabled":false,"rental_uris":{"android":"levelo://app?vid=5e1c4385-fefc-40d8-9043-9539df7efdd8","ios":"levelo://app?vid=5e1c4385-fefc-40d8-9043-9539df7efdd8"},"vehicle_type_id":"4","last_reported":1769931024,"current_range_meters":8400,"station_id":"ce4bhbp2rcd13ifvqesg","pricing_plan_id":"cebpf4jnsgd1na2vs0mg"},{"bike_id":"94dc4ea4-8afe-49be-8c24-144fdf1722a8","system_id":"levelo_inurba_marseille","lat":43.24555,"lon":5.39531,"is_reserved":false,"is_disabled":false,"rental_uris":{"android":"levelo://app?vid=94dc4ea4-8afe-49be-8c24-144fdf1722a8","ios":"levelo://app?vid=94dc4ea4-8afe-49be-8c24-144fdf1722a8"},"vehicle_type_id":"4","last_reported":1769931024,"current_range_meters":8400,"station_id":"ce4bhlp2rcd13ifvqgjg","pricing_plan_id":"cebpf4jnsgd1na2vs0mg"},{"bike_id":"a9976113-461f-4068-baa6-28ae0013e332","system_id":"levelo_inurba_marseille","lat":43.2535,"lon":5.42162,"is_reserved":false,"is_disabled":false,"rental_uris":{"android":"levelo://app?vid=a9976113-461f-4068-baa6-28ae0013e332","ios":"levelo://app?vid=a9976113-461f-4068-baa6-28ae0013e332"},"vehicle_type_id":"4","last_reported":1769931024,"current_range_meters":8400,"station_id":"st_d2m65c5bi1j21697t3ng","pricing_plan_id":"cebpf4jnsgd1na2vs0mg"},{"bike_id":"89da0557-2c6e-4998-90ca-afc2b5a8c88d","system_id":"levelo_inurba_marseille","lat":43.279515,"lon":5.410466,"is_reserved":false,"is_disabled":false,"rental_uris":{"android":"levelo://app?vid=89da0557-2c6e-4998-90ca-afc2b5a8c88d","ios":"levelo://app?vid=89da0557-2c6e-4998-90ca-afc2b5a8c88d"},"vehicle_type_id":"4","last_reported":1769931024,"current_range_meters":8400,"station_id":"ce4bhnp2rcd13ifvqh0g","pricing_plan_id":"cebpf4jnsgd1na2vs0mg"},{"bike_id":"fb24d3d1-fd60-4775-b723-157c13e8fff0","system_id":"levelo_inurba_marseille","lat":43.255,"lon":5.37674,"is_reserved":false,"is_disabled":false,"rental_uris":{"android":"levelo://app?vid=fb24d3d1-fd60-4775-b723-157c13e8fff0","ios":"levelo://app?vid=fb24d3d1-fd60-4775-b723-157c13e8fff0"},"vehicle_type_id":"4","last_reported":1769931024,"current_range_meters":8400,"station_id":"ce4bhh12rcd13ifvqff0","pricing_plan_id":"cebpf4jnsgd1na2vs0mg"},{"bike_id":"75e7e0f4-e18b-4bc3-90c8-b9bce55601cb","system_id":"levelo_inurba_marseille","lat":43.2534,"lon":5.42176,"is_reserved":false,"is_disabled":false,"rental_uris":{"android":"levelo://app?vid=75e7e0f4-e18b-4bc3-90c8-b9bce55601cb","ios":"levelo://app?vid=75e7e0f4-e18b-4bc3-90c8-b9bce55601cb"},"vehicle_type_id":"4","last_reported":1769931024,"current_range_meters":8400,"station_id":"st_d2m65c5bi1j21697t3ng","pricing_plan_id":"cebpf4jnsgd1na2vs0mg"},{"bike_id":"fadbe387-3d5b-4703-ac68-6d85711afca8","system_id":"levelo_inurba_marseille","lat":43.2926,"lon":5.40915,"is_reserved":false,"is_disabled":false,"rental_uris":{"android":"levelo://app?vid=fadbe387-3d5b-4703-ac68-6d85711afca8","ios":"levelo://app?vid=fadbe387-3d5b-4703-ac68-6d85711afca8"},"vehicle_type_id":"4","last_reported":1769931024,"current_range_meters":8400,"station_id":"ce4bh192rcd13ifvqdc0","pricing_plan_id":"cebpf4jnsgd1na2vs0mg"},{"bike_id":"a9f8424b-3446-4c64-b24c-6046f8154431","system_id":"levelo_inurba_marseille","lat":43.26667,"lon":5.38262,"is_reserved":false,"is_disabled":false,"rental_uris":{"android":"levelo://app?vid=a9f8424b-3446-4c64-b24c-6046f8154431","ios":"levelo://app?vid=a9f8424b-3446-4c64-b24c-6046f8154431"},"vehicle_type_id":"4","last_reported":1769931024,"current_range_meters":8800,"station_id":"ce4bhg92rcd13ifvqf90","pricing_plan_id":"cebpf4jnsgd1na2vs0mg"},{"bike_id":"0a1300ad-2f14-46b7-8956-d36a4a430b42","system_id":"levelo_inurba_marseille","lat":43.24797,"lon":5.37449,"is_reserved":false,"is_disabled":false,"rental_uris":{"android":"levelo://app?vid=0a1300ad-2f14-46b7-8956-d36a4a430b42","ios":"levelo://app?vid=0a1300ad-2f14-46b7-8956-d36a4a430b42"},"vehicle_type_id":"4","last_reported":1769931024,"current_range_meters":8800,"station_id":"ce4bhgh2rcd13ifvqfb0","pricing_plan_id":"cebpf4jnsgd1na2vs0mg"},{"bike_id":"a825a34e-c66c-4578-9dd4-68f63a09f21e","system_id":"levelo_inurba_marseille","lat":43.2738,"lon":5.36268,"is_reserved":false,"is_disabled":false,"rental_uris":{"android":"levelo://app?vid=a825a34e-c66c-4578-9dd4-68f63a09f21e","ios":"levelo://app?vid=a825a34e-c66c-4578-9dd4-68f63a09f21e"},"vehicle_type_id":"4","last_reported":1769931024,"current_range_meters":8800,"station_id":"ce4bhbh2rcd13ifvqeo0","pricing_plan_id":"cebpf4jnsgd1na2vs0mg"},{"bike_id":"d431d2dc-fe64-4d55-be3e-18b6291747e9","system_id":"levelo_inurba_marseille","lat":43.23062,"lon":5.35487,"is_reserved":false,"is_disabled":false,"rental_uris":{"android":"levelo://app?vid=d431d2dc-fe64-4d55-be3e-18b6291747e9","ios":"levelo://app?vid=d431d2dc-fe64-4d55-be3e-18b6291747e9"},"vehicle_type_id":"4","last_reported":1769931024,"current_range_meters":8800,"station_id":"cpo3342slgdg3j2ifvpg","pricing_plan_id":"cebpf4jnsgd1na2vs0mg"},{"bike_id":"33073528-1e22-401a-900c-0ca191a8c4cf","system_id":"levelo_inurba_marseille","lat":43.22559,"lon":5.41623,"is_reserved":false,"is_disabled":false,"rental_uris":{"android":"levelo://app?vid=33073528-1e22-401a-900c-0ca191a8c4cf","ios":"levelo://app?vid=33073528-1e22-401a-900c-0ca191a8c4cf"},"vehicle_type_id":"4","last_reported":1769931024,"current_range_meters":8800,"station_id":"st_d2o4gvlbi1j2169b742g","pricing_plan_id":"cebpf4jnsgd1na2vs0mg"},{"bike_id":"8a9caeca-dfdf-438d-b0bf-186e18fcd4d1","system_id":"levelo_inurba_marseille","lat":43.30789,"lon":5.37653,"is_reserved":false,"is_disabled":false,"rental_uris":{"android":"levelo://app?vid=8a9caeca-dfdf-438d-b0bf-186e18fcd4d1","ios":"levelo://app?vid=8a9caeca-dfdf-438d-b0bf-186e18fcd4d1"},"vehicle_type_id":"4","last_reported":1769931024,"current_range_meters":8800,"station_id":"ce4bgv92rcd13ifvqcq0","pricing_plan_id":"cebpf4jnsgd1na2vs0mg"},{"bike_id":"fd887aca-98e1-464f-84ac-e7817b808a75","system_id":"levelo_inurba_marseille","lat":43.243881,"lon":5.370511,"is_reserved":false,"is_disabled":false,"rental_uris":{"android":"levelo://app?vid=fd887aca-98e1-464f-84ac-e7817b808a75","ios":"levelo://app?vid=fd887aca-98e1-464f-84ac-e7817b808a75"},"vehicle_type_id":"4","last_reported":1769931024,"current_range_meters":8800,"station_id":"ce4bhhh2rcd13ifvqfk0","pricing_plan_id":"cebpf4jnsgd1na2vs0mg"},{"bike_id":"9a33dce1-dc39-4321-bb31-de526033ba76","system_id":"levelo_inurba_marseille","lat":43.309296,"lon":5.401598,"is_reserved":false,"is_disabled":false,"rental_uris":{"android":"levelo://app?vid=9a33dce1-dc39-4321-bb31-de526033ba76","ios":"levelo://app?vid=9a33dce1-dc39-4321-bb31-de526033ba76"},"vehicle_type_id":"4","last_reported":1769931024,"current_range_meters":8800,"station_id":"ce4bgvp2rcd13ifvqct0","pricing_plan_id":"cebpf4jnsgd1na2vs0mg"},{"bike_id":"2b052603-1775-4258-80ad-ae63b6286ef5","system_id":"levelo_inurba_marseille","lat":43.29745,"lon":5.35947,"is_reserved":false,"is_disabled":true,"rental_uris":{"android":"levelo://app?vid=2b052603-1775-4258-80ad-ae63b6286ef5","ios":"levelo://app?vid=2b052603-1775-4258-80ad-ae63b6286ef5"},"vehicle_type_id":"4","last_reported":1769931024,"current_range_meters":8800,"station_id":"","pricing_plan_id":"cebpf4jnsgd1na2vs0mg"},{"bike_id":"fef69268-649b-47e7-8506-c54d12be9f6f","system_id":"levelo_inurba_marseille","lat":43.29021,"lon":5.35589,"is_reserved":false,"is_disabled":false,"rental_uris":{"android":"levelo://app?vid=fef69268-649b-47e7-8506-c54d12be9f6f","ios":"levelo://app?vid=fef69268-649b-47e7-8506-c54d12be9f6f"},"vehicle_type_id":"4","last_reported":1769931024,"current_range_meters":8800,"station_id":"ce4bhb92rcd13ifvqen0","pricing_plan_id":"cebpf4jnsgd1na2vs0mg"},{"bike_id":"8955a00b-cb7d-4c6b-bd4d-640663902a3f","system_id":"levelo_inurba_marseille","lat":43.29656,"lon":5.38148,"is_reserved":false,"is_disabled":false,"rental_uris":{"android":"levelo://app?vid=8955a00b-cb7d-4c6b-bd4d-640663902a3f","ios":"levelo://app?vid=8955a00b-cb7d-4c6b-bd4d-640663902a3f"},"vehicle_type_id":"4","last_reported":1769931024,"current_range_meters":8800,"station_id":"","pricing_plan_id":"cebpf4jnsgd1na2vs0mg"},{"bike_id":"6632b7eb-39fd-4ac6-ab18-a3a8fd79732f","system_id":"levelo_inurba_marseille","lat":43.30879,"lon":5.37162,"is_reserved":false,"is_disabled":false,"rental_uris":{"android":"levelo://app?vid=6632b7eb-39fd-4ac6-ab18-a3a8fd79732f","ios":"levelo://app?vid=6632b7eb-39fd-4ac6-ab18-a3a8fd79732f"},"vehicle_type_id":"4","last_reported":1769931024,"current_range_meters":8800,"station_id":"ce4bguh2rcd13ifvqckg","pricing_plan_id":"cebpf4jnsgd1na2vs0mg"},{"bike_id":"07fa3d21-cf03-4fb9-b9d4-dde85401ad36","system_id":"levelo_inurba_marseille","lat":43.28412,"lon":5.3752,"is_reserved":false,"is_disabled":false,"rental_uris":{"android":"levelo://app?vid=07fa3d21-cf03-4fb9-b9d4-dde85401ad36","ios":"levelo://app?vid=07fa3d21-cf03-4fb9-b9d4-dde85401ad36"},"vehicle_type_id":"4","last_reported":1769931024,"current_range_meters":8800,"station_id":"ce4bh412rcd13ifvqds0","pricing_plan_id":"cebpf4jnsgd1na2vs0mg"},{"bike_id":"58982c61-2f00-4e02-b620-223b4d372a1d","system_id":"levelo_inurba_marseille","lat":43.25579,"lon":5.38224,"is_reserved":false,"is_disabled":false,"rental_uris":{"android":"levelo://app?vid=58982c61-2f00-4e02-b620-223b4d372a1d","ios":"levelo://app?vid=58982c61-2f00-4e02-b620-223b4d372a1d"},"vehicle_type_id":"4","last_reported":1769931024,"current_range_meters":8800,"station_id":"ce4bhih2rcd13ifvqfs0","pricing_plan_id":"cebpf4jnsgd1na2vs0mg"},{"bike_id":"4c0f3e6f-cc59-4fa3-8db1-0440ae264a51","system_id":"levelo_inurba_marseille","lat":43.3093,"lon":5.40125,"is_reserved":false,"is_disabled":false,"rental_uris":{"android":"levelo://app?vid=4c0f3e6f-cc59-4fa3-8db1-0440ae264a51","ios":"levelo://app?vid=4c0f3e6f-cc59-4fa3-8db1-0440ae264a51"},"vehicle_type_id":"4","last_reported":1769931024,"current_range_meters":9200,"station_id":"ce4bgvp2rcd13ifvqct0","pricing_plan_id":"cebpf4jnsgd1na2vs0mg"},{"bike_id":"f1afd73d-ec70-4dba-ac5d-df0bb8cc8cb8","system_id":"levelo_inurba_marseille","lat":43.24649,"lon":5.43168,"is_reserved":false,"is_disabled":false,"rental_uris":{"android":"levelo://app?vid=f1afd73d-ec70-4dba-ac5d-df0bb8cc8cb8","ios":"levelo://app?vid=f1afd73d-ec70-4dba-ac5d-df0bb8cc8cb8"},"vehicle_type_id":"4","last_reported":1769931024,"current_range_meters":9200,"station_id":"st_d2m6c4gdas8pm72e190g","pricing_plan_id":"cebpf4jnsgd1na2vs0mg"},{"bike_id":"6a3abae2-fb8c-40ee-86c3-dba4ebed61da","system_id":"levelo_inurba_marseille","lat":43.28929,"lon":5.36638,"is_reserved":false,"is_disabled":false,"rental_uris":{"android":"levelo://app?vid=6a3abae2-fb8c-40ee-86c3-dba4ebed61da","ios":"levelo://app?vid=6a3abae2-fb8c-40ee-86c3-dba4ebed61da"},"vehicle_type_id":"4","last_reported":1769931024,"current_range_meters":9200,"station_id":"ce4bhap2rcd13ifvqek0","pricing_plan_id":"cebpf4jnsgd1na2vs0mg"},{"bike_id":"3c9bc6df-6dc5-4749-8484-3a081a572fd1","system_id":"levelo_inurba_marseille","lat":43.2666,"lon":5.38301,"is_reserved":false,"is_disabled":false,"rental_uris":{"android":"levelo://app?vid=3c9bc6df-6dc5-4749-8484-3a081a572fd1","ios":"levelo://app?vid=3c9bc6df-6dc5-4749-8484-3a081a572fd1"},"vehicle_type_id":"4","last_reported":1769931024,"current_range_meters":9200,"station_id":"ce4bhg92rcd13ifvqf90","pricing_plan_id":"cebpf4jnsgd1na2vs0mg"},{"bike_id":"d2ee53f1-49b6-44a6-a171-d364ff8162cf","system_id":"levelo_inurba_marseille","lat":43.333803,"lon":5.431013,"is_reserved":false,"is_disabled":false,"rental_uris":{"android":"levelo://app?vid=d2ee53f1-49b6-44a6-a171-d364ff8162cf","ios":"levelo://app?vid=d2ee53f1-49b6-44a6-a171-d364ff8162cf"},"vehicle_type_id":"4","last_reported":1769931024,"current_range_meters":9200,"station_id":"","pricing_plan_id":"cebpf4jnsgd1na2vs0mg"},{"bike_id":"cb16a0fb-a0f9-4601-ab2a-91a6d88760fa","system_id":"levelo_inurba_marseille","lat":43.26564,"lon":5.40335,"is_reserved":false,"is_disabled":false,"rental_uris":{"android":"levelo://app?vid=cb16a0fb-a0f9-4601-ab2a-91a6d88760fa","ios":"levelo://app?vid=cb16a0fb-a0f9-4601-ab2a-91a6d88760fa"},"vehicle_type_id":"4","last_reported":1769931024,"current_range_meters":9200,"station_id":"ce4bhmp2rcd13ifvqgng","pricing_plan_id":"cebpf4jnsgd1na2vs0mg"},{"bike_id":"770f2f22-15f8-4987-b971-690af65785ff","system_id":"levelo_inurba_marseille","lat":43.265619,"lon":5.403203,"is_reserved":false,"is_disabled":false,"rental_uris":{"android":"levelo://app?vid=770f2f22-15f8-4987-b971-690af65785ff","ios":"levelo://app?vid=770f2f22-15f8-4987-b971-690af65785ff"},"vehicle_type_id":"4","last_reported":1769931024,"current_range_meters":9200,"station_id":"ce4bhmp2rcd13ifvqgng","pricing_plan_id":"cebpf4jnsgd1na2vs0mg"},{"bike_id":"b00753f6-9e43-40ef-9959-628446071746","system_id":"levelo_inurba_marseille","lat":43.27806,"lon":5.40719,"is_reserved":false,"is_disabled":true,"rental_uris":{"android":"levelo://app?vid=b00753f6-9e43-40ef-9959-628446071746","ios":"levelo://app?vid=b00753f6-9e43-40ef-9959-628446071746"},"vehicle_type_id":"4","last_reported":1769931024,"current_range_meters":9200,"station_id":"ce4bhnh2rcd13ifvqgtg","pricing_plan_id":"cebpf4jnsgd1na2vs0mg"},{"bike_id":"4c50b102-00aa-40e2-83bd-5e90d2e54b17","system_id":"levelo_inurba_marseille","lat":43.28,"lon":5.4002,"is_reserved":false,"is_disabled":false,"rental_uris":{"android":"levelo://app?vid=4c50b102-00aa-40e2-83bd-5e90d2e54b17","ios":"levelo://app?vid=4c50b102-00aa-40e2-83bd-5e90d2e54b17"},"vehicle_type_id":"4","last_reported":1769931024,"current_range_meters":9200,"station_id":"ce4bho92rcd13ifvqh4g","pricing_plan_id":"cebpf4jnsgd1na2vs0mg"},{"bike_id":"3974ebe5-3070-4140-8de4-6e1a67d32b2b","system_id":"levelo_inurba_marseille","lat":43.296,"lon":5.36778,"is_reserved":false,"is_disabled":false,"rental_uris":{"android":"levelo://app?vid=3974ebe5-3070-4140-8de4-6e1a67d32b2b","ios":"levelo://app?vid=3974ebe5-3070-4140-8de4-6e1a67d32b2b"},"vehicle_type_id":"4","last_reported":1769931024,"current_range_meters":9200,"station_id":"ce4bgph2rcd13ifvqc2g","pricing_plan_id":"cebpf4jnsgd1na2vs0mg"},{"bike_id":"282b4c58-6430-4481-adf2-6fc926d2a7c4","system_id":"levelo_inurba_marseille","lat":43.23196,"lon":5.35573,"is_reserved":false,"is_disabled":false,"rental_uris":{"android":"levelo://app?vid=282b4c58-6430-4481-adf2-6fc926d2a7c4","ios":"levelo://app?vid=282b4c58-6430-4481-adf2-6fc926d2a7c4"},"vehicle_type_id":"4","last_reported":1769931024,"current_range_meters":9200,"station_id":"ce4bhu92rcd13ifvqi70","pricing_plan_id":"cebpf4jnsgd1na2vs0mg"},{"bike_id":"4ad2da66-d00a-4006-af72-87c62567c87f","system_id":"levelo_inurba_marseille","lat":43.310352,"lon":5.385988,"is_reserved":false,"is_disabled":false,"rental_uris":{"android":"levelo://app?vid=4ad2da66-d00a-4006-af72-87c62567c87f","ios":"levelo://app?vid=4ad2da66-d00a-4006-af72-87c62567c87f"},"vehicle_type_id":"4","last_reported":1769931024,"current_range_meters":9200,"station_id":"","pricing_plan_id":"cebpf4jnsgd1na2vs0mg"},{"bike_id":"fe0abf65-6c9a-43ba-9e53-ad8b3a2f1bef","system_id":"levelo_inurba_marseille","lat":43.24544,"lon":5.39532,"is_reserved":false,"is_disabled":false,"rental_uris":{"android":"levelo://app?vid=fe0abf65-6c9a-43ba-9e53-ad8b3a2f1bef","ios":"levelo://app?vid=fe0abf65-6c9a-43ba-9e53-ad8b3a2f1bef"},"vehicle_type_id":"4","last_reported":1769931024,"current_range_meters":9200,"station_id":"ce4bhlp2rcd13ifvqgjg","pricing_plan_id":"cebpf4jnsgd1na2vs0mg"},{"bike_id":"f152d78c-f2e0-4c77-8d6e-dd0072285ace","system_id":"levelo_inurba_marseille","lat":43.249526,"lon":5.404903,"is_reserved":false,"is_disabled":false,"rental_uris":{"android":"levelo://app?vid=f152d78c-f2e0-4c77-8d6e-dd0072285ace","ios":"levelo://app?vid=f152d78c-f2e0-4c77-8d6e-dd0072285ace"},"vehicle_type_id":"4","last_reported":1769931024,"current_range_meters":9200,"station_id":"st_d2ngiaodas8pm72gd1h0","pricing_plan_id":"cebpf4jnsgd1na2vs0mg"},{"bike_id":"3b3a202d-165e-435b-bccc-86ec2425e7db","system_id":"levelo_inurba_marseille","lat":43.24471,"lon":5.42535,"is_reserved":false,"is_disabled":false,"rental_uris":{"android":"levelo://app?vid=3b3a202d-165e-435b-bccc-86ec2425e7db","ios":"levelo://app?vid=3b3a202d-165e-435b-bccc-86ec2425e7db"},"vehicle_type_id":"4","last_reported":1769931024,"current_range_meters":9200,"station_id":"st_d4a3vfp97mjs738cd8kg","pricing_plan_id":"cebpf4jnsgd1na2vs0mg"},{"bike_id":"988398a3-7ea1-401c-9290-5cadcd4b0590","system_id":"levelo_inurba_marseille","lat":43.250079,"lon":5.389281,"is_reserved":false,"is_disabled":false,"rental_uris":{"android":"levelo://app?vid=988398a3-7ea1-401c-9290-5cadcd4b0590","ios":"levelo://app?vid=988398a3-7ea1-401c-9290-5cadcd4b0590"},"vehicle_type_id":"4","last_reported":1769931024,"current_range_meters":9200,"station_id":"ce4bhgp2rcd13ifvqfd0","pricing_plan_id":"cebpf4jnsgd1na2vs0mg"},{"bike_id":"d6fd3dc6-4a1a-42ff-a99a-2a4b414e13ca","system_id":"levelo_inurba_marseille","lat":43.25331,"lon":5.42178,"is_reserved":false,"is_disabled":false,"rental_uris":{"android":"levelo://app?vid=d6fd3dc6-4a1a-42ff-a99a-2a4b414e13ca","ios":"levelo://app?vid=d6fd3dc6-4a1a-42ff-a99a-2a4b414e13ca"},"vehicle_type_id":"4","last_reported":1769931024,"current_range_meters":9200,"station_id":"st_d2m65c5bi1j21697t3ng","pricing_plan_id":"cebpf4jnsgd1na2vs0mg"},{"bike_id":"2172e934-12cf-4fcc-9d26-2997e2e7c368","system_id":"levelo_inurba_marseille","lat":43.28678,"lon":5.36374,"is_reserved":false,"is_disabled":false,"rental_uris":{"android":"levelo://app?vid=2172e934-12cf-4fcc-9d26-2997e2e7c368","ios":"levelo://app?vid=2172e934-12cf-4fcc-9d26-2997e2e7c368"},"vehicle_type_id":"4","last_reported":1769931024,"current_range_meters":9200,"station_id":"ce4bhah2rcd13ifvqej0","pricing_plan_id":"cebpf4jnsgd1na2vs0mg"},{"bike_id":"aee55d88-d26d-4627-9e7c-8992b0fd22f2","system_id":"levelo_inurba_marseille","lat":43.26371,"lon":5.41083,"is_reserved":false,"is_disabled":false,"rental_uris":{"android":"levelo://app?vid=aee55d88-d26d-4627-9e7c-8992b0fd22f2","ios":"levelo://app?vid=aee55d88-d26d-4627-9e7c-8992b0fd22f2"},"vehicle_type_id":"4","last_reported":1769931024,"current_range_meters":9600,"station_id":"st_d4e5ca6na9uc73bfl5fg","pricing_plan_id":"cebpf4jnsgd1na2vs0mg"},{"bike_id":"048a79c5-c12f-49b1-93db-c588b46435c1","system_id":"levelo_inurba_marseille","lat":43.29024,"lon":5.37556,"is_reserved":false,"is_disabled":false,"rental_uris":{"android":"levelo://app?vid=048a79c5-c12f-49b1-93db-c588b46435c1","ios":"levelo://app?vid=048a79c5-c12f-49b1-93db-c588b46435c1"},"vehicle_type_id":"4","last_reported":1769931024,"current_range_meters":9600,"station_id":"ce4bh692rcd13ifvqe90","pricing_plan_id":"cebpf4jnsgd1na2vs0mg"},{"bike_id":"8d672370-6dac-4499-9863-edf0e3025199","system_id":"levelo_inurba_marseille","lat":43.2551,"lon":5.38233,"is_reserved":false,"is_disabled":false,"rental_uris":{"android":"levelo://app?vid=8d672370-6dac-4499-9863-edf0e3025199","ios":"levelo://app?vid=8d672370-6dac-4499-9863-edf0e3025199"},"vehicle_type_id":"4","last_reported":1769931024,"current_range_meters":9600,"station_id":"","pricing_plan_id":"cebpf4jnsgd1na2vs0mg"},{"bike_id":"ead9d525-178d-43f7-b202-498aac541976","system_id":"levelo_inurba_marseille","lat":43.22552,"lon":5.41615,"is_reserved":false,"is_disabled":false,"rental_uris":{"android":"levelo://app?vid=ead9d525-178d-43f7-b202-498aac541976","ios":"levelo://app?vid=ead9d525-178d-43f7-b202-498aac541976"},"vehicle_type_id":"4","last_reported":1769931024,"current_range_meters":9600,"station_id":"st_d2o4gvlbi1j2169b742g","pricing_plan_id":"cebpf4jnsgd1na2vs0mg"},{"bike_id":"299a43e4-9ece-493a-a132-9d5b7a75cb2d","system_id":"levelo_inurba_marseille","lat":43.26526,"lon":5.37306,"is_reserved":false,"is_disabled":false,"rental_uris":{"android":"levelo://app?vid=299a43e4-9ece-493a-a132-9d5b7a75cb2d","ios":"levelo://app?vid=299a43e4-9ece-493a-a132-9d5b7a75cb2d"},"vehicle_type_id":"4","last_reported":1769931024,"current_range_meters":9600,"station_id":"ce4bhg12rcd13ifvqf70","pricing_plan_id":"cebpf4jnsgd1na2vs0mg"},{"bike_id":"6a1861d6-3bd8-4d97-b5bb-6ee921eaa6b3","system_id":"levelo_inurba_marseille","lat":43.29722,"lon":5.36594,"is_reserved":false,"is_disabled":false,"rental_uris":{"android":"levelo://app?vid=6a1861d6-3bd8-4d97-b5bb-6ee921eaa6b3","ios":"levelo://app?vid=6a1861d6-3bd8-4d97-b5bb-6ee921eaa6b3"},"vehicle_type_id":"4","last_reported":1769931024,"current_range_meters":9600,"station_id":"ce4bgn12rcd13ifvqbt0","pricing_plan_id":"cebpf4jnsgd1na2vs0mg"},{"bike_id":"bafe06f4-691a-42ad-b544-2647048d76df","system_id":"levelo_inurba_marseille","lat":43.23029,"lon":5.35501,"is_reserved":false,"is_disabled":false,"rental_uris":{"android":"levelo://app?vid=bafe06f4-691a-42ad-b544-2647048d76df","ios":"levelo://app?vid=bafe06f4-691a-42ad-b544-2647048d76df"},"vehicle_type_id":"4","last_reported":1769931024,"current_range_meters":9600,"station_id":"cpo3342slgdg3j2ifvpg","pricing_plan_id":"cebpf4jnsgd1na2vs0mg"},{"bike_id":"b26b7a51-932a-4045-96ca-602fdf1f8264","system_id":"levelo_inurba_marseille","lat":43.23067,"lon":5.35507,"is_reserved":false,"is_disabled":false,"rental_uris":{"android":"levelo://app?vid=b26b7a51-932a-4045-96ca-602fdf1f8264","ios":"levelo://app?vid=b26b7a51-932a-4045-96ca-602fdf1f8264"},"vehicle_type_id":"4","last_reported":1769931024,"current_range_meters":9600,"station_id":"cpo3342slgdg3j2ifvpg","pricing_plan_id":"cebpf4jnsgd1na2vs0mg"},{"bike_id":"48defe86-fd01-4bdf-bb58-0b96240d5da2","system_id":"levelo_inurba_marseille","lat":43.28463,"lon":5.48402,"is_reserved":false,"is_disabled":false,"rental_uris":{"android":"levelo://app?vid=48defe86-fd01-4bdf-bb58-0b96240d5da2","ios":"levelo://app?vid=48defe86-fd01-4bdf-bb58-0b96240d5da2"},"vehicle_type_id":"4","last_reported":1769931024,"current_range_meters":9600,"station_id":"st_d3svhcjqgbts73a3dn0g","pricing_plan_id":"cebpf4jnsgd1na2vs0mg"},{"bike_id":"d1a4c207-5791-4015-8c48-e9fcda8077be","system_id":"levelo_inurba_marseille","lat":43.33145,"lon":5.37703,"is_reserved":false,"is_disabled":false,"rental_uris":{"android":"levelo://app?vid=d1a4c207-5791-4015-8c48-e9fcda8077be","ios":"levelo://app?vid=d1a4c207-5791-4015-8c48-e9fcda8077be"},"vehicle_type_id":"4","last_reported":1769931024,"current_range_meters":10000,"station_id":"st_d46cu089ee8s73dldbu0","pricing_plan_id":"cebpf4jnsgd1na2vs0mg"},{"bike_id":"fcc56630-d6aa-427a-9b6b-6381e911d09d","system_id":"levelo_inurba_marseille","lat":43.27925,"lon":5.41046,"is_reserved":false,"is_disabled":false,"rental_uris":{"android":"levelo://app?vid=fcc56630-d6aa-427a-9b6b-6381e911d09d","ios":"levelo://app?vid=fcc56630-d6aa-427a-9b6b-6381e911d09d"},"vehicle_type_id":"4","last_reported":1769931024,"current_range_meters":10000,"station_id":"ce4bhnp2rcd13ifvqh0g","pricing_plan_id":"cebpf4jnsgd1na2vs0mg"},{"bike_id":"004df261-4f08-4a49-a173-244244948504","system_id":"levelo_inurba_marseille","lat":43.29778,"lon":5.37745,"is_reserved":false,"is_disabled":false,"rental_uris":{"android":"levelo://app?vid=004df261-4f08-4a49-a173-244244948504","ios":"levelo://app?vid=004df261-4f08-4a49-a173-244244948504"},"vehicle_type_id":"4","last_reported":1769931024,"current_range_meters":10000,"station_id":"","pricing_plan_id":"cebpf4jnsgd1na2vs0mg"},{"bike_id":"67b22d03-789e-44cf-a597-0ecf35a562c9","system_id":"levelo_inurba_marseille","lat":43.270574,"lon":5.382944,"is_reserved":false,"is_disabled":false,"rental_uris":{"android":"levelo://app?vid=67b22d03-789e-44cf-a597-0ecf35a562c9","ios":"levelo://app?vid=67b22d03-789e-44cf-a597-0ecf35a562c9"},"vehicle_type_id":"4","last_reported":1769931024,"current_range_meters":10000,"station_id":"st_d3n2fo6cfp8s73cte1j0","pricing_plan_id":"cebpf4jnsgd1na2vs0mg"},{"bike_id":"4d614b31-2487-459c-80b4-20568895cab0","system_id":"levelo_inurba_marseille","lat":43.2402,"lon":5.37795,"is_reserved":false,"is_disabled":true,"rental_uris":{"android":"levelo://app?vid=4d614b31-2487-459c-80b4-20568895cab0","ios":"levelo://app?vid=4d614b31-2487-459c-80b4-20568895cab0"},"vehicle_type_id":"4","last_reported":1769931024,"current_range_meters":10000,"station_id":"ce4bhnp2rcd13ifvqgvg","pricing_plan_id":"cebpf4jnsgd1na2vs0mg"},{"bike_id":"8b53ec96-7258-480f-b1ad-7decfc3d6621","system_id":"levelo_inurba_marseille","lat":43.29602,"lon":5.38118,"is_reserved":false,"is_disabled":false,"rental_uris":{"android":"levelo://app?vid=8b53ec96-7258-480f-b1ad-7decfc3d6621","ios":"levelo://app?vid=8b53ec96-7258-480f-b1ad-7decfc3d6621"},"vehicle_type_id":"4","last_reported":1769931024,"current_range_meters":10000,"station_id":"ce4bgl12rcd13ifvqbo0","pricing_plan_id":"cebpf4jnsgd1na2vs0mg"},{"bike_id":"3a58788c-4a23-4531-9872-db4b04a34512","system_id":"levelo_inurba_marseille","lat":43.25012,"lon":5.38875,"is_reserved":false,"is_disabled":false,"rental_uris":{"android":"levelo://app?vid=3a58788c-4a23-4531-9872-db4b04a34512","ios":"levelo://app?vid=3a58788c-4a23-4531-9872-db4b04a34512"},"vehicle_type_id":"4","last_reported":1769931024,"current_range_meters":10000,"station_id":"ce4bhgp2rcd13ifvqfd0","pricing_plan_id":"cebpf4jnsgd1na2vs0mg"},{"bike_id":"b9a9097f-13d0-49a9-bb46-6f5237ccc9ec","system_id":"levelo_inurba_marseille","lat":43.27376,"lon":5.36257,"is_reserved":false,"is_disabled":false,"rental_uris":{"android":"levelo://app?vid=b9a9097f-13d0-49a9-bb46-6f5237ccc9ec","ios":"levelo://app?vid=b9a9097f-13d0-49a9-bb46-6f5237ccc9ec"},"vehicle_type_id":"4","last_reported":1769931024,"current_range_meters":10000,"station_id":"ce4bhbh2rcd13ifvqeo0","pricing_plan_id":"cebpf4jnsgd1na2vs0mg"},{"bike_id":"bb0a8617-eeb8-4c5c-819e-78e4a9bf65c3","system_id":"levelo_inurba_marseille","lat":43.27221,"lon":5.40786,"is_reserved":false,"is_disabled":false,"rental_uris":{"android":"levelo://app?vid=bb0a8617-eeb8-4c5c-819e-78e4a9bf65c3","ios":"levelo://app?vid=bb0a8617-eeb8-4c5c-819e-78e4a9bf65c3"},"vehicle_type_id":"4","last_reported":1769931024,"current_range_meters":10000,"station_id":"","pricing_plan_id":"cebpf4jnsgd1na2vs0mg"},{"bike_id":"db50a741-bad3-4540-877c-328a2cc429eb","system_id":"levelo_inurba_marseille","lat":43.31187,"lon":5.36848,"is_reserved":false,"is_disabled":false,"rental_uris":{"android":"levelo://app?vid=db50a741-bad3-4540-877c-328a2cc429eb","ios":"levelo://app?vid=db50a741-bad3-4540-877c-328a2cc429eb"},"vehicle_type_id":"4","last_reported":1769931024,"current_range_meters":10000,"station_id":"ce4bgl92rcd13ifvqbq0","pricing_plan_id":"cebpf4jnsgd1na2vs0mg"},{"bike_id":"e09e2717-153b-489f-b446-f480f14d97b2","system_id":"levelo_inurba_marseille","lat":43.27933,"lon":5.41019,"is_reserved":false,"is_disabled":false,"rental_uris":{"android":"levelo://app?vid=e09e2717-153b-489f-b446-f480f14d97b2","ios":"levelo://app?vid=e09e2717-153b-489f-b446-f480f14d97b2"},"vehicle_type_id":"4","last_reported":1769931024,"current_range_meters":10800,"station_id":"ce4bhnp2rcd13ifvqh0g","pricing_plan_id":"cebpf4jnsgd1na2vs0mg"},{"bike_id":"7c0d9424-4c16-451a-a5e1-26585d6883f7","system_id":"levelo_inurba_marseille","lat":43.288678,"lon":5.42532,"is_reserved":false,"is_disabled":false,"rental_uris":{"android":"levelo://app?vid=7c0d9424-4c16-451a-a5e1-26585d6883f7","ios":"levelo://app?vid=7c0d9424-4c16-451a-a5e1-26585d6883f7"},"vehicle_type_id":"4","last_reported":1769931024,"current_range_meters":10800,"station_id":"st_d3b462108ojc7389ooeg","pricing_plan_id":"cebpf4jnsgd1na2vs0mg"},{"bike_id":"4b39f1cc-8d5c-4330-8483-0300616cf7c0","system_id":"levelo_inurba_marseille","lat":43.24056,"lon":5.36356,"is_reserved":false,"is_disabled":false,"rental_uris":{"android":"levelo://app?vid=4b39f1cc-8d5c-4330-8483-0300616cf7c0","ios":"levelo://app?vid=4b39f1cc-8d5c-4330-8483-0300616cf7c0"},"vehicle_type_id":"4","last_reported":1769931024,"current_range_meters":10800,"station_id":"","pricing_plan_id":"cebpf4jnsgd1na2vs0mg"},{"bike_id":"964dead8-d633-48b3-a056-be1c6d96b0d3","system_id":"levelo_inurba_marseille","lat":43.24635,"lon":5.43149,"is_reserved":false,"is_disabled":false,"rental_uris":{"android":"levelo://app?vid=964dead8-d633-48b3-a056-be1c6d96b0d3","ios":"levelo://app?vid=964dead8-d633-48b3-a056-be1c6d96b0d3"},"vehicle_type_id":"4","last_reported":1769931024,"current_range_meters":10800,"station_id":"st_d2m6c4gdas8pm72e190g","pricing_plan_id":"cebpf4jnsgd1na2vs0mg"},{"bike_id":"da4baa9f-76eb-4760-9c99-0d3e638c4fe4","system_id":"levelo_inurba_marseille","lat":43.24465,"lon":5.42522,"is_reserved":false,"is_disabled":false,"rental_uris":{"android":"levelo://app?vid=da4baa9f-76eb-4760-9c99-0d3e638c4fe4","ios":"levelo://app?vid=da4baa9f-76eb-4760-9c99-0d3e638c4fe4"},"vehicle_type_id":"4","last_reported":1769931024,"current_range_meters":10800,"station_id":"st_d4a3vfp97mjs738cd8kg","pricing_plan_id":"cebpf4jnsgd1na2vs0mg"},{"bike_id":"f262e999-95d5-4479-a877-6f525f4e2f96","system_id":"levelo_inurba_marseille","lat":43.3119,"lon":5.38705,"is_reserved":false,"is_disabled":false,"rental_uris":{"android":"levelo://app?vid=f262e999-95d5-4479-a877-6f525f4e2f96","ios":"levelo://app?vid=f262e999-95d5-4479-a877-6f525f4e2f96"},"vehicle_type_id":"4","last_reported":1769931024,"current_range_meters":10800,"station_id":"ce4bgv12rcd13ifvqcp0","pricing_plan_id":"cebpf4jnsgd1na2vs0mg"},{"bike_id":"46f0f3f7-4130-4488-aad8-caec724f7d56","system_id":"levelo_inurba_marseille","lat":43.25344,"lon":5.42177,"is_reserved":false,"is_disabled":false,"rental_uris":{"android":"levelo://app?vid=46f0f3f7-4130-4488-aad8-caec724f7d56","ios":"levelo://app?vid=46f0f3f7-4130-4488-aad8-caec724f7d56"},"vehicle_type_id":"4","last_reported":1769931024,"current_range_meters":10800,"station_id":"st_d2m65c5bi1j21697t3ng","pricing_plan_id":"cebpf4jnsgd1na2vs0mg"},{"bike_id":"d64baf67-1a62-4b86-9aae-88e7781f3b30","system_id":"levelo_inurba_marseille","lat":43.23192,"lon":5.39988,"is_reserved":false,"is_disabled":false,"rental_uris":{"android":"levelo://app?vid=d64baf67-1a62-4b86-9aae-88e7781f3b30","ios":"levelo://app?vid=d64baf67-1a62-4b86-9aae-88e7781f3b30"},"vehicle_type_id":"4","last_reported":1769931024,"current_range_meters":10800,"station_id":"ce4bhn12rcd13ifvqgqg","pricing_plan_id":"cebpf4jnsgd1na2vs0mg"},{"bike_id":"e1d85e8f-816e-43e5-832f-fa3bb6c7d9fd","system_id":"levelo_inurba_marseille","lat":43.2979,"lon":5.44069,"is_reserved":false,"is_disabled":false,"rental_uris":{"android":"levelo://app?vid=e1d85e8f-816e-43e5-832f-fa3bb6c7d9fd","ios":"levelo://app?vid=e1d85e8f-816e-43e5-832f-fa3bb6c7d9fd"},"vehicle_type_id":"4","last_reported":1769931024,"current_range_meters":10800,"station_id":"st_d3jp68qikq2c7381ktn0","pricing_plan_id":"cebpf4jnsgd1na2vs0mg"},{"bike_id":"87f90149-6480-46ae-8bf1-4d309b1a7c08","system_id":"levelo_inurba_marseille","lat":43.25326,"lon":5.42182,"is_reserved":false,"is_disabled":false,"rental_uris":{"android":"levelo://app?vid=87f90149-6480-46ae-8bf1-4d309b1a7c08","ios":"levelo://app?vid=87f90149-6480-46ae-8bf1-4d309b1a7c08"},"vehicle_type_id":"4","last_reported":1769931024,"current_range_meters":10800,"station_id":"st_d2m65c5bi1j21697t3ng","pricing_plan_id":"cebpf4jnsgd1na2vs0mg"},{"bike_id":"c7f297b1-c0d7-451a-9c6a-7543c6d5184d","system_id":"levelo_inurba_marseille","lat":43.27913,"lon":5.39597,"is_reserved":false,"is_disabled":false,"rental_uris":{"android":"levelo://app?vid=c7f297b1-c0d7-451a-9c6a-7543c6d5184d","ios":"levelo://app?vid=c7f297b1-c0d7-451a-9c6a-7543c6d5184d"},"vehicle_type_id":"4","last_reported":1769931024,"current_range_meters":10800,"station_id":"ce4bhf92rcd13ifvqf40","pricing_plan_id":"cebpf4jnsgd1na2vs0mg"},{"bike_id":"af1e5efa-1423-4eee-9d0b-b4d3c012e705","system_id":"levelo_inurba_marseille","lat":43.30947,"lon":5.40178,"is_reserved":false,"is_disabled":false,"rental_uris":{"android":"levelo://app?vid=af1e5efa-1423-4eee-9d0b-b4d3c012e705","ios":"levelo://app?vid=af1e5efa-1423-4eee-9d0b-b4d3c012e705"},"vehicle_type_id":"4","last_reported":1769931024,"current_range_meters":10800,"station_id":"ce4bgvp2rcd13ifvqct0","pricing_plan_id":"cebpf4jnsgd1na2vs0mg"},{"bike_id":"afe84324-1d29-4315-ac45-bffe6560ad9a","system_id":"levelo_inurba_marseille","lat":43.2989,"lon":5.43662,"is_reserved":false,"is_disabled":false,"rental_uris":{"android":"levelo://app?vid=afe84324-1d29-4315-ac45-bffe6560ad9a","ios":"levelo://app?vid=afe84324-1d29-4315-ac45-bffe6560ad9a"},"vehicle_type_id":"4","last_reported":1769931024,"current_range_meters":10800,"station_id":"ce4bhpp2rcd13ifvqhfg","pricing_plan_id":"cebpf4jnsgd1na2vs0mg"},{"bike_id":"647e8c67-198d-4317-8b12-fb4881b15010","system_id":"levelo_inurba_marseille","lat":43.297536,"lon":5.364489,"is_reserved":false,"is_disabled":false,"rental_uris":{"android":"levelo://app?vid=647e8c67-198d-4317-8b12-fb4881b15010","ios":"levelo://app?vid=647e8c67-198d-4317-8b12-fb4881b15010"},"vehicle_type_id":"4","last_reported":1769931024,"current_range_meters":10800,"station_id":"","pricing_plan_id":"cebpf4jnsgd1na2vs0mg"},{"bike_id":"5f8c5bb9-3364-4a5b-a6a2-b3e874e3a885","system_id":"levelo_inurba_marseille","lat":43.23954,"lon":5.36598,"is_reserved":false,"is_disabled":false,"rental_uris":{"android":"levelo://app?vid=5f8c5bb9-3364-4a5b-a6a2-b3e874e3a885","ios":"levelo://app?vid=5f8c5bb9-3364-4a5b-a6a2-b3e874e3a885"},"vehicle_type_id":"4","last_reported":1769931024,"current_range_meters":10800,"station_id":"ce4bhi12rcd13ifvqfp0","pricing_plan_id":"cebpf4jnsgd1na2vs0mg"},{"bike_id":"80f86e00-c283-4a17-a19a-e4aecae6582f","system_id":"levelo_inurba_marseille","lat":43.292021,"lon":5.393149,"is_reserved":false,"is_disabled":true,"rental_uris":{"android":"levelo://app?vid=80f86e00-c283-4a17-a19a-e4aecae6582f","ios":"levelo://app?vid=80f86e00-c283-4a17-a19a-e4aecae6582f"},"vehicle_type_id":"4","last_reported":1769931024,"current_range_meters":10800,"station_id":"ce4bh192rcd13ifvqdd0","pricing_plan_id":"cebpf4jnsgd1na2vs0mg"},{"bike_id":"598c3be9-e516-4a68-8ee3-e84cf24002f9","system_id":"levelo_inurba_marseille","lat":43.25006,"lon":5.38925,"is_reserved":false,"is_disabled":true,"rental_uris":{"android":"levelo://app?vid=598c3be9-e516-4a68-8ee3-e84cf24002f9","ios":"levelo://app?vid=598c3be9-e516-4a68-8ee3-e84cf24002f9"},"vehicle_type_id":"4","last_reported":1769931024,"current_range_meters":10800,"station_id":"ce4bhgp2rcd13ifvqfd0","pricing_plan_id":"cebpf4jnsgd1na2vs0mg"},{"bike_id":"c3e83ffb-1724-4aa6-9683-26e1502a7fbe","system_id":"levelo_inurba_marseille","lat":43.29964,"lon":5.38514,"is_reserved":false,"is_disabled":false,"rental_uris":{"android":"levelo://app?vid=c3e83ffb-1724-4aa6-9683-26e1502a7fbe","ios":"levelo://app?vid=c3e83ffb-1724-4aa6-9683-26e1502a7fbe"},"vehicle_type_id":"4","last_reported":1769931024,"current_range_meters":10800,"station_id":"ce4bgj92rcd13ifvqbd0","pricing_plan_id":"cebpf4jnsgd1na2vs0mg"},{"bike_id":"4fe69b53-e833-450e-b1f1-5ca66d9848f3","system_id":"levelo_inurba_marseille","lat":43.26179,"lon":5.40385,"is_reserved":false,"is_disabled":false,"rental_uris":{"android":"levelo://app?vid=4fe69b53-e833-450e-b1f1-5ca66d9848f3","ios":"levelo://app?vid=4fe69b53-e833-450e-b1f1-5ca66d9848f3"},"vehicle_type_id":"4","last_reported":1769931024,"current_range_meters":10800,"station_id":"ce4bhmh2rcd13ifvqgmg","pricing_plan_id":"cebpf4jnsgd1na2vs0mg"},{"bike_id":"7e50c8d3-0cb9-4ecd-ba6c-fffbc7db18ed","system_id":"levelo_inurba_marseille","lat":43.30326,"lon":5.40473,"is_reserved":false,"is_disabled":false,"rental_uris":{"android":"levelo://app?vid=7e50c8d3-0cb9-4ecd-ba6c-fffbc7db18ed","ios":"levelo://app?vid=7e50c8d3-0cb9-4ecd-ba6c-fffbc7db18ed"},"vehicle_type_id":"4","last_reported":1769931024,"current_range_meters":10800,"station_id":"ce4bh012rcd13ifvqd10","pricing_plan_id":"cebpf4jnsgd1na2vs0mg"},{"bike_id":"cfdd203d-4fe1-4edb-9f7f-90b019fcd76e","system_id":"levelo_inurba_marseille","lat":43.24655,"lon":5.38888,"is_reserved":false,"is_disabled":false,"rental_uris":{"android":"levelo://app?vid=cfdd203d-4fe1-4edb-9f7f-90b019fcd76e","ios":"levelo://app?vid=cfdd203d-4fe1-4edb-9f7f-90b019fcd76e"},"vehicle_type_id":"4","last_reported":1769931024,"current_range_meters":11200,"station_id":"ce4bhg12rcd13ifvqf60","pricing_plan_id":"cebpf4jnsgd1na2vs0mg"},{"bike_id":"42f3911a-939e-4889-9561-3c06517c8f7e","system_id":"levelo_inurba_marseille","lat":43.26789,"lon":5.39447,"is_reserved":false,"is_disabled":true,"rental_uris":{"android":"levelo://app?vid=42f3911a-939e-4889-9561-3c06517c8f7e","ios":"levelo://app?vid=42f3911a-939e-4889-9561-3c06517c8f7e"},"vehicle_type_id":"4","last_reported":1769931024,"current_range_meters":11200,"station_id":"ce4bhh12rcd13ifvqfg0","pricing_plan_id":"cebpf4jnsgd1na2vs0mg"},{"bike_id":"a4a78e26-f7cc-42fe-a5d9-4836263a9354","system_id":"levelo_inurba_marseille","lat":43.331654,"lon":5.376731,"is_reserved":false,"is_disabled":false,"rental_uris":{"android":"levelo://app?vid=a4a78e26-f7cc-42fe-a5d9-4836263a9354","ios":"levelo://app?vid=a4a78e26-f7cc-42fe-a5d9-4836263a9354"},"vehicle_type_id":"4","last_reported":1769931024,"current_range_meters":11200,"station_id":"","pricing_plan_id":"cebpf4jnsgd1na2vs0mg"},{"bike_id":"7f899a2a-34be-4343-93b0-3844bda58dd5","system_id":"levelo_inurba_marseille","lat":43.309382,"lon":5.401476,"is_reserved":false,"is_disabled":false,"rental_uris":{"android":"levelo://app?vid=7f899a2a-34be-4343-93b0-3844bda58dd5","ios":"levelo://app?vid=7f899a2a-34be-4343-93b0-3844bda58dd5"},"vehicle_type_id":"4","last_reported":1769931024,"current_range_meters":11200,"station_id":"ce4bgvp2rcd13ifvqct0","pricing_plan_id":"cebpf4jnsgd1na2vs0mg"},{"bike_id":"6f19f971-321b-4d5e-a90c-c93c6e3bcf21","system_id":"levelo_inurba_marseille","lat":43.30138,"lon":5.38087,"is_reserved":false,"is_disabled":false,"rental_uris":{"android":"levelo://app?vid=6f19f971-321b-4d5e-a90c-c93c6e3bcf21","ios":"levelo://app?vid=6f19f971-321b-4d5e-a90c-c93c6e3bcf21"},"vehicle_type_id":"4","last_reported":1769931024,"current_range_meters":11200,"station_id":"ce4bgjp2rcd13ifvqbh0","pricing_plan_id":"cebpf4jnsgd1na2vs0mg"},{"bike_id":"fff7e7d9-a5a2-4648-8c64-acd8db891467","system_id":"levelo_inurba_marseille","lat":43.262238,"lon":5.404631,"is_reserved":false,"is_disabled":true,"rental_uris":{"android":"levelo://app?vid=fff7e7d9-a5a2-4648-8c64-acd8db891467","ios":"levelo://app?vid=fff7e7d9-a5a2-4648-8c64-acd8db891467"},"vehicle_type_id":"4","last_reported":1769931024,"current_range_meters":11200,"station_id":"ce4bhmh2rcd13ifvqgmg","pricing_plan_id":"cebpf4jnsgd1na2vs0mg"},{"bike_id":"f3a7a959-aab2-4591-bb6a-a5d7770d6401","system_id":"levelo_inurba_marseille","lat":43.29268,"lon":5.40897,"is_reserved":false,"is_disabled":false,"rental_uris":{"android":"levelo://app?vid=f3a7a959-aab2-4591-bb6a-a5d7770d6401","ios":"levelo://app?vid=f3a7a959-aab2-4591-bb6a-a5d7770d6401"},"vehicle_type_id":"4","last_reported":1769931024,"current_range_meters":11200,"station_id":"ce4bh192rcd13ifvqdc0","pricing_plan_id":"cebpf4jnsgd1na2vs0mg"},{"bike_id":"ae18926c-2f80-4500-9ae1-cf409909b93a","system_id":"levelo_inurba_marseille","lat":43.29251,"lon":5.40893,"is_reserved":false,"is_disabled":false,"rental_uris":{"android":"levelo://app?vid=ae18926c-2f80-4500-9ae1-cf409909b93a","ios":"levelo://app?vid=ae18926c-2f80-4500-9ae1-cf409909b93a"},"vehicle_type_id":"4","last_reported":1769931024,"current_range_meters":11200,"station_id":"ce4bh192rcd13ifvqdc0","pricing_plan_id":"cebpf4jnsgd1na2vs0mg"},{"bike_id":"699fc3ea-19e6-4008-9215-dab40aaf679b","system_id":"levelo_inurba_marseille","lat":43.30546,"lon":5.37564,"is_reserved":false,"is_disabled":false,"rental_uris":{"android":"levelo://app?vid=699fc3ea-19e6-4008-9215-dab40aaf679b","ios":"levelo://app?vid=699fc3ea-19e6-4008-9215-dab40aaf679b"},"vehicle_type_id":"4","last_reported":1769931024,"current_range_meters":11200,"station_id":"","pricing_plan_id":"cebpf4jnsgd1na2vs0mg"},{"bike_id":"2c2c4a97-bd3d-479d-8fa3-2384b522232d","system_id":"levelo_inurba_marseille","lat":43.2539,"lon":5.41886,"is_reserved":false,"is_disabled":false,"rental_uris":{"android":"levelo://app?vid=2c2c4a97-bd3d-479d-8fa3-2384b522232d","ios":"levelo://app?vid=2c2c4a97-bd3d-479d-8fa3-2384b522232d"},"vehicle_type_id":"4","last_reported":1769931024,"current_range_meters":11200,"station_id":"","pricing_plan_id":"cebpf4jnsgd1na2vs0mg"},{"bike_id":"7dedd366-c8c3-488a-8716-316bc1150e26","system_id":"levelo_inurba_marseille","lat":43.29569,"lon":5.39963,"is_reserved":false,"is_disabled":false,"rental_uris":{"android":"levelo://app?vid=7dedd366-c8c3-488a-8716-316bc1150e26","ios":"levelo://app?vid=7dedd366-c8c3-488a-8716-316bc1150e26"},"vehicle_type_id":"4","last_reported":1769931024,"current_range_meters":11600,"station_id":"ce4bh312rcd13ifvqdj0","pricing_plan_id":"cebpf4jnsgd1na2vs0mg"},{"bike_id":"182de0a5-2ac9-441b-9a5e-741871822d76","system_id":"levelo_inurba_marseille","lat":43.23187,"lon":5.35557,"is_reserved":false,"is_disabled":false,"rental_uris":{"android":"levelo://app?vid=182de0a5-2ac9-441b-9a5e-741871822d76","ios":"levelo://app?vid=182de0a5-2ac9-441b-9a5e-741871822d76"},"vehicle_type_id":"4","last_reported":1769931024,"current_range_meters":11600,"station_id":"ce4bhu92rcd13ifvqi70","pricing_plan_id":"cebpf4jnsgd1na2vs0mg"},{"bike_id":"3bdfdbfd-4a2c-4cef-a1ef-828fe31f005e","system_id":"levelo_inurba_marseille","lat":43.241677,"lon":5.363984,"is_reserved":false,"is_disabled":false,"rental_uris":{"android":"levelo://app?vid=3bdfdbfd-4a2c-4cef-a1ef-828fe31f005e","ios":"levelo://app?vid=3bdfdbfd-4a2c-4cef-a1ef-828fe31f005e"},"vehicle_type_id":"4","last_reported":1769931024,"current_range_meters":11600,"station_id":"cpo36qri1sfpv3e86is0","pricing_plan_id":"cebpf4jnsgd1na2vs0mg"},{"bike_id":"4a54a576-b4c1-4a36-b8e1-0bb96c9429b6","system_id":"levelo_inurba_marseille","lat":43.27946,"lon":5.44208,"is_reserved":false,"is_disabled":false,"rental_uris":{"android":"levelo://app?vid=4a54a576-b4c1-4a36-b8e1-0bb96c9429b6","ios":"levelo://app?vid=4a54a576-b4c1-4a36-b8e1-0bb96c9429b6"},"vehicle_type_id":"4","last_reported":1769931024,"current_range_meters":11600,"station_id":"","pricing_plan_id":"cebpf4jnsgd1na2vs0mg"},{"bike_id":"5d0d47a8-756c-475a-969a-b713ee9b7b0d","system_id":"levelo_inurba_marseille","lat":43.31066,"lon":5.39352,"is_reserved":false,"is_disabled":false,"rental_uris":{"android":"levelo://app?vid=5d0d47a8-756c-475a-969a-b713ee9b7b0d","ios":"levelo://app?vid=5d0d47a8-756c-475a-969a-b713ee9b7b0d"},"vehicle_type_id":"4","last_reported":1769931024,"current_range_meters":12000,"station_id":"","pricing_plan_id":"cebpf4jnsgd1na2vs0mg"},{"bike_id":"2ebe3d1a-eb9d-4119-9eb6-9d700362d893","system_id":"levelo_inurba_marseille","lat":43.24182,"lon":5.39723,"is_reserved":false,"is_disabled":false,"rental_uris":{"android":"levelo://app?vid=2ebe3d1a-eb9d-4119-9eb6-9d700362d893","ios":"levelo://app?vid=2ebe3d1a-eb9d-4119-9eb6-9d700362d893"},"vehicle_type_id":"4","last_reported":1769931024,"current_range_meters":12000,"station_id":"ce4bhn12rcd13ifvqgpg","pricing_plan_id":"cebpf4jnsgd1na2vs0mg"},