{"last_updated":1767777542,"ttl":60,"version":"2.2","data":{"bikes":[{"bike_id":"85f3a20d-d8f5-4866-91c3-88ca4361a07a","system_id":"levelo_inurba_marseille","lat":43.271828,"lon":5.409933,"is_reserved":false,"is_disabled":false,"rental_uris":{"android":"levelo://app?vid=85f3a20d-d8f5-4866-91c3-88ca4361a07a","ios":"levelo://app?vid=85f3a20d-d8f5-4866-91c3-88ca4361a07a"},"vehicle_type_id":"4","last_reported":1767777542,"current_range_meters":2800,"station_id":"ce4bhl12rcd13ifvqgf0","pricing_plan_id":"cebpf4jnsgd1na2vs0mg"},{"bike_id":"f5347069-9929-4402-9956-c18543d38915","system_id":"levelo_inurba_marseille","lat":43.26221,"lon":5.40473,"is_reserved":false,"is_disabled":false,"rental_uris":{"android":"levelo://app?vid=f5347069-9929-4402-9956-c18543d38915","ios":"levelo://app?vid=f5347069-9929-4402-9956-c18543d38915"},"vehicle_type_id":"4","last_reported":1767777542,"current_range_meters":2800,"station_id":"ce4bhmh2rcd13ifvqgmg","pricing_plan_id":"cebpf4jnsgd1na2vs0mg"},{"bike_id":"4b4a53ce-6685-4c48-92e4-9aa87114a53f","system_id":"levelo_inurba_marseille","lat":43.28085,"lon":5.40742,"is_reserved":false,"is_disabled":false,"rental_uris":{"android":"levelo://app?vid=4b4a53ce-6685-4c48-92e4-9aa87114a53f","ios":"levelo://app?vid=4b4a53ce-6685-4c48-92e4-9aa87114a53f"},"vehicle_type_id":"4","last_reported":1767777542,"current_range_meters":2800,"station_id":"","pricing_plan_id":"cebpf4jnsgd1na2vs0mg"},{"bike_id":"07e31423-ee5d-4033-b180-a60ce03f08d8","system_id":"levelo_inurba_marseille","lat":43.27813,"lon":5.40712,"is_reserved":false,"is_disabled":false,"rental_uris":{"android":"levelo://app?vid=07e31423-ee5d-4033-b180-a60ce03f08d8","ios":"levelo://app?vid=07e31423-ee5d-4033-b180-a60ce03f08d8"},"vehicle_type_id":"4","last_reported":1767777542,"current_range_meters":2800,"station_id":"ce4bhnh2rcd13ifvqgtg","pricing_plan_id":"cebpf4jnsgd1na2vs0mg"},{"bike_id":"340fd969-c054-472b-a13d-a126351e7de2","system_id":"levelo_inurba_marseille","lat":43.294906,"lon":5.43305,"is_reserved":false,"is_disabled":false,"rental_uris":{"android":"levelo://app?vid=340fd969-c054-472b-a13d-a126351e7de2","ios":"levelo://app?vid=340fd969-c054-472b-a13d-a126351e7de2"},"vehicle_type_id":"4","last_reported":1767777542,"current_range_meters":2800,"station_id":"st_d3j5ugp08ojc73fj9d10","pricing_plan_id":"cebpf4jnsgd1na2vs0mg"},{"bike_id":"a189c7e9-2059-416c-bc22-9ffb3c8e4803","system_id":"levelo_inurba_marseille","lat":43.30116,"lon":5.38107,"is_reserved":false,"is_disabled":false,"rental_uris":{"android":"levelo://app?vid=a189c7e9-2059-416c-bc22-9ffb3c8e4803","ios":"levelo://app?vid=a189c7e9-2059-416c-bc22-9ffb3c8e4803"},"vehicle_type_id":"4","last_reported":1767777542,"current_range_meters":2800,"station_id":"ce4bgjp2rcd13ifvqbh0","pricing_plan_id":"cebpf4jnsgd1na2vs0mg"},{"bike_id":"d8c06048-428c-4885-a31f-55edb4b42195","system_id":"levelo_inurba_marseille","lat":43.26237,"lon":5.38824,"is_reserved":false,"is_disabled":false,"rental_uris":{"android":"levelo://app?vid=d8c06048-428c-4885-a31f-55edb4b42195","ios":"levelo://app?vid=d8c06048-428c-4885-a31f-55edb4b42195"},"vehicle_type_id":"4","last_reported":1767777542,"current_range_meters":2800,"station_id":"","pricing_plan_id":"cebpf4jnsgd1na2vs0mg"},{"bike_id":"01c1c982-c85a-43b4-826d-86228268ee48","system_id":"levelo_inurba_marseille","lat":43.29583,"lon":5.381,"is_reserved":false,"is_disabled":false,"rental_uris":{"android":"levelo://app?vid=01c1c982-c85a-43b4-826d-86228268ee48","ios":"levelo://app?vid=01c1c982-c85a-43b4-826d-86228268ee48"},"vehicle_type_id":"4","last_reported":1767777542,"current_range_meters":2800,"station_id":"ce4bgl12rcd13ifvqbo0","pricing_plan_id":"cebpf4jnsgd1na2vs0mg"},{"bike_id":"a184e25a-1604-4e63-9035-4f507c575ca1","system_id":"levelo_inurba_marseille","lat":43.31372,"lon":5.37148,"is_reserved":false,"is_disabled":false,"rental_uris":{"android":"levelo://app?vid=a184e25a-1604-4e63-9035-4f507c575ca1","ios":"levelo://app?vid=a184e25a-1604-4e63-9035-4f507c575ca1"},"vehicle_type_id":"4","last_reported":1767777542,"current_range_meters":2800,"station_id":"","pricing_plan_id":"cebpf4jnsgd1na2vs0mg"},{"bike_id":"cea290f5-ef57-4332-9f4b-af5ddb02255f","system_id":"levelo_inurba_marseille","lat":43.24071,"lon":5.37748,"is_reserved":false,"is_disabled":false,"rental_uris":{"android":"levelo://app?vid=cea290f5-ef57-4332-9f4b-af5ddb02255f","ios":"levelo://app?vid=cea290f5-ef57-4332-9f4b-af5ddb02255f"},"vehicle_type_id":"4","last_reported":1767777542,"current_range_meters":2800,"station_id":"ce4bhnp2rcd13ifvqgvg","pricing_plan_id":"cebpf4jnsgd1na2vs0mg"},{"bike_id":"793ee92e-90c7-492f-98a0-297d7986bb34","system_id":"levelo_inurba_marseille","lat":43.28939,"lon":5.36638,"is_reserved":false,"is_disabled":false,"rental_uris":{"android":"levelo://app?vid=793ee92e-90c7-492f-98a0-297d7986bb34","ios":"levelo://app?vid=793ee92e-90c7-492f-98a0-297d7986bb34"},"vehicle_type_id":"4","last_reported":1767777542,"current_range_meters":2800,"station_id":"ce4bhap2rcd13ifvqek0","pricing_plan_id":"cebpf4jnsgd1na2vs0mg"},{"bike_id":"bcba726c-86cc-4920-9b66-bf7117212d7c","system_id":"levelo_inurba_marseille","lat":43.297729,"lon":5.377554,"is_reserved":false,"is_disabled":false,"rental_uris":{"android":"levelo://app?vid=bcba726c-86cc-4920-9b66-bf7117212d7c","ios":"levelo://app?vid=bcba726c-86cc-4920-9b66-bf7117212d7c"},"vehicle_type_id":"4","last_reported":1767777542,"current_range_meters":2800,"station_id":"","pricing_plan_id":"cebpf4jnsgd1na2vs0mg"},{"bike_id":"2c27ec0a-e1a6-45d7-8934-b7b3f64dcd18","system_id":"levelo_inurba_marseille","lat":43.27339,"lon":5.38712,"is_reserved":false,"is_disabled":false,"rental_uris":{"android":"levelo://app?vid=2c27ec0a-e1a6-45d7-8934-b7b3f64dcd18","ios":"levelo://app?vid=2c27ec0a-e1a6-45d7-8934-b7b3f64dcd18"},"vehicle_type_id":"4","last_reported":1767777542,"current_range_meters":2800,"station_id":"ce4bgvh2rcd13ifvqcs0","pricing_plan_id":"cebpf4jnsgd1na2vs0mg"},{"bike_id":"8f1dcf1e-ec47-4cfd-9ca8-b695074a8473","system_id":"levelo_inurba_marseille","lat":43.23962,"lon":5.36627,"is_reserved":false,"is_disabled":false,"rental_uris":{"android":"levelo://app?vid=8f1dcf1e-ec47-4cfd-9ca8-b695074a8473","ios":"levelo://app?vid=8f1dcf1e-ec47-4cfd-9ca8-b695074a8473"},"vehicle_type_id":"4","last_reported":1767777542,"current_range_meters":2800,"station_id":"ce4bhi12rcd13ifvqfp0","pricing_plan_id":"cebpf4jnsgd1na2vs0mg"},{"bike_id":"ed786e1b-504a-4b4e-8e9f-3d7f0f4c2d92","system_id":"levelo_inurba_marseille","lat":43.29244,"lon":5.37749,"is_reserved":false,"is_disabled":false,"rental_uris":{"android":"levelo://app?vid=ed786e1b-504a-4b4e-8e9f-3d7f0f4c2d92","ios":"levelo://app?vid=ed786e1b-504a-4b4e-8e9f-3d7f0f4c2d92"},"vehicle_type_id":"4","last_reported":1767777542,"current_range_meters":2800,"station_id":"","pricing_plan_id":"cebpf4jnsgd1na2vs0mg"},{"bike_id":"74deac9c-14f6-44ef-a499-acb59adfcb48","system_id":"levelo_inurba_marseille","lat":43.29575,"lon":5.37584,"is_reserved":false,"is_disabled":false,"rental_uris":{"android":"levelo://app?vid=74deac9c-14f6-44ef-a499-acb59adfcb48","ios":"levelo://app?vid=74deac9c-14f6-44ef-a499-acb59adfcb48"},"vehicle_type_id":"4","last_reported":1767777542,"current_range_meters":3200,"station_id":"","pricing_plan_id":"cebpf4jnsgd1na2vs0mg"},{"bike_id":"fafaad2b-d98b-44f3-ba53-6b6b19d2803a","system_id":"levelo_inurba_marseille","lat":43.29883,"lon":5.389,"is_reserved":false,"is_disabled":false,"rental_uris":{"android":"levelo://app?vid=fafaad2b-d98b-44f3-ba53-6b6b19d2803a","ios":"levelo://app?vid=fafaad2b-d98b-44f3-ba53-6b6b19d2803a"},"vehicle_type_id":"4","last_reported":1767777542,"current_range_meters":3200,"station_id":"ce4bh392rcd13ifvqdl0","pricing_plan_id":"cebpf4jnsgd1na2vs0mg"},{"bike_id":"28710909-6836-4051-8df5-ac7ea21a74d1","system_id":"levelo_inurba_marseille","lat":43.31498,"lon":5.38633,"is_reserved":false,"is_disabled":false,"rental_uris":{"android":"levelo://app?vid=28710909-6836-4051-8df5-ac7ea21a74d1","ios":"levelo://app?vid=28710909-6836-4051-8df5-ac7ea21a74d1"},"vehicle_type_id":"4","last_reported":1767777542,"current_range_meters":3200,"station_id":"","pricing_plan_id":"cebpf4jnsgd1na2vs0mg"},{"bike_id":"5ec1f8c3-0e16-411f-9afb-0b32d03d3548","system_id":"levelo_inurba_marseille","lat":43.31334,"lon":5.40586,"is_reserved":false,"is_disabled":false,"rental_uris":{"android":"levelo://app?vid=5ec1f8c3-0e16-411f-9afb-0b32d03d3548","ios":"levelo://app?vid=5ec1f8c3-0e16-411f-9afb-0b32d03d3548"},"vehicle_type_id":"4","last_reported":1767777542,"current_range_meters":3200,"station_id":"","pricing_plan_id":"cebpf4jnsgd1na2vs0mg"},{"bike_id":"e3ac2c58-4ff3-499a-a1fc-8a42c557f550","system_id":"levelo_inurba_marseille","lat":43.33599,"lon":5.41041,"is_reserved":false,"is_disabled":false,"rental_uris":{"android":"levelo://app?vid=e3ac2c58-4ff3-499a-a1fc-8a42c557f550","ios":"levelo://app?vid=e3ac2c58-4ff3-499a-a1fc-8a42c557f550"},"vehicle_type_id":"4","last_reported":1767777542,"current_range_meters":3200,"station_id":"ce4bhqh2rcd13ifvqhmg","pricing_plan_id":"cebpf4jnsgd1na2vs0mg"},{"bike_id":"46bb5737-ea00-42fe-9b28-1f394a44320d","system_id":"levelo_inurba_marseille","lat":43.29039,"lon":5.39972,"is_reserved":false,"is_disabled":false,"rental_uris":{"android":"levelo://app?vid=46bb5737-ea00-42fe-9b28-1f394a44320d","ios":"levelo://app?vid=46bb5737-ea00-42fe-9b28-1f394a44320d"},"vehicle_type_id":"4","last_reported":1767777542,"current_range_meters":3200,"station_id":"ce4bh392rcd13ifvqdm0","pricing_plan_id":"cebpf4jnsgd1na2vs0mg"},{"bike_id":"31a1a646-db53-4714-a0c9-682ade0c1c8e","system_id":"levelo_inurba_marseille","lat":43.29196,"lon":5.39333,"is_reserved":false,"is_disabled":false,"rental_uris":{"android":"levelo://app?vid=31a1a646-db53-4714-a0c9-682ade0c1c8e","ios":"levelo://app?vid=31a1a646-db53-4714-a0c9-682ade0c1c8e"},"vehicle_type_id":"4","last_reported":1767777542,"current_range_meters":3200,"station_id":"ce4bh192rcd13ifvqdd0","pricing_plan_id":"cebpf4jnsgd1na2vs0mg"},{"bike_id":"fc2bce97-9349-464d-bccc-adb930231877","system_id":"levelo_inurba_marseille","lat":43.28701,"lon":5.39994,"is_reserved":false,"is_disabled":false,"rental_uris":{"android":"levelo://app?vid=fc2bce97-9349-464d-bccc-adb930231877","ios":"levelo://app?vid=fc2bce97-9349-464d-bccc-adb930231877"},"vehicle_type_id":"4","last_reported":1767777542,"current_range_meters":3200,"station_id":"ce4bho92rcd13ifvqh3g","pricing_plan_id":"cebpf4jnsgd1na2vs0mg"},{"bike_id":"c3b09027-98b0-4a8f-bc63-99e9b4d2c4b3","system_id":"levelo_inurba_marseille","lat":43.2405,"lon":5.37756,"is_reserved":false,"is_disabled":false,"rental_uris":{"android":"levelo://app?vid=c3b09027-98b0-4a8f-bc63-99e9b4d2c4b3","ios":"levelo://app?vid=c3b09027-98b0-4a8f-bc63-99e9b4d2c4b3"},"vehicle_type_id":"4","last_reported":1767777542,"current_range_meters":3200,"station_id":"ce4bhnp2rcd13ifvqgvg","pricing_plan_id":"cebpf4jnsgd1na2vs0mg"},{"bike_id":"f7266f96-97df-4d00-8894-b574c422868e","system_id":"levelo_inurba_marseille","lat":43.2871,"lon":5.36113,"is_reserved":false,"is_disabled":false,"rental_uris":{"android":"levelo://app?vid=f7266f96-97df-4d00-8894-b574c422868e","ios":"levelo://app?vid=f7266f96-97df-4d00-8894-b574c422868e"},"vehicle_type_id":"4","last_reported":1767777542,"current_range_meters":3600,"station_id":"cki0cbj6b192h4jlfktg","pricing_plan_id":"cebpf4jnsgd1na2vs0mg"},{"bike_id":"e75b6936-1b92-4065-85aa-2a51fc7c8bbe","system_id":"levelo_inurba_marseille","lat":43.26203,"lon":5.37931,"is_reserved":false,"is_disabled":false,"rental_uris":{"android":"levelo://app?vid=e75b6936-1b92-4065-85aa-2a51fc7c8bbe","ios":"levelo://app?vid=e75b6936-1b92-4065-85aa-2a51fc7c8bbe"},"vehicle_type_id":"4","last_reported":1767777542,"current_range_meters":3600,"station_id":"ce4bhjp2rcd13ifvqg90","pricing_plan_id":"cebpf4jnsgd1na2vs0mg"},{"bike_id":"9543aad1-f2c5-4f3f-ab6a-e1b8918ce8ce","system_id":"levelo_inurba_marseille","lat":43.29899,"lon":5.38499,"is_reserved":false,"is_disabled":false,"rental_uris":{"android":"levelo://app?vid=9543aad1-f2c5-4f3f-ab6a-e1b8918ce8ce","ios":"levelo://app?vid=9543aad1-f2c5-4f3f-ab6a-e1b8918ce8ce"},"vehicle_type_id":"4","last_reported":1767777542,"current_range_meters":3600,"station_id":"","pricing_plan_id":"cebpf4jnsgd1na2vs0mg"},{"bike_id":"2c63a126-aa89-41dc-9bf6-9d024e867be2","system_id":"levelo_inurba_marseille","lat":43.26775,"lon":5.39424,"is_reserved":false,"is_disabled":false,"rental_uris":{"android":"levelo://app?vid=2c63a126-aa89-41dc-9bf6-9d024e867be2","ios":"levelo://app?vid=2c63a126-aa89-41dc-9bf6-9d024e867be2"},"vehicle_type_id":"4","last_reported":1767777542,"current_range_meters":3600,"station_id":"ce4bhh12rcd13ifvqfg0","pricing_plan_id":"cebpf4jnsgd1na2vs0mg"},{"bike_id":"565f99b7-e9e2-4b44-8331-6450d9ae6732","system_id":"levelo_inurba_marseille","lat":43.32095,"lon":5.36795,"is_reserved":false,"is_disabled":false,"rental_uris":{"android":"levelo://app?vid=565f99b7-e9e2-4b44-8331-6450d9ae6732","ios":"levelo://app?vid=565f99b7-e9e2-4b44-8331-6450d9ae6732"},"vehicle_type_id":"4","last_reported":1767777542,"current_range_meters":3600,"station_id":"ce4bhrh2rcd13ifvqhug","pricing_plan_id":"cebpf4jnsgd1na2vs0mg"},{"bike_id":"969b1719-3fa2-4d7b-b48c-3f3c994a3da7","system_id":"levelo_inurba_marseille","lat":43.29187,"lon":5.39554,"is_reserved":false,"is_disabled":false,"rental_uris":{"android":"levelo://app?vid=969b1719-3fa2-4d7b-b48c-3f3c994a3da7","ios":"levelo://app?vid=969b1719-3fa2-4d7b-b48c-3f3c994a3da7"},"vehicle_type_id":"4","last_reported":1767777542,"current_range_meters":3600,"station_id":"","pricing_plan_id":"cebpf4jnsgd1na2vs0mg"},{"bike_id":"68ecef4a-3d03-4b87-95fa-e44657e4c2a6","system_id":"levelo_inurba_marseille","lat":43.29758,"lon":5.42772,"is_reserved":false,"is_disabled":false,"rental_uris":{"android":"levelo://app?vid=68ecef4a-3d03-4b87-95fa-e44657e4c2a6","ios":"levelo://app?vid=68ecef4a-3d03-4b87-95fa-e44657e4c2a6"},"vehicle_type_id":"4","last_reported":1767777542,"current_range_meters":3600,"station_id":"st_d3md5207bmas73dh9klg","pricing_plan_id":"cebpf4jnsgd1na2vs0mg"},{"bike_id":"bf0a0489-ec91-406d-a7a0-4b4e36bfc3bb","system_id":"levelo_inurba_marseille","lat":43.229333,"lon":5.353798,"is_reserved":false,"is_disabled":false,"rental_uris":{"android":"levelo://app?vid=bf0a0489-ec91-406d-a7a0-4b4e36bfc3bb","ios":"levelo://app?vid=bf0a0489-ec91-406d-a7a0-4b4e36bfc3bb"},"vehicle_type_id":"4","last_reported":1767777542,"current_range_meters":3600,"station_id":"cpo3532slgdg3j2ikp40","pricing_plan_id":"cebpf4jnsgd1na2vs0mg"},{"bike_id":"a86022e5-423e-417d-a4a9-e6360209e4b2","system_id":"levelo_inurba_marseille","lat":43.29223,"lon":5.36053,"is_reserved":false,"is_disabled":false,"rental_uris":{"android":"levelo://app?vid=a86022e5-423e-417d-a4a9-e6360209e4b2","ios":"levelo://app?vid=a86022e5-423e-417d-a4a9-e6360209e4b2"},"vehicle_type_id":"4","last_reported":1767777542,"current_range_meters":3600,"station_id":"ce4bhbh2rcd13ifvqeqg","pricing_plan_id":"cebpf4jnsgd1na2vs0mg"},{"bike_id":"8015c7a3-ca99-4bed-b795-854d89867176","system_id":"levelo_inurba_marseille","lat":43.300345,"lon":5.373509,"is_reserved":false,"is_disabled":false,"rental_uris":{"android":"levelo://app?vid=8015c7a3-ca99-4bed-b795-854d89867176","ios":"levelo://app?vid=8015c7a3-ca99-4bed-b795-854d89867176"},"vehicle_type_id":"4","last_reported":1767777542,"current_range_meters":3600,"station_id":"","pricing_plan_id":"cebpf4jnsgd1na2vs0mg"},{"bike_id":"e24690ad-a79f-4929-9105-2f21d518408a","system_id":"levelo_inurba_marseille","lat":43.28467,"lon":5.38546,"is_reserved":false,"is_disabled":false,"rental_uris":{"android":"levelo://app?vid=e24690ad-a79f-4929-9105-2f21d518408a","ios":"levelo://app?vid=e24690ad-a79f-4929-9105-2f21d518408a"},"vehicle_type_id":"4","last_reported":1767777542,"current_range_meters":3600,"station_id":"ce4bh8p2rcd13ifvqeb0","pricing_plan_id":"cebpf4jnsgd1na2vs0mg"},{"bike_id":"1d2ef4a3-4df5-4db1-bc30-a8b980fe254d","system_id":"levelo_inurba_marseille","lat":43.29254,"lon":5.3844,"is_reserved":false,"is_disabled":false,"rental_uris":{"android":"levelo://app?vid=1d2ef4a3-4df5-4db1-bc30-a8b980fe254d","ios":"levelo://app?vid=1d2ef4a3-4df5-4db1-bc30-a8b980fe254d"},"vehicle_type_id":"4","last_reported":1767777542,"current_range_meters":3600,"station_id":"ce4bh692rcd13ifvqea0","pricing_plan_id":"cebpf4jnsgd1na2vs0mg"},{"bike_id":"71c53044-c0ca-48e9-968f-ab1ba6524736","system_id":"levelo_inurba_marseille","lat":43.23965,"lon":5.3663,"is_reserved":false,"is_disabled":false,"rental_uris":{"android":"levelo://app?vid=71c53044-c0ca-48e9-968f-ab1ba6524736","ios":"levelo://app?vid=71c53044-c0ca-48e9-968f-ab1ba6524736"},"vehicle_type_id":"4","last_reported":1767777542,"current_range_meters":3600,"station_id":"ce4bhi12rcd13ifvqfp0","pricing_plan_id":"cebpf4jnsgd1na2vs0mg"},{"bike_id":"e160478b-d9db-4bf4-930b-d7396d9fb432","system_id":"levelo_inurba_marseille","lat":43.29555,"lon":5.42293,"is_reserved":false,"is_disabled":false,"rental_uris":{"android":"levelo://app?vid=e160478b-d9db-4bf4-930b-d7396d9fb432","ios":"levelo://app?vid=e160478b-d9db-4bf4-930b-d7396d9fb432"},"vehicle_type_id":"4","last_reported":1767777542,"current_range_meters":4000,"station_id":"ce4bhph2rcd13ifvqhdg","pricing_plan_id":"cebpf4jnsgd1na2vs0mg"},{"bike_id":"d599e143-3cfd-4dd2-ba0d-054f2e412eda","system_id":"levelo_inurba_marseille","lat":43.28263,"lon":5.35085,"is_reserved":false,"is_disabled":false,"rental_uris":{"android":"levelo://app?vid=d599e143-3cfd-4dd2-ba0d-054f2e412eda","ios":"levelo://app?vid=d599e143-3cfd-4dd2-ba0d-054f2e412eda"},"vehicle_type_id":"4","last_reported":1767777542,"current_range_meters":4000,"station_id":"ce4bhbp2rcd13ifvqerg","pricing_plan_id":"cebpf4jnsgd1na2vs0mg"},{"bike_id":"5c78052d-8b4f-4e51-8ddb-87be6fb225ca","system_id":"levelo_inurba_marseille","lat":43.23197,"lon":5.35564,"is_reserved":false,"is_disabled":false,"rental_uris":{"android":"levelo://app?vid=5c78052d-8b4f-4e51-8ddb-87be6fb225ca","ios":"levelo://app?vid=5c78052d-8b4f-4e51-8ddb-87be6fb225ca"},"vehicle_type_id":"4","last_reported":1767777542,"current_range_meters":4000,"station_id":"ce4bhu92rcd13ifvqi70","pricing_plan_id":"cebpf4jnsgd1na2vs0mg"},{"bike_id":"b2bf8f93-af04-463d-b424-98c34e1a8754","system_id":"levelo_inurba_marseille","lat":43.31567,"lon":5.36812,"is_reserved":false,"is_disabled":false,"rental_uris":{"android":"levelo://app?vid=b2bf8f93-af04-463d-b424-98c34e1a8754","ios":"levelo://app?vid=b2bf8f93-af04-463d-b424-98c34e1a8754"},"vehicle_type_id":"4","last_reported":1767777542,"current_range_meters":4000,"station_id":"","pricing_plan_id":"cebpf4jnsgd1na2vs0mg"},{"bike_id":"fad68b58-3feb-4a99-9f33-50e6502be28a","system_id":"levelo_inurba_marseille","lat":43.32872,"lon":5.3751,"is_reserved":false,"is_disabled":false,"rental_uris":{"android":"levelo://app?vid=fad68b58-3feb-4a99-9f33-50e6502be28a","ios":"levelo://app?vid=fad68b58-3feb-4a99-9f33-50e6502be28a"},"vehicle_type_id":"4","last_reported":1767777542,"current_range_meters":4000,"station_id":"","pricing_plan_id":"cebpf4jnsgd1na2vs0mg"},{"bike_id":"c773f61c-a83f-41d9-bdd4-df8791dcab70","system_id":"levelo_inurba_marseille","lat":43.29777,"lon":5.37764,"is_reserved":false,"is_disabled":false,"rental_uris":{"android":"levelo://app?vid=c773f61c-a83f-41d9-bdd4-df8791dcab70","ios":"levelo://app?vid=c773f61c-a83f-41d9-bdd4-df8791dcab70"},"vehicle_type_id":"4","last_reported":1767777542,"current_range_meters":4000,"station_id":"","pricing_plan_id":"cebpf4jnsgd1na2vs0mg"},{"bike_id":"51bab64f-1b87-4acc-8f72-1bf6c05e5090","system_id":"levelo_inurba_marseille","lat":43.231917,"lon":5.355514,"is_reserved":false,"is_disabled":false,"rental_uris":{"android":"levelo://app?vid=51bab64f-1b87-4acc-8f72-1bf6c05e5090","ios":"levelo://app?vid=51bab64f-1b87-4acc-8f72-1bf6c05e5090"},"vehicle_type_id":"4","last_reported":1767777542,"current_range_meters":4000,"station_id":"ce4bhu92rcd13ifvqi70","pricing_plan_id":"cebpf4jnsgd1na2vs0mg"},{"bike_id":"79050b2d-51dd-4422-b5f7-33cfc5837f53","system_id":"levelo_inurba_marseille","lat":43.312741,"lon":5.377608,"is_reserved":false,"is_disabled":false,"rental_uris":{"android":"levelo://app?vid=79050b2d-51dd-4422-b5f7-33cfc5837f53","ios":"levelo://app?vid=79050b2d-51dd-4422-b5f7-33cfc5837f53"},"vehicle_type_id":"4","last_reported":1767777542,"current_range_meters":4000,"station_id":"","pricing_plan_id":"cebpf4jnsgd1na2vs0mg"},{"bike_id":"154462d8-4cf9-4d10-92d0-a9a695a22f72","system_id":"levelo_inurba_marseille","lat":43.29765,"lon":5.3814,"is_reserved":false,"is_disabled":true,"rental_uris":{"android":"levelo://app?vid=154462d8-4cf9-4d10-92d0-a9a695a22f72","ios":"levelo://app?vid=154462d8-4cf9-4d10-92d0-a9a695a22f72"},"vehicle_type_id":"4","last_reported":1767777542,"current_range_meters":4000,"station_id":"","pricing_plan_id":"cebpf4jnsgd1na2vs0mg"},{"bike_id":"999e74f3-d4b2-444d-89bc-239d909db7d5","system_id":"levelo_inurba_marseille","lat":43.30078,"lon":5.36933,"is_reserved":false,"is_disabled":false,"rental_uris":{"android":"levelo://app?vid=999e74f3-d4b2-444d-89bc-239d909db7d5","ios":"levelo://app?vid=999e74f3-d4b2-444d-89bc-239d909db7d5"},"vehicle_type_id":"4","last_reported":1767777542,"current_range_meters":4000,"station_id":"","pricing_plan_id":"cebpf4jnsgd1na2vs0mg"},{"bike_id":"9265da08-af6b-41f8-a564-a7a5e4a8d66e","system_id":"levelo_inurba_marseille","lat":43.28476,"lon":5.48408,"is_reserved":false,"is_disabled":false,"rental_uris":{"android":"levelo://app?vid=9265da08-af6b-41f8-a564-a7a5e4a8d66e","ios":"levelo://app?vid=9265da08-af6b-41f8-a564-a7a5e4a8d66e"},"vehicle_type_id":"4","last_reported":1767777542,"current_range_meters":4000,"station_id":"","pricing_plan_id":"cebpf4jnsgd1na2vs0mg"},{"bike_id":"3bc88049-fe85-4f81-88f2-4fe0073c7893","system_id":"levelo_inurba_marseille","lat":43.29819,"lon":5.3904,"is_reserved":false,"is_disabled":false,"rental_uris":{"android":"levelo://app?vid=3bc88049-fe85-4f81-88f2-4fe0073c7893","ios":"levelo://app?vid=3bc88049-fe85-4f81-88f2-4fe0073c7893"},"vehicle_type_id":"4","last_reported":1767777542,"current_range_meters":4000,"station_id":"ce4bgqh2rcd13ifvqc5g","pricing_plan_id":"cebpf4jnsgd1na2vs0mg"},{"bike_id":"c92f9eb1-4edf-4277-a16e-c93cc6295b90","system_id":"levelo_inurba_marseille","lat":43.31436,"lon":5.40451,"is_reserved":false,"is_disabled":false,"rental_uris":{"android":"levelo://app?vid=c92f9eb1-4edf-4277-a16e-c93cc6295b90","ios":"levelo://app?vid=c92f9eb1-4edf-4277-a16e-c93cc6295b90"},"vehicle_type_id":"4","last_reported":1767777542,"current_range_meters":4000,"station_id":"","pricing_plan_id":"cebpf4jnsgd1na2vs0mg"},{"bike_id":"e39e909d-a3c5-43e0-be4e-6cfc87e9605c","system_id":"levelo_inurba_marseille","lat":43.27665,"lon":5.38902,"is_reserved":false,"is_disabled":false,"rental_uris":{"android":"levelo://app?vid=e39e909d-a3c5-43e0-be4e-6cfc87e9605c","ios":"levelo://app?vid=e39e909d-a3c5-43e0-be4e-6cfc87e9605c"},"vehicle_type_id":"4","last_reported":1767777542,"current_range_meters":4000,"station_id":"ce4bhi12rcd13ifvqfo0","pricing_plan_id":"cebpf4jnsgd1na2vs0mg"},{"bike_id":"ad9c57a4-d8a7-41c0-8bf9-21a179390ca8","system_id":"levelo_inurba_marseille","lat":43.28532,"lon":5.44096,"is_reserved":false,"is_disabled":false,"rental_uris":{"android":"levelo://app?vid=ad9c57a4-d8a7-41c0-8bf9-21a179390ca8","ios":"levelo://app?vid=ad9c57a4-d8a7-41c0-8bf9-21a179390ca8"},"vehicle_type_id":"4","last_reported":1767777542,"current_range_meters":4000,"station_id":"st_d3j3df2ikq2c7380ej80","pricing_plan_id":"cebpf4jnsgd1na2vs0mg"},{"bike_id":"ff76e9f8-3047-4f8e-95e2-ddcad5720134","system_id":"levelo_inurba_marseille","lat":43.2844,"lon":5.39207,"is_reserved":false,"is_disabled":false,"rental_uris":{"android":"levelo://app?vid=ff76e9f8-3047-4f8e-95e2-ddcad5720134","ios":"levelo://app?vid=ff76e9f8-3047-4f8e-95e2-ddcad5720134"},"vehicle_type_id":"4","last_reported":1767777542,"current_range_meters":4000,"station_id":"ce4bhoh2rcd13ifvqh5g","pricing_plan_id":"cebpf4jnsgd1na2vs0mg"},{"bike_id":"cb160781-6f91-4de0-bc7d-1c259304a6fa","system_id":"levelo_inurba_marseille","lat":43.26683,"lon":5.38258,"is_reserved":false,"is_disabled":false,"rental_uris":{"android":"levelo://app?vid=cb160781-6f91-4de0-bc7d-1c259304a6fa","ios":"levelo://app?vid=cb160781-6f91-4de0-bc7d-1c259304a6fa"},"vehicle_type_id":"4","last_reported":1767777542,"current_range_meters":4000,"station_id":"ce4bhg92rcd13ifvqf90","pricing_plan_id":"cebpf4jnsgd1na2vs0mg"},{"bike_id":"d22d9ece-62b8-40c6-881b-8ad44e1a6b0e","system_id":"levelo_inurba_marseille","lat":43.2618,"lon":5.37476,"is_reserved":false,"is_disabled":false,"rental_uris":{"android":"levelo://app?vid=d22d9ece-62b8-40c6-881b-8ad44e1a6b0e","ios":"levelo://app?vid=d22d9ece-62b8-40c6-881b-8ad44e1a6b0e"},"vehicle_type_id":"4","last_reported":1767777542,"current_range_meters":4400,"station_id":"ce4bhgp2rcd13ifvqfc0","pricing_plan_id":"cebpf4jnsgd1na2vs0mg"},{"bike_id":"716f70c6-c645-4189-bca5-9c06dfbd6c99","system_id":"levelo_inurba_marseille","lat":43.29801,"lon":5.3816,"is_reserved":false,"is_disabled":false,"rental_uris":{"android":"levelo://app?vid=716f70c6-c645-4189-bca5-9c06dfbd6c99","ios":"levelo://app?vid=716f70c6-c645-4189-bca5-9c06dfbd6c99"},"vehicle_type_id":"4","last_reported":1767777542,"current_range_meters":4400,"station_id":"ce4bgip2rcd13ifvqbb0","pricing_plan_id":"cebpf4jnsgd1na2vs0mg"},{"bike_id":"b9ef9ffa-3698-4ed4-90be-ab322f6963f9","system_id":"levelo_inurba_marseille","lat":43.27924,"lon":5.39572,"is_reserved":false,"is_disabled":false,"rental_uris":{"android":"levelo://app?vid=b9ef9ffa-3698-4ed4-90be-ab322f6963f9","ios":"levelo://app?vid=b9ef9ffa-3698-4ed4-90be-ab322f6963f9"},"vehicle_type_id":"4","last_reported":1767777542,"current_range_meters":4400,"station_id":"ce4bhf92rcd13ifvqf40","pricing_plan_id":"cebpf4jnsgd1na2vs0mg"},{"bike_id":"a3da1827-148b-41c2-bd04-cbeb3bb21a64","system_id":"levelo_inurba_marseille","lat":43.2796,"lon":5.38734,"is_reserved":false,"is_disabled":false,"rental_uris":{"android":"levelo://app?vid=a3da1827-148b-41c2-bd04-cbeb3bb21a64","ios":"levelo://app?vid=a3da1827-148b-41c2-bd04-cbeb3bb21a64"},"vehicle_type_id":"4","last_reported":1767777542,"current_range_meters":4400,"station_id":"ce4bhg12rcd13ifvqf80","pricing_plan_id":"cebpf4jnsgd1na2vs0mg"},{"bike_id":"59f38118-6a4d-4e62-8844-f6df1659fc07","system_id":"levelo_inurba_marseille","lat":43.29891,"lon":5.43661,"is_reserved":false,"is_disabled":false,"rental_uris":{"android":"levelo://app?vid=59f38118-6a4d-4e62-8844-f6df1659fc07","ios":"levelo://app?vid=59f38118-6a4d-4e62-8844-f6df1659fc07"},"vehicle_type_id":"4","last_reported":1767777542,"current_range_meters":4400,"station_id":"ce4bhpp2rcd13ifvqhfg","pricing_plan_id":"cebpf4jnsgd1na2vs0mg"},{"bike_id":"d2d5c922-3ec7-47cf-bb49-4d3b2b6af0f3","system_id":"levelo_inurba_marseille","lat":43.27676,"lon":5.38952,"is_reserved":false,"is_disabled":false,"rental_uris":{"android":"levelo://app?vid=d2d5c922-3ec7-47cf-bb49-4d3b2b6af0f3","ios":"levelo://app?vid=d2d5c922-3ec7-47cf-bb49-4d3b2b6af0f3"},"vehicle_type_id":"4","last_reported":1767777542,"current_range_meters":4400,"station_id":"ce4bhi12rcd13ifvqfo0","pricing_plan_id":"cebpf4jnsgd1na2vs0mg"},{"bike_id":"27d9b984-914c-44c6-abe9-2fee68ccfc43","system_id":"levelo_inurba_marseille","lat":43.33155,"lon":5.37707,"is_reserved":false,"is_disabled":false,"rental_uris":{"android":"levelo://app?vid=27d9b984-914c-44c6-abe9-2fee68ccfc43","ios":"levelo://app?vid=27d9b984-914c-44c6-abe9-2fee68ccfc43"},"vehicle_type_id":"4","last_reported":1767777542,"current_range_meters":4400,"station_id":"st_d46cu089ee8s73dldbu0","pricing_plan_id":"cebpf4jnsgd1na2vs0mg"},{"bike_id":"820f7c48-f3d8-499a-997c-1e24ec4efc2b","system_id":"levelo_inurba_marseille","lat":43.28841,"lon":5.35866,"is_reserved":false,"is_disabled":false,"rental_uris":{"android":"levelo://app?vid=820f7c48-f3d8-499a-997c-1e24ec4efc2b","ios":"levelo://app?vid=820f7c48-f3d8-499a-997c-1e24ec4efc2b"},"vehicle_type_id":"4","last_reported":1767777542,"current_range_meters":4400,"station_id":"ce4bhb12rcd13ifvqem0","pricing_plan_id":"cebpf4jnsgd1na2vs0mg"},{"bike_id":"2b249141-87e2-4eaa-8d21-183c28a1a8bb","system_id":"levelo_inurba_marseille","lat":43.29733,"lon":5.42801,"is_reserved":false,"is_disabled":false,"rental_uris":{"android":"levelo://app?vid=2b249141-87e2-4eaa-8d21-183c28a1a8bb","ios":"levelo://app?vid=2b249141-87e2-4eaa-8d21-183c28a1a8bb"},"vehicle_type_id":"4","last_reported":1767777542,"current_range_meters":4400,"station_id":"st_d3md5207bmas73dh9klg","pricing_plan_id":"cebpf4jnsgd1na2vs0mg"},{"bike_id":"b8cf98ec-4e7b-45be-a805-02d539b0c532","system_id":"levelo_inurba_marseille","lat":43.30949,"lon":5.39051,"is_reserved":false,"is_disabled":false,"rental_uris":{"android":"levelo://app?vid=b8cf98ec-4e7b-45be-a805-02d539b0c532","ios":"levelo://app?vid=b8cf98ec-4e7b-45be-a805-02d539b0c532"},"vehicle_type_id":"4","last_reported":1767777542,"current_range_meters":4400,"station_id":"ce4bgup2rcd13ifvqco0","pricing_plan_id":"cebpf4jnsgd1na2vs0mg"},{"bike_id":"f0a7e3b4-6a44-48bf-96cc-6efd65824d81","system_id":"levelo_inurba_marseille","lat":43.307987,"lon":5.381571,"is_reserved":false,"is_disabled":false,"rental_uris":{"android":"levelo://app?vid=f0a7e3b4-6a44-48bf-96cc-6efd65824d81","ios":"levelo://app?vid=f0a7e3b4-6a44-48bf-96cc-6efd65824d81"},"vehicle_type_id":"4","last_reported":1767777542,"current_range_meters":4800,"station_id":"ce4bgt12rcd13ifvqce0","pricing_plan_id":"cebpf4jnsgd1na2vs0mg"},{"bike_id":"45fcd6fb-4470-4f0b-8ea5-6bf9b5286ce4","system_id":"levelo_inurba_marseille","lat":43.30223,"lon":5.37454,"is_reserved":false,"is_disabled":false,"rental_uris":{"android":"levelo://app?vid=45fcd6fb-4470-4f0b-8ea5-6bf9b5286ce4","ios":"levelo://app?vid=45fcd6fb-4470-4f0b-8ea5-6bf9b5286ce4"},"vehicle_type_id":"4","last_reported":1767777542,"current_range_meters":4800,"station_id":"","pricing_plan_id":"cebpf4jnsgd1na2vs0mg"},{"bike_id":"9429cadb-a739-4f5f-8c2b-cc91a27439eb","system_id":"levelo_inurba_marseille","lat":43.276856,"lon":5.420501,"is_reserved":false,"is_disabled":false,"rental_uris":{"android":"levelo://app?vid=9429cadb-a739-4f5f-8c2b-cc91a27439eb","ios":"levelo://app?vid=9429cadb-a739-4f5f-8c2b-cc91a27439eb"},"vehicle_type_id":"4","last_reported":1767777542,"current_range_meters":4800,"station_id":"","pricing_plan_id":"cebpf4jnsgd1na2vs0mg"},{"bike_id":"6a37a502-8a4f-4bc7-83bd-16348e8cf97e","system_id":"levelo_inurba_marseille","lat":43.32086,"lon":5.36763,"is_reserved":false,"is_disabled":false,"rental_uris":{"android":"levelo://app?vid=6a37a502-8a4f-4bc7-83bd-16348e8cf97e","ios":"levelo://app?vid=6a37a502-8a4f-4bc7-83bd-16348e8cf97e"},"vehicle_type_id":"4","last_reported":1767777542,"current_range_meters":4800,"station_id":"ce4bhrh2rcd13ifvqhug","pricing_plan_id":"cebpf4jnsgd1na2vs0mg"},{"bike_id":"2af0ce7c-ca3c-4dfe-9ab3-190f23e26597","system_id":"levelo_inurba_marseille","lat":43.238731,"lon":5.365227,"is_reserved":false,"is_disabled":false,"rental_uris":{"android":"levelo://app?vid=2af0ce7c-ca3c-4dfe-9ab3-190f23e26597","ios":"levelo://app?vid=2af0ce7c-ca3c-4dfe-9ab3-190f23e26597"},"vehicle_type_id":"4","last_reported":1767777542,"current_range_meters":4800,"station_id":"","pricing_plan_id":"cebpf4jnsgd1na2vs0mg"},{"bike_id":"1cc14a4e-8f2c-4bea-9c25-f855a4eff001","system_id":"levelo_inurba_marseille","lat":43.28629,"lon":5.35096,"is_reserved":false,"is_disabled":false,"rental_uris":{"android":"levelo://app?vid=1cc14a4e-8f2c-4bea-9c25-f855a4eff001","ios":"levelo://app?vid=1cc14a4e-8f2c-4bea-9c25-f855a4eff001"},"vehicle_type_id":"4","last_reported":1767777542,"current_range_meters":4800,"station_id":"ce4bhch2rcd13ifvqeug","pricing_plan_id":"cebpf4jnsgd1na2vs0mg"},{"bike_id":"b873d448-1951-4df5-bd2c-5e9d96c8aae5","system_id":"levelo_inurba_marseille","lat":43.23785,"lon":5.3663,"is_reserved":false,"is_disabled":false,"rental_uris":{"android":"levelo://app?vid=b873d448-1951-4df5-bd2c-5e9d96c8aae5","ios":"levelo://app?vid=b873d448-1951-4df5-bd2c-5e9d96c8aae5"},"vehicle_type_id":"4","last_reported":1767777542,"current_range_meters":4800,"station_id":"st_d3nk18o9ro0c73en2l3g","pricing_plan_id":"cebpf4jnsgd1na2vs0mg"},{"bike_id":"174e0a88-28ce-484e-8861-adcbe3a929da","system_id":"levelo_inurba_marseille","lat":43.28477,"lon":5.48392,"is_reserved":false,"is_disabled":false,"rental_uris":{"android":"levelo://app?vid=174e0a88-28ce-484e-8861-adcbe3a929da","ios":"levelo://app?vid=174e0a88-28ce-484e-8861-adcbe3a929da"},"vehicle_type_id":"4","last_reported":1767777542,"current_range_meters":4800,"station_id":"st_d3svhcjqgbts73a3dn0g","pricing_plan_id":"cebpf4jnsgd1na2vs0mg"},{"bike_id":"e3a8c53a-be94-43ea-8e9c-18d2a8cf0834","system_id":"levelo_inurba_marseille","lat":43.27225,"lon":5.39192,"is_reserved":false,"is_disabled":false,"rental_uris":{"android":"levelo://app?vid=e3a8c53a-be94-43ea-8e9c-18d2a8cf0834","ios":"levelo://app?vid=e3a8c53a-be94-43ea-8e9c-18d2a8cf0834"},"vehicle_type_id":"4","last_reported":1767777542,"current_range_meters":4800,"station_id":"ce4bhhp2rcd13ifvqfm0","pricing_plan_id":"cebpf4jnsgd1na2vs0mg"},{"bike_id":"9b21424a-1587-45e4-bf2a-4284accabf77","system_id":"levelo_inurba_marseille","lat":43.28472,"lon":5.48421,"is_reserved":false,"is_disabled":false,"rental_uris":{"android":"levelo://app?vid=9b21424a-1587-45e4-bf2a-4284accabf77","ios":"levelo://app?vid=9b21424a-1587-45e4-bf2a-4284accabf77"},"vehicle_type_id":"4","last_reported":1767777542,"current_range_meters":4800,"station_id":"","pricing_plan_id":"cebpf4jnsgd1na2vs0mg"},{"bike_id":"8bb79983-0967-4c71-a6d7-69ac7eeae228","system_id":"levelo_inurba_marseille","lat":43.29277,"lon":5.40123,"is_reserved":false,"is_disabled":false,"rental_uris":{"android":"levelo://app?vid=8bb79983-0967-4c71-a6d7-69ac7eeae228","ios":"levelo://app?vid=8bb79983-0967-4c71-a6d7-69ac7eeae228"},"vehicle_type_id":"4","last_reported":1767777542,"current_range_meters":4800,"station_id":"ce4bh312rcd13ifvqdk0","pricing_plan_id":"cebpf4jnsgd1na2vs0mg"},{"bike_id":"5a22cce2-d36e-4ce8-b4a5-19216ad59fe6","system_id":"levelo_inurba_marseille","lat":43.27498,"lon":5.42468,"is_reserved":false,"is_disabled":false,"rental_uris":{"android":"levelo://app?vid=5a22cce2-d36e-4ce8-b4a5-19216ad59fe6","ios":"levelo://app?vid=5a22cce2-d36e-4ce8-b4a5-19216ad59fe6"},"vehicle_type_id":"4","last_reported":1767777542,"current_range_meters":4800,"station_id":"ce4bhn92rcd13ifvqgrg","pricing_plan_id":"cebpf4jnsgd1na2vs0mg"},{"bike_id":"673a8238-11dc-4052-bc7d-5e7797df1e03","system_id":"levelo_inurba_marseille","lat":43.279984,"lon":5.378625,"is_reserved":false,"is_disabled":false,"rental_uris":{"android":"levelo://app?vid=673a8238-11dc-4052-bc7d-5e7797df1e03","ios":"levelo://app?vid=673a8238-11dc-4052-bc7d-5e7797df1e03"},"vehicle_type_id":"4","last_reported":1767777542,"current_range_meters":4800,"station_id":"ce4bhf92rcd13ifvqf50","pricing_plan_id":"cebpf4jnsgd1na2vs0mg"},{"bike_id":"4b6e7f8f-0ef6-442a-a007-b2bfa5ddaf90","system_id":"levelo_inurba_marseille","lat":43.2676,"lon":5.39437,"is_reserved":false,"is_disabled":false,"rental_uris":{"android":"levelo://app?vid=4b6e7f8f-0ef6-442a-a007-b2bfa5ddaf90","ios":"levelo://app?vid=4b6e7f8f-0ef6-442a-a007-b2bfa5ddaf90"},"vehicle_type_id":"4","last_reported":1767777542,"current_range_meters":4800,"station_id":"ce4bhh12rcd13ifvqfg0","pricing_plan_id":"cebpf4jnsgd1na2vs0mg"},{"bike_id":"fa5dedcd-76f5-418f-b5eb-7e700f44fa59","system_id":"levelo_inurba_marseille","lat":43.29035,"lon":5.38145,"is_reserved":false,"is_disabled":false,"rental_uris":{"android":"levelo://app?vid=fa5dedcd-76f5-418f-b5eb-7e700f44fa59","ios":"levelo://app?vid=fa5dedcd-76f5-418f-b5eb-7e700f44fa59"},"vehicle_type_id":"4","last_reported":1767777542,"current_range_meters":4800,"station_id":"ce4bh4p2rcd13ifvqe1g","pricing_plan_id":"cebpf4jnsgd1na2vs0mg"},{"bike_id":"a60e859d-20a7-4efc-ab94-0c4ccc8ad025","system_id":"levelo_inurba_marseille","lat":43.30652,"lon":5.36618,"is_reserved":false,"is_disabled":false,"rental_uris":{"android":"levelo://app?vid=a60e859d-20a7-4efc-ab94-0c4ccc8ad025","ios":"levelo://app?vid=a60e859d-20a7-4efc-ab94-0c4ccc8ad025"},"vehicle_type_id":"4","last_reported":1767777542,"current_range_meters":5600,"station_id":"","pricing_plan_id":"cebpf4jnsgd1na2vs0mg"},{"bike_id":"ccf217cd-c9f5-4bc1-98d3-1a2b90cbecdc","system_id":"levelo_inurba_marseille","lat":43.30174,"lon":5.36618,"is_reserved":false,"is_disabled":false,"rental_uris":{"android":"levelo://app?vid=ccf217cd-c9f5-4bc1-98d3-1a2b90cbecdc","ios":"levelo://app?vid=ccf217cd-c9f5-4bc1-98d3-1a2b90cbecdc"},"vehicle_type_id":"4","last_reported":1767777542,"current_range_meters":5600,"station_id":"ce4bgrh2rcd13ifvqc8g","pricing_plan_id":"cebpf4jnsgd1na2vs0mg"},{"bike_id":"15bf6c3d-bc89-4e44-bfe7-ef27538e093c","system_id":"levelo_inurba_marseille","lat":43.2462,"lon":5.43151,"is_reserved":false,"is_disabled":false,"rental_uris":{"android":"levelo://app?vid=15bf6c3d-bc89-4e44-bfe7-ef27538e093c","ios":"levelo://app?vid=15bf6c3d-bc89-4e44-bfe7-ef27538e093c"},"vehicle_type_id":"4","last_reported":1767777542,"current_range_meters":5600,"station_id":"st_d2m6c4gdas8pm72e190g","pricing_plan_id":"cebpf4jnsgd1na2vs0mg"},{"bike_id":"c50f334f-1e66-4878-a664-9e4a75db668f","system_id":"levelo_inurba_marseille","lat":43.31167,"lon":5.38706,"is_reserved":false,"is_disabled":false,"rental_uris":{"android":"levelo://app?vid=c50f334f-1e66-4878-a664-9e4a75db668f","ios":"levelo://app?vid=c50f334f-1e66-4878-a664-9e4a75db668f"},"vehicle_type_id":"4","last_reported":1767777542,"current_range_meters":5600,"station_id":"","pricing_plan_id":"cebpf4jnsgd1na2vs0mg"},{"bike_id":"82f6d72a-169c-46dc-bf44-f03a21f411bf","system_id":"levelo_inurba_marseille","lat":43.24462,"lon":5.42551,"is_reserved":false,"is_disabled":false,"rental_uris":{"android":"levelo://app?vid=82f6d72a-169c-46dc-bf44-f03a21f411bf","ios":"levelo://app?vid=82f6d72a-169c-46dc-bf44-f03a21f411bf"},"vehicle_type_id":"4","last_reported":1767777542,"current_range_meters":5600,"station_id":"st_d4a3vfp97mjs738cd8kg","pricing_plan_id":"cebpf4jnsgd1na2vs0mg"},{"bike_id":"c7802f17-9f72-445e-afd6-1fa5877d1eea","system_id":"levelo_inurba_marseille","lat":43.299833,"lon":5.371872,"is_reserved":false,"is_disabled":false,"rental_uris":{"android":"levelo://app?vid=c7802f17-9f72-445e-afd6-1fa5877d1eea","ios":"levelo://app?vid=c7802f17-9f72-445e-afd6-1fa5877d1eea"},"vehicle_type_id":"4","last_reported":1767777542,"current_range_meters":5600,"station_id":"ce4bgr92rcd13ifvqc7g","pricing_plan_id":"cebpf4jnsgd1na2vs0mg"},{"bike_id":"1206a4a8-f4d1-423c-a34f-7b8c1b1bbace","system_id":"levelo_inurba_marseille","lat":43.30254,"lon":5.40538,"is_reserved":false,"is_disabled":false,"rental_uris":{"android":"levelo://app?vid=1206a4a8-f4d1-423c-a34f-7b8c1b1bbace","ios":"levelo://app?vid=1206a4a8-f4d1-423c-a34f-7b8c1b1bbace"},"vehicle_type_id":"4","last_reported":1767777542,"current_range_meters":5600,"station_id":"","pricing_plan_id":"cebpf4jnsgd1na2vs0mg"},{"bike_id":"d9a0abd2-c335-4ac4-897e-1e4a5c8593a0","system_id":"levelo_inurba_marseille","lat":43.309476,"lon":5.390317,"is_reserved":false,"is_disabled":false,"rental_uris":{"android":"levelo://app?vid=d9a0abd2-c335-4ac4-897e-1e4a5c8593a0","ios":"levelo://app?vid=d9a0abd2-c335-4ac4-897e-1e4a5c8593a0"},"vehicle_type_id":"4","last_reported":1767777542,"current_range_meters":5600,"station_id":"ce4bgup2rcd13ifvqco0","pricing_plan_id":"cebpf4jnsgd1na2vs0mg"},{"bike_id":"06992c46-6889-40f3-a5d1-edc32d603bfb","system_id":"levelo_inurba_marseille","lat":43.28616,"lon":5.3992,"is_reserved":false,"is_disabled":false,"rental_uris":{"android":"levelo://app?vid=06992c46-6889-40f3-a5d1-edc32d603bfb","ios":"levelo://app?vid=06992c46-6889-40f3-a5d1-edc32d603bfb"},"vehicle_type_id":"4","last_reported":1767777542,"current_range_meters":5600,"station_id":"ce4bho92rcd13ifvqh3g","pricing_plan_id":"cebpf4jnsgd1na2vs0mg"},{"bike_id":"6cfe61d6-fc1a-4eb6-bdce-b76472120e6d","system_id":"levelo_inurba_marseille","lat":43.23153,"lon":5.43722,"is_reserved":false,"is_disabled":false,"rental_uris":{"android":"levelo://app?vid=6cfe61d6-fc1a-4eb6-bdce-b76472120e6d","ios":"levelo://app?vid=6cfe61d6-fc1a-4eb6-bdce-b76472120e6d"},"vehicle_type_id":"4","last_reported":1767777542,"current_range_meters":6000,"station_id":"ce4bhmp2rcd13ifvqgog","pricing_plan_id":"cebpf4jnsgd1na2vs0mg"},{"bike_id":"459ee04e-7967-4830-998f-9d391834d978","system_id":"levelo_inurba_marseille","lat":43.253346,"lon":5.42182,"is_reserved":false,"is_disabled":false,"rental_uris":{"android":"levelo://app?vid=459ee04e-7967-4830-998f-9d391834d978","ios":"levelo://app?vid=459ee04e-7967-4830-998f-9d391834d978"},"vehicle_type_id":"4","last_reported":1767777542,"current_range_meters":6000,"station_id":"st_d2m65c5bi1j21697t3ng","pricing_plan_id":"cebpf4jnsgd1na2vs0mg"},{"bike_id":"fbecbfb7-b1b4-4fe2-8b49-8108b576e60c","system_id":"levelo_inurba_marseille","lat":43.31366,"lon":5.38491,"is_reserved":false,"is_disabled":false,"rental_uris":{"android":"levelo://app?vid=fbecbfb7-b1b4-4fe2-8b49-8108b576e60c","ios":"levelo://app?vid=fbecbfb7-b1b4-4fe2-8b49-8108b576e60c"},"vehicle_type_id":"4","last_reported":1767777542,"current_range_meters":6000,"station_id":"ce4bgt92rcd13ifvqcf0","pricing_plan_id":"cebpf4jnsgd1na2vs0mg"},{"bike_id":"72ba40ff-3811-448f-9824-0a29539e09d4","system_id":"levelo_inurba_marseille","lat":43.22555,"lon":5.4163,"is_reserved":false,"is_disabled":false,"rental_uris":{"android":"levelo://app?vid=72ba40ff-3811-448f-9824-0a29539e09d4","ios":"levelo://app?vid=72ba40ff-3811-448f-9824-0a29539e09d4"},"vehicle_type_id":"4","last_reported":1767777542,"current_range_meters":6000,"station_id":"st_d2o4gvlbi1j2169b742g","pricing_plan_id":"cebpf4jnsgd1na2vs0mg"},{"bike_id":"e7f166ed-39a1-463c-aca4-8d1f337d7202","system_id":"levelo_inurba_marseille","lat":43.2904,"lon":5.39952,"is_reserved":false,"is_disabled":false,"rental_uris":{"android":"levelo://app?vid=e7f166ed-39a1-463c-aca4-8d1f337d7202","ios":"levelo://app?vid=e7f166ed-39a1-463c-aca4-8d1f337d7202"},"vehicle_type_id":"4","last_reported":1767777542,"current_range_meters":6000,"station_id":"ce4bh392rcd13ifvqdm0","pricing_plan_id":"cebpf4jnsgd1na2vs0mg"},{"bike_id":"5e72df6a-f014-4ea4-ad60-94057d8db01a","system_id":"levelo_inurba_marseille","lat":43.259334,"lon":5.409143,"is_reserved":false,"is_disabled":false,"rental_uris":{"android":"levelo://app?vid=5e72df6a-f014-4ea4-ad60-94057d8db01a","ios":"levelo://app?vid=5e72df6a-f014-4ea4-ad60-94057d8db01a"},"vehicle_type_id":"4","last_reported":1767777542,"current_range_meters":6000,"station_id":"ce4bhm92rcd13ifvqglg","pricing_plan_id":"cebpf4jnsgd1na2vs0mg"},{"bike_id":"352a1a05-f460-42d8-aac8-3db1bf4efd1b","system_id":"levelo_inurba_marseille","lat":43.26781,"lon":5.39419,"is_reserved":false,"is_disabled":false,"rental_uris":{"android":"levelo://app?vid=352a1a05-f460-42d8-aac8-3db1bf4efd1b","ios":"levelo://app?vid=352a1a05-f460-42d8-aac8-3db1bf4efd1b"},"vehicle_type_id":"4","last_reported":1767777542,"current_range_meters":6000,"station_id":"ce4bhh12rcd13ifvqfg0","pricing_plan_id":"cebpf4jnsgd1na2vs0mg"},{"bike_id":"1ed1136a-6d18-431b-ac67-f90736592795","system_id":"levelo_inurba_marseille","lat":43.29037,"lon":5.39969,"is_reserved":false,"is_disabled":false,"rental_uris":{"android":"levelo://app?vid=1ed1136a-6d18-431b-ac67-f90736592795","ios":"levelo://app?vid=1ed1136a-6d18-431b-ac67-f90736592795"},"vehicle_type_id":"4","last_reported":1767777542,"current_range_meters":6000,"station_id":"ce4bh392rcd13ifvqdm0","pricing_plan_id":"cebpf4jnsgd1na2vs0mg"},{"bike_id":"cccedf1f-544a-43fc-88c9-0f2af297f59c","system_id":"levelo_inurba_marseille","lat":43.31392,"lon":5.39276,"is_reserved":false,"is_disabled":false,"rental_uris":{"android":"levelo://app?vid=cccedf1f-544a-43fc-88c9-0f2af297f59c","ios":"levelo://app?vid=cccedf1f-544a-43fc-88c9-0f2af297f59c"},"vehicle_type_id":"4","last_reported":1767777542,"current_range_meters":6000,"station_id":"","pricing_plan_id":"cebpf4jnsgd1na2vs0mg"},{"bike_id":"03bb26cc-5abe-463b-b42d-df12dfc80fb1","system_id":"levelo_inurba_marseille","lat":43.27996,"lon":5.40008,"is_reserved":false,"is_disabled":false,"rental_uris":{"android":"levelo://app?vid=03bb26cc-5abe-463b-b42d-df12dfc80fb1","ios":"levelo://app?vid=03bb26cc-5abe-463b-b42d-df12dfc80fb1"},"vehicle_type_id":"4","last_reported":1767777542,"current_range_meters":6000,"station_id":"ce4bho92rcd13ifvqh4g","pricing_plan_id":"cebpf4jnsgd1na2vs0mg"},{"bike_id":"e01fcde9-0e8b-4aff-ba4c-1ffad72d7e3b","system_id":"levelo_inurba_marseille","lat":43.30114,"lon":5.38777,"is_reserved":false,"is_disabled":false,"rental_uris":{"android":"levelo://app?vid=e01fcde9-0e8b-4aff-ba4c-1ffad72d7e3b","ios":"levelo://app?vid=e01fcde9-0e8b-4aff-ba4c-1ffad72d7e3b"},"vehicle_type_id":"4","last_reported":1767777542,"current_range_meters":6000,"station_id":"ce4bghh2rcd13ifvqb60","pricing_plan_id":"cebpf4jnsgd1na2vs0mg"},{"bike_id":"ab6fe2ee-200d-418c-a693-20bf0b5f3548","system_id":"levelo_inurba_marseille","lat":43.260668,"lon":5.393931,"is_reserved":false,"is_disabled":false,"rental_uris":{"android":"levelo://app?vid=ab6fe2ee-200d-418c-a693-20bf0b5f3548","ios":"levelo://app?vid=ab6fe2ee-200d-418c-a693-20bf0b5f3548"},"vehicle_type_id":"4","last_reported":1767777542,"current_range_meters":6000,"station_id":"","pricing_plan_id":"cebpf4jnsgd1na2vs0mg"},{"bike_id":"e9e6f93f-566e-422e-9b71-a79556ab8c5d","system_id":"levelo_inurba_marseille","lat":43.30286,"lon":5.45653,"is_reserved":false,"is_disabled":false,"rental_uris":{"android":"levelo://app?vid=e9e6f93f-566e-422e-9b71-a79556ab8c5d","ios":"levelo://app?vid=e9e6f93f-566e-422e-9b71-a79556ab8c5d"},"vehicle_type_id":"4","last_reported":1767777542,"current_range_meters":6000,"station_id":"","pricing_plan_id":"cebpf4jnsgd1na2vs0mg"},{"bike_id":"63931dd9-5e9c-4cb5-b5fe-d5d26fe59f6e","system_id":"levelo_inurba_marseille","lat":43.24168,"lon":5.36397,"is_reserved":false,"is_disabled":false,"rental_uris":{"android":"levelo://app?vid=63931dd9-5e9c-4cb5-b5fe-d5d26fe59f6e","ios":"levelo://app?vid=63931dd9-5e9c-4cb5-b5fe-d5d26fe59f6e"},"vehicle_type_id":"4","last_reported":1767777542,"current_range_meters":6000,"station_id":"cpo36qri1sfpv3e86is0","pricing_plan_id":"cebpf4jnsgd1na2vs0mg"},{"bike_id":"9664c604-c49f-4e11-935f-20095d606ade","system_id":"levelo_inurba_marseille","lat":43.27812,"lon":5.40706,"is_reserved":false,"is_disabled":false,"rental_uris":{"android":"levelo://app?vid=9664c604-c49f-4e11-935f-20095d606ade","ios":"levelo://app?vid=9664c604-c49f-4e11-935f-20095d606ade"},"vehicle_type_id":"4","last_reported":1767777542,"current_range_meters":6000,"station_id":"ce4bhnh2rcd13ifvqgtg","pricing_plan_id":"cebpf4jnsgd1na2vs0mg"},{"bike_id":"3f2f1631-23db-4e01-a38b-0daabcdf369a","system_id":"levelo_inurba_marseille","lat":43.29899,"lon":5.40261,"is_reserved":false,"is_disabled":false,"rental_uris":{"android":"levelo://app?vid=3f2f1631-23db-4e01-a38b-0daabcdf369a","ios":"levelo://app?vid=3f2f1631-23db-4e01-a38b-0daabcdf369a"},"vehicle_type_id":"4","last_reported":1767777542,"current_range_meters":6000,"station_id":"","pricing_plan_id":"cebpf4jnsgd1na2vs0mg"},{"bike_id":"b8408ccb-17d0-4ba3-b31e-918a33cf6e7d","system_id":"levelo_inurba_marseille","lat":43.24664,"lon":5.38174,"is_reserved":false,"is_disabled":true,"rental_uris":{"android":"levelo://app?vid=b8408ccb-17d0-4ba3-b31e-918a33cf6e7d","ios":"levelo://app?vid=b8408ccb-17d0-4ba3-b31e-918a33cf6e7d"},"vehicle_type_id":"4","last_reported":1767777542,"current_range_meters":6000,"station_id":"ce4bhih2rcd13ifvqfr0","pricing_plan_id":"cebpf4jnsgd1na2vs0mg"},{"bike_id":"d2201747-bdee-4fca-872c-80a5ab417c3a","system_id":"levelo_inurba_marseille","lat":43.27198,"lon":5.39196,"is_reserved":false,"is_disabled":false,"rental_uris":{"android":"levelo://app?vid=d2201747-bdee-4fca-872c-80a5ab417c3a","ios":"levelo://app?vid=d2201747-bdee-4fca-872c-80a5ab417c3a"},"vehicle_type_id":"4","last_reported":1767777542,"current_range_meters":6000,"station_id":"ce4bhhp2rcd13ifvqfm0","pricing_plan_id":"cebpf4jnsgd1na2vs0mg"},{"bike_id":"c4453286-0449-498d-abf8-e48425e1f180","system_id":"levelo_inurba_marseille","lat":43.26579,"lon":5.39023,"is_reserved":false,"is_disabled":false,"rental_uris":{"android":"levelo://app?vid=c4453286-0449-498d-abf8-e48425e1f180","ios":"levelo://app?vid=c4453286-0449-498d-abf8-e48425e1f180"},"vehicle_type_id":"4","last_reported":1767777542,"current_range_meters":6000,"station_id":"ce4bhe12rcd13ifvqf30","pricing_plan_id":"cebpf4jnsgd1na2vs0mg"},{"bike_id":"668d988c-0346-4f77-88c3-c05c85f4cad5","system_id":"levelo_inurba_marseille","lat":43.2807,"lon":5.39667,"is_reserved":false,"is_disabled":false,"rental_uris":{"android":"levelo://app?vid=668d988c-0346-4f77-88c3-c05c85f4cad5","ios":"levelo://app?vid=668d988c-0346-4f77-88c3-c05c85f4cad5"},"vehicle_type_id":"4","last_reported":1767777542,"current_range_meters":6000,"station_id":"ce4bho12rcd13ifvqh2g","pricing_plan_id":"cebpf4jnsgd1na2vs0mg"},{"bike_id":"8c1d60c4-e1db-4678-bbeb-96e85b234dd8","system_id":"levelo_inurba_marseille","lat":43.31339,"lon":5.36729,"is_reserved":false,"is_disabled":false,"rental_uris":{"android":"levelo://app?vid=8c1d60c4-e1db-4678-bbeb-96e85b234dd8","ios":"levelo://app?vid=8c1d60c4-e1db-4678-bbeb-96e85b234dd8"},"vehicle_type_id":"4","last_reported":1767777542,"current_range_meters":6000,"station_id":"ce4bgr92rcd13ifvqc6g","pricing_plan_id":"cebpf4jnsgd1na2vs0mg"},{"bike_id":"a12d0214-d901-4a7d-b315-4d327e206f7f","system_id":"levelo_inurba_marseille","lat":43.265488,"lon":5.372913,"is_reserved":false,"is_disabled":true,"rental_uris":{"android":"levelo://app?vid=a12d0214-d901-4a7d-b315-4d327e206f7f","ios":"levelo://app?vid=a12d0214-d901-4a7d-b315-4d327e206f7f"},"vehicle_type_id":"4","last_reported":1767777542,"current_range_meters":6400,"station_id":"ce4bhg12rcd13ifvqf70","pricing_plan_id":"cebpf4jnsgd1na2vs0mg"},{"bike_id":"16df7d25-4261-47b4-bcb3-b0edbc0538d3","system_id":"levelo_inurba_marseille","lat":43.29028,"lon":5.3756,"is_reserved":false,"is_disabled":false,"rental_uris":{"android":"levelo://app?vid=16df7d25-4261-47b4-bcb3-b0edbc0538d3","ios":"levelo://app?vid=16df7d25-4261-47b4-bcb3-b0edbc0538d3"},"vehicle_type_id":"4","last_reported":1767777542,"current_range_meters":6400,"station_id":"ce4bh692rcd13ifvqe90","pricing_plan_id":"cebpf4jnsgd1na2vs0mg"},{"bike_id":"3275b859-c08d-4706-afc8-86a6bdcab3a2","system_id":"levelo_inurba_marseille","lat":43.24398,"lon":5.37063,"is_reserved":false,"is_disabled":false,"rental_uris":{"android":"levelo://app?vid=3275b859-c08d-4706-afc8-86a6bdcab3a2","ios":"levelo://app?vid=3275b859-c08d-4706-afc8-86a6bdcab3a2"},"vehicle_type_id":"4","last_reported":1767777542,"current_range_meters":6400,"station_id":"ce4bhhh2rcd13ifvqfk0","pricing_plan_id":"cebpf4jnsgd1na2vs0mg"},{"bike_id":"00ea198f-1513-4ae8-9202-e0794b524e8a","system_id":"levelo_inurba_marseille","lat":43.29816,"lon":5.44078,"is_reserved":false,"is_disabled":false,"rental_uris":{"android":"levelo://app?vid=00ea198f-1513-4ae8-9202-e0794b524e8a","ios":"levelo://app?vid=00ea198f-1513-4ae8-9202-e0794b524e8a"},"vehicle_type_id":"4","last_reported":1767777542,"current_range_meters":6400,"station_id":"st_d3jp68qikq2c7381ktn0","pricing_plan_id":"cebpf4jnsgd1na2vs0mg"},{"bike_id":"05913a82-5d97-49fd-869e-011fe384b874","system_id":"levelo_inurba_marseille","lat":43.29843,"lon":5.378312,"is_reserved":false,"is_disabled":false,"rental_uris":{"android":"levelo://app?vid=05913a82-5d97-49fd-869e-011fe384b874","ios":"levelo://app?vid=05913a82-5d97-49fd-869e-011fe384b874"},"vehicle_type_id":"4","last_reported":1767777542,"current_range_meters":6400,"station_id":"","pricing_plan_id":"cebpf4jnsgd1na2vs0mg"},{"bike_id":"25bcfc78-3f0b-4981-8911-91eda9adaaf9","system_id":"levelo_inurba_marseille","lat":43.28375,"lon":5.41649,"is_reserved":false,"is_disabled":false,"rental_uris":{"android":"levelo://app?vid=25bcfc78-3f0b-4981-8911-91eda9adaaf9","ios":"levelo://app?vid=25bcfc78-3f0b-4981-8911-91eda9adaaf9"},"vehicle_type_id":"4","last_reported":1767777542,"current_range_meters":6400,"station_id":"","pricing_plan_id":"cebpf4jnsgd1na2vs0mg"},{"bike_id":"7d4c6a05-ddd6-4ac1-a1da-538d6f12800a","system_id":"levelo_inurba_marseille","lat":43.288664,"lon":5.425221,"is_reserved":false,"is_disabled":true,"rental_uris":{"android":"levelo://app?vid=7d4c6a05-ddd6-4ac1-a1da-538d6f12800a","ios":"levelo://app?vid=7d4c6a05-ddd6-4ac1-a1da-538d6f12800a"},"vehicle_type_id":"4","last_reported":1767777542,"current_range_meters":6400,"station_id":"st_d3b462108ojc7389ooeg","pricing_plan_id":"cebpf4jnsgd1na2vs0mg"},{"bike_id":"4b02a8d2-87b0-4ad1-9463-8088094b1434","system_id":"levelo_inurba_marseille","lat":43.293063,"lon":5.377891,"is_reserved":false,"is_disabled":false,"rental_uris":{"android":"levelo://app?vid=4b02a8d2-87b0-4ad1-9463-8088094b1434","ios":"levelo://app?vid=4b02a8d2-87b0-4ad1-9463-8088094b1434"},"vehicle_type_id":"4","last_reported":1767777542,"current_range_meters":6400,"station_id":"","pricing_plan_id":"cebpf4jnsgd1na2vs0mg"},{"bike_id":"1b7a2fca-319d-4e0f-a5a0-58a5c3ffcc52","system_id":"levelo_inurba_marseille","lat":43.2827,"lon":5.35078,"is_reserved":false,"is_disabled":false,"rental_uris":{"android":"levelo://app?vid=1b7a2fca-319d-4e0f-a5a0-58a5c3ffcc52","ios":"levelo://app?vid=1b7a2fca-319d-4e0f-a5a0-58a5c3ffcc52"},"vehicle_type_id":"4","last_reported":1767777542,"current_range_meters":6400,"station_id":"ce4bhbp2rcd13ifvqerg","pricing_plan_id":"cebpf4jnsgd1na2vs0mg"},{"bike_id":"3a1a012f-e2cb-489c-8aaa-49659e7dafd1","system_id":"levelo_inurba_marseille","lat":43.29228,"lon":5.36073,"is_reserved":false,"is_disabled":false,"rental_uris":{"android":"levelo://app?vid=3a1a012f-e2cb-489c-8aaa-49659e7dafd1","ios":"levelo://app?vid=3a1a012f-e2cb-489c-8aaa-49659e7dafd1"},"vehicle_type_id":"4","last_reported":1767777542,"current_range_meters":6400,"station_id":"ce4bhbh2rcd13ifvqeqg","pricing_plan_id":"cebpf4jnsgd1na2vs0mg"},{"bike_id":"62cb22d9-379f-4a14-9307-a2357290642a","system_id":"levelo_inurba_marseille","lat":43.29975,"lon":5.37885,"is_reserved":false,"is_disabled":false,"rental_uris":{"android":"levelo://app?vid=62cb22d9-379f-4a14-9307-a2357290642a","ios":"levelo://app?vid=62cb22d9-379f-4a14-9307-a2357290642a"},"vehicle_type_id":"4","last_reported":1767777542,"current_range_meters":6400,"station_id":"","pricing_plan_id":"cebpf4jnsgd1na2vs0mg"},{"bike_id":"255f6a83-686a-42d7-b59b-0886f81cf758","system_id":"levelo_inurba_marseille","lat":43.23143,"lon":5.43698,"is_reserved":false,"is_disabled":true,"rental_uris":{"android":"levelo://app?vid=255f6a83-686a-42d7-b59b-0886f81cf758","ios":"levelo://app?vid=255f6a83-686a-42d7-b59b-0886f81cf758"},"vehicle_type_id":"4","last_reported":1767777542,"current_range_meters":6800,"station_id":"ce4bhmp2rcd13ifvqgog","pricing_plan_id":"cebpf4jnsgd1na2vs0mg"},{"bike_id":"bc2eb7b0-bb23-4973-8afa-e645fdad0791","system_id":"levelo_inurba_marseille","lat":43.29853,"lon":5.44099,"is_reserved":false,"is_disabled":true,"rental_uris":{"android":"levelo://app?vid=bc2eb7b0-bb23-4973-8afa-e645fdad0791","ios":"levelo://app?vid=bc2eb7b0-bb23-4973-8afa-e645fdad0791"},"vehicle_type_id":"4","last_reported":1767777542,"current_range_meters":6800,"station_id":"","pricing_plan_id":"cebpf4jnsgd1na2vs0mg"},{"bike_id":"8af7f5e7-ad96-4b48-b9a1-4d3f47692c34","system_id":"levelo_inurba_marseille","lat":43.26199,"lon":5.37927,"is_reserved":false,"is_disabled":true,"rental_uris":{"android":"levelo://app?vid=8af7f5e7-ad96-4b48-b9a1-4d3f47692c34","ios":"levelo://app?vid=8af7f5e7-ad96-4b48-b9a1-4d3f47692c34"},"vehicle_type_id":"4","last_reported":1767777542,"current_range_meters":6800,"station_id":"ce4bhjp2rcd13ifvqg90","pricing_plan_id":"cebpf4jnsgd1na2vs0mg"},{"bike_id":"7f8f8133-4c5b-4469-8602-47a2aed54586","system_id":"levelo_inurba_marseille","lat":43.3031,"lon":5.43515,"is_reserved":false,"is_disabled":false,"rental_uris":{"android":"levelo://app?vid=7f8f8133-4c5b-4469-8602-47a2aed54586","ios":"levelo://app?vid=7f8f8133-4c5b-4469-8602-47a2aed54586"},"vehicle_type_id":"4","last_reported":1767777542,"current_range_meters":6800,"station_id":"","pricing_plan_id":"cebpf4jnsgd1na2vs0mg"},{"bike_id":"84f7691c-2bc8-49bf-9255-f72e6562e90e","system_id":"levelo_inurba_marseille","lat":43.28627,"lon":5.35113,"is_reserved":false,"is_disabled":true,"rental_uris":{"android":"levelo://app?vid=84f7691c-2bc8-49bf-9255-f72e6562e90e","ios":"levelo://app?vid=84f7691c-2bc8-49bf-9255-f72e6562e90e"},"vehicle_type_id":"4","last_reported":1767777542,"current_range_meters":6800,"station_id":"ce4bhch2rcd13ifvqeug","pricing_plan_id":"cebpf4jnsgd1na2vs0mg"},{"bike_id":"5b1e28d0-cfd4-4f63-bcd7-e389c7a33f6a","system_id":"levelo_inurba_marseille","lat":43.2463,"lon":5.43149,"is_reserved":false,"is_disabled":false,"rental_uris":{"android":"levelo://app?vid=5b1e28d0-cfd4-4f63-bcd7-e389c7a33f6a","ios":"levelo://app?vid=5b1e28d0-cfd4-4f63-bcd7-e389c7a33f6a"},"vehicle_type_id":"4","last_reported":1767777542,"current_range_meters":6800,"station_id":"st_d2m6c4gdas8pm72e190g","pricing_plan_id":"cebpf4jnsgd1na2vs0mg"},{"bike_id":"d4cb7d87-6e05-4a12-a6a8-801515607d75","system_id":"levelo_inurba_marseille","lat":43.32096,"lon":5.3677,"is_reserved":false,"is_disabled":false,"rental_uris":{"android":"levelo://app?vid=d4cb7d87-6e05-4a12-a6a8-801515607d75","ios":"levelo://app?vid=d4cb7d87-6e05-4a12-a6a8-801515607d75"},"vehicle_type_id":"4","last_reported":1767777542,"current_range_meters":6800,"station_id":"ce4bhrh2rcd13ifvqhug","pricing_plan_id":"cebpf4jnsgd1na2vs0mg"},{"bike_id":"d94a94f4-003c-473b-87bc-9cd8d9c889e2","system_id":"levelo_inurba_marseille","lat":43.3235,"lon":5.3676,"is_reserved":false,"is_disabled":false,"rental_uris":{"android":"levelo://app?vid=d94a94f4-003c-473b-87bc-9cd8d9c889e2","ios":"levelo://app?vid=d94a94f4-003c-473b-87bc-9cd8d9c889e2"},"vehicle_type_id":"4","last_reported":1767777542,"current_range_meters":6800,"station_id":"ce4bhsh2rcd13ifvqi2g","pricing_plan_id":"cebpf4jnsgd1na2vs0mg"},{"bike_id":"9eb913cd-2db4-48fc-a9eb-2256ba745c47","system_id":"levelo_inurba_marseille","lat":43.31704,"lon":5.437,"is_reserved":false,"is_disabled":false,"rental_uris":{"android":"levelo://app?vid=9eb913cd-2db4-48fc-a9eb-2256ba745c47","ios":"levelo://app?vid=9eb913cd-2db4-48fc-a9eb-2256ba745c47"},"vehicle_type_id":"4","last_reported":1767777542,"current_range_meters":6800,"station_id":"ce4bhp92rcd13ifvqhcg","pricing_plan_id":"cebpf4jnsgd1na2vs0mg"},{"bike_id":"c5a08515-36c2-4e55-b1a8-edb92b0fe596","system_id":"levelo_inurba_marseille","lat":43.27711,"lon":5.3889,"is_reserved":false,"is_disabled":false,"rental_uris":{"android":"levelo://app?vid=c5a08515-36c2-4e55-b1a8-edb92b0fe596","ios":"levelo://app?vid=c5a08515-36c2-4e55-b1a8-edb92b0fe596"},"vehicle_type_id":"4","last_reported":1767777542,"current_range_meters":6800,"station_id":"ce4bhi12rcd13ifvqfo0","pricing_plan_id":"cebpf4jnsgd1na2vs0mg"},{"bike_id":"26471476-0788-4cdb-9b4d-9f0b3e686ab5","system_id":"levelo_inurba_marseille","lat":43.31311,"lon":5.3868,"is_reserved":false,"is_disabled":false,"rental_uris":{"android":"levelo://app?vid=26471476-0788-4cdb-9b4d-9f0b3e686ab5","ios":"levelo://app?vid=26471476-0788-4cdb-9b4d-9f0b3e686ab5"},"vehicle_type_id":"4","last_reported":1767777542,"current_range_meters":6800,"station_id":"","pricing_plan_id":"cebpf4jnsgd1na2vs0mg"},{"bike_id":"a897355a-e9d2-40ac-9bcd-6664d85cf531","system_id":"levelo_inurba_marseille","lat":43.29795,"lon":5.3811,"is_reserved":false,"is_disabled":false,"rental_uris":{"android":"levelo://app?vid=a897355a-e9d2-40ac-9bcd-6664d85cf531","ios":"levelo://app?vid=a897355a-e9d2-40ac-9bcd-6664d85cf531"},"vehicle_type_id":"4","last_reported":1767777542,"current_range_meters":6800,"station_id":"ce4bgip2rcd13ifvqbb0","pricing_plan_id":"cebpf4jnsgd1na2vs0mg"},{"bike_id":"f5e7e1f2-33c5-4813-86da-3c7d45f6a313","system_id":"levelo_inurba_marseille","lat":43.2716,"lon":5.362827,"is_reserved":false,"is_disabled":false,"rental_uris":{"android":"levelo://app?vid=f5e7e1f2-33c5-4813-86da-3c7d45f6a313","ios":"levelo://app?vid=f5e7e1f2-33c5-4813-86da-3c7d45f6a313"},"vehicle_type_id":"4","last_reported":1767777542,"current_range_meters":6800,"station_id":"","pricing_plan_id":"cebpf4jnsgd1na2vs0mg"},{"bike_id":"ab04393d-6fa3-4001-a0f9-e3f858f95f81","system_id":"levelo_inurba_marseille","lat":43.30464,"lon":5.37913,"is_reserved":false,"is_disabled":false,"rental_uris":{"android":"levelo://app?vid=ab04393d-6fa3-4001-a0f9-e3f858f95f81","ios":"levelo://app?vid=ab04393d-6fa3-4001-a0f9-e3f858f95f81"},"vehicle_type_id":"4","last_reported":1767777542,"current_range_meters":6800,"station_id":"ce4bgup2rcd13ifvqcn0","pricing_plan_id":"cebpf4jnsgd1na2vs0mg"},{"bike_id":"764f0f35-a3f3-4115-aceb-02222da445ab","system_id":"levelo_inurba_marseille","lat":43.293125,"lon":5.385564,"is_reserved":false,"is_disabled":false,"rental_uris":{"android":"levelo://app?vid=764f0f35-a3f3-4115-aceb-02222da445ab","ios":"levelo://app?vid=764f0f35-a3f3-4115-aceb-02222da445ab"},"vehicle_type_id":"4","last_reported":1767777542,"current_range_meters":6800,"station_id":"ce4bh692rcd13ifvqea0","pricing_plan_id":"cebpf4jnsgd1na2vs0mg"},{"bike_id":"1ac84a2f-834c-4512-8844-a6504078a505","system_id":"levelo_inurba_marseille","lat":43.292308,"lon":5.36073,"is_reserved":false,"is_disabled":false,"rental_uris":{"android":"levelo://app?vid=1ac84a2f-834c-4512-8844-a6504078a505","ios":"levelo://app?vid=1ac84a2f-834c-4512-8844-a6504078a505"},"vehicle_type_id":"4","last_reported":1767777542,"current_range_meters":7200,"station_id":"ce4bhbh2rcd13ifvqeqg","pricing_plan_id":"cebpf4jnsgd1na2vs0mg"},{"bike_id":"032b3963-2994-4f10-a389-50b512ea6caa","system_id":"levelo_inurba_marseille","lat":43.29261,"lon":5.3762,"is_reserved":false,"is_disabled":true,"rental_uris":{"android":"levelo://app?vid=032b3963-2994-4f10-a389-50b512ea6caa","ios":"levelo://app?vid=032b3963-2994-4f10-a389-50b512ea6caa"},"vehicle_type_id":"4","last_reported":1767777542,"current_range_meters":7200,"station_id":"ce4bgi12rcd13ifvqb80","pricing_plan_id":"cebpf4jnsgd1na2vs0mg"},{"bike_id":"8fed6f62-4359-4f1a-a456-137293a90b31","system_id":"levelo_inurba_marseille","lat":43.29568,"lon":5.39978,"is_reserved":false,"is_disabled":false,"rental_uris":{"android":"levelo://app?vid=8fed6f62-4359-4f1a-a456-137293a90b31","ios":"levelo://app?vid=8fed6f62-4359-4f1a-a456-137293a90b31"},"vehicle_type_id":"4","last_reported":1767777542,"current_range_meters":7200,"station_id":"ce4bh312rcd13ifvqdj0","pricing_plan_id":"cebpf4jnsgd1na2vs0mg"},{"bike_id":"1511a012-c085-4f38-8ab1-d9eee4c01f86","system_id":"levelo_inurba_marseille","lat":43.24168,"lon":5.36417,"is_reserved":false,"is_disabled":false,"rental_uris":{"android":"levelo://app?vid=1511a012-c085-4f38-8ab1-d9eee4c01f86","ios":"levelo://app?vid=1511a012-c085-4f38-8ab1-d9eee4c01f86"},"vehicle_type_id":"4","last_reported":1767777542,"current_range_meters":7200,"station_id":"cpo36qri1sfpv3e86is0","pricing_plan_id":"cebpf4jnsgd1na2vs0mg"},{"bike_id":"a0baeed8-1c2d-4b3d-a98c-a841d5f11ee9","system_id":"levelo_inurba_marseille","lat":43.23144,"lon":5.43719,"is_reserved":false,"is_disabled":false,"rental_uris":{"android":"levelo://app?vid=a0baeed8-1c2d-4b3d-a98c-a841d5f11ee9","ios":"levelo://app?vid=a0baeed8-1c2d-4b3d-a98c-a841d5f11ee9"},"vehicle_type_id":"4","last_reported":1767777542,"current_range_meters":7200,"station_id":"ce4bhmp2rcd13ifvqgog","pricing_plan_id":"cebpf4jnsgd1na2vs0mg"},{"bike_id":"184adeb8-9203-4f19-b080-ca451c49fd36","system_id":"levelo_inurba_marseille","lat":43.29159,"lon":5.37164,"is_reserved":false,"is_disabled":false,"rental_uris":{"android":"levelo://app?vid=184adeb8-9203-4f19-b080-ca451c49fd36","ios":"levelo://app?vid=184adeb8-9203-4f19-b080-ca451c49fd36"},"vehicle_type_id":"4","last_reported":1767777542,"current_range_meters":7200,"station_id":"ce4bha92rcd13ifvqeh0","pricing_plan_id":"cebpf4jnsgd1na2vs0mg"},{"bike_id":"4e9944d7-ff17-431f-9506-b409b96c8161","system_id":"levelo_inurba_marseille","lat":43.25582,"lon":5.38261,"is_reserved":false,"is_disabled":false,"rental_uris":{"android":"levelo://app?vid=4e9944d7-ff17-431f-9506-b409b96c8161","ios":"levelo://app?vid=4e9944d7-ff17-431f-9506-b409b96c8161"},"vehicle_type_id":"4","last_reported":1767777542,"current_range_meters":7200,"station_id":"ce4bhih2rcd13ifvqfs0","pricing_plan_id":"cebpf4jnsgd1na2vs0mg"},{"bike_id":"0e7be8fb-8b4e-4f31-b6a9-c9720e32396b","system_id":"levelo_inurba_marseille","lat":43.26782,"lon":5.39411,"is_reserved":false,"is_disabled":false,"rental_uris":{"android":"levelo://app?vid=0e7be8fb-8b4e-4f31-b6a9-c9720e32396b","ios":"levelo://app?vid=0e7be8fb-8b4e-4f31-b6a9-c9720e32396b"},"vehicle_type_id":"4","last_reported":1767777542,"current_range_meters":7200,"station_id":"ce4bhh12rcd13ifvqfg0","pricing_plan_id":"cebpf4jnsgd1na2vs0mg"},{"bike_id":"3a3979a9-13de-42fb-b2b5-459d626be407","system_id":"levelo_inurba_marseille","lat":43.26056,"lon":5.39395,"is_reserved":false,"is_disabled":false,"rental_uris":{"android":"levelo://app?vid=3a3979a9-13de-42fb-b2b5-459d626be407","ios":"levelo://app?vid=3a3979a9-13de-42fb-b2b5-459d626be407"},"vehicle_type_id":"4","last_reported":1767777542,"current_range_meters":7200,"station_id":"ce4bhh92rcd13ifvqfj0","pricing_plan_id":"cebpf4jnsgd1na2vs0mg"},{"bike_id":"29a48381-8f9e-4811-9ddb-836ae859e822","system_id":"levelo_inurba_marseille","lat":43.26929,"lon":5.40271,"is_reserved":false,"is_disabled":false,"rental_uris":{"android":"levelo://app?vid=29a48381-8f9e-4811-9ddb-836ae859e822","ios":"levelo://app?vid=29a48381-8f9e-4811-9ddb-836ae859e822"},"vehicle_type_id":"4","last_reported":1767777542,"current_range_meters":7200,"station_id":"cjm6bp8fraef2m0cb0m0","pricing_plan_id":"cebpf4jnsgd1na2vs0mg"},{"bike_id":"7042a0e8-d2ac-44ca-802a-793de3db9458","system_id":"levelo_inurba_marseille","lat":43.314932,"lon":5.372898,"is_reserved":false,"is_disabled":false,"rental_uris":{"android":"levelo://app?vid=7042a0e8-d2ac-44ca-802a-793de3db9458","ios":"levelo://app?vid=7042a0e8-d2ac-44ca-802a-793de3db9458"},"vehicle_type_id":"4","last_reported":1767777542,"current_range_meters":7200,"station_id":"ce4bgt12rcd13ifvqcd0","pricing_plan_id":"cebpf4jnsgd1na2vs0mg"},{"bike_id":"fa22967a-e8a3-4285-a901-cb3fb5280fde","system_id":"levelo_inurba_marseille","lat":43.30375,"lon":5.42483,"is_reserved":false,"is_disabled":false,"rental_uris":{"android":"levelo://app?vid=fa22967a-e8a3-4285-a901-cb3fb5280fde","ios":"levelo://app?vid=fa22967a-e8a3-4285-a901-cb3fb5280fde"},"vehicle_type_id":"4","last_reported":1767777542,"current_range_meters":7200,"station_id":"ce4bhoh2rcd13ifvqh6g","pricing_plan_id":"cebpf4jnsgd1na2vs0mg"},{"bike_id":"a31ba797-d219-4a65-a019-17190c6343b6","system_id":"levelo_inurba_marseille","lat":43.31945,"lon":5.37606,"is_reserved":false,"is_disabled":false,"rental_uris":{"android":"levelo://app?vid=a31ba797-d219-4a65-a019-17190c6343b6","ios":"levelo://app?vid=a31ba797-d219-4a65-a019-17190c6343b6"},"vehicle_type_id":"4","last_reported":1767777542,"current_range_meters":7200,"station_id":"","pricing_plan_id":"cebpf4jnsgd1na2vs0mg"},{"bike_id":"87750b51-87af-4219-9b3c-076988857d36","system_id":"levelo_inurba_marseille","lat":43.31205,"lon":5.36913,"is_reserved":false,"is_disabled":false,"rental_uris":{"android":"levelo://app?vid=87750b51-87af-4219-9b3c-076988857d36","ios":"levelo://app?vid=87750b51-87af-4219-9b3c-076988857d36"},"vehicle_type_id":"4","last_reported":1767777542,"current_range_meters":7200,"station_id":"ce4bgl92rcd13ifvqbq0","pricing_plan_id":"cebpf4jnsgd1na2vs0mg"},{"bike_id":"d5b0c4ed-7646-45b9-b9d3-d49c57b897b7","system_id":"levelo_inurba_marseille","lat":43.297645,"lon":5.427681,"is_reserved":false,"is_disabled":false,"rental_uris":{"android":"levelo://app?vid=d5b0c4ed-7646-45b9-b9d3-d49c57b897b7","ios":"levelo://app?vid=d5b0c4ed-7646-45b9-b9d3-d49c57b897b7"},"vehicle_type_id":"4","last_reported":1767777542,"current_range_meters":7200,"station_id":"st_d3md5207bmas73dh9klg","pricing_plan_id":"cebpf4jnsgd1na2vs0mg"},{"bike_id":"533ded1c-f64a-40a7-987e-c996af8b74ed","system_id":"levelo_inurba_marseille","lat":43.23786,"lon":5.36632,"is_reserved":false,"is_disabled":false,"rental_uris":{"android":"levelo://app?vid=533ded1c-f64a-40a7-987e-c996af8b74ed","ios":"levelo://app?vid=533ded1c-f64a-40a7-987e-c996af8b74ed"},"vehicle_type_id":"4","last_reported":1767777542,"current_range_meters":7200,"station_id":"st_d3nk18o9ro0c73en2l3g","pricing_plan_id":"cebpf4jnsgd1na2vs0mg"},{"bike_id":"ca26bf00-91a6-4f27-aec0-b47516f83498","system_id":"levelo_inurba_marseille","lat":43.29042,"lon":5.39979,"is_reserved":false,"is_disabled":false,"rental_uris":{"android":"levelo://app?vid=ca26bf00-91a6-4f27-aec0-b47516f83498","ios":"levelo://app?vid=ca26bf00-91a6-4f27-aec0-b47516f83498"},"vehicle_type_id":"4","last_reported":1767777542,"current_range_meters":7200,"station_id":"ce4bh392rcd13ifvqdm0","pricing_plan_id":"cebpf4jnsgd1na2vs0mg"},{"bike_id":"8f9c263f-7889-4a85-9933-e07749969bb3","system_id":"levelo_inurba_marseille","lat":43.25552,"lon":5.38304,"is_reserved":false,"is_disabled":false,"rental_uris":{"android":"levelo://app?vid=8f9c263f-7889-4a85-9933-e07749969bb3","ios":"levelo://app?vid=8f9c263f-7889-4a85-9933-e07749969bb3"},"vehicle_type_id":"4","last_reported":1767777542,"current_range_meters":7200,"station_id":"","pricing_plan_id":"cebpf4jnsgd1na2vs0mg"},{"bike_id":"222badfd-5695-4c5f-8b12-a4274837eb6d","system_id":"levelo_inurba_marseille","lat":43.26226,"lon":5.4045,"is_reserved":false,"is_disabled":false,"rental_uris":{"android":"levelo://app?vid=222badfd-5695-4c5f-8b12-a4274837eb6d","ios":"levelo://app?vid=222badfd-5695-4c5f-8b12-a4274837eb6d"},"vehicle_type_id":"4","last_reported":1767777542,"current_range_meters":7200,"station_id":"ce4bhmh2rcd13ifvqgmg","pricing_plan_id":"cebpf4jnsgd1na2vs0mg"},{"bike_id":"dcf4f571-8a85-4bc7-8f47-c2f115200254","system_id":"levelo_inurba_marseille","lat":43.312174,"lon":5.368631,"is_reserved":false,"is_disabled":false,"rental_uris":{"android":"levelo://app?vid=dcf4f571-8a85-4bc7-8f47-c2f115200254","ios":"levelo://app?vid=dcf4f571-8a85-4bc7-8f47-c2f115200254"},"vehicle_type_id":"4","last_reported":1767777542,"current_range_meters":7200,"station_id":"ce4bgl92rcd13ifvqbq0","pricing_plan_id":"cebpf4jnsgd1na2vs0mg"},{"bike_id":"ec9151c6-ee9c-4077-aff2-0feb9119b58e","system_id":"levelo_inurba_marseille","lat":43.26832,"lon":5.40678,"is_reserved":false,"is_disabled":false,"rental_uris":{"android":"levelo://app?vid=ec9151c6-ee9c-4077-aff2-0feb9119b58e","ios":"levelo://app?vid=ec9151c6-ee9c-4077-aff2-0feb9119b58e"},"vehicle_type_id":"4","last_reported":1767777542,"current_range_meters":7200,"station_id":"","pricing_plan_id":"cebpf4jnsgd1na2vs0mg"},{"bike_id":"fdba7477-673a-4b6a-b82e-c5d6ceae84fa","system_id":"levelo_inurba_marseille","lat":43.30942,"lon":5.39048,"is_reserved":false,"is_disabled":false,"rental_uris":{"android":"levelo://app?vid=fdba7477-673a-4b6a-b82e-c5d6ceae84fa","ios":"levelo://app?vid=fdba7477-673a-4b6a-b82e-c5d6ceae84fa"},"vehicle_type_id":"4","last_reported":1767777542,"current_range_meters":7200,"station_id":"ce4bgup2rcd13ifvqco0","pricing_plan_id":"cebpf4jnsgd1na2vs0mg"},{"bike_id":"20bfaf98-2999-426d-b7f7-c7562b0dd26b","system_id":"levelo_inurba_marseille","lat":43.286202,"lon":5.35114,"is_reserved":false,"is_disabled":false,"rental_uris":{"android":"levelo://app?vid=20bfaf98-2999-426d-b7f7-c7562b0dd26b","ios":"levelo://app?vid=20bfaf98-2999-426d-b7f7-c7562b0dd26b"},"vehicle_type_id":"4","last_reported":1767777542,"current_range_meters":8000,"station_id":"ce4bhch2rcd13ifvqeug","pricing_plan_id":"cebpf4jnsgd1na2vs0mg"},{"bike_id":"0622f7c5-ee76-4fc8-a5df-57e2aa3c0085","system_id":"levelo_inurba_marseille","lat":43.29922,"lon":5.38064,"is_reserved":false,"is_disabled":false,"rental_uris":{"android":"levelo://app?vid=0622f7c5-ee76-4fc8-a5df-57e2aa3c0085","ios":"levelo://app?vid=0622f7c5-ee76-4fc8-a5df-57e2aa3c0085"},"vehicle_type_id":"4","last_reported":1767777542,"current_range_meters":8000,"station_id":"","pricing_plan_id":"cebpf4jnsgd1na2vs0mg"},{"bike_id":"d4aa93f0-043b-4bba-9e4c-d0386c2a86d0","system_id":"levelo_inurba_marseille","lat":43.23749,"lon":5.36629,"is_reserved":false,"is_disabled":false,"rental_uris":{"android":"levelo://app?vid=d4aa93f0-043b-4bba-9e4c-d0386c2a86d0","ios":"levelo://app?vid=d4aa93f0-043b-4bba-9e4c-d0386c2a86d0"},"vehicle_type_id":"4","last_reported":1767777542,"current_range_meters":8000,"station_id":"st_d3nk18o9ro0c73en2l3g","pricing_plan_id":"cebpf4jnsgd1na2vs0mg"},{"bike_id":"37dc455b-6bec-4838-8bba-f2eb31c9a25b","system_id":"levelo_inurba_marseille","lat":43.25584,"lon":5.38255,"is_reserved":false,"is_disabled":false,"rental_uris":{"android":"levelo://app?vid=37dc455b-6bec-4838-8bba-f2eb31c9a25b","ios":"levelo://app?vid=37dc455b-6bec-4838-8bba-f2eb31c9a25b"},"vehicle_type_id":"4","last_reported":1767777542,"current_range_meters":8000,"station_id":"ce4bhih2rcd13ifvqfs0","pricing_plan_id":"cebpf4jnsgd1na2vs0mg"},{"bike_id":"d30f62ac-dec2-409d-8c30-da410b16e3e6","system_id":"levelo_inurba_marseille","lat":43.29526,"lon":5.3855,"is_reserved":false,"is_disabled":false,"rental_uris":{"android":"levelo://app?vid=d30f62ac-dec2-409d-8c30-da410b16e3e6","ios":"levelo://app?vid=d30f62ac-dec2-409d-8c30-da410b16e3e6"},"vehicle_type_id":"4","last_reported":1767777542,"current_range_meters":8000,"station_id":"ce4bgih2rcd13ifvqba0","pricing_plan_id":"cebpf4jnsgd1na2vs0mg"},{"bike_id":"8dc5da37-981d-4a5b-9f76-f34eb21bf316","system_id":"levelo_inurba_marseille","lat":43.30779,"lon":5.37664,"is_reserved":false,"is_disabled":false,"rental_uris":{"android":"levelo://app?vid=8dc5da37-981d-4a5b-9f76-f34eb21bf316","ios":"levelo://app?vid=8dc5da37-981d-4a5b-9f76-f34eb21bf316"},"vehicle_type_id":"4","last_reported":1767777542,"current_range_meters":8000,"station_id":"ce4bgv92rcd13ifvqcq0","pricing_plan_id":"cebpf4jnsgd1na2vs0mg"},{"bike_id":"754e4108-4c57-4763-b08c-1bdebeea8ce2","system_id":"levelo_inurba_marseille","lat":43.28695,"lon":5.38603,"is_reserved":false,"is_disabled":false,"rental_uris":{"android":"levelo://app?vid=754e4108-4c57-4763-b08c-1bdebeea8ce2","ios":"levelo://app?vid=754e4108-4c57-4763-b08c-1bdebeea8ce2"},"vehicle_type_id":"4","last_reported":1767777542,"current_range_meters":8000,"station_id":"","pricing_plan_id":"cebpf4jnsgd1na2vs0mg"},{"bike_id":"067ca337-309a-4444-a755-1124e864d8c9","system_id":"levelo_inurba_marseille","lat":43.29521,"lon":5.39428,"is_reserved":false,"is_disabled":true,"rental_uris":{"android":"levelo://app?vid=067ca337-309a-4444-a755-1124e864d8c9","ios":"levelo://app?vid=067ca337-309a-4444-a755-1124e864d8c9"},"vehicle_type_id":"4","last_reported":1767777542,"current_range_meters":8000,"station_id":"ce4bh292rcd13ifvqdf0","pricing_plan_id":"cebpf4jnsgd1na2vs0mg"},{"bike_id":"7159e6a5-a318-480f-adc2-dc04a9a524b6","system_id":"levelo_inurba_marseille","lat":43.283695,"lon":5.386322,"is_reserved":false,"is_disabled":false,"rental_uris":{"android":"levelo://app?vid=7159e6a5-a318-480f-adc2-dc04a9a524b6","ios":"levelo://app?vid=7159e6a5-a318-480f-adc2-dc04a9a524b6"},"vehicle_type_id":"4","last_reported":1767777542,"current_range_meters":8000,"station_id":"ce4bh492rcd13ifvqdvg","pricing_plan_id":"cebpf4jnsgd1na2vs0mg"},{"bike_id":"6174981e-bed3-4bbe-a3fa-13b0fcc75de4","system_id":"levelo_inurba_marseille","lat":43.23143,"lon":5.43712,"is_reserved":false,"is_disabled":true,"rental_uris":{"android":"levelo://app?vid=6174981e-bed3-4bbe-a3fa-13b0fcc75de4","ios":"levelo://app?vid=6174981e-bed3-4bbe-a3fa-13b0fcc75de4"},"vehicle_type_id":"4","last_reported":1767777542,"current_range_meters":8000,"station_id":"","pricing_plan_id":"cebpf4jnsgd1na2vs0mg"},{"bike_id":"44fa942a-7f3c-4db8-b498-e46e05b08cc0","system_id":"levelo_inurba_marseille","lat":43.26463,"lon":5.39586,"is_reserved":false,"is_disabled":false,"rental_uris":{"android":"levelo://app?vid=44fa942a-7f3c-4db8-b498-e46e05b08cc0","ios":"levelo://app?vid=44fa942a-7f3c-4db8-b498-e46e05b08cc0"},"vehicle_type_id":"4","last_reported":1767777542,"current_range_meters":8000,"station_id":"","pricing_plan_id":"cebpf4jnsgd1na2vs0mg"},{"bike_id":"44833d54-0e08-4546-b788-0c7150b05378","system_id":"levelo_inurba_marseille","lat":43.28508,"lon":5.48398,"is_reserved":false,"is_disabled":false,"rental_uris":{"android":"levelo://app?vid=44833d54-0e08-4546-b788-0c7150b05378","ios":"levelo://app?vid=44833d54-0e08-4546-b788-0c7150b05378"},"vehicle_type_id":"4","last_reported":1767777542,"current_range_meters":8000,"station_id":"st_d3svhcjqgbts73a3dn0g","pricing_plan_id":"cebpf4jnsgd1na2vs0mg"},{"bike_id":"990829c5-72c3-49fa-a9fc-41696aef8e3c","system_id":"levelo_inurba_marseille","lat":43.28275,"lon":5.35072,"is_reserved":false,"is_disabled":false,"rental_uris":{"android":"levelo://app?vid=990829c5-72c3-49fa-a9fc-41696aef8e3c","ios":"levelo://app?vid=990829c5-72c3-49fa-a9fc-41696aef8e3c"},"vehicle_type_id":"4","last_reported":1767777542,"current_range_meters":8000,"station_id":"ce4bhbp2rcd13ifvqerg","pricing_plan_id":"cebpf4jnsgd1na2vs0mg"},{"bike_id":"28119d97-7102-4d29-b6d8-83d7d4b56a13","system_id":"levelo_inurba_marseille","lat":43.32349,"lon":5.36734,"is_reserved":false,"is_disabled":false,"rental_uris":{"android":"levelo://app?vid=28119d97-7102-4d29-b6d8-83d7d4b56a13","ios":"levelo://app?vid=28119d97-7102-4d29-b6d8-83d7d4b56a13"},"vehicle_type_id":"4","last_reported":1767777542,"current_range_meters":8000,"station_id":"ce4bhsh2rcd13ifvqi2g","pricing_plan_id":"cebpf4jnsgd1na2vs0mg"},{"bike_id":"9be0bd05-7842-4bcd-b06d-07f5f6eb3394","system_id":"levelo_inurba_marseille","lat":43.30945,"lon":5.39042,"is_reserved":false,"is_disabled":false,"rental_uris":{"android":"levelo://app?vid=9be0bd05-7842-4bcd-b06d-07f5f6eb3394","ios":"levelo://app?vid=9be0bd05-7842-4bcd-b06d-07f5f6eb3394"},"vehicle_type_id":"4","last_reported":1767777542,"current_range_meters":8000,"station_id":"ce4bgup2rcd13ifvqco0","pricing_plan_id":"cebpf4jnsgd1na2vs0mg"},{"bike_id":"35c3cbbb-0469-478d-b4da-bfb159e2f13b","system_id":"levelo_inurba_marseille","lat":43.259357,"lon":5.409096,"is_reserved":false,"is_disabled":true,"rental_uris":{"android":"levelo://app?vid=35c3cbbb-0469-478d-b4da-bfb159e2f13b","ios":"levelo://app?vid=35c3cbbb-0469-478d-b4da-bfb159e2f13b"},"vehicle_type_id":"4","last_reported":1767777542,"current_range_meters":8000,"station_id":"ce4bhm92rcd13ifvqglg","pricing_plan_id":"cebpf4jnsgd1na2vs0mg"},{"bike_id":"848e137d-21fe-4c26-848f-05b8489f34e3","system_id":"levelo_inurba_marseille","lat":43.26952,"lon":5.38634,"is_reserved":false,"is_disabled":false,"rental_uris":{"android":"levelo://app?vid=848e137d-21fe-4c26-848f-05b8489f34e3","ios":"levelo://app?vid=848e137d-21fe-4c26-848f-05b8489f34e3"},"vehicle_type_id":"4","last_reported":1767777542,"current_range_meters":8000,"station_id":"ce4bhh92rcd13ifvqfh0","pricing_plan_id":"cebpf4jnsgd1na2vs0mg"},{"bike_id":"880b2184-4a63-48ea-a817-fb107d1856d2","system_id":"levelo_inurba_marseille","lat":43.30328,"lon":5.40434,"is_reserved":false,"is_disabled":false,"rental_uris":{"android":"levelo://app?vid=880b2184-4a63-48ea-a817-fb107d1856d2","ios":"levelo://app?vid=880b2184-4a63-48ea-a817-fb107d1856d2"},"vehicle_type_id":"4","last_reported":1767777542,"current_range_meters":8000,"station_id":"ce4bh012rcd13ifvqd10","pricing_plan_id":"cebpf4jnsgd1na2vs0mg"},{"bike_id":"f6db9a54-08ec-4658-b4cb-391b19945c46","system_id":"levelo_inurba_marseille","lat":43.29557,"lon":5.37516,"is_reserved":false,"is_disabled":false,"rental_uris":{"android":"levelo://app?vid=f6db9a54-08ec-4658-b4cb-391b19945c46","ios":"levelo://app?vid=f6db9a54-08ec-4658-b4cb-391b19945c46"},"vehicle_type_id":"4","last_reported":1767777542,"current_range_meters":8000,"station_id":"ce4bgh92rcd13ifvqb50","pricing_plan_id":"cebpf4jnsgd1na2vs0mg"},{"bike_id":"d563daa9-a26a-468e-96ac-aa24a58d4870","system_id":"levelo_inurba_marseille","lat":43.27217,"lon":5.392,"is_reserved":false,"is_disabled":false,"rental_uris":{"android":"levelo://app?vid=d563daa9-a26a-468e-96ac-aa24a58d4870","ios":"levelo://app?vid=d563daa9-a26a-468e-96ac-aa24a58d4870"},"vehicle_type_id":"4","last_reported":1767777542,"current_range_meters":8400,"station_id":"ce4bhhp2rcd13ifvqfm0","pricing_plan_id":"cebpf4jnsgd1na2vs0mg"},{"bike_id":"42d7f82f-3557-4ba7-9974-9f02193f22cc","system_id":"levelo_inurba_marseille","lat":43.295262,"lon":5.375011,"is_reserved":false,"is_disabled":true,"rental_uris":{"android":"levelo://app?vid=42d7f82f-3557-4ba7-9974-9f02193f22cc","ios":"levelo://app?vid=42d7f82f-3557-4ba7-9974-9f02193f22cc"},"vehicle_type_id":"4","last_reported":1767777542,"current_range_meters":8400,"station_id":"","pricing_plan_id":"cebpf4jnsgd1na2vs0mg"},{"bike_id":"ed0c6d59-7520-4aac-9675-7c9c83c1521a","system_id":"levelo_inurba_marseille","lat":43.28941,"lon":5.3664,"is_reserved":false,"is_disabled":false,"rental_uris":{"android":"levelo://app?vid=ed0c6d59-7520-4aac-9675-7c9c83c1521a","ios":"levelo://app?vid=ed0c6d59-7520-4aac-9675-7c9c83c1521a"},"vehicle_type_id":"4","last_reported":1767777542,"current_range_meters":8400,"station_id":"ce4bhap2rcd13ifvqek0","pricing_plan_id":"cebpf4jnsgd1na2vs0mg"},{"bike_id":"eec7f246-2540-4ab7-b168-ea7ca4ebb9e0","system_id":"levelo_inurba_marseille","lat":43.31382,"lon":5.36821,"is_reserved":false,"is_disabled":false,"rental_uris":{"android":"levelo://app?vid=eec7f246-2540-4ab7-b168-ea7ca4ebb9e0","ios":"levelo://app?vid=eec7f246-2540-4ab7-b168-ea7ca4ebb9e0"},"vehicle_type_id":"4","last_reported":1767777542,"current_range_meters":8400,"station_id":"ce4bgr92rcd13ifvqc6g","pricing_plan_id":"cebpf4jnsgd1na2vs0mg"},{"bike_id":"9c6b089e-85a9-4e6a-874d-0589b214e949","system_id":"levelo_inurba_marseille","lat":43.26761,"lon":5.40262,"is_reserved":false,"is_disabled":false,"rental_uris":{"android":"levelo://app?vid=9c6b089e-85a9-4e6a-874d-0589b214e949","ios":"levelo://app?vid=9c6b089e-85a9-4e6a-874d-0589b214e949"},"vehicle_type_id":"4","last_reported":1767777542,"current_range_meters":8400,"station_id":"ce501612rcd8frsf0b60","pricing_plan_id":"cebpf4jnsgd1na2vs0mg"},{"bike_id":"7fc53fa6-f85c-423c-86d5-704a6cda6137","system_id":"levelo_inurba_marseille","lat":43.31233,"lon":5.36868,"is_reserved":false,"is_disabled":false,"rental_uris":{"android":"levelo://app?vid=7fc53fa6-f85c-423c-86d5-704a6cda6137","ios":"levelo://app?vid=7fc53fa6-f85c-423c-86d5-704a6cda6137"},"vehicle_type_id":"4","last_reported":1767777542,"current_range_meters":8400,"station_id":"ce4bgl92rcd13ifvqbq0","pricing_plan_id":"cebpf4jnsgd1na2vs0mg"},{"bike_id":"c0c8695a-5dc1-437f-a20b-09acef88b652","system_id":"levelo_inurba_marseille","lat":43.28338,"lon":5.3507,"is_reserved":false,"is_disabled":false,"rental_uris":{"android":"levelo://app?vid=c0c8695a-5dc1-437f-a20b-09acef88b652","ios":"levelo://app?vid=c0c8695a-5dc1-437f-a20b-09acef88b652"},"vehicle_type_id":"4","last_reported":1767777542,"current_range_meters":8400,"station_id":"","pricing_plan_id":"cebpf4jnsgd1na2vs0mg"},{"bike_id":"f323eec5-f654-4bdf-8118-8c8db52565b4","system_id":"levelo_inurba_marseille","lat":43.28537,"lon":5.38656,"is_reserved":false,"is_disabled":false,"rental_uris":{"android":"levelo://app?vid=f323eec5-f654-4bdf-8118-8c8db52565b4","ios":"levelo://app?vid=f323eec5-f654-4bdf-8118-8c8db52565b4"},"vehicle_type_id":"4","last_reported":1767777542,"current_range_meters":8400,"station_id":"","pricing_plan_id":"cebpf4jnsgd1na2vs0mg"},{"bike_id":"d311e83f-a1e3-4e4b-bc51-98ee46938913","system_id":"levelo_inurba_marseille","lat":43.29044,"lon":5.3996,"is_reserved":false,"is_disabled":false,"rental_uris":{"android":"levelo://app?vid=d311e83f-a1e3-4e4b-bc51-98ee46938913","ios":"levelo://app?vid=d311e83f-a1e3-4e4b-bc51-98ee46938913"},"vehicle_type_id":"4","last_reported":1767777542,"current_range_meters":8400,"station_id":"ce4bh392rcd13ifvqdm0","pricing_plan_id":"cebpf4jnsgd1na2vs0mg"},{"bike_id":"84bf8d34-d2d1-47c4-aefa-979970cfa538","system_id":"levelo_inurba_marseille","lat":43.28432,"lon":5.39191,"is_reserved":false,"is_disabled":false,"rental_uris":{"android":"levelo://app?vid=84bf8d34-d2d1-47c4-aefa-979970cfa538","ios":"levelo://app?vid=84bf8d34-d2d1-47c4-aefa-979970cfa538"},"vehicle_type_id":"4","last_reported":1767777542,"current_range_meters":8400,"station_id":"ce4bhoh2rcd13ifvqh5g","pricing_plan_id":"cebpf4jnsgd1na2vs0mg"},{"bike_id":"98790e95-c908-4bc9-9227-66e899c0bc97","system_id":"levelo_inurba_marseille","lat":43.28951,"lon":5.36627,"is_reserved":false,"is_disabled":true,"rental_uris":{"android":"levelo://app?vid=98790e95-c908-4bc9-9227-66e899c0bc97","ios":"levelo://app?vid=98790e95-c908-4bc9-9227-66e899c0bc97"},"vehicle_type_id":"4","last_reported":1767777542,"current_range_meters":8400,"station_id":"ce4bhap2rcd13ifvqek0","pricing_plan_id":"cebpf4jnsgd1na2vs0mg"},{"bike_id":"9a6bcb44-e334-4131-b81f-1fe3b2f62c5f","system_id":"levelo_inurba_marseille","lat":43.232333,"lon":5.436689,"is_reserved":false,"is_disabled":false,"rental_uris":{"android":"levelo://app?vid=9a6bcb44-e334-4131-b81f-1fe3b2f62c5f","ios":"levelo://app?vid=9a6bcb44-e334-4131-b81f-1fe3b2f62c5f"},"vehicle_type_id":"4","last_reported":1767777542,"current_range_meters":8400,"station_id":"","pricing_plan_id":"cebpf4jnsgd1na2vs0mg"},{"bike_id":"f0200f6d-0992-4e28-b5d9-384057d8264b","system_id":"levelo_inurba_marseille","lat":43.29264,"lon":5.36861,"is_reserved":false,"is_disabled":false,"rental_uris":{"android":"levelo://app?vid=f0200f6d-0992-4e28-b5d9-384057d8264b","ios":"levelo://app?vid=f0200f6d-0992-4e28-b5d9-384057d8264b"},"vehicle_type_id":"4","last_reported":1767777542,"current_range_meters":8400,"station_id":"ce4bhbp2rcd13ifvqesg","pricing_plan_id":"cebpf4jnsgd1na2vs0mg"},{"bike_id":"1adc3559-caf4-41bc-8e48-2363b7a9cdd0","system_id":"levelo_inurba_marseille","lat":43.29532,"lon":5.37499,"is_reserved":false,"is_disabled":false,"rental_uris":{"android":"levelo://app?vid=1adc3559-caf4-41bc-8e48-2363b7a9cdd0","ios":"levelo://app?vid=1adc3559-caf4-41bc-8e48-2363b7a9cdd0"},"vehicle_type_id":"4","last_reported":1767777542,"current_range_meters":8400,"station_id":"ce4bgkp2rcd13ifvqbmg","pricing_plan_id":"cebpf4jnsgd1na2vs0mg"},{"bike_id":"e93b9aae-c8c6-4131-b213-c37952396f7c","system_id":"levelo_inurba_marseille","lat":43.29315,"lon":5.37184,"is_reserved":false,"is_disabled":false,"rental_uris":{"android":"levelo://app?vid=e93b9aae-c8c6-4131-b213-c37952396f7c","ios":"levelo://app?vid=e93b9aae-c8c6-4131-b213-c37952396f7c"},"vehicle_type_id":"4","last_reported":1767777542,"current_range_meters":8400,"station_id":"ce4bgh92rcd13ifvqb40","pricing_plan_id":"cebpf4jnsgd1na2vs0mg"},{"bike_id":"21e03b61-2744-44f8-9e7a-134e6a34e1f1","system_id":"levelo_inurba_marseille","lat":43.30948,"lon":5.39032,"is_reserved":false,"is_disabled":false,"rental_uris":{"android":"levelo://app?vid=21e03b61-2744-44f8-9e7a-134e6a34e1f1","ios":"levelo://app?vid=21e03b61-2744-44f8-9e7a-134e6a34e1f1"},"vehicle_type_id":"4","last_reported":1767777542,"current_range_meters":8400,"station_id":"ce4bgup2rcd13ifvqco0","pricing_plan_id":"cebpf4jnsgd1na2vs0mg"},{"bike_id":"3e49cea2-bd33-4ac2-8cd0-87582e06fb0a","system_id":"levelo_inurba_marseille","lat":43.2962,"lon":5.37178,"is_reserved":false,"is_disabled":false,"rental_uris":{"android":"levelo://app?vid=3e49cea2-bd33-4ac2-8cd0-87582e06fb0a","ios":"levelo://app?vid=3e49cea2-bd33-4ac2-8cd0-87582e06fb0a"},"vehicle_type_id":"4","last_reported":1767777542,"current_range_meters":8400,"station_id":"ce4bgnh2rcd13ifvqc0g","pricing_plan_id":"cebpf4jnsgd1na2vs0mg"},{"bike_id":"bf3c5452-0238-43e2-b338-8c19911c88fc","system_id":"levelo_inurba_marseille","lat":43.22533,"lon":5.348305,"is_reserved":false,"is_disabled":false,"rental_uris":{"android":"levelo://app?vid=bf3c5452-0238-43e2-b338-8c19911c88fc","ios":"levelo://app?vid=bf3c5452-0238-43e2-b338-8c19911c88fc"},"vehicle_type_id":"4","last_reported":1767777542,"current_range_meters":8400,"station_id":"st_cvj6r9ubvosntc0bgbag","pricing_plan_id":"cebpf4jnsgd1na2vs0mg"},{"bike_id":"35f085a3-e56f-4686-aebb-d9e576fd73b4","system_id":"levelo_inurba_marseille","lat":43.28463,"lon":5.3591,"is_reserved":false,"is_disabled":true,"rental_uris":{"android":"levelo://app?vid=35f085a3-e56f-4686-aebb-d9e576fd73b4","ios":"levelo://app?vid=35f085a3-e56f-4686-aebb-d9e576fd73b4"},"vehicle_type_id":"4","last_reported":1767777542,"current_range_meters":8400,"station_id":"ce4bhah2rcd13ifvqei0","pricing_plan_id":"cebpf4jnsgd1na2vs0mg"},{"bike_id":"663c6ec3-cdff-49a2-861d-91b77b2f8ef0","system_id":"levelo_inurba_marseille","lat":43.26345,"lon":5.40121,"is_reserved":false,"is_disabled":false,"rental_uris":{"android":"levelo://app?vid=663c6ec3-cdff-49a2-861d-91b77b2f8ef0","ios":"levelo://app?vid=663c6ec3-cdff-49a2-861d-91b77b2f8ef0"},"vehicle_type_id":"4","last_reported":1767777542,"current_range_meters":8400,"station_id":"","pricing_plan_id":"cebpf4jnsgd1na2vs0mg"},{"bike_id":"98249e23-d727-42e2-bc64-1013f35aedc9","system_id":"levelo_inurba_marseille","lat":43.23046,"lon":5.35505,"is_reserved":false,"is_disabled":false,"rental_uris":{"android":"levelo://app?vid=98249e23-d727-42e2-bc64-1013f35aedc9","ios":"levelo://app?vid=98249e23-d727-42e2-bc64-1013f35aedc9"},"vehicle_type_id":"4","last_reported":1767777542,"current_range_meters":8800,"station_id":"cpo3342slgdg3j2ifvpg","pricing_plan_id":"cebpf4jnsgd1na2vs0mg"},{"bike_id":"865283d9-7468-4c7f-b0c5-3cfacbe37880","system_id":"levelo_inurba_marseille","lat":43.26036,"lon":5.37582,"is_reserved":false,"is_disabled":false,"rental_uris":{"android":"levelo://app?vid=865283d9-7468-4c7f-b0c5-3cfacbe37880","ios":"levelo://app?vid=865283d9-7468-4c7f-b0c5-3cfacbe37880"},"vehicle_type_id":"4","last_reported":1767777542,"current_range_meters":8800,"station_id":"ce4bhgh2rcd13ifvqfa0","pricing_plan_id":"cebpf4jnsgd1na2vs0mg"},{"bike_id":"cb4606a4-ce77-419c-9379-1b48a89b0fcb","system_id":"levelo_inurba_marseille","lat":43.29034,"lon":5.39966,"is_reserved":false,"is_disabled":false,"rental_uris":{"android":"levelo://app?vid=cb4606a4-ce77-419c-9379-1b48a89b0fcb","ios":"levelo://app?vid=cb4606a4-ce77-419c-9379-1b48a89b0fcb"},"vehicle_type_id":"4","last_reported":1767777542,"current_range_meters":8800,"station_id":"ce4bh392rcd13ifvqdm0","pricing_plan_id":"cebpf4jnsgd1na2vs0mg"},{"bike_id":"58225b8d-28fd-4cc2-91f8-83ea7f334d78","system_id":"levelo_inurba_marseille","lat":43.31196,"lon":5.36882,"is_reserved":false,"is_disabled":false,"rental_uris":{"android":"levelo://app?vid=58225b8d-28fd-4cc2-91f8-83ea7f334d78","ios":"levelo://app?vid=58225b8d-28fd-4cc2-91f8-83ea7f334d78"},"vehicle_type_id":"4","last_reported":1767777542,"current_range_meters":8800,"station_id":"ce4bgl92rcd13ifvqbq0","pricing_plan_id":"cebpf4jnsgd1na2vs0mg"},{"bike_id":"d293f938-06f4-47c6-ae6d-906beae764af","system_id":"levelo_inurba_marseille","lat":43.27999,"lon":5.40012,"is_reserved":false,"is_disabled":false,"rental_uris":{"android":"levelo://app?vid=d293f938-06f4-47c6-ae6d-906beae764af","ios":"levelo://app?vid=d293f938-06f4-47c6-ae6d-906beae764af"},"vehicle_type_id":"4","last_reported":1767777542,"current_range_meters":8800,"station_id":"ce4bho92rcd13ifvqh4g","pricing_plan_id":"cebpf4jnsgd1na2vs0mg"},{"bike_id":"f9694d4b-6e2f-4fc5-ae06-59dad6b1ea4d","system_id":"levelo_inurba_marseille","lat":43.25018,"lon":5.37536,"is_reserved":false,"is_disabled":false,"rental_uris":{"android":"levelo://app?vid=f9694d4b-6e2f-4fc5-ae06-59dad6b1ea4d","ios":"levelo://app?vid=f9694d4b-6e2f-4fc5-ae06-59dad6b1ea4d"},"vehicle_type_id":"4","last_reported":1767777542,"current_range_meters":8800,"station_id":"","pricing_plan_id":"cebpf4jnsgd1na2vs0mg"},{"bike_id":"be75706c-d84a-4279-b5a3-376dba45c6a6","system_id":"levelo_inurba_marseille","lat":43.24807,"lon":5.37468,"is_reserved":false,"is_disabled":false,"rental_uris":{"android":"levelo://app?vid=be75706c-d84a-4279-b5a3-376dba45c6a6","ios":"levelo://app?vid=be75706c-d84a-4279-b5a3-376dba45c6a6"},"vehicle_type_id":"4","last_reported":1767777542,"current_range_meters":8800,"station_id":"ce4bhgh2rcd13ifvqfb0","pricing_plan_id":"cebpf4jnsgd1na2vs0mg"},{"bike_id":"6161915a-379c-47d1-a0b6-32b98cda77f1","system_id":"levelo_inurba_marseille","lat":43.32444,"lon":5.38953,"is_reserved":false,"is_disabled":false,"rental_uris":{"android":"levelo://app?vid=6161915a-379c-47d1-a0b6-32b98cda77f1","ios":"levelo://app?vid=6161915a-379c-47d1-a0b6-32b98cda77f1"},"vehicle_type_id":"4","last_reported":1767777542,"current_range_meters":8800,"station_id":"","pricing_plan_id":"cebpf4jnsgd1na2vs0mg"},{"bike_id":"c62a9bda-3b00-45fd-ad11-72d8c84661c7","system_id":"levelo_inurba_marseille","lat":43.29623,"lon":5.37715,"is_reserved":false,"is_disabled":false,"rental_uris":{"android":"levelo://app?vid=c62a9bda-3b00-45fd-ad11-72d8c84661c7","ios":"levelo://app?vid=c62a9bda-3b00-45fd-ad11-72d8c84661c7"},"vehicle_type_id":"4","last_reported":1767777542,"current_range_meters":8800,"station_id":"ce4bgi92rcd13ifvqb90","pricing_plan_id":"cebpf4jnsgd1na2vs0mg"},{"bike_id":"772bf3b5-2fb2-4abd-a529-fdf3012df8cc","system_id":"levelo_inurba_marseille","lat":43.25191,"lon":5.40595,"is_reserved":false,"is_disabled":false,"rental_uris":{"android":"levelo://app?vid=772bf3b5-2fb2-4abd-a529-fdf3012df8cc","ios":"levelo://app?vid=772bf3b5-2fb2-4abd-a529-fdf3012df8cc"},"vehicle_type_id":"4","last_reported":1767777542,"current_range_meters":8800,"station_id":"","pricing_plan_id":"cebpf4jnsgd1na2vs0mg"},{"bike_id":"0b08096c-4995-449d-9715-13377335d815","system_id":"levelo_inurba_marseille","lat":43.22561,"lon":5.41659,"is_reserved":false,"is_disabled":false,"rental_uris":{"android":"levelo://app?vid=0b08096c-4995-449d-9715-13377335d815","ios":"levelo://app?vid=0b08096c-4995-449d-9715-13377335d815"},"vehicle_type_id":"4","last_reported":1767777542,"current_range_meters":8800,"station_id":"st_d2o4gvlbi1j2169b742g","pricing_plan_id":"cebpf4jnsgd1na2vs0mg"},{"bike_id":"8e9cd320-222e-4849-8f3f-db8fcd5c5954","system_id":"levelo_inurba_marseille","lat":43.31815,"lon":5.36865,"is_reserved":false,"is_disabled":false,"rental_uris":{"android":"levelo://app?vid=8e9cd320-222e-4849-8f3f-db8fcd5c5954","ios":"levelo://app?vid=8e9cd320-222e-4849-8f3f-db8fcd5c5954"},"vehicle_type_id":"4","last_reported":1767777542,"current_range_meters":8800,"station_id":"","pricing_plan_id":"cebpf4jnsgd1na2vs0mg"},{"bike_id":"a19c9616-438c-4eef-92be-d7a1608a9cc7","system_id":"levelo_inurba_marseille","lat":43.30389,"lon":5.42681,"is_reserved":false,"is_disabled":false,"rental_uris":{"android":"levelo://app?vid=a19c9616-438c-4eef-92be-d7a1608a9cc7","ios":"levelo://app?vid=a19c9616-438c-4eef-92be-d7a1608a9cc7"},"vehicle_type_id":"4","last_reported":1767777542,"current_range_meters":8800,"station_id":"","pricing_plan_id":"cebpf4jnsgd1na2vs0mg"},{"bike_id":"d0d67774-3af3-4c86-b7b6-8109c321647b","system_id":"levelo_inurba_marseille","lat":43.22949,"lon":5.35375,"is_reserved":false,"is_disabled":false,"rental_uris":{"android":"levelo://app?vid=d0d67774-3af3-4c86-b7b6-8109c321647b","ios":"levelo://app?vid=d0d67774-3af3-4c86-b7b6-8109c321647b"},"vehicle_type_id":"4","last_reported":1767777542,"current_range_meters":8800,"station_id":"cpo3532slgdg3j2ikp40","pricing_plan_id":"cebpf4jnsgd1na2vs0mg"},{"bike_id":"12a38840-670e-44ad-8c9e-b0dc45e83126","system_id":"levelo_inurba_marseille","lat":43.27494,"lon":5.42456,"is_reserved":false,"is_disabled":false,"rental_uris":{"android":"levelo://app?vid=12a38840-670e-44ad-8c9e-b0dc45e83126","ios":"levelo://app?vid=12a38840-670e-44ad-8c9e-b0dc45e83126"},"vehicle_type_id":"4","last_reported":1767777542,"current_range_meters":8800,"station_id":"ce4bhn92rcd13ifvqgrg","pricing_plan_id":"cebpf4jnsgd1na2vs0mg"},{"bike_id":"7bed6c7f-598e-48e9-bae3-214e5eee84f3","system_id":"levelo_inurba_marseille","lat":43.24469,"lon":5.42567,"is_reserved":false,"is_disabled":false,"rental_uris":{"android":"levelo://app?vid=7bed6c7f-598e-48e9-bae3-214e5eee84f3","ios":"levelo://app?vid=7bed6c7f-598e-48e9-bae3-214e5eee84f3"},"vehicle_type_id":"4","last_reported":1767777542,"current_range_meters":9200,"station_id":"st_d4a3vfp97mjs738cd8kg","pricing_plan_id":"cebpf4jnsgd1na2vs0mg"},{"bike_id":"839df18d-c407-47cc-99f6-a9f34852bf45","system_id":"levelo_inurba_marseille","lat":43.3013,"lon":5.37383,"is_reserved":false,"is_disabled":false,"rental_uris":{"android":"levelo://app?vid=839df18d-c407-47cc-99f6-a9f34852bf45","ios":"levelo://app?vid=839df18d-c407-47cc-99f6-a9f34852bf45"},"vehicle_type_id":"4","last_reported":1767777542,"current_range_meters":9200,"station_id":"ce4bgs92rcd13ifvqcc0","pricing_plan_id":"cebpf4jnsgd1na2vs0mg"},{"bike_id":"842fcc96-d751-4bb7-a69b-92e82162fd5c","system_id":"levelo_inurba_marseille","lat":43.28457,"lon":5.35904,"is_reserved":false,"is_disabled":true,"rental_uris":{"android":"levelo://app?vid=842fcc96-d751-4bb7-a69b-92e82162fd5c","ios":"levelo://app?vid=842fcc96-d751-4bb7-a69b-92e82162fd5c"},"vehicle_type_id":"4","last_reported":1767777542,"current_range_meters":9200,"station_id":"ce4bhah2rcd13ifvqei0","pricing_plan_id":"cebpf4jnsgd1na2vs0mg"},{"bike_id":"fff3f068-c1e3-4ab2-a40f-e4ac951b41a1","system_id":"levelo_inurba_marseille","lat":43.25818,"lon":5.3942,"is_reserved":false,"is_disabled":false,"rental_uris":{"android":"levelo://app?vid=fff3f068-c1e3-4ab2-a40f-e4ac951b41a1","ios":"levelo://app?vid=fff3f068-c1e3-4ab2-a40f-e4ac951b41a1"},"vehicle_type_id":"4","last_reported":1767777542,"current_range_meters":9200,"station_id":"ce4bhip2rcd13ifvqft0","pricing_plan_id":"cebpf4jnsgd1na2vs0mg"},{"bike_id":"948bd2ed-8fdc-4ef6-9827-a943cc835e12","system_id":"levelo_inurba_marseille","lat":43.30124,"lon":5.43118,"is_reserved":false,"is_disabled":false,"rental_uris":{"android":"levelo://app?vid=948bd2ed-8fdc-4ef6-9827-a943cc835e12","ios":"levelo://app?vid=948bd2ed-8fdc-4ef6-9827-a943cc835e12"},"vehicle_type_id":"4","last_reported":1767777542,"current_range_meters":9200,"station_id":"st_d3js3co5814s73ftftug","pricing_plan_id":"cebpf4jnsgd1na2vs0mg"},{"bike_id":"7e56ead6-0dcc-483d-86d1-d4af73c68e4a","system_id":"levelo_inurba_marseille","lat":43.29383,"lon":5.38613,"is_reserved":false,"is_disabled":true,"rental_uris":{"android":"levelo://app?vid=7e56ead6-0dcc-483d-86d1-d4af73c68e4a","ios":"levelo://app?vid=7e56ead6-0dcc-483d-86d1-d4af73c68e4a"},"vehicle_type_id":"4","last_reported":1767777542,"current_range_meters":9200,"station_id":"","pricing_plan_id":"cebpf4jnsgd1na2vs0mg"},{"bike_id":"4aabd3c7-a850-4421-adb8-405a6c9e2c28","system_id":"levelo_inurba_marseille","lat":43.237821,"lon":5.366338,"is_reserved":false,"is_disabled":false,"rental_uris":{"android":"levelo://app?vid=4aabd3c7-a850-4421-adb8-405a6c9e2c28","ios":"levelo://app?vid=4aabd3c7-a850-4421-adb8-405a6c9e2c28"},"vehicle_type_id":"4","last_reported":1767777542,"current_range_meters":9200,"station_id":"st_d3nk18o9ro0c73en2l3g","pricing_plan_id":"cebpf4jnsgd1na2vs0mg"},{"bike_id":"6780348f-fb93-4884-95fc-676ab6258ce9","system_id":"levelo_inurba_marseille","lat":43.2708,"lon":5.3829,"is_reserved":false,"is_disabled":true,"rental_uris":{"android":"levelo://app?vid=6780348f-fb93-4884-95fc-676ab6258ce9","ios":"levelo://app?vid=6780348f-fb93-4884-95fc-676ab6258ce9"},"vehicle_type_id":"4","last_reported":1767777542,"current_range_meters":9200,"station_id":"st_d3n2fo6cfp8s73cte1j0","pricing_plan_id":"cebpf4jnsgd1na2vs0mg"},{"bike_id":"aab1eae5-1ce7-43d6-b8a6-2f66333d3fe2","system_id":"levelo_inurba_marseille","lat":43.26571,"lon":5.39045,"is_reserved":false,"is_disabled":false,"rental_uris":{"android":"levelo://app?vid=aab1eae5-1ce7-43d6-b8a6-2f66333d3fe2","ios":"levelo://app?vid=aab1eae5-1ce7-43d6-b8a6-2f66333d3fe2"},"vehicle_type_id":"4","last_reported":1767777542,"current_range_meters":9200,"station_id":"ce4bhe12rcd13ifvqf30","pricing_plan_id":"cebpf4jnsgd1na2vs0mg"},{"bike_id":"318ab7ee-cd4e-4fbb-a198-dc67360e53a7","system_id":"levelo_inurba_marseille","lat":43.22935,"lon":5.35392,"is_reserved":false,"is_disabled":false,"rental_uris":{"android":"levelo://app?vid=318ab7ee-cd4e-4fbb-a198-dc67360e53a7","ios":"levelo://app?vid=318ab7ee-cd4e-4fbb-a198-dc67360e53a7"},"vehicle_type_id":"4","last_reported":1767777542,"current_range_meters":9200,"station_id":"cpo3532slgdg3j2ikp40","pricing_plan_id":"cebpf4jnsgd1na2vs0mg"},