{"last_updated":1715972755,"ttl":30,"version":"2.2","data":{"bikes":[{"bike_id":"b1495c46-7568-4e1c-a92e-67a156dbd2d0","system_id":"levelo_inurba_marseille","lat":43.309076,"lon":5.368465,"is_reserved":false,"is_disabled":false,"rental_uris":{"android":"levelo://app?vid=b1495c46-7568-4e1c-a92e-67a156dbd2d0","ios":"levelo://app?vid=b1495c46-7568-4e1c-a92e-67a156dbd2d0"},"vehicle_type_id":"4","last_reported":1715972755,"current_range_meters":0,"station_id":"ce4bgn92rcd13ifvqbvg","pricing_plan_id":"cebpf4jnsgd1na2vs0mg"},{"bike_id":"6ed94e28-9923-4854-a462-8433ec7c835e","system_id":"levelo_inurba_marseille","lat":43.31489,"lon":5.37306,"is_reserved":false,"is_disabled":false,"rental_uris":{"android":"levelo://app?vid=6ed94e28-9923-4854-a462-8433ec7c835e","ios":"levelo://app?vid=6ed94e28-9923-4854-a462-8433ec7c835e"},"vehicle_type_id":"4","last_reported":1715972755,"current_range_meters":5600,"station_id":"","pricing_plan_id":"cebpf4jnsgd1na2vs0mg"},{"bike_id":"99702000-e7ee-4f9d-b9ff-cdf09b14489c","system_id":"levelo_inurba_marseille","lat":43.311131,"lon":5.377651,"is_reserved":false,"is_disabled":false,"rental_uris":{"android":"levelo://app?vid=99702000-e7ee-4f9d-b9ff-cdf09b14489c","ios":"levelo://app?vid=99702000-e7ee-4f9d-b9ff-cdf09b14489c"},"vehicle_type_id":"4","last_reported":1715972755,"current_range_meters":20800,"station_id":"ce4bgt92rcd13ifvqcg0","pricing_plan_id":"cebpf4jnsgd1na2vs0mg"},{"bike_id":"108b9bd1-166e-482c-9eb6-86e148b92aa1","system_id":"levelo_inurba_marseille","lat":43.307945,"lon":5.376487,"is_reserved":false,"is_disabled":false,"rental_uris":{"android":"levelo://app?vid=108b9bd1-166e-482c-9eb6-86e148b92aa1","ios":"levelo://app?vid=108b9bd1-166e-482c-9eb6-86e148b92aa1"},"vehicle_type_id":"4","last_reported":1715972755,"current_range_meters":21600,"station_id":"ce4bgv92rcd13ifvqcq0","pricing_plan_id":"cebpf4jnsgd1na2vs0mg"},{"bike_id":"f673e677-d4c8-421e-9042-9eff9f34ccae","system_id":"levelo_inurba_marseille","lat":43.317039,"lon":5.377367,"is_reserved":false,"is_disabled":false,"rental_uris":{"android":"levelo://app?vid=f673e677-d4c8-421e-9042-9eff9f34ccae","ios":"levelo://app?vid=f673e677-d4c8-421e-9042-9eff9f34ccae"},"vehicle_type_id":"4","last_reported":1715972755,"current_range_meters":0,"station_id":"ce4bgth2rcd13ifvqch0","pricing_plan_id":"cebpf4jnsgd1na2vs0mg"},{"bike_id":"2ca93583-f8ef-4cab-b63b-0bd60cf56f8d","system_id":"levelo_inurba_marseille","lat":43.317075,"lon":5.377367,"is_reserved":false,"is_disabled":false,"rental_uris":{"android":"levelo://app?vid=2ca93583-f8ef-4cab-b63b-0bd60cf56f8d","ios":"levelo://app?vid=2ca93583-f8ef-4cab-b63b-0bd60cf56f8d"},"vehicle_type_id":"4","last_reported":1715972755,"current_range_meters":14800,"station_id":"ce4bgth2rcd13ifvqch0","pricing_plan_id":"cebpf4jnsgd1na2vs0mg"},{"bike_id":"ccecdaee-dcfc-495f-b201-275903d7e8cb","system_id":"levelo_inurba_marseille","lat":43.317075,"lon":5.377367,"is_reserved":false,"is_disabled":false,"rental_uris":{"android":"levelo://app?vid=ccecdaee-dcfc-495f-b201-275903d7e8cb","ios":"levelo://app?vid=ccecdaee-dcfc-495f-b201-275903d7e8cb"},"vehicle_type_id":"4","last_reported":1715972755,"current_range_meters":5600,"station_id":"ce4bgth2rcd13ifvqch0","pricing_plan_id":"cebpf4jnsgd1na2vs0mg"},{"bike_id":"0e8a560e-438f-4f06-b034-2973d6ab4faa","system_id":"levelo_inurba_marseille","lat":43.317075,"lon":5.377367,"is_reserved":false,"is_disabled":false,"rental_uris":{"android":"levelo://app?vid=0e8a560e-438f-4f06-b034-2973d6ab4faa","ios":"levelo://app?vid=0e8a560e-438f-4f06-b034-2973d6ab4faa"},"vehicle_type_id":"4","last_reported":1715972755,"current_range_meters":30400,"station_id":"ce4bgth2rcd13ifvqch0","pricing_plan_id":"cebpf4jnsgd1na2vs0mg"},{"bike_id":"17347c0c-a9d7-4849-86e0-c8bd84b73428","system_id":"levelo_inurba_marseille","lat":43.313571,"lon":5.384829,"is_reserved":false,"is_disabled":false,"rental_uris":{"android":"levelo://app?vid=17347c0c-a9d7-4849-86e0-c8bd84b73428","ios":"levelo://app?vid=17347c0c-a9d7-4849-86e0-c8bd84b73428"},"vehicle_type_id":"4","last_reported":1715972755,"current_range_meters":0,"station_id":"ce4bgt92rcd13ifvqcf0","pricing_plan_id":"cebpf4jnsgd1na2vs0mg"},{"bike_id":"10f35097-2643-4e5e-a8b9-c09f86f89747","system_id":"levelo_inurba_marseille","lat":43.317075,"lon":5.377367,"is_reserved":false,"is_disabled":false,"rental_uris":{"android":"levelo://app?vid=10f35097-2643-4e5e-a8b9-c09f86f89747","ios":"levelo://app?vid=10f35097-2643-4e5e-a8b9-c09f86f89747"},"vehicle_type_id":"4","last_reported":1715972755,"current_range_meters":25600,"station_id":"ce4bgth2rcd13ifvqch0","pricing_plan_id":"cebpf4jnsgd1na2vs0mg"},{"bike_id":"3188de10-a512-48c3-a15c-0ac300408b43","system_id":"levelo_inurba_marseille","lat":43.3171,"lon":5.37761,"is_reserved":false,"is_disabled":false,"rental_uris":{"android":"levelo://app?vid=3188de10-a512-48c3-a15c-0ac300408b43","ios":"levelo://app?vid=3188de10-a512-48c3-a15c-0ac300408b43"},"vehicle_type_id":"4","last_reported":1715972755,"current_range_meters":0,"station_id":"ce4bgth2rcd13ifvqch0","pricing_plan_id":"cebpf4jnsgd1na2vs0mg"},{"bike_id":"a634758a-cbbd-4530-981f-9202c7b1fb54","system_id":"levelo_inurba_marseille","lat":43.317087,"lon":5.37763,"is_reserved":false,"is_disabled":false,"rental_uris":{"android":"levelo://app?vid=a634758a-cbbd-4530-981f-9202c7b1fb54","ios":"levelo://app?vid=a634758a-cbbd-4530-981f-9202c7b1fb54"},"vehicle_type_id":"4","last_reported":1715972755,"current_range_meters":18000,"station_id":"ce4bgth2rcd13ifvqch0","pricing_plan_id":"cebpf4jnsgd1na2vs0mg"},{"bike_id":"50ef0be6-797c-4899-9470-19337badfb4f","system_id":"levelo_inurba_marseille","lat":43.317102,"lon":5.377623,"is_reserved":false,"is_disabled":false,"rental_uris":{"android":"levelo://app?vid=50ef0be6-797c-4899-9470-19337badfb4f","ios":"levelo://app?vid=50ef0be6-797c-4899-9470-19337badfb4f"},"vehicle_type_id":"4","last_reported":1715972755,"current_range_meters":11600,"station_id":"ce4bgth2rcd13ifvqch0","pricing_plan_id":"cebpf4jnsgd1na2vs0mg"},{"bike_id":"84b12753-80bf-47af-9502-f8e46524e089","system_id":"levelo_inurba_marseille","lat":43.317105,"lon":5.37768,"is_reserved":false,"is_disabled":false,"rental_uris":{"android":"levelo://app?vid=84b12753-80bf-47af-9502-f8e46524e089","ios":"levelo://app?vid=84b12753-80bf-47af-9502-f8e46524e089"},"vehicle_type_id":"4","last_reported":1715972755,"current_range_meters":5200,"station_id":"","pricing_plan_id":"cebpf4jnsgd1na2vs0mg"},{"bike_id":"f7c4e49b-2c75-4bc4-a1c7-586006f157b4","system_id":"levelo_inurba_marseille","lat":43.30304,"lon":5.368987,"is_reserved":false,"is_disabled":false,"rental_uris":{"android":"levelo://app?vid=f7c4e49b-2c75-4bc4-a1c7-586006f157b4","ios":"levelo://app?vid=f7c4e49b-2c75-4bc4-a1c7-586006f157b4"},"vehicle_type_id":"4","last_reported":1715972755,"current_range_meters":0,"station_id":"ce4bgqh2rcd13ifvqc5g","pricing_plan_id":"cebpf4jnsgd1na2vs0mg"},{"bike_id":"ea5bbf86-c9dd-4d85-b799-106559b3c3ae","system_id":"levelo_inurba_marseille","lat":43.30304,"lon":5.368987,"is_reserved":false,"is_disabled":false,"rental_uris":{"android":"levelo://app?vid=ea5bbf86-c9dd-4d85-b799-106559b3c3ae","ios":"levelo://app?vid=ea5bbf86-c9dd-4d85-b799-106559b3c3ae"},"vehicle_type_id":"4","last_reported":1715972755,"current_range_meters":24400,"station_id":"ce4bgqh2rcd13ifvqc5g","pricing_plan_id":"cebpf4jnsgd1na2vs0mg"},{"bike_id":"235ab67d-3a59-46df-88b0-a249e3a84a44","system_id":"levelo_inurba_marseille","lat":43.303046,"lon":5.368981,"is_reserved":false,"is_disabled":false,"rental_uris":{"android":"levelo://app?vid=235ab67d-3a59-46df-88b0-a249e3a84a44","ios":"levelo://app?vid=235ab67d-3a59-46df-88b0-a249e3a84a44"},"vehicle_type_id":"4","last_reported":1715972755,"current_range_meters":0,"station_id":"ce4bgqh2rcd13ifvqc5g","pricing_plan_id":"cebpf4jnsgd1na2vs0mg"},{"bike_id":"30513bfa-5a9b-4be6-941d-da49323aac4e","system_id":"levelo_inurba_marseille","lat":43.31537,"lon":5.38027,"is_reserved":false,"is_disabled":false,"rental_uris":{"android":"levelo://app?vid=30513bfa-5a9b-4be6-941d-da49323aac4e","ios":"levelo://app?vid=30513bfa-5a9b-4be6-941d-da49323aac4e"},"vehicle_type_id":"4","last_reported":1715972755,"current_range_meters":0,"station_id":"ce4bhsp2rcd13ifvqi50","pricing_plan_id":"cebpf4jnsgd1na2vs0mg"},{"bike_id":"d7742e96-2769-4c84-90ed-d953c76df656","system_id":"levelo_inurba_marseille","lat":43.301939,"lon":5.366286,"is_reserved":false,"is_disabled":false,"rental_uris":{"android":"levelo://app?vid=d7742e96-2769-4c84-90ed-d953c76df656","ios":"levelo://app?vid=d7742e96-2769-4c84-90ed-d953c76df656"},"vehicle_type_id":"4","last_reported":1715972755,"current_range_meters":9600,"station_id":"ce4bgrh2rcd13ifvqc8g","pricing_plan_id":"cebpf4jnsgd1na2vs0mg"},{"bike_id":"1cee9094-ecec-40af-a41f-01e283f647dc","system_id":"levelo_inurba_marseille","lat":43.308012,"lon":5.381511,"is_reserved":false,"is_disabled":false,"rental_uris":{"android":"levelo://app?vid=1cee9094-ecec-40af-a41f-01e283f647dc","ios":"levelo://app?vid=1cee9094-ecec-40af-a41f-01e283f647dc"},"vehicle_type_id":"4","last_reported":1715972755,"current_range_meters":12000,"station_id":"ce4bgt12rcd13ifvqce0","pricing_plan_id":"cebpf4jnsgd1na2vs0mg"},{"bike_id":"10244c7d-1ac3-43ff-a336-df5d0e91ffe0","system_id":"levelo_inurba_marseille","lat":43.308012,"lon":5.381511,"is_reserved":false,"is_disabled":false,"rental_uris":{"android":"levelo://app?vid=10244c7d-1ac3-43ff-a336-df5d0e91ffe0","ios":"levelo://app?vid=10244c7d-1ac3-43ff-a336-df5d0e91ffe0"},"vehicle_type_id":"4","last_reported":1715972755,"current_range_meters":0,"station_id":"ce4bgt12rcd13ifvqce0","pricing_plan_id":"cebpf4jnsgd1na2vs0mg"},{"bike_id":"6b6d2c70-4b9a-4076-b242-ba634e5f6b4f","system_id":"levelo_inurba_marseille","lat":43.3081,"lon":5.38159,"is_reserved":false,"is_disabled":false,"rental_uris":{"android":"levelo://app?vid=6b6d2c70-4b9a-4076-b242-ba634e5f6b4f","ios":"levelo://app?vid=6b6d2c70-4b9a-4076-b242-ba634e5f6b4f"},"vehicle_type_id":"4","last_reported":1715972755,"current_range_meters":0,"station_id":"ce4bgt12rcd13ifvqce0","pricing_plan_id":"cebpf4jnsgd1na2vs0mg"},{"bike_id":"9d8f7ee6-be7b-4b2e-ba1c-92986d40dc97","system_id":"levelo_inurba_marseille","lat":43.304606,"lon":5.379026,"is_reserved":false,"is_disabled":false,"rental_uris":{"android":"levelo://app?vid=9d8f7ee6-be7b-4b2e-ba1c-92986d40dc97","ios":"levelo://app?vid=9d8f7ee6-be7b-4b2e-ba1c-92986d40dc97"},"vehicle_type_id":"4","last_reported":1715972755,"current_range_meters":2800,"station_id":"ce4bgup2rcd13ifvqcn0","pricing_plan_id":"cebpf4jnsgd1na2vs0mg"},{"bike_id":"431f2d86-8460-4254-abde-165c410f2475","system_id":"levelo_inurba_marseille","lat":43.304606,"lon":5.379026,"is_reserved":false,"is_disabled":false,"rental_uris":{"android":"levelo://app?vid=431f2d86-8460-4254-abde-165c410f2475","ios":"levelo://app?vid=431f2d86-8460-4254-abde-165c410f2475"},"vehicle_type_id":"4","last_reported":1715972755,"current_range_meters":0,"station_id":"ce4bgup2rcd13ifvqcn0","pricing_plan_id":"cebpf4jnsgd1na2vs0mg"},{"bike_id":"7522fd6a-8a27-4544-97ec-c630c74fb350","system_id":"levelo_inurba_marseille","lat":43.304606,"lon":5.379026,"is_reserved":false,"is_disabled":false,"rental_uris":{"android":"levelo://app?vid=7522fd6a-8a27-4544-97ec-c630c74fb350","ios":"levelo://app?vid=7522fd6a-8a27-4544-97ec-c630c74fb350"},"vehicle_type_id":"4","last_reported":1715972755,"current_range_meters":0,"station_id":"ce4bgup2rcd13ifvqcn0","pricing_plan_id":"cebpf4jnsgd1na2vs0mg"},{"bike_id":"48387c7a-9007-41c9-9591-a75e18eb3eec","system_id":"levelo_inurba_marseille","lat":43.304606,"lon":5.379026,"is_reserved":false,"is_disabled":false,"rental_uris":{"android":"levelo://app?vid=48387c7a-9007-41c9-9591-a75e18eb3eec","ios":"levelo://app?vid=48387c7a-9007-41c9-9591-a75e18eb3eec"},"vehicle_type_id":"4","last_reported":1715972755,"current_range_meters":400,"station_id":"ce4bgup2rcd13ifvqcn0","pricing_plan_id":"cebpf4jnsgd1na2vs0mg"},{"bike_id":"3c0c0408-f4d6-48de-b223-758ed982f8a5","system_id":"levelo_inurba_marseille","lat":43.324771,"lon":5.36557,"is_reserved":false,"is_disabled":false,"rental_uris":{"android":"levelo://app?vid=3c0c0408-f4d6-48de-b223-758ed982f8a5","ios":"levelo://app?vid=3c0c0408-f4d6-48de-b223-758ed982f8a5"},"vehicle_type_id":"4","last_reported":1715972755,"current_range_meters":9200,"station_id":"ce4bhs12rcd13ifvqhvg","pricing_plan_id":"cebpf4jnsgd1na2vs0mg"},{"bike_id":"9e3e0b8e-5386-43f6-ba89-c3b244deb1bb","system_id":"levelo_inurba_marseille","lat":43.324771,"lon":5.36557,"is_reserved":false,"is_disabled":false,"rental_uris":{"android":"levelo://app?vid=9e3e0b8e-5386-43f6-ba89-c3b244deb1bb","ios":"levelo://app?vid=9e3e0b8e-5386-43f6-ba89-c3b244deb1bb"},"vehicle_type_id":"4","last_reported":1715972755,"current_range_meters":31200,"station_id":"ce4bhs12rcd13ifvqhvg","pricing_plan_id":"cebpf4jnsgd1na2vs0mg"},{"bike_id":"3dbc6134-f1e9-4d28-8b1f-9c4ebf1c7bd9","system_id":"levelo_inurba_marseille","lat":43.324771,"lon":5.36557,"is_reserved":false,"is_disabled":false,"rental_uris":{"android":"levelo://app?vid=3dbc6134-f1e9-4d28-8b1f-9c4ebf1c7bd9","ios":"levelo://app?vid=3dbc6134-f1e9-4d28-8b1f-9c4ebf1c7bd9"},"vehicle_type_id":"4","last_reported":1715972755,"current_range_meters":14800,"station_id":"ce4bhs12rcd13ifvqhvg","pricing_plan_id":"cebpf4jnsgd1na2vs0mg"},{"bike_id":"a2384d67-dfae-486a-9550-153248ab6db9","system_id":"levelo_inurba_marseille","lat":43.310804,"lon":5.38359,"is_reserved":false,"is_disabled":false,"rental_uris":{"android":"levelo://app?vid=a2384d67-dfae-486a-9550-153248ab6db9","ios":"levelo://app?vid=a2384d67-dfae-486a-9550-153248ab6db9"},"vehicle_type_id":"4","last_reported":1715972755,"current_range_meters":4400,"station_id":"ce4bgv92rcd13ifvqcr0","pricing_plan_id":"cebpf4jnsgd1na2vs0mg"},{"bike_id":"5e1f1357-eb41-4fb1-aac5-28c78f4b1386","system_id":"levelo_inurba_marseille","lat":43.310804,"lon":5.38359,"is_reserved":false,"is_disabled":false,"rental_uris":{"android":"levelo://app?vid=5e1f1357-eb41-4fb1-aac5-28c78f4b1386","ios":"levelo://app?vid=5e1f1357-eb41-4fb1-aac5-28c78f4b1386"},"vehicle_type_id":"4","last_reported":1715972755,"current_range_meters":24400,"station_id":"ce4bgv92rcd13ifvqcr0","pricing_plan_id":"cebpf4jnsgd1na2vs0mg"},{"bike_id":"b5f41425-b4c8-47ba-86e4-07d5a989b2b8","system_id":"levelo_inurba_marseille","lat":43.30143,"lon":5.37413,"is_reserved":false,"is_disabled":false,"rental_uris":{"android":"levelo://app?vid=b5f41425-b4c8-47ba-86e4-07d5a989b2b8","ios":"levelo://app?vid=b5f41425-b4c8-47ba-86e4-07d5a989b2b8"},"vehicle_type_id":"4","last_reported":1715972755,"current_range_meters":10400,"station_id":"ce4bgs92rcd13ifvqcc0","pricing_plan_id":"cebpf4jnsgd1na2vs0mg"},{"bike_id":"f3f11193-73ac-404e-b727-44acd40fa4c0","system_id":"levelo_inurba_marseille","lat":43.319935,"lon":5.381699,"is_reserved":false,"is_disabled":false,"rental_uris":{"android":"levelo://app?vid=f3f11193-73ac-404e-b727-44acd40fa4c0","ios":"levelo://app?vid=f3f11193-73ac-404e-b727-44acd40fa4c0"},"vehicle_type_id":"4","last_reported":1715972755,"current_range_meters":800,"station_id":"ce4bhr12rcd13ifvqhpg","pricing_plan_id":"cebpf4jnsgd1na2vs0mg"},{"bike_id":"1468c17a-bb27-4864-9b9c-e329d0b099fb","system_id":"levelo_inurba_marseille","lat":43.31368,"lon":5.38491,"is_reserved":false,"is_disabled":false,"rental_uris":{"android":"levelo://app?vid=1468c17a-bb27-4864-9b9c-e329d0b099fb","ios":"levelo://app?vid=1468c17a-bb27-4864-9b9c-e329d0b099fb"},"vehicle_type_id":"4","last_reported":1715972755,"current_range_meters":4400,"station_id":"ce4bgt92rcd13ifvqcf0","pricing_plan_id":"cebpf4jnsgd1na2vs0mg"},{"bike_id":"bd72cc7b-fa86-457c-9c70-e0a3401dd69c","system_id":"levelo_inurba_marseille","lat":43.31365,"lon":5.38492,"is_reserved":false,"is_disabled":false,"rental_uris":{"android":"levelo://app?vid=bd72cc7b-fa86-457c-9c70-e0a3401dd69c","ios":"levelo://app?vid=bd72cc7b-fa86-457c-9c70-e0a3401dd69c"},"vehicle_type_id":"4","last_reported":1715972755,"current_range_meters":11600,"station_id":"ce4bgt92rcd13ifvqcf0","pricing_plan_id":"cebpf4jnsgd1na2vs0mg"},{"bike_id":"0e59246d-3e7a-4e1b-b15a-e2e12e36d4c1","system_id":"levelo_inurba_marseille","lat":43.313571,"lon":5.384829,"is_reserved":false,"is_disabled":false,"rental_uris":{"android":"levelo://app?vid=0e59246d-3e7a-4e1b-b15a-e2e12e36d4c1","ios":"levelo://app?vid=0e59246d-3e7a-4e1b-b15a-e2e12e36d4c1"},"vehicle_type_id":"4","last_reported":1715972755,"current_range_meters":17600,"station_id":"ce4bgt92rcd13ifvqcf0","pricing_plan_id":"cebpf4jnsgd1na2vs0mg"},{"bike_id":"b43712b2-9fcd-4c29-b2a1-ab3499da4d06","system_id":"levelo_inurba_marseille","lat":43.3137,"lon":5.38493,"is_reserved":false,"is_disabled":false,"rental_uris":{"android":"levelo://app?vid=b43712b2-9fcd-4c29-b2a1-ab3499da4d06","ios":"levelo://app?vid=b43712b2-9fcd-4c29-b2a1-ab3499da4d06"},"vehicle_type_id":"4","last_reported":1715972755,"current_range_meters":10800,"station_id":"ce4bgt92rcd13ifvqcf0","pricing_plan_id":"cebpf4jnsgd1na2vs0mg"},{"bike_id":"08d2b0c5-5560-4912-bb54-e320f7c7d912","system_id":"levelo_inurba_marseille","lat":43.31356,"lon":5.38495,"is_reserved":false,"is_disabled":false,"rental_uris":{"android":"levelo://app?vid=08d2b0c5-5560-4912-bb54-e320f7c7d912","ios":"levelo://app?vid=08d2b0c5-5560-4912-bb54-e320f7c7d912"},"vehicle_type_id":"4","last_reported":1715972755,"current_range_meters":0,"station_id":"ce4bgt92rcd13ifvqcf0","pricing_plan_id":"cebpf4jnsgd1na2vs0mg"},{"bike_id":"bdb2f496-f1c4-4bb6-a7bf-98c51f2fa8aa","system_id":"levelo_inurba_marseille","lat":43.313571,"lon":5.384829,"is_reserved":false,"is_disabled":false,"rental_uris":{"android":"levelo://app?vid=bdb2f496-f1c4-4bb6-a7bf-98c51f2fa8aa","ios":"levelo://app?vid=bdb2f496-f1c4-4bb6-a7bf-98c51f2fa8aa"},"vehicle_type_id":"4","last_reported":1715972755,"current_range_meters":0,"station_id":"ce4bgt92rcd13ifvqcf0","pricing_plan_id":"cebpf4jnsgd1na2vs0mg"},{"bike_id":"c2c6dd62-c5e2-47a1-83bd-bc85439c4f49","system_id":"levelo_inurba_marseille","lat":43.313571,"lon":5.384829,"is_reserved":false,"is_disabled":false,"rental_uris":{"android":"levelo://app?vid=c2c6dd62-c5e2-47a1-83bd-bc85439c4f49","ios":"levelo://app?vid=c2c6dd62-c5e2-47a1-83bd-bc85439c4f49"},"vehicle_type_id":"4","last_reported":1715972755,"current_range_meters":14800,"station_id":"ce4bgt92rcd13ifvqcf0","pricing_plan_id":"cebpf4jnsgd1na2vs0mg"},{"bike_id":"f653286e-820e-403c-bc5d-a1a60ccb5403","system_id":"levelo_inurba_marseille","lat":43.313571,"lon":5.384829,"is_reserved":false,"is_disabled":false,"rental_uris":{"android":"levelo://app?vid=f653286e-820e-403c-bc5d-a1a60ccb5403","ios":"levelo://app?vid=f653286e-820e-403c-bc5d-a1a60ccb5403"},"vehicle_type_id":"4","last_reported":1715972755,"current_range_meters":19200,"station_id":"ce4bgt92rcd13ifvqcf0","pricing_plan_id":"cebpf4jnsgd1na2vs0mg"},{"bike_id":"00ab6d0f-17dd-4fda-b4b3-0e63c2d2666b","system_id":"levelo_inurba_marseille","lat":43.313571,"lon":5.384829,"is_reserved":false,"is_disabled":false,"rental_uris":{"android":"levelo://app?vid=00ab6d0f-17dd-4fda-b4b3-0e63c2d2666b","ios":"levelo://app?vid=00ab6d0f-17dd-4fda-b4b3-0e63c2d2666b"},"vehicle_type_id":"4","last_reported":1715972755,"current_range_meters":12400,"station_id":"ce4bgt92rcd13ifvqcf0","pricing_plan_id":"cebpf4jnsgd1na2vs0mg"},{"bike_id":"fa8cac1f-9bcd-41ef-98f0-6f71756a2c5e","system_id":"levelo_inurba_marseille","lat":43.299724,"lon":5.371829,"is_reserved":false,"is_disabled":false,"rental_uris":{"android":"levelo://app?vid=fa8cac1f-9bcd-41ef-98f0-6f71756a2c5e","ios":"levelo://app?vid=fa8cac1f-9bcd-41ef-98f0-6f71756a2c5e"},"vehicle_type_id":"4","last_reported":1715972755,"current_range_meters":26400,"station_id":"ce4bgr92rcd13ifvqc7g","pricing_plan_id":"cebpf4jnsgd1na2vs0mg"},{"bike_id":"b78719bd-972a-4459-b821-67d847f4f279","system_id":"levelo_inurba_marseille","lat":43.299724,"lon":5.371829,"is_reserved":false,"is_disabled":false,"rental_uris":{"android":"levelo://app?vid=b78719bd-972a-4459-b821-67d847f4f279","ios":"levelo://app?vid=b78719bd-972a-4459-b821-67d847f4f279"},"vehicle_type_id":"4","last_reported":1715972755,"current_range_meters":29200,"station_id":"ce4bgr92rcd13ifvqc7g","pricing_plan_id":"cebpf4jnsgd1na2vs0mg"},{"bike_id":"561ab8e5-8ec1-4b26-8a93-b4493c7d80d7","system_id":"levelo_inurba_marseille","lat":43.299222,"lon":5.365554,"is_reserved":false,"is_disabled":false,"rental_uris":{"android":"levelo://app?vid=561ab8e5-8ec1-4b26-8a93-b4493c7d80d7","ios":"levelo://app?vid=561ab8e5-8ec1-4b26-8a93-b4493c7d80d7"},"vehicle_type_id":"4","last_reported":1715972755,"current_range_meters":23200,"station_id":"ce4bgm92rcd13ifvqbr0","pricing_plan_id":"cebpf4jnsgd1na2vs0mg"},{"bike_id":"ed89f902-0206-4e1a-8580-8627035dc381","system_id":"levelo_inurba_marseille","lat":43.299222,"lon":5.365554,"is_reserved":false,"is_disabled":false,"rental_uris":{"android":"levelo://app?vid=ed89f902-0206-4e1a-8580-8627035dc381","ios":"levelo://app?vid=ed89f902-0206-4e1a-8580-8627035dc381"},"vehicle_type_id":"4","last_reported":1715972755,"current_range_meters":10000,"station_id":"ce4bgm92rcd13ifvqbr0","pricing_plan_id":"cebpf4jnsgd1na2vs0mg"},{"bike_id":"62e2cdd3-2f2f-44cd-b066-a9cc69891066","system_id":"levelo_inurba_marseille","lat":43.299222,"lon":5.365554,"is_reserved":false,"is_disabled":false,"rental_uris":{"android":"levelo://app?vid=62e2cdd3-2f2f-44cd-b066-a9cc69891066","ios":"levelo://app?vid=62e2cdd3-2f2f-44cd-b066-a9cc69891066"},"vehicle_type_id":"4","last_reported":1715972755,"current_range_meters":4400,"station_id":"ce4bgm92rcd13ifvqbr0","pricing_plan_id":"cebpf4jnsgd1na2vs0mg"},{"bike_id":"4b21cb45-2f3a-4dc7-89db-ded752635ab5","system_id":"levelo_inurba_marseille","lat":43.299724,"lon":5.371829,"is_reserved":false,"is_disabled":false,"rental_uris":{"android":"levelo://app?vid=4b21cb45-2f3a-4dc7-89db-ded752635ab5","ios":"levelo://app?vid=4b21cb45-2f3a-4dc7-89db-ded752635ab5"},"vehicle_type_id":"4","last_reported":1715972755,"current_range_meters":8000,"station_id":"ce4bgr92rcd13ifvqc7g","pricing_plan_id":"cebpf4jnsgd1na2vs0mg"},{"bike_id":"2cf436e7-3af1-4e38-8cb0-e585ae558490","system_id":"levelo_inurba_marseille","lat":43.299724,"lon":5.371829,"is_reserved":false,"is_disabled":false,"rental_uris":{"android":"levelo://app?vid=2cf436e7-3af1-4e38-8cb0-e585ae558490","ios":"levelo://app?vid=2cf436e7-3af1-4e38-8cb0-e585ae558490"},"vehicle_type_id":"4","last_reported":1715972755,"current_range_meters":4000,"station_id":"ce4bgr92rcd13ifvqc7g","pricing_plan_id":"cebpf4jnsgd1na2vs0mg"},{"bike_id":"418d80e9-8490-4ff8-9094-c77ed33724d8","system_id":"levelo_inurba_marseille","lat":43.299724,"lon":5.371829,"is_reserved":false,"is_disabled":false,"rental_uris":{"android":"levelo://app?vid=418d80e9-8490-4ff8-9094-c77ed33724d8","ios":"levelo://app?vid=418d80e9-8490-4ff8-9094-c77ed33724d8"},"vehicle_type_id":"4","last_reported":1715972755,"current_range_meters":22000,"station_id":"ce4bgr92rcd13ifvqc7g","pricing_plan_id":"cebpf4jnsgd1na2vs0mg"},{"bike_id":"210e5cc0-57d1-48c1-8493-5e0e1b050060","system_id":"levelo_inurba_marseille","lat":43.298433,"lon":5.362774,"is_reserved":false,"is_disabled":false,"rental_uris":{"android":"levelo://app?vid=210e5cc0-57d1-48c1-8493-5e0e1b050060","ios":"levelo://app?vid=210e5cc0-57d1-48c1-8493-5e0e1b050060"},"vehicle_type_id":"4","last_reported":1715972755,"current_range_meters":30400,"station_id":"ce4bgpp2rcd13ifvqc3g","pricing_plan_id":"cebpf4jnsgd1na2vs0mg"},{"bike_id":"1f749454-08d8-4e58-84d8-a277baa6f6e7","system_id":"levelo_inurba_marseille","lat":43.298433,"lon":5.362774,"is_reserved":false,"is_disabled":false,"rental_uris":{"android":"levelo://app?vid=1f749454-08d8-4e58-84d8-a277baa6f6e7","ios":"levelo://app?vid=1f749454-08d8-4e58-84d8-a277baa6f6e7"},"vehicle_type_id":"4","last_reported":1715972755,"current_range_meters":12400,"station_id":"ce4bgpp2rcd13ifvqc3g","pricing_plan_id":"cebpf4jnsgd1na2vs0mg"},{"bike_id":"800c16a0-9401-409a-b9fb-368ee8610ea7","system_id":"levelo_inurba_marseille","lat":43.298433,"lon":5.362774,"is_reserved":false,"is_disabled":false,"rental_uris":{"android":"levelo://app?vid=800c16a0-9401-409a-b9fb-368ee8610ea7","ios":"levelo://app?vid=800c16a0-9401-409a-b9fb-368ee8610ea7"},"vehicle_type_id":"4","last_reported":1715972755,"current_range_meters":5200,"station_id":"ce4bgpp2rcd13ifvqc3g","pricing_plan_id":"cebpf4jnsgd1na2vs0mg"},{"bike_id":"799947bc-a4c4-4e29-b717-b86aa214b5b7","system_id":"levelo_inurba_marseille","lat":43.298433,"lon":5.362774,"is_reserved":false,"is_disabled":false,"rental_uris":{"android":"levelo://app?vid=799947bc-a4c4-4e29-b717-b86aa214b5b7","ios":"levelo://app?vid=799947bc-a4c4-4e29-b717-b86aa214b5b7"},"vehicle_type_id":"4","last_reported":1715972755,"current_range_meters":12000,"station_id":"ce4bgpp2rcd13ifvqc3g","pricing_plan_id":"cebpf4jnsgd1na2vs0mg"},{"bike_id":"9193da10-3bd0-483f-af0a-7666943e5c3d","system_id":"levelo_inurba_marseille","lat":43.299243,"lon":5.37481,"is_reserved":false,"is_disabled":false,"rental_uris":{"android":"levelo://app?vid=9193da10-3bd0-483f-af0a-7666943e5c3d","ios":"levelo://app?vid=9193da10-3bd0-483f-af0a-7666943e5c3d"},"vehicle_type_id":"4","last_reported":1715972755,"current_range_meters":26800,"station_id":"ce4bgjh2rcd13ifvqbg0","pricing_plan_id":"cebpf4jnsgd1na2vs0mg"},{"bike_id":"0c4eb777-e5e3-4e3a-851d-89925a8a8d85","system_id":"levelo_inurba_marseille","lat":43.305364,"lon":5.384119,"is_reserved":false,"is_disabled":false,"rental_uris":{"android":"levelo://app?vid=0c4eb777-e5e3-4e3a-851d-89925a8a8d85","ios":"levelo://app?vid=0c4eb777-e5e3-4e3a-851d-89925a8a8d85"},"vehicle_type_id":"4","last_reported":1715972755,"current_range_meters":30800,"station_id":"ce4bgg92rcd13ifvqb30","pricing_plan_id":"cebpf4jnsgd1na2vs0mg"},{"bike_id":"c10d5cc2-dc00-4941-b34c-6b1c9bce69b0","system_id":"levelo_inurba_marseille","lat":43.305364,"lon":5.384119,"is_reserved":false,"is_disabled":false,"rental_uris":{"android":"levelo://app?vid=c10d5cc2-dc00-4941-b34c-6b1c9bce69b0","ios":"levelo://app?vid=c10d5cc2-dc00-4941-b34c-6b1c9bce69b0"},"vehicle_type_id":"4","last_reported":1715972755,"current_range_meters":0,"station_id":"ce4bgg92rcd13ifvqb30","pricing_plan_id":"cebpf4jnsgd1na2vs0mg"},{"bike_id":"a8420d12-5ea1-4553-ba77-74153419b9a1","system_id":"levelo_inurba_marseille","lat":43.305364,"lon":5.384119,"is_reserved":false,"is_disabled":false,"rental_uris":{"android":"levelo://app?vid=a8420d12-5ea1-4553-ba77-74153419b9a1","ios":"levelo://app?vid=a8420d12-5ea1-4553-ba77-74153419b9a1"},"vehicle_type_id":"4","last_reported":1715972755,"current_range_meters":30000,"station_id":"ce4bgg92rcd13ifvqb30","pricing_plan_id":"cebpf4jnsgd1na2vs0mg"},{"bike_id":"5c5f0600-a06c-46c0-ac5d-b96f4a84bec2","system_id":"levelo_inurba_marseille","lat":43.299243,"lon":5.374807,"is_reserved":false,"is_disabled":false,"rental_uris":{"android":"levelo://app?vid=5c5f0600-a06c-46c0-ac5d-b96f4a84bec2","ios":"levelo://app?vid=5c5f0600-a06c-46c0-ac5d-b96f4a84bec2"},"vehicle_type_id":"4","last_reported":1715972755,"current_range_meters":15600,"station_id":"ce4bgjh2rcd13ifvqbg0","pricing_plan_id":"cebpf4jnsgd1na2vs0mg"},{"bike_id":"b82d603e-9ea7-420e-b308-25ac3f81afa7","system_id":"levelo_inurba_marseille","lat":43.311722,"lon":5.387247,"is_reserved":false,"is_disabled":false,"rental_uris":{"android":"levelo://app?vid=b82d603e-9ea7-420e-b308-25ac3f81afa7","ios":"levelo://app?vid=b82d603e-9ea7-420e-b308-25ac3f81afa7"},"vehicle_type_id":"4","last_reported":1715972755,"current_range_meters":7200,"station_id":"ce4bgv12rcd13ifvqcp0","pricing_plan_id":"cebpf4jnsgd1na2vs0mg"},{"bike_id":"7431a6ca-eaeb-4deb-a139-d4470106149b","system_id":"levelo_inurba_marseille","lat":43.297794,"lon":5.370888,"is_reserved":false,"is_disabled":false,"rental_uris":{"android":"levelo://app?vid=7431a6ca-eaeb-4deb-a139-d4470106149b","ios":"levelo://app?vid=7431a6ca-eaeb-4deb-a139-d4470106149b"},"vehicle_type_id":"4","last_reported":1715972755,"current_range_meters":3600,"station_id":"ce4bgop2rcd13ifvqc1g","pricing_plan_id":"cebpf4jnsgd1na2vs0mg"},{"bike_id":"2e815cd5-72f7-4a0a-92e5-860d1da39a63","system_id":"levelo_inurba_marseille","lat":43.297794,"lon":5.370888,"is_reserved":false,"is_disabled":false,"rental_uris":{"android":"levelo://app?vid=2e815cd5-72f7-4a0a-92e5-860d1da39a63","ios":"levelo://app?vid=2e815cd5-72f7-4a0a-92e5-860d1da39a63"},"vehicle_type_id":"4","last_reported":1715972755,"current_range_meters":10800,"station_id":"ce4bgop2rcd13ifvqc1g","pricing_plan_id":"cebpf4jnsgd1na2vs0mg"},{"bike_id":"c79614d0-6967-4ce6-ba2d-5aac2612c2c4","system_id":"levelo_inurba_marseille","lat":43.322872,"lon":5.382756,"is_reserved":false,"is_disabled":false,"rental_uris":{"android":"levelo://app?vid=c79614d0-6967-4ce6-ba2d-5aac2612c2c4","ios":"levelo://app?vid=c79614d0-6967-4ce6-ba2d-5aac2612c2c4"},"vehicle_type_id":"4","last_reported":1715972755,"current_range_meters":18400,"station_id":"ce4bhr12rcd13ifvqhqg","pricing_plan_id":"cebpf4jnsgd1na2vs0mg"},{"bike_id":"319a376a-7b6e-4ace-bb5a-ccb9165a7a49","system_id":"levelo_inurba_marseille","lat":43.29952,"lon":5.37768,"is_reserved":false,"is_disabled":false,"rental_uris":{"android":"levelo://app?vid=319a376a-7b6e-4ace-bb5a-ccb9165a7a49","ios":"levelo://app?vid=319a376a-7b6e-4ace-bb5a-ccb9165a7a49"},"vehicle_type_id":"4","last_reported":1715972755,"current_range_meters":0,"station_id":"","pricing_plan_id":"cebpf4jnsgd1na2vs0mg"},{"bike_id":"59d8a93f-7a0d-459e-9a57-d07f1f7e8f63","system_id":"levelo_inurba_marseille","lat":43.322872,"lon":5.382756,"is_reserved":false,"is_disabled":false,"rental_uris":{"android":"levelo://app?vid=59d8a93f-7a0d-459e-9a57-d07f1f7e8f63","ios":"levelo://app?vid=59d8a93f-7a0d-459e-9a57-d07f1f7e8f63"},"vehicle_type_id":"4","last_reported":1715972755,"current_range_meters":0,"station_id":"ce4bhr12rcd13ifvqhqg","pricing_plan_id":"cebpf4jnsgd1na2vs0mg"},{"bike_id":"35c22c7a-6344-4130-9f7c-399c8c9a3015","system_id":"levelo_inurba_marseille","lat":43.322872,"lon":5.382756,"is_reserved":false,"is_disabled":false,"rental_uris":{"android":"levelo://app?vid=35c22c7a-6344-4130-9f7c-399c8c9a3015","ios":"levelo://app?vid=35c22c7a-6344-4130-9f7c-399c8c9a3015"},"vehicle_type_id":"4","last_reported":1715972755,"current_range_meters":17600,"station_id":"ce4bhr12rcd13ifvqhqg","pricing_plan_id":"cebpf4jnsgd1na2vs0mg"},{"bike_id":"4d41b6b4-bb6b-4287-855d-d2873371475d","system_id":"levelo_inurba_marseille","lat":43.29877,"lon":5.37585,"is_reserved":false,"is_disabled":false,"rental_uris":{"android":"levelo://app?vid=4d41b6b4-bb6b-4287-855d-d2873371475d","ios":"levelo://app?vid=4d41b6b4-bb6b-4287-855d-d2873371475d"},"vehicle_type_id":"4","last_reported":1715972755,"current_range_meters":0,"station_id":"","pricing_plan_id":"cebpf4jnsgd1na2vs0mg"},{"bike_id":"b810b6f1-c294-499d-9d7e-505214e4394d","system_id":"levelo_inurba_marseille","lat":43.297794,"lon":5.370888,"is_reserved":false,"is_disabled":false,"rental_uris":{"android":"levelo://app?vid=b810b6f1-c294-499d-9d7e-505214e4394d","ios":"levelo://app?vid=b810b6f1-c294-499d-9d7e-505214e4394d"},"vehicle_type_id":"4","last_reported":1715972755,"current_range_meters":8400,"station_id":"ce4bgop2rcd13ifvqc1g","pricing_plan_id":"cebpf4jnsgd1na2vs0mg"},{"bike_id":"f8293e51-1c04-4d3e-a586-eecf14b44a4c","system_id":"levelo_inurba_marseille","lat":43.297774,"lon":5.370875,"is_reserved":false,"is_disabled":false,"rental_uris":{"android":"levelo://app?vid=f8293e51-1c04-4d3e-a586-eecf14b44a4c","ios":"levelo://app?vid=f8293e51-1c04-4d3e-a586-eecf14b44a4c"},"vehicle_type_id":"4","last_reported":1715972755,"current_range_meters":800,"station_id":"ce4bgop2rcd13ifvqc1g","pricing_plan_id":"cebpf4jnsgd1na2vs0mg"},{"bike_id":"81e9d120-12c6-4140-9e9d-918047efa321","system_id":"levelo_inurba_marseille","lat":43.29714,"lon":5.36618,"is_reserved":false,"is_disabled":false,"rental_uris":{"android":"levelo://app?vid=81e9d120-12c6-4140-9e9d-918047efa321","ios":"levelo://app?vid=81e9d120-12c6-4140-9e9d-918047efa321"},"vehicle_type_id":"4","last_reported":1715972755,"current_range_meters":19200,"station_id":"ce4bgn12rcd13ifvqbt0","pricing_plan_id":"cebpf4jnsgd1na2vs0mg"},{"bike_id":"6f50209e-eb56-4c00-97db-da171e6b7ca5","system_id":"levelo_inurba_marseille","lat":43.297163,"lon":5.365866,"is_reserved":false,"is_disabled":false,"rental_uris":{"android":"levelo://app?vid=6f50209e-eb56-4c00-97db-da171e6b7ca5","ios":"levelo://app?vid=6f50209e-eb56-4c00-97db-da171e6b7ca5"},"vehicle_type_id":"4","last_reported":1715972755,"current_range_meters":22400,"station_id":"ce4bgn12rcd13ifvqbt0","pricing_plan_id":"cebpf4jnsgd1na2vs0mg"},{"bike_id":"30ea3dc4-a069-49e3-9697-7feffd533a3b","system_id":"levelo_inurba_marseille","lat":43.297163,"lon":5.365866,"is_reserved":false,"is_disabled":false,"rental_uris":{"android":"levelo://app?vid=30ea3dc4-a069-49e3-9697-7feffd533a3b","ios":"levelo://app?vid=30ea3dc4-a069-49e3-9697-7feffd533a3b"},"vehicle_type_id":"4","last_reported":1715972755,"current_range_meters":15600,"station_id":"ce4bgn12rcd13ifvqbt0","pricing_plan_id":"cebpf4jnsgd1na2vs0mg"},{"bike_id":"3b5cd0b2-3a7e-4bc1-8e8b-1a67897ab5cf","system_id":"levelo_inurba_marseille","lat":43.297163,"lon":5.365866,"is_reserved":false,"is_disabled":false,"rental_uris":{"android":"levelo://app?vid=3b5cd0b2-3a7e-4bc1-8e8b-1a67897ab5cf","ios":"levelo://app?vid=3b5cd0b2-3a7e-4bc1-8e8b-1a67897ab5cf"},"vehicle_type_id":"4","last_reported":1715972755,"current_range_meters":14000,"station_id":"ce4bgn12rcd13ifvqbt0","pricing_plan_id":"cebpf4jnsgd1na2vs0mg"},{"bike_id":"e8b74b53-1f66-4822-bc9f-59e0cd63ffdc","system_id":"levelo_inurba_marseille","lat":43.297078,"lon":5.368994,"is_reserved":false,"is_disabled":false,"rental_uris":{"android":"levelo://app?vid=e8b74b53-1f66-4822-bc9f-59e0cd63ffdc","ios":"levelo://app?vid=e8b74b53-1f66-4822-bc9f-59e0cd63ffdc"},"vehicle_type_id":"4","last_reported":1715972755,"current_range_meters":4800,"station_id":"","pricing_plan_id":"cebpf4jnsgd1na2vs0mg"},{"bike_id":"5f5cd9e3-dc92-4d46-9e1c-a794747fd522","system_id":"levelo_inurba_marseille","lat":43.2968,"lon":5.37291,"is_reserved":false,"is_disabled":false,"rental_uris":{"android":"levelo://app?vid=5f5cd9e3-dc92-4d46-9e1c-a794747fd522","ios":"levelo://app?vid=5f5cd9e3-dc92-4d46-9e1c-a794747fd522"},"vehicle_type_id":"4","last_reported":1715972755,"current_range_meters":20800,"station_id":"ce4bgk12rcd13ifvqbj0","pricing_plan_id":"cebpf4jnsgd1na2vs0mg"},{"bike_id":"3dea0b90-7d6d-4cf4-a1f6-a1680411ee9b","system_id":"levelo_inurba_marseille","lat":43.29883,"lon":5.38078,"is_reserved":false,"is_disabled":false,"rental_uris":{"android":"levelo://app?vid=3dea0b90-7d6d-4cf4-a1f6-a1680411ee9b","ios":"levelo://app?vid=3dea0b90-7d6d-4cf4-a1f6-a1680411ee9b"},"vehicle_type_id":"4","last_reported":1715972755,"current_range_meters":12400,"station_id":"ce4bgj12rcd13ifvqbc0","pricing_plan_id":"cebpf4jnsgd1na2vs0mg"},{"bike_id":"8996f0cd-b861-4f61-a461-d09b581c914c","system_id":"levelo_inurba_marseille","lat":43.299028,"lon":5.381509,"is_reserved":false,"is_disabled":false,"rental_uris":{"android":"levelo://app?vid=8996f0cd-b861-4f61-a461-d09b581c914c","ios":"levelo://app?vid=8996f0cd-b861-4f61-a461-d09b581c914c"},"vehicle_type_id":"4","last_reported":1715972755,"current_range_meters":16800,"station_id":"ce4bgj12rcd13ifvqbc0","pricing_plan_id":"cebpf4jnsgd1na2vs0mg"},{"bike_id":"764c579c-d315-41ff-b77a-d8d3a3ba31ca","system_id":"levelo_inurba_marseille","lat":43.299028,"lon":5.381509,"is_reserved":false,"is_disabled":false,"rental_uris":{"android":"levelo://app?vid=764c579c-d315-41ff-b77a-d8d3a3ba31ca","ios":"levelo://app?vid=764c579c-d315-41ff-b77a-d8d3a3ba31ca"},"vehicle_type_id":"4","last_reported":1715972755,"current_range_meters":17200,"station_id":"ce4bgj12rcd13ifvqbc0","pricing_plan_id":"cebpf4jnsgd1na2vs0mg"},{"bike_id":"1ea8d176-c311-44c7-9f94-a111f69eaed4","system_id":"levelo_inurba_marseille","lat":43.299028,"lon":5.381509,"is_reserved":false,"is_disabled":false,"rental_uris":{"android":"levelo://app?vid=1ea8d176-c311-44c7-9f94-a111f69eaed4","ios":"levelo://app?vid=1ea8d176-c311-44c7-9f94-a111f69eaed4"},"vehicle_type_id":"4","last_reported":1715972755,"current_range_meters":1600,"station_id":"ce4bgj12rcd13ifvqbc0","pricing_plan_id":"cebpf4jnsgd1na2vs0mg"},{"bike_id":"bd7dd078-0a51-486a-9058-744a16580558","system_id":"levelo_inurba_marseille","lat":43.29908,"lon":5.381495,"is_reserved":false,"is_disabled":false,"rental_uris":{"android":"levelo://app?vid=bd7dd078-0a51-486a-9058-744a16580558","ios":"levelo://app?vid=bd7dd078-0a51-486a-9058-744a16580558"},"vehicle_type_id":"4","last_reported":1715972755,"current_range_meters":14000,"station_id":"ce4bgj12rcd13ifvqbc0","pricing_plan_id":"cebpf4jnsgd1na2vs0mg"},{"bike_id":"fc238e07-b9d8-4366-837e-788ed46bcf56","system_id":"levelo_inurba_marseille","lat":43.309589,"lon":5.390258,"is_reserved":false,"is_disabled":false,"rental_uris":{"android":"levelo://app?vid=fc238e07-b9d8-4366-837e-788ed46bcf56","ios":"levelo://app?vid=fc238e07-b9d8-4366-837e-788ed46bcf56"},"vehicle_type_id":"4","last_reported":1715972755,"current_range_meters":0,"station_id":"ce4bgup2rcd13ifvqco0","pricing_plan_id":"cebpf4jnsgd1na2vs0mg"},{"bike_id":"77f72742-4ca4-42a6-ab56-92b36066e957","system_id":"levelo_inurba_marseille","lat":43.309589,"lon":5.390258,"is_reserved":false,"is_disabled":false,"rental_uris":{"android":"levelo://app?vid=77f72742-4ca4-42a6-ab56-92b36066e957","ios":"levelo://app?vid=77f72742-4ca4-42a6-ab56-92b36066e957"},"vehicle_type_id":"4","last_reported":1715972755,"current_range_meters":400,"station_id":"ce4bgup2rcd13ifvqco0","pricing_plan_id":"cebpf4jnsgd1na2vs0mg"},{"bike_id":"9da583b4-eaec-40d4-a25e-19d3a6730be7","system_id":"levelo_inurba_marseille","lat":43.309589,"lon":5.390258,"is_reserved":false,"is_disabled":false,"rental_uris":{"android":"levelo://app?vid=9da583b4-eaec-40d4-a25e-19d3a6730be7","ios":"levelo://app?vid=9da583b4-eaec-40d4-a25e-19d3a6730be7"},"vehicle_type_id":"4","last_reported":1715972755,"current_range_meters":6400,"station_id":"ce4bgup2rcd13ifvqco0","pricing_plan_id":"cebpf4jnsgd1na2vs0mg"},{"bike_id":"cae80257-98a5-4e4a-89b6-cf85ddd29a93","system_id":"levelo_inurba_marseille","lat":43.309589,"lon":5.390258,"is_reserved":false,"is_disabled":false,"rental_uris":{"android":"levelo://app?vid=cae80257-98a5-4e4a-89b6-cf85ddd29a93","ios":"levelo://app?vid=cae80257-98a5-4e4a-89b6-cf85ddd29a93"},"vehicle_type_id":"4","last_reported":1715972755,"current_range_meters":2000,"station_id":"ce4bgup2rcd13ifvqco0","pricing_plan_id":"cebpf4jnsgd1na2vs0mg"},{"bike_id":"1424a9c1-688d-47e8-854d-83c57dcfcdb2","system_id":"levelo_inurba_marseille","lat":43.309589,"lon":5.390258,"is_reserved":false,"is_disabled":false,"rental_uris":{"android":"levelo://app?vid=1424a9c1-688d-47e8-854d-83c57dcfcdb2","ios":"levelo://app?vid=1424a9c1-688d-47e8-854d-83c57dcfcdb2"},"vehicle_type_id":"4","last_reported":1715972755,"current_range_meters":14800,"station_id":"ce4bgup2rcd13ifvqco0","pricing_plan_id":"cebpf4jnsgd1na2vs0mg"},{"bike_id":"45cd0528-9e82-4a12-b525-28c9397e2160","system_id":"levelo_inurba_marseille","lat":43.309589,"lon":5.390258,"is_reserved":false,"is_disabled":false,"rental_uris":{"android":"levelo://app?vid=45cd0528-9e82-4a12-b525-28c9397e2160","ios":"levelo://app?vid=45cd0528-9e82-4a12-b525-28c9397e2160"},"vehicle_type_id":"4","last_reported":1715972755,"current_range_meters":7600,"station_id":"ce4bgup2rcd13ifvqco0","pricing_plan_id":"cebpf4jnsgd1na2vs0mg"},{"bike_id":"e29ce095-3f03-4b6a-844d-d60880ab8a6b","system_id":"levelo_inurba_marseille","lat":43.309589,"lon":5.390258,"is_reserved":false,"is_disabled":false,"rental_uris":{"android":"levelo://app?vid=e29ce095-3f03-4b6a-844d-d60880ab8a6b","ios":"levelo://app?vid=e29ce095-3f03-4b6a-844d-d60880ab8a6b"},"vehicle_type_id":"4","last_reported":1715972755,"current_range_meters":13600,"station_id":"ce4bgup2rcd13ifvqco0","pricing_plan_id":"cebpf4jnsgd1na2vs0mg"},{"bike_id":"78abd96a-6772-4616-a8ca-e36875b6c03a","system_id":"levelo_inurba_marseille","lat":43.309589,"lon":5.390258,"is_reserved":false,"is_disabled":false,"rental_uris":{"android":"levelo://app?vid=78abd96a-6772-4616-a8ca-e36875b6c03a","ios":"levelo://app?vid=78abd96a-6772-4616-a8ca-e36875b6c03a"},"vehicle_type_id":"4","last_reported":1715972755,"current_range_meters":13200,"station_id":"ce4bgup2rcd13ifvqco0","pricing_plan_id":"cebpf4jnsgd1na2vs0mg"},{"bike_id":"c494c3b8-8478-462d-9ed7-d8d78c228a46","system_id":"levelo_inurba_marseille","lat":43.309589,"lon":5.390258,"is_reserved":false,"is_disabled":false,"rental_uris":{"android":"levelo://app?vid=c494c3b8-8478-462d-9ed7-d8d78c228a46","ios":"levelo://app?vid=c494c3b8-8478-462d-9ed7-d8d78c228a46"},"vehicle_type_id":"4","last_reported":1715972755,"current_range_meters":12400,"station_id":"ce4bgup2rcd13ifvqco0","pricing_plan_id":"cebpf4jnsgd1na2vs0mg"},{"bike_id":"fe4d2e18-cfca-44bb-8d63-e426da664ebc","system_id":"levelo_inurba_marseille","lat":43.30948,"lon":5.390319,"is_reserved":false,"is_disabled":false,"rental_uris":{"android":"levelo://app?vid=fe4d2e18-cfca-44bb-8d63-e426da664ebc","ios":"levelo://app?vid=fe4d2e18-cfca-44bb-8d63-e426da664ebc"},"vehicle_type_id":"4","last_reported":1715972755,"current_range_meters":0,"station_id":"ce4bgup2rcd13ifvqco0","pricing_plan_id":"cebpf4jnsgd1na2vs0mg"},{"bike_id":"cf4e173d-3349-4b0d-b3ee-83c931c737d2","system_id":"levelo_inurba_marseille","lat":43.309589,"lon":5.390258,"is_reserved":false,"is_disabled":false,"rental_uris":{"android":"levelo://app?vid=cf4e173d-3349-4b0d-b3ee-83c931c737d2","ios":"levelo://app?vid=cf4e173d-3349-4b0d-b3ee-83c931c737d2"},"vehicle_type_id":"4","last_reported":1715972755,"current_range_meters":12400,"station_id":"ce4bgup2rcd13ifvqco0","pricing_plan_id":"cebpf4jnsgd1na2vs0mg"},{"bike_id":"8e930d01-762c-40b7-a48f-7dcb0fa356c7","system_id":"levelo_inurba_marseille","lat":43.309589,"lon":5.390258,"is_reserved":false,"is_disabled":false,"rental_uris":{"android":"levelo://app?vid=8e930d01-762c-40b7-a48f-7dcb0fa356c7","ios":"levelo://app?vid=8e930d01-762c-40b7-a48f-7dcb0fa356c7"},"vehicle_type_id":"4","last_reported":1715972755,"current_range_meters":21200,"station_id":"ce4bgup2rcd13ifvqco0","pricing_plan_id":"cebpf4jnsgd1na2vs0mg"},{"bike_id":"bdc95fef-8728-4703-83e0-5b59e3af01f5","system_id":"levelo_inurba_marseille","lat":43.309589,"lon":5.390258,"is_reserved":false,"is_disabled":false,"rental_uris":{"android":"levelo://app?vid=bdc95fef-8728-4703-83e0-5b59e3af01f5","ios":"levelo://app?vid=bdc95fef-8728-4703-83e0-5b59e3af01f5"},"vehicle_type_id":"4","last_reported":1715972755,"current_range_meters":15200,"station_id":"ce4bgup2rcd13ifvqco0","pricing_plan_id":"cebpf4jnsgd1na2vs0mg"},{"bike_id":"73133b33-343d-423e-8b13-9c95ef36bde4","system_id":"levelo_inurba_marseille","lat":43.309589,"lon":5.390258,"is_reserved":false,"is_disabled":false,"rental_uris":{"android":"levelo://app?vid=73133b33-343d-423e-8b13-9c95ef36bde4","ios":"levelo://app?vid=73133b33-343d-423e-8b13-9c95ef36bde4"},"vehicle_type_id":"4","last_reported":1715972755,"current_range_meters":9600,"station_id":"ce4bgup2rcd13ifvqco0","pricing_plan_id":"cebpf4jnsgd1na2vs0mg"},{"bike_id":"0ab5c17d-9603-4bf0-957e-e18644b0f80d","system_id":"levelo_inurba_marseille","lat":43.309589,"lon":5.390258,"is_reserved":false,"is_disabled":false,"rental_uris":{"android":"levelo://app?vid=0ab5c17d-9603-4bf0-957e-e18644b0f80d","ios":"levelo://app?vid=0ab5c17d-9603-4bf0-957e-e18644b0f80d"},"vehicle_type_id":"4","last_reported":1715972755,"current_range_meters":6400,"station_id":"ce4bgup2rcd13ifvqco0","pricing_plan_id":"cebpf4jnsgd1na2vs0mg"},{"bike_id":"db2781b9-cd03-436a-9589-0a0763679e58","system_id":"levelo_inurba_marseille","lat":43.309589,"lon":5.390258,"is_reserved":false,"is_disabled":false,"rental_uris":{"android":"levelo://app?vid=db2781b9-cd03-436a-9589-0a0763679e58","ios":"levelo://app?vid=db2781b9-cd03-436a-9589-0a0763679e58"},"vehicle_type_id":"4","last_reported":1715972755,"current_range_meters":4400,"station_id":"ce4bgup2rcd13ifvqco0","pricing_plan_id":"cebpf4jnsgd1na2vs0mg"},{"bike_id":"b93b1053-a0c0-4b2c-b613-5fbe428e1721","system_id":"levelo_inurba_marseille","lat":43.30959,"lon":5.39044,"is_reserved":false,"is_disabled":false,"rental_uris":{"android":"levelo://app?vid=b93b1053-a0c0-4b2c-b613-5fbe428e1721","ios":"levelo://app?vid=b93b1053-a0c0-4b2c-b613-5fbe428e1721"},"vehicle_type_id":"4","last_reported":1715972755,"current_range_meters":2000,"station_id":"ce4bgup2rcd13ifvqco0","pricing_plan_id":"cebpf4jnsgd1na2vs0mg"},{"bike_id":"274b21bc-fa61-4bc8-9757-a79ea84a14df","system_id":"levelo_inurba_marseille","lat":43.309589,"lon":5.390258,"is_reserved":false,"is_disabled":false,"rental_uris":{"android":"levelo://app?vid=274b21bc-fa61-4bc8-9757-a79ea84a14df","ios":"levelo://app?vid=274b21bc-fa61-4bc8-9757-a79ea84a14df"},"vehicle_type_id":"4","last_reported":1715972755,"current_range_meters":0,"station_id":"ce4bgup2rcd13ifvqco0","pricing_plan_id":"cebpf4jnsgd1na2vs0mg"},{"bike_id":"178939aa-a7f5-4e26-9890-7ae60d6141aa","system_id":"levelo_inurba_marseille","lat":43.30981,"lon":5.39054,"is_reserved":false,"is_disabled":false,"rental_uris":{"android":"levelo://app?vid=178939aa-a7f5-4e26-9890-7ae60d6141aa","ios":"levelo://app?vid=178939aa-a7f5-4e26-9890-7ae60d6141aa"},"vehicle_type_id":"4","last_reported":1715972755,"current_range_meters":12000,"station_id":"ce4bgup2rcd13ifvqco0","pricing_plan_id":"cebpf4jnsgd1na2vs0mg"},{"bike_id":"66025fac-5e8f-4193-864b-139ef98250d4","system_id":"levelo_inurba_marseille","lat":43.31755,"lon":5.39008,"is_reserved":false,"is_disabled":false,"rental_uris":{"android":"levelo://app?vid=66025fac-5e8f-4193-864b-139ef98250d4","ios":"levelo://app?vid=66025fac-5e8f-4193-864b-139ef98250d4"},"vehicle_type_id":"4","last_reported":1715972755,"current_range_meters":21200,"station_id":"ce4bhqp2rcd13ifvqhng","pricing_plan_id":"cebpf4jnsgd1na2vs0mg"},{"bike_id":"7e87f7a8-044f-45f4-b232-efd2a391017e","system_id":"levelo_inurba_marseille","lat":43.31754,"lon":5.390213,"is_reserved":false,"is_disabled":false,"rental_uris":{"android":"levelo://app?vid=7e87f7a8-044f-45f4-b232-efd2a391017e","ios":"levelo://app?vid=7e87f7a8-044f-45f4-b232-efd2a391017e"},"vehicle_type_id":"4","last_reported":1715972755,"current_range_meters":13200,"station_id":"ce4bhqp2rcd13ifvqhng","pricing_plan_id":"cebpf4jnsgd1na2vs0mg"},{"bike_id":"43f2a1ed-3caf-4e24-acdb-45d8c7591e57","system_id":"levelo_inurba_marseille","lat":43.31752,"lon":5.39023,"is_reserved":false,"is_disabled":false,"rental_uris":{"android":"levelo://app?vid=43f2a1ed-3caf-4e24-acdb-45d8c7591e57","ios":"levelo://app?vid=43f2a1ed-3caf-4e24-acdb-45d8c7591e57"},"vehicle_type_id":"4","last_reported":1715972755,"current_range_meters":21200,"station_id":"ce4bhqp2rcd13ifvqhng","pricing_plan_id":"cebpf4jnsgd1na2vs0mg"},{"bike_id":"05b04fe5-cb2b-4f8a-bf97-e6829ad9cc1b","system_id":"levelo_inurba_marseille","lat":43.317557,"lon":5.390173,"is_reserved":false,"is_disabled":false,"rental_uris":{"android":"levelo://app?vid=05b04fe5-cb2b-4f8a-bf97-e6829ad9cc1b","ios":"levelo://app?vid=05b04fe5-cb2b-4f8a-bf97-e6829ad9cc1b"},"vehicle_type_id":"4","last_reported":1715972755,"current_range_meters":27600,"station_id":"ce4bhqp2rcd13ifvqhng","pricing_plan_id":"cebpf4jnsgd1na2vs0mg"},{"bike_id":"2d899684-77f8-4fb7-8297-1abfccd107bb","system_id":"levelo_inurba_marseille","lat":43.317557,"lon":5.390173,"is_reserved":false,"is_disabled":false,"rental_uris":{"android":"levelo://app?vid=2d899684-77f8-4fb7-8297-1abfccd107bb","ios":"levelo://app?vid=2d899684-77f8-4fb7-8297-1abfccd107bb"},"vehicle_type_id":"4","last_reported":1715972755,"current_range_meters":0,"station_id":"ce4bhqp2rcd13ifvqhng","pricing_plan_id":"cebpf4jnsgd1na2vs0mg"},{"bike_id":"3c58c59c-8573-4941-a990-b7a2849a9d29","system_id":"levelo_inurba_marseille","lat":43.29817,"lon":5.38094,"is_reserved":false,"is_disabled":false,"rental_uris":{"android":"levelo://app?vid=3c58c59c-8573-4941-a990-b7a2849a9d29","ios":"levelo://app?vid=3c58c59c-8573-4941-a990-b7a2849a9d29"},"vehicle_type_id":"4","last_reported":1715972755,"current_range_meters":5200,"station_id":"ce4bgip2rcd13ifvqbb0","pricing_plan_id":"cebpf4jnsgd1na2vs0mg"},{"bike_id":"08ef62ff-94e6-4259-9679-a1b79e15fda7","system_id":"levelo_inurba_marseille","lat":43.295748,"lon":5.37522,"is_reserved":false,"is_disabled":false,"rental_uris":{"android":"levelo://app?vid=08ef62ff-94e6-4259-9679-a1b79e15fda7","ios":"levelo://app?vid=08ef62ff-94e6-4259-9679-a1b79e15fda7"},"vehicle_type_id":"4","last_reported":1715972755,"current_range_meters":0,"station_id":"ce4bgh92rcd13ifvqb50","pricing_plan_id":"cebpf4jnsgd1na2vs0mg"},{"bike_id":"78be2ef8-099e-4ae6-ab59-f2f5ac7c52bd","system_id":"levelo_inurba_marseille","lat":43.298037,"lon":5.381066,"is_reserved":false,"is_disabled":false,"rental_uris":{"android":"levelo://app?vid=78be2ef8-099e-4ae6-ab59-f2f5ac7c52bd","ios":"levelo://app?vid=78be2ef8-099e-4ae6-ab59-f2f5ac7c52bd"},"vehicle_type_id":"4","last_reported":1715972755,"current_range_meters":4000,"station_id":"ce4bgip2rcd13ifvqbb0","pricing_plan_id":"cebpf4jnsgd1na2vs0mg"},{"bike_id":"a2879ae4-23d9-401a-8b2e-228dd4c3b413","system_id":"levelo_inurba_marseille","lat":43.309589,"lon":5.390258,"is_reserved":false,"is_disabled":false,"rental_uris":{"android":"levelo://app?vid=a2879ae4-23d9-401a-8b2e-228dd4c3b413","ios":"levelo://app?vid=a2879ae4-23d9-401a-8b2e-228dd4c3b413"},"vehicle_type_id":"4","last_reported":1715972755,"current_range_meters":17200,"station_id":"ce4bgup2rcd13ifvqco0","pricing_plan_id":"cebpf4jnsgd1na2vs0mg"},{"bike_id":"176ac278-033c-4c6d-b03b-0251bac2f1da","system_id":"levelo_inurba_marseille","lat":43.298058,"lon":5.381122,"is_reserved":false,"is_disabled":false,"rental_uris":{"android":"levelo://app?vid=176ac278-033c-4c6d-b03b-0251bac2f1da","ios":"levelo://app?vid=176ac278-033c-4c6d-b03b-0251bac2f1da"},"vehicle_type_id":"4","last_reported":1715972755,"current_range_meters":0,"station_id":"ce4bgip2rcd13ifvqbb0","pricing_plan_id":"cebpf4jnsgd1na2vs0mg"},{"bike_id":"5abe9dd1-d08d-4cb6-b157-d7d6e3396146","system_id":"levelo_inurba_marseille","lat":43.298037,"lon":5.381066,"is_reserved":false,"is_disabled":false,"rental_uris":{"android":"levelo://app?vid=5abe9dd1-d08d-4cb6-b157-d7d6e3396146","ios":"levelo://app?vid=5abe9dd1-d08d-4cb6-b157-d7d6e3396146"},"vehicle_type_id":"4","last_reported":1715972755,"current_range_meters":30000,"station_id":"ce4bgip2rcd13ifvqbb0","pricing_plan_id":"cebpf4jnsgd1na2vs0mg"},{"bike_id":"3df87ecc-7b98-4ace-8100-6896589c44e4","system_id":"levelo_inurba_marseille","lat":43.298037,"lon":5.381066,"is_reserved":false,"is_disabled":false,"rental_uris":{"android":"levelo://app?vid=3df87ecc-7b98-4ace-8100-6896589c44e4","ios":"levelo://app?vid=3df87ecc-7b98-4ace-8100-6896589c44e4"},"vehicle_type_id":"4","last_reported":1715972755,"current_range_meters":0,"station_id":"ce4bgip2rcd13ifvqbb0","pricing_plan_id":"cebpf4jnsgd1na2vs0mg"},{"bike_id":"443e1dbe-d3ca-4144-8e0a-5e630bc427c6","system_id":"levelo_inurba_marseille","lat":43.29785,"lon":5.38088,"is_reserved":false,"is_disabled":false,"rental_uris":{"android":"levelo://app?vid=443e1dbe-d3ca-4144-8e0a-5e630bc427c6","ios":"levelo://app?vid=443e1dbe-d3ca-4144-8e0a-5e630bc427c6"},"vehicle_type_id":"4","last_reported":1715972755,"current_range_meters":22400,"station_id":"ce4bgip2rcd13ifvqbb0","pricing_plan_id":"cebpf4jnsgd1na2vs0mg"},{"bike_id":"d05ef92e-65c9-4bdf-aa8e-49c37b3a015b","system_id":"levelo_inurba_marseille","lat":43.298037,"lon":5.381066,"is_reserved":false,"is_disabled":false,"rental_uris":{"android":"levelo://app?vid=d05ef92e-65c9-4bdf-aa8e-49c37b3a015b","ios":"levelo://app?vid=d05ef92e-65c9-4bdf-aa8e-49c37b3a015b"},"vehicle_type_id":"4","last_reported":1715972755,"current_range_meters":12000,"station_id":"ce4bgip2rcd13ifvqbb0","pricing_plan_id":"cebpf4jnsgd1na2vs0mg"},{"bike_id":"63fac12e-949f-4f2e-9240-1fbc92bd58af","system_id":"levelo_inurba_marseille","lat":43.295748,"lon":5.37522,"is_reserved":false,"is_disabled":false,"rental_uris":{"android":"levelo://app?vid=63fac12e-949f-4f2e-9240-1fbc92bd58af","ios":"levelo://app?vid=63fac12e-949f-4f2e-9240-1fbc92bd58af"},"vehicle_type_id":"4","last_reported":1715972755,"current_range_meters":16400,"station_id":"ce4bgh92rcd13ifvqb50","pricing_plan_id":"cebpf4jnsgd1na2vs0mg"},{"bike_id":"1a0614e3-d22e-49d5-b81f-c2ffa4d2e47f","system_id":"levelo_inurba_marseille","lat":43.304274,"lon":5.388873,"is_reserved":false,"is_disabled":false,"rental_uris":{"android":"levelo://app?vid=1a0614e3-d22e-49d5-b81f-c2ffa4d2e47f","ios":"levelo://app?vid=1a0614e3-d22e-49d5-b81f-c2ffa4d2e47f"},"vehicle_type_id":"4","last_reported":1715972755,"current_range_meters":17600,"station_id":"ce4bgk12rcd13ifvqbi0","pricing_plan_id":"cebpf4jnsgd1na2vs0mg"},{"bike_id":"ab0617d4-6eca-4275-ba37-102531b72540","system_id":"levelo_inurba_marseille","lat":43.304274,"lon":5.388873,"is_reserved":false,"is_disabled":false,"rental_uris":{"android":"levelo://app?vid=ab0617d4-6eca-4275-ba37-102531b72540","ios":"levelo://app?vid=ab0617d4-6eca-4275-ba37-102531b72540"},"vehicle_type_id":"4","last_reported":1715972755,"current_range_meters":1600,"station_id":"ce4bgk12rcd13ifvqbi0","pricing_plan_id":"cebpf4jnsgd1na2vs0mg"},{"bike_id":"339ffa21-3f3a-4f8c-a325-db3942d05bdb","system_id":"levelo_inurba_marseille","lat":43.3043,"lon":5.38893,"is_reserved":false,"is_disabled":false,"rental_uris":{"android":"levelo://app?vid=339ffa21-3f3a-4f8c-a325-db3942d05bdb","ios":"levelo://app?vid=339ffa21-3f3a-4f8c-a325-db3942d05bdb"},"vehicle_type_id":"4","last_reported":1715972755,"current_range_meters":0,"station_id":"ce4bgk12rcd13ifvqbi0","pricing_plan_id":"cebpf4jnsgd1na2vs0mg"},{"bike_id":"8d0a832b-98b6-4af3-95e7-57cc052d3232","system_id":"levelo_inurba_marseille","lat":43.298037,"lon":5.381066,"is_reserved":false,"is_disabled":false,"rental_uris":{"android":"levelo://app?vid=8d0a832b-98b6-4af3-95e7-57cc052d3232","ios":"levelo://app?vid=8d0a832b-98b6-4af3-95e7-57cc052d3232"},"vehicle_type_id":"4","last_reported":1715972755,"current_range_meters":10000,"station_id":"ce4bgip2rcd13ifvqbb0","pricing_plan_id":"cebpf4jnsgd1na2vs0mg"},{"bike_id":"e0c74652-4230-499b-a0d9-476866994d8b","system_id":"levelo_inurba_marseille","lat":43.296277,"lon":5.377108,"is_reserved":false,"is_disabled":false,"rental_uris":{"android":"levelo://app?vid=e0c74652-4230-499b-a0d9-476866994d8b","ios":"levelo://app?vid=e0c74652-4230-499b-a0d9-476866994d8b"},"vehicle_type_id":"4","last_reported":1715972755,"current_range_meters":16400,"station_id":"ce4bgi92rcd13ifvqb90","pricing_plan_id":"cebpf4jnsgd1na2vs0mg"},{"bike_id":"1168a228-7b1f-41dc-a243-d0f83b2b1467","system_id":"levelo_inurba_marseille","lat":43.304278,"lon":5.388868,"is_reserved":false,"is_disabled":false,"rental_uris":{"android":"levelo://app?vid=1168a228-7b1f-41dc-a243-d0f83b2b1467","ios":"levelo://app?vid=1168a228-7b1f-41dc-a243-d0f83b2b1467"},"vehicle_type_id":"4","last_reported":1715972755,"current_range_meters":2400,"station_id":"ce4bgk12rcd13ifvqbi0","pricing_plan_id":"cebpf4jnsgd1na2vs0mg"},{"bike_id":"dc2ba45b-6b1d-434f-9cd7-fbedc7411921","system_id":"levelo_inurba_marseille","lat":43.295993,"lon":5.377167,"is_reserved":false,"is_disabled":false,"rental_uris":{"android":"levelo://app?vid=dc2ba45b-6b1d-434f-9cd7-fbedc7411921","ios":"levelo://app?vid=dc2ba45b-6b1d-434f-9cd7-fbedc7411921"},"vehicle_type_id":"4","last_reported":1715972755,"current_range_meters":0,"station_id":"ce4bgi92rcd13ifvqb90","pricing_plan_id":"cebpf4jnsgd1na2vs0mg"},{"bike_id":"78a9ce87-702d-4f8a-9a38-169239a6c20e","system_id":"levelo_inurba_marseille","lat":43.29978,"lon":5.38486,"is_reserved":false,"is_disabled":false,"rental_uris":{"android":"levelo://app?vid=78a9ce87-702d-4f8a-9a38-169239a6c20e","ios":"levelo://app?vid=78a9ce87-702d-4f8a-9a38-169239a6c20e"},"vehicle_type_id":"4","last_reported":1715972755,"current_range_meters":24400,"station_id":"ce4bgj92rcd13ifvqbd0","pricing_plan_id":"cebpf4jnsgd1na2vs0mg"},{"bike_id":"5e7de680-8d06-4b20-9aa8-c99bd2cf1a56","system_id":"levelo_inurba_marseille","lat":43.29528,"lon":5.37498,"is_reserved":false,"is_disabled":false,"rental_uris":{"android":"levelo://app?vid=5e7de680-8d06-4b20-9aa8-c99bd2cf1a56","ios":"levelo://app?vid=5e7de680-8d06-4b20-9aa8-c99bd2cf1a56"},"vehicle_type_id":"4","last_reported":1715972755,"current_range_meters":0,"station_id":"ce4bgkp2rcd13ifvqbmg","pricing_plan_id":"cebpf4jnsgd1na2vs0mg"},{"bike_id":"ae9cda91-adfc-4e66-9b2f-8238ec63e508","system_id":"levelo_inurba_marseille","lat":43.29986,"lon":5.385036,"is_reserved":false,"is_disabled":false,"rental_uris":{"android":"levelo://app?vid=ae9cda91-adfc-4e66-9b2f-8238ec63e508","ios":"levelo://app?vid=ae9cda91-adfc-4e66-9b2f-8238ec63e508"},"vehicle_type_id":"4","last_reported":1715972755,"current_range_meters":21200,"station_id":"ce4bgj92rcd13ifvqbd0","pricing_plan_id":"cebpf4jnsgd1na2vs0mg"},{"bike_id":"367bd020-c8ec-4b88-a629-981f92066196","system_id":"levelo_inurba_marseille","lat":43.29977,"lon":5.38496,"is_reserved":false,"is_disabled":false,"rental_uris":{"android":"levelo://app?vid=367bd020-c8ec-4b88-a629-981f92066196","ios":"levelo://app?vid=367bd020-c8ec-4b88-a629-981f92066196"},"vehicle_type_id":"4","last_reported":1715972755,"current_range_meters":18800,"station_id":"ce4bgj92rcd13ifvqbd0","pricing_plan_id":"cebpf4jnsgd1na2vs0mg"},{"bike_id":"462461c5-6ca4-4d2c-ba42-7a846ec4d25c","system_id":"levelo_inurba_marseille","lat":43.299707,"lon":5.384859,"is_reserved":false,"is_disabled":false,"rental_uris":{"android":"levelo://app?vid=462461c5-6ca4-4d2c-ba42-7a846ec4d25c","ios":"levelo://app?vid=462461c5-6ca4-4d2c-ba42-7a846ec4d25c"},"vehicle_type_id":"4","last_reported":1715972755,"current_range_meters":19600,"station_id":"ce4bgj92rcd13ifvqbd0","pricing_plan_id":"cebpf4jnsgd1na2vs0mg"},{"bike_id":"c1830aa0-a774-4f7c-bcf6-c28177da7d03","system_id":"levelo_inurba_marseille","lat":43.299733,"lon":5.385027,"is_reserved":false,"is_disabled":false,"rental_uris":{"android":"levelo://app?vid=c1830aa0-a774-4f7c-bcf6-c28177da7d03","ios":"levelo://app?vid=c1830aa0-a774-4f7c-bcf6-c28177da7d03"},"vehicle_type_id":"4","last_reported":1715972755,"current_range_meters":21200,"station_id":"ce4bgj92rcd13ifvqbd0","pricing_plan_id":"cebpf4jnsgd1na2vs0mg"},{"bike_id":"fc720287-dab0-47f6-999e-8cab5b5d379c","system_id":"levelo_inurba_marseille","lat":43.29966,"lon":5.38493,"is_reserved":false,"is_disabled":false,"rental_uris":{"android":"levelo://app?vid=fc720287-dab0-47f6-999e-8cab5b5d379c","ios":"levelo://app?vid=fc720287-dab0-47f6-999e-8cab5b5d379c"},"vehicle_type_id":"4","last_reported":1715972755,"current_range_meters":20400,"station_id":"ce4bgj92rcd13ifvqbd0","pricing_plan_id":"cebpf4jnsgd1na2vs0mg"},{"bike_id":"6d780e7a-7cd9-4ed0-a935-221372aefd08","system_id":"levelo_inurba_marseille","lat":43.2997,"lon":5.38499,"is_reserved":false,"is_disabled":false,"rental_uris":{"android":"levelo://app?vid=6d780e7a-7cd9-4ed0-a935-221372aefd08","ios":"levelo://app?vid=6d780e7a-7cd9-4ed0-a935-221372aefd08"},"vehicle_type_id":"4","last_reported":1715972755,"current_range_meters":6000,"station_id":"ce4bgj92rcd13ifvqbd0","pricing_plan_id":"cebpf4jnsgd1na2vs0mg"},{"bike_id":"be9ad956-ca0d-4982-98d1-ce8a42d7e7d8","system_id":"levelo_inurba_marseille","lat":43.300702,"lon":5.386496,"is_reserved":false,"is_disabled":false,"rental_uris":{"android":"levelo://app?vid=be9ad956-ca0d-4982-98d1-ce8a42d7e7d8","ios":"levelo://app?vid=be9ad956-ca0d-4982-98d1-ce8a42d7e7d8"},"vehicle_type_id":"4","last_reported":1715972755,"current_range_meters":25200,"station_id":"ce4bh0p2rcd13ifvqd80","pricing_plan_id":"cebpf4jnsgd1na2vs0mg"},{"bike_id":"55f9d514-6368-46f9-875b-30bcacdd8377","system_id":"levelo_inurba_marseille","lat":43.32367,"lon":5.388836,"is_reserved":false,"is_disabled":false,"rental_uris":{"android":"levelo://app?vid=55f9d514-6368-46f9-875b-30bcacdd8377","ios":"levelo://app?vid=55f9d514-6368-46f9-875b-30bcacdd8377"},"vehicle_type_id":"4","last_reported":1715972755,"current_range_meters":6000,"station_id":"ce4bhqp2rcd13ifvqhog","pricing_plan_id":"cebpf4jnsgd1na2vs0mg"},{"bike_id":"d6e33fe2-80d1-4e6c-8efb-e4ce6b432645","system_id":"levelo_inurba_marseille","lat":43.32367,"lon":5.388836,"is_reserved":false,"is_disabled":false,"rental_uris":{"android":"levelo://app?vid=d6e33fe2-80d1-4e6c-8efb-e4ce6b432645","ios":"levelo://app?vid=d6e33fe2-80d1-4e6c-8efb-e4ce6b432645"},"vehicle_type_id":"4","last_reported":1715972755,"current_range_meters":7200,"station_id":"ce4bhqp2rcd13ifvqhog","pricing_plan_id":"cebpf4jnsgd1na2vs0mg"},{"bike_id":"06afebc5-9a53-48b4-ae25-735ba2f926c5","system_id":"levelo_inurba_marseille","lat":43.32367,"lon":5.388836,"is_reserved":false,"is_disabled":false,"rental_uris":{"android":"levelo://app?vid=06afebc5-9a53-48b4-ae25-735ba2f926c5","ios":"levelo://app?vid=06afebc5-9a53-48b4-ae25-735ba2f926c5"},"vehicle_type_id":"4","last_reported":1715972755,"current_range_meters":0,"station_id":"ce4bhqp2rcd13ifvqhog","pricing_plan_id":"cebpf4jnsgd1na2vs0mg"},{"bike_id":"f9339fcb-894a-462f-a558-715880662c80","system_id":"levelo_inurba_marseille","lat":43.32367,"lon":5.388836,"is_reserved":false,"is_disabled":false,"rental_uris":{"android":"levelo://app?vid=f9339fcb-894a-462f-a558-715880662c80","ios":"levelo://app?vid=f9339fcb-894a-462f-a558-715880662c80"},"vehicle_type_id":"4","last_reported":1715972755,"current_range_meters":13200,"station_id":"ce4bhqp2rcd13ifvqhog","pricing_plan_id":"cebpf4jnsgd1na2vs0mg"},{"bike_id":"781c1c26-f9aa-4e79-9f3b-b86d1c09f7ef","system_id":"levelo_inurba_marseille","lat":43.29442,"lon":5.37629,"is_reserved":false,"is_disabled":false,"rental_uris":{"android":"levelo://app?vid=781c1c26-f9aa-4e79-9f3b-b86d1c09f7ef","ios":"levelo://app?vid=781c1c26-f9aa-4e79-9f3b-b86d1c09f7ef"},"vehicle_type_id":"4","last_reported":1715972755,"current_range_meters":5200,"station_id":"","pricing_plan_id":"cebpf4jnsgd1na2vs0mg"},{"bike_id":"4f2259eb-8837-4bed-8666-5815933b248d","system_id":"levelo_inurba_marseille","lat":43.29601,"lon":5.381084,"is_reserved":false,"is_disabled":false,"rental_uris":{"android":"levelo://app?vid=4f2259eb-8837-4bed-8666-5815933b248d","ios":"levelo://app?vid=4f2259eb-8837-4bed-8666-5815933b248d"},"vehicle_type_id":"4","last_reported":1715972755,"current_range_meters":18000,"station_id":"ce4bgl12rcd13ifvqbo0","pricing_plan_id":"cebpf4jnsgd1na2vs0mg"},{"bike_id":"023e53b4-cdcc-490f-98bd-c379da0bd2ab","system_id":"levelo_inurba_marseille","lat":43.29602,"lon":5.381084,"is_reserved":false,"is_disabled":false,"rental_uris":{"android":"levelo://app?vid=023e53b4-cdcc-490f-98bd-c379da0bd2ab","ios":"levelo://app?vid=023e53b4-cdcc-490f-98bd-c379da0bd2ab"},"vehicle_type_id":"4","last_reported":1715972755,"current_range_meters":2400,"station_id":"ce4bgl12rcd13ifvqbo0","pricing_plan_id":"cebpf4jnsgd1na2vs0mg"},{"bike_id":"cd39747c-05f1-4dfc-83a7-b4f8ecdaebe4","system_id":"levelo_inurba_marseille","lat":43.29602,"lon":5.381084,"is_reserved":false,"is_disabled":false,"rental_uris":{"android":"levelo://app?vid=cd39747c-05f1-4dfc-83a7-b4f8ecdaebe4","ios":"levelo://app?vid=cd39747c-05f1-4dfc-83a7-b4f8ecdaebe4"},"vehicle_type_id":"4","last_reported":1715972755,"current_range_meters":6800,"station_id":"ce4bgl12rcd13ifvqbo0","pricing_plan_id":"cebpf4jnsgd1na2vs0mg"},{"bike_id":"6c757166-6cb3-4424-9c2f-ac5c0534864e","system_id":"levelo_inurba_marseille","lat":43.29601,"lon":5.381084,"is_reserved":false,"is_disabled":false,"rental_uris":{"android":"levelo://app?vid=6c757166-6cb3-4424-9c2f-ac5c0534864e","ios":"levelo://app?vid=6c757166-6cb3-4424-9c2f-ac5c0534864e"},"vehicle_type_id":"4","last_reported":1715972755,"current_range_meters":0,"station_id":"ce4bgl12rcd13ifvqbo0","pricing_plan_id":"cebpf4jnsgd1na2vs0mg"},{"bike_id":"ba04c569-05c2-4767-9d69-5c70c3600ba3","system_id":"levelo_inurba_marseille","lat":43.29601,"lon":5.381084,"is_reserved":false,"is_disabled":false,"rental_uris":{"android":"levelo://app?vid=ba04c569-05c2-4767-9d69-5c70c3600ba3","ios":"levelo://app?vid=ba04c569-05c2-4767-9d69-5c70c3600ba3"},"vehicle_type_id":"4","last_reported":1715972755,"current_range_meters":0,"station_id":"ce4bgl12rcd13ifvqbo0","pricing_plan_id":"cebpf4jnsgd1na2vs0mg"},{"bike_id":"6d9f61ef-45ca-45ea-be98-255c9e5bd457","system_id":"levelo_inurba_marseille","lat":43.29602,"lon":5.381084,"is_reserved":false,"is_disabled":false,"rental_uris":{"android":"levelo://app?vid=6d9f61ef-45ca-45ea-be98-255c9e5bd457","ios":"levelo://app?vid=6d9f61ef-45ca-45ea-be98-255c9e5bd457"},"vehicle_type_id":"4","last_reported":1715972755,"current_range_meters":400,"station_id":"ce4bgl12rcd13ifvqbo0","pricing_plan_id":"cebpf4jnsgd1na2vs0mg"},{"bike_id":"a75a5aee-da6a-4484-9e67-833bf9eebd46","system_id":"levelo_inurba_marseille","lat":43.29601,"lon":5.381084,"is_reserved":false,"is_disabled":false,"rental_uris":{"android":"levelo://app?vid=a75a5aee-da6a-4484-9e67-833bf9eebd46","ios":"levelo://app?vid=a75a5aee-da6a-4484-9e67-833bf9eebd46"},"vehicle_type_id":"4","last_reported":1715972755,"current_range_meters":16000,"station_id":"ce4bgl12rcd13ifvqbo0","pricing_plan_id":"cebpf4jnsgd1na2vs0mg"},{"bike_id":"17b70488-b809-4a1a-8cf3-4c77d0d69e5c","system_id":"levelo_inurba_marseille","lat":43.305994,"lon":5.393687,"is_reserved":false,"is_disabled":false,"rental_uris":{"android":"levelo://app?vid=17b70488-b809-4a1a-8cf3-4c77d0d69e5c","ios":"levelo://app?vid=17b70488-b809-4a1a-8cf3-4c77d0d69e5c"},"vehicle_type_id":"4","last_reported":1715972755,"current_range_meters":25200,"station_id":"ce4bh0p2rcd13ifvqd80","pricing_plan_id":"cebpf4jnsgd1na2vs0mg"},{"bike_id":"511dfa75-5908-48ef-84dc-23c2cc1d1c21","system_id":"levelo_inurba_marseille","lat":43.293098,"lon":5.374477,"is_reserved":false,"is_disabled":false,"rental_uris":{"android":"levelo://app?vid=511dfa75-5908-48ef-84dc-23c2cc1d1c21","ios":"levelo://app?vid=511dfa75-5908-48ef-84dc-23c2cc1d1c21"},"vehicle_type_id":"4","last_reported":1715972755,"current_range_meters":0,"station_id":"ce4bgi12rcd13ifvqb70","pricing_plan_id":"cebpf4jnsgd1na2vs0mg"},{"bike_id":"369f36f1-827d-4529-ae95-a49d1edd7124","system_id":"levelo_inurba_marseille","lat":43.309589,"lon":5.390258,"is_reserved":false,"is_disabled":false,"rental_uris":{"android":"levelo://app?vid=369f36f1-827d-4529-ae95-a49d1edd7124","ios":"levelo://app?vid=369f36f1-827d-4529-ae95-a49d1edd7124"},"vehicle_type_id":"4","last_reported":1715972755,"current_range_meters":0,"station_id":"ce4bgup2rcd13ifvqco0","pricing_plan_id":"cebpf4jnsgd1na2vs0mg"},{"bike_id":"07f0a237-4661-4e2b-a2d5-f29e30fe5e85","system_id":"levelo_inurba_marseille","lat":43.305994,"lon":5.393687,"is_reserved":false,"is_disabled":false,"rental_uris":{"android":"levelo://app?vid=07f0a237-4661-4e2b-a2d5-f29e30fe5e85","ios":"levelo://app?vid=07f0a237-4661-4e2b-a2d5-f29e30fe5e85"},"vehicle_type_id":"4","last_reported":1715972755,"current_range_meters":21600,"station_id":"ce4bh0p2rcd13ifvqd80","pricing_plan_id":"cebpf4jnsgd1na2vs0mg"},{"bike_id":"614c81eb-f78f-42f3-9a7b-53d955a76202","system_id":"levelo_inurba_marseille","lat":43.300852,"lon":5.390859,"is_reserved":false,"is_disabled":false,"rental_uris":{"android":"levelo://app?vid=614c81eb-f78f-42f3-9a7b-53d955a76202","ios":"levelo://app?vid=614c81eb-f78f-42f3-9a7b-53d955a76202"},"vehicle_type_id":"4","last_reported":1715972755,"current_range_meters":10800,"station_id":"ce4bh192rcd13ifvqdb0","pricing_plan_id":"cebpf4jnsgd1na2vs0mg"},{"bike_id":"3f8554f5-812c-4d0c-b2d4-bb098fdb091b","system_id":"levelo_inurba_marseille","lat":43.305994,"lon":5.393687,"is_reserved":false,"is_disabled":false,"rental_uris":{"android":"levelo://app?vid=3f8554f5-812c-4d0c-b2d4-bb098fdb091b","ios":"levelo://app?vid=3f8554f5-812c-4d0c-b2d4-bb098fdb091b"},"vehicle_type_id":"4","last_reported":1715972755,"current_range_meters":8400,"station_id":"ce4bh0p2rcd13ifvqd80","pricing_plan_id":"cebpf4jnsgd1na2vs0mg"},{"bike_id":"953c7397-99dd-4a3a-b4ab-b3282a0f7aed","system_id":"levelo_inurba_marseille","lat":43.293028,"lon":5.374708,"is_reserved":false,"is_disabled":false,"rental_uris":{"android":"levelo://app?vid=953c7397-99dd-4a3a-b4ab-b3282a0f7aed","ios":"levelo://app?vid=953c7397-99dd-4a3a-b4ab-b3282a0f7aed"},"vehicle_type_id":"4","last_reported":1715972755,"current_range_meters":0,"station_id":"ce4bgi12rcd13ifvqb70","pricing_plan_id":"cebpf4jnsgd1na2vs0mg"},{"bike_id":"769088c9-16f4-446f-a9c4-702d3ef55d95","system_id":"levelo_inurba_marseille","lat":43.293023,"lon":5.374687,"is_reserved":false,"is_disabled":false,"rental_uris":{"android":"levelo://app?vid=769088c9-16f4-446f-a9c4-702d3ef55d95","ios":"levelo://app?vid=769088c9-16f4-446f-a9c4-702d3ef55d95"},"vehicle_type_id":"4","last_reported":1715972755,"current_range_meters":0,"station_id":"ce4bgi12rcd13ifvqb70","pricing_plan_id":"cebpf4jnsgd1na2vs0mg"},{"bike_id":"1d63a672-65e6-4f8a-9485-17788579dfe0","system_id":"levelo_inurba_marseille","lat":43.305994,"lon":5.393687,"is_reserved":false,"is_disabled":false,"rental_uris":{"android":"levelo://app?vid=1d63a672-65e6-4f8a-9485-17788579dfe0","ios":"levelo://app?vid=1d63a672-65e6-4f8a-9485-17788579dfe0"},"vehicle_type_id":"4","last_reported":1715972755,"current_range_meters":24000,"station_id":"ce4bh0p2rcd13ifvqd80","pricing_plan_id":"cebpf4jnsgd1na2vs0mg"},{"bike_id":"8531a636-96ae-4aa2-a553-c8bdff6fa077","system_id":"levelo_inurba_marseille","lat":43.305994,"lon":5.393687,"is_reserved":false,"is_disabled":false,"rental_uris":{"android":"levelo://app?vid=8531a636-96ae-4aa2-a553-c8bdff6fa077","ios":"levelo://app?vid=8531a636-96ae-4aa2-a553-c8bdff6fa077"},"vehicle_type_id":"4","last_reported":1715972755,"current_range_meters":5600,"station_id":"ce4bh0p2rcd13ifvqd80","pricing_plan_id":"cebpf4jnsgd1na2vs0mg"},{"bike_id":"edc0db3b-ecc2-49a9-9814-95ff9218a9f2","system_id":"levelo_inurba_marseille","lat":43.305994,"lon":5.393687,"is_reserved":false,"is_disabled":false,"rental_uris":{"android":"levelo://app?vid=edc0db3b-ecc2-49a9-9814-95ff9218a9f2","ios":"levelo://app?vid=edc0db3b-ecc2-49a9-9814-95ff9218a9f2"},"vehicle_type_id":"4","last_reported":1715972755,"current_range_meters":18800,"station_id":"ce4bh0p2rcd13ifvqd80","pricing_plan_id":"cebpf4jnsgd1na2vs0mg"},{"bike_id":"949523fa-f5c2-442d-920e-83d970a80a0c","system_id":"levelo_inurba_marseille","lat":43.29293,"lon":5.37463,"is_reserved":false,"is_disabled":false,"rental_uris":{"android":"levelo://app?vid=949523fa-f5c2-442d-920e-83d970a80a0c","ios":"levelo://app?vid=949523fa-f5c2-442d-920e-83d970a80a0c"},"vehicle_type_id":"4","last_reported":1715972755,"current_range_meters":0,"station_id":"ce4bgi12rcd13ifvqb70","pricing_plan_id":"cebpf4jnsgd1na2vs0mg"},{"bike_id":"1aca28da-52a9-42e7-a8bb-f76d7a7bddba","system_id":"levelo_inurba_marseille","lat":43.305994,"lon":5.393687,"is_reserved":false,"is_disabled":false,"rental_uris":{"android":"levelo://app?vid=1aca28da-52a9-42e7-a8bb-f76d7a7bddba","ios":"levelo://app?vid=1aca28da-52a9-42e7-a8bb-f76d7a7bddba"},"vehicle_type_id":"4","last_reported":1715972755,"current_range_meters":19200,"station_id":"ce4bh0p2rcd13ifvqd80","pricing_plan_id":"cebpf4jnsgd1na2vs0mg"},{"bike_id":"eadb07ae-045f-4d4c-8bdf-5641aaa5b9e5","system_id":"levelo_inurba_marseille","lat":43.30303,"lon":5.39194,"is_reserved":false,"is_disabled":false,"rental_uris":{"android":"levelo://app?vid=eadb07ae-045f-4d4c-8bdf-5641aaa5b9e5","ios":"levelo://app?vid=eadb07ae-045f-4d4c-8bdf-5641aaa5b9e5"},"vehicle_type_id":"4","last_reported":1715972755,"current_range_meters":12000,"station_id":"","pricing_plan_id":"cebpf4jnsgd1na2vs0mg"},{"bike_id":"247272b0-e28e-45c8-a6b3-a7001422b20b","system_id":"levelo_inurba_marseille","lat":43.305994,"lon":5.393687,"is_reserved":false,"is_disabled":false,"rental_uris":{"android":"levelo://app?vid=247272b0-e28e-45c8-a6b3-a7001422b20b","ios":"levelo://app?vid=247272b0-e28e-45c8-a6b3-a7001422b20b"},"vehicle_type_id":"4","last_reported":1715972755,"current_range_meters":8400,"station_id":"ce4bh0p2rcd13ifvqd80","pricing_plan_id":"cebpf4jnsgd1na2vs0mg"},{"bike_id":"c8b72a47-e9a8-47aa-926b-5f78de2d7878","system_id":"levelo_inurba_marseille","lat":43.2936,"lon":5.37835,"is_reserved":false,"is_disabled":false,"rental_uris":{"android":"levelo://app?vid=c8b72a47-e9a8-47aa-926b-5f78de2d7878","ios":"levelo://app?vid=c8b72a47-e9a8-47aa-926b-5f78de2d7878"},"vehicle_type_id":"4","last_reported":1715972755,"current_range_meters":10000,"station_id":"ce4bgjh2rcd13ifvqbf0","pricing_plan_id":"cebpf4jnsgd1na2vs0mg"},{"bike_id":"2248e319-1c05-4ce1-a9e4-5281321f73b6","system_id":"levelo_inurba_marseille","lat":43.2936,"lon":5.37835,"is_reserved":false,"is_disabled":false,"rental_uris":{"android":"levelo://app?vid=2248e319-1c05-4ce1-a9e4-5281321f73b6","ios":"levelo://app?vid=2248e319-1c05-4ce1-a9e4-5281321f73b6"},"vehicle_type_id":"4","last_reported":1715972755,"current_range_meters":800,"station_id":"ce4bgjh2rcd13ifvqbf0","pricing_plan_id":"cebpf4jnsgd1na2vs0mg"},{"bike_id":"e3b23b96-800c-44d8-b135-4825e8d91273","system_id":"levelo_inurba_marseille","lat":43.303002,"lon":5.392142,"is_reserved":false,"is_disabled":false,"rental_uris":{"android":"levelo://app?vid=e3b23b96-800c-44d8-b135-4825e8d91273","ios":"levelo://app?vid=e3b23b96-800c-44d8-b135-4825e8d91273"},"vehicle_type_id":"4","last_reported":1715972755,"current_range_meters":16800,"station_id":"ce4bgkh2rcd13ifvqbk0","pricing_plan_id":"cebpf4jnsgd1na2vs0mg"},{"bike_id":"fd672851-b4ad-46f9-b9df-1e0230bbfb1c","system_id":"levelo_inurba_marseille","lat":43.2936,"lon":5.37835,"is_reserved":false,"is_disabled":false,"rental_uris":{"android":"levelo://app?vid=fd672851-b4ad-46f9-b9df-1e0230bbfb1c","ios":"levelo://app?vid=fd672851-b4ad-46f9-b9df-1e0230bbfb1c"},"vehicle_type_id":"4","last_reported":1715972755,"current_range_meters":4800,"station_id":"ce4bgjh2rcd13ifvqbf0","pricing_plan_id":"cebpf4jnsgd1na2vs0mg"},{"bike_id":"230240b6-b641-4878-8e82-1008ce95ac35","system_id":"levelo_inurba_marseille","lat":43.2936,"lon":5.37835,"is_reserved":false,"is_disabled":false,"rental_uris":{"android":"levelo://app?vid=230240b6-b641-4878-8e82-1008ce95ac35","ios":"levelo://app?vid=230240b6-b641-4878-8e82-1008ce95ac35"},"vehicle_type_id":"4","last_reported":1715972755,"current_range_meters":4400,"station_id":"ce4bgjh2rcd13ifvqbf0","pricing_plan_id":"cebpf4jnsgd1na2vs0mg"},{"bike_id":"d0921078-bb9d-492b-b325-40a319a1516e","system_id":"levelo_inurba_marseille","lat":43.2936,"lon":5.37835,"is_reserved":false,"is_disabled":false,"rental_uris":{"android":"levelo://app?vid=d0921078-bb9d-492b-b325-40a319a1516e","ios":"levelo://app?vid=d0921078-bb9d-492b-b325-40a319a1516e"},"vehicle_type_id":"4","last_reported":1715972755,"current_range_meters":24000,"station_id":"ce4bgjh2rcd13ifvqbf0","pricing_plan_id":"cebpf4jnsgd1na2vs0mg"},{"bike_id":"a3850371-5329-419c-a6e0-8e26a958468b","system_id":"levelo_inurba_marseille","lat":43.302992,"lon":5.392136,"is_reserved":false,"is_disabled":false,"rental_uris":{"android":"levelo://app?vid=a3850371-5329-419c-a6e0-8e26a958468b","ios":"levelo://app?vid=a3850371-5329-419c-a6e0-8e26a958468b"},"vehicle_type_id":"4","last_reported":1715972755,"current_range_meters":29600,"station_id":"ce4bgkh2rcd13ifvqbk0","pricing_plan_id":"cebpf4jnsgd1na2vs0mg"},{"bike_id":"70059b0d-6cdc-41b7-97cf-55a9f4c0e326","system_id":"levelo_inurba_marseille","lat":43.2936,"lon":5.37835,"is_reserved":false,"is_disabled":false,"rental_uris":{"android":"levelo://app?vid=70059b0d-6cdc-41b7-97cf-55a9f4c0e326","ios":"levelo://app?vid=70059b0d-6cdc-41b7-97cf-55a9f4c0e326"},"vehicle_type_id":"4","last_reported":1715972755,"current_range_meters":20000,"station_id":"ce4bgjh2rcd13ifvqbf0","pricing_plan_id":"cebpf4jnsgd1na2vs0mg"},{"bike_id":"04b96fda-0f14-46e5-8999-706aa8d892c9","system_id":"levelo_inurba_marseille","lat":43.2936,"lon":5.37835,"is_reserved":false,"is_disabled":false,"rental_uris":{"android":"levelo://app?vid=04b96fda-0f14-46e5-8999-706aa8d892c9","ios":"levelo://app?vid=04b96fda-0f14-46e5-8999-706aa8d892c9"},"vehicle_type_id":"4","last_reported":1715972755,"current_range_meters":2400,"station_id":"ce4bgjh2rcd13ifvqbf0","pricing_plan_id":"cebpf4jnsgd1na2vs0mg"},{"bike_id":"abe869a8-8ed9-4a6e-bdc7-14cf560e981e","system_id":"levelo_inurba_marseille","lat":43.292338,"lon":5.360623,"is_reserved":false,"is_disabled":false,"rental_uris":{"android":"levelo://app?vid=abe869a8-8ed9-4a6e-bdc7-14cf560e981e","ios":"levelo://app?vid=abe869a8-8ed9-4a6e-bdc7-14cf560e981e"},"vehicle_type_id":"4","last_reported":1715972755,"current_range_meters":20000,"station_id":"ce4bhbh2rcd13ifvqeqg","pricing_plan_id":"cebpf4jnsgd1na2vs0mg"},{"bike_id":"ec879ef5-5360-44e8-910e-6802adc45f39","system_id":"levelo_inurba_marseille","lat":43.292311,"lon":5.360731,"is_reserved":false,"is_disabled":false,"rental_uris":{"android":"levelo://app?vid=ec879ef5-5360-44e8-910e-6802adc45f39","ios":"levelo://app?vid=ec879ef5-5360-44e8-910e-6802adc45f39"},"vehicle_type_id":"4","last_reported":1715972755,"current_range_meters":21200,"station_id":"ce4bhbh2rcd13ifvqeqg","pricing_plan_id":"cebpf4jnsgd1na2vs0mg"},{"bike_id":"0af4c065-1295-4723-8c90-24fede3b1acd","system_id":"levelo_inurba_marseille","lat":43.292311,"lon":5.360731,"is_reserved":false,"is_disabled":false,"rental_uris":{"android":"levelo://app?vid=0af4c065-1295-4723-8c90-24fede3b1acd","ios":"levelo://app?vid=0af4c065-1295-4723-8c90-24fede3b1acd"},"vehicle_type_id":"4","last_reported":1715972755,"current_range_meters":2400,"station_id":"ce4bhbh2rcd13ifvqeqg","pricing_plan_id":"cebpf4jnsgd1na2vs0mg"},{"bike_id":"3fbbe138-97e7-4244-bdb5-3ce21463df70","system_id":"levelo_inurba_marseille","lat":43.300852,"lon":5.390859,"is_reserved":false,"is_disabled":false,"rental_uris":{"android":"levelo://app?vid=3fbbe138-97e7-4244-bdb5-3ce21463df70","ios":"levelo://app?vid=3fbbe138-97e7-4244-bdb5-3ce21463df70"},"vehicle_type_id":"4","last_reported":1715972755,"current_range_meters":0,"station_id":"ce4bh192rcd13ifvqdb0","pricing_plan_id":"cebpf4jnsgd1na2vs0mg"},{"bike_id":"2a8795de-7f79-4838-ae86-5e9e420807a9","system_id":"levelo_inurba_marseille","lat":43.30091,"lon":5.39074,"is_reserved":false,"is_disabled":false,"rental_uris":{"android":"levelo://app?vid=2a8795de-7f79-4838-ae86-5e9e420807a9","ios":"levelo://app?vid=2a8795de-7f79-4838-ae86-5e9e420807a9"},"vehicle_type_id":"4","last_reported":1715972755,"current_range_meters":0,"station_id":"ce4bh192rcd13ifvqdb0","pricing_plan_id":"cebpf4jnsgd1na2vs0mg"},{"bike_id":"a2b5c8e4-e1a0-434b-83e1-c128c3e20ade","system_id":"levelo_inurba_marseille","lat":43.292311,"lon":5.360731,"is_reserved":false,"is_disabled":false,"rental_uris":{"android":"levelo://app?vid=a2b5c8e4-e1a0-434b-83e1-c128c3e20ade","ios":"levelo://app?vid=a2b5c8e4-e1a0-434b-83e1-c128c3e20ade"},"vehicle_type_id":"4","last_reported":1715972755,"current_range_meters":19200,"station_id":"ce4bhbh2rcd13ifvqeqg","pricing_plan_id":"cebpf4jnsgd1na2vs0mg"},{"bike_id":"c2c52a2c-ae83-408d-acf7-231016b0f881","system_id":"levelo_inurba_marseille","lat":43.300852,"lon":5.390859,"is_reserved":false,"is_disabled":false,"rental_uris":{"android":"levelo://app?vid=c2c52a2c-ae83-408d-acf7-231016b0f881","ios":"levelo://app?vid=c2c52a2c-ae83-408d-acf7-231016b0f881"},"vehicle_type_id":"4","last_reported":1715972755,"current_range_meters":12800,"station_id":"ce4bh192rcd13ifvqdb0","pricing_plan_id":"cebpf4jnsgd1na2vs0mg"},{"bike_id":"72bfed1c-a7dd-4214-9651-d28a950e1bfc","system_id":"levelo_inurba_marseille","lat":43.30085,"lon":5.390856,"is_reserved":false,"is_disabled":false,"rental_uris":{"android":"levelo://app?vid=72bfed1c-a7dd-4214-9651-d28a950e1bfc","ios":"levelo://app?vid=72bfed1c-a7dd-4214-9651-d28a950e1bfc"},"vehicle_type_id":"4","last_reported":1715972755,"current_range_meters":0,"station_id":"ce4bh192rcd13ifvqdb0","pricing_plan_id":"cebpf4jnsgd1na2vs0mg"},{"bike_id":"6c37e38c-e925-46b0-a020-e9dfc58bd846","system_id":"levelo_inurba_marseille","lat":43.30085,"lon":5.390856,"is_reserved":false,"is_disabled":false,"rental_uris":{"android":"levelo://app?vid=6c37e38c-e925-46b0-a020-e9dfc58bd846","ios":"levelo://app?vid=6c37e38c-e925-46b0-a020-e9dfc58bd846"},"vehicle_type_id":"4","last_reported":1715972755,"current_range_meters":8800,"station_id":"ce4bh192rcd13ifvqdb0","pricing_plan_id":"cebpf4jnsgd1na2vs0mg"},{"bike_id":"776ae0b3-5410-4265-80f4-9dc00fbccfad","system_id":"levelo_inurba_marseille","lat":43.30085,"lon":5.390856,"is_reserved":false,"is_disabled":false,"rental_uris":{"android":"levelo://app?vid=776ae0b3-5410-4265-80f4-9dc00fbccfad","ios":"levelo://app?vid=776ae0b3-5410-4265-80f4-9dc00fbccfad"},"vehicle_type_id":"4","last_reported":1715972755,"current_range_meters":22000,"station_id":"ce4bh192rcd13ifvqdb0","pricing_plan_id":"cebpf4jnsgd1na2vs0mg"},{"bike_id":"9efd86e5-e4c9-4112-b094-955d7e2f0d28","system_id":"levelo_inurba_marseille","lat":43.291675,"lon":5.371583,"is_reserved":false,"is_disabled":false,"rental_uris":{"android":"levelo://app?vid=9efd86e5-e4c9-4112-b094-955d7e2f0d28","ios":"levelo://app?vid=9efd86e5-e4c9-4112-b094-955d7e2f0d28"},"vehicle_type_id":"4","last_reported":1715972755,"current_range_meters":2000,"station_id":"ce4bha92rcd13ifvqeh0","pricing_plan_id":"cebpf4jnsgd1na2vs0mg"},{"bike_id":"5976af9f-e602-4e1b-9b78-97efb0fd87ad","system_id":"levelo_inurba_marseille","lat":43.291675,"lon":5.371583,"is_reserved":false,"is_disabled":false,"rental_uris":{"android":"levelo://app?vid=5976af9f-e602-4e1b-9b78-97efb0fd87ad","ios":"levelo://app?vid=5976af9f-e602-4e1b-9b78-97efb0fd87ad"},"vehicle_type_id":"4","last_reported":1715972755,"current_range_meters":15200,"station_id":"ce4bha92rcd13ifvqeh0","pricing_plan_id":"cebpf4jnsgd1na2vs0mg"},{"bike_id":"7d62d4ea-747c-4728-9d11-8873ccabccd3","system_id":"levelo_inurba_marseille","lat":43.298764,"lon":5.388973,"is_reserved":false,"is_disabled":false,"rental_uris":{"android":"levelo://app?vid=7d62d4ea-747c-4728-9d11-8873ccabccd3","ios":"levelo://app?vid=7d62d4ea-747c-4728-9d11-8873ccabccd3"},"vehicle_type_id":"4","last_reported":1715972755,"current_range_meters":3200,"station_id":"ce4bh392rcd13ifvqdl0","pricing_plan_id":"cebpf4jnsgd1na2vs0mg"},{"bike_id":"fd587345-966f-48ee-99a5-909705977a13","system_id":"levelo_inurba_marseille","lat":43.291675,"lon":5.371583,"is_reserved":false,"is_disabled":false,"rental_uris":{"android":"levelo://app?vid=fd587345-966f-48ee-99a5-909705977a13","ios":"levelo://app?vid=fd587345-966f-48ee-99a5-909705977a13"},"vehicle_type_id":"4","last_reported":1715972755,"current_range_meters":800,"station_id":"ce4bha92rcd13ifvqeh0","pricing_plan_id":"cebpf4jnsgd1na2vs0mg"},{"bike_id":"f604377f-bf0e-401f-afbb-9ddd30fd70cf","system_id":"levelo_inurba_marseille","lat":43.309038,"lon":5.396546,"is_reserved":false,"is_disabled":false,"rental_uris":{"android":"levelo://app?vid=f604377f-bf0e-401f-afbb-9ddd30fd70cf","ios":"levelo://app?vid=f604377f-bf0e-401f-afbb-9ddd30fd70cf"},"vehicle_type_id":"4","last_reported":1715972755,"current_range_meters":21600,"station_id":"ce4bh012rcd13ifvqcv0","pricing_plan_id":"cebpf4jnsgd1na2vs0mg"},{"bike_id":"f0266771-0588-4208-8f86-6d91eee85557","system_id":"levelo_inurba_marseille","lat":43.30891,"lon":5.39633,"is_reserved":false,"is_disabled":false,"rental_uris":{"android":"levelo://app?vid=f0266771-0588-4208-8f86-6d91eee85557","ios":"levelo://app?vid=f0266771-0588-4208-8f86-6d91eee85557"},"vehicle_type_id":"4","last_reported":1715972755,"current_range_meters":9200,"station_id":"ce4bh012rcd13ifvqcv0","pricing_plan_id":"cebpf4jnsgd1na2vs0mg"},{"bike_id":"a7afe283-d900-453f-bdd0-05b095aae91c","system_id":"levelo_inurba_marseille","lat":43.292005,"lon":5.357875,"is_reserved":false,"is_disabled":false,"rental_uris":{"android":"levelo://app?vid=a7afe283-d900-453f-bdd0-05b095aae91c","ios":"levelo://app?vid=a7afe283-d900-453f-bdd0-05b095aae91c"},"vehicle_type_id":"4","last_reported":1715972755,"current_range_meters":4800,"station_id":"ce4bhb12rcd13ifvqel0","pricing_plan_id":"cebpf4jnsgd1na2vs0mg"},{"bike_id":"9f6edd3b-c7c1-4b7a-9d8f-5ad9c0f10751","system_id":"levelo_inurba_marseille","lat":43.308875,"lon":5.39643,"is_reserved":false,"is_disabled":false,"rental_uris":{"android":"levelo://app?vid=9f6edd3b-c7c1-4b7a-9d8f-5ad9c0f10751","ios":"levelo://app?vid=9f6edd3b-c7c1-4b7a-9d8f-5ad9c0f10751"},"vehicle_type_id":"4","last_reported":1715972755,"current_range_meters":7200,"station_id":"ce4bh012rcd13ifvqcv0","pricing_plan_id":"cebpf4jnsgd1na2vs0mg"},{"bike_id":"5ea0b563-2076-40a0-ab70-131c80103ed3","system_id":"levelo_inurba_marseille","lat":43.309038,"lon":5.396546,"is_reserved":false,"is_disabled":false,"rental_uris":{"android":"levelo://app?vid=5ea0b563-2076-40a0-ab70-131c80103ed3","ios":"levelo://app?vid=5ea0b563-2076-40a0-ab70-131c80103ed3"},"vehicle_type_id":"4","last_reported":1715972755,"current_range_meters":0,"station_id":"ce4bh012rcd13ifvqcv0","pricing_plan_id":"cebpf4jnsgd1na2vs0mg"},{"bike_id":"47f142b5-2385-4c46-a17d-f8824ee5a59d","system_id":"levelo_inurba_marseille","lat":43.309038,"lon":5.396546,"is_reserved":false,"is_disabled":false,"rental_uris":{"android":"levelo://app?vid=47f142b5-2385-4c46-a17d-f8824ee5a59d","ios":"levelo://app?vid=47f142b5-2385-4c46-a17d-f8824ee5a59d"},"vehicle_type_id":"4","last_reported":1715972755,"current_range_meters":15600,"station_id":"ce4bh012rcd13ifvqcv0","pricing_plan_id":"cebpf4jnsgd1na2vs0mg"},{"bike_id":"f52aa660-75c6-414e-9ac4-8b8e371e1095","system_id":"levelo_inurba_marseille","lat":43.313291,"lon":5.396838,"is_reserved":false,"is_disabled":false,"rental_uris":{"android":"levelo://app?vid=f52aa660-75c6-414e-9ac4-8b8e371e1095","ios":"levelo://app?vid=f52aa660-75c6-414e-9ac4-8b8e371e1095"},"vehicle_type_id":"4","last_reported":1715972755,"current_range_meters":22800,"station_id":"ce4bgvp2rcd13ifvqcu0","pricing_plan_id":"cebpf4jnsgd1na2vs0mg"},{"bike_id":"e7d9a2fc-55d8-455d-bbe8-bc7663276e70","system_id":"levelo_inurba_marseille","lat":43.309038,"lon":5.396546,"is_reserved":false,"is_disabled":false,"rental_uris":{"android":"levelo://app?vid=e7d9a2fc-55d8-455d-bbe8-bc7663276e70","ios":"levelo://app?vid=e7d9a2fc-55d8-455d-bbe8-bc7663276e70"},"vehicle_type_id":"4","last_reported":1715972755,"current_range_meters":400,"station_id":"ce4bh012rcd13ifvqcv0","pricing_plan_id":"cebpf4jnsgd1na2vs0mg"},{"bike_id":"1a1bec11-d80b-42de-9b8d-6bff202f7c44","system_id":"levelo_inurba_marseille","lat":43.30888,"lon":5.396483,"is_reserved":false,"is_disabled":false,"rental_uris":{"android":"levelo://app?vid=1a1bec11-d80b-42de-9b8d-6bff202f7c44","ios":"levelo://app?vid=1a1bec11-d80b-42de-9b8d-6bff202f7c44"},"vehicle_type_id":"4","last_reported":1715972755,"current_range_meters":1600,"station_id":"ce4bh012rcd13ifvqcv0","pricing_plan_id":"cebpf4jnsgd1na2vs0mg"},{"bike_id":"8ff0dc02-f0c6-4939-81ba-f47840e3bc3d","system_id":"levelo_inurba_marseille","lat":43.309038,"lon":5.396546,"is_reserved":false,"is_disabled":false,"rental_uris":{"android":"levelo://app?vid=8ff0dc02-f0c6-4939-81ba-f47840e3bc3d","ios":"levelo://app?vid=8ff0dc02-f0c6-4939-81ba-f47840e3bc3d"},"vehicle_type_id":"4","last_reported":1715972755,"current_range_meters":5600,"station_id":"ce4bh012rcd13ifvqcv0","pricing_plan_id":"cebpf4jnsgd1na2vs0mg"},{"bike_id":"5ecfce14-1be2-406f-9a12-e55824fe4122","system_id":"levelo_inurba_marseille","lat":43.30887,"lon":5.39656,"is_reserved":false,"is_disabled":false,"rental_uris":{"android":"levelo://app?vid=5ecfce14-1be2-406f-9a12-e55824fe4122","ios":"levelo://app?vid=5ecfce14-1be2-406f-9a12-e55824fe4122"},"vehicle_type_id":"4","last_reported":1715972755,"current_range_meters":5600,"station_id":"ce4bh012rcd13ifvqcv0","pricing_plan_id":"cebpf4jnsgd1na2vs0mg"},{"bike_id":"00051cfb-2ce5-49bf-b30f-81ced116ca8d","system_id":"levelo_inurba_marseille","lat":43.308851,"lon":5.396566,"is_reserved":false,"is_disabled":false,"rental_uris":{"android":"levelo://app?vid=00051cfb-2ce5-49bf-b30f-81ced116ca8d","ios":"levelo://app?vid=00051cfb-2ce5-49bf-b30f-81ced116ca8d"},"vehicle_type_id":"4","last_reported":1715972755,"current_range_meters":4800,"station_id":"ce4bh012rcd13ifvqcv0","pricing_plan_id":"cebpf4jnsgd1na2vs0mg"},{"bike_id":"27b46b83-aa5a-4a21-b732-99a1e3420c70","system_id":"levelo_inurba_marseille","lat":43.309038,"lon":5.396546,"is_reserved":false,"is_disabled":false,"rental_uris":{"android":"levelo://app?vid=27b46b83-aa5a-4a21-b732-99a1e3420c70","ios":"levelo://app?vid=27b46b83-aa5a-4a21-b732-99a1e3420c70"},"vehicle_type_id":"4","last_reported":1715972755,"current_range_meters":25600,"station_id":"ce4bh012rcd13ifvqcv0","pricing_plan_id":"cebpf4jnsgd1na2vs0mg"},{"bike_id":"4be805d7-4737-4dd5-a642-f9c6ed28fa3c","system_id":"levelo_inurba_marseille","lat":43.308925,"lon":5.396618,"is_reserved":false,"is_disabled":false,"rental_uris":{"android":"levelo://app?vid=4be805d7-4737-4dd5-a642-f9c6ed28fa3c","ios":"levelo://app?vid=4be805d7-4737-4dd5-a642-f9c6ed28fa3c"},"vehicle_type_id":"4","last_reported":1715972755,"current_range_meters":0,"station_id":"ce4bh012rcd13ifvqcv0","pricing_plan_id":"cebpf4jnsgd1na2vs0mg"},{"bike_id":"36b36834-c910-431c-876b-7e96252d4cdd","system_id":"levelo_inurba_marseille","lat":43.30893,"lon":5.39665,"is_reserved":false,"is_disabled":false,"rental_uris":{"android":"levelo://app?vid=36b36834-c910-431c-876b-7e96252d4cdd","ios":"levelo://app?vid=36b36834-c910-431c-876b-7e96252d4cdd"},"vehicle_type_id":"4","last_reported":1715972755,"current_range_meters":19200,"station_id":"ce4bh012rcd13ifvqcv0","pricing_plan_id":"cebpf4jnsgd1na2vs0mg"},{"bike_id":"38578e5d-8947-4609-9d88-d311ed33fc0c","system_id":"levelo_inurba_marseille","lat":43.29534,"lon":5.38548,"is_reserved":false,"is_disabled":false,"rental_uris":{"android":"levelo://app?vid=38578e5d-8947-4609-9d88-d311ed33fc0c","ios":"levelo://app?vid=38578e5d-8947-4609-9d88-d311ed33fc0c"},"vehicle_type_id":"4","last_reported":1715972755,"current_range_meters":0,"station_id":"ce4bgih2rcd13ifvqba0","pricing_plan_id":"cebpf4jnsgd1na2vs0mg"},{"bike_id":"c741d1c3-a774-446e-ba24-0817d3b63729","system_id":"levelo_inurba_marseille","lat":43.29529,"lon":5.385581,"is_reserved":false,"is_disabled":false,"rental_uris":{"android":"levelo://app?vid=c741d1c3-a774-446e-ba24-0817d3b63729","ios":"levelo://app?vid=c741d1c3-a774-446e-ba24-0817d3b63729"},"vehicle_type_id":"4","last_reported":1715972755,"current_range_meters":0,"station_id":"ce4bgih2rcd13ifvqba0","pricing_plan_id":"cebpf4jnsgd1na2vs0mg"},{"bike_id":"dfee42a4-f133-464b-9730-3ad7d2d553a6","system_id":"levelo_inurba_marseille","lat":43.295296,"lon":5.385564,"is_reserved":false,"is_disabled":false,"rental_uris":{"android":"levelo://app?vid=dfee42a4-f133-464b-9730-3ad7d2d553a6","ios":"levelo://app?vid=dfee42a4-f133-464b-9730-3ad7d2d553a6"},"vehicle_type_id":"4","last_reported":1715972755,"current_range_meters":0,"station_id":"ce4bgih2rcd13ifvqba0","pricing_plan_id":"cebpf4jnsgd1na2vs0mg"},{"bike_id":"d8dc36eb-c7b8-41d2-8d19-a88b80bb0213","system_id":"levelo_inurba_marseille","lat":43.29529,"lon":5.385581,"is_reserved":false,"is_disabled":false,"rental_uris":{"android":"levelo://app?vid=d8dc36eb-c7b8-41d2-8d19-a88b80bb0213","ios":"levelo://app?vid=d8dc36eb-c7b8-41d2-8d19-a88b80bb0213"},"vehicle_type_id":"4","last_reported":1715972755,"current_range_meters":18800,"station_id":"ce4bgih2rcd13ifvqba0","pricing_plan_id":"cebpf4jnsgd1na2vs0mg"},{"bike_id":"2a97a29c-6f14-4e31-8a94-1313bc36e56f","system_id":"levelo_inurba_marseille","lat":43.29529,"lon":5.385581,"is_reserved":false,"is_disabled":false,"rental_uris":{"android":"levelo://app?vid=2a97a29c-6f14-4e31-8a94-1313bc36e56f","ios":"levelo://app?vid=2a97a29c-6f14-4e31-8a94-1313bc36e56f"},"vehicle_type_id":"4","last_reported":1715972755,"current_range_meters":0,"station_id":"ce4bgih2rcd13ifvqba0","pricing_plan_id":"cebpf4jnsgd1na2vs0mg"},{"bike_id":"f16bb997-1e1e-437b-a61d-07649810ebf6","system_id":"levelo_inurba_marseille","lat":43.302008,"lon":5.394694,"is_reserved":false,"is_disabled":false,"rental_uris":{"android":"levelo://app?vid=f16bb997-1e1e-437b-a61d-07649810ebf6","ios":"levelo://app?vid=f16bb997-1e1e-437b-a61d-07649810ebf6"},"vehicle_type_id":"4","last_reported":1715972755,"current_range_meters":18800,"station_id":"ce4bh0p2rcd13ifvqd70","pricing_plan_id":"cebpf4jnsgd1na2vs0mg"},{"bike_id":"db5f9c03-5d56-46ee-a220-c04f590f97e1","system_id":"levelo_inurba_marseille","lat":43.302008,"lon":5.394694,"is_reserved":false,"is_disabled":false,"rental_uris":{"android":"levelo://app?vid=db5f9c03-5d56-46ee-a220-c04f590f97e1","ios":"levelo://app?vid=db5f9c03-5d56-46ee-a220-c04f590f97e1"},"vehicle_type_id":"4","last_reported":1715972755,"current_range_meters":26000,"station_id":"ce4bh0p2rcd13ifvqd70","pricing_plan_id":"cebpf4jnsgd1na2vs0mg"},{"bike_id":"e6a926c5-8970-43a0-a81a-efba19dd98c0","system_id":"levelo_inurba_marseille","lat":43.302008,"lon":5.394694,"is_reserved":false,"is_disabled":false,"rental_uris":{"android":"levelo://app?vid=e6a926c5-8970-43a0-a81a-efba19dd98c0","ios":"levelo://app?vid=e6a926c5-8970-43a0-a81a-efba19dd98c0"},"vehicle_type_id":"4","last_reported":1715972755,"current_range_meters":27600,"station_id":"ce4bh0p2rcd13ifvqd70","pricing_plan_id":"cebpf4jnsgd1na2vs0mg"},{"bike_id":"0e655032-cdfe-431e-a949-ffe4ebf38c49","system_id":"levelo_inurba_marseille","lat":43.302008,"lon":5.394694,"is_reserved":false,"is_disabled":false,"rental_uris":{"android":"levelo://app?vid=0e655032-cdfe-431e-a949-ffe4ebf38c49","ios":"levelo://app?vid=0e655032-cdfe-431e-a949-ffe4ebf38c49"},"vehicle_type_id":"4","last_reported":1715972755,"current_range_meters":18800,"station_id":"ce4bh0p2rcd13ifvqd70","pricing_plan_id":"cebpf4jnsgd1na2vs0mg"},{"bike_id":"095fb9fc-5230-4b4a-ae2d-b186e5857d67","system_id":"levelo_inurba_marseille","lat":43.29419,"lon":5.38618,"is_reserved":false,"is_disabled":false,"rental_uris":{"android":"levelo://app?vid=095fb9fc-5230-4b4a-ae2d-b186e5857d67","ios":"levelo://app?vid=095fb9fc-5230-4b4a-ae2d-b186e5857d67"},"vehicle_type_id":"4","last_reported":1715972755,"current_range_meters":19200,"station_id":"ce4bh2h2rcd13ifvqdh0","pricing_plan_id":"cebpf4jnsgd1na2vs0mg"},{"bike_id":"cb2be588-8c90-485b-941c-040027299a00","system_id":"levelo_inurba_marseille","lat":43.29419,"lon":5.38618,"is_reserved":false,"is_disabled":false,"rental_uris":{"android":"levelo://app?vid=cb2be588-8c90-485b-941c-040027299a00","ios":"levelo://app?vid=cb2be588-8c90-485b-941c-040027299a00"},"vehicle_type_id":"4","last_reported":1715972755,"current_range_meters":1200,"station_id":"ce4bh2h2rcd13ifvqdh0","pricing_plan_id":"cebpf4jnsgd1na2vs0mg"},{"bike_id":"d5208c69-7f35-4ed7-b992-726bb0695038","system_id":"levelo_inurba_marseille","lat":43.29419,"lon":5.38619,"is_reserved":false,"is_disabled":false,"rental_uris":{"android":"levelo://app?vid=d5208c69-7f35-4ed7-b992-726bb0695038","ios":"levelo://app?vid=d5208c69-7f35-4ed7-b992-726bb0695038"},"vehicle_type_id":"4","last_reported":1715972755,"current_range_meters":0,"station_id":"ce4bh2h2rcd13ifvqdh0","pricing_plan_id":"cebpf4jnsgd1na2vs0mg"},{"bike_id":"79c0e39e-539c-4ae1-a917-ba96e2f6186b","system_id":"levelo_inurba_marseille","lat":43.290327,"lon":5.375711,"is_reserved":false,"is_disabled":false,"rental_uris":{"android":"levelo://app?vid=79c0e39e-539c-4ae1-a917-ba96e2f6186b","ios":"levelo://app?vid=79c0e39e-539c-4ae1-a917-ba96e2f6186b"},"vehicle_type_id":"4","last_reported":1715972755,"current_range_meters":0,"station_id":"ce4bh692rcd13ifvqe90","pricing_plan_id":"cebpf4jnsgd1na2vs0mg"},{"bike_id":"9ec4757e-945d-45ca-8678-2aacff125929","system_id":"levelo_inurba_marseille","lat":43.294153,"lon":5.386305,"is_reserved":false,"is_disabled":false,"rental_uris":{"android":"levelo://app?vid=9ec4757e-945d-45ca-8678-2aacff125929","ios":"levelo://app?vid=9ec4757e-945d-45ca-8678-2aacff125929"},"vehicle_type_id":"4","last_reported":1715972755,"current_range_meters":0,"station_id":"ce4bh2h2rcd13ifvqdh0","pricing_plan_id":"cebpf4jnsgd1na2vs0mg"},{"bike_id":"ec5b21d0-8d94-40ee-9066-dcf4d4e2cb53","system_id":"levelo_inurba_marseille","lat":43.294162,"lon":5.386292,"is_reserved":false,"is_disabled":false,"rental_uris":{"android":"levelo://app?vid=ec5b21d0-8d94-40ee-9066-dcf4d4e2cb53","ios":"levelo://app?vid=ec5b21d0-8d94-40ee-9066-dcf4d4e2cb53"},"vehicle_type_id":"4","last_reported":1715972755,"current_range_meters":13600,"station_id":"ce4bh2h2rcd13ifvqdh0","pricing_plan_id":"cebpf4jnsgd1na2vs0mg"},{"bike_id":"7feaec3c-5cd7-46ba-8d84-5f8c23bc82dc","system_id":"levelo_inurba_marseille","lat":43.2942,"lon":5.38625,"is_reserved":false,"is_disabled":false,"rental_uris":{"android":"levelo://app?vid=7feaec3c-5cd7-46ba-8d84-5f8c23bc82dc","ios":"levelo://app?vid=7feaec3c-5cd7-46ba-8d84-5f8c23bc82dc"},"vehicle_type_id":"4","last_reported":1715972755,"current_range_meters":0,"station_id":"ce4bh2h2rcd13ifvqdh0","pricing_plan_id":"cebpf4jnsgd1na2vs0mg"},{"bike_id":"4d0f3bfc-0dbe-4f3a-8fba-442a08c1699f","system_id":"levelo_inurba_marseille","lat":43.29419,"lon":5.38624,"is_reserved":false,"is_disabled":false,"rental_uris":{"android":"levelo://app?vid=4d0f3bfc-0dbe-4f3a-8fba-442a08c1699f","ios":"levelo://app?vid=4d0f3bfc-0dbe-4f3a-8fba-442a08c1699f"},"vehicle_type_id":"4","last_reported":1715972755,"current_range_meters":19200,"station_id":"ce4bh2h2rcd13ifvqdh0","pricing_plan_id":"cebpf4jnsgd1na2vs0mg"},{"bike_id":"8a245a9c-a105-4aa9-be89-e127930e94e7","system_id":"levelo_inurba_marseille","lat":43.29419,"lon":5.38624,"is_reserved":false,"is_disabled":false,"rental_uris":{"android":"levelo://app?vid=8a245a9c-a105-4aa9-be89-e127930e94e7","ios":"levelo://app?vid=8a245a9c-a105-4aa9-be89-e127930e94e7"},"vehicle_type_id":"4","last_reported":1715972755,"current_range_meters":0,"station_id":"ce4bh2h2rcd13ifvqdh0","pricing_plan_id":"cebpf4jnsgd1na2vs0mg"},{"bike_id":"a5d1c3ff-1a2d-4810-bcd4-b0d25940e210","system_id":"levelo_inurba_marseille","lat":43.29417,"lon":5.38621,"is_reserved":false,"is_disabled":false,"rental_uris":{"android":"levelo://app?vid=a5d1c3ff-1a2d-4810-bcd4-b0d25940e210","ios":"levelo://app?vid=a5d1c3ff-1a2d-4810-bcd4-b0d25940e210"},"vehicle_type_id":"4","last_reported":1715972755,"current_range_meters":0,"station_id":"ce4bh2h2rcd13ifvqdh0","pricing_plan_id":"cebpf4jnsgd1na2vs0mg"},{"bike_id":"46571405-e2e6-457d-b03f-b180e3ea46c6","system_id":"levelo_inurba_marseille","lat":43.294162,"lon":5.386292,"is_reserved":false,"is_disabled":false,"rental_uris":{"android":"levelo://app?vid=46571405-e2e6-457d-b03f-b180e3ea46c6","ios":"levelo://app?vid=46571405-e2e6-457d-b03f-b180e3ea46c6"},"vehicle_type_id":"4","last_reported":1715972755,"current_range_meters":4400,"station_id":"ce4bh2h2rcd13ifvqdh0","pricing_plan_id":"cebpf4jnsgd1na2vs0mg"},{"bike_id":"4cb7ed25-557c-4bdc-bbf5-83ccc33c9196","system_id":"levelo_inurba_marseille","lat":43.29418,"lon":5.38626,"is_reserved":false,"is_disabled":false,"rental_uris":{"android":"levelo://app?vid=4cb7ed25-557c-4bdc-bbf5-83ccc33c9196","ios":"levelo://app?vid=4cb7ed25-557c-4bdc-bbf5-83ccc33c9196"},"vehicle_type_id":"4","last_reported":1715972755,"current_range_meters":0,"station_id":"ce4bh2h2rcd13ifvqdh0","pricing_plan_id":"cebpf4jnsgd1na2vs0mg"},{"bike_id":"c53741d2-81ae-4805-b018-4090ea1eac9d","system_id":"levelo_inurba_marseille","lat":43.294162,"lon":5.386292,"is_reserved":false,"is_disabled":false,"rental_uris":{"android":"levelo://app?vid=c53741d2-81ae-4805-b018-4090ea1eac9d","ios":"levelo://app?vid=c53741d2-81ae-4805-b018-4090ea1eac9d"},"vehicle_type_id":"4","last_reported":1715972755,"current_range_meters":22000,"station_id":"ce4bh2h2rcd13ifvqdh0","pricing_plan_id":"cebpf4jnsgd1na2vs0mg"},{"bike_id":"e51ab552-27e1-4933-949c-f29186e12872","system_id":"levelo_inurba_marseille","lat":43.29415,"lon":5.38621,"is_reserved":false,"is_disabled":false,"rental_uris":{"android":"levelo://app?vid=e51ab552-27e1-4933-949c-f29186e12872","ios":"levelo://app?vid=e51ab552-27e1-4933-949c-f29186e12872"},"vehicle_type_id":"4","last_reported":1715972755,"current_range_meters":16000,"station_id":"ce4bh2h2rcd13ifvqdh0","pricing_plan_id":"cebpf4jnsgd1na2vs0mg"},{"bike_id":"8ec285da-1232-4b53-885f-51d7b762d8d4","system_id":"levelo_inurba_marseille","lat":43.294162,"lon":5.386292,"is_reserved":false,"is_disabled":false,"rental_uris":{"android":"levelo://app?vid=8ec285da-1232-4b53-885f-51d7b762d8d4","ios":"levelo://app?vid=8ec285da-1232-4b53-885f-51d7b762d8d4"},