{"last_updated":1712516679,"ttl":30,"version":"2.2","data":{"bikes":[{"bike_id":"1f868fdf-7f3d-4890-aaa0-064b5da4e273","system_id":"levelo_inurba_marseille","lat":43.312323,"lon":5.368593,"is_reserved":false,"is_disabled":false,"rental_uris":{"android":"levelo://app?vid=1f868fdf-7f3d-4890-aaa0-064b5da4e273","ios":"levelo://app?vid=1f868fdf-7f3d-4890-aaa0-064b5da4e273"},"vehicle_type_id":"4","last_reported":1712516679,"current_range_meters":2400,"station_id":"ce4bgl92rcd13ifvqbq0","pricing_plan_id":"cebpf4jnsgd1na2vs0mg"},{"bike_id":"0aa2ae18-5cb9-4b55-a154-26ff60aa4399","system_id":"levelo_inurba_marseille","lat":43.309193,"lon":5.36701,"is_reserved":false,"is_disabled":false,"rental_uris":{"android":"levelo://app?vid=0aa2ae18-5cb9-4b55-a154-26ff60aa4399","ios":"levelo://app?vid=0aa2ae18-5cb9-4b55-a154-26ff60aa4399"},"vehicle_type_id":"4","last_reported":1712516679,"current_range_meters":5200,"station_id":"","pricing_plan_id":"cebpf4jnsgd1na2vs0mg"},{"bike_id":"a6b88761-c873-42d8-abe8-56e9ade7f7b0","system_id":"levelo_inurba_marseille","lat":43.3091,"lon":5.36853,"is_reserved":false,"is_disabled":false,"rental_uris":{"android":"levelo://app?vid=a6b88761-c873-42d8-abe8-56e9ade7f7b0","ios":"levelo://app?vid=a6b88761-c873-42d8-abe8-56e9ade7f7b0"},"vehicle_type_id":"4","last_reported":1712516679,"current_range_meters":2400,"station_id":"ce4bgn92rcd13ifvqbvg","pricing_plan_id":"cebpf4jnsgd1na2vs0mg"},{"bike_id":"73706916-b3f3-4ff0-b068-cec67895e8b1","system_id":"levelo_inurba_marseille","lat":43.308868,"lon":5.367494,"is_reserved":false,"is_disabled":false,"rental_uris":{"android":"levelo://app?vid=73706916-b3f3-4ff0-b068-cec67895e8b1","ios":"levelo://app?vid=73706916-b3f3-4ff0-b068-cec67895e8b1"},"vehicle_type_id":"4","last_reported":1712516679,"current_range_meters":7600,"station_id":"","pricing_plan_id":"cebpf4jnsgd1na2vs0mg"},{"bike_id":"0888dd63-bf1e-4cca-b46b-a68f8158a196","system_id":"levelo_inurba_marseille","lat":43.314811,"lon":5.373103,"is_reserved":false,"is_disabled":false,"rental_uris":{"android":"levelo://app?vid=0888dd63-bf1e-4cca-b46b-a68f8158a196","ios":"levelo://app?vid=0888dd63-bf1e-4cca-b46b-a68f8158a196"},"vehicle_type_id":"4","last_reported":1712516679,"current_range_meters":0,"station_id":"ce4bgt12rcd13ifvqcd0","pricing_plan_id":"cebpf4jnsgd1na2vs0mg"},{"bike_id":"e08faca3-b8bb-49d2-97b5-64422a5d1473","system_id":"levelo_inurba_marseille","lat":43.31492,"lon":5.37304,"is_reserved":false,"is_disabled":false,"rental_uris":{"android":"levelo://app?vid=e08faca3-b8bb-49d2-97b5-64422a5d1473","ios":"levelo://app?vid=e08faca3-b8bb-49d2-97b5-64422a5d1473"},"vehicle_type_id":"4","last_reported":1712516679,"current_range_meters":0,"station_id":"ce4bgt12rcd13ifvqcd0","pricing_plan_id":"cebpf4jnsgd1na2vs0mg"},{"bike_id":"52849eb0-9583-4430-84ce-a1d76c4fb7b3","system_id":"levelo_inurba_marseille","lat":43.314811,"lon":5.373104,"is_reserved":false,"is_disabled":false,"rental_uris":{"android":"levelo://app?vid=52849eb0-9583-4430-84ce-a1d76c4fb7b3","ios":"levelo://app?vid=52849eb0-9583-4430-84ce-a1d76c4fb7b3"},"vehicle_type_id":"4","last_reported":1712516679,"current_range_meters":27600,"station_id":"ce4bgt12rcd13ifvqcd0","pricing_plan_id":"cebpf4jnsgd1na2vs0mg"},{"bike_id":"5f36a7af-8d4c-4b57-b368-4d63d688ba30","system_id":"levelo_inurba_marseille","lat":43.309039,"lon":5.371797,"is_reserved":false,"is_disabled":false,"rental_uris":{"android":"levelo://app?vid=5f36a7af-8d4c-4b57-b368-4d63d688ba30","ios":"levelo://app?vid=5f36a7af-8d4c-4b57-b368-4d63d688ba30"},"vehicle_type_id":"4","last_reported":1712516679,"current_range_meters":0,"station_id":"ce4bguh2rcd13ifvqckg","pricing_plan_id":"cebpf4jnsgd1na2vs0mg"},{"bike_id":"6e116ad7-a3cd-421e-99f0-62e996329f03","system_id":"levelo_inurba_marseille","lat":43.309039,"lon":5.371797,"is_reserved":false,"is_disabled":false,"rental_uris":{"android":"levelo://app?vid=6e116ad7-a3cd-421e-99f0-62e996329f03","ios":"levelo://app?vid=6e116ad7-a3cd-421e-99f0-62e996329f03"},"vehicle_type_id":"4","last_reported":1712516679,"current_range_meters":800,"station_id":"ce4bguh2rcd13ifvqckg","pricing_plan_id":"cebpf4jnsgd1na2vs0mg"},{"bike_id":"c463a081-3108-46b9-96d9-cbe9750733f7","system_id":"levelo_inurba_marseille","lat":43.309039,"lon":5.371797,"is_reserved":false,"is_disabled":false,"rental_uris":{"android":"levelo://app?vid=c463a081-3108-46b9-96d9-cbe9750733f7","ios":"levelo://app?vid=c463a081-3108-46b9-96d9-cbe9750733f7"},"vehicle_type_id":"4","last_reported":1712516679,"current_range_meters":11200,"station_id":"ce4bguh2rcd13ifvqckg","pricing_plan_id":"cebpf4jnsgd1na2vs0mg"},{"bike_id":"bdedd680-859d-4c2e-ae59-cd99e5a2376a","system_id":"levelo_inurba_marseille","lat":43.309039,"lon":5.371797,"is_reserved":false,"is_disabled":false,"rental_uris":{"android":"levelo://app?vid=bdedd680-859d-4c2e-ae59-cd99e5a2376a","ios":"levelo://app?vid=bdedd680-859d-4c2e-ae59-cd99e5a2376a"},"vehicle_type_id":"4","last_reported":1712516679,"current_range_meters":0,"station_id":"ce4bguh2rcd13ifvqckg","pricing_plan_id":"cebpf4jnsgd1na2vs0mg"},{"bike_id":"82f33871-fcfd-4788-bc71-8f38c07ed021","system_id":"levelo_inurba_marseille","lat":43.309039,"lon":5.371797,"is_reserved":false,"is_disabled":false,"rental_uris":{"android":"levelo://app?vid=82f33871-fcfd-4788-bc71-8f38c07ed021","ios":"levelo://app?vid=82f33871-fcfd-4788-bc71-8f38c07ed021"},"vehicle_type_id":"4","last_reported":1712516679,"current_range_meters":0,"station_id":"ce4bguh2rcd13ifvqckg","pricing_plan_id":"cebpf4jnsgd1na2vs0mg"},{"bike_id":"ad4bd602-eddf-4978-88ee-40971ddc9b6b","system_id":"levelo_inurba_marseille","lat":43.30537,"lon":5.367345,"is_reserved":false,"is_disabled":false,"rental_uris":{"android":"levelo://app?vid=ad4bd602-eddf-4978-88ee-40971ddc9b6b","ios":"levelo://app?vid=ad4bd602-eddf-4978-88ee-40971ddc9b6b"},"vehicle_type_id":"4","last_reported":1712516679,"current_range_meters":28800,"station_id":"ce4bgrp2rcd13ifvqc9g","pricing_plan_id":"cebpf4jnsgd1na2vs0mg"},{"bike_id":"313fda54-6fb6-4c0d-8d5f-e8ef62cddb0a","system_id":"levelo_inurba_marseille","lat":43.305706,"lon":5.365654,"is_reserved":false,"is_disabled":false,"rental_uris":{"android":"levelo://app?vid=313fda54-6fb6-4c0d-8d5f-e8ef62cddb0a","ios":"levelo://app?vid=313fda54-6fb6-4c0d-8d5f-e8ef62cddb0a"},"vehicle_type_id":"4","last_reported":1712516679,"current_range_meters":7600,"station_id":"ce4bgs12rcd13ifvqcag","pricing_plan_id":"cebpf4jnsgd1na2vs0mg"},{"bike_id":"046299a7-2d94-4b22-8ce6-3f0ff58de09e","system_id":"levelo_inurba_marseille","lat":43.305714,"lon":5.365633,"is_reserved":false,"is_disabled":false,"rental_uris":{"android":"levelo://app?vid=046299a7-2d94-4b22-8ce6-3f0ff58de09e","ios":"levelo://app?vid=046299a7-2d94-4b22-8ce6-3f0ff58de09e"},"vehicle_type_id":"4","last_reported":1712516679,"current_range_meters":0,"station_id":"ce4bgs12rcd13ifvqcag","pricing_plan_id":"cebpf4jnsgd1na2vs0mg"},{"bike_id":"385c1410-1022-4002-9740-7b92b3836eb6","system_id":"levelo_inurba_marseille","lat":43.305989,"lon":5.37225,"is_reserved":false,"is_disabled":false,"rental_uris":{"android":"levelo://app?vid=385c1410-1022-4002-9740-7b92b3836eb6","ios":"levelo://app?vid=385c1410-1022-4002-9740-7b92b3836eb6"},"vehicle_type_id":"4","last_reported":1712516679,"current_range_meters":22000,"station_id":"ce4bgqh2rcd13ifvqc4g","pricing_plan_id":"cebpf4jnsgd1na2vs0mg"},{"bike_id":"dd47a4da-dd8e-4cd4-871c-c5df93fdc88d","system_id":"levelo_inurba_marseille","lat":43.305989,"lon":5.37225,"is_reserved":false,"is_disabled":false,"rental_uris":{"android":"levelo://app?vid=dd47a4da-dd8e-4cd4-871c-c5df93fdc88d","ios":"levelo://app?vid=dd47a4da-dd8e-4cd4-871c-c5df93fdc88d"},"vehicle_type_id":"4","last_reported":1712516679,"current_range_meters":24400,"station_id":"ce4bgqh2rcd13ifvqc4g","pricing_plan_id":"cebpf4jnsgd1na2vs0mg"},{"bike_id":"84a7922d-cfdd-45c9-9eb3-9ebb2761d37a","system_id":"levelo_inurba_marseille","lat":43.305989,"lon":5.37225,"is_reserved":false,"is_disabled":false,"rental_uris":{"android":"levelo://app?vid=84a7922d-cfdd-45c9-9eb3-9ebb2761d37a","ios":"levelo://app?vid=84a7922d-cfdd-45c9-9eb3-9ebb2761d37a"},"vehicle_type_id":"4","last_reported":1712516679,"current_range_meters":22400,"station_id":"ce4bgqh2rcd13ifvqc4g","pricing_plan_id":"cebpf4jnsgd1na2vs0mg"},{"bike_id":"25e2e91e-ccab-40b7-bd53-e0a51866eee0","system_id":"levelo_inurba_marseille","lat":43.305706,"lon":5.365654,"is_reserved":false,"is_disabled":false,"rental_uris":{"android":"levelo://app?vid=25e2e91e-ccab-40b7-bd53-e0a51866eee0","ios":"levelo://app?vid=25e2e91e-ccab-40b7-bd53-e0a51866eee0"},"vehicle_type_id":"4","last_reported":1712516679,"current_range_meters":23200,"station_id":"ce4bgs12rcd13ifvqcag","pricing_plan_id":"cebpf4jnsgd1na2vs0mg"},{"bike_id":"e5d964bd-10cc-4422-af98-b7ebf2bcd778","system_id":"levelo_inurba_marseille","lat":43.311264,"lon":5.377552,"is_reserved":false,"is_disabled":false,"rental_uris":{"android":"levelo://app?vid=e5d964bd-10cc-4422-af98-b7ebf2bcd778","ios":"levelo://app?vid=e5d964bd-10cc-4422-af98-b7ebf2bcd778"},"vehicle_type_id":"4","last_reported":1712516679,"current_range_meters":0,"station_id":"ce4bgt92rcd13ifvqcg0","pricing_plan_id":"cebpf4jnsgd1na2vs0mg"},{"bike_id":"4c0d6230-2c92-4451-b777-d26a1c36b471","system_id":"levelo_inurba_marseille","lat":43.31123,"lon":5.37758,"is_reserved":false,"is_disabled":false,"rental_uris":{"android":"levelo://app?vid=4c0d6230-2c92-4451-b777-d26a1c36b471","ios":"levelo://app?vid=4c0d6230-2c92-4451-b777-d26a1c36b471"},"vehicle_type_id":"4","last_reported":1712516679,"current_range_meters":0,"station_id":"ce4bgt92rcd13ifvqcg0","pricing_plan_id":"cebpf4jnsgd1na2vs0mg"},{"bike_id":"e22ef59f-8541-4a7e-9705-9b0079c72a3c","system_id":"levelo_inurba_marseille","lat":43.311125,"lon":5.377624,"is_reserved":false,"is_disabled":false,"rental_uris":{"android":"levelo://app?vid=e22ef59f-8541-4a7e-9705-9b0079c72a3c","ios":"levelo://app?vid=e22ef59f-8541-4a7e-9705-9b0079c72a3c"},"vehicle_type_id":"4","last_reported":1712516679,"current_range_meters":0,"station_id":"ce4bgt92rcd13ifvqcg0","pricing_plan_id":"cebpf4jnsgd1na2vs0mg"},{"bike_id":"2a9fab5e-a0f4-49fa-ac74-1960ee8bfbc5","system_id":"levelo_inurba_marseille","lat":43.311125,"lon":5.377624,"is_reserved":false,"is_disabled":false,"rental_uris":{"android":"levelo://app?vid=2a9fab5e-a0f4-49fa-ac74-1960ee8bfbc5","ios":"levelo://app?vid=2a9fab5e-a0f4-49fa-ac74-1960ee8bfbc5"},"vehicle_type_id":"4","last_reported":1712516679,"current_range_meters":5200,"station_id":"ce4bgt92rcd13ifvqcg0","pricing_plan_id":"cebpf4jnsgd1na2vs0mg"},{"bike_id":"8e494982-b15b-46ad-8fae-95d64d6e15e6","system_id":"levelo_inurba_marseille","lat":43.311125,"lon":5.377624,"is_reserved":false,"is_disabled":false,"rental_uris":{"android":"levelo://app?vid=8e494982-b15b-46ad-8fae-95d64d6e15e6","ios":"levelo://app?vid=8e494982-b15b-46ad-8fae-95d64d6e15e6"},"vehicle_type_id":"4","last_reported":1712516679,"current_range_meters":2400,"station_id":"ce4bgt92rcd13ifvqcg0","pricing_plan_id":"cebpf4jnsgd1na2vs0mg"},{"bike_id":"8c881821-c214-42e5-b193-c72fdea0ae79","system_id":"levelo_inurba_marseille","lat":43.317075,"lon":5.377367,"is_reserved":false,"is_disabled":false,"rental_uris":{"android":"levelo://app?vid=8c881821-c214-42e5-b193-c72fdea0ae79","ios":"levelo://app?vid=8c881821-c214-42e5-b193-c72fdea0ae79"},"vehicle_type_id":"4","last_reported":1712516679,"current_range_meters":19200,"station_id":"ce4bgth2rcd13ifvqch0","pricing_plan_id":"cebpf4jnsgd1na2vs0mg"},{"bike_id":"ea41b9a6-73b3-4e14-a5b7-9a9023de1714","system_id":"levelo_inurba_marseille","lat":43.317075,"lon":5.377367,"is_reserved":false,"is_disabled":false,"rental_uris":{"android":"levelo://app?vid=ea41b9a6-73b3-4e14-a5b7-9a9023de1714","ios":"levelo://app?vid=ea41b9a6-73b3-4e14-a5b7-9a9023de1714"},"vehicle_type_id":"4","last_reported":1712516679,"current_range_meters":21600,"station_id":"ce4bgth2rcd13ifvqch0","pricing_plan_id":"cebpf4jnsgd1na2vs0mg"},{"bike_id":"bbcc4411-d9f6-4721-ba85-134cc65899dc","system_id":"levelo_inurba_marseille","lat":43.317053,"lon":5.377683,"is_reserved":false,"is_disabled":false,"rental_uris":{"android":"levelo://app?vid=bbcc4411-d9f6-4721-ba85-134cc65899dc","ios":"levelo://app?vid=bbcc4411-d9f6-4721-ba85-134cc65899dc"},"vehicle_type_id":"4","last_reported":1712516679,"current_range_meters":0,"station_id":"ce4bgth2rcd13ifvqch0","pricing_plan_id":"cebpf4jnsgd1na2vs0mg"},{"bike_id":"50dcca5e-72f7-49c5-822b-d06318ff9e9c","system_id":"levelo_inurba_marseille","lat":43.3032,"lon":5.36914,"is_reserved":false,"is_disabled":false,"rental_uris":{"android":"levelo://app?vid=50dcca5e-72f7-49c5-822b-d06318ff9e9c","ios":"levelo://app?vid=50dcca5e-72f7-49c5-822b-d06318ff9e9c"},"vehicle_type_id":"4","last_reported":1712516679,"current_range_meters":0,"station_id":"ce4bgqh2rcd13ifvqc5g","pricing_plan_id":"cebpf4jnsgd1na2vs0mg"},{"bike_id":"b7a37c5c-bac8-4620-b491-fcac34deb6b3","system_id":"levelo_inurba_marseille","lat":43.303175,"lon":5.369035,"is_reserved":false,"is_disabled":false,"rental_uris":{"android":"levelo://app?vid=b7a37c5c-bac8-4620-b491-fcac34deb6b3","ios":"levelo://app?vid=b7a37c5c-bac8-4620-b491-fcac34deb6b3"},"vehicle_type_id":"4","last_reported":1712516679,"current_range_meters":0,"station_id":"ce4bgqh2rcd13ifvqc5g","pricing_plan_id":"cebpf4jnsgd1na2vs0mg"},{"bike_id":"d0d25862-6cc7-4ffd-9f0a-4ff2f518cd02","system_id":"levelo_inurba_marseille","lat":43.303046,"lon":5.368981,"is_reserved":false,"is_disabled":false,"rental_uris":{"android":"levelo://app?vid=d0d25862-6cc7-4ffd-9f0a-4ff2f518cd02","ios":"levelo://app?vid=d0d25862-6cc7-4ffd-9f0a-4ff2f518cd02"},"vehicle_type_id":"4","last_reported":1712516679,"current_range_meters":0,"station_id":"ce4bgqh2rcd13ifvqc5g","pricing_plan_id":"cebpf4jnsgd1na2vs0mg"},{"bike_id":"2408441f-4382-4b97-a787-89723f627088","system_id":"levelo_inurba_marseille","lat":43.301834,"lon":5.366096,"is_reserved":false,"is_disabled":false,"rental_uris":{"android":"levelo://app?vid=2408441f-4382-4b97-a787-89723f627088","ios":"levelo://app?vid=2408441f-4382-4b97-a787-89723f627088"},"vehicle_type_id":"4","last_reported":1712516679,"current_range_meters":0,"station_id":"ce4bgrh2rcd13ifvqc8g","pricing_plan_id":"cebpf4jnsgd1na2vs0mg"},{"bike_id":"821b44e7-a5cf-4b46-bad8-d1222b1f1de8","system_id":"levelo_inurba_marseille","lat":43.30255,"lon":5.37345,"is_reserved":false,"is_disabled":false,"rental_uris":{"android":"levelo://app?vid=821b44e7-a5cf-4b46-bad8-d1222b1f1de8","ios":"levelo://app?vid=821b44e7-a5cf-4b46-bad8-d1222b1f1de8"},"vehicle_type_id":"4","last_reported":1712516679,"current_range_meters":9600,"station_id":"","pricing_plan_id":"cebpf4jnsgd1na2vs0mg"},{"bike_id":"665a9561-06bd-4fa6-b661-58f91351a430","system_id":"levelo_inurba_marseille","lat":43.308012,"lon":5.381511,"is_reserved":false,"is_disabled":false,"rental_uris":{"android":"levelo://app?vid=665a9561-06bd-4fa6-b661-58f91351a430","ios":"levelo://app?vid=665a9561-06bd-4fa6-b661-58f91351a430"},"vehicle_type_id":"4","last_reported":1712516679,"current_range_meters":0,"station_id":"ce4bgt12rcd13ifvqce0","pricing_plan_id":"cebpf4jnsgd1na2vs0mg"},{"bike_id":"25bf9672-b81a-4910-acfb-96183f121f72","system_id":"levelo_inurba_marseille","lat":43.308012,"lon":5.381511,"is_reserved":false,"is_disabled":false,"rental_uris":{"android":"levelo://app?vid=25bf9672-b81a-4910-acfb-96183f121f72","ios":"levelo://app?vid=25bf9672-b81a-4910-acfb-96183f121f72"},"vehicle_type_id":"4","last_reported":1712516679,"current_range_meters":2000,"station_id":"ce4bgt12rcd13ifvqce0","pricing_plan_id":"cebpf4jnsgd1na2vs0mg"},{"bike_id":"91f4691a-0869-407c-8651-2b193f2f1a5c","system_id":"levelo_inurba_marseille","lat":43.308012,"lon":5.381511,"is_reserved":false,"is_disabled":false,"rental_uris":{"android":"levelo://app?vid=91f4691a-0869-407c-8651-2b193f2f1a5c","ios":"levelo://app?vid=91f4691a-0869-407c-8651-2b193f2f1a5c"},"vehicle_type_id":"4","last_reported":1712516679,"current_range_meters":0,"station_id":"ce4bgt12rcd13ifvqce0","pricing_plan_id":"cebpf4jnsgd1na2vs0mg"},{"bike_id":"b069190e-6e57-4547-acd4-563fcc335377","system_id":"levelo_inurba_marseille","lat":43.31292,"lon":5.3831,"is_reserved":false,"is_disabled":false,"rental_uris":{"android":"levelo://app?vid=b069190e-6e57-4547-acd4-563fcc335377","ios":"levelo://app?vid=b069190e-6e57-4547-acd4-563fcc335377"},"vehicle_type_id":"4","last_reported":1712516679,"current_range_meters":0,"station_id":"","pricing_plan_id":"cebpf4jnsgd1na2vs0mg"},{"bike_id":"cc2d517d-a851-48ca-82f6-b566ab813a07","system_id":"levelo_inurba_marseille","lat":43.302103,"lon":5.373867,"is_reserved":false,"is_disabled":false,"rental_uris":{"android":"levelo://app?vid=cc2d517d-a851-48ca-82f6-b566ab813a07","ios":"levelo://app?vid=cc2d517d-a851-48ca-82f6-b566ab813a07"},"vehicle_type_id":"4","last_reported":1712516679,"current_range_meters":14000,"station_id":"","pricing_plan_id":"cebpf4jnsgd1na2vs0mg"},{"bike_id":"bfbf2eec-2571-4bb5-ae46-776b32419774","system_id":"levelo_inurba_marseille","lat":43.304744,"lon":5.37896,"is_reserved":false,"is_disabled":false,"rental_uris":{"android":"levelo://app?vid=bfbf2eec-2571-4bb5-ae46-776b32419774","ios":"levelo://app?vid=bfbf2eec-2571-4bb5-ae46-776b32419774"},"vehicle_type_id":"4","last_reported":1712516679,"current_range_meters":0,"station_id":"ce4bgup2rcd13ifvqcn0","pricing_plan_id":"cebpf4jnsgd1na2vs0mg"},{"bike_id":"1cb62423-2bff-4149-817e-f2cd72c0c6da","system_id":"levelo_inurba_marseille","lat":43.309034,"lon":5.371783,"is_reserved":false,"is_disabled":false,"rental_uris":{"android":"levelo://app?vid=1cb62423-2bff-4149-817e-f2cd72c0c6da","ios":"levelo://app?vid=1cb62423-2bff-4149-817e-f2cd72c0c6da"},"vehicle_type_id":"4","last_reported":1712516679,"current_range_meters":6000,"station_id":"ce4bguh2rcd13ifvqckg","pricing_plan_id":"cebpf4jnsgd1na2vs0mg"},{"bike_id":"60c10bf1-ac0f-4dd5-a8e3-f6ac2835c879","system_id":"levelo_inurba_marseille","lat":43.324771,"lon":5.36557,"is_reserved":false,"is_disabled":false,"rental_uris":{"android":"levelo://app?vid=60c10bf1-ac0f-4dd5-a8e3-f6ac2835c879","ios":"levelo://app?vid=60c10bf1-ac0f-4dd5-a8e3-f6ac2835c879"},"vehicle_type_id":"4","last_reported":1712516679,"current_range_meters":15600,"station_id":"ce4bhs12rcd13ifvqhvg","pricing_plan_id":"cebpf4jnsgd1na2vs0mg"},{"bike_id":"e6035d71-8503-434d-bb90-f3a421a327d6","system_id":"levelo_inurba_marseille","lat":43.324818,"lon":5.365713,"is_reserved":false,"is_disabled":false,"rental_uris":{"android":"levelo://app?vid=e6035d71-8503-434d-bb90-f3a421a327d6","ios":"levelo://app?vid=e6035d71-8503-434d-bb90-f3a421a327d6"},"vehicle_type_id":"4","last_reported":1712516679,"current_range_meters":0,"station_id":"ce4bhs12rcd13ifvqhvg","pricing_plan_id":"cebpf4jnsgd1na2vs0mg"},{"bike_id":"0c2b4f7e-0dbc-4a82-91e5-8f5d771c8825","system_id":"levelo_inurba_marseille","lat":43.324771,"lon":5.36557,"is_reserved":false,"is_disabled":false,"rental_uris":{"android":"levelo://app?vid=0c2b4f7e-0dbc-4a82-91e5-8f5d771c8825","ios":"levelo://app?vid=0c2b4f7e-0dbc-4a82-91e5-8f5d771c8825"},"vehicle_type_id":"4","last_reported":1712516679,"current_range_meters":0,"station_id":"ce4bhs12rcd13ifvqhvg","pricing_plan_id":"cebpf4jnsgd1na2vs0mg"},{"bike_id":"f5fba540-822c-4e37-9105-11b00e48fef6","system_id":"levelo_inurba_marseille","lat":43.324771,"lon":5.36557,"is_reserved":false,"is_disabled":false,"rental_uris":{"android":"levelo://app?vid=f5fba540-822c-4e37-9105-11b00e48fef6","ios":"levelo://app?vid=f5fba540-822c-4e37-9105-11b00e48fef6"},"vehicle_type_id":"4","last_reported":1712516679,"current_range_meters":3600,"station_id":"ce4bhs12rcd13ifvqhvg","pricing_plan_id":"cebpf4jnsgd1na2vs0mg"},{"bike_id":"a11b2f00-3d6f-436e-90f7-3ee3fc6b61dd","system_id":"levelo_inurba_marseille","lat":43.324771,"lon":5.36557,"is_reserved":false,"is_disabled":false,"rental_uris":{"android":"levelo://app?vid=a11b2f00-3d6f-436e-90f7-3ee3fc6b61dd","ios":"levelo://app?vid=a11b2f00-3d6f-436e-90f7-3ee3fc6b61dd"},"vehicle_type_id":"4","last_reported":1712516679,"current_range_meters":800,"station_id":"ce4bhs12rcd13ifvqhvg","pricing_plan_id":"cebpf4jnsgd1na2vs0mg"},{"bike_id":"37d70073-b292-47d1-901e-c6496207850a","system_id":"levelo_inurba_marseille","lat":43.324771,"lon":5.36557,"is_reserved":false,"is_disabled":false,"rental_uris":{"android":"levelo://app?vid=37d70073-b292-47d1-901e-c6496207850a","ios":"levelo://app?vid=37d70073-b292-47d1-901e-c6496207850a"},"vehicle_type_id":"4","last_reported":1712516679,"current_range_meters":8400,"station_id":"ce4bhs12rcd13ifvqhvg","pricing_plan_id":"cebpf4jnsgd1na2vs0mg"},{"bike_id":"6724a062-823a-4278-8e14-1714aada2097","system_id":"levelo_inurba_marseille","lat":43.310804,"lon":5.38359,"is_reserved":false,"is_disabled":false,"rental_uris":{"android":"levelo://app?vid=6724a062-823a-4278-8e14-1714aada2097","ios":"levelo://app?vid=6724a062-823a-4278-8e14-1714aada2097"},"vehicle_type_id":"4","last_reported":1712516679,"current_range_meters":0,"station_id":"ce4bgv92rcd13ifvqcr0","pricing_plan_id":"cebpf4jnsgd1na2vs0mg"},{"bike_id":"38499a05-c910-44e0-9de0-b582d3dbf911","system_id":"levelo_inurba_marseille","lat":43.31065,"lon":5.38352,"is_reserved":false,"is_disabled":false,"rental_uris":{"android":"levelo://app?vid=38499a05-c910-44e0-9de0-b582d3dbf911","ios":"levelo://app?vid=38499a05-c910-44e0-9de0-b582d3dbf911"},"vehicle_type_id":"4","last_reported":1712516679,"current_range_meters":0,"station_id":"ce4bgv92rcd13ifvqcr0","pricing_plan_id":"cebpf4jnsgd1na2vs0mg"},{"bike_id":"f8875f3e-132f-498d-87f4-4321a842dd03","system_id":"levelo_inurba_marseille","lat":43.31072,"lon":5.38354,"is_reserved":false,"is_disabled":false,"rental_uris":{"android":"levelo://app?vid=f8875f3e-132f-498d-87f4-4321a842dd03","ios":"levelo://app?vid=f8875f3e-132f-498d-87f4-4321a842dd03"},"vehicle_type_id":"4","last_reported":1712516679,"current_range_meters":0,"station_id":"ce4bgv92rcd13ifvqcr0","pricing_plan_id":"cebpf4jnsgd1na2vs0mg"},{"bike_id":"ee67c782-ada8-4f1b-9e43-959ad4e0103a","system_id":"levelo_inurba_marseille","lat":43.30143,"lon":5.37413,"is_reserved":false,"is_disabled":false,"rental_uris":{"android":"levelo://app?vid=ee67c782-ada8-4f1b-9e43-959ad4e0103a","ios":"levelo://app?vid=ee67c782-ada8-4f1b-9e43-959ad4e0103a"},"vehicle_type_id":"4","last_reported":1712516679,"current_range_meters":0,"station_id":"ce4bgs92rcd13ifvqcc0","pricing_plan_id":"cebpf4jnsgd1na2vs0mg"},{"bike_id":"f8d4f705-e861-48f5-919c-5b41b1c847c5","system_id":"levelo_inurba_marseille","lat":43.301429,"lon":5.37413,"is_reserved":false,"is_disabled":false,"rental_uris":{"android":"levelo://app?vid=f8d4f705-e861-48f5-919c-5b41b1c847c5","ios":"levelo://app?vid=f8d4f705-e861-48f5-919c-5b41b1c847c5"},"vehicle_type_id":"4","last_reported":1712516679,"current_range_meters":24000,"station_id":"ce4bgs92rcd13ifvqcc0","pricing_plan_id":"cebpf4jnsgd1na2vs0mg"},{"bike_id":"3b854f61-e1b3-4c07-a3fa-cdd8b6a9c958","system_id":"levelo_inurba_marseille","lat":43.297163,"lon":5.365866,"is_reserved":false,"is_disabled":false,"rental_uris":{"android":"levelo://app?vid=3b854f61-e1b3-4c07-a3fa-cdd8b6a9c958","ios":"levelo://app?vid=3b854f61-e1b3-4c07-a3fa-cdd8b6a9c958"},"vehicle_type_id":"4","last_reported":1712516679,"current_range_meters":400,"station_id":"ce4bgn12rcd13ifvqbt0","pricing_plan_id":"cebpf4jnsgd1na2vs0mg"},{"bike_id":"ab398b48-a62f-4c33-b396-08ffd1b4f749","system_id":"levelo_inurba_marseille","lat":43.30141,"lon":5.374243,"is_reserved":false,"is_disabled":false,"rental_uris":{"android":"levelo://app?vid=ab398b48-a62f-4c33-b396-08ffd1b4f749","ios":"levelo://app?vid=ab398b48-a62f-4c33-b396-08ffd1b4f749"},"vehicle_type_id":"4","last_reported":1712516679,"current_range_meters":0,"station_id":"ce4bgs92rcd13ifvqcc0","pricing_plan_id":"cebpf4jnsgd1na2vs0mg"},{"bike_id":"27bbc166-f85b-422a-b700-a87744074fc8","system_id":"levelo_inurba_marseille","lat":43.302784,"lon":5.377158,"is_reserved":false,"is_disabled":false,"rental_uris":{"android":"levelo://app?vid=27bbc166-f85b-422a-b700-a87744074fc8","ios":"levelo://app?vid=27bbc166-f85b-422a-b700-a87744074fc8"},"vehicle_type_id":"4","last_reported":1712516679,"current_range_meters":0,"station_id":"ce4bguh2rcd13ifvqcj0","pricing_plan_id":"cebpf4jnsgd1na2vs0mg"},{"bike_id":"cc05e1c2-7bae-4dfd-8b44-e3ce7587087f","system_id":"levelo_inurba_marseille","lat":43.30143,"lon":5.37413,"is_reserved":false,"is_disabled":false,"rental_uris":{"android":"levelo://app?vid=cc05e1c2-7bae-4dfd-8b44-e3ce7587087f","ios":"levelo://app?vid=cc05e1c2-7bae-4dfd-8b44-e3ce7587087f"},"vehicle_type_id":"4","last_reported":1712516679,"current_range_meters":0,"station_id":"ce4bgs92rcd13ifvqcc0","pricing_plan_id":"cebpf4jnsgd1na2vs0mg"},{"bike_id":"35a5c2ea-328b-430b-b407-ca4b2ee19826","system_id":"levelo_inurba_marseille","lat":43.319935,"lon":5.381699,"is_reserved":false,"is_disabled":false,"rental_uris":{"android":"levelo://app?vid=35a5c2ea-328b-430b-b407-ca4b2ee19826","ios":"levelo://app?vid=35a5c2ea-328b-430b-b407-ca4b2ee19826"},"vehicle_type_id":"4","last_reported":1712516679,"current_range_meters":9600,"station_id":"ce4bhr12rcd13ifvqhpg","pricing_plan_id":"cebpf4jnsgd1na2vs0mg"},{"bike_id":"768ea69d-aa8e-434c-a980-dad582cc61ae","system_id":"levelo_inurba_marseille","lat":43.313571,"lon":5.384829,"is_reserved":false,"is_disabled":false,"rental_uris":{"android":"levelo://app?vid=768ea69d-aa8e-434c-a980-dad582cc61ae","ios":"levelo://app?vid=768ea69d-aa8e-434c-a980-dad582cc61ae"},"vehicle_type_id":"4","last_reported":1712516679,"current_range_meters":11600,"station_id":"ce4bgt92rcd13ifvqcf0","pricing_plan_id":"cebpf4jnsgd1na2vs0mg"},{"bike_id":"327b0580-2864-4800-be6f-0286a199389e","system_id":"levelo_inurba_marseille","lat":43.313571,"lon":5.384829,"is_reserved":false,"is_disabled":false,"rental_uris":{"android":"levelo://app?vid=327b0580-2864-4800-be6f-0286a199389e","ios":"levelo://app?vid=327b0580-2864-4800-be6f-0286a199389e"},"vehicle_type_id":"4","last_reported":1712516679,"current_range_meters":6800,"station_id":"ce4bgt92rcd13ifvqcf0","pricing_plan_id":"cebpf4jnsgd1na2vs0mg"},{"bike_id":"f6773567-4b48-4423-ac82-035900153b28","system_id":"levelo_inurba_marseille","lat":43.313571,"lon":5.384829,"is_reserved":false,"is_disabled":false,"rental_uris":{"android":"levelo://app?vid=f6773567-4b48-4423-ac82-035900153b28","ios":"levelo://app?vid=f6773567-4b48-4423-ac82-035900153b28"},"vehicle_type_id":"4","last_reported":1712516679,"current_range_meters":17600,"station_id":"ce4bgt92rcd13ifvqcf0","pricing_plan_id":"cebpf4jnsgd1na2vs0mg"},{"bike_id":"38ed98a5-ecb4-4ab1-8264-584b6b3b72e5","system_id":"levelo_inurba_marseille","lat":43.313571,"lon":5.384829,"is_reserved":false,"is_disabled":false,"rental_uris":{"android":"levelo://app?vid=38ed98a5-ecb4-4ab1-8264-584b6b3b72e5","ios":"levelo://app?vid=38ed98a5-ecb4-4ab1-8264-584b6b3b72e5"},"vehicle_type_id":"4","last_reported":1712516679,"current_range_meters":24400,"station_id":"ce4bgt92rcd13ifvqcf0","pricing_plan_id":"cebpf4jnsgd1na2vs0mg"},{"bike_id":"9566745a-a76b-4c62-9217-20e6dcde3502","system_id":"levelo_inurba_marseille","lat":43.313571,"lon":5.384829,"is_reserved":false,"is_disabled":false,"rental_uris":{"android":"levelo://app?vid=9566745a-a76b-4c62-9217-20e6dcde3502","ios":"levelo://app?vid=9566745a-a76b-4c62-9217-20e6dcde3502"},"vehicle_type_id":"4","last_reported":1712516679,"current_range_meters":10000,"station_id":"ce4bgt92rcd13ifvqcf0","pricing_plan_id":"cebpf4jnsgd1na2vs0mg"},{"bike_id":"684819b9-1949-4566-b74e-676757316418","system_id":"levelo_inurba_marseille","lat":43.313571,"lon":5.384829,"is_reserved":false,"is_disabled":false,"rental_uris":{"android":"levelo://app?vid=684819b9-1949-4566-b74e-676757316418","ios":"levelo://app?vid=684819b9-1949-4566-b74e-676757316418"},"vehicle_type_id":"4","last_reported":1712516679,"current_range_meters":0,"station_id":"ce4bgt92rcd13ifvqcf0","pricing_plan_id":"cebpf4jnsgd1na2vs0mg"},{"bike_id":"051e3cd2-aeb9-44f1-bdeb-7bce6fba45ab","system_id":"levelo_inurba_marseille","lat":43.313571,"lon":5.384829,"is_reserved":false,"is_disabled":false,"rental_uris":{"android":"levelo://app?vid=051e3cd2-aeb9-44f1-bdeb-7bce6fba45ab","ios":"levelo://app?vid=051e3cd2-aeb9-44f1-bdeb-7bce6fba45ab"},"vehicle_type_id":"4","last_reported":1712516679,"current_range_meters":3600,"station_id":"ce4bgt92rcd13ifvqcf0","pricing_plan_id":"cebpf4jnsgd1na2vs0mg"},{"bike_id":"78152ee2-5fe2-4003-ae4a-e83f0eb48ecf","system_id":"levelo_inurba_marseille","lat":43.299724,"lon":5.371829,"is_reserved":false,"is_disabled":false,"rental_uris":{"android":"levelo://app?vid=78152ee2-5fe2-4003-ae4a-e83f0eb48ecf","ios":"levelo://app?vid=78152ee2-5fe2-4003-ae4a-e83f0eb48ecf"},"vehicle_type_id":"4","last_reported":1712516679,"current_range_meters":0,"station_id":"ce4bgr92rcd13ifvqc7g","pricing_plan_id":"cebpf4jnsgd1na2vs0mg"},{"bike_id":"81f615d5-2eb2-4c7b-b4e2-dc6b4c26d879","system_id":"levelo_inurba_marseille","lat":43.295748,"lon":5.37522,"is_reserved":false,"is_disabled":false,"rental_uris":{"android":"levelo://app?vid=81f615d5-2eb2-4c7b-b4e2-dc6b4c26d879","ios":"levelo://app?vid=81f615d5-2eb2-4c7b-b4e2-dc6b4c26d879"},"vehicle_type_id":"4","last_reported":1712516679,"current_range_meters":24400,"station_id":"ce4bgh92rcd13ifvqb50","pricing_plan_id":"cebpf4jnsgd1na2vs0mg"},{"bike_id":"564b7b5a-bdb9-4992-97b0-eb2d955daff5","system_id":"levelo_inurba_marseille","lat":43.295713,"lon":5.399639,"is_reserved":false,"is_disabled":false,"rental_uris":{"android":"levelo://app?vid=564b7b5a-bdb9-4992-97b0-eb2d955daff5","ios":"levelo://app?vid=564b7b5a-bdb9-4992-97b0-eb2d955daff5"},"vehicle_type_id":"4","last_reported":1712516679,"current_range_meters":3200,"station_id":"ce4bh312rcd13ifvqdj0","pricing_plan_id":"cebpf4jnsgd1na2vs0mg"},{"bike_id":"19785659-b20c-41f3-a22d-3d2a7ecb94e0","system_id":"levelo_inurba_marseille","lat":43.298433,"lon":5.362774,"is_reserved":false,"is_disabled":false,"rental_uris":{"android":"levelo://app?vid=19785659-b20c-41f3-a22d-3d2a7ecb94e0","ios":"levelo://app?vid=19785659-b20c-41f3-a22d-3d2a7ecb94e0"},"vehicle_type_id":"4","last_reported":1712516679,"current_range_meters":7200,"station_id":"ce4bgpp2rcd13ifvqc3g","pricing_plan_id":"cebpf4jnsgd1na2vs0mg"},{"bike_id":"d00c685f-a56c-4d5c-9741-f0f851870b4e","system_id":"levelo_inurba_marseille","lat":43.31172,"lon":5.38707,"is_reserved":false,"is_disabled":false,"rental_uris":{"android":"levelo://app?vid=d00c685f-a56c-4d5c-9741-f0f851870b4e","ios":"levelo://app?vid=d00c685f-a56c-4d5c-9741-f0f851870b4e"},"vehicle_type_id":"4","last_reported":1712516679,"current_range_meters":13600,"station_id":"ce4bgv12rcd13ifvqcp0","pricing_plan_id":"cebpf4jnsgd1na2vs0mg"},{"bike_id":"e04c9af3-cfaa-4068-9f05-139232d84bd2","system_id":"levelo_inurba_marseille","lat":43.31172,"lon":5.38708,"is_reserved":false,"is_disabled":false,"rental_uris":{"android":"levelo://app?vid=e04c9af3-cfaa-4068-9f05-139232d84bd2","ios":"levelo://app?vid=e04c9af3-cfaa-4068-9f05-139232d84bd2"},"vehicle_type_id":"4","last_reported":1712516679,"current_range_meters":10400,"station_id":"ce4bgv12rcd13ifvqcp0","pricing_plan_id":"cebpf4jnsgd1na2vs0mg"},{"bike_id":"afdaf816-eefc-4e89-8983-5be671162c81","system_id":"levelo_inurba_marseille","lat":43.31168,"lon":5.38709,"is_reserved":false,"is_disabled":false,"rental_uris":{"android":"levelo://app?vid=afdaf816-eefc-4e89-8983-5be671162c81","ios":"levelo://app?vid=afdaf816-eefc-4e89-8983-5be671162c81"},"vehicle_type_id":"4","last_reported":1712516679,"current_range_meters":14800,"station_id":"ce4bgv12rcd13ifvqcp0","pricing_plan_id":"cebpf4jnsgd1na2vs0mg"},{"bike_id":"727b1938-3459-461d-8fa0-54a8a3dca81a","system_id":"levelo_inurba_marseille","lat":43.305364,"lon":5.384119,"is_reserved":false,"is_disabled":false,"rental_uris":{"android":"levelo://app?vid=727b1938-3459-461d-8fa0-54a8a3dca81a","ios":"levelo://app?vid=727b1938-3459-461d-8fa0-54a8a3dca81a"},"vehicle_type_id":"4","last_reported":1712516679,"current_range_meters":13200,"station_id":"ce4bgg92rcd13ifvqb30","pricing_plan_id":"cebpf4jnsgd1na2vs0mg"},{"bike_id":"f2668890-df87-4c11-8f9d-21277918a9ba","system_id":"levelo_inurba_marseille","lat":43.311722,"lon":5.387247,"is_reserved":false,"is_disabled":false,"rental_uris":{"android":"levelo://app?vid=f2668890-df87-4c11-8f9d-21277918a9ba","ios":"levelo://app?vid=f2668890-df87-4c11-8f9d-21277918a9ba"},"vehicle_type_id":"4","last_reported":1712516679,"current_range_meters":22800,"station_id":"ce4bgv12rcd13ifvqcp0","pricing_plan_id":"cebpf4jnsgd1na2vs0mg"},{"bike_id":"601ce7e7-54e1-48c0-86d5-e72d3158c39f","system_id":"levelo_inurba_marseille","lat":43.299243,"lon":5.374807,"is_reserved":false,"is_disabled":false,"rental_uris":{"android":"levelo://app?vid=601ce7e7-54e1-48c0-86d5-e72d3158c39f","ios":"levelo://app?vid=601ce7e7-54e1-48c0-86d5-e72d3158c39f"},"vehicle_type_id":"4","last_reported":1712516679,"current_range_meters":7200,"station_id":"ce4bgjh2rcd13ifvqbg0","pricing_plan_id":"cebpf4jnsgd1na2vs0mg"},{"bike_id":"14c7f396-6925-4ad3-9bce-918e4e7225b1","system_id":"levelo_inurba_marseille","lat":43.31167,"lon":5.38715,"is_reserved":false,"is_disabled":false,"rental_uris":{"android":"levelo://app?vid=14c7f396-6925-4ad3-9bce-918e4e7225b1","ios":"levelo://app?vid=14c7f396-6925-4ad3-9bce-918e4e7225b1"},"vehicle_type_id":"4","last_reported":1712516679,"current_range_meters":5600,"station_id":"ce4bgv12rcd13ifvqcp0","pricing_plan_id":"cebpf4jnsgd1na2vs0mg"},{"bike_id":"48ab76da-f4ac-4b0b-b481-c1a08aa4019c","system_id":"levelo_inurba_marseille","lat":43.311722,"lon":5.387247,"is_reserved":false,"is_disabled":false,"rental_uris":{"android":"levelo://app?vid=48ab76da-f4ac-4b0b-b481-c1a08aa4019c","ios":"levelo://app?vid=48ab76da-f4ac-4b0b-b481-c1a08aa4019c"},"vehicle_type_id":"4","last_reported":1712516679,"current_range_meters":2400,"station_id":"ce4bgv12rcd13ifvqcp0","pricing_plan_id":"cebpf4jnsgd1na2vs0mg"},{"bike_id":"e8ae4e26-b75a-4125-bbeb-d1107b165572","system_id":"levelo_inurba_marseille","lat":43.31166,"lon":5.38722,"is_reserved":false,"is_disabled":false,"rental_uris":{"android":"levelo://app?vid=e8ae4e26-b75a-4125-bbeb-d1107b165572","ios":"levelo://app?vid=e8ae4e26-b75a-4125-bbeb-d1107b165572"},"vehicle_type_id":"4","last_reported":1712516679,"current_range_meters":0,"station_id":"ce4bgv12rcd13ifvqcp0","pricing_plan_id":"cebpf4jnsgd1na2vs0mg"},{"bike_id":"99b4d3fa-8b1c-4707-bb1c-c93643a94b11","system_id":"levelo_inurba_marseille","lat":43.322872,"lon":5.382756,"is_reserved":false,"is_disabled":false,"rental_uris":{"android":"levelo://app?vid=99b4d3fa-8b1c-4707-bb1c-c93643a94b11","ios":"levelo://app?vid=99b4d3fa-8b1c-4707-bb1c-c93643a94b11"},"vehicle_type_id":"4","last_reported":1712516679,"current_range_meters":24400,"station_id":"ce4bhr12rcd13ifvqhqg","pricing_plan_id":"cebpf4jnsgd1na2vs0mg"},{"bike_id":"ae750d82-bbb8-4907-ba64-6aad5c8a1037","system_id":"levelo_inurba_marseille","lat":43.297774,"lon":5.370875,"is_reserved":false,"is_disabled":false,"rental_uris":{"android":"levelo://app?vid=ae750d82-bbb8-4907-ba64-6aad5c8a1037","ios":"levelo://app?vid=ae750d82-bbb8-4907-ba64-6aad5c8a1037"},"vehicle_type_id":"4","last_reported":1712516679,"current_range_meters":6000,"station_id":"ce4bgop2rcd13ifvqc1g","pricing_plan_id":"cebpf4jnsgd1na2vs0mg"},{"bike_id":"13077c94-9e41-45f4-99bc-afb735a6ca96","system_id":"levelo_inurba_marseille","lat":43.322872,"lon":5.382756,"is_reserved":false,"is_disabled":false,"rental_uris":{"android":"levelo://app?vid=13077c94-9e41-45f4-99bc-afb735a6ca96","ios":"levelo://app?vid=13077c94-9e41-45f4-99bc-afb735a6ca96"},"vehicle_type_id":"4","last_reported":1712516679,"current_range_meters":3200,"station_id":"ce4bhr12rcd13ifvqhqg","pricing_plan_id":"cebpf4jnsgd1na2vs0mg"},{"bike_id":"dd154231-9506-43f1-b46e-352e6007e6af","system_id":"levelo_inurba_marseille","lat":43.322872,"lon":5.382756,"is_reserved":false,"is_disabled":false,"rental_uris":{"android":"levelo://app?vid=dd154231-9506-43f1-b46e-352e6007e6af","ios":"levelo://app?vid=dd154231-9506-43f1-b46e-352e6007e6af"},"vehicle_type_id":"4","last_reported":1712516679,"current_range_meters":2400,"station_id":"ce4bhr12rcd13ifvqhqg","pricing_plan_id":"cebpf4jnsgd1na2vs0mg"},{"bike_id":"1552b0b7-a7a8-4931-99ba-4e43a605526c","system_id":"levelo_inurba_marseille","lat":43.322872,"lon":5.382756,"is_reserved":false,"is_disabled":false,"rental_uris":{"android":"levelo://app?vid=1552b0b7-a7a8-4931-99ba-4e43a605526c","ios":"levelo://app?vid=1552b0b7-a7a8-4931-99ba-4e43a605526c"},"vehicle_type_id":"4","last_reported":1712516679,"current_range_meters":8000,"station_id":"ce4bhr12rcd13ifvqhqg","pricing_plan_id":"cebpf4jnsgd1na2vs0mg"},{"bike_id":"79a09dc1-a136-4553-b035-ca9b20a658e5","system_id":"levelo_inurba_marseille","lat":43.30181,"lon":5.3818,"is_reserved":false,"is_disabled":false,"rental_uris":{"android":"levelo://app?vid=79a09dc1-a136-4553-b035-ca9b20a658e5","ios":"levelo://app?vid=79a09dc1-a136-4553-b035-ca9b20a658e5"},"vehicle_type_id":"4","last_reported":1712516679,"current_range_meters":4000,"station_id":"","pricing_plan_id":"cebpf4jnsgd1na2vs0mg"},{"bike_id":"72f404e6-43d4-42a0-bbbd-431e04a86845","system_id":"levelo_inurba_marseille","lat":43.322872,"lon":5.382756,"is_reserved":false,"is_disabled":false,"rental_uris":{"android":"levelo://app?vid=72f404e6-43d4-42a0-bbbd-431e04a86845","ios":"levelo://app?vid=72f404e6-43d4-42a0-bbbd-431e04a86845"},"vehicle_type_id":"4","last_reported":1712516679,"current_range_meters":25600,"station_id":"ce4bhr12rcd13ifvqhqg","pricing_plan_id":"cebpf4jnsgd1na2vs0mg"},{"bike_id":"c66d0271-dbb2-4fe4-88a2-443647899bb8","system_id":"levelo_inurba_marseille","lat":43.29714,"lon":5.366107,"is_reserved":false,"is_disabled":false,"rental_uris":{"android":"levelo://app?vid=c66d0271-dbb2-4fe4-88a2-443647899bb8","ios":"levelo://app?vid=c66d0271-dbb2-4fe4-88a2-443647899bb8"},"vehicle_type_id":"4","last_reported":1712516679,"current_range_meters":0,"station_id":"ce4bgn12rcd13ifvqbt0","pricing_plan_id":"cebpf4jnsgd1na2vs0mg"},{"bike_id":"f4dca71d-87f0-45be-ad15-1ef103e398c2","system_id":"levelo_inurba_marseille","lat":43.31255,"lon":5.38934,"is_reserved":false,"is_disabled":false,"rental_uris":{"android":"levelo://app?vid=f4dca71d-87f0-45be-ad15-1ef103e398c2","ios":"levelo://app?vid=f4dca71d-87f0-45be-ad15-1ef103e398c2"},"vehicle_type_id":"4","last_reported":1712516679,"current_range_meters":22400,"station_id":"","pricing_plan_id":"cebpf4jnsgd1na2vs0mg"},{"bike_id":"23c71cc4-28ee-450b-82f5-5944b9f37595","system_id":"levelo_inurba_marseille","lat":43.31604,"lon":5.38898,"is_reserved":false,"is_disabled":false,"rental_uris":{"android":"levelo://app?vid=23c71cc4-28ee-450b-82f5-5944b9f37595","ios":"levelo://app?vid=23c71cc4-28ee-450b-82f5-5944b9f37595"},"vehicle_type_id":"4","last_reported":1712516679,"current_range_meters":400,"station_id":"","pricing_plan_id":"cebpf4jnsgd1na2vs0mg"},{"bike_id":"43144db2-db71-4460-ba4a-c9271d756079","system_id":"levelo_inurba_marseille","lat":43.2968,"lon":5.37291,"is_reserved":false,"is_disabled":false,"rental_uris":{"android":"levelo://app?vid=43144db2-db71-4460-ba4a-c9271d756079","ios":"levelo://app?vid=43144db2-db71-4460-ba4a-c9271d756079"},"vehicle_type_id":"4","last_reported":1712516679,"current_range_meters":18800,"station_id":"ce4bgk12rcd13ifvqbj0","pricing_plan_id":"cebpf4jnsgd1na2vs0mg"},{"bike_id":"0dc17a37-f1f2-449f-8acb-e875c917e044","system_id":"levelo_inurba_marseille","lat":43.312644,"lon":5.389482,"is_reserved":false,"is_disabled":false,"rental_uris":{"android":"levelo://app?vid=0dc17a37-f1f2-449f-8acb-e875c917e044","ios":"levelo://app?vid=0dc17a37-f1f2-449f-8acb-e875c917e044"},"vehicle_type_id":"4","last_reported":1712516679,"current_range_meters":15200,"station_id":"","pricing_plan_id":"cebpf4jnsgd1na2vs0mg"},{"bike_id":"7ff298b7-dea8-408d-97b7-fdb298653b4c","system_id":"levelo_inurba_marseille","lat":43.2968,"lon":5.37291,"is_reserved":false,"is_disabled":false,"rental_uris":{"android":"levelo://app?vid=7ff298b7-dea8-408d-97b7-fdb298653b4c","ios":"levelo://app?vid=7ff298b7-dea8-408d-97b7-fdb298653b4c"},"vehicle_type_id":"4","last_reported":1712516679,"current_range_meters":7200,"station_id":"ce4bgk12rcd13ifvqbj0","pricing_plan_id":"cebpf4jnsgd1na2vs0mg"},{"bike_id":"d550bcac-9a54-4b28-99d9-ccad590d139b","system_id":"levelo_inurba_marseille","lat":43.29678,"lon":5.37295,"is_reserved":false,"is_disabled":false,"rental_uris":{"android":"levelo://app?vid=d550bcac-9a54-4b28-99d9-ccad590d139b","ios":"levelo://app?vid=d550bcac-9a54-4b28-99d9-ccad590d139b"},"vehicle_type_id":"4","last_reported":1712516679,"current_range_meters":0,"station_id":"ce4bgk12rcd13ifvqbj0","pricing_plan_id":"cebpf4jnsgd1na2vs0mg"},{"bike_id":"7326192a-bcd4-4a7e-9d13-95f24c86caa3","system_id":"levelo_inurba_marseille","lat":43.29589,"lon":5.3675,"is_reserved":false,"is_disabled":false,"rental_uris":{"android":"levelo://app?vid=7326192a-bcd4-4a7e-9d13-95f24c86caa3","ios":"levelo://app?vid=7326192a-bcd4-4a7e-9d13-95f24c86caa3"},"vehicle_type_id":"4","last_reported":1712516679,"current_range_meters":0,"station_id":"ce4bgph2rcd13ifvqc2g","pricing_plan_id":"cebpf4jnsgd1na2vs0mg"},{"bike_id":"ad41c219-8b4f-4cc2-9b69-ad9b4e66665f","system_id":"levelo_inurba_marseille","lat":43.299028,"lon":5.381509,"is_reserved":false,"is_disabled":false,"rental_uris":{"android":"levelo://app?vid=ad41c219-8b4f-4cc2-9b69-ad9b4e66665f","ios":"levelo://app?vid=ad41c219-8b4f-4cc2-9b69-ad9b4e66665f"},"vehicle_type_id":"4","last_reported":1712516679,"current_range_meters":3600,"station_id":"ce4bgj12rcd13ifvqbc0","pricing_plan_id":"cebpf4jnsgd1na2vs0mg"},{"bike_id":"8fd07477-8e5c-42f7-8fde-f64cf94999d3","system_id":"levelo_inurba_marseille","lat":43.296921,"lon":5.376579,"is_reserved":false,"is_disabled":false,"rental_uris":{"android":"levelo://app?vid=8fd07477-8e5c-42f7-8fde-f64cf94999d3","ios":"levelo://app?vid=8fd07477-8e5c-42f7-8fde-f64cf94999d3"},"vehicle_type_id":"4","last_reported":1712516679,"current_range_meters":0,"station_id":"ce4bgkh2rcd13ifvqbl0","pricing_plan_id":"cebpf4jnsgd1na2vs0mg"},{"bike_id":"3709f2da-4784-4451-b413-cd3c68f2a64f","system_id":"levelo_inurba_marseille","lat":43.30957,"lon":5.39029,"is_reserved":false,"is_disabled":false,"rental_uris":{"android":"levelo://app?vid=3709f2da-4784-4451-b413-cd3c68f2a64f","ios":"levelo://app?vid=3709f2da-4784-4451-b413-cd3c68f2a64f"},"vehicle_type_id":"4","last_reported":1712516679,"current_range_meters":0,"station_id":"ce4bgup2rcd13ifvqco0","pricing_plan_id":"cebpf4jnsgd1na2vs0mg"},{"bike_id":"d91c6ee0-590f-44d6-81c6-fca8596b4055","system_id":"levelo_inurba_marseille","lat":43.317557,"lon":5.390173,"is_reserved":false,"is_disabled":false,"rental_uris":{"android":"levelo://app?vid=d91c6ee0-590f-44d6-81c6-fca8596b4055","ios":"levelo://app?vid=d91c6ee0-590f-44d6-81c6-fca8596b4055"},"vehicle_type_id":"4","last_reported":1712516679,"current_range_meters":9200,"station_id":"ce4bhqp2rcd13ifvqhng","pricing_plan_id":"cebpf4jnsgd1na2vs0mg"},{"bike_id":"76bcaac9-6860-4eff-bf6b-2c314ab08bd5","system_id":"levelo_inurba_marseille","lat":43.29803,"lon":5.38073,"is_reserved":false,"is_disabled":false,"rental_uris":{"android":"levelo://app?vid=76bcaac9-6860-4eff-bf6b-2c314ab08bd5","ios":"levelo://app?vid=76bcaac9-6860-4eff-bf6b-2c314ab08bd5"},"vehicle_type_id":"4","last_reported":1712516679,"current_range_meters":0,"station_id":"ce4bgip2rcd13ifvqbb0","pricing_plan_id":"cebpf4jnsgd1na2vs0mg"},{"bike_id":"6b40dd33-cceb-4b8e-9863-3b4868c28f49","system_id":"levelo_inurba_marseille","lat":43.298037,"lon":5.381066,"is_reserved":false,"is_disabled":false,"rental_uris":{"android":"levelo://app?vid=6b40dd33-cceb-4b8e-9863-3b4868c28f49","ios":"levelo://app?vid=6b40dd33-cceb-4b8e-9863-3b4868c28f49"},"vehicle_type_id":"4","last_reported":1712516679,"current_range_meters":0,"station_id":"ce4bgip2rcd13ifvqbb0","pricing_plan_id":"cebpf4jnsgd1na2vs0mg"},{"bike_id":"87515123-1bb6-4d6f-9f75-55af410de6f2","system_id":"levelo_inurba_marseille","lat":43.2958,"lon":5.37504,"is_reserved":false,"is_disabled":false,"rental_uris":{"android":"levelo://app?vid=87515123-1bb6-4d6f-9f75-55af410de6f2","ios":"levelo://app?vid=87515123-1bb6-4d6f-9f75-55af410de6f2"},"vehicle_type_id":"4","last_reported":1712516679,"current_range_meters":0,"station_id":"ce4bgh92rcd13ifvqb50","pricing_plan_id":"cebpf4jnsgd1na2vs0mg"},{"bike_id":"3a09f4c9-bee7-488c-a22a-2752976d7738","system_id":"levelo_inurba_marseille","lat":43.29578,"lon":5.37507,"is_reserved":false,"is_disabled":false,"rental_uris":{"android":"levelo://app?vid=3a09f4c9-bee7-488c-a22a-2752976d7738","ios":"levelo://app?vid=3a09f4c9-bee7-488c-a22a-2752976d7738"},"vehicle_type_id":"4","last_reported":1712516679,"current_range_meters":0,"station_id":"ce4bgh92rcd13ifvqb50","pricing_plan_id":"cebpf4jnsgd1na2vs0mg"},{"bike_id":"dce497cb-ce99-43be-8cf9-6c017bd9883b","system_id":"levelo_inurba_marseille","lat":43.298037,"lon":5.381066,"is_reserved":false,"is_disabled":false,"rental_uris":{"android":"levelo://app?vid=dce497cb-ce99-43be-8cf9-6c017bd9883b","ios":"levelo://app?vid=dce497cb-ce99-43be-8cf9-6c017bd9883b"},"vehicle_type_id":"4","last_reported":1712516679,"current_range_meters":19600,"station_id":"ce4bgip2rcd13ifvqbb0","pricing_plan_id":"cebpf4jnsgd1na2vs0mg"},{"bike_id":"124fd5ce-be1f-4c22-9cf2-51f2ff1a96f4","system_id":"levelo_inurba_marseille","lat":43.304278,"lon":5.388868,"is_reserved":false,"is_disabled":false,"rental_uris":{"android":"levelo://app?vid=124fd5ce-be1f-4c22-9cf2-51f2ff1a96f4","ios":"levelo://app?vid=124fd5ce-be1f-4c22-9cf2-51f2ff1a96f4"},"vehicle_type_id":"4","last_reported":1712516679,"current_range_meters":5200,"station_id":"ce4bgk12rcd13ifvqbi0","pricing_plan_id":"cebpf4jnsgd1na2vs0mg"},{"bike_id":"f719f114-9939-4f48-978e-d0bc3ad3d833","system_id":"levelo_inurba_marseille","lat":43.304274,"lon":5.388873,"is_reserved":false,"is_disabled":false,"rental_uris":{"android":"levelo://app?vid=f719f114-9939-4f48-978e-d0bc3ad3d833","ios":"levelo://app?vid=f719f114-9939-4f48-978e-d0bc3ad3d833"},"vehicle_type_id":"4","last_reported":1712516679,"current_range_meters":12400,"station_id":"ce4bgk12rcd13ifvqbi0","pricing_plan_id":"cebpf4jnsgd1na2vs0mg"},{"bike_id":"e660e7b8-3447-4757-b641-36827ca4fc4f","system_id":"levelo_inurba_marseille","lat":43.304274,"lon":5.388873,"is_reserved":false,"is_disabled":false,"rental_uris":{"android":"levelo://app?vid=e660e7b8-3447-4757-b641-36827ca4fc4f","ios":"levelo://app?vid=e660e7b8-3447-4757-b641-36827ca4fc4f"},"vehicle_type_id":"4","last_reported":1712516679,"current_range_meters":6400,"station_id":"ce4bgk12rcd13ifvqbi0","pricing_plan_id":"cebpf4jnsgd1na2vs0mg"},{"bike_id":"a477b7ec-dd1a-442e-ba39-e39c105ad411","system_id":"levelo_inurba_marseille","lat":43.304274,"lon":5.388873,"is_reserved":false,"is_disabled":false,"rental_uris":{"android":"levelo://app?vid=a477b7ec-dd1a-442e-ba39-e39c105ad411","ios":"levelo://app?vid=a477b7ec-dd1a-442e-ba39-e39c105ad411"},"vehicle_type_id":"4","last_reported":1712516679,"current_range_meters":21600,"station_id":"ce4bgk12rcd13ifvqbi0","pricing_plan_id":"cebpf4jnsgd1na2vs0mg"},{"bike_id":"aafac154-c981-4874-b477-a3598eb487db","system_id":"levelo_inurba_marseille","lat":43.304274,"lon":5.388873,"is_reserved":false,"is_disabled":false,"rental_uris":{"android":"levelo://app?vid=aafac154-c981-4874-b477-a3598eb487db","ios":"levelo://app?vid=aafac154-c981-4874-b477-a3598eb487db"},"vehicle_type_id":"4","last_reported":1712516679,"current_range_meters":8800,"station_id":"ce4bgk12rcd13ifvqbi0","pricing_plan_id":"cebpf4jnsgd1na2vs0mg"},{"bike_id":"70baa11e-993e-4923-81b8-df84f517275a","system_id":"levelo_inurba_marseille","lat":43.304278,"lon":5.388868,"is_reserved":false,"is_disabled":false,"rental_uris":{"android":"levelo://app?vid=70baa11e-993e-4923-81b8-df84f517275a","ios":"levelo://app?vid=70baa11e-993e-4923-81b8-df84f517275a"},"vehicle_type_id":"4","last_reported":1712516679,"current_range_meters":17600,"station_id":"ce4bgk12rcd13ifvqbi0","pricing_plan_id":"cebpf4jnsgd1na2vs0mg"},{"bike_id":"ee4679d2-aef1-4668-95ad-de4389c97ea6","system_id":"levelo_inurba_marseille","lat":43.304278,"lon":5.388868,"is_reserved":false,"is_disabled":false,"rental_uris":{"android":"levelo://app?vid=ee4679d2-aef1-4668-95ad-de4389c97ea6","ios":"levelo://app?vid=ee4679d2-aef1-4668-95ad-de4389c97ea6"},"vehicle_type_id":"4","last_reported":1712516679,"current_range_meters":3200,"station_id":"ce4bgk12rcd13ifvqbi0","pricing_plan_id":"cebpf4jnsgd1na2vs0mg"},{"bike_id":"1788ef61-ef61-4c59-8094-dccfa0430001","system_id":"levelo_inurba_marseille","lat":43.295748,"lon":5.37522,"is_reserved":false,"is_disabled":false,"rental_uris":{"android":"levelo://app?vid=1788ef61-ef61-4c59-8094-dccfa0430001","ios":"levelo://app?vid=1788ef61-ef61-4c59-8094-dccfa0430001"},"vehicle_type_id":"4","last_reported":1712516679,"current_range_meters":0,"station_id":"ce4bgh92rcd13ifvqb50","pricing_plan_id":"cebpf4jnsgd1na2vs0mg"},{"bike_id":"f60dba59-fb3d-4127-9222-3b207deb80f7","system_id":"levelo_inurba_marseille","lat":43.304274,"lon":5.388873,"is_reserved":false,"is_disabled":false,"rental_uris":{"android":"levelo://app?vid=f60dba59-fb3d-4127-9222-3b207deb80f7","ios":"levelo://app?vid=f60dba59-fb3d-4127-9222-3b207deb80f7"},"vehicle_type_id":"4","last_reported":1712516679,"current_range_meters":16000,"station_id":"ce4bgk12rcd13ifvqbi0","pricing_plan_id":"cebpf4jnsgd1na2vs0mg"},{"bike_id":"617a3cf4-4238-4ad7-9c8b-c8a1efdea446","system_id":"levelo_inurba_marseille","lat":43.296263,"lon":5.377094,"is_reserved":false,"is_disabled":false,"rental_uris":{"android":"levelo://app?vid=617a3cf4-4238-4ad7-9c8b-c8a1efdea446","ios":"levelo://app?vid=617a3cf4-4238-4ad7-9c8b-c8a1efdea446"},"vehicle_type_id":"4","last_reported":1712516679,"current_range_meters":0,"station_id":"ce4bgi92rcd13ifvqb90","pricing_plan_id":"cebpf4jnsgd1na2vs0mg"},{"bike_id":"e76cf064-d1af-43ea-8218-a5d32bf7d86f","system_id":"levelo_inurba_marseille","lat":43.304278,"lon":5.388868,"is_reserved":false,"is_disabled":false,"rental_uris":{"android":"levelo://app?vid=e76cf064-d1af-43ea-8218-a5d32bf7d86f","ios":"levelo://app?vid=e76cf064-d1af-43ea-8218-a5d32bf7d86f"},"vehicle_type_id":"4","last_reported":1712516679,"current_range_meters":0,"station_id":"ce4bgk12rcd13ifvqbi0","pricing_plan_id":"cebpf4jnsgd1na2vs0mg"},{"bike_id":"7a2e8024-371f-4d91-b893-f5938dc0e05f","system_id":"levelo_inurba_marseille","lat":43.2953,"lon":5.37426,"is_reserved":false,"is_disabled":false,"rental_uris":{"android":"levelo://app?vid=7a2e8024-371f-4d91-b893-f5938dc0e05f","ios":"levelo://app?vid=7a2e8024-371f-4d91-b893-f5938dc0e05f"},"vehicle_type_id":"4","last_reported":1712516679,"current_range_meters":13200,"station_id":"","pricing_plan_id":"cebpf4jnsgd1na2vs0mg"},{"bike_id":"1f5d34f9-d919-4949-bca0-c29a4871290c","system_id":"levelo_inurba_marseille","lat":43.295425,"lon":5.37499,"is_reserved":false,"is_disabled":false,"rental_uris":{"android":"levelo://app?vid=1f5d34f9-d919-4949-bca0-c29a4871290c","ios":"levelo://app?vid=1f5d34f9-d919-4949-bca0-c29a4871290c"},"vehicle_type_id":"4","last_reported":1712516679,"current_range_meters":0,"station_id":"ce4bgkp2rcd13ifvqbmg","pricing_plan_id":"cebpf4jnsgd1na2vs0mg"},{"bike_id":"76d92a7f-9eee-4840-a043-09e87da8b2d0","system_id":"levelo_inurba_marseille","lat":43.2954,"lon":5.37507,"is_reserved":false,"is_disabled":false,"rental_uris":{"android":"levelo://app?vid=76d92a7f-9eee-4840-a043-09e87da8b2d0","ios":"levelo://app?vid=76d92a7f-9eee-4840-a043-09e87da8b2d0"},"vehicle_type_id":"4","last_reported":1712516679,"current_range_meters":12000,"station_id":"ce4bgkp2rcd13ifvqbmg","pricing_plan_id":"cebpf4jnsgd1na2vs0mg"},{"bike_id":"47f7e75d-cd3e-434e-b220-8f12227e21f1","system_id":"levelo_inurba_marseille","lat":43.299707,"lon":5.384859,"is_reserved":false,"is_disabled":false,"rental_uris":{"android":"levelo://app?vid=47f7e75d-cd3e-434e-b220-8f12227e21f1","ios":"levelo://app?vid=47f7e75d-cd3e-434e-b220-8f12227e21f1"},"vehicle_type_id":"4","last_reported":1712516679,"current_range_meters":0,"station_id":"ce4bgj92rcd13ifvqbd0","pricing_plan_id":"cebpf4jnsgd1na2vs0mg"},{"bike_id":"ca142e2c-200a-4f1d-a40b-fd8a88ae022f","system_id":"levelo_inurba_marseille","lat":43.29978,"lon":5.38489,"is_reserved":false,"is_disabled":false,"rental_uris":{"android":"levelo://app?vid=ca142e2c-200a-4f1d-a40b-fd8a88ae022f","ios":"levelo://app?vid=ca142e2c-200a-4f1d-a40b-fd8a88ae022f"},"vehicle_type_id":"4","last_reported":1712516679,"current_range_meters":0,"station_id":"ce4bgj92rcd13ifvqbd0","pricing_plan_id":"cebpf4jnsgd1na2vs0mg"},{"bike_id":"0d5c4e6e-cbaf-434f-9ecf-8284ac577fc7","system_id":"levelo_inurba_marseille","lat":43.299768,"lon":5.384938,"is_reserved":false,"is_disabled":false,"rental_uris":{"android":"levelo://app?vid=0d5c4e6e-cbaf-434f-9ecf-8284ac577fc7","ios":"levelo://app?vid=0d5c4e6e-cbaf-434f-9ecf-8284ac577fc7"},"vehicle_type_id":"4","last_reported":1712516679,"current_range_meters":0,"station_id":"ce4bgj92rcd13ifvqbd0","pricing_plan_id":"cebpf4jnsgd1na2vs0mg"},{"bike_id":"57eedf65-f08f-4538-aa53-6a41d97ee62b","system_id":"levelo_inurba_marseille","lat":43.29526,"lon":5.37508,"is_reserved":false,"is_disabled":false,"rental_uris":{"android":"levelo://app?vid=57eedf65-f08f-4538-aa53-6a41d97ee62b","ios":"levelo://app?vid=57eedf65-f08f-4538-aa53-6a41d97ee62b"},"vehicle_type_id":"4","last_reported":1712516679,"current_range_meters":1200,"station_id":"ce4bgkp2rcd13ifvqbmg","pricing_plan_id":"cebpf4jnsgd1na2vs0mg"},{"bike_id":"2770cde6-cecf-4619-8b5c-76bd239ad55e","system_id":"levelo_inurba_marseille","lat":43.2952,"lon":5.37489,"is_reserved":false,"is_disabled":false,"rental_uris":{"android":"levelo://app?vid=2770cde6-cecf-4619-8b5c-76bd239ad55e","ios":"levelo://app?vid=2770cde6-cecf-4619-8b5c-76bd239ad55e"},"vehicle_type_id":"4","last_reported":1712516679,"current_range_meters":0,"station_id":"ce4bgkp2rcd13ifvqbmg","pricing_plan_id":"cebpf4jnsgd1na2vs0mg"},{"bike_id":"5afe332d-ccb8-4fce-813d-b50ae27f7789","system_id":"levelo_inurba_marseille","lat":43.29968,"lon":5.38489,"is_reserved":false,"is_disabled":false,"rental_uris":{"android":"levelo://app?vid=5afe332d-ccb8-4fce-813d-b50ae27f7789","ios":"levelo://app?vid=5afe332d-ccb8-4fce-813d-b50ae27f7789"},"vehicle_type_id":"4","last_reported":1712516679,"current_range_meters":0,"station_id":"ce4bgj92rcd13ifvqbd0","pricing_plan_id":"cebpf4jnsgd1na2vs0mg"},{"bike_id":"f815da9f-9b1f-4ee9-8504-99b37045c5bb","system_id":"levelo_inurba_marseille","lat":43.29523,"lon":5.37505,"is_reserved":false,"is_disabled":false,"rental_uris":{"android":"levelo://app?vid=f815da9f-9b1f-4ee9-8504-99b37045c5bb","ios":"levelo://app?vid=f815da9f-9b1f-4ee9-8504-99b37045c5bb"},"vehicle_type_id":"4","last_reported":1712516679,"current_range_meters":18400,"station_id":"ce4bgkp2rcd13ifvqbmg","pricing_plan_id":"cebpf4jnsgd1na2vs0mg"},{"bike_id":"201b45c9-a595-458c-b63c-423f5a73cefb","system_id":"levelo_inurba_marseille","lat":43.2952,"lon":5.37493,"is_reserved":false,"is_disabled":false,"rental_uris":{"android":"levelo://app?vid=201b45c9-a595-458c-b63c-423f5a73cefb","ios":"levelo://app?vid=201b45c9-a595-458c-b63c-423f5a73cefb"},"vehicle_type_id":"4","last_reported":1712516679,"current_range_meters":0,"station_id":"ce4bgkp2rcd13ifvqbmg","pricing_plan_id":"cebpf4jnsgd1na2vs0mg"},{"bike_id":"1070af35-d7fa-42d1-8bb3-4515c36207a1","system_id":"levelo_inurba_marseille","lat":43.29517,"lon":5.374973,"is_reserved":false,"is_disabled":false,"rental_uris":{"android":"levelo://app?vid=1070af35-d7fa-42d1-8bb3-4515c36207a1","ios":"levelo://app?vid=1070af35-d7fa-42d1-8bb3-4515c36207a1"},"vehicle_type_id":"4","last_reported":1712516679,"current_range_meters":0,"station_id":"ce4bgkp2rcd13ifvqbmg","pricing_plan_id":"cebpf4jnsgd1na2vs0mg"},{"bike_id":"3554e2bc-f8cb-4ddf-bad9-64a9e33c3597","system_id":"levelo_inurba_marseille","lat":43.29502,"lon":5.37508,"is_reserved":false,"is_disabled":false,"rental_uris":{"android":"levelo://app?vid=3554e2bc-f8cb-4ddf-bad9-64a9e33c3597","ios":"levelo://app?vid=3554e2bc-f8cb-4ddf-bad9-64a9e33c3597"},"vehicle_type_id":"4","last_reported":1712516679,"current_range_meters":4400,"station_id":"ce4bgkp2rcd13ifvqbmg","pricing_plan_id":"cebpf4jnsgd1na2vs0mg"},{"bike_id":"d658d995-00c7-4808-9e1c-586c7570f57d","system_id":"levelo_inurba_marseille","lat":43.32328,"lon":5.38889,"is_reserved":false,"is_disabled":false,"rental_uris":{"android":"levelo://app?vid=d658d995-00c7-4808-9e1c-586c7570f57d","ios":"levelo://app?vid=d658d995-00c7-4808-9e1c-586c7570f57d"},"vehicle_type_id":"4","last_reported":1712516679,"current_range_meters":0,"station_id":"ce4bhqp2rcd13ifvqhog","pricing_plan_id":"cebpf4jnsgd1na2vs0mg"},{"bike_id":"60122282-7c80-4f23-89cf-754237b5e127","system_id":"levelo_inurba_marseille","lat":43.32367,"lon":5.388836,"is_reserved":false,"is_disabled":false,"rental_uris":{"android":"levelo://app?vid=60122282-7c80-4f23-89cf-754237b5e127","ios":"levelo://app?vid=60122282-7c80-4f23-89cf-754237b5e127"},"vehicle_type_id":"4","last_reported":1712516679,"current_range_meters":6800,"station_id":"ce4bhqp2rcd13ifvqhog","pricing_plan_id":"cebpf4jnsgd1na2vs0mg"},{"bike_id":"6accf371-7440-45b7-b4b7-c24fa78fc8c0","system_id":"levelo_inurba_marseille","lat":43.32367,"lon":5.388836,"is_reserved":false,"is_disabled":false,"rental_uris":{"android":"levelo://app?vid=6accf371-7440-45b7-b4b7-c24fa78fc8c0","ios":"levelo://app?vid=6accf371-7440-45b7-b4b7-c24fa78fc8c0"},"vehicle_type_id":"4","last_reported":1712516679,"current_range_meters":0,"station_id":"ce4bhqp2rcd13ifvqhog","pricing_plan_id":"cebpf4jnsgd1na2vs0mg"},{"bike_id":"0d688efc-ddd1-4235-857f-251d9dff0e6a","system_id":"levelo_inurba_marseille","lat":43.29602,"lon":5.381084,"is_reserved":false,"is_disabled":false,"rental_uris":{"android":"levelo://app?vid=0d688efc-ddd1-4235-857f-251d9dff0e6a","ios":"levelo://app?vid=0d688efc-ddd1-4235-857f-251d9dff0e6a"},"vehicle_type_id":"4","last_reported":1712516679,"current_range_meters":4400,"station_id":"ce4bgl12rcd13ifvqbo0","pricing_plan_id":"cebpf4jnsgd1na2vs0mg"},{"bike_id":"468a31e9-bef9-47e6-a560-5f861836c2d9","system_id":"levelo_inurba_marseille","lat":43.29602,"lon":5.381084,"is_reserved":false,"is_disabled":false,"rental_uris":{"android":"levelo://app?vid=468a31e9-bef9-47e6-a560-5f861836c2d9","ios":"levelo://app?vid=468a31e9-bef9-47e6-a560-5f861836c2d9"},"vehicle_type_id":"4","last_reported":1712516679,"current_range_meters":28800,"station_id":"ce4bgl12rcd13ifvqbo0","pricing_plan_id":"cebpf4jnsgd1na2vs0mg"},{"bike_id":"026d069d-a277-4dea-9ffc-e94443f9e4fa","system_id":"levelo_inurba_marseille","lat":43.29602,"lon":5.381084,"is_reserved":false,"is_disabled":false,"rental_uris":{"android":"levelo://app?vid=026d069d-a277-4dea-9ffc-e94443f9e4fa","ios":"levelo://app?vid=026d069d-a277-4dea-9ffc-e94443f9e4fa"},"vehicle_type_id":"4","last_reported":1712516679,"current_range_meters":0,"station_id":"ce4bgl12rcd13ifvqbo0","pricing_plan_id":"cebpf4jnsgd1na2vs0mg"},{"bike_id":"25c854da-0dba-4c04-9f1d-873cd672017c","system_id":"levelo_inurba_marseille","lat":43.29277,"lon":5.36843,"is_reserved":false,"is_disabled":false,"rental_uris":{"android":"levelo://app?vid=25c854da-0dba-4c04-9f1d-873cd672017c","ios":"levelo://app?vid=25c854da-0dba-4c04-9f1d-873cd672017c"},"vehicle_type_id":"4","last_reported":1712516679,"current_range_meters":0,"station_id":"ce4bhbp2rcd13ifvqesg","pricing_plan_id":"cebpf4jnsgd1na2vs0mg"},{"bike_id":"3cc5a31d-c082-4718-a957-25a2646a698f","system_id":"levelo_inurba_marseille","lat":43.29304,"lon":5.37183,"is_reserved":false,"is_disabled":false,"rental_uris":{"android":"levelo://app?vid=3cc5a31d-c082-4718-a957-25a2646a698f","ios":"levelo://app?vid=3cc5a31d-c082-4718-a957-25a2646a698f"},"vehicle_type_id":"4","last_reported":1712516679,"current_range_meters":0,"station_id":"ce4bgh92rcd13ifvqb40","pricing_plan_id":"cebpf4jnsgd1na2vs0mg"},{"bike_id":"920c4f3c-a3ea-4e97-b8d4-83d8f8d236d7","system_id":"levelo_inurba_marseille","lat":43.29991,"lon":5.38868,"is_reserved":false,"is_disabled":false,"rental_uris":{"android":"levelo://app?vid=920c4f3c-a3ea-4e97-b8d4-83d8f8d236d7","ios":"levelo://app?vid=920c4f3c-a3ea-4e97-b8d4-83d8f8d236d7"},"vehicle_type_id":"4","last_reported":1712516679,"current_range_meters":21200,"station_id":"","pricing_plan_id":"cebpf4jnsgd1na2vs0mg"},{"bike_id":"00fdcb52-d86c-4863-a105-4d0b91b97a2b","system_id":"levelo_inurba_marseille","lat":43.29305,"lon":5.374485,"is_reserved":false,"is_disabled":false,"rental_uris":{"android":"levelo://app?vid=00fdcb52-d86c-4863-a105-4d0b91b97a2b","ios":"levelo://app?vid=00fdcb52-d86c-4863-a105-4d0b91b97a2b"},"vehicle_type_id":"4","last_reported":1712516679,"current_range_meters":0,"station_id":"ce4bgi12rcd13ifvqb70","pricing_plan_id":"cebpf4jnsgd1na2vs0mg"},{"bike_id":"00fa673a-4fc3-4bfa-8d06-617f04e07395","system_id":"levelo_inurba_marseille","lat":43.30607,"lon":5.39351,"is_reserved":false,"is_disabled":false,"rental_uris":{"android":"levelo://app?vid=00fa673a-4fc3-4bfa-8d06-617f04e07395","ios":"levelo://app?vid=00fa673a-4fc3-4bfa-8d06-617f04e07395"},"vehicle_type_id":"4","last_reported":1712516679,"current_range_meters":0,"station_id":"ce4bh0p2rcd13ifvqd80","pricing_plan_id":"cebpf4jnsgd1na2vs0mg"},{"bike_id":"fd7f274f-58f5-4f42-82da-ac83e33e8147","system_id":"levelo_inurba_marseille","lat":43.30601,"lon":5.39354,"is_reserved":false,"is_disabled":false,"rental_uris":{"android":"levelo://app?vid=fd7f274f-58f5-4f42-82da-ac83e33e8147","ios":"levelo://app?vid=fd7f274f-58f5-4f42-82da-ac83e33e8147"},"vehicle_type_id":"4","last_reported":1712516679,"current_range_meters":0,"station_id":"ce4bh0p2rcd13ifvqd80","pricing_plan_id":"cebpf4jnsgd1na2vs0mg"},{"bike_id":"730d9ac6-91c0-4409-8e0f-1bec9fa235d3","system_id":"levelo_inurba_marseille","lat":43.305994,"lon":5.393687,"is_reserved":false,"is_disabled":false,"rental_uris":{"android":"levelo://app?vid=730d9ac6-91c0-4409-8e0f-1bec9fa235d3","ios":"levelo://app?vid=730d9ac6-91c0-4409-8e0f-1bec9fa235d3"},"vehicle_type_id":"4","last_reported":1712516679,"current_range_meters":0,"station_id":"ce4bh0p2rcd13ifvqd80","pricing_plan_id":"cebpf4jnsgd1na2vs0mg"},{"bike_id":"31e27e7c-ec88-45ec-980a-586a817712f6","system_id":"levelo_inurba_marseille","lat":43.293009,"lon":5.374584,"is_reserved":false,"is_disabled":false,"rental_uris":{"android":"levelo://app?vid=31e27e7c-ec88-45ec-980a-586a817712f6","ios":"levelo://app?vid=31e27e7c-ec88-45ec-980a-586a817712f6"},"vehicle_type_id":"4","last_reported":1712516679,"current_range_meters":26400,"station_id":"ce4bgi12rcd13ifvqb70","pricing_plan_id":"cebpf4jnsgd1na2vs0mg"},{"bike_id":"84d0193b-0e89-43a3-a120-79c86e2776b4","system_id":"levelo_inurba_marseille","lat":43.303002,"lon":5.392142,"is_reserved":false,"is_disabled":false,"rental_uris":{"android":"levelo://app?vid=84d0193b-0e89-43a3-a120-79c86e2776b4","ios":"levelo://app?vid=84d0193b-0e89-43a3-a120-79c86e2776b4"},"vehicle_type_id":"4","last_reported":1712516679,"current_range_meters":0,"station_id":"ce4bgkh2rcd13ifvqbk0","pricing_plan_id":"cebpf4jnsgd1na2vs0mg"},{"bike_id":"29600464-5044-436b-8e66-57807b499ba0","system_id":"levelo_inurba_marseille","lat":43.303002,"lon":5.392142,"is_reserved":false,"is_disabled":false,"rental_uris":{"android":"levelo://app?vid=29600464-5044-436b-8e66-57807b499ba0","ios":"levelo://app?vid=29600464-5044-436b-8e66-57807b499ba0"},"vehicle_type_id":"4","last_reported":1712516679,"current_range_meters":16000,"station_id":"ce4bgkh2rcd13ifvqbk0","pricing_plan_id":"cebpf4jnsgd1na2vs0mg"},{"bike_id":"51a5e059-cd79-4e2a-8ce0-b2f69238408f","system_id":"levelo_inurba_marseille","lat":43.302992,"lon":5.392136,"is_reserved":false,"is_disabled":false,"rental_uris":{"android":"levelo://app?vid=51a5e059-cd79-4e2a-8ce0-b2f69238408f","ios":"levelo://app?vid=51a5e059-cd79-4e2a-8ce0-b2f69238408f"},"vehicle_type_id":"4","last_reported":1712516679,"current_range_meters":0,"station_id":"ce4bgkh2rcd13ifvqbk0","pricing_plan_id":"cebpf4jnsgd1na2vs0mg"},{"bike_id":"5cbbec9f-698f-4ccd-8931-150a7d2b424e","system_id":"levelo_inurba_marseille","lat":43.303002,"lon":5.392142,"is_reserved":false,"is_disabled":false,"rental_uris":{"android":"levelo://app?vid=5cbbec9f-698f-4ccd-8931-150a7d2b424e","ios":"levelo://app?vid=5cbbec9f-698f-4ccd-8931-150a7d2b424e"},"vehicle_type_id":"4","last_reported":1712516679,"current_range_meters":0,"station_id":"ce4bgkh2rcd13ifvqbk0","pricing_plan_id":"cebpf4jnsgd1na2vs0mg"},{"bike_id":"2d4275fd-4440-427f-af1e-40e682d30ae4","system_id":"levelo_inurba_marseille","lat":43.2936,"lon":5.37835,"is_reserved":false,"is_disabled":false,"rental_uris":{"android":"levelo://app?vid=2d4275fd-4440-427f-af1e-40e682d30ae4","ios":"levelo://app?vid=2d4275fd-4440-427f-af1e-40e682d30ae4"},"vehicle_type_id":"4","last_reported":1712516679,"current_range_meters":0,"station_id":"ce4bgjh2rcd13ifvqbf0","pricing_plan_id":"cebpf4jnsgd1na2vs0mg"},{"bike_id":"17fc596d-a1eb-4611-9a58-a5e64527d171","system_id":"levelo_inurba_marseille","lat":43.300852,"lon":5.390859,"is_reserved":false,"is_disabled":false,"rental_uris":{"android":"levelo://app?vid=17fc596d-a1eb-4611-9a58-a5e64527d171","ios":"levelo://app?vid=17fc596d-a1eb-4611-9a58-a5e64527d171"},"vehicle_type_id":"4","last_reported":1712516679,"current_range_meters":30000,"station_id":"ce4bh192rcd13ifvqdb0","pricing_plan_id":"cebpf4jnsgd1na2vs0mg"},{"bike_id":"158df816-bcdd-495d-b6a9-dca1f4425379","system_id":"levelo_inurba_marseille","lat":43.29355,"lon":5.37845,"is_reserved":false,"is_disabled":false,"rental_uris":{"android":"levelo://app?vid=158df816-bcdd-495d-b6a9-dca1f4425379","ios":"levelo://app?vid=158df816-bcdd-495d-b6a9-dca1f4425379"},"vehicle_type_id":"4","last_reported":1712516679,"current_range_meters":0,"station_id":"ce4bgjh2rcd13ifvqbf0","pricing_plan_id":"cebpf4jnsgd1na2vs0mg"},{"bike_id":"3b22cb50-5a96-43ab-8f2a-5222368214a1","system_id":"levelo_inurba_marseille","lat":43.292311,"lon":5.360731,"is_reserved":false,"is_disabled":false,"rental_uris":{"android":"levelo://app?vid=3b22cb50-5a96-43ab-8f2a-5222368214a1","ios":"levelo://app?vid=3b22cb50-5a96-43ab-8f2a-5222368214a1"},"vehicle_type_id":"4","last_reported":1712516679,"current_range_meters":13600,"station_id":"ce4bhbh2rcd13ifvqeqg","pricing_plan_id":"cebpf4jnsgd1na2vs0mg"},{"bike_id":"f5c2a925-f0c0-4b1f-9621-87d4919ecb23","system_id":"levelo_inurba_marseille","lat":43.30085,"lon":5.390856,"is_reserved":false,"is_disabled":false,"rental_uris":{"android":"levelo://app?vid=f5c2a925-f0c0-4b1f-9621-87d4919ecb23","ios":"levelo://app?vid=f5c2a925-f0c0-4b1f-9621-87d4919ecb23"},"vehicle_type_id":"4","last_reported":1712516679,"current_range_meters":0,"station_id":"ce4bh192rcd13ifvqdb0","pricing_plan_id":"cebpf4jnsgd1na2vs0mg"},{"bike_id":"f386b9a7-7645-4b63-bf57-b5d58aa889bc","system_id":"levelo_inurba_marseille","lat":43.300852,"lon":5.390859,"is_reserved":false,"is_disabled":false,"rental_uris":{"android":"levelo://app?vid=f386b9a7-7645-4b63-bf57-b5d58aa889bc","ios":"levelo://app?vid=f386b9a7-7645-4b63-bf57-b5d58aa889bc"},"vehicle_type_id":"4","last_reported":1712516679,"current_range_meters":0,"station_id":"ce4bh192rcd13ifvqdb0","pricing_plan_id":"cebpf4jnsgd1na2vs0mg"},{"bike_id":"d0cd0f61-20c0-4405-8b69-d335362082e2","system_id":"levelo_inurba_marseille","lat":43.291994,"lon":5.357886,"is_reserved":false,"is_disabled":false,"rental_uris":{"android":"levelo://app?vid=d0cd0f61-20c0-4405-8b69-d335362082e2","ios":"levelo://app?vid=d0cd0f61-20c0-4405-8b69-d335362082e2"},"vehicle_type_id":"4","last_reported":1712516679,"current_range_meters":15600,"station_id":"ce4bhb12rcd13ifvqel0","pricing_plan_id":"cebpf4jnsgd1na2vs0mg"},{"bike_id":"dd32810b-834a-4450-903d-f00dbc811aca","system_id":"levelo_inurba_marseille","lat":43.313291,"lon":5.396838,"is_reserved":false,"is_disabled":false,"rental_uris":{"android":"levelo://app?vid=dd32810b-834a-4450-903d-f00dbc811aca","ios":"levelo://app?vid=dd32810b-834a-4450-903d-f00dbc811aca"},"vehicle_type_id":"4","last_reported":1712516679,"current_range_meters":16400,"station_id":"ce4bgvp2rcd13ifvqcu0","pricing_plan_id":"cebpf4jnsgd1na2vs0mg"},{"bike_id":"49d33290-b194-4a46-8566-a954ce6deb13","system_id":"levelo_inurba_marseille","lat":43.313291,"lon":5.396838,"is_reserved":false,"is_disabled":false,"rental_uris":{"android":"levelo://app?vid=49d33290-b194-4a46-8566-a954ce6deb13","ios":"levelo://app?vid=49d33290-b194-4a46-8566-a954ce6deb13"},"vehicle_type_id":"4","last_reported":1712516679,"current_range_meters":12800,"station_id":"ce4bgvp2rcd13ifvqcu0","pricing_plan_id":"cebpf4jnsgd1na2vs0mg"},{"bike_id":"68bb8d8f-0c9d-4d37-9cde-2f067d0c782a","system_id":"levelo_inurba_marseille","lat":43.29193,"lon":5.35793,"is_reserved":false,"is_disabled":false,"rental_uris":{"android":"levelo://app?vid=68bb8d8f-0c9d-4d37-9cde-2f067d0c782a","ios":"levelo://app?vid=68bb8d8f-0c9d-4d37-9cde-2f067d0c782a"},"vehicle_type_id":"4","last_reported":1712516679,"current_range_meters":0,"station_id":"ce4bhb12rcd13ifvqel0","pricing_plan_id":"cebpf4jnsgd1na2vs0mg"},{"bike_id":"f1880c2a-6467-4f5f-b0b0-795f61aad757","system_id":"levelo_inurba_marseille","lat":43.313291,"lon":5.396838,"is_reserved":false,"is_disabled":false,"rental_uris":{"android":"levelo://app?vid=f1880c2a-6467-4f5f-b0b0-795f61aad757","ios":"levelo://app?vid=f1880c2a-6467-4f5f-b0b0-795f61aad757"},"vehicle_type_id":"4","last_reported":1712516679,"current_range_meters":31600,"station_id":"ce4bgvp2rcd13ifvqcu0","pricing_plan_id":"cebpf4jnsgd1na2vs0mg"},{"bike_id":"b60347e4-fe6d-4202-805e-2ce74f1bf9da","system_id":"levelo_inurba_marseille","lat":43.31335,"lon":5.39692,"is_reserved":false,"is_disabled":false,"rental_uris":{"android":"levelo://app?vid=b60347e4-fe6d-4202-805e-2ce74f1bf9da","ios":"levelo://app?vid=b60347e4-fe6d-4202-805e-2ce74f1bf9da"},"vehicle_type_id":"4","last_reported":1712516679,"current_range_meters":14000,"station_id":"ce4bgvp2rcd13ifvqcu0","pricing_plan_id":"cebpf4jnsgd1na2vs0mg"},{"bike_id":"853e0b90-fb64-4828-8869-591b0a0cfa86","system_id":"levelo_inurba_marseille","lat":43.309047,"lon":5.396551,"is_reserved":false,"is_disabled":false,"rental_uris":{"android":"levelo://app?vid=853e0b90-fb64-4828-8869-591b0a0cfa86","ios":"levelo://app?vid=853e0b90-fb64-4828-8869-591b0a0cfa86"},"vehicle_type_id":"4","last_reported":1712516679,"current_range_meters":11200,"station_id":"ce4bh012rcd13ifvqcv0","pricing_plan_id":"cebpf4jnsgd1na2vs0mg"},{"bike_id":"ca01e377-1db9-4cb4-b000-59b60b7cd638","system_id":"levelo_inurba_marseille","lat":43.313291,"lon":5.396838,"is_reserved":false,"is_disabled":false,"rental_uris":{"android":"levelo://app?vid=ca01e377-1db9-4cb4-b000-59b60b7cd638","ios":"levelo://app?vid=ca01e377-1db9-4cb4-b000-59b60b7cd638"},"vehicle_type_id":"4","last_reported":1712516679,"current_range_meters":1200,"station_id":"ce4bgvp2rcd13ifvqcu0","pricing_plan_id":"cebpf4jnsgd1na2vs0mg"},{"bike_id":"d555f473-9eb4-400e-bc34-da9e27234d82","system_id":"levelo_inurba_marseille","lat":43.2954,"lon":5.38534,"is_reserved":false,"is_disabled":false,"rental_uris":{"android":"levelo://app?vid=d555f473-9eb4-400e-bc34-da9e27234d82","ios":"levelo://app?vid=d555f473-9eb4-400e-bc34-da9e27234d82"},"vehicle_type_id":"4","last_reported":1712516679,"current_range_meters":0,"station_id":"ce4bgih2rcd13ifvqba0","pricing_plan_id":"cebpf4jnsgd1na2vs0mg"},{"bike_id":"7c85d1a7-833d-4397-8f48-0e1741b9f57e","system_id":"levelo_inurba_marseille","lat":43.309047,"lon":5.396551,"is_reserved":false,"is_disabled":false,"rental_uris":{"android":"levelo://app?vid=7c85d1a7-833d-4397-8f48-0e1741b9f57e","ios":"levelo://app?vid=7c85d1a7-833d-4397-8f48-0e1741b9f57e"},"vehicle_type_id":"4","last_reported":1712516679,"current_range_meters":13600,"station_id":"ce4bh012rcd13ifvqcv0","pricing_plan_id":"cebpf4jnsgd1na2vs0mg"},{"bike_id":"4bd5704d-2d38-4a63-9770-23dd99c6069d","system_id":"levelo_inurba_marseille","lat":43.309047,"lon":5.396551,"is_reserved":false,"is_disabled":false,"rental_uris":{"android":"levelo://app?vid=4bd5704d-2d38-4a63-9770-23dd99c6069d","ios":"levelo://app?vid=4bd5704d-2d38-4a63-9770-23dd99c6069d"},"vehicle_type_id":"4","last_reported":1712516679,"current_range_meters":17600,"station_id":"ce4bh012rcd13ifvqcv0","pricing_plan_id":"cebpf4jnsgd1na2vs0mg"},{"bike_id":"4fc091b6-b33a-453e-864d-8a4560d03240","system_id":"levelo_inurba_marseille","lat":43.29529,"lon":5.385581,"is_reserved":false,"is_disabled":false,"rental_uris":{"android":"levelo://app?vid=4fc091b6-b33a-453e-864d-8a4560d03240","ios":"levelo://app?vid=4fc091b6-b33a-453e-864d-8a4560d03240"},"vehicle_type_id":"4","last_reported":1712516679,"current_range_meters":6400,"station_id":"ce4bgih2rcd13ifvqba0","pricing_plan_id":"cebpf4jnsgd1na2vs0mg"},{"bike_id":"0782cb58-94b7-4486-a368-3a0ee4d4d1d2","system_id":"levelo_inurba_marseille","lat":43.29529,"lon":5.385581,"is_reserved":false,"is_disabled":false,"rental_uris":{"android":"levelo://app?vid=0782cb58-94b7-4486-a368-3a0ee4d4d1d2","ios":"levelo://app?vid=0782cb58-94b7-4486-a368-3a0ee4d4d1d2"},"vehicle_type_id":"4","last_reported":1712516679,"current_range_meters":2000,"station_id":"ce4bgih2rcd13ifvqba0","pricing_plan_id":"cebpf4jnsgd1na2vs0mg"},{"bike_id":"96710bd0-105f-4817-8c9e-54504eb82238","system_id":"levelo_inurba_marseille","lat":43.309038,"lon":5.396546,"is_reserved":false,"is_disabled":false,"rental_uris":{"android":"levelo://app?vid=96710bd0-105f-4817-8c9e-54504eb82238","ios":"levelo://app?vid=96710bd0-105f-4817-8c9e-54504eb82238"},"vehicle_type_id":"4","last_reported":1712516679,"current_range_meters":5200,"station_id":"ce4bh012rcd13ifvqcv0","pricing_plan_id":"cebpf4jnsgd1na2vs0mg"},{"bike_id":"e05448fb-783d-4a0e-bdcb-4d2ac4d7b4ab","system_id":"levelo_inurba_marseille","lat":43.29529,"lon":5.385581,"is_reserved":false,"is_disabled":false,"rental_uris":{"android":"levelo://app?vid=e05448fb-783d-4a0e-bdcb-4d2ac4d7b4ab","ios":"levelo://app?vid=e05448fb-783d-4a0e-bdcb-4d2ac4d7b4ab"},"vehicle_type_id":"4","last_reported":1712516679,"current_range_meters":23600,"station_id":"ce4bgih2rcd13ifvqba0","pricing_plan_id":"cebpf4jnsgd1na2vs0mg"},{"bike_id":"d435c4e0-1dca-459f-a658-fbb27159656c","system_id":"levelo_inurba_marseille","lat":43.29529,"lon":5.385581,"is_reserved":false,"is_disabled":false,"rental_uris":{"android":"levelo://app?vid=d435c4e0-1dca-459f-a658-fbb27159656c","ios":"levelo://app?vid=d435c4e0-1dca-459f-a658-fbb27159656c"},"vehicle_type_id":"4","last_reported":1712516679,"current_range_meters":3600,"station_id":"ce4bgih2rcd13ifvqba0","pricing_plan_id":"cebpf4jnsgd1na2vs0mg"},{"bike_id":"0cd0b82a-3e5c-477b-9932-6b518e1f85f1","system_id":"levelo_inurba_marseille","lat":43.29077,"lon":5.3716,"is_reserved":false,"is_disabled":false,"rental_uris":{"android":"levelo://app?vid=0cd0b82a-3e5c-477b-9932-6b518e1f85f1","ios":"levelo://app?vid=0cd0b82a-3e5c-477b-9932-6b518e1f85f1"},"vehicle_type_id":"4","last_reported":1712516679,"current_range_meters":0,"station_id":"ce4bh5p2rcd13ifvqe4g","pricing_plan_id":"cebpf4jnsgd1na2vs0mg"},{"bike_id":"eea7e8db-4d55-4145-93d6-1310fed5d44e","system_id":"levelo_inurba_marseille","lat":43.290779,"lon":5.371482,"is_reserved":false,"is_disabled":false,"rental_uris":{"android":"levelo://app?vid=eea7e8db-4d55-4145-93d6-1310fed5d44e","ios":"levelo://app?vid=eea7e8db-4d55-4145-93d6-1310fed5d44e"},"vehicle_type_id":"4","last_reported":1712516679,"current_range_meters":6400,"station_id":"ce4bh5p2rcd13ifvqe4g","pricing_plan_id":"cebpf4jnsgd1na2vs0mg"},{"bike_id":"8fdf07aa-449d-4c4b-860b-2e2012a36a69","system_id":"levelo_inurba_marseille","lat":43.290779,"lon":5.371482,"is_reserved":false,"is_disabled":false,"rental_uris":{"android":"levelo://app?vid=8fdf07aa-449d-4c4b-860b-2e2012a36a69","ios":"levelo://app?vid=8fdf07aa-449d-4c4b-860b-2e2012a36a69"},"vehicle_type_id":"4","last_reported":1712516679,"current_range_meters":3600,"station_id":"ce4bh5p2rcd13ifvqe4g","pricing_plan_id":"cebpf4jnsgd1na2vs0mg"},{"bike_id":"a58675ac-18fb-4ea3-bd00-f92939eab7e2","system_id":"levelo_inurba_marseille","lat":43.301117,"lon":5.398795,"is_reserved":false,"is_disabled":false,"rental_uris":{"android":"levelo://app?vid=a58675ac-18fb-4ea3-bd00-f92939eab7e2","ios":"levelo://app?vid=a58675ac-18fb-4ea3-bd00-f92939eab7e2"},"vehicle_type_id":"4","last_reported":1712516679,"current_range_meters":2400,"station_id":"ce4bh0h2rcd13ifvqd40","pricing_plan_id":"cebpf4jnsgd1na2vs0mg"},{"bike_id":"b6753ebd-25d8-4814-a5c1-e06524d58745","system_id":"levelo_inurba_marseille","lat":43.302008,"lon":5.394694,"is_reserved":false,"is_disabled":false,"rental_uris":{"android":"levelo://app?vid=b6753ebd-25d8-4814-a5c1-e06524d58745","ios":"levelo://app?vid=b6753ebd-25d8-4814-a5c1-e06524d58745"},"vehicle_type_id":"4","last_reported":1712516679,"current_range_meters":6800,"station_id":"ce4bh0p2rcd13ifvqd70","pricing_plan_id":"cebpf4jnsgd1na2vs0mg"},{"bike_id":"cfcf7c09-544c-4a2c-a9e5-5fadd1898b11","system_id":"levelo_inurba_marseille","lat":43.302008,"lon":5.394694,"is_reserved":false,"is_disabled":false,"rental_uris":{"android":"levelo://app?vid=cfcf7c09-544c-4a2c-a9e5-5fadd1898b11","ios":"levelo://app?vid=cfcf7c09-544c-4a2c-a9e5-5fadd1898b11"},"vehicle_type_id":"4","last_reported":1712516679,"current_range_meters":3200,"station_id":"ce4bh0p2rcd13ifvqd70","pricing_plan_id":"cebpf4jnsgd1na2vs0mg"},{"bike_id":"bcc3a30d-5edf-4c43-85e9-5ad39b07b79a","system_id":"levelo_inurba_marseille","lat":43.290631,"lon":5.359244,"is_reserved":false,"is_disabled":false,"rental_uris":{"android":"levelo://app?vid=bcc3a30d-5edf-4c43-85e9-5ad39b07b79a","ios":"levelo://app?vid=bcc3a30d-5edf-4c43-85e9-5ad39b07b79a"},"vehicle_type_id":"4","last_reported":1712516679,"current_range_meters":17600,"station_id":"ce4bha92rcd13ifvqeg0","pricing_plan_id":"cebpf4jnsgd1na2vs0mg"},{"bike_id":"160706e5-5ff1-4a3f-b3d2-b4d54657ea58","system_id":"levelo_inurba_marseille","lat":43.294162,"lon":5.386292,"is_reserved":false,"is_disabled":false,"rental_uris":{"android":"levelo://app?vid=160706e5-5ff1-4a3f-b3d2-b4d54657ea58","ios":"levelo://app?vid=160706e5-5ff1-4a3f-b3d2-b4d54657ea58"},"vehicle_type_id":"4","last_reported":1712516679,"current_range_meters":1200,"station_id":"ce4bh2h2rcd13ifvqdh0","pricing_plan_id":"cebpf4jnsgd1na2vs0mg"},{"bike_id":"c1a7c923-3362-4b69-bd67-7003dd691458","system_id":"levelo_inurba_marseille","lat":43.2942,"lon":5.38625,"is_reserved":false,"is_disabled":false,"rental_uris":{"android":"levelo://app?vid=c1a7c923-3362-4b69-bd67-7003dd691458","ios":"levelo://app?vid=c1a7c923-3362-4b69-bd67-7003dd691458"},"vehicle_type_id":"4","last_reported":1712516679,"current_range_meters":12000,"station_id":"","pricing_plan_id":"cebpf4jnsgd1na2vs0mg"},{"bike_id":"9f05bf76-44ad-4ab9-8c31-7ab584d2f110","system_id":"levelo_inurba_marseille","lat":43.290631,"lon":5.359244,"is_reserved":false,"is_disabled":false,"rental_uris":{"android":"levelo://app?vid=9f05bf76-44ad-4ab9-8c31-7ab584d2f110","ios":"levelo://app?vid=9f05bf76-44ad-4ab9-8c31-7ab584d2f110"},"vehicle_type_id":"4","last_reported":1712516679,"current_range_meters":29600,"station_id":"ce4bha92rcd13ifvqeg0","pricing_plan_id":"cebpf4jnsgd1na2vs0mg"},{"bike_id":"e8a364dd-1176-489f-9eb0-7e14d5a890d2","system_id":"levelo_inurba_marseille","lat":43.294153,"lon":5.386305,"is_reserved":false,"is_disabled":false,"rental_uris":{"android":"levelo://app?vid=e8a364dd-1176-489f-9eb0-7e14d5a890d2","ios":"levelo://app?vid=e8a364dd-1176-489f-9eb0-7e14d5a890d2"},"vehicle_type_id":"4","last_reported":1712516679,"current_range_meters":0,"station_id":"ce4bh2h2rcd13ifvqdh0","pricing_plan_id":"cebpf4jnsgd1na2vs0mg"},{"bike_id":"f44d2d8c-1086-47f6-9baf-87a74e6002d1","system_id":"levelo_inurba_marseille","lat":43.289184,"lon":5.366408,"is_reserved":false,"is_disabled":false,"rental_uris":{"android":"levelo://app?vid=f44d2d8c-1086-47f6-9baf-87a74e6002d1","ios":"levelo://app?vid=f44d2d8c-1086-47f6-9baf-87a74e6002d1"},"vehicle_type_id":"4","last_reported":1712516679,"current_range_meters":1200,"station_id":"ce4bhap2rcd13ifvqek0","pricing_plan_id":"cebpf4jnsgd1na2vs0mg"},{"bike_id":"293ee3c9-8bd1-447f-b510-bb1254599d2f","system_id":"levelo_inurba_marseille","lat":43.289184,"lon":5.366408,"is_reserved":false,"is_disabled":false,"rental_uris":{"android":"levelo://app?vid=293ee3c9-8bd1-447f-b510-bb1254599d2f","ios":"levelo://app?vid=293ee3c9-8bd1-447f-b510-bb1254599d2f"},"vehicle_type_id":"4","last_reported":1712516679,"current_range_meters":20000,"station_id":"ce4bhap2rcd13ifvqek0","pricing_plan_id":"cebpf4jnsgd1na2vs0mg"},{"bike_id":"b34de3c2-cbdc-45d6-b716-b1f3f4e86190","system_id":"levelo_inurba_marseille","lat":43.289184,"lon":5.366408,"is_reserved":false,"is_disabled":false,"rental_uris":{"android":"levelo://app?vid=b34de3c2-cbdc-45d6-b716-b1f3f4e86190","ios":"levelo://app?vid=b34de3c2-cbdc-45d6-b716-b1f3f4e86190"},"vehicle_type_id":"4","last_reported":1712516679,"current_range_meters":21600,"station_id":"ce4bhap2rcd13ifvqek0","pricing_plan_id":"cebpf4jnsgd1na2vs0mg"},{"bike_id":"2058f667-bed3-4136-9c54-5c22616ae918","system_id":"levelo_inurba_marseille","lat":43.290327,"lon":5.375711,"is_reserved":false,"is_disabled":false,"rental_uris":{"android":"levelo://app?vid=2058f667-bed3-4136-9c54-5c22616ae918","ios":"levelo://app?vid=2058f667-bed3-4136-9c54-5c22616ae918"},"vehicle_type_id":"4","last_reported":1712516679,"current_range_meters":17600,"station_id":"ce4bh692rcd13ifvqe90","pricing_plan_id":"cebpf4jnsgd1na2vs0mg"},{"bike_id":"af9ddf2f-9296-49b8-a3a5-0ee351d4fbe3","system_id":"levelo_inurba_marseille","lat":43.289184,"lon":5.366408,"is_reserved":false,"is_disabled":false,"rental_uris":{"android":"levelo://app?vid=af9ddf2f-9296-49b8-a3a5-0ee351d4fbe3","ios":"levelo://app?vid=af9ddf2f-9296-49b8-a3a5-0ee351d4fbe3"},"vehicle_type_id":"4","last_reported":1712516679,"current_range_meters":0,"station_id":"ce4bhap2rcd13ifvqek0","pricing_plan_id":"cebpf4jnsgd1na2vs0mg"},{"bike_id":"63224452-446c-404f-b5b3-0acc23a99151","system_id":"levelo_inurba_marseille","lat":43.289468,"lon":5.363719,"is_reserved":false,"is_disabled":false,"rental_uris":{"android":"levelo://app?vid=63224452-446c-404f-b5b3-0acc23a99151","ios":"levelo://app?vid=63224452-446c-404f-b5b3-0acc23a99151"},"vehicle_type_id":"4","last_reported":1712516679,"current_range_meters":10000,"station_id":"ce4bhc92rcd13ifvqetg","pricing_plan_id":"cebpf4jnsgd1na2vs0mg"},{"bike_id":"6c689a13-0762-4a54-be60-6fb90dd9d08d","system_id":"levelo_inurba_marseille","lat":43.289184,"lon":5.366408,"is_reserved":false,"is_disabled":false,"rental_uris":{"android":"levelo://app?vid=6c689a13-0762-4a54-be60-6fb90dd9d08d","ios":"levelo://app?vid=6c689a13-0762-4a54-be60-6fb90dd9d08d"},"vehicle_type_id":"4","last_reported":1712516679,"current_range_meters":4000,"station_id":"ce4bhap2rcd13ifvqek0","pricing_plan_id":"cebpf4jnsgd1na2vs0mg"},{"bike_id":"1dad1489-535a-490e-b92c-5ccad41deec6","system_id":"levelo_inurba_marseille","lat":43.295169,"lon":5.390426,"is_reserved":false,"is_disabled":false,"rental_uris":{"android":"levelo://app?vid=1dad1489-535a-490e-b92c-5ccad41deec6","ios":"levelo://app?vid=1dad1489-535a-490e-b92c-5ccad41deec6"},"vehicle_type_id":"4","last_reported":1712516679,"current_range_meters":9200,"station_id":"ce4bh3p2rcd13ifvqdp0","pricing_plan_id":"cebpf4jnsgd1na2vs0mg"},{"bike_id":"0b73f934-b463-42fa-8478-5a961f699d39","system_id":"levelo_inurba_marseille","lat":43.292642,"lon":5.384254,"is_reserved":false,"is_disabled":false,"rental_uris":{"android":"levelo://app?vid=0b73f934-b463-42fa-8478-5a961f699d39","ios":"levelo://app?vid=0b73f934-b463-42fa-8478-5a961f699d39"},"vehicle_type_id":"4","last_reported":1712516679,"current_range_meters":10400,"station_id":"ce4bh692rcd13ifvqea0","pricing_plan_id":"cebpf4jnsgd1na2vs0mg"},{"bike_id":"9161af3c-0b71-44d6-80df-4c44738735c5","system_id":"levelo_inurba_marseille","lat":43.294314,"lon":5.397498,"is_reserved":false,"is_disabled":false,"rental_uris":{"android":"levelo://app?vid=9161af3c-0b71-44d6-80df-4c44738735c5","ios":"levelo://app?vid=9161af3c-0b71-44d6-80df-4c44738735c5"},"vehicle_type_id":"4","last_reported":1712516679,"current_range_meters":0,"station_id":"ce4bh3h2rcd13ifvqdo0","pricing_plan_id":"cebpf4jnsgd1na2vs0mg"},{"bike_id":"06319778-4fbb-4099-8e4b-cee73235ae37","system_id":"levelo_inurba_marseille","lat":43.292644,"lon":5.384257,"is_reserved":false,"is_disabled":false,"rental_uris":{"android":"levelo://app?vid=06319778-4fbb-4099-8e4b-cee73235ae37","ios":"levelo://app?vid=06319778-4fbb-4099-8e4b-cee73235ae37"},"vehicle_type_id":"4","last_reported":1712516679,"current_range_meters":5600,"station_id":"ce4bh692rcd13ifvqea0","pricing_plan_id":"cebpf4jnsgd1na2vs0mg"},{"bike_id":"484ab0d5-c137-44f5-906b-549bb2d583b5","system_id":"levelo_inurba_marseille","lat":43.30422,"lon":5.39749,"is_reserved":false,"is_disabled":false,"rental_uris":{"android":"levelo://app?vid=484ab0d5-c137-44f5-906b-549bb2d583b5","ios":"levelo://app?vid=484ab0d5-c137-44f5-906b-549bb2d583b5"},"vehicle_type_id":"4","last_reported":1712516679,"current_range_meters":2400,"station_id":"ce4bh092rcd13ifvqd20","pricing_plan_id":"cebpf4jnsgd1na2vs0mg"},{"bike_id":"4d817274-edaf-4463-893a-115a07c3af23","system_id":"levelo_inurba_marseille","lat":43.30422,"lon":5.3975,"is_reserved":false,"is_disabled":false,"rental_uris":{"android":"levelo://app?vid=4d817274-edaf-4463-893a-115a07c3af23","ios":"levelo://app?vid=4d817274-edaf-4463-893a-115a07c3af23"},"vehicle_type_id":"4","last_reported":1712516679,"current_range_meters":6400,"station_id":"ce4bh092rcd13ifvqd20","pricing_plan_id":"cebpf4jnsgd1na2vs0mg"},{"bike_id":"fee88fa3-6ecd-4a68-8354-06e6d45be683","system_id":"levelo_inurba_marseille","lat":43.29259,"lon":5.38444,"is_reserved":false,"is_disabled":false,"rental_uris":{"android":"levelo://app?vid=fee88fa3-6ecd-4a68-8354-06e6d45be683","ios":"levelo://app?vid=fee88fa3-6ecd-4a68-8354-06e6d45be683"},"vehicle_type_id":"4","last_reported":1712516679,"current_range_meters":400,"station_id":"ce4bh692rcd13ifvqea0","pricing_plan_id":"cebpf4jnsgd1na2vs0mg"},{"bike_id":"958d2646-008e-4f8f-a648-3a92b77dc527","system_id":"levelo_inurba_marseille","lat":43.29255,"lon":5.38445,"is_reserved":false,"is_disabled":false,"rental_uris":{"android":"levelo://app?vid=958d2646-008e-4f8f-a648-3a92b77dc527","ios":"levelo://app?vid=958d2646-008e-4f8f-a648-3a92b77dc527"},"vehicle_type_id":"4","last_reported":1712516679,"current_range_meters":0,"station_id":"ce4bh692rcd13ifvqea0","pricing_plan_id":"cebpf4jnsgd1na2vs0mg"},{"bike_id":"4ab8d0b4-1d48-41de-853a-04631248b142","system_id":"levelo_inurba_marseille","lat":43.30299,"lon":5.39713,"is_reserved":false,"is_disabled":false,"rental_uris":{"android":"levelo://app?vid=4ab8d0b4-1d48-41de-853a-04631248b142","ios":"levelo://app?vid=4ab8d0b4-1d48-41de-853a-04631248b142"},"vehicle_type_id":"4","last_reported":1712516679,"current_range_meters":1600,"station_id":"","pricing_plan_id":"cebpf4jnsgd1na2vs0mg"},{"bike_id":"4ca2b285-8d76-4cef-ba16-2d7aa01bb4c2","system_id":"levelo_inurba_marseille","lat":43.290995,"lon":5.381361,"is_reserved":false,"is_disabled":false,"rental_uris":{"android":"levelo://app?vid=4ca2b285-8d76-4cef-ba16-2d7aa01bb4c2","ios":"levelo://app?vid=4ca2b285-8d76-4cef-ba16-2d7aa01bb4c2"},"vehicle_type_id":"4","last_reported":1712516679,"current_range_meters":3600,"station_id":"ce4bh512rcd13ifvqe2g","pricing_plan_id":"cebpf4jnsgd1na2vs0mg"},{"bike_id":"0157ebce-3426-4bac-8f90-5ab4e6bde2c6","system_id":"levelo_inurba_marseille","lat":43.290995,"lon":5.381361,"is_reserved":false,"is_disabled":false,"rental_uris":{"android":"levelo://app?vid=0157ebce-3426-4bac-8f90-5ab4e6bde2c6","ios":"levelo://app?vid=0157ebce-3426-4bac-8f90-5ab4e6bde2c6"},"vehicle_type_id":"4","last_reported":1712516679,"current_range_meters":800,"station_id":"ce4bh512rcd13ifvqe2g","pricing_plan_id":"cebpf4jnsgd1na2vs0mg"},{"bike_id":"b70d9111-51ea-4075-85ac-7ab41a91236e","system_id":"levelo_inurba_marseille","lat":43.290995,"lon":5.381361,"is_reserved":false,"is_disabled":false,"rental_uris":{"android":"levelo://app?vid=b70d9111-51ea-4075-85ac-7ab41a91236e","ios":"levelo://app?vid=b70d9111-51ea-4075-85ac-7ab41a91236e"},"vehicle_type_id":"4","last_reported":1712516679,"current_range_meters":2800,"station_id":"ce4bh512rcd13ifvqe2g","pricing_plan_id":"cebpf4jnsgd1na2vs0mg"},{"bike_id":"df810ce4-7b39-4808-89ce-2671fbded497","system_id":"levelo_inurba_marseille","lat":43.290995,"lon":5.381361,"is_reserved":false,"is_disabled":false,"rental_uris":{"android":"levelo://app?vid=df810ce4-7b39-4808-89ce-2671fbded497","ios":"levelo://app?vid=df810ce4-7b39-4808-89ce-2671fbded497"},"vehicle_type_id":"4","last_reported":1712516679,"current_range_meters":23600,"station_id":"ce4bh512rcd13ifvqe2g","pricing_plan_id":"cebpf4jnsgd1na2vs0mg"},{"bike_id":"86606341-d633-4fe5-beb7-83cade1d81bd","system_id":"levelo_inurba_marseille","lat":43.290995,"lon":5.381361,"is_reserved":false,"is_disabled":false,"rental_uris":{"android":"levelo://app?vid=86606341-d633-4fe5-beb7-83cade1d81bd","ios":"levelo://app?vid=86606341-d633-4fe5-beb7-83cade1d81bd"},"vehicle_type_id":"4","last_reported":1712516679,"current_range_meters":20000,"station_id":"ce4bh512rcd13ifvqe2g","pricing_plan_id":"cebpf4jnsgd1na2vs0mg"},{"bike_id":"c4e31178-5215-49e6-8df2-9c98ed193361","system_id":"levelo_inurba_marseille","lat":43.290995,"lon":5.381361,"is_reserved":false,"is_disabled":false,"rental_uris":{"android":"levelo://app?vid=c4e31178-5215-49e6-8df2-9c98ed193361","ios":"levelo://app?vid=c4e31178-5215-49e6-8df2-9c98ed193361"},"vehicle_type_id":"4","last_reported":1712516679,"current_range_meters":18800,"station_id":"ce4bh512rcd13ifvqe2g","pricing_plan_id":"cebpf4jnsgd1na2vs0mg"},{"bike_id":"8b6c2cfb-d24e-43a8-8a26-01b64a9daaad","system_id":"levelo_inurba_marseille","lat":43.297932,"lon":5.393378,"is_reserved":false,"is_disabled":false,"rental_uris":{"android":"levelo://app?vid=8b6c2cfb-d24e-43a8-8a26-01b64a9daaad","ios":"levelo://app?vid=8b6c2cfb-d24e-43a8-8a26-01b64a9daaad"},"vehicle_type_id":"4","last_reported":1712516679,"current_range_meters":8800,"station_id":"chh1huq6cuj3fo74tm60","pricing_plan_id":"cebpf4jnsgd1na2vs0mg"},{"bike_id":"1a7340d2-462f-4507-9a45-9bb32391c594","system_id":"levelo_inurba_marseille","lat":43.297815,"lon":5.393548,"is_reserved":false,"is_disabled":false,"rental_uris":{"android":"levelo://app?vid=1a7340d2-462f-4507-9a45-9bb32391c594","ios":"levelo://app?vid=1a7340d2-462f-4507-9a45-9bb32391c594"},"vehicle_type_id":"4","last_reported":1712516679,"current_range_meters":1600,"station_id":"chh1huq6cuj3fo74tm60","pricing_plan_id":"cebpf4jnsgd1na2vs0mg"},{"bike_id":"75d254be-ca6a-41f1-accd-58c69a214a9f","system_id":"levelo_inurba_marseille","lat":43.297815,"lon":5.393548,"is_reserved":false,"is_disabled":false,"rental_uris":{"android":"levelo://app?vid=75d254be-ca6a-41f1-accd-58c69a214a9f","ios":"levelo://app?vid=75d254be-ca6a-41f1-accd-58c69a214a9f"},"vehicle_type_id":"4","last_reported":1712516679,"current_range_meters":10800,"station_id":"chh1huq6cuj3fo74tm60","pricing_plan_id":"cebpf4jnsgd1na2vs0mg"},{"bike_id":"a2eb5d9d-33cf-49eb-9014-195982519b79","system_id":"levelo_inurba_marseille","lat":43.297815,"lon":5.393548,"is_reserved":false,"is_disabled":false,"rental_uris":{"android":"levelo://app?vid=a2eb5d9d-33cf-49eb-9014-195982519b79","ios":"levelo://app?vid=a2eb5d9d-33cf-49eb-9014-195982519b79"},"vehicle_type_id":"4","last_reported":1712516679,"current_range_meters":7600,"station_id":"chh1huq6cuj3fo74tm60","pricing_plan_id":"cebpf4jnsgd1na2vs0mg"},{"bike_id":"821e2a14-b527-499a-847c-4116003ddc4c","system_id":"levelo_inurba_marseille","lat":43.289832,"lon":5.378326,"is_reserved":false,"is_disabled":false,"rental_uris":{"android":"levelo://app?vid=821e2a14-b527-499a-847c-4116003ddc4c","ios":"levelo://app?vid=821e2a14-b527-499a-847c-4116003ddc4c"},"vehicle_type_id":"4","last_reported":1712516679,"current_range_meters":0,"station_id":"ce4bh9p2rcd13ifvqed0","pricing_plan_id":"cebpf4jnsgd1na2vs0mg"},{"bike_id":"aebf9b9e-c62f-4bd6-84d0-d31f86f56751","system_id":"levelo_inurba_marseille","lat":43.330442,"lon":5.389148,"is_reserved":false,"is_disabled":false,"rental_uris":{"android":"levelo://app?vid=aebf9b9e-c62f-4bd6-84d0-d31f86f56751","ios":"levelo://app?vid=aebf9b9e-c62f-4bd6-84d0-d31f86f56751"},"vehicle_type_id":"4","last_reported":1712516679,"current_range_meters":15200,"station_id":"ce4bhr92rcd13ifvqhrg","pricing_plan_id":"cebpf4jnsgd1na2vs0mg"},{"bike_id":"d4d0372a-0df3-4a8a-9440-71b7888152a7","system_id":"levelo_inurba_marseille","lat":43.295169,"lon":5.390426,"is_reserved":false,"is_disabled":false,"rental_uris":{"android":"levelo://app?vid=d4d0372a-0df3-4a8a-9440-71b7888152a7","ios":"levelo://app?vid=d4d0372a-0df3-4a8a-9440-71b7888152a7"},"vehicle_type_id":"4","last_reported":1712516679,"current_range_meters":0,"station_id":"ce4bh3p2rcd13ifvqdp0","pricing_plan_id":"cebpf4jnsgd1na2vs0mg"},{"bike_id":"ef8fbb21-ff35-4639-aa40-e15c55d5e3ff","system_id":"levelo_inurba_marseille","lat":43.295169,"lon":5.390426,"is_reserved":false,"is_disabled":false,"rental_uris":{"android":"levelo://app?vid=ef8fbb21-ff35-4639-aa40-e15c55d5e3ff","ios":"levelo://app?vid=ef8fbb21-ff35-4639-aa40-e15c55d5e3ff"},"vehicle_type_id":"4","last_reported":1712516679,"current_range_meters":2400,"station_id":"ce4bh3p2rcd13ifvqdp0","pricing_plan_id":"cebpf4jnsgd1na2vs0mg"},{"bike_id":"6502e17e-db13-4705-b23a-f265fd014e9c","system_id":"levelo_inurba_marseille","lat":43.295169,"lon":5.390426,"is_reserved":false,"is_disabled":false,"rental_uris":{"android":"levelo://app?vid=6502e17e-db13-4705-b23a-f265fd014e9c","ios":"levelo://app?vid=6502e17e-db13-4705-b23a-f265fd014e9c"},"vehicle_type_id":"4","last_reported":1712516679,"current_range_meters":5600,"station_id":"ce4bh3p2rcd13ifvqdp0","pricing_plan_id":"cebpf4jnsgd1na2vs0mg"},{"bike_id":"052ab518-a7af-4d11-94b7-144c1f770edf","system_id":"levelo_inurba_marseille","lat":43.330442,"lon":5.389148,"is_reserved":false,"is_disabled":false,"rental_uris":{"android":"levelo://app?vid=052ab518-a7af-4d11-94b7-144c1f770edf","ios":"levelo://app?vid=052ab518-a7af-4d11-94b7-144c1f770edf"},"vehicle_type_id":"4","last_reported":1712516679,"current_range_meters":18400,"station_id":"ce4bhr92rcd13ifvqhrg","pricing_plan_id":"cebpf4jnsgd1na2vs0mg"},{"bike_id":"b50c0c44-d84f-4964-bea0-f029937a5864","system_id":"levelo_inurba_marseille","lat":43.330267,"lon":5.390463,"is_reserved":false,"is_disabled":false,"rental_uris":{"android":"levelo://app?vid=b50c0c44-d84f-4964-bea0-f029937a5864","ios":"levelo://app?vid=b50c0c44-d84f-4964-bea0-f029937a5864"},"vehicle_type_id":"4","last_reported":1712516679,"current_range_meters":14400,"station_id":"ce4bhr92rcd13ifvqhrg","pricing_plan_id":"cebpf4jnsgd1na2vs0mg"},{"bike_id":"1dce9aa1-5232-4b74-8ce2-5f74a5bbde23","system_id":"levelo_inurba_marseille","lat":43.33113,"lon":5.38923,"is_reserved":false,"is_disabled":false,"rental_uris":{"android":"levelo://app?vid=1dce9aa1-5232-4b74-8ce2-5f74a5bbde23","ios":"levelo://app?vid=1dce9aa1-5232-4b74-8ce2-5f74a5bbde23"},"vehicle_type_id":"4","last_reported":1712516679,"current_range_meters":12400,"station_id":"","pricing_plan_id":"cebpf4jnsgd1na2vs0mg"},{"bike_id":"2ea7e251-335e-42e7-b2a6-90a80abb9a73","system_id":"levelo_inurba_marseille","lat":43.295169,"lon":5.390426,"is_reserved":false,"is_disabled":false,"rental_uris":{"android":"levelo://app?vid=2ea7e251-335e-42e7-b2a6-90a80abb9a73","ios":"levelo://app?vid=2ea7e251-335e-42e7-b2a6-90a80abb9a73"},"vehicle_type_id":"4","last_reported":1712516679,"current_range_meters":14800,"station_id":"ce4bh3p2rcd13ifvqdp0","pricing_plan_id":"cebpf4jnsgd1na2vs0mg"},{"bike_id":"fddb7ca2-5f29-4f1e-95e1-a4da6f943528","system_id":"levelo_inurba_marseille","lat":43.295169,"lon":5.390426,"is_reserved":false,"is_disabled":false,"rental_uris":{"android":"levelo://app?vid=fddb7ca2-5f29-4f1e-95e1-a4da6f943528","ios":"levelo://app?vid=fddb7ca2-5f29-4f1e-95e1-a4da6f943528"},"vehicle_type_id":"4","last_reported":1712516679,"current_range_meters":1200,"station_id":"ce4bh3p2rcd13ifvqdp0","pricing_plan_id":"cebpf4jnsgd1na2vs0mg"},{"bike_id":"793aa4c0-bd3b-46d0-bf53-f4cc4fcda9c7","system_id":"levelo_inurba_marseille","lat":43.2901,"lon":5.381269,"is_reserved":false,"is_disabled":false,"rental_uris":{"android":"levelo://app?vid=793aa4c0-bd3b-46d0-bf53-f4cc4fcda9c7","ios":"levelo://app?vid=793aa4c0-bd3b-46d0-bf53-f4cc4fcda9c7"},"vehicle_type_id":"4","last_reported":1712516679,"current_range_meters":10400,"station_id":"ce4bh4p2rcd13ifvqe1g","pricing_plan_id":"cebpf4jnsgd1na2vs0mg"},{"bike_id":"f7a81b16-84c9-4789-a319-8d3149ab2668","system_id":"levelo_inurba_marseille","lat":43.2901,"lon":5.381269,"is_reserved":false,"is_disabled":false,"rental_uris":{"android":"levelo://app?vid=f7a81b16-84c9-4789-a319-8d3149ab2668","ios":"levelo://app?vid=f7a81b16-84c9-4789-a319-8d3149ab2668"},"vehicle_type_id":"4","last_reported":1712516679,"current_range_meters":0,"station_id":"ce4bh4p2rcd13ifvqe1g","pricing_plan_id":"cebpf4jnsgd1na2vs0mg"},{"bike_id":"e3a2f869-d6d2-4231-b0ce-f2800d0accb4","system_id":"levelo_inurba_marseille","lat":43.2901,"lon":5.381269,"is_reserved":false,"is_disabled":false,"rental_uris":{"android":"levelo://app?vid=e3a2f869-d6d2-4231-b0ce-f2800d0accb4","ios":"levelo://app?vid=e3a2f869-d6d2-4231-b0ce-f2800d0accb4"},"vehicle_type_id":"4","last_reported":1712516679,"current_range_meters":4000,"station_id":"ce4bh4p2rcd13ifvqe1g","pricing_plan_id":"cebpf4jnsgd1na2vs0mg"},{"bike_id":"26f4f080-cf7c-4f53-96c7-688c8ec1b178","system_id":"levelo_inurba_marseille","lat":43.290094,"lon":5.381264,"is_reserved":false,"is_disabled":false,"rental_uris":{"android":"levelo://app?vid=26f4f080-cf7c-4f53-96c7-688c8ec1b178","ios":"levelo://app?vid=26f4f080-cf7c-4f53-96c7-688c8ec1b178"},"vehicle_type_id":"4","last_reported":1712516679,"current_range_meters":5600,"station_id":"ce4bh4p2rcd13ifvqe1g","pricing_plan_id":"cebpf4jnsgd1na2vs0mg"},{"bike_id":"fc72ad61-2a96-4d47-a616-a41c9ea1c212","system_id":"levelo_inurba_marseille","lat":43.2901,"lon":5.381269,"is_reserved":false,"is_disabled":false,"rental_uris":{"android":"levelo://app?vid=fc72ad61-2a96-4d47-a616-a41c9ea1c212","ios":"levelo://app?vid=fc72ad61-2a96-4d47-a616-a41c9ea1c212"},"vehicle_type_id":"4","last_reported":1712516679,"current_range_meters":5600,"station_id":"ce4bh4p2rcd13ifvqe1g","pricing_plan_id":"cebpf4jnsgd1na2vs0mg"},{"bike_id":"11d30a27-b21a-430d-bc8f-72a0ba4daa18","system_id":"levelo_inurba_marseille","lat":43.28851,"lon":5.35847,"is_reserved":false,"is_disabled":false,"rental_uris":{"android":"levelo://app?vid=11d30a27-b21a-430d-bc8f-72a0ba4daa18","ios":"levelo://app?vid=11d30a27-b21a-430d-bc8f-72a0ba4daa18"},"vehicle_type_id":"4","last_reported":1712516679,"current_range_meters":0,"station_id":"ce4bhb12rcd13ifvqem0","pricing_plan_id":"cebpf4jnsgd1na2vs0mg"},{"bike_id":"9d8fd43b-8efe-4b42-a8e0-303cf2582750","system_id":"levelo_inurba_marseille","lat":43.28856,"lon":5.358371,"is_reserved":false,"is_disabled":false,"rental_uris":{"android":"levelo://app?vid=9d8fd43b-8efe-4b42-a8e0-303cf2582750","ios":"levelo://app?vid=9d8fd43b-8efe-4b42-a8e0-303cf2582750"},"vehicle_type_id":"4","last_reported":1712516679,"current_range_meters":0,"station_id":"ce4bhb12rcd13ifvqem0","pricing_plan_id":"cebpf4jnsgd1na2vs0mg"},{"bike_id":"cd2bc0c5-a3b7-4f36-818c-bf5eb2f6b25e","system_id":"levelo_inurba_marseille","lat":43.28856,"lon":5.358371,"is_reserved":false,"is_disabled":false,"rental_uris":{"android":"levelo://app?vid=cd2bc0c5-a3b7-4f36-818c-bf5eb2f6b25e","ios":"levelo://app?vid=cd2bc0c5-a3b7-4f36-818c-bf5eb2f6b25e"},"vehicle_type_id":"4","last_reported":1712516679,"current_range_meters":0,"station_id":"ce4bhb12rcd13ifvqem0","pricing_plan_id":"cebpf4jnsgd1na2vs0mg"},{"bike_id":"78465f25-38e8-4eb3-a999-06c295b9bd1f","system_id":"levelo_inurba_marseille","lat":43.28856,"lon":5.358371,"is_reserved":false,"is_disabled":false,"rental_uris":{"android":"levelo://app?vid=78465f25-38e8-4eb3-a999-06c295b9bd1f","ios":"levelo://app?vid=78465f25-38e8-4eb3-a999-06c295b9bd1f"},"vehicle_type_id":"4","last_reported":1712516679,"current_range_meters":0,"station_id":"ce4bhb12rcd13ifvqem0","pricing_plan_id":"cebpf4jnsgd1na2vs0mg"},