{"last_updated":1741792233,"ttl":60,"version":"2.2","data":{"bikes":[{"bike_id":"cecf7de5-45c9-4ebf-850b-610a22ac0c94","system_id":"levelo_inurba_marseille","lat":43.3064,"lon":5.37404,"is_reserved":false,"is_disabled":false,"rental_uris":{"android":"levelo://app?vid=cecf7de5-45c9-4ebf-850b-610a22ac0c94","ios":"levelo://app?vid=cecf7de5-45c9-4ebf-850b-610a22ac0c94"},"vehicle_type_id":"4","last_reported":1741792234,"current_range_meters":2800,"station_id":"ce4bgt12rcd13ifvqce0","pricing_plan_id":"cebpf4jnsgd1na2vs0mg"},{"bike_id":"9028ee65-c38c-4869-907a-bbc5885e9ef4","system_id":"levelo_inurba_marseille","lat":43.26436,"lon":5.40646,"is_reserved":false,"is_disabled":false,"rental_uris":{"android":"levelo://app?vid=9028ee65-c38c-4869-907a-bbc5885e9ef4","ios":"levelo://app?vid=9028ee65-c38c-4869-907a-bbc5885e9ef4"},"vehicle_type_id":"4","last_reported":1741792234,"current_range_meters":2800,"station_id":"","pricing_plan_id":"cebpf4jnsgd1na2vs0mg"},{"bike_id":"4c084d6f-cfb2-47a5-9650-69125ccb442e","system_id":"levelo_inurba_marseille","lat":43.26196,"lon":5.37941,"is_reserved":false,"is_disabled":false,"rental_uris":{"android":"levelo://app?vid=4c084d6f-cfb2-47a5-9650-69125ccb442e","ios":"levelo://app?vid=4c084d6f-cfb2-47a5-9650-69125ccb442e"},"vehicle_type_id":"4","last_reported":1741792234,"current_range_meters":3600,"station_id":"ce4bhjp2rcd13ifvqg90","pricing_plan_id":"cebpf4jnsgd1na2vs0mg"},{"bike_id":"a23b446f-cae6-4e2a-9d84-a3047c3d3e93","system_id":"levelo_inurba_marseille","lat":43.28617,"lon":5.35107,"is_reserved":false,"is_disabled":false,"rental_uris":{"android":"levelo://app?vid=a23b446f-cae6-4e2a-9d84-a3047c3d3e93","ios":"levelo://app?vid=a23b446f-cae6-4e2a-9d84-a3047c3d3e93"},"vehicle_type_id":"4","last_reported":1741792234,"current_range_meters":3600,"station_id":"ce4bhch2rcd13ifvqeug","pricing_plan_id":"cebpf4jnsgd1na2vs0mg"},{"bike_id":"4184e111-9c78-4a5b-acf6-e6023a3e17a9","system_id":"levelo_inurba_marseille","lat":43.23063,"lon":5.355,"is_reserved":false,"is_disabled":false,"rental_uris":{"android":"levelo://app?vid=4184e111-9c78-4a5b-acf6-e6023a3e17a9","ios":"levelo://app?vid=4184e111-9c78-4a5b-acf6-e6023a3e17a9"},"vehicle_type_id":"4","last_reported":1741792234,"current_range_meters":3600,"station_id":"cpo3342slgdg3j2ifvpg","pricing_plan_id":"cebpf4jnsgd1na2vs0mg"},{"bike_id":"83d84814-a7a1-4075-9303-4f8b392ccc99","system_id":"levelo_inurba_marseille","lat":43.29905,"lon":5.38142,"is_reserved":false,"is_disabled":false,"rental_uris":{"android":"levelo://app?vid=83d84814-a7a1-4075-9303-4f8b392ccc99","ios":"levelo://app?vid=83d84814-a7a1-4075-9303-4f8b392ccc99"},"vehicle_type_id":"4","last_reported":1741792234,"current_range_meters":3600,"station_id":"ce4bgj12rcd13ifvqbc0","pricing_plan_id":"cebpf4jnsgd1na2vs0mg"},{"bike_id":"dfd64f3b-4b50-416f-8e7e-398e089b0d37","system_id":"levelo_inurba_marseille","lat":43.30431,"lon":5.38891,"is_reserved":false,"is_disabled":false,"rental_uris":{"android":"levelo://app?vid=dfd64f3b-4b50-416f-8e7e-398e089b0d37","ios":"levelo://app?vid=dfd64f3b-4b50-416f-8e7e-398e089b0d37"},"vehicle_type_id":"4","last_reported":1741792234,"current_range_meters":3600,"station_id":"ce4bgk12rcd13ifvqbi0","pricing_plan_id":"cebpf4jnsgd1na2vs0mg"},{"bike_id":"d3acab28-3125-4afa-b5eb-02e807f46858","system_id":"levelo_inurba_marseille","lat":43.24184,"lon":5.39727,"is_reserved":false,"is_disabled":false,"rental_uris":{"android":"levelo://app?vid=d3acab28-3125-4afa-b5eb-02e807f46858","ios":"levelo://app?vid=d3acab28-3125-4afa-b5eb-02e807f46858"},"vehicle_type_id":"4","last_reported":1741792234,"current_range_meters":4000,"station_id":"ce4bhn12rcd13ifvqgpg","pricing_plan_id":"cebpf4jnsgd1na2vs0mg"},{"bike_id":"bf2feb02-4272-4476-92f9-9420844c4078","system_id":"levelo_inurba_marseille","lat":43.31206,"lon":5.37664,"is_reserved":false,"is_disabled":false,"rental_uris":{"android":"levelo://app?vid=bf2feb02-4272-4476-92f9-9420844c4078","ios":"levelo://app?vid=bf2feb02-4272-4476-92f9-9420844c4078"},"vehicle_type_id":"4","last_reported":1741792234,"current_range_meters":4000,"station_id":"","pricing_plan_id":"cebpf4jnsgd1na2vs0mg"},{"bike_id":"a7990d78-4fe5-404e-84c7-60db101ae944","system_id":"levelo_inurba_marseille","lat":43.31485,"lon":5.37318,"is_reserved":false,"is_disabled":false,"rental_uris":{"android":"levelo://app?vid=a7990d78-4fe5-404e-84c7-60db101ae944","ios":"levelo://app?vid=a7990d78-4fe5-404e-84c7-60db101ae944"},"vehicle_type_id":"4","last_reported":1741792234,"current_range_meters":4000,"station_id":"ce4bgt12rcd13ifvqcd0","pricing_plan_id":"cebpf4jnsgd1na2vs0mg"},{"bike_id":"8d9518e5-0926-4b9e-abac-8af637e92076","system_id":"levelo_inurba_marseille","lat":43.32492,"lon":5.36523,"is_reserved":false,"is_disabled":false,"rental_uris":{"android":"levelo://app?vid=8d9518e5-0926-4b9e-abac-8af637e92076","ios":"levelo://app?vid=8d9518e5-0926-4b9e-abac-8af637e92076"},"vehicle_type_id":"4","last_reported":1741792234,"current_range_meters":4400,"station_id":"ce4bhs12rcd13ifvqhvg","pricing_plan_id":"cebpf4jnsgd1na2vs0mg"},{"bike_id":"8d148f9c-d435-4123-bd0e-8d7ebd73846f","system_id":"levelo_inurba_marseille","lat":43.27047,"lon":5.40271,"is_reserved":false,"is_disabled":true,"rental_uris":{"android":"levelo://app?vid=8d148f9c-d435-4123-bd0e-8d7ebd73846f","ios":"levelo://app?vid=8d148f9c-d435-4123-bd0e-8d7ebd73846f"},"vehicle_type_id":"4","last_reported":1741792234,"current_range_meters":4400,"station_id":"ce4bhk92rcd13ifvqgc0","pricing_plan_id":"cebpf4jnsgd1na2vs0mg"},{"bike_id":"6b8312c7-cfe6-4477-bc19-d573471deb45","system_id":"levelo_inurba_marseille","lat":43.29003,"lon":5.35612,"is_reserved":false,"is_disabled":false,"rental_uris":{"android":"levelo://app?vid=6b8312c7-cfe6-4477-bc19-d573471deb45","ios":"levelo://app?vid=6b8312c7-cfe6-4477-bc19-d573471deb45"},"vehicle_type_id":"4","last_reported":1741792234,"current_range_meters":4800,"station_id":"ce4bhb92rcd13ifvqen0","pricing_plan_id":"cebpf4jnsgd1na2vs0mg"},{"bike_id":"383b7eae-874e-4175-8b66-c80c9881e04f","system_id":"levelo_inurba_marseille","lat":43.27308,"lon":5.39109,"is_reserved":false,"is_disabled":false,"rental_uris":{"android":"levelo://app?vid=383b7eae-874e-4175-8b66-c80c9881e04f","ios":"levelo://app?vid=383b7eae-874e-4175-8b66-c80c9881e04f"},"vehicle_type_id":"4","last_reported":1741792234,"current_range_meters":4800,"station_id":"ce4bhgp2rcd13ifvqfe0","pricing_plan_id":"cebpf4jnsgd1na2vs0mg"},{"bike_id":"45d8d7b0-29eb-4eaf-9ec9-00efd0738f1e","system_id":"levelo_inurba_marseille","lat":43.31231,"lon":5.37473,"is_reserved":false,"is_disabled":false,"rental_uris":{"android":"levelo://app?vid=45d8d7b0-29eb-4eaf-9ec9-00efd0738f1e","ios":"levelo://app?vid=45d8d7b0-29eb-4eaf-9ec9-00efd0738f1e"},"vehicle_type_id":"4","last_reported":1741792234,"current_range_meters":4800,"station_id":"","pricing_plan_id":"cebpf4jnsgd1na2vs0mg"},{"bike_id":"80771939-f406-42f7-81c5-33180fd8a338","system_id":"levelo_inurba_marseille","lat":43.23191,"lon":5.3556,"is_reserved":false,"is_disabled":false,"rental_uris":{"android":"levelo://app?vid=80771939-f406-42f7-81c5-33180fd8a338","ios":"levelo://app?vid=80771939-f406-42f7-81c5-33180fd8a338"},"vehicle_type_id":"4","last_reported":1741792234,"current_range_meters":4800,"station_id":"ce4bhu92rcd13ifvqi70","pricing_plan_id":"cebpf4jnsgd1na2vs0mg"},{"bike_id":"b890d7e0-d7ec-4dc1-8056-8c46ea0711be","system_id":"levelo_inurba_marseille","lat":43.2499,"lon":5.38968,"is_reserved":false,"is_disabled":false,"rental_uris":{"android":"levelo://app?vid=b890d7e0-d7ec-4dc1-8056-8c46ea0711be","ios":"levelo://app?vid=b890d7e0-d7ec-4dc1-8056-8c46ea0711be"},"vehicle_type_id":"4","last_reported":1741792234,"current_range_meters":5600,"station_id":"ce4bhgp2rcd13ifvqfd0","pricing_plan_id":"cebpf4jnsgd1na2vs0mg"},{"bike_id":"a4551c1c-11df-4b63-9067-6e042bdd895d","system_id":"levelo_inurba_marseille","lat":43.29038,"lon":5.39965,"is_reserved":false,"is_disabled":false,"rental_uris":{"android":"levelo://app?vid=a4551c1c-11df-4b63-9067-6e042bdd895d","ios":"levelo://app?vid=a4551c1c-11df-4b63-9067-6e042bdd895d"},"vehicle_type_id":"4","last_reported":1741792234,"current_range_meters":5600,"station_id":"ce4bh392rcd13ifvqdm0","pricing_plan_id":"cebpf4jnsgd1na2vs0mg"},{"bike_id":"b84584ef-f56c-4f11-85be-74be4f089773","system_id":"levelo_inurba_marseille","lat":43.29777,"lon":5.38104,"is_reserved":false,"is_disabled":false,"rental_uris":{"android":"levelo://app?vid=b84584ef-f56c-4f11-85be-74be4f089773","ios":"levelo://app?vid=b84584ef-f56c-4f11-85be-74be4f089773"},"vehicle_type_id":"4","last_reported":1741792234,"current_range_meters":5600,"station_id":"ce4bgip2rcd13ifvqbb0","pricing_plan_id":"cebpf4jnsgd1na2vs0mg"},{"bike_id":"fee6bda6-5edd-46a3-bc37-3a31d2e098c1","system_id":"levelo_inurba_marseille","lat":43.29708,"lon":5.37704,"is_reserved":false,"is_disabled":false,"rental_uris":{"android":"levelo://app?vid=fee6bda6-5edd-46a3-bc37-3a31d2e098c1","ios":"levelo://app?vid=fee6bda6-5edd-46a3-bc37-3a31d2e098c1"},"vehicle_type_id":"4","last_reported":1741792234,"current_range_meters":5600,"station_id":"ce4bgkh2rcd13ifvqbl0","pricing_plan_id":"cebpf4jnsgd1na2vs0mg"},{"bike_id":"1de9ef57-3e6f-4491-829e-e3f539c47e2e","system_id":"levelo_inurba_marseille","lat":43.31086,"lon":5.42429,"is_reserved":false,"is_disabled":false,"rental_uris":{"android":"levelo://app?vid=1de9ef57-3e6f-4491-829e-e3f539c47e2e","ios":"levelo://app?vid=1de9ef57-3e6f-4491-829e-e3f539c47e2e"},"vehicle_type_id":"4","last_reported":1741792234,"current_range_meters":5600,"station_id":"ce4bhp92rcd13ifvqhag","pricing_plan_id":"cebpf4jnsgd1na2vs0mg"},{"bike_id":"5306ec9b-7d18-40ea-b5f1-c22f1084b126","system_id":"levelo_inurba_marseille","lat":43.28366,"lon":5.3863,"is_reserved":false,"is_disabled":false,"rental_uris":{"android":"levelo://app?vid=5306ec9b-7d18-40ea-b5f1-c22f1084b126","ios":"levelo://app?vid=5306ec9b-7d18-40ea-b5f1-c22f1084b126"},"vehicle_type_id":"4","last_reported":1741792234,"current_range_meters":5600,"station_id":"ce4bh492rcd13ifvqdvg","pricing_plan_id":"cebpf4jnsgd1na2vs0mg"},{"bike_id":"933d480e-f33c-451a-959c-e67b34249b86","system_id":"levelo_inurba_marseille","lat":43.30328,"lon":5.40433,"is_reserved":false,"is_disabled":false,"rental_uris":{"android":"levelo://app?vid=933d480e-f33c-451a-959c-e67b34249b86","ios":"levelo://app?vid=933d480e-f33c-451a-959c-e67b34249b86"},"vehicle_type_id":"4","last_reported":1741792234,"current_range_meters":5600,"station_id":"ce4bh012rcd13ifvqd10","pricing_plan_id":"cebpf4jnsgd1na2vs0mg"},{"bike_id":"32720a95-6d9e-4cb7-b289-80bd3cd93493","system_id":"levelo_inurba_marseille","lat":43.29931,"lon":5.36539,"is_reserved":false,"is_disabled":false,"rental_uris":{"android":"levelo://app?vid=32720a95-6d9e-4cb7-b289-80bd3cd93493","ios":"levelo://app?vid=32720a95-6d9e-4cb7-b289-80bd3cd93493"},"vehicle_type_id":"4","last_reported":1741792234,"current_range_meters":5600,"station_id":"ce4bgm92rcd13ifvqbr0","pricing_plan_id":"cebpf4jnsgd1na2vs0mg"},{"bike_id":"801b009f-4d7f-4c32-bdc9-b61b66718f9b","system_id":"levelo_inurba_marseille","lat":43.26554,"lon":5.37314,"is_reserved":false,"is_disabled":false,"rental_uris":{"android":"levelo://app?vid=801b009f-4d7f-4c32-bdc9-b61b66718f9b","ios":"levelo://app?vid=801b009f-4d7f-4c32-bdc9-b61b66718f9b"},"vehicle_type_id":"4","last_reported":1741792234,"current_range_meters":6000,"station_id":"ce4bhg12rcd13ifvqf70","pricing_plan_id":"cebpf4jnsgd1na2vs0mg"},{"bike_id":"977d9715-042a-4e9a-b947-b55d8efc51ad","system_id":"levelo_inurba_marseille","lat":43.30881,"lon":5.39646,"is_reserved":false,"is_disabled":false,"rental_uris":{"android":"levelo://app?vid=977d9715-042a-4e9a-b947-b55d8efc51ad","ios":"levelo://app?vid=977d9715-042a-4e9a-b947-b55d8efc51ad"},"vehicle_type_id":"4","last_reported":1741792234,"current_range_meters":6000,"station_id":"ce4bh012rcd13ifvqcv0","pricing_plan_id":"cebpf4jnsgd1na2vs0mg"},{"bike_id":"91a6a5a6-7a75-48d7-b26e-b178cbfe6bd8","system_id":"levelo_inurba_marseille","lat":43.305837,"lon":5.372257,"is_reserved":false,"is_disabled":false,"rental_uris":{"android":"levelo://app?vid=91a6a5a6-7a75-48d7-b26e-b178cbfe6bd8","ios":"levelo://app?vid=91a6a5a6-7a75-48d7-b26e-b178cbfe6bd8"},"vehicle_type_id":"4","last_reported":1741792234,"current_range_meters":6000,"station_id":"ce4bgqh2rcd13ifvqc4g","pricing_plan_id":"cebpf4jnsgd1na2vs0mg"},{"bike_id":"cec6458d-2bf5-4cc3-b72a-8930c855e1a8","system_id":"levelo_inurba_marseille","lat":43.31086,"lon":5.42437,"is_reserved":false,"is_disabled":false,"rental_uris":{"android":"levelo://app?vid=cec6458d-2bf5-4cc3-b72a-8930c855e1a8","ios":"levelo://app?vid=cec6458d-2bf5-4cc3-b72a-8930c855e1a8"},"vehicle_type_id":"4","last_reported":1741792234,"current_range_meters":6000,"station_id":"ce4bhp92rcd13ifvqhag","pricing_plan_id":"cebpf4jnsgd1na2vs0mg"},{"bike_id":"2a39b02c-4f6a-4f35-af2e-e9fb7ada9487","system_id":"levelo_inurba_marseille","lat":43.27939,"lon":5.41048,"is_reserved":false,"is_disabled":false,"rental_uris":{"android":"levelo://app?vid=2a39b02c-4f6a-4f35-af2e-e9fb7ada9487","ios":"levelo://app?vid=2a39b02c-4f6a-4f35-af2e-e9fb7ada9487"},"vehicle_type_id":"4","last_reported":1741792234,"current_range_meters":6000,"station_id":"ce4bhnp2rcd13ifvqh0g","pricing_plan_id":"cebpf4jnsgd1na2vs0mg"},{"bike_id":"b8bbcb46-f4ca-4327-b70b-0ac12ba7fbf9","system_id":"levelo_inurba_marseille","lat":43.29573,"lon":5.42249,"is_reserved":false,"is_disabled":false,"rental_uris":{"android":"levelo://app?vid=b8bbcb46-f4ca-4327-b70b-0ac12ba7fbf9","ios":"levelo://app?vid=b8bbcb46-f4ca-4327-b70b-0ac12ba7fbf9"},"vehicle_type_id":"4","last_reported":1741792234,"current_range_meters":6000,"station_id":"ce4bhph2rcd13ifvqhdg","pricing_plan_id":"cebpf4jnsgd1na2vs0mg"},{"bike_id":"95c4f609-4057-4688-9b5c-93c1039e1099","system_id":"levelo_inurba_marseille","lat":43.24547,"lon":5.39532,"is_reserved":false,"is_disabled":false,"rental_uris":{"android":"levelo://app?vid=95c4f609-4057-4688-9b5c-93c1039e1099","ios":"levelo://app?vid=95c4f609-4057-4688-9b5c-93c1039e1099"},"vehicle_type_id":"4","last_reported":1741792234,"current_range_meters":6000,"station_id":"ce4bhlp2rcd13ifvqgjg","pricing_plan_id":"cebpf4jnsgd1na2vs0mg"},{"bike_id":"fe3b457f-ea23-4d43-8c12-10e97eda6e46","system_id":"levelo_inurba_marseille","lat":43.29198,"lon":5.35812,"is_reserved":false,"is_disabled":false,"rental_uris":{"android":"levelo://app?vid=fe3b457f-ea23-4d43-8c12-10e97eda6e46","ios":"levelo://app?vid=fe3b457f-ea23-4d43-8c12-10e97eda6e46"},"vehicle_type_id":"4","last_reported":1741792234,"current_range_meters":6000,"station_id":"ce4bhb12rcd13ifvqel0","pricing_plan_id":"cebpf4jnsgd1na2vs0mg"},{"bike_id":"4db736b9-68d3-4f2a-9431-002ce7a44183","system_id":"levelo_inurba_marseille","lat":43.23163,"lon":5.43703,"is_reserved":false,"is_disabled":false,"rental_uris":{"android":"levelo://app?vid=4db736b9-68d3-4f2a-9431-002ce7a44183","ios":"levelo://app?vid=4db736b9-68d3-4f2a-9431-002ce7a44183"},"vehicle_type_id":"4","last_reported":1741792234,"current_range_meters":6000,"station_id":"ce4bhmp2rcd13ifvqgog","pricing_plan_id":"cebpf4jnsgd1na2vs0mg"},{"bike_id":"7897ed63-4f21-4db4-b932-6ec1073d9ede","system_id":"levelo_inurba_marseille","lat":43.25004,"lon":5.3894,"is_reserved":false,"is_disabled":false,"rental_uris":{"android":"levelo://app?vid=7897ed63-4f21-4db4-b932-6ec1073d9ede","ios":"levelo://app?vid=7897ed63-4f21-4db4-b932-6ec1073d9ede"},"vehicle_type_id":"4","last_reported":1741792234,"current_range_meters":6400,"station_id":"ce4bhgp2rcd13ifvqfd0","pricing_plan_id":"cebpf4jnsgd1na2vs0mg"},{"bike_id":"42796d3b-a581-4dc5-af4d-92e4a09ea3d8","system_id":"levelo_inurba_marseille","lat":43.22932,"lon":5.35385,"is_reserved":false,"is_disabled":false,"rental_uris":{"android":"levelo://app?vid=42796d3b-a581-4dc5-af4d-92e4a09ea3d8","ios":"levelo://app?vid=42796d3b-a581-4dc5-af4d-92e4a09ea3d8"},"vehicle_type_id":"4","last_reported":1741792234,"current_range_meters":6400,"station_id":"cpo3532slgdg3j2ikp40","pricing_plan_id":"cebpf4jnsgd1na2vs0mg"},{"bike_id":"7089b3d0-9921-483a-b2cc-ac3c0edfa65f","system_id":"levelo_inurba_marseille","lat":43.26782,"lon":5.39421,"is_reserved":false,"is_disabled":false,"rental_uris":{"android":"levelo://app?vid=7089b3d0-9921-483a-b2cc-ac3c0edfa65f","ios":"levelo://app?vid=7089b3d0-9921-483a-b2cc-ac3c0edfa65f"},"vehicle_type_id":"4","last_reported":1741792234,"current_range_meters":6400,"station_id":"ce4bhh12rcd13ifvqfg0","pricing_plan_id":"cebpf4jnsgd1na2vs0mg"},{"bike_id":"82d2ea7a-8bfe-43da-9d3a-5b44e3fe57c7","system_id":"levelo_inurba_marseille","lat":43.283625,"lon":5.386383,"is_reserved":false,"is_disabled":false,"rental_uris":{"android":"levelo://app?vid=82d2ea7a-8bfe-43da-9d3a-5b44e3fe57c7","ios":"levelo://app?vid=82d2ea7a-8bfe-43da-9d3a-5b44e3fe57c7"},"vehicle_type_id":"4","last_reported":1741792234,"current_range_meters":6400,"station_id":"ce4bh492rcd13ifvqdvg","pricing_plan_id":"cebpf4jnsgd1na2vs0mg"},{"bike_id":"fab5d3a8-c10a-4e69-8360-d850cc9f0881","system_id":"levelo_inurba_marseille","lat":43.331807,"lon":5.394457,"is_reserved":false,"is_disabled":false,"rental_uris":{"android":"levelo://app?vid=fab5d3a8-c10a-4e69-8360-d850cc9f0881","ios":"levelo://app?vid=fab5d3a8-c10a-4e69-8360-d850cc9f0881"},"vehicle_type_id":"4","last_reported":1741792234,"current_range_meters":6400,"station_id":"","pricing_plan_id":"cebpf4jnsgd1na2vs0mg"},{"bike_id":"58d1b5b3-d322-4418-97d0-3066ec3d9afc","system_id":"levelo_inurba_marseille","lat":43.23193,"lon":5.3555,"is_reserved":false,"is_disabled":false,"rental_uris":{"android":"levelo://app?vid=58d1b5b3-d322-4418-97d0-3066ec3d9afc","ios":"levelo://app?vid=58d1b5b3-d322-4418-97d0-3066ec3d9afc"},"vehicle_type_id":"4","last_reported":1741792234,"current_range_meters":6400,"station_id":"ce4bhu92rcd13ifvqi70","pricing_plan_id":"cebpf4jnsgd1na2vs0mg"},{"bike_id":"b9680ac6-d12e-4a12-9dd8-1396db5e067b","system_id":"levelo_inurba_marseille","lat":43.231506,"lon":5.437036,"is_reserved":false,"is_disabled":false,"rental_uris":{"android":"levelo://app?vid=b9680ac6-d12e-4a12-9dd8-1396db5e067b","ios":"levelo://app?vid=b9680ac6-d12e-4a12-9dd8-1396db5e067b"},"vehicle_type_id":"4","last_reported":1741792234,"current_range_meters":6800,"station_id":"ce4bhmp2rcd13ifvqgog","pricing_plan_id":"cebpf4jnsgd1na2vs0mg"},{"bike_id":"d67e44f4-0f0e-4205-996d-874e218d6e55","system_id":"levelo_inurba_marseille","lat":43.29965,"lon":5.37173,"is_reserved":false,"is_disabled":false,"rental_uris":{"android":"levelo://app?vid=d67e44f4-0f0e-4205-996d-874e218d6e55","ios":"levelo://app?vid=d67e44f4-0f0e-4205-996d-874e218d6e55"},"vehicle_type_id":"4","last_reported":1741792234,"current_range_meters":6800,"station_id":"ce4bgr92rcd13ifvqc7g","pricing_plan_id":"cebpf4jnsgd1na2vs0mg"},{"bike_id":"648ea6ea-7633-48fc-9b63-5b6bce596698","system_id":"levelo_inurba_marseille","lat":43.29619,"lon":5.37721,"is_reserved":false,"is_disabled":false,"rental_uris":{"android":"levelo://app?vid=648ea6ea-7633-48fc-9b63-5b6bce596698","ios":"levelo://app?vid=648ea6ea-7633-48fc-9b63-5b6bce596698"},"vehicle_type_id":"4","last_reported":1741792234,"current_range_meters":6800,"station_id":"ce4bgi92rcd13ifvqb90","pricing_plan_id":"cebpf4jnsgd1na2vs0mg"},{"bike_id":"f640465e-8c9e-425a-8e36-08d8d5201bf6","system_id":"levelo_inurba_marseille","lat":43.23194,"lon":5.355478,"is_reserved":false,"is_disabled":false,"rental_uris":{"android":"levelo://app?vid=f640465e-8c9e-425a-8e36-08d8d5201bf6","ios":"levelo://app?vid=f640465e-8c9e-425a-8e36-08d8d5201bf6"},"vehicle_type_id":"4","last_reported":1741792234,"current_range_meters":6800,"station_id":"ce4bhu92rcd13ifvqi70","pricing_plan_id":"cebpf4jnsgd1na2vs0mg"},{"bike_id":"5eef5338-ff8a-466a-999e-0f162b00ff22","system_id":"levelo_inurba_marseille","lat":43.24549,"lon":5.39535,"is_reserved":false,"is_disabled":false,"rental_uris":{"android":"levelo://app?vid=5eef5338-ff8a-466a-999e-0f162b00ff22","ios":"levelo://app?vid=5eef5338-ff8a-466a-999e-0f162b00ff22"},"vehicle_type_id":"4","last_reported":1741792234,"current_range_meters":6800,"station_id":"ce4bhlp2rcd13ifvqgjg","pricing_plan_id":"cebpf4jnsgd1na2vs0mg"},{"bike_id":"c7037371-d170-427b-8987-64b70ea7e50e","system_id":"levelo_inurba_marseille","lat":43.29914,"lon":5.37478,"is_reserved":false,"is_disabled":false,"rental_uris":{"android":"levelo://app?vid=c7037371-d170-427b-8987-64b70ea7e50e","ios":"levelo://app?vid=c7037371-d170-427b-8987-64b70ea7e50e"},"vehicle_type_id":"4","last_reported":1741792234,"current_range_meters":6800,"station_id":"ce4bgjh2rcd13ifvqbg0","pricing_plan_id":"cebpf4jnsgd1na2vs0mg"},{"bike_id":"40a3c76c-cab4-4d36-a550-6db81ab2e241","system_id":"levelo_inurba_marseille","lat":43.2923,"lon":5.3606,"is_reserved":false,"is_disabled":false,"rental_uris":{"android":"levelo://app?vid=40a3c76c-cab4-4d36-a550-6db81ab2e241","ios":"levelo://app?vid=40a3c76c-cab4-4d36-a550-6db81ab2e241"},"vehicle_type_id":"4","last_reported":1741792234,"current_range_meters":6800,"station_id":"ce4bhbh2rcd13ifvqeqg","pricing_plan_id":"cebpf4jnsgd1na2vs0mg"},{"bike_id":"76953c23-bb57-4da4-8686-4ad243be5bd7","system_id":"levelo_inurba_marseille","lat":43.29916,"lon":5.37471,"is_reserved":false,"is_disabled":false,"rental_uris":{"android":"levelo://app?vid=76953c23-bb57-4da4-8686-4ad243be5bd7","ios":"levelo://app?vid=76953c23-bb57-4da4-8686-4ad243be5bd7"},"vehicle_type_id":"4","last_reported":1741792234,"current_range_meters":6800,"station_id":"ce4bgjh2rcd13ifvqbg0","pricing_plan_id":"cebpf4jnsgd1na2vs0mg"},{"bike_id":"6c24832b-37c2-4ac7-90b8-da22b02abebd","system_id":"levelo_inurba_marseille","lat":43.3127,"lon":5.40168,"is_reserved":false,"is_disabled":false,"rental_uris":{"android":"levelo://app?vid=6c24832b-37c2-4ac7-90b8-da22b02abebd","ios":"levelo://app?vid=6c24832b-37c2-4ac7-90b8-da22b02abebd"},"vehicle_type_id":"4","last_reported":1741792234,"current_range_meters":7200,"station_id":"ce4bh092rcd13ifvqd30","pricing_plan_id":"cebpf4jnsgd1na2vs0mg"},{"bike_id":"4019061c-fb79-4935-9e94-6f97a84f1f46","system_id":"levelo_inurba_marseille","lat":43.32654,"lon":5.40999,"is_reserved":false,"is_disabled":false,"rental_uris":{"android":"levelo://app?vid=4019061c-fb79-4935-9e94-6f97a84f1f46","ios":"levelo://app?vid=4019061c-fb79-4935-9e94-6f97a84f1f46"},"vehicle_type_id":"4","last_reported":1741792234,"current_range_meters":7200,"station_id":"ce4bhpp2rcd13ifvqhgg","pricing_plan_id":"cebpf4jnsgd1na2vs0mg"},{"bike_id":"6c5aeeae-21b1-4899-b458-b54e459b3917","system_id":"levelo_inurba_marseille","lat":43.28674,"lon":5.38665,"is_reserved":false,"is_disabled":false,"rental_uris":{"android":"levelo://app?vid=6c5aeeae-21b1-4899-b458-b54e459b3917","ios":"levelo://app?vid=6c5aeeae-21b1-4899-b458-b54e459b3917"},"vehicle_type_id":"4","last_reported":1741792234,"current_range_meters":7200,"station_id":"ce4bh492rcd13ifvqdug","pricing_plan_id":"cebpf4jnsgd1na2vs0mg"},{"bike_id":"00559a84-bfdd-4a60-a5de-01556800e8d9","system_id":"levelo_inurba_marseille","lat":43.24169,"lon":5.39734,"is_reserved":false,"is_disabled":false,"rental_uris":{"android":"levelo://app?vid=00559a84-bfdd-4a60-a5de-01556800e8d9","ios":"levelo://app?vid=00559a84-bfdd-4a60-a5de-01556800e8d9"},"vehicle_type_id":"4","last_reported":1741792234,"current_range_meters":7200,"station_id":"ce4bhn12rcd13ifvqgpg","pricing_plan_id":"cebpf4jnsgd1na2vs0mg"},{"bike_id":"241d79a7-8164-4ee5-8d3f-2565e2e0b3e8","system_id":"levelo_inurba_marseille","lat":43.31371,"lon":5.37976,"is_reserved":false,"is_disabled":false,"rental_uris":{"android":"levelo://app?vid=241d79a7-8164-4ee5-8d3f-2565e2e0b3e8","ios":"levelo://app?vid=241d79a7-8164-4ee5-8d3f-2565e2e0b3e8"},"vehicle_type_id":"4","last_reported":1741792234,"current_range_meters":7200,"station_id":"","pricing_plan_id":"cebpf4jnsgd1na2vs0mg"},{"bike_id":"4cb33b90-7010-4974-a6b0-cd1c918fe84b","system_id":"levelo_inurba_marseille","lat":43.30362,"lon":5.41897,"is_reserved":false,"is_disabled":false,"rental_uris":{"android":"levelo://app?vid=4cb33b90-7010-4974-a6b0-cd1c918fe84b","ios":"levelo://app?vid=4cb33b90-7010-4974-a6b0-cd1c918fe84b"},"vehicle_type_id":"4","last_reported":1741792234,"current_range_meters":7200,"station_id":"ce4bhop2rcd13ifvqh7g","pricing_plan_id":"cebpf4jnsgd1na2vs0mg"},{"bike_id":"1bb5dae5-2cdb-43ae-b04c-dad911982ded","system_id":"levelo_inurba_marseille","lat":43.25121,"lon":5.40336,"is_reserved":false,"is_disabled":false,"rental_uris":{"android":"levelo://app?vid=1bb5dae5-2cdb-43ae-b04c-dad911982ded","ios":"levelo://app?vid=1bb5dae5-2cdb-43ae-b04c-dad911982ded"},"vehicle_type_id":"4","last_reported":1741792234,"current_range_meters":7200,"station_id":"ce4bhlh2rcd13ifvqgig","pricing_plan_id":"cebpf4jnsgd1na2vs0mg"},{"bike_id":"548caab8-1d2c-4b84-963b-f8217af52e80","system_id":"levelo_inurba_marseille","lat":43.290365,"lon":5.375592,"is_reserved":false,"is_disabled":true,"rental_uris":{"android":"levelo://app?vid=548caab8-1d2c-4b84-963b-f8217af52e80","ios":"levelo://app?vid=548caab8-1d2c-4b84-963b-f8217af52e80"},"vehicle_type_id":"4","last_reported":1741792234,"current_range_meters":7200,"station_id":"ce4bh692rcd13ifvqe90","pricing_plan_id":"cebpf4jnsgd1na2vs0mg"},{"bike_id":"bd083a57-3344-4c7b-89a2-90866c28b714","system_id":"levelo_inurba_marseille","lat":43.27175,"lon":5.41025,"is_reserved":false,"is_disabled":false,"rental_uris":{"android":"levelo://app?vid=bd083a57-3344-4c7b-89a2-90866c28b714","ios":"levelo://app?vid=bd083a57-3344-4c7b-89a2-90866c28b714"},"vehicle_type_id":"4","last_reported":1741792234,"current_range_meters":8000,"station_id":"ce4bhl12rcd13ifvqgf0","pricing_plan_id":"cebpf4jnsgd1na2vs0mg"},{"bike_id":"415e7a31-245d-4ead-9f33-dad092a04302","system_id":"levelo_inurba_marseille","lat":43.23064,"lon":5.355,"is_reserved":false,"is_disabled":false,"rental_uris":{"android":"levelo://app?vid=415e7a31-245d-4ead-9f33-dad092a04302","ios":"levelo://app?vid=415e7a31-245d-4ead-9f33-dad092a04302"},"vehicle_type_id":"4","last_reported":1741792234,"current_range_meters":8000,"station_id":"cpo3342slgdg3j2ifvpg","pricing_plan_id":"cebpf4jnsgd1na2vs0mg"},{"bike_id":"22af2182-7fef-4425-a709-ca44d7d780a8","system_id":"levelo_inurba_marseille","lat":43.29635,"lon":5.40595,"is_reserved":false,"is_disabled":false,"rental_uris":{"android":"levelo://app?vid=22af2182-7fef-4425-a709-ca44d7d780a8","ios":"levelo://app?vid=22af2182-7fef-4425-a709-ca44d7d780a8"},"vehicle_type_id":"4","last_reported":1741792234,"current_range_meters":8000,"station_id":"ce4bh0h2rcd13ifvqd60","pricing_plan_id":"cebpf4jnsgd1na2vs0mg"},{"bike_id":"73881d43-ff6d-4db9-a65b-700eaf8c392d","system_id":"levelo_inurba_marseille","lat":43.28613,"lon":5.35107,"is_reserved":false,"is_disabled":false,"rental_uris":{"android":"levelo://app?vid=73881d43-ff6d-4db9-a65b-700eaf8c392d","ios":"levelo://app?vid=73881d43-ff6d-4db9-a65b-700eaf8c392d"},"vehicle_type_id":"4","last_reported":1741792234,"current_range_meters":8000,"station_id":"ce4bhch2rcd13ifvqeug","pricing_plan_id":"cebpf4jnsgd1na2vs0mg"},{"bike_id":"c162d31b-46b9-4d97-bb02-89f384506e7e","system_id":"levelo_inurba_marseille","lat":43.257,"lon":5.41113,"is_reserved":false,"is_disabled":false,"rental_uris":{"android":"levelo://app?vid=c162d31b-46b9-4d97-bb02-89f384506e7e","ios":"levelo://app?vid=c162d31b-46b9-4d97-bb02-89f384506e7e"},"vehicle_type_id":"4","last_reported":1741792234,"current_range_meters":8000,"station_id":"ce4bhkp2rcd13ifvqgd0","pricing_plan_id":"cebpf4jnsgd1na2vs0mg"},{"bike_id":"3aefe6f5-8150-4e5b-afa7-dca21edb0c1d","system_id":"levelo_inurba_marseille","lat":43.30887,"lon":5.39624,"is_reserved":false,"is_disabled":false,"rental_uris":{"android":"levelo://app?vid=3aefe6f5-8150-4e5b-afa7-dca21edb0c1d","ios":"levelo://app?vid=3aefe6f5-8150-4e5b-afa7-dca21edb0c1d"},"vehicle_type_id":"4","last_reported":1741792234,"current_range_meters":8000,"station_id":"ce4bh012rcd13ifvqcv0","pricing_plan_id":"cebpf4jnsgd1na2vs0mg"},{"bike_id":"d2d0f8d9-466b-469d-8af8-a761de931fde","system_id":"levelo_inurba_marseille","lat":43.30549,"lon":5.36555,"is_reserved":false,"is_disabled":false,"rental_uris":{"android":"levelo://app?vid=d2d0f8d9-466b-469d-8af8-a761de931fde","ios":"levelo://app?vid=d2d0f8d9-466b-469d-8af8-a761de931fde"},"vehicle_type_id":"4","last_reported":1741792234,"current_range_meters":8000,"station_id":"ce4bgs12rcd13ifvqcag","pricing_plan_id":"cebpf4jnsgd1na2vs0mg"},{"bike_id":"50273356-a01a-40cd-8285-3b230fac28c3","system_id":"levelo_inurba_marseille","lat":43.26494,"lon":5.39546,"is_reserved":false,"is_disabled":false,"rental_uris":{"android":"levelo://app?vid=50273356-a01a-40cd-8285-3b230fac28c3","ios":"levelo://app?vid=50273356-a01a-40cd-8285-3b230fac28c3"},"vehicle_type_id":"4","last_reported":1741792234,"current_range_meters":8000,"station_id":"ce4bhi12rcd13ifvqfq0","pricing_plan_id":"cebpf4jnsgd1na2vs0mg"},{"bike_id":"5b392424-90dc-4064-a3e8-e2da2799acba","system_id":"levelo_inurba_marseille","lat":43.257098,"lon":5.411147,"is_reserved":false,"is_disabled":false,"rental_uris":{"android":"levelo://app?vid=5b392424-90dc-4064-a3e8-e2da2799acba","ios":"levelo://app?vid=5b392424-90dc-4064-a3e8-e2da2799acba"},"vehicle_type_id":"4","last_reported":1741792234,"current_range_meters":8000,"station_id":"ce4bhkp2rcd13ifvqgd0","pricing_plan_id":"cebpf4jnsgd1na2vs0mg"},{"bike_id":"e12be538-6dde-4604-98c7-f66a323a5270","system_id":"levelo_inurba_marseille","lat":43.23066,"lon":5.35493,"is_reserved":false,"is_disabled":false,"rental_uris":{"android":"levelo://app?vid=e12be538-6dde-4604-98c7-f66a323a5270","ios":"levelo://app?vid=e12be538-6dde-4604-98c7-f66a323a5270"},"vehicle_type_id":"4","last_reported":1741792234,"current_range_meters":8000,"station_id":"cpo3342slgdg3j2ifvpg","pricing_plan_id":"cebpf4jnsgd1na2vs0mg"},{"bike_id":"57e37cca-bdc7-4218-826b-7149e78c606a","system_id":"levelo_inurba_marseille","lat":43.23151,"lon":5.43686,"is_reserved":false,"is_disabled":false,"rental_uris":{"android":"levelo://app?vid=57e37cca-bdc7-4218-826b-7149e78c606a","ios":"levelo://app?vid=57e37cca-bdc7-4218-826b-7149e78c606a"},"vehicle_type_id":"4","last_reported":1741792234,"current_range_meters":8000,"station_id":"ce4bhmp2rcd13ifvqgog","pricing_plan_id":"cebpf4jnsgd1na2vs0mg"},{"bike_id":"feb4b9df-ca5a-441d-8892-405597e7da99","system_id":"levelo_inurba_marseille","lat":43.23065,"lon":5.35498,"is_reserved":false,"is_disabled":false,"rental_uris":{"android":"levelo://app?vid=feb4b9df-ca5a-441d-8892-405597e7da99","ios":"levelo://app?vid=feb4b9df-ca5a-441d-8892-405597e7da99"},"vehicle_type_id":"4","last_reported":1741792234,"current_range_meters":8000,"station_id":"cpo3342slgdg3j2ifvpg","pricing_plan_id":"cebpf4jnsgd1na2vs0mg"},{"bike_id":"5bc4b0c3-524d-44dd-8e56-1d9e98141177","system_id":"levelo_inurba_marseille","lat":43.27563,"lon":5.38431,"is_reserved":false,"is_disabled":false,"rental_uris":{"android":"levelo://app?vid=5bc4b0c3-524d-44dd-8e56-1d9e98141177","ios":"levelo://app?vid=5bc4b0c3-524d-44dd-8e56-1d9e98141177"},"vehicle_type_id":"4","last_reported":1741792234,"current_range_meters":8400,"station_id":"ce4bhh92rcd13ifvqfi0","pricing_plan_id":"cebpf4jnsgd1na2vs0mg"},{"bike_id":"de719615-1669-4913-98a4-33ed7cc256ac","system_id":"levelo_inurba_marseille","lat":43.25003,"lon":5.38952,"is_reserved":false,"is_disabled":false,"rental_uris":{"android":"levelo://app?vid=de719615-1669-4913-98a4-33ed7cc256ac","ios":"levelo://app?vid=de719615-1669-4913-98a4-33ed7cc256ac"},"vehicle_type_id":"4","last_reported":1741792234,"current_range_meters":8400,"station_id":"ce4bhgp2rcd13ifvqfd0","pricing_plan_id":"cebpf4jnsgd1na2vs0mg"},{"bike_id":"948e0535-f8ee-42aa-b3c6-de33694c2f18","system_id":"levelo_inurba_marseille","lat":43.32747,"lon":5.39243,"is_reserved":false,"is_disabled":false,"rental_uris":{"android":"levelo://app?vid=948e0535-f8ee-42aa-b3c6-de33694c2f18","ios":"levelo://app?vid=948e0535-f8ee-42aa-b3c6-de33694c2f18"},"vehicle_type_id":"4","last_reported":1741792234,"current_range_meters":8400,"station_id":"","pricing_plan_id":"cebpf4jnsgd1na2vs0mg"},{"bike_id":"72de4c85-7223-490f-9219-5d9d46436df5","system_id":"levelo_inurba_marseille","lat":43.33171,"lon":5.39469,"is_reserved":false,"is_disabled":false,"rental_uris":{"android":"levelo://app?vid=72de4c85-7223-490f-9219-5d9d46436df5","ios":"levelo://app?vid=72de4c85-7223-490f-9219-5d9d46436df5"},"vehicle_type_id":"4","last_reported":1741792234,"current_range_meters":8400,"station_id":"","pricing_plan_id":"cebpf4jnsgd1na2vs0mg"},{"bike_id":"86f9f19c-681c-4714-b59d-f5798e2ac606","system_id":"levelo_inurba_marseille","lat":43.27175,"lon":5.40998,"is_reserved":false,"is_disabled":false,"rental_uris":{"android":"levelo://app?vid=86f9f19c-681c-4714-b59d-f5798e2ac606","ios":"levelo://app?vid=86f9f19c-681c-4714-b59d-f5798e2ac606"},"vehicle_type_id":"4","last_reported":1741792234,"current_range_meters":8400,"station_id":"ce4bhl12rcd13ifvqgf0","pricing_plan_id":"cebpf4jnsgd1na2vs0mg"},{"bike_id":"2d962afd-def7-4ef2-b09e-11d94ae3c710","system_id":"levelo_inurba_marseille","lat":43.28274,"lon":5.35061,"is_reserved":false,"is_disabled":false,"rental_uris":{"android":"levelo://app?vid=2d962afd-def7-4ef2-b09e-11d94ae3c710","ios":"levelo://app?vid=2d962afd-def7-4ef2-b09e-11d94ae3c710"},"vehicle_type_id":"4","last_reported":1741792234,"current_range_meters":8400,"station_id":"ce4bhbp2rcd13ifvqerg","pricing_plan_id":"cebpf4jnsgd1na2vs0mg"},{"bike_id":"eaeb86cd-a580-4521-bef4-3afec2b7117a","system_id":"levelo_inurba_marseille","lat":43.29883,"lon":5.38903,"is_reserved":false,"is_disabled":false,"rental_uris":{"android":"levelo://app?vid=eaeb86cd-a580-4521-bef4-3afec2b7117a","ios":"levelo://app?vid=eaeb86cd-a580-4521-bef4-3afec2b7117a"},"vehicle_type_id":"4","last_reported":1741792234,"current_range_meters":8400,"station_id":"ce4bh392rcd13ifvqdl0","pricing_plan_id":"cebpf4jnsgd1na2vs0mg"},{"bike_id":"ee3470b0-a6a9-4f94-b140-463e351648db","system_id":"levelo_inurba_marseille","lat":43.24651,"lon":5.38913,"is_reserved":false,"is_disabled":false,"rental_uris":{"android":"levelo://app?vid=ee3470b0-a6a9-4f94-b140-463e351648db","ios":"levelo://app?vid=ee3470b0-a6a9-4f94-b140-463e351648db"},"vehicle_type_id":"4","last_reported":1741792234,"current_range_meters":8400,"station_id":"ce4bhg12rcd13ifvqf60","pricing_plan_id":"cebpf4jnsgd1na2vs0mg"},{"bike_id":"5b2c6fc4-afe5-4146-b683-2d0592372774","system_id":"levelo_inurba_marseille","lat":43.31493,"lon":5.37295,"is_reserved":false,"is_disabled":false,"rental_uris":{"android":"levelo://app?vid=5b2c6fc4-afe5-4146-b683-2d0592372774","ios":"levelo://app?vid=5b2c6fc4-afe5-4146-b683-2d0592372774"},"vehicle_type_id":"4","last_reported":1741792234,"current_range_meters":8400,"station_id":"ce4bgt12rcd13ifvqcd0","pricing_plan_id":"cebpf4jnsgd1na2vs0mg"},{"bike_id":"80160602-9be5-4bff-ab04-8eb5a2c2a942","system_id":"levelo_inurba_marseille","lat":43.25873,"lon":5.39903,"is_reserved":false,"is_disabled":false,"rental_uris":{"android":"levelo://app?vid=80160602-9be5-4bff-ab04-8eb5a2c2a942","ios":"levelo://app?vid=80160602-9be5-4bff-ab04-8eb5a2c2a942"},"vehicle_type_id":"4","last_reported":1741792234,"current_range_meters":8400,"station_id":"ce4bhl92rcd13ifvqghg","pricing_plan_id":"cebpf4jnsgd1na2vs0mg"},{"bike_id":"c98ac635-f6b6-4a65-bab2-9b31cb78cb42","system_id":"levelo_inurba_marseille","lat":43.26807,"lon":5.40267,"is_reserved":false,"is_disabled":false,"rental_uris":{"android":"levelo://app?vid=c98ac635-f6b6-4a65-bab2-9b31cb78cb42","ios":"levelo://app?vid=c98ac635-f6b6-4a65-bab2-9b31cb78cb42"},"vehicle_type_id":"4","last_reported":1741792234,"current_range_meters":8400,"station_id":"ce501612rcd8frsf0b60","pricing_plan_id":"cebpf4jnsgd1na2vs0mg"},{"bike_id":"05388ace-665a-4114-a828-939b708a2589","system_id":"levelo_inurba_marseille","lat":43.23184,"lon":5.39994,"is_reserved":false,"is_disabled":false,"rental_uris":{"android":"levelo://app?vid=05388ace-665a-4114-a828-939b708a2589","ios":"levelo://app?vid=05388ace-665a-4114-a828-939b708a2589"},"vehicle_type_id":"4","last_reported":1741792234,"current_range_meters":8400,"station_id":"ce4bhn12rcd13ifvqgqg","pricing_plan_id":"cebpf4jnsgd1na2vs0mg"},{"bike_id":"82512acd-d4a4-4e69-ad68-d5bb4078ae7a","system_id":"levelo_inurba_marseille","lat":43.23969,"lon":5.36629,"is_reserved":false,"is_disabled":false,"rental_uris":{"android":"levelo://app?vid=82512acd-d4a4-4e69-ad68-d5bb4078ae7a","ios":"levelo://app?vid=82512acd-d4a4-4e69-ad68-d5bb4078ae7a"},"vehicle_type_id":"4","last_reported":1741792234,"current_range_meters":8800,"station_id":"ce4bhi12rcd13ifvqfp0","pricing_plan_id":"cebpf4jnsgd1na2vs0mg"},{"bike_id":"2931d81f-abb3-45b8-9224-dc3fce2fae31","system_id":"levelo_inurba_marseille","lat":43.32363,"lon":5.36759,"is_reserved":false,"is_disabled":false,"rental_uris":{"android":"levelo://app?vid=2931d81f-abb3-45b8-9224-dc3fce2fae31","ios":"levelo://app?vid=2931d81f-abb3-45b8-9224-dc3fce2fae31"},"vehicle_type_id":"4","last_reported":1741792234,"current_range_meters":8800,"station_id":"ce4bhsh2rcd13ifvqi2g","pricing_plan_id":"cebpf4jnsgd1na2vs0mg"},{"bike_id":"df02ceb6-e147-47b3-a36d-4b3457d4489e","system_id":"levelo_inurba_marseille","lat":43.30286,"lon":5.37699,"is_reserved":false,"is_disabled":false,"rental_uris":{"android":"levelo://app?vid=df02ceb6-e147-47b3-a36d-4b3457d4489e","ios":"levelo://app?vid=df02ceb6-e147-47b3-a36d-4b3457d4489e"},"vehicle_type_id":"4","last_reported":1741792234,"current_range_meters":8800,"station_id":"ce4bguh2rcd13ifvqcj0","pricing_plan_id":"cebpf4jnsgd1na2vs0mg"},{"bike_id":"97d4666e-c4ba-47a7-9327-41075a0d7383","system_id":"levelo_inurba_marseille","lat":43.30313,"lon":5.36866,"is_reserved":false,"is_disabled":false,"rental_uris":{"android":"levelo://app?vid=97d4666e-c4ba-47a7-9327-41075a0d7383","ios":"levelo://app?vid=97d4666e-c4ba-47a7-9327-41075a0d7383"},"vehicle_type_id":"4","last_reported":1741792234,"current_range_meters":8800,"station_id":"ce4bgqh2rcd13ifvqc5g","pricing_plan_id":"cebpf4jnsgd1na2vs0mg"},{"bike_id":"a035e56a-9125-4ed8-82c5-703cf4d8c4c9","system_id":"levelo_inurba_marseille","lat":43.29007,"lon":5.35619,"is_reserved":false,"is_disabled":false,"rental_uris":{"android":"levelo://app?vid=a035e56a-9125-4ed8-82c5-703cf4d8c4c9","ios":"levelo://app?vid=a035e56a-9125-4ed8-82c5-703cf4d8c4c9"},"vehicle_type_id":"4","last_reported":1741792234,"current_range_meters":8800,"station_id":"ce4bhb92rcd13ifvqen0","pricing_plan_id":"cebpf4jnsgd1na2vs0mg"},{"bike_id":"3a762eed-fc8b-4e00-ac8b-2d698cbec876","system_id":"levelo_inurba_marseille","lat":43.311616,"lon":5.387324,"is_reserved":false,"is_disabled":false,"rental_uris":{"android":"levelo://app?vid=3a762eed-fc8b-4e00-ac8b-2d698cbec876","ios":"levelo://app?vid=3a762eed-fc8b-4e00-ac8b-2d698cbec876"},"vehicle_type_id":"4","last_reported":1741792234,"current_range_meters":8800,"station_id":"ce4bgkp2rcd13ifvqbmg","pricing_plan_id":"cebpf4jnsgd1na2vs0mg"},{"bike_id":"bc9903e0-49cc-49f6-ae4e-94f166a0a060","system_id":"levelo_inurba_marseille","lat":43.25922,"lon":5.40883,"is_reserved":false,"is_disabled":false,"rental_uris":{"android":"levelo://app?vid=bc9903e0-49cc-49f6-ae4e-94f166a0a060","ios":"levelo://app?vid=bc9903e0-49cc-49f6-ae4e-94f166a0a060"},"vehicle_type_id":"4","last_reported":1741792234,"current_range_meters":8800,"station_id":"ce4bhm92rcd13ifvqglg","pricing_plan_id":"cebpf4jnsgd1na2vs0mg"},{"bike_id":"0117055b-abaa-4782-a83e-c23d24cb8a2e","system_id":"levelo_inurba_marseille","lat":43.24655,"lon":5.38893,"is_reserved":false,"is_disabled":false,"rental_uris":{"android":"levelo://app?vid=0117055b-abaa-4782-a83e-c23d24cb8a2e","ios":"levelo://app?vid=0117055b-abaa-4782-a83e-c23d24cb8a2e"},"vehicle_type_id":"4","last_reported":1741792234,"current_range_meters":8800,"station_id":"ce4bhg12rcd13ifvqf60","pricing_plan_id":"cebpf4jnsgd1na2vs0mg"},{"bike_id":"d31a9b9e-c671-4c10-bfe3-fe674b86365e","system_id":"levelo_inurba_marseille","lat":43.31485,"lon":5.37336,"is_reserved":false,"is_disabled":false,"rental_uris":{"android":"levelo://app?vid=d31a9b9e-c671-4c10-bfe3-fe674b86365e","ios":"levelo://app?vid=d31a9b9e-c671-4c10-bfe3-fe674b86365e"},"vehicle_type_id":"4","last_reported":1741792234,"current_range_meters":9200,"station_id":"ce4bgt12rcd13ifvqcd0","pricing_plan_id":"cebpf4jnsgd1na2vs0mg"},{"bike_id":"97dedcc4-732f-4f19-8d54-997819cc44eb","system_id":"levelo_inurba_marseille","lat":43.22934,"lon":5.35389,"is_reserved":false,"is_disabled":false,"rental_uris":{"android":"levelo://app?vid=97dedcc4-732f-4f19-8d54-997819cc44eb","ios":"levelo://app?vid=97dedcc4-732f-4f19-8d54-997819cc44eb"},"vehicle_type_id":"4","last_reported":1741792234,"current_range_meters":9200,"station_id":"cpo3532slgdg3j2ikp40","pricing_plan_id":"cebpf4jnsgd1na2vs0mg"},{"bike_id":"ba18639b-98cc-4ab3-ad63-4ac259cc4916","system_id":"levelo_inurba_marseille","lat":43.23967,"lon":5.36629,"is_reserved":false,"is_disabled":false,"rental_uris":{"android":"levelo://app?vid=ba18639b-98cc-4ab3-ad63-4ac259cc4916","ios":"levelo://app?vid=ba18639b-98cc-4ab3-ad63-4ac259cc4916"},"vehicle_type_id":"4","last_reported":1741792234,"current_range_meters":9200,"station_id":"ce4bhi12rcd13ifvqfp0","pricing_plan_id":"cebpf4jnsgd1na2vs0mg"},{"bike_id":"385dd9cb-1d33-48e9-8250-88818c623a92","system_id":"levelo_inurba_marseille","lat":43.26061,"lon":5.39401,"is_reserved":false,"is_disabled":false,"rental_uris":{"android":"levelo://app?vid=385dd9cb-1d33-48e9-8250-88818c623a92","ios":"levelo://app?vid=385dd9cb-1d33-48e9-8250-88818c623a92"},"vehicle_type_id":"4","last_reported":1741792234,"current_range_meters":9200,"station_id":"ce4bhh92rcd13ifvqfj0","pricing_plan_id":"cebpf4jnsgd1na2vs0mg"},{"bike_id":"00382eb0-4ae9-424c-acfa-4de8bb7bc02b","system_id":"levelo_inurba_marseille","lat":43.28708,"lon":5.37916,"is_reserved":false,"is_disabled":false,"rental_uris":{"android":"levelo://app?vid=00382eb0-4ae9-424c-acfa-4de8bb7bc02b","ios":"levelo://app?vid=00382eb0-4ae9-424c-acfa-4de8bb7bc02b"},"vehicle_type_id":"4","last_reported":1741792234,"current_range_meters":9200,"station_id":"ce4bh9p2rcd13ifvqec0","pricing_plan_id":"cebpf4jnsgd1na2vs0mg"},{"bike_id":"511a478b-16c6-4549-a89d-177a4b1ec633","system_id":"levelo_inurba_marseille","lat":43.26564,"lon":5.37298,"is_reserved":false,"is_disabled":false,"rental_uris":{"android":"levelo://app?vid=511a478b-16c6-4549-a89d-177a4b1ec633","ios":"levelo://app?vid=511a478b-16c6-4549-a89d-177a4b1ec633"},"vehicle_type_id":"4","last_reported":1741792234,"current_range_meters":9200,"station_id":"ce4bhg12rcd13ifvqf70","pricing_plan_id":"cebpf4jnsgd1na2vs0mg"},{"bike_id":"3f003305-e8df-41d6-9976-ba6ce1a89012","system_id":"levelo_inurba_marseille","lat":43.29973,"lon":5.37175,"is_reserved":false,"is_disabled":false,"rental_uris":{"android":"levelo://app?vid=3f003305-e8df-41d6-9976-ba6ce1a89012","ios":"levelo://app?vid=3f003305-e8df-41d6-9976-ba6ce1a89012"},"vehicle_type_id":"4","last_reported":1741792234,"current_range_meters":9200,"station_id":"ce4bgr92rcd13ifvqc7g","pricing_plan_id":"cebpf4jnsgd1na2vs0mg"},{"bike_id":"f829a819-671e-4b71-9c22-56c5f8047725","system_id":"levelo_inurba_marseille","lat":43.32356,"lon":5.36768,"is_reserved":false,"is_disabled":false,"rental_uris":{"android":"levelo://app?vid=f829a819-671e-4b71-9c22-56c5f8047725","ios":"levelo://app?vid=f829a819-671e-4b71-9c22-56c5f8047725"},"vehicle_type_id":"4","last_reported":1741792234,"current_range_meters":9200,"station_id":"ce4bhsh2rcd13ifvqi2g","pricing_plan_id":"cebpf4jnsgd1na2vs0mg"},{"bike_id":"e5c61443-aff7-4973-8cb9-b6cc4432d4dc","system_id":"levelo_inurba_marseille","lat":43.28701,"lon":5.37388,"is_reserved":false,"is_disabled":false,"rental_uris":{"android":"levelo://app?vid=e5c61443-aff7-4973-8cb9-b6cc4432d4dc","ios":"levelo://app?vid=e5c61443-aff7-4973-8cb9-b6cc4432d4dc"},"vehicle_type_id":"4","last_reported":1741792234,"current_range_meters":9600,"station_id":"ce4bh3p2rcd13ifvqdq0","pricing_plan_id":"cebpf4jnsgd1na2vs0mg"},{"bike_id":"e29b0772-24f4-4607-8008-50f439c231a5","system_id":"levelo_inurba_marseille","lat":43.30421,"lon":5.41284,"is_reserved":false,"is_disabled":false,"rental_uris":{"android":"levelo://app?vid=e29b0772-24f4-4607-8008-50f439c231a5","ios":"levelo://app?vid=e29b0772-24f4-4607-8008-50f439c231a5"},"vehicle_type_id":"4","last_reported":1741792234,"current_range_meters":9600,"station_id":"ce4bhop2rcd13ifvqh8g","pricing_plan_id":"cebpf4jnsgd1na2vs0mg"},{"bike_id":"f076f6f7-e4b4-48be-92db-c2ec27c500f6","system_id":"levelo_inurba_marseille","lat":43.23193,"lon":5.39977,"is_reserved":false,"is_disabled":false,"rental_uris":{"android":"levelo://app?vid=f076f6f7-e4b4-48be-92db-c2ec27c500f6","ios":"levelo://app?vid=f076f6f7-e4b4-48be-92db-c2ec27c500f6"},"vehicle_type_id":"4","last_reported":1741792234,"current_range_meters":9600,"station_id":"ce4bhn12rcd13ifvqgqg","pricing_plan_id":"cebpf4jnsgd1na2vs0mg"},{"bike_id":"179f642e-f17c-42b6-8e57-70bb9919f3ff","system_id":"levelo_inurba_marseille","lat":43.30291,"lon":5.39211,"is_reserved":false,"is_disabled":false,"rental_uris":{"android":"levelo://app?vid=179f642e-f17c-42b6-8e57-70bb9919f3ff","ios":"levelo://app?vid=179f642e-f17c-42b6-8e57-70bb9919f3ff"},"vehicle_type_id":"4","last_reported":1741792234,"current_range_meters":9600,"station_id":"ce4bgkh2rcd13ifvqbk0","pricing_plan_id":"cebpf4jnsgd1na2vs0mg"},{"bike_id":"fde8e75a-a47a-4a6d-a024-fa097cbf60ee","system_id":"levelo_inurba_marseille","lat":43.31068,"lon":5.38368,"is_reserved":false,"is_disabled":false,"rental_uris":{"android":"levelo://app?vid=fde8e75a-a47a-4a6d-a024-fa097cbf60ee","ios":"levelo://app?vid=fde8e75a-a47a-4a6d-a024-fa097cbf60ee"},"vehicle_type_id":"4","last_reported":1741792234,"current_range_meters":9600,"station_id":"ce4bgv92rcd13ifvqcr0","pricing_plan_id":"cebpf4jnsgd1na2vs0mg"},{"bike_id":"8dee66dd-a753-4e90-9df0-a75f60b0d66f","system_id":"levelo_inurba_marseille","lat":43.28574,"lon":5.42486,"is_reserved":false,"is_disabled":false,"rental_uris":{"android":"levelo://app?vid=8dee66dd-a753-4e90-9df0-a75f60b0d66f","ios":"levelo://app?vid=8dee66dd-a753-4e90-9df0-a75f60b0d66f"},"vehicle_type_id":"4","last_reported":1741792234,"current_range_meters":9600,"station_id":"","pricing_plan_id":"cebpf4jnsgd1na2vs0mg"},{"bike_id":"ebcd70c6-eb93-44d4-90c3-54c9dd3bc4cd","system_id":"levelo_inurba_marseille","lat":43.26561,"lon":5.37293,"is_reserved":false,"is_disabled":false,"rental_uris":{"android":"levelo://app?vid=ebcd70c6-eb93-44d4-90c3-54c9dd3bc4cd","ios":"levelo://app?vid=ebcd70c6-eb93-44d4-90c3-54c9dd3bc4cd"},"vehicle_type_id":"4","last_reported":1741792234,"current_range_meters":9600,"station_id":"ce4bhg12rcd13ifvqf70","pricing_plan_id":"cebpf4jnsgd1na2vs0mg"},{"bike_id":"6e25eb89-e5ee-42c0-8d07-5062e690a632","system_id":"levelo_inurba_marseille","lat":43.308887,"lon":5.396243,"is_reserved":false,"is_disabled":false,"rental_uris":{"android":"levelo://app?vid=6e25eb89-e5ee-42c0-8d07-5062e690a632","ios":"levelo://app?vid=6e25eb89-e5ee-42c0-8d07-5062e690a632"},"vehicle_type_id":"4","last_reported":1741792234,"current_range_meters":9600,"station_id":"ce4bh012rcd13ifvqcv0","pricing_plan_id":"cebpf4jnsgd1na2vs0mg"},{"bike_id":"61504f38-8060-40e4-9d62-87092ac5f2cb","system_id":"levelo_inurba_marseille","lat":43.26683,"lon":5.38274,"is_reserved":false,"is_disabled":false,"rental_uris":{"android":"levelo://app?vid=61504f38-8060-40e4-9d62-87092ac5f2cb","ios":"levelo://app?vid=61504f38-8060-40e4-9d62-87092ac5f2cb"},"vehicle_type_id":"4","last_reported":1741792234,"current_range_meters":9600,"station_id":"ce4bhg92rcd13ifvqf90","pricing_plan_id":"cebpf4jnsgd1na2vs0mg"},{"bike_id":"03fcef79-f017-4d15-a10d-891c5cd96db2","system_id":"levelo_inurba_marseille","lat":43.2307,"lon":5.35506,"is_reserved":false,"is_disabled":false,"rental_uris":{"android":"levelo://app?vid=03fcef79-f017-4d15-a10d-891c5cd96db2","ios":"levelo://app?vid=03fcef79-f017-4d15-a10d-891c5cd96db2"},"vehicle_type_id":"4","last_reported":1741792234,"current_range_meters":9600,"station_id":"cpo3342slgdg3j2ifvpg","pricing_plan_id":"cebpf4jnsgd1na2vs0mg"},{"bike_id":"abd01563-25ee-495a-a95b-891dbf0a92ef","system_id":"levelo_inurba_marseille","lat":43.25013,"lon":5.38939,"is_reserved":false,"is_disabled":false,"rental_uris":{"android":"levelo://app?vid=abd01563-25ee-495a-a95b-891dbf0a92ef","ios":"levelo://app?vid=abd01563-25ee-495a-a95b-891dbf0a92ef"},"vehicle_type_id":"4","last_reported":1741792234,"current_range_meters":9600,"station_id":"ce4bhgp2rcd13ifvqfd0","pricing_plan_id":"cebpf4jnsgd1na2vs0mg"},{"bike_id":"a4ce6389-69c8-41eb-a2cb-27e113df5153","system_id":"levelo_inurba_marseille","lat":43.28616,"lon":5.35095,"is_reserved":false,"is_disabled":false,"rental_uris":{"android":"levelo://app?vid=a4ce6389-69c8-41eb-a2cb-27e113df5153","ios":"levelo://app?vid=a4ce6389-69c8-41eb-a2cb-27e113df5153"},"vehicle_type_id":"4","last_reported":1741792234,"current_range_meters":10000,"station_id":"ce4bhch2rcd13ifvqeug","pricing_plan_id":"cebpf4jnsgd1na2vs0mg"},{"bike_id":"28ddcdf4-024a-4f42-80ff-fb3bac3f5f61","system_id":"levelo_inurba_marseille","lat":43.24169,"lon":5.36389,"is_reserved":false,"is_disabled":false,"rental_uris":{"android":"levelo://app?vid=28ddcdf4-024a-4f42-80ff-fb3bac3f5f61","ios":"levelo://app?vid=28ddcdf4-024a-4f42-80ff-fb3bac3f5f61"},"vehicle_type_id":"4","last_reported":1741792234,"current_range_meters":10000,"station_id":"cpo36qri1sfpv3e86is0","pricing_plan_id":"cebpf4jnsgd1na2vs0mg"},{"bike_id":"d8fc7225-0157-4f46-bfde-5e8a21a4823b","system_id":"levelo_inurba_marseille","lat":43.25833,"lon":5.39449,"is_reserved":false,"is_disabled":false,"rental_uris":{"android":"levelo://app?vid=d8fc7225-0157-4f46-bfde-5e8a21a4823b","ios":"levelo://app?vid=d8fc7225-0157-4f46-bfde-5e8a21a4823b"},"vehicle_type_id":"4","last_reported":1741792234,"current_range_meters":10000,"station_id":"ce4bhip2rcd13ifvqft0","pricing_plan_id":"cebpf4jnsgd1na2vs0mg"},{"bike_id":"793e2b8f-8e5f-491c-8083-9326cf25553e","system_id":"levelo_inurba_marseille","lat":43.28609,"lon":5.37066,"is_reserved":false,"is_disabled":false,"rental_uris":{"android":"levelo://app?vid=793e2b8f-8e5f-491c-8083-9326cf25553e","ios":"levelo://app?vid=793e2b8f-8e5f-491c-8083-9326cf25553e"},"vehicle_type_id":"4","last_reported":1741792234,"current_range_meters":10000,"station_id":"ce4bht12rcd13ifvqi60","pricing_plan_id":"cebpf4jnsgd1na2vs0mg"},{"bike_id":"ec5d08ce-934d-49b5-9a73-c20b44942d11","system_id":"levelo_inurba_marseille","lat":43.31431,"lon":5.37643,"is_reserved":false,"is_disabled":false,"rental_uris":{"android":"levelo://app?vid=ec5d08ce-934d-49b5-9a73-c20b44942d11","ios":"levelo://app?vid=ec5d08ce-934d-49b5-9a73-c20b44942d11"},"vehicle_type_id":"4","last_reported":1741792234,"current_range_meters":10000,"station_id":"","pricing_plan_id":"cebpf4jnsgd1na2vs0mg"},{"bike_id":"2714d703-0653-4f83-9f2f-5d24f5ce775b","system_id":"levelo_inurba_marseille","lat":43.285778,"lon":5.394998,"is_reserved":false,"is_disabled":false,"rental_uris":{"android":"levelo://app?vid=2714d703-0653-4f83-9f2f-5d24f5ce775b","ios":"levelo://app?vid=2714d703-0653-4f83-9f2f-5d24f5ce775b"},"vehicle_type_id":"4","last_reported":1741792234,"current_range_meters":10000,"station_id":"","pricing_plan_id":"cebpf4jnsgd1na2vs0mg"},{"bike_id":"370e7d13-f749-47c0-86e6-a66322b62a91","system_id":"levelo_inurba_marseille","lat":43.25498,"lon":5.37655,"is_reserved":false,"is_disabled":false,"rental_uris":{"android":"levelo://app?vid=370e7d13-f749-47c0-86e6-a66322b62a91","ios":"levelo://app?vid=370e7d13-f749-47c0-86e6-a66322b62a91"},"vehicle_type_id":"4","last_reported":1741792234,"current_range_meters":10000,"station_id":"ce4bhh12rcd13ifvqff0","pricing_plan_id":"cebpf4jnsgd1na2vs0mg"},{"bike_id":"6190eac7-4d69-4aee-8885-569caf678aef","system_id":"levelo_inurba_marseille","lat":43.25721,"lon":5.41116,"is_reserved":false,"is_disabled":false,"rental_uris":{"android":"levelo://app?vid=6190eac7-4d69-4aee-8885-569caf678aef","ios":"levelo://app?vid=6190eac7-4d69-4aee-8885-569caf678aef"},"vehicle_type_id":"4","last_reported":1741792234,"current_range_meters":10000,"station_id":"ce4bhkp2rcd13ifvqgd0","pricing_plan_id":"cebpf4jnsgd1na2vs0mg"},{"bike_id":"12d8c0d4-6abc-4053-9c8c-690abca02735","system_id":"levelo_inurba_marseille","lat":43.3126,"lon":5.37512,"is_reserved":false,"is_disabled":false,"rental_uris":{"android":"levelo://app?vid=12d8c0d4-6abc-4053-9c8c-690abca02735","ios":"levelo://app?vid=12d8c0d4-6abc-4053-9c8c-690abca02735"},"vehicle_type_id":"4","last_reported":1741792234,"current_range_meters":10000,"station_id":"","pricing_plan_id":"cebpf4jnsgd1na2vs0mg"},{"bike_id":"aa6a25e5-9e3a-4e38-a609-4f6d68c2c1c2","system_id":"levelo_inurba_marseille","lat":43.29566,"lon":5.39964,"is_reserved":false,"is_disabled":false,"rental_uris":{"android":"levelo://app?vid=aa6a25e5-9e3a-4e38-a609-4f6d68c2c1c2","ios":"levelo://app?vid=aa6a25e5-9e3a-4e38-a609-4f6d68c2c1c2"},"vehicle_type_id":"4","last_reported":1741792234,"current_range_meters":10800,"station_id":"ce4bh312rcd13ifvqdj0","pricing_plan_id":"cebpf4jnsgd1na2vs0mg"},{"bike_id":"25ec04d1-4319-400e-9b95-b0666d8c6edd","system_id":"levelo_inurba_marseille","lat":43.29421,"lon":5.38627,"is_reserved":false,"is_disabled":false,"rental_uris":{"android":"levelo://app?vid=25ec04d1-4319-400e-9b95-b0666d8c6edd","ios":"levelo://app?vid=25ec04d1-4319-400e-9b95-b0666d8c6edd"},"vehicle_type_id":"4","last_reported":1741792234,"current_range_meters":10800,"station_id":"ce4bh2h2rcd13ifvqdh0","pricing_plan_id":"cebpf4jnsgd1na2vs0mg"},{"bike_id":"5dff7e4b-00a4-4649-9663-d77c949847a1","system_id":"levelo_inurba_marseille","lat":43.24173,"lon":5.36413,"is_reserved":false,"is_disabled":false,"rental_uris":{"android":"levelo://app?vid=5dff7e4b-00a4-4649-9663-d77c949847a1","ios":"levelo://app?vid=5dff7e4b-00a4-4649-9663-d77c949847a1"},"vehicle_type_id":"4","last_reported":1741792234,"current_range_meters":10800,"station_id":"cpo36qri1sfpv3e86is0","pricing_plan_id":"cebpf4jnsgd1na2vs0mg"},{"bike_id":"ed26985a-dd6b-4365-a0a1-793a43b89f77","system_id":"levelo_inurba_marseille","lat":43.25827,"lon":5.39437,"is_reserved":false,"is_disabled":false,"rental_uris":{"android":"levelo://app?vid=ed26985a-dd6b-4365-a0a1-793a43b89f77","ios":"levelo://app?vid=ed26985a-dd6b-4365-a0a1-793a43b89f77"},"vehicle_type_id":"4","last_reported":1741792234,"current_range_meters":10800,"station_id":"ce4bhip2rcd13ifvqft0","pricing_plan_id":"cebpf4jnsgd1na2vs0mg"},{"bike_id":"52b371ae-be21-4386-980c-2c67e6647e65","system_id":"levelo_inurba_marseille","lat":43.3107,"lon":5.38366,"is_reserved":false,"is_disabled":false,"rental_uris":{"android":"levelo://app?vid=52b371ae-be21-4386-980c-2c67e6647e65","ios":"levelo://app?vid=52b371ae-be21-4386-980c-2c67e6647e65"},"vehicle_type_id":"4","last_reported":1741792234,"current_range_meters":10800,"station_id":"ce4bgv92rcd13ifvqcr0","pricing_plan_id":"cebpf4jnsgd1na2vs0mg"},{"bike_id":"9d12a25d-8a2c-4449-87ad-e17d1c6f58d4","system_id":"levelo_inurba_marseille","lat":43.2827,"lon":5.35056,"is_reserved":false,"is_disabled":false,"rental_uris":{"android":"levelo://app?vid=9d12a25d-8a2c-4449-87ad-e17d1c6f58d4","ios":"levelo://app?vid=9d12a25d-8a2c-4449-87ad-e17d1c6f58d4"},"vehicle_type_id":"4","last_reported":1741792234,"current_range_meters":10800,"station_id":"ce4bhbp2rcd13ifvqerg","pricing_plan_id":"cebpf4jnsgd1na2vs0mg"},{"bike_id":"2d16443d-ed2e-4c48-af94-4deffe2479f1","system_id":"levelo_inurba_marseille","lat":43.24997,"lon":5.38951,"is_reserved":false,"is_disabled":false,"rental_uris":{"android":"levelo://app?vid=2d16443d-ed2e-4c48-af94-4deffe2479f1","ios":"levelo://app?vid=2d16443d-ed2e-4c48-af94-4deffe2479f1"},"vehicle_type_id":"4","last_reported":1741792234,"current_range_meters":10800,"station_id":"ce4bhgp2rcd13ifvqfd0","pricing_plan_id":"cebpf4jnsgd1na2vs0mg"},{"bike_id":"49241b8b-3746-4f38-8424-3c9f98022eca","system_id":"levelo_inurba_marseille","lat":43.25117,"lon":5.4032,"is_reserved":false,"is_disabled":false,"rental_uris":{"android":"levelo://app?vid=49241b8b-3746-4f38-8424-3c9f98022eca","ios":"levelo://app?vid=49241b8b-3746-4f38-8424-3c9f98022eca"},"vehicle_type_id":"4","last_reported":1741792234,"current_range_meters":10800,"station_id":"ce4bhlh2rcd13ifvqgig","pricing_plan_id":"cebpf4jnsgd1na2vs0mg"},{"bike_id":"8c25ebae-476e-46e9-b505-692058b7ab14","system_id":"levelo_inurba_marseille","lat":43.2955,"lon":5.42273,"is_reserved":false,"is_disabled":false,"rental_uris":{"android":"levelo://app?vid=8c25ebae-476e-46e9-b505-692058b7ab14","ios":"levelo://app?vid=8c25ebae-476e-46e9-b505-692058b7ab14"},"vehicle_type_id":"4","last_reported":1741792234,"current_range_meters":11200,"station_id":"ce4bhph2rcd13ifvqhdg","pricing_plan_id":"cebpf4jnsgd1na2vs0mg"},{"bike_id":"0a995a9a-6122-4f4b-b298-a8b06cbca7e2","system_id":"levelo_inurba_marseille","lat":43.2501,"lon":5.389,"is_reserved":false,"is_disabled":false,"rental_uris":{"android":"levelo://app?vid=0a995a9a-6122-4f4b-b298-a8b06cbca7e2","ios":"levelo://app?vid=0a995a9a-6122-4f4b-b298-a8b06cbca7e2"},"vehicle_type_id":"4","last_reported":1741792234,"current_range_meters":11200,"station_id":"ce4bhgp2rcd13ifvqfd0","pricing_plan_id":"cebpf4jnsgd1na2vs0mg"},{"bike_id":"c7c1ce4e-10c5-4182-880f-870117bc6814","system_id":"levelo_inurba_marseille","lat":43.32533,"lon":5.41445,"is_reserved":false,"is_disabled":false,"rental_uris":{"android":"levelo://app?vid=c7c1ce4e-10c5-4182-880f-870117bc6814","ios":"levelo://app?vid=c7c1ce4e-10c5-4182-880f-870117bc6814"},"vehicle_type_id":"4","last_reported":1741792234,"current_range_meters":11200,"station_id":"ce4bhq12rcd13ifvqhhg","pricing_plan_id":"cebpf4jnsgd1na2vs0mg"},{"bike_id":"80b618f8-411f-48ab-ae4a-b1dfdfb8b4bd","system_id":"levelo_inurba_marseille","lat":43.2794,"lon":5.41045,"is_reserved":false,"is_disabled":false,"rental_uris":{"android":"levelo://app?vid=80b618f8-411f-48ab-ae4a-b1dfdfb8b4bd","ios":"levelo://app?vid=80b618f8-411f-48ab-ae4a-b1dfdfb8b4bd"},"vehicle_type_id":"4","last_reported":1741792234,"current_range_meters":11200,"station_id":"ce4bhnp2rcd13ifvqh0g","pricing_plan_id":"cebpf4jnsgd1na2vs0mg"},{"bike_id":"9f25a6ad-433a-45b0-a0d0-4a619d769e26","system_id":"levelo_inurba_marseille","lat":43.23195,"lon":5.35561,"is_reserved":false,"is_disabled":false,"rental_uris":{"android":"levelo://app?vid=9f25a6ad-433a-45b0-a0d0-4a619d769e26","ios":"levelo://app?vid=9f25a6ad-433a-45b0-a0d0-4a619d769e26"},"vehicle_type_id":"4","last_reported":1741792234,"current_range_meters":11200,"station_id":"ce4bhu92rcd13ifvqi70","pricing_plan_id":"cebpf4jnsgd1na2vs0mg"},{"bike_id":"d8fd9103-60a0-416a-9615-1a52413899b6","system_id":"levelo_inurba_marseille","lat":43.30886,"lon":5.37192,"is_reserved":false,"is_disabled":false,"rental_uris":{"android":"levelo://app?vid=d8fd9103-60a0-416a-9615-1a52413899b6","ios":"levelo://app?vid=d8fd9103-60a0-416a-9615-1a52413899b6"},"vehicle_type_id":"4","last_reported":1741792234,"current_range_meters":11200,"station_id":"ce4bguh2rcd13ifvqckg","pricing_plan_id":"cebpf4jnsgd1na2vs0mg"},{"bike_id":"b7448816-5297-498c-a5af-36edd6732a70","system_id":"levelo_inurba_marseille","lat":43.29539,"lon":5.38545,"is_reserved":false,"is_disabled":false,"rental_uris":{"android":"levelo://app?vid=b7448816-5297-498c-a5af-36edd6732a70","ios":"levelo://app?vid=b7448816-5297-498c-a5af-36edd6732a70"},"vehicle_type_id":"4","last_reported":1741792234,"current_range_meters":11200,"station_id":"ce4bgih2rcd13ifvqba0","pricing_plan_id":"cebpf4jnsgd1na2vs0mg"},{"bike_id":"89360bb9-bf30-438e-9152-da452160a1d7","system_id":"levelo_inurba_marseille","lat":43.30136,"lon":5.38774,"is_reserved":false,"is_disabled":false,"rental_uris":{"android":"levelo://app?vid=89360bb9-bf30-438e-9152-da452160a1d7","ios":"levelo://app?vid=89360bb9-bf30-438e-9152-da452160a1d7"},"vehicle_type_id":"4","last_reported":1741792234,"current_range_meters":11200,"station_id":"ce4bghh2rcd13ifvqb60","pricing_plan_id":"cebpf4jnsgd1na2vs0mg"},{"bike_id":"6c83aba9-eb1e-4e35-add9-1ed6c49a74fd","system_id":"levelo_inurba_marseille","lat":43.27975,"lon":5.41665,"is_reserved":false,"is_disabled":false,"rental_uris":{"android":"levelo://app?vid=6c83aba9-eb1e-4e35-add9-1ed6c49a74fd","ios":"levelo://app?vid=6c83aba9-eb1e-4e35-add9-1ed6c49a74fd"},"vehicle_type_id":"4","last_reported":1741792234,"current_range_meters":11200,"station_id":"ce4bho12rcd13ifvqh1g","pricing_plan_id":"cebpf4jnsgd1na2vs0mg"},{"bike_id":"3baf227d-0be9-4b96-8721-684a3fb14c35","system_id":"levelo_inurba_marseille","lat":43.31835,"lon":5.3735,"is_reserved":false,"is_disabled":false,"rental_uris":{"android":"levelo://app?vid=3baf227d-0be9-4b96-8721-684a3fb14c35","ios":"levelo://app?vid=3baf227d-0be9-4b96-8721-684a3fb14c35"},"vehicle_type_id":"4","last_reported":1741792234,"current_range_meters":11600,"station_id":"","pricing_plan_id":"cebpf4jnsgd1na2vs0mg"},{"bike_id":"2ad38e49-8cba-4044-8685-719b8bf003db","system_id":"levelo_inurba_marseille","lat":43.29193,"lon":5.39324,"is_reserved":false,"is_disabled":false,"rental_uris":{"android":"levelo://app?vid=2ad38e49-8cba-4044-8685-719b8bf003db","ios":"levelo://app?vid=2ad38e49-8cba-4044-8685-719b8bf003db"},"vehicle_type_id":"4","last_reported":1741792234,"current_range_meters":11600,"station_id":"ce4bh192rcd13ifvqdd0","pricing_plan_id":"cebpf4jnsgd1na2vs0mg"},{"bike_id":"6dbc9b4a-c5a1-4dbf-a00f-5bb7462d2694","system_id":"levelo_inurba_marseille","lat":43.28096,"lon":5.39856,"is_reserved":false,"is_disabled":false,"rental_uris":{"android":"levelo://app?vid=6dbc9b4a-c5a1-4dbf-a00f-5bb7462d2694","ios":"levelo://app?vid=6dbc9b4a-c5a1-4dbf-a00f-5bb7462d2694"},"vehicle_type_id":"4","last_reported":1741792234,"current_range_meters":11600,"station_id":"","pricing_plan_id":"cebpf4jnsgd1na2vs0mg"},{"bike_id":"ae96c602-d548-4bb1-9ee2-ca7a906de40a","system_id":"levelo_inurba_marseille","lat":43.25507,"lon":5.3766,"is_reserved":false,"is_disabled":false,"rental_uris":{"android":"levelo://app?vid=ae96c602-d548-4bb1-9ee2-ca7a906de40a","ios":"levelo://app?vid=ae96c602-d548-4bb1-9ee2-ca7a906de40a"},"vehicle_type_id":"4","last_reported":1741792234,"current_range_meters":11600,"station_id":"ce4bhh12rcd13ifvqff0","pricing_plan_id":"cebpf4jnsgd1na2vs0mg"},{"bike_id":"1d38b5c9-b9ed-4e28-b905-1046c574471a","system_id":"levelo_inurba_marseille","lat":43.30301,"lon":5.39216,"is_reserved":false,"is_disabled":false,"rental_uris":{"android":"levelo://app?vid=1d38b5c9-b9ed-4e28-b905-1046c574471a","ios":"levelo://app?vid=1d38b5c9-b9ed-4e28-b905-1046c574471a"},"vehicle_type_id":"4","last_reported":1741792234,"current_range_meters":12000,"station_id":"ce4bgkh2rcd13ifvqbk0","pricing_plan_id":"cebpf4jnsgd1na2vs0mg"},{"bike_id":"7372912a-1ca2-4e66-a3f6-36673a56cf29","system_id":"levelo_inurba_marseille","lat":43.30093,"lon":5.39079,"is_reserved":false,"is_disabled":false,"rental_uris":{"android":"levelo://app?vid=7372912a-1ca2-4e66-a3f6-36673a56cf29","ios":"levelo://app?vid=7372912a-1ca2-4e66-a3f6-36673a56cf29"},"vehicle_type_id":"4","last_reported":1741792234,"current_range_meters":12000,"station_id":"ce4bh192rcd13ifvqdb0","pricing_plan_id":"cebpf4jnsgd1na2vs0mg"},{"bike_id":"9c95b9ba-38ab-436f-b7ad-8276dbdc7e01","system_id":"levelo_inurba_marseille","lat":43.23948,"lon":5.36653,"is_reserved":false,"is_disabled":false,"rental_uris":{"android":"levelo://app?vid=9c95b9ba-38ab-436f-b7ad-8276dbdc7e01","ios":"levelo://app?vid=9c95b9ba-38ab-436f-b7ad-8276dbdc7e01"},"vehicle_type_id":"4","last_reported":1741792234,"current_range_meters":12000,"station_id":"ce4bhi12rcd13ifvqfp0","pricing_plan_id":"cebpf4jnsgd1na2vs0mg"},{"bike_id":"c2fdc035-3896-46f1-aee2-5294a5907071","system_id":"levelo_inurba_marseille","lat":43.25004,"lon":5.38936,"is_reserved":false,"is_disabled":false,"rental_uris":{"android":"levelo://app?vid=c2fdc035-3896-46f1-aee2-5294a5907071","ios":"levelo://app?vid=c2fdc035-3896-46f1-aee2-5294a5907071"},"vehicle_type_id":"4","last_reported":1741792234,"current_range_meters":12000,"station_id":"ce4bhgp2rcd13ifvqfd0","pricing_plan_id":"cebpf4jnsgd1na2vs0mg"},{"bike_id":"d6ae45cc-0604-4c3a-a3f5-e416fc598532","system_id":"levelo_inurba_marseille","lat":43.29916,"lon":5.37477,"is_reserved":false,"is_disabled":false,"rental_uris":{"android":"levelo://app?vid=d6ae45cc-0604-4c3a-a3f5-e416fc598532","ios":"levelo://app?vid=d6ae45cc-0604-4c3a-a3f5-e416fc598532"},"vehicle_type_id":"4","last_reported":1741792234,"current_range_meters":12400,"station_id":"ce4bgjh2rcd13ifvqbg0","pricing_plan_id":"cebpf4jnsgd1na2vs0mg"},{"bike_id":"b5441d2d-4a0e-43b5-8544-6361aad77c25","system_id":"levelo_inurba_marseille","lat":43.286088,"lon":5.351009,"is_reserved":false,"is_disabled":false,"rental_uris":{"android":"levelo://app?vid=b5441d2d-4a0e-43b5-8544-6361aad77c25","ios":"levelo://app?vid=b5441d2d-4a0e-43b5-8544-6361aad77c25"},"vehicle_type_id":"4","last_reported":1741792234,"current_range_meters":12400,"station_id":"ce4bhih2rcd13ifvqfr0","pricing_plan_id":"cebpf4jnsgd1na2vs0mg"},{"bike_id":"7b51e532-c2f1-4eca-82fb-a435476c5e72","system_id":"levelo_inurba_marseille","lat":43.29529,"lon":5.39395,"is_reserved":false,"is_disabled":false,"rental_uris":{"android":"levelo://app?vid=7b51e532-c2f1-4eca-82fb-a435476c5e72","ios":"levelo://app?vid=7b51e532-c2f1-4eca-82fb-a435476c5e72"},"vehicle_type_id":"4","last_reported":1741792234,"current_range_meters":11600,"station_id":"","pricing_plan_id":"cebpf4jnsgd1na2vs0mg"},{"bike_id":"9943ca92-55f1-47b2-9044-d4f9bf1efedd","system_id":"levelo_inurba_marseille","lat":43.26815,"lon":5.40249,"is_reserved":false,"is_disabled":false,"rental_uris":{"android":"levelo://app?vid=9943ca92-55f1-47b2-9044-d4f9bf1efedd","ios":"levelo://app?vid=9943ca92-55f1-47b2-9044-d4f9bf1efedd"},"vehicle_type_id":"4","last_reported":1741792234,"current_range_meters":12800,"station_id":"ce501612rcd8frsf0b60","pricing_plan_id":"cebpf4jnsgd1na2vs0mg"},{"bike_id":"8c53e607-e317-4210-97e2-123002a7c9f8","system_id":"levelo_inurba_marseille","lat":43.30926,"lon":5.40141,"is_reserved":false,"is_disabled":false,"rental_uris":{"android":"levelo://app?vid=8c53e607-e317-4210-97e2-123002a7c9f8","ios":"levelo://app?vid=8c53e607-e317-4210-97e2-123002a7c9f8"},"vehicle_type_id":"4","last_reported":1741792234,"current_range_meters":12800,"station_id":"ce4bgvp2rcd13ifvqct0","pricing_plan_id":"cebpf4jnsgd1na2vs0mg"},{"bike_id":"4ad9c640-704f-4648-a12d-b5105947d193","system_id":"levelo_inurba_marseille","lat":43.2781,"lon":5.40714,"is_reserved":false,"is_disabled":false,"rental_uris":{"android":"levelo://app?vid=4ad9c640-704f-4648-a12d-b5105947d193","ios":"levelo://app?vid=4ad9c640-704f-4648-a12d-b5105947d193"},"vehicle_type_id":"4","last_reported":1741792234,"current_range_meters":12800,"station_id":"ce4bhnh2rcd13ifvqgtg","pricing_plan_id":"cebpf4jnsgd1na2vs0mg"},{"bike_id":"83866b19-cad2-424a-af80-f8c0692ef5bb","system_id":"levelo_inurba_marseille","lat":43.28568,"lon":5.39503,"is_reserved":false,"is_disabled":false,"rental_uris":{"android":"levelo://app?vid=83866b19-cad2-424a-af80-f8c0692ef5bb","ios":"levelo://app?vid=83866b19-cad2-424a-af80-f8c0692ef5bb"},"vehicle_type_id":"4","last_reported":1741792234,"current_range_meters":12800,"station_id":"ce4bh292rcd13ifvqdg0","pricing_plan_id":"cebpf4jnsgd1na2vs0mg"},{"bike_id":"9ef6c305-d511-42e8-b318-482e166871ca","system_id":"levelo_inurba_marseille","lat":43.3171,"lon":5.37738,"is_reserved":false,"is_disabled":false,"rental_uris":{"android":"levelo://app?vid=9ef6c305-d511-42e8-b318-482e166871ca","ios":"levelo://app?vid=9ef6c305-d511-42e8-b318-482e166871ca"},"vehicle_type_id":"4","last_reported":1741792234,"current_range_meters":12800,"station_id":"ce4bgth2rcd13ifvqch0","pricing_plan_id":"cebpf4jnsgd1na2vs0mg"},{"bike_id":"32df9b81-f861-4cf0-9a99-521f2caf084a","system_id":"levelo_inurba_marseille","lat":43.27377,"lon":5.3627,"is_reserved":false,"is_disabled":false,"rental_uris":{"android":"levelo://app?vid=32df9b81-f861-4cf0-9a99-521f2caf084a","ios":"levelo://app?vid=32df9b81-f861-4cf0-9a99-521f2caf084a"},"vehicle_type_id":"4","last_reported":1741792234,"current_range_meters":12800,"station_id":"ce4bhbh2rcd13ifvqeo0","pricing_plan_id":"cebpf4jnsgd1na2vs0mg"},{"bike_id":"b8e1e835-0538-47de-9a9f-057f487ccd2e","system_id":"levelo_inurba_marseille","lat":43.29593,"lon":5.40189,"is_reserved":false,"is_disabled":false,"rental_uris":{"android":"levelo://app?vid=b8e1e835-0538-47de-9a9f-057f487ccd2e","ios":"levelo://app?vid=b8e1e835-0538-47de-9a9f-057f487ccd2e"},"vehicle_type_id":"4","last_reported":1741792234,"current_range_meters":12800,"station_id":"ce4bh112rcd13ifvqd90","pricing_plan_id":"cebpf4jnsgd1na2vs0mg"},{"bike_id":"33c1c685-5e4c-4ca2-901c-553b4aa2a8b3","system_id":"levelo_inurba_marseille","lat":43.28277,"lon":5.35067,"is_reserved":false,"is_disabled":false,"rental_uris":{"android":"levelo://app?vid=33c1c685-5e4c-4ca2-901c-553b4aa2a8b3","ios":"levelo://app?vid=33c1c685-5e4c-4ca2-901c-553b4aa2a8b3"},"vehicle_type_id":"4","last_reported":1741792234,"current_range_meters":12800,"station_id":"ce4bhbp2rcd13ifvqerg","pricing_plan_id":"cebpf4jnsgd1na2vs0mg"},{"bike_id":"649cd435-d421-4590-a73f-fcb29cfb5206","system_id":"levelo_inurba_marseille","lat":43.280014,"lon":5.416644,"is_reserved":false,"is_disabled":false,"rental_uris":{"android":"levelo://app?vid=649cd435-d421-4590-a73f-fcb29cfb5206","ios":"levelo://app?vid=649cd435-d421-4590-a73f-fcb29cfb5206"},"vehicle_type_id":"4","last_reported":1741792234,"current_range_meters":13600,"station_id":"ce4bho12rcd13ifvqh1g","pricing_plan_id":"cebpf4jnsgd1na2vs0mg"},{"bike_id":"8a63fff0-551b-4d73-abcd-c303ef8f9ffa","system_id":"levelo_inurba_marseille","lat":43.26941,"lon":5.40249,"is_reserved":false,"is_disabled":false,"rental_uris":{"android":"levelo://app?vid=8a63fff0-551b-4d73-abcd-c303ef8f9ffa","ios":"levelo://app?vid=8a63fff0-551b-4d73-abcd-c303ef8f9ffa"},"vehicle_type_id":"4","last_reported":1741792234,"current_range_meters":13600,"station_id":"cjm6bp8fraef2m0cb0m0","pricing_plan_id":"cebpf4jnsgd1na2vs0mg"},{"bike_id":"4c607265-c996-4d9b-81fd-daa80dd99e32","system_id":"levelo_inurba_marseille","lat":43.287571,"lon":5.384253,"is_reserved":false,"is_disabled":false,"rental_uris":{"android":"levelo://app?vid=4c607265-c996-4d9b-81fd-daa80dd99e32","ios":"levelo://app?vid=4c607265-c996-4d9b-81fd-daa80dd99e32"},"vehicle_type_id":"4","last_reported":1741792234,"current_range_meters":13600,"station_id":"","pricing_plan_id":"cebpf4jnsgd1na2vs0mg"},{"bike_id":"73a189b0-9e96-4045-870a-fd3b791be1f2","system_id":"levelo_inurba_marseille","lat":43.30793,"lon":5.38158,"is_reserved":false,"is_disabled":false,"rental_uris":{"android":"levelo://app?vid=73a189b0-9e96-4045-870a-fd3b791be1f2","ios":"levelo://app?vid=73a189b0-9e96-4045-870a-fd3b791be1f2"},"vehicle_type_id":"4","last_reported":1741792234,"current_range_meters":13600,"station_id":"ce4bgt12rcd13ifvqce0","pricing_plan_id":"cebpf4jnsgd1na2vs0mg"},{"bike_id":"79397302-4916-493d-9bc0-e5035ae3c476","system_id":"levelo_inurba_marseille","lat":43.22936,"lon":5.35391,"is_reserved":false,"is_disabled":false,"rental_uris":{"android":"levelo://app?vid=79397302-4916-493d-9bc0-e5035ae3c476","ios":"levelo://app?vid=79397302-4916-493d-9bc0-e5035ae3c476"},"vehicle_type_id":"4","last_reported":1741792234,"current_range_meters":13600,"station_id":"cpo3532slgdg3j2ikp40","pricing_plan_id":"cebpf4jnsgd1na2vs0mg"},{"bike_id":"45496e8b-e387-42b3-82f3-3baf2a5eb62f","system_id":"levelo_inurba_marseille","lat":43.28614,"lon":5.35103,"is_reserved":false,"is_disabled":false,"rental_uris":{"android":"levelo://app?vid=45496e8b-e387-42b3-82f3-3baf2a5eb62f","ios":"levelo://app?vid=45496e8b-e387-42b3-82f3-3baf2a5eb62f"},"vehicle_type_id":"4","last_reported":1741792234,"current_range_meters":13600,"station_id":"ce4bhch2rcd13ifvqeug","pricing_plan_id":"cebpf4jnsgd1na2vs0mg"},{"bike_id":"c8f5a7aa-328f-49c1-a785-9624fa888d07","system_id":"levelo_inurba_marseille","lat":43.25009,"lon":5.38924,"is_reserved":false,"is_disabled":false,"rental_uris":{"android":"levelo://app?vid=c8f5a7aa-328f-49c1-a785-9624fa888d07","ios":"levelo://app?vid=c8f5a7aa-328f-49c1-a785-9624fa888d07"},"vehicle_type_id":"4","last_reported":1741792234,"current_range_meters":13600,"station_id":"ce4bhgp2rcd13ifvqfd0","pricing_plan_id":"cebpf4jnsgd1na2vs0mg"},{"bike_id":"1b8b2ba2-8d14-4897-8a42-36dceea487b6","system_id":"levelo_inurba_marseille","lat":43.27939,"lon":5.41045,"is_reserved":false,"is_disabled":false,"rental_uris":{"android":"levelo://app?vid=1b8b2ba2-8d14-4897-8a42-36dceea487b6","ios":"levelo://app?vid=1b8b2ba2-8d14-4897-8a42-36dceea487b6"},"vehicle_type_id":"4","last_reported":1741792234,"current_range_meters":13600,"station_id":"ce4bhnp2rcd13ifvqh0g","pricing_plan_id":"cebpf4jnsgd1na2vs0mg"},{"bike_id":"04b6b0f6-d318-40e6-a023-347d481d621c","system_id":"levelo_inurba_marseille","lat":43.29188,"lon":5.3757,"is_reserved":false,"is_disabled":false,"rental_uris":{"android":"levelo://app?vid=04b6b0f6-d318-40e6-a023-347d481d621c","ios":"levelo://app?vid=04b6b0f6-d318-40e6-a023-347d481d621c"},"vehicle_type_id":"4","last_reported":1741792234,"current_range_meters":14000,"station_id":"","pricing_plan_id":"cebpf4jnsgd1na2vs0mg"},{"bike_id":"86fc146c-4af9-49a2-9b65-b6b8fa03c722","system_id":"levelo_inurba_marseille","lat":43.29186,"lon":5.39308,"is_reserved":false,"is_disabled":false,"rental_uris":{"android":"levelo://app?vid=86fc146c-4af9-49a2-9b65-b6b8fa03c722","ios":"levelo://app?vid=86fc146c-4af9-49a2-9b65-b6b8fa03c722"},"vehicle_type_id":"4","last_reported":1741792234,"current_range_meters":14000,"station_id":"ce4bh192rcd13ifvqdd0","pricing_plan_id":"cebpf4jnsgd1na2vs0mg"},{"bike_id":"2872f208-7a92-4283-a98c-8da021fd4c46","system_id":"levelo_inurba_marseille","lat":43.3028,"lon":5.37715,"is_reserved":false,"is_disabled":false,"rental_uris":{"android":"levelo://app?vid=2872f208-7a92-4283-a98c-8da021fd4c46","ios":"levelo://app?vid=2872f208-7a92-4283-a98c-8da021fd4c46"},"vehicle_type_id":"4","last_reported":1741792234,"current_range_meters":14000,"station_id":"ce4bguh2rcd13ifvqcj0","pricing_plan_id":"cebpf4jnsgd1na2vs0mg"},{"bike_id":"e2649b2b-a395-468a-b663-396dd46bde5f","system_id":"levelo_inurba_marseille","lat":43.31069,"lon":5.38353,"is_reserved":false,"is_disabled":false,"rental_uris":{"android":"levelo://app?vid=e2649b2b-a395-468a-b663-396dd46bde5f","ios":"levelo://app?vid=e2649b2b-a395-468a-b663-396dd46bde5f"},"vehicle_type_id":"4","last_reported":1741792234,"current_range_meters":14000,"station_id":"ce4bgv92rcd13ifvqcr0","pricing_plan_id":"cebpf4jnsgd1na2vs0mg"},{"bike_id":"c32eb91c-0d61-4af3-8b86-ea1d03823ab1","system_id":"levelo_inurba_marseille","lat":43.28447,"lon":5.35888,"is_reserved":false,"is_disabled":false,"rental_uris":{"android":"levelo://app?vid=c32eb91c-0d61-4af3-8b86-ea1d03823ab1","ios":"levelo://app?vid=c32eb91c-0d61-4af3-8b86-ea1d03823ab1"},"vehicle_type_id":"4","last_reported":1741792234,"current_range_meters":14000,"station_id":"ce4bhah2rcd13ifvqei0","pricing_plan_id":"cebpf4jnsgd1na2vs0mg"},{"bike_id":"83fcbc34-b784-4ddc-a100-ad6d6aac8085","system_id":"levelo_inurba_marseille","lat":43.27992,"lon":5.41667,"is_reserved":false,"is_disabled":false,"rental_uris":{"android":"levelo://app?vid=83fcbc34-b784-4ddc-a100-ad6d6aac8085","ios":"levelo://app?vid=83fcbc34-b784-4ddc-a100-ad6d6aac8085"},"vehicle_type_id":"4","last_reported":1741792234,"current_range_meters":14400,"station_id":"ce4bho12rcd13ifvqh1g","pricing_plan_id":"cebpf4jnsgd1na2vs0mg"},{"bike_id":"b090c9b5-c457-4bdb-a10a-0abcc6badcd7","system_id":"levelo_inurba_marseille","lat":43.30535,"lon":5.36542,"is_reserved":false,"is_disabled":false,"rental_uris":{"android":"levelo://app?vid=b090c9b5-c457-4bdb-a10a-0abcc6badcd7","ios":"levelo://app?vid=b090c9b5-c457-4bdb-a10a-0abcc6badcd7"},"vehicle_type_id":"4","last_reported":1741792234,"current_range_meters":14400,"station_id":"ce4bgs12rcd13ifvqcag","pricing_plan_id":"cebpf4jnsgd1na2vs0mg"},{"bike_id":"cc721c7a-2c5d-4356-a2b6-591ee2c610c1","system_id":"levelo_inurba_marseille","lat":43.29723,"lon":5.37686,"is_reserved":false,"is_disabled":true,"rental_uris":{"android":"levelo://app?vid=cc721c7a-2c5d-4356-a2b6-591ee2c610c1","ios":"levelo://app?vid=cc721c7a-2c5d-4356-a2b6-591ee2c610c1"},"vehicle_type_id":"4","last_reported":1741792234,"current_range_meters":14400,"station_id":"ce4bgkh2rcd13ifvqbl0","pricing_plan_id":"cebpf4jnsgd1na2vs0mg"},{"bike_id":"d763037f-e284-4261-a4ea-98269398202b","system_id":"levelo_inurba_marseille","lat":43.30282,"lon":5.39194,"is_reserved":false,"is_disabled":false,"rental_uris":{"android":"levelo://app?vid=d763037f-e284-4261-a4ea-98269398202b","ios":"levelo://app?vid=d763037f-e284-4261-a4ea-98269398202b"},"vehicle_type_id":"4","last_reported":1741792234,"current_range_meters":14400,"station_id":"ce4bgkh2rcd13ifvqbk0","pricing_plan_id":"cebpf4jnsgd1na2vs0mg"},{"bike_id":"f811cafe-e72a-48c3-a543-8ab902937e27","system_id":"levelo_inurba_marseille","lat":43.28457,"lon":5.35887,"is_reserved":false,"is_disabled":false,"rental_uris":{"android":"levelo://app?vid=f811cafe-e72a-48c3-a543-8ab902937e27","ios":"levelo://app?vid=f811cafe-e72a-48c3-a543-8ab902937e27"},"vehicle_type_id":"4","last_reported":1741792234,"current_range_meters":14400,"station_id":"ce4bhah2rcd13ifvqei0","pricing_plan_id":"cebpf4jnsgd1na2vs0mg"},{"bike_id":"d3ac1ba6-6349-4d47-99e4-9f85d3ef1aa5","system_id":"levelo_inurba_marseille","lat":43.285,"lon":5.368695,"is_reserved":false,"is_disabled":false,"rental_uris":{"android":"levelo://app?vid=d3ac1ba6-6349-4d47-99e4-9f85d3ef1aa5","ios":"levelo://app?vid=d3ac1ba6-6349-4d47-99e4-9f85d3ef1aa5"},"vehicle_type_id":"4","last_reported":1741792234,"current_range_meters":14800,"station_id":"","pricing_plan_id":"cebpf4jnsgd1na2vs0mg"},{"bike_id":"477af7ea-1faf-4582-a5af-9ae465ff10c5","system_id":"levelo_inurba_marseille","lat":43.32957,"lon":5.39355,"is_reserved":false,"is_disabled":false,"rental_uris":{"android":"levelo://app?vid=477af7ea-1faf-4582-a5af-9ae465ff10c5","ios":"levelo://app?vid=477af7ea-1faf-4582-a5af-9ae465ff10c5"},"vehicle_type_id":"4","last_reported":1741792234,"current_range_meters":14800,"station_id":"","pricing_plan_id":"cebpf4jnsgd1na2vs0mg"},{"bike_id":"3eac7d09-28e1-4f77-a803-b8b12e33c15a","system_id":"levelo_inurba_marseille","lat":43.29413,"lon":5.38635,"is_reserved":false,"is_disabled":false,"rental_uris":{"android":"levelo://app?vid=3eac7d09-28e1-4f77-a803-b8b12e33c15a","ios":"levelo://app?vid=3eac7d09-28e1-4f77-a803-b8b12e33c15a"},"vehicle_type_id":"4","last_reported":1741792234,"current_range_meters":14800,"station_id":"ce4bh2h2rcd13ifvqdh0","pricing_plan_id":"cebpf4jnsgd1na2vs0mg"},{"bike_id":"b6a73b84-dd5a-4100-980c-f9cc6e2f26a8","system_id":"levelo_inurba_marseille","lat":43.28689,"lon":5.3867,"is_reserved":false,"is_disabled":false,"rental_uris":{"android":"levelo://app?vid=b6a73b84-dd5a-4100-980c-f9cc6e2f26a8","ios":"levelo://app?vid=b6a73b84-dd5a-4100-980c-f9cc6e2f26a8"},"vehicle_type_id":"4","last_reported":1741792234,"current_range_meters":14800,"station_id":"ce4bh492rcd13ifvqdug","pricing_plan_id":"cebpf4jnsgd1na2vs0mg"},{"bike_id":"5758100e-52d3-4cf9-9fde-1b142e3066bb","system_id":"levelo_inurba_marseille","lat":43.28932,"lon":5.38396,"is_reserved":false,"is_disabled":false,"rental_uris":{"android":"levelo://app?vid=5758100e-52d3-4cf9-9fde-1b142e3066bb","ios":"levelo://app?vid=5758100e-52d3-4cf9-9fde-1b142e3066bb"},"vehicle_type_id":"4","last_reported":1741792234,"current_range_meters":14800,"station_id":"ce4bh612rcd13ifvqe6g","pricing_plan_id":"cebpf4jnsgd1na2vs0mg"},{"bike_id":"99a3f406-b0b8-4066-adb6-b7e55216ac38","system_id":"levelo_inurba_marseille","lat":43.30276,"lon":5.37723,"is_reserved":false,"is_disabled":false,"rental_uris":{"android":"levelo://app?vid=99a3f406-b0b8-4066-adb6-b7e55216ac38","ios":"levelo://app?vid=99a3f406-b0b8-4066-adb6-b7e55216ac38"},"vehicle_type_id":"4","last_reported":1741792234,"current_range_meters":14800,"station_id":"ce4bguh2rcd13ifvqcj0","pricing_plan_id":"cebpf4jnsgd1na2vs0mg"},{"bike_id":"7382db7c-ea28-4d6b-a6ac-0a5dc179880b","system_id":"levelo_inurba_marseille","lat":43.33153,"lon":5.3817,"is_reserved":false,"is_disabled":false,"rental_uris":{"android":"levelo://app?vid=7382db7c-ea28-4d6b-a6ac-0a5dc179880b","ios":"levelo://app?vid=7382db7c-ea28-4d6b-a6ac-0a5dc179880b"},"vehicle_type_id":"4","last_reported":1741792234,"current_range_meters":15200,"station_id":"","pricing_plan_id":"cebpf4jnsgd1na2vs0mg"},{"bike_id":"8a627588-084f-45dd-8aea-54f478ee0df8","system_id":"levelo_inurba_marseille","lat":43.29847,"lon":5.3628,"is_reserved":false,"is_disabled":false,"rental_uris":{"android":"levelo://app?vid=8a627588-084f-45dd-8aea-54f478ee0df8","ios":"levelo://app?vid=8a627588-084f-45dd-8aea-54f478ee0df8"},"vehicle_type_id":"4","last_reported":1741792234,"current_range_meters":15200,"station_id":"ce4bgpp2rcd13ifvqc3g","pricing_plan_id":"cebpf4jnsgd1na2vs0mg"},{"bike_id":"207a727b-1250-4b39-a0ae-eb357b3541b9","system_id":"levelo_inurba_marseille","lat":43.296038,"lon":5.377392,"is_reserved":false,"is_disabled":false,"rental_uris":{"android":"levelo://app?vid=207a727b-1250-4b39-a0ae-eb357b3541b9","ios":"levelo://app?vid=207a727b-1250-4b39-a0ae-eb357b3541b9"},"vehicle_type_id":"4","last_reported":1741792234,"current_range_meters":15200,"station_id":"ce4bgi92rcd13ifvqb90","pricing_plan_id":"cebpf4jnsgd1na2vs0mg"},{"bike_id":"1f524b4b-445a-4cfd-8369-c458e3d58473","system_id":"levelo_inurba_marseille","lat":43.30546,"lon":5.3656,"is_reserved":false,"is_disabled":false,"rental_uris":{"android":"levelo://app?vid=1f524b4b-445a-4cfd-8369-c458e3d58473","ios":"levelo://app?vid=1f524b4b-445a-4cfd-8369-c458e3d58473"},"vehicle_type_id":"4","last_reported":1741792234,"current_range_meters":15200,"station_id":"ce4bgs12rcd13ifvqcag","pricing_plan_id":"cebpf4jnsgd1na2vs0mg"},{"bike_id":"9a134e38-b181-4f25-a74f-5c0aa28b588e","system_id":"levelo_inurba_marseille","lat":43.28473,"lon":5.3854,"is_reserved":false,"is_disabled":false,"rental_uris":{"android":"levelo://app?vid=9a134e38-b181-4f25-a74f-5c0aa28b588e","ios":"levelo://app?vid=9a134e38-b181-4f25-a74f-5c0aa28b588e"},"vehicle_type_id":"4","last_reported":1741792234,"current_range_meters":15200,"station_id":"ce4bh8p2rcd13ifvqeb0","pricing_plan_id":"cebpf4jnsgd1na2vs0mg"},{"bike_id":"ca762409-3e9b-49eb-b311-18b138aaa95f","system_id":"levelo_inurba_marseille","lat":43.33716,"lon":5.39208,"is_reserved":false,"is_disabled":false,"rental_uris":{"android":"levelo://app?vid=ca762409-3e9b-49eb-b311-18b138aaa95f","ios":"levelo://app?vid=ca762409-3e9b-49eb-b311-18b138aaa95f"},"vehicle_type_id":"4","last_reported":1741792234,"current_range_meters":15200,"station_id":"ce4bhr92rcd13ifvqhsg","pricing_plan_id":"cebpf4jnsgd1na2vs0mg"},{"bike_id":"4a51cf4c-fdaf-4e23-ae98-07c161779c4f","system_id":"levelo_inurba_marseille","lat":43.30793,"lon":5.3816,"is_reserved":false,"is_disabled":false,"rental_uris":{"android":"levelo://app?vid=4a51cf4c-fdaf-4e23-ae98-07c161779c4f","ios":"levelo://app?vid=4a51cf4c-fdaf-4e23-ae98-07c161779c4f"},"vehicle_type_id":"4","last_reported":1741792234,"current_range_meters":15200,"station_id":"ce4bgt12rcd13ifvqce0","pricing_plan_id":"cebpf4jnsgd1na2vs0mg"},{"bike_id":"2738320e-a422-47df-9c51-1588d0339812","system_id":"levelo_inurba_marseille","lat":43.31073,"lon":5.38356,"is_reserved":false,"is_disabled":false,"rental_uris":{"android":"levelo://app?vid=2738320e-a422-47df-9c51-1588d0339812","ios":"levelo://app?vid=2738320e-a422-47df-9c51-1588d0339812"},"vehicle_type_id":"4","last_reported":1741792234,"current_range_meters":16000,"station_id":"ce4bgv92rcd13ifvqcr0","pricing_plan_id":"cebpf4jnsgd1na2vs0mg"},{"bike_id":"e85e7281-8ded-4f9f-9074-cd43c73f5f32","system_id":"levelo_inurba_marseille","lat":43.31327,"lon":5.37336,"is_reserved":false,"is_disabled":false,"rental_uris":{"android":"levelo://app?vid=e85e7281-8ded-4f9f-9074-cd43c73f5f32","ios":"levelo://app?vid=e85e7281-8ded-4f9f-9074-cd43c73f5f32"},"vehicle_type_id":"4","last_reported":1741792234,"current_range_meters":16000,"station_id":"","pricing_plan_id":"cebpf4jnsgd1na2vs0mg"},{"bike_id":"8e34f75b-2026-4aa7-95fd-240670206507","system_id":"levelo_inurba_marseille","lat":43.29266,"lon":5.37627,"is_reserved":false,"is_disabled":false,"rental_uris":{"android":"levelo://app?vid=8e34f75b-2026-4aa7-95fd-240670206507","ios":"levelo://app?vid=8e34f75b-2026-4aa7-95fd-240670206507"},"vehicle_type_id":"4","last_reported":1741792234,"current_range_meters":16000,"station_id":"ce4bgi12rcd13ifvqb80","pricing_plan_id":"cebpf4jnsgd1na2vs0mg"},{"bike_id":"d1235ce3-1007-4d2d-9e28-ea39398a63a8","system_id":"levelo_inurba_marseille","lat":43.23199,"lon":5.3555,"is_reserved":false,"is_disabled":false,"rental_uris":{"android":"levelo://app?vid=d1235ce3-1007-4d2d-9e28-ea39398a63a8","ios":"levelo://app?vid=d1235ce3-1007-4d2d-9e28-ea39398a63a8"},"vehicle_type_id":"4","last_reported":1741792234,"current_range_meters":16000,"station_id":"ce4bhu92rcd13ifvqi70","pricing_plan_id":"cebpf4jnsgd1na2vs0mg"},{"bike_id":"a44739fe-6c4a-4d10-b7d6-ed0ad39ea565","system_id":"levelo_inurba_marseille","lat":43.28461,"lon":5.35892,"is_reserved":false,"is_disabled":false,"rental_uris":{"android":"levelo://app?vid=a44739fe-6c4a-4d10-b7d6-ed0ad39ea565","ios":"levelo://app?vid=a44739fe-6c4a-4d10-b7d6-ed0ad39ea565"},"vehicle_type_id":"4","last_reported":1741792234,"current_range_meters":16000,"station_id":"ce4bhah2rcd13ifvqei0","pricing_plan_id":"cebpf4jnsgd1na2vs0mg"},{"bike_id":"6409c830-c2df-45cd-9a5f-8b97dfbc5a8c","system_id":"levelo_inurba_marseille","lat":43.23965,"lon":5.36634,"is_reserved":false,"is_disabled":false,"rental_uris":{"android":"levelo://app?vid=6409c830-c2df-45cd-9a5f-8b97dfbc5a8c","ios":"levelo://app?vid=6409c830-c2df-45cd-9a5f-8b97dfbc5a8c"},"vehicle_type_id":"4","last_reported":1741792234,"current_range_meters":16000,"station_id":"ce4bhi12rcd13ifvqfp0","pricing_plan_id":"cebpf4jnsgd1na2vs0mg"},{"bike_id":"0118782e-a9be-4c57-a3c6-f989e8d3b9bf","system_id":"levelo_inurba_marseille","lat":43.24185,"lon":5.39731,"is_reserved":false,"is_disabled":false,"rental_uris":{"android":"levelo://app?vid=0118782e-a9be-4c57-a3c6-f989e8d3b9bf","ios":"levelo://app?vid=0118782e-a9be-4c57-a3c6-f989e8d3b9bf"},"vehicle_type_id":"4","last_reported":1741792234,"current_range_meters":16000,"station_id":"ce4bhn12rcd13ifvqgpg","pricing_plan_id":"cebpf4jnsgd1na2vs0mg"},{"bike_id":"7b8b288a-1263-4bb7-b082-b8cec0e2c2c0","system_id":"levelo_inurba_marseille","lat":43.32695,"lon":5.39178,"is_reserved":false,"is_disabled":false,"rental_uris":{"android":"levelo://app?vid=7b8b288a-1263-4bb7-b082-b8cec0e2c2c0","ios":"levelo://app?vid=7b8b288a-1263-4bb7-b082-b8cec0e2c2c0"},"vehicle_type_id":"4","last_reported":1741792234,"current_range_meters":16000,"station_id":"","pricing_plan_id":"cebpf4jnsgd1na2vs0mg"},{"bike_id":"de832d39-3d23-4bf0-b66d-5b3ec4fbac26","system_id":"levelo_inurba_marseille","lat":43.30183,"lon":5.36617,"is_reserved":false,"is_disabled":false,"rental_uris":{"android":"levelo://app?vid=de832d39-3d23-4bf0-b66d-5b3ec4fbac26","ios":"levelo://app?vid=de832d39-3d23-4bf0-b66d-5b3ec4fbac26"},"vehicle_type_id":"4","last_reported":1741792234,"current_range_meters":16000,"station_id":"ce4bgrh2rcd13ifvqc8g","pricing_plan_id":"cebpf4jnsgd1na2vs0mg"},{"bike_id":"1cb8b9a8-7eb2-4167-9ba5-082052e60c62","system_id":"levelo_inurba_marseille","lat":43.29722,"lon":5.3659,"is_reserved":false,"is_disabled":false,"rental_uris":{"android":"levelo://app?vid=1cb8b9a8-7eb2-4167-9ba5-082052e60c62","ios":"levelo://app?vid=1cb8b9a8-7eb2-4167-9ba5-082052e60c62"},"vehicle_type_id":"4","last_reported":1741792234,"current_range_meters":16400,"station_id":"ce4bgn12rcd13ifvqbt0","pricing_plan_id":"cebpf4jnsgd1na2vs0mg"},{"bike_id":"94b30f95-19e8-4b24-809a-d279976d82ea","system_id":"levelo_inurba_marseille","lat":43.31377,"lon":5.39645,"is_reserved":false,"is_disabled":false,"rental_uris":{"android":"levelo://app?vid=94b30f95-19e8-4b24-809a-d279976d82ea","ios":"levelo://app?vid=94b30f95-19e8-4b24-809a-d279976d82ea"},"vehicle_type_id":"4","last_reported":1741792234,"current_range_meters":16400,"station_id":"","pricing_plan_id":"cebpf4jnsgd1na2vs0mg"},{"bike_id":"fccf470e-07cd-4ae8-bb66-5a5f55365a28","system_id":"levelo_inurba_marseille","lat":43.243739,"lon":5.396619,"is_reserved":false,"is_disabled":false,"rental_uris":{"android":"levelo://app?vid=fccf470e-07cd-4ae8-bb66-5a5f55365a28","ios":"levelo://app?vid=fccf470e-07cd-4ae8-bb66-5a5f55365a28"},"vehicle_type_id":"4","last_reported":1741792234,"current_range_meters":16400,"station_id":"ce4bhl92rcd13ifvqghg","pricing_plan_id":"cebpf4jnsgd1na2vs0mg"},{"bike_id":"626b92c5-6356-412a-b3dc-fb840144de03","system_id":"levelo_inurba_marseille","lat":43.29223,"lon":5.36087,"is_reserved":false,"is_disabled":false,"rental_uris":{"android":"levelo://app?vid=626b92c5-6356-412a-b3dc-fb840144de03","ios":"levelo://app?vid=626b92c5-6356-412a-b3dc-fb840144de03"},"vehicle_type_id":"4","last_reported":1741792234,"current_range_meters":16400,"station_id":"ce4bhbh2rcd13ifvqeqg","pricing_plan_id":"cebpf4jnsgd1na2vs0mg"},{"bike_id":"ae7fc1ea-84cd-4b37-95fa-39065213291a","system_id":"levelo_inurba_marseille","lat":43.28463,"lon":5.35903,"is_reserved":false,"is_disabled":false,"rental_uris":{"android":"levelo://app?vid=ae7fc1ea-84cd-4b37-95fa-39065213291a","ios":"levelo://app?vid=ae7fc1ea-84cd-4b37-95fa-39065213291a"},"vehicle_type_id":"4","last_reported":1741792234,"current_range_meters":16400,"station_id":"ce4bhah2rcd13ifvqei0","pricing_plan_id":"cebpf4jnsgd1na2vs0mg"},{"bike_id":"894adb72-eba3-4c31-be33-a34cdb918fbd","system_id":"levelo_inurba_marseille","lat":43.25731,"lon":5.4112,"is_reserved":false,"is_disabled":false,"rental_uris":{"android":"levelo://app?vid=894adb72-eba3-4c31-be33-a34cdb918fbd","ios":"levelo://app?vid=894adb72-eba3-4c31-be33-a34cdb918fbd"},"vehicle_type_id":"4","last_reported":1741792234,"current_range_meters":16400,"station_id":"ce4bhkp2rcd13ifvqgd0","pricing_plan_id":"cebpf4jnsgd1na2vs0mg"},{"bike_id":"0f926ef9-96ea-4a63-8c84-e5e414ac45a4","system_id":"levelo_inurba_marseille","lat":43.29853,"lon":5.36286,"is_reserved":false,"is_disabled":false,"rental_uris":{"android":"levelo://app?vid=0f926ef9-96ea-4a63-8c84-e5e414ac45a4","ios":"levelo://app?vid=0f926ef9-96ea-4a63-8c84-e5e414ac45a4"},"vehicle_type_id":"4","last_reported":1741792234,"current_range_meters":16400,"station_id":"ce4bgpp2rcd13ifvqc3g","pricing_plan_id":"cebpf4jnsgd1na2vs0mg"},{"bike_id":"6b06c3b2-4a72-4e32-b745-3da37dbf7137","system_id":"levelo_inurba_marseille","lat":43.2927,"lon":5.36857,"is_reserved":false,"is_disabled":false,"rental_uris":{"android":"levelo://app?vid=6b06c3b2-4a72-4e32-b745-3da37dbf7137","ios":"levelo://app?vid=6b06c3b2-4a72-4e32-b745-3da37dbf7137"},"vehicle_type_id":"4","last_reported":1741792234,"current_range_meters":16400,"station_id":"ce4bhbp2rcd13ifvqesg","pricing_plan_id":"cebpf4jnsgd1na2vs0mg"},{"bike_id":"c986b528-458d-4a70-8795-71f99653c9f4","system_id":"levelo_inurba_marseille","lat":43.25118,"lon":5.40319,"is_reserved":false,"is_disabled":false,"rental_uris":{"android":"levelo://app?vid=c986b528-458d-4a70-8795-71f99653c9f4","ios":"levelo://app?vid=c986b528-458d-4a70-8795-71f99653c9f4"},"vehicle_type_id":"4","last_reported":1741792234,"current_range_meters":16400,"station_id":"ce4bhlh2rcd13ifvqgig","pricing_plan_id":"cebpf4jnsgd1na2vs0mg"},{"bike_id":"a901814a-01c8-4dae-a1e9-d1577fa2ec88","system_id":"levelo_inurba_marseille","lat":43.28712,"lon":5.3793,"is_reserved":false,"is_disabled":false,"rental_uris":{"android":"levelo://app?vid=a901814a-01c8-4dae-a1e9-d1577fa2ec88","ios":"levelo://app?vid=a901814a-01c8-4dae-a1e9-d1577fa2ec88"},"vehicle_type_id":"4","last_reported":1741792234,"current_range_meters":16800,"station_id":"ce4bh9p2rcd13ifvqec0","pricing_plan_id":"cebpf4jnsgd1na2vs0mg"},{"bike_id":"a823fe98-0845-44f0-af70-a3e75e70ed04","system_id":"levelo_inurba_marseille","lat":43.250092,"lon":5.389175,"is_reserved":false,"is_disabled":false,"rental_uris":{"android":"levelo://app?vid=a823fe98-0845-44f0-af70-a3e75e70ed04","ios":"levelo://app?vid=a823fe98-0845-44f0-af70-a3e75e70ed04"},"vehicle_type_id":"4","last_reported":1741792234,"current_range_meters":16800,"station_id":"ce4bhgp2rcd13ifvqfd0","pricing_plan_id":"cebpf4jnsgd1na2vs0mg"},{"bike_id":"c2fc0f9a-56ca-4509-8e2d-54b6b468cd50","system_id":"levelo_inurba_marseille","lat":43.23153,"lon":5.43701,"is_reserved":false,"is_disabled":false,"rental_uris":{"android":"levelo://app?vid=c2fc0f9a-56ca-4509-8e2d-54b6b468cd50","ios":"levelo://app?vid=c2fc0f9a-56ca-4509-8e2d-54b6b468cd50"},"vehicle_type_id":"4","last_reported":1741792234,"current_range_meters":16800,"station_id":"ce4bhmp2rcd13ifvqgog","pricing_plan_id":"cebpf4jnsgd1na2vs0mg"},{"bike_id":"4c892131-738b-4c52-bdbc-e6dc52249103","system_id":"levelo_inurba_marseille","lat":43.32336,"lon":5.40621,"is_reserved":false,"is_disabled":false,"rental_uris":{"android":"levelo://app?vid=4c892131-738b-4c52-bdbc-e6dc52249103","ios":"levelo://app?vid=4c892131-738b-4c52-bdbc-e6dc52249103"},"vehicle_type_id":"4","last_reported":1741792234,"current_range_meters":16800,"station_id":"ce4bhq92rcd13ifvqhjg","pricing_plan_id":"cebpf4jnsgd1na2vs0mg"},{"bike_id":"72eb604f-9512-4726-b9e9-62c26aace575","system_id":"levelo_inurba_marseille","lat":43.27549,"lon":5.38451,"is_reserved":false,"is_disabled":false,"rental_uris":{"android":"levelo://app?vid=72eb604f-9512-4726-b9e9-62c26aace575","ios":"levelo://app?vid=72eb604f-9512-4726-b9e9-62c26aace575"},"vehicle_type_id":"4","last_reported":1741792234,"current_range_meters":16800,"station_id":"ce4bhh92rcd13ifvqfi0","pricing_plan_id":"cebpf4jnsgd1na2vs0mg"},{"bike_id":"614fad4b-6502-494f-a7a0-83469c67f655","system_id":"levelo_inurba_marseille","lat":43.2953,"lon":5.38532,"is_reserved":false,"is_disabled":false,"rental_uris":{"android":"levelo://app?vid=614fad4b-6502-494f-a7a0-83469c67f655","ios":"levelo://app?vid=614fad4b-6502-494f-a7a0-83469c67f655"},"vehicle_type_id":"4","last_reported":1741792234,"current_range_meters":16800,"station_id":"","pricing_plan_id":"cebpf4jnsgd1na2vs0mg"},{"bike_id":"f550acae-a478-493d-8418-eb4ab17dc323","system_id":"levelo_inurba_marseille","lat":43.2502,"lon":5.38932,"is_reserved":false,"is_disabled":false,"rental_uris":{"android":"levelo://app?vid=f550acae-a478-493d-8418-eb4ab17dc323","ios":"levelo://app?vid=f550acae-a478-493d-8418-eb4ab17dc323"},"vehicle_type_id":"4","last_reported":1741792234,"current_range_meters":16800,"station_id":"ce4bhgp2rcd13ifvqfd0","pricing_plan_id":"cebpf4jnsgd1na2vs0mg"},{"bike_id":"29b6a1fd-8662-4bab-a22a-4c8328ae50f3","system_id":"levelo_inurba_marseille","lat":43.30315,"lon":5.36884,"is_reserved":false,"is_disabled":false,"rental_uris":{"android":"levelo://app?vid=29b6a1fd-8662-4bab-a22a-4c8328ae50f3","ios":"levelo://app?vid=29b6a1fd-8662-4bab-a22a-4c8328ae50f3"},"vehicle_type_id":"4","last_reported":1741792234,"current_range_meters":16800,"station_id":"ce4bgqh2rcd13ifvqc5g","pricing_plan_id":"cebpf4jnsgd1na2vs0mg"},{"bike_id":"5e6ee500-ff5e-488c-af63-16bcdccb4e23","system_id":"levelo_inurba_marseille","lat":43.33331,"lon":5.39664,"is_reserved":false,"is_disabled":false,"rental_uris":{"android":"levelo://app?vid=5e6ee500-ff5e-488c-af63-16bcdccb4e23","ios":"levelo://app?vid=5e6ee500-ff5e-488c-af63-16bcdccb4e23"},"vehicle_type_id":"4","last_reported":1741792234,"current_range_meters":17200,"station_id":"","pricing_plan_id":"cebpf4jnsgd1na2vs0mg"},{"bike_id":"5d059a24-9b2d-4c0f-bf86-25529400725b","system_id":"levelo_inurba_marseille","lat":43.25021,"lon":5.38924,"is_reserved":false,"is_disabled":false,"rental_uris":{"android":"levelo://app?vid=5d059a24-9b2d-4c0f-bf86-25529400725b","ios":"levelo://app?vid=5d059a24-9b2d-4c0f-bf86-25529400725b"},"vehicle_type_id":"4","last_reported":1741792234,"current_range_meters":17200,"station_id":"ce4bhgp2rcd13ifvqfd0","pricing_plan_id":"cebpf4jnsgd1na2vs0mg"},{"bike_id":"a44a3aad-0870-4e05-b6c2-b2bbe679ecf5","system_id":"levelo_inurba_marseille","lat":43.30302,"lon":5.36897,"is_reserved":false,"is_disabled":false,"rental_uris":{"android":"levelo://app?vid=a44a3aad-0870-4e05-b6c2-b2bbe679ecf5","ios":"levelo://app?vid=a44a3aad-0870-4e05-b6c2-b2bbe679ecf5"},"vehicle_type_id":"4","last_reported":1741792234,"current_range_meters":17200,"station_id":"ce4bgqh2rcd13ifvqc5g","pricing_plan_id":"cebpf4jnsgd1na2vs0mg"},{"bike_id":"64fad41f-e4e5-4862-97f5-39ff76d4df36","system_id":"levelo_inurba_marseille","lat":43.26792,"lon":5.39416,"is_reserved":false,"is_disabled":false,"rental_uris":{"android":"levelo://app?vid=64fad41f-e4e5-4862-97f5-39ff76d4df36","ios":"levelo://app?vid=64fad41f-e4e5-4862-97f5-39ff76d4df36"},"vehicle_type_id":"4","last_reported":1741792234,"current_range_meters":17200,"station_id":"ce4bhh12rcd13ifvqfg0","pricing_plan_id":"cebpf4jnsgd1na2vs0mg"},{"bike_id":"688cd78e-7bd9-4575-8000-223d5e4f2b6a","system_id":"levelo_inurba_marseille","lat":43.28679,"lon":5.38672,"is_reserved":false,"is_disabled":false,"rental_uris":{"android":"levelo://app?vid=688cd78e-7bd9-4575-8000-223d5e4f2b6a","ios":"levelo://app?vid=688cd78e-7bd9-4575-8000-223d5e4f2b6a"},"vehicle_type_id":"4","last_reported":1741792234,"current_range_meters":17200,"station_id":"ce4bh492rcd13ifvqdug","pricing_plan_id":"cebpf4jnsgd1na2vs0mg"},{"bike_id":"e215f50d-edda-44ce-bf9c-14ab9e49ca11","system_id":"levelo_inurba_marseille","lat":43.25713,"lon":5.41118,"is_reserved":false,"is_disabled":false,"rental_uris":{"android":"levelo://app?vid=e215f50d-edda-44ce-bf9c-14ab9e49ca11","ios":"levelo://app?vid=e215f50d-edda-44ce-bf9c-14ab9e49ca11"},"vehicle_type_id":"4","last_reported":1741792234,"current_range_meters":17200,"station_id":"ce4bhkp2rcd13ifvqgd0","pricing_plan_id":"cebpf4jnsgd1na2vs0mg"},{"bike_id":"b7060d4e-5460-431f-9f80-3c2f51405a62","system_id":"levelo_inurba_marseille","lat":43.2942,"lon":5.38631,"is_reserved":false,"is_disabled":false,"rental_uris":{"android":"levelo://app?vid=b7060d4e-5460-431f-9f80-3c2f51405a62","ios":"levelo://app?vid=b7060d4e-5460-431f-9f80-3c2f51405a62"},"vehicle_type_id":"4","last_reported":1741792234,"current_range_meters":17200,"station_id":"ce4bh2h2rcd13ifvqdh0","pricing_plan_id":"cebpf4jnsgd1na2vs0mg"},{"bike_id":"98a46ba5-3370-413a-a12a-bd631f117730","system_id":"levelo_inurba_marseille","lat":43.30507,"lon":5.366108,"is_reserved":false,"is_disabled":false,"rental_uris":{"android":"levelo://app?vid=98a46ba5-3370-413a-a12a-bd631f117730","ios":"levelo://app?vid=98a46ba5-3370-413a-a12a-bd631f117730"},"vehicle_type_id":"4","last_reported":1741792234,"current_range_meters":17200,"station_id":"ce4bgs12rcd13ifvqcag","pricing_plan_id":"cebpf4jnsgd1na2vs0mg"},{"bike_id":"2c542a09-e66b-400a-a635-ed3442b0a9f5","system_id":"levelo_inurba_marseille","lat":43.2397,"lon":5.36644,"is_reserved":false,"is_disabled":false,"rental_uris":{"android":"levelo://app?vid=2c542a09-e66b-400a-a635-ed3442b0a9f5","ios":"levelo://app?vid=2c542a09-e66b-400a-a635-ed3442b0a9f5"},"vehicle_type_id":"4","last_reported":1741792234,"current_range_meters":17200,"station_id":"ce4bhi12rcd13ifvqfp0","pricing_plan_id":"cebpf4jnsgd1na2vs0mg"},{"bike_id":"b51a0751-de40-4eb8-8c06-ed58eda7f912","system_id":"levelo_inurba_marseille","lat":43.23189,"lon":5.39984,"is_reserved":false,"is_disabled":false,"rental_uris":{"android":"levelo://app?vid=b51a0751-de40-4eb8-8c06-ed58eda7f912","ios":"levelo://app?vid=b51a0751-de40-4eb8-8c06-ed58eda7f912"},"vehicle_type_id":"4","last_reported":1741792234,"current_range_meters":17200,"station_id":"ce4bhn12rcd13ifvqgqg","pricing_plan_id":"cebpf4jnsgd1na2vs0mg"},{"bike_id":"d4df08b0-e4dd-4c4b-ac7e-66a43d848ae1","system_id":"levelo_inurba_marseille","lat":43.312282,"lon":5.36881,"is_reserved":false,"is_disabled":false,"rental_uris":{"android":"levelo://app?vid=d4df08b0-e4dd-4c4b-ac7e-66a43d848ae1","ios":"levelo://app?vid=d4df08b0-e4dd-4c4b-ac7e-66a43d848ae1"},"vehicle_type_id":"4","last_reported":1741792234,"current_range_meters":17200,"station_id":"ce4bgl92rcd13ifvqbq0","pricing_plan_id":"cebpf4jnsgd1na2vs0mg"},{"bike_id":"e403288d-b468-4ea8-b33d-644efb4c82c2","system_id":"levelo_inurba_marseille","lat":43.2782,"lon":5.40729,"is_reserved":false,"is_disabled":false,"rental_uris":{"android":"levelo://app?vid=e403288d-b468-4ea8-b33d-644efb4c82c2","ios":"levelo://app?vid=e403288d-b468-4ea8-b33d-644efb4c82c2"},