{"last_updated":1731704868,"ttl":60,"version":"2.2","data":{"bikes":[{"bike_id":"2a4f068a-bf44-4be8-9720-65434032f534","system_id":"levelo_inurba_marseille","lat":43.29105,"lon":5.38986,"is_reserved":false,"is_disabled":false,"rental_uris":{"android":"levelo://app?vid=2a4f068a-bf44-4be8-9720-65434032f534","ios":"levelo://app?vid=2a4f068a-bf44-4be8-9720-65434032f534"},"vehicle_type_id":"4","last_reported":1731704869,"current_range_meters":11600,"station_id":"","pricing_plan_id":"cebpf4jnsgd1na2vs0mg"},{"bike_id":"0ced7113-db48-4671-8b7b-648b43de37ab","system_id":"levelo_inurba_marseille","lat":43.273749,"lon":5.362568,"is_reserved":false,"is_disabled":false,"rental_uris":{"android":"levelo://app?vid=0ced7113-db48-4671-8b7b-648b43de37ab","ios":"levelo://app?vid=0ced7113-db48-4671-8b7b-648b43de37ab"},"vehicle_type_id":"4","last_reported":1731704869,"current_range_meters":38800,"station_id":"ce4bhbh2rcd13ifvqeo0","pricing_plan_id":"cebpf4jnsgd1na2vs0mg"},{"bike_id":"d23182b5-adfc-48c3-b485-8166e71322f6","system_id":"levelo_inurba_marseille","lat":43.28458,"lon":5.3588,"is_reserved":false,"is_disabled":false,"rental_uris":{"android":"levelo://app?vid=d23182b5-adfc-48c3-b485-8166e71322f6","ios":"levelo://app?vid=d23182b5-adfc-48c3-b485-8166e71322f6"},"vehicle_type_id":"4","last_reported":1731704869,"current_range_meters":38400,"station_id":"ce4bhah2rcd13ifvqei0","pricing_plan_id":"cebpf4jnsgd1na2vs0mg"},{"bike_id":"5856ad94-bc0e-4f57-993d-864d7234767f","system_id":"levelo_inurba_marseille","lat":43.33763,"lon":5.37483,"is_reserved":false,"is_disabled":false,"rental_uris":{"android":"levelo://app?vid=5856ad94-bc0e-4f57-993d-864d7234767f","ios":"levelo://app?vid=5856ad94-bc0e-4f57-993d-864d7234767f"},"vehicle_type_id":"4","last_reported":1731704869,"current_range_meters":36000,"station_id":"","pricing_plan_id":"cebpf4jnsgd1na2vs0mg"},{"bike_id":"ad0119b6-f36e-41d0-aff8-49bbee3c2d02","system_id":"levelo_inurba_marseille","lat":43.31697,"lon":5.40473,"is_reserved":false,"is_disabled":false,"rental_uris":{"android":"levelo://app?vid=ad0119b6-f36e-41d0-aff8-49bbee3c2d02","ios":"levelo://app?vid=ad0119b6-f36e-41d0-aff8-49bbee3c2d02"},"vehicle_type_id":"4","last_reported":1731704869,"current_range_meters":10800,"station_id":"ce4bh012rcd13ifvqd00","pricing_plan_id":"cebpf4jnsgd1na2vs0mg"},{"bike_id":"2be53be8-1a23-4815-87c1-76a06e9cbca0","system_id":"levelo_inurba_marseille","lat":43.29292,"lon":5.37439,"is_reserved":false,"is_disabled":false,"rental_uris":{"android":"levelo://app?vid=2be53be8-1a23-4815-87c1-76a06e9cbca0","ios":"levelo://app?vid=2be53be8-1a23-4815-87c1-76a06e9cbca0"},"vehicle_type_id":"4","last_reported":1731704869,"current_range_meters":33600,"station_id":"ce4bgi12rcd13ifvqb70","pricing_plan_id":"cebpf4jnsgd1na2vs0mg"},{"bike_id":"e669f0ce-dbeb-4431-b052-0fd7081a0115","system_id":"levelo_inurba_marseille","lat":43.31691,"lon":5.40472,"is_reserved":false,"is_disabled":false,"rental_uris":{"android":"levelo://app?vid=e669f0ce-dbeb-4431-b052-0fd7081a0115","ios":"levelo://app?vid=e669f0ce-dbeb-4431-b052-0fd7081a0115"},"vehicle_type_id":"4","last_reported":1731704869,"current_range_meters":38800,"station_id":"ce4bh012rcd13ifvqd00","pricing_plan_id":"cebpf4jnsgd1na2vs0mg"},{"bike_id":"0eb01bda-d801-4ff0-8b21-6c0d4a55f83d","system_id":"levelo_inurba_marseille","lat":43.293,"lon":5.3746,"is_reserved":false,"is_disabled":false,"rental_uris":{"android":"levelo://app?vid=0eb01bda-d801-4ff0-8b21-6c0d4a55f83d","ios":"levelo://app?vid=0eb01bda-d801-4ff0-8b21-6c0d4a55f83d"},"vehicle_type_id":"4","last_reported":1731704869,"current_range_meters":33600,"station_id":"ce4bgi12rcd13ifvqb70","pricing_plan_id":"cebpf4jnsgd1na2vs0mg"},{"bike_id":"2ea4dda9-2b3f-416b-9396-8be79fc8c1ef","system_id":"levelo_inurba_marseille","lat":43.29275,"lon":5.40125,"is_reserved":false,"is_disabled":false,"rental_uris":{"android":"levelo://app?vid=2ea4dda9-2b3f-416b-9396-8be79fc8c1ef","ios":"levelo://app?vid=2ea4dda9-2b3f-416b-9396-8be79fc8c1ef"},"vehicle_type_id":"4","last_reported":1731704869,"current_range_meters":19600,"station_id":"ce4bh312rcd13ifvqdk0","pricing_plan_id":"cebpf4jnsgd1na2vs0mg"},{"bike_id":"301c37c7-8102-484a-bb27-9b181007b646","system_id":"levelo_inurba_marseille","lat":43.32287,"lon":5.38255,"is_reserved":false,"is_disabled":false,"rental_uris":{"android":"levelo://app?vid=301c37c7-8102-484a-bb27-9b181007b646","ios":"levelo://app?vid=301c37c7-8102-484a-bb27-9b181007b646"},"vehicle_type_id":"4","last_reported":1731704869,"current_range_meters":38000,"station_id":"ce4bhr12rcd13ifvqhqg","pricing_plan_id":"cebpf4jnsgd1na2vs0mg"},{"bike_id":"032ce453-8eab-4e86-a761-033f2cb26fc2","system_id":"levelo_inurba_marseille","lat":43.29413,"lon":5.38611,"is_reserved":false,"is_disabled":false,"rental_uris":{"android":"levelo://app?vid=032ce453-8eab-4e86-a761-033f2cb26fc2","ios":"levelo://app?vid=032ce453-8eab-4e86-a761-033f2cb26fc2"},"vehicle_type_id":"4","last_reported":1731704869,"current_range_meters":38800,"station_id":"ce4bh2h2rcd13ifvqdh0","pricing_plan_id":"cebpf4jnsgd1na2vs0mg"},{"bike_id":"2b0a7153-8b33-4b27-835a-298e284f7de3","system_id":"levelo_inurba_marseille","lat":43.28702,"lon":5.37374,"is_reserved":false,"is_disabled":false,"rental_uris":{"android":"levelo://app?vid=2b0a7153-8b33-4b27-835a-298e284f7de3","ios":"levelo://app?vid=2b0a7153-8b33-4b27-835a-298e284f7de3"},"vehicle_type_id":"4","last_reported":1731704869,"current_range_meters":37600,"station_id":"ce4bh3p2rcd13ifvqdq0","pricing_plan_id":"cebpf4jnsgd1na2vs0mg"},{"bike_id":"980f8cbf-b240-452a-b116-02d98fe45793","system_id":"levelo_inurba_marseille","lat":43.2953,"lon":5.39388,"is_reserved":false,"is_disabled":false,"rental_uris":{"android":"levelo://app?vid=980f8cbf-b240-452a-b116-02d98fe45793","ios":"levelo://app?vid=980f8cbf-b240-452a-b116-02d98fe45793"},"vehicle_type_id":"4","last_reported":1731704869,"current_range_meters":36400,"station_id":"ce4bh292rcd13ifvqdf0","pricing_plan_id":"cebpf4jnsgd1na2vs0mg"},{"bike_id":"72096ea1-416d-4ce9-8e40-0108aa94e46c","system_id":"levelo_inurba_marseille","lat":43.30146,"lon":5.38081,"is_reserved":false,"is_disabled":false,"rental_uris":{"android":"levelo://app?vid=72096ea1-416d-4ce9-8e40-0108aa94e46c","ios":"levelo://app?vid=72096ea1-416d-4ce9-8e40-0108aa94e46c"},"vehicle_type_id":"4","last_reported":1731704869,"current_range_meters":26000,"station_id":"ce4bgjp2rcd13ifvqbh0","pricing_plan_id":"cebpf4jnsgd1na2vs0mg"},{"bike_id":"19d74dfb-15c9-47d0-859a-f6a70d86118a","system_id":"levelo_inurba_marseille","lat":43.31694,"lon":5.40471,"is_reserved":false,"is_disabled":false,"rental_uris":{"android":"levelo://app?vid=19d74dfb-15c9-47d0-859a-f6a70d86118a","ios":"levelo://app?vid=19d74dfb-15c9-47d0-859a-f6a70d86118a"},"vehicle_type_id":"4","last_reported":1731704869,"current_range_meters":9600,"station_id":"ce4bh012rcd13ifvqd00","pricing_plan_id":"cebpf4jnsgd1na2vs0mg"},{"bike_id":"bce1eff1-82aa-4503-b1d3-234f70423160","system_id":"levelo_inurba_marseille","lat":43.29024,"lon":5.38639,"is_reserved":false,"is_disabled":false,"rental_uris":{"android":"levelo://app?vid=bce1eff1-82aa-4503-b1d3-234f70423160","ios":"levelo://app?vid=bce1eff1-82aa-4503-b1d3-234f70423160"},"vehicle_type_id":"4","last_reported":1731704869,"current_range_meters":29600,"station_id":"ce4bh4p2rcd13ifvqe0g","pricing_plan_id":"cebpf4jnsgd1na2vs0mg"},{"bike_id":"0d218d69-6f2b-4723-97e8-b51e4d9b09db","system_id":"levelo_inurba_marseille","lat":43.2942,"lon":5.38621,"is_reserved":false,"is_disabled":false,"rental_uris":{"android":"levelo://app?vid=0d218d69-6f2b-4723-97e8-b51e4d9b09db","ios":"levelo://app?vid=0d218d69-6f2b-4723-97e8-b51e4d9b09db"},"vehicle_type_id":"4","last_reported":1731704869,"current_range_meters":27200,"station_id":"ce4bh2h2rcd13ifvqdh0","pricing_plan_id":"cebpf4jnsgd1na2vs0mg"},{"bike_id":"e6041af5-5eaf-4493-9815-672b45b94902","system_id":"levelo_inurba_marseille","lat":43.29258,"lon":5.38427,"is_reserved":false,"is_disabled":false,"rental_uris":{"android":"levelo://app?vid=e6041af5-5eaf-4493-9815-672b45b94902","ios":"levelo://app?vid=e6041af5-5eaf-4493-9815-672b45b94902"},"vehicle_type_id":"4","last_reported":1731704869,"current_range_meters":25200,"station_id":"ce4bh692rcd13ifvqea0","pricing_plan_id":"cebpf4jnsgd1na2vs0mg"},{"bike_id":"b286a076-cae4-4eaf-a73e-cfccbd875304","system_id":"levelo_inurba_marseille","lat":43.29104,"lon":5.38144,"is_reserved":false,"is_disabled":false,"rental_uris":{"android":"levelo://app?vid=b286a076-cae4-4eaf-a73e-cfccbd875304","ios":"levelo://app?vid=b286a076-cae4-4eaf-a73e-cfccbd875304"},"vehicle_type_id":"4","last_reported":1731704869,"current_range_meters":38800,"station_id":"ce4bh512rcd13ifvqe2g","pricing_plan_id":"cebpf4jnsgd1na2vs0mg"},{"bike_id":"906347f7-b857-4677-b3f3-7720e8dfadfc","system_id":"levelo_inurba_marseille","lat":43.26922,"lon":5.40237,"is_reserved":false,"is_disabled":false,"rental_uris":{"android":"levelo://app?vid=906347f7-b857-4677-b3f3-7720e8dfadfc","ios":"levelo://app?vid=906347f7-b857-4677-b3f3-7720e8dfadfc"},"vehicle_type_id":"4","last_reported":1731704869,"current_range_meters":28000,"station_id":"cjm6bp8fraef2m0cb0m0","pricing_plan_id":"cebpf4jnsgd1na2vs0mg"},{"bike_id":"6b0ea79e-cb12-4a50-9845-e4686b3cacc8","system_id":"levelo_inurba_marseille","lat":43.295751,"lon":5.399791,"is_reserved":false,"is_disabled":false,"rental_uris":{"android":"levelo://app?vid=6b0ea79e-cb12-4a50-9845-e4686b3cacc8","ios":"levelo://app?vid=6b0ea79e-cb12-4a50-9845-e4686b3cacc8"},"vehicle_type_id":"4","last_reported":1731704869,"current_range_meters":17200,"station_id":"","pricing_plan_id":"cebpf4jnsgd1na2vs0mg"},{"bike_id":"d1658b93-d7f7-40d5-8254-375e20319a01","system_id":"levelo_inurba_marseille","lat":43.28946,"lon":5.36413,"is_reserved":false,"is_disabled":false,"rental_uris":{"android":"levelo://app?vid=d1658b93-d7f7-40d5-8254-375e20319a01","ios":"levelo://app?vid=d1658b93-d7f7-40d5-8254-375e20319a01"},"vehicle_type_id":"4","last_reported":1731704869,"current_range_meters":38800,"station_id":"ce4bhc92rcd13ifvqetg","pricing_plan_id":"cebpf4jnsgd1na2vs0mg"},{"bike_id":"655aa052-2a35-4df1-a528-b5352b7e281c","system_id":"levelo_inurba_marseille","lat":43.30789,"lon":5.37653,"is_reserved":false,"is_disabled":false,"rental_uris":{"android":"levelo://app?vid=655aa052-2a35-4df1-a528-b5352b7e281c","ios":"levelo://app?vid=655aa052-2a35-4df1-a528-b5352b7e281c"},"vehicle_type_id":"4","last_reported":1731704869,"current_range_meters":37600,"station_id":"ce4bgv92rcd13ifvqcq0","pricing_plan_id":"cebpf4jnsgd1na2vs0mg"},{"bike_id":"4a74f469-1d99-48ee-a8ca-9199898c00a4","system_id":"levelo_inurba_marseille","lat":43.23201,"lon":5.35546,"is_reserved":false,"is_disabled":false,"rental_uris":{"android":"levelo://app?vid=4a74f469-1d99-48ee-a8ca-9199898c00a4","ios":"levelo://app?vid=4a74f469-1d99-48ee-a8ca-9199898c00a4"},"vehicle_type_id":"4","last_reported":1731704869,"current_range_meters":12400,"station_id":"ce4bhu92rcd13ifvqi70","pricing_plan_id":"cebpf4jnsgd1na2vs0mg"},{"bike_id":"80c583dd-7b7a-4ca0-919e-53ec756eaf80","system_id":"levelo_inurba_marseille","lat":43.25718,"lon":5.41111,"is_reserved":false,"is_disabled":false,"rental_uris":{"android":"levelo://app?vid=80c583dd-7b7a-4ca0-919e-53ec756eaf80","ios":"levelo://app?vid=80c583dd-7b7a-4ca0-919e-53ec756eaf80"},"vehicle_type_id":"4","last_reported":1731704869,"current_range_meters":25600,"station_id":"ce4bhkp2rcd13ifvqgd0","pricing_plan_id":"cebpf4jnsgd1na2vs0mg"},{"bike_id":"c478ff06-0baa-4687-ac70-3188bd2aae0c","system_id":"levelo_inurba_marseille","lat":43.27619,"lon":5.36112,"is_reserved":false,"is_disabled":false,"rental_uris":{"android":"levelo://app?vid=c478ff06-0baa-4687-ac70-3188bd2aae0c","ios":"levelo://app?vid=c478ff06-0baa-4687-ac70-3188bd2aae0c"},"vehicle_type_id":"4","last_reported":1731704869,"current_range_meters":18000,"station_id":"ce4bgj92rcd13ifvqbe0","pricing_plan_id":"cebpf4jnsgd1na2vs0mg"},{"bike_id":"3d9ecae1-68e2-45c3-be2a-f2c291d5b035","system_id":"levelo_inurba_marseille","lat":43.28938,"lon":5.39628,"is_reserved":false,"is_disabled":false,"rental_uris":{"android":"levelo://app?vid=3d9ecae1-68e2-45c3-be2a-f2c291d5b035","ios":"levelo://app?vid=3d9ecae1-68e2-45c3-be2a-f2c291d5b035"},"vehicle_type_id":"4","last_reported":1731704869,"current_range_meters":34000,"station_id":"ce4bh3h2rcd13ifvqdn0","pricing_plan_id":"cebpf4jnsgd1na2vs0mg"},{"bike_id":"eb89fbfe-6d74-475b-b808-daa660499437","system_id":"levelo_inurba_marseille","lat":43.29305,"lon":5.37155,"is_reserved":false,"is_disabled":false,"rental_uris":{"android":"levelo://app?vid=eb89fbfe-6d74-475b-b808-daa660499437","ios":"levelo://app?vid=eb89fbfe-6d74-475b-b808-daa660499437"},"vehicle_type_id":"4","last_reported":1731704869,"current_range_meters":26800,"station_id":"ce4bgh92rcd13ifvqb40","pricing_plan_id":"cebpf4jnsgd1na2vs0mg"},{"bike_id":"0978d62f-8646-46f9-8614-539a1ffca0b6","system_id":"levelo_inurba_marseille","lat":43.29291,"lon":5.37443,"is_reserved":false,"is_disabled":false,"rental_uris":{"android":"levelo://app?vid=0978d62f-8646-46f9-8614-539a1ffca0b6","ios":"levelo://app?vid=0978d62f-8646-46f9-8614-539a1ffca0b6"},"vehicle_type_id":"4","last_reported":1731704869,"current_range_meters":28400,"station_id":"ce4bgi12rcd13ifvqb70","pricing_plan_id":"cebpf4jnsgd1na2vs0mg"},{"bike_id":"f54ff5df-8553-4bc8-860a-c9967ff92a84","system_id":"levelo_inurba_marseille","lat":43.29254,"lon":5.38445,"is_reserved":false,"is_disabled":false,"rental_uris":{"android":"levelo://app?vid=f54ff5df-8553-4bc8-860a-c9967ff92a84","ios":"levelo://app?vid=f54ff5df-8553-4bc8-860a-c9967ff92a84"},"vehicle_type_id":"4","last_reported":1731704869,"current_range_meters":6800,"station_id":"ce4bh692rcd13ifvqea0","pricing_plan_id":"cebpf4jnsgd1na2vs0mg"},{"bike_id":"61dc5a72-902e-4195-9647-849b2eaa5d03","system_id":"levelo_inurba_marseille","lat":43.24671,"lon":5.38157,"is_reserved":false,"is_disabled":false,"rental_uris":{"android":"levelo://app?vid=61dc5a72-902e-4195-9647-849b2eaa5d03","ios":"levelo://app?vid=61dc5a72-902e-4195-9647-849b2eaa5d03"},"vehicle_type_id":"4","last_reported":1731704869,"current_range_meters":38800,"station_id":"ce4bhih2rcd13ifvqfr0","pricing_plan_id":"cebpf4jnsgd1na2vs0mg"},{"bike_id":"fdacd14a-a46f-4ed8-b538-41538a6ead6a","system_id":"levelo_inurba_marseille","lat":43.28614,"lon":5.35102,"is_reserved":false,"is_disabled":false,"rental_uris":{"android":"levelo://app?vid=fdacd14a-a46f-4ed8-b538-41538a6ead6a","ios":"levelo://app?vid=fdacd14a-a46f-4ed8-b538-41538a6ead6a"},"vehicle_type_id":"4","last_reported":1731704869,"current_range_meters":34800,"station_id":"ce4bhch2rcd13ifvqeug","pricing_plan_id":"cebpf4jnsgd1na2vs0mg"},{"bike_id":"163bc152-5555-4932-96f3-2bd060bede8c","system_id":"levelo_inurba_marseille","lat":43.29264,"lon":5.38442,"is_reserved":false,"is_disabled":false,"rental_uris":{"android":"levelo://app?vid=163bc152-5555-4932-96f3-2bd060bede8c","ios":"levelo://app?vid=163bc152-5555-4932-96f3-2bd060bede8c"},"vehicle_type_id":"4","last_reported":1731704869,"current_range_meters":4400,"station_id":"ce4bh692rcd13ifvqea0","pricing_plan_id":"cebpf4jnsgd1na2vs0mg"},{"bike_id":"6875c373-3a3e-464e-8826-15cf173d3295","system_id":"levelo_inurba_marseille","lat":43.24159,"lon":5.36389,"is_reserved":false,"is_disabled":false,"rental_uris":{"android":"levelo://app?vid=6875c373-3a3e-464e-8826-15cf173d3295","ios":"levelo://app?vid=6875c373-3a3e-464e-8826-15cf173d3295"},"vehicle_type_id":"4","last_reported":1731704869,"current_range_meters":38800,"station_id":"cpo36qri1sfpv3e86is0","pricing_plan_id":"cebpf4jnsgd1na2vs0mg"},{"bike_id":"d0a14192-1dbf-4651-b00b-d952fd5bc31f","system_id":"levelo_inurba_marseille","lat":43.28716,"lon":5.37941,"is_reserved":false,"is_disabled":false,"rental_uris":{"android":"levelo://app?vid=d0a14192-1dbf-4651-b00b-d952fd5bc31f","ios":"levelo://app?vid=d0a14192-1dbf-4651-b00b-d952fd5bc31f"},"vehicle_type_id":"4","last_reported":1731704869,"current_range_meters":33200,"station_id":"ce4bh9p2rcd13ifvqec0","pricing_plan_id":"cebpf4jnsgd1na2vs0mg"},{"bike_id":"950926cd-c8b6-4e86-88ea-a5fd52535194","system_id":"levelo_inurba_marseille","lat":43.29414,"lon":5.38629,"is_reserved":false,"is_disabled":false,"rental_uris":{"android":"levelo://app?vid=950926cd-c8b6-4e86-88ea-a5fd52535194","ios":"levelo://app?vid=950926cd-c8b6-4e86-88ea-a5fd52535194"},"vehicle_type_id":"4","last_reported":1731704869,"current_range_meters":38800,"station_id":"ce4bh2h2rcd13ifvqdh0","pricing_plan_id":"cebpf4jnsgd1na2vs0mg"},{"bike_id":"6956b749-d4f2-4520-b5b3-a22613b2e922","system_id":"levelo_inurba_marseille","lat":43.30641,"lon":5.40099,"is_reserved":false,"is_disabled":false,"rental_uris":{"android":"levelo://app?vid=6956b749-d4f2-4520-b5b3-a22613b2e922","ios":"levelo://app?vid=6956b749-d4f2-4520-b5b3-a22613b2e922"},"vehicle_type_id":"4","last_reported":1731704869,"current_range_meters":16000,"station_id":"ce4bh112rcd13ifvqda0","pricing_plan_id":"cebpf4jnsgd1na2vs0mg"},{"bike_id":"79fb7f84-6342-4e15-8645-c2407f8a49e3","system_id":"levelo_inurba_marseille","lat":43.28151,"lon":5.42648,"is_reserved":false,"is_disabled":false,"rental_uris":{"android":"levelo://app?vid=79fb7f84-6342-4e15-8645-c2407f8a49e3","ios":"levelo://app?vid=79fb7f84-6342-4e15-8645-c2407f8a49e3"},"vehicle_type_id":"4","last_reported":1731704869,"current_range_meters":28800,"station_id":"ce4bhnh2rcd13ifvqgug","pricing_plan_id":"cebpf4jnsgd1na2vs0mg"},{"bike_id":"792ba918-f0aa-452f-8f68-1a7a13f87316","system_id":"levelo_inurba_marseille","lat":43.24666,"lon":5.38155,"is_reserved":false,"is_disabled":false,"rental_uris":{"android":"levelo://app?vid=792ba918-f0aa-452f-8f68-1a7a13f87316","ios":"levelo://app?vid=792ba918-f0aa-452f-8f68-1a7a13f87316"},"vehicle_type_id":"4","last_reported":1731704869,"current_range_meters":24800,"station_id":"ce4bhih2rcd13ifvqfr0","pricing_plan_id":"cebpf4jnsgd1na2vs0mg"},{"bike_id":"389eb30f-b9d9-4e8d-a3b0-0d2be7fa7e36","system_id":"levelo_inurba_marseille","lat":43.29533,"lon":5.38538,"is_reserved":false,"is_disabled":false,"rental_uris":{"android":"levelo://app?vid=389eb30f-b9d9-4e8d-a3b0-0d2be7fa7e36","ios":"levelo://app?vid=389eb30f-b9d9-4e8d-a3b0-0d2be7fa7e36"},"vehicle_type_id":"4","last_reported":1731704869,"current_range_meters":38400,"station_id":"ce4bgih2rcd13ifvqba0","pricing_plan_id":"cebpf4jnsgd1na2vs0mg"},{"bike_id":"d8496e99-0a39-45eb-a77c-c67ee56b179e","system_id":"levelo_inurba_marseille","lat":43.292976,"lon":5.374687,"is_reserved":false,"is_disabled":false,"rental_uris":{"android":"levelo://app?vid=d8496e99-0a39-45eb-a77c-c67ee56b179e","ios":"levelo://app?vid=d8496e99-0a39-45eb-a77c-c67ee56b179e"},"vehicle_type_id":"4","last_reported":1731704869,"current_range_meters":15200,"station_id":"","pricing_plan_id":"cebpf4jnsgd1na2vs0mg"},{"bike_id":"f139260e-7ffb-4ab1-b681-8999a2fe68d2","system_id":"levelo_inurba_marseille","lat":43.29039,"lon":5.39958,"is_reserved":false,"is_disabled":false,"rental_uris":{"android":"levelo://app?vid=f139260e-7ffb-4ab1-b681-8999a2fe68d2","ios":"levelo://app?vid=f139260e-7ffb-4ab1-b681-8999a2fe68d2"},"vehicle_type_id":"4","last_reported":1731704869,"current_range_meters":18000,"station_id":"ce4bh392rcd13ifvqdm0","pricing_plan_id":"cebpf4jnsgd1na2vs0mg"},{"bike_id":"83bb9597-ed2c-4217-b977-9cbafad3d720","system_id":"levelo_inurba_marseille","lat":43.31716,"lon":5.437,"is_reserved":false,"is_disabled":false,"rental_uris":{"android":"levelo://app?vid=83bb9597-ed2c-4217-b977-9cbafad3d720","ios":"levelo://app?vid=83bb9597-ed2c-4217-b977-9cbafad3d720"},"vehicle_type_id":"4","last_reported":1731704869,"current_range_meters":18800,"station_id":"ce4bhp92rcd13ifvqhcg","pricing_plan_id":"cebpf4jnsgd1na2vs0mg"},{"bike_id":"3615bc1c-e559-4a27-8125-18b67df0bf35","system_id":"levelo_inurba_marseille","lat":43.25503,"lon":5.37638,"is_reserved":false,"is_disabled":false,"rental_uris":{"android":"levelo://app?vid=3615bc1c-e559-4a27-8125-18b67df0bf35","ios":"levelo://app?vid=3615bc1c-e559-4a27-8125-18b67df0bf35"},"vehicle_type_id":"4","last_reported":1731704869,"current_range_meters":14000,"station_id":"ce4bhh12rcd13ifvqff0","pricing_plan_id":"cebpf4jnsgd1na2vs0mg"},{"bike_id":"bf796301-f887-4a30-8d8e-eac91223a6d7","system_id":"levelo_inurba_marseille","lat":43.27494,"lon":5.42448,"is_reserved":false,"is_disabled":false,"rental_uris":{"android":"levelo://app?vid=bf796301-f887-4a30-8d8e-eac91223a6d7","ios":"levelo://app?vid=bf796301-f887-4a30-8d8e-eac91223a6d7"},"vehicle_type_id":"4","last_reported":1731704869,"current_range_meters":36400,"station_id":"ce4bhn92rcd13ifvqgrg","pricing_plan_id":"cebpf4jnsgd1na2vs0mg"},{"bike_id":"76ada99b-13e5-4bb8-a67a-8c73c57f3f01","system_id":"levelo_inurba_marseille","lat":43.320433,"lon":5.415568,"is_reserved":false,"is_disabled":false,"rental_uris":{"android":"levelo://app?vid=76ada99b-13e5-4bb8-a67a-8c73c57f3f01","ios":"levelo://app?vid=76ada99b-13e5-4bb8-a67a-8c73c57f3f01"},"vehicle_type_id":"4","last_reported":1731704869,"current_range_meters":19600,"station_id":"ce4bhq92rcd13ifvqhkg","pricing_plan_id":"cebpf4jnsgd1na2vs0mg"},{"bike_id":"34d9c17c-dc2f-4b93-8fd6-bfc1873a974b","system_id":"levelo_inurba_marseille","lat":43.3168,"lon":5.40467,"is_reserved":false,"is_disabled":false,"rental_uris":{"android":"levelo://app?vid=34d9c17c-dc2f-4b93-8fd6-bfc1873a974b","ios":"levelo://app?vid=34d9c17c-dc2f-4b93-8fd6-bfc1873a974b"},"vehicle_type_id":"4","last_reported":1731704869,"current_range_meters":8800,"station_id":"ce4bh012rcd13ifvqd00","pricing_plan_id":"cebpf4jnsgd1na2vs0mg"},{"bike_id":"fcd3e0a7-bbac-46f7-82d9-70244351bb5a","system_id":"levelo_inurba_marseille","lat":43.29194,"lon":5.39302,"is_reserved":false,"is_disabled":false,"rental_uris":{"android":"levelo://app?vid=fcd3e0a7-bbac-46f7-82d9-70244351bb5a","ios":"levelo://app?vid=fcd3e0a7-bbac-46f7-82d9-70244351bb5a"},"vehicle_type_id":"4","last_reported":1731704869,"current_range_meters":24000,"station_id":"ce4bh192rcd13ifvqdd0","pricing_plan_id":"cebpf4jnsgd1na2vs0mg"},{"bike_id":"5ea0e85b-4953-42da-bede-a9a9ca319e2c","system_id":"levelo_inurba_marseille","lat":43.29417,"lon":5.38617,"is_reserved":false,"is_disabled":false,"rental_uris":{"android":"levelo://app?vid=5ea0e85b-4953-42da-bede-a9a9ca319e2c","ios":"levelo://app?vid=5ea0e85b-4953-42da-bede-a9a9ca319e2c"},"vehicle_type_id":"4","last_reported":1731704869,"current_range_meters":38800,"station_id":"ce4bh2h2rcd13ifvqdh0","pricing_plan_id":"cebpf4jnsgd1na2vs0mg"},{"bike_id":"60eb8806-e522-41dd-be59-8cb3d3621667","system_id":"levelo_inurba_marseille","lat":43.29787,"lon":5.39339,"is_reserved":false,"is_disabled":false,"rental_uris":{"android":"levelo://app?vid=60eb8806-e522-41dd-be59-8cb3d3621667","ios":"levelo://app?vid=60eb8806-e522-41dd-be59-8cb3d3621667"},"vehicle_type_id":"4","last_reported":1731704869,"current_range_meters":38800,"station_id":"chh1huq6cuj3fo74tm60","pricing_plan_id":"cebpf4jnsgd1na2vs0mg"},{"bike_id":"82588854-e185-482e-a51c-801099d30d24","system_id":"levelo_inurba_marseille","lat":43.24664,"lon":5.38167,"is_reserved":false,"is_disabled":false,"rental_uris":{"android":"levelo://app?vid=82588854-e185-482e-a51c-801099d30d24","ios":"levelo://app?vid=82588854-e185-482e-a51c-801099d30d24"},"vehicle_type_id":"4","last_reported":1731704869,"current_range_meters":12800,"station_id":"ce4bhih2rcd13ifvqfr0","pricing_plan_id":"cebpf4jnsgd1na2vs0mg"},{"bike_id":"9f74b6a1-c3bb-456c-9c75-5097724fcce6","system_id":"levelo_inurba_marseille","lat":43.29526,"lon":5.38534,"is_reserved":false,"is_disabled":false,"rental_uris":{"android":"levelo://app?vid=9f74b6a1-c3bb-456c-9c75-5097724fcce6","ios":"levelo://app?vid=9f74b6a1-c3bb-456c-9c75-5097724fcce6"},"vehicle_type_id":"4","last_reported":1731704869,"current_range_meters":19200,"station_id":"ce4bgih2rcd13ifvqba0","pricing_plan_id":"cebpf4jnsgd1na2vs0mg"},{"bike_id":"6b8eba9e-251e-401f-9b82-4a96d08ef40f","system_id":"levelo_inurba_marseille","lat":43.33015,"lon":5.39043,"is_reserved":false,"is_disabled":false,"rental_uris":{"android":"levelo://app?vid=6b8eba9e-251e-401f-9b82-4a96d08ef40f","ios":"levelo://app?vid=6b8eba9e-251e-401f-9b82-4a96d08ef40f"},"vehicle_type_id":"4","last_reported":1731704869,"current_range_meters":22000,"station_id":"ce4bhr92rcd13ifvqhrg","pricing_plan_id":"cebpf4jnsgd1na2vs0mg"},{"bike_id":"e8661b4c-66e6-4360-a541-341c369c2865","system_id":"levelo_inurba_marseille","lat":43.25581,"lon":5.38219,"is_reserved":false,"is_disabled":false,"rental_uris":{"android":"levelo://app?vid=e8661b4c-66e6-4360-a541-341c369c2865","ios":"levelo://app?vid=e8661b4c-66e6-4360-a541-341c369c2865"},"vehicle_type_id":"4","last_reported":1731704869,"current_range_meters":38800,"station_id":"ce4bhih2rcd13ifvqfs0","pricing_plan_id":"cebpf4jnsgd1na2vs0mg"},{"bike_id":"878aca7f-98ac-4ef1-8cac-21939d60f1f2","system_id":"levelo_inurba_marseille","lat":43.29784,"lon":5.38111,"is_reserved":false,"is_disabled":false,"rental_uris":{"android":"levelo://app?vid=878aca7f-98ac-4ef1-8cac-21939d60f1f2","ios":"levelo://app?vid=878aca7f-98ac-4ef1-8cac-21939d60f1f2"},"vehicle_type_id":"4","last_reported":1731704869,"current_range_meters":2000,"station_id":"ce4bgip2rcd13ifvqbb0","pricing_plan_id":"cebpf4jnsgd1na2vs0mg"},{"bike_id":"bbcb9f4c-0d60-42a1-b0c5-e43fd8593542","system_id":"levelo_inurba_marseille","lat":43.31676,"lon":5.40476,"is_reserved":false,"is_disabled":false,"rental_uris":{"android":"levelo://app?vid=bbcb9f4c-0d60-42a1-b0c5-e43fd8593542","ios":"levelo://app?vid=bbcb9f4c-0d60-42a1-b0c5-e43fd8593542"},"vehicle_type_id":"4","last_reported":1731704869,"current_range_meters":33600,"station_id":"ce4bh012rcd13ifvqd00","pricing_plan_id":"cebpf4jnsgd1na2vs0mg"},{"bike_id":"c974cc8b-299b-4d52-81c8-4e50a91b9225","system_id":"levelo_inurba_marseille","lat":43.33745,"lon":5.37487,"is_reserved":false,"is_disabled":false,"rental_uris":{"android":"levelo://app?vid=c974cc8b-299b-4d52-81c8-4e50a91b9225","ios":"levelo://app?vid=c974cc8b-299b-4d52-81c8-4e50a91b9225"},"vehicle_type_id":"4","last_reported":1731704869,"current_range_meters":37600,"station_id":"","pricing_plan_id":"cebpf4jnsgd1na2vs0mg"},{"bike_id":"f86a601e-26e3-440e-a7e5-894f75bad9f4","system_id":"levelo_inurba_marseille","lat":43.337444,"lon":5.374475,"is_reserved":false,"is_disabled":false,"rental_uris":{"android":"levelo://app?vid=f86a601e-26e3-440e-a7e5-894f75bad9f4","ios":"levelo://app?vid=f86a601e-26e3-440e-a7e5-894f75bad9f4"},"vehicle_type_id":"4","last_reported":1731704869,"current_range_meters":22000,"station_id":"","pricing_plan_id":"cebpf4jnsgd1na2vs0mg"},{"bike_id":"b02cad58-3de4-410a-a29d-78e174a9d94a","system_id":"levelo_inurba_marseille","lat":43.23194,"lon":5.35549,"is_reserved":false,"is_disabled":false,"rental_uris":{"android":"levelo://app?vid=b02cad58-3de4-410a-a29d-78e174a9d94a","ios":"levelo://app?vid=b02cad58-3de4-410a-a29d-78e174a9d94a"},"vehicle_type_id":"4","last_reported":1731704869,"current_range_meters":38800,"station_id":"ce4bhu92rcd13ifvqi70","pricing_plan_id":"cebpf4jnsgd1na2vs0mg"},{"bike_id":"980c2b64-5ae6-4e8e-ac4f-88eb697394b6","system_id":"levelo_inurba_marseille","lat":43.259375,"lon":5.409132,"is_reserved":false,"is_disabled":false,"rental_uris":{"android":"levelo://app?vid=980c2b64-5ae6-4e8e-ac4f-88eb697394b6","ios":"levelo://app?vid=980c2b64-5ae6-4e8e-ac4f-88eb697394b6"},"vehicle_type_id":"4","last_reported":1731704869,"current_range_meters":4800,"station_id":"ce4bhm92rcd13ifvqglg","pricing_plan_id":"cebpf4jnsgd1na2vs0mg"},{"bike_id":"642f5def-6e78-4f7e-9ac0-941a94e86de5","system_id":"levelo_inurba_marseille","lat":43.31694,"lon":5.40453,"is_reserved":false,"is_disabled":false,"rental_uris":{"android":"levelo://app?vid=642f5def-6e78-4f7e-9ac0-941a94e86de5","ios":"levelo://app?vid=642f5def-6e78-4f7e-9ac0-941a94e86de5"},"vehicle_type_id":"4","last_reported":1731704869,"current_range_meters":38800,"station_id":"ce4bh012rcd13ifvqd00","pricing_plan_id":"cebpf4jnsgd1na2vs0mg"},{"bike_id":"754ea44e-c6a8-4456-8b59-e2ee0962864e","system_id":"levelo_inurba_marseille","lat":43.29036,"lon":5.38646,"is_reserved":false,"is_disabled":false,"rental_uris":{"android":"levelo://app?vid=754ea44e-c6a8-4456-8b59-e2ee0962864e","ios":"levelo://app?vid=754ea44e-c6a8-4456-8b59-e2ee0962864e"},"vehicle_type_id":"4","last_reported":1731704869,"current_range_meters":28400,"station_id":"ce4bh4p2rcd13ifvqe0g","pricing_plan_id":"cebpf4jnsgd1na2vs0mg"},{"bike_id":"a02d74ca-9b3c-4445-aff0-c384c8a19a00","system_id":"levelo_inurba_marseille","lat":43.30212,"lon":5.3947,"is_reserved":false,"is_disabled":false,"rental_uris":{"android":"levelo://app?vid=a02d74ca-9b3c-4445-aff0-c384c8a19a00","ios":"levelo://app?vid=a02d74ca-9b3c-4445-aff0-c384c8a19a00"},"vehicle_type_id":"4","last_reported":1731704869,"current_range_meters":38800,"station_id":"ce4bh0p2rcd13ifvqd70","pricing_plan_id":"cebpf4jnsgd1na2vs0mg"},{"bike_id":"d94748f8-40ee-4468-9ec9-f30930775c57","system_id":"levelo_inurba_marseille","lat":43.27172,"lon":5.4099,"is_reserved":false,"is_disabled":false,"rental_uris":{"android":"levelo://app?vid=d94748f8-40ee-4468-9ec9-f30930775c57","ios":"levelo://app?vid=d94748f8-40ee-4468-9ec9-f30930775c57"},"vehicle_type_id":"4","last_reported":1731704869,"current_range_meters":38800,"station_id":"ce4bhl12rcd13ifvqgf0","pricing_plan_id":"cebpf4jnsgd1na2vs0mg"},{"bike_id":"baf948ad-adf3-41b6-8605-0b0f6b24354d","system_id":"levelo_inurba_marseille","lat":43.27892,"lon":5.36912,"is_reserved":false,"is_disabled":false,"rental_uris":{"android":"levelo://app?vid=baf948ad-adf3-41b6-8605-0b0f6b24354d","ios":"levelo://app?vid=baf948ad-adf3-41b6-8605-0b0f6b24354d"},"vehicle_type_id":"4","last_reported":1731704869,"current_range_meters":4400,"station_id":"","pricing_plan_id":"cebpf4jnsgd1na2vs0mg"},{"bike_id":"64121eb1-1cd1-4b91-ae8d-ec5240440754","system_id":"levelo_inurba_marseille","lat":43.2781,"lon":5.40709,"is_reserved":false,"is_disabled":false,"rental_uris":{"android":"levelo://app?vid=64121eb1-1cd1-4b91-ae8d-ec5240440754","ios":"levelo://app?vid=64121eb1-1cd1-4b91-ae8d-ec5240440754"},"vehicle_type_id":"4","last_reported":1731704869,"current_range_meters":12800,"station_id":"ce4bhnh2rcd13ifvqgtg","pricing_plan_id":"cebpf4jnsgd1na2vs0mg"},{"bike_id":"e5e57e56-f1b3-4d61-967f-2a9f27844dd5","system_id":"levelo_inurba_marseille","lat":43.297855,"lon":5.380893,"is_reserved":false,"is_disabled":false,"rental_uris":{"android":"levelo://app?vid=e5e57e56-f1b3-4d61-967f-2a9f27844dd5","ios":"levelo://app?vid=e5e57e56-f1b3-4d61-967f-2a9f27844dd5"},"vehicle_type_id":"4","last_reported":1731704869,"current_range_meters":19200,"station_id":"ce4bgip2rcd13ifvqbb0","pricing_plan_id":"cebpf4jnsgd1na2vs0mg"},{"bike_id":"c7ad3112-6fa1-480b-b6f6-f0b1dce495ed","system_id":"levelo_inurba_marseille","lat":43.273816,"lon":5.362479,"is_reserved":false,"is_disabled":false,"rental_uris":{"android":"levelo://app?vid=c7ad3112-6fa1-480b-b6f6-f0b1dce495ed","ios":"levelo://app?vid=c7ad3112-6fa1-480b-b6f6-f0b1dce495ed"},"vehicle_type_id":"4","last_reported":1731704869,"current_range_meters":38800,"station_id":"ce4bhbh2rcd13ifvqeo0","pricing_plan_id":"cebpf4jnsgd1na2vs0mg"},{"bike_id":"f6c2a73b-a1f8-49d3-bbd3-78364e79a0f8","system_id":"levelo_inurba_marseille","lat":43.31535,"lon":5.38029,"is_reserved":false,"is_disabled":false,"rental_uris":{"android":"levelo://app?vid=f6c2a73b-a1f8-49d3-bbd3-78364e79a0f8","ios":"levelo://app?vid=f6c2a73b-a1f8-49d3-bbd3-78364e79a0f8"},"vehicle_type_id":"4","last_reported":1731704869,"current_range_meters":37600,"station_id":"ce4bhsp2rcd13ifvqi50","pricing_plan_id":"cebpf4jnsgd1na2vs0mg"},{"bike_id":"5c28af49-1311-42ec-956b-05a6cb87cb8d","system_id":"levelo_inurba_marseille","lat":43.27938,"lon":5.41034,"is_reserved":false,"is_disabled":false,"rental_uris":{"android":"levelo://app?vid=5c28af49-1311-42ec-956b-05a6cb87cb8d","ios":"levelo://app?vid=5c28af49-1311-42ec-956b-05a6cb87cb8d"},"vehicle_type_id":"4","last_reported":1731704869,"current_range_meters":38800,"station_id":"ce4bhnp2rcd13ifvqh0g","pricing_plan_id":"cebpf4jnsgd1na2vs0mg"},{"bike_id":"a2612379-a44b-426d-91c8-834c8652b16f","system_id":"levelo_inurba_marseille","lat":43.27071,"lon":5.42278,"is_reserved":false,"is_disabled":false,"rental_uris":{"android":"levelo://app?vid=a2612379-a44b-426d-91c8-834c8652b16f","ios":"levelo://app?vid=a2612379-a44b-426d-91c8-834c8652b16f"},"vehicle_type_id":"4","last_reported":1731704869,"current_range_meters":20000,"station_id":"ce4bhk92rcd13ifvqgb0","pricing_plan_id":"cebpf4jnsgd1na2vs0mg"},{"bike_id":"46632805-d598-46ca-8978-4f5e71b702c6","system_id":"levelo_inurba_marseille","lat":43.28155,"lon":5.42639,"is_reserved":false,"is_disabled":false,"rental_uris":{"android":"levelo://app?vid=46632805-d598-46ca-8978-4f5e71b702c6","ios":"levelo://app?vid=46632805-d598-46ca-8978-4f5e71b702c6"},"vehicle_type_id":"4","last_reported":1731704869,"current_range_meters":38800,"station_id":"ce4bhnh2rcd13ifvqgug","pricing_plan_id":"cebpf4jnsgd1na2vs0mg"},{"bike_id":"c819cb93-e5e2-4434-9584-e1eed0924959","system_id":"levelo_inurba_marseille","lat":43.29537,"lon":5.38536,"is_reserved":false,"is_disabled":false,"rental_uris":{"android":"levelo://app?vid=c819cb93-e5e2-4434-9584-e1eed0924959","ios":"levelo://app?vid=c819cb93-e5e2-4434-9584-e1eed0924959"},"vehicle_type_id":"4","last_reported":1731704869,"current_range_meters":38400,"station_id":"ce4bgih2rcd13ifvqba0","pricing_plan_id":"cebpf4jnsgd1na2vs0mg"},{"bike_id":"bff2b802-22fb-4440-9ddd-c6e48a3f3504","system_id":"levelo_inurba_marseille","lat":43.32349,"lon":5.4062,"is_reserved":false,"is_disabled":false,"rental_uris":{"android":"levelo://app?vid=bff2b802-22fb-4440-9ddd-c6e48a3f3504","ios":"levelo://app?vid=bff2b802-22fb-4440-9ddd-c6e48a3f3504"},"vehicle_type_id":"4","last_reported":1731704869,"current_range_meters":27600,"station_id":"ce4bhq92rcd13ifvqhjg","pricing_plan_id":"cebpf4jnsgd1na2vs0mg"},{"bike_id":"d01dca5e-5b16-48ef-9899-62a24cb1091b","system_id":"levelo_inurba_marseille","lat":43.30595,"lon":5.37223,"is_reserved":false,"is_disabled":false,"rental_uris":{"android":"levelo://app?vid=d01dca5e-5b16-48ef-9899-62a24cb1091b","ios":"levelo://app?vid=d01dca5e-5b16-48ef-9899-62a24cb1091b"},"vehicle_type_id":"4","last_reported":1731704869,"current_range_meters":34800,"station_id":"ce4bgqh2rcd13ifvqc4g","pricing_plan_id":"cebpf4jnsgd1na2vs0mg"},{"bike_id":"5d86f886-5d1c-4480-89a6-7c110eb1a4a5","system_id":"levelo_inurba_marseille","lat":43.29529,"lon":5.38547,"is_reserved":false,"is_disabled":false,"rental_uris":{"android":"levelo://app?vid=5d86f886-5d1c-4480-89a6-7c110eb1a4a5","ios":"levelo://app?vid=5d86f886-5d1c-4480-89a6-7c110eb1a4a5"},"vehicle_type_id":"4","last_reported":1731704869,"current_range_meters":30000,"station_id":"ce4bgih2rcd13ifvqba0","pricing_plan_id":"cebpf4jnsgd1na2vs0mg"},{"bike_id":"8c7babad-a0ac-410a-b87e-129a91e2b8a2","system_id":"levelo_inurba_marseille","lat":43.29631,"lon":5.40596,"is_reserved":false,"is_disabled":false,"rental_uris":{"android":"levelo://app?vid=8c7babad-a0ac-410a-b87e-129a91e2b8a2","ios":"levelo://app?vid=8c7babad-a0ac-410a-b87e-129a91e2b8a2"},"vehicle_type_id":"4","last_reported":1731704869,"current_range_meters":20000,"station_id":"ce4bh0h2rcd13ifvqd60","pricing_plan_id":"cebpf4jnsgd1na2vs0mg"},{"bike_id":"2c7da520-bf3f-4579-bbaf-d8bed38515fb","system_id":"levelo_inurba_marseille","lat":43.24652,"lon":5.38897,"is_reserved":false,"is_disabled":false,"rental_uris":{"android":"levelo://app?vid=2c7da520-bf3f-4579-bbaf-d8bed38515fb","ios":"levelo://app?vid=2c7da520-bf3f-4579-bbaf-d8bed38515fb"},"vehicle_type_id":"4","last_reported":1731704869,"current_range_meters":38800,"station_id":"ce4bhg12rcd13ifvqf60","pricing_plan_id":"cebpf4jnsgd1na2vs0mg"},{"bike_id":"8893f2f1-2edb-4438-9753-3811227c3612","system_id":"levelo_inurba_marseille","lat":43.29418,"lon":5.38622,"is_reserved":false,"is_disabled":false,"rental_uris":{"android":"levelo://app?vid=8893f2f1-2edb-4438-9753-3811227c3612","ios":"levelo://app?vid=8893f2f1-2edb-4438-9753-3811227c3612"},"vehicle_type_id":"4","last_reported":1731704869,"current_range_meters":38800,"station_id":"ce4bh2h2rcd13ifvqdh0","pricing_plan_id":"cebpf4jnsgd1na2vs0mg"},{"bike_id":"b8e0adfd-dc7d-42dd-a2e4-574f06410f3c","system_id":"levelo_inurba_marseille","lat":43.27811,"lon":5.40705,"is_reserved":false,"is_disabled":false,"rental_uris":{"android":"levelo://app?vid=b8e0adfd-dc7d-42dd-a2e4-574f06410f3c","ios":"levelo://app?vid=b8e0adfd-dc7d-42dd-a2e4-574f06410f3c"},"vehicle_type_id":"4","last_reported":1731704869,"current_range_meters":9200,"station_id":"ce4bhnh2rcd13ifvqgtg","pricing_plan_id":"cebpf4jnsgd1na2vs0mg"},{"bike_id":"5ae1b6d8-8b91-47e7-ba4c-33af259774da","system_id":"levelo_inurba_marseille","lat":43.29407,"lon":5.38625,"is_reserved":false,"is_disabled":false,"rental_uris":{"android":"levelo://app?vid=5ae1b6d8-8b91-47e7-ba4c-33af259774da","ios":"levelo://app?vid=5ae1b6d8-8b91-47e7-ba4c-33af259774da"},"vehicle_type_id":"4","last_reported":1731704869,"current_range_meters":36800,"station_id":"ce4bh2h2rcd13ifvqdh0","pricing_plan_id":"cebpf4jnsgd1na2vs0mg"},{"bike_id":"27a26e39-0973-4ff7-9f8e-24521728c073","system_id":"levelo_inurba_marseille","lat":43.2979,"lon":5.37104,"is_reserved":false,"is_disabled":false,"rental_uris":{"android":"levelo://app?vid=27a26e39-0973-4ff7-9f8e-24521728c073","ios":"levelo://app?vid=27a26e39-0973-4ff7-9f8e-24521728c073"},"vehicle_type_id":"4","last_reported":1731704869,"current_range_meters":32000,"station_id":"ce4bgop2rcd13ifvqc1g","pricing_plan_id":"cebpf4jnsgd1na2vs0mg"},{"bike_id":"60346686-846e-43e0-b1f0-095f872d71c2","system_id":"levelo_inurba_marseille","lat":43.337444,"lon":5.374475,"is_reserved":false,"is_disabled":false,"rental_uris":{"android":"levelo://app?vid=60346686-846e-43e0-b1f0-095f872d71c2","ios":"levelo://app?vid=60346686-846e-43e0-b1f0-095f872d71c2"},"vehicle_type_id":"4","last_reported":1731704869,"current_range_meters":37600,"station_id":"","pricing_plan_id":"cebpf4jnsgd1na2vs0mg"},{"bike_id":"a65706ee-6478-482e-b96b-de9c20f7d999","system_id":"levelo_inurba_marseille","lat":43.317108,"lon":5.377156,"is_reserved":false,"is_disabled":false,"rental_uris":{"android":"levelo://app?vid=a65706ee-6478-482e-b96b-de9c20f7d999","ios":"levelo://app?vid=a65706ee-6478-482e-b96b-de9c20f7d999"},"vehicle_type_id":"4","last_reported":1731704869,"current_range_meters":38800,"station_id":"ce4bgth2rcd13ifvqch0","pricing_plan_id":"cebpf4jnsgd1na2vs0mg"},{"bike_id":"a65a2419-69e6-4d19-b1e3-3abe61fd327b","system_id":"levelo_inurba_marseille","lat":43.24813,"lon":5.37463,"is_reserved":false,"is_disabled":false,"rental_uris":{"android":"levelo://app?vid=a65a2419-69e6-4d19-b1e3-3abe61fd327b","ios":"levelo://app?vid=a65a2419-69e6-4d19-b1e3-3abe61fd327b"},"vehicle_type_id":"4","last_reported":1731704869,"current_range_meters":38400,"station_id":"ce4bhgh2rcd13ifvqfb0","pricing_plan_id":"cebpf4jnsgd1na2vs0mg"},{"bike_id":"d206d41a-8ea1-48b7-8dea-76f005b54e28","system_id":"levelo_inurba_marseille","lat":43.337444,"lon":5.374475,"is_reserved":false,"is_disabled":false,"rental_uris":{"android":"levelo://app?vid=d206d41a-8ea1-48b7-8dea-76f005b54e28","ios":"levelo://app?vid=d206d41a-8ea1-48b7-8dea-76f005b54e28"},"vehicle_type_id":"4","last_reported":1731704869,"current_range_meters":26000,"station_id":"","pricing_plan_id":"cebpf4jnsgd1na2vs0mg"},{"bike_id":"7386319e-0d6c-493a-904a-1c5207db3d50","system_id":"levelo_inurba_marseille","lat":43.23187,"lon":5.39994,"is_reserved":false,"is_disabled":false,"rental_uris":{"android":"levelo://app?vid=7386319e-0d6c-493a-904a-1c5207db3d50","ios":"levelo://app?vid=7386319e-0d6c-493a-904a-1c5207db3d50"},"vehicle_type_id":"4","last_reported":1731704869,"current_range_meters":22000,"station_id":"ce4bhn12rcd13ifvqgqg","pricing_plan_id":"cebpf4jnsgd1na2vs0mg"},{"bike_id":"833e03e1-4c2a-4d48-b02a-e51996b7b259","system_id":"levelo_inurba_marseille","lat":43.26488,"lon":5.39547,"is_reserved":false,"is_disabled":false,"rental_uris":{"android":"levelo://app?vid=833e03e1-4c2a-4d48-b02a-e51996b7b259","ios":"levelo://app?vid=833e03e1-4c2a-4d48-b02a-e51996b7b259"},"vehicle_type_id":"4","last_reported":1731704869,"current_range_meters":6400,"station_id":"ce4bhi12rcd13ifvqfq0","pricing_plan_id":"cebpf4jnsgd1na2vs0mg"},{"bike_id":"051fc9c1-9e7d-45a2-8e66-6262730f9da3","system_id":"levelo_inurba_marseille","lat":43.28668,"lon":5.36338,"is_reserved":false,"is_disabled":false,"rental_uris":{"android":"levelo://app?vid=051fc9c1-9e7d-45a2-8e66-6262730f9da3","ios":"levelo://app?vid=051fc9c1-9e7d-45a2-8e66-6262730f9da3"},"vehicle_type_id":"4","last_reported":1731704869,"current_range_meters":20400,"station_id":"ce4bhah2rcd13ifvqej0","pricing_plan_id":"cebpf4jnsgd1na2vs0mg"},{"bike_id":"7ed9272f-670f-4906-b1e9-a820402ae58a","system_id":"levelo_inurba_marseille","lat":43.3153,"lon":5.38026,"is_reserved":false,"is_disabled":false,"rental_uris":{"android":"levelo://app?vid=7ed9272f-670f-4906-b1e9-a820402ae58a","ios":"levelo://app?vid=7ed9272f-670f-4906-b1e9-a820402ae58a"},"vehicle_type_id":"4","last_reported":1731704869,"current_range_meters":22800,"station_id":"ce4bhsp2rcd13ifvqi50","pricing_plan_id":"cebpf4jnsgd1na2vs0mg"},{"bike_id":"0bcd71bc-5f6c-4af6-961a-76f94ceb8ff4","system_id":"levelo_inurba_marseille","lat":43.2841,"lon":5.37529,"is_reserved":false,"is_disabled":false,"rental_uris":{"android":"levelo://app?vid=0bcd71bc-5f6c-4af6-961a-76f94ceb8ff4","ios":"levelo://app?vid=0bcd71bc-5f6c-4af6-961a-76f94ceb8ff4"},"vehicle_type_id":"4","last_reported":1731704869,"current_range_meters":35200,"station_id":"ce4bh412rcd13ifvqds0","pricing_plan_id":"cebpf4jnsgd1na2vs0mg"},{"bike_id":"963e5493-1e1e-4e84-8dcb-e5db09ee7ae9","system_id":"levelo_inurba_marseille","lat":43.26214,"lon":5.37437,"is_reserved":false,"is_disabled":false,"rental_uris":{"android":"levelo://app?vid=963e5493-1e1e-4e84-8dcb-e5db09ee7ae9","ios":"levelo://app?vid=963e5493-1e1e-4e84-8dcb-e5db09ee7ae9"},"vehicle_type_id":"4","last_reported":1731704869,"current_range_meters":36400,"station_id":"ce4bhgp2rcd13ifvqfc0","pricing_plan_id":"cebpf4jnsgd1na2vs0mg"},{"bike_id":"27f6f96f-c370-40b4-9530-5f3dff5f5a2f","system_id":"levelo_inurba_marseille","lat":43.2872,"lon":5.37922,"is_reserved":false,"is_disabled":false,"rental_uris":{"android":"levelo://app?vid=27f6f96f-c370-40b4-9530-5f3dff5f5a2f","ios":"levelo://app?vid=27f6f96f-c370-40b4-9530-5f3dff5f5a2f"},"vehicle_type_id":"4","last_reported":1731704869,"current_range_meters":29600,"station_id":"ce4bh9p2rcd13ifvqec0","pricing_plan_id":"cebpf4jnsgd1na2vs0mg"},{"bike_id":"565ac136-4324-4964-8af6-d1656b823fb6","system_id":"levelo_inurba_marseille","lat":43.28341,"lon":5.381,"is_reserved":false,"is_disabled":false,"rental_uris":{"android":"levelo://app?vid=565ac136-4324-4964-8af6-d1656b823fb6","ios":"levelo://app?vid=565ac136-4324-4964-8af6-d1656b823fb6"},"vehicle_type_id":"4","last_reported":1731704869,"current_range_meters":14800,"station_id":"ce4bh412rcd13ifvqdr0","pricing_plan_id":"cebpf4jnsgd1na2vs0mg"},{"bike_id":"2029f449-e220-4bdf-a37c-1d5e02ec3b57","system_id":"levelo_inurba_marseille","lat":43.31728,"lon":5.4046,"is_reserved":false,"is_disabled":false,"rental_uris":{"android":"levelo://app?vid=2029f449-e220-4bdf-a37c-1d5e02ec3b57","ios":"levelo://app?vid=2029f449-e220-4bdf-a37c-1d5e02ec3b57"},"vehicle_type_id":"4","last_reported":1731704869,"current_range_meters":38800,"station_id":"","pricing_plan_id":"cebpf4jnsgd1na2vs0mg"},{"bike_id":"6e4fed82-8847-4cb4-aeb4-4a8d029ce504","system_id":"levelo_inurba_marseille","lat":43.29262,"lon":5.38434,"is_reserved":false,"is_disabled":false,"rental_uris":{"android":"levelo://app?vid=6e4fed82-8847-4cb4-aeb4-4a8d029ce504","ios":"levelo://app?vid=6e4fed82-8847-4cb4-aeb4-4a8d029ce504"},"vehicle_type_id":"4","last_reported":1731704869,"current_range_meters":24400,"station_id":"ce4bh692rcd13ifvqea0","pricing_plan_id":"cebpf4jnsgd1na2vs0mg"},{"bike_id":"1252811b-6a0c-4c35-bf70-d3d61b2082c0","system_id":"levelo_inurba_marseille","lat":43.29419,"lon":5.38632,"is_reserved":false,"is_disabled":false,"rental_uris":{"android":"levelo://app?vid=1252811b-6a0c-4c35-bf70-d3d61b2082c0","ios":"levelo://app?vid=1252811b-6a0c-4c35-bf70-d3d61b2082c0"},"vehicle_type_id":"4","last_reported":1731704869,"current_range_meters":33600,"station_id":"ce4bh2h2rcd13ifvqdh0","pricing_plan_id":"cebpf4jnsgd1na2vs0mg"},{"bike_id":"7cb9c0c4-e389-4c7c-8d2a-5aa235ba359a","system_id":"levelo_inurba_marseille","lat":43.31712,"lon":5.40474,"is_reserved":false,"is_disabled":false,"rental_uris":{"android":"levelo://app?vid=7cb9c0c4-e389-4c7c-8d2a-5aa235ba359a","ios":"levelo://app?vid=7cb9c0c4-e389-4c7c-8d2a-5aa235ba359a"},"vehicle_type_id":"4","last_reported":1731704869,"current_range_meters":38800,"station_id":"ce4bh012rcd13ifvqd00","pricing_plan_id":"cebpf4jnsgd1na2vs0mg"},{"bike_id":"af8b8071-04c1-4a21-b440-b986dfe536bc","system_id":"levelo_inurba_marseille","lat":43.31685,"lon":5.404828,"is_reserved":false,"is_disabled":false,"rental_uris":{"android":"levelo://app?vid=af8b8071-04c1-4a21-b440-b986dfe536bc","ios":"levelo://app?vid=af8b8071-04c1-4a21-b440-b986dfe536bc"},"vehicle_type_id":"4","last_reported":1731704869,"current_range_meters":7200,"station_id":"ce4bh012rcd13ifvqd00","pricing_plan_id":"cebpf4jnsgd1na2vs0mg"},{"bike_id":"1d1da4c9-e222-4045-a315-95ad45a051f4","system_id":"levelo_inurba_marseille","lat":43.2942,"lon":5.38612,"is_reserved":false,"is_disabled":false,"rental_uris":{"android":"levelo://app?vid=1d1da4c9-e222-4045-a315-95ad45a051f4","ios":"levelo://app?vid=1d1da4c9-e222-4045-a315-95ad45a051f4"},"vehicle_type_id":"4","last_reported":1731704869,"current_range_meters":36000,"station_id":"ce4bh2h2rcd13ifvqdh0","pricing_plan_id":"cebpf4jnsgd1na2vs0mg"},{"bike_id":"c033f664-399f-4e2c-8a0b-d54f58efcc3f","system_id":"levelo_inurba_marseille","lat":43.28705,"lon":5.39985,"is_reserved":false,"is_disabled":false,"rental_uris":{"android":"levelo://app?vid=c033f664-399f-4e2c-8a0b-d54f58efcc3f","ios":"levelo://app?vid=c033f664-399f-4e2c-8a0b-d54f58efcc3f"},"vehicle_type_id":"4","last_reported":1731704869,"current_range_meters":11200,"station_id":"ce4bho92rcd13ifvqh3g","pricing_plan_id":"cebpf4jnsgd1na2vs0mg"},{"bike_id":"d31a6e09-2b17-425b-bb86-650ed8d3ab37","system_id":"levelo_inurba_marseille","lat":43.29268,"lon":5.38443,"is_reserved":false,"is_disabled":false,"rental_uris":{"android":"levelo://app?vid=d31a6e09-2b17-425b-bb86-650ed8d3ab37","ios":"levelo://app?vid=d31a6e09-2b17-425b-bb86-650ed8d3ab37"},"vehicle_type_id":"4","last_reported":1731704869,"current_range_meters":38800,"station_id":"ce4bh692rcd13ifvqea0","pricing_plan_id":"cebpf4jnsgd1na2vs0mg"},{"bike_id":"00f01bcd-abb4-428d-a4f7-8bdd5b1341cd","system_id":"levelo_inurba_marseille","lat":43.32292,"lon":5.38263,"is_reserved":false,"is_disabled":false,"rental_uris":{"android":"levelo://app?vid=00f01bcd-abb4-428d-a4f7-8bdd5b1341cd","ios":"levelo://app?vid=00f01bcd-abb4-428d-a4f7-8bdd5b1341cd"},"vehicle_type_id":"4","last_reported":1731704869,"current_range_meters":7200,"station_id":"ce4bhr12rcd13ifvqhqg","pricing_plan_id":"cebpf4jnsgd1na2vs0mg"},{"bike_id":"87156f78-2e09-4e66-89df-0a85c184e89b","system_id":"levelo_inurba_marseille","lat":43.27942,"lon":5.41039,"is_reserved":false,"is_disabled":false,"rental_uris":{"android":"levelo://app?vid=87156f78-2e09-4e66-89df-0a85c184e89b","ios":"levelo://app?vid=87156f78-2e09-4e66-89df-0a85c184e89b"},"vehicle_type_id":"4","last_reported":1731704869,"current_range_meters":28800,"station_id":"ce4bhnp2rcd13ifvqh0g","pricing_plan_id":"cebpf4jnsgd1na2vs0mg"},{"bike_id":"7be9199b-afb6-4033-aaf6-16840ab51d79","system_id":"levelo_inurba_marseille","lat":43.30884,"lon":5.39635,"is_reserved":false,"is_disabled":false,"rental_uris":{"android":"levelo://app?vid=7be9199b-afb6-4033-aaf6-16840ab51d79","ios":"levelo://app?vid=7be9199b-afb6-4033-aaf6-16840ab51d79"},"vehicle_type_id":"4","last_reported":1731704869,"current_range_meters":31200,"station_id":"ce4bh012rcd13ifvqcv0","pricing_plan_id":"cebpf4jnsgd1na2vs0mg"},{"bike_id":"cab35850-219b-4032-b189-de1e44b38556","system_id":"levelo_inurba_marseille","lat":43.29265,"lon":5.38434,"is_reserved":false,"is_disabled":false,"rental_uris":{"android":"levelo://app?vid=cab35850-219b-4032-b189-de1e44b38556","ios":"levelo://app?vid=cab35850-219b-4032-b189-de1e44b38556"},"vehicle_type_id":"4","last_reported":1731704869,"current_range_meters":24000,"station_id":"ce4bh692rcd13ifvqea0","pricing_plan_id":"cebpf4jnsgd1na2vs0mg"},{"bike_id":"e1ba9017-f05f-4a25-ba07-a4cbb544a061","system_id":"levelo_inurba_marseille","lat":43.299316,"lon":5.394492,"is_reserved":false,"is_disabled":false,"rental_uris":{"android":"levelo://app?vid=e1ba9017-f05f-4a25-ba07-a4cbb544a061","ios":"levelo://app?vid=e1ba9017-f05f-4a25-ba07-a4cbb544a061"},"vehicle_type_id":"4","last_reported":1731704869,"current_range_meters":24800,"station_id":"","pricing_plan_id":"cebpf4jnsgd1na2vs0mg"},{"bike_id":"04246129-5461-4657-8b0a-917c23e4a028","system_id":"levelo_inurba_marseille","lat":43.27181,"lon":5.40982,"is_reserved":false,"is_disabled":false,"rental_uris":{"android":"levelo://app?vid=04246129-5461-4657-8b0a-917c23e4a028","ios":"levelo://app?vid=04246129-5461-4657-8b0a-917c23e4a028"},"vehicle_type_id":"4","last_reported":1731704869,"current_range_meters":33200,"station_id":"ce4bhl12rcd13ifvqgf0","pricing_plan_id":"cebpf4jnsgd1na2vs0mg"},{"bike_id":"92ed1759-78d5-40ca-a3e1-45d59745fb7c","system_id":"levelo_inurba_marseille","lat":43.29702,"lon":5.36615,"is_reserved":false,"is_disabled":false,"rental_uris":{"android":"levelo://app?vid=92ed1759-78d5-40ca-a3e1-45d59745fb7c","ios":"levelo://app?vid=92ed1759-78d5-40ca-a3e1-45d59745fb7c"},"vehicle_type_id":"4","last_reported":1731704869,"current_range_meters":25200,"station_id":"ce4bgn12rcd13ifvqbt0","pricing_plan_id":"cebpf4jnsgd1na2vs0mg"},{"bike_id":"fda17adf-97ea-438e-81e7-fd6fce640ce4","system_id":"levelo_inurba_marseille","lat":43.27558,"lon":5.38414,"is_reserved":false,"is_disabled":false,"rental_uris":{"android":"levelo://app?vid=fda17adf-97ea-438e-81e7-fd6fce640ce4","ios":"levelo://app?vid=fda17adf-97ea-438e-81e7-fd6fce640ce4"},"vehicle_type_id":"4","last_reported":1731704869,"current_range_meters":26000,"station_id":"ce4bhh92rcd13ifvqfi0","pricing_plan_id":"cebpf4jnsgd1na2vs0mg"},{"bike_id":"94218775-4181-419a-8915-29e8a7843e11","system_id":"levelo_inurba_marseille","lat":43.29418,"lon":5.38617,"is_reserved":false,"is_disabled":false,"rental_uris":{"android":"levelo://app?vid=94218775-4181-419a-8915-29e8a7843e11","ios":"levelo://app?vid=94218775-4181-419a-8915-29e8a7843e11"},"vehicle_type_id":"4","last_reported":1731704869,"current_range_meters":16000,"station_id":"ce4bh2h2rcd13ifvqdh0","pricing_plan_id":"cebpf4jnsgd1na2vs0mg"},{"bike_id":"0b309ed9-b5bb-4632-98aa-c856c264ab31","system_id":"levelo_inurba_marseille","lat":43.27613,"lon":5.36111,"is_reserved":false,"is_disabled":false,"rental_uris":{"android":"levelo://app?vid=0b309ed9-b5bb-4632-98aa-c856c264ab31","ios":"levelo://app?vid=0b309ed9-b5bb-4632-98aa-c856c264ab31"},"vehicle_type_id":"4","last_reported":1731704869,"current_range_meters":22400,"station_id":"ce4bgj92rcd13ifvqbe0","pricing_plan_id":"cebpf4jnsgd1na2vs0mg"},{"bike_id":"b17d06d2-c9d4-430e-8c4e-4c13081ec160","system_id":"levelo_inurba_marseille","lat":43.24649,"lon":5.38888,"is_reserved":false,"is_disabled":false,"rental_uris":{"android":"levelo://app?vid=b17d06d2-c9d4-430e-8c4e-4c13081ec160","ios":"levelo://app?vid=b17d06d2-c9d4-430e-8c4e-4c13081ec160"},"vehicle_type_id":"4","last_reported":1731704869,"current_range_meters":28800,"station_id":"ce4bhg12rcd13ifvqf60","pricing_plan_id":"cebpf4jnsgd1na2vs0mg"},{"bike_id":"e0a50b92-2a41-45ff-bfbc-c6ffc781939f","system_id":"levelo_inurba_marseille","lat":43.32366,"lon":5.38881,"is_reserved":false,"is_disabled":false,"rental_uris":{"android":"levelo://app?vid=e0a50b92-2a41-45ff-bfbc-c6ffc781939f","ios":"levelo://app?vid=e0a50b92-2a41-45ff-bfbc-c6ffc781939f"},"vehicle_type_id":"4","last_reported":1731704869,"current_range_meters":3600,"station_id":"ce4bhqp2rcd13ifvqhog","pricing_plan_id":"cebpf4jnsgd1na2vs0mg"},{"bike_id":"e40acb1f-7c3b-464f-a385-d83d7c01e615","system_id":"levelo_inurba_marseille","lat":43.32296,"lon":5.38271,"is_reserved":false,"is_disabled":false,"rental_uris":{"android":"levelo://app?vid=e40acb1f-7c3b-464f-a385-d83d7c01e615","ios":"levelo://app?vid=e40acb1f-7c3b-464f-a385-d83d7c01e615"},"vehicle_type_id":"4","last_reported":1731704869,"current_range_meters":19200,"station_id":"ce4bhr12rcd13ifvqhqg","pricing_plan_id":"cebpf4jnsgd1na2vs0mg"},{"bike_id":"383dbfdd-dadc-4957-9c5a-2d452e2c74c2","system_id":"levelo_inurba_marseille","lat":43.29535,"lon":5.3854,"is_reserved":false,"is_disabled":false,"rental_uris":{"android":"levelo://app?vid=383dbfdd-dadc-4957-9c5a-2d452e2c74c2","ios":"levelo://app?vid=383dbfdd-dadc-4957-9c5a-2d452e2c74c2"},"vehicle_type_id":"4","last_reported":1731704869,"current_range_meters":36000,"station_id":"ce4bgih2rcd13ifvqba0","pricing_plan_id":"cebpf4jnsgd1na2vs0mg"},{"bike_id":"f448e447-68b3-4792-8edf-5df3c5c43484","system_id":"levelo_inurba_marseille","lat":43.27997,"lon":5.41659,"is_reserved":false,"is_disabled":false,"rental_uris":{"android":"levelo://app?vid=f448e447-68b3-4792-8edf-5df3c5c43484","ios":"levelo://app?vid=f448e447-68b3-4792-8edf-5df3c5c43484"},"vehicle_type_id":"4","last_reported":1731704869,"current_range_meters":26800,"station_id":"ce4bho12rcd13ifvqh1g","pricing_plan_id":"cebpf4jnsgd1na2vs0mg"},{"bike_id":"5ce2d086-af0a-41a9-a5f6-a8dcf6dd55a5","system_id":"levelo_inurba_marseille","lat":43.33026,"lon":5.39042,"is_reserved":false,"is_disabled":false,"rental_uris":{"android":"levelo://app?vid=5ce2d086-af0a-41a9-a5f6-a8dcf6dd55a5","ios":"levelo://app?vid=5ce2d086-af0a-41a9-a5f6-a8dcf6dd55a5"},"vehicle_type_id":"4","last_reported":1731704869,"current_range_meters":38800,"station_id":"ce4bhr92rcd13ifvqhrg","pricing_plan_id":"cebpf4jnsgd1na2vs0mg"},{"bike_id":"16d52ad4-5875-46b6-b40e-5a25366847d3","system_id":"levelo_inurba_marseille","lat":43.29262,"lon":5.38427,"is_reserved":false,"is_disabled":false,"rental_uris":{"android":"levelo://app?vid=16d52ad4-5875-46b6-b40e-5a25366847d3","ios":"levelo://app?vid=16d52ad4-5875-46b6-b40e-5a25366847d3"},"vehicle_type_id":"4","last_reported":1731704869,"current_range_meters":17200,"station_id":"ce4bh692rcd13ifvqea0","pricing_plan_id":"cebpf4jnsgd1na2vs0mg"},{"bike_id":"6d06542c-6aed-42b1-b82d-3575e35c9fb8","system_id":"levelo_inurba_marseille","lat":43.26062,"lon":5.39393,"is_reserved":false,"is_disabled":false,"rental_uris":{"android":"levelo://app?vid=6d06542c-6aed-42b1-b82d-3575e35c9fb8","ios":"levelo://app?vid=6d06542c-6aed-42b1-b82d-3575e35c9fb8"},"vehicle_type_id":"4","last_reported":1731704869,"current_range_meters":38800,"station_id":"ce4bhh92rcd13ifvqfj0","pricing_plan_id":"cebpf4jnsgd1na2vs0mg"},{"bike_id":"1cf741d7-e403-4869-b6f3-8348c73bd258","system_id":"levelo_inurba_marseille","lat":43.27994,"lon":5.40001,"is_reserved":false,"is_disabled":false,"rental_uris":{"android":"levelo://app?vid=1cf741d7-e403-4869-b6f3-8348c73bd258","ios":"levelo://app?vid=1cf741d7-e403-4869-b6f3-8348c73bd258"},"vehicle_type_id":"4","last_reported":1731704869,"current_range_meters":8000,"station_id":"ce4bho92rcd13ifvqh4g","pricing_plan_id":"cebpf4jnsgd1na2vs0mg"},{"bike_id":"a87b089c-f44c-47a1-9e46-cec646cf4360","system_id":"levelo_inurba_marseille","lat":43.29535,"lon":5.3854,"is_reserved":false,"is_disabled":false,"rental_uris":{"android":"levelo://app?vid=a87b089c-f44c-47a1-9e46-cec646cf4360","ios":"levelo://app?vid=a87b089c-f44c-47a1-9e46-cec646cf4360"},"vehicle_type_id":"4","last_reported":1731704869,"current_range_meters":38800,"station_id":"ce4bgih2rcd13ifvqba0","pricing_plan_id":"cebpf4jnsgd1na2vs0mg"},{"bike_id":"2ae20557-fc0f-462d-872c-db17dd01de83","system_id":"levelo_inurba_marseille","lat":43.26191,"lon":5.37425,"is_reserved":false,"is_disabled":false,"rental_uris":{"android":"levelo://app?vid=2ae20557-fc0f-462d-872c-db17dd01de83","ios":"levelo://app?vid=2ae20557-fc0f-462d-872c-db17dd01de83"},"vehicle_type_id":"4","last_reported":1731704869,"current_range_meters":26000,"station_id":"ce4bhgp2rcd13ifvqfc0","pricing_plan_id":"cebpf4jnsgd1na2vs0mg"},{"bike_id":"f5dd3053-8c7f-4b04-b09f-86a4e7b04bfa","system_id":"levelo_inurba_marseille","lat":43.290355,"lon":5.375662,"is_reserved":false,"is_disabled":false,"rental_uris":{"android":"levelo://app?vid=f5dd3053-8c7f-4b04-b09f-86a4e7b04bfa","ios":"levelo://app?vid=f5dd3053-8c7f-4b04-b09f-86a4e7b04bfa"},"vehicle_type_id":"4","last_reported":1731704869,"current_range_meters":36400,"station_id":"ce4bh692rcd13ifvqe90","pricing_plan_id":"cebpf4jnsgd1na2vs0mg"},{"bike_id":"107d26bb-dbe5-4489-9be3-de922ee670da","system_id":"levelo_inurba_marseille","lat":43.32044,"lon":5.41543,"is_reserved":false,"is_disabled":false,"rental_uris":{"android":"levelo://app?vid=107d26bb-dbe5-4489-9be3-de922ee670da","ios":"levelo://app?vid=107d26bb-dbe5-4489-9be3-de922ee670da"},"vehicle_type_id":"4","last_reported":1731704869,"current_range_meters":25200,"station_id":"ce4bhq92rcd13ifvqhkg","pricing_plan_id":"cebpf4jnsgd1na2vs0mg"},{"bike_id":"60000695-b60c-402b-8a73-53db1460db14","system_id":"levelo_inurba_marseille","lat":43.31696,"lon":5.40465,"is_reserved":false,"is_disabled":false,"rental_uris":{"android":"levelo://app?vid=60000695-b60c-402b-8a73-53db1460db14","ios":"levelo://app?vid=60000695-b60c-402b-8a73-53db1460db14"},"vehicle_type_id":"4","last_reported":1731704869,"current_range_meters":28400,"station_id":"ce4bh012rcd13ifvqd00","pricing_plan_id":"cebpf4jnsgd1na2vs0mg"},{"bike_id":"3b3d662c-686a-4ba3-b7b2-3b40fe46acd2","system_id":"levelo_inurba_marseille","lat":43.28976,"lon":5.37823,"is_reserved":false,"is_disabled":false,"rental_uris":{"android":"levelo://app?vid=3b3d662c-686a-4ba3-b7b2-3b40fe46acd2","ios":"levelo://app?vid=3b3d662c-686a-4ba3-b7b2-3b40fe46acd2"},"vehicle_type_id":"4","last_reported":1731704869,"current_range_meters":38800,"station_id":"ce4bh9p2rcd13ifvqed0","pricing_plan_id":"cebpf4jnsgd1na2vs0mg"},{"bike_id":"76fda271-4bcd-4529-8397-8074a1eff7fe","system_id":"levelo_inurba_marseille","lat":43.337444,"lon":5.374475,"is_reserved":false,"is_disabled":false,"rental_uris":{"android":"levelo://app?vid=76fda271-4bcd-4529-8397-8074a1eff7fe","ios":"levelo://app?vid=76fda271-4bcd-4529-8397-8074a1eff7fe"},"vehicle_type_id":"4","last_reported":1731704869,"current_range_meters":36400,"station_id":"","pricing_plan_id":"cebpf4jnsgd1na2vs0mg"},{"bike_id":"5c538d0f-9136-4735-8ea8-3c3fb2ae89db","system_id":"levelo_inurba_marseille","lat":43.29596,"lon":5.38084,"is_reserved":false,"is_disabled":false,"rental_uris":{"android":"levelo://app?vid=5c538d0f-9136-4735-8ea8-3c3fb2ae89db","ios":"levelo://app?vid=5c538d0f-9136-4735-8ea8-3c3fb2ae89db"},"vehicle_type_id":"4","last_reported":1731704869,"current_range_meters":36800,"station_id":"ce4bgl12rcd13ifvqbo0","pricing_plan_id":"cebpf4jnsgd1na2vs0mg"},{"bike_id":"7125cda5-6cac-4f0d-b24c-2d801b2955b5","system_id":"levelo_inurba_marseille","lat":43.2318,"lon":5.39982,"is_reserved":false,"is_disabled":false,"rental_uris":{"android":"levelo://app?vid=7125cda5-6cac-4f0d-b24c-2d801b2955b5","ios":"levelo://app?vid=7125cda5-6cac-4f0d-b24c-2d801b2955b5"},"vehicle_type_id":"4","last_reported":1731704869,"current_range_meters":39200,"station_id":"ce4bhn12rcd13ifvqgqg","pricing_plan_id":"cebpf4jnsgd1na2vs0mg"},{"bike_id":"d614bffd-fba3-4936-a438-2e8b677aa497","system_id":"levelo_inurba_marseille","lat":43.29038,"lon":5.39959,"is_reserved":false,"is_disabled":false,"rental_uris":{"android":"levelo://app?vid=d614bffd-fba3-4936-a438-2e8b677aa497","ios":"levelo://app?vid=d614bffd-fba3-4936-a438-2e8b677aa497"},"vehicle_type_id":"4","last_reported":1731704869,"current_range_meters":38000,"station_id":"ce4bh392rcd13ifvqdm0","pricing_plan_id":"cebpf4jnsgd1na2vs0mg"},{"bike_id":"de4e3896-0c91-4eb1-b204-320b3c3297a8","system_id":"levelo_inurba_marseille","lat":43.23192,"lon":5.39986,"is_reserved":false,"is_disabled":false,"rental_uris":{"android":"levelo://app?vid=de4e3896-0c91-4eb1-b204-320b3c3297a8","ios":"levelo://app?vid=de4e3896-0c91-4eb1-b204-320b3c3297a8"},"vehicle_type_id":"4","last_reported":1731704869,"current_range_meters":25600,"station_id":"ce4bhn12rcd13ifvqgqg","pricing_plan_id":"cebpf4jnsgd1na2vs0mg"},{"bike_id":"2f0d00eb-7b3e-4f6a-97f3-0f5351f15aca","system_id":"levelo_inurba_marseille","lat":43.29529,"lon":5.38539,"is_reserved":false,"is_disabled":false,"rental_uris":{"android":"levelo://app?vid=2f0d00eb-7b3e-4f6a-97f3-0f5351f15aca","ios":"levelo://app?vid=2f0d00eb-7b3e-4f6a-97f3-0f5351f15aca"},"vehicle_type_id":"4","last_reported":1731704869,"current_range_meters":38400,"station_id":"ce4bgih2rcd13ifvqba0","pricing_plan_id":"cebpf4jnsgd1na2vs0mg"},{"bike_id":"0798270e-42c9-4323-819e-b75eb6dce35a","system_id":"levelo_inurba_marseille","lat":43.27805,"lon":5.407,"is_reserved":false,"is_disabled":false,"rental_uris":{"android":"levelo://app?vid=0798270e-42c9-4323-819e-b75eb6dce35a","ios":"levelo://app?vid=0798270e-42c9-4323-819e-b75eb6dce35a"},"vehicle_type_id":"4","last_reported":1731704869,"current_range_meters":38800,"station_id":"ce4bhnh2rcd13ifvqgtg","pricing_plan_id":"cebpf4jnsgd1na2vs0mg"},{"bike_id":"491e5eb8-c23e-4e53-9ba3-d428ee8ab793","system_id":"levelo_inurba_marseille","lat":43.313302,"lon":5.396911,"is_reserved":false,"is_disabled":false,"rental_uris":{"android":"levelo://app?vid=491e5eb8-c23e-4e53-9ba3-d428ee8ab793","ios":"levelo://app?vid=491e5eb8-c23e-4e53-9ba3-d428ee8ab793"},"vehicle_type_id":"4","last_reported":1731704869,"current_range_meters":15200,"station_id":"ce4bgvp2rcd13ifvqcu0","pricing_plan_id":"cebpf4jnsgd1na2vs0mg"},{"bike_id":"862a0738-37c6-4949-a1c7-43ce857c2ac1","system_id":"levelo_inurba_marseille","lat":43.293,"lon":5.37151,"is_reserved":false,"is_disabled":false,"rental_uris":{"android":"levelo://app?vid=862a0738-37c6-4949-a1c7-43ce857c2ac1","ios":"levelo://app?vid=862a0738-37c6-4949-a1c7-43ce857c2ac1"},"vehicle_type_id":"4","last_reported":1731704869,"current_range_meters":30000,"station_id":"ce4bgh92rcd13ifvqb40","pricing_plan_id":"cebpf4jnsgd1na2vs0mg"},{"bike_id":"6d757fef-4f26-43f9-ac2c-ffab39bf7dae","system_id":"levelo_inurba_marseille","lat":43.32249,"lon":5.36901,"is_reserved":false,"is_disabled":false,"rental_uris":{"android":"levelo://app?vid=6d757fef-4f26-43f9-ac2c-ffab39bf7dae","ios":"levelo://app?vid=6d757fef-4f26-43f9-ac2c-ffab39bf7dae"},"vehicle_type_id":"4","last_reported":1731704869,"current_range_meters":22800,"station_id":"","pricing_plan_id":"cebpf4jnsgd1na2vs0mg"},{"bike_id":"bf5fc513-5b16-49ac-b46e-8d1576a8b635","system_id":"levelo_inurba_marseille","lat":43.295525,"lon":5.422971,"is_reserved":false,"is_disabled":false,"rental_uris":{"android":"levelo://app?vid=bf5fc513-5b16-49ac-b46e-8d1576a8b635","ios":"levelo://app?vid=bf5fc513-5b16-49ac-b46e-8d1576a8b635"},"vehicle_type_id":"4","last_reported":1731704869,"current_range_meters":20400,"station_id":"ce4bhph2rcd13ifvqhdg","pricing_plan_id":"cebpf4jnsgd1na2vs0mg"},{"bike_id":"2b801123-e460-47e7-bead-4f0cb659253f","system_id":"levelo_inurba_marseille","lat":43.23181,"lon":5.39987,"is_reserved":false,"is_disabled":false,"rental_uris":{"android":"levelo://app?vid=2b801123-e460-47e7-bead-4f0cb659253f","ios":"levelo://app?vid=2b801123-e460-47e7-bead-4f0cb659253f"},"vehicle_type_id":"4","last_reported":1731704869,"current_range_meters":36800,"station_id":"ce4bhn12rcd13ifvqgqg","pricing_plan_id":"cebpf4jnsgd1na2vs0mg"},{"bike_id":"f3317b10-4113-44b8-8173-b552467370c7","system_id":"levelo_inurba_marseille","lat":43.3169,"lon":5.40468,"is_reserved":false,"is_disabled":false,"rental_uris":{"android":"levelo://app?vid=f3317b10-4113-44b8-8173-b552467370c7","ios":"levelo://app?vid=f3317b10-4113-44b8-8173-b552467370c7"},"vehicle_type_id":"4","last_reported":1731704869,"current_range_meters":37600,"station_id":"ce4bh012rcd13ifvqd00","pricing_plan_id":"cebpf4jnsgd1na2vs0mg"},{"bike_id":"004af383-0d61-41f0-979b-fe8d5ecec5f1","system_id":"levelo_inurba_marseille","lat":43.28458,"lon":5.3589,"is_reserved":false,"is_disabled":false,"rental_uris":{"android":"levelo://app?vid=004af383-0d61-41f0-979b-fe8d5ecec5f1","ios":"levelo://app?vid=004af383-0d61-41f0-979b-fe8d5ecec5f1"},"vehicle_type_id":"4","last_reported":1731704869,"current_range_meters":32800,"station_id":"ce4bhah2rcd13ifvqei0","pricing_plan_id":"cebpf4jnsgd1na2vs0mg"},{"bike_id":"0a9751da-8684-43f9-b53f-6389ddca1500","system_id":"levelo_inurba_marseille","lat":43.31884,"lon":5.40726,"is_reserved":false,"is_disabled":false,"rental_uris":{"android":"levelo://app?vid=0a9751da-8684-43f9-b53f-6389ddca1500","ios":"levelo://app?vid=0a9751da-8684-43f9-b53f-6389ddca1500"},"vehicle_type_id":"4","last_reported":1731704869,"current_range_meters":26800,"station_id":"ce4bhq12rcd13ifvqhig","pricing_plan_id":"cebpf4jnsgd1na2vs0mg"},{"bike_id":"53c6f18f-b2a6-465f-86fc-4b403f083400","system_id":"levelo_inurba_marseille","lat":43.292639,"lon":5.384104,"is_reserved":false,"is_disabled":false,"rental_uris":{"android":"levelo://app?vid=53c6f18f-b2a6-465f-86fc-4b403f083400","ios":"levelo://app?vid=53c6f18f-b2a6-465f-86fc-4b403f083400"},"vehicle_type_id":"4","last_reported":1731704869,"current_range_meters":8800,"station_id":"ce4bh692rcd13ifvqea0","pricing_plan_id":"cebpf4jnsgd1na2vs0mg"},{"bike_id":"01abbd6c-f381-41f7-8eb8-f26e28bbd898","system_id":"levelo_inurba_marseille","lat":43.309,"lon":5.37202,"is_reserved":false,"is_disabled":false,"rental_uris":{"android":"levelo://app?vid=01abbd6c-f381-41f7-8eb8-f26e28bbd898","ios":"levelo://app?vid=01abbd6c-f381-41f7-8eb8-f26e28bbd898"},"vehicle_type_id":"4","last_reported":1731704869,"current_range_meters":13600,"station_id":"ce4bguh2rcd13ifvqckg","pricing_plan_id":"cebpf4jnsgd1na2vs0mg"},{"bike_id":"d27a3475-2e52-4b6c-9dea-c67313b855a8","system_id":"levelo_inurba_marseille","lat":43.31895,"lon":5.40723,"is_reserved":false,"is_disabled":false,"rental_uris":{"android":"levelo://app?vid=d27a3475-2e52-4b6c-9dea-c67313b855a8","ios":"levelo://app?vid=d27a3475-2e52-4b6c-9dea-c67313b855a8"},"vehicle_type_id":"4","last_reported":1731704869,"current_range_meters":32400,"station_id":"ce4bhq12rcd13ifvqhig","pricing_plan_id":"cebpf4jnsgd1na2vs0mg"},{"bike_id":"2f70c9d6-b647-4dc7-9d50-b16561ca2282","system_id":"levelo_inurba_marseille","lat":43.240809,"lon":5.378074,"is_reserved":false,"is_disabled":false,"rental_uris":{"android":"levelo://app?vid=2f70c9d6-b647-4dc7-9d50-b16561ca2282","ios":"levelo://app?vid=2f70c9d6-b647-4dc7-9d50-b16561ca2282"},"vehicle_type_id":"4","last_reported":1731704869,"current_range_meters":37600,"station_id":"ce4bhnp2rcd13ifvqgvg","pricing_plan_id":"cebpf4jnsgd1na2vs0mg"},{"bike_id":"cc6dab0b-8834-4ae3-9cdd-a2d3b1edd735","system_id":"levelo_inurba_marseille","lat":43.3229,"lon":5.38261,"is_reserved":false,"is_disabled":false,"rental_uris":{"android":"levelo://app?vid=cc6dab0b-8834-4ae3-9cdd-a2d3b1edd735","ios":"levelo://app?vid=cc6dab0b-8834-4ae3-9cdd-a2d3b1edd735"},"vehicle_type_id":"4","last_reported":1731704869,"current_range_meters":38800,"station_id":"ce4bhr12rcd13ifvqhqg","pricing_plan_id":"cebpf4jnsgd1na2vs0mg"},{"bike_id":"222c7693-4b09-4b52-990e-0a743f002a34","system_id":"levelo_inurba_marseille","lat":43.29419,"lon":5.38627,"is_reserved":false,"is_disabled":false,"rental_uris":{"android":"levelo://app?vid=222c7693-4b09-4b52-990e-0a743f002a34","ios":"levelo://app?vid=222c7693-4b09-4b52-990e-0a743f002a34"},"vehicle_type_id":"4","last_reported":1731704869,"current_range_meters":28800,"station_id":"ce4bh2h2rcd13ifvqdh0","pricing_plan_id":"cebpf4jnsgd1na2vs0mg"},{"bike_id":"c32cb617-b374-4b74-8210-e0f4e45c9111","system_id":"levelo_inurba_marseille","lat":43.2781,"lon":5.40712,"is_reserved":false,"is_disabled":false,"rental_uris":{"android":"levelo://app?vid=c32cb617-b374-4b74-8210-e0f4e45c9111","ios":"levelo://app?vid=c32cb617-b374-4b74-8210-e0f4e45c9111"},"vehicle_type_id":"4","last_reported":1731704869,"current_range_meters":38800,"station_id":"ce4bhnh2rcd13ifvqgtg","pricing_plan_id":"cebpf4jnsgd1na2vs0mg"},{"bike_id":"49f3061b-4251-4d2c-aa05-3b87a4edb968","system_id":"levelo_inurba_marseille","lat":43.3033,"lon":5.40435,"is_reserved":false,"is_disabled":false,"rental_uris":{"android":"levelo://app?vid=49f3061b-4251-4d2c-aa05-3b87a4edb968","ios":"levelo://app?vid=49f3061b-4251-4d2c-aa05-3b87a4edb968"},"vehicle_type_id":"4","last_reported":1731704869,"current_range_meters":28800,"station_id":"ce4bh012rcd13ifvqd10","pricing_plan_id":"cebpf4jnsgd1na2vs0mg"},{"bike_id":"c77f9477-ee57-47d1-8bf5-39d38476d7be","system_id":"levelo_inurba_marseille","lat":43.2781,"lon":5.40715,"is_reserved":false,"is_disabled":false,"rental_uris":{"android":"levelo://app?vid=c77f9477-ee57-47d1-8bf5-39d38476d7be","ios":"levelo://app?vid=c77f9477-ee57-47d1-8bf5-39d38476d7be"},"vehicle_type_id":"4","last_reported":1731704869,"current_range_meters":38400,"station_id":"ce4bhnh2rcd13ifvqgtg","pricing_plan_id":"cebpf4jnsgd1na2vs0mg"},{"bike_id":"b6e29239-107b-4bf3-9a6d-4106d6b8d40f","system_id":"levelo_inurba_marseille","lat":43.30253,"lon":5.40071,"is_reserved":false,"is_disabled":false,"rental_uris":{"android":"levelo://app?vid=b6e29239-107b-4bf3-9a6d-4106d6b8d40f","ios":"levelo://app?vid=b6e29239-107b-4bf3-9a6d-4106d6b8d40f"},"vehicle_type_id":"4","last_reported":1731704869,"current_range_meters":17600,"station_id":"ce4bgvh2rcd13ifvqcs0","pricing_plan_id":"cebpf4jnsgd1na2vs0mg"},{"bike_id":"e9df3c2c-92fe-4690-8adb-6107d20c9039","system_id":"levelo_inurba_marseille","lat":43.28978,"lon":5.37836,"is_reserved":false,"is_disabled":false,"rental_uris":{"android":"levelo://app?vid=e9df3c2c-92fe-4690-8adb-6107d20c9039","ios":"levelo://app?vid=e9df3c2c-92fe-4690-8adb-6107d20c9039"},"vehicle_type_id":"4","last_reported":1731704869,"current_range_meters":21600,"station_id":"ce4bh9p2rcd13ifvqed0","pricing_plan_id":"cebpf4jnsgd1na2vs0mg"},{"bike_id":"af922e35-461e-406c-834b-ec6d251fe769","system_id":"levelo_inurba_marseille","lat":43.295286,"lon":5.385387,"is_reserved":false,"is_disabled":false,"rental_uris":{"android":"levelo://app?vid=af922e35-461e-406c-834b-ec6d251fe769","ios":"levelo://app?vid=af922e35-461e-406c-834b-ec6d251fe769"},"vehicle_type_id":"4","last_reported":1731704869,"current_range_meters":23200,"station_id":"ce4bgih2rcd13ifvqba0","pricing_plan_id":"cebpf4jnsgd1na2vs0mg"},{"bike_id":"f861ffb2-4f7c-41d6-9ee1-0006c8616080","system_id":"levelo_inurba_marseille","lat":43.28016,"lon":5.383783,"is_reserved":false,"is_disabled":false,"rental_uris":{"android":"levelo://app?vid=f861ffb2-4f7c-41d6-9ee1-0006c8616080","ios":"levelo://app?vid=f861ffb2-4f7c-41d6-9ee1-0006c8616080"},"vehicle_type_id":"4","last_reported":1731704869,"current_range_meters":20800,"station_id":"ce4bgjh2rcd13ifvqbf0","pricing_plan_id":"cebpf4jnsgd1na2vs0mg"},{"bike_id":"d312945a-1091-4c2c-ab45-dd5d7ae21a3c","system_id":"levelo_inurba_marseille","lat":43.29535,"lon":5.38545,"is_reserved":false,"is_disabled":false,"rental_uris":{"android":"levelo://app?vid=d312945a-1091-4c2c-ab45-dd5d7ae21a3c","ios":"levelo://app?vid=d312945a-1091-4c2c-ab45-dd5d7ae21a3c"},"vehicle_type_id":"4","last_reported":1731704869,"current_range_meters":17200,"station_id":"ce4bgih2rcd13ifvqba0","pricing_plan_id":"cebpf4jnsgd1na2vs0mg"},{"bike_id":"08f2da3e-9a4f-4bf2-9ab5-de990ce33744","system_id":"levelo_inurba_marseille","lat":43.30653,"lon":5.36817,"is_reserved":false,"is_disabled":false,"rental_uris":{"android":"levelo://app?vid=08f2da3e-9a4f-4bf2-9ab5-de990ce33744","ios":"levelo://app?vid=08f2da3e-9a4f-4bf2-9ab5-de990ce33744"},"vehicle_type_id":"4","last_reported":1731704869,"current_range_meters":36800,"station_id":"","pricing_plan_id":"cebpf4jnsgd1na2vs0mg"},{"bike_id":"cca4ec0e-3315-4fea-b54f-00303191c9e0","system_id":"levelo_inurba_marseille","lat":43.27762,"lon":5.38631,"is_reserved":false,"is_disabled":false,"rental_uris":{"android":"levelo://app?vid=cca4ec0e-3315-4fea-b54f-00303191c9e0","ios":"levelo://app?vid=cca4ec0e-3315-4fea-b54f-00303191c9e0"},"vehicle_type_id":"4","last_reported":1731704869,"current_range_meters":22800,"station_id":"ce4bhh92rcd13ifvqfi0","pricing_plan_id":"cebpf4jnsgd1na2vs0mg"},{"bike_id":"337552e9-9e69-4fae-9c81-107a97262863","system_id":"levelo_inurba_marseille","lat":43.23188,"lon":5.39988,"is_reserved":false,"is_disabled":false,"rental_uris":{"android":"levelo://app?vid=337552e9-9e69-4fae-9c81-107a97262863","ios":"levelo://app?vid=337552e9-9e69-4fae-9c81-107a97262863"},"vehicle_type_id":"4","last_reported":1731704869,"current_range_meters":14000,"station_id":"ce4bhn12rcd13ifvqgqg","pricing_plan_id":"cebpf4jnsgd1na2vs0mg"},{"bike_id":"f1e0f3dd-a15a-4f0c-a853-07b7313ac16b","system_id":"levelo_inurba_marseille","lat":43.31886,"lon":5.40728,"is_reserved":false,"is_disabled":false,"rental_uris":{"android":"levelo://app?vid=f1e0f3dd-a15a-4f0c-a853-07b7313ac16b","ios":"levelo://app?vid=f1e0f3dd-a15a-4f0c-a853-07b7313ac16b"},"vehicle_type_id":"4","last_reported":1731704869,"current_range_meters":38000,"station_id":"ce4bhq12rcd13ifvqhig","pricing_plan_id":"cebpf4jnsgd1na2vs0mg"},{"bike_id":"6562d6dd-89a8-4ac5-9423-749d1506b781","system_id":"levelo_inurba_marseille","lat":43.29269,"lon":5.38443,"is_reserved":false,"is_disabled":false,"rental_uris":{"android":"levelo://app?vid=6562d6dd-89a8-4ac5-9423-749d1506b781","ios":"levelo://app?vid=6562d6dd-89a8-4ac5-9423-749d1506b781"},"vehicle_type_id":"4","last_reported":1731704869,"current_range_meters":6800,"station_id":"ce4bh692rcd13ifvqea0","pricing_plan_id":"cebpf4jnsgd1na2vs0mg"},{"bike_id":"511edfd7-5a0d-4a71-b780-d96d85b946ea","system_id":"levelo_inurba_marseille","lat":43.31265,"lon":5.40162,"is_reserved":false,"is_disabled":false,"rental_uris":{"android":"levelo://app?vid=511edfd7-5a0d-4a71-b780-d96d85b946ea","ios":"levelo://app?vid=511edfd7-5a0d-4a71-b780-d96d85b946ea"},"vehicle_type_id":"4","last_reported":1731704869,"current_range_meters":22400,"station_id":"ce4bh092rcd13ifvqd30","pricing_plan_id":"cebpf4jnsgd1na2vs0mg"},{"bike_id":"b54f4471-f146-477a-ade3-58e1dea1b85e","system_id":"levelo_inurba_marseille","lat":43.337444,"lon":5.374475,"is_reserved":false,"is_disabled":false,"rental_uris":{"android":"levelo://app?vid=b54f4471-f146-477a-ade3-58e1dea1b85e","ios":"levelo://app?vid=b54f4471-f146-477a-ade3-58e1dea1b85e"},"vehicle_type_id":"4","last_reported":1731704869,"current_range_meters":36000,"station_id":"","pricing_plan_id":"cebpf4jnsgd1na2vs0mg"},{"bike_id":"93a8ec61-7cae-4cfc-a95e-ccd57e522ae2","system_id":"levelo_inurba_marseille","lat":43.297058,"lon":5.366022,"is_reserved":false,"is_disabled":false,"rental_uris":{"android":"levelo://app?vid=93a8ec61-7cae-4cfc-a95e-ccd57e522ae2","ios":"levelo://app?vid=93a8ec61-7cae-4cfc-a95e-ccd57e522ae2"},"vehicle_type_id":"4","last_reported":1731704869,"current_range_meters":32800,"station_id":"ce4bgn12rcd13ifvqbt0","pricing_plan_id":"cebpf4jnsgd1na2vs0mg"},{"bike_id":"01b2a653-973a-4e3f-b370-01c891de3f4a","system_id":"levelo_inurba_marseille","lat":43.28931,"lon":5.36636,"is_reserved":false,"is_disabled":false,"rental_uris":{"android":"levelo://app?vid=01b2a653-973a-4e3f-b370-01c891de3f4a","ios":"levelo://app?vid=01b2a653-973a-4e3f-b370-01c891de3f4a"},"vehicle_type_id":"4","last_reported":1731704869,"current_range_meters":18000,"station_id":"ce4bhap2rcd13ifvqek0","pricing_plan_id":"cebpf4jnsgd1na2vs0mg"},{"bike_id":"ed19f147-c7d1-4f2e-a8a6-ae9e7655208d","system_id":"levelo_inurba_marseille","lat":43.29068,"lon":5.37142,"is_reserved":false,"is_disabled":false,"rental_uris":{"android":"levelo://app?vid=ed19f147-c7d1-4f2e-a8a6-ae9e7655208d","ios":"levelo://app?vid=ed19f147-c7d1-4f2e-a8a6-ae9e7655208d"},"vehicle_type_id":"4","last_reported":1731704869,"current_range_meters":6800,"station_id":"ce4bh5p2rcd13ifvqe4g","pricing_plan_id":"cebpf4jnsgd1na2vs0mg"},{"bike_id":"805cfe6b-be44-4949-bab5-57b1ce8478a4","system_id":"levelo_inurba_marseille","lat":43.33752,"lon":5.37459,"is_reserved":false,"is_disabled":false,"rental_uris":{"android":"levelo://app?vid=805cfe6b-be44-4949-bab5-57b1ce8478a4","ios":"levelo://app?vid=805cfe6b-be44-4949-bab5-57b1ce8478a4"},"vehicle_type_id":"4","last_reported":1731704869,"current_range_meters":32400,"station_id":"","pricing_plan_id":"cebpf4jnsgd1na2vs0mg"},{"bike_id":"3cd2663d-ddea-4c47-bfe3-6f60b341aaa3","system_id":"levelo_inurba_marseille","lat":43.27812,"lon":5.40697,"is_reserved":false,"is_disabled":false,"rental_uris":{"android":"levelo://app?vid=3cd2663d-ddea-4c47-bfe3-6f60b341aaa3","ios":"levelo://app?vid=3cd2663d-ddea-4c47-bfe3-6f60b341aaa3"},"vehicle_type_id":"4","last_reported":1731704869,"current_range_meters":10000,"station_id":"ce4bhnh2rcd13ifvqgtg","pricing_plan_id":"cebpf4jnsgd1na2vs0mg"},{"bike_id":"cb4c5128-29d6-4c0c-a215-ac0ef1ae9090","system_id":"levelo_inurba_marseille","lat":43.25864,"lon":5.39896,"is_reserved":false,"is_disabled":false,"rental_uris":{"android":"levelo://app?vid=cb4c5128-29d6-4c0c-a215-ac0ef1ae9090","ios":"levelo://app?vid=cb4c5128-29d6-4c0c-a215-ac0ef1ae9090"},"vehicle_type_id":"4","last_reported":1731704869,"current_range_meters":4800,"station_id":"ce4bhl92rcd13ifvqghg","pricing_plan_id":"cebpf4jnsgd1na2vs0mg"},{"bike_id":"615cd994-d13c-46b8-be29-42ceb034a276","system_id":"levelo_inurba_marseille","lat":43.29253,"lon":5.3843,"is_reserved":false,"is_disabled":false,"rental_uris":{"android":"levelo://app?vid=615cd994-d13c-46b8-be29-42ceb034a276","ios":"levelo://app?vid=615cd994-d13c-46b8-be29-42ceb034a276"},"vehicle_type_id":"4","last_reported":1731704869,"current_range_meters":36800,"station_id":"ce4bh692rcd13ifvqea0","pricing_plan_id":"cebpf4jnsgd1na2vs0mg"},{"bike_id":"6e42e305-cc81-47db-b26f-5d46102f1927","system_id":"levelo_inurba_marseille","lat":43.29094,"lon":5.38142,"is_reserved":false,"is_disabled":false,"rental_uris":{"android":"levelo://app?vid=6e42e305-cc81-47db-b26f-5d46102f1927","ios":"levelo://app?vid=6e42e305-cc81-47db-b26f-5d46102f1927"},"vehicle_type_id":"4","last_reported":1731704869,"current_range_meters":16000,"station_id":"ce4bh512rcd13ifvqe2g","pricing_plan_id":"cebpf4jnsgd1na2vs0mg"},{"bike_id":"10c6b180-e6d3-4c3f-b6c9-54b23cdd2f69","system_id":"levelo_inurba_marseille","lat":43.30781,"lon":5.37652,"is_reserved":false,"is_disabled":false,"rental_uris":{"android":"levelo://app?vid=10c6b180-e6d3-4c3f-b6c9-54b23cdd2f69","ios":"levelo://app?vid=10c6b180-e6d3-4c3f-b6c9-54b23cdd2f69"},"vehicle_type_id":"4","last_reported":1731704869,"current_range_meters":9600,"station_id":"ce4bgv92rcd13ifvqcq0","pricing_plan_id":"cebpf4jnsgd1na2vs0mg"},{"bike_id":"ca655f3b-8380-4045-b3f8-8acaa0e83ede","system_id":"levelo_inurba_marseille","lat":43.33733,"lon":5.37456,"is_reserved":false,"is_disabled":false,"rental_uris":{"android":"levelo://app?vid=ca655f3b-8380-4045-b3f8-8acaa0e83ede","ios":"levelo://app?vid=ca655f3b-8380-4045-b3f8-8acaa0e83ede"},"vehicle_type_id":"4","last_reported":1731704869,"current_range_meters":35600,"station_id":"","pricing_plan_id":"cebpf4jnsgd1na2vs0mg"},{"bike_id":"177ba669-d05f-4933-9b15-c9b9e75a9e9f","system_id":"levelo_inurba_marseille","lat":43.29876,"lon":5.38907,"is_reserved":false,"is_disabled":false,"rental_uris":{"android":"levelo://app?vid=177ba669-d05f-4933-9b15-c9b9e75a9e9f","ios":"levelo://app?vid=177ba669-d05f-4933-9b15-c9b9e75a9e9f"},"vehicle_type_id":"4","last_reported":1731704869,"current_range_meters":28800,"station_id":"ce4bh392rcd13ifvqdl0","pricing_plan_id":"cebpf4jnsgd1na2vs0mg"},{"bike_id":"eeee108a-0c4d-4aae-9f19-d70e79b8d29f","system_id":"levelo_inurba_marseille","lat":43.3248,"lon":5.36568,"is_reserved":false,"is_disabled":false,"rental_uris":{"android":"levelo://app?vid=eeee108a-0c4d-4aae-9f19-d70e79b8d29f","ios":"levelo://app?vid=eeee108a-0c4d-4aae-9f19-d70e79b8d29f"},"vehicle_type_id":"4","last_reported":1731704869,"current_range_meters":38800,"station_id":"ce4bhs12rcd13ifvqhvg","pricing_plan_id":"cebpf4jnsgd1na2vs0mg"},{"bike_id":"a6b8c285-acc9-4039-9531-1aae39136a33","system_id":"levelo_inurba_marseille","lat":43.312042,"lon":5.367348,"is_reserved":false,"is_disabled":false,"rental_uris":{"android":"levelo://app?vid=a6b8c285-acc9-4039-9531-1aae39136a33","ios":"levelo://app?vid=a6b8c285-acc9-4039-9531-1aae39136a33"},"vehicle_type_id":"4","last_reported":1731704869,"current_range_meters":17600,"station_id":"","pricing_plan_id":"cebpf4jnsgd1na2vs0mg"},{"bike_id":"ebcbc26a-0484-40a4-8792-8bd74acf68ef","system_id":"levelo_inurba_marseille","lat":43.292564,"lon":5.384451,"is_reserved":false,"is_disabled":false,"rental_uris":{"android":"levelo://app?vid=ebcbc26a-0484-40a4-8792-8bd74acf68ef","ios":"levelo://app?vid=ebcbc26a-0484-40a4-8792-8bd74acf68ef"},"vehicle_type_id":"4","last_reported":1731704869,"current_range_meters":18000,"station_id":"ce4bh692rcd13ifvqea0","pricing_plan_id":"cebpf4jnsgd1na2vs0mg"},{"bike_id":"5c254126-8805-4ed8-9520-9f63561143b3","system_id":"levelo_inurba_marseille","lat":43.24168,"lon":5.3639,"is_reserved":false,"is_disabled":false,"rental_uris":{"android":"levelo://app?vid=5c254126-8805-4ed8-9520-9f63561143b3","ios":"levelo://app?vid=5c254126-8805-4ed8-9520-9f63561143b3"},"vehicle_type_id":"4","last_reported":1731704869,"current_range_meters":25200,"station_id":"cpo36qri1sfpv3e86is0","pricing_plan_id":"cebpf4jnsgd1na2vs0mg"},{"bike_id":"73f67389-bc64-4ccb-bae5-f97accc880eb","system_id":"levelo_inurba_marseille","lat":43.29421,"lon":5.38625,"is_reserved":false,"is_disabled":false,"rental_uris":{"android":"levelo://app?vid=73f67389-bc64-4ccb-bae5-f97accc880eb","ios":"levelo://app?vid=73f67389-bc64-4ccb-bae5-f97accc880eb"},"vehicle_type_id":"4","last_reported":1731704869,"current_range_meters":8400,"station_id":"ce4bh2h2rcd13ifvqdh0","pricing_plan_id":"cebpf4jnsgd1na2vs0mg"},{"bike_id":"95189523-b163-438d-9cb1-f7dc4435500d","system_id":"levelo_inurba_marseille","lat":43.32331,"lon":5.40612,"is_reserved":false,"is_disabled":false,"rental_uris":{"android":"levelo://app?vid=95189523-b163-438d-9cb1-f7dc4435500d","ios":"levelo://app?vid=95189523-b163-438d-9cb1-f7dc4435500d"},"vehicle_type_id":"4","last_reported":1731704869,"current_range_meters":23200,"station_id":"ce4bhq92rcd13ifvqhjg","pricing_plan_id":"cebpf4jnsgd1na2vs0mg"},{"bike_id":"40a00824-9105-42da-bd2d-cd332ad8945e","system_id":"levelo_inurba_marseille","lat":43.30129,"lon":5.38783,"is_reserved":false,"is_disabled":false,"rental_uris":{"android":"levelo://app?vid=40a00824-9105-42da-bd2d-cd332ad8945e","ios":"levelo://app?vid=40a00824-9105-42da-bd2d-cd332ad8945e"},"vehicle_type_id":"4","last_reported":1731704869,"current_range_meters":38400,"station_id":"ce4bghh2rcd13ifvqb60","pricing_plan_id":"cebpf4jnsgd1na2vs0mg"},{"bike_id":"50ae3ec0-9f46-43fd-819a-4c7a80c3cf46","system_id":"levelo_inurba_marseille","lat":43.28853,"lon":5.35826,"is_reserved":false,"is_disabled":false,"rental_uris":{"android":"levelo://app?vid=50ae3ec0-9f46-43fd-819a-4c7a80c3cf46","ios":"levelo://app?vid=50ae3ec0-9f46-43fd-819a-4c7a80c3cf46"},"vehicle_type_id":"4","last_reported":1731704869,"current_range_meters":38000,"station_id":"ce4bhb12rcd13ifvqem0","pricing_plan_id":"cebpf4jnsgd1na2vs0mg"},{"bike_id":"a165b3e4-fc8f-45cf-9115-4fa27c7c62d3","system_id":"levelo_inurba_marseille","lat":43.29629,"lon":5.40594,"is_reserved":false,"is_disabled":false,"rental_uris":{"android":"levelo://app?vid=a165b3e4-fc8f-45cf-9115-4fa27c7c62d3","ios":"levelo://app?vid=a165b3e4-fc8f-45cf-9115-4fa27c7c62d3"},"vehicle_type_id":"4","last_reported":1731704869,"current_range_meters":5600,"station_id":"ce4bh0h2rcd13ifvqd60","pricing_plan_id":"cebpf4jnsgd1na2vs0mg"},{"bike_id":"a1cf96a5-8724-4d7e-8b5b-bd9515f6986e","system_id":"levelo_inurba_marseille","lat":43.29288,"lon":5.37432,"is_reserved":false,"is_disabled":false,"rental_uris":{"android":"levelo://app?vid=a1cf96a5-8724-4d7e-8b5b-bd9515f6986e","ios":"levelo://app?vid=a1cf96a5-8724-4d7e-8b5b-bd9515f6986e"},"vehicle_type_id":"4","last_reported":1731704869,"current_range_meters":38400,"station_id":"ce4bgi12rcd13ifvqb70","pricing_plan_id":"cebpf4jnsgd1na2vs0mg"},{"bike_id":"6ef266d1-92eb-440d-9bcd-6ee947c0d029","system_id":"levelo_inurba_marseille","lat":43.27487,"lon":5.42447,"is_reserved":false,"is_disabled":false,"rental_uris":{"android":"levelo://app?vid=6ef266d1-92eb-440d-9bcd-6ee947c0d029","ios":"levelo://app?vid=6ef266d1-92eb-440d-9bcd-6ee947c0d029"},"vehicle_type_id":"4","last_reported":1731704869,"current_range_meters":38800,"station_id":"ce4bhn92rcd13ifvqgrg","pricing_plan_id":"cebpf4jnsgd1na2vs0mg"},{"bike_id":"56e128db-d281-4e18-8304-040ffeba0eed","system_id":"levelo_inurba_marseille","lat":43.2942,"lon":5.38629,"is_reserved":false,"is_disabled":false,"rental_uris":{"android":"levelo://app?vid=56e128db-d281-4e18-8304-040ffeba0eed","ios":"levelo://app?vid=56e128db-d281-4e18-8304-040ffeba0eed"},"vehicle_type_id":"4","last_reported":1731704869,"current_range_meters":19600,"station_id":"ce4bh2h2rcd13ifvqdh0","pricing_plan_id":"cebpf4jnsgd1na2vs0mg"},{"bike_id":"1ae8fe75-00ad-479b-a755-74d45d76bfbe","system_id":"levelo_inurba_marseille","lat":43.24167,"lon":5.36392,"is_reserved":false,"is_disabled":false,"rental_uris":{"android":"levelo://app?vid=1ae8fe75-00ad-479b-a755-74d45d76bfbe","ios":"levelo://app?vid=1ae8fe75-00ad-479b-a755-74d45d76bfbe"},"vehicle_type_id":"4","last_reported":1731704869,"current_range_meters":9200,"station_id":"cpo36qri1sfpv3e86is0","pricing_plan_id":"cebpf4jnsgd1na2vs0mg"},{"bike_id":"25814bd3-d4dd-4170-aae5-5225113c94cc","system_id":"levelo_inurba_marseille","lat":43.29267,"lon":5.38527,"is_reserved":false,"is_disabled":false,"rental_uris":{"android":"levelo://app?vid=25814bd3-d4dd-4170-aae5-5225113c94cc","ios":"levelo://app?vid=25814bd3-d4dd-4170-aae5-5225113c94cc"},"vehicle_type_id":"4","last_reported":1731704869,"current_range_meters":8800,"station_id":"","pricing_plan_id":"cebpf4jnsgd1na2vs0mg"},{"bike_id":"5df34f29-1a7a-4221-97e5-c009d97a2929","system_id":"levelo_inurba_marseille","lat":43.23841,"lon":5.36529,"is_reserved":false,"is_disabled":false,"rental_uris":{"android":"levelo://app?vid=5df34f29-1a7a-4221-97e5-c009d97a2929","ios":"levelo://app?vid=5df34f29-1a7a-4221-97e5-c009d97a2929"},"vehicle_type_id":"4","last_reported":1731704869,"current_range_meters":12400,"station_id":"","pricing_plan_id":"cebpf4jnsgd1na2vs0mg"},{"bike_id":"92ac4858-87d6-4ceb-8f6e-004635a816a8","system_id":"levelo_inurba_marseille","lat":43.2779,"lon":5.4073,"is_reserved":false,"is_disabled":false,"rental_uris":{"android":"levelo://app?vid=92ac4858-87d6-4ceb-8f6e-004635a816a8","ios":"levelo://app?vid=92ac4858-87d6-4ceb-8f6e-004635a816a8"},"vehicle_type_id":"4","last_reported":1731704869,"current_range_meters":35600,"station_id":"ce4bhnh2rcd13ifvqgtg","pricing_plan_id":"cebpf4jnsgd1na2vs0mg"},{"bike_id":"4f2295d7-3587-4d90-aa10-8787d547e97e","system_id":"levelo_inurba_marseille","lat":43.26215,"lon":5.37437,"is_reserved":false,"is_disabled":false,"rental_uris":{"android":"levelo://app?vid=4f2295d7-3587-4d90-aa10-8787d547e97e","ios":"levelo://app?vid=4f2295d7-3587-4d90-aa10-8787d547e97e"},"vehicle_type_id":"4","last_reported":1731704869,"current_range_meters":8000,"station_id":"ce4bhgp2rcd13ifvqfc0","pricing_plan_id":"cebpf4jnsgd1na2vs0mg"},{"bike_id":"acccc9dd-ae8e-4182-bf16-701672e8ed55","system_id":"levelo_inurba_marseille","lat":43.25718,"lon":5.41106,"is_reserved":false,"is_disabled":false,"rental_uris":{"android":"levelo://app?vid=acccc9dd-ae8e-4182-bf16-701672e8ed55","ios":"levelo://app?vid=acccc9dd-ae8e-4182-bf16-701672e8ed55"},"vehicle_type_id":"4","last_reported":1731704869,"current_range_meters":38800,"station_id":"ce4bhkp2rcd13ifvqgd0","pricing_plan_id":"cebpf4jnsgd1na2vs0mg"},{"bike_id":"4764d1eb-018a-433b-b755-fe7052d97325","system_id":"levelo_inurba_marseille","lat":43.21557,"lon":5.34472,"is_reserved":false,"is_disabled":false,"rental_uris":{"android":"levelo://app?vid=4764d1eb-018a-433b-b755-fe7052d97325","ios":"levelo://app?vid=4764d1eb-018a-433b-b755-fe7052d97325"},"vehicle_type_id":"4","last_reported":1731704869,"current_range_meters":20800,"station_id":"","pricing_plan_id":"cebpf4jnsgd1na2vs0mg"},{"bike_id":"347c7842-b74d-475c-9f43-0b98799e9df1","system_id":"levelo_inurba_marseille","lat":43.32338,"lon":5.40612,"is_reserved":false,"is_disabled":false,"rental_uris":{"android":"levelo://app?vid=347c7842-b74d-475c-9f43-0b98799e9df1","ios":"levelo://app?vid=347c7842-b74d-475c-9f43-0b98799e9df1"},"vehicle_type_id":"4","last_reported":1731704869,"current_range_meters":6400,"station_id":"ce4bhq92rcd13ifvqhjg","pricing_plan_id":"cebpf4jnsgd1na2vs0mg"},{"bike_id":"ec2cfdc2-4f84-4e38-a19d-43ff2b2c9286","system_id":"levelo_inurba_marseille","lat":43.31685,"lon":5.40462,"is_reserved":false,"is_disabled":false,"rental_uris":{"android":"levelo://app?vid=ec2cfdc2-4f84-4e38-a19d-43ff2b2c9286","ios":"levelo://app?vid=ec2cfdc2-4f84-4e38-a19d-43ff2b2c9286"},"vehicle_type_id":"4","last_reported":1731704869,"current_range_meters":10800,"station_id":"ce4bh012rcd13ifvqd00","pricing_plan_id":"cebpf4jnsgd1na2vs0mg"},{"bike_id":"4f9bbc6b-a988-43f8-bc00-4d944c1473b5","system_id":"levelo_inurba_marseille","lat":43.29927,"lon":5.36389,"is_reserved":false,"is_disabled":false,"rental_uris":{"android":"levelo://app?vid=4f9bbc6b-a988-43f8-bc00-4d944c1473b5","ios":"levelo://app?vid=4f9bbc6b-a988-43f8-bc00-4d944c1473b5"},"vehicle_type_id":"4","last_reported":1731704869,"current_range_meters":30000,"station_id":"","pricing_plan_id":"cebpf4jnsgd1na2vs0mg"},{"bike_id":"d20a80d6-7a81-4169-9572-1e071d557296","system_id":"levelo_inurba_marseille","lat":43.30432,"lon":5.38882,"is_reserved":false,"is_disabled":false,"rental_uris":{"android":"levelo://app?vid=d20a80d6-7a81-4169-9572-1e071d557296","ios":"levelo://app?vid=d20a80d6-7a81-4169-9572-1e071d557296"},"vehicle_type_id":"4","last_reported":1731704869,"current_range_meters":29600,"station_id":"ce4bgk12rcd13ifvqbi0","pricing_plan_id":"cebpf4jnsgd1na2vs0mg"},{"bike_id":"139d00fc-e67b-449a-9fd4-0db893561dc2","system_id":"levelo_inurba_marseille","lat":43.33756,"lon":5.37418,"is_reserved":false,"is_disabled":false,"rental_uris":{"android":"levelo://app?vid=139d00fc-e67b-449a-9fd4-0db893561dc2","ios":"levelo://app?vid=139d00fc-e67b-449a-9fd4-0db893561dc2"},"vehicle_type_id":"4","last_reported":1731704869,"current_range_meters":8400,"station_id":"","pricing_plan_id":"cebpf4jnsgd1na2vs0mg"},{"bike_id":"bdda4347-118f-4304-b506-09b4b5e15b39","system_id":"levelo_inurba_marseille","lat":43.33723,"lon":5.39186,"is_reserved":false,"is_disabled":false,"rental_uris":{"android":"levelo://app?vid=bdda4347-118f-4304-b506-09b4b5e15b39","ios":"levelo://app?vid=bdda4347-118f-4304-b506-09b4b5e15b39"},"vehicle_type_id":"4","last_reported":1731704869,"current_range_meters":18000,"station_id":"ce4bhr92rcd13ifvqhsg","pricing_plan_id":"cebpf4jnsgd1na2vs0mg"},{"bike_id":"33d11ece-d040-4857-8fd2-e02b3e60c387","system_id":"levelo_inurba_marseille","lat":43.24179,"lon":5.39725,"is_reserved":false,"is_disabled":false,"rental_uris":{"android":"levelo://app?vid=33d11ece-d040-4857-8fd2-e02b3e60c387","ios":"levelo://app?vid=33d11ece-d040-4857-8fd2-e02b3e60c387"},"vehicle_type_id":"4","last_reported":1731704869,"current_range_meters":18800,"station_id":"ce4bhn12rcd13ifvqgpg","pricing_plan_id":"cebpf4jnsgd1na2vs0mg"},{"bike_id":"91cbf1b3-79cd-43ab-82da-608da995dd35","system_id":"levelo_inurba_marseille","lat":43.27494,"lon":5.42446,"is_reserved":false,"is_disabled":false,"rental_uris":{"android":"levelo://app?vid=91cbf1b3-79cd-43ab-82da-608da995dd35","ios":"levelo://app?vid=91cbf1b3-79cd-43ab-82da-608da995dd35"},"vehicle_type_id":"4","last_reported":1731704869,"current_range_meters":12400,"station_id":"ce4bhn92rcd13ifvqgrg","pricing_plan_id":"cebpf4jnsgd1na2vs0mg"},{"bike_id":"0aa8c30b-21a9-4221-9b7f-91089e453c43","system_id":"levelo_inurba_marseille","lat":43.30451,"lon":5.38877,"is_reserved":false,"is_disabled":false,"rental_uris":{"android":"levelo://app?vid=0aa8c30b-21a9-4221-9b7f-91089e453c43","ios":"levelo://app?vid=0aa8c30b-21a9-4221-9b7f-91089e453c43"},"vehicle_type_id":"4","last_reported":1731704869,"current_range_meters":38400,"station_id":"ce4bgk12rcd13ifvqbi0","pricing_plan_id":"cebpf4jnsgd1na2vs0mg"},{"bike_id":"49a1bfd7-53ee-4703-a2a2-51dfd4909350","system_id":"levelo_inurba_marseille","lat":43.29528,"lon":5.39032,"is_reserved":false,"is_disabled":false,"rental_uris":{"android":"levelo://app?vid=49a1bfd7-53ee-4703-a2a2-51dfd4909350","ios":"levelo://app?vid=49a1bfd7-53ee-4703-a2a2-51dfd4909350"},"vehicle_type_id":"4","last_reported":1731704869,"current_range_meters":38400,"station_id":"ce4bh3p2rcd13ifvqdp0","pricing_plan_id":"cebpf4jnsgd1na2vs0mg"},{"bike_id":"73357360-d6d6-4583-ad7c-9b67d0c7104e","system_id":"levelo_inurba_marseille","lat":43.29031,"lon":5.39961,"is_reserved":false,"is_disabled":false,"rental_uris":{"android":"levelo://app?vid=73357360-d6d6-4583-ad7c-9b67d0c7104e","ios":"levelo://app?vid=73357360-d6d6-4583-ad7c-9b67d0c7104e"},"vehicle_type_id":"4","last_reported":1731704869,"current_range_meters":22800,"station_id":"ce4bh392rcd13ifvqdm0","pricing_plan_id":"cebpf4jnsgd1na2vs0mg"},{"bike_id":"5626e7a2-cc8c-4e27-8b85-6724b1d55d1e","system_id":"levelo_inurba_marseille","lat":43.33723,"lon":5.3918,"is_reserved":false,"is_disabled":false,"rental_uris":{"android":"levelo://app?vid=5626e7a2-cc8c-4e27-8b85-6724b1d55d1e","ios":"levelo://app?vid=5626e7a2-cc8c-4e27-8b85-6724b1d55d1e"},"vehicle_type_id":"4","last_reported":1731704869,"current_range_meters":38000,"station_id":"ce4bhr92rcd13ifvqhsg","pricing_plan_id":"cebpf4jnsgd1na2vs0mg"},{"bike_id":"f35c20df-970a-4646-8342-b94d36012566","system_id":"levelo_inurba_marseille","lat":43.296,"lon":5.38085,"is_reserved":false,"is_disabled":false,"rental_uris":{"android":"levelo://app?vid=f35c20df-970a-4646-8342-b94d36012566","ios":"levelo://app?vid=f35c20df-970a-4646-8342-b94d36012566"},"vehicle_type_id":"4","last_reported":1731704869,"current_range_meters":27200,"station_id":"ce4bgl12rcd13ifvqbo0","pricing_plan_id":"cebpf4jnsgd1na2vs0mg"},{"bike_id":"b5ce9235-4ffb-4d40-a9ab-7ab7ce5a79f6","system_id":"levelo_inurba_marseille","lat":43.24798,"lon":5.37453,"is_reserved":false,"is_disabled":false,"rental_uris":{"android":"levelo://app?vid=b5ce9235-4ffb-4d40-a9ab-7ab7ce5a79f6","ios":"levelo://app?vid=b5ce9235-4ffb-4d40-a9ab-7ab7ce5a79f6"},"vehicle_type_id":"4","last_reported":1731704869,"current_range_meters":38800,"station_id":"ce4bhgh2rcd13ifvqfb0","pricing_plan_id":"cebpf4jnsgd1na2vs0mg"},{"bike_id":"37ac7e5f-6c23-4d14-b0e5-2ab5bade4bca","system_id":"levelo_inurba_marseille","lat":43.27941,"lon":5.41041,"is_reserved":false,"is_disabled":false,"rental_uris":{"android":"levelo://app?vid=37ac7e5f-6c23-4d14-b0e5-2ab5bade4bca","ios":"levelo://app?vid=37ac7e5f-6c23-4d14-b0e5-2ab5bade4bca"},"vehicle_type_id":"4","last_reported":1731704869,"current_range_meters":8400,"station_id":"ce4bhnp2rcd13ifvqh0g","pricing_plan_id":"cebpf4jnsgd1na2vs0mg"},{"bike_id":"037d1d01-2d7d-4633-aa8f-e9a2f7158ca1","system_id":"levelo_inurba_marseille","lat":43.31685,"lon":5.40478,"is_reserved":false,"is_disabled":false,"rental_uris":{"android":"levelo://app?vid=037d1d01-2d7d-4633-aa8f-e9a2f7158ca1","ios":"levelo://app?vid=037d1d01-2d7d-4633-aa8f-e9a2f7158ca1"},"vehicle_type_id":"4","last_reported":1731704869,"current_range_meters":28000,"station_id":"ce4bh012rcd13ifvqd00","pricing_plan_id":"cebpf4jnsgd1na2vs0mg"},{"bike_id":"03d1db55-50b8-4b7f-aebc-97c9e70bb1be","system_id":"levelo_inurba_marseille","lat":43.31697,"lon":5.40458,"is_reserved":false,"is_disabled":false,"rental_uris":{"android":"levelo://app?vid=03d1db55-50b8-4b7f-aebc-97c9e70bb1be","ios":"levelo://app?vid=03d1db55-50b8-4b7f-aebc-97c9e70bb1be"},"vehicle_type_id":"4","last_reported":1731704869,"current_range_meters":8000,"station_id":"ce4bh012rcd13ifvqd00","pricing_plan_id":"cebpf4jnsgd1na2vs0mg"},{"bike_id":"e1fdae3d-859b-438c-8667-d45338d823a7","system_id":"levelo_inurba_marseille","lat":43.32284,"lon":5.38256,"is_reserved":false,"is_disabled":false,"rental_uris":{"android":"levelo://app?vid=e1fdae3d-859b-438c-8667-d45338d823a7","ios":"levelo://app?vid=e1fdae3d-859b-438c-8667-d45338d823a7"},"vehicle_type_id":"4","last_reported":1731704869,"current_range_meters":38800,"station_id":"ce4bhr12rcd13ifvqhqg","pricing_plan_id":"cebpf4jnsgd1na2vs0mg"},{"bike_id":"6d6992bf-ade3-4a22-a168-306dafdc4544","system_id":"levelo_inurba_marseille","lat":43.2417,"lon":5.36391,"is_reserved":false,"is_disabled":false,"rental_uris":{"android":"levelo://app?vid=6d6992bf-ade3-4a22-a168-306dafdc4544","ios":"levelo://app?vid=6d6992bf-ade3-4a22-a168-306dafdc4544"},"vehicle_type_id":"4","last_reported":1731704869,"current_range_meters":36800,"station_id":"cpo36qri1sfpv3e86is0","pricing_plan_id":"cebpf4jnsgd1na2vs0mg"},{"bike_id":"074c6971-4ae7-4906-8673-1607af29a7e1","system_id":"levelo_inurba_marseille","lat":43.25099,"lon":5.39542,"is_reserved":false,"is_disabled":false,"rental_uris":{"android":"levelo://app?vid=074c6971-4ae7-4906-8673-1607af29a7e1","ios":"levelo://app?vid=074c6971-4ae7-4906-8673-1607af29a7e1"},"vehicle_type_id":"4","last_reported":1731704869,"current_range_meters":36400,"station_id":"ce4bhm12rcd13ifvqgkg","pricing_plan_id":"cebpf4jnsgd1na2vs0mg"},{"bike_id":"b912847f-a18e-46d5-98e8-d2fce21807c1","system_id":"levelo_inurba_marseille","lat":43.29033,"lon":5.39956,"is_reserved":false,"is_disabled":false,"rental_uris":{"android":"levelo://app?vid=b912847f-a18e-46d5-98e8-d2fce21807c1","ios":"levelo://app?vid=b912847f-a18e-46d5-98e8-d2fce21807c1"},"vehicle_type_id":"4","last_reported":1731704869,"current_range_meters":38000,"station_id":"ce4bh392rcd13ifvqdm0","pricing_plan_id":"cebpf4jnsgd1na2vs0mg"},{"bike_id":"eef5d37c-5bfd-4c76-81bd-46afa511c5a9","system_id":"levelo_inurba_marseille","lat":43.33016,"lon":5.390283,"is_reserved":false,"is_disabled":false,"rental_uris":{"android":"levelo://app?vid=eef5d37c-5bfd-4c76-81bd-46afa511c5a9","ios":"levelo://app?vid=eef5d37c-5bfd-4c76-81bd-46afa511c5a9"},"vehicle_type_id":"4","last_reported":1731704869,"current_range_meters":38800,"station_id":"ce4bhr92rcd13ifvqhrg","pricing_plan_id":"cebpf4jnsgd1na2vs0mg"},{"bike_id":"38c07ca3-7a2e-47bf-b138-6534efa21f8b","system_id":"levelo_inurba_marseille","lat":43.31357,"lon":5.38492,"is_reserved":false,"is_disabled":false,"rental_uris":{"android":"levelo://app?vid=38c07ca3-7a2e-47bf-b138-6534efa21f8b","ios":"levelo://app?vid=38c07ca3-7a2e-47bf-b138-6534efa21f8b"},"vehicle_type_id":"4","last_reported":1731704869,"current_range_meters":26000,"station_id":"ce4bgt92rcd13ifvqcf0","pricing_plan_id":"cebpf4jnsgd1na2vs0mg"},{"bike_id":"d5c330c4-6dea-4300-b38a-203587c7b5f5","system_id":"levelo_inurba_marseille","lat":43.29274,"lon":5.38428,"is_reserved":false,"is_disabled":false,"rental_uris":{"android":"levelo://app?vid=d5c330c4-6dea-4300-b38a-203587c7b5f5","ios":"levelo://app?vid=d5c330c4-6dea-4300-b38a-203587c7b5f5"},"vehicle_type_id":"4","last_reported":1731704869,"current_range_meters":27600,"station_id":"ce4bh692rcd13ifvqea0","pricing_plan_id":"cebpf4jnsgd1na2vs0mg"},{"bike_id":"1707cb1e-404f-449a-8ec1-810d24d3f970","system_id":"levelo_inurba_marseille","lat":43.23185,"lon":5.39974,"is_reserved":false,"is_disabled":false,"rental_uris":{"android":"levelo://app?vid=1707cb1e-404f-449a-8ec1-810d24d3f970","ios":"levelo://app?vid=1707cb1e-404f-449a-8ec1-810d24d3f970"},"vehicle_type_id":"4","last_reported":1731704869,"current_range_meters":28800,"station_id":"ce4bhn12rcd13ifvqgqg","pricing_plan_id":"cebpf4jnsgd1na2vs0mg"},{"bike_id":"befa9607-4b1a-47cf-bbdb-e2a16cc6d0e7","system_id":"levelo_inurba_marseille","lat":43.26056,"lon":5.39391,"is_reserved":false,"is_disabled":false,"rental_uris":{"android":"levelo://app?vid=befa9607-4b1a-47cf-bbdb-e2a16cc6d0e7","ios":"levelo://app?vid=befa9607-4b1a-47cf-bbdb-e2a16cc6d0e7"},"vehicle_type_id":"4","last_reported":1731704869,"current_range_meters":26800,"station_id":"ce4bhh92rcd13ifvqfj0","pricing_plan_id":"cebpf4jnsgd1na2vs0mg"},{"bike_id":"ee04dde2-3fe8-4778-9bcb-568ed22879c4","system_id":"levelo_inurba_marseille","lat":43.295349,"lon":5.385394,"is_reserved":false,"is_disabled":false,"rental_uris":{"android":"levelo://app?vid=ee04dde2-3fe8-4778-9bcb-568ed22879c4","ios":"levelo://app?vid=ee04dde2-3fe8-4778-9bcb-568ed22879c4"},