{"last_updated":1726826982,"ttl":30,"version":"2.2","data":{"bikes":[{"bike_id":"d88fa1a7-2a8a-4ddf-8f6d-bd617764eca9","system_id":"levelo_inurba_marseille","lat":43.28684,"lon":5.38644,"is_reserved":false,"is_disabled":false,"rental_uris":{"android":"levelo://app?vid=d88fa1a7-2a8a-4ddf-8f6d-bd617764eca9","ios":"levelo://app?vid=d88fa1a7-2a8a-4ddf-8f6d-bd617764eca9"},"vehicle_type_id":"4","last_reported":1726826982,"current_range_meters":38800,"station_id":"ce4bh492rcd13ifvqdug","pricing_plan_id":"cebpf4jnsgd1na2vs0mg"},{"bike_id":"9c40d168-b04b-4849-81b8-84fc8c460745","system_id":"levelo_inurba_marseille","lat":43.29231,"lon":5.36067,"is_reserved":false,"is_disabled":false,"rental_uris":{"android":"levelo://app?vid=9c40d168-b04b-4849-81b8-84fc8c460745","ios":"levelo://app?vid=9c40d168-b04b-4849-81b8-84fc8c460745"},"vehicle_type_id":"4","last_reported":1726826982,"current_range_meters":18000,"station_id":"ce4bhbh2rcd13ifvqeqg","pricing_plan_id":"cebpf4jnsgd1na2vs0mg"},{"bike_id":"0410686b-3648-4a67-b3a5-725fbb43f56c","system_id":"levelo_inurba_marseille","lat":43.317569,"lon":5.390129,"is_reserved":false,"is_disabled":false,"rental_uris":{"android":"levelo://app?vid=0410686b-3648-4a67-b3a5-725fbb43f56c","ios":"levelo://app?vid=0410686b-3648-4a67-b3a5-725fbb43f56c"},"vehicle_type_id":"4","last_reported":1726826982,"current_range_meters":18800,"station_id":"ce4bhqp2rcd13ifvqhng","pricing_plan_id":"cebpf4jnsgd1na2vs0mg"},{"bike_id":"ee228979-1d72-475d-8ae1-9f52d797b43d","system_id":"levelo_inurba_marseille","lat":43.258636,"lon":5.398969,"is_reserved":false,"is_disabled":false,"rental_uris":{"android":"levelo://app?vid=ee228979-1d72-475d-8ae1-9f52d797b43d","ios":"levelo://app?vid=ee228979-1d72-475d-8ae1-9f52d797b43d"},"vehicle_type_id":"4","last_reported":1726826982,"current_range_meters":27600,"station_id":"ce4bhl92rcd13ifvqghg","pricing_plan_id":"cebpf4jnsgd1na2vs0mg"},{"bike_id":"e532fd53-ad12-4848-82ea-70ac934c1c37","system_id":"levelo_inurba_marseille","lat":43.3375,"lon":5.37446,"is_reserved":false,"is_disabled":false,"rental_uris":{"android":"levelo://app?vid=e532fd53-ad12-4848-82ea-70ac934c1c37","ios":"levelo://app?vid=e532fd53-ad12-4848-82ea-70ac934c1c37"},"vehicle_type_id":"4","last_reported":1726826982,"current_range_meters":33600,"station_id":"","pricing_plan_id":"cebpf4jnsgd1na2vs0mg"},{"bike_id":"caacc5f9-63ca-414d-9124-88e29a835149","system_id":"levelo_inurba_marseille","lat":43.29851,"lon":5.36286,"is_reserved":false,"is_disabled":false,"rental_uris":{"android":"levelo://app?vid=caacc5f9-63ca-414d-9124-88e29a835149","ios":"levelo://app?vid=caacc5f9-63ca-414d-9124-88e29a835149"},"vehicle_type_id":"4","last_reported":1726826982,"current_range_meters":6800,"station_id":"ce4bgpp2rcd13ifvqc3g","pricing_plan_id":"cebpf4jnsgd1na2vs0mg"},{"bike_id":"7ae54c23-d029-4df1-ac7f-dc61dfb3bf8f","system_id":"levelo_inurba_marseille","lat":43.32485,"lon":5.36567,"is_reserved":false,"is_disabled":false,"rental_uris":{"android":"levelo://app?vid=7ae54c23-d029-4df1-ac7f-dc61dfb3bf8f","ios":"levelo://app?vid=7ae54c23-d029-4df1-ac7f-dc61dfb3bf8f"},"vehicle_type_id":"4","last_reported":1726826982,"current_range_meters":14000,"station_id":"ce4bhs12rcd13ifvqhvg","pricing_plan_id":"cebpf4jnsgd1na2vs0mg"},{"bike_id":"8bcea78d-0b17-47f3-86b3-eaa41d960e7a","system_id":"levelo_inurba_marseille","lat":43.31891,"lon":5.40733,"is_reserved":false,"is_disabled":false,"rental_uris":{"android":"levelo://app?vid=8bcea78d-0b17-47f3-86b3-eaa41d960e7a","ios":"levelo://app?vid=8bcea78d-0b17-47f3-86b3-eaa41d960e7a"},"vehicle_type_id":"4","last_reported":1726826982,"current_range_meters":38400,"station_id":"ce4bhq12rcd13ifvqhig","pricing_plan_id":"cebpf4jnsgd1na2vs0mg"},{"bike_id":"fdc69bcf-7945-4097-982d-215e43619115","system_id":"levelo_inurba_marseille","lat":43.29845,"lon":5.36277,"is_reserved":false,"is_disabled":false,"rental_uris":{"android":"levelo://app?vid=fdc69bcf-7945-4097-982d-215e43619115","ios":"levelo://app?vid=fdc69bcf-7945-4097-982d-215e43619115"},"vehicle_type_id":"4","last_reported":1726826982,"current_range_meters":39200,"station_id":"ce4bgpp2rcd13ifvqc3g","pricing_plan_id":"cebpf4jnsgd1na2vs0mg"},{"bike_id":"00479890-5c7f-4820-8b84-7d690960759a","system_id":"levelo_inurba_marseille","lat":43.28155,"lon":5.42637,"is_reserved":false,"is_disabled":false,"rental_uris":{"android":"levelo://app?vid=00479890-5c7f-4820-8b84-7d690960759a","ios":"levelo://app?vid=00479890-5c7f-4820-8b84-7d690960759a"},"vehicle_type_id":"4","last_reported":1726826982,"current_range_meters":30400,"station_id":"ce4bhnh2rcd13ifvqgug","pricing_plan_id":"cebpf4jnsgd1na2vs0mg"},{"bike_id":"1c66f49b-4363-4cca-97a6-cfccf25e74c8","system_id":"levelo_inurba_marseille","lat":43.30284,"lon":5.37715,"is_reserved":false,"is_disabled":false,"rental_uris":{"android":"levelo://app?vid=1c66f49b-4363-4cca-97a6-cfccf25e74c8","ios":"levelo://app?vid=1c66f49b-4363-4cca-97a6-cfccf25e74c8"},"vehicle_type_id":"4","last_reported":1726826982,"current_range_meters":40000,"station_id":"ce4bguh2rcd13ifvqcj0","pricing_plan_id":"cebpf4jnsgd1na2vs0mg"},{"bike_id":"a19b2abe-9ca8-43de-85f2-ea35f99ff8ce","system_id":"levelo_inurba_marseille","lat":43.23182,"lon":5.39989,"is_reserved":false,"is_disabled":false,"rental_uris":{"android":"levelo://app?vid=a19b2abe-9ca8-43de-85f2-ea35f99ff8ce","ios":"levelo://app?vid=a19b2abe-9ca8-43de-85f2-ea35f99ff8ce"},"vehicle_type_id":"4","last_reported":1726826982,"current_range_meters":9600,"station_id":"ce4bhn12rcd13ifvqgqg","pricing_plan_id":"cebpf4jnsgd1na2vs0mg"},{"bike_id":"0d197c14-823a-4063-8ecb-b214e88b0f7d","system_id":"levelo_inurba_marseille","lat":43.28157,"lon":5.42643,"is_reserved":false,"is_disabled":false,"rental_uris":{"android":"levelo://app?vid=0d197c14-823a-4063-8ecb-b214e88b0f7d","ios":"levelo://app?vid=0d197c14-823a-4063-8ecb-b214e88b0f7d"},"vehicle_type_id":"4","last_reported":1726826982,"current_range_meters":35200,"station_id":"ce4bhnh2rcd13ifvqgug","pricing_plan_id":"cebpf4jnsgd1na2vs0mg"},{"bike_id":"838e99a9-3d23-4997-ab0d-600a12008281","system_id":"levelo_inurba_marseille","lat":43.27497,"lon":5.42453,"is_reserved":false,"is_disabled":false,"rental_uris":{"android":"levelo://app?vid=838e99a9-3d23-4997-ab0d-600a12008281","ios":"levelo://app?vid=838e99a9-3d23-4997-ab0d-600a12008281"},"vehicle_type_id":"4","last_reported":1726826982,"current_range_meters":20400,"station_id":"ce4bhn92rcd13ifvqgrg","pricing_plan_id":"cebpf4jnsgd1na2vs0mg"},{"bike_id":"06eef320-c2b1-42ca-bda3-e896022e4f06","system_id":"levelo_inurba_marseille","lat":43.27068,"lon":5.42276,"is_reserved":false,"is_disabled":false,"rental_uris":{"android":"levelo://app?vid=06eef320-c2b1-42ca-bda3-e896022e4f06","ios":"levelo://app?vid=06eef320-c2b1-42ca-bda3-e896022e4f06"},"vehicle_type_id":"4","last_reported":1726826982,"current_range_meters":14000,"station_id":"ce4bhk92rcd13ifvqgb0","pricing_plan_id":"cebpf4jnsgd1na2vs0mg"},{"bike_id":"fe2276ef-e7ce-4419-acc0-06c4feeba141","system_id":"levelo_inurba_marseille","lat":43.3019,"lon":5.3663,"is_reserved":false,"is_disabled":false,"rental_uris":{"android":"levelo://app?vid=fe2276ef-e7ce-4419-acc0-06c4feeba141","ios":"levelo://app?vid=fe2276ef-e7ce-4419-acc0-06c4feeba141"},"vehicle_type_id":"4","last_reported":1726826982,"current_range_meters":12000,"station_id":"ce4bgrh2rcd13ifvqc8g","pricing_plan_id":"cebpf4jnsgd1na2vs0mg"},{"bike_id":"5f2e4fae-bb33-4e4e-81dc-fbf1953aa152","system_id":"levelo_inurba_marseille","lat":43.30557,"lon":5.36529,"is_reserved":false,"is_disabled":false,"rental_uris":{"android":"levelo://app?vid=5f2e4fae-bb33-4e4e-81dc-fbf1953aa152","ios":"levelo://app?vid=5f2e4fae-bb33-4e4e-81dc-fbf1953aa152"},"vehicle_type_id":"4","last_reported":1726826982,"current_range_meters":24400,"station_id":"ce4bgs12rcd13ifvqcag","pricing_plan_id":"cebpf4jnsgd1na2vs0mg"},{"bike_id":"816ca7be-0c7b-406b-bdb3-622f13941120","system_id":"levelo_inurba_marseille","lat":43.29897,"lon":5.4367,"is_reserved":false,"is_disabled":false,"rental_uris":{"android":"levelo://app?vid=816ca7be-0c7b-406b-bdb3-622f13941120","ios":"levelo://app?vid=816ca7be-0c7b-406b-bdb3-622f13941120"},"vehicle_type_id":"4","last_reported":1726826982,"current_range_meters":16800,"station_id":"ce4bhpp2rcd13ifvqhfg","pricing_plan_id":"cebpf4jnsgd1na2vs0mg"},{"bike_id":"ce9d87f2-9941-4431-9f3a-b0e277f41807","system_id":"levelo_inurba_marseille","lat":43.31368,"lon":5.36681,"is_reserved":false,"is_disabled":false,"rental_uris":{"android":"levelo://app?vid=ce9d87f2-9941-4431-9f3a-b0e277f41807","ios":"levelo://app?vid=ce9d87f2-9941-4431-9f3a-b0e277f41807"},"vehicle_type_id":"4","last_reported":1726826982,"current_range_meters":38800,"station_id":"ce4bgr92rcd13ifvqc6g","pricing_plan_id":"cebpf4jnsgd1na2vs0mg"},{"bike_id":"e422761c-96e4-4070-91cc-6151c231f51d","system_id":"levelo_inurba_marseille","lat":43.2904,"lon":5.39963,"is_reserved":false,"is_disabled":false,"rental_uris":{"android":"levelo://app?vid=e422761c-96e4-4070-91cc-6151c231f51d","ios":"levelo://app?vid=e422761c-96e4-4070-91cc-6151c231f51d"},"vehicle_type_id":"4","last_reported":1726826982,"current_range_meters":28800,"station_id":"ce4bh392rcd13ifvqdm0","pricing_plan_id":"cebpf4jnsgd1na2vs0mg"},{"bike_id":"d9f4c935-f262-4a31-a6ca-83e9bed5383f","system_id":"levelo_inurba_marseille","lat":43.2953,"lon":5.38539,"is_reserved":false,"is_disabled":false,"rental_uris":{"android":"levelo://app?vid=d9f4c935-f262-4a31-a6ca-83e9bed5383f","ios":"levelo://app?vid=d9f4c935-f262-4a31-a6ca-83e9bed5383f"},"vehicle_type_id":"4","last_reported":1726826982,"current_range_meters":8800,"station_id":"ce4bgih2rcd13ifvqba0","pricing_plan_id":"cebpf4jnsgd1na2vs0mg"},{"bike_id":"036ab25f-0c34-4c45-8e88-1fc9200da6fd","system_id":"levelo_inurba_marseille","lat":43.27183,"lon":5.42688,"is_reserved":false,"is_disabled":false,"rental_uris":{"android":"levelo://app?vid=036ab25f-0c34-4c45-8e88-1fc9200da6fd","ios":"levelo://app?vid=036ab25f-0c34-4c45-8e88-1fc9200da6fd"},"vehicle_type_id":"4","last_reported":1726826982,"current_range_meters":26000,"station_id":"","pricing_plan_id":"cebpf4jnsgd1na2vs0mg"},{"bike_id":"40e5b403-5590-4098-a474-822a4163b2a7","system_id":"levelo_inurba_marseille","lat":43.24086,"lon":5.37739,"is_reserved":false,"is_disabled":false,"rental_uris":{"android":"levelo://app?vid=40e5b403-5590-4098-a474-822a4163b2a7","ios":"levelo://app?vid=40e5b403-5590-4098-a474-822a4163b2a7"},"vehicle_type_id":"4","last_reported":1726826982,"current_range_meters":24400,"station_id":"ce4bhnp2rcd13ifvqgvg","pricing_plan_id":"cebpf4jnsgd1na2vs0mg"},{"bike_id":"39bdff05-d173-4d71-9b38-1a7a92eda576","system_id":"levelo_inurba_marseille","lat":43.29529,"lon":5.37511,"is_reserved":false,"is_disabled":false,"rental_uris":{"android":"levelo://app?vid=39bdff05-d173-4d71-9b38-1a7a92eda576","ios":"levelo://app?vid=39bdff05-d173-4d71-9b38-1a7a92eda576"},"vehicle_type_id":"4","last_reported":1726826982,"current_range_meters":33200,"station_id":"ce4bgkp2rcd13ifvqbmg","pricing_plan_id":"cebpf4jnsgd1na2vs0mg"},{"bike_id":"e90a3084-09ce-4fd7-a0e2-4e2bad966a21","system_id":"levelo_inurba_marseille","lat":43.29041,"lon":5.39963,"is_reserved":false,"is_disabled":false,"rental_uris":{"android":"levelo://app?vid=e90a3084-09ce-4fd7-a0e2-4e2bad966a21","ios":"levelo://app?vid=e90a3084-09ce-4fd7-a0e2-4e2bad966a21"},"vehicle_type_id":"4","last_reported":1726826982,"current_range_meters":38800,"station_id":"ce4bh392rcd13ifvqdm0","pricing_plan_id":"cebpf4jnsgd1na2vs0mg"},{"bike_id":"0fb42f67-e6d4-4b33-8619-af1b1d2a30e9","system_id":"levelo_inurba_marseille","lat":43.23148,"lon":5.43721,"is_reserved":false,"is_disabled":false,"rental_uris":{"android":"levelo://app?vid=0fb42f67-e6d4-4b33-8619-af1b1d2a30e9","ios":"levelo://app?vid=0fb42f67-e6d4-4b33-8619-af1b1d2a30e9"},"vehicle_type_id":"4","last_reported":1726826982,"current_range_meters":40000,"station_id":"ce4bhmp2rcd13ifvqgog","pricing_plan_id":"cebpf4jnsgd1na2vs0mg"},{"bike_id":"238ebec5-71d1-4fbb-8f9a-d93fe49d135d","system_id":"levelo_inurba_marseille","lat":43.25503,"lon":5.37654,"is_reserved":false,"is_disabled":false,"rental_uris":{"android":"levelo://app?vid=238ebec5-71d1-4fbb-8f9a-d93fe49d135d","ios":"levelo://app?vid=238ebec5-71d1-4fbb-8f9a-d93fe49d135d"},"vehicle_type_id":"4","last_reported":1726826982,"current_range_meters":38000,"station_id":"ce4bhh12rcd13ifvqff0","pricing_plan_id":"cebpf4jnsgd1na2vs0mg"},{"bike_id":"44209d59-b869-425e-bc2a-863abc80a31e","system_id":"levelo_inurba_marseille","lat":43.30551,"lon":5.36551,"is_reserved":false,"is_disabled":false,"rental_uris":{"android":"levelo://app?vid=44209d59-b869-425e-bc2a-863abc80a31e","ios":"levelo://app?vid=44209d59-b869-425e-bc2a-863abc80a31e"},"vehicle_type_id":"4","last_reported":1726826982,"current_range_meters":8400,"station_id":"ce4bgs12rcd13ifvqcag","pricing_plan_id":"cebpf4jnsgd1na2vs0mg"},{"bike_id":"e3157b7d-f63e-4215-9b0b-bec081b31a83","system_id":"levelo_inurba_marseille","lat":43.32484,"lon":5.36563,"is_reserved":false,"is_disabled":false,"rental_uris":{"android":"levelo://app?vid=e3157b7d-f63e-4215-9b0b-bec081b31a83","ios":"levelo://app?vid=e3157b7d-f63e-4215-9b0b-bec081b31a83"},"vehicle_type_id":"4","last_reported":1726826982,"current_range_meters":6800,"station_id":"ce4bhs12rcd13ifvqhvg","pricing_plan_id":"cebpf4jnsgd1na2vs0mg"},{"bike_id":"9e4ee180-d896-4674-9f65-8fcd7298a6ec","system_id":"levelo_inurba_marseille","lat":43.27486,"lon":5.42466,"is_reserved":false,"is_disabled":false,"rental_uris":{"android":"levelo://app?vid=9e4ee180-d896-4674-9f65-8fcd7298a6ec","ios":"levelo://app?vid=9e4ee180-d896-4674-9f65-8fcd7298a6ec"},"vehicle_type_id":"4","last_reported":1726826982,"current_range_meters":37600,"station_id":"ce4bhn92rcd13ifvqgrg","pricing_plan_id":"cebpf4jnsgd1na2vs0mg"},{"bike_id":"52b77229-0770-4d14-bd79-74333644d4ae","system_id":"levelo_inurba_marseille","lat":43.28459,"lon":5.35877,"is_reserved":false,"is_disabled":false,"rental_uris":{"android":"levelo://app?vid=52b77229-0770-4d14-bd79-74333644d4ae","ios":"levelo://app?vid=52b77229-0770-4d14-bd79-74333644d4ae"},"vehicle_type_id":"4","last_reported":1726826982,"current_range_meters":38800,"station_id":"ce4bhah2rcd13ifvqei0","pricing_plan_id":"cebpf4jnsgd1na2vs0mg"},{"bike_id":"751f90c9-696d-43a3-abf5-68be55a262c9","system_id":"levelo_inurba_marseille","lat":43.33617,"lon":5.41033,"is_reserved":false,"is_disabled":false,"rental_uris":{"android":"levelo://app?vid=751f90c9-696d-43a3-abf5-68be55a262c9","ios":"levelo://app?vid=751f90c9-696d-43a3-abf5-68be55a262c9"},"vehicle_type_id":"4","last_reported":1726826982,"current_range_meters":16800,"station_id":"ce4bhqh2rcd13ifvqhmg","pricing_plan_id":"cebpf4jnsgd1na2vs0mg"},{"bike_id":"9899969d-4f8e-4fed-bc43-e675716ac04a","system_id":"levelo_inurba_marseille","lat":43.23153,"lon":5.43715,"is_reserved":false,"is_disabled":false,"rental_uris":{"android":"levelo://app?vid=9899969d-4f8e-4fed-bc43-e675716ac04a","ios":"levelo://app?vid=9899969d-4f8e-4fed-bc43-e675716ac04a"},"vehicle_type_id":"4","last_reported":1726826982,"current_range_meters":39200,"station_id":"ce4bhmp2rcd13ifvqgog","pricing_plan_id":"cebpf4jnsgd1na2vs0mg"},{"bike_id":"edfb1ff5-b81b-4225-8da9-100a9115b1e3","system_id":"levelo_inurba_marseille","lat":43.29735,"lon":5.36561,"is_reserved":false,"is_disabled":false,"rental_uris":{"android":"levelo://app?vid=edfb1ff5-b81b-4225-8da9-100a9115b1e3","ios":"levelo://app?vid=edfb1ff5-b81b-4225-8da9-100a9115b1e3"},"vehicle_type_id":"4","last_reported":1726826982,"current_range_meters":13600,"station_id":"","pricing_plan_id":"cebpf4jnsgd1na2vs0mg"},{"bike_id":"9c265d7b-b0a5-4799-b251-6fc39180cbcb","system_id":"levelo_inurba_marseille","lat":43.3254,"lon":5.41436,"is_reserved":false,"is_disabled":false,"rental_uris":{"android":"levelo://app?vid=9c265d7b-b0a5-4799-b251-6fc39180cbcb","ios":"levelo://app?vid=9c265d7b-b0a5-4799-b251-6fc39180cbcb"},"vehicle_type_id":"4","last_reported":1726826982,"current_range_meters":38800,"station_id":"ce4bhq12rcd13ifvqhhg","pricing_plan_id":"cebpf4jnsgd1na2vs0mg"},{"bike_id":"1177f99b-98bd-42c7-86aa-32b531828272","system_id":"levelo_inurba_marseille","lat":43.29939,"lon":5.36536,"is_reserved":false,"is_disabled":false,"rental_uris":{"android":"levelo://app?vid=1177f99b-98bd-42c7-86aa-32b531828272","ios":"levelo://app?vid=1177f99b-98bd-42c7-86aa-32b531828272"},"vehicle_type_id":"4","last_reported":1726826982,"current_range_meters":24800,"station_id":"ce4bgm92rcd13ifvqbr0","pricing_plan_id":"cebpf4jnsgd1na2vs0mg"},{"bike_id":"bd9dc574-40ac-47dc-a3de-f8195b34f0de","system_id":"levelo_inurba_marseille","lat":43.33616,"lon":5.41033,"is_reserved":false,"is_disabled":false,"rental_uris":{"android":"levelo://app?vid=bd9dc574-40ac-47dc-a3de-f8195b34f0de","ios":"levelo://app?vid=bd9dc574-40ac-47dc-a3de-f8195b34f0de"},"vehicle_type_id":"4","last_reported":1726826982,"current_range_meters":16000,"station_id":"ce4bhqh2rcd13ifvqhmg","pricing_plan_id":"cebpf4jnsgd1na2vs0mg"},{"bike_id":"fe464578-bbfd-40e5-b1bc-7fd9c4e2a041","system_id":"levelo_inurba_marseille","lat":43.28928,"lon":5.36643,"is_reserved":false,"is_disabled":false,"rental_uris":{"android":"levelo://app?vid=fe464578-bbfd-40e5-b1bc-7fd9c4e2a041","ios":"levelo://app?vid=fe464578-bbfd-40e5-b1bc-7fd9c4e2a041"},"vehicle_type_id":"4","last_reported":1726826982,"current_range_meters":9600,"station_id":"ce4bhap2rcd13ifvqek0","pricing_plan_id":"cebpf4jnsgd1na2vs0mg"},{"bike_id":"e8a1ac1d-9e10-4e94-9ed7-5b9ab1ebe882","system_id":"levelo_inurba_marseille","lat":43.23148,"lon":5.43732,"is_reserved":false,"is_disabled":false,"rental_uris":{"android":"levelo://app?vid=e8a1ac1d-9e10-4e94-9ed7-5b9ab1ebe882","ios":"levelo://app?vid=e8a1ac1d-9e10-4e94-9ed7-5b9ab1ebe882"},"vehicle_type_id":"4","last_reported":1726826982,"current_range_meters":25200,"station_id":"ce4bhmp2rcd13ifvqgog","pricing_plan_id":"cebpf4jnsgd1na2vs0mg"},{"bike_id":"a2b7b4a9-7fb1-412f-8ffa-16e8f8ba54ec","system_id":"levelo_inurba_marseille","lat":43.29004,"lon":5.35608,"is_reserved":false,"is_disabled":false,"rental_uris":{"android":"levelo://app?vid=a2b7b4a9-7fb1-412f-8ffa-16e8f8ba54ec","ios":"levelo://app?vid=a2b7b4a9-7fb1-412f-8ffa-16e8f8ba54ec"},"vehicle_type_id":"4","last_reported":1726826982,"current_range_meters":39200,"station_id":"ce4bhb92rcd13ifvqen0","pricing_plan_id":"cebpf4jnsgd1na2vs0mg"},{"bike_id":"141d383a-8afb-4e33-be5f-6ddf92de8374","system_id":"levelo_inurba_marseille","lat":43.31165,"lon":5.3828,"is_reserved":false,"is_disabled":false,"rental_uris":{"android":"levelo://app?vid=141d383a-8afb-4e33-be5f-6ddf92de8374","ios":"levelo://app?vid=141d383a-8afb-4e33-be5f-6ddf92de8374"},"vehicle_type_id":"4","last_reported":1726826982,"current_range_meters":19200,"station_id":"","pricing_plan_id":"cebpf4jnsgd1na2vs0mg"},{"bike_id":"d060ffa7-7ca7-451c-9092-22a12b58d7bc","system_id":"levelo_inurba_marseille","lat":43.30604,"lon":5.37231,"is_reserved":false,"is_disabled":false,"rental_uris":{"android":"levelo://app?vid=d060ffa7-7ca7-451c-9092-22a12b58d7bc","ios":"levelo://app?vid=d060ffa7-7ca7-451c-9092-22a12b58d7bc"},"vehicle_type_id":"4","last_reported":1726826982,"current_range_meters":38800,"station_id":"ce4bgqh2rcd13ifvqc4g","pricing_plan_id":"cebpf4jnsgd1na2vs0mg"},{"bike_id":"a2175fd0-d5d5-4f1e-a66d-d661ed881d5c","system_id":"levelo_inurba_marseille","lat":43.28414,"lon":5.34983,"is_reserved":false,"is_disabled":false,"rental_uris":{"android":"levelo://app?vid=a2175fd0-d5d5-4f1e-a66d-d661ed881d5c","ios":"levelo://app?vid=a2175fd0-d5d5-4f1e-a66d-d661ed881d5c"},"vehicle_type_id":"4","last_reported":1726826982,"current_range_meters":32400,"station_id":"ce4bhbh2rcd13ifvqepg","pricing_plan_id":"cebpf4jnsgd1na2vs0mg"},{"bike_id":"28747450-c42f-4ba6-a1d3-35ec4a385103","system_id":"levelo_inurba_marseille","lat":43.30151,"lon":5.38077,"is_reserved":false,"is_disabled":false,"rental_uris":{"android":"levelo://app?vid=28747450-c42f-4ba6-a1d3-35ec4a385103","ios":"levelo://app?vid=28747450-c42f-4ba6-a1d3-35ec4a385103"},"vehicle_type_id":"4","last_reported":1726826982,"current_range_meters":14800,"station_id":"ce4bgjp2rcd13ifvqbh0","pricing_plan_id":"cebpf4jnsgd1na2vs0mg"},{"bike_id":"43356356-1ebf-41d4-a9de-4fa2973940ef","system_id":"levelo_inurba_marseille","lat":43.29961,"lon":5.41333,"is_reserved":false,"is_disabled":false,"rental_uris":{"android":"levelo://app?vid=43356356-1ebf-41d4-a9de-4fa2973940ef","ios":"levelo://app?vid=43356356-1ebf-41d4-a9de-4fa2973940ef"},"vehicle_type_id":"4","last_reported":1726826982,"current_range_meters":32000,"station_id":"ce4bhp12rcd13ifvqh9g","pricing_plan_id":"cebpf4jnsgd1na2vs0mg"},{"bike_id":"d3c9d0d6-6911-48d9-bb05-aa1d3e29440b","system_id":"levelo_inurba_marseille","lat":43.32994,"lon":5.38995,"is_reserved":false,"is_disabled":false,"rental_uris":{"android":"levelo://app?vid=d3c9d0d6-6911-48d9-bb05-aa1d3e29440b","ios":"levelo://app?vid=d3c9d0d6-6911-48d9-bb05-aa1d3e29440b"},"vehicle_type_id":"4","last_reported":1726826982,"current_range_meters":32400,"station_id":"ce4bhr92rcd13ifvqhrg","pricing_plan_id":"cebpf4jnsgd1na2vs0mg"},{"bike_id":"6bbab1e7-c46d-4bcc-afb5-894cf0ac646b","system_id":"levelo_inurba_marseille","lat":43.26681,"lon":5.38266,"is_reserved":false,"is_disabled":false,"rental_uris":{"android":"levelo://app?vid=6bbab1e7-c46d-4bcc-afb5-894cf0ac646b","ios":"levelo://app?vid=6bbab1e7-c46d-4bcc-afb5-894cf0ac646b"},"vehicle_type_id":"4","last_reported":1726826982,"current_range_meters":8400,"station_id":"ce4bhg92rcd13ifvqf90","pricing_plan_id":"cebpf4jnsgd1na2vs0mg"},{"bike_id":"b431aa11-7864-481f-af3a-c99c02ad287c","system_id":"levelo_inurba_marseille","lat":43.23958,"lon":5.3664,"is_reserved":false,"is_disabled":false,"rental_uris":{"android":"levelo://app?vid=b431aa11-7864-481f-af3a-c99c02ad287c","ios":"levelo://app?vid=b431aa11-7864-481f-af3a-c99c02ad287c"},"vehicle_type_id":"4","last_reported":1726826982,"current_range_meters":37600,"station_id":"ce4bhi12rcd13ifvqfp0","pricing_plan_id":"cebpf4jnsgd1na2vs0mg"},{"bike_id":"e6805398-14bf-4c72-b165-1bedb5484a2a","system_id":"levelo_inurba_marseille","lat":43.29844,"lon":5.36269,"is_reserved":false,"is_disabled":false,"rental_uris":{"android":"levelo://app?vid=e6805398-14bf-4c72-b165-1bedb5484a2a","ios":"levelo://app?vid=e6805398-14bf-4c72-b165-1bedb5484a2a"},"vehicle_type_id":"4","last_reported":1726826982,"current_range_meters":39200,"station_id":"ce4bgpp2rcd13ifvqc3g","pricing_plan_id":"cebpf4jnsgd1na2vs0mg"},{"bike_id":"656659b7-cfa6-44c3-bf12-ac0d935d6f26","system_id":"levelo_inurba_marseille","lat":43.25582,"lon":5.3824,"is_reserved":false,"is_disabled":false,"rental_uris":{"android":"levelo://app?vid=656659b7-cfa6-44c3-bf12-ac0d935d6f26","ios":"levelo://app?vid=656659b7-cfa6-44c3-bf12-ac0d935d6f26"},"vehicle_type_id":"4","last_reported":1726826982,"current_range_meters":34000,"station_id":"ce4bhih2rcd13ifvqfs0","pricing_plan_id":"cebpf4jnsgd1na2vs0mg"},{"bike_id":"10559592-7f9e-4fd5-b68d-eda40e846e0c","system_id":"levelo_inurba_marseille","lat":43.29624,"lon":5.37152,"is_reserved":false,"is_disabled":false,"rental_uris":{"android":"levelo://app?vid=10559592-7f9e-4fd5-b68d-eda40e846e0c","ios":"levelo://app?vid=10559592-7f9e-4fd5-b68d-eda40e846e0c"},"vehicle_type_id":"4","last_reported":1726826982,"current_range_meters":16000,"station_id":"ce4bgnh2rcd13ifvqc0g","pricing_plan_id":"cebpf4jnsgd1na2vs0mg"},{"bike_id":"b1cb1e9f-3e69-46f2-9aa0-798c2ddb2e2b","system_id":"levelo_inurba_marseille","lat":43.25008,"lon":5.38921,"is_reserved":false,"is_disabled":false,"rental_uris":{"android":"levelo://app?vid=b1cb1e9f-3e69-46f2-9aa0-798c2ddb2e2b","ios":"levelo://app?vid=b1cb1e9f-3e69-46f2-9aa0-798c2ddb2e2b"},"vehicle_type_id":"4","last_reported":1726826982,"current_range_meters":22400,"station_id":"ce4bhgp2rcd13ifvqfd0","pricing_plan_id":"cebpf4jnsgd1na2vs0mg"},{"bike_id":"c98f7ff1-f3c9-40cb-965e-23ea7f6f3219","system_id":"levelo_inurba_marseille","lat":43.24084,"lon":5.3775,"is_reserved":false,"is_disabled":false,"rental_uris":{"android":"levelo://app?vid=c98f7ff1-f3c9-40cb-965e-23ea7f6f3219","ios":"levelo://app?vid=c98f7ff1-f3c9-40cb-965e-23ea7f6f3219"},"vehicle_type_id":"4","last_reported":1726826982,"current_range_meters":36800,"station_id":"ce4bhnp2rcd13ifvqgvg","pricing_plan_id":"cebpf4jnsgd1na2vs0mg"},{"bike_id":"ff074547-5dac-4335-b69d-ff38a9163b61","system_id":"levelo_inurba_marseille","lat":43.29007,"lon":5.35617,"is_reserved":false,"is_disabled":false,"rental_uris":{"android":"levelo://app?vid=ff074547-5dac-4335-b69d-ff38a9163b61","ios":"levelo://app?vid=ff074547-5dac-4335-b69d-ff38a9163b61"},"vehicle_type_id":"4","last_reported":1726826982,"current_range_meters":39200,"station_id":"ce4bhb92rcd13ifvqen0","pricing_plan_id":"cebpf4jnsgd1na2vs0mg"},{"bike_id":"306549f4-d300-4209-9498-1103ebfb72df","system_id":"levelo_inurba_marseille","lat":43.3054,"lon":5.36552,"is_reserved":false,"is_disabled":false,"rental_uris":{"android":"levelo://app?vid=306549f4-d300-4209-9498-1103ebfb72df","ios":"levelo://app?vid=306549f4-d300-4209-9498-1103ebfb72df"},"vehicle_type_id":"4","last_reported":1726826982,"current_range_meters":28800,"station_id":"ce4bgs12rcd13ifvqcag","pricing_plan_id":"cebpf4jnsgd1na2vs0mg"},{"bike_id":"896e6927-c5f6-4910-b508-b7785967479b","system_id":"levelo_inurba_marseille","lat":43.26203,"lon":5.3793,"is_reserved":false,"is_disabled":false,"rental_uris":{"android":"levelo://app?vid=896e6927-c5f6-4910-b508-b7785967479b","ios":"levelo://app?vid=896e6927-c5f6-4910-b508-b7785967479b"},"vehicle_type_id":"4","last_reported":1726826982,"current_range_meters":38800,"station_id":"ce4bhjp2rcd13ifvqg90","pricing_plan_id":"cebpf4jnsgd1na2vs0mg"},{"bike_id":"cf555b44-67b0-41d4-a5f9-65b67db51574","system_id":"levelo_inurba_marseille","lat":43.2408,"lon":5.37747,"is_reserved":false,"is_disabled":false,"rental_uris":{"android":"levelo://app?vid=cf555b44-67b0-41d4-a5f9-65b67db51574","ios":"levelo://app?vid=cf555b44-67b0-41d4-a5f9-65b67db51574"},"vehicle_type_id":"4","last_reported":1726826982,"current_range_meters":2800,"station_id":"ce4bhnp2rcd13ifvqgvg","pricing_plan_id":"cebpf4jnsgd1na2vs0mg"},{"bike_id":"f104eaef-b3b0-4392-ad0b-884d81f7af7f","system_id":"levelo_inurba_marseille","lat":43.27495,"lon":5.42464,"is_reserved":false,"is_disabled":false,"rental_uris":{"android":"levelo://app?vid=f104eaef-b3b0-4392-ad0b-884d81f7af7f","ios":"levelo://app?vid=f104eaef-b3b0-4392-ad0b-884d81f7af7f"},"vehicle_type_id":"4","last_reported":1726826982,"current_range_meters":33200,"station_id":"ce4bhn92rcd13ifvqgrg","pricing_plan_id":"cebpf4jnsgd1na2vs0mg"},{"bike_id":"9733eb26-9e68-456c-b0c3-d7415e89c90e","system_id":"levelo_inurba_marseille","lat":43.30552,"lon":5.36715,"is_reserved":false,"is_disabled":false,"rental_uris":{"android":"levelo://app?vid=9733eb26-9e68-456c-b0c3-d7415e89c90e","ios":"levelo://app?vid=9733eb26-9e68-456c-b0c3-d7415e89c90e"},"vehicle_type_id":"4","last_reported":1726826982,"current_range_meters":28800,"station_id":"ce4bgrp2rcd13ifvqc9g","pricing_plan_id":"cebpf4jnsgd1na2vs0mg"},{"bike_id":"ebe5d0f6-2e2b-45fe-9f3d-28760ee490c7","system_id":"levelo_inurba_marseille","lat":43.29533,"lon":5.3855,"is_reserved":false,"is_disabled":false,"rental_uris":{"android":"levelo://app?vid=ebe5d0f6-2e2b-45fe-9f3d-28760ee490c7","ios":"levelo://app?vid=ebe5d0f6-2e2b-45fe-9f3d-28760ee490c7"},"vehicle_type_id":"4","last_reported":1726826982,"current_range_meters":28000,"station_id":"ce4bgih2rcd13ifvqba0","pricing_plan_id":"cebpf4jnsgd1na2vs0mg"},{"bike_id":"c0a590e6-b873-45be-bd9f-ed24c1027993","system_id":"levelo_inurba_marseille","lat":43.25498,"lon":5.37654,"is_reserved":false,"is_disabled":false,"rental_uris":{"android":"levelo://app?vid=c0a590e6-b873-45be-bd9f-ed24c1027993","ios":"levelo://app?vid=c0a590e6-b873-45be-bd9f-ed24c1027993"},"vehicle_type_id":"4","last_reported":1726826982,"current_range_meters":22800,"station_id":"ce4bhh12rcd13ifvqff0","pricing_plan_id":"cebpf4jnsgd1na2vs0mg"},{"bike_id":"f7aad5fd-363c-4e5a-9216-9edf89dbd805","system_id":"levelo_inurba_marseille","lat":43.30306,"lon":5.36888,"is_reserved":false,"is_disabled":false,"rental_uris":{"android":"levelo://app?vid=f7aad5fd-363c-4e5a-9216-9edf89dbd805","ios":"levelo://app?vid=f7aad5fd-363c-4e5a-9216-9edf89dbd805"},"vehicle_type_id":"4","last_reported":1726826982,"current_range_meters":36800,"station_id":"ce4bgqh2rcd13ifvqc5g","pricing_plan_id":"cebpf4jnsgd1na2vs0mg"},{"bike_id":"fddda46f-3770-430a-bd4b-01e0f31638c2","system_id":"levelo_inurba_marseille","lat":43.25941,"lon":5.40897,"is_reserved":false,"is_disabled":false,"rental_uris":{"android":"levelo://app?vid=fddda46f-3770-430a-bd4b-01e0f31638c2","ios":"levelo://app?vid=fddda46f-3770-430a-bd4b-01e0f31638c2"},"vehicle_type_id":"4","last_reported":1726826982,"current_range_meters":30800,"station_id":"ce4bhm92rcd13ifvqglg","pricing_plan_id":"cebpf4jnsgd1na2vs0mg"},{"bike_id":"8ee6d5db-cb8b-4219-a1d2-5a1a8206952f","system_id":"levelo_inurba_marseille","lat":43.29556,"lon":5.42299,"is_reserved":false,"is_disabled":false,"rental_uris":{"android":"levelo://app?vid=8ee6d5db-cb8b-4219-a1d2-5a1a8206952f","ios":"levelo://app?vid=8ee6d5db-cb8b-4219-a1d2-5a1a8206952f"},"vehicle_type_id":"4","last_reported":1726826982,"current_range_meters":37600,"station_id":"ce4bhph2rcd13ifvqhdg","pricing_plan_id":"cebpf4jnsgd1na2vs0mg"},{"bike_id":"10f12f49-4cb0-4006-af16-73843c3bf357","system_id":"levelo_inurba_marseille","lat":43.24079,"lon":5.37759,"is_reserved":false,"is_disabled":false,"rental_uris":{"android":"levelo://app?vid=10f12f49-4cb0-4006-af16-73843c3bf357","ios":"levelo://app?vid=10f12f49-4cb0-4006-af16-73843c3bf357"},"vehicle_type_id":"4","last_reported":1726826982,"current_range_meters":16400,"station_id":"ce4bhnp2rcd13ifvqgvg","pricing_plan_id":"cebpf4jnsgd1na2vs0mg"},{"bike_id":"af42f746-66d2-45b8-9e58-3721ab0e338d","system_id":"levelo_inurba_marseille","lat":43.23197,"lon":5.35557,"is_reserved":false,"is_disabled":false,"rental_uris":{"android":"levelo://app?vid=af42f746-66d2-45b8-9e58-3721ab0e338d","ios":"levelo://app?vid=af42f746-66d2-45b8-9e58-3721ab0e338d"},"vehicle_type_id":"4","last_reported":1726826982,"current_range_meters":8800,"station_id":"ce4bhu92rcd13ifvqi70","pricing_plan_id":"cebpf4jnsgd1na2vs0mg"},{"bike_id":"2352f636-ec21-4ab0-bd45-15ccfc405304","system_id":"levelo_inurba_marseille","lat":43.24546,"lon":5.3953,"is_reserved":false,"is_disabled":false,"rental_uris":{"android":"levelo://app?vid=2352f636-ec21-4ab0-bd45-15ccfc405304","ios":"levelo://app?vid=2352f636-ec21-4ab0-bd45-15ccfc405304"},"vehicle_type_id":"4","last_reported":1726826982,"current_range_meters":36800,"station_id":"ce4bhlp2rcd13ifvqgjg","pricing_plan_id":"cebpf4jnsgd1na2vs0mg"},{"bike_id":"680226f5-dafe-4dde-b555-d326cb4b1fbd","system_id":"levelo_inurba_marseille","lat":43.32551,"lon":5.41428,"is_reserved":false,"is_disabled":false,"rental_uris":{"android":"levelo://app?vid=680226f5-dafe-4dde-b555-d326cb4b1fbd","ios":"levelo://app?vid=680226f5-dafe-4dde-b555-d326cb4b1fbd"},"vehicle_type_id":"4","last_reported":1726826982,"current_range_meters":7200,"station_id":"ce4bhq12rcd13ifvqhhg","pricing_plan_id":"cebpf4jnsgd1na2vs0mg"},{"bike_id":"ab704c81-0bdc-4966-a9a3-ecdb72287598","system_id":"levelo_inurba_marseille","lat":43.33605,"lon":5.41022,"is_reserved":false,"is_disabled":false,"rental_uris":{"android":"levelo://app?vid=ab704c81-0bdc-4966-a9a3-ecdb72287598","ios":"levelo://app?vid=ab704c81-0bdc-4966-a9a3-ecdb72287598"},"vehicle_type_id":"4","last_reported":1726826982,"current_range_meters":6400,"station_id":"ce4bhqh2rcd13ifvqhmg","pricing_plan_id":"cebpf4jnsgd1na2vs0mg"},{"bike_id":"bfc2814d-d660-4f27-8771-b310fb735346","system_id":"levelo_inurba_marseille","lat":43.2439,"lon":5.3706,"is_reserved":false,"is_disabled":false,"rental_uris":{"android":"levelo://app?vid=bfc2814d-d660-4f27-8771-b310fb735346","ios":"levelo://app?vid=bfc2814d-d660-4f27-8771-b310fb735346"},"vehicle_type_id":"4","last_reported":1726826982,"current_range_meters":36000,"station_id":"ce4bhhh2rcd13ifvqfk0","pricing_plan_id":"cebpf4jnsgd1na2vs0mg"},{"bike_id":"b4d90691-b2ae-447e-84f7-f1a017bf250a","system_id":"levelo_inurba_marseille","lat":43.26555,"lon":5.37286,"is_reserved":false,"is_disabled":false,"rental_uris":{"android":"levelo://app?vid=b4d90691-b2ae-447e-84f7-f1a017bf250a","ios":"levelo://app?vid=b4d90691-b2ae-447e-84f7-f1a017bf250a"},"vehicle_type_id":"4","last_reported":1726826982,"current_range_meters":14400,"station_id":"ce4bhg12rcd13ifvqf70","pricing_plan_id":"cebpf4jnsgd1na2vs0mg"},{"bike_id":"66bdbe49-6c87-4f80-b9c2-4a52c0ab5db0","system_id":"levelo_inurba_marseille","lat":43.30539,"lon":5.36706,"is_reserved":false,"is_disabled":false,"rental_uris":{"android":"levelo://app?vid=66bdbe49-6c87-4f80-b9c2-4a52c0ab5db0","ios":"levelo://app?vid=66bdbe49-6c87-4f80-b9c2-4a52c0ab5db0"},"vehicle_type_id":"4","last_reported":1726826982,"current_range_meters":20000,"station_id":"ce4bgrp2rcd13ifvqc9g","pricing_plan_id":"cebpf4jnsgd1na2vs0mg"},{"bike_id":"514dc08e-5f9a-43a6-93b7-edc718275b7d","system_id":"levelo_inurba_marseille","lat":43.29928,"lon":5.36551,"is_reserved":false,"is_disabled":false,"rental_uris":{"android":"levelo://app?vid=514dc08e-5f9a-43a6-93b7-edc718275b7d","ios":"levelo://app?vid=514dc08e-5f9a-43a6-93b7-edc718275b7d"},"vehicle_type_id":"4","last_reported":1726826982,"current_range_meters":20400,"station_id":"ce4bgm92rcd13ifvqbr0","pricing_plan_id":"cebpf4jnsgd1na2vs0mg"},{"bike_id":"adc21963-f90b-490e-a9d1-eb2095221ef0","system_id":"levelo_inurba_marseille","lat":43.27492,"lon":5.42459,"is_reserved":false,"is_disabled":false,"rental_uris":{"android":"levelo://app?vid=adc21963-f90b-490e-a9d1-eb2095221ef0","ios":"levelo://app?vid=adc21963-f90b-490e-a9d1-eb2095221ef0"},"vehicle_type_id":"4","last_reported":1726826982,"current_range_meters":38800,"station_id":"ce4bhn92rcd13ifvqgrg","pricing_plan_id":"cebpf4jnsgd1na2vs0mg"},{"bike_id":"470d5d03-2251-4f98-9029-c3fecaef5730","system_id":"levelo_inurba_marseille","lat":43.2396,"lon":5.36646,"is_reserved":false,"is_disabled":false,"rental_uris":{"android":"levelo://app?vid=470d5d03-2251-4f98-9029-c3fecaef5730","ios":"levelo://app?vid=470d5d03-2251-4f98-9029-c3fecaef5730"},"vehicle_type_id":"4","last_reported":1726826982,"current_range_meters":33200,"station_id":"ce4bhi12rcd13ifvqfp0","pricing_plan_id":"cebpf4jnsgd1na2vs0mg"},{"bike_id":"5835972c-3486-46b5-af58-e2444cd3592d","system_id":"levelo_inurba_marseille","lat":43.30542,"lon":5.36707,"is_reserved":false,"is_disabled":false,"rental_uris":{"android":"levelo://app?vid=5835972c-3486-46b5-af58-e2444cd3592d","ios":"levelo://app?vid=5835972c-3486-46b5-af58-e2444cd3592d"},"vehicle_type_id":"4","last_reported":1726826982,"current_range_meters":38800,"station_id":"ce4bgrp2rcd13ifvqc9g","pricing_plan_id":"cebpf4jnsgd1na2vs0mg"},{"bike_id":"b153f585-91a7-4778-8e3b-fba7bd4d15f4","system_id":"levelo_inurba_marseille","lat":43.3137,"lon":5.36694,"is_reserved":false,"is_disabled":false,"rental_uris":{"android":"levelo://app?vid=b153f585-91a7-4778-8e3b-fba7bd4d15f4","ios":"levelo://app?vid=b153f585-91a7-4778-8e3b-fba7bd4d15f4"},"vehicle_type_id":"4","last_reported":1726826982,"current_range_meters":38800,"station_id":"ce4bgr92rcd13ifvqc6g","pricing_plan_id":"cebpf4jnsgd1na2vs0mg"},{"bike_id":"5f7fe5f6-0f33-4b71-8b30-37f45d3bbd53","system_id":"levelo_inurba_marseille","lat":43.28158,"lon":5.42643,"is_reserved":false,"is_disabled":false,"rental_uris":{"android":"levelo://app?vid=5f7fe5f6-0f33-4b71-8b30-37f45d3bbd53","ios":"levelo://app?vid=5f7fe5f6-0f33-4b71-8b30-37f45d3bbd53"},"vehicle_type_id":"4","last_reported":1726826982,"current_range_meters":14000,"station_id":"ce4bhnh2rcd13ifvqgug","pricing_plan_id":"cebpf4jnsgd1na2vs0mg"},{"bike_id":"dc9bb5fa-5be0-4c7e-8c1d-eaf9cc96c933","system_id":"levelo_inurba_marseille","lat":43.28942,"lon":5.39631,"is_reserved":false,"is_disabled":false,"rental_uris":{"android":"levelo://app?vid=dc9bb5fa-5be0-4c7e-8c1d-eaf9cc96c933","ios":"levelo://app?vid=dc9bb5fa-5be0-4c7e-8c1d-eaf9cc96c933"},"vehicle_type_id":"4","last_reported":1726826982,"current_range_meters":6000,"station_id":"ce4bh3h2rcd13ifvqdn0","pricing_plan_id":"cebpf4jnsgd1na2vs0mg"},{"bike_id":"aa8c723a-18e1-4191-a83a-484ae857f704","system_id":"levelo_inurba_marseille","lat":43.34143,"lon":5.40915,"is_reserved":false,"is_disabled":false,"rental_uris":{"android":"levelo://app?vid=aa8c723a-18e1-4191-a83a-484ae857f704","ios":"levelo://app?vid=aa8c723a-18e1-4191-a83a-484ae857f704"},"vehicle_type_id":"4","last_reported":1726826982,"current_range_meters":27600,"station_id":"ce4bhqh2rcd13ifvqhlg","pricing_plan_id":"cebpf4jnsgd1na2vs0mg"},{"bike_id":"6920811c-7c55-4ce0-a8d0-1d82822cb0d4","system_id":"levelo_inurba_marseille","lat":43.30902,"lon":5.36859,"is_reserved":false,"is_disabled":false,"rental_uris":{"android":"levelo://app?vid=6920811c-7c55-4ce0-a8d0-1d82822cb0d4","ios":"levelo://app?vid=6920811c-7c55-4ce0-a8d0-1d82822cb0d4"},"vehicle_type_id":"4","last_reported":1726826982,"current_range_meters":3200,"station_id":"ce4bgn92rcd13ifvqbvg","pricing_plan_id":"cebpf4jnsgd1na2vs0mg"},{"bike_id":"9e17731e-35d9-4aa0-92b3-bc18bc20078c","system_id":"levelo_inurba_marseille","lat":43.3096,"lon":5.39029,"is_reserved":false,"is_disabled":false,"rental_uris":{"android":"levelo://app?vid=9e17731e-35d9-4aa0-92b3-bc18bc20078c","ios":"levelo://app?vid=9e17731e-35d9-4aa0-92b3-bc18bc20078c"},"vehicle_type_id":"4","last_reported":1726826982,"current_range_meters":33600,"station_id":"ce4bgup2rcd13ifvqco0","pricing_plan_id":"cebpf4jnsgd1na2vs0mg"},{"bike_id":"b315c640-942d-4d0b-9b05-2417f434e5c2","system_id":"levelo_inurba_marseille","lat":43.2439,"lon":5.37055,"is_reserved":false,"is_disabled":false,"rental_uris":{"android":"levelo://app?vid=b315c640-942d-4d0b-9b05-2417f434e5c2","ios":"levelo://app?vid=b315c640-942d-4d0b-9b05-2417f434e5c2"},"vehicle_type_id":"4","last_reported":1726826982,"current_range_meters":38800,"station_id":"ce4bhhh2rcd13ifvqfk0","pricing_plan_id":"cebpf4jnsgd1na2vs0mg"},{"bike_id":"604c9531-be4f-4974-bfe2-bd7828d7386f","system_id":"levelo_inurba_marseille","lat":43.29896,"lon":5.43673,"is_reserved":false,"is_disabled":false,"rental_uris":{"android":"levelo://app?vid=604c9531-be4f-4974-bfe2-bd7828d7386f","ios":"levelo://app?vid=604c9531-be4f-4974-bfe2-bd7828d7386f"},"vehicle_type_id":"4","last_reported":1726826982,"current_range_meters":28400,"station_id":"ce4bhpp2rcd13ifvqhfg","pricing_plan_id":"cebpf4jnsgd1na2vs0mg"},{"bike_id":"44da3e59-dcf2-4354-910f-f3fece0ed467","system_id":"levelo_inurba_marseille","lat":43.27064,"lon":5.42275,"is_reserved":false,"is_disabled":false,"rental_uris":{"android":"levelo://app?vid=44da3e59-dcf2-4354-910f-f3fece0ed467","ios":"levelo://app?vid=44da3e59-dcf2-4354-910f-f3fece0ed467"},"vehicle_type_id":"4","last_reported":1726826982,"current_range_meters":37600,"station_id":"ce4bhk92rcd13ifvqgb0","pricing_plan_id":"cebpf4jnsgd1na2vs0mg"},{"bike_id":"eb2ef9af-e9bb-4b94-aee1-3fb33b5e66f9","system_id":"levelo_inurba_marseille","lat":43.27993,"lon":5.41655,"is_reserved":false,"is_disabled":false,"rental_uris":{"android":"levelo://app?vid=eb2ef9af-e9bb-4b94-aee1-3fb33b5e66f9","ios":"levelo://app?vid=eb2ef9af-e9bb-4b94-aee1-3fb33b5e66f9"},"vehicle_type_id":"4","last_reported":1726826982,"current_range_meters":37600,"station_id":"ce4bho12rcd13ifvqh1g","pricing_plan_id":"cebpf4jnsgd1na2vs0mg"},{"bike_id":"ad9c983a-6c32-49a5-9db8-e9658c88e94d","system_id":"levelo_inurba_marseille","lat":43.29639,"lon":5.37147,"is_reserved":false,"is_disabled":false,"rental_uris":{"android":"levelo://app?vid=ad9c983a-6c32-49a5-9db8-e9658c88e94d","ios":"levelo://app?vid=ad9c983a-6c32-49a5-9db8-e9658c88e94d"},"vehicle_type_id":"4","last_reported":1726826982,"current_range_meters":28400,"station_id":"ce4bgnh2rcd13ifvqc0g","pricing_plan_id":"cebpf4jnsgd1na2vs0mg"},{"bike_id":"b976c18d-31a5-4fb7-bd25-2e77389930eb","system_id":"levelo_inurba_marseille","lat":43.279816,"lon":5.400015,"is_reserved":false,"is_disabled":false,"rental_uris":{"android":"levelo://app?vid=b976c18d-31a5-4fb7-bd25-2e77389930eb","ios":"levelo://app?vid=b976c18d-31a5-4fb7-bd25-2e77389930eb"},"vehicle_type_id":"4","last_reported":1726826982,"current_range_meters":36800,"station_id":"ce4bho92rcd13ifvqh4g","pricing_plan_id":"cebpf4jnsgd1na2vs0mg"},{"bike_id":"bbabc812-5d4f-4dde-ac4b-6c59e8a40a27","system_id":"levelo_inurba_marseille","lat":43.27492,"lon":5.4245,"is_reserved":false,"is_disabled":false,"rental_uris":{"android":"levelo://app?vid=bbabc812-5d4f-4dde-ac4b-6c59e8a40a27","ios":"levelo://app?vid=bbabc812-5d4f-4dde-ac4b-6c59e8a40a27"},"vehicle_type_id":"4","last_reported":1726826982,"current_range_meters":38800,"station_id":"ce4bhn92rcd13ifvqgrg","pricing_plan_id":"cebpf4jnsgd1na2vs0mg"},{"bike_id":"15bbdbd8-fa35-4790-b472-706c4e2f4e69","system_id":"levelo_inurba_marseille","lat":43.3053,"lon":5.37272,"is_reserved":false,"is_disabled":false,"rental_uris":{"android":"levelo://app?vid=15bbdbd8-fa35-4790-b472-706c4e2f4e69","ios":"levelo://app?vid=15bbdbd8-fa35-4790-b472-706c4e2f4e69"},"vehicle_type_id":"4","last_reported":1726826982,"current_range_meters":3600,"station_id":"","pricing_plan_id":"cebpf4jnsgd1na2vs0mg"},{"bike_id":"ef6e8a6b-dbc8-497d-adeb-1b246e1a7dec","system_id":"levelo_inurba_marseille","lat":43.24183,"lon":5.39736,"is_reserved":false,"is_disabled":false,"rental_uris":{"android":"levelo://app?vid=ef6e8a6b-dbc8-497d-adeb-1b246e1a7dec","ios":"levelo://app?vid=ef6e8a6b-dbc8-497d-adeb-1b246e1a7dec"},"vehicle_type_id":"4","last_reported":1726826982,"current_range_meters":38800,"station_id":"ce4bhn12rcd13ifvqgpg","pricing_plan_id":"cebpf4jnsgd1na2vs0mg"},{"bike_id":"9f8649e2-75d2-4d09-94ee-538fd13f9680","system_id":"levelo_inurba_marseille","lat":43.33605,"lon":5.41021,"is_reserved":false,"is_disabled":false,"rental_uris":{"android":"levelo://app?vid=9f8649e2-75d2-4d09-94ee-538fd13f9680","ios":"levelo://app?vid=9f8649e2-75d2-4d09-94ee-538fd13f9680"},"vehicle_type_id":"4","last_reported":1726826982,"current_range_meters":39200,"station_id":"ce4bhqh2rcd13ifvqhmg","pricing_plan_id":"cebpf4jnsgd1na2vs0mg"},{"bike_id":"eba8614c-0914-4ce7-a706-4d43d12ff0e3","system_id":"levelo_inurba_marseille","lat":43.28158,"lon":5.4264,"is_reserved":false,"is_disabled":false,"rental_uris":{"android":"levelo://app?vid=eba8614c-0914-4ce7-a706-4d43d12ff0e3","ios":"levelo://app?vid=eba8614c-0914-4ce7-a706-4d43d12ff0e3"},"vehicle_type_id":"4","last_reported":1726826982,"current_range_meters":32800,"station_id":"ce4bhnh2rcd13ifvqgug","pricing_plan_id":"cebpf4jnsgd1na2vs0mg"},{"bike_id":"95b41d6d-fd81-42f3-8c2c-23df7314a0a1","system_id":"levelo_inurba_marseille","lat":43.25119,"lon":5.40325,"is_reserved":false,"is_disabled":false,"rental_uris":{"android":"levelo://app?vid=95b41d6d-fd81-42f3-8c2c-23df7314a0a1","ios":"levelo://app?vid=95b41d6d-fd81-42f3-8c2c-23df7314a0a1"},"vehicle_type_id":"4","last_reported":1726826982,"current_range_meters":17600,"station_id":"ce4bhlh2rcd13ifvqgig","pricing_plan_id":"cebpf4jnsgd1na2vs0mg"},{"bike_id":"d6639a5a-9014-429b-8741-8e82f6d766a4","system_id":"levelo_inurba_marseille","lat":43.30285,"lon":5.37702,"is_reserved":false,"is_disabled":false,"rental_uris":{"android":"levelo://app?vid=d6639a5a-9014-429b-8741-8e82f6d766a4","ios":"levelo://app?vid=d6639a5a-9014-429b-8741-8e82f6d766a4"},"vehicle_type_id":"4","last_reported":1726826982,"current_range_meters":18800,"station_id":"ce4bguh2rcd13ifvqcj0","pricing_plan_id":"cebpf4jnsgd1na2vs0mg"},{"bike_id":"266bf062-7909-44c2-8b58-3351680b0eb0","system_id":"levelo_inurba_marseille","lat":43.27675,"lon":5.3887,"is_reserved":false,"is_disabled":false,"rental_uris":{"android":"levelo://app?vid=266bf062-7909-44c2-8b58-3351680b0eb0","ios":"levelo://app?vid=266bf062-7909-44c2-8b58-3351680b0eb0"},"vehicle_type_id":"4","last_reported":1726826982,"current_range_meters":39200,"station_id":"ce4bhi12rcd13ifvqfo0","pricing_plan_id":"cebpf4jnsgd1na2vs0mg"},{"bike_id":"8bded9b1-4958-41a5-9529-392455536bc5","system_id":"levelo_inurba_marseille","lat":43.27489,"lon":5.42463,"is_reserved":false,"is_disabled":false,"rental_uris":{"android":"levelo://app?vid=8bded9b1-4958-41a5-9529-392455536bc5","ios":"levelo://app?vid=8bded9b1-4958-41a5-9529-392455536bc5"},"vehicle_type_id":"4","last_reported":1726826982,"current_range_meters":38800,"station_id":"ce4bhn92rcd13ifvqgrg","pricing_plan_id":"cebpf4jnsgd1na2vs0mg"},{"bike_id":"923be1b8-882a-445b-83fa-e72f0e039471","system_id":"levelo_inurba_marseille","lat":43.30534,"lon":5.36557,"is_reserved":false,"is_disabled":false,"rental_uris":{"android":"levelo://app?vid=923be1b8-882a-445b-83fa-e72f0e039471","ios":"levelo://app?vid=923be1b8-882a-445b-83fa-e72f0e039471"},"vehicle_type_id":"4","last_reported":1726826982,"current_range_meters":40000,"station_id":"ce4bgs12rcd13ifvqcag","pricing_plan_id":"cebpf4jnsgd1na2vs0mg"},{"bike_id":"05c7d269-7be0-4d30-ba7d-c6be2d4a36b6","system_id":"levelo_inurba_marseille","lat":43.29845,"lon":5.36278,"is_reserved":false,"is_disabled":false,"rental_uris":{"android":"levelo://app?vid=05c7d269-7be0-4d30-ba7d-c6be2d4a36b6","ios":"levelo://app?vid=05c7d269-7be0-4d30-ba7d-c6be2d4a36b6"},"vehicle_type_id":"4","last_reported":1726826982,"current_range_meters":30800,"station_id":"ce4bgpp2rcd13ifvqc3g","pricing_plan_id":"cebpf4jnsgd1na2vs0mg"},{"bike_id":"4d06619f-d24d-491c-bbc5-29d9e1b62801","system_id":"levelo_inurba_marseille","lat":43.30544,"lon":5.36555,"is_reserved":false,"is_disabled":false,"rental_uris":{"android":"levelo://app?vid=4d06619f-d24d-491c-bbc5-29d9e1b62801","ios":"levelo://app?vid=4d06619f-d24d-491c-bbc5-29d9e1b62801"},"vehicle_type_id":"4","last_reported":1726826982,"current_range_meters":36800,"station_id":"ce4bgs12rcd13ifvqcag","pricing_plan_id":"cebpf4jnsgd1na2vs0mg"},{"bike_id":"c6bbbb64-2b65-4bc0-a66d-bc121188baf0","system_id":"levelo_inurba_marseille","lat":43.2872,"lon":5.36085,"is_reserved":false,"is_disabled":false,"rental_uris":{"android":"levelo://app?vid=c6bbbb64-2b65-4bc0-a66d-bc121188baf0","ios":"levelo://app?vid=c6bbbb64-2b65-4bc0-a66d-bc121188baf0"},"vehicle_type_id":"4","last_reported":1726826982,"current_range_meters":24400,"station_id":"cki0cbj6b192h4jlfktg","pricing_plan_id":"cebpf4jnsgd1na2vs0mg"},{"bike_id":"e23f2e54-34ca-41b9-9e63-4971073c8870","system_id":"levelo_inurba_marseille","lat":43.27674,"lon":5.38882,"is_reserved":false,"is_disabled":false,"rental_uris":{"android":"levelo://app?vid=e23f2e54-34ca-41b9-9e63-4971073c8870","ios":"levelo://app?vid=e23f2e54-34ca-41b9-9e63-4971073c8870"},"vehicle_type_id":"4","last_reported":1726826982,"current_range_meters":22000,"station_id":"ce4bhi12rcd13ifvqfo0","pricing_plan_id":"cebpf4jnsgd1na2vs0mg"},{"bike_id":"4fa0ca0d-342c-4cd6-990b-f5e4ae40db2b","system_id":"levelo_inurba_marseille","lat":43.29963,"lon":5.41325,"is_reserved":false,"is_disabled":false,"rental_uris":{"android":"levelo://app?vid=4fa0ca0d-342c-4cd6-990b-f5e4ae40db2b","ios":"levelo://app?vid=4fa0ca0d-342c-4cd6-990b-f5e4ae40db2b"},"vehicle_type_id":"4","last_reported":1726826982,"current_range_meters":36800,"station_id":"ce4bhp12rcd13ifvqh9g","pricing_plan_id":"cebpf4jnsgd1na2vs0mg"},{"bike_id":"1b297945-7c8a-4e0e-b2c4-bc43a6c00be3","system_id":"levelo_inurba_marseille","lat":43.2465,"lon":5.38907,"is_reserved":false,"is_disabled":false,"rental_uris":{"android":"levelo://app?vid=1b297945-7c8a-4e0e-b2c4-bc43a6c00be3","ios":"levelo://app?vid=1b297945-7c8a-4e0e-b2c4-bc43a6c00be3"},"vehicle_type_id":"4","last_reported":1726826982,"current_range_meters":38800,"station_id":"ce4bhg12rcd13ifvqf60","pricing_plan_id":"cebpf4jnsgd1na2vs0mg"},{"bike_id":"0e22d5a2-1a21-4e01-8fff-7c220578f054","system_id":"levelo_inurba_marseille","lat":43.29709,"lon":5.36611,"is_reserved":false,"is_disabled":false,"rental_uris":{"android":"levelo://app?vid=0e22d5a2-1a21-4e01-8fff-7c220578f054","ios":"levelo://app?vid=0e22d5a2-1a21-4e01-8fff-7c220578f054"},"vehicle_type_id":"4","last_reported":1726826982,"current_range_meters":12800,"station_id":"ce4bgn12rcd13ifvqbt0","pricing_plan_id":"cebpf4jnsgd1na2vs0mg"},{"bike_id":"98f311bc-54d0-46ec-93fe-54b18787da8c","system_id":"levelo_inurba_marseille","lat":43.28669,"lon":5.38671,"is_reserved":false,"is_disabled":false,"rental_uris":{"android":"levelo://app?vid=98f311bc-54d0-46ec-93fe-54b18787da8c","ios":"levelo://app?vid=98f311bc-54d0-46ec-93fe-54b18787da8c"},"vehicle_type_id":"4","last_reported":1726826982,"current_range_meters":38800,"station_id":"ce4bh492rcd13ifvqdug","pricing_plan_id":"cebpf4jnsgd1na2vs0mg"},{"bike_id":"58e2312c-dfbb-45af-856a-fd76963d823a","system_id":"levelo_inurba_marseille","lat":43.28617,"lon":5.35104,"is_reserved":false,"is_disabled":false,"rental_uris":{"android":"levelo://app?vid=58e2312c-dfbb-45af-856a-fd76963d823a","ios":"levelo://app?vid=58e2312c-dfbb-45af-856a-fd76963d823a"},"vehicle_type_id":"4","last_reported":1726826982,"current_range_meters":21600,"station_id":"ce4bhch2rcd13ifvqeug","pricing_plan_id":"cebpf4jnsgd1na2vs0mg"},{"bike_id":"f8571aad-5f92-4ec9-b9ed-faec8639629b","system_id":"levelo_inurba_marseille","lat":43.3362,"lon":5.41019,"is_reserved":false,"is_disabled":false,"rental_uris":{"android":"levelo://app?vid=f8571aad-5f92-4ec9-b9ed-faec8639629b","ios":"levelo://app?vid=f8571aad-5f92-4ec9-b9ed-faec8639629b"},"vehicle_type_id":"4","last_reported":1726826982,"current_range_meters":16800,"station_id":"ce4bhqh2rcd13ifvqhmg","pricing_plan_id":"cebpf4jnsgd1na2vs0mg"},{"bike_id":"79c66cf1-cd91-4389-b17f-aaf81e94c310","system_id":"levelo_inurba_marseille","lat":43.23153,"lon":5.43726,"is_reserved":false,"is_disabled":false,"rental_uris":{"android":"levelo://app?vid=79c66cf1-cd91-4389-b17f-aaf81e94c310","ios":"levelo://app?vid=79c66cf1-cd91-4389-b17f-aaf81e94c310"},"vehicle_type_id":"4","last_reported":1726826982,"current_range_meters":28800,"station_id":"ce4bhmp2rcd13ifvqgog","pricing_plan_id":"cebpf4jnsgd1na2vs0mg"},{"bike_id":"8a12d865-b083-4883-b5aa-f97910a59200","system_id":"levelo_inurba_marseille","lat":43.30156,"lon":5.38084,"is_reserved":false,"is_disabled":false,"rental_uris":{"android":"levelo://app?vid=8a12d865-b083-4883-b5aa-f97910a59200","ios":"levelo://app?vid=8a12d865-b083-4883-b5aa-f97910a59200"},"vehicle_type_id":"4","last_reported":1726826982,"current_range_meters":32000,"station_id":"ce4bgjp2rcd13ifvqbh0","pricing_plan_id":"cebpf4jnsgd1na2vs0mg"},{"bike_id":"084cf6df-dabb-4d3c-b823-2c74f4e5856c","system_id":"levelo_inurba_marseille","lat":43.337444,"lon":5.374475,"is_reserved":false,"is_disabled":false,"rental_uris":{"android":"levelo://app?vid=084cf6df-dabb-4d3c-b823-2c74f4e5856c","ios":"levelo://app?vid=084cf6df-dabb-4d3c-b823-2c74f4e5856c"},"vehicle_type_id":"4","last_reported":1726826982,"current_range_meters":9600,"station_id":"","pricing_plan_id":"cebpf4jnsgd1na2vs0mg"},{"bike_id":"eb1171f2-348b-4c4f-8355-c239b05d4e51","system_id":"levelo_inurba_marseille","lat":43.28259,"lon":5.35074,"is_reserved":false,"is_disabled":false,"rental_uris":{"android":"levelo://app?vid=eb1171f2-348b-4c4f-8355-c239b05d4e51","ios":"levelo://app?vid=eb1171f2-348b-4c4f-8355-c239b05d4e51"},"vehicle_type_id":"4","last_reported":1726826982,"current_range_meters":20400,"station_id":"ce4bhbp2rcd13ifvqerg","pricing_plan_id":"cebpf4jnsgd1na2vs0mg"},{"bike_id":"283085bc-c3f6-4452-931b-d999c2f07c43","system_id":"levelo_inurba_marseille","lat":43.24079,"lon":5.37754,"is_reserved":false,"is_disabled":false,"rental_uris":{"android":"levelo://app?vid=283085bc-c3f6-4452-931b-d999c2f07c43","ios":"levelo://app?vid=283085bc-c3f6-4452-931b-d999c2f07c43"},"vehicle_type_id":"4","last_reported":1726826982,"current_range_meters":29600,"station_id":"ce4bhnp2rcd13ifvqgvg","pricing_plan_id":"cebpf4jnsgd1na2vs0mg"},{"bike_id":"5705acbc-d503-4f36-a9f5-13b5f18aa34d","system_id":"levelo_inurba_marseille","lat":43.23959,"lon":5.36639,"is_reserved":false,"is_disabled":false,"rental_uris":{"android":"levelo://app?vid=5705acbc-d503-4f36-a9f5-13b5f18aa34d","ios":"levelo://app?vid=5705acbc-d503-4f36-a9f5-13b5f18aa34d"},"vehicle_type_id":"4","last_reported":1726826982,"current_range_meters":36000,"station_id":"ce4bhi12rcd13ifvqfp0","pricing_plan_id":"cebpf4jnsgd1na2vs0mg"},{"bike_id":"00e526e2-50eb-42e1-aded-5554238a0edf","system_id":"levelo_inurba_marseille","lat":43.25506,"lon":5.37658,"is_reserved":false,"is_disabled":false,"rental_uris":{"android":"levelo://app?vid=00e526e2-50eb-42e1-aded-5554238a0edf","ios":"levelo://app?vid=00e526e2-50eb-42e1-aded-5554238a0edf"},"vehicle_type_id":"4","last_reported":1726826982,"current_range_meters":27600,"station_id":"ce4bhh12rcd13ifvqff0","pricing_plan_id":"cebpf4jnsgd1na2vs0mg"},{"bike_id":"3166cece-51f8-4e97-93c2-fd40b88d6344","system_id":"levelo_inurba_marseille","lat":43.29601,"lon":5.37725,"is_reserved":false,"is_disabled":false,"rental_uris":{"android":"levelo://app?vid=3166cece-51f8-4e97-93c2-fd40b88d6344","ios":"levelo://app?vid=3166cece-51f8-4e97-93c2-fd40b88d6344"},"vehicle_type_id":"4","last_reported":1726826982,"current_range_meters":28800,"station_id":"ce4bgi92rcd13ifvqb90","pricing_plan_id":"cebpf4jnsgd1na2vs0mg"},{"bike_id":"3306c566-4baa-453b-af41-0b38979e7e4e","system_id":"levelo_inurba_marseille","lat":43.24392,"lon":5.37067,"is_reserved":false,"is_disabled":false,"rental_uris":{"android":"levelo://app?vid=3306c566-4baa-453b-af41-0b38979e7e4e","ios":"levelo://app?vid=3306c566-4baa-453b-af41-0b38979e7e4e"},"vehicle_type_id":"4","last_reported":1726826982,"current_range_meters":8400,"station_id":"ce4bhhh2rcd13ifvqfk0","pricing_plan_id":"cebpf4jnsgd1na2vs0mg"},{"bike_id":"3542f62e-a0f1-48ca-827b-79008293c554","system_id":"levelo_inurba_marseille","lat":43.29896,"lon":5.43672,"is_reserved":false,"is_disabled":false,"rental_uris":{"android":"levelo://app?vid=3542f62e-a0f1-48ca-827b-79008293c554","ios":"levelo://app?vid=3542f62e-a0f1-48ca-827b-79008293c554"},"vehicle_type_id":"4","last_reported":1726826982,"current_range_meters":19200,"station_id":"ce4bhpp2rcd13ifvqhfg","pricing_plan_id":"cebpf4jnsgd1na2vs0mg"},{"bike_id":"6891a506-ca8f-4c85-b0e4-4edd7a4e2bed","system_id":"levelo_inurba_marseille","lat":43.26208,"lon":5.3793,"is_reserved":false,"is_disabled":false,"rental_uris":{"android":"levelo://app?vid=6891a506-ca8f-4c85-b0e4-4edd7a4e2bed","ios":"levelo://app?vid=6891a506-ca8f-4c85-b0e4-4edd7a4e2bed"},"vehicle_type_id":"4","last_reported":1726826982,"current_range_meters":24800,"station_id":"ce4bhjp2rcd13ifvqg90","pricing_plan_id":"cebpf4jnsgd1na2vs0mg"},{"bike_id":"6026054c-8ecd-4a9f-8487-3cea352da042","system_id":"levelo_inurba_marseille","lat":43.29567,"lon":5.39965,"is_reserved":false,"is_disabled":false,"rental_uris":{"android":"levelo://app?vid=6026054c-8ecd-4a9f-8487-3cea352da042","ios":"levelo://app?vid=6026054c-8ecd-4a9f-8487-3cea352da042"},"vehicle_type_id":"4","last_reported":1726826982,"current_range_meters":28400,"station_id":"ce4bh312rcd13ifvqdj0","pricing_plan_id":"cebpf4jnsgd1na2vs0mg"},{"bike_id":"7b9dd459-340b-4978-bfb0-6c163a5263e8","system_id":"levelo_inurba_marseille","lat":43.2319,"lon":5.35547,"is_reserved":false,"is_disabled":false,"rental_uris":{"android":"levelo://app?vid=7b9dd459-340b-4978-bfb0-6c163a5263e8","ios":"levelo://app?vid=7b9dd459-340b-4978-bfb0-6c163a5263e8"},"vehicle_type_id":"4","last_reported":1726826982,"current_range_meters":40000,"station_id":"ce4bhu92rcd13ifvqi70","pricing_plan_id":"cebpf4jnsgd1na2vs0mg"},{"bike_id":"4f43dba0-3939-44ed-896a-3812c56c94e0","system_id":"levelo_inurba_marseille","lat":43.30167,"lon":5.38068,"is_reserved":false,"is_disabled":false,"rental_uris":{"android":"levelo://app?vid=4f43dba0-3939-44ed-896a-3812c56c94e0","ios":"levelo://app?vid=4f43dba0-3939-44ed-896a-3812c56c94e0"},"vehicle_type_id":"4","last_reported":1726826982,"current_range_meters":20400,"station_id":"ce4bgjp2rcd13ifvqbh0","pricing_plan_id":"cebpf4jnsgd1na2vs0mg"},{"bike_id":"8a8b9775-ebde-4d45-82eb-edb2dda75711","system_id":"levelo_inurba_marseille","lat":43.30279,"lon":5.37702,"is_reserved":false,"is_disabled":false,"rental_uris":{"android":"levelo://app?vid=8a8b9775-ebde-4d45-82eb-edb2dda75711","ios":"levelo://app?vid=8a8b9775-ebde-4d45-82eb-edb2dda75711"},"vehicle_type_id":"4","last_reported":1726826982,"current_range_meters":22000,"station_id":"ce4bguh2rcd13ifvqcj0","pricing_plan_id":"cebpf4jnsgd1na2vs0mg"},{"bike_id":"30d03598-4584-4809-9303-434479df300e","system_id":"levelo_inurba_marseille","lat":43.32488,"lon":5.36558,"is_reserved":false,"is_disabled":false,"rental_uris":{"android":"levelo://app?vid=30d03598-4584-4809-9303-434479df300e","ios":"levelo://app?vid=30d03598-4584-4809-9303-434479df300e"},"vehicle_type_id":"4","last_reported":1726826982,"current_range_meters":30400,"station_id":"ce4bhs12rcd13ifvqhvg","pricing_plan_id":"cebpf4jnsgd1na2vs0mg"},{"bike_id":"59526314-6814-428f-9df0-ead1cf1c2777","system_id":"levelo_inurba_marseille","lat":43.25934,"lon":5.40917,"is_reserved":false,"is_disabled":false,"rental_uris":{"android":"levelo://app?vid=59526314-6814-428f-9df0-ead1cf1c2777","ios":"levelo://app?vid=59526314-6814-428f-9df0-ead1cf1c2777"},"vehicle_type_id":"4","last_reported":1726826982,"current_range_meters":35200,"station_id":"ce4bhm92rcd13ifvqglg","pricing_plan_id":"cebpf4jnsgd1na2vs0mg"},{"bike_id":"32d4a5c9-769a-4251-b032-0492dfb4b942","system_id":"levelo_inurba_marseille","lat":43.27494,"lon":5.42464,"is_reserved":false,"is_disabled":false,"rental_uris":{"android":"levelo://app?vid=32d4a5c9-769a-4251-b032-0492dfb4b942","ios":"levelo://app?vid=32d4a5c9-769a-4251-b032-0492dfb4b942"},"vehicle_type_id":"4","last_reported":1726826982,"current_range_meters":32400,"station_id":"ce4bhn92rcd13ifvqgrg","pricing_plan_id":"cebpf4jnsgd1na2vs0mg"},{"bike_id":"9d6aad91-3bde-49e8-a584-69fb053fee45","system_id":"levelo_inurba_marseille","lat":43.27996,"lon":5.40011,"is_reserved":false,"is_disabled":false,"rental_uris":{"android":"levelo://app?vid=9d6aad91-3bde-49e8-a584-69fb053fee45","ios":"levelo://app?vid=9d6aad91-3bde-49e8-a584-69fb053fee45"},"vehicle_type_id":"4","last_reported":1726826982,"current_range_meters":20400,"station_id":"ce4bho92rcd13ifvqh4g","pricing_plan_id":"cebpf4jnsgd1na2vs0mg"},{"bike_id":"3283bb3b-6afd-465a-bd5f-96d9c7b7fcc6","system_id":"levelo_inurba_marseille","lat":43.27669,"lon":5.38887,"is_reserved":false,"is_disabled":false,"rental_uris":{"android":"levelo://app?vid=3283bb3b-6afd-465a-bd5f-96d9c7b7fcc6","ios":"levelo://app?vid=3283bb3b-6afd-465a-bd5f-96d9c7b7fcc6"},"vehicle_type_id":"4","last_reported":1726826982,"current_range_meters":18000,"station_id":"ce4bhi12rcd13ifvqfo0","pricing_plan_id":"cebpf4jnsgd1na2vs0mg"},{"bike_id":"b3d39a3c-0271-40ca-9144-acc31cfc237a","system_id":"levelo_inurba_marseille","lat":43.25939,"lon":5.40907,"is_reserved":false,"is_disabled":false,"rental_uris":{"android":"levelo://app?vid=b3d39a3c-0271-40ca-9144-acc31cfc237a","ios":"levelo://app?vid=b3d39a3c-0271-40ca-9144-acc31cfc237a"},"vehicle_type_id":"4","last_reported":1726826982,"current_range_meters":8000,"station_id":"ce4bhm92rcd13ifvqglg","pricing_plan_id":"cebpf4jnsgd1na2vs0mg"},{"bike_id":"ffddd2d0-239b-4ad9-bf5e-964f010aa097","system_id":"levelo_inurba_marseille","lat":43.24082,"lon":5.37751,"is_reserved":false,"is_disabled":false,"rental_uris":{"android":"levelo://app?vid=ffddd2d0-239b-4ad9-bf5e-964f010aa097","ios":"levelo://app?vid=ffddd2d0-239b-4ad9-bf5e-964f010aa097"},"vehicle_type_id":"4","last_reported":1726826982,"current_range_meters":25600,"station_id":"ce4bhnp2rcd13ifvqgvg","pricing_plan_id":"cebpf4jnsgd1na2vs0mg"},{"bike_id":"f642c1a7-423e-4655-abb6-e2a5caf59515","system_id":"levelo_inurba_marseille","lat":43.3015,"lon":5.38078,"is_reserved":false,"is_disabled":false,"rental_uris":{"android":"levelo://app?vid=f642c1a7-423e-4655-abb6-e2a5caf59515","ios":"levelo://app?vid=f642c1a7-423e-4655-abb6-e2a5caf59515"},"vehicle_type_id":"4","last_reported":1726826982,"current_range_meters":38400,"station_id":"ce4bgjp2rcd13ifvqbh0","pricing_plan_id":"cebpf4jnsgd1na2vs0mg"},{"bike_id":"b5cb6404-7b57-47a9-aea5-96f987842ed2","system_id":"levelo_inurba_marseille","lat":43.296143,"lon":5.371543,"is_reserved":false,"is_disabled":false,"rental_uris":{"android":"levelo://app?vid=b5cb6404-7b57-47a9-aea5-96f987842ed2","ios":"levelo://app?vid=b5cb6404-7b57-47a9-aea5-96f987842ed2"},"vehicle_type_id":"4","last_reported":1726826982,"current_range_meters":19200,"station_id":"ce4bgnh2rcd13ifvqc0g","pricing_plan_id":"cebpf4jnsgd1na2vs0mg"},{"bike_id":"625efc9f-ff46-4ca3-aaac-13f8f46af8bc","system_id":"levelo_inurba_marseille","lat":43.30948,"lon":5.39033,"is_reserved":false,"is_disabled":false,"rental_uris":{"android":"levelo://app?vid=625efc9f-ff46-4ca3-aaac-13f8f46af8bc","ios":"levelo://app?vid=625efc9f-ff46-4ca3-aaac-13f8f46af8bc"},"vehicle_type_id":"4","last_reported":1726826982,"current_range_meters":32000,"station_id":"ce4bgup2rcd13ifvqco0","pricing_plan_id":"cebpf4jnsgd1na2vs0mg"},{"bike_id":"eb2bede7-1cfc-481d-95f0-4175f9ef21df","system_id":"levelo_inurba_marseille","lat":43.25946,"lon":5.40908,"is_reserved":false,"is_disabled":false,"rental_uris":{"android":"levelo://app?vid=eb2bede7-1cfc-481d-95f0-4175f9ef21df","ios":"levelo://app?vid=eb2bede7-1cfc-481d-95f0-4175f9ef21df"},"vehicle_type_id":"4","last_reported":1726826982,"current_range_meters":16800,"station_id":"ce4bhm92rcd13ifvqglg","pricing_plan_id":"cebpf4jnsgd1na2vs0mg"},{"bike_id":"5fb2b33f-9b55-4868-891c-201ab6300066","system_id":"levelo_inurba_marseille","lat":43.24808,"lon":5.37454,"is_reserved":false,"is_disabled":false,"rental_uris":{"android":"levelo://app?vid=5fb2b33f-9b55-4868-891c-201ab6300066","ios":"levelo://app?vid=5fb2b33f-9b55-4868-891c-201ab6300066"},"vehicle_type_id":"4","last_reported":1726826982,"current_range_meters":38000,"station_id":"ce4bhgh2rcd13ifvqfb0","pricing_plan_id":"cebpf4jnsgd1na2vs0mg"},{"bike_id":"8252c765-e1e7-4ef5-92fb-809ea1e6a090","system_id":"levelo_inurba_marseille","lat":43.30542,"lon":5.36557,"is_reserved":false,"is_disabled":false,"rental_uris":{"android":"levelo://app?vid=8252c765-e1e7-4ef5-92fb-809ea1e6a090","ios":"levelo://app?vid=8252c765-e1e7-4ef5-92fb-809ea1e6a090"},"vehicle_type_id":"4","last_reported":1726826982,"current_range_meters":18000,"station_id":"ce4bgs12rcd13ifvqcag","pricing_plan_id":"cebpf4jnsgd1na2vs0mg"},{"bike_id":"67639328-f91b-4ba3-949e-68a0db9b5364","system_id":"levelo_inurba_marseille","lat":43.32651,"lon":5.40989,"is_reserved":false,"is_disabled":false,"rental_uris":{"android":"levelo://app?vid=67639328-f91b-4ba3-949e-68a0db9b5364","ios":"levelo://app?vid=67639328-f91b-4ba3-949e-68a0db9b5364"},"vehicle_type_id":"4","last_reported":1726826982,"current_range_meters":37600,"station_id":"ce4bhpp2rcd13ifvqhgg","pricing_plan_id":"cebpf4jnsgd1na2vs0mg"},{"bike_id":"9eb7d86d-57cb-4663-aab1-b9156be876c1","system_id":"levelo_inurba_marseille","lat":43.3043,"lon":5.3888,"is_reserved":false,"is_disabled":false,"rental_uris":{"android":"levelo://app?vid=9eb7d86d-57cb-4663-aab1-b9156be876c1","ios":"levelo://app?vid=9eb7d86d-57cb-4663-aab1-b9156be876c1"},"vehicle_type_id":"4","last_reported":1726826982,"current_range_meters":19600,"station_id":"ce4bgk12rcd13ifvqbi0","pricing_plan_id":"cebpf4jnsgd1na2vs0mg"},{"bike_id":"3f92bbb0-67da-49b7-a380-d3e998be8116","system_id":"levelo_inurba_marseille","lat":43.30541,"lon":5.36707,"is_reserved":false,"is_disabled":false,"rental_uris":{"android":"levelo://app?vid=3f92bbb0-67da-49b7-a380-d3e998be8116","ios":"levelo://app?vid=3f92bbb0-67da-49b7-a380-d3e998be8116"},"vehicle_type_id":"4","last_reported":1726826982,"current_range_meters":38800,"station_id":"ce4bgrp2rcd13ifvqc9g","pricing_plan_id":"cebpf4jnsgd1na2vs0mg"},{"bike_id":"6ea58364-1054-4286-a43c-07c43bca00ba","system_id":"levelo_inurba_marseille","lat":43.29605,"lon":5.3771,"is_reserved":false,"is_disabled":false,"rental_uris":{"android":"levelo://app?vid=6ea58364-1054-4286-a43c-07c43bca00ba","ios":"levelo://app?vid=6ea58364-1054-4286-a43c-07c43bca00ba"},"vehicle_type_id":"4","last_reported":1726826982,"current_range_meters":38800,"station_id":"ce4bgi92rcd13ifvqb90","pricing_plan_id":"cebpf4jnsgd1na2vs0mg"},{"bike_id":"59bcf95b-4fb4-4ef5-bbe9-00138aa77003","system_id":"levelo_inurba_marseille","lat":43.24178,"lon":5.39731,"is_reserved":false,"is_disabled":false,"rental_uris":{"android":"levelo://app?vid=59bcf95b-4fb4-4ef5-bbe9-00138aa77003","ios":"levelo://app?vid=59bcf95b-4fb4-4ef5-bbe9-00138aa77003"},"vehicle_type_id":"4","last_reported":1726826982,"current_range_meters":17200,"station_id":"ce4bhn12rcd13ifvqgpg","pricing_plan_id":"cebpf4jnsgd1na2vs0mg"},{"bike_id":"0e2fe41f-ec69-40f0-8f9e-497a2367d1be","system_id":"levelo_inurba_marseille","lat":43.27495,"lon":5.42453,"is_reserved":false,"is_disabled":false,"rental_uris":{"android":"levelo://app?vid=0e2fe41f-ec69-40f0-8f9e-497a2367d1be","ios":"levelo://app?vid=0e2fe41f-ec69-40f0-8f9e-497a2367d1be"},"vehicle_type_id":"4","last_reported":1726826982,"current_range_meters":21600,"station_id":"ce4bhn92rcd13ifvqgrg","pricing_plan_id":"cebpf4jnsgd1na2vs0mg"},{"bike_id":"1612b2ac-7019-4fb8-9cb2-cd217e2e7aa2","system_id":"levelo_inurba_marseille","lat":43.31885,"lon":5.40734,"is_reserved":false,"is_disabled":false,"rental_uris":{"android":"levelo://app?vid=1612b2ac-7019-4fb8-9cb2-cd217e2e7aa2","ios":"levelo://app?vid=1612b2ac-7019-4fb8-9cb2-cd217e2e7aa2"},"vehicle_type_id":"4","last_reported":1726826982,"current_range_meters":16400,"station_id":"ce4bhq12rcd13ifvqhig","pricing_plan_id":"cebpf4jnsgd1na2vs0mg"},{"bike_id":"db5bed51-afb9-4548-98e9-7b7ae226c501","system_id":"levelo_inurba_marseille","lat":43.33756,"lon":5.37453,"is_reserved":false,"is_disabled":false,"rental_uris":{"android":"levelo://app?vid=db5bed51-afb9-4548-98e9-7b7ae226c501","ios":"levelo://app?vid=db5bed51-afb9-4548-98e9-7b7ae226c501"},"vehicle_type_id":"4","last_reported":1726826982,"current_range_meters":19200,"station_id":"","pricing_plan_id":"cebpf4jnsgd1na2vs0mg"},{"bike_id":"dac59a86-fe2c-4a78-995b-cfc8e90897a6","system_id":"levelo_inurba_marseille","lat":43.30154,"lon":5.38081,"is_reserved":false,"is_disabled":false,"rental_uris":{"android":"levelo://app?vid=dac59a86-fe2c-4a78-995b-cfc8e90897a6","ios":"levelo://app?vid=dac59a86-fe2c-4a78-995b-cfc8e90897a6"},"vehicle_type_id":"4","last_reported":1726826982,"current_range_meters":38800,"station_id":"ce4bgjp2rcd13ifvqbh0","pricing_plan_id":"cebpf4jnsgd1na2vs0mg"},{"bike_id":"fccc13a6-0c93-4f77-b2e7-ea873c779a4f","system_id":"levelo_inurba_marseille","lat":43.29902,"lon":5.43672,"is_reserved":false,"is_disabled":false,"rental_uris":{"android":"levelo://app?vid=fccc13a6-0c93-4f77-b2e7-ea873c779a4f","ios":"levelo://app?vid=fccc13a6-0c93-4f77-b2e7-ea873c779a4f"},"vehicle_type_id":"4","last_reported":1726826982,"current_range_meters":14800,"station_id":"ce4bhpp2rcd13ifvqhfg","pricing_plan_id":"cebpf4jnsgd1na2vs0mg"},{"bike_id":"6a83d980-884c-45e1-a713-f3335ce45d35","system_id":"levelo_inurba_marseille","lat":43.32042,"lon":5.41545,"is_reserved":false,"is_disabled":false,"rental_uris":{"android":"levelo://app?vid=6a83d980-884c-45e1-a713-f3335ce45d35","ios":"levelo://app?vid=6a83d980-884c-45e1-a713-f3335ce45d35"},"vehicle_type_id":"4","last_reported":1726826982,"current_range_meters":8000,"station_id":"ce4bhq92rcd13ifvqhkg","pricing_plan_id":"cebpf4jnsgd1na2vs0mg"},{"bike_id":"ffa23234-c1ea-4d00-b640-cd73b1915784","system_id":"levelo_inurba_marseille","lat":43.31989,"lon":5.38149,"is_reserved":false,"is_disabled":false,"rental_uris":{"android":"levelo://app?vid=ffa23234-c1ea-4d00-b640-cd73b1915784","ios":"levelo://app?vid=ffa23234-c1ea-4d00-b640-cd73b1915784"},"vehicle_type_id":"4","last_reported":1726826982,"current_range_meters":8800,"station_id":"ce4bhr12rcd13ifvqhpg","pricing_plan_id":"cebpf4jnsgd1na2vs0mg"},{"bike_id":"b87c8417-c59f-418d-bd60-25eb8e63567c","system_id":"levelo_inurba_marseille","lat":43.30542,"lon":5.36704,"is_reserved":false,"is_disabled":false,"rental_uris":{"android":"levelo://app?vid=b87c8417-c59f-418d-bd60-25eb8e63567c","ios":"levelo://app?vid=b87c8417-c59f-418d-bd60-25eb8e63567c"},"vehicle_type_id":"4","last_reported":1726826982,"current_range_meters":26000,"station_id":"ce4bgrp2rcd13ifvqc9g","pricing_plan_id":"cebpf4jnsgd1na2vs0mg"},{"bike_id":"fe524a16-f94c-4f08-8176-0a02085f9adb","system_id":"levelo_inurba_marseille","lat":43.313293,"lon":5.396919,"is_reserved":false,"is_disabled":false,"rental_uris":{"android":"levelo://app?vid=fe524a16-f94c-4f08-8176-0a02085f9adb","ios":"levelo://app?vid=fe524a16-f94c-4f08-8176-0a02085f9adb"},"vehicle_type_id":"4","last_reported":1726826982,"current_range_meters":12400,"station_id":"ce4bgvp2rcd13ifvqcu0","pricing_plan_id":"cebpf4jnsgd1na2vs0mg"},{"bike_id":"dfa25865-d491-4319-ac0d-4a43b0719215","system_id":"levelo_inurba_marseille","lat":43.3248,"lon":5.36572,"is_reserved":false,"is_disabled":false,"rental_uris":{"android":"levelo://app?vid=dfa25865-d491-4319-ac0d-4a43b0719215","ios":"levelo://app?vid=dfa25865-d491-4319-ac0d-4a43b0719215"},"vehicle_type_id":"4","last_reported":1726826982,"current_range_meters":7200,"station_id":"ce4bhs12rcd13ifvqhvg","pricing_plan_id":"cebpf4jnsgd1na2vs0mg"},{"bike_id":"58014cc6-4f39-4119-a8a0-cdc0e2507820","system_id":"levelo_inurba_marseille","lat":43.32292,"lon":5.38263,"is_reserved":false,"is_disabled":false,"rental_uris":{"android":"levelo://app?vid=58014cc6-4f39-4119-a8a0-cdc0e2507820","ios":"levelo://app?vid=58014cc6-4f39-4119-a8a0-cdc0e2507820"},"vehicle_type_id":"4","last_reported":1726826982,"current_range_meters":40000,"station_id":"ce4bhr12rcd13ifvqhqg","pricing_plan_id":"cebpf4jnsgd1na2vs0mg"},{"bike_id":"aa3d35ac-cbfb-4b4f-95bc-7a51e515062a","system_id":"levelo_inurba_marseille","lat":43.29579,"lon":5.37515,"is_reserved":false,"is_disabled":false,"rental_uris":{"android":"levelo://app?vid=aa3d35ac-cbfb-4b4f-95bc-7a51e515062a","ios":"levelo://app?vid=aa3d35ac-cbfb-4b4f-95bc-7a51e515062a"},"vehicle_type_id":"4","last_reported":1726826982,"current_range_meters":36000,"station_id":"ce4bgh92rcd13ifvqb50","pricing_plan_id":"cebpf4jnsgd1na2vs0mg"},{"bike_id":"4bae59d3-f17e-419d-add2-830aa9e9ce01","system_id":"levelo_inurba_marseille","lat":43.29296,"lon":5.37464,"is_reserved":false,"is_disabled":false,"rental_uris":{"android":"levelo://app?vid=4bae59d3-f17e-419d-add2-830aa9e9ce01","ios":"levelo://app?vid=4bae59d3-f17e-419d-add2-830aa9e9ce01"},"vehicle_type_id":"4","last_reported":1726826982,"current_range_meters":20000,"station_id":"ce4bgi12rcd13ifvqb70","pricing_plan_id":"cebpf4jnsgd1na2vs0mg"},{"bike_id":"14157212-06d6-4688-8139-63040cece655","system_id":"levelo_inurba_marseille","lat":43.31353,"lon":5.36704,"is_reserved":false,"is_disabled":false,"rental_uris":{"android":"levelo://app?vid=14157212-06d6-4688-8139-63040cece655","ios":"levelo://app?vid=14157212-06d6-4688-8139-63040cece655"},"vehicle_type_id":"4","last_reported":1726826982,"current_range_meters":35600,"station_id":"ce4bgr92rcd13ifvqc6g","pricing_plan_id":"cebpf4jnsgd1na2vs0mg"},{"bike_id":"8c18c09c-856a-4869-917a-c5ce5d04a0df","system_id":"levelo_inurba_marseille","lat":43.30146,"lon":5.38084,"is_reserved":false,"is_disabled":false,"rental_uris":{"android":"levelo://app?vid=8c18c09c-856a-4869-917a-c5ce5d04a0df","ios":"levelo://app?vid=8c18c09c-856a-4869-917a-c5ce5d04a0df"},"vehicle_type_id":"4","last_reported":1726826982,"current_range_meters":32000,"station_id":"ce4bgjp2rcd13ifvqbh0","pricing_plan_id":"cebpf4jnsgd1na2vs0mg"},{"bike_id":"2c805b3b-a495-4180-86b7-d5d239ddc3de","system_id":"levelo_inurba_marseille","lat":43.27493,"lon":5.42457,"is_reserved":false,"is_disabled":false,"rental_uris":{"android":"levelo://app?vid=2c805b3b-a495-4180-86b7-d5d239ddc3de","ios":"levelo://app?vid=2c805b3b-a495-4180-86b7-d5d239ddc3de"},"vehicle_type_id":"4","last_reported":1726826982,"current_range_meters":27600,"station_id":"ce4bhn92rcd13ifvqgrg","pricing_plan_id":"cebpf4jnsgd1na2vs0mg"},{"bike_id":"bce83964-771d-421d-a795-c2b376c5b9dc","system_id":"levelo_inurba_marseille","lat":43.23197,"lon":5.35559,"is_reserved":false,"is_disabled":false,"rental_uris":{"android":"levelo://app?vid=bce83964-771d-421d-a795-c2b376c5b9dc","ios":"levelo://app?vid=bce83964-771d-421d-a795-c2b376c5b9dc"},"vehicle_type_id":"4","last_reported":1726826982,"current_range_meters":18800,"station_id":"ce4bhu92rcd13ifvqi70","pricing_plan_id":"cebpf4jnsgd1na2vs0mg"},{"bike_id":"9946c7c1-813d-4973-83c5-91ccb80a9cc2","system_id":"levelo_inurba_marseille","lat":43.32291,"lon":5.38285,"is_reserved":false,"is_disabled":false,"rental_uris":{"android":"levelo://app?vid=9946c7c1-813d-4973-83c5-91ccb80a9cc2","ios":"levelo://app?vid=9946c7c1-813d-4973-83c5-91ccb80a9cc2"},"vehicle_type_id":"4","last_reported":1726826982,"current_range_meters":18800,"station_id":"ce4bhr12rcd13ifvqhqg","pricing_plan_id":"cebpf4jnsgd1na2vs0mg"},{"bike_id":"bbc76106-b2f1-467b-ab85-c6f6f0b65921","system_id":"levelo_inurba_marseille","lat":43.28661,"lon":5.3867,"is_reserved":false,"is_disabled":false,"rental_uris":{"android":"levelo://app?vid=bbc76106-b2f1-467b-ab85-c6f6f0b65921","ios":"levelo://app?vid=bbc76106-b2f1-467b-ab85-c6f6f0b65921"},"vehicle_type_id":"4","last_reported":1726826982,"current_range_meters":38800,"station_id":"ce4bh492rcd13ifvqdug","pricing_plan_id":"cebpf4jnsgd1na2vs0mg"},{"bike_id":"6c648bdd-85eb-4664-b61b-fc07a11b6677","system_id":"levelo_inurba_marseille","lat":43.26553,"lon":5.37284,"is_reserved":false,"is_disabled":false,"rental_uris":{"android":"levelo://app?vid=6c648bdd-85eb-4664-b61b-fc07a11b6677","ios":"levelo://app?vid=6c648bdd-85eb-4664-b61b-fc07a11b6677"},"vehicle_type_id":"4","last_reported":1726826982,"current_range_meters":14400,"station_id":"ce4bhg12rcd13ifvqf70","pricing_plan_id":"cebpf4jnsgd1na2vs0mg"},{"bike_id":"63478cfc-fe19-4128-90c9-d9ff3e6b9a45","system_id":"levelo_inurba_marseille","lat":43.32365,"lon":5.38878,"is_reserved":false,"is_disabled":false,"rental_uris":{"android":"levelo://app?vid=63478cfc-fe19-4128-90c9-d9ff3e6b9a45","ios":"levelo://app?vid=63478cfc-fe19-4128-90c9-d9ff3e6b9a45"},"vehicle_type_id":"4","last_reported":1726826982,"current_range_meters":28800,"station_id":"ce4bhqp2rcd13ifvqhog","pricing_plan_id":"cebpf4jnsgd1na2vs0mg"},{"bike_id":"3a5970ee-b014-47da-8eb7-fc0257a68477","system_id":"levelo_inurba_marseille","lat":43.33611,"lon":5.41031,"is_reserved":false,"is_disabled":false,"rental_uris":{"android":"levelo://app?vid=3a5970ee-b014-47da-8eb7-fc0257a68477","ios":"levelo://app?vid=3a5970ee-b014-47da-8eb7-fc0257a68477"},"vehicle_type_id":"4","last_reported":1726826982,"current_range_meters":25200,"station_id":"ce4bhqh2rcd13ifvqhmg","pricing_plan_id":"cebpf4jnsgd1na2vs0mg"},{"bike_id":"eb02f69f-3812-417c-a5fe-3857af318813","system_id":"levelo_inurba_marseille","lat":43.26785,"lon":5.39406,"is_reserved":false,"is_disabled":false,"rental_uris":{"android":"levelo://app?vid=eb02f69f-3812-417c-a5fe-3857af318813","ios":"levelo://app?vid=eb02f69f-3812-417c-a5fe-3857af318813"},"vehicle_type_id":"4","last_reported":1726826982,"current_range_meters":37600,"station_id":"ce4bhh12rcd13ifvqfg0","pricing_plan_id":"cebpf4jnsgd1na2vs0mg"},{"bike_id":"9996f452-e120-4cf1-96ae-bd20e805ba3b","system_id":"levelo_inurba_marseille","lat":43.30807,"lon":5.38141,"is_reserved":false,"is_disabled":false,"rental_uris":{"android":"levelo://app?vid=9996f452-e120-4cf1-96ae-bd20e805ba3b","ios":"levelo://app?vid=9996f452-e120-4cf1-96ae-bd20e805ba3b"},"vehicle_type_id":"4","last_reported":1726826982,"current_range_meters":35600,"station_id":"ce4bgt12rcd13ifvqce0","pricing_plan_id":"cebpf4jnsgd1na2vs0mg"},{"bike_id":"e9871919-1eb4-4e34-b09a-ba31cfe71d77","system_id":"levelo_inurba_marseille","lat":43.30533,"lon":5.38425,"is_reserved":false,"is_disabled":false,"rental_uris":{"android":"levelo://app?vid=e9871919-1eb4-4e34-b09a-ba31cfe71d77","ios":"levelo://app?vid=e9871919-1eb4-4e34-b09a-ba31cfe71d77"},"vehicle_type_id":"4","last_reported":1726826982,"current_range_meters":38000,"station_id":"ce4bgg92rcd13ifvqb30","pricing_plan_id":"cebpf4jnsgd1na2vs0mg"},{"bike_id":"fa2e946d-01fe-4bb4-a2b0-55af60a0bcec","system_id":"levelo_inurba_marseille","lat":43.33712,"lon":5.3919,"is_reserved":false,"is_disabled":false,"rental_uris":{"android":"levelo://app?vid=fa2e946d-01fe-4bb4-a2b0-55af60a0bcec","ios":"levelo://app?vid=fa2e946d-01fe-4bb4-a2b0-55af60a0bcec"},"vehicle_type_id":"4","last_reported":1726826982,"current_range_meters":36800,"station_id":"ce4bhr92rcd13ifvqhsg","pricing_plan_id":"cebpf4jnsgd1na2vs0mg"},{"bike_id":"c33add25-123c-4b36-8cf5-b7923beb3261","system_id":"levelo_inurba_marseille","lat":43.32488,"lon":5.36565,"is_reserved":false,"is_disabled":false,"rental_uris":{"android":"levelo://app?vid=c33add25-123c-4b36-8cf5-b7923beb3261","ios":"levelo://app?vid=c33add25-123c-4b36-8cf5-b7923beb3261"},"vehicle_type_id":"4","last_reported":1726826982,"current_range_meters":21600,"station_id":"ce4bhs12rcd13ifvqhvg","pricing_plan_id":"cebpf4jnsgd1na2vs0mg"},{"bike_id":"1556d40c-3bc6-4ccb-917c-cc814b98e117","system_id":"levelo_inurba_marseille","lat":43.2656,"lon":5.37288,"is_reserved":false,"is_disabled":false,"rental_uris":{"android":"levelo://app?vid=1556d40c-3bc6-4ccb-917c-cc814b98e117","ios":"levelo://app?vid=1556d40c-3bc6-4ccb-917c-cc814b98e117"},"vehicle_type_id":"4","last_reported":1726826982,"current_range_meters":17600,"station_id":"ce4bhg12rcd13ifvqf70","pricing_plan_id":"cebpf4jnsgd1na2vs0mg"},{"bike_id":"11d9698c-d3bf-48ca-a9ce-d5ad0d09c0f7","system_id":"levelo_inurba_marseille","lat":43.32546,"lon":5.41442,"is_reserved":false,"is_disabled":false,"rental_uris":{"android":"levelo://app?vid=11d9698c-d3bf-48ca-a9ce-d5ad0d09c0f7","ios":"levelo://app?vid=11d9698c-d3bf-48ca-a9ce-d5ad0d09c0f7"},"vehicle_type_id":"4","last_reported":1726826982,"current_range_meters":37600,"station_id":"ce4bhq12rcd13ifvqhhg","pricing_plan_id":"cebpf4jnsgd1na2vs0mg"},{"bike_id":"f31d9428-ec7a-407a-ae14-18a825a7d768","system_id":"levelo_inurba_marseille","lat":43.28842,"lon":5.39306,"is_reserved":false,"is_disabled":false,"rental_uris":{"android":"levelo://app?vid=f31d9428-ec7a-407a-ae14-18a825a7d768","ios":"levelo://app?vid=f31d9428-ec7a-407a-ae14-18a825a7d768"},"vehicle_type_id":"4","last_reported":1726826982,"current_range_meters":30000,"station_id":"ce4bh2p2rcd13ifvqdi0","pricing_plan_id":"cebpf4jnsgd1na2vs0mg"},{"bike_id":"7b2e01c0-d2a8-4b61-998f-ae9716277f02","system_id":"levelo_inurba_marseille","lat":43.33027,"lon":5.39046,"is_reserved":false,"is_disabled":false,"rental_uris":{"android":"levelo://app?vid=7b2e01c0-d2a8-4b61-998f-ae9716277f02","ios":"levelo://app?vid=7b2e01c0-d2a8-4b61-998f-ae9716277f02"},"vehicle_type_id":"4","last_reported":1726826982,"current_range_meters":6400,"station_id":"ce4bhr92rcd13ifvqhrg","pricing_plan_id":"cebpf4jnsgd1na2vs0mg"},{"bike_id":"9da6d2b5-5f08-48ad-803f-fd5005db9741","system_id":"levelo_inurba_marseille","lat":43.30471,"lon":5.37908,"is_reserved":false,"is_disabled":false,"rental_uris":{"android":"levelo://app?vid=9da6d2b5-5f08-48ad-803f-fd5005db9741","ios":"levelo://app?vid=9da6d2b5-5f08-48ad-803f-fd5005db9741"},"vehicle_type_id":"4","last_reported":1726826982,"current_range_meters":37600,"station_id":"ce4bgup2rcd13ifvqcn0","pricing_plan_id":"cebpf4jnsgd1na2vs0mg"},{"bike_id":"f6afed58-cf55-4d3c-8813-dc533e765c78","system_id":"levelo_inurba_marseille","lat":43.33605,"lon":5.41022,"is_reserved":false,"is_disabled":false,"rental_uris":{"android":"levelo://app?vid=f6afed58-cf55-4d3c-8813-dc533e765c78","ios":"levelo://app?vid=f6afed58-cf55-4d3c-8813-dc533e765c78"},"vehicle_type_id":"4","last_reported":1726826982,"current_range_meters":9200,"station_id":"ce4bhqh2rcd13ifvqhmg","pricing_plan_id":"cebpf4jnsgd1na2vs0mg"},{"bike_id":"ad8247a2-dc12-444b-8345-df66ce7b2f49","system_id":"levelo_inurba_marseille","lat":43.30599,"lon":5.37216,"is_reserved":false,"is_disabled":false,"rental_uris":{"android":"levelo://app?vid=ad8247a2-dc12-444b-8345-df66ce7b2f49","ios":"levelo://app?vid=ad8247a2-dc12-444b-8345-df66ce7b2f49"},"vehicle_type_id":"4","last_reported":1726826982,"current_range_meters":22000,"station_id":"ce4bgqh2rcd13ifvqc4g","pricing_plan_id":"cebpf4jnsgd1na2vs0mg"},{"bike_id":"0271e760-394a-46af-97f8-ff6577a27277","system_id":"levelo_inurba_marseille","lat":43.30537,"lon":5.36553,"is_reserved":false,"is_disabled":false,"rental_uris":{"android":"levelo://app?vid=0271e760-394a-46af-97f8-ff6577a27277","ios":"levelo://app?vid=0271e760-394a-46af-97f8-ff6577a27277"},"vehicle_type_id":"4","last_reported":1726826982,"current_range_meters":22800,"station_id":"ce4bgs12rcd13ifvqcag","pricing_plan_id":"cebpf4jnsgd1na2vs0mg"},{"bike_id":"517aabc5-f8a6-4fe2-bcfc-9786db0d86c0","system_id":"levelo_inurba_marseille","lat":43.24081,"lon":5.3775,"is_reserved":false,"is_disabled":false,"rental_uris":{"android":"levelo://app?vid=517aabc5-f8a6-4fe2-bcfc-9786db0d86c0","ios":"levelo://app?vid=517aabc5-f8a6-4fe2-bcfc-9786db0d86c0"},"vehicle_type_id":"4","last_reported":1726826982,"current_range_meters":31200,"station_id":"ce4bhnp2rcd13ifvqgvg","pricing_plan_id":"cebpf4jnsgd1na2vs0mg"},{"bike_id":"67c0d9da-13b7-41ac-a1be-c7de728164e4","system_id":"levelo_inurba_marseille","lat":43.29559,"lon":5.42287,"is_reserved":false,"is_disabled":false,"rental_uris":{"android":"levelo://app?vid=67c0d9da-13b7-41ac-a1be-c7de728164e4","ios":"levelo://app?vid=67c0d9da-13b7-41ac-a1be-c7de728164e4"},"vehicle_type_id":"4","last_reported":1726826982,"current_range_meters":33600,"station_id":"ce4bhph2rcd13ifvqhdg","pricing_plan_id":"cebpf4jnsgd1na2vs0mg"},{"bike_id":"71759e84-86fd-4e9f-9e60-e84d559aeab9","system_id":"levelo_inurba_marseille","lat":43.29515,"lon":5.39058,"is_reserved":false,"is_disabled":false,"rental_uris":{"android":"levelo://app?vid=71759e84-86fd-4e9f-9e60-e84d559aeab9","ios":"levelo://app?vid=71759e84-86fd-4e9f-9e60-e84d559aeab9"},"vehicle_type_id":"4","last_reported":1726826982,"current_range_meters":31200,"station_id":"ce4bh3p2rcd13ifvqdp0","pricing_plan_id":"cebpf4jnsgd1na2vs0mg"},{"bike_id":"72bcddfa-ed2c-411b-aad3-c3339456e0fb","system_id":"levelo_inurba_marseille","lat":43.27206,"lon":5.39182,"is_reserved":false,"is_disabled":false,"rental_uris":{"android":"levelo://app?vid=72bcddfa-ed2c-411b-aad3-c3339456e0fb","ios":"levelo://app?vid=72bcddfa-ed2c-411b-aad3-c3339456e0fb"},"vehicle_type_id":"4","last_reported":1726826982,"current_range_meters":38800,"station_id":"ce4bhhp2rcd13ifvqfm0","pricing_plan_id":"cebpf4jnsgd1na2vs0mg"},{"bike_id":"bdad65f2-31ba-454a-9ba4-d246d4a99f28","system_id":"levelo_inurba_marseille","lat":43.2707,"lon":5.42273,"is_reserved":false,"is_disabled":false,"rental_uris":{"android":"levelo://app?vid=bdad65f2-31ba-454a-9ba4-d246d4a99f28","ios":"levelo://app?vid=bdad65f2-31ba-454a-9ba4-d246d4a99f28"},"vehicle_type_id":"4","last_reported":1726826982,"current_range_meters":36000,"station_id":"ce4bhk92rcd13ifvqgb0","pricing_plan_id":"cebpf4jnsgd1na2vs0mg"},{"bike_id":"fa690805-233a-4a70-a9f3-33f1b67cdb1f","system_id":"levelo_inurba_marseille","lat":43.32296,"lon":5.38259,"is_reserved":false,"is_disabled":false,"rental_uris":{"android":"levelo://app?vid=fa690805-233a-4a70-a9f3-33f1b67cdb1f","ios":"levelo://app?vid=fa690805-233a-4a70-a9f3-33f1b67cdb1f"},"vehicle_type_id":"4","last_reported":1726826982,"current_range_meters":18800,"station_id":"ce4bhr12rcd13ifvqhqg","pricing_plan_id":"cebpf4jnsgd1na2vs0mg"},{"bike_id":"d1dfb739-bbeb-4e5d-ab10-98682a00181f","system_id":"levelo_inurba_marseille","lat":43.30088,"lon":5.39078,"is_reserved":false,"is_disabled":false,"rental_uris":{"android":"levelo://app?vid=d1dfb739-bbeb-4e5d-ab10-98682a00181f","ios":"levelo://app?vid=d1dfb739-bbeb-4e5d-ab10-98682a00181f"},"vehicle_type_id":"4","last_reported":1726826982,"current_range_meters":38400,"station_id":"ce4bh192rcd13ifvqdb0","pricing_plan_id":"cebpf4jnsgd1na2vs0mg"},{"bike_id":"577e435a-f36c-4883-b6f0-c48021798d60","system_id":"levelo_inurba_marseille","lat":43.23152,"lon":5.43712,"is_reserved":false,"is_disabled":false,"rental_uris":{"android":"levelo://app?vid=577e435a-f36c-4883-b6f0-c48021798d60","ios":"levelo://app?vid=577e435a-f36c-4883-b6f0-c48021798d60"},"vehicle_type_id":"4","last_reported":1726826982,"current_range_meters":39200,"station_id":"ce4bhmp2rcd13ifvqgog","pricing_plan_id":"cebpf4jnsgd1na2vs0mg"},{"bike_id":"9205eb9c-8d6f-4228-9d94-a61eb2d3095f","system_id":"levelo_inurba_marseille","lat":43.30538,"lon":5.36542,"is_reserved":false,"is_disabled":false,"rental_uris":{"android":"levelo://app?vid=9205eb9c-8d6f-4228-9d94-a61eb2d3095f","ios":"levelo://app?vid=9205eb9c-8d6f-4228-9d94-a61eb2d3095f"},"vehicle_type_id":"4","last_reported":1726826982,"current_range_meters":11600,"station_id":"ce4bgs12rcd13ifvqcag","pricing_plan_id":"cebpf4jnsgd1na2vs0mg"},{"bike_id":"728a6da4-dd0c-42ed-bc4c-72c30d202825","system_id":"levelo_inurba_marseille","lat":43.32481,"lon":5.36558,"is_reserved":false,"is_disabled":false,"rental_uris":{"android":"levelo://app?vid=728a6da4-dd0c-42ed-bc4c-72c30d202825","ios":"levelo://app?vid=728a6da4-dd0c-42ed-bc4c-72c30d202825"},"vehicle_type_id":"4","last_reported":1726826982,"current_range_meters":27600,"station_id":"ce4bhs12rcd13ifvqhvg","pricing_plan_id":"cebpf4jnsgd1na2vs0mg"},{"bike_id":"b2763354-ec6c-4733-8de6-6c4493759ae9","system_id":"levelo_inurba_marseille","lat":43.29058,"lon":5.40172,"is_reserved":false,"is_disabled":false,"rental_uris":{"android":"levelo://app?vid=b2763354-ec6c-4733-8de6-6c4493759ae9","ios":"levelo://app?vid=b2763354-ec6c-4733-8de6-6c4493759ae9"},"vehicle_type_id":"4","last_reported":1726826982,"current_range_meters":21600,"station_id":"","pricing_plan_id":"cebpf4jnsgd1na2vs0mg"},{"bike_id":"28f2bc4c-1aba-4100-9a11-f7303d9cae74","system_id":"levelo_inurba_marseille","lat":43.2721,"lon":5.39173,"is_reserved":false,"is_disabled":false,"rental_uris":{"android":"levelo://app?vid=28f2bc4c-1aba-4100-9a11-f7303d9cae74","ios":"levelo://app?vid=28f2bc4c-1aba-4100-9a11-f7303d9cae74"},"vehicle_type_id":"4","last_reported":1726826982,"current_range_meters":8400,"station_id":"ce4bhhp2rcd13ifvqfm0","pricing_plan_id":"cebpf4jnsgd1na2vs0mg"},{"bike_id":"ac70f898-127e-4be6-878a-f17419392429","system_id":"levelo_inurba_marseille","lat":43.30907,"lon":5.36854,"is_reserved":false,"is_disabled":false,"rental_uris":{"android":"levelo://app?vid=ac70f898-127e-4be6-878a-f17419392429","ios":"levelo://app?vid=ac70f898-127e-4be6-878a-f17419392429"},"vehicle_type_id":"4","last_reported":1726826982,"current_range_meters":38800,"station_id":"ce4bgn92rcd13ifvqbvg","pricing_plan_id":"cebpf4jnsgd1na2vs0mg"},{"bike_id":"1e1a9115-7948-4fa1-97e3-030c44408b4c","system_id":"levelo_inurba_marseille","lat":43.30976,"lon":5.39036,"is_reserved":false,"is_disabled":false,"rental_uris":{"android":"levelo://app?vid=1e1a9115-7948-4fa1-97e3-030c44408b4c","ios":"levelo://app?vid=1e1a9115-7948-4fa1-97e3-030c44408b4c"},"vehicle_type_id":"4","last_reported":1726826982,"current_range_meters":38800,"station_id":"ce4bgup2rcd13ifvqco0","pricing_plan_id":"cebpf4jnsgd1na2vs0mg"},{"bike_id":"b8e7f14b-e520-4a35-9eb5-a28d662d367d","system_id":"levelo_inurba_marseille","lat":43.29043,"lon":5.39967,"is_reserved":false,"is_disabled":false,"rental_uris":{"android":"levelo://app?vid=b8e7f14b-e520-4a35-9eb5-a28d662d367d","ios":"levelo://app?vid=b8e7f14b-e520-4a35-9eb5-a28d662d367d"},"vehicle_type_id":"4","last_reported":1726826982,"current_range_meters":26000,"station_id":"ce4bh392rcd13ifvqdm0","pricing_plan_id":"cebpf4jnsgd1na2vs0mg"},{"bike_id":"fe780c9c-7e13-4b38-81ce-ea43f071d76c","system_id":"levelo_inurba_marseille","lat":43.23061,"lon":5.35495,"is_reserved":false,"is_disabled":false,"rental_uris":{"android":"levelo://app?vid=fe780c9c-7e13-4b38-81ce-ea43f071d76c","ios":"levelo://app?vid=fe780c9c-7e13-4b38-81ce-ea43f071d76c"},"vehicle_type_id":"4","last_reported":1726826982,"current_range_meters":30800,"station_id":"cpo3342slgdg3j2ifvpg","pricing_plan_id":"cebpf4jnsgd1na2vs0mg"},{"bike_id":"d0b2ff22-3516-4423-9cef-584b140cdde6","system_id":"levelo_inurba_marseille","lat":43.25101,"lon":5.40322,"is_reserved":false,"is_disabled":false,"rental_uris":{"android":"levelo://app?vid=d0b2ff22-3516-4423-9cef-584b140cdde6","ios":"levelo://app?vid=d0b2ff22-3516-4423-9cef-584b140cdde6"},"vehicle_type_id":"4","last_reported":1726826982,"current_range_meters":24400,"station_id":"ce4bhlh2rcd13ifvqgig","pricing_plan_id":"cebpf4jnsgd1na2vs0mg"},{"bike_id":"df26bd81-cd3d-4de2-8ca3-706d698f32af","system_id":"levelo_inurba_marseille","lat":43.32481,"lon":5.36572,"is_reserved":false,"is_disabled":false,"rental_uris":{"android":"levelo://app?vid=df26bd81-cd3d-4de2-8ca3-706d698f32af","ios":"levelo://app?vid=df26bd81-cd3d-4de2-8ca3-706d698f32af"},"vehicle_type_id":"4","last_reported":1726826982,"current_range_meters":9200,"station_id":"ce4bhs12rcd13ifvqhvg","pricing_plan_id":"cebpf4jnsgd1na2vs0mg"},{"bike_id":"ca4483da-f75f-4664-b2d3-adc079419f38","system_id":"levelo_inurba_marseille","lat":43.29871,"lon":5.39723,"is_reserved":false,"is_disabled":false,"rental_uris":{"android":"levelo://app?vid=ca4483da-f75f-4664-b2d3-adc079419f38","ios":"levelo://app?vid=ca4483da-f75f-4664-b2d3-adc079419f38"},"vehicle_type_id":"4","last_reported":1726826982,"current_range_meters":30800,"station_id":"ce4bh0h2rcd13ifvqd50","pricing_plan_id":"cebpf4jnsgd1na2vs0mg"},{"bike_id":"e03a9422-4cc4-4cb5-91df-015ff345c5a8","system_id":"levelo_inurba_marseille","lat":43.30551,"lon":5.36559,"is_reserved":false,"is_disabled":false,"rental_uris":{"android":"levelo://app?vid=e03a9422-4cc4-4cb5-91df-015ff345c5a8","ios":"levelo://app?vid=e03a9422-4cc4-4cb5-91df-015ff345c5a8"},"vehicle_type_id":"4","last_reported":1726826982,"current_range_meters":16400,"station_id":"ce4bgs12rcd13ifvqcag","pricing_plan_id":"cebpf4jnsgd1na2vs0mg"},{"bike_id":"0653cb10-c12e-4c27-af75-8f3495a98f89","system_id":"levelo_inurba_marseille","lat":43.32293,"lon":5.3827,"is_reserved":false,"is_disabled":false,"rental_uris":{"android":"levelo://app?vid=0653cb10-c12e-4c27-af75-8f3495a98f89","ios":"levelo://app?vid=0653cb10-c12e-4c27-af75-8f3495a98f89"},"vehicle_type_id":"4","last_reported":1726826982,"current_range_meters":6400,"station_id":"ce4bhr12rcd13ifvqhqg","pricing_plan_id":"cebpf4jnsgd1na2vs0mg"},{"bike_id":"f70da415-1fb2-4ed4-98cb-0261a21f6989","system_id":"levelo_inurba_marseille","lat":43.23155,"lon":5.43721,"is_reserved":false,"is_disabled":false,"rental_uris":{"android":"levelo://app?vid=f70da415-1fb2-4ed4-98cb-0261a21f6989","ios":"levelo://app?vid=f70da415-1fb2-4ed4-98cb-0261a21f6989"},"vehicle_type_id":"4","last_reported":1726826982,"current_range_meters":11200,"station_id":"ce4bhmp2rcd13ifvqgog","pricing_plan_id":"cebpf4jnsgd1na2vs0mg"},{"bike_id":"53e6a2c8-0873-4dd3-a562-3683c172cb28","system_id":"levelo_inurba_marseille","lat":43.32341,"lon":5.40615,"is_reserved":false,"is_disabled":false,"rental_uris":{"android":"levelo://app?vid=53e6a2c8-0873-4dd3-a562-3683c172cb28","ios":"levelo://app?vid=53e6a2c8-0873-4dd3-a562-3683c172cb28"},"vehicle_type_id":"4","last_reported":1726826982,"current_range_meters":32000,"station_id":"ce4bhq92rcd13ifvqhjg","pricing_plan_id":"cebpf4jnsgd1na2vs0mg"},{"bike_id":"231729a9-7353-433b-86c7-c88fa65fd805","system_id":"levelo_inurba_marseille","lat":43.31226,"lon":5.36863,"is_reserved":false,"is_disabled":false,"rental_uris":{"android":"levelo://app?vid=231729a9-7353-433b-86c7-c88fa65fd805","ios":"levelo://app?vid=231729a9-7353-433b-86c7-c88fa65fd805"},"vehicle_type_id":"4","last_reported":1726826982,"current_range_meters":38400,"station_id":"ce4bgl92rcd13ifvqbq0","pricing_plan_id":"cebpf4jnsgd1na2vs0mg"},{"bike_id":"c2c9a555-6ec8-4b92-b33e-073571605c93","system_id":"levelo_inurba_marseille","lat":43.23192,"lon":5.35546,"is_reserved":false,"is_disabled":false,"rental_uris":{"android":"levelo://app?vid=c2c9a555-6ec8-4b92-b33e-073571605c93","ios":"levelo://app?vid=c2c9a555-6ec8-4b92-b33e-073571605c93"},"vehicle_type_id":"4","last_reported":1726826982,"current_range_meters":27600,"station_id":"ce4bhu92rcd13ifvqi70","pricing_plan_id":"cebpf4jnsgd1na2vs0mg"},{"bike_id":"7423bf83-fed1-4906-99d8-9967fcb8911a","system_id":"levelo_inurba_marseille","lat":43.28154,"lon":5.42655,"is_reserved":false,"is_disabled":false,"rental_uris":{"android":"levelo://app?vid=7423bf83-fed1-4906-99d8-9967fcb8911a","ios":"levelo://app?vid=7423bf83-fed1-4906-99d8-9967fcb8911a"},"vehicle_type_id":"4","last_reported":1726826982,"current_range_meters":19200,"station_id":"ce4bhnh2rcd13ifvqgug","pricing_plan_id":"cebpf4jnsgd1na2vs0mg"},{"bike_id":"62997862-0566-49dc-92c6-a8477c05ade8","system_id":"levelo_inurba_marseille","lat":43.27073,"lon":5.42277,"is_reserved":false,"is_disabled":false,"rental_uris":{"android":"levelo://app?vid=62997862-0566-49dc-92c6-a8477c05ade8","ios":"levelo://app?vid=62997862-0566-49dc-92c6-a8477c05ade8"},"vehicle_type_id":"4","last_reported":1726826982,"current_range_meters":37600,"station_id":"ce4bhk92rcd13ifvqgb0","pricing_plan_id":"cebpf4jnsgd1na2vs0mg"},{"bike_id":"6bb79fa3-ee0a-4c93-b03f-99cea7e7b637","system_id":"levelo_inurba_marseille","lat":43.25113,"lon":5.40324,"is_reserved":false,"is_disabled":false,"rental_uris":{"android":"levelo://app?vid=6bb79fa3-ee0a-4c93-b03f-99cea7e7b637","ios":"levelo://app?vid=6bb79fa3-ee0a-4c93-b03f-99cea7e7b637"},"vehicle_type_id":"4","last_reported":1726826982,"current_range_meters":26000,"station_id":"ce4bhlh2rcd13ifvqgig","pricing_plan_id":"cebpf4jnsgd1na2vs0mg"},{"bike_id":"a1b6729d-f46c-48a3-8306-f0b5b4640f33","system_id":"levelo_inurba_marseille","lat":43.24077,"lon":5.3775,"is_reserved":false,"is_disabled":false,"rental_uris":{"android":"levelo://app?vid=a1b6729d-f46c-48a3-8306-f0b5b4640f33","ios":"levelo://app?vid=a1b6729d-f46c-48a3-8306-f0b5b4640f33"},"vehicle_type_id":"4","last_reported":1726826982,"current_range_meters":17600,"station_id":"ce4bhnp2rcd13ifvqgvg","pricing_plan_id":"cebpf4jnsgd1na2vs0mg"},{"bike_id":"e4f9870d-ebed-477a-b756-a7004afa1232","system_id":"levelo_inurba_marseille","lat":43.2408,"lon":5.37757,"is_reserved":false,"is_disabled":false,"rental_uris":{"android":"levelo://app?vid=e4f9870d-ebed-477a-b756-a7004afa1232","ios":"levelo://app?vid=e4f9870d-ebed-477a-b756-a7004afa1232"},"vehicle_type_id":"4","last_reported":1726826982,"current_range_meters":32400,"station_id":"ce4bhnp2rcd13ifvqgvg","pricing_plan_id":"cebpf4jnsgd1na2vs0mg"},{"bike_id":"3ea8f54f-9145-4e7d-b8dd-375864b1fadc","system_id":"levelo_inurba_marseille","lat":43.3199,"lon":5.37202,"is_reserved":false,"is_disabled":false,"rental_uris":{"android":"levelo://app?vid=3ea8f54f-9145-4e7d-b8dd-375864b1fadc","ios":"levelo://app?vid=3ea8f54f-9145-4e7d-b8dd-375864b1fadc"},"vehicle_type_id":"4","last_reported":1726826982,"current_range_meters":14400,"station_id":"","pricing_plan_id":"cebpf4jnsgd1na2vs0mg"},{"bike_id":"768f7580-7c1f-4c4a-b9a5-c5bbe0d1c230","system_id":"levelo_inurba_marseille","lat":43.27072,"lon":5.42273,"is_reserved":false,"is_disabled":false,"rental_uris":{"android":"levelo://app?vid=768f7580-7c1f-4c4a-b9a5-c5bbe0d1c230","ios":"levelo://app?vid=768f7580-7c1f-4c4a-b9a5-c5bbe0d1c230"},"vehicle_type_id":"4","last_reported":1726826982,"current_range_meters":25600,"station_id":"ce4bhk92rcd13ifvqgb0","pricing_plan_id":"cebpf4jnsgd1na2vs0mg"},{"bike_id":"6fb9883a-ffb9-47a1-ba7a-85ba9fb767d0","system_id":"levelo_inurba_marseille","lat":43.26062,"lon":5.39397,"is_reserved":false,"is_disabled":false,"rental_uris":{"android":"levelo://app?vid=6fb9883a-ffb9-47a1-ba7a-85ba9fb767d0","ios":"levelo://app?vid=6fb9883a-ffb9-47a1-ba7a-85ba9fb767d0"},"vehicle_type_id":"4","last_reported":1726826982,"current_range_meters":31200,"station_id":"ce4bhh92rcd13ifvqfj0","pricing_plan_id":"cebpf4jnsgd1na2vs0mg"},{"bike_id":"8d040f59-fcc9-40c0-80dc-2159afd0a381","system_id":"levelo_inurba_marseille","lat":43.27373,"lon":5.42716,"is_reserved":false,"is_disabled":false,"rental_uris":{"android":"levelo://app?vid=8d040f59-fcc9-40c0-80dc-2159afd0a381","ios":"levelo://app?vid=8d040f59-fcc9-40c0-80dc-2159afd0a381"},"vehicle_type_id":"4","last_reported":1726826982,"current_range_meters":18000,"station_id":"","pricing_plan_id":"cebpf4jnsgd1na2vs0mg"},{"bike_id":"f4723892-c06a-4785-9026-8bb0fcb8aab9","system_id":"levelo_inurba_marseille","lat":43.27944,"lon":5.38725,"is_reserved":false,"is_disabled":false,"rental_uris":{"android":"levelo://app?vid=f4723892-c06a-4785-9026-8bb0fcb8aab9","ios":"levelo://app?vid=f4723892-c06a-4785-9026-8bb0fcb8aab9"},"vehicle_type_id":"4","last_reported":1726826982,"current_range_meters":37600,"station_id":"ce4bhg12rcd13ifvqf80","pricing_plan_id":"cebpf4jnsgd1na2vs0mg"},{"bike_id":"f3446ab7-70cf-4cb0-a9a6-2f3e6d8674f3","system_id":"levelo_inurba_marseille","lat":43.3014,"lon":5.3742,"is_reserved":false,"is_disabled":false,"rental_uris":{"android":"levelo://app?vid=f3446ab7-70cf-4cb0-a9a6-2f3e6d8674f3","ios":"levelo://app?vid=f3446ab7-70cf-4cb0-a9a6-2f3e6d8674f3"},"vehicle_type_id":"4","last_reported":1726826982,"current_range_meters":24800,"station_id":"ce4bgs92rcd13ifvqcc0","pricing_plan_id":"cebpf4jnsgd1na2vs0mg"},{"bike_id":"825d9211-26a8-4459-aa26-b52a0092f9ce","system_id":"levelo_inurba_marseille","lat":43.30947,"lon":5.39057,"is_reserved":false,"is_disabled":false,"rental_uris":{"android":"levelo://app?vid=825d9211-26a8-4459-aa26-b52a0092f9ce","ios":"levelo://app?vid=825d9211-26a8-4459-aa26-b52a0092f9ce"},"vehicle_type_id":"4","last_reported":1726826982,"current_range_meters":19200,"station_id":"ce4bgup2rcd13ifvqco0","pricing_plan_id":"cebpf4jnsgd1na2vs0mg"},{"bike_id":"a08df66f-9309-4b13-be6f-62e290ba0984","system_id":"levelo_inurba_marseille","lat":43.30952,"lon":5.39033,"is_reserved":false,"is_disabled":false,"rental_uris":{"android":"levelo://app?vid=a08df66f-9309-4b13-be6f-62e290ba0984","ios":"levelo://app?vid=a08df66f-9309-4b13-be6f-62e290ba0984"},"vehicle_type_id":"4","last_reported":1726826982,"current_range_meters":35200,"station_id":"ce4bgup2rcd13ifvqco0","pricing_plan_id":"cebpf4jnsgd1na2vs0mg"},{"bike_id":"44f7f3d8-7452-4dfb-89dd-6d96bbd4ced8","system_id":"levelo_inurba_marseille","lat":43.2894,"lon":5.38407,"is_reserved":false,"is_disabled":false,"rental_uris":{"android":"levelo://app?vid=44f7f3d8-7452-4dfb-89dd-6d96bbd4ced8","ios":"levelo://app?vid=44f7f3d8-7452-4dfb-89dd-6d96bbd4ced8"},"vehicle_type_id":"4","last_reported":1726826982,"current_range_meters":24000,"station_id":"ce4bh612rcd13ifvqe6g","pricing_plan_id":"cebpf4jnsgd1na2vs0mg"},{"bike_id":"88068615-8377-4919-a422-c6e9bcaa3ab4","system_id":"levelo_inurba_marseille","lat":43.32296,"lon":5.38277,"is_reserved":false,"is_disabled":false,"rental_uris":{"android":"levelo://app?vid=88068615-8377-4919-a422-c6e9bcaa3ab4","ios":"levelo://app?vid=88068615-8377-4919-a422-c6e9bcaa3ab4"},"vehicle_type_id":"4","last_reported":1726826982,"current_range_meters":40000,"station_id":"ce4bhr12rcd13ifvqhqg","pricing_plan_id":"cebpf4jnsgd1na2vs0mg"},{"bike_id":"54e48df4-f024-4531-8477-5b9e66c3e008","system_id":"levelo_inurba_marseille","lat":43.27127,"lon":5.39237,"is_reserved":false,"is_disabled":false,"rental_uris":{"android":"levelo://app?vid=54e48df4-f024-4531-8477-5b9e66c3e008","ios":"levelo://app?vid=54e48df4-f024-4531-8477-5b9e66c3e008"},"vehicle_type_id":"4","last_reported":1726826982,"current_range_meters":8000,"station_id":"","pricing_plan_id":"cebpf4jnsgd1na2vs0mg"},{"bike_id":"75d447af-4485-46a0-9311-d69d7ab141cc","system_id":"levelo_inurba_marseille","lat":43.337444,"lon":5.374475,"is_reserved":false,"is_disabled":false,"rental_uris":{"android":"levelo://app?vid=75d447af-4485-46a0-9311-d69d7ab141cc","ios":"levelo://app?vid=75d447af-4485-46a0-9311-d69d7ab141cc"},"vehicle_type_id":"4","last_reported":1726826982,"current_range_meters":28800,"station_id":"ce4bhph2rcd13ifvqhdg","pricing_plan_id":"cebpf4jnsgd1na2vs0mg"},{"bike_id":"68159eba-e301-4077-943e-46befe1273f0","system_id":"levelo_inurba_marseille","lat":43.23195,"lon":5.35565,"is_reserved":false,"is_disabled":false,"rental_uris":{"android":"levelo://app?vid=68159eba-e301-4077-943e-46befe1273f0","ios":"levelo://app?vid=68159eba-e301-4077-943e-46befe1273f0"},"vehicle_type_id":"4","last_reported":1726826982,"current_range_meters":34000,"station_id":"ce4bhu92rcd13ifvqi70","pricing_plan_id":"cebpf4jnsgd1na2vs0mg"},