{"last_updated":1761279161,"ttl":60,"version":"2.2","data":{"bikes":[{"bike_id":"fb603a6e-d69a-4d51-bfd9-ff2268695f70","system_id":"levelo_inurba_marseille","lat":43.31205,"lon":5.38796,"is_reserved":false,"is_disabled":false,"rental_uris":{"android":"levelo://app?vid=fb603a6e-d69a-4d51-bfd9-ff2268695f70","ios":"levelo://app?vid=fb603a6e-d69a-4d51-bfd9-ff2268695f70"},"vehicle_type_id":"4","last_reported":1761279161,"current_range_meters":2800,"station_id":"","pricing_plan_id":"cebpf4jnsgd1na2vs0mg"},{"bike_id":"960a0451-559a-41d1-af46-94a056047301","system_id":"levelo_inurba_marseille","lat":43.28561,"lon":5.39501,"is_reserved":false,"is_disabled":true,"rental_uris":{"android":"levelo://app?vid=960a0451-559a-41d1-af46-94a056047301","ios":"levelo://app?vid=960a0451-559a-41d1-af46-94a056047301"},"vehicle_type_id":"4","last_reported":1761279161,"current_range_meters":3200,"station_id":"ce4bh292rcd13ifvqdg0","pricing_plan_id":"cebpf4jnsgd1na2vs0mg"},{"bike_id":"e6f4e10e-6d72-487a-8252-3250c4b27f98","system_id":"levelo_inurba_marseille","lat":43.211862,"lon":5.350717,"is_reserved":false,"is_disabled":false,"rental_uris":{"android":"levelo://app?vid=e6f4e10e-6d72-487a-8252-3250c4b27f98","ios":"levelo://app?vid=e6f4e10e-6d72-487a-8252-3250c4b27f98"},"vehicle_type_id":"4","last_reported":1761279161,"current_range_meters":3600,"station_id":"st_cvj6sg6p6f1abm77japg","pricing_plan_id":"cebpf4jnsgd1na2vs0mg"},{"bike_id":"02f7835e-8895-43db-bc46-dc0659a292d5","system_id":"levelo_inurba_marseille","lat":43.29331,"lon":5.3707,"is_reserved":false,"is_disabled":false,"rental_uris":{"android":"levelo://app?vid=02f7835e-8895-43db-bc46-dc0659a292d5","ios":"levelo://app?vid=02f7835e-8895-43db-bc46-dc0659a292d5"},"vehicle_type_id":"4","last_reported":1761279161,"current_range_meters":3600,"station_id":"","pricing_plan_id":"cebpf4jnsgd1na2vs0mg"},{"bike_id":"dd20b52b-85a0-4775-a515-79686d351f1e","system_id":"levelo_inurba_marseille","lat":43.29485,"lon":5.43298,"is_reserved":false,"is_disabled":false,"rental_uris":{"android":"levelo://app?vid=dd20b52b-85a0-4775-a515-79686d351f1e","ios":"levelo://app?vid=dd20b52b-85a0-4775-a515-79686d351f1e"},"vehicle_type_id":"4","last_reported":1761279161,"current_range_meters":4000,"station_id":"st_d3j5ugp08ojc73fj9d10","pricing_plan_id":"cebpf4jnsgd1na2vs0mg"},{"bike_id":"82576c51-8b9b-43eb-aa43-fc4a18c9ea5b","system_id":"levelo_inurba_marseille","lat":43.2175,"lon":5.34597,"is_reserved":false,"is_disabled":false,"rental_uris":{"android":"levelo://app?vid=82576c51-8b9b-43eb-aa43-fc4a18c9ea5b","ios":"levelo://app?vid=82576c51-8b9b-43eb-aa43-fc4a18c9ea5b"},"vehicle_type_id":"4","last_reported":1761279161,"current_range_meters":4800,"station_id":"st_cvj6r9ubvosntc0bgbag","pricing_plan_id":"cebpf4jnsgd1na2vs0mg"},{"bike_id":"ff3ba630-dc04-489c-b422-8721b9ddc862","system_id":"levelo_inurba_marseille","lat":43.29854,"lon":5.37786,"is_reserved":false,"is_disabled":false,"rental_uris":{"android":"levelo://app?vid=ff3ba630-dc04-489c-b422-8721b9ddc862","ios":"levelo://app?vid=ff3ba630-dc04-489c-b422-8721b9ddc862"},"vehicle_type_id":"4","last_reported":1761279161,"current_range_meters":4800,"station_id":"","pricing_plan_id":"cebpf4jnsgd1na2vs0mg"},{"bike_id":"096099ea-3d63-4182-8b45-7d5fab40fbbf","system_id":"levelo_inurba_marseille","lat":43.250852,"lon":5.395243,"is_reserved":false,"is_disabled":false,"rental_uris":{"android":"levelo://app?vid=096099ea-3d63-4182-8b45-7d5fab40fbbf","ios":"levelo://app?vid=096099ea-3d63-4182-8b45-7d5fab40fbbf"},"vehicle_type_id":"4","last_reported":1761279161,"current_range_meters":5600,"station_id":"ce4bhm12rcd13ifvqgkg","pricing_plan_id":"cebpf4jnsgd1na2vs0mg"},{"bike_id":"ef6e3d61-5bf7-4555-9dfc-1bda28ba8e43","system_id":"levelo_inurba_marseille","lat":43.31493,"lon":5.37299,"is_reserved":false,"is_disabled":false,"rental_uris":{"android":"levelo://app?vid=ef6e3d61-5bf7-4555-9dfc-1bda28ba8e43","ios":"levelo://app?vid=ef6e3d61-5bf7-4555-9dfc-1bda28ba8e43"},"vehicle_type_id":"4","last_reported":1761279161,"current_range_meters":6000,"station_id":"ce4bgt12rcd13ifvqcd0","pricing_plan_id":"cebpf4jnsgd1na2vs0mg"},{"bike_id":"16ea86f8-d34c-4222-9d2d-e608ddd6d62e","system_id":"levelo_inurba_marseille","lat":43.337673,"lon":5.374655,"is_reserved":false,"is_disabled":false,"rental_uris":{"android":"levelo://app?vid=16ea86f8-d34c-4222-9d2d-e608ddd6d62e","ios":"levelo://app?vid=16ea86f8-d34c-4222-9d2d-e608ddd6d62e"},"vehicle_type_id":"4","last_reported":1761279161,"current_range_meters":6000,"station_id":"","pricing_plan_id":"cebpf4jnsgd1na2vs0mg"},{"bike_id":"f3efb067-32db-4fd5-a6c7-ed1c6ebbf69d","system_id":"levelo_inurba_marseille","lat":43.21191,"lon":5.35085,"is_reserved":false,"is_disabled":true,"rental_uris":{"android":"levelo://app?vid=f3efb067-32db-4fd5-a6c7-ed1c6ebbf69d","ios":"levelo://app?vid=f3efb067-32db-4fd5-a6c7-ed1c6ebbf69d"},"vehicle_type_id":"4","last_reported":1761279161,"current_range_meters":6000,"station_id":"st_cvj6sg6p6f1abm77japg","pricing_plan_id":"cebpf4jnsgd1na2vs0mg"},{"bike_id":"5385651e-5d96-4b05-9e5e-8383228be157","system_id":"levelo_inurba_marseille","lat":43.27892,"lon":5.38001,"is_reserved":false,"is_disabled":true,"rental_uris":{"android":"levelo://app?vid=5385651e-5d96-4b05-9e5e-8383228be157","ios":"levelo://app?vid=5385651e-5d96-4b05-9e5e-8383228be157"},"vehicle_type_id":"4","last_reported":1761279161,"current_range_meters":6000,"station_id":"ce4bhf92rcd13ifvqf50","pricing_plan_id":"cebpf4jnsgd1na2vs0mg"},{"bike_id":"37d01fc8-4b4d-4652-a489-1254eb9d4c80","system_id":"levelo_inurba_marseille","lat":43.34076,"lon":5.40411,"is_reserved":false,"is_disabled":false,"rental_uris":{"android":"levelo://app?vid=37d01fc8-4b4d-4652-a489-1254eb9d4c80","ios":"levelo://app?vid=37d01fc8-4b4d-4652-a489-1254eb9d4c80"},"vehicle_type_id":"4","last_reported":1761279161,"current_range_meters":6000,"station_id":"","pricing_plan_id":"cebpf4jnsgd1na2vs0mg"},{"bike_id":"de88b060-a8d3-4631-9b2a-19bac33a1a68","system_id":"levelo_inurba_marseille","lat":43.307388,"lon":5.424309,"is_reserved":false,"is_disabled":false,"rental_uris":{"android":"levelo://app?vid=de88b060-a8d3-4631-9b2a-19bac33a1a68","ios":"levelo://app?vid=de88b060-a8d3-4631-9b2a-19bac33a1a68"},"vehicle_type_id":"4","last_reported":1761279161,"current_range_meters":6000,"station_id":"st_cvj6ca6bvosntc0bfgr0","pricing_plan_id":"cebpf4jnsgd1na2vs0mg"},{"bike_id":"2087d38d-b561-42de-89f9-544970412313","system_id":"levelo_inurba_marseille","lat":43.265632,"lon":5.403224,"is_reserved":false,"is_disabled":false,"rental_uris":{"android":"levelo://app?vid=2087d38d-b561-42de-89f9-544970412313","ios":"levelo://app?vid=2087d38d-b561-42de-89f9-544970412313"},"vehicle_type_id":"4","last_reported":1761279161,"current_range_meters":6400,"station_id":"ce4bhmp2rcd13ifvqgng","pricing_plan_id":"cebpf4jnsgd1na2vs0mg"},{"bike_id":"3aa8c3e6-230d-4538-ac39-2b944611f536","system_id":"levelo_inurba_marseille","lat":43.313778,"lon":5.366988,"is_reserved":false,"is_disabled":true,"rental_uris":{"android":"levelo://app?vid=3aa8c3e6-230d-4538-ac39-2b944611f536","ios":"levelo://app?vid=3aa8c3e6-230d-4538-ac39-2b944611f536"},"vehicle_type_id":"4","last_reported":1761279161,"current_range_meters":6400,"station_id":"ce4bgr92rcd13ifvqc6g","pricing_plan_id":"cebpf4jnsgd1na2vs0mg"},{"bike_id":"15fb03e4-6c16-4814-a34b-c6b62a456a89","system_id":"levelo_inurba_marseille","lat":43.26493,"lon":5.39549,"is_reserved":false,"is_disabled":false,"rental_uris":{"android":"levelo://app?vid=15fb03e4-6c16-4814-a34b-c6b62a456a89","ios":"levelo://app?vid=15fb03e4-6c16-4814-a34b-c6b62a456a89"},"vehicle_type_id":"4","last_reported":1761279161,"current_range_meters":6800,"station_id":"ce4bhi12rcd13ifvqfq0","pricing_plan_id":"cebpf4jnsgd1na2vs0mg"},{"bike_id":"066d7904-f782-44f2-ad3a-1c9e5c07d120","system_id":"levelo_inurba_marseille","lat":43.31995,"lon":5.38161,"is_reserved":false,"is_disabled":false,"rental_uris":{"android":"levelo://app?vid=066d7904-f782-44f2-ad3a-1c9e5c07d120","ios":"levelo://app?vid=066d7904-f782-44f2-ad3a-1c9e5c07d120"},"vehicle_type_id":"4","last_reported":1761279161,"current_range_meters":6800,"station_id":"ce4bhr12rcd13ifvqhpg","pricing_plan_id":"cebpf4jnsgd1na2vs0mg"},{"bike_id":"eec55ceb-35bf-463f-b309-47456f09b20c","system_id":"levelo_inurba_marseille","lat":43.26569,"lon":5.3902,"is_reserved":false,"is_disabled":false,"rental_uris":{"android":"levelo://app?vid=eec55ceb-35bf-463f-b309-47456f09b20c","ios":"levelo://app?vid=eec55ceb-35bf-463f-b309-47456f09b20c"},"vehicle_type_id":"4","last_reported":1761279161,"current_range_meters":6800,"station_id":"ce4bhe12rcd13ifvqf30","pricing_plan_id":"cebpf4jnsgd1na2vs0mg"},{"bike_id":"6fbe28b3-325b-46c6-9625-f20988936462","system_id":"levelo_inurba_marseille","lat":43.246846,"lon":5.381584,"is_reserved":false,"is_disabled":false,"rental_uris":{"android":"levelo://app?vid=6fbe28b3-325b-46c6-9625-f20988936462","ios":"levelo://app?vid=6fbe28b3-325b-46c6-9625-f20988936462"},"vehicle_type_id":"4","last_reported":1761279161,"current_range_meters":7200,"station_id":"ce4bhih2rcd13ifvqfr0","pricing_plan_id":"cebpf4jnsgd1na2vs0mg"},{"bike_id":"285dd874-bd16-44c1-9b43-116f4135f2c1","system_id":"levelo_inurba_marseille","lat":43.2889,"lon":5.42556,"is_reserved":false,"is_disabled":false,"rental_uris":{"android":"levelo://app?vid=285dd874-bd16-44c1-9b43-116f4135f2c1","ios":"levelo://app?vid=285dd874-bd16-44c1-9b43-116f4135f2c1"},"vehicle_type_id":"4","last_reported":1761279161,"current_range_meters":7200,"station_id":"st_d3b462108ojc7389ooeg","pricing_plan_id":"cebpf4jnsgd1na2vs0mg"},{"bike_id":"3167c122-43fa-497a-bf85-d0a6522abe7a","system_id":"levelo_inurba_marseille","lat":43.327591,"lon":5.375186,"is_reserved":false,"is_disabled":false,"rental_uris":{"android":"levelo://app?vid=3167c122-43fa-497a-bf85-d0a6522abe7a","ios":"levelo://app?vid=3167c122-43fa-497a-bf85-d0a6522abe7a"},"vehicle_type_id":"4","last_reported":1761279161,"current_range_meters":8000,"station_id":"","pricing_plan_id":"cebpf4jnsgd1na2vs0mg"},{"bike_id":"7dc3a787-7b14-4505-8e32-0b28349ba8b9","system_id":"levelo_inurba_marseille","lat":43.287063,"lon":5.362525,"is_reserved":false,"is_disabled":false,"rental_uris":{"android":"levelo://app?vid=7dc3a787-7b14-4505-8e32-0b28349ba8b9","ios":"levelo://app?vid=7dc3a787-7b14-4505-8e32-0b28349ba8b9"},"vehicle_type_id":"4","last_reported":1761279161,"current_range_meters":8000,"station_id":"","pricing_plan_id":"cebpf4jnsgd1na2vs0mg"},{"bike_id":"cd0cadb0-3b2e-465b-9d15-7d593ef08f95","system_id":"levelo_inurba_marseille","lat":43.263702,"lon":5.396297,"is_reserved":false,"is_disabled":false,"rental_uris":{"android":"levelo://app?vid=cd0cadb0-3b2e-465b-9d15-7d593ef08f95","ios":"levelo://app?vid=cd0cadb0-3b2e-465b-9d15-7d593ef08f95"},"vehicle_type_id":"4","last_reported":1761279161,"current_range_meters":8000,"station_id":"","pricing_plan_id":"cebpf4jnsgd1na2vs0mg"},{"bike_id":"16b52ec1-e647-407a-af3e-3cd359553db8","system_id":"levelo_inurba_marseille","lat":43.28662,"lon":5.36346,"is_reserved":false,"is_disabled":false,"rental_uris":{"android":"levelo://app?vid=16b52ec1-e647-407a-af3e-3cd359553db8","ios":"levelo://app?vid=16b52ec1-e647-407a-af3e-3cd359553db8"},"vehicle_type_id":"4","last_reported":1761279161,"current_range_meters":8000,"station_id":"ce4bhah2rcd13ifvqej0","pricing_plan_id":"cebpf4jnsgd1na2vs0mg"},{"bike_id":"4eae2ec4-8862-466e-a3d9-395cca4276d0","system_id":"levelo_inurba_marseille","lat":43.303806,"lon":5.375965,"is_reserved":false,"is_disabled":false,"rental_uris":{"android":"levelo://app?vid=4eae2ec4-8862-466e-a3d9-395cca4276d0","ios":"levelo://app?vid=4eae2ec4-8862-466e-a3d9-395cca4276d0"},"vehicle_type_id":"4","last_reported":1761279161,"current_range_meters":8000,"station_id":"","pricing_plan_id":"cebpf4jnsgd1na2vs0mg"},{"bike_id":"c8c0fa58-a519-4343-9887-b0c694f93aef","system_id":"levelo_inurba_marseille","lat":43.288641,"lon":5.425093,"is_reserved":false,"is_disabled":false,"rental_uris":{"android":"levelo://app?vid=c8c0fa58-a519-4343-9887-b0c694f93aef","ios":"levelo://app?vid=c8c0fa58-a519-4343-9887-b0c694f93aef"},"vehicle_type_id":"4","last_reported":1761279161,"current_range_meters":8400,"station_id":"st_d3b462108ojc7389ooeg","pricing_plan_id":"cebpf4jnsgd1na2vs0mg"},{"bike_id":"aa5c39ca-5467-4d85-a1f8-b790dbb0979e","system_id":"levelo_inurba_marseille","lat":43.3072,"lon":5.3739,"is_reserved":false,"is_disabled":false,"rental_uris":{"android":"levelo://app?vid=aa5c39ca-5467-4d85-a1f8-b790dbb0979e","ios":"levelo://app?vid=aa5c39ca-5467-4d85-a1f8-b790dbb0979e"},"vehicle_type_id":"4","last_reported":1761279161,"current_range_meters":8400,"station_id":"","pricing_plan_id":"cebpf4jnsgd1na2vs0mg"},{"bike_id":"6a662624-d03e-45d5-964b-74ea5f67d032","system_id":"levelo_inurba_marseille","lat":43.31109,"lon":5.37786,"is_reserved":false,"is_disabled":true,"rental_uris":{"android":"levelo://app?vid=6a662624-d03e-45d5-964b-74ea5f67d032","ios":"levelo://app?vid=6a662624-d03e-45d5-964b-74ea5f67d032"},"vehicle_type_id":"4","last_reported":1761279161,"current_range_meters":8800,"station_id":"ce4bgt92rcd13ifvqcg0","pricing_plan_id":"cebpf4jnsgd1na2vs0mg"},{"bike_id":"853fa984-e6f7-4baa-80f8-6b9843013844","system_id":"levelo_inurba_marseille","lat":43.28377,"lon":5.37679,"is_reserved":false,"is_disabled":false,"rental_uris":{"android":"levelo://app?vid=853fa984-e6f7-4baa-80f8-6b9843013844","ios":"levelo://app?vid=853fa984-e6f7-4baa-80f8-6b9843013844"},"vehicle_type_id":"4","last_reported":1761279161,"current_range_meters":8800,"station_id":"","pricing_plan_id":"cebpf4jnsgd1na2vs0mg"},{"bike_id":"d25ff4e2-3981-4699-8bf7-8200e048adca","system_id":"levelo_inurba_marseille","lat":43.302563,"lon":5.400396,"is_reserved":false,"is_disabled":false,"rental_uris":{"android":"levelo://app?vid=d25ff4e2-3981-4699-8bf7-8200e048adca","ios":"levelo://app?vid=d25ff4e2-3981-4699-8bf7-8200e048adca"},"vehicle_type_id":"4","last_reported":1761279161,"current_range_meters":8800,"station_id":"ce4bgvh2rcd13ifvqcs0","pricing_plan_id":"cebpf4jnsgd1na2vs0mg"},{"bike_id":"a6c8451c-f3a9-441b-82eb-cc51be3d60d9","system_id":"levelo_inurba_marseille","lat":43.31696,"lon":5.40479,"is_reserved":false,"is_disabled":false,"rental_uris":{"android":"levelo://app?vid=a6c8451c-f3a9-441b-82eb-cc51be3d60d9","ios":"levelo://app?vid=a6c8451c-f3a9-441b-82eb-cc51be3d60d9"},"vehicle_type_id":"4","last_reported":1761279161,"current_range_meters":8800,"station_id":"ce4bh012rcd13ifvqd00","pricing_plan_id":"cebpf4jnsgd1na2vs0mg"},{"bike_id":"6e71dbf7-050a-4c6e-a779-bf0c2baa03e7","system_id":"levelo_inurba_marseille","lat":43.288568,"lon":5.358388,"is_reserved":false,"is_disabled":false,"rental_uris":{"android":"levelo://app?vid=6e71dbf7-050a-4c6e-a779-bf0c2baa03e7","ios":"levelo://app?vid=6e71dbf7-050a-4c6e-a779-bf0c2baa03e7"},"vehicle_type_id":"4","last_reported":1761279161,"current_range_meters":8800,"station_id":"ce4bhb12rcd13ifvqem0","pricing_plan_id":"cebpf4jnsgd1na2vs0mg"},{"bike_id":"32e7919e-26d8-4f7d-b229-086147816fa4","system_id":"levelo_inurba_marseille","lat":43.301286,"lon":5.38775,"is_reserved":false,"is_disabled":false,"rental_uris":{"android":"levelo://app?vid=32e7919e-26d8-4f7d-b229-086147816fa4","ios":"levelo://app?vid=32e7919e-26d8-4f7d-b229-086147816fa4"},"vehicle_type_id":"4","last_reported":1761279161,"current_range_meters":9200,"station_id":"","pricing_plan_id":"cebpf4jnsgd1na2vs0mg"},{"bike_id":"00fd3c6a-780c-49dc-9993-d4de69c9b57a","system_id":"levelo_inurba_marseille","lat":43.31056,"lon":5.37444,"is_reserved":false,"is_disabled":false,"rental_uris":{"android":"levelo://app?vid=00fd3c6a-780c-49dc-9993-d4de69c9b57a","ios":"levelo://app?vid=00fd3c6a-780c-49dc-9993-d4de69c9b57a"},"vehicle_type_id":"4","last_reported":1761279161,"current_range_meters":9200,"station_id":"","pricing_plan_id":"cebpf4jnsgd1na2vs0mg"},{"bike_id":"ec9665a2-32ab-42b2-9bdf-cf94d158a9c2","system_id":"levelo_inurba_marseille","lat":43.30112,"lon":5.37091,"is_reserved":false,"is_disabled":false,"rental_uris":{"android":"levelo://app?vid=ec9665a2-32ab-42b2-9bdf-cf94d158a9c2","ios":"levelo://app?vid=ec9665a2-32ab-42b2-9bdf-cf94d158a9c2"},"vehicle_type_id":"4","last_reported":1761279161,"current_range_meters":9600,"station_id":"","pricing_plan_id":"cebpf4jnsgd1na2vs0mg"},{"bike_id":"76ee2b83-743b-46a3-b384-858d679258a7","system_id":"levelo_inurba_marseille","lat":43.270611,"lon":5.383097,"is_reserved":false,"is_disabled":false,"rental_uris":{"android":"levelo://app?vid=76ee2b83-743b-46a3-b384-858d679258a7","ios":"levelo://app?vid=76ee2b83-743b-46a3-b384-858d679258a7"},"vehicle_type_id":"4","last_reported":1761279161,"current_range_meters":9600,"station_id":"st_d3n2fo6cfp8s73cte1j0","pricing_plan_id":"cebpf4jnsgd1na2vs0mg"},{"bike_id":"667cdab5-a7f4-4ec2-880f-5e924f7bba3b","system_id":"levelo_inurba_marseille","lat":43.28934,"lon":5.36387,"is_reserved":false,"is_disabled":false,"rental_uris":{"android":"levelo://app?vid=667cdab5-a7f4-4ec2-880f-5e924f7bba3b","ios":"levelo://app?vid=667cdab5-a7f4-4ec2-880f-5e924f7bba3b"},"vehicle_type_id":"4","last_reported":1761279161,"current_range_meters":9600,"station_id":"ce4bhc92rcd13ifvqetg","pricing_plan_id":"cebpf4jnsgd1na2vs0mg"},{"bike_id":"2664108a-45d9-4754-a8c3-477f905cc003","system_id":"levelo_inurba_marseille","lat":43.27824,"lon":5.39213,"is_reserved":false,"is_disabled":false,"rental_uris":{"android":"levelo://app?vid=2664108a-45d9-4754-a8c3-477f905cc003","ios":"levelo://app?vid=2664108a-45d9-4754-a8c3-477f905cc003"},"vehicle_type_id":"4","last_reported":1761279161,"current_range_meters":10000,"station_id":"ce4bhjp2rcd13ifvqga0","pricing_plan_id":"cebpf4jnsgd1na2vs0mg"},{"bike_id":"2a0fabdf-efd8-46c4-aa46-d607efb41f23","system_id":"levelo_inurba_marseille","lat":43.28924,"lon":5.36676,"is_reserved":false,"is_disabled":false,"rental_uris":{"android":"levelo://app?vid=2a0fabdf-efd8-46c4-aa46-d607efb41f23","ios":"levelo://app?vid=2a0fabdf-efd8-46c4-aa46-d607efb41f23"},"vehicle_type_id":"4","last_reported":1761279161,"current_range_meters":10000,"station_id":"ce4bhap2rcd13ifvqek0","pricing_plan_id":"cebpf4jnsgd1na2vs0mg"},{"bike_id":"9228c04f-83ea-4cee-b461-ac94abf87552","system_id":"levelo_inurba_marseille","lat":43.27417,"lon":5.39436,"is_reserved":false,"is_disabled":false,"rental_uris":{"android":"levelo://app?vid=9228c04f-83ea-4cee-b461-ac94abf87552","ios":"levelo://app?vid=9228c04f-83ea-4cee-b461-ac94abf87552"},"vehicle_type_id":"4","last_reported":1761279161,"current_range_meters":10000,"station_id":"ce4bhdp2rcd13ifvqf20","pricing_plan_id":"cebpf4jnsgd1na2vs0mg"},{"bike_id":"0198280f-05b0-401c-b9f2-7586dff77353","system_id":"levelo_inurba_marseille","lat":43.28904,"lon":5.37827,"is_reserved":false,"is_disabled":false,"rental_uris":{"android":"levelo://app?vid=0198280f-05b0-401c-b9f2-7586dff77353","ios":"levelo://app?vid=0198280f-05b0-401c-b9f2-7586dff77353"},"vehicle_type_id":"4","last_reported":1761279161,"current_range_meters":10000,"station_id":"","pricing_plan_id":"cebpf4jnsgd1na2vs0mg"},{"bike_id":"91c55894-f90b-4c6a-9935-1ccd1665a401","system_id":"levelo_inurba_marseille","lat":43.29602,"lon":5.37714,"is_reserved":false,"is_disabled":true,"rental_uris":{"android":"levelo://app?vid=91c55894-f90b-4c6a-9935-1ccd1665a401","ios":"levelo://app?vid=91c55894-f90b-4c6a-9935-1ccd1665a401"},"vehicle_type_id":"4","last_reported":1761279161,"current_range_meters":10000,"station_id":"ce4bgi92rcd13ifvqb90","pricing_plan_id":"cebpf4jnsgd1na2vs0mg"},{"bike_id":"f30d474c-592d-470d-816b-bf7526dcf767","system_id":"levelo_inurba_marseille","lat":43.3085,"lon":5.38103,"is_reserved":false,"is_disabled":false,"rental_uris":{"android":"levelo://app?vid=f30d474c-592d-470d-816b-bf7526dcf767","ios":"levelo://app?vid=f30d474c-592d-470d-816b-bf7526dcf767"},"vehicle_type_id":"4","last_reported":1761279161,"current_range_meters":10000,"station_id":"","pricing_plan_id":"cebpf4jnsgd1na2vs0mg"},{"bike_id":"1aaa028d-93d8-4a20-8355-7a4b17d8620a","system_id":"levelo_inurba_marseille","lat":43.27621,"lon":5.39228,"is_reserved":false,"is_disabled":false,"rental_uris":{"android":"levelo://app?vid=1aaa028d-93d8-4a20-8355-7a4b17d8620a","ios":"levelo://app?vid=1aaa028d-93d8-4a20-8355-7a4b17d8620a"},"vehicle_type_id":"4","last_reported":1761279161,"current_range_meters":10000,"station_id":"","pricing_plan_id":"cebpf4jnsgd1na2vs0mg"},{"bike_id":"0773640e-24fb-492b-b167-d16d2b7c2899","system_id":"levelo_inurba_marseille","lat":43.280976,"lon":5.378124,"is_reserved":false,"is_disabled":false,"rental_uris":{"android":"levelo://app?vid=0773640e-24fb-492b-b167-d16d2b7c2899","ios":"levelo://app?vid=0773640e-24fb-492b-b167-d16d2b7c2899"},"vehicle_type_id":"4","last_reported":1761279161,"current_range_meters":10000,"station_id":"ce4bha12rcd13ifvqee0","pricing_plan_id":"cebpf4jnsgd1na2vs0mg"},{"bike_id":"fd8a470b-b82b-4f4a-b628-c7f4fc807ae1","system_id":"levelo_inurba_marseille","lat":43.28108,"lon":5.37849,"is_reserved":false,"is_disabled":false,"rental_uris":{"android":"levelo://app?vid=fd8a470b-b82b-4f4a-b628-c7f4fc807ae1","ios":"levelo://app?vid=fd8a470b-b82b-4f4a-b628-c7f4fc807ae1"},"vehicle_type_id":"4","last_reported":1761279161,"current_range_meters":10000,"station_id":"ce4bha12rcd13ifvqee0","pricing_plan_id":"cebpf4jnsgd1na2vs0mg"},{"bike_id":"3cb1bc4c-33ce-44da-a3c2-1895cb2d1499","system_id":"levelo_inurba_marseille","lat":43.27352,"lon":5.41513,"is_reserved":false,"is_disabled":false,"rental_uris":{"android":"levelo://app?vid=3cb1bc4c-33ce-44da-a3c2-1895cb2d1499","ios":"levelo://app?vid=3cb1bc4c-33ce-44da-a3c2-1895cb2d1499"},"vehicle_type_id":"4","last_reported":1761279161,"current_range_meters":10800,"station_id":"","pricing_plan_id":"cebpf4jnsgd1na2vs0mg"},{"bike_id":"2eae5363-8c5f-4e6c-b3a7-473f62f3a9a3","system_id":"levelo_inurba_marseille","lat":43.30318,"lon":5.36923,"is_reserved":false,"is_disabled":false,"rental_uris":{"android":"levelo://app?vid=2eae5363-8c5f-4e6c-b3a7-473f62f3a9a3","ios":"levelo://app?vid=2eae5363-8c5f-4e6c-b3a7-473f62f3a9a3"},"vehicle_type_id":"4","last_reported":1761279161,"current_range_meters":10800,"station_id":"ce4bgqh2rcd13ifvqc5g","pricing_plan_id":"cebpf4jnsgd1na2vs0mg"},{"bike_id":"e96035ce-3f75-42c7-bc07-32e4ba0bd41a","system_id":"levelo_inurba_marseille","lat":43.30497,"lon":5.36937,"is_reserved":false,"is_disabled":false,"rental_uris":{"android":"levelo://app?vid=e96035ce-3f75-42c7-bc07-32e4ba0bd41a","ios":"levelo://app?vid=e96035ce-3f75-42c7-bc07-32e4ba0bd41a"},"vehicle_type_id":"4","last_reported":1761279161,"current_range_meters":10800,"station_id":"","pricing_plan_id":"cebpf4jnsgd1na2vs0mg"},{"bike_id":"24a11c21-7b10-418d-bff0-9d96ea02cfae","system_id":"levelo_inurba_marseille","lat":43.30779,"lon":5.37697,"is_reserved":false,"is_disabled":true,"rental_uris":{"android":"levelo://app?vid=24a11c21-7b10-418d-bff0-9d96ea02cfae","ios":"levelo://app?vid=24a11c21-7b10-418d-bff0-9d96ea02cfae"},"vehicle_type_id":"4","last_reported":1761279161,"current_range_meters":10800,"station_id":"ce4bgv92rcd13ifvqcq0","pricing_plan_id":"cebpf4jnsgd1na2vs0mg"},{"bike_id":"bda3ed1a-3199-4eb8-8229-577855d09dbb","system_id":"levelo_inurba_marseille","lat":43.3163,"lon":5.37876,"is_reserved":false,"is_disabled":true,"rental_uris":{"android":"levelo://app?vid=bda3ed1a-3199-4eb8-8229-577855d09dbb","ios":"levelo://app?vid=bda3ed1a-3199-4eb8-8229-577855d09dbb"},"vehicle_type_id":"4","last_reported":1761279161,"current_range_meters":10800,"station_id":"","pricing_plan_id":"cebpf4jnsgd1na2vs0mg"},{"bike_id":"323bf2de-3bb4-4b4c-b330-b19ea807dbf5","system_id":"levelo_inurba_marseille","lat":43.330187,"lon":5.429463,"is_reserved":false,"is_disabled":false,"rental_uris":{"android":"levelo://app?vid=323bf2de-3bb4-4b4c-b330-b19ea807dbf5","ios":"levelo://app?vid=323bf2de-3bb4-4b4c-b330-b19ea807dbf5"},"vehicle_type_id":"4","last_reported":1761279161,"current_range_meters":10800,"station_id":"","pricing_plan_id":"cebpf4jnsgd1na2vs0mg"},{"bike_id":"b284a5b8-145b-4b18-970a-f541b5c0ebef","system_id":"levelo_inurba_marseille","lat":43.28558,"lon":5.39464,"is_reserved":false,"is_disabled":false,"rental_uris":{"android":"levelo://app?vid=b284a5b8-145b-4b18-970a-f541b5c0ebef","ios":"levelo://app?vid=b284a5b8-145b-4b18-970a-f541b5c0ebef"},"vehicle_type_id":"4","last_reported":1761279161,"current_range_meters":10800,"station_id":"ce4bh292rcd13ifvqdg0","pricing_plan_id":"cebpf4jnsgd1na2vs0mg"},{"bike_id":"9edf1a42-1ca4-4079-811c-e14675f99717","system_id":"levelo_inurba_marseille","lat":43.30888,"lon":5.39652,"is_reserved":false,"is_disabled":false,"rental_uris":{"android":"levelo://app?vid=9edf1a42-1ca4-4079-811c-e14675f99717","ios":"levelo://app?vid=9edf1a42-1ca4-4079-811c-e14675f99717"},"vehicle_type_id":"4","last_reported":1761279161,"current_range_meters":10800,"station_id":"ce4bh012rcd13ifvqcv0","pricing_plan_id":"cebpf4jnsgd1na2vs0mg"},{"bike_id":"4bb99ab7-f9cd-4fa5-b387-e243bec85e12","system_id":"levelo_inurba_marseille","lat":43.237868,"lon":5.366187,"is_reserved":false,"is_disabled":false,"rental_uris":{"android":"levelo://app?vid=4bb99ab7-f9cd-4fa5-b387-e243bec85e12","ios":"levelo://app?vid=4bb99ab7-f9cd-4fa5-b387-e243bec85e12"},"vehicle_type_id":"4","last_reported":1761279161,"current_range_meters":11200,"station_id":"st_d3nk18o9ro0c73en2l3g","pricing_plan_id":"cebpf4jnsgd1na2vs0mg"},{"bike_id":"fe0309b9-8df9-4fef-a215-e3089f2279b2","system_id":"levelo_inurba_marseille","lat":43.23156,"lon":5.4371,"is_reserved":false,"is_disabled":false,"rental_uris":{"android":"levelo://app?vid=fe0309b9-8df9-4fef-a215-e3089f2279b2","ios":"levelo://app?vid=fe0309b9-8df9-4fef-a215-e3089f2279b2"},"vehicle_type_id":"4","last_reported":1761279161,"current_range_meters":11200,"station_id":"ce4bhmp2rcd13ifvqgog","pricing_plan_id":"cebpf4jnsgd1na2vs0mg"},{"bike_id":"95d66f62-0696-4f11-8ee9-6fe9c878dd8b","system_id":"levelo_inurba_marseille","lat":43.279465,"lon":5.410394,"is_reserved":false,"is_disabled":false,"rental_uris":{"android":"levelo://app?vid=95d66f62-0696-4f11-8ee9-6fe9c878dd8b","ios":"levelo://app?vid=95d66f62-0696-4f11-8ee9-6fe9c878dd8b"},"vehicle_type_id":"4","last_reported":1761279161,"current_range_meters":11600,"station_id":"ce4bhnp2rcd13ifvqh0g","pricing_plan_id":"cebpf4jnsgd1na2vs0mg"},{"bike_id":"e8a3abe2-c655-4bb0-9ffd-183b83814299","system_id":"levelo_inurba_marseille","lat":43.2888,"lon":5.39314,"is_reserved":false,"is_disabled":true,"rental_uris":{"android":"levelo://app?vid=e8a3abe2-c655-4bb0-9ffd-183b83814299","ios":"levelo://app?vid=e8a3abe2-c655-4bb0-9ffd-183b83814299"},"vehicle_type_id":"4","last_reported":1761279161,"current_range_meters":11600,"station_id":"ce4bh2p2rcd13ifvqdi0","pricing_plan_id":"cebpf4jnsgd1na2vs0mg"},{"bike_id":"3e4783b6-28d8-4737-a4ef-6a1b0da02476","system_id":"levelo_inurba_marseille","lat":43.29455,"lon":5.40725,"is_reserved":false,"is_disabled":false,"rental_uris":{"android":"levelo://app?vid=3e4783b6-28d8-4737-a4ef-6a1b0da02476","ios":"levelo://app?vid=3e4783b6-28d8-4737-a4ef-6a1b0da02476"},"vehicle_type_id":"4","last_reported":1761279161,"current_range_meters":11600,"station_id":"","pricing_plan_id":"cebpf4jnsgd1na2vs0mg"},{"bike_id":"3c338306-051e-4864-9d5e-73d858887959","system_id":"levelo_inurba_marseille","lat":43.2888,"lon":5.35854,"is_reserved":false,"is_disabled":false,"rental_uris":{"android":"levelo://app?vid=3c338306-051e-4864-9d5e-73d858887959","ios":"levelo://app?vid=3c338306-051e-4864-9d5e-73d858887959"},"vehicle_type_id":"4","last_reported":1761279161,"current_range_meters":11600,"station_id":"ce4bhb12rcd13ifvqem0","pricing_plan_id":"cebpf4jnsgd1na2vs0mg"},{"bike_id":"247b044e-7e84-419c-a5fb-856b27f30701","system_id":"levelo_inurba_marseille","lat":43.27069,"lon":5.42285,"is_reserved":false,"is_disabled":false,"rental_uris":{"android":"levelo://app?vid=247b044e-7e84-419c-a5fb-856b27f30701","ios":"levelo://app?vid=247b044e-7e84-419c-a5fb-856b27f30701"},"vehicle_type_id":"4","last_reported":1761279161,"current_range_meters":11600,"station_id":"ce4bhk92rcd13ifvqgb0","pricing_plan_id":"cebpf4jnsgd1na2vs0mg"},{"bike_id":"3a7c302c-cc5f-4d7a-99e7-abf217acdee0","system_id":"levelo_inurba_marseille","lat":43.23792,"lon":5.36632,"is_reserved":false,"is_disabled":false,"rental_uris":{"android":"levelo://app?vid=3a7c302c-cc5f-4d7a-99e7-abf217acdee0","ios":"levelo://app?vid=3a7c302c-cc5f-4d7a-99e7-abf217acdee0"},"vehicle_type_id":"4","last_reported":1761279161,"current_range_meters":11600,"station_id":"st_d3nk18o9ro0c73en2l3g","pricing_plan_id":"cebpf4jnsgd1na2vs0mg"},{"bike_id":"8d968a7a-3957-46c5-9580-35e9f96be907","system_id":"levelo_inurba_marseille","lat":43.279221,"lon":5.395886,"is_reserved":false,"is_disabled":false,"rental_uris":{"android":"levelo://app?vid=8d968a7a-3957-46c5-9580-35e9f96be907","ios":"levelo://app?vid=8d968a7a-3957-46c5-9580-35e9f96be907"},"vehicle_type_id":"4","last_reported":1761279161,"current_range_meters":11600,"station_id":"ce4bhf92rcd13ifvqf40","pricing_plan_id":"cebpf4jnsgd1na2vs0mg"},{"bike_id":"f0764640-ec1d-486f-9e1c-59043e66eb76","system_id":"levelo_inurba_marseille","lat":43.21747,"lon":5.34598,"is_reserved":false,"is_disabled":false,"rental_uris":{"android":"levelo://app?vid=f0764640-ec1d-486f-9e1c-59043e66eb76","ios":"levelo://app?vid=f0764640-ec1d-486f-9e1c-59043e66eb76"},"vehicle_type_id":"4","last_reported":1761279161,"current_range_meters":12000,"station_id":"st_cvj6r9ubvosntc0bgbag","pricing_plan_id":"cebpf4jnsgd1na2vs0mg"},{"bike_id":"cc4a1227-f180-407e-b5d2-7c7c127665d4","system_id":"levelo_inurba_marseille","lat":43.27063,"lon":5.40268,"is_reserved":false,"is_disabled":false,"rental_uris":{"android":"levelo://app?vid=cc4a1227-f180-407e-b5d2-7c7c127665d4","ios":"levelo://app?vid=cc4a1227-f180-407e-b5d2-7c7c127665d4"},"vehicle_type_id":"4","last_reported":1761279161,"current_range_meters":12000,"station_id":"ce4bhk92rcd13ifvqgc0","pricing_plan_id":"cebpf4jnsgd1na2vs0mg"},{"bike_id":"731a1005-e3e7-44b5-bcd8-11e6532518ec","system_id":"levelo_inurba_marseille","lat":43.301876,"lon":5.366311,"is_reserved":false,"is_disabled":false,"rental_uris":{"android":"levelo://app?vid=731a1005-e3e7-44b5-bcd8-11e6532518ec","ios":"levelo://app?vid=731a1005-e3e7-44b5-bcd8-11e6532518ec"},"vehicle_type_id":"4","last_reported":1761279161,"current_range_meters":12000,"station_id":"ce4bh3h2rcd13ifvqdn0","pricing_plan_id":"cebpf4jnsgd1na2vs0mg"},{"bike_id":"55aee02d-9c96-45d2-9d31-4545665d3ece","system_id":"levelo_inurba_marseille","lat":43.246534,"lon":5.388902,"is_reserved":false,"is_disabled":false,"rental_uris":{"android":"levelo://app?vid=55aee02d-9c96-45d2-9d31-4545665d3ece","ios":"levelo://app?vid=55aee02d-9c96-45d2-9d31-4545665d3ece"},"vehicle_type_id":"4","last_reported":1761279161,"current_range_meters":12000,"station_id":"ce4bhg12rcd13ifvqf60","pricing_plan_id":"cebpf4jnsgd1na2vs0mg"},{"bike_id":"d2b9dc00-f2bd-4779-bb2a-55b57cdd0b04","system_id":"levelo_inurba_marseille","lat":43.28613,"lon":5.370577,"is_reserved":false,"is_disabled":false,"rental_uris":{"android":"levelo://app?vid=d2b9dc00-f2bd-4779-bb2a-55b57cdd0b04","ios":"levelo://app?vid=d2b9dc00-f2bd-4779-bb2a-55b57cdd0b04"},"vehicle_type_id":"4","last_reported":1761279161,"current_range_meters":12000,"station_id":"ce4bht12rcd13ifvqi60","pricing_plan_id":"cebpf4jnsgd1na2vs0mg"},{"bike_id":"d78eb837-b102-4db4-b967-7e27e7618a15","system_id":"levelo_inurba_marseille","lat":43.2292,"lon":5.35399,"is_reserved":false,"is_disabled":false,"rental_uris":{"android":"levelo://app?vid=d78eb837-b102-4db4-b967-7e27e7618a15","ios":"levelo://app?vid=d78eb837-b102-4db4-b967-7e27e7618a15"},"vehicle_type_id":"4","last_reported":1761279161,"current_range_meters":12000,"station_id":"cpo3532slgdg3j2ikp40","pricing_plan_id":"cebpf4jnsgd1na2vs0mg"},{"bike_id":"316c843e-0abd-49e3-b3e9-3f61b02a5647","system_id":"levelo_inurba_marseille","lat":43.28862,"lon":5.42517,"is_reserved":false,"is_disabled":false,"rental_uris":{"android":"levelo://app?vid=316c843e-0abd-49e3-b3e9-3f61b02a5647","ios":"levelo://app?vid=316c843e-0abd-49e3-b3e9-3f61b02a5647"},"vehicle_type_id":"4","last_reported":1761279161,"current_range_meters":12400,"station_id":"st_d3b462108ojc7389ooeg","pricing_plan_id":"cebpf4jnsgd1na2vs0mg"},{"bike_id":"bd586638-ea6d-40ae-9b77-099deb3448f7","system_id":"levelo_inurba_marseille","lat":43.25572,"lon":5.38236,"is_reserved":false,"is_disabled":false,"rental_uris":{"android":"levelo://app?vid=bd586638-ea6d-40ae-9b77-099deb3448f7","ios":"levelo://app?vid=bd586638-ea6d-40ae-9b77-099deb3448f7"},"vehicle_type_id":"4","last_reported":1761279161,"current_range_meters":12400,"station_id":"ce4bhih2rcd13ifvqfs0","pricing_plan_id":"cebpf4jnsgd1na2vs0mg"},{"bike_id":"e23608a7-79c3-428d-8cba-f9c659a19500","system_id":"levelo_inurba_marseille","lat":43.245497,"lon":5.395237,"is_reserved":false,"is_disabled":false,"rental_uris":{"android":"levelo://app?vid=e23608a7-79c3-428d-8cba-f9c659a19500","ios":"levelo://app?vid=e23608a7-79c3-428d-8cba-f9c659a19500"},"vehicle_type_id":"4","last_reported":1761279161,"current_range_meters":12400,"station_id":"ce4bhlp2rcd13ifvqgjg","pricing_plan_id":"cebpf4jnsgd1na2vs0mg"},{"bike_id":"8bcacd78-80de-4026-af75-b37ebe3030fe","system_id":"levelo_inurba_marseille","lat":43.334756,"lon":5.404255,"is_reserved":false,"is_disabled":false,"rental_uris":{"android":"levelo://app?vid=8bcacd78-80de-4026-af75-b37ebe3030fe","ios":"levelo://app?vid=8bcacd78-80de-4026-af75-b37ebe3030fe"},"vehicle_type_id":"4","last_reported":1761279161,"current_range_meters":12400,"station_id":"","pricing_plan_id":"cebpf4jnsgd1na2vs0mg"},{"bike_id":"3877e972-fe51-4197-a5b7-860377239f0f","system_id":"levelo_inurba_marseille","lat":43.24164,"lon":5.36412,"is_reserved":false,"is_disabled":false,"rental_uris":{"android":"levelo://app?vid=3877e972-fe51-4197-a5b7-860377239f0f","ios":"levelo://app?vid=3877e972-fe51-4197-a5b7-860377239f0f"},"vehicle_type_id":"4","last_reported":1761279161,"current_range_meters":12400,"station_id":"cpo36qri1sfpv3e86is0","pricing_plan_id":"cebpf4jnsgd1na2vs0mg"},{"bike_id":"59a90fc2-6b65-44f9-97da-18a57f6bd3e0","system_id":"levelo_inurba_marseille","lat":43.258674,"lon":5.399114,"is_reserved":false,"is_disabled":false,"rental_uris":{"android":"levelo://app?vid=59a90fc2-6b65-44f9-97da-18a57f6bd3e0","ios":"levelo://app?vid=59a90fc2-6b65-44f9-97da-18a57f6bd3e0"},"vehicle_type_id":"4","last_reported":1761279161,"current_range_meters":12800,"station_id":"ce4bhl92rcd13ifvqghg","pricing_plan_id":"cebpf4jnsgd1na2vs0mg"},{"bike_id":"7383d631-0f76-4929-962a-15023b93a9cb","system_id":"levelo_inurba_marseille","lat":43.28655,"lon":5.36352,"is_reserved":false,"is_disabled":false,"rental_uris":{"android":"levelo://app?vid=7383d631-0f76-4929-962a-15023b93a9cb","ios":"levelo://app?vid=7383d631-0f76-4929-962a-15023b93a9cb"},"vehicle_type_id":"4","last_reported":1761279161,"current_range_meters":12800,"station_id":"ce4bhah2rcd13ifvqej0","pricing_plan_id":"cebpf4jnsgd1na2vs0mg"},{"bike_id":"e7bcbc82-1043-42e2-9165-bae141796936","system_id":"levelo_inurba_marseille","lat":43.29796,"lon":5.38073,"is_reserved":false,"is_disabled":false,"rental_uris":{"android":"levelo://app?vid=e7bcbc82-1043-42e2-9165-bae141796936","ios":"levelo://app?vid=e7bcbc82-1043-42e2-9165-bae141796936"},"vehicle_type_id":"4","last_reported":1761279161,"current_range_meters":12800,"station_id":"ce4bgip2rcd13ifvqbb0","pricing_plan_id":"cebpf4jnsgd1na2vs0mg"},{"bike_id":"d6e5c329-a9b9-4214-96cc-6f6b54b8ff8d","system_id":"levelo_inurba_marseille","lat":43.295365,"lon":5.375138,"is_reserved":false,"is_disabled":false,"rental_uris":{"android":"levelo://app?vid=d6e5c329-a9b9-4214-96cc-6f6b54b8ff8d","ios":"levelo://app?vid=d6e5c329-a9b9-4214-96cc-6f6b54b8ff8d"},"vehicle_type_id":"4","last_reported":1761279161,"current_range_meters":12800,"station_id":"","pricing_plan_id":"cebpf4jnsgd1na2vs0mg"},{"bike_id":"5403bbb7-b780-4116-8b9d-0a9bd553ad20","system_id":"levelo_inurba_marseille","lat":43.241798,"lon":5.397327,"is_reserved":false,"is_disabled":false,"rental_uris":{"android":"levelo://app?vid=5403bbb7-b780-4116-8b9d-0a9bd553ad20","ios":"levelo://app?vid=5403bbb7-b780-4116-8b9d-0a9bd553ad20"},"vehicle_type_id":"4","last_reported":1761279161,"current_range_meters":12800,"station_id":"ce4bhn12rcd13ifvqgpg","pricing_plan_id":"cebpf4jnsgd1na2vs0mg"},{"bike_id":"b9764ed2-f91a-421e-b54e-d7527bd8af22","system_id":"levelo_inurba_marseille","lat":43.29811,"lon":5.36588,"is_reserved":false,"is_disabled":false,"rental_uris":{"android":"levelo://app?vid=b9764ed2-f91a-421e-b54e-d7527bd8af22","ios":"levelo://app?vid=b9764ed2-f91a-421e-b54e-d7527bd8af22"},"vehicle_type_id":"4","last_reported":1761279161,"current_range_meters":12800,"station_id":"","pricing_plan_id":"cebpf4jnsgd1na2vs0mg"},{"bike_id":"2842f5fd-7b05-4b47-909c-5ee54d7d3bc5","system_id":"levelo_inurba_marseille","lat":43.32457,"lon":5.42808,"is_reserved":false,"is_disabled":false,"rental_uris":{"android":"levelo://app?vid=2842f5fd-7b05-4b47-909c-5ee54d7d3bc5","ios":"levelo://app?vid=2842f5fd-7b05-4b47-909c-5ee54d7d3bc5"},"vehicle_type_id":"4","last_reported":1761279161,"current_range_meters":12800,"station_id":"","pricing_plan_id":"cebpf4jnsgd1na2vs0mg"},{"bike_id":"8793e32f-c4bf-4267-af34-be26cd2130be","system_id":"levelo_inurba_marseille","lat":43.31263,"lon":5.40182,"is_reserved":false,"is_disabled":false,"rental_uris":{"android":"levelo://app?vid=8793e32f-c4bf-4267-af34-be26cd2130be","ios":"levelo://app?vid=8793e32f-c4bf-4267-af34-be26cd2130be"},"vehicle_type_id":"4","last_reported":1761279161,"current_range_meters":12800,"station_id":"ce4bh092rcd13ifvqd30","pricing_plan_id":"cebpf4jnsgd1na2vs0mg"},{"bike_id":"c12a786b-d447-4373-876a-58fc20f19148","system_id":"levelo_inurba_marseille","lat":43.29907,"lon":5.43679,"is_reserved":false,"is_disabled":false,"rental_uris":{"android":"levelo://app?vid=c12a786b-d447-4373-876a-58fc20f19148","ios":"levelo://app?vid=c12a786b-d447-4373-876a-58fc20f19148"},"vehicle_type_id":"4","last_reported":1761279161,"current_range_meters":13600,"station_id":"ce4bhpp2rcd13ifvqhfg","pricing_plan_id":"cebpf4jnsgd1na2vs0mg"},{"bike_id":"882401c7-6650-4fc0-a6a7-b8536ac70367","system_id":"levelo_inurba_marseille","lat":43.270586,"lon":5.422657,"is_reserved":false,"is_disabled":false,"rental_uris":{"android":"levelo://app?vid=882401c7-6650-4fc0-a6a7-b8536ac70367","ios":"levelo://app?vid=882401c7-6650-4fc0-a6a7-b8536ac70367"},"vehicle_type_id":"4","last_reported":1761279161,"current_range_meters":13600,"station_id":"ce4bhk92rcd13ifvqgb0","pricing_plan_id":"cebpf4jnsgd1na2vs0mg"},{"bike_id":"e986eb56-ca00-4dbf-ada0-578bc3d8f529","system_id":"levelo_inurba_marseille","lat":43.273304,"lon":5.414677,"is_reserved":false,"is_disabled":false,"rental_uris":{"android":"levelo://app?vid=e986eb56-ca00-4dbf-ada0-578bc3d8f529","ios":"levelo://app?vid=e986eb56-ca00-4dbf-ada0-578bc3d8f529"},"vehicle_type_id":"4","last_reported":1761279161,"current_range_meters":14000,"station_id":"","pricing_plan_id":"cebpf4jnsgd1na2vs0mg"},{"bike_id":"b111dfa1-9315-4426-adb5-fef72e760996","system_id":"levelo_inurba_marseille","lat":43.25733,"lon":5.41108,"is_reserved":false,"is_disabled":false,"rental_uris":{"android":"levelo://app?vid=b111dfa1-9315-4426-adb5-fef72e760996","ios":"levelo://app?vid=b111dfa1-9315-4426-adb5-fef72e760996"},"vehicle_type_id":"4","last_reported":1761279161,"current_range_meters":14000,"station_id":"ce4bhkp2rcd13ifvqgd0","pricing_plan_id":"cebpf4jnsgd1na2vs0mg"},{"bike_id":"d2020332-5385-4af1-a5a5-2dbaa4662d83","system_id":"levelo_inurba_marseille","lat":43.30254,"lon":5.40075,"is_reserved":false,"is_disabled":false,"rental_uris":{"android":"levelo://app?vid=d2020332-5385-4af1-a5a5-2dbaa4662d83","ios":"levelo://app?vid=d2020332-5385-4af1-a5a5-2dbaa4662d83"},"vehicle_type_id":"4","last_reported":1761279161,"current_range_meters":14400,"station_id":"ce4bgvh2rcd13ifvqcs0","pricing_plan_id":"cebpf4jnsgd1na2vs0mg"},{"bike_id":"126be4bc-91ae-4641-893b-1b51eeff641d","system_id":"levelo_inurba_marseille","lat":43.3089,"lon":5.39645,"is_reserved":false,"is_disabled":false,"rental_uris":{"android":"levelo://app?vid=126be4bc-91ae-4641-893b-1b51eeff641d","ios":"levelo://app?vid=126be4bc-91ae-4641-893b-1b51eeff641d"},"vehicle_type_id":"4","last_reported":1761279161,"current_range_meters":14800,"station_id":"ce4bh012rcd13ifvqcv0","pricing_plan_id":"cebpf4jnsgd1na2vs0mg"},{"bike_id":"2e516aa3-da3f-4cd4-8d7a-1dc8bf5d8ddd","system_id":"levelo_inurba_marseille","lat":43.321022,"lon":5.367545,"is_reserved":false,"is_disabled":false,"rental_uris":{"android":"levelo://app?vid=2e516aa3-da3f-4cd4-8d7a-1dc8bf5d8ddd","ios":"levelo://app?vid=2e516aa3-da3f-4cd4-8d7a-1dc8bf5d8ddd"},"vehicle_type_id":"4","last_reported":1761279161,"current_range_meters":14800,"station_id":"ce4bhrh2rcd13ifvqhug","pricing_plan_id":"cebpf4jnsgd1na2vs0mg"},{"bike_id":"82a6ac02-8c08-4f93-844a-981cd0f715d0","system_id":"levelo_inurba_marseille","lat":43.255091,"lon":5.376528,"is_reserved":false,"is_disabled":false,"rental_uris":{"android":"levelo://app?vid=82a6ac02-8c08-4f93-844a-981cd0f715d0","ios":"levelo://app?vid=82a6ac02-8c08-4f93-844a-981cd0f715d0"},"vehicle_type_id":"4","last_reported":1761279161,"current_range_meters":14800,"station_id":"ce4bhh12rcd13ifvqff0","pricing_plan_id":"cebpf4jnsgd1na2vs0mg"},{"bike_id":"557cc66a-c76c-4dea-9295-1fbdc9f77937","system_id":"levelo_inurba_marseille","lat":43.29159,"lon":5.3714,"is_reserved":false,"is_disabled":false,"rental_uris":{"android":"levelo://app?vid=557cc66a-c76c-4dea-9295-1fbdc9f77937","ios":"levelo://app?vid=557cc66a-c76c-4dea-9295-1fbdc9f77937"},"vehicle_type_id":"4","last_reported":1761279161,"current_range_meters":14800,"station_id":"","pricing_plan_id":"cebpf4jnsgd1na2vs0mg"},{"bike_id":"de3d0665-7871-4028-a79c-1baf20b877dc","system_id":"levelo_inurba_marseille","lat":43.31181,"lon":5.38711,"is_reserved":false,"is_disabled":false,"rental_uris":{"android":"levelo://app?vid=de3d0665-7871-4028-a79c-1baf20b877dc","ios":"levelo://app?vid=de3d0665-7871-4028-a79c-1baf20b877dc"},"vehicle_type_id":"4","last_reported":1761279161,"current_range_meters":14800,"station_id":"ce4bgv12rcd13ifvqcp0","pricing_plan_id":"cebpf4jnsgd1na2vs0mg"},{"bike_id":"d9ecb998-ceaa-4a39-8aba-9f0e44069447","system_id":"levelo_inurba_marseille","lat":43.32147,"lon":5.38731,"is_reserved":false,"is_disabled":false,"rental_uris":{"android":"levelo://app?vid=d9ecb998-ceaa-4a39-8aba-9f0e44069447","ios":"levelo://app?vid=d9ecb998-ceaa-4a39-8aba-9f0e44069447"},"vehicle_type_id":"4","last_reported":1761279161,"current_range_meters":14800,"station_id":"","pricing_plan_id":"cebpf4jnsgd1na2vs0mg"},{"bike_id":"d7ee83eb-ff8f-46b0-9925-8298dbedac1a","system_id":"levelo_inurba_marseille","lat":43.32246,"lon":5.38357,"is_reserved":false,"is_disabled":false,"rental_uris":{"android":"levelo://app?vid=d7ee83eb-ff8f-46b0-9925-8298dbedac1a","ios":"levelo://app?vid=d7ee83eb-ff8f-46b0-9925-8298dbedac1a"},"vehicle_type_id":"4","last_reported":1761279161,"current_range_meters":15200,"station_id":"ce4bhr12rcd13ifvqhqg","pricing_plan_id":"cebpf4jnsgd1na2vs0mg"},{"bike_id":"3cb7792b-43db-41f0-96a4-9a586e0436bb","system_id":"levelo_inurba_marseille","lat":43.286021,"lon":5.370631,"is_reserved":false,"is_disabled":false,"rental_uris":{"android":"levelo://app?vid=3cb7792b-43db-41f0-96a4-9a586e0436bb","ios":"levelo://app?vid=3cb7792b-43db-41f0-96a4-9a586e0436bb"},"vehicle_type_id":"4","last_reported":1761279161,"current_range_meters":15200,"station_id":"ce4bht12rcd13ifvqi60","pricing_plan_id":"cebpf4jnsgd1na2vs0mg"},{"bike_id":"ef096c7f-2d04-45e7-91e4-52578045f579","system_id":"levelo_inurba_marseille","lat":43.23193,"lon":5.3999,"is_reserved":false,"is_disabled":true,"rental_uris":{"android":"levelo://app?vid=ef096c7f-2d04-45e7-91e4-52578045f579","ios":"levelo://app?vid=ef096c7f-2d04-45e7-91e4-52578045f579"},"vehicle_type_id":"4","last_reported":1761279161,"current_range_meters":16000,"station_id":"ce4bhn12rcd13ifvqgqg","pricing_plan_id":"cebpf4jnsgd1na2vs0mg"},{"bike_id":"d10b22fa-7672-4128-97f0-5cbf4295b17c","system_id":"levelo_inurba_marseille","lat":43.29336,"lon":5.39339,"is_reserved":false,"is_disabled":false,"rental_uris":{"android":"levelo://app?vid=d10b22fa-7672-4128-97f0-5cbf4295b17c","ios":"levelo://app?vid=d10b22fa-7672-4128-97f0-5cbf4295b17c"},"vehicle_type_id":"4","last_reported":1761279161,"current_range_meters":16000,"station_id":"","pricing_plan_id":"cebpf4jnsgd1na2vs0mg"},{"bike_id":"0c216ec5-2d75-4ee4-a223-b0d23bee74b5","system_id":"levelo_inurba_marseille","lat":43.24646,"lon":5.3891,"is_reserved":false,"is_disabled":false,"rental_uris":{"android":"levelo://app?vid=0c216ec5-2d75-4ee4-a223-b0d23bee74b5","ios":"levelo://app?vid=0c216ec5-2d75-4ee4-a223-b0d23bee74b5"},"vehicle_type_id":"4","last_reported":1761279161,"current_range_meters":16000,"station_id":"ce4bhg12rcd13ifvqf60","pricing_plan_id":"cebpf4jnsgd1na2vs0mg"},{"bike_id":"f4311ba3-7f0f-4f8e-a874-b0248cb41d85","system_id":"levelo_inurba_marseille","lat":43.28107,"lon":5.37835,"is_reserved":false,"is_disabled":false,"rental_uris":{"android":"levelo://app?vid=f4311ba3-7f0f-4f8e-a874-b0248cb41d85","ios":"levelo://app?vid=f4311ba3-7f0f-4f8e-a874-b0248cb41d85"},"vehicle_type_id":"4","last_reported":1761279161,"current_range_meters":16000,"station_id":"ce4bha12rcd13ifvqee0","pricing_plan_id":"cebpf4jnsgd1na2vs0mg"},{"bike_id":"f8c755d7-1bb8-4fcd-bb3f-74aeb49951cc","system_id":"levelo_inurba_marseille","lat":43.31376,"lon":5.37912,"is_reserved":false,"is_disabled":false,"rental_uris":{"android":"levelo://app?vid=f8c755d7-1bb8-4fcd-bb3f-74aeb49951cc","ios":"levelo://app?vid=f8c755d7-1bb8-4fcd-bb3f-74aeb49951cc"},"vehicle_type_id":"4","last_reported":1761279161,"current_range_meters":16400,"station_id":"","pricing_plan_id":"cebpf4jnsgd1na2vs0mg"},{"bike_id":"75552eb5-38a2-43ca-9291-cacb859b6f73","system_id":"levelo_inurba_marseille","lat":43.284215,"lon":5.349847,"is_reserved":false,"is_disabled":false,"rental_uris":{"android":"levelo://app?vid=75552eb5-38a2-43ca-9291-cacb859b6f73","ios":"levelo://app?vid=75552eb5-38a2-43ca-9291-cacb859b6f73"},"vehicle_type_id":"4","last_reported":1761279161,"current_range_meters":16400,"station_id":"","pricing_plan_id":"cebpf4jnsgd1na2vs0mg"},{"bike_id":"2339f010-c3e5-44a5-a7bb-4ca220fd6cca","system_id":"levelo_inurba_marseille","lat":43.28229,"lon":5.38536,"is_reserved":false,"is_disabled":true,"rental_uris":{"android":"levelo://app?vid=2339f010-c3e5-44a5-a7bb-4ca220fd6cca","ios":"levelo://app?vid=2339f010-c3e5-44a5-a7bb-4ca220fd6cca"},"vehicle_type_id":"4","last_reported":1761279161,"current_range_meters":16400,"station_id":"","pricing_plan_id":"cebpf4jnsgd1na2vs0mg"},{"bike_id":"47f09c0c-92a9-44eb-a23c-69934b3ff134","system_id":"levelo_inurba_marseille","lat":43.30121,"lon":5.43101,"is_reserved":false,"is_disabled":false,"rental_uris":{"android":"levelo://app?vid=47f09c0c-92a9-44eb-a23c-69934b3ff134","ios":"levelo://app?vid=47f09c0c-92a9-44eb-a23c-69934b3ff134"},"vehicle_type_id":"4","last_reported":1761279161,"current_range_meters":16400,"station_id":"st_d3js3co5814s73ftftug","pricing_plan_id":"cebpf4jnsgd1na2vs0mg"},{"bike_id":"0844e5e6-3b0e-4980-aac1-8e6b427398e3","system_id":"levelo_inurba_marseille","lat":43.31696,"lon":5.40468,"is_reserved":false,"is_disabled":false,"rental_uris":{"android":"levelo://app?vid=0844e5e6-3b0e-4980-aac1-8e6b427398e3","ios":"levelo://app?vid=0844e5e6-3b0e-4980-aac1-8e6b427398e3"},"vehicle_type_id":"4","last_reported":1761279161,"current_range_meters":16400,"station_id":"ce4bh012rcd13ifvqd00","pricing_plan_id":"cebpf4jnsgd1na2vs0mg"},{"bike_id":"75765de9-f740-4f58-8f2f-b0e28986759f","system_id":"levelo_inurba_marseille","lat":43.30919,"lon":5.39214,"is_reserved":false,"is_disabled":false,"rental_uris":{"android":"levelo://app?vid=75765de9-f740-4f58-8f2f-b0e28986759f","ios":"levelo://app?vid=75765de9-f740-4f58-8f2f-b0e28986759f"},"vehicle_type_id":"4","last_reported":1761279161,"current_range_meters":16400,"station_id":"","pricing_plan_id":"cebpf4jnsgd1na2vs0mg"},{"bike_id":"e4c4a89a-f1f0-48a4-a027-c716bb865d76","system_id":"levelo_inurba_marseille","lat":43.30158,"lon":5.38086,"is_reserved":false,"is_disabled":false,"rental_uris":{"android":"levelo://app?vid=e4c4a89a-f1f0-48a4-a027-c716bb865d76","ios":"levelo://app?vid=e4c4a89a-f1f0-48a4-a027-c716bb865d76"},"vehicle_type_id":"4","last_reported":1761279161,"current_range_meters":16800,"station_id":"ce4bgjp2rcd13ifvqbh0","pricing_plan_id":"cebpf4jnsgd1na2vs0mg"},{"bike_id":"31a95ec3-1071-466d-8a67-9afdb57f73a0","system_id":"levelo_inurba_marseille","lat":43.27556,"lon":5.38426,"is_reserved":false,"is_disabled":false,"rental_uris":{"android":"levelo://app?vid=31a95ec3-1071-466d-8a67-9afdb57f73a0","ios":"levelo://app?vid=31a95ec3-1071-466d-8a67-9afdb57f73a0"},"vehicle_type_id":"4","last_reported":1761279161,"current_range_meters":16800,"station_id":"ce4bhh92rcd13ifvqfi0","pricing_plan_id":"cebpf4jnsgd1na2vs0mg"},{"bike_id":"f2a88201-ec4d-40e7-856a-1b850d1e932e","system_id":"levelo_inurba_marseille","lat":43.27807,"lon":5.407127,"is_reserved":false,"is_disabled":false,"rental_uris":{"android":"levelo://app?vid=f2a88201-ec4d-40e7-856a-1b850d1e932e","ios":"levelo://app?vid=f2a88201-ec4d-40e7-856a-1b850d1e932e"},"vehicle_type_id":"4","last_reported":1761279161,"current_range_meters":16800,"station_id":"ce4bhnh2rcd13ifvqgtg","pricing_plan_id":"cebpf4jnsgd1na2vs0mg"},{"bike_id":"cb3d7dc1-8e3d-4533-9819-7d17aa244928","system_id":"levelo_inurba_marseille","lat":43.30327,"lon":5.40444,"is_reserved":false,"is_disabled":false,"rental_uris":{"android":"levelo://app?vid=cb3d7dc1-8e3d-4533-9819-7d17aa244928","ios":"levelo://app?vid=cb3d7dc1-8e3d-4533-9819-7d17aa244928"},"vehicle_type_id":"4","last_reported":1761279161,"current_range_meters":16800,"station_id":"ce4bh012rcd13ifvqd10","pricing_plan_id":"cebpf4jnsgd1na2vs0mg"},{"bike_id":"764563dd-e368-48f5-a186-3a29a8a5295d","system_id":"levelo_inurba_marseille","lat":43.25934,"lon":5.4092,"is_reserved":false,"is_disabled":false,"rental_uris":{"android":"levelo://app?vid=764563dd-e368-48f5-a186-3a29a8a5295d","ios":"levelo://app?vid=764563dd-e368-48f5-a186-3a29a8a5295d"},"vehicle_type_id":"4","last_reported":1761279161,"current_range_meters":16800,"station_id":"ce4bhm92rcd13ifvqglg","pricing_plan_id":"cebpf4jnsgd1na2vs0mg"},{"bike_id":"77124793-d73a-43ea-8840-1a1b5476fa23","system_id":"levelo_inurba_marseille","lat":43.310202,"lon":5.380576,"is_reserved":false,"is_disabled":false,"rental_uris":{"android":"levelo://app?vid=77124793-d73a-43ea-8840-1a1b5476fa23","ios":"levelo://app?vid=77124793-d73a-43ea-8840-1a1b5476fa23"},"vehicle_type_id":"4","last_reported":1761279161,"current_range_meters":16800,"station_id":"","pricing_plan_id":"cebpf4jnsgd1na2vs0mg"},{"bike_id":"32ef8798-9d2a-4040-96bb-b72006fcf3fc","system_id":"levelo_inurba_marseille","lat":43.30159,"lon":5.38086,"is_reserved":false,"is_disabled":false,"rental_uris":{"android":"levelo://app?vid=32ef8798-9d2a-4040-96bb-b72006fcf3fc","ios":"levelo://app?vid=32ef8798-9d2a-4040-96bb-b72006fcf3fc"},"vehicle_type_id":"4","last_reported":1761279161,"current_range_meters":17200,"station_id":"ce4bgjp2rcd13ifvqbh0","pricing_plan_id":"cebpf4jnsgd1na2vs0mg"},{"bike_id":"bc18986f-720e-4fb1-8991-ac16da488f75","system_id":"levelo_inurba_marseille","lat":43.2789,"lon":5.39581,"is_reserved":false,"is_disabled":false,"rental_uris":{"android":"levelo://app?vid=bc18986f-720e-4fb1-8991-ac16da488f75","ios":"levelo://app?vid=bc18986f-720e-4fb1-8991-ac16da488f75"},"vehicle_type_id":"4","last_reported":1761279161,"current_range_meters":17200,"station_id":"ce4bhf92rcd13ifvqf40","pricing_plan_id":"cebpf4jnsgd1na2vs0mg"},{"bike_id":"45e2bc20-c1aa-4135-a212-24bd1aa6499b","system_id":"levelo_inurba_marseille","lat":43.31344,"lon":5.39673,"is_reserved":false,"is_disabled":false,"rental_uris":{"android":"levelo://app?vid=45e2bc20-c1aa-4135-a212-24bd1aa6499b","ios":"levelo://app?vid=45e2bc20-c1aa-4135-a212-24bd1aa6499b"},"vehicle_type_id":"4","last_reported":1761279161,"current_range_meters":17200,"station_id":"ce4bgvp2rcd13ifvqcu0","pricing_plan_id":"cebpf4jnsgd1na2vs0mg"},{"bike_id":"e4d9d28d-de5d-4eba-b45f-0315c6967297","system_id":"levelo_inurba_marseille","lat":43.25088,"lon":5.39497,"is_reserved":false,"is_disabled":false,"rental_uris":{"android":"levelo://app?vid=e4d9d28d-de5d-4eba-b45f-0315c6967297","ios":"levelo://app?vid=e4d9d28d-de5d-4eba-b45f-0315c6967297"},"vehicle_type_id":"4","last_reported":1761279161,"current_range_meters":17200,"station_id":"ce4bhm12rcd13ifvqgkg","pricing_plan_id":"cebpf4jnsgd1na2vs0mg"},{"bike_id":"49846689-0e6c-4f5a-9811-e66a070d89eb","system_id":"levelo_inurba_marseille","lat":43.2835,"lon":5.38124,"is_reserved":false,"is_disabled":false,"rental_uris":{"android":"levelo://app?vid=49846689-0e6c-4f5a-9811-e66a070d89eb","ios":"levelo://app?vid=49846689-0e6c-4f5a-9811-e66a070d89eb"},"vehicle_type_id":"4","last_reported":1761279161,"current_range_meters":17200,"station_id":"ce4bh412rcd13ifvqdr0","pricing_plan_id":"cebpf4jnsgd1na2vs0mg"},{"bike_id":"41e21137-1e1a-4741-b195-1b98dc043b19","system_id":"levelo_inurba_marseille","lat":43.23966,"lon":5.36627,"is_reserved":false,"is_disabled":false,"rental_uris":{"android":"levelo://app?vid=41e21137-1e1a-4741-b195-1b98dc043b19","ios":"levelo://app?vid=41e21137-1e1a-4741-b195-1b98dc043b19"},"vehicle_type_id":"4","last_reported":1761279161,"current_range_meters":17600,"station_id":"ce4bhi12rcd13ifvqfp0","pricing_plan_id":"cebpf4jnsgd1na2vs0mg"},{"bike_id":"249615da-bae2-4bb3-9506-b338b9fb85b7","system_id":"levelo_inurba_marseille","lat":43.29728,"lon":5.37711,"is_reserved":false,"is_disabled":true,"rental_uris":{"android":"levelo://app?vid=249615da-bae2-4bb3-9506-b338b9fb85b7","ios":"levelo://app?vid=249615da-bae2-4bb3-9506-b338b9fb85b7"},"vehicle_type_id":"4","last_reported":1761279161,"current_range_meters":17600,"station_id":"ce4bgkh2rcd13ifvqbl0","pricing_plan_id":"cebpf4jnsgd1na2vs0mg"},{"bike_id":"7f10cb41-4375-45db-98d0-5fae7c5c6b64","system_id":"levelo_inurba_marseille","lat":43.29064,"lon":5.35915,"is_reserved":false,"is_disabled":false,"rental_uris":{"android":"levelo://app?vid=7f10cb41-4375-45db-98d0-5fae7c5c6b64","ios":"levelo://app?vid=7f10cb41-4375-45db-98d0-5fae7c5c6b64"},"vehicle_type_id":"4","last_reported":1761279161,"current_range_meters":17600,"station_id":"ce4bha92rcd13ifvqeg0","pricing_plan_id":"cebpf4jnsgd1na2vs0mg"},{"bike_id":"4f5c5045-2f2c-4ab7-ad8b-eeba1d52fe66","system_id":"levelo_inurba_marseille","lat":43.315744,"lon":5.371875,"is_reserved":false,"is_disabled":false,"rental_uris":{"android":"levelo://app?vid=4f5c5045-2f2c-4ab7-ad8b-eeba1d52fe66","ios":"levelo://app?vid=4f5c5045-2f2c-4ab7-ad8b-eeba1d52fe66"},"vehicle_type_id":"4","last_reported":1761279161,"current_range_meters":17600,"station_id":"","pricing_plan_id":"cebpf4jnsgd1na2vs0mg"},{"bike_id":"f42c71f2-2f87-4e94-97f5-997a2b88a744","system_id":"levelo_inurba_marseille","lat":43.30389,"lon":5.37351,"is_reserved":false,"is_disabled":false,"rental_uris":{"android":"levelo://app?vid=f42c71f2-2f87-4e94-97f5-997a2b88a744","ios":"levelo://app?vid=f42c71f2-2f87-4e94-97f5-997a2b88a744"},"vehicle_type_id":"4","last_reported":1761279161,"current_range_meters":17600,"station_id":"","pricing_plan_id":"cebpf4jnsgd1na2vs0mg"},{"bike_id":"ce6cd538-c766-4c96-b93f-5b786164e4be","system_id":"levelo_inurba_marseille","lat":43.30884,"lon":5.37182,"is_reserved":false,"is_disabled":false,"rental_uris":{"android":"levelo://app?vid=ce6cd538-c766-4c96-b93f-5b786164e4be","ios":"levelo://app?vid=ce6cd538-c766-4c96-b93f-5b786164e4be"},"vehicle_type_id":"4","last_reported":1761279161,"current_range_meters":17600,"station_id":"ce4bguh2rcd13ifvqckg","pricing_plan_id":"cebpf4jnsgd1na2vs0mg"},{"bike_id":"e559161c-a2cd-4968-a410-2f6faa0a37df","system_id":"levelo_inurba_marseille","lat":43.30322,"lon":5.40463,"is_reserved":false,"is_disabled":false,"rental_uris":{"android":"levelo://app?vid=e559161c-a2cd-4968-a410-2f6faa0a37df","ios":"levelo://app?vid=e559161c-a2cd-4968-a410-2f6faa0a37df"},"vehicle_type_id":"4","last_reported":1761279161,"current_range_meters":17600,"station_id":"ce4bh012rcd13ifvqd10","pricing_plan_id":"cebpf4jnsgd1na2vs0mg"},{"bike_id":"dde114a4-8805-4784-b02d-0d744116457b","system_id":"levelo_inurba_marseille","lat":43.22953,"lon":5.3538,"is_reserved":false,"is_disabled":false,"rental_uris":{"android":"levelo://app?vid=dde114a4-8805-4784-b02d-0d744116457b","ios":"levelo://app?vid=dde114a4-8805-4784-b02d-0d744116457b"},"vehicle_type_id":"4","last_reported":1761279161,"current_range_meters":17600,"station_id":"cpo3532slgdg3j2ikp40","pricing_plan_id":"cebpf4jnsgd1na2vs0mg"},{"bike_id":"bcfa44af-c6d3-4262-ac21-f6548431981e","system_id":"levelo_inurba_marseille","lat":43.2811,"lon":5.37843,"is_reserved":false,"is_disabled":false,"rental_uris":{"android":"levelo://app?vid=bcfa44af-c6d3-4262-ac21-f6548431981e","ios":"levelo://app?vid=bcfa44af-c6d3-4262-ac21-f6548431981e"},"vehicle_type_id":"4","last_reported":1761279161,"current_range_meters":18000,"station_id":"ce4bha12rcd13ifvqee0","pricing_plan_id":"cebpf4jnsgd1na2vs0mg"},{"bike_id":"51f5c8c2-4020-440f-b660-182f7627d50e","system_id":"levelo_inurba_marseille","lat":43.270652,"lon":5.422729,"is_reserved":false,"is_disabled":true,"rental_uris":{"android":"levelo://app?vid=51f5c8c2-4020-440f-b660-182f7627d50e","ios":"levelo://app?vid=51f5c8c2-4020-440f-b660-182f7627d50e"},"vehicle_type_id":"4","last_reported":1761279161,"current_range_meters":18000,"station_id":"ce4bhk92rcd13ifvqgb0","pricing_plan_id":"cebpf4jnsgd1na2vs0mg"},{"bike_id":"519982c8-1992-4e8d-913c-02da47bc29af","system_id":"levelo_inurba_marseille","lat":43.28911,"lon":5.36387,"is_reserved":false,"is_disabled":false,"rental_uris":{"android":"levelo://app?vid=519982c8-1992-4e8d-913c-02da47bc29af","ios":"levelo://app?vid=519982c8-1992-4e8d-913c-02da47bc29af"},"vehicle_type_id":"4","last_reported":1761279161,"current_range_meters":18000,"station_id":"ce4bhc92rcd13ifvqetg","pricing_plan_id":"cebpf4jnsgd1na2vs0mg"},{"bike_id":"3ca631e8-ee58-4447-9ffa-10b8c34e15a6","system_id":"levelo_inurba_marseille","lat":43.311752,"lon":5.387193,"is_reserved":false,"is_disabled":false,"rental_uris":{"android":"levelo://app?vid=3ca631e8-ee58-4447-9ffa-10b8c34e15a6","ios":"levelo://app?vid=3ca631e8-ee58-4447-9ffa-10b8c34e15a6"},"vehicle_type_id":"4","last_reported":1761279161,"current_range_meters":18000,"station_id":"ce4bgv12rcd13ifvqcp0","pricing_plan_id":"cebpf4jnsgd1na2vs0mg"},{"bike_id":"6409505c-b225-4ec6-8eec-790d19d244a1","system_id":"levelo_inurba_marseille","lat":43.31274,"lon":5.401692,"is_reserved":false,"is_disabled":false,"rental_uris":{"android":"levelo://app?vid=6409505c-b225-4ec6-8eec-790d19d244a1","ios":"levelo://app?vid=6409505c-b225-4ec6-8eec-790d19d244a1"},"vehicle_type_id":"4","last_reported":1761279161,"current_range_meters":18000,"station_id":"ce4bh092rcd13ifvqd30","pricing_plan_id":"cebpf4jnsgd1na2vs0mg"},{"bike_id":"be88eaa4-e674-44f9-9199-3901304dd644","system_id":"levelo_inurba_marseille","lat":43.2175,"lon":5.34611,"is_reserved":false,"is_disabled":false,"rental_uris":{"android":"levelo://app?vid=be88eaa4-e674-44f9-9199-3901304dd644","ios":"levelo://app?vid=be88eaa4-e674-44f9-9199-3901304dd644"},"vehicle_type_id":"4","last_reported":1761279161,"current_range_meters":18800,"station_id":"st_cvj6r9ubvosntc0bgbag","pricing_plan_id":"cebpf4jnsgd1na2vs0mg"},{"bike_id":"2fff7e05-4e1f-4636-ac4e-598bbf28789a","system_id":"levelo_inurba_marseille","lat":43.31108,"lon":5.37784,"is_reserved":false,"is_disabled":false,"rental_uris":{"android":"levelo://app?vid=2fff7e05-4e1f-4636-ac4e-598bbf28789a","ios":"levelo://app?vid=2fff7e05-4e1f-4636-ac4e-598bbf28789a"},"vehicle_type_id":"4","last_reported":1761279161,"current_range_meters":18800,"station_id":"ce4bgt92rcd13ifvqcg0","pricing_plan_id":"cebpf4jnsgd1na2vs0mg"},{"bike_id":"796810e9-9510-4d82-acbf-fdceeb776ae4","system_id":"levelo_inurba_marseille","lat":43.287772,"lon":5.36267,"is_reserved":false,"is_disabled":false,"rental_uris":{"android":"levelo://app?vid=796810e9-9510-4d82-acbf-fdceeb776ae4","ios":"levelo://app?vid=796810e9-9510-4d82-acbf-fdceeb776ae4"},"vehicle_type_id":"4","last_reported":1761279161,"current_range_meters":18800,"station_id":"cki0cbj6b192h4jlfktg","pricing_plan_id":"cebpf4jnsgd1na2vs0mg"},{"bike_id":"17585014-36d0-4d96-ab97-1812e8c7fbe7","system_id":"levelo_inurba_marseille","lat":43.31667,"lon":5.38241,"is_reserved":false,"is_disabled":false,"rental_uris":{"android":"levelo://app?vid=17585014-36d0-4d96-ab97-1812e8c7fbe7","ios":"levelo://app?vid=17585014-36d0-4d96-ab97-1812e8c7fbe7"},"vehicle_type_id":"4","last_reported":1761279161,"current_range_meters":18800,"station_id":"","pricing_plan_id":"cebpf4jnsgd1na2vs0mg"},{"bike_id":"57b679af-c7e3-4aef-aaf7-dad7584c2820","system_id":"levelo_inurba_marseille","lat":43.25513,"lon":5.37659,"is_reserved":false,"is_disabled":false,"rental_uris":{"android":"levelo://app?vid=57b679af-c7e3-4aef-aaf7-dad7584c2820","ios":"levelo://app?vid=57b679af-c7e3-4aef-aaf7-dad7584c2820"},"vehicle_type_id":"4","last_reported":1761279161,"current_range_meters":18800,"station_id":"ce4bhh12rcd13ifvqff0","pricing_plan_id":"cebpf4jnsgd1na2vs0mg"},{"bike_id":"75eebb0f-2447-4bf8-b846-45b5b359059b","system_id":"levelo_inurba_marseille","lat":43.33769,"lon":5.37496,"is_reserved":false,"is_disabled":false,"rental_uris":{"android":"levelo://app?vid=75eebb0f-2447-4bf8-b846-45b5b359059b","ios":"levelo://app?vid=75eebb0f-2447-4bf8-b846-45b5b359059b"},"vehicle_type_id":"4","last_reported":1761279161,"current_range_meters":18800,"station_id":"","pricing_plan_id":"cebpf4jnsgd1na2vs0mg"},{"bike_id":"b8c97daa-9d25-46f3-82b1-f49b563fc2e4","system_id":"levelo_inurba_marseille","lat":43.24087,"lon":5.37768,"is_reserved":false,"is_disabled":false,"rental_uris":{"android":"levelo://app?vid=b8c97daa-9d25-46f3-82b1-f49b563fc2e4","ios":"levelo://app?vid=b8c97daa-9d25-46f3-82b1-f49b563fc2e4"},"vehicle_type_id":"4","last_reported":1761279161,"current_range_meters":18800,"station_id":"ce4bhnp2rcd13ifvqgvg","pricing_plan_id":"cebpf4jnsgd1na2vs0mg"},{"bike_id":"443169f7-d846-40c9-a7aa-fda85a0c675f","system_id":"levelo_inurba_marseille","lat":43.26189,"lon":5.3745,"is_reserved":false,"is_disabled":false,"rental_uris":{"android":"levelo://app?vid=443169f7-d846-40c9-a7aa-fda85a0c675f","ios":"levelo://app?vid=443169f7-d846-40c9-a7aa-fda85a0c675f"},"vehicle_type_id":"4","last_reported":1761279161,"current_range_meters":18800,"station_id":"ce4bhgp2rcd13ifvqfc0","pricing_plan_id":"cebpf4jnsgd1na2vs0mg"},{"bike_id":"9d964ec4-c537-4f1d-b21c-451d3f46b1bf","system_id":"levelo_inurba_marseille","lat":43.30001,"lon":5.37919,"is_reserved":false,"is_disabled":false,"rental_uris":{"android":"levelo://app?vid=9d964ec4-c537-4f1d-b21c-451d3f46b1bf","ios":"levelo://app?vid=9d964ec4-c537-4f1d-b21c-451d3f46b1bf"},"vehicle_type_id":"4","last_reported":1761279161,"current_range_meters":18800,"station_id":"","pricing_plan_id":"cebpf4jnsgd1na2vs0mg"},{"bike_id":"9b2296fc-ca6d-4d31-a88a-f05fbee1212f","system_id":"levelo_inurba_marseille","lat":43.28701,"lon":5.37369,"is_reserved":false,"is_disabled":false,"rental_uris":{"android":"levelo://app?vid=9b2296fc-ca6d-4d31-a88a-f05fbee1212f","ios":"levelo://app?vid=9b2296fc-ca6d-4d31-a88a-f05fbee1212f"},"vehicle_type_id":"4","last_reported":1761279161,"current_range_meters":19200,"station_id":"ce4bh3p2rcd13ifvqdq0","pricing_plan_id":"cebpf4jnsgd1na2vs0mg"},{"bike_id":"6bb9dc57-5792-4922-bf25-15b0e5cda6e8","system_id":"levelo_inurba_marseille","lat":43.24064,"lon":5.377735,"is_reserved":false,"is_disabled":false,"rental_uris":{"android":"levelo://app?vid=6bb9dc57-5792-4922-bf25-15b0e5cda6e8","ios":"levelo://app?vid=6bb9dc57-5792-4922-bf25-15b0e5cda6e8"},"vehicle_type_id":"4","last_reported":1761279161,"current_range_meters":19200,"station_id":"ce4bhnp2rcd13ifvqgvg","pricing_plan_id":"cebpf4jnsgd1na2vs0mg"},{"bike_id":"417d2345-c4c6-4ccd-bc5c-2eafc961607b","system_id":"levelo_inurba_marseille","lat":43.25508,"lon":5.37651,"is_reserved":false,"is_disabled":false,"rental_uris":{"android":"levelo://app?vid=417d2345-c4c6-4ccd-bc5c-2eafc961607b","ios":"levelo://app?vid=417d2345-c4c6-4ccd-bc5c-2eafc961607b"},"vehicle_type_id":"4","last_reported":1761279161,"current_range_meters":19200,"station_id":"ce4bhh12rcd13ifvqff0","pricing_plan_id":"cebpf4jnsgd1na2vs0mg"},{"bike_id":"348e7f1a-e0aa-4d12-90e2-0854b9c22a5c","system_id":"levelo_inurba_marseille","lat":43.26558,"lon":5.403203,"is_reserved":false,"is_disabled":false,"rental_uris":{"android":"levelo://app?vid=348e7f1a-e0aa-4d12-90e2-0854b9c22a5c","ios":"levelo://app?vid=348e7f1a-e0aa-4d12-90e2-0854b9c22a5c"},"vehicle_type_id":"4","last_reported":1761279161,"current_range_meters":19200,"station_id":"ce4bhmp2rcd13ifvqgng","pricing_plan_id":"cebpf4jnsgd1na2vs0mg"},{"bike_id":"a226f85a-9b8d-4151-b0e4-fc44f53407ee","system_id":"levelo_inurba_marseille","lat":43.2707,"lon":5.42278,"is_reserved":false,"is_disabled":false,"rental_uris":{"android":"levelo://app?vid=a226f85a-9b8d-4151-b0e4-fc44f53407ee","ios":"levelo://app?vid=a226f85a-9b8d-4151-b0e4-fc44f53407ee"},"vehicle_type_id":"4","last_reported":1761279161,"current_range_meters":19200,"station_id":"ce4bhk92rcd13ifvqgb0","pricing_plan_id":"cebpf4jnsgd1na2vs0mg"},{"bike_id":"56e46bd6-639a-4264-8565-cf6294d40da4","system_id":"levelo_inurba_marseille","lat":43.306013,"lon":5.3937,"is_reserved":false,"is_disabled":false,"rental_uris":{"android":"levelo://app?vid=56e46bd6-639a-4264-8565-cf6294d40da4","ios":"levelo://app?vid=56e46bd6-639a-4264-8565-cf6294d40da4"},"vehicle_type_id":"4","last_reported":1761279161,"current_range_meters":19200,"station_id":"ce4bh0p2rcd13ifvqd80","pricing_plan_id":"cebpf4jnsgd1na2vs0mg"},{"bike_id":"8d881a98-71e9-421e-9e11-c692cd36b6d1","system_id":"levelo_inurba_marseille","lat":43.27817,"lon":5.40718,"is_reserved":false,"is_disabled":false,"rental_uris":{"android":"levelo://app?vid=8d881a98-71e9-421e-9e11-c692cd36b6d1","ios":"levelo://app?vid=8d881a98-71e9-421e-9e11-c692cd36b6d1"},"vehicle_type_id":"4","last_reported":1761279161,"current_range_meters":19600,"station_id":"ce4bhnh2rcd13ifvqgtg","pricing_plan_id":"cebpf4jnsgd1na2vs0mg"},{"bike_id":"44392c91-609e-4e00-8555-1a264da39f5c","system_id":"levelo_inurba_marseille","lat":43.28953,"lon":5.36406,"is_reserved":false,"is_disabled":false,"rental_uris":{"android":"levelo://app?vid=44392c91-609e-4e00-8555-1a264da39f5c","ios":"levelo://app?vid=44392c91-609e-4e00-8555-1a264da39f5c"},"vehicle_type_id":"4","last_reported":1761279161,"current_range_meters":19600,"station_id":"ce4bhc92rcd13ifvqetg","pricing_plan_id":"cebpf4jnsgd1na2vs0mg"},{"bike_id":"4c94584e-497f-4b1c-b5af-56f3db4eef2d","system_id":"levelo_inurba_marseille","lat":43.29728,"lon":5.37158,"is_reserved":false,"is_disabled":false,"rental_uris":{"android":"levelo://app?vid=4c94584e-497f-4b1c-b5af-56f3db4eef2d","ios":"levelo://app?vid=4c94584e-497f-4b1c-b5af-56f3db4eef2d"},"vehicle_type_id":"4","last_reported":1761279161,"current_range_meters":19600,"station_id":"","pricing_plan_id":"cebpf4jnsgd1na2vs0mg"},{"bike_id":"1ff5ed0f-2a79-45a2-905f-643edf75a268","system_id":"levelo_inurba_marseille","lat":43.24088,"lon":5.37754,"is_reserved":false,"is_disabled":false,"rental_uris":{"android":"levelo://app?vid=1ff5ed0f-2a79-45a2-905f-643edf75a268","ios":"levelo://app?vid=1ff5ed0f-2a79-45a2-905f-643edf75a268"},"vehicle_type_id":"4","last_reported":1761279161,"current_range_meters":19600,"station_id":"ce4bhnp2rcd13ifvqgvg","pricing_plan_id":"cebpf4jnsgd1na2vs0mg"},{"bike_id":"37d7af54-88ad-4b96-90ce-e02c0aeb4bc9","system_id":"levelo_inurba_marseille","lat":43.28946,"lon":5.3664,"is_reserved":false,"is_disabled":true,"rental_uris":{"android":"levelo://app?vid=37d7af54-88ad-4b96-90ce-e02c0aeb4bc9","ios":"levelo://app?vid=37d7af54-88ad-4b96-90ce-e02c0aeb4bc9"},"vehicle_type_id":"4","last_reported":1761279161,"current_range_meters":19600,"station_id":"ce4bhap2rcd13ifvqek0","pricing_plan_id":"cebpf4jnsgd1na2vs0mg"},{"bike_id":"c2b505db-1ab2-4cbc-8408-f48f35a4beb9","system_id":"levelo_inurba_marseille","lat":43.2587,"lon":5.39894,"is_reserved":false,"is_disabled":false,"rental_uris":{"android":"levelo://app?vid=c2b505db-1ab2-4cbc-8408-f48f35a4beb9","ios":"levelo://app?vid=c2b505db-1ab2-4cbc-8408-f48f35a4beb9"},"vehicle_type_id":"4","last_reported":1761279161,"current_range_meters":19600,"station_id":"ce4bhl92rcd13ifvqghg","pricing_plan_id":"cebpf4jnsgd1na2vs0mg"},{"bike_id":"f8d4a75f-848b-40a7-b489-b7a8af25023c","system_id":"levelo_inurba_marseille","lat":43.308814,"lon":5.396382,"is_reserved":false,"is_disabled":false,"rental_uris":{"android":"levelo://app?vid=f8d4a75f-848b-40a7-b489-b7a8af25023c","ios":"levelo://app?vid=f8d4a75f-848b-40a7-b489-b7a8af25023c"},"vehicle_type_id":"4","last_reported":1761279161,"current_range_meters":19600,"station_id":"ce4bh012rcd13ifvqcv0","pricing_plan_id":"cebpf4jnsgd1na2vs0mg"},{"bike_id":"a14127e7-ec52-496b-b96f-8b9d112e3a33","system_id":"levelo_inurba_marseille","lat":43.287058,"lon":5.37389,"is_reserved":false,"is_disabled":true,"rental_uris":{"android":"levelo://app?vid=a14127e7-ec52-496b-b96f-8b9d112e3a33","ios":"levelo://app?vid=a14127e7-ec52-496b-b96f-8b9d112e3a33"},"vehicle_type_id":"4","last_reported":1761279161,"current_range_meters":19600,"station_id":"ce4bh3p2rcd13ifvqdq0","pricing_plan_id":"cebpf4jnsgd1na2vs0mg"},{"bike_id":"2087b646-f196-4c5f-b880-88d0df9000fb","system_id":"levelo_inurba_marseille","lat":43.28152,"lon":5.4264,"is_reserved":false,"is_disabled":false,"rental_uris":{"android":"levelo://app?vid=2087b646-f196-4c5f-b880-88d0df9000fb","ios":"levelo://app?vid=2087b646-f196-4c5f-b880-88d0df9000fb"},"vehicle_type_id":"4","last_reported":1761279161,"current_range_meters":19600,"station_id":"ce4bhnh2rcd13ifvqgug","pricing_plan_id":"cebpf4jnsgd1na2vs0mg"},{"bike_id":"25c41e3b-519a-40ac-8edd-4141b9ca9f82","system_id":"levelo_inurba_marseille","lat":43.24069,"lon":5.377523,"is_reserved":false,"is_disabled":false,"rental_uris":{"android":"levelo://app?vid=25c41e3b-519a-40ac-8edd-4141b9ca9f82","ios":"levelo://app?vid=25c41e3b-519a-40ac-8edd-4141b9ca9f82"},"vehicle_type_id":"4","last_reported":1761279161,"current_range_meters":19600,"station_id":"ce4bhnp2rcd13ifvqgvg","pricing_plan_id":"cebpf4jnsgd1na2vs0mg"},{"bike_id":"a523e4d5-3644-4f62-a1d9-5ea926fd2cc8","system_id":"levelo_inurba_marseille","lat":43.311797,"lon":5.387219,"is_reserved":false,"is_disabled":false,"rental_uris":{"android":"levelo://app?vid=a523e4d5-3644-4f62-a1d9-5ea926fd2cc8","ios":"levelo://app?vid=a523e4d5-3644-4f62-a1d9-5ea926fd2cc8"},"vehicle_type_id":"4","last_reported":1761279161,"current_range_meters":19600,"station_id":"ce4bgv12rcd13ifvqcp0","pricing_plan_id":"cebpf4jnsgd1na2vs0mg"},{"bike_id":"8c8fb62c-ad3c-4fec-8adf-4fb548759c23","system_id":"levelo_inurba_marseille","lat":43.330211,"lon":5.39043,"is_reserved":false,"is_disabled":false,"rental_uris":{"android":"levelo://app?vid=8c8fb62c-ad3c-4fec-8adf-4fb548759c23","ios":"levelo://app?vid=8c8fb62c-ad3c-4fec-8adf-4fb548759c23"},"vehicle_type_id":"4","last_reported":1761279161,"current_range_meters":19600,"station_id":"ce4bhr92rcd13ifvqhrg","pricing_plan_id":"cebpf4jnsgd1na2vs0mg"},{"bike_id":"3c313c1b-fb8e-42af-ac57-4a639bfffb1d","system_id":"levelo_inurba_marseille","lat":43.28085,"lon":5.37855,"is_reserved":false,"is_disabled":false,"rental_uris":{"android":"levelo://app?vid=3c313c1b-fb8e-42af-ac57-4a639bfffb1d","ios":"levelo://app?vid=3c313c1b-fb8e-42af-ac57-4a639bfffb1d"},"vehicle_type_id":"4","last_reported":1761279161,"current_range_meters":19600,"station_id":"ce4bha12rcd13ifvqee0","pricing_plan_id":"cebpf4jnsgd1na2vs0mg"},{"bike_id":"f403df9f-a552-493f-8a4f-1d5c0b3eb8c7","system_id":"levelo_inurba_marseille","lat":43.25928,"lon":5.40892,"is_reserved":false,"is_disabled":true,"rental_uris":{"android":"levelo://app?vid=f403df9f-a552-493f-8a4f-1d5c0b3eb8c7","ios":"levelo://app?vid=f403df9f-a552-493f-8a4f-1d5c0b3eb8c7"},"vehicle_type_id":"4","last_reported":1761279161,"current_range_meters":20000,"station_id":"ce4bhm92rcd13ifvqglg","pricing_plan_id":"cebpf4jnsgd1na2vs0mg"},{"bike_id":"b833b32a-e372-4aa4-832f-4c5684cbb232","system_id":"levelo_inurba_marseille","lat":43.24955,"lon":5.40487,"is_reserved":false,"is_disabled":false,"rental_uris":{"android":"levelo://app?vid=b833b32a-e372-4aa4-832f-4c5684cbb232","ios":"levelo://app?vid=b833b32a-e372-4aa4-832f-4c5684cbb232"},"vehicle_type_id":"4","last_reported":1761279161,"current_range_meters":20000,"station_id":"st_d2ngiaodas8pm72gd1h0","pricing_plan_id":"cebpf4jnsgd1na2vs0mg"},{"bike_id":"468ea685-2f35-4772-9a1e-90437d909e9b","system_id":"levelo_inurba_marseille","lat":43.28889,"lon":5.35882,"is_reserved":false,"is_disabled":false,"rental_uris":{"android":"levelo://app?vid=468ea685-2f35-4772-9a1e-90437d909e9b","ios":"levelo://app?vid=468ea685-2f35-4772-9a1e-90437d909e9b"},"vehicle_type_id":"4","last_reported":1761279161,"current_range_meters":20000,"station_id":"","pricing_plan_id":"cebpf4jnsgd1na2vs0mg"},{"bike_id":"36f30fea-bdb4-4f9d-8b2b-249c8a714098","system_id":"levelo_inurba_marseille","lat":43.31719,"lon":5.423983,"is_reserved":false,"is_disabled":false,"rental_uris":{"android":"levelo://app?vid=36f30fea-bdb4-4f9d-8b2b-249c8a714098","ios":"levelo://app?vid=36f30fea-bdb4-4f9d-8b2b-249c8a714098"},"vehicle_type_id":"4","last_reported":1761279161,"current_range_meters":20000,"station_id":"ce4bhp92rcd13ifvqhbg","pricing_plan_id":"cebpf4jnsgd1na2vs0mg"},{"bike_id":"4b9e7562-9522-4e30-8e7d-2c8520ef9dc6","system_id":"levelo_inurba_marseille","lat":43.25091,"lon":5.395131,"is_reserved":false,"is_disabled":false,"rental_uris":{"android":"levelo://app?vid=4b9e7562-9522-4e30-8e7d-2c8520ef9dc6","ios":"levelo://app?vid=4b9e7562-9522-4e30-8e7d-2c8520ef9dc6"},"vehicle_type_id":"4","last_reported":1761279161,"current_range_meters":20000,"station_id":"ce4bhm12rcd13ifvqgkg","pricing_plan_id":"cebpf4jnsgd1na2vs0mg"},{"bike_id":"984fab6f-d464-4307-88c6-9cb9049be542","system_id":"levelo_inurba_marseille","lat":43.29194,"lon":5.35757,"is_reserved":false,"is_disabled":false,"rental_uris":{"android":"levelo://app?vid=984fab6f-d464-4307-88c6-9cb9049be542","ios":"levelo://app?vid=984fab6f-d464-4307-88c6-9cb9049be542"},"vehicle_type_id":"4","last_reported":1761279161,"current_range_meters":20000,"station_id":"ce4bhb12rcd13ifvqel0","pricing_plan_id":"cebpf4jnsgd1na2vs0mg"},{"bike_id":"00c8d37e-80c1-4547-bb88-d54d463e4083","system_id":"levelo_inurba_marseille","lat":43.290351,"lon":5.375639,"is_reserved":false,"is_disabled":false,"rental_uris":{"android":"levelo://app?vid=00c8d37e-80c1-4547-bb88-d54d463e4083","ios":"levelo://app?vid=00c8d37e-80c1-4547-bb88-d54d463e4083"},"vehicle_type_id":"4","last_reported":1761279161,"current_range_meters":20000,"station_id":"","pricing_plan_id":"cebpf4jnsgd1na2vs0mg"},{"bike_id":"1e04bd5e-dba9-4c39-b5e3-df33312b1ae1","system_id":"levelo_inurba_marseille","lat":43.270667,"lon":5.382999,"is_reserved":false,"is_disabled":false,"rental_uris":{"android":"levelo://app?vid=1e04bd5e-dba9-4c39-b5e3-df33312b1ae1","ios":"levelo://app?vid=1e04bd5e-dba9-4c39-b5e3-df33312b1ae1"},"vehicle_type_id":"4","last_reported":1761279161,"current_range_meters":20000,"station_id":"st_d3n2fo6cfp8s73cte1j0","pricing_plan_id":"cebpf4jnsgd1na2vs0mg"},{"bike_id":"ab1dc6bf-d651-4056-ad23-b67254daea0b","system_id":"levelo_inurba_marseille","lat":43.337509,"lon":5.375088,"is_reserved":false,"is_disabled":false,"rental_uris":{"android":"levelo://app?vid=ab1dc6bf-d651-4056-ad23-b67254daea0b","ios":"levelo://app?vid=ab1dc6bf-d651-4056-ad23-b67254daea0b"},"vehicle_type_id":"4","last_reported":1761279161,"current_range_meters":20000,"station_id":"","pricing_plan_id":"cebpf4jnsgd1na2vs0mg"},{"bike_id":"f5899999-6054-42c3-891f-bdfbc4d9c516","system_id":"levelo_inurba_marseille","lat":43.25347,"lon":5.4221,"is_reserved":false,"is_disabled":false,"rental_uris":{"android":"levelo://app?vid=f5899999-6054-42c3-891f-bdfbc4d9c516","ios":"levelo://app?vid=f5899999-6054-42c3-891f-bdfbc4d9c516"},"vehicle_type_id":"4","last_reported":1761279161,"current_range_meters":20000,"station_id":"st_d2m65c5bi1j21697t3ng","pricing_plan_id":"cebpf4jnsgd1na2vs0mg"},{"bike_id":"92d55843-3f2f-4f67-b9fd-cb2d3a3f1823","system_id":"levelo_inurba_marseille","lat":43.240723,"lon":5.377557,"is_reserved":false,"is_disabled":false,"rental_uris":{"android":"levelo://app?vid=92d55843-3f2f-4f67-b9fd-cb2d3a3f1823","ios":"levelo://app?vid=92d55843-3f2f-4f67-b9fd-cb2d3a3f1823"},"vehicle_type_id":"4","last_reported":1761279161,"current_range_meters":20000,"station_id":"ce4bhnp2rcd13ifvqgvg","pricing_plan_id":"cebpf4jnsgd1na2vs0mg"},{"bike_id":"8e92164c-deff-4fbd-9f4e-43ff81933572","system_id":"levelo_inurba_marseille","lat":43.29853,"lon":5.42016,"is_reserved":false,"is_disabled":false,"rental_uris":{"android":"levelo://app?vid=8e92164c-deff-4fbd-9f4e-43ff81933572","ios":"levelo://app?vid=8e92164c-deff-4fbd-9f4e-43ff81933572"},"vehicle_type_id":"4","last_reported":1761279161,"current_range_meters":20000,"station_id":"","pricing_plan_id":"cebpf4jnsgd1na2vs0mg"},{"bike_id":"3a778c7e-bf47-4cf2-8970-13230c721f9f","system_id":"levelo_inurba_marseille","lat":43.246656,"lon":5.381562,"is_reserved":false,"is_disabled":false,"rental_uris":{"android":"levelo://app?vid=3a778c7e-bf47-4cf2-8970-13230c721f9f","ios":"levelo://app?vid=3a778c7e-bf47-4cf2-8970-13230c721f9f"},"vehicle_type_id":"4","last_reported":1761279161,"current_range_meters":20000,"station_id":"ce4bhih2rcd13ifvqfr0","pricing_plan_id":"cebpf4jnsgd1na2vs0mg"},{"bike_id":"f34b1382-6891-4e13-892b-cd84608321c6","system_id":"levelo_inurba_marseille","lat":43.317244,"lon":5.423974,"is_reserved":false,"is_disabled":false,"rental_uris":{"android":"levelo://app?vid=f34b1382-6891-4e13-892b-cd84608321c6","ios":"levelo://app?vid=f34b1382-6891-4e13-892b-cd84608321c6"},"vehicle_type_id":"4","last_reported":1761279161,"current_range_meters":20000,"station_id":"ce4bhp92rcd13ifvqhbg","pricing_plan_id":"cebpf4jnsgd1na2vs0mg"},{"bike_id":"1060fd7b-9e0d-427e-a00f-2040fd173c83","system_id":"levelo_inurba_marseille","lat":43.3393,"lon":5.40735,"is_reserved":false,"is_disabled":false,"rental_uris":{"android":"levelo://app?vid=1060fd7b-9e0d-427e-a00f-2040fd173c83","ios":"levelo://app?vid=1060fd7b-9e0d-427e-a00f-2040fd173c83"},"vehicle_type_id":"4","last_reported":1761279161,"current_range_meters":20400,"station_id":"ce4bhqh2rcd13ifvqhmg","pricing_plan_id":"cebpf4jnsgd1na2vs0mg"},{"bike_id":"ab2c1daa-78f9-4827-99c3-d19ffd35e399","system_id":"levelo_inurba_marseille","lat":43.294923,"lon":5.433061,"is_reserved":false,"is_disabled":false,"rental_uris":{"android":"levelo://app?vid=ab2c1daa-78f9-4827-99c3-d19ffd35e399","ios":"levelo://app?vid=ab2c1daa-78f9-4827-99c3-d19ffd35e399"},"vehicle_type_id":"4","last_reported":1761279161,"current_range_meters":20400,"station_id":"st_d3j5ugp08ojc73fj9d10","pricing_plan_id":"cebpf4jnsgd1na2vs0mg"},{"bike_id":"abbf52bc-9bde-4a40-9d12-0ac531182ea6","system_id":"levelo_inurba_marseille","lat":43.24067,"lon":5.37761,"is_reserved":false,"is_disabled":false,"rental_uris":{"android":"levelo://app?vid=abbf52bc-9bde-4a40-9d12-0ac531182ea6","ios":"levelo://app?vid=abbf52bc-9bde-4a40-9d12-0ac531182ea6"},"vehicle_type_id":"4","last_reported":1761279161,"current_range_meters":20400,"station_id":"ce4bhnp2rcd13ifvqgvg","pricing_plan_id":"cebpf4jnsgd1na2vs0mg"},{"bike_id":"b9c8c43d-1621-4310-ac8a-831f9d693fc1","system_id":"levelo_inurba_marseille","lat":43.211949,"lon":5.350814,"is_reserved":false,"is_disabled":true,"rental_uris":{"android":"levelo://app?vid=b9c8c43d-1621-4310-ac8a-831f9d693fc1","ios":"levelo://app?vid=b9c8c43d-1621-4310-ac8a-831f9d693fc1"},"vehicle_type_id":"4","last_reported":1761279161,"current_range_meters":20400,"station_id":"st_cvj6sg6p6f1abm77japg","pricing_plan_id":"cebpf4jnsgd1na2vs0mg"},{"bike_id":"7b44cf15-ddd7-45af-813e-645d33369c48","system_id":"levelo_inurba_marseille","lat":43.29292,"lon":5.40136,"is_reserved":false,"is_disabled":false,"rental_uris":{"android":"levelo://app?vid=7b44cf15-ddd7-45af-813e-645d33369c48","ios":"levelo://app?vid=7b44cf15-ddd7-45af-813e-645d33369c48"},"vehicle_type_id":"4","last_reported":1761279161,"current_range_meters":20400,"station_id":"ce4bh312rcd13ifvqdk0","pricing_plan_id":"cebpf4jnsgd1na2vs0mg"},{"bike_id":"0bee0626-b9a8-413e-bed7-d82dc19927df","system_id":"levelo_inurba_marseille","lat":43.314814,"lon":5.37295,"is_reserved":false,"is_disabled":false,"rental_uris":{"android":"levelo://app?vid=0bee0626-b9a8-413e-bed7-d82dc19927df","ios":"levelo://app?vid=0bee0626-b9a8-413e-bed7-d82dc19927df"},"vehicle_type_id":"4","last_reported":1761279161,"current_range_meters":20400,"station_id":"ce4bgt12rcd13ifvqcd0","pricing_plan_id":"cebpf4jnsgd1na2vs0mg"},{"bike_id":"505e3cf9-e587-4a2c-8170-e3f1279949ce","system_id":"levelo_inurba_marseille","lat":43.29011,"lon":5.36626,"is_reserved":false,"is_disabled":false,"rental_uris":{"android":"levelo://app?vid=505e3cf9-e587-4a2c-8170-e3f1279949ce","ios":"levelo://app?vid=505e3cf9-e587-4a2c-8170-e3f1279949ce"},"vehicle_type_id":"4","last_reported":1761279161,"current_range_meters":20400,"station_id":"","pricing_plan_id":"cebpf4jnsgd1na2vs0mg"},{"bike_id":"9489737c-7c2c-4f83-bc76-e520af4d2990","system_id":"levelo_inurba_marseille","lat":43.32365,"lon":5.38888,"is_reserved":false,"is_disabled":false,"rental_uris":{"android":"levelo://app?vid=9489737c-7c2c-4f83-bc76-e520af4d2990","ios":"levelo://app?vid=9489737c-7c2c-4f83-bc76-e520af4d2990"},"vehicle_type_id":"4","last_reported":1761279161,"current_range_meters":20400,"station_id":"ce4bhqp2rcd13ifvqhog","pricing_plan_id":"cebpf4jnsgd1na2vs0mg"},{"bike_id":"4c4fe0a5-47de-4746-ab0e-a35df0320f25","system_id":"levelo_inurba_marseille","lat":43.30892,"lon":5.39651,"is_reserved":false,"is_disabled":false,"rental_uris":{"android":"levelo://app?vid=4c4fe0a5-47de-4746-ab0e-a35df0320f25","ios":"levelo://app?vid=4c4fe0a5-47de-4746-ab0e-a35df0320f25"},"vehicle_type_id":"4","last_reported":1761279161,"current_range_meters":20400,"station_id":"ce4bh012rcd13ifvqcv0","pricing_plan_id":"cebpf4jnsgd1na2vs0mg"},{"bike_id":"73a84e4b-1dc4-4293-ac07-8c8f95c6e770","system_id":"levelo_inurba_marseille","lat":43.31124,"lon":5.3777,"is_reserved":false,"is_disabled":true,"rental_uris":{"android":"levelo://app?vid=73a84e4b-1dc4-4293-ac07-8c8f95c6e770","ios":"levelo://app?vid=73a84e4b-1dc4-4293-ac07-8c8f95c6e770"},"vehicle_type_id":"4","last_reported":1761279161,"current_range_meters":20800,"station_id":"ce4bgt92rcd13ifvqcg0","pricing_plan_id":"cebpf4jnsgd1na2vs0mg"},{"bike_id":"bfaea6f8-ccc6-44a7-83a6-9d7d9a7e60cc","system_id":"levelo_inurba_marseille","lat":43.26394,"lon":5.3976,"is_reserved":false,"is_disabled":false,"rental_uris":{"android":"levelo://app?vid=bfaea6f8-ccc6-44a7-83a6-9d7d9a7e60cc","ios":"levelo://app?vid=bfaea6f8-ccc6-44a7-83a6-9d7d9a7e60cc"},"vehicle_type_id":"4","last_reported":1761279161,"current_range_meters":20800,"station_id":"","pricing_plan_id":"cebpf4jnsgd1na2vs0mg"},{"bike_id":"85b42b4b-997e-4fbf-b50e-714fc05c6d7d","system_id":"levelo_inurba_marseille","lat":43.277658,"lon":5.375957,"is_reserved":false,"is_disabled":false,"rental_uris":{"android":"levelo://app?vid=85b42b4b-997e-4fbf-b50e-714fc05c6d7d","ios":"levelo://app?vid=85b42b4b-997e-4fbf-b50e-714fc05c6d7d"},"vehicle_type_id":"4","last_reported":1761279161,"current_range_meters":20800,"station_id":"","pricing_plan_id":"cebpf4jnsgd1na2vs0mg"},{"bike_id":"1d91d2c9-29d3-4c7d-a6a8-29c5c39d1cce","system_id":"levelo_inurba_marseille","lat":43.21764,"lon":5.34624,"is_reserved":false,"is_disabled":false,"rental_uris":{"android":"levelo://app?vid=1d91d2c9-29d3-4c7d-a6a8-29c5c39d1cce","ios":"levelo://app?vid=1d91d2c9-29d3-4c7d-a6a8-29c5c39d1cce"},"vehicle_type_id":"4","last_reported":1761279161,"current_range_meters":20800,"station_id":"st_cvj6r9ubvosntc0bgbag","pricing_plan_id":"cebpf4jnsgd1na2vs0mg"},{"bike_id":"d917453a-01a3-4404-a5f1-4fe28d26bd67","system_id":"levelo_inurba_marseille","lat":43.30257,"lon":5.40028,"is_reserved":false,"is_disabled":false,"rental_uris":{"android":"levelo://app?vid=d917453a-01a3-4404-a5f1-4fe28d26bd67","ios":"levelo://app?vid=d917453a-01a3-4404-a5f1-4fe28d26bd67"},"vehicle_type_id":"4","last_reported":1761279161,"current_range_meters":20800,"station_id":"ce4bgvh2rcd13ifvqcs0","pricing_plan_id":"cebpf4jnsgd1na2vs0mg"},{"bike_id":"6ed5db16-815f-41f1-96da-9f4e2292b532","system_id":"levelo_inurba_marseille","lat":43.28107,"lon":5.37835,"is_reserved":false,"is_disabled":false,"rental_uris":{"android":"levelo://app?vid=6ed5db16-815f-41f1-96da-9f4e2292b532","ios":"levelo://app?vid=6ed5db16-815f-41f1-96da-9f4e2292b532"},"vehicle_type_id":"4","last_reported":1761279161,"current_range_meters":20800,"station_id":"ce4bha12rcd13ifvqee0","pricing_plan_id":"cebpf4jnsgd1na2vs0mg"},{"bike_id":"43897e44-4efb-4568-810b-25daf8b4cdaa","system_id":"levelo_inurba_marseille","lat":43.24076,"lon":5.37752,"is_reserved":false,"is_disabled":false,"rental_uris":{"android":"levelo://app?vid=43897e44-4efb-4568-810b-25daf8b4cdaa","ios":"levelo://app?vid=43897e44-4efb-4568-810b-25daf8b4cdaa"},"vehicle_type_id":"4","last_reported":1761279161,"current_range_meters":20800,"station_id":"ce4bhnp2rcd13ifvqgvg","pricing_plan_id":"cebpf4jnsgd1na2vs0mg"},{"bike_id":"369c4303-b9fa-4965-80f3-84a1c0c05bfc","system_id":"levelo_inurba_marseille","lat":43.311806,"lon":5.387174,"is_reserved":false,"is_disabled":false,"rental_uris":{"android":"levelo://app?vid=369c4303-b9fa-4965-80f3-84a1c0c05bfc","ios":"levelo://app?vid=369c4303-b9fa-4965-80f3-84a1c0c05bfc"},"vehicle_type_id":"4","last_reported":1761279161,"current_range_meters":21600,"station_id":"ce4bgv12rcd13ifvqcp0","pricing_plan_id":"cebpf4jnsgd1na2vs0mg"},{"bike_id":"85831b0c-ac03-4a31-ad4b-6acd383c62ca","system_id":"levelo_inurba_marseille","lat":43.27736,"lon":5.38921,"is_reserved":false,"is_disabled":false,"rental_uris":{"android":"levelo://app?vid=85831b0c-ac03-4a31-ad4b-6acd383c62ca","ios":"levelo://app?vid=85831b0c-ac03-4a31-ad4b-6acd383c62ca"},"vehicle_type_id":"4","last_reported":1761279161,"current_range_meters":21600,"station_id":"","pricing_plan_id":"cebpf4jnsgd1na2vs0mg"},{"bike_id":"2b927774-d5c4-4f29-9e7d-871d8cfd6e3e","system_id":"levelo_inurba_marseille","lat":43.286161,"lon":5.351016,"is_reserved":false,"is_disabled":false,"rental_uris":{"android":"levelo://app?vid=2b927774-d5c4-4f29-9e7d-871d8cfd6e3e","ios":"levelo://app?vid=2b927774-d5c4-4f29-9e7d-871d8cfd6e3e"},"vehicle_type_id":"4","last_reported":1761279161,"current_range_meters":21600,"station_id":"ce4bhch2rcd13ifvqeug","pricing_plan_id":"cebpf4jnsgd1na2vs0mg"},{"bike_id":"05a41d5b-5136-4a4d-ad6a-882394cf4af1","system_id":"levelo_inurba_marseille","lat":43.27945,"lon":5.41052,"is_reserved":false,"is_disabled":false,"rental_uris":{"android":"levelo://app?vid=05a41d5b-5136-4a4d-ad6a-882394cf4af1","ios":"levelo://app?vid=05a41d5b-5136-4a4d-ad6a-882394cf4af1"},"vehicle_type_id":"4","last_reported":1761279161,"current_range_meters":21600,"station_id":"ce4bhnp2rcd13ifvqh0g","pricing_plan_id":"cebpf4jnsgd1na2vs0mg"},{"bike_id":"0673b98c-ff7c-4ddb-a025-1e929717cb60","system_id":"levelo_inurba_marseille","lat":43.2501,"lon":5.3892,"is_reserved":false,"is_disabled":false,"rental_uris":{"android":"levelo://app?vid=0673b98c-ff7c-4ddb-a025-1e929717cb60","ios":"levelo://app?vid=0673b98c-ff7c-4ddb-a025-1e929717cb60"},"vehicle_type_id":"4","last_reported":1761279161,"current_range_meters":21600,"station_id":"ce4bhgp2rcd13ifvqfd0","pricing_plan_id":"cebpf4jnsgd1na2vs0mg"},{"bike_id":"b3d445b3-d839-4a8f-8039-a57bf62887bd","system_id":"levelo_inurba_marseille","lat":43.29581,"lon":5.37497,"is_reserved":false,"is_disabled":true,"rental_uris":{"android":"levelo://app?vid=b3d445b3-d839-4a8f-8039-a57bf62887bd","ios":"levelo://app?vid=b3d445b3-d839-4a8f-8039-a57bf62887bd"},"vehicle_type_id":"4","last_reported":1761279161,"current_range_meters":21600,"station_id":"ce4bgh92rcd13ifvqb50","pricing_plan_id":"cebpf4jnsgd1na2vs0mg"},{"bike_id":"ee033b22-31da-48a8-88d3-8b8e42a29a72","system_id":"levelo_inurba_marseille","lat":43.28646,"lon":5.35087,"is_reserved":false,"is_disabled":false,"rental_uris":{"android":"levelo://app?vid=ee033b22-31da-48a8-88d3-8b8e42a29a72","ios":"levelo://app?vid=ee033b22-31da-48a8-88d3-8b8e42a29a72"},"vehicle_type_id":"4","last_reported":1761279161,"current_range_meters":21600,"station_id":"ce4bhch2rcd13ifvqeug","pricing_plan_id":"cebpf4jnsgd1na2vs0mg"},{"bike_id":"eec197c3-9146-4942-bfc2-b26b699ad249","system_id":"levelo_inurba_marseille","lat":43.27944,"lon":5.4104,"is_reserved":false,"is_disabled":false,"rental_uris":{"android":"levelo://app?vid=eec197c3-9146-4942-bfc2-b26b699ad249","ios":"levelo://app?vid=eec197c3-9146-4942-bfc2-b26b699ad249"},"vehicle_type_id":"4","last_reported":1761279161,"current_range_meters":21600,"station_id":"ce4bhnp2rcd13ifvqh0g","pricing_plan_id":"cebpf4jnsgd1na2vs0mg"},{"bike_id":"75514aab-2791-4756-9ebe-702fdafac63f","system_id":"levelo_inurba_marseille","lat":43.312246,"lon":5.368415,"is_reserved":false,"is_disabled":true,"rental_uris":{"android":"levelo://app?vid=75514aab-2791-4756-9ebe-702fdafac63f","ios":"levelo://app?vid=75514aab-2791-4756-9ebe-702fdafac63f"},"vehicle_type_id":"4","last_reported":1761279161,"current_range_meters":22000,"station_id":"ce4bgl92rcd13ifvqbq0","pricing_plan_id":"cebpf4jnsgd1na2vs0mg"},{"bike_id":"b2e20cd2-c54c-4e77-b03f-069ffaf8b17b","system_id":"levelo_inurba_marseille","lat":43.217481,"lon":5.346093,"is_reserved":false,"is_disabled":false,"rental_uris":{"android":"levelo://app?vid=b2e20cd2-c54c-4e77-b03f-069ffaf8b17b","ios":"levelo://app?vid=b2e20cd2-c54c-4e77-b03f-069ffaf8b17b"},"vehicle_type_id":"4","last_reported":1761279161,"current_range_meters":22000,"station_id":"st_cvj6r9ubvosntc0bgbag","pricing_plan_id":"cebpf4jnsgd1na2vs0mg"},{"bike_id":"f998ead8-7f8c-4a25-804e-d22e24cc9cbb","system_id":"levelo_inurba_marseille","lat":43.292593,"lon":5.384312,"is_reserved":false,"is_disabled":true,"rental_uris":{"android":"levelo://app?vid=f998ead8-7f8c-4a25-804e-d22e24cc9cbb","ios":"levelo://app?vid=f998ead8-7f8c-4a25-804e-d22e24cc9cbb"},"vehicle_type_id":"4","last_reported":1761279161,"current_range_meters":22000,"station_id":"ce4bh692rcd13ifvqea0","pricing_plan_id":"cebpf4jnsgd1na2vs0mg"},{"bike_id":"ebb39498-4a07-4e96-aa7d-f7098bbfce83","system_id":"levelo_inurba_marseille","lat":43.278132,"lon":5.407186,"is_reserved":false,"is_disabled":false,"rental_uris":{"android":"levelo://app?vid=ebb39498-4a07-4e96-aa7d-f7098bbfce83","ios":"levelo://app?vid=ebb39498-4a07-4e96-aa7d-f7098bbfce83"},"vehicle_type_id":"4","last_reported":1761279161,"current_range_meters":22000,"station_id":"ce4bhnh2rcd13ifvqgtg","pricing_plan_id":"cebpf4jnsgd1na2vs0mg"},{"bike_id":"0aea0c4c-d727-4428-94a2-112645a23628","system_id":"levelo_inurba_marseille","lat":43.24084,"lon":5.37769,"is_reserved":false,"is_disabled":false,"rental_uris":{"android":"levelo://app?vid=0aea0c4c-d727-4428-94a2-112645a23628","ios":"levelo://app?vid=0aea0c4c-d727-4428-94a2-112645a23628"},"vehicle_type_id":"4","last_reported":1761279161,"current_range_meters":22000,"station_id":"ce4bhnp2rcd13ifvqgvg","pricing_plan_id":"cebpf4jnsgd1na2vs0mg"},{"bike_id":"e59e87c4-7510-4409-909c-65f7596d24bd","system_id":"levelo_inurba_marseille","lat":43.31316,"lon":5.39708,"is_reserved":false,"is_disabled":false,"rental_uris":{"android":"levelo://app?vid=e59e87c4-7510-4409-909c-65f7596d24bd","ios":"levelo://app?vid=e59e87c4-7510-4409-909c-65f7596d24bd"},"vehicle_type_id":"4","last_reported":1761279161,"current_range_meters":22000,"station_id":"ce4bgvp2rcd13ifvqcu0","pricing_plan_id":"cebpf4jnsgd1na2vs0mg"},{"bike_id":"9e5344c3-9221-4f56-ac54-8c0139aa7b1e","system_id":"levelo_inurba_marseille","lat":43.32308,"lon":5.3683,"is_reserved":false,"is_disabled":false,"rental_uris":{"android":"levelo://app?vid=9e5344c3-9221-4f56-ac54-8c0139aa7b1e","ios":"levelo://app?vid=9e5344c3-9221-4f56-ac54-8c0139aa7b1e"},"vehicle_type_id":"4","last_reported":1761279161,"current_range_meters":22000,"station_id":"","pricing_plan_id":"cebpf4jnsgd1na2vs0mg"},{"bike_id":"33d7176a-a540-4a30-bacc-9edbb6fc1dce","system_id":"levelo_inurba_marseille","lat":43.246369,"lon":5.431391,"is_reserved":false,"is_disabled":false,"rental_uris":{"android":"levelo://app?vid=33d7176a-a540-4a30-bacc-9edbb6fc1dce","ios":"levelo://app?vid=33d7176a-a540-4a30-bacc-9edbb6fc1dce"},"vehicle_type_id":"4","last_reported":1761279161,"current_range_meters":22000,"station_id":"st_d2m6c4gdas8pm72e190g","pricing_plan_id":"cebpf4jnsgd1na2vs0mg"},{"bike_id":"ba9a9429-bfde-4653-87f1-2b95b92f5e70","system_id":"levelo_inurba_marseille","lat":43.28535,"lon":5.440986,"is_reserved":false,"is_disabled":false,"rental_uris":{"android":"levelo://app?vid=ba9a9429-bfde-4653-87f1-2b95b92f5e70","ios":"levelo://app?vid=ba9a9429-bfde-4653-87f1-2b95b92f5e70"},"vehicle_type_id":"4","last_reported":1761279161,"current_range_meters":22400,"station_id":"st_d3j3df2ikq2c7380ej80","pricing_plan_id":"cebpf4jnsgd1na2vs0mg"},{"bike_id":"7b780362-b3ee-434c-9c61-9d1a307e3f56","system_id":"levelo_inurba_marseille","lat":43.287074,"lon":5.373785,"is_reserved":false,"is_disabled":false,"rental_uris":{"android":"levelo://app?vid=7b780362-b3ee-434c-9c61-9d1a307e3f56","ios":"levelo://app?vid=7b780362-b3ee-434c-9c61-9d1a307e3f56"},"vehicle_type_id":"4","last_reported":1761279161,"current_range_meters":22400,"station_id":"","pricing_plan_id":"cebpf4jnsgd1na2vs0mg"},{"bike_id":"6573361a-ce5d-40f3-a346-51d7fb3e210e","system_id":"levelo_inurba_marseille","lat":43.28933,"lon":5.36652,"is_reserved":false,"is_disabled":false,"rental_uris":{"android":"levelo://app?vid=6573361a-ce5d-40f3-a346-51d7fb3e210e","ios":"levelo://app?vid=6573361a-ce5d-40f3-a346-51d7fb3e210e"},"vehicle_type_id":"4","last_reported":1761279161,"current_range_meters":22400,"station_id":"ce4bhap2rcd13ifvqek0","pricing_plan_id":"cebpf4jnsgd1na2vs0mg"},{"bike_id":"b8e229b6-55df-40fc-b036-be0cf31bb3bb","system_id":"levelo_inurba_marseille","lat":43.30458,"lon":5.37905,"is_reserved":false,"is_disabled":false,"rental_uris":{"android":"levelo://app?vid=b8e229b6-55df-40fc-b036-be0cf31bb3bb","ios":"levelo://app?vid=b8e229b6-55df-40fc-b036-be0cf31bb3bb"},"vehicle_type_id":"4","last_reported":1761279161,"current_range_meters":22400,"station_id":"ce4bgup2rcd13ifvqcn0","pricing_plan_id":"cebpf4jnsgd1na2vs0mg"},{"bike_id":"8c35a7e4-8378-4fdf-b42f-02e88b6199ca","system_id":"levelo_inurba_marseille","lat":43.320779,"lon":5.368233,"is_reserved":false,"is_disabled":false,"rental_uris":{"android":"levelo://app?vid=8c35a7e4-8378-4fdf-b42f-02e88b6199ca","ios":"levelo://app?vid=8c35a7e4-8378-4fdf-b42f-02e88b6199ca"},"vehicle_type_id":"4","last_reported":1761279161,"current_range_meters":22400,"station_id":"ce4bhrh2rcd13ifvqhug","pricing_plan_id":"cebpf4jnsgd1na2vs0mg"},{"bike_id":"dab36927-4328-48fa-bffb-145a737de07e","system_id":"levelo_inurba_marseille","lat":43.30804,"lon":5.43535,"is_reserved":false,"is_disabled":true,"rental_uris":{"android":"levelo://app?vid=dab36927-4328-48fa-bffb-145a737de07e","ios":"levelo://app?vid=dab36927-4328-48fa-bffb-145a737de07e"},"vehicle_type_id":"4","last_reported":1761279161,"current_range_meters":22800,"station_id":"ce4bhph2rcd13ifvqheg","pricing_plan_id":"cebpf4jnsgd1na2vs0mg"},{"bike_id":"8414ae98-3227-49d8-afd8-5cd478e67b11","system_id":"levelo_inurba_marseille","lat":43.240801,"lon":5.377191,"is_reserved":false,"is_disabled":false,"rental_uris":{"android":"levelo://app?vid=8414ae98-3227-49d8-afd8-5cd478e67b11","ios":"levelo://app?vid=8414ae98-3227-49d8-afd8-5cd478e67b11"},"vehicle_type_id":"4","last_reported":1761279161,"current_range_meters":22800,"station_id":"ce4bhnp2rcd13ifvqgvg","pricing_plan_id":"cebpf4jnsgd1na2vs0mg"},{"bike_id":"62f0a2f8-d352-4580-a096-e8ce56ffccdb","system_id":"levelo_inurba_marseille","lat":43.32111,"lon":5.36746,"is_reserved":false,"is_disabled":false,"rental_uris":{"android":"levelo://app?vid=62f0a2f8-d352-4580-a096-e8ce56ffccdb","ios":"levelo://app?vid=62f0a2f8-d352-4580-a096-e8ce56ffccdb"},"vehicle_type_id":"4","last_reported":1761279161,"current_range_meters":22800,"station_id":"ce4bhrh2rcd13ifvqhug","pricing_plan_id":"cebpf4jnsgd1na2vs0mg"},{"bike_id":"36ef565d-595c-4fe5-832e-9069968fcd08","system_id":"levelo_inurba_marseille","lat":43.32541,"lon":5.41465,"is_reserved":false,"is_disabled":true,"rental_uris":{"android":"levelo://app?vid=36ef565d-595c-4fe5-832e-9069968fcd08","ios":"levelo://app?vid=36ef565d-595c-4fe5-832e-9069968fcd08"},"vehicle_type_id":"4","last_reported":1761279161,"current_range_meters":22800,"station_id":"ce4bhq12rcd13ifvqhhg","pricing_plan_id":"cebpf4jnsgd1na2vs0mg"},{"bike_id":"4b336ac8-f146-4ba2-b0c6-7f5de28835f3","system_id":"levelo_inurba_marseille","lat":43.279438,"lon":5.410365,"is_reserved":false,"is_disabled":false,"rental_uris":{"android":"levelo://app?vid=4b336ac8-f146-4ba2-b0c6-7f5de28835f3","ios":"levelo://app?vid=4b336ac8-f146-4ba2-b0c6-7f5de28835f3"},"vehicle_type_id":"4","last_reported":1761279161,"current_range_meters":22800,"station_id":"ce4bhnp2rcd13ifvqh0g","pricing_plan_id":"cebpf4jnsgd1na2vs0mg"},{"bike_id":"ea066b11-48b6-49ac-98a6-47cd569b7447","system_id":"levelo_inurba_marseille","lat":43.30147,"lon":5.38786,"is_reserved":false,"is_disabled":true,"rental_uris":{"android":"levelo://app?vid=ea066b11-48b6-49ac-98a6-47cd569b7447","ios":"levelo://app?vid=ea066b11-48b6-49ac-98a6-47cd569b7447"},"vehicle_type_id":"4","last_reported":1761279161,"current_range_meters":22800,"station_id":"ce4bghh2rcd13ifvqb60","pricing_plan_id":"cebpf4jnsgd1na2vs0mg"},{"bike_id":"1fdd4b79-2cc6-4462-aabc-1dac962a461c","system_id":"levelo_inurba_marseille","lat":43.32295,"lon":5.39257,"is_reserved":false,"is_disabled":false,"rental_uris":{"android":"levelo://app?vid=1fdd4b79-2cc6-4462-aabc-1dac962a461c","ios":"levelo://app?vid=1fdd4b79-2cc6-4462-aabc-1dac962a461c"},"vehicle_type_id":"4","last_reported":1761279161,"current_range_meters":22800,"station_id":"","pricing_plan_id":"cebpf4jnsgd1na2vs0mg"},{"bike_id":"a64ab16e-168c-4ecb-afe0-eef44d5ad0bb","system_id":"levelo_inurba_marseille","lat":43.237842,"lon":5.366337,"is_reserved":false,"is_disabled":false,"rental_uris":{"android":"levelo://app?vid=a64ab16e-168c-4ecb-afe0-eef44d5ad0bb","ios":"levelo://app?vid=a64ab16e-168c-4ecb-afe0-eef44d5ad0bb"},"vehicle_type_id":"4","last_reported":1761279161,"current_range_meters":22800,"station_id":"st_d3nk18o9ro0c73en2l3g","pricing_plan_id":"cebpf4jnsgd1na2vs0mg"},{"bike_id":"9dde16d9-b76f-4bc7-8122-96de160903fa","system_id":"levelo_inurba_marseille","lat":43.285308,"lon":5.440949,"is_reserved":false,"is_disabled":false,"rental_uris":{"android":"levelo://app?vid=9dde16d9-b76f-4bc7-8122-96de160903fa","ios":"levelo://app?vid=9dde16d9-b76f-4bc7-8122-96de160903fa"},"vehicle_type_id":"4","last_reported":1761279161,"current_range_meters":22800,"station_id":"st_d3j3df2ikq2c7380ej80","pricing_plan_id":"cebpf4jnsgd1na2vs0mg"},{"bike_id":"9fb51c69-2f20-4a58-876c-58c6f0626f54","system_id":"levelo_inurba_marseille","lat":43.33069,"lon":5.37839,"is_reserved":false,"is_disabled":false,"rental_uris":{"android":"levelo://app?vid=9fb51c69-2f20-4a58-876c-58c6f0626f54","ios":"levelo://app?vid=9fb51c69-2f20-4a58-876c-58c6f0626f54"},"vehicle_type_id":"4","last_reported":1761279161,"current_range_meters":22800,"station_id":"","pricing_plan_id":"cebpf4jnsgd1na2vs0mg"},{"bike_id":"8b568fab-e273-49f6-bdca-e47680ec431f","system_id":"levelo_inurba_marseille","lat":43.33776,"lon":5.37427,"is_reserved":false,"is_disabled":false,"rental_uris":{"android":"levelo://app?vid=8b568fab-e273-49f6-bdca-e47680ec431f","ios":"levelo://app?vid=8b568fab-e273-49f6-bdca-e47680ec431f"},"vehicle_type_id":"4","last_reported":1761279161,"current_range_meters":23200,"station_id":"","pricing_plan_id":"cebpf4jnsgd1na2vs0mg"},{"bike_id":"29b38a45-3e07-40c1-b8b1-5f85b487711f","system_id":"levelo_inurba_marseille","lat":43.312584,"lon":5.40398,"is_reserved":false,"is_disabled":false,"rental_uris":{"android":"levelo://app?vid=29b38a45-3e07-40c1-b8b1-5f85b487711f","ios":"levelo://app?vid=29b38a45-3e07-40c1-b8b1-5f85b487711f"},