{"last_updated":1760818202,"ttl":60,"version":"2.2","data":{"bikes":[{"bike_id":"eadd2edf-ad22-4637-86e0-c77911baf1f6","system_id":"levelo_inurba_marseille","lat":43.21209,"lon":5.35077,"is_reserved":false,"is_disabled":true,"rental_uris":{"android":"levelo://app?vid=eadd2edf-ad22-4637-86e0-c77911baf1f6","ios":"levelo://app?vid=eadd2edf-ad22-4637-86e0-c77911baf1f6"},"vehicle_type_id":"4","last_reported":1760818202,"current_range_meters":2800,"station_id":"st_cvj6sg6p6f1abm77japg","pricing_plan_id":"cebpf4jnsgd1na2vs0mg"},{"bike_id":"5090d3d3-08b6-489d-89a1-e9e3f2d27b6f","system_id":"levelo_inurba_marseille","lat":43.26934,"lon":5.40251,"is_reserved":false,"is_disabled":false,"rental_uris":{"android":"levelo://app?vid=5090d3d3-08b6-489d-89a1-e9e3f2d27b6f","ios":"levelo://app?vid=5090d3d3-08b6-489d-89a1-e9e3f2d27b6f"},"vehicle_type_id":"4","last_reported":1760818202,"current_range_meters":2800,"station_id":"cjm6bp8fraef2m0cb0m0","pricing_plan_id":"cebpf4jnsgd1na2vs0mg"},{"bike_id":"171f3a04-1726-4d97-9b89-7c2e637f8afa","system_id":"levelo_inurba_marseille","lat":43.30534,"lon":5.36699,"is_reserved":false,"is_disabled":false,"rental_uris":{"android":"levelo://app?vid=171f3a04-1726-4d97-9b89-7c2e637f8afa","ios":"levelo://app?vid=171f3a04-1726-4d97-9b89-7c2e637f8afa"},"vehicle_type_id":"4","last_reported":1760818202,"current_range_meters":2800,"station_id":"ce4bgrp2rcd13ifvqc9g","pricing_plan_id":"cebpf4jnsgd1na2vs0mg"},{"bike_id":"f2e4239f-4073-4555-a31b-67ba97d4f956","system_id":"levelo_inurba_marseille","lat":43.26784,"lon":5.39422,"is_reserved":false,"is_disabled":false,"rental_uris":{"android":"levelo://app?vid=f2e4239f-4073-4555-a31b-67ba97d4f956","ios":"levelo://app?vid=f2e4239f-4073-4555-a31b-67ba97d4f956"},"vehicle_type_id":"4","last_reported":1760818202,"current_range_meters":2800,"station_id":"ce4bhh12rcd13ifvqfg0","pricing_plan_id":"cebpf4jnsgd1na2vs0mg"},{"bike_id":"d5607cc7-ef0e-4aad-9eda-1e6f6362bc5c","system_id":"levelo_inurba_marseille","lat":43.29522,"lon":5.43294,"is_reserved":false,"is_disabled":false,"rental_uris":{"android":"levelo://app?vid=d5607cc7-ef0e-4aad-9eda-1e6f6362bc5c","ios":"levelo://app?vid=d5607cc7-ef0e-4aad-9eda-1e6f6362bc5c"},"vehicle_type_id":"4","last_reported":1760818202,"current_range_meters":2800,"station_id":"st_d3j5ugp08ojc73fj9d10","pricing_plan_id":"cebpf4jnsgd1na2vs0mg"},{"bike_id":"ea7cb060-d598-4dde-8fb1-5edc70aa26d8","system_id":"levelo_inurba_marseille","lat":43.2648,"lon":5.39558,"is_reserved":false,"is_disabled":true,"rental_uris":{"android":"levelo://app?vid=ea7cb060-d598-4dde-8fb1-5edc70aa26d8","ios":"levelo://app?vid=ea7cb060-d598-4dde-8fb1-5edc70aa26d8"},"vehicle_type_id":"4","last_reported":1760818202,"current_range_meters":2800,"station_id":"ce4bhi12rcd13ifvqfq0","pricing_plan_id":"cebpf4jnsgd1na2vs0mg"},{"bike_id":"05d4583f-638c-4ecf-91bb-c55ca2605e9e","system_id":"levelo_inurba_marseille","lat":43.25355,"lon":5.42172,"is_reserved":false,"is_disabled":false,"rental_uris":{"android":"levelo://app?vid=05d4583f-638c-4ecf-91bb-c55ca2605e9e","ios":"levelo://app?vid=05d4583f-638c-4ecf-91bb-c55ca2605e9e"},"vehicle_type_id":"4","last_reported":1760818202,"current_range_meters":2800,"station_id":"st_d2m65c5bi1j21697t3ng","pricing_plan_id":"cebpf4jnsgd1na2vs0mg"},{"bike_id":"3598b383-579b-47d9-89b6-df786d16c45f","system_id":"levelo_inurba_marseille","lat":43.29441,"lon":5.37489,"is_reserved":false,"is_disabled":false,"rental_uris":{"android":"levelo://app?vid=3598b383-579b-47d9-89b6-df786d16c45f","ios":"levelo://app?vid=3598b383-579b-47d9-89b6-df786d16c45f"},"vehicle_type_id":"4","last_reported":1760818202,"current_range_meters":2800,"station_id":"","pricing_plan_id":"cebpf4jnsgd1na2vs0mg"},{"bike_id":"b5c8575d-8596-4685-89b6-400d75563c68","system_id":"levelo_inurba_marseille","lat":43.27583,"lon":5.38424,"is_reserved":false,"is_disabled":false,"rental_uris":{"android":"levelo://app?vid=b5c8575d-8596-4685-89b6-400d75563c68","ios":"levelo://app?vid=b5c8575d-8596-4685-89b6-400d75563c68"},"vehicle_type_id":"4","last_reported":1760818202,"current_range_meters":3200,"station_id":"ce4bhh92rcd13ifvqfi0","pricing_plan_id":"cebpf4jnsgd1na2vs0mg"},{"bike_id":"6dead0d0-105b-487d-8a00-f9fa3dad8ebc","system_id":"levelo_inurba_marseille","lat":43.29245,"lon":5.383896,"is_reserved":false,"is_disabled":false,"rental_uris":{"android":"levelo://app?vid=6dead0d0-105b-487d-8a00-f9fa3dad8ebc","ios":"levelo://app?vid=6dead0d0-105b-487d-8a00-f9fa3dad8ebc"},"vehicle_type_id":"4","last_reported":1760818202,"current_range_meters":3200,"station_id":"","pricing_plan_id":"cebpf4jnsgd1na2vs0mg"},{"bike_id":"623f89c9-049b-4056-8536-e67df06cb1ed","system_id":"levelo_inurba_marseille","lat":43.297829,"lon":5.393308,"is_reserved":false,"is_disabled":false,"rental_uris":{"android":"levelo://app?vid=623f89c9-049b-4056-8536-e67df06cb1ed","ios":"levelo://app?vid=623f89c9-049b-4056-8536-e67df06cb1ed"},"vehicle_type_id":"4","last_reported":1760818202,"current_range_meters":3200,"station_id":"chh1huq6cuj3fo74tm60","pricing_plan_id":"cebpf4jnsgd1na2vs0mg"},{"bike_id":"d9621813-faef-40cf-95f2-a2dbe86c8205","system_id":"levelo_inurba_marseille","lat":43.31363,"lon":5.38493,"is_reserved":false,"is_disabled":false,"rental_uris":{"android":"levelo://app?vid=d9621813-faef-40cf-95f2-a2dbe86c8205","ios":"levelo://app?vid=d9621813-faef-40cf-95f2-a2dbe86c8205"},"vehicle_type_id":"4","last_reported":1760818202,"current_range_meters":3200,"station_id":"ce4bgt92rcd13ifvqcf0","pricing_plan_id":"cebpf4jnsgd1na2vs0mg"},{"bike_id":"578c0323-219c-4d20-9178-25a5a66fb7f4","system_id":"levelo_inurba_marseille","lat":43.25137,"lon":5.40326,"is_reserved":false,"is_disabled":false,"rental_uris":{"android":"levelo://app?vid=578c0323-219c-4d20-9178-25a5a66fb7f4","ios":"levelo://app?vid=578c0323-219c-4d20-9178-25a5a66fb7f4"},"vehicle_type_id":"4","last_reported":1760818202,"current_range_meters":3600,"station_id":"ce4bhlh2rcd13ifvqgig","pricing_plan_id":"cebpf4jnsgd1na2vs0mg"},{"bike_id":"e257a5c9-b99e-4af1-ac4f-b017f1c8b418","system_id":"levelo_inurba_marseille","lat":43.33759,"lon":5.37438,"is_reserved":false,"is_disabled":false,"rental_uris":{"android":"levelo://app?vid=e257a5c9-b99e-4af1-ac4f-b017f1c8b418","ios":"levelo://app?vid=e257a5c9-b99e-4af1-ac4f-b017f1c8b418"},"vehicle_type_id":"4","last_reported":1760818202,"current_range_meters":3600,"station_id":"","pricing_plan_id":"cebpf4jnsgd1na2vs0mg"},{"bike_id":"62842f3b-59bf-4167-aeeb-feee952ed951","system_id":"levelo_inurba_marseille","lat":43.29798,"lon":5.39339,"is_reserved":false,"is_disabled":false,"rental_uris":{"android":"levelo://app?vid=62842f3b-59bf-4167-aeeb-feee952ed951","ios":"levelo://app?vid=62842f3b-59bf-4167-aeeb-feee952ed951"},"vehicle_type_id":"4","last_reported":1760818202,"current_range_meters":3600,"station_id":"chh1huq6cuj3fo74tm60","pricing_plan_id":"cebpf4jnsgd1na2vs0mg"},{"bike_id":"c6feed30-56d0-49de-bee6-f58d135d7e1a","system_id":"levelo_inurba_marseille","lat":43.31457,"lon":5.38544,"is_reserved":false,"is_disabled":false,"rental_uris":{"android":"levelo://app?vid=c6feed30-56d0-49de-bee6-f58d135d7e1a","ios":"levelo://app?vid=c6feed30-56d0-49de-bee6-f58d135d7e1a"},"vehicle_type_id":"4","last_reported":1760818202,"current_range_meters":4000,"station_id":"","pricing_plan_id":"cebpf4jnsgd1na2vs0mg"},{"bike_id":"6af86244-5655-4827-b8e7-5e0131f4833c","system_id":"levelo_inurba_marseille","lat":43.28732,"lon":5.37565,"is_reserved":false,"is_disabled":false,"rental_uris":{"android":"levelo://app?vid=6af86244-5655-4827-b8e7-5e0131f4833c","ios":"levelo://app?vid=6af86244-5655-4827-b8e7-5e0131f4833c"},"vehicle_type_id":"4","last_reported":1760818202,"current_range_meters":4000,"station_id":"","pricing_plan_id":"cebpf4jnsgd1na2vs0mg"},{"bike_id":"9dec8b01-2175-4eab-93b1-635ec7e58ddf","system_id":"levelo_inurba_marseille","lat":43.29262,"lon":5.38433,"is_reserved":false,"is_disabled":false,"rental_uris":{"android":"levelo://app?vid=9dec8b01-2175-4eab-93b1-635ec7e58ddf","ios":"levelo://app?vid=9dec8b01-2175-4eab-93b1-635ec7e58ddf"},"vehicle_type_id":"4","last_reported":1760818202,"current_range_meters":4000,"station_id":"ce4bh692rcd13ifvqea0","pricing_plan_id":"cebpf4jnsgd1na2vs0mg"},{"bike_id":"275ee788-13ae-417d-a9ce-c667cd45e998","system_id":"levelo_inurba_marseille","lat":43.27944,"lon":5.41046,"is_reserved":false,"is_disabled":false,"rental_uris":{"android":"levelo://app?vid=275ee788-13ae-417d-a9ce-c667cd45e998","ios":"levelo://app?vid=275ee788-13ae-417d-a9ce-c667cd45e998"},"vehicle_type_id":"4","last_reported":1760818202,"current_range_meters":4000,"station_id":"ce4bhnp2rcd13ifvqh0g","pricing_plan_id":"cebpf4jnsgd1na2vs0mg"},{"bike_id":"96574f7d-c82c-4dad-af24-a5e062fafcaf","system_id":"levelo_inurba_marseille","lat":43.23267,"lon":5.35653,"is_reserved":false,"is_disabled":false,"rental_uris":{"android":"levelo://app?vid=96574f7d-c82c-4dad-af24-a5e062fafcaf","ios":"levelo://app?vid=96574f7d-c82c-4dad-af24-a5e062fafcaf"},"vehicle_type_id":"4","last_reported":1760818202,"current_range_meters":4400,"station_id":"","pricing_plan_id":"cebpf4jnsgd1na2vs0mg"},{"bike_id":"cfdaac18-da71-41e4-aa06-9ee9de0b543a","system_id":"levelo_inurba_marseille","lat":43.2927,"lon":5.38427,"is_reserved":false,"is_disabled":false,"rental_uris":{"android":"levelo://app?vid=cfdaac18-da71-41e4-aa06-9ee9de0b543a","ios":"levelo://app?vid=cfdaac18-da71-41e4-aa06-9ee9de0b543a"},"vehicle_type_id":"4","last_reported":1760818202,"current_range_meters":4400,"station_id":"ce4bh692rcd13ifvqea0","pricing_plan_id":"cebpf4jnsgd1na2vs0mg"},{"bike_id":"0c953138-0396-4218-98d5-9c4496c247c1","system_id":"levelo_inurba_marseille","lat":43.29543,"lon":5.37496,"is_reserved":false,"is_disabled":false,"rental_uris":{"android":"levelo://app?vid=0c953138-0396-4218-98d5-9c4496c247c1","ios":"levelo://app?vid=0c953138-0396-4218-98d5-9c4496c247c1"},"vehicle_type_id":"4","last_reported":1760818202,"current_range_meters":4400,"station_id":"ce4bgkp2rcd13ifvqbmg","pricing_plan_id":"cebpf4jnsgd1na2vs0mg"},{"bike_id":"920c0ce2-5784-420c-9b8f-1f3343e07cae","system_id":"levelo_inurba_marseille","lat":43.29566,"lon":5.3853,"is_reserved":false,"is_disabled":false,"rental_uris":{"android":"levelo://app?vid=920c0ce2-5784-420c-9b8f-1f3343e07cae","ios":"levelo://app?vid=920c0ce2-5784-420c-9b8f-1f3343e07cae"},"vehicle_type_id":"4","last_reported":1760818202,"current_range_meters":4400,"station_id":"ce4bgih2rcd13ifvqba0","pricing_plan_id":"cebpf4jnsgd1na2vs0mg"},{"bike_id":"ffd1ec8d-801d-4561-bfd6-3a829743b238","system_id":"levelo_inurba_marseille","lat":43.23785,"lon":5.36627,"is_reserved":false,"is_disabled":false,"rental_uris":{"android":"levelo://app?vid=ffd1ec8d-801d-4561-bfd6-3a829743b238","ios":"levelo://app?vid=ffd1ec8d-801d-4561-bfd6-3a829743b238"},"vehicle_type_id":"4","last_reported":1760818202,"current_range_meters":4400,"station_id":"st_d3nk18o9ro0c73en2l3g","pricing_plan_id":"cebpf4jnsgd1na2vs0mg"},{"bike_id":"b061b1b4-be62-4cee-a85d-7a9f358ca007","system_id":"levelo_inurba_marseille","lat":43.306515,"lon":5.400979,"is_reserved":false,"is_disabled":false,"rental_uris":{"android":"levelo://app?vid=b061b1b4-be62-4cee-a85d-7a9f358ca007","ios":"levelo://app?vid=b061b1b4-be62-4cee-a85d-7a9f358ca007"},"vehicle_type_id":"4","last_reported":1760818202,"current_range_meters":4800,"station_id":"ce4bh112rcd13ifvqda0","pricing_plan_id":"cebpf4jnsgd1na2vs0mg"},{"bike_id":"5ae019ee-9085-4e58-81e9-0c1160988802","system_id":"levelo_inurba_marseille","lat":43.293124,"lon":5.371508,"is_reserved":false,"is_disabled":false,"rental_uris":{"android":"levelo://app?vid=5ae019ee-9085-4e58-81e9-0c1160988802","ios":"levelo://app?vid=5ae019ee-9085-4e58-81e9-0c1160988802"},"vehicle_type_id":"4","last_reported":1760818202,"current_range_meters":4800,"station_id":"ce4bgh92rcd13ifvqb40","pricing_plan_id":"cebpf4jnsgd1na2vs0mg"},{"bike_id":"af45386d-74ba-4249-a18c-9e4371d82b25","system_id":"levelo_inurba_marseille","lat":43.289762,"lon":5.387012,"is_reserved":false,"is_disabled":false,"rental_uris":{"android":"levelo://app?vid=af45386d-74ba-4249-a18c-9e4371d82b25","ios":"levelo://app?vid=af45386d-74ba-4249-a18c-9e4371d82b25"},"vehicle_type_id":"4","last_reported":1760818202,"current_range_meters":4800,"station_id":"ce4bh4p2rcd13ifvqe0g","pricing_plan_id":"cebpf4jnsgd1na2vs0mg"},{"bike_id":"24d82d64-1145-442f-a9f5-19238b0b39ef","system_id":"levelo_inurba_marseille","lat":43.272133,"lon":5.391866,"is_reserved":false,"is_disabled":false,"rental_uris":{"android":"levelo://app?vid=24d82d64-1145-442f-a9f5-19238b0b39ef","ios":"levelo://app?vid=24d82d64-1145-442f-a9f5-19238b0b39ef"},"vehicle_type_id":"4","last_reported":1760818202,"current_range_meters":4800,"station_id":"","pricing_plan_id":"cebpf4jnsgd1na2vs0mg"},{"bike_id":"9fdbcfe6-38b7-407f-9d33-f3489a9ad69e","system_id":"levelo_inurba_marseille","lat":43.28343,"lon":5.38099,"is_reserved":false,"is_disabled":false,"rental_uris":{"android":"levelo://app?vid=9fdbcfe6-38b7-407f-9d33-f3489a9ad69e","ios":"levelo://app?vid=9fdbcfe6-38b7-407f-9d33-f3489a9ad69e"},"vehicle_type_id":"4","last_reported":1760818202,"current_range_meters":4800,"station_id":"ce4bh412rcd13ifvqdr0","pricing_plan_id":"cebpf4jnsgd1na2vs0mg"},{"bike_id":"57db5fd0-fae8-4d9d-9082-08e3f1139740","system_id":"levelo_inurba_marseille","lat":43.26554,"lon":5.37283,"is_reserved":false,"is_disabled":false,"rental_uris":{"android":"levelo://app?vid=57db5fd0-fae8-4d9d-9082-08e3f1139740","ios":"levelo://app?vid=57db5fd0-fae8-4d9d-9082-08e3f1139740"},"vehicle_type_id":"4","last_reported":1760818202,"current_range_meters":4800,"station_id":"ce4bhg12rcd13ifvqf70","pricing_plan_id":"cebpf4jnsgd1na2vs0mg"},{"bike_id":"0a15410b-d718-4f68-a612-a8276c46856a","system_id":"levelo_inurba_marseille","lat":43.240649,"lon":5.366109,"is_reserved":false,"is_disabled":false,"rental_uris":{"android":"levelo://app?vid=0a15410b-d718-4f68-a612-a8276c46856a","ios":"levelo://app?vid=0a15410b-d718-4f68-a612-a8276c46856a"},"vehicle_type_id":"4","last_reported":1760818202,"current_range_meters":4800,"station_id":"ce4bhi12rcd13ifvqfp0","pricing_plan_id":"cebpf4jnsgd1na2vs0mg"},{"bike_id":"b23419ca-391f-4619-8992-f1240fdcf396","system_id":"levelo_inurba_marseille","lat":43.24643,"lon":5.43125,"is_reserved":false,"is_disabled":false,"rental_uris":{"android":"levelo://app?vid=b23419ca-391f-4619-8992-f1240fdcf396","ios":"levelo://app?vid=b23419ca-391f-4619-8992-f1240fdcf396"},"vehicle_type_id":"4","last_reported":1760818202,"current_range_meters":5600,"station_id":"st_d2m6c4gdas8pm72e190g","pricing_plan_id":"cebpf4jnsgd1na2vs0mg"},{"bike_id":"1c400808-3eed-46b3-a252-e7edeff346ab","system_id":"levelo_inurba_marseille","lat":43.29543,"lon":5.3854,"is_reserved":false,"is_disabled":false,"rental_uris":{"android":"levelo://app?vid=1c400808-3eed-46b3-a252-e7edeff346ab","ios":"levelo://app?vid=1c400808-3eed-46b3-a252-e7edeff346ab"},"vehicle_type_id":"4","last_reported":1760818202,"current_range_meters":5600,"station_id":"ce4bgih2rcd13ifvqba0","pricing_plan_id":"cebpf4jnsgd1na2vs0mg"},{"bike_id":"83a5c5bb-9d06-4146-9e27-b63caec2964c","system_id":"levelo_inurba_marseille","lat":43.306,"lon":5.37225,"is_reserved":false,"is_disabled":false,"rental_uris":{"android":"levelo://app?vid=83a5c5bb-9d06-4146-9e27-b63caec2964c","ios":"levelo://app?vid=83a5c5bb-9d06-4146-9e27-b63caec2964c"},"vehicle_type_id":"4","last_reported":1760818202,"current_range_meters":5600,"station_id":"ce4bgqh2rcd13ifvqc4g","pricing_plan_id":"cebpf4jnsgd1na2vs0mg"},{"bike_id":"03f22c3f-c891-43fe-993b-80d7bf710db0","system_id":"levelo_inurba_marseille","lat":43.29552,"lon":5.38546,"is_reserved":false,"is_disabled":false,"rental_uris":{"android":"levelo://app?vid=03f22c3f-c891-43fe-993b-80d7bf710db0","ios":"levelo://app?vid=03f22c3f-c891-43fe-993b-80d7bf710db0"},"vehicle_type_id":"4","last_reported":1760818202,"current_range_meters":5600,"station_id":"ce4bgih2rcd13ifvqba0","pricing_plan_id":"cebpf4jnsgd1na2vs0mg"},{"bike_id":"355c7cfa-be79-479e-88e5-040f5fdc6941","system_id":"levelo_inurba_marseille","lat":43.280731,"lon":5.378427,"is_reserved":false,"is_disabled":false,"rental_uris":{"android":"levelo://app?vid=355c7cfa-be79-479e-88e5-040f5fdc6941","ios":"levelo://app?vid=355c7cfa-be79-479e-88e5-040f5fdc6941"},"vehicle_type_id":"4","last_reported":1760818202,"current_range_meters":5600,"station_id":"ce4bha12rcd13ifvqee0","pricing_plan_id":"cebpf4jnsgd1na2vs0mg"},{"bike_id":"b198fdae-a02e-4380-b40a-23fa0f5e4197","system_id":"levelo_inurba_marseille","lat":43.286244,"lon":5.406951,"is_reserved":false,"is_disabled":false,"rental_uris":{"android":"levelo://app?vid=b198fdae-a02e-4380-b40a-23fa0f5e4197","ios":"levelo://app?vid=b198fdae-a02e-4380-b40a-23fa0f5e4197"},"vehicle_type_id":"4","last_reported":1760818202,"current_range_meters":5600,"station_id":"","pricing_plan_id":"cebpf4jnsgd1na2vs0mg"},{"bike_id":"ce87f571-de00-47bf-ad06-62e300dc239f","system_id":"levelo_inurba_marseille","lat":43.29275,"lon":5.3844,"is_reserved":false,"is_disabled":false,"rental_uris":{"android":"levelo://app?vid=ce87f571-de00-47bf-ad06-62e300dc239f","ios":"levelo://app?vid=ce87f571-de00-47bf-ad06-62e300dc239f"},"vehicle_type_id":"4","last_reported":1760818202,"current_range_meters":6000,"station_id":"ce4bh692rcd13ifvqea0","pricing_plan_id":"cebpf4jnsgd1na2vs0mg"},{"bike_id":"5cf58e81-7552-4ebd-a932-79bba6f62907","system_id":"levelo_inurba_marseille","lat":43.29033,"lon":5.38634,"is_reserved":false,"is_disabled":true,"rental_uris":{"android":"levelo://app?vid=5cf58e81-7552-4ebd-a932-79bba6f62907","ios":"levelo://app?vid=5cf58e81-7552-4ebd-a932-79bba6f62907"},"vehicle_type_id":"4","last_reported":1760818202,"current_range_meters":6000,"station_id":"ce4bh3h2rcd13ifvqdo0","pricing_plan_id":"cebpf4jnsgd1na2vs0mg"},{"bike_id":"20c01f0a-60ff-4814-ad5d-f7344d77ad3d","system_id":"levelo_inurba_marseille","lat":43.29266,"lon":5.38437,"is_reserved":false,"is_disabled":false,"rental_uris":{"android":"levelo://app?vid=20c01f0a-60ff-4814-ad5d-f7344d77ad3d","ios":"levelo://app?vid=20c01f0a-60ff-4814-ad5d-f7344d77ad3d"},"vehicle_type_id":"4","last_reported":1760818202,"current_range_meters":6000,"station_id":"ce4bh692rcd13ifvqea0","pricing_plan_id":"cebpf4jnsgd1na2vs0mg"},{"bike_id":"dcc00e67-1191-4314-ab42-5b6a0efd1bdf","system_id":"levelo_inurba_marseille","lat":43.2625,"lon":5.40428,"is_reserved":false,"is_disabled":false,"rental_uris":{"android":"levelo://app?vid=dcc00e67-1191-4314-ab42-5b6a0efd1bdf","ios":"levelo://app?vid=dcc00e67-1191-4314-ab42-5b6a0efd1bdf"},"vehicle_type_id":"4","last_reported":1760818202,"current_range_meters":6000,"station_id":"ce4bhmh2rcd13ifvqgmg","pricing_plan_id":"cebpf4jnsgd1na2vs0mg"},{"bike_id":"5fe6e873-dba1-40dd-bc65-77de126f2710","system_id":"levelo_inurba_marseille","lat":43.332893,"lon":5.395256,"is_reserved":false,"is_disabled":true,"rental_uris":{"android":"levelo://app?vid=5fe6e873-dba1-40dd-bc65-77de126f2710","ios":"levelo://app?vid=5fe6e873-dba1-40dd-bc65-77de126f2710"},"vehicle_type_id":"4","last_reported":1760818202,"current_range_meters":6000,"station_id":"","pricing_plan_id":"cebpf4jnsgd1na2vs0mg"},{"bike_id":"4887fda1-9211-444f-afbf-98cf0fa59229","system_id":"levelo_inurba_marseille","lat":43.29239,"lon":5.38426,"is_reserved":false,"is_disabled":false,"rental_uris":{"android":"levelo://app?vid=4887fda1-9211-444f-afbf-98cf0fa59229","ios":"levelo://app?vid=4887fda1-9211-444f-afbf-98cf0fa59229"},"vehicle_type_id":"4","last_reported":1760818202,"current_range_meters":6000,"station_id":"ce4bh692rcd13ifvqea0","pricing_plan_id":"cebpf4jnsgd1na2vs0mg"},{"bike_id":"9dd1d8fe-c2a8-4a70-a175-61f5f9fe7fd2","system_id":"levelo_inurba_marseille","lat":43.31357,"lon":5.38637,"is_reserved":false,"is_disabled":false,"rental_uris":{"android":"levelo://app?vid=9dd1d8fe-c2a8-4a70-a175-61f5f9fe7fd2","ios":"levelo://app?vid=9dd1d8fe-c2a8-4a70-a175-61f5f9fe7fd2"},"vehicle_type_id":"4","last_reported":1760818202,"current_range_meters":6400,"station_id":"","pricing_plan_id":"cebpf4jnsgd1na2vs0mg"},{"bike_id":"30231c3b-f110-4814-b4f3-ac7171a454b7","system_id":"levelo_inurba_marseille","lat":43.28001,"lon":5.41669,"is_reserved":false,"is_disabled":false,"rental_uris":{"android":"levelo://app?vid=30231c3b-f110-4814-b4f3-ac7171a454b7","ios":"levelo://app?vid=30231c3b-f110-4814-b4f3-ac7171a454b7"},"vehicle_type_id":"4","last_reported":1760818202,"current_range_meters":6400,"station_id":"ce4bho12rcd13ifvqh1g","pricing_plan_id":"cebpf4jnsgd1na2vs0mg"},{"bike_id":"b2e82b98-2ebb-476a-9f56-571ed325480a","system_id":"levelo_inurba_marseille","lat":43.28471,"lon":5.35878,"is_reserved":false,"is_disabled":false,"rental_uris":{"android":"levelo://app?vid=b2e82b98-2ebb-476a-9f56-571ed325480a","ios":"levelo://app?vid=b2e82b98-2ebb-476a-9f56-571ed325480a"},"vehicle_type_id":"4","last_reported":1760818202,"current_range_meters":6400,"station_id":"ce4bhah2rcd13ifvqei0","pricing_plan_id":"cebpf4jnsgd1na2vs0mg"},{"bike_id":"4f2f7cc2-9c0e-4992-baac-b3017530f1bc","system_id":"levelo_inurba_marseille","lat":43.24169,"lon":5.3639,"is_reserved":false,"is_disabled":false,"rental_uris":{"android":"levelo://app?vid=4f2f7cc2-9c0e-4992-baac-b3017530f1bc","ios":"levelo://app?vid=4f2f7cc2-9c0e-4992-baac-b3017530f1bc"},"vehicle_type_id":"4","last_reported":1760818202,"current_range_meters":6400,"station_id":"cpo36qri1sfpv3e86is0","pricing_plan_id":"cebpf4jnsgd1na2vs0mg"},{"bike_id":"6fa39166-3783-4dde-a00e-1aa9e0a9da45","system_id":"levelo_inurba_marseille","lat":43.295166,"lon":5.390361,"is_reserved":false,"is_disabled":false,"rental_uris":{"android":"levelo://app?vid=6fa39166-3783-4dde-a00e-1aa9e0a9da45","ios":"levelo://app?vid=6fa39166-3783-4dde-a00e-1aa9e0a9da45"},"vehicle_type_id":"4","last_reported":1760818202,"current_range_meters":6400,"station_id":"ce4bh3p2rcd13ifvqdp0","pricing_plan_id":"cebpf4jnsgd1na2vs0mg"},{"bike_id":"1f651c13-56ee-4720-abad-e4a9448d3ae6","system_id":"levelo_inurba_marseille","lat":43.31167,"lon":5.3872,"is_reserved":false,"is_disabled":false,"rental_uris":{"android":"levelo://app?vid=1f651c13-56ee-4720-abad-e4a9448d3ae6","ios":"levelo://app?vid=1f651c13-56ee-4720-abad-e4a9448d3ae6"},"vehicle_type_id":"4","last_reported":1760818202,"current_range_meters":6400,"station_id":"ce4bgv12rcd13ifvqcp0","pricing_plan_id":"cebpf4jnsgd1na2vs0mg"},{"bike_id":"416f580b-31c7-4ade-8604-dbd86eb8155f","system_id":"levelo_inurba_marseille","lat":43.281689,"lon":5.421252,"is_reserved":false,"is_disabled":false,"rental_uris":{"android":"levelo://app?vid=416f580b-31c7-4ade-8604-dbd86eb8155f","ios":"levelo://app?vid=416f580b-31c7-4ade-8604-dbd86eb8155f"},"vehicle_type_id":"4","last_reported":1760818202,"current_range_meters":6400,"station_id":"","pricing_plan_id":"cebpf4jnsgd1na2vs0mg"},{"bike_id":"394213f8-a678-4fef-874f-bcb7093d4f1d","system_id":"levelo_inurba_marseille","lat":43.281919,"lon":5.426327,"is_reserved":false,"is_disabled":false,"rental_uris":{"android":"levelo://app?vid=394213f8-a678-4fef-874f-bcb7093d4f1d","ios":"levelo://app?vid=394213f8-a678-4fef-874f-bcb7093d4f1d"},"vehicle_type_id":"4","last_reported":1760818202,"current_range_meters":6400,"station_id":"ce4bhnh2rcd13ifvqgug","pricing_plan_id":"cebpf4jnsgd1na2vs0mg"},{"bike_id":"fafbd404-0daa-4a8b-95c8-2c17ea348e5c","system_id":"levelo_inurba_marseille","lat":43.27986,"lon":5.41657,"is_reserved":false,"is_disabled":false,"rental_uris":{"android":"levelo://app?vid=fafbd404-0daa-4a8b-95c8-2c17ea348e5c","ios":"levelo://app?vid=fafbd404-0daa-4a8b-95c8-2c17ea348e5c"},"vehicle_type_id":"4","last_reported":1760818202,"current_range_meters":6400,"station_id":"ce4bho12rcd13ifvqh1g","pricing_plan_id":"cebpf4jnsgd1na2vs0mg"},{"bike_id":"e7fd232a-342b-4abf-8e5d-e4ef030e9b1b","system_id":"levelo_inurba_marseille","lat":43.2957,"lon":5.38572,"is_reserved":false,"is_disabled":false,"rental_uris":{"android":"levelo://app?vid=e7fd232a-342b-4abf-8e5d-e4ef030e9b1b","ios":"levelo://app?vid=e7fd232a-342b-4abf-8e5d-e4ef030e9b1b"},"vehicle_type_id":"4","last_reported":1760818202,"current_range_meters":6400,"station_id":"ce4bgih2rcd13ifvqba0","pricing_plan_id":"cebpf4jnsgd1na2vs0mg"},{"bike_id":"c5e45447-2956-450f-bd7e-88aaf308c04d","system_id":"levelo_inurba_marseille","lat":43.29006,"lon":5.3653,"is_reserved":false,"is_disabled":false,"rental_uris":{"android":"levelo://app?vid=c5e45447-2956-450f-bd7e-88aaf308c04d","ios":"levelo://app?vid=c5e45447-2956-450f-bd7e-88aaf308c04d"},"vehicle_type_id":"4","last_reported":1760818202,"current_range_meters":6800,"station_id":"","pricing_plan_id":"cebpf4jnsgd1na2vs0mg"},{"bike_id":"64ffbdb5-3466-49ed-8473-38ea9119af5c","system_id":"levelo_inurba_marseille","lat":43.29571,"lon":5.37502,"is_reserved":false,"is_disabled":false,"rental_uris":{"android":"levelo://app?vid=64ffbdb5-3466-49ed-8473-38ea9119af5c","ios":"levelo://app?vid=64ffbdb5-3466-49ed-8473-38ea9119af5c"},"vehicle_type_id":"4","last_reported":1760818202,"current_range_meters":6800,"station_id":"ce4bgh92rcd13ifvqb50","pricing_plan_id":"cebpf4jnsgd1na2vs0mg"},{"bike_id":"24188127-83ff-4103-9fc0-3079ea4dfb07","system_id":"levelo_inurba_marseille","lat":43.29262,"lon":5.384308,"is_reserved":false,"is_disabled":false,"rental_uris":{"android":"levelo://app?vid=24188127-83ff-4103-9fc0-3079ea4dfb07","ios":"levelo://app?vid=24188127-83ff-4103-9fc0-3079ea4dfb07"},"vehicle_type_id":"4","last_reported":1760818202,"current_range_meters":6800,"station_id":"ce4bh692rcd13ifvqea0","pricing_plan_id":"cebpf4jnsgd1na2vs0mg"},{"bike_id":"3915944c-018e-423a-9822-e011d34eb1f0","system_id":"levelo_inurba_marseille","lat":43.320366,"lon":5.415554,"is_reserved":false,"is_disabled":false,"rental_uris":{"android":"levelo://app?vid=3915944c-018e-423a-9822-e011d34eb1f0","ios":"levelo://app?vid=3915944c-018e-423a-9822-e011d34eb1f0"},"vehicle_type_id":"4","last_reported":1760818202,"current_range_meters":6800,"station_id":"ce4bhq92rcd13ifvqhkg","pricing_plan_id":"cebpf4jnsgd1na2vs0mg"},{"bike_id":"4b08cfe7-5df1-4e29-905e-03a9992f8dfa","system_id":"levelo_inurba_marseille","lat":43.33773,"lon":5.37456,"is_reserved":false,"is_disabled":false,"rental_uris":{"android":"levelo://app?vid=4b08cfe7-5df1-4e29-905e-03a9992f8dfa","ios":"levelo://app?vid=4b08cfe7-5df1-4e29-905e-03a9992f8dfa"},"vehicle_type_id":"4","last_reported":1760818202,"current_range_meters":6800,"station_id":"","pricing_plan_id":"cebpf4jnsgd1na2vs0mg"},{"bike_id":"ac0d77d0-e21d-4cb7-852c-a5e3a664f9ec","system_id":"levelo_inurba_marseille","lat":43.29586,"lon":5.39966,"is_reserved":false,"is_disabled":false,"rental_uris":{"android":"levelo://app?vid=ac0d77d0-e21d-4cb7-852c-a5e3a664f9ec","ios":"levelo://app?vid=ac0d77d0-e21d-4cb7-852c-a5e3a664f9ec"},"vehicle_type_id":"4","last_reported":1760818202,"current_range_meters":6800,"station_id":"ce4bh312rcd13ifvqdj0","pricing_plan_id":"cebpf4jnsgd1na2vs0mg"},{"bike_id":"5410e722-b77f-421b-85bb-cc6762227ad0","system_id":"levelo_inurba_marseille","lat":43.28537,"lon":5.44109,"is_reserved":false,"is_disabled":false,"rental_uris":{"android":"levelo://app?vid=5410e722-b77f-421b-85bb-cc6762227ad0","ios":"levelo://app?vid=5410e722-b77f-421b-85bb-cc6762227ad0"},"vehicle_type_id":"4","last_reported":1760818202,"current_range_meters":6800,"station_id":"st_d3j3df2ikq2c7380ej80","pricing_plan_id":"cebpf4jnsgd1na2vs0mg"},{"bike_id":"df59113e-edba-4fea-868f-90994fc51c98","system_id":"levelo_inurba_marseille","lat":43.302495,"lon":5.400675,"is_reserved":false,"is_disabled":false,"rental_uris":{"android":"levelo://app?vid=df59113e-edba-4fea-868f-90994fc51c98","ios":"levelo://app?vid=df59113e-edba-4fea-868f-90994fc51c98"},"vehicle_type_id":"4","last_reported":1760818202,"current_range_meters":6800,"station_id":"ce4bgvh2rcd13ifvqcs0","pricing_plan_id":"cebpf4jnsgd1na2vs0mg"},{"bike_id":"efe9ce68-2381-43b7-93be-3d1380c37e45","system_id":"levelo_inurba_marseille","lat":43.295715,"lon":5.399382,"is_reserved":false,"is_disabled":false,"rental_uris":{"android":"levelo://app?vid=efe9ce68-2381-43b7-93be-3d1380c37e45","ios":"levelo://app?vid=efe9ce68-2381-43b7-93be-3d1380c37e45"},"vehicle_type_id":"4","last_reported":1760818202,"current_range_meters":6800,"station_id":"ce4bh312rcd13ifvqdj0","pricing_plan_id":"cebpf4jnsgd1na2vs0mg"},{"bike_id":"94039e9a-f1c6-48b5-9984-590ebd73a21e","system_id":"levelo_inurba_marseille","lat":43.257202,"lon":5.411167,"is_reserved":false,"is_disabled":false,"rental_uris":{"android":"levelo://app?vid=94039e9a-f1c6-48b5-9984-590ebd73a21e","ios":"levelo://app?vid=94039e9a-f1c6-48b5-9984-590ebd73a21e"},"vehicle_type_id":"4","last_reported":1760818202,"current_range_meters":6800,"station_id":"ce4bhkp2rcd13ifvqgd0","pricing_plan_id":"cebpf4jnsgd1na2vs0mg"},{"bike_id":"245a030c-0c43-41f8-a4cc-088d55252b06","system_id":"levelo_inurba_marseille","lat":43.24477,"lon":5.36942,"is_reserved":false,"is_disabled":false,"rental_uris":{"android":"levelo://app?vid=245a030c-0c43-41f8-a4cc-088d55252b06","ios":"levelo://app?vid=245a030c-0c43-41f8-a4cc-088d55252b06"},"vehicle_type_id":"4","last_reported":1760818202,"current_range_meters":7200,"station_id":"","pricing_plan_id":"cebpf4jnsgd1na2vs0mg"},{"bike_id":"d8d047d4-f165-40cc-a74c-e2d78e66f7e1","system_id":"levelo_inurba_marseille","lat":43.27376,"lon":5.36263,"is_reserved":false,"is_disabled":false,"rental_uris":{"android":"levelo://app?vid=d8d047d4-f165-40cc-a74c-e2d78e66f7e1","ios":"levelo://app?vid=d8d047d4-f165-40cc-a74c-e2d78e66f7e1"},"vehicle_type_id":"4","last_reported":1760818202,"current_range_meters":7200,"station_id":"ce4bhbh2rcd13ifvqeo0","pricing_plan_id":"cebpf4jnsgd1na2vs0mg"},{"bike_id":"79de31fe-2ecd-4ace-bb14-984118aa4339","system_id":"levelo_inurba_marseille","lat":43.292716,"lon":5.384453,"is_reserved":false,"is_disabled":false,"rental_uris":{"android":"levelo://app?vid=79de31fe-2ecd-4ace-bb14-984118aa4339","ios":"levelo://app?vid=79de31fe-2ecd-4ace-bb14-984118aa4339"},"vehicle_type_id":"4","last_reported":1760818202,"current_range_meters":7200,"station_id":"ce4bh692rcd13ifvqea0","pricing_plan_id":"cebpf4jnsgd1na2vs0mg"},{"bike_id":"a817b630-bbed-48d3-97f4-9bd571b9ebab","system_id":"levelo_inurba_marseille","lat":43.299902,"lon":5.373624,"is_reserved":false,"is_disabled":false,"rental_uris":{"android":"levelo://app?vid=a817b630-bbed-48d3-97f4-9bd571b9ebab","ios":"levelo://app?vid=a817b630-bbed-48d3-97f4-9bd571b9ebab"},"vehicle_type_id":"4","last_reported":1760818202,"current_range_meters":7200,"station_id":"","pricing_plan_id":"cebpf4jnsgd1na2vs0mg"},{"bike_id":"480476d8-4cd3-406e-8583-8cae3aa74638","system_id":"levelo_inurba_marseille","lat":43.29503,"lon":5.43306,"is_reserved":false,"is_disabled":false,"rental_uris":{"android":"levelo://app?vid=480476d8-4cd3-406e-8583-8cae3aa74638","ios":"levelo://app?vid=480476d8-4cd3-406e-8583-8cae3aa74638"},"vehicle_type_id":"4","last_reported":1760818202,"current_range_meters":7200,"station_id":"st_d3j5ugp08ojc73fj9d10","pricing_plan_id":"cebpf4jnsgd1na2vs0mg"},{"bike_id":"fc71008e-d351-4861-a53c-faf5b76bd0a6","system_id":"levelo_inurba_marseille","lat":43.24951,"lon":5.40486,"is_reserved":false,"is_disabled":false,"rental_uris":{"android":"levelo://app?vid=fc71008e-d351-4861-a53c-faf5b76bd0a6","ios":"levelo://app?vid=fc71008e-d351-4861-a53c-faf5b76bd0a6"},"vehicle_type_id":"4","last_reported":1760818202,"current_range_meters":8000,"station_id":"st_d2ngiaodas8pm72gd1h0","pricing_plan_id":"cebpf4jnsgd1na2vs0mg"},{"bike_id":"430bc199-ee47-4ab0-8f1c-fdb8a7a02cb6","system_id":"levelo_inurba_marseille","lat":43.2928,"lon":5.38451,"is_reserved":false,"is_disabled":false,"rental_uris":{"android":"levelo://app?vid=430bc199-ee47-4ab0-8f1c-fdb8a7a02cb6","ios":"levelo://app?vid=430bc199-ee47-4ab0-8f1c-fdb8a7a02cb6"},"vehicle_type_id":"4","last_reported":1760818202,"current_range_meters":8000,"station_id":"ce4bh692rcd13ifvqea0","pricing_plan_id":"cebpf4jnsgd1na2vs0mg"},{"bike_id":"8bd272a3-683a-4148-9970-3334beb0a457","system_id":"levelo_inurba_marseille","lat":43.285306,"lon":5.441004,"is_reserved":false,"is_disabled":false,"rental_uris":{"android":"levelo://app?vid=8bd272a3-683a-4148-9970-3334beb0a457","ios":"levelo://app?vid=8bd272a3-683a-4148-9970-3334beb0a457"},"vehicle_type_id":"4","last_reported":1760818202,"current_range_meters":8000,"station_id":"st_d3j3df2ikq2c7380ej80","pricing_plan_id":"cebpf4jnsgd1na2vs0mg"},{"bike_id":"95517d2e-464c-4bb9-8d8d-e2fba29fedbc","system_id":"levelo_inurba_marseille","lat":43.32115,"lon":5.36763,"is_reserved":false,"is_disabled":false,"rental_uris":{"android":"levelo://app?vid=95517d2e-464c-4bb9-8d8d-e2fba29fedbc","ios":"levelo://app?vid=95517d2e-464c-4bb9-8d8d-e2fba29fedbc"},"vehicle_type_id":"4","last_reported":1760818202,"current_range_meters":8000,"station_id":"ce4bhrh2rcd13ifvqhug","pricing_plan_id":"cebpf4jnsgd1na2vs0mg"},{"bike_id":"c9d290c7-5c4d-4440-8ce5-b8844432edab","system_id":"levelo_inurba_marseille","lat":43.29273,"lon":5.38432,"is_reserved":false,"is_disabled":false,"rental_uris":{"android":"levelo://app?vid=c9d290c7-5c4d-4440-8ce5-b8844432edab","ios":"levelo://app?vid=c9d290c7-5c4d-4440-8ce5-b8844432edab"},"vehicle_type_id":"4","last_reported":1760818202,"current_range_meters":8000,"station_id":"ce4bh692rcd13ifvqea0","pricing_plan_id":"cebpf4jnsgd1na2vs0mg"},{"bike_id":"42e29697-fad7-4787-9c75-4bac62c7d6fc","system_id":"levelo_inurba_marseille","lat":43.29546,"lon":5.38553,"is_reserved":false,"is_disabled":false,"rental_uris":{"android":"levelo://app?vid=42e29697-fad7-4787-9c75-4bac62c7d6fc","ios":"levelo://app?vid=42e29697-fad7-4787-9c75-4bac62c7d6fc"},"vehicle_type_id":"4","last_reported":1760818202,"current_range_meters":8000,"station_id":"ce4bgih2rcd13ifvqba0","pricing_plan_id":"cebpf4jnsgd1na2vs0mg"},{"bike_id":"95dc26cd-56df-4da6-88df-2bdf377b3415","system_id":"levelo_inurba_marseille","lat":43.29264,"lon":5.38444,"is_reserved":false,"is_disabled":false,"rental_uris":{"android":"levelo://app?vid=95dc26cd-56df-4da6-88df-2bdf377b3415","ios":"levelo://app?vid=95dc26cd-56df-4da6-88df-2bdf377b3415"},"vehicle_type_id":"4","last_reported":1760818202,"current_range_meters":8000,"station_id":"ce4bh692rcd13ifvqea0","pricing_plan_id":"cebpf4jnsgd1na2vs0mg"},{"bike_id":"2cc6af61-e519-4e7f-9fd2-d6ed2d8a770b","system_id":"levelo_inurba_marseille","lat":43.29273,"lon":5.38443,"is_reserved":false,"is_disabled":false,"rental_uris":{"android":"levelo://app?vid=2cc6af61-e519-4e7f-9fd2-d6ed2d8a770b","ios":"levelo://app?vid=2cc6af61-e519-4e7f-9fd2-d6ed2d8a770b"},"vehicle_type_id":"4","last_reported":1760818202,"current_range_meters":8000,"station_id":"ce4bh692rcd13ifvqea0","pricing_plan_id":"cebpf4jnsgd1na2vs0mg"},{"bike_id":"15095a74-ab12-458e-8a71-0e564aef091a","system_id":"levelo_inurba_marseille","lat":43.25344,"lon":5.42139,"is_reserved":false,"is_disabled":false,"rental_uris":{"android":"levelo://app?vid=15095a74-ab12-458e-8a71-0e564aef091a","ios":"levelo://app?vid=15095a74-ab12-458e-8a71-0e564aef091a"},"vehicle_type_id":"4","last_reported":1760818202,"current_range_meters":8000,"station_id":"st_d2m65c5bi1j21697t3ng","pricing_plan_id":"cebpf4jnsgd1na2vs0mg"},{"bike_id":"f180935b-e010-4b55-82c6-f45bfc98af5d","system_id":"levelo_inurba_marseille","lat":43.29031,"lon":5.38614,"is_reserved":false,"is_disabled":false,"rental_uris":{"android":"levelo://app?vid=f180935b-e010-4b55-82c6-f45bfc98af5d","ios":"levelo://app?vid=f180935b-e010-4b55-82c6-f45bfc98af5d"},"vehicle_type_id":"4","last_reported":1760818202,"current_range_meters":8400,"station_id":"ce4bh4p2rcd13ifvqe0g","pricing_plan_id":"cebpf4jnsgd1na2vs0mg"},{"bike_id":"2a957978-d5f6-4374-b345-31c622d6be44","system_id":"levelo_inurba_marseille","lat":43.29601,"lon":5.38098,"is_reserved":false,"is_disabled":false,"rental_uris":{"android":"levelo://app?vid=2a957978-d5f6-4374-b345-31c622d6be44","ios":"levelo://app?vid=2a957978-d5f6-4374-b345-31c622d6be44"},"vehicle_type_id":"4","last_reported":1760818202,"current_range_meters":8400,"station_id":"ce4bgl12rcd13ifvqbo0","pricing_plan_id":"cebpf4jnsgd1na2vs0mg"},{"bike_id":"dd4eb968-6f0a-4815-ac1e-e39f4da16996","system_id":"levelo_inurba_marseille","lat":43.267744,"lon":5.394223,"is_reserved":false,"is_disabled":false,"rental_uris":{"android":"levelo://app?vid=dd4eb968-6f0a-4815-ac1e-e39f4da16996","ios":"levelo://app?vid=dd4eb968-6f0a-4815-ac1e-e39f4da16996"},"vehicle_type_id":"4","last_reported":1760818202,"current_range_meters":8400,"station_id":"ce4bhh12rcd13ifvqfg0","pricing_plan_id":"cebpf4jnsgd1na2vs0mg"},{"bike_id":"a1850908-3cfb-4894-99d4-8b4423a1f0c1","system_id":"levelo_inurba_marseille","lat":43.29609,"lon":5.38097,"is_reserved":false,"is_disabled":false,"rental_uris":{"android":"levelo://app?vid=a1850908-3cfb-4894-99d4-8b4423a1f0c1","ios":"levelo://app?vid=a1850908-3cfb-4894-99d4-8b4423a1f0c1"},"vehicle_type_id":"4","last_reported":1760818202,"current_range_meters":8400,"station_id":"ce4bgl12rcd13ifvqbo0","pricing_plan_id":"cebpf4jnsgd1na2vs0mg"},{"bike_id":"3d4df493-7d8b-4dbf-87d6-ba25dfa764a9","system_id":"levelo_inurba_marseille","lat":43.31891,"lon":5.40743,"is_reserved":false,"is_disabled":false,"rental_uris":{"android":"levelo://app?vid=3d4df493-7d8b-4dbf-87d6-ba25dfa764a9","ios":"levelo://app?vid=3d4df493-7d8b-4dbf-87d6-ba25dfa764a9"},"vehicle_type_id":"4","last_reported":1760818202,"current_range_meters":8400,"station_id":"ce4bhq12rcd13ifvqhig","pricing_plan_id":"cebpf4jnsgd1na2vs0mg"},{"bike_id":"eb510d93-05e0-4709-b75c-9ae54c2a2339","system_id":"levelo_inurba_marseille","lat":43.29549,"lon":5.38544,"is_reserved":false,"is_disabled":false,"rental_uris":{"android":"levelo://app?vid=eb510d93-05e0-4709-b75c-9ae54c2a2339","ios":"levelo://app?vid=eb510d93-05e0-4709-b75c-9ae54c2a2339"},"vehicle_type_id":"4","last_reported":1760818202,"current_range_meters":8400,"station_id":"ce4bgih2rcd13ifvqba0","pricing_plan_id":"cebpf4jnsgd1na2vs0mg"},{"bike_id":"e7226762-830a-4299-b939-5b1653c779df","system_id":"levelo_inurba_marseille","lat":43.25153,"lon":5.4032,"is_reserved":false,"is_disabled":false,"rental_uris":{"android":"levelo://app?vid=e7226762-830a-4299-b939-5b1653c779df","ios":"levelo://app?vid=e7226762-830a-4299-b939-5b1653c779df"},"vehicle_type_id":"4","last_reported":1760818202,"current_range_meters":8400,"station_id":"","pricing_plan_id":"cebpf4jnsgd1na2vs0mg"},{"bike_id":"ab3b05ce-9d4e-402a-aad3-521fdf353a78","system_id":"levelo_inurba_marseille","lat":43.29264,"lon":5.3843,"is_reserved":false,"is_disabled":false,"rental_uris":{"android":"levelo://app?vid=ab3b05ce-9d4e-402a-aad3-521fdf353a78","ios":"levelo://app?vid=ab3b05ce-9d4e-402a-aad3-521fdf353a78"},"vehicle_type_id":"4","last_reported":1760818202,"current_range_meters":8800,"station_id":"ce4bh692rcd13ifvqea0","pricing_plan_id":"cebpf4jnsgd1na2vs0mg"},{"bike_id":"566e8aef-ba4a-459c-916a-fe3e818c70f8","system_id":"levelo_inurba_marseille","lat":43.26567,"lon":5.37301,"is_reserved":false,"is_disabled":false,"rental_uris":{"android":"levelo://app?vid=566e8aef-ba4a-459c-916a-fe3e818c70f8","ios":"levelo://app?vid=566e8aef-ba4a-459c-916a-fe3e818c70f8"},"vehicle_type_id":"4","last_reported":1760818202,"current_range_meters":8800,"station_id":"ce4bhg12rcd13ifvqf70","pricing_plan_id":"cebpf4jnsgd1na2vs0mg"},{"bike_id":"155bfd93-d248-4e9e-86ef-9c54177f3418","system_id":"levelo_inurba_marseille","lat":43.28667,"lon":5.38654,"is_reserved":false,"is_disabled":false,"rental_uris":{"android":"levelo://app?vid=155bfd93-d248-4e9e-86ef-9c54177f3418","ios":"levelo://app?vid=155bfd93-d248-4e9e-86ef-9c54177f3418"},"vehicle_type_id":"4","last_reported":1760818202,"current_range_meters":8800,"station_id":"ce4bh492rcd13ifvqdug","pricing_plan_id":"cebpf4jnsgd1na2vs0mg"},{"bike_id":"1aeca3ed-e09e-4118-bb03-5bae919f4444","system_id":"levelo_inurba_marseille","lat":43.29261,"lon":5.38436,"is_reserved":false,"is_disabled":false,"rental_uris":{"android":"levelo://app?vid=1aeca3ed-e09e-4118-bb03-5bae919f4444","ios":"levelo://app?vid=1aeca3ed-e09e-4118-bb03-5bae919f4444"},"vehicle_type_id":"4","last_reported":1760818202,"current_range_meters":9200,"station_id":"ce4bh692rcd13ifvqea0","pricing_plan_id":"cebpf4jnsgd1na2vs0mg"},{"bike_id":"0c1d7f3c-8421-4b05-a23c-dc9192d22342","system_id":"levelo_inurba_marseille","lat":43.28193,"lon":5.42648,"is_reserved":false,"is_disabled":false,"rental_uris":{"android":"levelo://app?vid=0c1d7f3c-8421-4b05-a23c-dc9192d22342","ios":"levelo://app?vid=0c1d7f3c-8421-4b05-a23c-dc9192d22342"},"vehicle_type_id":"4","last_reported":1760818202,"current_range_meters":9200,"station_id":"ce4bhnh2rcd13ifvqgug","pricing_plan_id":"cebpf4jnsgd1na2vs0mg"},{"bike_id":"924ac669-be8b-47aa-9a8e-6f22baf815eb","system_id":"levelo_inurba_marseille","lat":43.337692,"lon":5.374734,"is_reserved":false,"is_disabled":false,"rental_uris":{"android":"levelo://app?vid=924ac669-be8b-47aa-9a8e-6f22baf815eb","ios":"levelo://app?vid=924ac669-be8b-47aa-9a8e-6f22baf815eb"},"vehicle_type_id":"4","last_reported":1760818202,"current_range_meters":9200,"station_id":"","pricing_plan_id":"cebpf4jnsgd1na2vs0mg"},{"bike_id":"f13259c8-94da-45f6-abfa-9a31fb4ba202","system_id":"levelo_inurba_marseille","lat":43.271722,"lon":5.409938,"is_reserved":false,"is_disabled":false,"rental_uris":{"android":"levelo://app?vid=f13259c8-94da-45f6-abfa-9a31fb4ba202","ios":"levelo://app?vid=f13259c8-94da-45f6-abfa-9a31fb4ba202"},"vehicle_type_id":"4","last_reported":1760818202,"current_range_meters":9200,"station_id":"ce4bhl12rcd13ifvqgf0","pricing_plan_id":"cebpf4jnsgd1na2vs0mg"},{"bike_id":"0a53904e-6100-4306-9c10-14b7a7cd0e43","system_id":"levelo_inurba_marseille","lat":43.29975,"lon":5.41313,"is_reserved":false,"is_disabled":false,"rental_uris":{"android":"levelo://app?vid=0a53904e-6100-4306-9c10-14b7a7cd0e43","ios":"levelo://app?vid=0a53904e-6100-4306-9c10-14b7a7cd0e43"},"vehicle_type_id":"4","last_reported":1760818202,"current_range_meters":9200,"station_id":"ce4bhp12rcd13ifvqh9g","pricing_plan_id":"cebpf4jnsgd1na2vs0mg"},{"bike_id":"cdce1b26-4658-4b1e-9826-2be8ce1551ce","system_id":"levelo_inurba_marseille","lat":43.3061,"lon":5.37234,"is_reserved":false,"is_disabled":false,"rental_uris":{"android":"levelo://app?vid=cdce1b26-4658-4b1e-9826-2be8ce1551ce","ios":"levelo://app?vid=cdce1b26-4658-4b1e-9826-2be8ce1551ce"},"vehicle_type_id":"4","last_reported":1760818202,"current_range_meters":9200,"station_id":"ce4bgqh2rcd13ifvqc4g","pricing_plan_id":"cebpf4jnsgd1na2vs0mg"},{"bike_id":"3e50f951-a987-47b3-b21c-7713fbbf31c2","system_id":"levelo_inurba_marseille","lat":43.296,"lon":5.38096,"is_reserved":false,"is_disabled":false,"rental_uris":{"android":"levelo://app?vid=3e50f951-a987-47b3-b21c-7713fbbf31c2","ios":"levelo://app?vid=3e50f951-a987-47b3-b21c-7713fbbf31c2"},"vehicle_type_id":"4","last_reported":1760818202,"current_range_meters":9200,"station_id":"ce4bgl12rcd13ifvqbo0","pricing_plan_id":"cebpf4jnsgd1na2vs0mg"},{"bike_id":"09b33b3f-8f37-4c88-a605-5098b6c9747b","system_id":"levelo_inurba_marseille","lat":43.28007,"lon":5.41665,"is_reserved":false,"is_disabled":false,"rental_uris":{"android":"levelo://app?vid=09b33b3f-8f37-4c88-a605-5098b6c9747b","ios":"levelo://app?vid=09b33b3f-8f37-4c88-a605-5098b6c9747b"},"vehicle_type_id":"4","last_reported":1760818202,"current_range_meters":9600,"station_id":"ce4bho12rcd13ifvqh1g","pricing_plan_id":"cebpf4jnsgd1na2vs0mg"},{"bike_id":"22dd2f64-c626-4eff-b863-82b8aa97ead0","system_id":"levelo_inurba_marseille","lat":43.29533,"lon":5.38537,"is_reserved":false,"is_disabled":false,"rental_uris":{"android":"levelo://app?vid=22dd2f64-c626-4eff-b863-82b8aa97ead0","ios":"levelo://app?vid=22dd2f64-c626-4eff-b863-82b8aa97ead0"},"vehicle_type_id":"4","last_reported":1760818202,"current_range_meters":9600,"station_id":"ce4bgih2rcd13ifvqba0","pricing_plan_id":"cebpf4jnsgd1na2vs0mg"},{"bike_id":"ff86eea6-c1e6-4578-b1e5-0e4fb5f089c5","system_id":"levelo_inurba_marseille","lat":43.28566,"lon":5.38419,"is_reserved":false,"is_disabled":false,"rental_uris":{"android":"levelo://app?vid=ff86eea6-c1e6-4578-b1e5-0e4fb5f089c5","ios":"levelo://app?vid=ff86eea6-c1e6-4578-b1e5-0e4fb5f089c5"},"vehicle_type_id":"4","last_reported":1760818202,"current_range_meters":9600,"station_id":"","pricing_plan_id":"cebpf4jnsgd1na2vs0mg"},{"bike_id":"a2af6c61-669e-4708-8d20-b76a99aaf19c","system_id":"levelo_inurba_marseille","lat":43.269768,"lon":5.386715,"is_reserved":false,"is_disabled":false,"rental_uris":{"android":"levelo://app?vid=a2af6c61-669e-4708-8d20-b76a99aaf19c","ios":"levelo://app?vid=a2af6c61-669e-4708-8d20-b76a99aaf19c"},"vehicle_type_id":"4","last_reported":1760818202,"current_range_meters":9600,"station_id":"ce4bhh92rcd13ifvqfh0","pricing_plan_id":"cebpf4jnsgd1na2vs0mg"},{"bike_id":"c0c80344-34bf-463c-b5fa-2d037fa6213d","system_id":"levelo_inurba_marseille","lat":43.26576,"lon":5.39,"is_reserved":false,"is_disabled":false,"rental_uris":{"android":"levelo://app?vid=c0c80344-34bf-463c-b5fa-2d037fa6213d","ios":"levelo://app?vid=c0c80344-34bf-463c-b5fa-2d037fa6213d"},"vehicle_type_id":"4","last_reported":1760818202,"current_range_meters":9600,"station_id":"ce4bhe12rcd13ifvqf30","pricing_plan_id":"cebpf4jnsgd1na2vs0mg"},{"bike_id":"fcd7360a-b97a-44ce-987a-7f5ea1990e9f","system_id":"levelo_inurba_marseille","lat":43.29628,"lon":5.37733,"is_reserved":false,"is_disabled":false,"rental_uris":{"android":"levelo://app?vid=fcd7360a-b97a-44ce-987a-7f5ea1990e9f","ios":"levelo://app?vid=fcd7360a-b97a-44ce-987a-7f5ea1990e9f"},"vehicle_type_id":"4","last_reported":1760818202,"current_range_meters":9600,"station_id":"ce4bgi92rcd13ifvqb90","pricing_plan_id":"cebpf4jnsgd1na2vs0mg"},{"bike_id":"531099f3-f1bd-48d2-afd6-12826d4f5fef","system_id":"levelo_inurba_marseille","lat":43.27093,"lon":5.38302,"is_reserved":false,"is_disabled":false,"rental_uris":{"android":"levelo://app?vid=531099f3-f1bd-48d2-afd6-12826d4f5fef","ios":"levelo://app?vid=531099f3-f1bd-48d2-afd6-12826d4f5fef"},"vehicle_type_id":"4","last_reported":1760818202,"current_range_meters":9600,"station_id":"st_d3n2fo6cfp8s73cte1j0","pricing_plan_id":"cebpf4jnsgd1na2vs0mg"},{"bike_id":"6a6c8028-5988-4787-8ca2-e1074618509e","system_id":"levelo_inurba_marseille","lat":43.28471,"lon":5.35889,"is_reserved":false,"is_disabled":false,"rental_uris":{"android":"levelo://app?vid=6a6c8028-5988-4787-8ca2-e1074618509e","ios":"levelo://app?vid=6a6c8028-5988-4787-8ca2-e1074618509e"},"vehicle_type_id":"4","last_reported":1760818202,"current_range_meters":9600,"station_id":"ce4bhah2rcd13ifvqei0","pricing_plan_id":"cebpf4jnsgd1na2vs0mg"},{"bike_id":"283b5b1b-1413-4a5b-8b30-9381b52462aa","system_id":"levelo_inurba_marseille","lat":43.27818,"lon":5.4071,"is_reserved":false,"is_disabled":false,"rental_uris":{"android":"levelo://app?vid=283b5b1b-1413-4a5b-8b30-9381b52462aa","ios":"levelo://app?vid=283b5b1b-1413-4a5b-8b30-9381b52462aa"},"vehicle_type_id":"4","last_reported":1760818202,"current_range_meters":9600,"station_id":"ce4bhnh2rcd13ifvqgtg","pricing_plan_id":"cebpf4jnsgd1na2vs0mg"},{"bike_id":"ad37f7ad-71e3-46e9-b97f-f8656ec704bd","system_id":"levelo_inurba_marseille","lat":43.29561,"lon":5.38545,"is_reserved":false,"is_disabled":false,"rental_uris":{"android":"levelo://app?vid=ad37f7ad-71e3-46e9-b97f-f8656ec704bd","ios":"levelo://app?vid=ad37f7ad-71e3-46e9-b97f-f8656ec704bd"},"vehicle_type_id":"4","last_reported":1760818202,"current_range_meters":9600,"station_id":"ce4bgih2rcd13ifvqba0","pricing_plan_id":"cebpf4jnsgd1na2vs0mg"},{"bike_id":"196480d6-3722-4216-a7eb-e82e4e93a346","system_id":"levelo_inurba_marseille","lat":43.27216,"lon":5.3917,"is_reserved":false,"is_disabled":false,"rental_uris":{"android":"levelo://app?vid=196480d6-3722-4216-a7eb-e82e4e93a346","ios":"levelo://app?vid=196480d6-3722-4216-a7eb-e82e4e93a346"},"vehicle_type_id":"4","last_reported":1760818202,"current_range_meters":10000,"station_id":"ce4bhhp2rcd13ifvqfm0","pricing_plan_id":"cebpf4jnsgd1na2vs0mg"},{"bike_id":"96187f0a-b870-49ee-b86c-8c23bfbaa0f5","system_id":"levelo_inurba_marseille","lat":43.2928,"lon":5.38461,"is_reserved":false,"is_disabled":false,"rental_uris":{"android":"levelo://app?vid=96187f0a-b870-49ee-b86c-8c23bfbaa0f5","ios":"levelo://app?vid=96187f0a-b870-49ee-b86c-8c23bfbaa0f5"},"vehicle_type_id":"4","last_reported":1760818202,"current_range_meters":10000,"station_id":"ce4bh692rcd13ifvqea0","pricing_plan_id":"cebpf4jnsgd1na2vs0mg"},{"bike_id":"49261cb9-3b88-46a3-9d5f-6b5b9ca8e980","system_id":"levelo_inurba_marseille","lat":43.30968,"lon":5.39033,"is_reserved":false,"is_disabled":false,"rental_uris":{"android":"levelo://app?vid=49261cb9-3b88-46a3-9d5f-6b5b9ca8e980","ios":"levelo://app?vid=49261cb9-3b88-46a3-9d5f-6b5b9ca8e980"},"vehicle_type_id":"4","last_reported":1760818202,"current_range_meters":10000,"station_id":"ce4bgup2rcd13ifvqco0","pricing_plan_id":"cebpf4jnsgd1na2vs0mg"},{"bike_id":"1ae23019-ea31-4d05-9cf3-f48fd8ecdb6e","system_id":"levelo_inurba_marseille","lat":43.31094,"lon":5.42432,"is_reserved":false,"is_disabled":false,"rental_uris":{"android":"levelo://app?vid=1ae23019-ea31-4d05-9cf3-f48fd8ecdb6e","ios":"levelo://app?vid=1ae23019-ea31-4d05-9cf3-f48fd8ecdb6e"},"vehicle_type_id":"4","last_reported":1760818202,"current_range_meters":10000,"station_id":"ce4bhp92rcd13ifvqhag","pricing_plan_id":"cebpf4jnsgd1na2vs0mg"},{"bike_id":"0d67f819-112d-4682-8ee1-0f286a695555","system_id":"levelo_inurba_marseille","lat":43.29258,"lon":5.38435,"is_reserved":false,"is_disabled":false,"rental_uris":{"android":"levelo://app?vid=0d67f819-112d-4682-8ee1-0f286a695555","ios":"levelo://app?vid=0d67f819-112d-4682-8ee1-0f286a695555"},"vehicle_type_id":"4","last_reported":1760818202,"current_range_meters":10000,"station_id":"ce4bh692rcd13ifvqea0","pricing_plan_id":"cebpf4jnsgd1na2vs0mg"},{"bike_id":"75b02a51-1325-435e-9661-29bb451a696a","system_id":"levelo_inurba_marseille","lat":43.31448,"lon":5.38488,"is_reserved":false,"is_disabled":false,"rental_uris":{"android":"levelo://app?vid=75b02a51-1325-435e-9661-29bb451a696a","ios":"levelo://app?vid=75b02a51-1325-435e-9661-29bb451a696a"},"vehicle_type_id":"4","last_reported":1760818202,"current_range_meters":10000,"station_id":"","pricing_plan_id":"cebpf4jnsgd1na2vs0mg"},{"bike_id":"bd4320ce-2aec-4623-8f05-878d797d1bb0","system_id":"levelo_inurba_marseille","lat":43.29258,"lon":5.38422,"is_reserved":false,"is_disabled":false,"rental_uris":{"android":"levelo://app?vid=bd4320ce-2aec-4623-8f05-878d797d1bb0","ios":"levelo://app?vid=bd4320ce-2aec-4623-8f05-878d797d1bb0"},"vehicle_type_id":"4","last_reported":1760818202,"current_range_meters":10000,"station_id":"ce4bh692rcd13ifvqea0","pricing_plan_id":"cebpf4jnsgd1na2vs0mg"},{"bike_id":"198ef987-31da-476d-83d5-c2544cd46829","system_id":"levelo_inurba_marseille","lat":43.29586,"lon":5.36746,"is_reserved":false,"is_disabled":false,"rental_uris":{"android":"levelo://app?vid=198ef987-31da-476d-83d5-c2544cd46829","ios":"levelo://app?vid=198ef987-31da-476d-83d5-c2544cd46829"},"vehicle_type_id":"4","last_reported":1760818202,"current_range_meters":10000,"station_id":"ce4bgph2rcd13ifvqc2g","pricing_plan_id":"cebpf4jnsgd1na2vs0mg"},{"bike_id":"e3af2dfa-a982-4f72-8b10-3e5107f1452a","system_id":"levelo_inurba_marseille","lat":43.299622,"lon":5.384838,"is_reserved":false,"is_disabled":false,"rental_uris":{"android":"levelo://app?vid=e3af2dfa-a982-4f72-8b10-3e5107f1452a","ios":"levelo://app?vid=e3af2dfa-a982-4f72-8b10-3e5107f1452a"},"vehicle_type_id":"4","last_reported":1760818202,"current_range_meters":10000,"station_id":"ce4bgj92rcd13ifvqbd0","pricing_plan_id":"cebpf4jnsgd1na2vs0mg"},{"bike_id":"e85a985f-404f-41f4-9182-9a6f877c3d8c","system_id":"levelo_inurba_marseille","lat":43.249476,"lon":5.404924,"is_reserved":false,"is_disabled":false,"rental_uris":{"android":"levelo://app?vid=e85a985f-404f-41f4-9182-9a6f877c3d8c","ios":"levelo://app?vid=e85a985f-404f-41f4-9182-9a6f877c3d8c"},"vehicle_type_id":"4","last_reported":1760818202,"current_range_meters":10000,"station_id":"st_d2ngiaodas8pm72gd1h0","pricing_plan_id":"cebpf4jnsgd1na2vs0mg"},{"bike_id":"0b170382-a38a-48fc-b060-b901de311f1a","system_id":"levelo_inurba_marseille","lat":43.33047,"lon":5.39024,"is_reserved":false,"is_disabled":true,"rental_uris":{"android":"levelo://app?vid=0b170382-a38a-48fc-b060-b901de311f1a","ios":"levelo://app?vid=0b170382-a38a-48fc-b060-b901de311f1a"},"vehicle_type_id":"4","last_reported":1760818202,"current_range_meters":10800,"station_id":"ce4bhr92rcd13ifvqhrg","pricing_plan_id":"cebpf4jnsgd1na2vs0mg"},{"bike_id":"c45f09d6-3098-4d9b-91e3-9fd9c72d93d6","system_id":"levelo_inurba_marseille","lat":43.28714,"lon":5.37383,"is_reserved":false,"is_disabled":false,"rental_uris":{"android":"levelo://app?vid=c45f09d6-3098-4d9b-91e3-9fd9c72d93d6","ios":"levelo://app?vid=c45f09d6-3098-4d9b-91e3-9fd9c72d93d6"},"vehicle_type_id":"4","last_reported":1760818202,"current_range_meters":10800,"station_id":"ce4bh3p2rcd13ifvqdq0","pricing_plan_id":"cebpf4jnsgd1na2vs0mg"},{"bike_id":"f975f79a-d552-434b-94de-7c2ae2b188e6","system_id":"levelo_inurba_marseille","lat":43.28891,"lon":5.394741,"is_reserved":false,"is_disabled":false,"rental_uris":{"android":"levelo://app?vid=f975f79a-d552-434b-94de-7c2ae2b188e6","ios":"levelo://app?vid=f975f79a-d552-434b-94de-7c2ae2b188e6"},"vehicle_type_id":"4","last_reported":1760818202,"current_range_meters":10800,"station_id":"ce4bh3h2rcd13ifvqdn0","pricing_plan_id":"cebpf4jnsgd1na2vs0mg"},{"bike_id":"f0e8d962-7120-49d0-b6ab-5cecb68d7645","system_id":"levelo_inurba_marseille","lat":43.26787,"lon":5.394214,"is_reserved":false,"is_disabled":false,"rental_uris":{"android":"levelo://app?vid=f0e8d962-7120-49d0-b6ab-5cecb68d7645","ios":"levelo://app?vid=f0e8d962-7120-49d0-b6ab-5cecb68d7645"},"vehicle_type_id":"4","last_reported":1760818202,"current_range_meters":10800,"station_id":"ce4bhh12rcd13ifvqfg0","pricing_plan_id":"cebpf4jnsgd1na2vs0mg"},{"bike_id":"38a9801e-a76c-4cac-9bfb-ce539dc5f1ca","system_id":"levelo_inurba_marseille","lat":43.30426,"lon":5.41287,"is_reserved":false,"is_disabled":false,"rental_uris":{"android":"levelo://app?vid=38a9801e-a76c-4cac-9bfb-ce539dc5f1ca","ios":"levelo://app?vid=38a9801e-a76c-4cac-9bfb-ce539dc5f1ca"},"vehicle_type_id":"4","last_reported":1760818202,"current_range_meters":10800,"station_id":"ce4bhop2rcd13ifvqh8g","pricing_plan_id":"cebpf4jnsgd1na2vs0mg"},{"bike_id":"d7de8a4b-054e-4f08-972f-750ba132f0ec","system_id":"levelo_inurba_marseille","lat":43.291874,"lon":5.358019,"is_reserved":false,"is_disabled":true,"rental_uris":{"android":"levelo://app?vid=d7de8a4b-054e-4f08-972f-750ba132f0ec","ios":"levelo://app?vid=d7de8a4b-054e-4f08-972f-750ba132f0ec"},"vehicle_type_id":"4","last_reported":1760818202,"current_range_meters":10800,"station_id":"ce4bhb12rcd13ifvqel0","pricing_plan_id":"cebpf4jnsgd1na2vs0mg"},{"bike_id":"49adcbc4-ee38-4c51-9290-13486bb46f99","system_id":"levelo_inurba_marseille","lat":43.25869,"lon":5.39895,"is_reserved":false,"is_disabled":false,"rental_uris":{"android":"levelo://app?vid=49adcbc4-ee38-4c51-9290-13486bb46f99","ios":"levelo://app?vid=49adcbc4-ee38-4c51-9290-13486bb46f99"},"vehicle_type_id":"4","last_reported":1760818202,"current_range_meters":10800,"station_id":"ce4bhl92rcd13ifvqghg","pricing_plan_id":"cebpf4jnsgd1na2vs0mg"},{"bike_id":"5ec36f29-a595-43fb-81bc-e1f6ecf04525","system_id":"levelo_inurba_marseille","lat":43.21194,"lon":5.35072,"is_reserved":false,"is_disabled":true,"rental_uris":{"android":"levelo://app?vid=5ec36f29-a595-43fb-81bc-e1f6ecf04525","ios":"levelo://app?vid=5ec36f29-a595-43fb-81bc-e1f6ecf04525"},"vehicle_type_id":"4","last_reported":1760818202,"current_range_meters":10800,"station_id":"st_cvj6sg6p6f1abm77japg","pricing_plan_id":"cebpf4jnsgd1na2vs0mg"},{"bike_id":"8e6781bb-2e20-454e-8191-54182f17bdfc","system_id":"levelo_inurba_marseille","lat":43.21753,"lon":5.34604,"is_reserved":false,"is_disabled":true,"rental_uris":{"android":"levelo://app?vid=8e6781bb-2e20-454e-8191-54182f17bdfc","ios":"levelo://app?vid=8e6781bb-2e20-454e-8191-54182f17bdfc"},"vehicle_type_id":"4","last_reported":1760818202,"current_range_meters":10800,"station_id":"st_cvj6r9ubvosntc0bgbag","pricing_plan_id":"cebpf4jnsgd1na2vs0mg"},{"bike_id":"9538e8d8-bb40-4147-916b-fefc0c6ded50","system_id":"levelo_inurba_marseille","lat":43.29597,"lon":5.38534,"is_reserved":false,"is_disabled":false,"rental_uris":{"android":"levelo://app?vid=9538e8d8-bb40-4147-916b-fefc0c6ded50","ios":"levelo://app?vid=9538e8d8-bb40-4147-916b-fefc0c6ded50"},"vehicle_type_id":"4","last_reported":1760818202,"current_range_meters":10800,"station_id":"","pricing_plan_id":"cebpf4jnsgd1na2vs0mg"},{"bike_id":"59742c94-4658-4515-a228-2a9d9f4b4338","system_id":"levelo_inurba_marseille","lat":43.282684,"lon":5.350728,"is_reserved":false,"is_disabled":false,"rental_uris":{"android":"levelo://app?vid=59742c94-4658-4515-a228-2a9d9f4b4338","ios":"levelo://app?vid=59742c94-4658-4515-a228-2a9d9f4b4338"},"vehicle_type_id":"4","last_reported":1760818202,"current_range_meters":10800,"station_id":"ce4bh692rcd13ifvqea0","pricing_plan_id":"cebpf4jnsgd1na2vs0mg"},{"bike_id":"1382b748-840e-4ecc-afc5-0fb4eeaeb841","system_id":"levelo_inurba_marseille","lat":43.30598,"lon":5.37502,"is_reserved":false,"is_disabled":false,"rental_uris":{"android":"levelo://app?vid=1382b748-840e-4ecc-afc5-0fb4eeaeb841","ios":"levelo://app?vid=1382b748-840e-4ecc-afc5-0fb4eeaeb841"},"vehicle_type_id":"4","last_reported":1760818202,"current_range_meters":11200,"station_id":"","pricing_plan_id":"cebpf4jnsgd1na2vs0mg"},{"bike_id":"29deeaa9-e77a-408d-b13e-b6abc21d5df6","system_id":"levelo_inurba_marseille","lat":43.296509,"lon":5.386966,"is_reserved":false,"is_disabled":false,"rental_uris":{"android":"levelo://app?vid=29deeaa9-e77a-408d-b13e-b6abc21d5df6","ios":"levelo://app?vid=29deeaa9-e77a-408d-b13e-b6abc21d5df6"},"vehicle_type_id":"4","last_reported":1760818202,"current_range_meters":11200,"station_id":"","pricing_plan_id":"cebpf4jnsgd1na2vs0mg"},{"bike_id":"657f303b-2417-4a96-a979-9bb80b1500f6","system_id":"levelo_inurba_marseille","lat":43.29856,"lon":5.36284,"is_reserved":false,"is_disabled":true,"rental_uris":{"android":"levelo://app?vid=657f303b-2417-4a96-a979-9bb80b1500f6","ios":"levelo://app?vid=657f303b-2417-4a96-a979-9bb80b1500f6"},"vehicle_type_id":"4","last_reported":1760818202,"current_range_meters":11600,"station_id":"ce4bgpp2rcd13ifvqc3g","pricing_plan_id":"cebpf4jnsgd1na2vs0mg"},{"bike_id":"90079440-5d87-4ae2-aa63-8b1b3bdcd425","system_id":"levelo_inurba_marseille","lat":43.29037,"lon":5.38631,"is_reserved":false,"is_disabled":false,"rental_uris":{"android":"levelo://app?vid=90079440-5d87-4ae2-aa63-8b1b3bdcd425","ios":"levelo://app?vid=90079440-5d87-4ae2-aa63-8b1b3bdcd425"},"vehicle_type_id":"4","last_reported":1760818202,"current_range_meters":11600,"station_id":"ce4bh4p2rcd13ifvqe0g","pricing_plan_id":"cebpf4jnsgd1na2vs0mg"},{"bike_id":"57772d0e-d6d9-48d5-bf04-c3ce0daf8e02","system_id":"levelo_inurba_marseille","lat":43.29268,"lon":5.38443,"is_reserved":false,"is_disabled":false,"rental_uris":{"android":"levelo://app?vid=57772d0e-d6d9-48d5-bf04-c3ce0daf8e02","ios":"levelo://app?vid=57772d0e-d6d9-48d5-bf04-c3ce0daf8e02"},"vehicle_type_id":"4","last_reported":1760818202,"current_range_meters":12000,"station_id":"ce4bh692rcd13ifvqea0","pricing_plan_id":"cebpf4jnsgd1na2vs0mg"},{"bike_id":"0a414463-fe1a-4833-8a11-178a3c2c879a","system_id":"levelo_inurba_marseille","lat":43.29852,"lon":5.37897,"is_reserved":false,"is_disabled":false,"rental_uris":{"android":"levelo://app?vid=0a414463-fe1a-4833-8a11-178a3c2c879a","ios":"levelo://app?vid=0a414463-fe1a-4833-8a11-178a3c2c879a"},"vehicle_type_id":"4","last_reported":1760818202,"current_range_meters":12000,"station_id":"","pricing_plan_id":"cebpf4jnsgd1na2vs0mg"},{"bike_id":"b1cf4c80-12d3-49a8-99a6-182defaa6366","system_id":"levelo_inurba_marseille","lat":43.29737,"lon":5.38365,"is_reserved":false,"is_disabled":false,"rental_uris":{"android":"levelo://app?vid=b1cf4c80-12d3-49a8-99a6-182defaa6366","ios":"levelo://app?vid=b1cf4c80-12d3-49a8-99a6-182defaa6366"},"vehicle_type_id":"4","last_reported":1760818202,"current_range_meters":12000,"station_id":"","pricing_plan_id":"cebpf4jnsgd1na2vs0mg"},{"bike_id":"ea883585-d0e4-4bcb-922c-57b2a3efdeac","system_id":"levelo_inurba_marseille","lat":43.30512,"lon":5.3681,"is_reserved":false,"is_disabled":false,"rental_uris":{"android":"levelo://app?vid=ea883585-d0e4-4bcb-922c-57b2a3efdeac","ios":"levelo://app?vid=ea883585-d0e4-4bcb-922c-57b2a3efdeac"},"vehicle_type_id":"4","last_reported":1760818202,"current_range_meters":12000,"station_id":"","pricing_plan_id":"cebpf4jnsgd1na2vs0mg"},{"bike_id":"d5cdb9d0-4e3c-449a-8a92-010ee04aec14","system_id":"levelo_inurba_marseille","lat":43.254701,"lon":5.420416,"is_reserved":false,"is_disabled":false,"rental_uris":{"android":"levelo://app?vid=d5cdb9d0-4e3c-449a-8a92-010ee04aec14","ios":"levelo://app?vid=d5cdb9d0-4e3c-449a-8a92-010ee04aec14"},"vehicle_type_id":"4","last_reported":1760818202,"current_range_meters":12000,"station_id":"ce4bhk92rcd13ifvqgc0","pricing_plan_id":"cebpf4jnsgd1na2vs0mg"},{"bike_id":"b1db1391-3474-48f3-85bd-dfc79b190eda","system_id":"levelo_inurba_marseille","lat":43.29301,"lon":5.36093,"is_reserved":false,"is_disabled":false,"rental_uris":{"android":"levelo://app?vid=b1db1391-3474-48f3-85bd-dfc79b190eda","ios":"levelo://app?vid=b1db1391-3474-48f3-85bd-dfc79b190eda"},"vehicle_type_id":"4","last_reported":1760818202,"current_range_meters":12000,"station_id":"","pricing_plan_id":"cebpf4jnsgd1na2vs0mg"},{"bike_id":"41452954-d2d2-42bd-9d7b-51da3651adda","system_id":"levelo_inurba_marseille","lat":43.29266,"lon":5.38461,"is_reserved":false,"is_disabled":false,"rental_uris":{"android":"levelo://app?vid=41452954-d2d2-42bd-9d7b-51da3651adda","ios":"levelo://app?vid=41452954-d2d2-42bd-9d7b-51da3651adda"},"vehicle_type_id":"4","last_reported":1760818202,"current_range_meters":12000,"station_id":"ce4bh692rcd13ifvqea0","pricing_plan_id":"cebpf4jnsgd1na2vs0mg"},{"bike_id":"b9c18541-1aed-4523-80cf-0629e7f98b3e","system_id":"levelo_inurba_marseille","lat":43.29433,"lon":5.3845,"is_reserved":false,"is_disabled":false,"rental_uris":{"android":"levelo://app?vid=b9c18541-1aed-4523-80cf-0629e7f98b3e","ios":"levelo://app?vid=b9c18541-1aed-4523-80cf-0629e7f98b3e"},"vehicle_type_id":"4","last_reported":1760818202,"current_range_meters":12000,"station_id":"","pricing_plan_id":"cebpf4jnsgd1na2vs0mg"},{"bike_id":"ae6eb0f2-4874-4ceb-8d8c-7385a8266f58","system_id":"levelo_inurba_marseille","lat":43.29545,"lon":5.37923,"is_reserved":false,"is_disabled":false,"rental_uris":{"android":"levelo://app?vid=ae6eb0f2-4874-4ceb-8d8c-7385a8266f58","ios":"levelo://app?vid=ae6eb0f2-4874-4ceb-8d8c-7385a8266f58"},"vehicle_type_id":"4","last_reported":1760818202,"current_range_meters":12000,"station_id":"","pricing_plan_id":"cebpf4jnsgd1na2vs0mg"},{"bike_id":"ad3d64d1-9fc4-4984-a728-3c6f477a597f","system_id":"levelo_inurba_marseille","lat":43.265587,"lon":5.372817,"is_reserved":false,"is_disabled":false,"rental_uris":{"android":"levelo://app?vid=ad3d64d1-9fc4-4984-a728-3c6f477a597f","ios":"levelo://app?vid=ad3d64d1-9fc4-4984-a728-3c6f477a597f"},"vehicle_type_id":"4","last_reported":1760818202,"current_range_meters":12000,"station_id":"ce4bhg12rcd13ifvqf70","pricing_plan_id":"cebpf4jnsgd1na2vs0mg"},{"bike_id":"8bddf8a0-21fc-4ad6-8714-f2e2a67c72c9","system_id":"levelo_inurba_marseille","lat":43.276203,"lon":5.361047,"is_reserved":false,"is_disabled":false,"rental_uris":{"android":"levelo://app?vid=8bddf8a0-21fc-4ad6-8714-f2e2a67c72c9","ios":"levelo://app?vid=8bddf8a0-21fc-4ad6-8714-f2e2a67c72c9"},"vehicle_type_id":"4","last_reported":1760818202,"current_range_meters":12000,"station_id":"ce4bgj92rcd13ifvqbe0","pricing_plan_id":"cebpf4jnsgd1na2vs0mg"},{"bike_id":"5a617b65-74d7-4b11-8941-be90b5f2ba18","system_id":"levelo_inurba_marseille","lat":43.29025,"lon":5.38634,"is_reserved":false,"is_disabled":false,"rental_uris":{"android":"levelo://app?vid=5a617b65-74d7-4b11-8941-be90b5f2ba18","ios":"levelo://app?vid=5a617b65-74d7-4b11-8941-be90b5f2ba18"},"vehicle_type_id":"4","last_reported":1760818202,"current_range_meters":12400,"station_id":"ce4bh4p2rcd13ifvqe0g","pricing_plan_id":"cebpf4jnsgd1na2vs0mg"},{"bike_id":"71dfa056-01e5-4adb-beeb-0291deea1131","system_id":"levelo_inurba_marseille","lat":43.29534,"lon":5.38536,"is_reserved":false,"is_disabled":false,"rental_uris":{"android":"levelo://app?vid=71dfa056-01e5-4adb-beeb-0291deea1131","ios":"levelo://app?vid=71dfa056-01e5-4adb-beeb-0291deea1131"},"vehicle_type_id":"4","last_reported":1760818202,"current_range_meters":12400,"station_id":"ce4bgih2rcd13ifvqba0","pricing_plan_id":"cebpf4jnsgd1na2vs0mg"},{"bike_id":"a8847ff1-964a-4903-aa77-b0a111f8714a","system_id":"levelo_inurba_marseille","lat":43.30466,"lon":5.39742,"is_reserved":false,"is_disabled":false,"rental_uris":{"android":"levelo://app?vid=a8847ff1-964a-4903-aa77-b0a111f8714a","ios":"levelo://app?vid=a8847ff1-964a-4903-aa77-b0a111f8714a"},"vehicle_type_id":"4","last_reported":1760818202,"current_range_meters":12400,"station_id":"ce4bh092rcd13ifvqd20","pricing_plan_id":"cebpf4jnsgd1na2vs0mg"},{"bike_id":"3586afa5-19c6-4385-ae3b-80726606c1bb","system_id":"levelo_inurba_marseille","lat":43.26412,"lon":5.39867,"is_reserved":false,"is_disabled":false,"rental_uris":{"android":"levelo://app?vid=3586afa5-19c6-4385-ae3b-80726606c1bb","ios":"levelo://app?vid=3586afa5-19c6-4385-ae3b-80726606c1bb"},"vehicle_type_id":"4","last_reported":1760818202,"current_range_meters":12400,"station_id":"","pricing_plan_id":"cebpf4jnsgd1na2vs0mg"},{"bike_id":"4c5befff-aff1-4715-abe8-793d6ca86149","system_id":"levelo_inurba_marseille","lat":43.25121,"lon":5.40327,"is_reserved":false,"is_disabled":false,"rental_uris":{"android":"levelo://app?vid=4c5befff-aff1-4715-abe8-793d6ca86149","ios":"levelo://app?vid=4c5befff-aff1-4715-abe8-793d6ca86149"},"vehicle_type_id":"4","last_reported":1760818202,"current_range_meters":12400,"station_id":"ce4bhlh2rcd13ifvqgig","pricing_plan_id":"cebpf4jnsgd1na2vs0mg"},{"bike_id":"e9c8911f-6661-4330-b933-c7ef20dc0f45","system_id":"levelo_inurba_marseille","lat":43.28135,"lon":5.35027,"is_reserved":false,"is_disabled":false,"rental_uris":{"android":"levelo://app?vid=e9c8911f-6661-4330-b933-c7ef20dc0f45","ios":"levelo://app?vid=e9c8911f-6661-4330-b933-c7ef20dc0f45"},"vehicle_type_id":"4","last_reported":1760818202,"current_range_meters":12400,"station_id":"","pricing_plan_id":"cebpf4jnsgd1na2vs0mg"},{"bike_id":"c6227cff-120f-49c6-93a2-5454dd916cde","system_id":"levelo_inurba_marseille","lat":43.265625,"lon":5.372915,"is_reserved":false,"is_disabled":true,"rental_uris":{"android":"levelo://app?vid=c6227cff-120f-49c6-93a2-5454dd916cde","ios":"levelo://app?vid=c6227cff-120f-49c6-93a2-5454dd916cde"},"vehicle_type_id":"4","last_reported":1760818202,"current_range_meters":12400,"station_id":"ce4bhg12rcd13ifvqf70","pricing_plan_id":"cebpf4jnsgd1na2vs0mg"},{"bike_id":"9542deb9-0f97-45fa-9eda-5c779632d68f","system_id":"levelo_inurba_marseille","lat":43.29528,"lon":5.38551,"is_reserved":false,"is_disabled":false,"rental_uris":{"android":"levelo://app?vid=9542deb9-0f97-45fa-9eda-5c779632d68f","ios":"levelo://app?vid=9542deb9-0f97-45fa-9eda-5c779632d68f"},"vehicle_type_id":"4","last_reported":1760818202,"current_range_meters":12400,"station_id":"ce4bgih2rcd13ifvqba0","pricing_plan_id":"cebpf4jnsgd1na2vs0mg"},{"bike_id":"e978660f-731d-4a95-8df5-e0a54d8fe8be","system_id":"levelo_inurba_marseille","lat":43.211899,"lon":5.350855,"is_reserved":false,"is_disabled":true,"rental_uris":{"android":"levelo://app?vid=e978660f-731d-4a95-8df5-e0a54d8fe8be","ios":"levelo://app?vid=e978660f-731d-4a95-8df5-e0a54d8fe8be"},"vehicle_type_id":"4","last_reported":1760818202,"current_range_meters":12400,"station_id":"st_cvj6sg6p6f1abm77japg","pricing_plan_id":"cebpf4jnsgd1na2vs0mg"},{"bike_id":"94a80ed1-2fee-468c-bb76-25f1829c19bf","system_id":"levelo_inurba_marseille","lat":43.3047,"lon":5.37894,"is_reserved":false,"is_disabled":true,"rental_uris":{"android":"levelo://app?vid=94a80ed1-2fee-468c-bb76-25f1829c19bf","ios":"levelo://app?vid=94a80ed1-2fee-468c-bb76-25f1829c19bf"},"vehicle_type_id":"4","last_reported":1760818202,"current_range_meters":12400,"station_id":"ce4bgup2rcd13ifvqcn0","pricing_plan_id":"cebpf4jnsgd1na2vs0mg"},{"bike_id":"f153bba6-2071-46cc-b200-c6fdd8dcf500","system_id":"levelo_inurba_marseille","lat":43.29566,"lon":5.38546,"is_reserved":false,"is_disabled":false,"rental_uris":{"android":"levelo://app?vid=f153bba6-2071-46cc-b200-c6fdd8dcf500","ios":"levelo://app?vid=f153bba6-2071-46cc-b200-c6fdd8dcf500"},"vehicle_type_id":"4","last_reported":1760818202,"current_range_meters":12400,"station_id":"ce4bgih2rcd13ifvqba0","pricing_plan_id":"cebpf4jnsgd1na2vs0mg"},{"bike_id":"9aca6410-dfe2-4f0b-8309-4bbe61aef318","system_id":"levelo_inurba_marseille","lat":43.33031,"lon":5.39049,"is_reserved":false,"is_disabled":false,"rental_uris":{"android":"levelo://app?vid=9aca6410-dfe2-4f0b-8309-4bbe61aef318","ios":"levelo://app?vid=9aca6410-dfe2-4f0b-8309-4bbe61aef318"},"vehicle_type_id":"4","last_reported":1760818202,"current_range_meters":12800,"station_id":"ce4bhr92rcd13ifvqhrg","pricing_plan_id":"cebpf4jnsgd1na2vs0mg"},{"bike_id":"4d639fc2-fd62-4b4f-8fc3-f0ee032daac3","system_id":"levelo_inurba_marseille","lat":43.2417,"lon":5.36403,"is_reserved":false,"is_disabled":false,"rental_uris":{"android":"levelo://app?vid=4d639fc2-fd62-4b4f-8fc3-f0ee032daac3","ios":"levelo://app?vid=4d639fc2-fd62-4b4f-8fc3-f0ee032daac3"},"vehicle_type_id":"4","last_reported":1760818202,"current_range_meters":12800,"station_id":"cpo36qri1sfpv3e86is0","pricing_plan_id":"cebpf4jnsgd1na2vs0mg"},{"bike_id":"e6e2dde5-25f6-4b86-b04b-e1c78a5c3ad1","system_id":"levelo_inurba_marseille","lat":43.27226,"lon":5.39169,"is_reserved":false,"is_disabled":false,"rental_uris":{"android":"levelo://app?vid=e6e2dde5-25f6-4b86-b04b-e1c78a5c3ad1","ios":"levelo://app?vid=e6e2dde5-25f6-4b86-b04b-e1c78a5c3ad1"},"vehicle_type_id":"4","last_reported":1760818202,"current_range_meters":12800,"station_id":"ce4bhhp2rcd13ifvqfm0","pricing_plan_id":"cebpf4jnsgd1na2vs0mg"},{"bike_id":"2f053f2c-2826-4fd3-b68d-11ca5b6bb1ce","system_id":"levelo_inurba_marseille","lat":43.29379,"lon":5.37838,"is_reserved":false,"is_disabled":false,"rental_uris":{"android":"levelo://app?vid=2f053f2c-2826-4fd3-b68d-11ca5b6bb1ce","ios":"levelo://app?vid=2f053f2c-2826-4fd3-b68d-11ca5b6bb1ce"},"vehicle_type_id":"4","last_reported":1760818202,"current_range_meters":12800,"station_id":"ce4bgjh2rcd13ifvqbf0","pricing_plan_id":"cebpf4jnsgd1na2vs0mg"},{"bike_id":"6632a0ad-f43a-451e-834c-e4d64180498e","system_id":"levelo_inurba_marseille","lat":43.32665,"lon":5.40985,"is_reserved":false,"is_disabled":false,"rental_uris":{"android":"levelo://app?vid=6632a0ad-f43a-451e-834c-e4d64180498e","ios":"levelo://app?vid=6632a0ad-f43a-451e-834c-e4d64180498e"},"vehicle_type_id":"4","last_reported":1760818202,"current_range_meters":12800,"station_id":"ce4bhpp2rcd13ifvqhgg","pricing_plan_id":"cebpf4jnsgd1na2vs0mg"},{"bike_id":"f03303c4-0ce8-434e-86b8-3d0c86848221","system_id":"levelo_inurba_marseille","lat":43.31326,"lon":5.39728,"is_reserved":false,"is_disabled":false,"rental_uris":{"android":"levelo://app?vid=f03303c4-0ce8-434e-86b8-3d0c86848221","ios":"levelo://app?vid=f03303c4-0ce8-434e-86b8-3d0c86848221"},"vehicle_type_id":"4","last_reported":1760818202,"current_range_meters":12800,"station_id":"ce4bgvp2rcd13ifvqcu0","pricing_plan_id":"cebpf4jnsgd1na2vs0mg"},{"bike_id":"7c474f3c-e3f0-447c-ba0d-e272bf1fa520","system_id":"levelo_inurba_marseille","lat":43.2931,"lon":5.371792,"is_reserved":false,"is_disabled":false,"rental_uris":{"android":"levelo://app?vid=7c474f3c-e3f0-447c-ba0d-e272bf1fa520","ios":"levelo://app?vid=7c474f3c-e3f0-447c-ba0d-e272bf1fa520"},"vehicle_type_id":"4","last_reported":1760818202,"current_range_meters":12800,"station_id":"ce4bgh92rcd13ifvqb40","pricing_plan_id":"cebpf4jnsgd1na2vs0mg"},{"bike_id":"074be791-6c38-4f2f-8dd0-b227e073e27e","system_id":"levelo_inurba_marseille","lat":43.24183,"lon":5.364,"is_reserved":false,"is_disabled":false,"rental_uris":{"android":"levelo://app?vid=074be791-6c38-4f2f-8dd0-b227e073e27e","ios":"levelo://app?vid=074be791-6c38-4f2f-8dd0-b227e073e27e"},"vehicle_type_id":"4","last_reported":1760818202,"current_range_meters":13600,"station_id":"cpo36qri1sfpv3e86is0","pricing_plan_id":"cebpf4jnsgd1na2vs0mg"},{"bike_id":"bf2c3617-0e72-4f4a-8585-0c63bcbc4fce","system_id":"levelo_inurba_marseille","lat":43.2861,"lon":5.351025,"is_reserved":false,"is_disabled":true,"rental_uris":{"android":"levelo://app?vid=bf2c3617-0e72-4f4a-8585-0c63bcbc4fce","ios":"levelo://app?vid=bf2c3617-0e72-4f4a-8585-0c63bcbc4fce"},"vehicle_type_id":"4","last_reported":1760818202,"current_range_meters":13600,"station_id":"","pricing_plan_id":"cebpf4jnsgd1na2vs0mg"},{"bike_id":"bb447e36-a9fe-469f-8b4b-4e97070a2180","system_id":"levelo_inurba_marseille","lat":43.29257,"lon":5.38429,"is_reserved":false,"is_disabled":false,"rental_uris":{"android":"levelo://app?vid=bb447e36-a9fe-469f-8b4b-4e97070a2180","ios":"levelo://app?vid=bb447e36-a9fe-469f-8b4b-4e97070a2180"},"vehicle_type_id":"4","last_reported":1760818202,"current_range_meters":13600,"station_id":"ce4bh692rcd13ifvqea0","pricing_plan_id":"cebpf4jnsgd1na2vs0mg"},{"bike_id":"71914a0b-4078-4e91-8fe4-c4688186f52f","system_id":"levelo_inurba_marseille","lat":43.292666,"lon":5.384546,"is_reserved":false,"is_disabled":false,"rental_uris":{"android":"levelo://app?vid=71914a0b-4078-4e91-8fe4-c4688186f52f","ios":"levelo://app?vid=71914a0b-4078-4e91-8fe4-c4688186f52f"},"vehicle_type_id":"4","last_reported":1760818202,"current_range_meters":13600,"station_id":"ce4bh692rcd13ifvqea0","pricing_plan_id":"cebpf4jnsgd1na2vs0mg"},{"bike_id":"6426e4fa-7f79-410d-acfa-0a51b3b2658a","system_id":"levelo_inurba_marseille","lat":43.3126,"lon":5.40445,"is_reserved":false,"is_disabled":false,"rental_uris":{"android":"levelo://app?vid=6426e4fa-7f79-410d-acfa-0a51b3b2658a","ios":"levelo://app?vid=6426e4fa-7f79-410d-acfa-0a51b3b2658a"},"vehicle_type_id":"4","last_reported":1760818202,"current_range_meters":14000,"station_id":"","pricing_plan_id":"cebpf4jnsgd1na2vs0mg"},{"bike_id":"3f13991a-43fd-4b49-b31a-f84d43d4b745","system_id":"levelo_inurba_marseille","lat":43.289837,"lon":5.371732,"is_reserved":false,"is_disabled":false,"rental_uris":{"android":"levelo://app?vid=3f13991a-43fd-4b49-b31a-f84d43d4b745","ios":"levelo://app?vid=3f13991a-43fd-4b49-b31a-f84d43d4b745"},"vehicle_type_id":"4","last_reported":1760818202,"current_range_meters":14000,"station_id":"","pricing_plan_id":"cebpf4jnsgd1na2vs0mg"},{"bike_id":"2294fa70-f674-40bb-9bb7-1bf7b28aa4e4","system_id":"levelo_inurba_marseille","lat":43.30146,"lon":5.38775,"is_reserved":false,"is_disabled":false,"rental_uris":{"android":"levelo://app?vid=2294fa70-f674-40bb-9bb7-1bf7b28aa4e4","ios":"levelo://app?vid=2294fa70-f674-40bb-9bb7-1bf7b28aa4e4"},"vehicle_type_id":"4","last_reported":1760818202,"current_range_meters":14000,"station_id":"ce4bghh2rcd13ifvqb60","pricing_plan_id":"cebpf4jnsgd1na2vs0mg"},{"bike_id":"ba8c7f8f-404a-4ee7-b514-9119151b4ba1","system_id":"levelo_inurba_marseille","lat":43.27326,"lon":5.39094,"is_reserved":false,"is_disabled":false,"rental_uris":{"android":"levelo://app?vid=ba8c7f8f-404a-4ee7-b514-9119151b4ba1","ios":"levelo://app?vid=ba8c7f8f-404a-4ee7-b514-9119151b4ba1"},"vehicle_type_id":"4","last_reported":1760818202,"current_range_meters":14000,"station_id":"ce4bhgp2rcd13ifvqfe0","pricing_plan_id":"cebpf4jnsgd1na2vs0mg"},{"bike_id":"ac6d2c4d-74a8-443d-a9f9-0d9807feacda","system_id":"levelo_inurba_marseille","lat":43.33772,"lon":5.37469,"is_reserved":false,"is_disabled":false,"rental_uris":{"android":"levelo://app?vid=ac6d2c4d-74a8-443d-a9f9-0d9807feacda","ios":"levelo://app?vid=ac6d2c4d-74a8-443d-a9f9-0d9807feacda"},"vehicle_type_id":"4","last_reported":1760818202,"current_range_meters":14000,"station_id":"","pricing_plan_id":"cebpf4jnsgd1na2vs0mg"},{"bike_id":"f4b21278-7a88-4f1e-8b50-4cb4a181722f","system_id":"levelo_inurba_marseille","lat":43.285344,"lon":5.440982,"is_reserved":false,"is_disabled":false,"rental_uris":{"android":"levelo://app?vid=f4b21278-7a88-4f1e-8b50-4cb4a181722f","ios":"levelo://app?vid=f4b21278-7a88-4f1e-8b50-4cb4a181722f"},"vehicle_type_id":"4","last_reported":1760818202,"current_range_meters":14000,"station_id":"st_d3j3df2ikq2c7380ej80","pricing_plan_id":"cebpf4jnsgd1na2vs0mg"},{"bike_id":"4e083ea6-f212-492d-aa67-54a450f250dd","system_id":"levelo_inurba_marseille","lat":43.28491,"lon":5.38413,"is_reserved":false,"is_disabled":false,"rental_uris":{"android":"levelo://app?vid=4e083ea6-f212-492d-aa67-54a450f250dd","ios":"levelo://app?vid=4e083ea6-f212-492d-aa67-54a450f250dd"},"vehicle_type_id":"4","last_reported":1760818202,"current_range_meters":14000,"station_id":"ce4bh512rcd13ifvqe3g","pricing_plan_id":"cebpf4jnsgd1na2vs0mg"},{"bike_id":"8d0dfff6-344d-44d4-a7c0-c8985a0e021b","system_id":"levelo_inurba_marseille","lat":43.29916,"lon":5.36825,"is_reserved":false,"is_disabled":false,"rental_uris":{"android":"levelo://app?vid=8d0dfff6-344d-44d4-a7c0-c8985a0e021b","ios":"levelo://app?vid=8d0dfff6-344d-44d4-a7c0-c8985a0e021b"},"vehicle_type_id":"4","last_reported":1760818202,"current_range_meters":14000,"station_id":"","pricing_plan_id":"cebpf4jnsgd1na2vs0mg"},{"bike_id":"365b1110-8604-4b2d-ad9b-3263b8a258f2","system_id":"levelo_inurba_marseille","lat":43.28655,"lon":5.3634,"is_reserved":false,"is_disabled":false,"rental_uris":{"android":"levelo://app?vid=365b1110-8604-4b2d-ad9b-3263b8a258f2","ios":"levelo://app?vid=365b1110-8604-4b2d-ad9b-3263b8a258f2"},"vehicle_type_id":"4","last_reported":1760818202,"current_range_meters":14400,"station_id":"ce4bhah2rcd13ifvqej0","pricing_plan_id":"cebpf4jnsgd1na2vs0mg"},{"bike_id":"d712d0ff-3096-41ad-87d0-b640167ff060","system_id":"levelo_inurba_marseille","lat":43.31541,"lon":5.38512,"is_reserved":false,"is_disabled":false,"rental_uris":{"android":"levelo://app?vid=d712d0ff-3096-41ad-87d0-b640167ff060","ios":"levelo://app?vid=d712d0ff-3096-41ad-87d0-b640167ff060"},"vehicle_type_id":"4","last_reported":1760818202,"current_range_meters":14400,"station_id":"","pricing_plan_id":"cebpf4jnsgd1na2vs0mg"},{"bike_id":"4ec8b0cc-1282-4437-9c7e-d089f0dd057c","system_id":"levelo_inurba_marseille","lat":43.29266,"lon":5.38436,"is_reserved":false,"is_disabled":false,"rental_uris":{"android":"levelo://app?vid=4ec8b0cc-1282-4437-9c7e-d089f0dd057c","ios":"levelo://app?vid=4ec8b0cc-1282-4437-9c7e-d089f0dd057c"},"vehicle_type_id":"4","last_reported":1760818202,"current_range_meters":14400,"station_id":"ce4bh692rcd13ifvqea0","pricing_plan_id":"cebpf4jnsgd1na2vs0mg"},{"bike_id":"8ca86fec-3e03-4b3b-92b1-b10aeb92a03a","system_id":"levelo_inurba_marseille","lat":43.30874,"lon":5.39618,"is_reserved":false,"is_disabled":false,"rental_uris":{"android":"levelo://app?vid=8ca86fec-3e03-4b3b-92b1-b10aeb92a03a","ios":"levelo://app?vid=8ca86fec-3e03-4b3b-92b1-b10aeb92a03a"},"vehicle_type_id":"4","last_reported":1760818202,"current_range_meters":14400,"station_id":"ce4bh012rcd13ifvqcv0","pricing_plan_id":"cebpf4jnsgd1na2vs0mg"},{"bike_id":"ee5b9b4d-d120-41b9-a430-c7e48db5a413","system_id":"levelo_inurba_marseille","lat":43.273185,"lon":5.390664,"is_reserved":false,"is_disabled":false,"rental_uris":{"android":"levelo://app?vid=ee5b9b4d-d120-41b9-a430-c7e48db5a413","ios":"levelo://app?vid=ee5b9b4d-d120-41b9-a430-c7e48db5a413"},"vehicle_type_id":"4","last_reported":1760818202,"current_range_meters":14400,"station_id":"ce4bhgp2rcd13ifvqfe0","pricing_plan_id":"cebpf4jnsgd1na2vs0mg"},{"bike_id":"7f6715e7-9420-42b0-a705-ab9077682dd1","system_id":"levelo_inurba_marseille","lat":43.29533,"lon":5.3855,"is_reserved":false,"is_disabled":false,"rental_uris":{"android":"levelo://app?vid=7f6715e7-9420-42b0-a705-ab9077682dd1","ios":"levelo://app?vid=7f6715e7-9420-42b0-a705-ab9077682dd1"},"vehicle_type_id":"4","last_reported":1760818202,"current_range_meters":14400,"station_id":"ce4bgih2rcd13ifvqba0","pricing_plan_id":"cebpf4jnsgd1na2vs0mg"},{"bike_id":"38c3bc73-e885-467c-9015-110393934b88","system_id":"levelo_inurba_marseille","lat":43.2956,"lon":5.38536,"is_reserved":false,"is_disabled":false,"rental_uris":{"android":"levelo://app?vid=38c3bc73-e885-467c-9015-110393934b88","ios":"levelo://app?vid=38c3bc73-e885-467c-9015-110393934b88"},"vehicle_type_id":"4","last_reported":1760818202,"current_range_meters":14400,"station_id":"ce4bgih2rcd13ifvqba0","pricing_plan_id":"cebpf4jnsgd1na2vs0mg"},{"bike_id":"f24ed84e-6647-45f6-a2f7-d0da4b2fccc5","system_id":"levelo_inurba_marseille","lat":43.26942,"lon":5.40243,"is_reserved":false,"is_disabled":false,"rental_uris":{"android":"levelo://app?vid=f24ed84e-6647-45f6-a2f7-d0da4b2fccc5","ios":"levelo://app?vid=f24ed84e-6647-45f6-a2f7-d0da4b2fccc5"},"vehicle_type_id":"4","last_reported":1760818202,"current_range_meters":14400,"station_id":"cjm6bp8fraef2m0cb0m0","pricing_plan_id":"cebpf4jnsgd1na2vs0mg"},{"bike_id":"c0a350ee-be00-4102-bc12-87d53227b0f5","system_id":"levelo_inurba_marseille","lat":43.29277,"lon":5.38439,"is_reserved":false,"is_disabled":false,"rental_uris":{"android":"levelo://app?vid=c0a350ee-be00-4102-bc12-87d53227b0f5","ios":"levelo://app?vid=c0a350ee-be00-4102-bc12-87d53227b0f5"},"vehicle_type_id":"4","last_reported":1760818202,"current_range_meters":14400,"station_id":"ce4bh692rcd13ifvqea0","pricing_plan_id":"cebpf4jnsgd1na2vs0mg"},{"bike_id":"3e5701e3-19c6-42fa-bc27-8518853e0b92","system_id":"levelo_inurba_marseille","lat":43.29535,"lon":5.3905,"is_reserved":false,"is_disabled":false,"rental_uris":{"android":"levelo://app?vid=3e5701e3-19c6-42fa-bc27-8518853e0b92","ios":"levelo://app?vid=3e5701e3-19c6-42fa-bc27-8518853e0b92"},"vehicle_type_id":"4","last_reported":1760818202,"current_range_meters":14800,"station_id":"ce4bh3p2rcd13ifvqdp0","pricing_plan_id":"cebpf4jnsgd1na2vs0mg"},{"bike_id":"cf4c14bf-7635-4f96-a4b6-ee6481db3804","system_id":"levelo_inurba_marseille","lat":43.32293,"lon":5.38287,"is_reserved":false,"is_disabled":false,"rental_uris":{"android":"levelo://app?vid=cf4c14bf-7635-4f96-a4b6-ee6481db3804","ios":"levelo://app?vid=cf4c14bf-7635-4f96-a4b6-ee6481db3804"},"vehicle_type_id":"4","last_reported":1760818202,"current_range_meters":14800,"station_id":"ce4bhr12rcd13ifvqhqg","pricing_plan_id":"cebpf4jnsgd1na2vs0mg"},{"bike_id":"1eff1845-a1c3-409c-bfd8-769eb41e50ba","system_id":"levelo_inurba_marseille","lat":43.29032,"lon":5.38635,"is_reserved":false,"is_disabled":false,"rental_uris":{"android":"levelo://app?vid=1eff1845-a1c3-409c-bfd8-769eb41e50ba","ios":"levelo://app?vid=1eff1845-a1c3-409c-bfd8-769eb41e50ba"},"vehicle_type_id":"4","last_reported":1760818202,"current_range_meters":14800,"station_id":"ce4bh4p2rcd13ifvqe0g","pricing_plan_id":"cebpf4jnsgd1na2vs0mg"},{"bike_id":"a7b3764b-b896-4840-bd7e-9880973af195","system_id":"levelo_inurba_marseille","lat":43.292287,"lon":5.360602,"is_reserved":false,"is_disabled":false,"rental_uris":{"android":"levelo://app?vid=a7b3764b-b896-4840-bd7e-9880973af195","ios":"levelo://app?vid=a7b3764b-b896-4840-bd7e-9880973af195"},"vehicle_type_id":"4","last_reported":1760818202,"current_range_meters":14800,"station_id":"","pricing_plan_id":"cebpf4jnsgd1na2vs0mg"},{"bike_id":"00b0c6e1-4d62-4ad2-a3d1-e4852b97e9df","system_id":"levelo_inurba_marseille","lat":43.27311,"lon":5.39073,"is_reserved":false,"is_disabled":false,"rental_uris":{"android":"levelo://app?vid=00b0c6e1-4d62-4ad2-a3d1-e4852b97e9df","ios":"levelo://app?vid=00b0c6e1-4d62-4ad2-a3d1-e4852b97e9df"},"vehicle_type_id":"4","last_reported":1760818202,"current_range_meters":15200,"station_id":"ce4bhgp2rcd13ifvqfe0","pricing_plan_id":"cebpf4jnsgd1na2vs0mg"},{"bike_id":"3723dc20-8123-4f5f-92a0-0c3073c1e3b9","system_id":"levelo_inurba_marseille","lat":43.2526,"lon":5.42203,"is_reserved":false,"is_disabled":false,"rental_uris":{"android":"levelo://app?vid=3723dc20-8123-4f5f-92a0-0c3073c1e3b9","ios":"levelo://app?vid=3723dc20-8123-4f5f-92a0-0c3073c1e3b9"},"vehicle_type_id":"4","last_reported":1760818202,"current_range_meters":15200,"station_id":"st_d2m65c5bi1j21697t3ng","pricing_plan_id":"cebpf4jnsgd1na2vs0mg"},{"bike_id":"ca66566f-bb6f-47c3-9261-9f948cee6a02","system_id":"levelo_inurba_marseille","lat":43.27311,"lon":5.39092,"is_reserved":false,"is_disabled":false,"rental_uris":{"android":"levelo://app?vid=ca66566f-bb6f-47c3-9261-9f948cee6a02","ios":"levelo://app?vid=ca66566f-bb6f-47c3-9261-9f948cee6a02"},"vehicle_type_id":"4","last_reported":1760818202,"current_range_meters":15200,"station_id":"ce4bhgp2rcd13ifvqfe0","pricing_plan_id":"cebpf4jnsgd1na2vs0mg"},{"bike_id":"f00840dc-495e-40c5-904a-a70f6c5c5dc9","system_id":"levelo_inurba_marseille","lat":43.29037,"lon":5.38635,"is_reserved":false,"is_disabled":false,"rental_uris":{"android":"levelo://app?vid=f00840dc-495e-40c5-904a-a70f6c5c5dc9","ios":"levelo://app?vid=f00840dc-495e-40c5-904a-a70f6c5c5dc9"},"vehicle_type_id":"4","last_reported":1760818202,"current_range_meters":15200,"station_id":"ce4bh4p2rcd13ifvqe0g","pricing_plan_id":"cebpf4jnsgd1na2vs0mg"},{"bike_id":"346acee0-8b0f-49aa-a4d7-81f555556277","system_id":"levelo_inurba_marseille","lat":43.26957,"lon":5.40254,"is_reserved":false,"is_disabled":false,"rental_uris":{"android":"levelo://app?vid=346acee0-8b0f-49aa-a4d7-81f555556277","ios":"levelo://app?vid=346acee0-8b0f-49aa-a4d7-81f555556277"},"vehicle_type_id":"4","last_reported":1760818202,"current_range_meters":15200,"station_id":"cjm6bp8fraef2m0cb0m0","pricing_plan_id":"cebpf4jnsgd1na2vs0mg"},{"bike_id":"5b200941-4e0e-4846-a85a-4f1f5718c444","system_id":"levelo_inurba_marseille","lat":43.27986,"lon":5.4166,"is_reserved":false,"is_disabled":false,"rental_uris":{"android":"levelo://app?vid=5b200941-4e0e-4846-a85a-4f1f5718c444","ios":"levelo://app?vid=5b200941-4e0e-4846-a85a-4f1f5718c444"},"vehicle_type_id":"4","last_reported":1760818202,"current_range_meters":15200,"station_id":"ce4bho12rcd13ifvqh1g","pricing_plan_id":"cebpf4jnsgd1na2vs0mg"},{"bike_id":"da645a59-3c37-4a6c-b300-727c90e60e75","system_id":"levelo_inurba_marseille","lat":43.295326,"lon":5.385427,"is_reserved":false,"is_disabled":false,"rental_uris":{"android":"levelo://app?vid=da645a59-3c37-4a6c-b300-727c90e60e75","ios":"levelo://app?vid=da645a59-3c37-4a6c-b300-727c90e60e75"},"vehicle_type_id":"4","last_reported":1760818202,"current_range_meters":15200,"station_id":"ce4bgih2rcd13ifvqba0","pricing_plan_id":"cebpf4jnsgd1na2vs0mg"},{"bike_id":"08d862b5-0a0a-479e-8a4f-835bd9dc6030","system_id":"levelo_inurba_marseille","lat":43.29026,"lon":5.38639,"is_reserved":false,"is_disabled":false,"rental_uris":{"android":"levelo://app?vid=08d862b5-0a0a-479e-8a4f-835bd9dc6030","ios":"levelo://app?vid=08d862b5-0a0a-479e-8a4f-835bd9dc6030"},"vehicle_type_id":"4","last_reported":1760818202,"current_range_meters":15200,"station_id":"ce4bh4p2rcd13ifvqe0g","pricing_plan_id":"cebpf4jnsgd1na2vs0mg"},{"bike_id":"2e024493-35c3-471c-bd82-8a3dc53ad3c5","system_id":"levelo_inurba_marseille","lat":43.2697,"lon":5.40225,"is_reserved":false,"is_disabled":false,"rental_uris":{"android":"levelo://app?vid=2e024493-35c3-471c-bd82-8a3dc53ad3c5","ios":"levelo://app?vid=2e024493-35c3-471c-bd82-8a3dc53ad3c5"},"vehicle_type_id":"4","last_reported":1760818202,"current_range_meters":16000,"station_id":"cjm6bp8fraef2m0cb0m0","pricing_plan_id":"cebpf4jnsgd1na2vs0mg"},{"bike_id":"83348da8-a4f5-46df-865e-64326525590d","system_id":"levelo_inurba_marseille","lat":43.21746,"lon":5.34604,"is_reserved":false,"is_disabled":false,"rental_uris":{"android":"levelo://app?vid=83348da8-a4f5-46df-865e-64326525590d","ios":"levelo://app?vid=83348da8-a4f5-46df-865e-64326525590d"},"vehicle_type_id":"4","last_reported":1760818202,"current_range_meters":16000,"station_id":"st_cvj6r9ubvosntc0bgbag","pricing_plan_id":"cebpf4jnsgd1na2vs0mg"},{"bike_id":"ae9688e3-9b02-4b3a-b315-b8dc42d95bb6","system_id":"levelo_inurba_marseille","lat":43.27311,"lon":5.39079,"is_reserved":false,"is_disabled":false,"rental_uris":{"android":"levelo://app?vid=ae9688e3-9b02-4b3a-b315-b8dc42d95bb6","ios":"levelo://app?vid=ae9688e3-9b02-4b3a-b315-b8dc42d95bb6"},"vehicle_type_id":"4","last_reported":1760818202,"current_range_meters":16000,"station_id":"ce4bhgp2rcd13ifvqfe0","pricing_plan_id":"cebpf4jnsgd1na2vs0mg"},{"bike_id":"a6adfb1f-da08-4d75-a839-9b884d477ab4","system_id":"levelo_inurba_marseille","lat":43.290299,"lon":5.386449,"is_reserved":false,"is_disabled":false,"rental_uris":{"android":"levelo://app?vid=a6adfb1f-da08-4d75-a839-9b884d477ab4","ios":"levelo://app?vid=a6adfb1f-da08-4d75-a839-9b884d477ab4"},"vehicle_type_id":"4","last_reported":1760818202,"current_range_meters":16000,"station_id":"ce4bh4p2rcd13ifvqe0g","pricing_plan_id":"cebpf4jnsgd1na2vs0mg"},{"bike_id":"c771a2ed-1121-48db-b4bb-aca62e2250c5","system_id":"levelo_inurba_marseille","lat":43.280788,"lon":5.396616,"is_reserved":false,"is_disabled":false,"rental_uris":{"android":"levelo://app?vid=c771a2ed-1121-48db-b4bb-aca62e2250c5","ios":"levelo://app?vid=c771a2ed-1121-48db-b4bb-aca62e2250c5"},"vehicle_type_id":"4","last_reported":1760818202,"current_range_meters":16000,"station_id":"ce4bho12rcd13ifvqh2g","pricing_plan_id":"cebpf4jnsgd1na2vs0mg"},{"bike_id":"bfbbb102-44ce-4ef9-a799-11f98100ccbe","system_id":"levelo_inurba_marseille","lat":43.27927,"lon":5.39596,"is_reserved":false,"is_disabled":false,"rental_uris":{"android":"levelo://app?vid=bfbbb102-44ce-4ef9-a799-11f98100ccbe","ios":"levelo://app?vid=bfbbb102-44ce-4ef9-a799-11f98100ccbe"},"vehicle_type_id":"4","last_reported":1760818202,"current_range_meters":16400,"station_id":"ce4bhf92rcd13ifvqf40","pricing_plan_id":"cebpf4jnsgd1na2vs0mg"},{"bike_id":"74a0e418-9a8a-4d6c-82ac-4bcdbfc66662","system_id":"levelo_inurba_marseille","lat":43.2955,"lon":5.38557,"is_reserved":false,"is_disabled":true,"rental_uris":{"android":"levelo://app?vid=74a0e418-9a8a-4d6c-82ac-4bcdbfc66662","ios":"levelo://app?vid=74a0e418-9a8a-4d6c-82ac-4bcdbfc66662"},"vehicle_type_id":"4","last_reported":1760818202,"current_range_meters":16400,"station_id":"ce4bgih2rcd13ifvqba0","pricing_plan_id":"cebpf4jnsgd1na2vs0mg"},{"bike_id":"0cda47bc-2a80-4a3c-bed2-94f72f57aa66","system_id":"levelo_inurba_marseille","lat":43.29555,"lon":5.38547,"is_reserved":false,"is_disabled":false,"rental_uris":{"android":"levelo://app?vid=0cda47bc-2a80-4a3c-bed2-94f72f57aa66","ios":"levelo://app?vid=0cda47bc-2a80-4a3c-bed2-94f72f57aa66"},"vehicle_type_id":"4","last_reported":1760818202,"current_range_meters":16400,"station_id":"ce4bgih2rcd13ifvqba0","pricing_plan_id":"cebpf4jnsgd1na2vs0mg"},{"bike_id":"5a0654ac-2e38-4b40-befe-67c0ed9ea64f","system_id":"levelo_inurba_marseille","lat":43.2512,"lon":5.40316,"is_reserved":false,"is_disabled":false,"rental_uris":{"android":"levelo://app?vid=5a0654ac-2e38-4b40-befe-67c0ed9ea64f","ios":"levelo://app?vid=5a0654ac-2e38-4b40-befe-67c0ed9ea64f"},"vehicle_type_id":"4","last_reported":1760818202,"current_range_meters":16400,"station_id":"ce4bhlh2rcd13ifvqgig","pricing_plan_id":"cebpf4jnsgd1na2vs0mg"},{"bike_id":"18ed5a02-6af1-43a9-bcc7-1305b3c6b2e1","system_id":"levelo_inurba_marseille","lat":43.27318,"lon":5.39089,"is_reserved":false,"is_disabled":false,"rental_uris":{"android":"levelo://app?vid=18ed5a02-6af1-43a9-bcc7-1305b3c6b2e1","ios":"levelo://app?vid=18ed5a02-6af1-43a9-bcc7-1305b3c6b2e1"},"vehicle_type_id":"4","last_reported":1760818202,"current_range_meters":16400,"station_id":"ce4bhgp2rcd13ifvqfe0","pricing_plan_id":"cebpf4jnsgd1na2vs0mg"},{"bike_id":"8cd818e3-a9e2-4f48-92b2-26306f507696","system_id":"levelo_inurba_marseille","lat":43.31349,"lon":5.37913,"is_reserved":false,"is_disabled":false,"rental_uris":{"android":"levelo://app?vid=8cd818e3-a9e2-4f48-92b2-26306f507696","ios":"levelo://app?vid=8cd818e3-a9e2-4f48-92b2-26306f507696"},"vehicle_type_id":"4","last_reported":1760818202,"current_range_meters":16400,"station_id":"","pricing_plan_id":"cebpf4jnsgd1na2vs0mg"},{"bike_id":"09b729d3-4109-4180-ab77-4d92a7f08986","system_id":"levelo_inurba_marseille","lat":43.29029,"lon":5.38631,"is_reserved":false,"is_disabled":false,"rental_uris":{"android":"levelo://app?vid=09b729d3-4109-4180-ab77-4d92a7f08986","ios":"levelo://app?vid=09b729d3-4109-4180-ab77-4d92a7f08986"},"vehicle_type_id":"4","last_reported":1760818202,"current_range_meters":16400,"station_id":"ce4bh4p2rcd13ifvqe0g","pricing_plan_id":"cebpf4jnsgd1na2vs0mg"},{"bike_id":"557a1625-be77-42f7-b6c3-9292a2ecadfd","system_id":"levelo_inurba_marseille","lat":43.29258,"lon":5.38429,"is_reserved":false,"is_disabled":false,"rental_uris":{"android":"levelo://app?vid=557a1625-be77-42f7-b6c3-9292a2ecadfd","ios":"levelo://app?vid=557a1625-be77-42f7-b6c3-9292a2ecadfd"},"vehicle_type_id":"4","last_reported":1760818202,"current_range_meters":16400,"station_id":"ce4bh692rcd13ifvqea0","pricing_plan_id":"cebpf4jnsgd1na2vs0mg"},{"bike_id":"4503bb0b-5e89-4611-84c5-710c6db0086e","system_id":"levelo_inurba_marseille","lat":43.29285,"lon":5.38457,"is_reserved":false,"is_disabled":false,"rental_uris":{"android":"levelo://app?vid=4503bb0b-5e89-4611-84c5-710c6db0086e","ios":"levelo://app?vid=4503bb0b-5e89-4611-84c5-710c6db0086e"},"vehicle_type_id":"4","last_reported":1760818202,"current_range_meters":16400,"station_id":"ce4bh692rcd13ifvqea0","pricing_plan_id":"cebpf4jnsgd1na2vs0mg"},{"bike_id":"97404b2b-5fa4-4f12-acf8-a4d6a1499459","system_id":"levelo_inurba_marseille","lat":43.23969,"lon":5.36629,"is_reserved":false,"is_disabled":false,"rental_uris":{"android":"levelo://app?vid=97404b2b-5fa4-4f12-acf8-a4d6a1499459","ios":"levelo://app?vid=97404b2b-5fa4-4f12-acf8-a4d6a1499459"},"vehicle_type_id":"4","last_reported":1760818202,"current_range_meters":16400,"station_id":"ce4bhi12rcd13ifvqfp0","pricing_plan_id":"cebpf4jnsgd1na2vs0mg"},{"bike_id":"3fe9b591-2814-4b08-b383-640b780edf0c","system_id":"levelo_inurba_marseille","lat":43.30684,"lon":5.40095,"is_reserved":false,"is_disabled":false,"rental_uris":{"android":"levelo://app?vid=3fe9b591-2814-4b08-b383-640b780edf0c","ios":"levelo://app?vid=3fe9b591-2814-4b08-b383-640b780edf0c"},"vehicle_type_id":"4","last_reported":1760818202,"current_range_meters":16400,"station_id":"ce4bh112rcd13ifvqda0","pricing_plan_id":"cebpf4jnsgd1na2vs0mg"},{"bike_id":"f23074df-8ecc-4a9a-90e3-e6a3fe2ba63b","system_id":"levelo_inurba_marseille","lat":43.27069,"lon":5.40264,"is_reserved":false,"is_disabled":false,"rental_uris":{"android":"levelo://app?vid=f23074df-8ecc-4a9a-90e3-e6a3fe2ba63b","ios":"levelo://app?vid=f23074df-8ecc-4a9a-90e3-e6a3fe2ba63b"},"vehicle_type_id":"4","last_reported":1760818202,"current_range_meters":16400,"station_id":"ce4bhk92rcd13ifvqgc0","pricing_plan_id":"cebpf4jnsgd1na2vs0mg"},{"bike_id":"ac9195b1-7ec5-4f53-8dcd-053a42b83109","system_id":"levelo_inurba_marseille","lat":43.29263,"lon":5.38449,"is_reserved":false,"is_disabled":false,"rental_uris":{"android":"levelo://app?vid=ac9195b1-7ec5-4f53-8dcd-053a42b83109","ios":"levelo://app?vid=ac9195b1-7ec5-4f53-8dcd-053a42b83109"},"vehicle_type_id":"4","last_reported":1760818202,"current_range_meters":16400,"station_id":"ce4bh692rcd13ifvqea0","pricing_plan_id":"cebpf4jnsgd1na2vs0mg"},{"bike_id":"7c893bb4-a0d0-478f-a6df-3c6e778c4047","system_id":"levelo_inurba_marseille","lat":43.30331,"lon":5.36903,"is_reserved":false,"is_disabled":false,"rental_uris":{"android":"levelo://app?vid=7c893bb4-a0d0-478f-a6df-3c6e778c4047","ios":"levelo://app?vid=7c893bb4-a0d0-478f-a6df-3c6e778c4047"},"vehicle_type_id":"4","last_reported":1760818202,"current_range_meters":16800,"station_id":"ce4bgqh2rcd13ifvqc5g","pricing_plan_id":"cebpf4jnsgd1na2vs0mg"},{"bike_id":"8f6c99a9-2111-4ea5-ba4d-4bb0a3b06aa1","system_id":"levelo_inurba_marseille","lat":43.29808,"lon":5.44061,"is_reserved":false,"is_disabled":false,"rental_uris":{"android":"levelo://app?vid=8f6c99a9-2111-4ea5-ba4d-4bb0a3b06aa1","ios":"levelo://app?vid=8f6c99a9-2111-4ea5-ba4d-4bb0a3b06aa1"},"vehicle_type_id":"4","last_reported":1760818202,"current_range_meters":16800,"station_id":"st_d3jp68qikq2c7381ktn0","pricing_plan_id":"cebpf4jnsgd1na2vs0mg"},{"bike_id":"25d7784a-bf62-4829-b979-75617a7f4989","system_id":"levelo_inurba_marseille","lat":43.29556,"lon":5.38544,"is_reserved":false,"is_disabled":false,"rental_uris":{"android":"levelo://app?vid=25d7784a-bf62-4829-b979-75617a7f4989","ios":"levelo://app?vid=25d7784a-bf62-4829-b979-75617a7f4989"},"vehicle_type_id":"4","last_reported":1760818202,"current_range_meters":16800,"station_id":"ce4bgih2rcd13ifvqba0","pricing_plan_id":"cebpf4jnsgd1na2vs0mg"},{"bike_id":"3f9922fa-5fa2-4bb2-b6fe-411d28b8df2c","system_id":"levelo_inurba_marseille","lat":43.284561,"lon":5.381425,"is_reserved":false,"is_disabled":false,"rental_uris":{"android":"levelo://app?vid=3f9922fa-5fa2-4bb2-b6fe-411d28b8df2c","ios":"levelo://app?vid=3f9922fa-5fa2-4bb2-b6fe-411d28b8df2c"},"vehicle_type_id":"4","last_reported":1760818202,"current_range_meters":16800,"station_id":"","pricing_plan_id":"cebpf4jnsgd1na2vs0mg"},{"bike_id":"86ce52f8-f590-4694-90e1-216ddc477b29","system_id":"levelo_inurba_marseille","lat":43.30968,"lon":5.3812,"is_reserved":false,"is_disabled":false,"rental_uris":{"android":"levelo://app?vid=86ce52f8-f590-4694-90e1-216ddc477b29","ios":"levelo://app?vid=86ce52f8-f590-4694-90e1-216ddc477b29"},"vehicle_type_id":"4","last_reported":1760818202,"current_range_meters":16800,"station_id":"","pricing_plan_id":"cebpf4jnsgd1na2vs0mg"},{"bike_id":"367c1051-7e4c-4903-8a1f-171c98150810","system_id":"levelo_inurba_marseille","lat":43.241663,"lon":5.363933,"is_reserved":false,"is_disabled":false,"rental_uris":{"android":"levelo://app?vid=367c1051-7e4c-4903-8a1f-171c98150810","ios":"levelo://app?vid=367c1051-7e4c-4903-8a1f-171c98150810"},"vehicle_type_id":"4","last_reported":1760818202,"current_range_meters":16800,"station_id":"cpo36qri1sfpv3e86is0","pricing_plan_id":"cebpf4jnsgd1na2vs0mg"},{"bike_id":"0f787efd-37ca-4060-a03d-15d3c3ce389f","system_id":"levelo_inurba_marseille","lat":43.30016,"lon":5.37352,"is_reserved":false,"is_disabled":false,"rental_uris":{"android":"levelo://app?vid=0f787efd-37ca-4060-a03d-15d3c3ce389f","ios":"levelo://app?vid=0f787efd-37ca-4060-a03d-15d3c3ce389f"},"vehicle_type_id":"4","last_reported":1760818202,"current_range_meters":16800,"station_id":"","pricing_plan_id":"cebpf4jnsgd1na2vs0mg"},{"bike_id":"b9f4c452-f1a0-4b31-854c-2325a5b73556","system_id":"levelo_inurba_marseille","lat":43.21474,"lon":5.34318,"is_reserved":false,"is_disabled":false,"rental_uris":{"android":"levelo://app?vid=b9f4c452-f1a0-4b31-854c-2325a5b73556","ios":"levelo://app?vid=b9f4c452-f1a0-4b31-854c-2325a5b73556"},"vehicle_type_id":"4","last_reported":1760818202,"current_range_meters":16800,"station_id":"","pricing_plan_id":"cebpf4jnsgd1na2vs0mg"},{"bike_id":"7a8ac50b-c3a4-490a-8f96-9c005f89ed5d","system_id":"levelo_inurba_marseille","lat":43.26521,"lon":5.39049,"is_reserved":false,"is_disabled":false,"rental_uris":{"android":"levelo://app?vid=7a8ac50b-c3a4-490a-8f96-9c005f89ed5d","ios":"levelo://app?vid=7a8ac50b-c3a4-490a-8f96-9c005f89ed5d"},"vehicle_type_id":"4","last_reported":1760818202,"current_range_meters":17200,"station_id":"","pricing_plan_id":"cebpf4jnsgd1na2vs0mg"},{"bike_id":"7b4102bf-aba1-447f-93de-ffef7042242e","system_id":"levelo_inurba_marseille","lat":43.27758,"lon":5.376004,"is_reserved":false,"is_disabled":false,"rental_uris":{"android":"levelo://app?vid=7b4102bf-aba1-447f-93de-ffef7042242e","ios":"levelo://app?vid=7b4102bf-aba1-447f-93de-ffef7042242e"},"vehicle_type_id":"4","last_reported":1760818202,"current_range_meters":17200,"station_id":"","pricing_plan_id":"cebpf4jnsgd1na2vs0mg"},{"bike_id":"5b9d48e6-9daa-4daf-8c71-8cb1033fcbf7","system_id":"levelo_inurba_marseille","lat":43.26964,"lon":5.40256,"is_reserved":false,"is_disabled":false,"rental_uris":{"android":"levelo://app?vid=5b9d48e6-9daa-4daf-8c71-8cb1033fcbf7","ios":"levelo://app?vid=5b9d48e6-9daa-4daf-8c71-8cb1033fcbf7"},"vehicle_type_id":"4","last_reported":1760818202,"current_range_meters":17200,"station_id":"cjm6bp8fraef2m0cb0m0","pricing_plan_id":"cebpf4jnsgd1na2vs0mg"},