{"last_updated":1730722706,"ttl":60,"version":"2.2","data":{"bikes":[{"bike_id":"52fc965b-594b-4825-8b33-c143b237ac5d","system_id":"levelo_inurba_marseille","lat":43.23154,"lon":5.43701,"is_reserved":false,"is_disabled":false,"rental_uris":{"android":"levelo://app?vid=52fc965b-594b-4825-8b33-c143b237ac5d","ios":"levelo://app?vid=52fc965b-594b-4825-8b33-c143b237ac5d"},"vehicle_type_id":"4","last_reported":1730722706,"current_range_meters":4800,"station_id":"ce4bhmp2rcd13ifvqgog","pricing_plan_id":"cebpf4jnsgd1na2vs0mg"},{"bike_id":"aa4a5991-c369-4626-972d-569a5885f560","system_id":"levelo_inurba_marseille","lat":43.30325,"lon":5.40434,"is_reserved":false,"is_disabled":false,"rental_uris":{"android":"levelo://app?vid=aa4a5991-c369-4626-972d-569a5885f560","ios":"levelo://app?vid=aa4a5991-c369-4626-972d-569a5885f560"},"vehicle_type_id":"4","last_reported":1730722706,"current_range_meters":6000,"station_id":"ce4bh012rcd13ifvqd10","pricing_plan_id":"cebpf4jnsgd1na2vs0mg"},{"bike_id":"cc7d53f9-c667-4ad6-ae01-10046057b8ec","system_id":"levelo_inurba_marseille","lat":43.31363,"lon":5.38491,"is_reserved":false,"is_disabled":false,"rental_uris":{"android":"levelo://app?vid=cc7d53f9-c667-4ad6-ae01-10046057b8ec","ios":"levelo://app?vid=cc7d53f9-c667-4ad6-ae01-10046057b8ec"},"vehicle_type_id":"4","last_reported":1730722706,"current_range_meters":37600,"station_id":"ce4bgt92rcd13ifvqcf0","pricing_plan_id":"cebpf4jnsgd1na2vs0mg"},{"bike_id":"9826db14-8f55-472f-9c30-6a9636185dc2","system_id":"levelo_inurba_marseille","lat":43.301727,"lon":5.387467,"is_reserved":false,"is_disabled":false,"rental_uris":{"android":"levelo://app?vid=9826db14-8f55-472f-9c30-6a9636185dc2","ios":"levelo://app?vid=9826db14-8f55-472f-9c30-6a9636185dc2"},"vehicle_type_id":"4","last_reported":1730722706,"current_range_meters":27200,"station_id":"ce4bghh2rcd13ifvqb60","pricing_plan_id":"cebpf4jnsgd1na2vs0mg"},{"bike_id":"32e0bd39-8846-4b8b-9ff5-b45ce87f8492","system_id":"levelo_inurba_marseille","lat":43.2594,"lon":5.40906,"is_reserved":false,"is_disabled":false,"rental_uris":{"android":"levelo://app?vid=32e0bd39-8846-4b8b-9ff5-b45ce87f8492","ios":"levelo://app?vid=32e0bd39-8846-4b8b-9ff5-b45ce87f8492"},"vehicle_type_id":"4","last_reported":1730722706,"current_range_meters":23200,"station_id":"ce4bhm92rcd13ifvqglg","pricing_plan_id":"cebpf4jnsgd1na2vs0mg"},{"bike_id":"a8abd142-ba08-4d41-8016-44f33418a697","system_id":"levelo_inurba_marseille","lat":43.28408,"lon":5.37498,"is_reserved":false,"is_disabled":false,"rental_uris":{"android":"levelo://app?vid=a8abd142-ba08-4d41-8016-44f33418a697","ios":"levelo://app?vid=a8abd142-ba08-4d41-8016-44f33418a697"},"vehicle_type_id":"4","last_reported":1730722706,"current_range_meters":22400,"station_id":"ce4bh412rcd13ifvqds0","pricing_plan_id":"cebpf4jnsgd1na2vs0mg"},{"bike_id":"b45d93e2-137e-40d9-b8b9-f9ceab009d23","system_id":"levelo_inurba_marseille","lat":43.24178,"lon":5.39743,"is_reserved":false,"is_disabled":false,"rental_uris":{"android":"levelo://app?vid=b45d93e2-137e-40d9-b8b9-f9ceab009d23","ios":"levelo://app?vid=b45d93e2-137e-40d9-b8b9-f9ceab009d23"},"vehicle_type_id":"4","last_reported":1730722706,"current_range_meters":39200,"station_id":"ce4bhn12rcd13ifvqgpg","pricing_plan_id":"cebpf4jnsgd1na2vs0mg"},{"bike_id":"52340d74-270c-47a3-b3a7-f0ce31a16824","system_id":"levelo_inurba_marseille","lat":43.265,"lon":5.39543,"is_reserved":false,"is_disabled":false,"rental_uris":{"android":"levelo://app?vid=52340d74-270c-47a3-b3a7-f0ce31a16824","ios":"levelo://app?vid=52340d74-270c-47a3-b3a7-f0ce31a16824"},"vehicle_type_id":"4","last_reported":1730722706,"current_range_meters":36400,"station_id":"ce4bhi12rcd13ifvqfq0","pricing_plan_id":"cebpf4jnsgd1na2vs0mg"},{"bike_id":"88963283-e778-455e-8c78-d5f53f3c9b18","system_id":"levelo_inurba_marseille","lat":43.31122,"lon":5.3778,"is_reserved":false,"is_disabled":false,"rental_uris":{"android":"levelo://app?vid=88963283-e778-455e-8c78-d5f53f3c9b18","ios":"levelo://app?vid=88963283-e778-455e-8c78-d5f53f3c9b18"},"vehicle_type_id":"4","last_reported":1730722706,"current_range_meters":30400,"station_id":"ce4bgt92rcd13ifvqcg0","pricing_plan_id":"cebpf4jnsgd1na2vs0mg"},{"bike_id":"657922bf-48a9-4cc4-a302-b5458947a0f1","system_id":"levelo_inurba_marseille","lat":43.2408,"lon":5.37752,"is_reserved":false,"is_disabled":false,"rental_uris":{"android":"levelo://app?vid=657922bf-48a9-4cc4-a302-b5458947a0f1","ios":"levelo://app?vid=657922bf-48a9-4cc4-a302-b5458947a0f1"},"vehicle_type_id":"4","last_reported":1730722706,"current_range_meters":14800,"station_id":"ce4bhnp2rcd13ifvqgvg","pricing_plan_id":"cebpf4jnsgd1na2vs0mg"},{"bike_id":"da649c66-1517-4660-9f45-e49400b5d9ab","system_id":"levelo_inurba_marseille","lat":43.29097,"lon":5.38128,"is_reserved":false,"is_disabled":false,"rental_uris":{"android":"levelo://app?vid=da649c66-1517-4660-9f45-e49400b5d9ab","ios":"levelo://app?vid=da649c66-1517-4660-9f45-e49400b5d9ab"},"vehicle_type_id":"4","last_reported":1730722706,"current_range_meters":22800,"station_id":"ce4bh512rcd13ifvqe2g","pricing_plan_id":"cebpf4jnsgd1na2vs0mg"},{"bike_id":"2a39fee9-2e1a-4506-90a5-52fa3c1e7f62","system_id":"levelo_inurba_marseille","lat":43.24079,"lon":5.37748,"is_reserved":false,"is_disabled":false,"rental_uris":{"android":"levelo://app?vid=2a39fee9-2e1a-4506-90a5-52fa3c1e7f62","ios":"levelo://app?vid=2a39fee9-2e1a-4506-90a5-52fa3c1e7f62"},"vehicle_type_id":"4","last_reported":1730722706,"current_range_meters":38000,"station_id":"ce4bhnp2rcd13ifvqgvg","pricing_plan_id":"cebpf4jnsgd1na2vs0mg"},{"bike_id":"4147bbfb-4b14-4aca-b782-8ec6c0473609","system_id":"levelo_inurba_marseille","lat":43.23601,"lon":5.40345,"is_reserved":false,"is_disabled":false,"rental_uris":{"android":"levelo://app?vid=4147bbfb-4b14-4aca-b782-8ec6c0473609","ios":"levelo://app?vid=4147bbfb-4b14-4aca-b782-8ec6c0473609"},"vehicle_type_id":"4","last_reported":1730722706,"current_range_meters":15200,"station_id":"","pricing_plan_id":"cebpf4jnsgd1na2vs0mg"},{"bike_id":"3dac0d04-4602-40ab-a137-1c76c669c955","system_id":"levelo_inurba_marseille","lat":43.27938,"lon":5.41043,"is_reserved":false,"is_disabled":false,"rental_uris":{"android":"levelo://app?vid=3dac0d04-4602-40ab-a137-1c76c669c955","ios":"levelo://app?vid=3dac0d04-4602-40ab-a137-1c76c669c955"},"vehicle_type_id":"4","last_reported":1730722706,"current_range_meters":8400,"station_id":"ce4bhnp2rcd13ifvqh0g","pricing_plan_id":"cebpf4jnsgd1na2vs0mg"},{"bike_id":"60188e7c-41b8-413d-9179-e9013c688863","system_id":"levelo_inurba_marseille","lat":43.26563,"lon":5.38993,"is_reserved":false,"is_disabled":false,"rental_uris":{"android":"levelo://app?vid=60188e7c-41b8-413d-9179-e9013c688863","ios":"levelo://app?vid=60188e7c-41b8-413d-9179-e9013c688863"},"vehicle_type_id":"4","last_reported":1730722706,"current_range_meters":10000,"station_id":"ce4bhe12rcd13ifvqf30","pricing_plan_id":"cebpf4jnsgd1na2vs0mg"},{"bike_id":"c3c4d41d-7148-4370-b749-aace2892e397","system_id":"levelo_inurba_marseille","lat":43.2315,"lon":5.43715,"is_reserved":false,"is_disabled":false,"rental_uris":{"android":"levelo://app?vid=c3c4d41d-7148-4370-b749-aace2892e397","ios":"levelo://app?vid=c3c4d41d-7148-4370-b749-aace2892e397"},"vehicle_type_id":"4","last_reported":1730722706,"current_range_meters":36000,"station_id":"ce4bhmp2rcd13ifvqgog","pricing_plan_id":"cebpf4jnsgd1na2vs0mg"},{"bike_id":"f004bb40-0c97-4961-ae2c-b0211cfc0184","system_id":"levelo_inurba_marseille","lat":43.31225,"lon":5.36862,"is_reserved":false,"is_disabled":false,"rental_uris":{"android":"levelo://app?vid=f004bb40-0c97-4961-ae2c-b0211cfc0184","ios":"levelo://app?vid=f004bb40-0c97-4961-ae2c-b0211cfc0184"},"vehicle_type_id":"4","last_reported":1730722706,"current_range_meters":39200,"station_id":"ce4bgl92rcd13ifvqbq0","pricing_plan_id":"cebpf4jnsgd1na2vs0mg"},{"bike_id":"0fa4e96d-0b45-45d3-b1ef-4de8d822db28","system_id":"levelo_inurba_marseille","lat":43.29286,"lon":5.37447,"is_reserved":false,"is_disabled":false,"rental_uris":{"android":"levelo://app?vid=0fa4e96d-0b45-45d3-b1ef-4de8d822db28","ios":"levelo://app?vid=0fa4e96d-0b45-45d3-b1ef-4de8d822db28"},"vehicle_type_id":"4","last_reported":1730722706,"current_range_meters":28800,"station_id":"ce4bgi12rcd13ifvqb70","pricing_plan_id":"cebpf4jnsgd1na2vs0mg"},{"bike_id":"25745431-9c68-4801-9e3e-b2363d9dcd17","system_id":"levelo_inurba_marseille","lat":43.30246,"lon":5.40052,"is_reserved":false,"is_disabled":false,"rental_uris":{"android":"levelo://app?vid=25745431-9c68-4801-9e3e-b2363d9dcd17","ios":"levelo://app?vid=25745431-9c68-4801-9e3e-b2363d9dcd17"},"vehicle_type_id":"4","last_reported":1730722706,"current_range_meters":23200,"station_id":"ce4bgvh2rcd13ifvqcs0","pricing_plan_id":"cebpf4jnsgd1na2vs0mg"},{"bike_id":"295f47ac-f30d-4cc0-960c-9a79c3cdc166","system_id":"levelo_inurba_marseille","lat":43.33603,"lon":5.41034,"is_reserved":false,"is_disabled":false,"rental_uris":{"android":"levelo://app?vid=295f47ac-f30d-4cc0-960c-9a79c3cdc166","ios":"levelo://app?vid=295f47ac-f30d-4cc0-960c-9a79c3cdc166"},"vehicle_type_id":"4","last_reported":1730722706,"current_range_meters":30400,"station_id":"ce4bhqh2rcd13ifvqhmg","pricing_plan_id":"cebpf4jnsgd1na2vs0mg"},{"bike_id":"c9cbc836-212b-45e1-bc73-5bb9b72afa8b","system_id":"levelo_inurba_marseille","lat":43.30328,"lon":5.40446,"is_reserved":false,"is_disabled":false,"rental_uris":{"android":"levelo://app?vid=c9cbc836-212b-45e1-bc73-5bb9b72afa8b","ios":"levelo://app?vid=c9cbc836-212b-45e1-bc73-5bb9b72afa8b"},"vehicle_type_id":"4","last_reported":1730722706,"current_range_meters":18800,"station_id":"ce4bh012rcd13ifvqd10","pricing_plan_id":"cebpf4jnsgd1na2vs0mg"},{"bike_id":"66476298-0009-4fac-b78a-95c0c35e5163","system_id":"levelo_inurba_marseille","lat":43.2682,"lon":5.42076,"is_reserved":false,"is_disabled":false,"rental_uris":{"android":"levelo://app?vid=66476298-0009-4fac-b78a-95c0c35e5163","ios":"levelo://app?vid=66476298-0009-4fac-b78a-95c0c35e5163"},"vehicle_type_id":"4","last_reported":1730722706,"current_range_meters":37600,"station_id":"","pricing_plan_id":"cebpf4jnsgd1na2vs0mg"},{"bike_id":"2378f453-72a7-4eb2-ab3b-946285d406fd","system_id":"levelo_inurba_marseille","lat":43.29222,"lon":5.37726,"is_reserved":false,"is_disabled":false,"rental_uris":{"android":"levelo://app?vid=2378f453-72a7-4eb2-ab3b-946285d406fd","ios":"levelo://app?vid=2378f453-72a7-4eb2-ab3b-946285d406fd"},"vehicle_type_id":"4","last_reported":1730722706,"current_range_meters":8400,"station_id":"","pricing_plan_id":"cebpf4jnsgd1na2vs0mg"},{"bike_id":"ae9f5d11-ddad-4090-8e0d-81b85f2cb479","system_id":"levelo_inurba_marseille","lat":43.26567,"lon":5.39003,"is_reserved":false,"is_disabled":false,"rental_uris":{"android":"levelo://app?vid=ae9f5d11-ddad-4090-8e0d-81b85f2cb479","ios":"levelo://app?vid=ae9f5d11-ddad-4090-8e0d-81b85f2cb479"},"vehicle_type_id":"4","last_reported":1730722706,"current_range_meters":22400,"station_id":"ce4bhe12rcd13ifvqf30","pricing_plan_id":"cebpf4jnsgd1na2vs0mg"},{"bike_id":"1cd85e6a-540e-4343-83a3-ca6c4b27d331","system_id":"levelo_inurba_marseille","lat":43.24074,"lon":5.37761,"is_reserved":false,"is_disabled":false,"rental_uris":{"android":"levelo://app?vid=1cd85e6a-540e-4343-83a3-ca6c4b27d331","ios":"levelo://app?vid=1cd85e6a-540e-4343-83a3-ca6c4b27d331"},"vehicle_type_id":"4","last_reported":1730722706,"current_range_meters":28800,"station_id":"ce4bhnp2rcd13ifvqgvg","pricing_plan_id":"cebpf4jnsgd1na2vs0mg"},{"bike_id":"61dbaa79-fb29-4ce6-ad78-01486dfbbfff","system_id":"levelo_inurba_marseille","lat":43.23955,"lon":5.36661,"is_reserved":false,"is_disabled":false,"rental_uris":{"android":"levelo://app?vid=61dbaa79-fb29-4ce6-ad78-01486dfbbfff","ios":"levelo://app?vid=61dbaa79-fb29-4ce6-ad78-01486dfbbfff"},"vehicle_type_id":"4","last_reported":1730722706,"current_range_meters":38800,"station_id":"ce4bhi12rcd13ifvqfp0","pricing_plan_id":"cebpf4jnsgd1na2vs0mg"},{"bike_id":"1e97fa1e-d092-478e-bdc7-7bb4fec257ce","system_id":"levelo_inurba_marseille","lat":43.30135,"lon":5.38777,"is_reserved":false,"is_disabled":false,"rental_uris":{"android":"levelo://app?vid=1e97fa1e-d092-478e-bdc7-7bb4fec257ce","ios":"levelo://app?vid=1e97fa1e-d092-478e-bdc7-7bb4fec257ce"},"vehicle_type_id":"4","last_reported":1730722706,"current_range_meters":29600,"station_id":"ce4bghh2rcd13ifvqb60","pricing_plan_id":"cebpf4jnsgd1na2vs0mg"},{"bike_id":"2a382fc6-065b-469b-9b33-a9834d0852ec","system_id":"levelo_inurba_marseille","lat":43.317,"lon":5.37752,"is_reserved":false,"is_disabled":false,"rental_uris":{"android":"levelo://app?vid=2a382fc6-065b-469b-9b33-a9834d0852ec","ios":"levelo://app?vid=2a382fc6-065b-469b-9b33-a9834d0852ec"},"vehicle_type_id":"4","last_reported":1730722706,"current_range_meters":38800,"station_id":"ce4bgth2rcd13ifvqch0","pricing_plan_id":"cebpf4jnsgd1na2vs0mg"},{"bike_id":"3bd62d41-958b-4c0c-872c-6a72b57371ab","system_id":"levelo_inurba_marseille","lat":43.24072,"lon":5.37752,"is_reserved":false,"is_disabled":false,"rental_uris":{"android":"levelo://app?vid=3bd62d41-958b-4c0c-872c-6a72b57371ab","ios":"levelo://app?vid=3bd62d41-958b-4c0c-872c-6a72b57371ab"},"vehicle_type_id":"4","last_reported":1730722706,"current_range_meters":24800,"station_id":"ce4bhnp2rcd13ifvqgvg","pricing_plan_id":"cebpf4jnsgd1na2vs0mg"},{"bike_id":"2aedf39e-911e-46a5-9408-e805cacd1cb8","system_id":"levelo_inurba_marseille","lat":43.3043,"lon":5.38873,"is_reserved":false,"is_disabled":false,"rental_uris":{"android":"levelo://app?vid=2aedf39e-911e-46a5-9408-e805cacd1cb8","ios":"levelo://app?vid=2aedf39e-911e-46a5-9408-e805cacd1cb8"},"vehicle_type_id":"4","last_reported":1730722706,"current_range_meters":26000,"station_id":"ce4bgk12rcd13ifvqbi0","pricing_plan_id":"cebpf4jnsgd1na2vs0mg"},{"bike_id":"5f182c0f-58e8-4d44-8169-760b9016320b","system_id":"levelo_inurba_marseille","lat":43.28153,"lon":5.42643,"is_reserved":false,"is_disabled":false,"rental_uris":{"android":"levelo://app?vid=5f182c0f-58e8-4d44-8169-760b9016320b","ios":"levelo://app?vid=5f182c0f-58e8-4d44-8169-760b9016320b"},"vehicle_type_id":"4","last_reported":1730722706,"current_range_meters":30000,"station_id":"ce4bhnh2rcd13ifvqgug","pricing_plan_id":"cebpf4jnsgd1na2vs0mg"},{"bike_id":"729ed762-2084-40cb-ba5b-e8d2d89903cd","system_id":"levelo_inurba_marseille","lat":43.25931,"lon":5.40909,"is_reserved":false,"is_disabled":false,"rental_uris":{"android":"levelo://app?vid=729ed762-2084-40cb-ba5b-e8d2d89903cd","ios":"levelo://app?vid=729ed762-2084-40cb-ba5b-e8d2d89903cd"},"vehicle_type_id":"4","last_reported":1730722706,"current_range_meters":17600,"station_id":"ce4bhm92rcd13ifvqglg","pricing_plan_id":"cebpf4jnsgd1na2vs0mg"},{"bike_id":"55fb35ee-6b0f-484a-84f7-869335264178","system_id":"levelo_inurba_marseille","lat":43.29009,"lon":5.356235,"is_reserved":false,"is_disabled":false,"rental_uris":{"android":"levelo://app?vid=55fb35ee-6b0f-484a-84f7-869335264178","ios":"levelo://app?vid=55fb35ee-6b0f-484a-84f7-869335264178"},"vehicle_type_id":"4","last_reported":1730722706,"current_range_meters":38000,"station_id":"ce4bhb92rcd13ifvqen0","pricing_plan_id":"cebpf4jnsgd1na2vs0mg"},{"bike_id":"5239016c-1175-4411-98e9-4622765fc9c4","system_id":"levelo_inurba_marseille","lat":43.29782,"lon":5.37097,"is_reserved":false,"is_disabled":false,"rental_uris":{"android":"levelo://app?vid=5239016c-1175-4411-98e9-4622765fc9c4","ios":"levelo://app?vid=5239016c-1175-4411-98e9-4622765fc9c4"},"vehicle_type_id":"4","last_reported":1730722706,"current_range_meters":28800,"station_id":"ce4bgop2rcd13ifvqc1g","pricing_plan_id":"cebpf4jnsgd1na2vs0mg"},{"bike_id":"4e368622-7023-49a2-9a57-e9d62de5198a","system_id":"levelo_inurba_marseille","lat":43.29142,"lon":5.35807,"is_reserved":false,"is_disabled":false,"rental_uris":{"android":"levelo://app?vid=4e368622-7023-49a2-9a57-e9d62de5198a","ios":"levelo://app?vid=4e368622-7023-49a2-9a57-e9d62de5198a"},"vehicle_type_id":"4","last_reported":1730722706,"current_range_meters":38800,"station_id":"ce4bhb12rcd13ifvqel0","pricing_plan_id":"cebpf4jnsgd1na2vs0mg"},{"bike_id":"3ad4e7b9-8f28-4452-8c98-6cb58a224271","system_id":"levelo_inurba_marseille","lat":43.28398,"lon":5.37501,"is_reserved":false,"is_disabled":false,"rental_uris":{"android":"levelo://app?vid=3ad4e7b9-8f28-4452-8c98-6cb58a224271","ios":"levelo://app?vid=3ad4e7b9-8f28-4452-8c98-6cb58a224271"},"vehicle_type_id":"4","last_reported":1730722706,"current_range_meters":23200,"station_id":"ce4bh412rcd13ifvqds0","pricing_plan_id":"cebpf4jnsgd1na2vs0mg"},{"bike_id":"179ecacf-dffe-4199-8f4f-82c7dfec4ad3","system_id":"levelo_inurba_marseille","lat":43.28265,"lon":5.35067,"is_reserved":false,"is_disabled":false,"rental_uris":{"android":"levelo://app?vid=179ecacf-dffe-4199-8f4f-82c7dfec4ad3","ios":"levelo://app?vid=179ecacf-dffe-4199-8f4f-82c7dfec4ad3"},"vehicle_type_id":"4","last_reported":1730722706,"current_range_meters":30400,"station_id":"ce4bhbp2rcd13ifvqerg","pricing_plan_id":"cebpf4jnsgd1na2vs0mg"},{"bike_id":"0e8bfa5a-d8d9-421a-9ae1-bda4da6367ec","system_id":"levelo_inurba_marseille","lat":43.28563,"lon":5.395,"is_reserved":false,"is_disabled":false,"rental_uris":{"android":"levelo://app?vid=0e8bfa5a-d8d9-421a-9ae1-bda4da6367ec","ios":"levelo://app?vid=0e8bfa5a-d8d9-421a-9ae1-bda4da6367ec"},"vehicle_type_id":"4","last_reported":1730722706,"current_range_meters":37600,"station_id":"ce4bh292rcd13ifvqdg0","pricing_plan_id":"cebpf4jnsgd1na2vs0mg"},{"bike_id":"8dacdb03-4cd0-474a-aa66-aaf18857d775","system_id":"levelo_inurba_marseille","lat":43.30608,"lon":5.37227,"is_reserved":false,"is_disabled":false,"rental_uris":{"android":"levelo://app?vid=8dacdb03-4cd0-474a-aa66-aaf18857d775","ios":"levelo://app?vid=8dacdb03-4cd0-474a-aa66-aaf18857d775"},"vehicle_type_id":"4","last_reported":1730722706,"current_range_meters":38800,"station_id":"ce4bgqh2rcd13ifvqc4g","pricing_plan_id":"cebpf4jnsgd1na2vs0mg"},{"bike_id":"a9f9a9fe-3106-4e99-b8fc-644b80ed584e","system_id":"levelo_inurba_marseille","lat":43.29905,"lon":5.38133,"is_reserved":false,"is_disabled":false,"rental_uris":{"android":"levelo://app?vid=a9f9a9fe-3106-4e99-b8fc-644b80ed584e","ios":"levelo://app?vid=a9f9a9fe-3106-4e99-b8fc-644b80ed584e"},"vehicle_type_id":"4","last_reported":1730722706,"current_range_meters":16800,"station_id":"ce4bgj12rcd13ifvqbc0","pricing_plan_id":"cebpf4jnsgd1na2vs0mg"},{"bike_id":"940d47f0-7f63-4a27-bdf6-d3a4b771f7fe","system_id":"levelo_inurba_marseille","lat":43.28435,"lon":5.39184,"is_reserved":false,"is_disabled":false,"rental_uris":{"android":"levelo://app?vid=940d47f0-7f63-4a27-bdf6-d3a4b771f7fe","ios":"levelo://app?vid=940d47f0-7f63-4a27-bdf6-d3a4b771f7fe"},"vehicle_type_id":"4","last_reported":1730722706,"current_range_meters":19600,"station_id":"ce4bhoh2rcd13ifvqh5g","pricing_plan_id":"cebpf4jnsgd1na2vs0mg"},{"bike_id":"b32b7556-10cc-4d3a-8c12-df987a6243de","system_id":"levelo_inurba_marseille","lat":43.28422,"lon":5.3497,"is_reserved":false,"is_disabled":false,"rental_uris":{"android":"levelo://app?vid=b32b7556-10cc-4d3a-8c12-df987a6243de","ios":"levelo://app?vid=b32b7556-10cc-4d3a-8c12-df987a6243de"},"vehicle_type_id":"4","last_reported":1730722706,"current_range_meters":5600,"station_id":"ce4bhbh2rcd13ifvqepg","pricing_plan_id":"cebpf4jnsgd1na2vs0mg"},{"bike_id":"273c93ef-24ea-4558-b43b-9696ab8cf6e6","system_id":"levelo_inurba_marseille","lat":43.30362,"lon":5.37055,"is_reserved":false,"is_disabled":false,"rental_uris":{"android":"levelo://app?vid=273c93ef-24ea-4558-b43b-9696ab8cf6e6","ios":"levelo://app?vid=273c93ef-24ea-4558-b43b-9696ab8cf6e6"},"vehicle_type_id":"4","last_reported":1730722706,"current_range_meters":38000,"station_id":"ce4bgqh2rcd13ifvqc5g","pricing_plan_id":"cebpf4jnsgd1na2vs0mg"},{"bike_id":"bfb4e9f1-502b-4eee-ad84-0c905afe5629","system_id":"levelo_inurba_marseille","lat":43.32477,"lon":5.36579,"is_reserved":false,"is_disabled":false,"rental_uris":{"android":"levelo://app?vid=bfb4e9f1-502b-4eee-ad84-0c905afe5629","ios":"levelo://app?vid=bfb4e9f1-502b-4eee-ad84-0c905afe5629"},"vehicle_type_id":"4","last_reported":1730722706,"current_range_meters":28800,"station_id":"ce4bhs12rcd13ifvqhvg","pricing_plan_id":"cebpf4jnsgd1na2vs0mg"},{"bike_id":"fcda431b-00f7-4fd8-bb18-897981fe927f","system_id":"levelo_inurba_marseille","lat":43.26679,"lon":5.38263,"is_reserved":false,"is_disabled":false,"rental_uris":{"android":"levelo://app?vid=fcda431b-00f7-4fd8-bb18-897981fe927f","ios":"levelo://app?vid=fcda431b-00f7-4fd8-bb18-897981fe927f"},"vehicle_type_id":"4","last_reported":1730722706,"current_range_meters":37600,"station_id":"ce4bhg92rcd13ifvqf90","pricing_plan_id":"cebpf4jnsgd1na2vs0mg"},{"bike_id":"6af9b4ef-84ae-4501-a87e-181c281be810","system_id":"levelo_inurba_marseille","lat":43.28352,"lon":5.38104,"is_reserved":false,"is_disabled":false,"rental_uris":{"android":"levelo://app?vid=6af9b4ef-84ae-4501-a87e-181c281be810","ios":"levelo://app?vid=6af9b4ef-84ae-4501-a87e-181c281be810"},"vehicle_type_id":"4","last_reported":1730722706,"current_range_meters":37600,"station_id":"ce4bh412rcd13ifvqdr0","pricing_plan_id":"cebpf4jnsgd1na2vs0mg"},{"bike_id":"e7e316a9-0024-411a-b0df-2dc9d691ea3f","system_id":"levelo_inurba_marseille","lat":43.28616,"lon":5.35099,"is_reserved":false,"is_disabled":false,"rental_uris":{"android":"levelo://app?vid=e7e316a9-0024-411a-b0df-2dc9d691ea3f","ios":"levelo://app?vid=e7e316a9-0024-411a-b0df-2dc9d691ea3f"},"vehicle_type_id":"4","last_reported":1730722706,"current_range_meters":22800,"station_id":"ce4bhch2rcd13ifvqeug","pricing_plan_id":"cebpf4jnsgd1na2vs0mg"},{"bike_id":"62c71737-79f6-4fe9-8c0a-37730e7d0b08","system_id":"levelo_inurba_marseille","lat":43.3122,"lon":5.36841,"is_reserved":false,"is_disabled":false,"rental_uris":{"android":"levelo://app?vid=62c71737-79f6-4fe9-8c0a-37730e7d0b08","ios":"levelo://app?vid=62c71737-79f6-4fe9-8c0a-37730e7d0b08"},"vehicle_type_id":"4","last_reported":1730722706,"current_range_meters":22000,"station_id":"ce4bgl92rcd13ifvqbq0","pricing_plan_id":"cebpf4jnsgd1na2vs0mg"},{"bike_id":"5178c2e5-90b9-489e-a95f-9e67b9d1608e","system_id":"levelo_inurba_marseille","lat":43.29558,"lon":5.39982,"is_reserved":false,"is_disabled":false,"rental_uris":{"android":"levelo://app?vid=5178c2e5-90b9-489e-a95f-9e67b9d1608e","ios":"levelo://app?vid=5178c2e5-90b9-489e-a95f-9e67b9d1608e"},"vehicle_type_id":"4","last_reported":1730722706,"current_range_meters":10000,"station_id":"ce4bh312rcd13ifvqdj0","pricing_plan_id":"cebpf4jnsgd1na2vs0mg"},{"bike_id":"68e6e4ba-53d1-4494-b1e0-e4bd8e29fea2","system_id":"levelo_inurba_marseille","lat":43.23153,"lon":5.4371,"is_reserved":false,"is_disabled":false,"rental_uris":{"android":"levelo://app?vid=68e6e4ba-53d1-4494-b1e0-e4bd8e29fea2","ios":"levelo://app?vid=68e6e4ba-53d1-4494-b1e0-e4bd8e29fea2"},"vehicle_type_id":"4","last_reported":1730722706,"current_range_meters":36800,"station_id":"ce4bhmp2rcd13ifvqgog","pricing_plan_id":"cebpf4jnsgd1na2vs0mg"},{"bike_id":"7ce77be2-28e6-467f-9494-16f057502bba","system_id":"levelo_inurba_marseille","lat":43.28148,"lon":5.42641,"is_reserved":false,"is_disabled":false,"rental_uris":{"android":"levelo://app?vid=7ce77be2-28e6-467f-9494-16f057502bba","ios":"levelo://app?vid=7ce77be2-28e6-467f-9494-16f057502bba"},"vehicle_type_id":"4","last_reported":1730722706,"current_range_meters":28800,"station_id":"ce4bhnh2rcd13ifvqgug","pricing_plan_id":"cebpf4jnsgd1na2vs0mg"},{"bike_id":"a6e2559b-7ae0-411a-9728-1fdf947afab9","system_id":"levelo_inurba_marseille","lat":43.29024,"lon":5.38645,"is_reserved":false,"is_disabled":false,"rental_uris":{"android":"levelo://app?vid=a6e2559b-7ae0-411a-9728-1fdf947afab9","ios":"levelo://app?vid=a6e2559b-7ae0-411a-9728-1fdf947afab9"},"vehicle_type_id":"4","last_reported":1730722706,"current_range_meters":30800,"station_id":"ce4bh4p2rcd13ifvqe0g","pricing_plan_id":"cebpf4jnsgd1na2vs0mg"},{"bike_id":"9299e630-899a-4526-ac0d-87e5ec9130b1","system_id":"levelo_inurba_marseille","lat":43.30142,"lon":5.38778,"is_reserved":false,"is_disabled":false,"rental_uris":{"android":"levelo://app?vid=9299e630-899a-4526-ac0d-87e5ec9130b1","ios":"levelo://app?vid=9299e630-899a-4526-ac0d-87e5ec9130b1"},"vehicle_type_id":"4","last_reported":1730722706,"current_range_meters":30000,"station_id":"ce4bghh2rcd13ifvqb60","pricing_plan_id":"cebpf4jnsgd1na2vs0mg"},{"bike_id":"496d1592-f444-4219-9dc2-55373938e639","system_id":"levelo_inurba_marseille","lat":43.28156,"lon":5.42634,"is_reserved":false,"is_disabled":false,"rental_uris":{"android":"levelo://app?vid=496d1592-f444-4219-9dc2-55373938e639","ios":"levelo://app?vid=496d1592-f444-4219-9dc2-55373938e639"},"vehicle_type_id":"4","last_reported":1730722706,"current_range_meters":35600,"station_id":"ce4bhnh2rcd13ifvqgug","pricing_plan_id":"cebpf4jnsgd1na2vs0mg"},{"bike_id":"14232ff8-21e4-4bc1-a726-757f951f7500","system_id":"levelo_inurba_marseille","lat":43.25498,"lon":5.37649,"is_reserved":false,"is_disabled":false,"rental_uris":{"android":"levelo://app?vid=14232ff8-21e4-4bc1-a726-757f951f7500","ios":"levelo://app?vid=14232ff8-21e4-4bc1-a726-757f951f7500"},"vehicle_type_id":"4","last_reported":1730722706,"current_range_meters":20800,"station_id":"ce4bhh12rcd13ifvqff0","pricing_plan_id":"cebpf4jnsgd1na2vs0mg"},{"bike_id":"9dc3374b-0b85-4a8b-88a8-db8ad8f687c8","system_id":"levelo_inurba_marseille","lat":43.24081,"lon":5.37748,"is_reserved":false,"is_disabled":false,"rental_uris":{"android":"levelo://app?vid=9dc3374b-0b85-4a8b-88a8-db8ad8f687c8","ios":"levelo://app?vid=9dc3374b-0b85-4a8b-88a8-db8ad8f687c8"},"vehicle_type_id":"4","last_reported":1730722706,"current_range_meters":11600,"station_id":"ce4bhnp2rcd13ifvqgvg","pricing_plan_id":"cebpf4jnsgd1na2vs0mg"},{"bike_id":"79237a69-c66f-40b2-88b5-5ac8d2156233","system_id":"levelo_inurba_marseille","lat":43.23181,"lon":5.39986,"is_reserved":false,"is_disabled":false,"rental_uris":{"android":"levelo://app?vid=79237a69-c66f-40b2-88b5-5ac8d2156233","ios":"levelo://app?vid=79237a69-c66f-40b2-88b5-5ac8d2156233"},"vehicle_type_id":"4","last_reported":1730722706,"current_range_meters":36000,"station_id":"ce4bhn12rcd13ifvqgqg","pricing_plan_id":"cebpf4jnsgd1na2vs0mg"},{"bike_id":"3e0ffa3f-c2ea-475b-ad7a-d56a63d5f6ee","system_id":"levelo_inurba_marseille","lat":43.29965,"lon":5.38491,"is_reserved":false,"is_disabled":false,"rental_uris":{"android":"levelo://app?vid=3e0ffa3f-c2ea-475b-ad7a-d56a63d5f6ee","ios":"levelo://app?vid=3e0ffa3f-c2ea-475b-ad7a-d56a63d5f6ee"},"vehicle_type_id":"4","last_reported":1730722706,"current_range_meters":12000,"station_id":"ce4bgj92rcd13ifvqbd0","pricing_plan_id":"cebpf4jnsgd1na2vs0mg"},{"bike_id":"60835bc6-1091-4af5-ba37-221544ee8c65","system_id":"levelo_inurba_marseille","lat":43.24653,"lon":5.389,"is_reserved":false,"is_disabled":false,"rental_uris":{"android":"levelo://app?vid=60835bc6-1091-4af5-ba37-221544ee8c65","ios":"levelo://app?vid=60835bc6-1091-4af5-ba37-221544ee8c65"},"vehicle_type_id":"4","last_reported":1730722706,"current_range_meters":30800,"station_id":"ce4bhg12rcd13ifvqf60","pricing_plan_id":"cebpf4jnsgd1na2vs0mg"},{"bike_id":"1ff5cb12-d4b1-4e56-80db-1998cff76e98","system_id":"levelo_inurba_marseille","lat":43.29967,"lon":5.38492,"is_reserved":false,"is_disabled":false,"rental_uris":{"android":"levelo://app?vid=1ff5cb12-d4b1-4e56-80db-1998cff76e98","ios":"levelo://app?vid=1ff5cb12-d4b1-4e56-80db-1998cff76e98"},"vehicle_type_id":"4","last_reported":1730722706,"current_range_meters":18800,"station_id":"ce4bgj92rcd13ifvqbd0","pricing_plan_id":"cebpf4jnsgd1na2vs0mg"},{"bike_id":"996783cc-d398-475a-8521-85a65e81a8d2","system_id":"levelo_inurba_marseille","lat":43.308563,"lon":5.396701,"is_reserved":false,"is_disabled":false,"rental_uris":{"android":"levelo://app?vid=996783cc-d398-475a-8521-85a65e81a8d2","ios":"levelo://app?vid=996783cc-d398-475a-8521-85a65e81a8d2"},"vehicle_type_id":"4","last_reported":1730722706,"current_range_meters":17600,"station_id":"ce4bgvp2rcd13ifvqct0","pricing_plan_id":"cebpf4jnsgd1na2vs0mg"},{"bike_id":"586d67fc-ef84-4ec7-a01f-db2229e17324","system_id":"levelo_inurba_marseille","lat":43.29306,"lon":5.37174,"is_reserved":false,"is_disabled":false,"rental_uris":{"android":"levelo://app?vid=586d67fc-ef84-4ec7-a01f-db2229e17324","ios":"levelo://app?vid=586d67fc-ef84-4ec7-a01f-db2229e17324"},"vehicle_type_id":"4","last_reported":1730722706,"current_range_meters":37600,"station_id":"ce4bgh92rcd13ifvqb40","pricing_plan_id":"cebpf4jnsgd1na2vs0mg"},{"bike_id":"1d6cffdd-e5af-40a3-9ebf-b558652a6e59","system_id":"levelo_inurba_marseille","lat":43.29275,"lon":5.36843,"is_reserved":false,"is_disabled":false,"rental_uris":{"android":"levelo://app?vid=1d6cffdd-e5af-40a3-9ebf-b558652a6e59","ios":"levelo://app?vid=1d6cffdd-e5af-40a3-9ebf-b558652a6e59"},"vehicle_type_id":"4","last_reported":1730722706,"current_range_meters":24000,"station_id":"ce4bhbp2rcd13ifvqesg","pricing_plan_id":"cebpf4jnsgd1na2vs0mg"},{"bike_id":"edd6181d-02cf-49c3-8386-d50835f0a5d1","system_id":"levelo_inurba_marseille","lat":43.29722,"lon":5.3769,"is_reserved":false,"is_disabled":false,"rental_uris":{"android":"levelo://app?vid=edd6181d-02cf-49c3-8386-d50835f0a5d1","ios":"levelo://app?vid=edd6181d-02cf-49c3-8386-d50835f0a5d1"},"vehicle_type_id":"4","last_reported":1730722706,"current_range_meters":38800,"station_id":"ce4bgkh2rcd13ifvqbl0","pricing_plan_id":"cebpf4jnsgd1na2vs0mg"},{"bike_id":"3a38eb60-07fa-498b-8680-f7a2deecf1cc","system_id":"levelo_inurba_marseille","lat":43.27173,"lon":5.40987,"is_reserved":false,"is_disabled":false,"rental_uris":{"android":"levelo://app?vid=3a38eb60-07fa-498b-8680-f7a2deecf1cc","ios":"levelo://app?vid=3a38eb60-07fa-498b-8680-f7a2deecf1cc"},"vehicle_type_id":"4","last_reported":1730722706,"current_range_meters":28400,"station_id":"ce4bhl12rcd13ifvqgf0","pricing_plan_id":"cebpf4jnsgd1na2vs0mg"},{"bike_id":"d4472d20-9c4b-4c70-ad00-3a005519a429","system_id":"levelo_inurba_marseille","lat":43.35372,"lon":5.35725,"is_reserved":false,"is_disabled":false,"rental_uris":{"android":"levelo://app?vid=d4472d20-9c4b-4c70-ad00-3a005519a429","ios":"levelo://app?vid=d4472d20-9c4b-4c70-ad00-3a005519a429"},"vehicle_type_id":"4","last_reported":1730722706,"current_range_meters":9200,"station_id":"","pricing_plan_id":"cebpf4jnsgd1na2vs0mg"},{"bike_id":"909e0e2b-7677-457b-9751-755482e162e9","system_id":"levelo_inurba_marseille","lat":43.2962,"lon":5.37153,"is_reserved":false,"is_disabled":false,"rental_uris":{"android":"levelo://app?vid=909e0e2b-7677-457b-9751-755482e162e9","ios":"levelo://app?vid=909e0e2b-7677-457b-9751-755482e162e9"},"vehicle_type_id":"4","last_reported":1730722706,"current_range_meters":28800,"station_id":"ce4bgnh2rcd13ifvqc0g","pricing_plan_id":"cebpf4jnsgd1na2vs0mg"},{"bike_id":"ea88a353-cf62-42ff-b351-26b58ddf2c7f","system_id":"levelo_inurba_marseille","lat":43.29196,"lon":5.358065,"is_reserved":false,"is_disabled":false,"rental_uris":{"android":"levelo://app?vid=ea88a353-cf62-42ff-b351-26b58ddf2c7f","ios":"levelo://app?vid=ea88a353-cf62-42ff-b351-26b58ddf2c7f"},"vehicle_type_id":"4","last_reported":1730722706,"current_range_meters":15200,"station_id":"ce4bhb12rcd13ifvqel0","pricing_plan_id":"cebpf4jnsgd1na2vs0mg"},{"bike_id":"950661e8-0595-470a-9ddd-41f041c4f5e5","system_id":"levelo_inurba_marseille","lat":43.324265,"lon":5.382325,"is_reserved":false,"is_disabled":false,"rental_uris":{"android":"levelo://app?vid=950661e8-0595-470a-9ddd-41f041c4f5e5","ios":"levelo://app?vid=950661e8-0595-470a-9ddd-41f041c4f5e5"},"vehicle_type_id":"4","last_reported":1730722706,"current_range_meters":18000,"station_id":"","pricing_plan_id":"cebpf4jnsgd1na2vs0mg"},{"bike_id":"cd774888-43f1-48a5-aa4b-07f054c97ab4","system_id":"levelo_inurba_marseille","lat":43.29915,"lon":5.37474,"is_reserved":false,"is_disabled":false,"rental_uris":{"android":"levelo://app?vid=cd774888-43f1-48a5-aa4b-07f054c97ab4","ios":"levelo://app?vid=cd774888-43f1-48a5-aa4b-07f054c97ab4"},"vehicle_type_id":"4","last_reported":1730722706,"current_range_meters":33600,"station_id":"ce4bgjh2rcd13ifvqbg0","pricing_plan_id":"cebpf4jnsgd1na2vs0mg"},{"bike_id":"1f7dcee0-6c3e-4c04-b1c7-eca931fb163d","system_id":"levelo_inurba_marseille","lat":43.23147,"lon":5.43719,"is_reserved":false,"is_disabled":false,"rental_uris":{"android":"levelo://app?vid=1f7dcee0-6c3e-4c04-b1c7-eca931fb163d","ios":"levelo://app?vid=1f7dcee0-6c3e-4c04-b1c7-eca931fb163d"},"vehicle_type_id":"4","last_reported":1730722706,"current_range_meters":7200,"station_id":"ce4bhmp2rcd13ifvqgog","pricing_plan_id":"cebpf4jnsgd1na2vs0mg"},{"bike_id":"721105a1-3a1f-4fa4-9b6c-177d76caecf1","system_id":"levelo_inurba_marseille","lat":43.29709,"lon":5.36613,"is_reserved":false,"is_disabled":false,"rental_uris":{"android":"levelo://app?vid=721105a1-3a1f-4fa4-9b6c-177d76caecf1","ios":"levelo://app?vid=721105a1-3a1f-4fa4-9b6c-177d76caecf1"},"vehicle_type_id":"4","last_reported":1730722706,"current_range_meters":38800,"station_id":"ce4bgn12rcd13ifvqbt0","pricing_plan_id":"cebpf4jnsgd1na2vs0mg"},{"bike_id":"ee42b244-f3b4-458b-9928-b95d1604961c","system_id":"levelo_inurba_marseille","lat":43.28945,"lon":5.36403,"is_reserved":false,"is_disabled":false,"rental_uris":{"android":"levelo://app?vid=ee42b244-f3b4-458b-9928-b95d1604961c","ios":"levelo://app?vid=ee42b244-f3b4-458b-9928-b95d1604961c"},"vehicle_type_id":"4","last_reported":1730722706,"current_range_meters":19200,"station_id":"ce4bhc92rcd13ifvqetg","pricing_plan_id":"cebpf4jnsgd1na2vs0mg"},{"bike_id":"255a3061-1362-41f1-8c13-ee9fca9da59e","system_id":"levelo_inurba_marseille","lat":43.23061,"lon":5.35492,"is_reserved":false,"is_disabled":false,"rental_uris":{"android":"levelo://app?vid=255a3061-1362-41f1-8c13-ee9fca9da59e","ios":"levelo://app?vid=255a3061-1362-41f1-8c13-ee9fca9da59e"},"vehicle_type_id":"4","last_reported":1730722706,"current_range_meters":26000,"station_id":"cpo3342slgdg3j2ifvpg","pricing_plan_id":"cebpf4jnsgd1na2vs0mg"},{"bike_id":"d34b56cd-97d4-42d1-8eae-e0f42cf8266f","system_id":"levelo_inurba_marseille","lat":43.30462,"lon":5.37905,"is_reserved":false,"is_disabled":false,"rental_uris":{"android":"levelo://app?vid=d34b56cd-97d4-42d1-8eae-e0f42cf8266f","ios":"levelo://app?vid=d34b56cd-97d4-42d1-8eae-e0f42cf8266f"},"vehicle_type_id":"4","last_reported":1730722706,"current_range_meters":25600,"station_id":"ce4bgup2rcd13ifvqcn0","pricing_plan_id":"cebpf4jnsgd1na2vs0mg"},{"bike_id":"8692c708-6749-4cff-a161-ad26fb2f62aa","system_id":"levelo_inurba_marseille","lat":43.30605,"lon":5.37222,"is_reserved":false,"is_disabled":false,"rental_uris":{"android":"levelo://app?vid=8692c708-6749-4cff-a161-ad26fb2f62aa","ios":"levelo://app?vid=8692c708-6749-4cff-a161-ad26fb2f62aa"},"vehicle_type_id":"4","last_reported":1730722706,"current_range_meters":39200,"station_id":"ce4bgqh2rcd13ifvqc4g","pricing_plan_id":"cebpf4jnsgd1na2vs0mg"},{"bike_id":"3aeb2d78-5dd4-462d-8eca-8518cd674192","system_id":"levelo_inurba_marseille","lat":43.28612,"lon":5.35101,"is_reserved":false,"is_disabled":false,"rental_uris":{"android":"levelo://app?vid=3aeb2d78-5dd4-462d-8eca-8518cd674192","ios":"levelo://app?vid=3aeb2d78-5dd4-462d-8eca-8518cd674192"},"vehicle_type_id":"4","last_reported":1730722706,"current_range_meters":28800,"station_id":"ce4bhch2rcd13ifvqeug","pricing_plan_id":"cebpf4jnsgd1na2vs0mg"},{"bike_id":"b14cb5d2-a3a0-4560-ac96-25061beacbf8","system_id":"levelo_inurba_marseille","lat":43.26032,"lon":5.37545,"is_reserved":false,"is_disabled":false,"rental_uris":{"android":"levelo://app?vid=b14cb5d2-a3a0-4560-ac96-25061beacbf8","ios":"levelo://app?vid=b14cb5d2-a3a0-4560-ac96-25061beacbf8"},"vehicle_type_id":"4","last_reported":1730722706,"current_range_meters":20800,"station_id":"ce4bhgh2rcd13ifvqfa0","pricing_plan_id":"cebpf4jnsgd1na2vs0mg"},{"bike_id":"dd565105-120e-4932-af93-d46b4041dd20","system_id":"levelo_inurba_marseille","lat":43.3149,"lon":5.37307,"is_reserved":false,"is_disabled":false,"rental_uris":{"android":"levelo://app?vid=dd565105-120e-4932-af93-d46b4041dd20","ios":"levelo://app?vid=dd565105-120e-4932-af93-d46b4041dd20"},"vehicle_type_id":"4","last_reported":1730722706,"current_range_meters":39200,"station_id":"ce4bgt12rcd13ifvqcd0","pricing_plan_id":"cebpf4jnsgd1na2vs0mg"},{"bike_id":"45cedf96-730d-4f5f-a261-d12d36570dca","system_id":"levelo_inurba_marseille","lat":43.29047,"lon":5.39965,"is_reserved":false,"is_disabled":false,"rental_uris":{"android":"levelo://app?vid=45cedf96-730d-4f5f-a261-d12d36570dca","ios":"levelo://app?vid=45cedf96-730d-4f5f-a261-d12d36570dca"},"vehicle_type_id":"4","last_reported":1730722706,"current_range_meters":29600,"station_id":"ce4bh392rcd13ifvqdm0","pricing_plan_id":"cebpf4jnsgd1na2vs0mg"},{"bike_id":"94c8aa08-abc9-45cb-b45a-ab6494a06b08","system_id":"levelo_inurba_marseille","lat":43.30552,"lon":5.36533,"is_reserved":false,"is_disabled":false,"rental_uris":{"android":"levelo://app?vid=94c8aa08-abc9-45cb-b45a-ab6494a06b08","ios":"levelo://app?vid=94c8aa08-abc9-45cb-b45a-ab6494a06b08"},"vehicle_type_id":"4","last_reported":1730722706,"current_range_meters":38800,"station_id":"ce4bgs12rcd13ifvqcag","pricing_plan_id":"cebpf4jnsgd1na2vs0mg"},{"bike_id":"6ea05163-7c7f-4fd9-867d-3b3eef258c42","system_id":"levelo_inurba_marseille","lat":43.29616,"lon":5.37726,"is_reserved":false,"is_disabled":false,"rental_uris":{"android":"levelo://app?vid=6ea05163-7c7f-4fd9-867d-3b3eef258c42","ios":"levelo://app?vid=6ea05163-7c7f-4fd9-867d-3b3eef258c42"},"vehicle_type_id":"4","last_reported":1730722706,"current_range_meters":10800,"station_id":"ce4bgi92rcd13ifvqb90","pricing_plan_id":"cebpf4jnsgd1na2vs0mg"},{"bike_id":"30dfc1e4-458d-4f28-b8e1-d8ba99fdf35c","system_id":"levelo_inurba_marseille","lat":43.24511,"lon":5.38024,"is_reserved":false,"is_disabled":false,"rental_uris":{"android":"levelo://app?vid=30dfc1e4-458d-4f28-b8e1-d8ba99fdf35c","ios":"levelo://app?vid=30dfc1e4-458d-4f28-b8e1-d8ba99fdf35c"},"vehicle_type_id":"4","last_reported":1730722706,"current_range_meters":28400,"station_id":"ce4bhnp2rcd13ifvqgvg","pricing_plan_id":"cebpf4jnsgd1na2vs0mg"},{"bike_id":"cfceb85a-8c7b-4241-b2ee-fb768a9758e3","system_id":"levelo_inurba_marseille","lat":43.27993,"lon":5.41659,"is_reserved":false,"is_disabled":false,"rental_uris":{"android":"levelo://app?vid=cfceb85a-8c7b-4241-b2ee-fb768a9758e3","ios":"levelo://app?vid=cfceb85a-8c7b-4241-b2ee-fb768a9758e3"},"vehicle_type_id":"4","last_reported":1730722706,"current_range_meters":36800,"station_id":"ce4bho12rcd13ifvqh1g","pricing_plan_id":"cebpf4jnsgd1na2vs0mg"},{"bike_id":"a05b2444-6361-4d02-8306-6f657e90af29","system_id":"levelo_inurba_marseille","lat":43.31489,"lon":5.37311,"is_reserved":false,"is_disabled":false,"rental_uris":{"android":"levelo://app?vid=a05b2444-6361-4d02-8306-6f657e90af29","ios":"levelo://app?vid=a05b2444-6361-4d02-8306-6f657e90af29"},"vehicle_type_id":"4","last_reported":1730722706,"current_range_meters":30000,"station_id":"ce4bgt12rcd13ifvqcd0","pricing_plan_id":"cebpf4jnsgd1na2vs0mg"},{"bike_id":"7aad5d6f-422f-478a-abc6-e20286c98efd","system_id":"levelo_inurba_marseille","lat":43.29588,"lon":5.37521,"is_reserved":false,"is_disabled":false,"rental_uris":{"android":"levelo://app?vid=7aad5d6f-422f-478a-abc6-e20286c98efd","ios":"levelo://app?vid=7aad5d6f-422f-478a-abc6-e20286c98efd"},"vehicle_type_id":"4","last_reported":1730722706,"current_range_meters":29600,"station_id":"ce4bgh92rcd13ifvqb50","pricing_plan_id":"cebpf4jnsgd1na2vs0mg"},{"bike_id":"e92c48ae-73cf-43e4-9e00-9bf323738edc","system_id":"levelo_inurba_marseille","lat":43.25091,"lon":5.39514,"is_reserved":false,"is_disabled":false,"rental_uris":{"android":"levelo://app?vid=e92c48ae-73cf-43e4-9e00-9bf323738edc","ios":"levelo://app?vid=e92c48ae-73cf-43e4-9e00-9bf323738edc"},"vehicle_type_id":"4","last_reported":1730722706,"current_range_meters":22400,"station_id":"ce4bhm12rcd13ifvqgkg","pricing_plan_id":"cebpf4jnsgd1na2vs0mg"},{"bike_id":"0276cc7a-f556-468f-868d-e91e2a1f5a27","system_id":"levelo_inurba_marseille","lat":43.299289,"lon":5.381512,"is_reserved":false,"is_disabled":false,"rental_uris":{"android":"levelo://app?vid=0276cc7a-f556-468f-868d-e91e2a1f5a27","ios":"levelo://app?vid=0276cc7a-f556-468f-868d-e91e2a1f5a27"},"vehicle_type_id":"4","last_reported":1730722706,"current_range_meters":22400,"station_id":"ce4bgt12rcd13ifvqcd0","pricing_plan_id":"cebpf4jnsgd1na2vs0mg"},{"bike_id":"0fb3a1bf-8d60-4830-a342-91a11563480e","system_id":"levelo_inurba_marseille","lat":43.33607,"lon":5.41018,"is_reserved":false,"is_disabled":false,"rental_uris":{"android":"levelo://app?vid=0fb3a1bf-8d60-4830-a342-91a11563480e","ios":"levelo://app?vid=0fb3a1bf-8d60-4830-a342-91a11563480e"},"vehicle_type_id":"4","last_reported":1730722706,"current_range_meters":12800,"station_id":"ce4bhqh2rcd13ifvqhmg","pricing_plan_id":"cebpf4jnsgd1na2vs0mg"},{"bike_id":"5908bc81-a7f9-48ff-a0cb-2e9155342915","system_id":"levelo_inurba_marseille","lat":43.31065,"lon":5.38338,"is_reserved":false,"is_disabled":false,"rental_uris":{"android":"levelo://app?vid=5908bc81-a7f9-48ff-a0cb-2e9155342915","ios":"levelo://app?vid=5908bc81-a7f9-48ff-a0cb-2e9155342915"},"vehicle_type_id":"4","last_reported":1730722706,"current_range_meters":24400,"station_id":"ce4bgv92rcd13ifvqcr0","pricing_plan_id":"cebpf4jnsgd1na2vs0mg"},{"bike_id":"4adb7e65-e18e-4ef1-be00-3ea3c7f6dd44","system_id":"levelo_inurba_marseille","lat":43.24076,"lon":5.37732,"is_reserved":false,"is_disabled":false,"rental_uris":{"android":"levelo://app?vid=4adb7e65-e18e-4ef1-be00-3ea3c7f6dd44","ios":"levelo://app?vid=4adb7e65-e18e-4ef1-be00-3ea3c7f6dd44"},"vehicle_type_id":"4","last_reported":1730722706,"current_range_meters":27200,"station_id":"ce4bhnp2rcd13ifvqgvg","pricing_plan_id":"cebpf4jnsgd1na2vs0mg"},{"bike_id":"ee3dccf9-22bf-4760-8927-68d482635c84","system_id":"levelo_inurba_marseille","lat":43.30551,"lon":5.36536,"is_reserved":false,"is_disabled":false,"rental_uris":{"android":"levelo://app?vid=ee3dccf9-22bf-4760-8927-68d482635c84","ios":"levelo://app?vid=ee3dccf9-22bf-4760-8927-68d482635c84"},"vehicle_type_id":"4","last_reported":1730722706,"current_range_meters":38800,"station_id":"ce4bgs12rcd13ifvqcag","pricing_plan_id":"cebpf4jnsgd1na2vs0mg"},{"bike_id":"ba8f5d9a-4861-4465-b828-23e2245ef053","system_id":"levelo_inurba_marseille","lat":43.23188,"lon":5.39978,"is_reserved":false,"is_disabled":false,"rental_uris":{"android":"levelo://app?vid=ba8f5d9a-4861-4465-b828-23e2245ef053","ios":"levelo://app?vid=ba8f5d9a-4861-4465-b828-23e2245ef053"},"vehicle_type_id":"4","last_reported":1730722706,"current_range_meters":10000,"station_id":"ce4bhn12rcd13ifvqgqg","pricing_plan_id":"cebpf4jnsgd1na2vs0mg"},{"bike_id":"717e8a48-40bc-4c1e-9067-b64ea8a81389","system_id":"levelo_inurba_marseille","lat":43.31756,"lon":5.39018,"is_reserved":false,"is_disabled":false,"rental_uris":{"android":"levelo://app?vid=717e8a48-40bc-4c1e-9067-b64ea8a81389","ios":"levelo://app?vid=717e8a48-40bc-4c1e-9067-b64ea8a81389"},"vehicle_type_id":"4","last_reported":1730722706,"current_range_meters":38800,"station_id":"ce4bhqp2rcd13ifvqhng","pricing_plan_id":"cebpf4jnsgd1na2vs0mg"},{"bike_id":"1b80601b-8be3-4b0b-bcc4-eebb89de1629","system_id":"levelo_inurba_marseille","lat":43.25826,"lon":5.3942,"is_reserved":false,"is_disabled":false,"rental_uris":{"android":"levelo://app?vid=1b80601b-8be3-4b0b-bcc4-eebb89de1629","ios":"levelo://app?vid=1b80601b-8be3-4b0b-bcc4-eebb89de1629"},"vehicle_type_id":"4","last_reported":1730722706,"current_range_meters":30000,"station_id":"ce4bhip2rcd13ifvqft0","pricing_plan_id":"cebpf4jnsgd1na2vs0mg"},{"bike_id":"fe7898cf-1901-4d46-a6da-a7088672e065","system_id":"levelo_inurba_marseille","lat":43.29922,"lon":5.36534,"is_reserved":false,"is_disabled":false,"rental_uris":{"android":"levelo://app?vid=fe7898cf-1901-4d46-a6da-a7088672e065","ios":"levelo://app?vid=fe7898cf-1901-4d46-a6da-a7088672e065"},"vehicle_type_id":"4","last_reported":1730722706,"current_range_meters":30800,"station_id":"ce4bgm92rcd13ifvqbr0","pricing_plan_id":"cebpf4jnsgd1na2vs0mg"},{"bike_id":"b22fc8a8-32a4-43b7-b65e-504387286a24","system_id":"levelo_inurba_marseille","lat":43.2781,"lon":5.40702,"is_reserved":false,"is_disabled":false,"rental_uris":{"android":"levelo://app?vid=b22fc8a8-32a4-43b7-b65e-504387286a24","ios":"levelo://app?vid=b22fc8a8-32a4-43b7-b65e-504387286a24"},"vehicle_type_id":"4","last_reported":1730722706,"current_range_meters":32400,"station_id":"ce4bhnh2rcd13ifvqgtg","pricing_plan_id":"cebpf4jnsgd1na2vs0mg"},{"bike_id":"7d3777f4-ee99-40e1-9fc4-1f825ddd535f","system_id":"levelo_inurba_marseille","lat":43.27987,"lon":5.41661,"is_reserved":false,"is_disabled":false,"rental_uris":{"android":"levelo://app?vid=7d3777f4-ee99-40e1-9fc4-1f825ddd535f","ios":"levelo://app?vid=7d3777f4-ee99-40e1-9fc4-1f825ddd535f"},"vehicle_type_id":"4","last_reported":1730722706,"current_range_meters":3200,"station_id":"ce4bho12rcd13ifvqh1g","pricing_plan_id":"cebpf4jnsgd1na2vs0mg"},{"bike_id":"64054de9-23ed-46c4-a04e-0e221d1c1630","system_id":"levelo_inurba_marseille","lat":43.30461,"lon":5.37908,"is_reserved":false,"is_disabled":false,"rental_uris":{"android":"levelo://app?vid=64054de9-23ed-46c4-a04e-0e221d1c1630","ios":"levelo://app?vid=64054de9-23ed-46c4-a04e-0e221d1c1630"},"vehicle_type_id":"4","last_reported":1730722706,"current_range_meters":24000,"station_id":"ce4bh2h2rcd13ifvqdh0","pricing_plan_id":"cebpf4jnsgd1na2vs0mg"},{"bike_id":"570c9aa0-ebce-492c-aa5e-e89ee76268f4","system_id":"levelo_inurba_marseille","lat":43.290161,"lon":5.381317,"is_reserved":false,"is_disabled":false,"rental_uris":{"android":"levelo://app?vid=570c9aa0-ebce-492c-aa5e-e89ee76268f4","ios":"levelo://app?vid=570c9aa0-ebce-492c-aa5e-e89ee76268f4"},"vehicle_type_id":"4","last_reported":1730722706,"current_range_meters":14400,"station_id":"ce4bh4p2rcd13ifvqe1g","pricing_plan_id":"cebpf4jnsgd1na2vs0mg"},{"bike_id":"ec67c82a-f101-4c81-8a6d-fdcafd99d743","system_id":"levelo_inurba_marseille","lat":43.29007,"lon":5.3561,"is_reserved":false,"is_disabled":false,"rental_uris":{"android":"levelo://app?vid=ec67c82a-f101-4c81-8a6d-fdcafd99d743","ios":"levelo://app?vid=ec67c82a-f101-4c81-8a6d-fdcafd99d743"},"vehicle_type_id":"4","last_reported":1730722706,"current_range_meters":12400,"station_id":"ce4bhb92rcd13ifvqen0","pricing_plan_id":"cebpf4jnsgd1na2vs0mg"},{"bike_id":"beeef4e4-0d45-4dfa-9ccc-aedb2ce31115","system_id":"levelo_inurba_marseille","lat":43.321,"lon":5.36778,"is_reserved":false,"is_disabled":false,"rental_uris":{"android":"levelo://app?vid=beeef4e4-0d45-4dfa-9ccc-aedb2ce31115","ios":"levelo://app?vid=beeef4e4-0d45-4dfa-9ccc-aedb2ce31115"},"vehicle_type_id":"4","last_reported":1730722706,"current_range_meters":30800,"station_id":"ce4bhrh2rcd13ifvqhug","pricing_plan_id":"cebpf4jnsgd1na2vs0mg"},{"bike_id":"a3215fbf-8734-427a-9539-144aefcb7057","system_id":"levelo_inurba_marseille","lat":43.3079,"lon":5.4352,"is_reserved":false,"is_disabled":false,"rental_uris":{"android":"levelo://app?vid=a3215fbf-8734-427a-9539-144aefcb7057","ios":"levelo://app?vid=a3215fbf-8734-427a-9539-144aefcb7057"},"vehicle_type_id":"4","last_reported":1730722706,"current_range_meters":22800,"station_id":"ce4bhph2rcd13ifvqheg","pricing_plan_id":"cebpf4jnsgd1na2vs0mg"},{"bike_id":"2e1d0cd1-8441-4ba8-b68e-cd7faa70a2e3","system_id":"levelo_inurba_marseille","lat":43.30542,"lon":5.36522,"is_reserved":false,"is_disabled":false,"rental_uris":{"android":"levelo://app?vid=2e1d0cd1-8441-4ba8-b68e-cd7faa70a2e3","ios":"levelo://app?vid=2e1d0cd1-8441-4ba8-b68e-cd7faa70a2e3"},"vehicle_type_id":"4","last_reported":1730722706,"current_range_meters":35200,"station_id":"ce4bgs12rcd13ifvqcag","pricing_plan_id":"cebpf4jnsgd1na2vs0mg"},{"bike_id":"eacd66df-206c-472f-9531-edaa1ace1ca7","system_id":"levelo_inurba_marseille","lat":43.30128,"lon":5.3985,"is_reserved":false,"is_disabled":false,"rental_uris":{"android":"levelo://app?vid=eacd66df-206c-472f-9531-edaa1ace1ca7","ios":"levelo://app?vid=eacd66df-206c-472f-9531-edaa1ace1ca7"},"vehicle_type_id":"4","last_reported":1730722706,"current_range_meters":27600,"station_id":"ce4bh0h2rcd13ifvqd40","pricing_plan_id":"cebpf4jnsgd1na2vs0mg"},{"bike_id":"33bc0881-2872-4be0-99c8-e9266620b648","system_id":"levelo_inurba_marseille","lat":43.26031,"lon":5.37556,"is_reserved":false,"is_disabled":false,"rental_uris":{"android":"levelo://app?vid=33bc0881-2872-4be0-99c8-e9266620b648","ios":"levelo://app?vid=33bc0881-2872-4be0-99c8-e9266620b648"},"vehicle_type_id":"4","last_reported":1730722706,"current_range_meters":13600,"station_id":"ce4bhgh2rcd13ifvqfa0","pricing_plan_id":"cebpf4jnsgd1na2vs0mg"},{"bike_id":"a23d78a8-6cfe-405c-ac1d-ceb15aacb704","system_id":"levelo_inurba_marseille","lat":43.28033,"lon":5.36962,"is_reserved":false,"is_disabled":false,"rental_uris":{"android":"levelo://app?vid=a23d78a8-6cfe-405c-ac1d-ceb15aacb704","ios":"levelo://app?vid=a23d78a8-6cfe-405c-ac1d-ceb15aacb704"},"vehicle_type_id":"4","last_reported":1730722706,"current_range_meters":30800,"station_id":"ce4bha12rcd13ifvqef0","pricing_plan_id":"cebpf4jnsgd1na2vs0mg"},{"bike_id":"17eab2b1-3d16-4c2f-b3ed-092198a11274","system_id":"levelo_inurba_marseille","lat":43.28452,"lon":5.35896,"is_reserved":false,"is_disabled":false,"rental_uris":{"android":"levelo://app?vid=17eab2b1-3d16-4c2f-b3ed-092198a11274","ios":"levelo://app?vid=17eab2b1-3d16-4c2f-b3ed-092198a11274"},"vehicle_type_id":"4","last_reported":1730722706,"current_range_meters":22400,"station_id":"ce4bhah2rcd13ifvqei0","pricing_plan_id":"cebpf4jnsgd1na2vs0mg"},{"bike_id":"6b6028dd-7a7a-4982-8516-d4fd9c873b2f","system_id":"levelo_inurba_marseille","lat":43.30588,"lon":5.39359,"is_reserved":false,"is_disabled":false,"rental_uris":{"android":"levelo://app?vid=6b6028dd-7a7a-4982-8516-d4fd9c873b2f","ios":"levelo://app?vid=6b6028dd-7a7a-4982-8516-d4fd9c873b2f"},"vehicle_type_id":"4","last_reported":1730722706,"current_range_meters":36000,"station_id":"ce4bh0p2rcd13ifvqd80","pricing_plan_id":"cebpf4jnsgd1na2vs0mg"},{"bike_id":"1874041d-58e5-4276-8f1c-cb5e4fb9773c","system_id":"levelo_inurba_marseille","lat":43.28848,"lon":5.39315,"is_reserved":false,"is_disabled":false,"rental_uris":{"android":"levelo://app?vid=1874041d-58e5-4276-8f1c-cb5e4fb9773c","ios":"levelo://app?vid=1874041d-58e5-4276-8f1c-cb5e4fb9773c"},"vehicle_type_id":"4","last_reported":1730722706,"current_range_meters":19600,"station_id":"ce4bh2p2rcd13ifvqdi0","pricing_plan_id":"cebpf4jnsgd1na2vs0mg"},{"bike_id":"64a09596-b72a-4c2c-b2d4-4d18f2310608","system_id":"levelo_inurba_marseille","lat":43.30905,"lon":5.36852,"is_reserved":false,"is_disabled":false,"rental_uris":{"android":"levelo://app?vid=64a09596-b72a-4c2c-b2d4-4d18f2310608","ios":"levelo://app?vid=64a09596-b72a-4c2c-b2d4-4d18f2310608"},"vehicle_type_id":"4","last_reported":1730722706,"current_range_meters":18800,"station_id":"ce4bgn92rcd13ifvqbvg","pricing_plan_id":"cebpf4jnsgd1na2vs0mg"},{"bike_id":"ad0b1c47-3b42-4ef4-b760-c7106501c60b","system_id":"levelo_inurba_marseille","lat":43.29787,"lon":5.38109,"is_reserved":false,"is_disabled":false,"rental_uris":{"android":"levelo://app?vid=ad0b1c47-3b42-4ef4-b760-c7106501c60b","ios":"levelo://app?vid=ad0b1c47-3b42-4ef4-b760-c7106501c60b"},"vehicle_type_id":"4","last_reported":1730722706,"current_range_meters":24000,"station_id":"ce4bgip2rcd13ifvqbb0","pricing_plan_id":"cebpf4jnsgd1na2vs0mg"},{"bike_id":"fe823c7d-054d-4087-a4ba-7742bc127e93","system_id":"levelo_inurba_marseille","lat":43.27495,"lon":5.42453,"is_reserved":false,"is_disabled":false,"rental_uris":{"android":"levelo://app?vid=fe823c7d-054d-4087-a4ba-7742bc127e93","ios":"levelo://app?vid=fe823c7d-054d-4087-a4ba-7742bc127e93"},"vehicle_type_id":"4","last_reported":1730722706,"current_range_meters":6000,"station_id":"ce4bhn92rcd13ifvqgrg","pricing_plan_id":"cebpf4jnsgd1na2vs0mg"},{"bike_id":"651a9232-63ac-410e-ad27-7a29ae3c534c","system_id":"levelo_inurba_marseille","lat":43.27066,"lon":5.4227,"is_reserved":false,"is_disabled":false,"rental_uris":{"android":"levelo://app?vid=651a9232-63ac-410e-ad27-7a29ae3c534c","ios":"levelo://app?vid=651a9232-63ac-410e-ad27-7a29ae3c534c"},"vehicle_type_id":"4","last_reported":1730722706,"current_range_meters":30800,"station_id":"ce4bhk92rcd13ifvqgb0","pricing_plan_id":"cebpf4jnsgd1na2vs0mg"},{"bike_id":"b0ebf8ff-d4d1-4c47-b6a0-dcab1832fcca","system_id":"levelo_inurba_marseille","lat":43.26552,"lon":5.37281,"is_reserved":false,"is_disabled":false,"rental_uris":{"android":"levelo://app?vid=b0ebf8ff-d4d1-4c47-b6a0-dcab1832fcca","ios":"levelo://app?vid=b0ebf8ff-d4d1-4c47-b6a0-dcab1832fcca"},"vehicle_type_id":"4","last_reported":1730722706,"current_range_meters":14400,"station_id":"ce4bhg12rcd13ifvqf70","pricing_plan_id":"cebpf4jnsgd1na2vs0mg"},{"bike_id":"7580d83e-3d7c-46be-82b1-25f013a114af","system_id":"levelo_inurba_marseille","lat":43.31053,"lon":5.40103,"is_reserved":false,"is_disabled":false,"rental_uris":{"android":"levelo://app?vid=7580d83e-3d7c-46be-82b1-25f013a114af","ios":"levelo://app?vid=7580d83e-3d7c-46be-82b1-25f013a114af"},"vehicle_type_id":"4","last_reported":1730722706,"current_range_meters":22000,"station_id":"","pricing_plan_id":"cebpf4jnsgd1na2vs0mg"},{"bike_id":"0beee424-e81f-4821-93f8-913a6e29e82e","system_id":"levelo_inurba_marseille","lat":43.2306,"lon":5.35489,"is_reserved":false,"is_disabled":false,"rental_uris":{"android":"levelo://app?vid=0beee424-e81f-4821-93f8-913a6e29e82e","ios":"levelo://app?vid=0beee424-e81f-4821-93f8-913a6e29e82e"},"vehicle_type_id":"4","last_reported":1730722706,"current_range_meters":16400,"station_id":"cpo3342slgdg3j2ifvpg","pricing_plan_id":"cebpf4jnsgd1na2vs0mg"},{"bike_id":"cbd992d8-d7a7-48b2-95a9-f4fd11352bba","system_id":"levelo_inurba_marseille","lat":43.28264,"lon":5.35058,"is_reserved":false,"is_disabled":false,"rental_uris":{"android":"levelo://app?vid=cbd992d8-d7a7-48b2-95a9-f4fd11352bba","ios":"levelo://app?vid=cbd992d8-d7a7-48b2-95a9-f4fd11352bba"},"vehicle_type_id":"4","last_reported":1730722706,"current_range_meters":32000,"station_id":"ce4bhbp2rcd13ifvqerg","pricing_plan_id":"cebpf4jnsgd1na2vs0mg"},{"bike_id":"7fdf4bab-c354-424a-8bea-3cde3dbec334","system_id":"levelo_inurba_marseille","lat":43.28665,"lon":5.36345,"is_reserved":false,"is_disabled":false,"rental_uris":{"android":"levelo://app?vid=7fdf4bab-c354-424a-8bea-3cde3dbec334","ios":"levelo://app?vid=7fdf4bab-c354-424a-8bea-3cde3dbec334"},"vehicle_type_id":"4","last_reported":1730722706,"current_range_meters":24000,"station_id":"ce4bhah2rcd13ifvqej0","pricing_plan_id":"cebpf4jnsgd1na2vs0mg"},{"bike_id":"e4646c1b-3291-4da5-8c23-aca19f81a89a","system_id":"levelo_inurba_marseille","lat":43.30155,"lon":5.38075,"is_reserved":false,"is_disabled":false,"rental_uris":{"android":"levelo://app?vid=e4646c1b-3291-4da5-8c23-aca19f81a89a","ios":"levelo://app?vid=e4646c1b-3291-4da5-8c23-aca19f81a89a"},"vehicle_type_id":"4","last_reported":1730722706,"current_range_meters":18800,"station_id":"ce4bgjp2rcd13ifvqbh0","pricing_plan_id":"cebpf4jnsgd1na2vs0mg"},{"bike_id":"37e2ac36-77af-4e7b-b0fd-43420207efda","system_id":"levelo_inurba_marseille","lat":43.28049,"lon":5.40974,"is_reserved":false,"is_disabled":false,"rental_uris":{"android":"levelo://app?vid=37e2ac36-77af-4e7b-b0fd-43420207efda","ios":"levelo://app?vid=37e2ac36-77af-4e7b-b0fd-43420207efda"},"vehicle_type_id":"4","last_reported":1730722706,"current_range_meters":36800,"station_id":"","pricing_plan_id":"cebpf4jnsgd1na2vs0mg"},{"bike_id":"c268f8a8-c8a2-4a9d-9297-31e089741b69","system_id":"levelo_inurba_marseille","lat":43.30184,"lon":5.36614,"is_reserved":false,"is_disabled":false,"rental_uris":{"android":"levelo://app?vid=c268f8a8-c8a2-4a9d-9297-31e089741b69","ios":"levelo://app?vid=c268f8a8-c8a2-4a9d-9297-31e089741b69"},"vehicle_type_id":"4","last_reported":1730722706,"current_range_meters":38800,"station_id":"ce4bgrh2rcd13ifvqc8g","pricing_plan_id":"cebpf4jnsgd1na2vs0mg"},{"bike_id":"a938ad26-c31c-4cc6-9b4f-a3e0f58e10a8","system_id":"levelo_inurba_marseille","lat":43.24172,"lon":5.36394,"is_reserved":false,"is_disabled":false,"rental_uris":{"android":"levelo://app?vid=a938ad26-c31c-4cc6-9b4f-a3e0f58e10a8","ios":"levelo://app?vid=a938ad26-c31c-4cc6-9b4f-a3e0f58e10a8"},"vehicle_type_id":"4","last_reported":1730722706,"current_range_meters":38800,"station_id":"cpo36qri1sfpv3e86is0","pricing_plan_id":"cebpf4jnsgd1na2vs0mg"},{"bike_id":"325e86d5-5b48-4753-9057-b0de55e70742","system_id":"levelo_inurba_marseille","lat":43.26803,"lon":5.40259,"is_reserved":false,"is_disabled":false,"rental_uris":{"android":"levelo://app?vid=325e86d5-5b48-4753-9057-b0de55e70742","ios":"levelo://app?vid=325e86d5-5b48-4753-9057-b0de55e70742"},"vehicle_type_id":"4","last_reported":1730722706,"current_range_meters":37600,"station_id":"ce501612rcd8frsf0b60","pricing_plan_id":"cebpf4jnsgd1na2vs0mg"},{"bike_id":"d86f3399-8ba3-486d-a26b-9441d9d3bdd3","system_id":"levelo_inurba_marseille","lat":43.27985,"lon":5.41656,"is_reserved":false,"is_disabled":false,"rental_uris":{"android":"levelo://app?vid=d86f3399-8ba3-486d-a26b-9441d9d3bdd3","ios":"levelo://app?vid=d86f3399-8ba3-486d-a26b-9441d9d3bdd3"},"vehicle_type_id":"4","last_reported":1730722706,"current_range_meters":9200,"station_id":"ce4bho12rcd13ifvqh1g","pricing_plan_id":"cebpf4jnsgd1na2vs0mg"},{"bike_id":"f256e407-b1cd-4ba4-8262-8d961bb4d647","system_id":"levelo_inurba_marseille","lat":43.25503,"lon":5.37652,"is_reserved":false,"is_disabled":false,"rental_uris":{"android":"levelo://app?vid=f256e407-b1cd-4ba4-8262-8d961bb4d647","ios":"levelo://app?vid=f256e407-b1cd-4ba4-8262-8d961bb4d647"},"vehicle_type_id":"4","last_reported":1730722706,"current_range_meters":38800,"station_id":"ce4bhh12rcd13ifvqff0","pricing_plan_id":"cebpf4jnsgd1na2vs0mg"},{"bike_id":"7b1e9bda-ec43-4be7-96ea-eb33edd44f28","system_id":"levelo_inurba_marseille","lat":43.27493,"lon":5.42456,"is_reserved":false,"is_disabled":false,"rental_uris":{"android":"levelo://app?vid=7b1e9bda-ec43-4be7-96ea-eb33edd44f28","ios":"levelo://app?vid=7b1e9bda-ec43-4be7-96ea-eb33edd44f28"},"vehicle_type_id":"4","last_reported":1730722706,"current_range_meters":19200,"station_id":"ce4bhn92rcd13ifvqgrg","pricing_plan_id":"cebpf4jnsgd1na2vs0mg"},{"bike_id":"84826187-31ec-4949-bd9b-654531a44675","system_id":"levelo_inurba_marseille","lat":43.23155,"lon":5.43699,"is_reserved":false,"is_disabled":false,"rental_uris":{"android":"levelo://app?vid=84826187-31ec-4949-bd9b-654531a44675","ios":"levelo://app?vid=84826187-31ec-4949-bd9b-654531a44675"},"vehicle_type_id":"4","last_reported":1730722706,"current_range_meters":24000,"station_id":"ce4bhmp2rcd13ifvqgog","pricing_plan_id":"cebpf4jnsgd1na2vs0mg"},{"bike_id":"a784b119-d588-465f-be2d-1142c9febbcc","system_id":"levelo_inurba_marseille","lat":43.30599,"lon":5.39362,"is_reserved":false,"is_disabled":false,"rental_uris":{"android":"levelo://app?vid=a784b119-d588-465f-be2d-1142c9febbcc","ios":"levelo://app?vid=a784b119-d588-465f-be2d-1142c9febbcc"},"vehicle_type_id":"4","last_reported":1730722706,"current_range_meters":38000,"station_id":"ce4bh0p2rcd13ifvqd80","pricing_plan_id":"cebpf4jnsgd1na2vs0mg"},{"bike_id":"d5ab54f4-32f1-48d2-aabc-7400c4e38fe5","system_id":"levelo_inurba_marseille","lat":43.27054,"lon":5.40254,"is_reserved":false,"is_disabled":false,"rental_uris":{"android":"levelo://app?vid=d5ab54f4-32f1-48d2-aabc-7400c4e38fe5","ios":"levelo://app?vid=d5ab54f4-32f1-48d2-aabc-7400c4e38fe5"},"vehicle_type_id":"4","last_reported":1730722706,"current_range_meters":11600,"station_id":"ce4bhk92rcd13ifvqgc0","pricing_plan_id":"cebpf4jnsgd1na2vs0mg"},{"bike_id":"3ff0dc3f-c9cf-45a9-9f30-b0e63d30490d","system_id":"levelo_inurba_marseille","lat":43.30185,"lon":5.36605,"is_reserved":false,"is_disabled":false,"rental_uris":{"android":"levelo://app?vid=3ff0dc3f-c9cf-45a9-9f30-b0e63d30490d","ios":"levelo://app?vid=3ff0dc3f-c9cf-45a9-9f30-b0e63d30490d"},"vehicle_type_id":"4","last_reported":1730722706,"current_range_meters":36800,"station_id":"ce4bgrh2rcd13ifvqc8g","pricing_plan_id":"cebpf4jnsgd1na2vs0mg"},{"bike_id":"909fd824-d8fe-4d38-b958-5046d8c9169b","system_id":"levelo_inurba_marseille","lat":43.32487,"lon":5.36558,"is_reserved":false,"is_disabled":false,"rental_uris":{"android":"levelo://app?vid=909fd824-d8fe-4d38-b958-5046d8c9169b","ios":"levelo://app?vid=909fd824-d8fe-4d38-b958-5046d8c9169b"},"vehicle_type_id":"4","last_reported":1730722706,"current_range_meters":38800,"station_id":"ce4bhs12rcd13ifvqhvg","pricing_plan_id":"cebpf4jnsgd1na2vs0mg"},{"bike_id":"4feeb200-6d10-4671-906a-51162dafb872","system_id":"levelo_inurba_marseille","lat":43.29004,"lon":5.35606,"is_reserved":false,"is_disabled":false,"rental_uris":{"android":"levelo://app?vid=4feeb200-6d10-4671-906a-51162dafb872","ios":"levelo://app?vid=4feeb200-6d10-4671-906a-51162dafb872"},"vehicle_type_id":"4","last_reported":1730722706,"current_range_meters":17600,"station_id":"ce4bhb92rcd13ifvqen0","pricing_plan_id":"cebpf4jnsgd1na2vs0mg"},{"bike_id":"10e9ae93-972d-4c37-a4f8-abbc71a56350","system_id":"levelo_inurba_marseille","lat":43.29792,"lon":5.38107,"is_reserved":false,"is_disabled":false,"rental_uris":{"android":"levelo://app?vid=10e9ae93-972d-4c37-a4f8-abbc71a56350","ios":"levelo://app?vid=10e9ae93-972d-4c37-a4f8-abbc71a56350"},"vehicle_type_id":"4","last_reported":1730722706,"current_range_meters":3600,"station_id":"ce4bgip2rcd13ifvqbb0","pricing_plan_id":"cebpf4jnsgd1na2vs0mg"},{"bike_id":"e576cf34-1b3c-4b70-885c-e6d124a382dd","system_id":"levelo_inurba_marseille","lat":43.29835,"lon":5.36263,"is_reserved":false,"is_disabled":false,"rental_uris":{"android":"levelo://app?vid=e576cf34-1b3c-4b70-885c-e6d124a382dd","ios":"levelo://app?vid=e576cf34-1b3c-4b70-885c-e6d124a382dd"},"vehicle_type_id":"4","last_reported":1730722706,"current_range_meters":31200,"station_id":"ce4bgpp2rcd13ifvqc3g","pricing_plan_id":"cebpf4jnsgd1na2vs0mg"},{"bike_id":"00fa663e-ca43-453d-afb5-fe8b2d7b7459","system_id":"levelo_inurba_marseille","lat":43.3054,"lon":5.36534,"is_reserved":false,"is_disabled":false,"rental_uris":{"android":"levelo://app?vid=00fa663e-ca43-453d-afb5-fe8b2d7b7459","ios":"levelo://app?vid=00fa663e-ca43-453d-afb5-fe8b2d7b7459"},"vehicle_type_id":"4","last_reported":1730722706,"current_range_meters":38800,"station_id":"ce4bgs12rcd13ifvqcag","pricing_plan_id":"cebpf4jnsgd1na2vs0mg"},{"bike_id":"b4f39b06-55c1-4573-ad86-d8cda41ddf56","system_id":"levelo_inurba_marseille","lat":43.30948,"lon":5.39042,"is_reserved":false,"is_disabled":false,"rental_uris":{"android":"levelo://app?vid=b4f39b06-55c1-4573-ad86-d8cda41ddf56","ios":"levelo://app?vid=b4f39b06-55c1-4573-ad86-d8cda41ddf56"},"vehicle_type_id":"4","last_reported":1730722706,"current_range_meters":28400,"station_id":"ce4bgup2rcd13ifvqco0","pricing_plan_id":"cebpf4jnsgd1na2vs0mg"},{"bike_id":"bbc4afbc-13e4-40b2-8eeb-b8c01dbe8875","system_id":"levelo_inurba_marseille","lat":43.3014,"lon":5.37422,"is_reserved":false,"is_disabled":false,"rental_uris":{"android":"levelo://app?vid=bbc4afbc-13e4-40b2-8eeb-b8c01dbe8875","ios":"levelo://app?vid=bbc4afbc-13e4-40b2-8eeb-b8c01dbe8875"},"vehicle_type_id":"4","last_reported":1730722706,"current_range_meters":38800,"station_id":"ce4bgs92rcd13ifvqcc0","pricing_plan_id":"cebpf4jnsgd1na2vs0mg"},{"bike_id":"6453694e-eeb8-4981-8291-62b364706bfe","system_id":"levelo_inurba_marseille","lat":43.28848,"lon":5.3931,"is_reserved":false,"is_disabled":false,"rental_uris":{"android":"levelo://app?vid=6453694e-eeb8-4981-8291-62b364706bfe","ios":"levelo://app?vid=6453694e-eeb8-4981-8291-62b364706bfe"},"vehicle_type_id":"4","last_reported":1730722706,"current_range_meters":18000,"station_id":"ce4bh2p2rcd13ifvqdi0","pricing_plan_id":"cebpf4jnsgd1na2vs0mg"},{"bike_id":"96eb57b1-e2dc-47c0-a1b5-7a0728c66328","system_id":"levelo_inurba_marseille","lat":43.2718,"lon":5.40997,"is_reserved":false,"is_disabled":false,"rental_uris":{"android":"levelo://app?vid=96eb57b1-e2dc-47c0-a1b5-7a0728c66328","ios":"levelo://app?vid=96eb57b1-e2dc-47c0-a1b5-7a0728c66328"},"vehicle_type_id":"4","last_reported":1730722706,"current_range_meters":8800,"station_id":"ce4bhl12rcd13ifvqgf0","pricing_plan_id":"cebpf4jnsgd1na2vs0mg"},{"bike_id":"ed3cc475-9352-4500-9e2a-f8144dc4b6f1","system_id":"levelo_inurba_marseille","lat":43.330261,"lon":5.390478,"is_reserved":false,"is_disabled":false,"rental_uris":{"android":"levelo://app?vid=ed3cc475-9352-4500-9e2a-f8144dc4b6f1","ios":"levelo://app?vid=ed3cc475-9352-4500-9e2a-f8144dc4b6f1"},"vehicle_type_id":"4","last_reported":1730722706,"current_range_meters":32000,"station_id":"ce4bhr92rcd13ifvqhrg","pricing_plan_id":"cebpf4jnsgd1na2vs0mg"},{"bike_id":"20ba62ee-2151-4dc9-8a72-2d3c7b78e768","system_id":"levelo_inurba_marseille","lat":43.2594,"lon":5.40902,"is_reserved":false,"is_disabled":false,"rental_uris":{"android":"levelo://app?vid=20ba62ee-2151-4dc9-8a72-2d3c7b78e768","ios":"levelo://app?vid=20ba62ee-2151-4dc9-8a72-2d3c7b78e768"},"vehicle_type_id":"4","last_reported":1730722706,"current_range_meters":33600,"station_id":"ce4bhm92rcd13ifvqglg","pricing_plan_id":"cebpf4jnsgd1na2vs0mg"},{"bike_id":"fe144177-327f-48aa-98bf-b0d3318680db","system_id":"levelo_inurba_marseille","lat":43.24078,"lon":5.37748,"is_reserved":false,"is_disabled":false,"rental_uris":{"android":"levelo://app?vid=fe144177-327f-48aa-98bf-b0d3318680db","ios":"levelo://app?vid=fe144177-327f-48aa-98bf-b0d3318680db"},"vehicle_type_id":"4","last_reported":1730722706,"current_range_meters":10800,"station_id":"ce4bhnp2rcd13ifvqgvg","pricing_plan_id":"cebpf4jnsgd1na2vs0mg"},{"bike_id":"3044ab8e-3335-40b2-9308-f3d6604164a9","system_id":"levelo_inurba_marseille","lat":43.30554,"lon":5.36526,"is_reserved":false,"is_disabled":false,"rental_uris":{"android":"levelo://app?vid=3044ab8e-3335-40b2-9308-f3d6604164a9","ios":"levelo://app?vid=3044ab8e-3335-40b2-9308-f3d6604164a9"},"vehicle_type_id":"4","last_reported":1730722706,"current_range_meters":38800,"station_id":"ce4bgs12rcd13ifvqcag","pricing_plan_id":"cebpf4jnsgd1na2vs0mg"},{"bike_id":"61864400-2b8e-4568-889d-c79c7cc8f788","system_id":"levelo_inurba_marseille","lat":43.23152,"lon":5.43717,"is_reserved":false,"is_disabled":false,"rental_uris":{"android":"levelo://app?vid=61864400-2b8e-4568-889d-c79c7cc8f788","ios":"levelo://app?vid=61864400-2b8e-4568-889d-c79c7cc8f788"},"vehicle_type_id":"4","last_reported":1730722706,"current_range_meters":8800,"station_id":"ce4bhmp2rcd13ifvqgog","pricing_plan_id":"cebpf4jnsgd1na2vs0mg"},{"bike_id":"a70575fb-9c23-42e5-97da-ee2c323f0793","system_id":"levelo_inurba_marseille","lat":43.28437,"lon":5.39197,"is_reserved":false,"is_disabled":false,"rental_uris":{"android":"levelo://app?vid=a70575fb-9c23-42e5-97da-ee2c323f0793","ios":"levelo://app?vid=a70575fb-9c23-42e5-97da-ee2c323f0793"},"vehicle_type_id":"4","last_reported":1730722706,"current_range_meters":30400,"station_id":"ce4bhoh2rcd13ifvqh5g","pricing_plan_id":"cebpf4jnsgd1na2vs0mg"},{"bike_id":"7a58136c-3165-4313-8fac-2c364b399752","system_id":"levelo_inurba_marseille","lat":43.33718,"lon":5.39172,"is_reserved":false,"is_disabled":false,"rental_uris":{"android":"levelo://app?vid=7a58136c-3165-4313-8fac-2c364b399752","ios":"levelo://app?vid=7a58136c-3165-4313-8fac-2c364b399752"},"vehicle_type_id":"4","last_reported":1730722706,"current_range_meters":28400,"station_id":"ce4bhr92rcd13ifvqhsg","pricing_plan_id":"cebpf4jnsgd1na2vs0mg"},{"bike_id":"ef6c598b-12f7-4d6c-97fa-13e183c4e772","system_id":"levelo_inurba_marseille","lat":43.24799,"lon":5.37454,"is_reserved":false,"is_disabled":false,"rental_uris":{"android":"levelo://app?vid=ef6c598b-12f7-4d6c-97fa-13e183c4e772","ios":"levelo://app?vid=ef6c598b-12f7-4d6c-97fa-13e183c4e772"},"vehicle_type_id":"4","last_reported":1730722706,"current_range_meters":20000,"station_id":"ce4bhgh2rcd13ifvqfb0","pricing_plan_id":"cebpf4jnsgd1na2vs0mg"},{"bike_id":"7a9891d3-206a-40cc-ab48-a5303df2613d","system_id":"levelo_inurba_marseille","lat":43.30133,"lon":5.3879,"is_reserved":false,"is_disabled":false,"rental_uris":{"android":"levelo://app?vid=7a9891d3-206a-40cc-ab48-a5303df2613d","ios":"levelo://app?vid=7a9891d3-206a-40cc-ab48-a5303df2613d"},"vehicle_type_id":"4","last_reported":1730722706,"current_range_meters":23200,"station_id":"ce4bghh2rcd13ifvqb60","pricing_plan_id":"cebpf4jnsgd1na2vs0mg"},{"bike_id":"a3ae4c1b-8ed3-43f0-95b2-9f60ca274476","system_id":"levelo_inurba_marseille","lat":43.32484,"lon":5.36565,"is_reserved":false,"is_disabled":false,"rental_uris":{"android":"levelo://app?vid=a3ae4c1b-8ed3-43f0-95b2-9f60ca274476","ios":"levelo://app?vid=a3ae4c1b-8ed3-43f0-95b2-9f60ca274476"},"vehicle_type_id":"4","last_reported":1730722706,"current_range_meters":39200,"station_id":"ce4bhs12rcd13ifvqhvg","pricing_plan_id":"cebpf4jnsgd1na2vs0mg"},{"bike_id":"af94a4d5-bf2c-4ed6-996c-6b9f9922b6f0","system_id":"levelo_inurba_marseille","lat":43.28267,"lon":5.35059,"is_reserved":false,"is_disabled":false,"rental_uris":{"android":"levelo://app?vid=af94a4d5-bf2c-4ed6-996c-6b9f9922b6f0","ios":"levelo://app?vid=af94a4d5-bf2c-4ed6-996c-6b9f9922b6f0"},"vehicle_type_id":"4","last_reported":1730722706,"current_range_meters":20000,"station_id":"ce4bhbp2rcd13ifvqerg","pricing_plan_id":"cebpf4jnsgd1na2vs0mg"},{"bike_id":"a9353884-3b5c-417a-88b6-cf1eb1865878","system_id":"levelo_inurba_marseille","lat":43.301422,"lon":5.387818,"is_reserved":false,"is_disabled":false,"rental_uris":{"android":"levelo://app?vid=a9353884-3b5c-417a-88b6-cf1eb1865878","ios":"levelo://app?vid=a9353884-3b5c-417a-88b6-cf1eb1865878"},"vehicle_type_id":"4","last_reported":1730722706,"current_range_meters":27200,"station_id":"ce4bghh2rcd13ifvqb60","pricing_plan_id":"cebpf4jnsgd1na2vs0mg"},{"bike_id":"43e4b18f-0c0c-4da5-903f-76dfbe439770","system_id":"levelo_inurba_marseille","lat":43.27801,"lon":5.4071,"is_reserved":false,"is_disabled":false,"rental_uris":{"android":"levelo://app?vid=43e4b18f-0c0c-4da5-903f-76dfbe439770","ios":"levelo://app?vid=43e4b18f-0c0c-4da5-903f-76dfbe439770"},"vehicle_type_id":"4","last_reported":1730722706,"current_range_meters":36800,"station_id":"ce4bhnh2rcd13ifvqgtg","pricing_plan_id":"cebpf4jnsgd1na2vs0mg"},{"bike_id":"ad6b9979-2833-497c-ae59-5afeb88a87ce","system_id":"levelo_inurba_marseille","lat":43.32359,"lon":5.36756,"is_reserved":false,"is_disabled":false,"rental_uris":{"android":"levelo://app?vid=ad6b9979-2833-497c-ae59-5afeb88a87ce","ios":"levelo://app?vid=ad6b9979-2833-497c-ae59-5afeb88a87ce"},"vehicle_type_id":"4","last_reported":1730722706,"current_range_meters":36800,"station_id":"ce4bhsh2rcd13ifvqi2g","pricing_plan_id":"cebpf4jnsgd1na2vs0mg"},{"bike_id":"8ee7725d-3aaf-4d40-acf6-4523c79d3c58","system_id":"levelo_inurba_marseille","lat":43.30423,"lon":5.38893,"is_reserved":false,"is_disabled":false,"rental_uris":{"android":"levelo://app?vid=8ee7725d-3aaf-4d40-acf6-4523c79d3c58","ios":"levelo://app?vid=8ee7725d-3aaf-4d40-acf6-4523c79d3c58"},"vehicle_type_id":"4","last_reported":1730722706,"current_range_meters":13600,"station_id":"ce4bgk12rcd13ifvqbi0","pricing_plan_id":"cebpf4jnsgd1na2vs0mg"},{"bike_id":"dc72d627-16d2-4007-9331-3cf0be36873d","system_id":"levelo_inurba_marseille","lat":43.25937,"lon":5.40903,"is_reserved":false,"is_disabled":false,"rental_uris":{"android":"levelo://app?vid=dc72d627-16d2-4007-9331-3cf0be36873d","ios":"levelo://app?vid=dc72d627-16d2-4007-9331-3cf0be36873d"},"vehicle_type_id":"4","last_reported":1730722706,"current_range_meters":35600,"station_id":"ce4bhm92rcd13ifvqglg","pricing_plan_id":"cebpf4jnsgd1na2vs0mg"},{"bike_id":"5d3c3804-2fe2-458d-8917-55765b91a260","system_id":"levelo_inurba_marseille","lat":43.24384,"lon":5.37057,"is_reserved":false,"is_disabled":false,"rental_uris":{"android":"levelo://app?vid=5d3c3804-2fe2-458d-8917-55765b91a260","ios":"levelo://app?vid=5d3c3804-2fe2-458d-8917-55765b91a260"},"vehicle_type_id":"4","last_reported":1730722706,"current_range_meters":31200,"station_id":"ce4bhhh2rcd13ifvqfk0","pricing_plan_id":"cebpf4jnsgd1na2vs0mg"},{"bike_id":"d2738cce-314b-4cee-88e4-e667009c47fa","system_id":"levelo_inurba_marseille","lat":43.25937,"lon":5.40894,"is_reserved":false,"is_disabled":false,"rental_uris":{"android":"levelo://app?vid=d2738cce-314b-4cee-88e4-e667009c47fa","ios":"levelo://app?vid=d2738cce-314b-4cee-88e4-e667009c47fa"},"vehicle_type_id":"4","last_reported":1730722706,"current_range_meters":7200,"station_id":"ce4bhm92rcd13ifvqglg","pricing_plan_id":"cebpf4jnsgd1na2vs0mg"},{"bike_id":"b20c208d-8746-4f41-8b47-e03e01dbe823","system_id":"levelo_inurba_marseille","lat":43.29784,"lon":5.37094,"is_reserved":false,"is_disabled":false,"rental_uris":{"android":"levelo://app?vid=b20c208d-8746-4f41-8b47-e03e01dbe823","ios":"levelo://app?vid=b20c208d-8746-4f41-8b47-e03e01dbe823"},"vehicle_type_id":"4","last_reported":1730722706,"current_range_meters":33600,"station_id":"ce4bgop2rcd13ifvqc1g","pricing_plan_id":"cebpf4jnsgd1na2vs0mg"},{"bike_id":"0bf75fc2-2f26-4802-953f-374a41a5744c","system_id":"levelo_inurba_marseille","lat":43.27948,"lon":5.41036,"is_reserved":false,"is_disabled":false,"rental_uris":{"android":"levelo://app?vid=0bf75fc2-2f26-4802-953f-374a41a5744c","ios":"levelo://app?vid=0bf75fc2-2f26-4802-953f-374a41a5744c"},"vehicle_type_id":"4","last_reported":1730722706,"current_range_meters":25600,"station_id":"ce4bhnp2rcd13ifvqh0g","pricing_plan_id":"cebpf4jnsgd1na2vs0mg"},{"bike_id":"7e4af1d8-52b2-4cfa-9eab-8d695e4bcee1","system_id":"levelo_inurba_marseille","lat":43.29277,"lon":5.40114,"is_reserved":false,"is_disabled":false,"rental_uris":{"android":"levelo://app?vid=7e4af1d8-52b2-4cfa-9eab-8d695e4bcee1","ios":"levelo://app?vid=7e4af1d8-52b2-4cfa-9eab-8d695e4bcee1"},"vehicle_type_id":"4","last_reported":1730722706,"current_range_meters":38000,"station_id":"ce4bh312rcd13ifvqdk0","pricing_plan_id":"cebpf4jnsgd1na2vs0mg"},{"bike_id":"e518090a-15fc-4aa1-94aa-37219f12c7ea","system_id":"levelo_inurba_marseille","lat":43.29291,"lon":5.37451,"is_reserved":false,"is_disabled":false,"rental_uris":{"android":"levelo://app?vid=e518090a-15fc-4aa1-94aa-37219f12c7ea","ios":"levelo://app?vid=e518090a-15fc-4aa1-94aa-37219f12c7ea"},"vehicle_type_id":"4","last_reported":1730722706,"current_range_meters":14000,"station_id":"ce4bgi12rcd13ifvqb70","pricing_plan_id":"cebpf4jnsgd1na2vs0mg"},{"bike_id":"0816021a-d791-40b8-a0bc-3a861b847ef1","system_id":"levelo_inurba_marseille","lat":43.30463,"lon":5.37909,"is_reserved":false,"is_disabled":false,"rental_uris":{"android":"levelo://app?vid=0816021a-d791-40b8-a0bc-3a861b847ef1","ios":"levelo://app?vid=0816021a-d791-40b8-a0bc-3a861b847ef1"},"vehicle_type_id":"4","last_reported":1730722706,"current_range_meters":18000,"station_id":"ce4bgup2rcd13ifvqcn0","pricing_plan_id":"cebpf4jnsgd1na2vs0mg"},{"bike_id":"13230629-484c-46c6-8264-9e8b5d990d3f","system_id":"levelo_inurba_marseille","lat":43.275604,"lon":5.384109,"is_reserved":false,"is_disabled":false,"rental_uris":{"android":"levelo://app?vid=13230629-484c-46c6-8264-9e8b5d990d3f","ios":"levelo://app?vid=13230629-484c-46c6-8264-9e8b5d990d3f"},"vehicle_type_id":"4","last_reported":1730722706,"current_range_meters":33600,"station_id":"ce4bhh92rcd13ifvqfi0","pricing_plan_id":"cebpf4jnsgd1na2vs0mg"},{"bike_id":"d0dcbb3a-18eb-44e3-9933-f7f7f781950f","system_id":"levelo_inurba_marseille","lat":43.27205,"lon":5.39169,"is_reserved":false,"is_disabled":false,"rental_uris":{"android":"levelo://app?vid=d0dcbb3a-18eb-44e3-9933-f7f7f781950f","ios":"levelo://app?vid=d0dcbb3a-18eb-44e3-9933-f7f7f781950f"},"vehicle_type_id":"4","last_reported":1730722706,"current_range_meters":25600,"station_id":"ce4bhhp2rcd13ifvqfm0","pricing_plan_id":"cebpf4jnsgd1na2vs0mg"},{"bike_id":"a64a5ff0-f80b-4892-9926-9d135a50e0eb","system_id":"levelo_inurba_marseille","lat":43.30152,"lon":5.38083,"is_reserved":false,"is_disabled":false,"rental_uris":{"android":"levelo://app?vid=a64a5ff0-f80b-4892-9926-9d135a50e0eb","ios":"levelo://app?vid=a64a5ff0-f80b-4892-9926-9d135a50e0eb"},"vehicle_type_id":"4","last_reported":1730722706,"current_range_meters":19200,"station_id":"ce4bgjp2rcd13ifvqbh0","pricing_plan_id":"cebpf4jnsgd1na2vs0mg"},{"bike_id":"2c9000a4-dd07-4333-b778-d463ed0da26a","system_id":"levelo_inurba_marseille","lat":43.27175,"lon":5.40997,"is_reserved":false,"is_disabled":false,"rental_uris":{"android":"levelo://app?vid=2c9000a4-dd07-4333-b778-d463ed0da26a","ios":"levelo://app?vid=2c9000a4-dd07-4333-b778-d463ed0da26a"},"vehicle_type_id":"4","last_reported":1730722706,"current_range_meters":7200,"station_id":"ce4bhl12rcd13ifvqgf0","pricing_plan_id":"cebpf4jnsgd1na2vs0mg"},{"bike_id":"baef9837-9362-4b9e-8378-e964f8208509","system_id":"levelo_inurba_marseille","lat":43.25504,"lon":5.37653,"is_reserved":false,"is_disabled":false,"rental_uris":{"android":"levelo://app?vid=baef9837-9362-4b9e-8378-e964f8208509","ios":"levelo://app?vid=baef9837-9362-4b9e-8378-e964f8208509"},"vehicle_type_id":"4","last_reported":1730722706,"current_range_meters":10000,"station_id":"ce4bhh12rcd13ifvqff0","pricing_plan_id":"cebpf4jnsgd1na2vs0mg"},{"bike_id":"7d9ee8ba-656e-46e2-afbf-5eed9f48fbad","system_id":"levelo_inurba_marseille","lat":43.31222,"lon":5.36872,"is_reserved":false,"is_disabled":false,"rental_uris":{"android":"levelo://app?vid=7d9ee8ba-656e-46e2-afbf-5eed9f48fbad","ios":"levelo://app?vid=7d9ee8ba-656e-46e2-afbf-5eed9f48fbad"},"vehicle_type_id":"4","last_reported":1730722706,"current_range_meters":39200,"station_id":"ce4bgl92rcd13ifvqbq0","pricing_plan_id":"cebpf4jnsgd1na2vs0mg"},{"bike_id":"9cc0c0e0-f22e-422e-8353-f151445f4bd4","system_id":"levelo_inurba_marseille","lat":43.29795,"lon":5.381,"is_reserved":false,"is_disabled":false,"rental_uris":{"android":"levelo://app?vid=9cc0c0e0-f22e-422e-8353-f151445f4bd4","ios":"levelo://app?vid=9cc0c0e0-f22e-422e-8353-f151445f4bd4"},"vehicle_type_id":"4","last_reported":1730722706,"current_range_meters":29600,"station_id":"","pricing_plan_id":"cebpf4jnsgd1na2vs0mg"},{"bike_id":"cb81e8a1-f5c2-4c95-bfcd-076f7f535ffd","system_id":"levelo_inurba_marseille","lat":43.2973,"lon":5.37165,"is_reserved":false,"is_disabled":false,"rental_uris":{"android":"levelo://app?vid=cb81e8a1-f5c2-4c95-bfcd-076f7f535ffd","ios":"levelo://app?vid=cb81e8a1-f5c2-4c95-bfcd-076f7f535ffd"},"vehicle_type_id":"4","last_reported":1730722706,"current_range_meters":19200,"station_id":"","pricing_plan_id":"cebpf4jnsgd1na2vs0mg"},{"bike_id":"b002bdad-c1af-41c6-891d-1723b6bdf0d4","system_id":"levelo_inurba_marseille","lat":43.30949,"lon":5.3903,"is_reserved":false,"is_disabled":false,"rental_uris":{"android":"levelo://app?vid=b002bdad-c1af-41c6-891d-1723b6bdf0d4","ios":"levelo://app?vid=b002bdad-c1af-41c6-891d-1723b6bdf0d4"},"vehicle_type_id":"4","last_reported":1730722706,"current_range_meters":19200,"station_id":"ce4bgup2rcd13ifvqco0","pricing_plan_id":"cebpf4jnsgd1na2vs0mg"},{"bike_id":"5a5ca637-4a18-4597-b859-7ab9a6b224f3","system_id":"levelo_inurba_marseille","lat":43.2315,"lon":5.43714,"is_reserved":false,"is_disabled":false,"rental_uris":{"android":"levelo://app?vid=5a5ca637-4a18-4597-b859-7ab9a6b224f3","ios":"levelo://app?vid=5a5ca637-4a18-4597-b859-7ab9a6b224f3"},"vehicle_type_id":"4","last_reported":1730722706,"current_range_meters":8800,"station_id":"ce4bhmp2rcd13ifvqgog","pricing_plan_id":"cebpf4jnsgd1na2vs0mg"},{"bike_id":"4e79cb58-2108-4f91-852d-f243cfab21b9","system_id":"levelo_inurba_marseille","lat":43.31543,"lon":5.40359,"is_reserved":false,"is_disabled":false,"rental_uris":{"android":"levelo://app?vid=4e79cb58-2108-4f91-852d-f243cfab21b9","ios":"levelo://app?vid=4e79cb58-2108-4f91-852d-f243cfab21b9"},"vehicle_type_id":"4","last_reported":1730722706,"current_range_meters":12000,"station_id":"ce4bgvp2rcd13ifvqct0","pricing_plan_id":"cebpf4jnsgd1na2vs0mg"},{"bike_id":"fff82138-19bf-4b4c-bc42-069f4d8523b1","system_id":"levelo_inurba_marseille","lat":43.29977,"lon":5.38487,"is_reserved":false,"is_disabled":false,"rental_uris":{"android":"levelo://app?vid=fff82138-19bf-4b4c-bc42-069f4d8523b1","ios":"levelo://app?vid=fff82138-19bf-4b4c-bc42-069f4d8523b1"},"vehicle_type_id":"4","last_reported":1730722706,"current_range_meters":28000,"station_id":"ce4bgj92rcd13ifvqbd0","pricing_plan_id":"cebpf4jnsgd1na2vs0mg"},{"bike_id":"335ca9fd-967d-414d-ae4f-f9703d0e8f09","system_id":"levelo_inurba_marseille","lat":43.28002,"lon":5.41667,"is_reserved":false,"is_disabled":false,"rental_uris":{"android":"levelo://app?vid=335ca9fd-967d-414d-ae4f-f9703d0e8f09","ios":"levelo://app?vid=335ca9fd-967d-414d-ae4f-f9703d0e8f09"},"vehicle_type_id":"4","last_reported":1730722706,"current_range_meters":26800,"station_id":"ce4bho12rcd13ifvqh1g","pricing_plan_id":"cebpf4jnsgd1na2vs0mg"},{"bike_id":"c2e5ff9a-9dd4-479a-9dd6-52948c6f960c","system_id":"levelo_inurba_marseille","lat":43.337568,"lon":5.374549,"is_reserved":false,"is_disabled":false,"rental_uris":{"android":"levelo://app?vid=c2e5ff9a-9dd4-479a-9dd6-52948c6f960c","ios":"levelo://app?vid=c2e5ff9a-9dd4-479a-9dd6-52948c6f960c"},"vehicle_type_id":"4","last_reported":1730722706,"current_range_meters":38000,"station_id":"","pricing_plan_id":"cebpf4jnsgd1na2vs0mg"},{"bike_id":"e517e444-219d-4b66-9484-eb2ced9a385a","system_id":"levelo_inurba_marseille","lat":43.29789,"lon":5.38102,"is_reserved":false,"is_disabled":false,"rental_uris":{"android":"levelo://app?vid=e517e444-219d-4b66-9484-eb2ced9a385a","ios":"levelo://app?vid=e517e444-219d-4b66-9484-eb2ced9a385a"},"vehicle_type_id":"4","last_reported":1730722706,"current_range_meters":28400,"station_id":"ce4bgip2rcd13ifvqbb0","pricing_plan_id":"cebpf4jnsgd1na2vs0mg"},{"bike_id":"b1078aa1-07c9-43e0-baad-b05bfd4fd1d1","system_id":"levelo_inurba_marseille","lat":43.30529,"lon":5.36534,"is_reserved":false,"is_disabled":false,"rental_uris":{"android":"levelo://app?vid=b1078aa1-07c9-43e0-baad-b05bfd4fd1d1","ios":"levelo://app?vid=b1078aa1-07c9-43e0-baad-b05bfd4fd1d1"},"vehicle_type_id":"4","last_reported":1730722706,"current_range_meters":18800,"station_id":"ce4bgs12rcd13ifvqcag","pricing_plan_id":"cebpf4jnsgd1na2vs0mg"},{"bike_id":"a7ce3e07-385e-4247-9f14-8d58313f5c7d","system_id":"levelo_inurba_marseille","lat":43.32481,"lon":5.36569,"is_reserved":false,"is_disabled":false,"rental_uris":{"android":"levelo://app?vid=a7ce3e07-385e-4247-9f14-8d58313f5c7d","ios":"levelo://app?vid=a7ce3e07-385e-4247-9f14-8d58313f5c7d"},"vehicle_type_id":"4","last_reported":1730722706,"current_range_meters":28400,"station_id":"","pricing_plan_id":"cebpf4jnsgd1na2vs0mg"},{"bike_id":"56c05c79-4c9d-4015-b130-4cbb06ba8998","system_id":"levelo_inurba_marseille","lat":43.27316,"lon":5.39077,"is_reserved":false,"is_disabled":false,"rental_uris":{"android":"levelo://app?vid=56c05c79-4c9d-4015-b130-4cbb06ba8998","ios":"levelo://app?vid=56c05c79-4c9d-4015-b130-4cbb06ba8998"},"vehicle_type_id":"4","last_reported":1730722706,"current_range_meters":38000,"station_id":"ce4bhgp2rcd13ifvqfe0","pricing_plan_id":"cebpf4jnsgd1na2vs0mg"},{"bike_id":"b660520d-7bca-4b11-8965-e79652640606","system_id":"levelo_inurba_marseille","lat":43.32357,"lon":5.36765,"is_reserved":false,"is_disabled":false,"rental_uris":{"android":"levelo://app?vid=b660520d-7bca-4b11-8965-e79652640606","ios":"levelo://app?vid=b660520d-7bca-4b11-8965-e79652640606"},"vehicle_type_id":"4","last_reported":1730722706,"current_range_meters":8000,"station_id":"ce4bhsh2rcd13ifvqi2g","pricing_plan_id":"cebpf4jnsgd1na2vs0mg"},{"bike_id":"b1f425cc-b8c1-4021-86a2-2d0a01947b4e","system_id":"levelo_inurba_marseille","lat":43.25862,"lon":5.399,"is_reserved":false,"is_disabled":false,"rental_uris":{"android":"levelo://app?vid=b1f425cc-b8c1-4021-86a2-2d0a01947b4e","ios":"levelo://app?vid=b1f425cc-b8c1-4021-86a2-2d0a01947b4e"},"vehicle_type_id":"4","last_reported":1730722706,"current_range_meters":36800,"station_id":"ce4bhl92rcd13ifvqghg","pricing_plan_id":"cebpf4jnsgd1na2vs0mg"},{"bike_id":"7b2daa43-2d7a-4e1a-b26e-724f64bf4f37","system_id":"levelo_inurba_marseille","lat":43.28419,"lon":5.34993,"is_reserved":false,"is_disabled":false,"rental_uris":{"android":"levelo://app?vid=7b2daa43-2d7a-4e1a-b26e-724f64bf4f37","ios":"levelo://app?vid=7b2daa43-2d7a-4e1a-b26e-724f64bf4f37"},"vehicle_type_id":"4","last_reported":1730722706,"current_range_meters":38400,"station_id":"ce4bhbh2rcd13ifvqepg","pricing_plan_id":"cebpf4jnsgd1na2vs0mg"},{"bike_id":"b47feee7-ca7b-44b8-983a-5ad0ad2fb4fe","system_id":"levelo_inurba_marseille","lat":43.27197,"lon":5.39197,"is_reserved":false,"is_disabled":false,"rental_uris":{"android":"levelo://app?vid=b47feee7-ca7b-44b8-983a-5ad0ad2fb4fe","ios":"levelo://app?vid=b47feee7-ca7b-44b8-983a-5ad0ad2fb4fe"},"vehicle_type_id":"4","last_reported":1730722706,"current_range_meters":11600,"station_id":"ce4bhhp2rcd13ifvqfm0","pricing_plan_id":"cebpf4jnsgd1na2vs0mg"},{"bike_id":"673b56bb-8292-42fd-bdfd-36a6c3a5d779","system_id":"levelo_inurba_marseille","lat":43.28434,"lon":5.39181,"is_reserved":false,"is_disabled":false,"rental_uris":{"android":"levelo://app?vid=673b56bb-8292-42fd-bdfd-36a6c3a5d779","ios":"levelo://app?vid=673b56bb-8292-42fd-bdfd-36a6c3a5d779"},"vehicle_type_id":"4","last_reported":1730722706,"current_range_meters":38800,"station_id":"ce4bhoh2rcd13ifvqh5g","pricing_plan_id":"cebpf4jnsgd1na2vs0mg"},{"bike_id":"63a65b91-603b-4aa1-b0c4-693c0f219c31","system_id":"levelo_inurba_marseille","lat":43.24075,"lon":5.37746,"is_reserved":false,"is_disabled":false,"rental_uris":{"android":"levelo://app?vid=63a65b91-603b-4aa1-b0c4-693c0f219c31","ios":"levelo://app?vid=63a65b91-603b-4aa1-b0c4-693c0f219c31"},"vehicle_type_id":"4","last_reported":1730722706,"current_range_meters":32000,"station_id":"ce4bhnp2rcd13ifvqgvg","pricing_plan_id":"cebpf4jnsgd1na2vs0mg"},{"bike_id":"d0d97701-c95d-46f0-ba63-51bffb584111","system_id":"levelo_inurba_marseille","lat":43.26949,"lon":5.38636,"is_reserved":false,"is_disabled":false,"rental_uris":{"android":"levelo://app?vid=d0d97701-c95d-46f0-ba63-51bffb584111","ios":"levelo://app?vid=d0d97701-c95d-46f0-ba63-51bffb584111"},"vehicle_type_id":"4","last_reported":1730722706,"current_range_meters":39200,"station_id":"ce4bhh92rcd13ifvqfh0","pricing_plan_id":"cebpf4jnsgd1na2vs0mg"},{"bike_id":"f5271804-b9d4-4c86-8e80-cd382767a853","system_id":"levelo_inurba_marseille","lat":43.27568,"lon":5.38401,"is_reserved":false,"is_disabled":false,"rental_uris":{"android":"levelo://app?vid=f5271804-b9d4-4c86-8e80-cd382767a853","ios":"levelo://app?vid=f5271804-b9d4-4c86-8e80-cd382767a853"},"vehicle_type_id":"4","last_reported":1730722706,"current_range_meters":35200,"station_id":"ce4bhh92rcd13ifvqfi0","pricing_plan_id":"cebpf4jnsgd1na2vs0mg"},{"bike_id":"863f9960-afd5-4098-bbef-a3dbd1b2e62f","system_id":"levelo_inurba_marseille","lat":43.2407,"lon":5.37759,"is_reserved":false,"is_disabled":false,"rental_uris":{"android":"levelo://app?vid=863f9960-afd5-4098-bbef-a3dbd1b2e62f","ios":"levelo://app?vid=863f9960-afd5-4098-bbef-a3dbd1b2e62f"},"vehicle_type_id":"4","last_reported":1730722706,"current_range_meters":28400,"station_id":"ce4bhnp2rcd13ifvqgvg","pricing_plan_id":"cebpf4jnsgd1na2vs0mg"},{"bike_id":"cec01793-e99c-4047-9596-8a7f95d112fc","system_id":"levelo_inurba_marseille","lat":43.31223,"lon":5.36857,"is_reserved":false,"is_disabled":false,"rental_uris":{"android":"levelo://app?vid=cec01793-e99c-4047-9596-8a7f95d112fc","ios":"levelo://app?vid=cec01793-e99c-4047-9596-8a7f95d112fc"},"vehicle_type_id":"4","last_reported":1730722706,"current_range_meters":6400,"station_id":"ce4bgl92rcd13ifvqbq0","pricing_plan_id":"cebpf4jnsgd1na2vs0mg"},{"bike_id":"9a1c41a3-f55d-4915-aa7f-7fb054255dd0","system_id":"levelo_inurba_marseille","lat":43.26206,"lon":5.37448,"is_reserved":false,"is_disabled":false,"rental_uris":{"android":"levelo://app?vid=9a1c41a3-f55d-4915-aa7f-7fb054255dd0","ios":"levelo://app?vid=9a1c41a3-f55d-4915-aa7f-7fb054255dd0"},"vehicle_type_id":"4","last_reported":1730722706,"current_range_meters":22000,"station_id":"ce4bhgp2rcd13ifvqfc0","pricing_plan_id":"cebpf4jnsgd1na2vs0mg"},{"bike_id":"87953497-0718-4edf-9fd9-38a5a46cc7f3","system_id":"levelo_inurba_marseille","lat":43.24076,"lon":5.3774,"is_reserved":false,"is_disabled":false,"rental_uris":{"android":"levelo://app?vid=87953497-0718-4edf-9fd9-38a5a46cc7f3","ios":"levelo://app?vid=87953497-0718-4edf-9fd9-38a5a46cc7f3"},"vehicle_type_id":"4","last_reported":1730722706,"current_range_meters":38400,"station_id":"ce4bhnp2rcd13ifvqgvg","pricing_plan_id":"cebpf4jnsgd1na2vs0mg"},{"bike_id":"3ff78f42-23be-4505-9c6e-47c7d1006bf2","system_id":"levelo_inurba_marseille","lat":43.30462,"lon":5.3791,"is_reserved":false,"is_disabled":false,"rental_uris":{"android":"levelo://app?vid=3ff78f42-23be-4505-9c6e-47c7d1006bf2","ios":"levelo://app?vid=3ff78f42-23be-4505-9c6e-47c7d1006bf2"},"vehicle_type_id":"4","last_reported":1730722706,"current_range_meters":21600,"station_id":"ce4bgup2rcd13ifvqcn0","pricing_plan_id":"cebpf4jnsgd1na2vs0mg"},{"bike_id":"4c8e72b5-aba7-4439-8dcc-1e2370b4bb8a","system_id":"levelo_inurba_marseille","lat":43.30792,"lon":5.43522,"is_reserved":false,"is_disabled":false,"rental_uris":{"android":"levelo://app?vid=4c8e72b5-aba7-4439-8dcc-1e2370b4bb8a","ios":"levelo://app?vid=4c8e72b5-aba7-4439-8dcc-1e2370b4bb8a"},"vehicle_type_id":"4","last_reported":1730722706,"current_range_meters":28800,"station_id":"ce4bhph2rcd13ifvqheg","pricing_plan_id":"cebpf4jnsgd1na2vs0mg"},{"bike_id":"d579d701-026d-417a-b833-12e2cbe8d1a7","system_id":"levelo_inurba_marseille","lat":43.23145,"lon":5.43714,"is_reserved":false,"is_disabled":false,"rental_uris":{"android":"levelo://app?vid=d579d701-026d-417a-b833-12e2cbe8d1a7","ios":"levelo://app?vid=d579d701-026d-417a-b833-12e2cbe8d1a7"},"vehicle_type_id":"4","last_reported":1730722706,"current_range_meters":24000,"station_id":"ce4bhmp2rcd13ifvqgog","pricing_plan_id":"cebpf4jnsgd1na2vs0mg"},{"bike_id":"76621f30-0b61-4abe-b2d3-bbb786758ecd","system_id":"levelo_inurba_marseille","lat":43.23964,"lon":5.3664,"is_reserved":false,"is_disabled":false,"rental_uris":{"android":"levelo://app?vid=76621f30-0b61-4abe-b2d3-bbb786758ecd","ios":"levelo://app?vid=76621f30-0b61-4abe-b2d3-bbb786758ecd"},"vehicle_type_id":"4","last_reported":1730722706,"current_range_meters":38800,"station_id":"ce4bhi12rcd13ifvqfp0","pricing_plan_id":"cebpf4jnsgd1na2vs0mg"},{"bike_id":"324240ca-8cb5-4638-9ca4-7b95dab5900f","system_id":"levelo_inurba_marseille","lat":43.25819,"lon":5.39434,"is_reserved":false,"is_disabled":false,"rental_uris":{"android":"levelo://app?vid=324240ca-8cb5-4638-9ca4-7b95dab5900f","ios":"levelo://app?vid=324240ca-8cb5-4638-9ca4-7b95dab5900f"},"vehicle_type_id":"4","last_reported":1730722706,"current_range_meters":20400,"station_id":"ce4bhip2rcd13ifvqft0","pricing_plan_id":"cebpf4jnsgd1na2vs0mg"},{"bike_id":"a0b3970e-a304-4d3c-860a-dcd765b16f37","system_id":"levelo_inurba_marseille","lat":43.25111,"lon":5.40322,"is_reserved":false,"is_disabled":false,"rental_uris":{"android":"levelo://app?vid=a0b3970e-a304-4d3c-860a-dcd765b16f37","ios":"levelo://app?vid=a0b3970e-a304-4d3c-860a-dcd765b16f37"},"vehicle_type_id":"4","last_reported":1730722706,"current_range_meters":28800,"station_id":"ce4bhlh2rcd13ifvqgig","pricing_plan_id":"cebpf4jnsgd1na2vs0mg"},{"bike_id":"b4b06e5f-eebf-412b-ad02-5aac6ad3cdd3","system_id":"levelo_inurba_marseille","lat":43.28428,"lon":5.38442,"is_reserved":false,"is_disabled":false,"rental_uris":{"android":"levelo://app?vid=b4b06e5f-eebf-412b-ad02-5aac6ad3cdd3","ios":"levelo://app?vid=b4b06e5f-eebf-412b-ad02-5aac6ad3cdd3"},"vehicle_type_id":"4","last_reported":1730722706,"current_range_meters":30800,"station_id":"","pricing_plan_id":"cebpf4jnsgd1na2vs0mg"},{"bike_id":"4ad7c7c2-8ff3-4ca5-9524-58a7633dd278","system_id":"levelo_inurba_marseille","lat":43.32476,"lon":5.36556,"is_reserved":false,"is_disabled":false,"rental_uris":{"android":"levelo://app?vid=4ad7c7c2-8ff3-4ca5-9524-58a7633dd278","ios":"levelo://app?vid=4ad7c7c2-8ff3-4ca5-9524-58a7633dd278"},"vehicle_type_id":"4","last_reported":1730722706,"current_range_meters":39200,"station_id":"ce4bhs12rcd13ifvqhvg","pricing_plan_id":"cebpf4jnsgd1na2vs0mg"},{"bike_id":"aa0c641c-ff68-48f4-9a08-1be69b69f675","system_id":"levelo_inurba_marseille","lat":43.29224,"lon":5.36063,"is_reserved":false,"is_disabled":false,"rental_uris":{"android":"levelo://app?vid=aa0c641c-ff68-48f4-9a08-1be69b69f675","ios":"levelo://app?vid=aa0c641c-ff68-48f4-9a08-1be69b69f675"},"vehicle_type_id":"4","last_reported":1730722706,"current_range_meters":3600,"station_id":"ce4bhbh2rcd13ifvqeqg","pricing_plan_id":"cebpf4jnsgd1na2vs0mg"},{"bike_id":"cfefc772-1259-4c7e-8ddb-ca0734ba6e06","system_id":"levelo_inurba_marseille","lat":43.28696,"lon":5.37386,"is_reserved":false,"is_disabled":false,"rental_uris":{"android":"levelo://app?vid=cfefc772-1259-4c7e-8ddb-ca0734ba6e06","ios":"levelo://app?vid=cfefc772-1259-4c7e-8ddb-ca0734ba6e06"},"vehicle_type_id":"4","last_reported":1730722706,"current_range_meters":37600,"station_id":"ce4bh3p2rcd13ifvqdq0","pricing_plan_id":"cebpf4jnsgd1na2vs0mg"},{"bike_id":"002ae8c1-e9e8-49e4-8f04-2f17fa761a04","system_id":"levelo_inurba_marseille","lat":43.26951,"lon":5.38635,"is_reserved":false,"is_disabled":false,"rental_uris":{"android":"levelo://app?vid=002ae8c1-e9e8-49e4-8f04-2f17fa761a04","ios":"levelo://app?vid=002ae8c1-e9e8-49e4-8f04-2f17fa761a04"},"vehicle_type_id":"4","last_reported":1730722706,"current_range_meters":32800,"station_id":"ce4bhh92rcd13ifvqfh0","pricing_plan_id":"cebpf4jnsgd1na2vs0mg"},{"bike_id":"141fe3d8-be08-4096-be99-5a9a2b0f9bba","system_id":"levelo_inurba_marseille","lat":43.23065,"lon":5.3549,"is_reserved":false,"is_disabled":false,"rental_uris":{"android":"levelo://app?vid=141fe3d8-be08-4096-be99-5a9a2b0f9bba","ios":"levelo://app?vid=141fe3d8-be08-4096-be99-5a9a2b0f9bba"},"vehicle_type_id":"4","last_reported":1730722706,"current_range_meters":10800,"station_id":"cpo3342slgdg3j2ifvpg","pricing_plan_id":"cebpf4jnsgd1na2vs0mg"},{"bike_id":"92b54cc2-bc03-449b-bc7f-a551ad04cb2c","system_id":"levelo_inurba_marseille","lat":43.23195,"lon":5.3555,"is_reserved":false,"is_disabled":false,"rental_uris":{"android":"levelo://app?vid=92b54cc2-bc03-449b-bc7f-a551ad04cb2c","ios":"levelo://app?vid=92b54cc2-bc03-449b-bc7f-a551ad04cb2c"},"vehicle_type_id":"4","last_reported":1730722706,"current_range_meters":35600,"station_id":"ce4bhu92rcd13ifvqi70","pricing_plan_id":"cebpf4jnsgd1na2vs0mg"},{"bike_id":"5720c476-75c1-4c2c-aacb-bc18096dcf26","system_id":"levelo_inurba_marseille","lat":43.239655,"lon":5.366279,"is_reserved":false,"is_disabled":false,"rental_uris":{"android":"levelo://app?vid=5720c476-75c1-4c2c-aacb-bc18096dcf26","ios":"levelo://app?vid=5720c476-75c1-4c2c-aacb-bc18096dcf26"},"vehicle_type_id":"4","last_reported":1730722706,"current_range_meters":11600,"station_id":"","pricing_plan_id":"cebpf4jnsgd1na2vs0mg"},{"bike_id":"aab60914-f141-404b-93a5-70ccb7d1930c","system_id":"levelo_inurba_marseille","lat":43.24178,"lon":5.39734,"is_reserved":false,"is_disabled":false,"rental_uris":{"android":"levelo://app?vid=aab60914-f141-404b-93a5-70ccb7d1930c","ios":"levelo://app?vid=aab60914-f141-404b-93a5-70ccb7d1930c"},"vehicle_type_id":"4","last_reported":1730722706,"current_range_meters":22000,"station_id":"ce4bhn12rcd13ifvqgpg","pricing_plan_id":"cebpf4jnsgd1na2vs0mg"},{"bike_id":"20a411bf-9423-41fb-974f-f73157d2a98a","system_id":"levelo_inurba_marseille","lat":43.30547,"lon":5.36533,"is_reserved":false,"is_disabled":false,"rental_uris":{"android":"levelo://app?vid=20a411bf-9423-41fb-974f-f73157d2a98a","ios":"levelo://app?vid=20a411bf-9423-41fb-974f-f73157d2a98a"},"vehicle_type_id":"4","last_reported":1730722706,"current_range_meters":37600,"station_id":"ce4bgs12rcd13ifvqcag","pricing_plan_id":"cebpf4jnsgd1na2vs0mg"},{"bike_id":"ece7fc00-6859-4a1b-b199-52efe2ccf326","system_id":"levelo_inurba_marseille","lat":43.30105,"lon":5.38788,"is_reserved":false,"is_disabled":false,"rental_uris":{"android":"levelo://app?vid=ece7fc00-6859-4a1b-b199-52efe2ccf326","ios":"levelo://app?vid=ece7fc00-6859-4a1b-b199-52efe2ccf326"},"vehicle_type_id":"4","last_reported":1730722706,"current_range_meters":32400,"station_id":"ce4bgkh2rcd13ifvqbk0","pricing_plan_id":"cebpf4jnsgd1na2vs0mg"},{"bike_id":"fd37e2e6-5743-4556-b0a8-5293d7759c14","system_id":"levelo_inurba_marseille","lat":43.3013,"lon":5.39861,"is_reserved":false,"is_disabled":false,"rental_uris":{"android":"levelo://app?vid=fd37e2e6-5743-4556-b0a8-5293d7759c14","ios":"levelo://app?vid=fd37e2e6-5743-4556-b0a8-5293d7759c14"},"vehicle_type_id":"4","last_reported":1730722706,"current_range_meters":22800,"station_id":"ce4bh0h2rcd13ifvqd40","pricing_plan_id":"cebpf4jnsgd1na2vs0mg"},{"bike_id":"71bcb08e-e7af-4ed1-907c-5d1bb83b0408","system_id":"levelo_inurba_marseille","lat":43.32481,"lon":5.36553,"is_reserved":false,"is_disabled":false,"rental_uris":{"android":"levelo://app?vid=71bcb08e-e7af-4ed1-907c-5d1bb83b0408","ios":"levelo://app?vid=71bcb08e-e7af-4ed1-907c-5d1bb83b0408"},"vehicle_type_id":"4","last_reported":1730722706,"current_range_meters":38800,"station_id":"ce4bhs12rcd13ifvqhvg","pricing_plan_id":"cebpf4jnsgd1na2vs0mg"},{"bike_id":"bbefb788-6bf1-4b90-bb4b-ea34d0f15846","system_id":"levelo_inurba_marseille","lat":43.23183,"lon":5.39983,"is_reserved":false,"is_disabled":false,"rental_uris":{"android":"levelo://app?vid=bbefb788-6bf1-4b90-bb4b-ea34d0f15846","ios":"levelo://app?vid=bbefb788-6bf1-4b90-bb4b-ea34d0f15846"},"vehicle_type_id":"4","last_reported":1730722706,"current_range_meters":3600,"station_id":"ce4bhn12rcd13ifvqgqg","pricing_plan_id":"cebpf4jnsgd1na2vs0mg"},{"bike_id":"ab08da80-c448-4759-bc46-31dc53294bcf","system_id":"levelo_inurba_marseille","lat":43.24071,"lon":5.37761,"is_reserved":false,"is_disabled":false,"rental_uris":{"android":"levelo://app?vid=ab08da80-c448-4759-bc46-31dc53294bcf","ios":"levelo://app?vid=ab08da80-c448-4759-bc46-31dc53294bcf"},"vehicle_type_id":"4","last_reported":1730722706,"current_range_meters":17200,"station_id":"ce4bhnp2rcd13ifvqgvg","pricing_plan_id":"cebpf4jnsgd1na2vs0mg"},{"bike_id":"09c4e025-0035-4b02-9331-e4c6e4b55438","system_id":"levelo_inurba_marseille","lat":43.30361,"lon":5.39151,"is_reserved":false,"is_disabled":false,"rental_uris":{"android":"levelo://app?vid=09c4e025-0035-4b02-9331-e4c6e4b55438","ios":"levelo://app?vid=09c4e025-0035-4b02-9331-e4c6e4b55438"},"vehicle_type_id":"4","last_reported":1730722706,"current_range_meters":28800,"station_id":"","pricing_plan_id":"cebpf4jnsgd1na2vs0mg"},{"bike_id":"b48614db-fa51-498b-83c4-569c90854c82","system_id":"levelo_inurba_marseille","lat":43.2407,"lon":5.37759,"is_reserved":false,"is_disabled":false,"rental_uris":{"android":"levelo://app?vid=b48614db-fa51-498b-83c4-569c90854c82","ios":"levelo://app?vid=b48614db-fa51-498b-83c4-569c90854c82"},"vehicle_type_id":"4","last_reported":1730722706,"current_range_meters":36400,"station_id":"ce4bhnp2rcd13ifvqgvg","pricing_plan_id":"cebpf4jnsgd1na2vs0mg"},{"bike_id":"c9ef7e76-74e4-4f08-9a0a-13c728728084","system_id":"levelo_inurba_marseille","lat":43.30544,"lon":5.3653,"is_reserved":false,"is_disabled":false,"rental_uris":{"android":"levelo://app?vid=c9ef7e76-74e4-4f08-9a0a-13c728728084","ios":"levelo://app?vid=c9ef7e76-74e4-4f08-9a0a-13c728728084"},"vehicle_type_id":"4","last_reported":1730722706,"current_range_meters":38400,"station_id":"ce4bgs12rcd13ifvqcag","pricing_plan_id":"cebpf4jnsgd1na2vs0mg"},{"bike_id":"201738cd-4c71-4f35-b128-d6f1b93a81cb","system_id":"levelo_inurba_marseille","lat":43.24072,"lon":5.3776,"is_reserved":false,"is_disabled":false,"rental_uris":{"android":"levelo://app?vid=201738cd-4c71-4f35-b128-d6f1b93a81cb","ios":"levelo://app?vid=201738cd-4c71-4f35-b128-d6f1b93a81cb"},"vehicle_type_id":"4","last_reported":1730722706,"current_range_meters":32000,"station_id":"ce4bhnp2rcd13ifvqgvg","pricing_plan_id":"cebpf4jnsgd1na2vs0mg"},{"bike_id":"94bce4be-a383-4b86-ac73-664e2491d016","system_id":"levelo_inurba_marseille","lat":43.32662,"lon":5.40986,"is_reserved":false,"is_disabled":false,"rental_uris":{"android":"levelo://app?vid=94bce4be-a383-4b86-ac73-664e2491d016","ios":"levelo://app?vid=94bce4be-a383-4b86-ac73-664e2491d016"},"vehicle_type_id":"4","last_reported":1730722706,"current_range_meters":10000,"station_id":"ce4bhpp2rcd13ifvqhgg","pricing_plan_id":"cebpf4jnsgd1na2vs0mg"},