{"last_updated":1756192286,"ttl":60,"version":"2.2","data":{"bikes":[{"bike_id":"3e7e1ef3-0dda-4260-9f1d-bf01614c228a","system_id":"levelo_inurba_marseille","lat":43.2919,"lon":5.39295,"is_reserved":false,"is_disabled":false,"rental_uris":{"android":"levelo://app?vid=3e7e1ef3-0dda-4260-9f1d-bf01614c228a","ios":"levelo://app?vid=3e7e1ef3-0dda-4260-9f1d-bf01614c228a"},"vehicle_type_id":"4","last_reported":1756192286,"current_range_meters":2800,"station_id":"ce4bh192rcd13ifvqdd0","pricing_plan_id":"cebpf4jnsgd1na2vs0mg"},{"bike_id":"b6733401-ff29-4d35-984e-5af9cc97dfb2","system_id":"levelo_inurba_marseille","lat":43.21191,"lon":5.35096,"is_reserved":false,"is_disabled":false,"rental_uris":{"android":"levelo://app?vid=b6733401-ff29-4d35-984e-5af9cc97dfb2","ios":"levelo://app?vid=b6733401-ff29-4d35-984e-5af9cc97dfb2"},"vehicle_type_id":"4","last_reported":1756192286,"current_range_meters":2800,"station_id":"","pricing_plan_id":"cebpf4jnsgd1na2vs0mg"},{"bike_id":"df1bea0e-3e87-4e22-8f21-ce538c86592b","system_id":"levelo_inurba_marseille","lat":43.30641,"lon":5.40092,"is_reserved":false,"is_disabled":false,"rental_uris":{"android":"levelo://app?vid=df1bea0e-3e87-4e22-8f21-ce538c86592b","ios":"levelo://app?vid=df1bea0e-3e87-4e22-8f21-ce538c86592b"},"vehicle_type_id":"4","last_reported":1756192286,"current_range_meters":2800,"station_id":"ce4bh112rcd13ifvqda0","pricing_plan_id":"cebpf4jnsgd1na2vs0mg"},{"bike_id":"79c5da01-057a-49c2-9dd4-3c9f4460d5af","system_id":"levelo_inurba_marseille","lat":43.30885,"lon":5.37188,"is_reserved":false,"is_disabled":false,"rental_uris":{"android":"levelo://app?vid=79c5da01-057a-49c2-9dd4-3c9f4460d5af","ios":"levelo://app?vid=79c5da01-057a-49c2-9dd4-3c9f4460d5af"},"vehicle_type_id":"4","last_reported":1756192286,"current_range_meters":2800,"station_id":"ce4bguh2rcd13ifvqckg","pricing_plan_id":"cebpf4jnsgd1na2vs0mg"},{"bike_id":"1462cb55-de92-424f-b555-918039096f99","system_id":"levelo_inurba_marseille","lat":43.30543,"lon":5.36715,"is_reserved":false,"is_disabled":false,"rental_uris":{"android":"levelo://app?vid=1462cb55-de92-424f-b555-918039096f99","ios":"levelo://app?vid=1462cb55-de92-424f-b555-918039096f99"},"vehicle_type_id":"4","last_reported":1756192286,"current_range_meters":3200,"station_id":"ce4bgrp2rcd13ifvqc9g","pricing_plan_id":"cebpf4jnsgd1na2vs0mg"},{"bike_id":"dda6c980-34b0-4e7a-9f66-ead9e5b513d7","system_id":"levelo_inurba_marseille","lat":43.29321,"lon":5.37469,"is_reserved":false,"is_disabled":false,"rental_uris":{"android":"levelo://app?vid=dda6c980-34b0-4e7a-9f66-ead9e5b513d7","ios":"levelo://app?vid=dda6c980-34b0-4e7a-9f66-ead9e5b513d7"},"vehicle_type_id":"4","last_reported":1756192286,"current_range_meters":2800,"station_id":"ce4bgi12rcd13ifvqb70","pricing_plan_id":"cebpf4jnsgd1na2vs0mg"},{"bike_id":"2044f59c-4f8a-43c3-ba5c-f976890d99ef","system_id":"levelo_inurba_marseille","lat":43.29976,"lon":5.37177,"is_reserved":false,"is_disabled":false,"rental_uris":{"android":"levelo://app?vid=2044f59c-4f8a-43c3-ba5c-f976890d99ef","ios":"levelo://app?vid=2044f59c-4f8a-43c3-ba5c-f976890d99ef"},"vehicle_type_id":"4","last_reported":1756192286,"current_range_meters":3200,"station_id":"ce4bgr92rcd13ifvqc7g","pricing_plan_id":"cebpf4jnsgd1na2vs0mg"},{"bike_id":"3264d774-9850-443d-ba5a-c65872a1ce2b","system_id":"levelo_inurba_marseille","lat":43.2656,"lon":5.37293,"is_reserved":false,"is_disabled":false,"rental_uris":{"android":"levelo://app?vid=3264d774-9850-443d-ba5a-c65872a1ce2b","ios":"levelo://app?vid=3264d774-9850-443d-ba5a-c65872a1ce2b"},"vehicle_type_id":"4","last_reported":1756192286,"current_range_meters":3200,"station_id":"ce4bhg12rcd13ifvqf70","pricing_plan_id":"cebpf4jnsgd1na2vs0mg"},{"bike_id":"f6aceadb-2183-494b-b593-149d02fed083","system_id":"levelo_inurba_marseille","lat":43.27376,"lon":5.36253,"is_reserved":false,"is_disabled":false,"rental_uris":{"android":"levelo://app?vid=f6aceadb-2183-494b-b593-149d02fed083","ios":"levelo://app?vid=f6aceadb-2183-494b-b593-149d02fed083"},"vehicle_type_id":"4","last_reported":1756192286,"current_range_meters":3600,"station_id":"ce4bhbh2rcd13ifvqeo0","pricing_plan_id":"cebpf4jnsgd1na2vs0mg"},{"bike_id":"40ef3921-aead-4d24-9916-8c9650e72d00","system_id":"levelo_inurba_marseille","lat":43.27817,"lon":5.40715,"is_reserved":false,"is_disabled":false,"rental_uris":{"android":"levelo://app?vid=40ef3921-aead-4d24-9916-8c9650e72d00","ios":"levelo://app?vid=40ef3921-aead-4d24-9916-8c9650e72d00"},"vehicle_type_id":"4","last_reported":1756192286,"current_range_meters":3600,"station_id":"ce4bhnh2rcd13ifvqgtg","pricing_plan_id":"cebpf4jnsgd1na2vs0mg"},{"bike_id":"4d19d967-a231-450d-8153-119d1fac3bfc","system_id":"levelo_inurba_marseille","lat":43.24183,"lon":5.39719,"is_reserved":false,"is_disabled":false,"rental_uris":{"android":"levelo://app?vid=4d19d967-a231-450d-8153-119d1fac3bfc","ios":"levelo://app?vid=4d19d967-a231-450d-8153-119d1fac3bfc"},"vehicle_type_id":"4","last_reported":1756192286,"current_range_meters":3600,"station_id":"ce4bhn12rcd13ifvqgpg","pricing_plan_id":"cebpf4jnsgd1na2vs0mg"},{"bike_id":"5a94cd1f-5ae1-47d0-a15d-d5554856827f","system_id":"levelo_inurba_marseille","lat":43.30581,"lon":5.37539,"is_reserved":false,"is_disabled":false,"rental_uris":{"android":"levelo://app?vid=5a94cd1f-5ae1-47d0-a15d-d5554856827f","ios":"levelo://app?vid=5a94cd1f-5ae1-47d0-a15d-d5554856827f"},"vehicle_type_id":"4","last_reported":1756192286,"current_range_meters":4000,"station_id":"","pricing_plan_id":"cebpf4jnsgd1na2vs0mg"},{"bike_id":"9509b994-3438-421d-9078-bdb90ee159e2","system_id":"levelo_inurba_marseille","lat":43.25942,"lon":5.40897,"is_reserved":false,"is_disabled":false,"rental_uris":{"android":"levelo://app?vid=9509b994-3438-421d-9078-bdb90ee159e2","ios":"levelo://app?vid=9509b994-3438-421d-9078-bdb90ee159e2"},"vehicle_type_id":"4","last_reported":1756192286,"current_range_meters":4000,"station_id":"ce4bhm92rcd13ifvqglg","pricing_plan_id":"cebpf4jnsgd1na2vs0mg"},{"bike_id":"0490c530-845d-44f9-bf75-09a8b4d2b9b9","system_id":"levelo_inurba_marseille","lat":43.297542,"lon":5.380863,"is_reserved":false,"is_disabled":false,"rental_uris":{"android":"levelo://app?vid=0490c530-845d-44f9-bf75-09a8b4d2b9b9","ios":"levelo://app?vid=0490c530-845d-44f9-bf75-09a8b4d2b9b9"},"vehicle_type_id":"4","last_reported":1756192286,"current_range_meters":4400,"station_id":"ce4bgip2rcd13ifvqbb0","pricing_plan_id":"cebpf4jnsgd1na2vs0mg"},{"bike_id":"158fe4a9-48cc-491f-95fd-2aa73bd55cc0","system_id":"levelo_inurba_marseille","lat":43.305676,"lon":5.369055,"is_reserved":false,"is_disabled":false,"rental_uris":{"android":"levelo://app?vid=158fe4a9-48cc-491f-95fd-2aa73bd55cc0","ios":"levelo://app?vid=158fe4a9-48cc-491f-95fd-2aa73bd55cc0"},"vehicle_type_id":"4","last_reported":1756192286,"current_range_meters":4400,"station_id":"","pricing_plan_id":"cebpf4jnsgd1na2vs0mg"},{"bike_id":"66c53be0-e11e-4391-bed7-027d3b5273b8","system_id":"levelo_inurba_marseille","lat":43.30201,"lon":5.36629,"is_reserved":false,"is_disabled":false,"rental_uris":{"android":"levelo://app?vid=66c53be0-e11e-4391-bed7-027d3b5273b8","ios":"levelo://app?vid=66c53be0-e11e-4391-bed7-027d3b5273b8"},"vehicle_type_id":"4","last_reported":1756192286,"current_range_meters":4800,"station_id":"ce4bgrh2rcd13ifvqc8g","pricing_plan_id":"cebpf4jnsgd1na2vs0mg"},{"bike_id":"4914b99b-bbad-44c9-8c7f-2b8a4a7b66e2","system_id":"levelo_inurba_marseille","lat":43.31224,"lon":5.36862,"is_reserved":false,"is_disabled":false,"rental_uris":{"android":"levelo://app?vid=4914b99b-bbad-44c9-8c7f-2b8a4a7b66e2","ios":"levelo://app?vid=4914b99b-bbad-44c9-8c7f-2b8a4a7b66e2"},"vehicle_type_id":"4","last_reported":1756192286,"current_range_meters":4800,"station_id":"ce4bgl92rcd13ifvqbq0","pricing_plan_id":"cebpf4jnsgd1na2vs0mg"},{"bike_id":"8278d03d-5584-48a8-a86a-7847a162c713","system_id":"levelo_inurba_marseille","lat":43.3091,"lon":5.3818,"is_reserved":false,"is_disabled":false,"rental_uris":{"android":"levelo://app?vid=8278d03d-5584-48a8-a86a-7847a162c713","ios":"levelo://app?vid=8278d03d-5584-48a8-a86a-7847a162c713"},"vehicle_type_id":"4","last_reported":1756192286,"current_range_meters":4800,"station_id":"","pricing_plan_id":"cebpf4jnsgd1na2vs0mg"},{"bike_id":"1d8bc0dc-2968-419a-ab62-b2070d812ef8","system_id":"levelo_inurba_marseille","lat":43.28041,"lon":5.36957,"is_reserved":false,"is_disabled":false,"rental_uris":{"android":"levelo://app?vid=1d8bc0dc-2968-419a-ab62-b2070d812ef8","ios":"levelo://app?vid=1d8bc0dc-2968-419a-ab62-b2070d812ef8"},"vehicle_type_id":"4","last_reported":1756192286,"current_range_meters":4800,"station_id":"ce4bha12rcd13ifvqef0","pricing_plan_id":"cebpf4jnsgd1na2vs0mg"},{"bike_id":"ef2306e3-475c-4485-89e7-a529722d5354","system_id":"levelo_inurba_marseille","lat":43.2904,"lon":5.39983,"is_reserved":false,"is_disabled":false,"rental_uris":{"android":"levelo://app?vid=ef2306e3-475c-4485-89e7-a529722d5354","ios":"levelo://app?vid=ef2306e3-475c-4485-89e7-a529722d5354"},"vehicle_type_id":"4","last_reported":1756192286,"current_range_meters":5600,"station_id":"ce4bh392rcd13ifvqdm0","pricing_plan_id":"cebpf4jnsgd1na2vs0mg"},{"bike_id":"c2745bfd-0fba-4af7-b094-9f87d857f7da","system_id":"levelo_inurba_marseille","lat":43.25731,"lon":5.41105,"is_reserved":false,"is_disabled":false,"rental_uris":{"android":"levelo://app?vid=c2745bfd-0fba-4af7-b094-9f87d857f7da","ios":"levelo://app?vid=c2745bfd-0fba-4af7-b094-9f87d857f7da"},"vehicle_type_id":"4","last_reported":1756192286,"current_range_meters":5600,"station_id":"ce4bhkp2rcd13ifvqgd0","pricing_plan_id":"cebpf4jnsgd1na2vs0mg"},{"bike_id":"a60b1c54-8a16-4221-adc8-9b668bd6833c","system_id":"levelo_inurba_marseille","lat":43.2994,"lon":5.36553,"is_reserved":false,"is_disabled":false,"rental_uris":{"android":"levelo://app?vid=a60b1c54-8a16-4221-adc8-9b668bd6833c","ios":"levelo://app?vid=a60b1c54-8a16-4221-adc8-9b668bd6833c"},"vehicle_type_id":"4","last_reported":1756192286,"current_range_meters":6000,"station_id":"ce4bgm92rcd13ifvqbr0","pricing_plan_id":"cebpf4jnsgd1na2vs0mg"},{"bike_id":"1b0571ec-e39e-4107-b4d8-cb5cd0f8f5ea","system_id":"levelo_inurba_marseille","lat":43.29025,"lon":5.4002,"is_reserved":false,"is_disabled":false,"rental_uris":{"android":"levelo://app?vid=1b0571ec-e39e-4107-b4d8-cb5cd0f8f5ea","ios":"levelo://app?vid=1b0571ec-e39e-4107-b4d8-cb5cd0f8f5ea"},"vehicle_type_id":"4","last_reported":1756192286,"current_range_meters":6400,"station_id":"ce4bh392rcd13ifvqdm0","pricing_plan_id":"cebpf4jnsgd1na2vs0mg"},{"bike_id":"318a994a-51ff-465f-b40c-534a36bf7044","system_id":"levelo_inurba_marseille","lat":43.30171,"lon":5.38273,"is_reserved":false,"is_disabled":false,"rental_uris":{"android":"levelo://app?vid=318a994a-51ff-465f-b40c-534a36bf7044","ios":"levelo://app?vid=318a994a-51ff-465f-b40c-534a36bf7044"},"vehicle_type_id":"4","last_reported":1756192286,"current_range_meters":6400,"station_id":"","pricing_plan_id":"cebpf4jnsgd1na2vs0mg"},{"bike_id":"3fcb1ecf-014d-414b-8e46-6cb5a3a18d8d","system_id":"levelo_inurba_marseille","lat":43.27107,"lon":5.38701,"is_reserved":false,"is_disabled":false,"rental_uris":{"android":"levelo://app?vid=3fcb1ecf-014d-414b-8e46-6cb5a3a18d8d","ios":"levelo://app?vid=3fcb1ecf-014d-414b-8e46-6cb5a3a18d8d"},"vehicle_type_id":"4","last_reported":1756192286,"current_range_meters":6800,"station_id":"","pricing_plan_id":"cebpf4jnsgd1na2vs0mg"},{"bike_id":"5460667f-33c3-4e8d-8ece-a4e491713ed9","system_id":"levelo_inurba_marseille","lat":43.29665,"lon":5.40382,"is_reserved":false,"is_disabled":false,"rental_uris":{"android":"levelo://app?vid=5460667f-33c3-4e8d-8ece-a4e491713ed9","ios":"levelo://app?vid=5460667f-33c3-4e8d-8ece-a4e491713ed9"},"vehicle_type_id":"4","last_reported":1756192286,"current_range_meters":6800,"station_id":"","pricing_plan_id":"cebpf4jnsgd1na2vs0mg"},{"bike_id":"8518bded-4733-4e5e-9522-f030c96f848a","system_id":"levelo_inurba_marseille","lat":43.21194,"lon":5.35075,"is_reserved":false,"is_disabled":true,"rental_uris":{"android":"levelo://app?vid=8518bded-4733-4e5e-9522-f030c96f848a","ios":"levelo://app?vid=8518bded-4733-4e5e-9522-f030c96f848a"},"vehicle_type_id":"4","last_reported":1756192286,"current_range_meters":6800,"station_id":"","pricing_plan_id":"cebpf4jnsgd1na2vs0mg"},{"bike_id":"c4ccc10f-8ccd-44be-a00a-f6ebdc6ec159","system_id":"levelo_inurba_marseille","lat":43.30407,"lon":5.43439,"is_reserved":false,"is_disabled":false,"rental_uris":{"android":"levelo://app?vid=c4ccc10f-8ccd-44be-a00a-f6ebdc6ec159","ios":"levelo://app?vid=c4ccc10f-8ccd-44be-a00a-f6ebdc6ec159"},"vehicle_type_id":"4","last_reported":1756192286,"current_range_meters":7200,"station_id":"","pricing_plan_id":"cebpf4jnsgd1na2vs0mg"},{"bike_id":"63c1096e-8c95-4824-8853-c0e71c0e8de4","system_id":"levelo_inurba_marseille","lat":43.30358,"lon":5.41885,"is_reserved":false,"is_disabled":false,"rental_uris":{"android":"levelo://app?vid=63c1096e-8c95-4824-8853-c0e71c0e8de4","ios":"levelo://app?vid=63c1096e-8c95-4824-8853-c0e71c0e8de4"},"vehicle_type_id":"4","last_reported":1756192286,"current_range_meters":7200,"station_id":"ce4bhop2rcd13ifvqh7g","pricing_plan_id":"cebpf4jnsgd1na2vs0mg"},{"bike_id":"fb0ecd7c-2c0f-42f1-9e73-9448c9893367","system_id":"levelo_inurba_marseille","lat":43.264737,"lon":5.370301,"is_reserved":false,"is_disabled":false,"rental_uris":{"android":"levelo://app?vid=fb0ecd7c-2c0f-42f1-9e73-9448c9893367","ios":"levelo://app?vid=fb0ecd7c-2c0f-42f1-9e73-9448c9893367"},"vehicle_type_id":"4","last_reported":1756192286,"current_range_meters":7200,"station_id":"","pricing_plan_id":"cebpf4jnsgd1na2vs0mg"},{"bike_id":"7d63c8b9-6ecb-4131-b03e-152674ce59e2","system_id":"levelo_inurba_marseille","lat":43.29551,"lon":5.422798,"is_reserved":false,"is_disabled":false,"rental_uris":{"android":"levelo://app?vid=7d63c8b9-6ecb-4131-b03e-152674ce59e2","ios":"levelo://app?vid=7d63c8b9-6ecb-4131-b03e-152674ce59e2"},"vehicle_type_id":"4","last_reported":1756192286,"current_range_meters":6800,"station_id":"ce4bhph2rcd13ifvqhdg","pricing_plan_id":"cebpf4jnsgd1na2vs0mg"},{"bike_id":"b2dc4ab3-2395-4d9f-8e07-ef1f157dc94e","system_id":"levelo_inurba_marseille","lat":43.24171,"lon":5.36399,"is_reserved":false,"is_disabled":false,"rental_uris":{"android":"levelo://app?vid=b2dc4ab3-2395-4d9f-8e07-ef1f157dc94e","ios":"levelo://app?vid=b2dc4ab3-2395-4d9f-8e07-ef1f157dc94e"},"vehicle_type_id":"4","last_reported":1756192286,"current_range_meters":8000,"station_id":"cpo36qri1sfpv3e86is0","pricing_plan_id":"cebpf4jnsgd1na2vs0mg"},{"bike_id":"f1fe5379-1bdf-4970-ae21-6bf7f8fac95a","system_id":"levelo_inurba_marseille","lat":43.29521,"lon":5.37572,"is_reserved":false,"is_disabled":false,"rental_uris":{"android":"levelo://app?vid=f1fe5379-1bdf-4970-ae21-6bf7f8fac95a","ios":"levelo://app?vid=f1fe5379-1bdf-4970-ae21-6bf7f8fac95a"},"vehicle_type_id":"4","last_reported":1756192286,"current_range_meters":8000,"station_id":"","pricing_plan_id":"cebpf4jnsgd1na2vs0mg"},{"bike_id":"aa451548-c972-41c4-8a2c-7ee9b4b3356b","system_id":"levelo_inurba_marseille","lat":43.31487,"lon":5.37307,"is_reserved":false,"is_disabled":false,"rental_uris":{"android":"levelo://app?vid=aa451548-c972-41c4-8a2c-7ee9b4b3356b","ios":"levelo://app?vid=aa451548-c972-41c4-8a2c-7ee9b4b3356b"},"vehicle_type_id":"4","last_reported":1756192286,"current_range_meters":8000,"station_id":"ce4bgt12rcd13ifvqcd0","pricing_plan_id":"cebpf4jnsgd1na2vs0mg"},{"bike_id":"e8eb7a1e-ea14-4883-a1e0-2f92f1badc7e","system_id":"levelo_inurba_marseille","lat":43.32974,"lon":5.35912,"is_reserved":false,"is_disabled":false,"rental_uris":{"android":"levelo://app?vid=e8eb7a1e-ea14-4883-a1e0-2f92f1badc7e","ios":"levelo://app?vid=e8eb7a1e-ea14-4883-a1e0-2f92f1badc7e"},"vehicle_type_id":"4","last_reported":1756192286,"current_range_meters":8400,"station_id":"","pricing_plan_id":"cebpf4jnsgd1na2vs0mg"},{"bike_id":"08859a23-b1a3-4624-9905-ce9d051ac126","system_id":"levelo_inurba_marseille","lat":43.24996,"lon":5.38935,"is_reserved":false,"is_disabled":false,"rental_uris":{"android":"levelo://app?vid=08859a23-b1a3-4624-9905-ce9d051ac126","ios":"levelo://app?vid=08859a23-b1a3-4624-9905-ce9d051ac126"},"vehicle_type_id":"4","last_reported":1756192286,"current_range_meters":8400,"station_id":"ce4bhgp2rcd13ifvqfd0","pricing_plan_id":"cebpf4jnsgd1na2vs0mg"},{"bike_id":"57765e87-2c69-4f5b-8dfd-0c1c360ee4a4","system_id":"levelo_inurba_marseille","lat":43.29715,"lon":5.37729,"is_reserved":false,"is_disabled":false,"rental_uris":{"android":"levelo://app?vid=57765e87-2c69-4f5b-8dfd-0c1c360ee4a4","ios":"levelo://app?vid=57765e87-2c69-4f5b-8dfd-0c1c360ee4a4"},"vehicle_type_id":"4","last_reported":1756192286,"current_range_meters":8800,"station_id":"ce4bgkh2rcd13ifvqbl0","pricing_plan_id":"cebpf4jnsgd1na2vs0mg"},{"bike_id":"1b831d00-ee3f-465f-ad91-e6378b2d7840","system_id":"levelo_inurba_marseille","lat":43.24162,"lon":5.39716,"is_reserved":false,"is_disabled":false,"rental_uris":{"android":"levelo://app?vid=1b831d00-ee3f-465f-ad91-e6378b2d7840","ios":"levelo://app?vid=1b831d00-ee3f-465f-ad91-e6378b2d7840"},"vehicle_type_id":"4","last_reported":1756192286,"current_range_meters":8800,"station_id":"ce4bhn12rcd13ifvqgpg","pricing_plan_id":"cebpf4jnsgd1na2vs0mg"},{"bike_id":"236f1a17-bd84-4b8e-977f-7df7d8cf402c","system_id":"levelo_inurba_marseille","lat":43.30815,"lon":5.43534,"is_reserved":false,"is_disabled":true,"rental_uris":{"android":"levelo://app?vid=236f1a17-bd84-4b8e-977f-7df7d8cf402c","ios":"levelo://app?vid=236f1a17-bd84-4b8e-977f-7df7d8cf402c"},"vehicle_type_id":"4","last_reported":1756192286,"current_range_meters":8800,"station_id":"ce4bhph2rcd13ifvqheg","pricing_plan_id":"cebpf4jnsgd1na2vs0mg"},{"bike_id":"0d944743-e134-48e5-94b4-4ee23c5bf363","system_id":"levelo_inurba_marseille","lat":43.23148,"lon":5.43716,"is_reserved":false,"is_disabled":false,"rental_uris":{"android":"levelo://app?vid=0d944743-e134-48e5-94b4-4ee23c5bf363","ios":"levelo://app?vid=0d944743-e134-48e5-94b4-4ee23c5bf363"},"vehicle_type_id":"4","last_reported":1756192286,"current_range_meters":8800,"station_id":"ce4bhmp2rcd13ifvqgog","pricing_plan_id":"cebpf4jnsgd1na2vs0mg"},{"bike_id":"73a68aec-9723-43c7-a494-6d76d73f9e76","system_id":"levelo_inurba_marseille","lat":43.31354,"lon":5.36744,"is_reserved":false,"is_disabled":false,"rental_uris":{"android":"levelo://app?vid=73a68aec-9723-43c7-a494-6d76d73f9e76","ios":"levelo://app?vid=73a68aec-9723-43c7-a494-6d76d73f9e76"},"vehicle_type_id":"4","last_reported":1756192286,"current_range_meters":8800,"station_id":"ce4bgr92rcd13ifvqc6g","pricing_plan_id":"cebpf4jnsgd1na2vs0mg"},{"bike_id":"4b38a201-9f34-4829-94d8-c287fe3cc191","system_id":"levelo_inurba_marseille","lat":43.29633,"lon":5.37729,"is_reserved":false,"is_disabled":false,"rental_uris":{"android":"levelo://app?vid=4b38a201-9f34-4829-94d8-c287fe3cc191","ios":"levelo://app?vid=4b38a201-9f34-4829-94d8-c287fe3cc191"},"vehicle_type_id":"4","last_reported":1756192286,"current_range_meters":9200,"station_id":"ce4bgi92rcd13ifvqb90","pricing_plan_id":"cebpf4jnsgd1na2vs0mg"},{"bike_id":"445c1054-bee8-4a43-9c99-b27a8cb1ed24","system_id":"levelo_inurba_marseille","lat":43.29207,"lon":5.35808,"is_reserved":false,"is_disabled":false,"rental_uris":{"android":"levelo://app?vid=445c1054-bee8-4a43-9c99-b27a8cb1ed24","ios":"levelo://app?vid=445c1054-bee8-4a43-9c99-b27a8cb1ed24"},"vehicle_type_id":"4","last_reported":1756192286,"current_range_meters":9200,"station_id":"ce4bhb12rcd13ifvqel0","pricing_plan_id":"cebpf4jnsgd1na2vs0mg"},{"bike_id":"82f40508-9f52-4576-9289-7eca3f50c38a","system_id":"levelo_inurba_marseille","lat":43.24073,"lon":5.37766,"is_reserved":false,"is_disabled":false,"rental_uris":{"android":"levelo://app?vid=82f40508-9f52-4576-9289-7eca3f50c38a","ios":"levelo://app?vid=82f40508-9f52-4576-9289-7eca3f50c38a"},"vehicle_type_id":"4","last_reported":1756192286,"current_range_meters":9200,"station_id":"ce4bhnp2rcd13ifvqgvg","pricing_plan_id":"cebpf4jnsgd1na2vs0mg"},{"bike_id":"332772a0-95ef-40ed-966c-090bba7d5eab","system_id":"levelo_inurba_marseille","lat":43.26509,"lon":5.39532,"is_reserved":false,"is_disabled":false,"rental_uris":{"android":"levelo://app?vid=332772a0-95ef-40ed-966c-090bba7d5eab","ios":"levelo://app?vid=332772a0-95ef-40ed-966c-090bba7d5eab"},"vehicle_type_id":"4","last_reported":1756192286,"current_range_meters":8800,"station_id":"ce4bhi12rcd13ifvqfq0","pricing_plan_id":"cebpf4jnsgd1na2vs0mg"},{"bike_id":"cf93c4ee-d651-4e4b-8eb4-36e27ff7b702","system_id":"levelo_inurba_marseille","lat":43.284294,"lon":5.349722,"is_reserved":false,"is_disabled":false,"rental_uris":{"android":"levelo://app?vid=cf93c4ee-d651-4e4b-8eb4-36e27ff7b702","ios":"levelo://app?vid=cf93c4ee-d651-4e4b-8eb4-36e27ff7b702"},"vehicle_type_id":"4","last_reported":1756192286,"current_range_meters":9200,"station_id":"ce4bhbp2rcd13ifvqerg","pricing_plan_id":"cebpf4jnsgd1na2vs0mg"},{"bike_id":"da3dcda2-5945-49ef-a460-0e5616626c06","system_id":"levelo_inurba_marseille","lat":43.249968,"lon":5.389388,"is_reserved":false,"is_disabled":false,"rental_uris":{"android":"levelo://app?vid=da3dcda2-5945-49ef-a460-0e5616626c06","ios":"levelo://app?vid=da3dcda2-5945-49ef-a460-0e5616626c06"},"vehicle_type_id":"4","last_reported":1756192286,"current_range_meters":9200,"station_id":"ce4bhgp2rcd13ifvqfd0","pricing_plan_id":"cebpf4jnsgd1na2vs0mg"},{"bike_id":"7203aa12-6f27-4868-bb54-60c3b620f3ff","system_id":"levelo_inurba_marseille","lat":43.295216,"lon":5.394058,"is_reserved":false,"is_disabled":true,"rental_uris":{"android":"levelo://app?vid=7203aa12-6f27-4868-bb54-60c3b620f3ff","ios":"levelo://app?vid=7203aa12-6f27-4868-bb54-60c3b620f3ff"},"vehicle_type_id":"4","last_reported":1756192286,"current_range_meters":9600,"station_id":"ce4bh292rcd13ifvqdf0","pricing_plan_id":"cebpf4jnsgd1na2vs0mg"},{"bike_id":"abd2b76a-8acb-40a1-b6d2-d307611a4aa0","system_id":"levelo_inurba_marseille","lat":43.303887,"lon":5.373754,"is_reserved":false,"is_disabled":false,"rental_uris":{"android":"levelo://app?vid=abd2b76a-8acb-40a1-b6d2-d307611a4aa0","ios":"levelo://app?vid=abd2b76a-8acb-40a1-b6d2-d307611a4aa0"},"vehicle_type_id":"4","last_reported":1756192286,"current_range_meters":9600,"station_id":"","pricing_plan_id":"cebpf4jnsgd1na2vs0mg"},{"bike_id":"894577d7-899f-40a8-89ef-32dee6c5a671","system_id":"levelo_inurba_marseille","lat":43.242256,"lon":5.396914,"is_reserved":false,"is_disabled":false,"rental_uris":{"android":"levelo://app?vid=894577d7-899f-40a8-89ef-32dee6c5a671","ios":"levelo://app?vid=894577d7-899f-40a8-89ef-32dee6c5a671"},"vehicle_type_id":"4","last_reported":1756192286,"current_range_meters":9600,"station_id":"ce4bhn12rcd13ifvqgpg","pricing_plan_id":"cebpf4jnsgd1na2vs0mg"},{"bike_id":"df75f1fa-75ae-4074-a5b6-5911a8c1b6a8","system_id":"levelo_inurba_marseille","lat":43.30752,"lon":5.37172,"is_reserved":false,"is_disabled":false,"rental_uris":{"android":"levelo://app?vid=df75f1fa-75ae-4074-a5b6-5911a8c1b6a8","ios":"levelo://app?vid=df75f1fa-75ae-4074-a5b6-5911a8c1b6a8"},"vehicle_type_id":"4","last_reported":1756192286,"current_range_meters":9600,"station_id":"","pricing_plan_id":"cebpf4jnsgd1na2vs0mg"},{"bike_id":"c27f3b24-32ef-4905-a33d-9a2c44907bce","system_id":"levelo_inurba_marseille","lat":43.32482,"lon":5.36564,"is_reserved":false,"is_disabled":false,"rental_uris":{"android":"levelo://app?vid=c27f3b24-32ef-4905-a33d-9a2c44907bce","ios":"levelo://app?vid=c27f3b24-32ef-4905-a33d-9a2c44907bce"},"vehicle_type_id":"4","last_reported":1756192286,"current_range_meters":10000,"station_id":"ce4bhs12rcd13ifvqhvg","pricing_plan_id":"cebpf4jnsgd1na2vs0mg"},{"bike_id":"1c40324b-ea10-457f-8bec-2d27c44058c1","system_id":"levelo_inurba_marseille","lat":43.30797,"lon":5.38167,"is_reserved":false,"is_disabled":false,"rental_uris":{"android":"levelo://app?vid=1c40324b-ea10-457f-8bec-2d27c44058c1","ios":"levelo://app?vid=1c40324b-ea10-457f-8bec-2d27c44058c1"},"vehicle_type_id":"4","last_reported":1756192286,"current_range_meters":10000,"station_id":"ce4bgt12rcd13ifvqce0","pricing_plan_id":"cebpf4jnsgd1na2vs0mg"},{"bike_id":"1cd21559-399f-4936-b4ac-cb1d7223c9c3","system_id":"levelo_inurba_marseille","lat":43.239957,"lon":5.362702,"is_reserved":false,"is_disabled":false,"rental_uris":{"android":"levelo://app?vid=1cd21559-399f-4936-b4ac-cb1d7223c9c3","ios":"levelo://app?vid=1cd21559-399f-4936-b4ac-cb1d7223c9c3"},"vehicle_type_id":"4","last_reported":1756192286,"current_range_meters":10000,"station_id":"","pricing_plan_id":"cebpf4jnsgd1na2vs0mg"},{"bike_id":"8857da2d-18c4-4517-ab0f-603ccd2730ac","system_id":"levelo_inurba_marseille","lat":43.30442,"lon":5.37911,"is_reserved":false,"is_disabled":false,"rental_uris":{"android":"levelo://app?vid=8857da2d-18c4-4517-ab0f-603ccd2730ac","ios":"levelo://app?vid=8857da2d-18c4-4517-ab0f-603ccd2730ac"},"vehicle_type_id":"4","last_reported":1756192286,"current_range_meters":10800,"station_id":"ce4bgup2rcd13ifvqcn0","pricing_plan_id":"cebpf4jnsgd1na2vs0mg"},{"bike_id":"13ca7797-00d8-41a0-8d1a-2644e37419ca","system_id":"levelo_inurba_marseille","lat":43.286167,"lon":5.35095,"is_reserved":false,"is_disabled":true,"rental_uris":{"android":"levelo://app?vid=13ca7797-00d8-41a0-8d1a-2644e37419ca","ios":"levelo://app?vid=13ca7797-00d8-41a0-8d1a-2644e37419ca"},"vehicle_type_id":"4","last_reported":1756192286,"current_range_meters":10800,"station_id":"ce4bhch2rcd13ifvqeug","pricing_plan_id":"cebpf4jnsgd1na2vs0mg"},{"bike_id":"e59d7723-76fb-4bbd-b741-d84b788526bf","system_id":"levelo_inurba_marseille","lat":43.3361,"lon":5.41008,"is_reserved":false,"is_disabled":false,"rental_uris":{"android":"levelo://app?vid=e59d7723-76fb-4bbd-b741-d84b788526bf","ios":"levelo://app?vid=e59d7723-76fb-4bbd-b741-d84b788526bf"},"vehicle_type_id":"4","last_reported":1756192286,"current_range_meters":10800,"station_id":"ce4bhqh2rcd13ifvqhmg","pricing_plan_id":"cebpf4jnsgd1na2vs0mg"},{"bike_id":"59b8883a-12e1-4e89-947d-000da9e14d2a","system_id":"levelo_inurba_marseille","lat":43.25908,"lon":5.40932,"is_reserved":false,"is_disabled":false,"rental_uris":{"android":"levelo://app?vid=59b8883a-12e1-4e89-947d-000da9e14d2a","ios":"levelo://app?vid=59b8883a-12e1-4e89-947d-000da9e14d2a"},"vehicle_type_id":"4","last_reported":1756192286,"current_range_meters":10800,"station_id":"ce4bhm92rcd13ifvqglg","pricing_plan_id":"cebpf4jnsgd1na2vs0mg"},{"bike_id":"268cd559-7a2d-4e5c-bedb-fd24d5efe9ac","system_id":"levelo_inurba_marseille","lat":43.326576,"lon":5.409898,"is_reserved":false,"is_disabled":false,"rental_uris":{"android":"levelo://app?vid=268cd559-7a2d-4e5c-bedb-fd24d5efe9ac","ios":"levelo://app?vid=268cd559-7a2d-4e5c-bedb-fd24d5efe9ac"},"vehicle_type_id":"4","last_reported":1756192286,"current_range_meters":10800,"station_id":"ce4bhpp2rcd13ifvqhgg","pricing_plan_id":"cebpf4jnsgd1na2vs0mg"},{"bike_id":"8d5aa43f-71c2-4ae7-9e5a-76a7bb497f4d","system_id":"levelo_inurba_marseille","lat":43.29041,"lon":5.39949,"is_reserved":false,"is_disabled":false,"rental_uris":{"android":"levelo://app?vid=8d5aa43f-71c2-4ae7-9e5a-76a7bb497f4d","ios":"levelo://app?vid=8d5aa43f-71c2-4ae7-9e5a-76a7bb497f4d"},"vehicle_type_id":"4","last_reported":1756192286,"current_range_meters":10800,"station_id":"ce4bh392rcd13ifvqdm0","pricing_plan_id":"cebpf4jnsgd1na2vs0mg"},{"bike_id":"cc82e8b9-1589-4283-bc60-154bc237d57d","system_id":"levelo_inurba_marseille","lat":43.33736,"lon":5.39195,"is_reserved":false,"is_disabled":false,"rental_uris":{"android":"levelo://app?vid=cc82e8b9-1589-4283-bc60-154bc237d57d","ios":"levelo://app?vid=cc82e8b9-1589-4283-bc60-154bc237d57d"},"vehicle_type_id":"4","last_reported":1756192286,"current_range_meters":11200,"station_id":"ce4bhr92rcd13ifvqhsg","pricing_plan_id":"cebpf4jnsgd1na2vs0mg"},{"bike_id":"f91f42e7-b614-4ed7-8397-f49444fbef75","system_id":"levelo_inurba_marseille","lat":43.29793,"lon":5.39345,"is_reserved":false,"is_disabled":false,"rental_uris":{"android":"levelo://app?vid=f91f42e7-b614-4ed7-8397-f49444fbef75","ios":"levelo://app?vid=f91f42e7-b614-4ed7-8397-f49444fbef75"},"vehicle_type_id":"4","last_reported":1756192286,"current_range_meters":11200,"station_id":"chh1huq6cuj3fo74tm60","pricing_plan_id":"cebpf4jnsgd1na2vs0mg"},{"bike_id":"3fdab342-812b-4e87-a622-3fd4fcd806fa","system_id":"levelo_inurba_marseille","lat":43.31252,"lon":5.36842,"is_reserved":false,"is_disabled":false,"rental_uris":{"android":"levelo://app?vid=3fdab342-812b-4e87-a622-3fd4fcd806fa","ios":"levelo://app?vid=3fdab342-812b-4e87-a622-3fd4fcd806fa"},"vehicle_type_id":"4","last_reported":1756192286,"current_range_meters":11200,"station_id":"ce4bgl92rcd13ifvqbq0","pricing_plan_id":"cebpf4jnsgd1na2vs0mg"},{"bike_id":"f8ba194b-a517-4e16-a72a-ef3d3dfe9647","system_id":"levelo_inurba_marseille","lat":43.266868,"lon":5.382743,"is_reserved":false,"is_disabled":false,"rental_uris":{"android":"levelo://app?vid=f8ba194b-a517-4e16-a72a-ef3d3dfe9647","ios":"levelo://app?vid=f8ba194b-a517-4e16-a72a-ef3d3dfe9647"},"vehicle_type_id":"4","last_reported":1756192286,"current_range_meters":11200,"station_id":"ce4bhg92rcd13ifvqf90","pricing_plan_id":"cebpf4jnsgd1na2vs0mg"},{"bike_id":"a7eb1621-fe48-4826-b4a9-10f2e8984e50","system_id":"levelo_inurba_marseille","lat":43.265544,"lon":5.372864,"is_reserved":false,"is_disabled":false,"rental_uris":{"android":"levelo://app?vid=a7eb1621-fe48-4826-b4a9-10f2e8984e50","ios":"levelo://app?vid=a7eb1621-fe48-4826-b4a9-10f2e8984e50"},"vehicle_type_id":"4","last_reported":1756192286,"current_range_meters":11200,"station_id":"ce4bhg12rcd13ifvqf70","pricing_plan_id":"cebpf4jnsgd1na2vs0mg"},{"bike_id":"bea9b573-b0c0-471b-a983-7d2a5da760bb","system_id":"levelo_inurba_marseille","lat":43.30401,"lon":5.42447,"is_reserved":false,"is_disabled":false,"rental_uris":{"android":"levelo://app?vid=bea9b573-b0c0-471b-a983-7d2a5da760bb","ios":"levelo://app?vid=bea9b573-b0c0-471b-a983-7d2a5da760bb"},"vehicle_type_id":"4","last_reported":1756192286,"current_range_meters":11600,"station_id":"ce4bghh2rcd13ifvqb60","pricing_plan_id":"cebpf4jnsgd1na2vs0mg"},{"bike_id":"4e326991-524a-498f-8eda-9c8ae7d86a4d","system_id":"levelo_inurba_marseille","lat":43.30554,"lon":5.36538,"is_reserved":false,"is_disabled":false,"rental_uris":{"android":"levelo://app?vid=4e326991-524a-498f-8eda-9c8ae7d86a4d","ios":"levelo://app?vid=4e326991-524a-498f-8eda-9c8ae7d86a4d"},"vehicle_type_id":"4","last_reported":1756192286,"current_range_meters":11600,"station_id":"ce4bgs12rcd13ifvqcag","pricing_plan_id":"cebpf4jnsgd1na2vs0mg"},{"bike_id":"9d273000-f055-4150-a81c-454c38a03885","system_id":"levelo_inurba_marseille","lat":43.24182,"lon":5.3972,"is_reserved":false,"is_disabled":false,"rental_uris":{"android":"levelo://app?vid=9d273000-f055-4150-a81c-454c38a03885","ios":"levelo://app?vid=9d273000-f055-4150-a81c-454c38a03885"},"vehicle_type_id":"4","last_reported":1756192286,"current_range_meters":11600,"station_id":"ce4bhn12rcd13ifvqgpg","pricing_plan_id":"cebpf4jnsgd1na2vs0mg"},{"bike_id":"2cb3c564-fbdd-46e4-9a16-b8f4e6f31c63","system_id":"levelo_inurba_marseille","lat":43.26082,"lon":5.39415,"is_reserved":false,"is_disabled":true,"rental_uris":{"android":"levelo://app?vid=2cb3c564-fbdd-46e4-9a16-b8f4e6f31c63","ios":"levelo://app?vid=2cb3c564-fbdd-46e4-9a16-b8f4e6f31c63"},"vehicle_type_id":"4","last_reported":1756192286,"current_range_meters":12000,"station_id":"ce4bhh92rcd13ifvqfj0","pricing_plan_id":"cebpf4jnsgd1na2vs0mg"},{"bike_id":"cb4009e1-c160-484f-86c6-dec2b475f3bd","system_id":"levelo_inurba_marseille","lat":43.30541,"lon":5.36706,"is_reserved":false,"is_disabled":true,"rental_uris":{"android":"levelo://app?vid=cb4009e1-c160-484f-86c6-dec2b475f3bd","ios":"levelo://app?vid=cb4009e1-c160-484f-86c6-dec2b475f3bd"},"vehicle_type_id":"4","last_reported":1756192286,"current_range_meters":12000,"station_id":"ce4bgrp2rcd13ifvqc9g","pricing_plan_id":"cebpf4jnsgd1na2vs0mg"},{"bike_id":"66fe0d3d-3f11-4f9b-b708-9233fa227550","system_id":"levelo_inurba_marseille","lat":43.31447,"lon":5.37369,"is_reserved":false,"is_disabled":false,"rental_uris":{"android":"levelo://app?vid=66fe0d3d-3f11-4f9b-b708-9233fa227550","ios":"levelo://app?vid=66fe0d3d-3f11-4f9b-b708-9233fa227550"},"vehicle_type_id":"4","last_reported":1756192286,"current_range_meters":12000,"station_id":"","pricing_plan_id":"cebpf4jnsgd1na2vs0mg"},{"bike_id":"999f1b99-11e2-4673-abf1-59581d0753f4","system_id":"levelo_inurba_marseille","lat":43.21749,"lon":5.34611,"is_reserved":false,"is_disabled":false,"rental_uris":{"android":"levelo://app?vid=999f1b99-11e2-4673-abf1-59581d0753f4","ios":"levelo://app?vid=999f1b99-11e2-4673-abf1-59581d0753f4"},"vehicle_type_id":"4","last_reported":1756192286,"current_range_meters":12000,"station_id":"st_cvj6r9ubvosntc0bgbag","pricing_plan_id":"cebpf4jnsgd1na2vs0mg"},{"bike_id":"8b09d6e8-3175-46a4-a882-3f13b9ad4be3","system_id":"levelo_inurba_marseille","lat":43.246344,"lon":5.431475,"is_reserved":false,"is_disabled":false,"rental_uris":{"android":"levelo://app?vid=8b09d6e8-3175-46a4-a882-3f13b9ad4be3","ios":"levelo://app?vid=8b09d6e8-3175-46a4-a882-3f13b9ad4be3"},"vehicle_type_id":"4","last_reported":1756192286,"current_range_meters":12000,"station_id":"st_d2m6c4gdas8pm72e190g","pricing_plan_id":"cebpf4jnsgd1na2vs0mg"},{"bike_id":"909f8a34-207c-47bc-a045-0789f6825cce","system_id":"levelo_inurba_marseille","lat":43.21743,"lon":5.34592,"is_reserved":false,"is_disabled":true,"rental_uris":{"android":"levelo://app?vid=909f8a34-207c-47bc-a045-0789f6825cce","ios":"levelo://app?vid=909f8a34-207c-47bc-a045-0789f6825cce"},"vehicle_type_id":"4","last_reported":1756192286,"current_range_meters":12000,"station_id":"st_cvj6r9ubvosntc0bgbag","pricing_plan_id":"cebpf4jnsgd1na2vs0mg"},{"bike_id":"dce577a5-abf4-4b19-951f-52d436009f04","system_id":"levelo_inurba_marseille","lat":43.28613,"lon":5.37082,"is_reserved":false,"is_disabled":false,"rental_uris":{"android":"levelo://app?vid=dce577a5-abf4-4b19-951f-52d436009f04","ios":"levelo://app?vid=dce577a5-abf4-4b19-951f-52d436009f04"},"vehicle_type_id":"4","last_reported":1756192286,"current_range_meters":12000,"station_id":"ce4bht12rcd13ifvqi60","pricing_plan_id":"cebpf4jnsgd1na2vs0mg"},{"bike_id":"c5f1f2c3-b65f-4c74-af9e-a412f293dffa","system_id":"levelo_inurba_marseille","lat":43.25945,"lon":5.409,"is_reserved":false,"is_disabled":false,"rental_uris":{"android":"levelo://app?vid=c5f1f2c3-b65f-4c74-af9e-a412f293dffa","ios":"levelo://app?vid=c5f1f2c3-b65f-4c74-af9e-a412f293dffa"},"vehicle_type_id":"4","last_reported":1756192286,"current_range_meters":12000,"station_id":"ce4bhm92rcd13ifvqglg","pricing_plan_id":"cebpf4jnsgd1na2vs0mg"},{"bike_id":"89f7b340-1be7-40f8-a3ee-1bb5c0729786","system_id":"levelo_inurba_marseille","lat":43.325335,"lon":5.414333,"is_reserved":false,"is_disabled":true,"rental_uris":{"android":"levelo://app?vid=89f7b340-1be7-40f8-a3ee-1bb5c0729786","ios":"levelo://app?vid=89f7b340-1be7-40f8-a3ee-1bb5c0729786"},"vehicle_type_id":"4","last_reported":1756192286,"current_range_meters":12000,"station_id":"ce4bhq12rcd13ifvqhhg","pricing_plan_id":"cebpf4jnsgd1na2vs0mg"},{"bike_id":"7b7beb2b-325f-4ec9-af4f-3ed2d55f70e7","system_id":"levelo_inurba_marseille","lat":43.24393,"lon":5.37062,"is_reserved":false,"is_disabled":false,"rental_uris":{"android":"levelo://app?vid=7b7beb2b-325f-4ec9-af4f-3ed2d55f70e7","ios":"levelo://app?vid=7b7beb2b-325f-4ec9-af4f-3ed2d55f70e7"},"vehicle_type_id":"4","last_reported":1756192286,"current_range_meters":12400,"station_id":"ce4bhhh2rcd13ifvqfk0","pricing_plan_id":"cebpf4jnsgd1na2vs0mg"},{"bike_id":"632030b5-1498-47c0-aa28-dfb19d01a1ea","system_id":"levelo_inurba_marseille","lat":43.26215,"lon":5.37438,"is_reserved":false,"is_disabled":false,"rental_uris":{"android":"levelo://app?vid=632030b5-1498-47c0-aa28-dfb19d01a1ea","ios":"levelo://app?vid=632030b5-1498-47c0-aa28-dfb19d01a1ea"},"vehicle_type_id":"4","last_reported":1756192286,"current_range_meters":12400,"station_id":"ce4bhgp2rcd13ifvqfc0","pricing_plan_id":"cebpf4jnsgd1na2vs0mg"},{"bike_id":"c8f19ab0-2650-42bf-bf99-315bb14cecb1","system_id":"levelo_inurba_marseille","lat":43.32364,"lon":5.36745,"is_reserved":false,"is_disabled":false,"rental_uris":{"android":"levelo://app?vid=c8f19ab0-2650-42bf-bf99-315bb14cecb1","ios":"levelo://app?vid=c8f19ab0-2650-42bf-bf99-315bb14cecb1"},"vehicle_type_id":"4","last_reported":1756192286,"current_range_meters":12400,"station_id":"ce4bhsh2rcd13ifvqi2g","pricing_plan_id":"cebpf4jnsgd1na2vs0mg"},{"bike_id":"b6d727d8-b5ab-46d2-9978-fd5ba1dad8e0","system_id":"levelo_inurba_marseille","lat":43.30914,"lon":5.3686,"is_reserved":false,"is_disabled":false,"rental_uris":{"android":"levelo://app?vid=b6d727d8-b5ab-46d2-9978-fd5ba1dad8e0","ios":"levelo://app?vid=b6d727d8-b5ab-46d2-9978-fd5ba1dad8e0"},"vehicle_type_id":"4","last_reported":1756192286,"current_range_meters":12800,"station_id":"ce4bgn92rcd13ifvqbvg","pricing_plan_id":"cebpf4jnsgd1na2vs0mg"},{"bike_id":"e2b41c8d-b7be-4c7b-ad76-1f3c49f5b69f","system_id":"levelo_inurba_marseille","lat":43.29045,"lon":5.39963,"is_reserved":false,"is_disabled":false,"rental_uris":{"android":"levelo://app?vid=e2b41c8d-b7be-4c7b-ad76-1f3c49f5b69f","ios":"levelo://app?vid=e2b41c8d-b7be-4c7b-ad76-1f3c49f5b69f"},"vehicle_type_id":"4","last_reported":1756192286,"current_range_meters":12800,"station_id":"ce4bh392rcd13ifvqdm0","pricing_plan_id":"cebpf4jnsgd1na2vs0mg"},{"bike_id":"d9c15453-b5ae-4ee6-89d7-eac692c3dc4e","system_id":"levelo_inurba_marseille","lat":43.31345,"lon":5.367222,"is_reserved":false,"is_disabled":false,"rental_uris":{"android":"levelo://app?vid=d9c15453-b5ae-4ee6-89d7-eac692c3dc4e","ios":"levelo://app?vid=d9c15453-b5ae-4ee6-89d7-eac692c3dc4e"},"vehicle_type_id":"4","last_reported":1756192286,"current_range_meters":12800,"station_id":"ce4bgr92rcd13ifvqc6g","pricing_plan_id":"cebpf4jnsgd1na2vs0mg"},{"bike_id":"3e130ff4-87da-4c51-a264-44d1f277fd66","system_id":"levelo_inurba_marseille","lat":43.321053,"lon":5.367694,"is_reserved":false,"is_disabled":false,"rental_uris":{"android":"levelo://app?vid=3e130ff4-87da-4c51-a264-44d1f277fd66","ios":"levelo://app?vid=3e130ff4-87da-4c51-a264-44d1f277fd66"},"vehicle_type_id":"4","last_reported":1756192286,"current_range_meters":12800,"station_id":"ce4bhrh2rcd13ifvqhug","pricing_plan_id":"cebpf4jnsgd1na2vs0mg"},{"bike_id":"1468eab0-be81-40af-87ce-71e506397436","system_id":"levelo_inurba_marseille","lat":43.28421,"lon":5.38518,"is_reserved":false,"is_disabled":false,"rental_uris":{"android":"levelo://app?vid=1468eab0-be81-40af-87ce-71e506397436","ios":"levelo://app?vid=1468eab0-be81-40af-87ce-71e506397436"},"vehicle_type_id":"4","last_reported":1756192286,"current_range_meters":12800,"station_id":"","pricing_plan_id":"cebpf4jnsgd1na2vs0mg"},{"bike_id":"e2b0f307-cfe9-4ad5-b104-d661fcb0d809","system_id":"levelo_inurba_marseille","lat":43.229274,"lon":5.353669,"is_reserved":false,"is_disabled":false,"rental_uris":{"android":"levelo://app?vid=e2b0f307-cfe9-4ad5-b104-d661fcb0d809","ios":"levelo://app?vid=e2b0f307-cfe9-4ad5-b104-d661fcb0d809"},"vehicle_type_id":"4","last_reported":1756192286,"current_range_meters":13600,"station_id":"cpo3532slgdg3j2ikp40","pricing_plan_id":"cebpf4jnsgd1na2vs0mg"},{"bike_id":"f76684ab-951c-4714-99b7-89112dbfcac8","system_id":"levelo_inurba_marseille","lat":43.29255,"lon":5.38434,"is_reserved":false,"is_disabled":true,"rental_uris":{"android":"levelo://app?vid=f76684ab-951c-4714-99b7-89112dbfcac8","ios":"levelo://app?vid=f76684ab-951c-4714-99b7-89112dbfcac8"},"vehicle_type_id":"4","last_reported":1756192286,"current_range_meters":13600,"station_id":"ce4bh692rcd13ifvqea0","pricing_plan_id":"cebpf4jnsgd1na2vs0mg"},{"bike_id":"7281e09a-a9ed-476e-b467-305d0475346e","system_id":"levelo_inurba_marseille","lat":43.28127,"lon":5.378711,"is_reserved":false,"is_disabled":false,"rental_uris":{"android":"levelo://app?vid=7281e09a-a9ed-476e-b467-305d0475346e","ios":"levelo://app?vid=7281e09a-a9ed-476e-b467-305d0475346e"},"vehicle_type_id":"4","last_reported":1756192286,"current_range_meters":13600,"station_id":"ce4bha12rcd13ifvqee0","pricing_plan_id":"cebpf4jnsgd1na2vs0mg"},{"bike_id":"e86ad534-2dd9-49f1-ba85-7f070b5d0c6c","system_id":"levelo_inurba_marseille","lat":43.30186,"lon":5.3661,"is_reserved":false,"is_disabled":false,"rental_uris":{"android":"levelo://app?vid=e86ad534-2dd9-49f1-ba85-7f070b5d0c6c","ios":"levelo://app?vid=e86ad534-2dd9-49f1-ba85-7f070b5d0c6c"},"vehicle_type_id":"4","last_reported":1756192286,"current_range_meters":13600,"station_id":"ce4bgrh2rcd13ifvqc8g","pricing_plan_id":"cebpf4jnsgd1na2vs0mg"},{"bike_id":"c30b301c-7f7b-494a-8ee4-1d6c5f9cce1b","system_id":"levelo_inurba_marseille","lat":43.28415,"lon":5.37509,"is_reserved":false,"is_disabled":true,"rental_uris":{"android":"levelo://app?vid=c30b301c-7f7b-494a-8ee4-1d6c5f9cce1b","ios":"levelo://app?vid=c30b301c-7f7b-494a-8ee4-1d6c5f9cce1b"},"vehicle_type_id":"4","last_reported":1756192286,"current_range_meters":13600,"station_id":"ce4bh412rcd13ifvqds0","pricing_plan_id":"cebpf4jnsgd1na2vs0mg"},{"bike_id":"a02c36f2-5c73-4274-9dab-3dcfac8b6d0b","system_id":"levelo_inurba_marseille","lat":43.3236,"lon":5.36747,"is_reserved":false,"is_disabled":false,"rental_uris":{"android":"levelo://app?vid=a02c36f2-5c73-4274-9dab-3dcfac8b6d0b","ios":"levelo://app?vid=a02c36f2-5c73-4274-9dab-3dcfac8b6d0b"},"vehicle_type_id":"4","last_reported":1756192286,"current_range_meters":13600,"station_id":"ce4bhsh2rcd13ifvqi2g","pricing_plan_id":"cebpf4jnsgd1na2vs0mg"},{"bike_id":"43e3b119-bc6d-43d6-bd47-b924c0bea29c","system_id":"levelo_inurba_marseille","lat":43.279507,"lon":5.41042,"is_reserved":false,"is_disabled":true,"rental_uris":{"android":"levelo://app?vid=43e3b119-bc6d-43d6-bd47-b924c0bea29c","ios":"levelo://app?vid=43e3b119-bc6d-43d6-bd47-b924c0bea29c"},"vehicle_type_id":"4","last_reported":1756192286,"current_range_meters":13600,"station_id":"ce4bhnp2rcd13ifvqh0g","pricing_plan_id":"cebpf4jnsgd1na2vs0mg"},{"bike_id":"af732ca8-2cea-448a-9928-59e03d12656f","system_id":"levelo_inurba_marseille","lat":43.3357,"lon":5.3588,"is_reserved":false,"is_disabled":false,"rental_uris":{"android":"levelo://app?vid=af732ca8-2cea-448a-9928-59e03d12656f","ios":"levelo://app?vid=af732ca8-2cea-448a-9928-59e03d12656f"},"vehicle_type_id":"4","last_reported":1756192286,"current_range_meters":13600,"station_id":"","pricing_plan_id":"cebpf4jnsgd1na2vs0mg"},{"bike_id":"9ea4ba44-0a89-4da6-8233-a3e868028ec2","system_id":"levelo_inurba_marseille","lat":43.30884,"lon":5.37188,"is_reserved":false,"is_disabled":false,"rental_uris":{"android":"levelo://app?vid=9ea4ba44-0a89-4da6-8233-a3e868028ec2","ios":"levelo://app?vid=9ea4ba44-0a89-4da6-8233-a3e868028ec2"},"vehicle_type_id":"4","last_reported":1756192286,"current_range_meters":13600,"station_id":"ce4bguh2rcd13ifvqckg","pricing_plan_id":"cebpf4jnsgd1na2vs0mg"},{"bike_id":"b375d41b-9575-4c77-a6a9-d089747042e7","system_id":"levelo_inurba_marseille","lat":43.32265,"lon":5.36779,"is_reserved":false,"is_disabled":false,"rental_uris":{"android":"levelo://app?vid=b375d41b-9575-4c77-a6a9-d089747042e7","ios":"levelo://app?vid=b375d41b-9575-4c77-a6a9-d089747042e7"},"vehicle_type_id":"4","last_reported":1756192286,"current_range_meters":14000,"station_id":"","pricing_plan_id":"cebpf4jnsgd1na2vs0mg"},{"bike_id":"644d219c-f0f7-4b2b-bf33-003083b3bc93","system_id":"levelo_inurba_marseille","lat":43.29048,"lon":5.39943,"is_reserved":false,"is_disabled":false,"rental_uris":{"android":"levelo://app?vid=644d219c-f0f7-4b2b-bf33-003083b3bc93","ios":"levelo://app?vid=644d219c-f0f7-4b2b-bf33-003083b3bc93"},"vehicle_type_id":"4","last_reported":1756192286,"current_range_meters":14000,"station_id":"ce4bh392rcd13ifvqdm0","pricing_plan_id":"cebpf4jnsgd1na2vs0mg"},{"bike_id":"0005b112-9341-46f3-983d-4174eb3a8e0b","system_id":"levelo_inurba_marseille","lat":43.30297,"lon":5.39206,"is_reserved":false,"is_disabled":true,"rental_uris":{"android":"levelo://app?vid=0005b112-9341-46f3-983d-4174eb3a8e0b","ios":"levelo://app?vid=0005b112-9341-46f3-983d-4174eb3a8e0b"},"vehicle_type_id":"4","last_reported":1756192286,"current_range_meters":14000,"station_id":"ce4bgkh2rcd13ifvqbk0","pricing_plan_id":"cebpf4jnsgd1na2vs0mg"},{"bike_id":"83e818dd-7ff3-45dd-b46a-ecfe9cbc3bf8","system_id":"levelo_inurba_marseille","lat":43.26215,"lon":5.37439,"is_reserved":false,"is_disabled":false,"rental_uris":{"android":"levelo://app?vid=83e818dd-7ff3-45dd-b46a-ecfe9cbc3bf8","ios":"levelo://app?vid=83e818dd-7ff3-45dd-b46a-ecfe9cbc3bf8"},"vehicle_type_id":"4","last_reported":1756192286,"current_range_meters":14000,"station_id":"ce4bhgp2rcd13ifvqfc0","pricing_plan_id":"cebpf4jnsgd1na2vs0mg"},{"bike_id":"531d9ab7-49a5-4eb1-b075-60a9e93e5981","system_id":"levelo_inurba_marseille","lat":43.30473,"lon":5.37926,"is_reserved":false,"is_disabled":false,"rental_uris":{"android":"levelo://app?vid=531d9ab7-49a5-4eb1-b075-60a9e93e5981","ios":"levelo://app?vid=531d9ab7-49a5-4eb1-b075-60a9e93e5981"},"vehicle_type_id":"4","last_reported":1756192286,"current_range_meters":14000,"station_id":"ce4bgup2rcd13ifvqcn0","pricing_plan_id":"cebpf4jnsgd1na2vs0mg"},{"bike_id":"b171250d-876e-4452-8b26-adff8e652ae4","system_id":"levelo_inurba_marseille","lat":43.31348,"lon":5.36728,"is_reserved":false,"is_disabled":false,"rental_uris":{"android":"levelo://app?vid=b171250d-876e-4452-8b26-adff8e652ae4","ios":"levelo://app?vid=b171250d-876e-4452-8b26-adff8e652ae4"},"vehicle_type_id":"4","last_reported":1756192286,"current_range_meters":14000,"station_id":"ce4bgr92rcd13ifvqc6g","pricing_plan_id":"cebpf4jnsgd1na2vs0mg"},{"bike_id":"9f054f8f-d35b-400d-a403-3ab8cb74cb27","system_id":"levelo_inurba_marseille","lat":43.21192,"lon":5.35073,"is_reserved":false,"is_disabled":true,"rental_uris":{"android":"levelo://app?vid=9f054f8f-d35b-400d-a403-3ab8cb74cb27","ios":"levelo://app?vid=9f054f8f-d35b-400d-a403-3ab8cb74cb27"},"vehicle_type_id":"4","last_reported":1756192286,"current_range_meters":14000,"station_id":"st_cvj6sg6p6f1abm77japg","pricing_plan_id":"cebpf4jnsgd1na2vs0mg"},{"bike_id":"01de5ba1-a2da-410f-af14-e598f08ba416","system_id":"levelo_inurba_marseille","lat":43.30531,"lon":5.384274,"is_reserved":false,"is_disabled":false,"rental_uris":{"android":"levelo://app?vid=01de5ba1-a2da-410f-af14-e598f08ba416","ios":"levelo://app?vid=01de5ba1-a2da-410f-af14-e598f08ba416"},"vehicle_type_id":"4","last_reported":1756192286,"current_range_meters":14400,"station_id":"ce4bgg92rcd13ifvqb30","pricing_plan_id":"cebpf4jnsgd1na2vs0mg"},{"bike_id":"84d12ccb-6366-409a-bb47-44f6ad184127","system_id":"levelo_inurba_marseille","lat":43.31227,"lon":5.36858,"is_reserved":false,"is_disabled":false,"rental_uris":{"android":"levelo://app?vid=84d12ccb-6366-409a-bb47-44f6ad184127","ios":"levelo://app?vid=84d12ccb-6366-409a-bb47-44f6ad184127"},"vehicle_type_id":"4","last_reported":1756192286,"current_range_meters":14400,"station_id":"ce4bgl92rcd13ifvqbq0","pricing_plan_id":"cebpf4jnsgd1na2vs0mg"},{"bike_id":"979e73f7-3abb-449f-9bdc-cb11a72712d9","system_id":"levelo_inurba_marseille","lat":43.28618,"lon":5.35102,"is_reserved":false,"is_disabled":true,"rental_uris":{"android":"levelo://app?vid=979e73f7-3abb-449f-9bdc-cb11a72712d9","ios":"levelo://app?vid=979e73f7-3abb-449f-9bdc-cb11a72712d9"},"vehicle_type_id":"4","last_reported":1756192286,"current_range_meters":14400,"station_id":"ce4bhch2rcd13ifvqeug","pricing_plan_id":"cebpf4jnsgd1na2vs0mg"},{"bike_id":"0d502687-08ef-4491-8893-8a03d8688be8","system_id":"levelo_inurba_marseille","lat":43.29647,"lon":5.36103,"is_reserved":false,"is_disabled":false,"rental_uris":{"android":"levelo://app?vid=0d502687-08ef-4491-8893-8a03d8688be8","ios":"levelo://app?vid=0d502687-08ef-4491-8893-8a03d8688be8"},"vehicle_type_id":"4","last_reported":1756192286,"current_range_meters":14400,"station_id":"","pricing_plan_id":"cebpf4jnsgd1na2vs0mg"},{"bike_id":"8504bf26-65b5-428f-9a94-d8bbb49ef76a","system_id":"levelo_inurba_marseille","lat":43.28206,"lon":5.39041,"is_reserved":false,"is_disabled":false,"rental_uris":{"android":"levelo://app?vid=8504bf26-65b5-428f-9a94-d8bbb49ef76a","ios":"levelo://app?vid=8504bf26-65b5-428f-9a94-d8bbb49ef76a"},"vehicle_type_id":"4","last_reported":1756192286,"current_range_meters":14400,"station_id":"ce4bhn92rcd13ifvqgsg","pricing_plan_id":"cebpf4jnsgd1na2vs0mg"},{"bike_id":"e4816335-5d31-417c-94b4-c2e895ace713","system_id":"levelo_inurba_marseille","lat":43.28857,"lon":5.35841,"is_reserved":false,"is_disabled":false,"rental_uris":{"android":"levelo://app?vid=e4816335-5d31-417c-94b4-c2e895ace713","ios":"levelo://app?vid=e4816335-5d31-417c-94b4-c2e895ace713"},"vehicle_type_id":"4","last_reported":1756192286,"current_range_meters":14400,"station_id":"ce4bhb12rcd13ifvqem0","pricing_plan_id":"cebpf4jnsgd1na2vs0mg"},{"bike_id":"7b6a29fe-3cb4-46ac-9367-ac85e788c5c9","system_id":"levelo_inurba_marseille","lat":43.27816,"lon":5.40713,"is_reserved":false,"is_disabled":false,"rental_uris":{"android":"levelo://app?vid=7b6a29fe-3cb4-46ac-9367-ac85e788c5c9","ios":"levelo://app?vid=7b6a29fe-3cb4-46ac-9367-ac85e788c5c9"},"vehicle_type_id":"4","last_reported":1756192286,"current_range_meters":14800,"station_id":"ce4bhnh2rcd13ifvqgtg","pricing_plan_id":"cebpf4jnsgd1na2vs0mg"},{"bike_id":"b891d3ff-c9da-40a4-99de-c8abd0aa5eb1","system_id":"levelo_inurba_marseille","lat":43.244,"lon":5.3707,"is_reserved":false,"is_disabled":false,"rental_uris":{"android":"levelo://app?vid=b891d3ff-c9da-40a4-99de-c8abd0aa5eb1","ios":"levelo://app?vid=b891d3ff-c9da-40a4-99de-c8abd0aa5eb1"},"vehicle_type_id":"4","last_reported":1756192286,"current_range_meters":14800,"station_id":"ce4bhhh2rcd13ifvqfk0","pricing_plan_id":"cebpf4jnsgd1na2vs0mg"},{"bike_id":"2d0d76f6-1b4f-454e-b6f1-a83d202b6575","system_id":"levelo_inurba_marseille","lat":43.280423,"lon":5.369383,"is_reserved":false,"is_disabled":false,"rental_uris":{"android":"levelo://app?vid=2d0d76f6-1b4f-454e-b6f1-a83d202b6575","ios":"levelo://app?vid=2d0d76f6-1b4f-454e-b6f1-a83d202b6575"},"vehicle_type_id":"4","last_reported":1756192286,"current_range_meters":14800,"station_id":"ce4bha12rcd13ifvqef0","pricing_plan_id":"cebpf4jnsgd1na2vs0mg"},{"bike_id":"b3a00b77-9f70-41e9-b18c-426e8a9bc147","system_id":"levelo_inurba_marseille","lat":43.25002,"lon":5.3894,"is_reserved":false,"is_disabled":false,"rental_uris":{"android":"levelo://app?vid=b3a00b77-9f70-41e9-b18c-426e8a9bc147","ios":"levelo://app?vid=b3a00b77-9f70-41e9-b18c-426e8a9bc147"},"vehicle_type_id":"4","last_reported":1756192286,"current_range_meters":14800,"station_id":"ce4bhgp2rcd13ifvqfd0","pricing_plan_id":"cebpf4jnsgd1na2vs0mg"},{"bike_id":"7612c145-8535-4ccf-96ee-de62f40b9550","system_id":"levelo_inurba_marseille","lat":43.32381,"lon":5.38968,"is_reserved":false,"is_disabled":false,"rental_uris":{"android":"levelo://app?vid=7612c145-8535-4ccf-96ee-de62f40b9550","ios":"levelo://app?vid=7612c145-8535-4ccf-96ee-de62f40b9550"},"vehicle_type_id":"4","last_reported":1756192286,"current_range_meters":14800,"station_id":"","pricing_plan_id":"cebpf4jnsgd1na2vs0mg"},{"bike_id":"f84f46c8-243d-42cd-b308-2b289e4c09d3","system_id":"levelo_inurba_marseille","lat":43.334514,"lon":5.356717,"is_reserved":false,"is_disabled":false,"rental_uris":{"android":"levelo://app?vid=f84f46c8-243d-42cd-b308-2b289e4c09d3","ios":"levelo://app?vid=f84f46c8-243d-42cd-b308-2b289e4c09d3"},"vehicle_type_id":"4","last_reported":1756192286,"current_range_meters":14800,"station_id":"","pricing_plan_id":"cebpf4jnsgd1na2vs0mg"},{"bike_id":"a958bf86-1808-435d-a9b1-cc4a5b365d1e","system_id":"levelo_inurba_marseille","lat":43.30285,"lon":5.37698,"is_reserved":false,"is_disabled":false,"rental_uris":{"android":"levelo://app?vid=a958bf86-1808-435d-a9b1-cc4a5b365d1e","ios":"levelo://app?vid=a958bf86-1808-435d-a9b1-cc4a5b365d1e"},"vehicle_type_id":"4","last_reported":1756192286,"current_range_meters":14800,"station_id":"ce4bguh2rcd13ifvqcj0","pricing_plan_id":"cebpf4jnsgd1na2vs0mg"},{"bike_id":"34b05bf9-5565-47a9-a704-66fe97becf52","system_id":"levelo_inurba_marseille","lat":43.30614,"lon":5.37253,"is_reserved":false,"is_disabled":false,"rental_uris":{"android":"levelo://app?vid=34b05bf9-5565-47a9-a704-66fe97becf52","ios":"levelo://app?vid=34b05bf9-5565-47a9-a704-66fe97becf52"},"vehicle_type_id":"4","last_reported":1756192286,"current_range_meters":14800,"station_id":"ce4bgqh2rcd13ifvqc4g","pricing_plan_id":"cebpf4jnsgd1na2vs0mg"},{"bike_id":"6fd441c8-717e-4984-afec-5371dba4dd32","system_id":"levelo_inurba_marseille","lat":43.304285,"lon":5.397358,"is_reserved":false,"is_disabled":false,"rental_uris":{"android":"levelo://app?vid=6fd441c8-717e-4984-afec-5371dba4dd32","ios":"levelo://app?vid=6fd441c8-717e-4984-afec-5371dba4dd32"},"vehicle_type_id":"4","last_reported":1756192286,"current_range_meters":15200,"station_id":"ce4bh092rcd13ifvqd20","pricing_plan_id":"cebpf4jnsgd1na2vs0mg"},{"bike_id":"bd5c36d0-2c85-4b29-9e8c-369539b99c2d","system_id":"levelo_inurba_marseille","lat":43.32335,"lon":5.40639,"is_reserved":false,"is_disabled":false,"rental_uris":{"android":"levelo://app?vid=bd5c36d0-2c85-4b29-9e8c-369539b99c2d","ios":"levelo://app?vid=bd5c36d0-2c85-4b29-9e8c-369539b99c2d"},"vehicle_type_id":"4","last_reported":1756192286,"current_range_meters":15200,"station_id":"ce4bhq92rcd13ifvqhjg","pricing_plan_id":"cebpf4jnsgd1na2vs0mg"},{"bike_id":"c47b2876-c564-417f-9d7f-97cdd2f94270","system_id":"levelo_inurba_marseille","lat":43.241677,"lon":5.363867,"is_reserved":false,"is_disabled":false,"rental_uris":{"android":"levelo://app?vid=c47b2876-c564-417f-9d7f-97cdd2f94270","ios":"levelo://app?vid=c47b2876-c564-417f-9d7f-97cdd2f94270"},"vehicle_type_id":"4","last_reported":1756192286,"current_range_meters":15200,"station_id":"cpo36qri1sfpv3e86is0","pricing_plan_id":"cebpf4jnsgd1na2vs0mg"},{"bike_id":"31fef4f9-2338-49d8-a486-1abcacc2b1f5","system_id":"levelo_inurba_marseille","lat":43.3234,"lon":5.406169,"is_reserved":false,"is_disabled":false,"rental_uris":{"android":"levelo://app?vid=31fef4f9-2338-49d8-a486-1abcacc2b1f5","ios":"levelo://app?vid=31fef4f9-2338-49d8-a486-1abcacc2b1f5"},"vehicle_type_id":"4","last_reported":1756192286,"current_range_meters":15200,"station_id":"ce4bhq92rcd13ifvqhjg","pricing_plan_id":"cebpf4jnsgd1na2vs0mg"},{"bike_id":"51842e17-ef10-4624-a23e-c8a182427991","system_id":"levelo_inurba_marseille","lat":43.31578,"lon":5.38201,"is_reserved":false,"is_disabled":false,"rental_uris":{"android":"levelo://app?vid=51842e17-ef10-4624-a23e-c8a182427991","ios":"levelo://app?vid=51842e17-ef10-4624-a23e-c8a182427991"},"vehicle_type_id":"4","last_reported":1756192286,"current_range_meters":15200,"station_id":"","pricing_plan_id":"cebpf4jnsgd1na2vs0mg"},{"bike_id":"742dd017-cddc-434c-b13f-4610a2d0de2a","system_id":"levelo_inurba_marseille","lat":43.28709,"lon":5.39993,"is_reserved":false,"is_disabled":false,"rental_uris":{"android":"levelo://app?vid=742dd017-cddc-434c-b13f-4610a2d0de2a","ios":"levelo://app?vid=742dd017-cddc-434c-b13f-4610a2d0de2a"},"vehicle_type_id":"4","last_reported":1756192286,"current_range_meters":15200,"station_id":"ce4bho92rcd13ifvqh3g","pricing_plan_id":"cebpf4jnsgd1na2vs0mg"},{"bike_id":"5f9365e2-60dc-4158-a2c3-0e40911a7a32","system_id":"levelo_inurba_marseille","lat":43.33443,"lon":5.39984,"is_reserved":false,"is_disabled":false,"rental_uris":{"android":"levelo://app?vid=5f9365e2-60dc-4158-a2c3-0e40911a7a32","ios":"levelo://app?vid=5f9365e2-60dc-4158-a2c3-0e40911a7a32"},"vehicle_type_id":"4","last_reported":1756192286,"current_range_meters":15200,"station_id":"","pricing_plan_id":"cebpf4jnsgd1na2vs0mg"},{"bike_id":"943d95a7-9535-411f-ba22-8068aaf6ac69","system_id":"levelo_inurba_marseille","lat":43.2962,"lon":5.38065,"is_reserved":false,"is_disabled":true,"rental_uris":{"android":"levelo://app?vid=943d95a7-9535-411f-ba22-8068aaf6ac69","ios":"levelo://app?vid=943d95a7-9535-411f-ba22-8068aaf6ac69"},"vehicle_type_id":"4","last_reported":1756192286,"current_range_meters":16000,"station_id":"ce4bgl12rcd13ifvqbo0","pricing_plan_id":"cebpf4jnsgd1na2vs0mg"},{"bike_id":"a7cf380d-ca55-46f9-88ca-c0606390f591","system_id":"levelo_inurba_marseille","lat":43.24074,"lon":5.37791,"is_reserved":false,"is_disabled":false,"rental_uris":{"android":"levelo://app?vid=a7cf380d-ca55-46f9-88ca-c0606390f591","ios":"levelo://app?vid=a7cf380d-ca55-46f9-88ca-c0606390f591"},"vehicle_type_id":"4","last_reported":1756192286,"current_range_meters":16000,"station_id":"ce4bhnp2rcd13ifvqgvg","pricing_plan_id":"cebpf4jnsgd1na2vs0mg"},{"bike_id":"90106b61-39ba-4550-9728-cd6a51353a17","system_id":"levelo_inurba_marseille","lat":43.211914,"lon":5.350725,"is_reserved":false,"is_disabled":false,"rental_uris":{"android":"levelo://app?vid=90106b61-39ba-4550-9728-cd6a51353a17","ios":"levelo://app?vid=90106b61-39ba-4550-9728-cd6a51353a17"},"vehicle_type_id":"4","last_reported":1756192286,"current_range_meters":16000,"station_id":"st_cvj6sg6p6f1abm77japg","pricing_plan_id":"cebpf4jnsgd1na2vs0mg"},{"bike_id":"3f604017-bbc6-4578-95dd-a7e9076bb862","system_id":"levelo_inurba_marseille","lat":43.29035,"lon":5.38654,"is_reserved":false,"is_disabled":false,"rental_uris":{"android":"levelo://app?vid=3f604017-bbc6-4578-95dd-a7e9076bb862","ios":"levelo://app?vid=3f604017-bbc6-4578-95dd-a7e9076bb862"},"vehicle_type_id":"4","last_reported":1756192286,"current_range_meters":15200,"station_id":"ce4bh4p2rcd13ifvqe0g","pricing_plan_id":"cebpf4jnsgd1na2vs0mg"},{"bike_id":"1c889b09-8cad-434d-bfd5-5f7e6198ad13","system_id":"levelo_inurba_marseille","lat":43.2318,"lon":5.3999,"is_reserved":false,"is_disabled":false,"rental_uris":{"android":"levelo://app?vid=1c889b09-8cad-434d-bfd5-5f7e6198ad13","ios":"levelo://app?vid=1c889b09-8cad-434d-bfd5-5f7e6198ad13"},"vehicle_type_id":"4","last_reported":1756192286,"current_range_meters":16000,"station_id":"ce4bhn12rcd13ifvqgqg","pricing_plan_id":"cebpf4jnsgd1na2vs0mg"},{"bike_id":"a15a1c44-718b-407d-acaa-0383628c87d7","system_id":"levelo_inurba_marseille","lat":43.32691,"lon":5.391944,"is_reserved":false,"is_disabled":false,"rental_uris":{"android":"levelo://app?vid=a15a1c44-718b-407d-acaa-0383628c87d7","ios":"levelo://app?vid=a15a1c44-718b-407d-acaa-0383628c87d7"},"vehicle_type_id":"4","last_reported":1756192286,"current_range_meters":16000,"station_id":"","pricing_plan_id":"cebpf4jnsgd1na2vs0mg"},{"bike_id":"f50e029c-78e4-4943-96e6-f587e062386c","system_id":"levelo_inurba_marseille","lat":43.317181,"lon":5.424124,"is_reserved":false,"is_disabled":false,"rental_uris":{"android":"levelo://app?vid=f50e029c-78e4-4943-96e6-f587e062386c","ios":"levelo://app?vid=f50e029c-78e4-4943-96e6-f587e062386c"},"vehicle_type_id":"4","last_reported":1756192286,"current_range_meters":16000,"station_id":"ce4bhp92rcd13ifvqhbg","pricing_plan_id":"cebpf4jnsgd1na2vs0mg"},{"bike_id":"ea3f0e70-58f7-4c4e-9a18-402a5de5f326","system_id":"levelo_inurba_marseille","lat":43.31224,"lon":5.36859,"is_reserved":false,"is_disabled":false,"rental_uris":{"android":"levelo://app?vid=ea3f0e70-58f7-4c4e-9a18-402a5de5f326","ios":"levelo://app?vid=ea3f0e70-58f7-4c4e-9a18-402a5de5f326"},"vehicle_type_id":"4","last_reported":1756192286,"current_range_meters":16000,"station_id":"ce4bgl92rcd13ifvqbq0","pricing_plan_id":"cebpf4jnsgd1na2vs0mg"},{"bike_id":"b5ffa393-2ace-4441-a658-0017f1ce8c98","system_id":"levelo_inurba_marseille","lat":43.24177,"lon":5.39735,"is_reserved":false,"is_disabled":false,"rental_uris":{"android":"levelo://app?vid=b5ffa393-2ace-4441-a658-0017f1ce8c98","ios":"levelo://app?vid=b5ffa393-2ace-4441-a658-0017f1ce8c98"},"vehicle_type_id":"4","last_reported":1756192286,"current_range_meters":16000,"station_id":"ce4bhn12rcd13ifvqgpg","pricing_plan_id":"cebpf4jnsgd1na2vs0mg"},{"bike_id":"50080086-5ad6-41c2-b993-d4f4d5e2439a","system_id":"levelo_inurba_marseille","lat":43.32957,"lon":5.38986,"is_reserved":false,"is_disabled":false,"rental_uris":{"android":"levelo://app?vid=50080086-5ad6-41c2-b993-d4f4d5e2439a","ios":"levelo://app?vid=50080086-5ad6-41c2-b993-d4f4d5e2439a"},"vehicle_type_id":"4","last_reported":1756192286,"current_range_meters":16400,"station_id":"ce4bhr92rcd13ifvqhrg","pricing_plan_id":"cebpf4jnsgd1na2vs0mg"},{"bike_id":"977df7ca-21e9-43e2-ade8-22de20bad5aa","system_id":"levelo_inurba_marseille","lat":43.2622,"lon":5.37452,"is_reserved":false,"is_disabled":false,"rental_uris":{"android":"levelo://app?vid=977df7ca-21e9-43e2-ade8-22de20bad5aa","ios":"levelo://app?vid=977df7ca-21e9-43e2-ade8-22de20bad5aa"},"vehicle_type_id":"4","last_reported":1756192286,"current_range_meters":16400,"station_id":"ce4bhgp2rcd13ifvqfc0","pricing_plan_id":"cebpf4jnsgd1na2vs0mg"},{"bike_id":"00749c5a-2954-4755-9f4f-2b966581ffb4","system_id":"levelo_inurba_marseille","lat":43.25024,"lon":5.38932,"is_reserved":false,"is_disabled":false,"rental_uris":{"android":"levelo://app?vid=00749c5a-2954-4755-9f4f-2b966581ffb4","ios":"levelo://app?vid=00749c5a-2954-4755-9f4f-2b966581ffb4"},"vehicle_type_id":"4","last_reported":1756192286,"current_range_meters":16400,"station_id":"ce4bhgp2rcd13ifvqfd0","pricing_plan_id":"cebpf4jnsgd1na2vs0mg"},{"bike_id":"89e7e073-5608-466f-87a7-1ccb01113393","system_id":"levelo_inurba_marseille","lat":43.28005,"lon":5.40011,"is_reserved":false,"is_disabled":false,"rental_uris":{"android":"levelo://app?vid=89e7e073-5608-466f-87a7-1ccb01113393","ios":"levelo://app?vid=89e7e073-5608-466f-87a7-1ccb01113393"},"vehicle_type_id":"4","last_reported":1756192286,"current_range_meters":16400,"station_id":"ce4bho92rcd13ifvqh4g","pricing_plan_id":"cebpf4jnsgd1na2vs0mg"},{"bike_id":"4c7508b2-41dd-440f-8e65-cd7d9500d3a8","system_id":"levelo_inurba_marseille","lat":43.25831,"lon":5.39441,"is_reserved":false,"is_disabled":false,"rental_uris":{"android":"levelo://app?vid=4c7508b2-41dd-440f-8e65-cd7d9500d3a8","ios":"levelo://app?vid=4c7508b2-41dd-440f-8e65-cd7d9500d3a8"},"vehicle_type_id":"4","last_reported":1756192286,"current_range_meters":16000,"station_id":"ce4bhip2rcd13ifvqft0","pricing_plan_id":"cebpf4jnsgd1na2vs0mg"},{"bike_id":"362e989e-a4bd-4853-a096-119dc695446f","system_id":"levelo_inurba_marseille","lat":43.30487,"lon":5.37892,"is_reserved":false,"is_disabled":false,"rental_uris":{"android":"levelo://app?vid=362e989e-a4bd-4853-a096-119dc695446f","ios":"levelo://app?vid=362e989e-a4bd-4853-a096-119dc695446f"},"vehicle_type_id":"4","last_reported":1756192286,"current_range_meters":16400,"station_id":"ce4bgup2rcd13ifvqcn0","pricing_plan_id":"cebpf4jnsgd1na2vs0mg"},{"bike_id":"db7d3d83-f39a-4469-8445-29697e69fec4","system_id":"levelo_inurba_marseille","lat":43.322293,"lon":5.385641,"is_reserved":false,"is_disabled":false,"rental_uris":{"android":"levelo://app?vid=db7d3d83-f39a-4469-8445-29697e69fec4","ios":"levelo://app?vid=db7d3d83-f39a-4469-8445-29697e69fec4"},"vehicle_type_id":"4","last_reported":1756192286,"current_range_meters":16400,"station_id":"","pricing_plan_id":"cebpf4jnsgd1na2vs0mg"},{"bike_id":"e2345ea1-c141-4be6-90a3-eab6d9af878d","system_id":"levelo_inurba_marseille","lat":43.28846,"lon":5.39309,"is_reserved":false,"is_disabled":false,"rental_uris":{"android":"levelo://app?vid=e2345ea1-c141-4be6-90a3-eab6d9af878d","ios":"levelo://app?vid=e2345ea1-c141-4be6-90a3-eab6d9af878d"},"vehicle_type_id":"4","last_reported":1756192286,"current_range_meters":16800,"station_id":"ce4bh2p2rcd13ifvqdi0","pricing_plan_id":"cebpf4jnsgd1na2vs0mg"},{"bike_id":"826f9c0a-980b-43d8-bf4c-e43d77c221ed","system_id":"levelo_inurba_marseille","lat":43.23186,"lon":5.39947,"is_reserved":false,"is_disabled":false,"rental_uris":{"android":"levelo://app?vid=826f9c0a-980b-43d8-bf4c-e43d77c221ed","ios":"levelo://app?vid=826f9c0a-980b-43d8-bf4c-e43d77c221ed"},"vehicle_type_id":"4","last_reported":1756192286,"current_range_meters":16800,"station_id":"ce4bhn12rcd13ifvqgqg","pricing_plan_id":"cebpf4jnsgd1na2vs0mg"},{"bike_id":"b11de28d-622a-436d-a821-1b44111cd3bb","system_id":"levelo_inurba_marseille","lat":43.27922,"lon":5.39576,"is_reserved":false,"is_disabled":false,"rental_uris":{"android":"levelo://app?vid=b11de28d-622a-436d-a821-1b44111cd3bb","ios":"levelo://app?vid=b11de28d-622a-436d-a821-1b44111cd3bb"},"vehicle_type_id":"4","last_reported":1756192286,"current_range_meters":16800,"station_id":"ce4bhf92rcd13ifvqf40","pricing_plan_id":"cebpf4jnsgd1na2vs0mg"},{"bike_id":"777a8c83-aed8-4881-84b6-34465956e738","system_id":"levelo_inurba_marseille","lat":43.25757,"lon":5.410318,"is_reserved":false,"is_disabled":false,"rental_uris":{"android":"levelo://app?vid=777a8c83-aed8-4881-84b6-34465956e738","ios":"levelo://app?vid=777a8c83-aed8-4881-84b6-34465956e738"},"vehicle_type_id":"4","last_reported":1756192286,"current_range_meters":16800,"station_id":"","pricing_plan_id":"cebpf4jnsgd1na2vs0mg"},{"bike_id":"507bfa7a-77ad-4faf-874f-5e94ad334f53","system_id":"levelo_inurba_marseille","lat":43.23195,"lon":5.40003,"is_reserved":false,"is_disabled":false,"rental_uris":{"android":"levelo://app?vid=507bfa7a-77ad-4faf-874f-5e94ad334f53","ios":"levelo://app?vid=507bfa7a-77ad-4faf-874f-5e94ad334f53"},"vehicle_type_id":"4","last_reported":1756192286,"current_range_meters":16800,"station_id":"ce4bhn12rcd13ifvqgqg","pricing_plan_id":"cebpf4jnsgd1na2vs0mg"},{"bike_id":"af744081-2681-4d1e-9525-a9843cca33d2","system_id":"levelo_inurba_marseille","lat":43.325509,"lon":5.364655,"is_reserved":false,"is_disabled":false,"rental_uris":{"android":"levelo://app?vid=af744081-2681-4d1e-9525-a9843cca33d2","ios":"levelo://app?vid=af744081-2681-4d1e-9525-a9843cca33d2"},"vehicle_type_id":"4","last_reported":1756192286,"current_range_meters":16800,"station_id":"","pricing_plan_id":"cebpf4jnsgd1na2vs0mg"},{"bike_id":"a9b6ef44-9578-47a1-aae2-c9938ecd1d74","system_id":"levelo_inurba_marseille","lat":43.29942,"lon":5.36551,"is_reserved":false,"is_disabled":false,"rental_uris":{"android":"levelo://app?vid=a9b6ef44-9578-47a1-aae2-c9938ecd1d74","ios":"levelo://app?vid=a9b6ef44-9578-47a1-aae2-c9938ecd1d74"},"vehicle_type_id":"4","last_reported":1756192286,"current_range_meters":16800,"station_id":"ce4bgm92rcd13ifvqbr0","pricing_plan_id":"cebpf4jnsgd1na2vs0mg"},{"bike_id":"f0400c37-c7f6-4929-b1ac-d92430ff6f2d","system_id":"levelo_inurba_marseille","lat":43.27578,"lon":5.39714,"is_reserved":false,"is_disabled":false,"rental_uris":{"android":"levelo://app?vid=f0400c37-c7f6-4929-b1ac-d92430ff6f2d","ios":"levelo://app?vid=f0400c37-c7f6-4929-b1ac-d92430ff6f2d"},"vehicle_type_id":"4","last_reported":1756192286,"current_range_meters":17200,"station_id":"","pricing_plan_id":"cebpf4jnsgd1na2vs0mg"},{"bike_id":"5bce688b-fc81-4596-8277-b66f54be87c1","system_id":"levelo_inurba_marseille","lat":43.33768,"lon":5.37438,"is_reserved":false,"is_disabled":false,"rental_uris":{"android":"levelo://app?vid=5bce688b-fc81-4596-8277-b66f54be87c1","ios":"levelo://app?vid=5bce688b-fc81-4596-8277-b66f54be87c1"},"vehicle_type_id":"4","last_reported":1756192286,"current_range_meters":17200,"station_id":"","pricing_plan_id":"cebpf4jnsgd1na2vs0mg"},{"bike_id":"12b52f93-1c3a-4d46-9ac3-2c24be81660a","system_id":"levelo_inurba_marseille","lat":43.211872,"lon":5.350745,"is_reserved":false,"is_disabled":false,"rental_uris":{"android":"levelo://app?vid=12b52f93-1c3a-4d46-9ac3-2c24be81660a","ios":"levelo://app?vid=12b52f93-1c3a-4d46-9ac3-2c24be81660a"},"vehicle_type_id":"4","last_reported":1756192286,"current_range_meters":17200,"station_id":"st_cvj6sg6p6f1abm77japg","pricing_plan_id":"cebpf4jnsgd1na2vs0mg"},{"bike_id":"db9b7484-7db7-4740-8517-1170d210aefb","system_id":"levelo_inurba_marseille","lat":43.26199,"lon":5.3745,"is_reserved":false,"is_disabled":false,"rental_uris":{"android":"levelo://app?vid=db9b7484-7db7-4740-8517-1170d210aefb","ios":"levelo://app?vid=db9b7484-7db7-4740-8517-1170d210aefb"},"vehicle_type_id":"4","last_reported":1756192286,"current_range_meters":17200,"station_id":"ce4bhgp2rcd13ifvqfc0","pricing_plan_id":"cebpf4jnsgd1na2vs0mg"},{"bike_id":"ecb43efe-4976-4c63-bc05-65cd8f38e28b","system_id":"levelo_inurba_marseille","lat":43.29282,"lon":5.40115,"is_reserved":false,"is_disabled":false,"rental_uris":{"android":"levelo://app?vid=ecb43efe-4976-4c63-bc05-65cd8f38e28b","ios":"levelo://app?vid=ecb43efe-4976-4c63-bc05-65cd8f38e28b"},"vehicle_type_id":"4","last_reported":1756192286,"current_range_meters":17200,"station_id":"ce4bh312rcd13ifvqdk0","pricing_plan_id":"cebpf4jnsgd1na2vs0mg"},{"bike_id":"c96ed41e-7a21-4bf1-8f3f-e43e8efff5f3","system_id":"levelo_inurba_marseille","lat":43.29325,"lon":5.37234,"is_reserved":false,"is_disabled":false,"rental_uris":{"android":"levelo://app?vid=c96ed41e-7a21-4bf1-8f3f-e43e8efff5f3","ios":"levelo://app?vid=c96ed41e-7a21-4bf1-8f3f-e43e8efff5f3"},"vehicle_type_id":"4","last_reported":1756192286,"current_range_meters":17200,"station_id":"ce4bgh92rcd13ifvqb40","pricing_plan_id":"cebpf4jnsgd1na2vs0mg"},{"bike_id":"67e8b54b-a1a6-4abf-820c-93867c6e5613","system_id":"levelo_inurba_marseille","lat":43.284836,"lon":5.359172,"is_reserved":false,"is_disabled":false,"rental_uris":{"android":"levelo://app?vid=67e8b54b-a1a6-4abf-820c-93867c6e5613","ios":"levelo://app?vid=67e8b54b-a1a6-4abf-820c-93867c6e5613"},"vehicle_type_id":"4","last_reported":1756192286,"current_range_meters":17200,"station_id":"ce4bhah2rcd13ifvqei0","pricing_plan_id":"cebpf4jnsgd1na2vs0mg"},{"bike_id":"de66a995-ebeb-45b9-b3d9-e37c2103b9b5","system_id":"levelo_inurba_marseille","lat":43.271777,"lon":5.409858,"is_reserved":false,"is_disabled":false,"rental_uris":{"android":"levelo://app?vid=de66a995-ebeb-45b9-b3d9-e37c2103b9b5","ios":"levelo://app?vid=de66a995-ebeb-45b9-b3d9-e37c2103b9b5"},"vehicle_type_id":"4","last_reported":1756192286,"current_range_meters":17200,"station_id":"ce4bhl12rcd13ifvqgf0","pricing_plan_id":"cebpf4jnsgd1na2vs0mg"},{"bike_id":"547e9b96-9c55-431a-bfba-68a5bf6594bc","system_id":"levelo_inurba_marseille","lat":43.290078,"lon":5.356199,"is_reserved":false,"is_disabled":true,"rental_uris":{"android":"levelo://app?vid=547e9b96-9c55-431a-bfba-68a5bf6594bc","ios":"levelo://app?vid=547e9b96-9c55-431a-bfba-68a5bf6594bc"},"vehicle_type_id":"4","last_reported":1756192286,"current_range_meters":17200,"station_id":"ce4bhb92rcd13ifvqen0","pricing_plan_id":"cebpf4jnsgd1na2vs0mg"},{"bike_id":"c074df6b-f094-42e8-9430-f2f34f0ef1eb","system_id":"levelo_inurba_marseille","lat":43.29872,"lon":5.36276,"is_reserved":false,"is_disabled":true,"rental_uris":{"android":"levelo://app?vid=c074df6b-f094-42e8-9430-f2f34f0ef1eb","ios":"levelo://app?vid=c074df6b-f094-42e8-9430-f2f34f0ef1eb"},"vehicle_type_id":"4","last_reported":1756192286,"current_range_meters":17200,"station_id":"ce4bgpp2rcd13ifvqc3g","pricing_plan_id":"cebpf4jnsgd1na2vs0mg"},{"bike_id":"b9412d07-ca6e-4a33-9c41-9052a396b6b5","system_id":"levelo_inurba_marseille","lat":43.25919,"lon":5.4086,"is_reserved":false,"is_disabled":false,"rental_uris":{"android":"levelo://app?vid=b9412d07-ca6e-4a33-9c41-9052a396b6b5","ios":"levelo://app?vid=b9412d07-ca6e-4a33-9c41-9052a396b6b5"},"vehicle_type_id":"4","last_reported":1756192286,"current_range_meters":17200,"station_id":"ce4bhm92rcd13ifvqglg","pricing_plan_id":"cebpf4jnsgd1na2vs0mg"},{"bike_id":"f4815bc1-d6e8-4722-84cb-35db309bd697","system_id":"levelo_inurba_marseille","lat":43.25869,"lon":5.399,"is_reserved":false,"is_disabled":true,"rental_uris":{"android":"levelo://app?vid=f4815bc1-d6e8-4722-84cb-35db309bd697","ios":"levelo://app?vid=f4815bc1-d6e8-4722-84cb-35db309bd697"},"vehicle_type_id":"4","last_reported":1756192286,"current_range_meters":17200,"station_id":"ce4bhl92rcd13ifvqghg","pricing_plan_id":"cebpf4jnsgd1na2vs0mg"},{"bike_id":"a30d9dc8-3587-4727-92c7-3342534aaaa9","system_id":"levelo_inurba_marseille","lat":43.24393,"lon":5.37061,"is_reserved":false,"is_disabled":false,"rental_uris":{"android":"levelo://app?vid=a30d9dc8-3587-4727-92c7-3342534aaaa9","ios":"levelo://app?vid=a30d9dc8-3587-4727-92c7-3342534aaaa9"},"vehicle_type_id":"4","last_reported":1756192286,"current_range_meters":17600,"station_id":"ce4bhhh2rcd13ifvqfk0","pricing_plan_id":"cebpf4jnsgd1na2vs0mg"},{"bike_id":"070c5c08-8102-4233-9aa2-6dc44cc7988e","system_id":"levelo_inurba_marseille","lat":43.30314,"lon":5.38394,"is_reserved":false,"is_disabled":false,"rental_uris":{"android":"levelo://app?vid=070c5c08-8102-4233-9aa2-6dc44cc7988e","ios":"levelo://app?vid=070c5c08-8102-4233-9aa2-6dc44cc7988e"},"vehicle_type_id":"4","last_reported":1756192286,"current_range_meters":17600,"station_id":"","pricing_plan_id":"cebpf4jnsgd1na2vs0mg"},{"bike_id":"1f8abda0-b398-458e-b1d4-8f630b737e5e","system_id":"levelo_inurba_marseille","lat":43.257237,"lon":5.411177,"is_reserved":false,"is_disabled":false,"rental_uris":{"android":"levelo://app?vid=1f8abda0-b398-458e-b1d4-8f630b737e5e","ios":"levelo://app?vid=1f8abda0-b398-458e-b1d4-8f630b737e5e"},"vehicle_type_id":"4","last_reported":1756192286,"current_range_meters":17600,"station_id":"ce4bhkp2rcd13ifvqgd0","pricing_plan_id":"cebpf4jnsgd1na2vs0mg"},{"bike_id":"80e85dd1-4c23-41ef-bb24-2b8de14aaf1f","system_id":"levelo_inurba_marseille","lat":43.26565,"lon":5.37279,"is_reserved":false,"is_disabled":false,"rental_uris":{"android":"levelo://app?vid=80e85dd1-4c23-41ef-bb24-2b8de14aaf1f","ios":"levelo://app?vid=80e85dd1-4c23-41ef-bb24-2b8de14aaf1f"},"vehicle_type_id":"4","last_reported":1756192286,"current_range_meters":17600,"station_id":"ce4bhg12rcd13ifvqf70","pricing_plan_id":"cebpf4jnsgd1na2vs0mg"},{"bike_id":"1c9aa376-cf03-43e6-bd79-a69ad984688d","system_id":"levelo_inurba_marseille","lat":43.27079,"lon":5.42297,"is_reserved":false,"is_disabled":false,"rental_uris":{"android":"levelo://app?vid=1c9aa376-cf03-43e6-bd79-a69ad984688d","ios":"levelo://app?vid=1c9aa376-cf03-43e6-bd79-a69ad984688d"},"vehicle_type_id":"4","last_reported":1756192286,"current_range_meters":17600,"station_id":"ce4bhk92rcd13ifvqgb0","pricing_plan_id":"cebpf4jnsgd1na2vs0mg"},{"bike_id":"e994cde8-fd58-4f5f-a405-0487377e5934","system_id":"levelo_inurba_marseille","lat":43.27813,"lon":5.40715,"is_reserved":false,"is_disabled":false,"rental_uris":{"android":"levelo://app?vid=e994cde8-fd58-4f5f-a405-0487377e5934","ios":"levelo://app?vid=e994cde8-fd58-4f5f-a405-0487377e5934"},"vehicle_type_id":"4","last_reported":1756192286,"current_range_meters":18000,"station_id":"ce4bhnh2rcd13ifvqgtg","pricing_plan_id":"cebpf4jnsgd1na2vs0mg"},{"bike_id":"08b9af6b-9da1-464e-9744-9c973edba1b2","system_id":"levelo_inurba_marseille","lat":43.30544,"lon":5.36554,"is_reserved":false,"is_disabled":false,"rental_uris":{"android":"levelo://app?vid=08b9af6b-9da1-464e-9744-9c973edba1b2","ios":"levelo://app?vid=08b9af6b-9da1-464e-9744-9c973edba1b2"},"vehicle_type_id":"4","last_reported":1756192286,"current_range_meters":17600,"station_id":"ce4bgs12rcd13ifvqcag","pricing_plan_id":"cebpf4jnsgd1na2vs0mg"},{"bike_id":"e78e6c0b-8293-41d3-953d-eea2cf4cbfde","system_id":"levelo_inurba_marseille","lat":43.29282,"lon":5.36845,"is_reserved":false,"is_disabled":false,"rental_uris":{"android":"levelo://app?vid=e78e6c0b-8293-41d3-953d-eea2cf4cbfde","ios":"levelo://app?vid=e78e6c0b-8293-41d3-953d-eea2cf4cbfde"},"vehicle_type_id":"4","last_reported":1756192286,"current_range_meters":17600,"station_id":"ce4bhbp2rcd13ifvqesg","pricing_plan_id":"cebpf4jnsgd1na2vs0mg"},{"bike_id":"b08d0d63-d495-4173-8c85-a055b48de9dc","system_id":"levelo_inurba_marseille","lat":43.29005,"lon":5.35619,"is_reserved":false,"is_disabled":true,"rental_uris":{"android":"levelo://app?vid=b08d0d63-d495-4173-8c85-a055b48de9dc","ios":"levelo://app?vid=b08d0d63-d495-4173-8c85-a055b48de9dc"},"vehicle_type_id":"4","last_reported":1756192286,"current_range_meters":17600,"station_id":"ce4bhb92rcd13ifvqen0","pricing_plan_id":"cebpf4jnsgd1na2vs0mg"},{"bike_id":"24eb7af3-2ddd-4519-9a1a-18003deed10a","system_id":"levelo_inurba_marseille","lat":43.24999,"lon":5.38934,"is_reserved":false,"is_disabled":false,"rental_uris":{"android":"levelo://app?vid=24eb7af3-2ddd-4519-9a1a-18003deed10a","ios":"levelo://app?vid=24eb7af3-2ddd-4519-9a1a-18003deed10a"},"vehicle_type_id":"4","last_reported":1756192286,"current_range_meters":18000,"station_id":"ce4bhgp2rcd13ifvqfd0","pricing_plan_id":"cebpf4jnsgd1na2vs0mg"},{"bike_id":"7bfd8980-8850-4e6d-8d6f-68a4aab71cf2","system_id":"levelo_inurba_marseille","lat":43.28001,"lon":5.40039,"is_reserved":false,"is_disabled":false,"rental_uris":{"android":"levelo://app?vid=7bfd8980-8850-4e6d-8d6f-68a4aab71cf2","ios":"levelo://app?vid=7bfd8980-8850-4e6d-8d6f-68a4aab71cf2"},"vehicle_type_id":"4","last_reported":1756192286,"current_range_meters":18000,"station_id":"ce4bho92rcd13ifvqh4g","pricing_plan_id":"cebpf4jnsgd1na2vs0mg"},{"bike_id":"0c05f254-89c0-4f94-abdb-f664c97a78a0","system_id":"levelo_inurba_marseille","lat":43.30616,"lon":5.372042,"is_reserved":false,"is_disabled":false,"rental_uris":{"android":"levelo://app?vid=0c05f254-89c0-4f94-abdb-f664c97a78a0","ios":"levelo://app?vid=0c05f254-89c0-4f94-abdb-f664c97a78a0"},"vehicle_type_id":"4","last_reported":1756192286,"current_range_meters":18000,"station_id":"ce4bgqh2rcd13ifvqc4g","pricing_plan_id":"cebpf4jnsgd1na2vs0mg"},{"bike_id":"d8eaf8ad-6c3f-4888-8227-c610affa2d19","system_id":"levelo_inurba_marseille","lat":43.30136,"lon":5.39889,"is_reserved":false,"is_disabled":true,"rental_uris":{"android":"levelo://app?vid=d8eaf8ad-6c3f-4888-8227-c610affa2d19","ios":"levelo://app?vid=d8eaf8ad-6c3f-4888-8227-c610affa2d19"},"vehicle_type_id":"4","last_reported":1756192286,"current_range_meters":18000,"station_id":"ce4bh0h2rcd13ifvqd40","pricing_plan_id":"cebpf4jnsgd1na2vs0mg"},{"bike_id":"93300662-a686-4492-8c6d-5a567a53ff0c","system_id":"levelo_inurba_marseille","lat":43.3169,"lon":5.40477,"is_reserved":false,"is_disabled":false,"rental_uris":{"android":"levelo://app?vid=93300662-a686-4492-8c6d-5a567a53ff0c","ios":"levelo://app?vid=93300662-a686-4492-8c6d-5a567a53ff0c"},"vehicle_type_id":"4","last_reported":1756192286,"current_range_meters":18000,"station_id":"ce4bh012rcd13ifvqd00","pricing_plan_id":"cebpf4jnsgd1na2vs0mg"},{"bike_id":"e5cd0a86-258e-4c36-9512-df93ec41a432","system_id":"levelo_inurba_marseille","lat":43.24177,"lon":5.39732,"is_reserved":false,"is_disabled":false,"rental_uris":{"android":"levelo://app?vid=e5cd0a86-258e-4c36-9512-df93ec41a432","ios":"levelo://app?vid=e5cd0a86-258e-4c36-9512-df93ec41a432"},"vehicle_type_id":"4","last_reported":1756192286,"current_range_meters":18000,"station_id":"ce4bhn12rcd13ifvqgpg","pricing_plan_id":"cebpf4jnsgd1na2vs0mg"},{"bike_id":"7bcee3a5-b2f0-40b3-ac35-58ad6f7aa7c7","system_id":"levelo_inurba_marseille","lat":43.280262,"lon":5.365468,"is_reserved":false,"is_disabled":false,"rental_uris":{"android":"levelo://app?vid=7bcee3a5-b2f0-40b3-ac35-58ad6f7aa7c7","ios":"levelo://app?vid=7bcee3a5-b2f0-40b3-ac35-58ad6f7aa7c7"},"vehicle_type_id":"4","last_reported":1756192286,"current_range_meters":18000,"station_id":"","pricing_plan_id":"cebpf4jnsgd1na2vs0mg"},{"bike_id":"162441e5-2e3b-4dc8-93f8-80ae2457d49c","system_id":"levelo_inurba_marseille","lat":43.28105,"lon":5.37823,"is_reserved":false,"is_disabled":false,"rental_uris":{"android":"levelo://app?vid=162441e5-2e3b-4dc8-93f8-80ae2457d49c","ios":"levelo://app?vid=162441e5-2e3b-4dc8-93f8-80ae2457d49c"},"vehicle_type_id":"4","last_reported":1756192286,"current_range_meters":18800,"station_id":"ce4bha12rcd13ifvqee0","pricing_plan_id":"cebpf4jnsgd1na2vs0mg"},{"bike_id":"b753ccd6-6b24-49a3-8eb7-d5bd3bbe2779","system_id":"levelo_inurba_marseille","lat":43.31727,"lon":5.40545,"is_reserved":false,"is_disabled":false,"rental_uris":{"android":"levelo://app?vid=b753ccd6-6b24-49a3-8eb7-d5bd3bbe2779","ios":"levelo://app?vid=b753ccd6-6b24-49a3-8eb7-d5bd3bbe2779"},"vehicle_type_id":"4","last_reported":1756192286,"current_range_meters":18800,"station_id":"ce4bh012rcd13ifvqd00","pricing_plan_id":"cebpf4jnsgd1na2vs0mg"},{"bike_id":"93a9ab6c-76c8-48fa-aed2-95c6fdf90f9b","system_id":"levelo_inurba_marseille","lat":43.29263,"lon":5.384422,"is_reserved":false,"is_disabled":false,"rental_uris":{"android":"levelo://app?vid=93a9ab6c-76c8-48fa-aed2-95c6fdf90f9b","ios":"levelo://app?vid=93a9ab6c-76c8-48fa-aed2-95c6fdf90f9b"},"vehicle_type_id":"4","last_reported":1756192286,"current_range_meters":18800,"station_id":"ce4bh692rcd13ifvqea0","pricing_plan_id":"cebpf4jnsgd1na2vs0mg"},{"bike_id":"fd0865b3-af49-4c3e-86f4-49934bd2d289","system_id":"levelo_inurba_marseille","lat":43.29705,"lon":5.36615,"is_reserved":false,"is_disabled":true,"rental_uris":{"android":"levelo://app?vid=fd0865b3-af49-4c3e-86f4-49934bd2d289","ios":"levelo://app?vid=fd0865b3-af49-4c3e-86f4-49934bd2d289"},"vehicle_type_id":"4","last_reported":1756192286,"current_range_meters":18800,"station_id":"ce4bgn12rcd13ifvqbt0","pricing_plan_id":"cebpf4jnsgd1na2vs0mg"},{"bike_id":"5e9d9a60-45d0-4933-a931-6adf496aaf3e","system_id":"levelo_inurba_marseille","lat":43.32056,"lon":5.41553,"is_reserved":false,"is_disabled":false,"rental_uris":{"android":"levelo://app?vid=5e9d9a60-45d0-4933-a931-6adf496aaf3e","ios":"levelo://app?vid=5e9d9a60-45d0-4933-a931-6adf496aaf3e"},"vehicle_type_id":"4","last_reported":1756192286,"current_range_meters":18800,"station_id":"ce4bhq92rcd13ifvqhkg","pricing_plan_id":"cebpf4jnsgd1na2vs0mg"},{"bike_id":"3dff11d5-3872-4ffe-8cce-b5631d6c6058","system_id":"levelo_inurba_marseille","lat":43.32696,"lon":5.39211,"is_reserved":false,"is_disabled":false,"rental_uris":{"android":"levelo://app?vid=3dff11d5-3872-4ffe-8cce-b5631d6c6058","ios":"levelo://app?vid=3dff11d5-3872-4ffe-8cce-b5631d6c6058"},"vehicle_type_id":"4","last_reported":1756192286,"current_range_meters":18800,"station_id":"","pricing_plan_id":"cebpf4jnsgd1na2vs0mg"},{"bike_id":"9fbd03b0-ad6c-4fe0-a37a-0f360094515d","system_id":"levelo_inurba_marseille","lat":43.25937,"lon":5.40906,"is_reserved":false,"is_disabled":false,"rental_uris":{"android":"levelo://app?vid=9fbd03b0-ad6c-4fe0-a37a-0f360094515d","ios":"levelo://app?vid=9fbd03b0-ad6c-4fe0-a37a-0f360094515d"},"vehicle_type_id":"4","last_reported":1756192286,"current_range_meters":19200,"station_id":"ce4bhm92rcd13ifvqglg","pricing_plan_id":"cebpf4jnsgd1na2vs0mg"},{"bike_id":"4272e460-deee-4be7-adbb-a2831ab24160","system_id":"levelo_inurba_marseille","lat":43.29532,"lon":5.38545,"is_reserved":false,"is_disabled":false,"rental_uris":{"android":"levelo://app?vid=4272e460-deee-4be7-adbb-a2831ab24160","ios":"levelo://app?vid=4272e460-deee-4be7-adbb-a2831ab24160"},"vehicle_type_id":"4","last_reported":1756192286,"current_range_meters":19200,"station_id":"ce4bgih2rcd13ifvqba0","pricing_plan_id":"cebpf4jnsgd1na2vs0mg"},{"bike_id":"4dd066a3-5039-4c08-96e4-92ee4cbb306d","system_id":"levelo_inurba_marseille","lat":43.23214,"lon":5.35531,"is_reserved":false,"is_disabled":false,"rental_uris":{"android":"levelo://app?vid=4dd066a3-5039-4c08-96e4-92ee4cbb306d","ios":"levelo://app?vid=4dd066a3-5039-4c08-96e4-92ee4cbb306d"},"vehicle_type_id":"4","last_reported":1756192286,"current_range_meters":19200,"station_id":"ce4bhu92rcd13ifvqi70","pricing_plan_id":"cebpf4jnsgd1na2vs0mg"},{"bike_id":"5b4533b5-57e6-46aa-8375-68d9fc6f74a2","system_id":"levelo_inurba_marseille","lat":43.29899,"lon":5.43664,"is_reserved":false,"is_disabled":false,"rental_uris":{"android":"levelo://app?vid=5b4533b5-57e6-46aa-8375-68d9fc6f74a2","ios":"levelo://app?vid=5b4533b5-57e6-46aa-8375-68d9fc6f74a2"},"vehicle_type_id":"4","last_reported":1756192286,"current_range_meters":19600,"station_id":"ce4bhpp2rcd13ifvqhfg","pricing_plan_id":"cebpf4jnsgd1na2vs0mg"},{"bike_id":"0a7d3ac4-d533-49d5-bf48-e75693290c35","system_id":"levelo_inurba_marseille","lat":43.2594,"lon":5.40905,"is_reserved":false,"is_disabled":false,"rental_uris":{"android":"levelo://app?vid=0a7d3ac4-d533-49d5-bf48-e75693290c35","ios":"levelo://app?vid=0a7d3ac4-d533-49d5-bf48-e75693290c35"},"vehicle_type_id":"4","last_reported":1756192286,"current_range_meters":19600,"station_id":"ce4bhm92rcd13ifvqglg","pricing_plan_id":"cebpf4jnsgd1na2vs0mg"},{"bike_id":"abaf99ca-5823-4460-ba5c-ff01280743d0","system_id":"levelo_inurba_marseille","lat":43.270766,"lon":5.422931,"is_reserved":false,"is_disabled":false,"rental_uris":{"android":"levelo://app?vid=abaf99ca-5823-4460-ba5c-ff01280743d0","ios":"levelo://app?vid=abaf99ca-5823-4460-ba5c-ff01280743d0"},"vehicle_type_id":"4","last_reported":1756192286,"current_range_meters":19600,"station_id":"ce4bhk92rcd13ifvqgb0","pricing_plan_id":"cebpf4jnsgd1na2vs0mg"},{"bike_id":"3739d8d4-7e78-48f3-865c-95144f7ea596","system_id":"levelo_inurba_marseille","lat":43.30791,"lon":5.37644,"is_reserved":false,"is_disabled":false,"rental_uris":{"android":"levelo://app?vid=3739d8d4-7e78-48f3-865c-95144f7ea596","ios":"levelo://app?vid=3739d8d4-7e78-48f3-865c-95144f7ea596"},"vehicle_type_id":"4","last_reported":1756192286,"current_range_meters":16800,"station_id":"ce4bgv92rcd13ifvqcq0","pricing_plan_id":"cebpf4jnsgd1na2vs0mg"},{"bike_id":"9d2a3508-c255-4785-aa96-f3f2314a5c2a","system_id":"levelo_inurba_marseille","lat":43.3236,"lon":5.38904,"is_reserved":false,"is_disabled":false,"rental_uris":{"android":"levelo://app?vid=9d2a3508-c255-4785-aa96-f3f2314a5c2a","ios":"levelo://app?vid=9d2a3508-c255-4785-aa96-f3f2314a5c2a"},"vehicle_type_id":"4","last_reported":1756192286,"current_range_meters":19600,"station_id":"ce4bhqp2rcd13ifvqhog","pricing_plan_id":"cebpf4jnsgd1na2vs0mg"},{"bike_id":"55e366fc-40f8-4879-9031-d7d131c436f8","system_id":"levelo_inurba_marseille","lat":43.250995,"lon":5.403214,"is_reserved":false,"is_disabled":false,"rental_uris":{"android":"levelo://app?vid=55e366fc-40f8-4879-9031-d7d131c436f8","ios":"levelo://app?vid=55e366fc-40f8-4879-9031-d7d131c436f8"},"vehicle_type_id":"4","last_reported":1756192286,"current_range_meters":19600,"station_id":"ce4bhlh2rcd13ifvqgig","pricing_plan_id":"cebpf4jnsgd1na2vs0mg"},{"bike_id":"380daa6b-9f2d-4ac5-8eb5-72c75098c92c","system_id":"levelo_inurba_marseille","lat":43.30915,"lon":5.36847,"is_reserved":false,"is_disabled":false,"rental_uris":{"android":"levelo://app?vid=380daa6b-9f2d-4ac5-8eb5-72c75098c92c","ios":"levelo://app?vid=380daa6b-9f2d-4ac5-8eb5-72c75098c92c"},"vehicle_type_id":"4","last_reported":1756192286,"current_range_meters":19600,"station_id":"ce4bgn92rcd13ifvqbvg","pricing_plan_id":"cebpf4jnsgd1na2vs0mg"},{"bike_id":"1f3fc445-cfe1-4892-982b-207715f384a9","system_id":"levelo_inurba_marseille","lat":43.296095,"lon":5.38103,"is_reserved":false,"is_disabled":false,"rental_uris":{"android":"levelo://app?vid=1f3fc445-cfe1-4892-982b-207715f384a9","ios":"levelo://app?vid=1f3fc445-cfe1-4892-982b-207715f384a9"},"vehicle_type_id":"4","last_reported":1756192286,"current_range_meters":19600,"station_id":"ce4bgl12rcd13ifvqbo0","pricing_plan_id":"cebpf4jnsgd1na2vs0mg"},{"bike_id":"d454cb57-2877-419e-ac1c-addf57533bd7","system_id":"levelo_inurba_marseille","lat":43.25594,"lon":5.38226,"is_reserved":false,"is_disabled":false,"rental_uris":{"android":"levelo://app?vid=d454cb57-2877-419e-ac1c-addf57533bd7","ios":"levelo://app?vid=d454cb57-2877-419e-ac1c-addf57533bd7"},"vehicle_type_id":"4","last_reported":1756192286,"current_range_meters":20000,"station_id":"ce4bhih2rcd13ifvqfs0","pricing_plan_id":"cebpf4jnsgd1na2vs0mg"},{"bike_id":"dcde8d9e-f882-4230-a37f-7ddc04dac0e0","system_id":"levelo_inurba_marseille","lat":43.299225,"lon":5.374689,"is_reserved":false,"is_disabled":false,"rental_uris":{"android":"levelo://app?vid=dcde8d9e-f882-4230-a37f-7ddc04dac0e0","ios":"levelo://app?vid=dcde8d9e-f882-4230-a37f-7ddc04dac0e0"},"vehicle_type_id":"4","last_reported":1756192286,"current_range_meters":20000,"station_id":"ce4bgjh2rcd13ifvqbg0","pricing_plan_id":"cebpf4jnsgd1na2vs0mg"},{"bike_id":"e5eabf25-4e1c-476e-b130-9f83cdcfc80c","system_id":"levelo_inurba_marseille","lat":43.298162,"lon":5.41713,"is_reserved":false,"is_disabled":false,"rental_uris":{"android":"levelo://app?vid=e5eabf25-4e1c-476e-b130-9f83cdcfc80c","ios":"levelo://app?vid=e5eabf25-4e1c-476e-b130-9f83cdcfc80c"},"vehicle_type_id":"4","last_reported":1756192286,"current_range_meters":20000,"station_id":"","pricing_plan_id":"cebpf4jnsgd1na2vs0mg"},{"bike_id":"0acc39f7-82d9-4ee5-99e0-3bcf19e8b8e4","system_id":"levelo_inurba_marseille","lat":43.24544,"lon":5.39504,"is_reserved":false,"is_disabled":true,"rental_uris":{"android":"levelo://app?vid=0acc39f7-82d9-4ee5-99e0-3bcf19e8b8e4","ios":"levelo://app?vid=0acc39f7-82d9-4ee5-99e0-3bcf19e8b8e4"},"vehicle_type_id":"4","last_reported":1756192286,"current_range_meters":20000,"station_id":"ce4bhlp2rcd13ifvqgjg","pricing_plan_id":"cebpf4jnsgd1na2vs0mg"},{"bike_id":"92b01dc5-fa57-437f-9c7f-34ee742b5a6d","system_id":"levelo_inurba_marseille","lat":43.27812,"lon":5.40718,"is_reserved":false,"is_disabled":false,"rental_uris":{"android":"levelo://app?vid=92b01dc5-fa57-437f-9c7f-34ee742b5a6d","ios":"levelo://app?vid=92b01dc5-fa57-437f-9c7f-34ee742b5a6d"},"vehicle_type_id":"4","last_reported":1756192286,"current_range_meters":20000,"station_id":"ce4bhnh2rcd13ifvqgtg","pricing_plan_id":"cebpf4jnsgd1na2vs0mg"},{"bike_id":"206106ca-2111-4fbf-8059-5ba630381470","system_id":"levelo_inurba_marseille","lat":43.25113,"lon":5.40324,"is_reserved":false,"is_disabled":false,"rental_uris":{"android":"levelo://app?vid=206106ca-2111-4fbf-8059-5ba630381470","ios":"levelo://app?vid=206106ca-2111-4fbf-8059-5ba630381470"},"vehicle_type_id":"4","last_reported":1756192286,"current_range_meters":20000,"station_id":"ce4bhlh2rcd13ifvqgig","pricing_plan_id":"cebpf4jnsgd1na2vs0mg"},{"bike_id":"5557189e-4d8c-412b-8888-94db0ea051a7","system_id":"levelo_inurba_marseille","lat":43.33774,"lon":5.37444,"is_reserved":false,"is_disabled":false,"rental_uris":{"android":"levelo://app?vid=5557189e-4d8c-412b-8888-94db0ea051a7","ios":"levelo://app?vid=5557189e-4d8c-412b-8888-94db0ea051a7"},"vehicle_type_id":"4","last_reported":1756192286,"current_range_meters":20000,"station_id":"","pricing_plan_id":"cebpf4jnsgd1na2vs0mg"},{"bike_id":"5c26a54e-1e97-4ad3-a16d-614ad930b130","system_id":"levelo_inurba_marseille","lat":43.32088,"lon":5.36759,"is_reserved":false,"is_disabled":false,"rental_uris":{"android":"levelo://app?vid=5c26a54e-1e97-4ad3-a16d-614ad930b130","ios":"levelo://app?vid=5c26a54e-1e97-4ad3-a16d-614ad930b130"},"vehicle_type_id":"4","last_reported":1756192286,"current_range_meters":20400,"station_id":"ce4bhrh2rcd13ifvqhug","pricing_plan_id":"cebpf4jnsgd1na2vs0mg"},{"bike_id":"fbf0e9b4-0244-4455-89e8-bb336b1646cf","system_id":"levelo_inurba_marseille","lat":43.23186,"lon":5.40008,"is_reserved":false,"is_disabled":false,"rental_uris":{"android":"levelo://app?vid=fbf0e9b4-0244-4455-89e8-bb336b1646cf","ios":"levelo://app?vid=fbf0e9b4-0244-4455-89e8-bb336b1646cf"},"vehicle_type_id":"4","last_reported":1756192286,"current_range_meters":20400,"station_id":"ce4bhn12rcd13ifvqgqg","pricing_plan_id":"cebpf4jnsgd1na2vs0mg"},{"bike_id":"b3007b48-5401-4609-8301-f77d26f9a255","system_id":"levelo_inurba_marseille","lat":43.256498,"lon":5.386139,"is_reserved":false,"is_disabled":false,"rental_uris":{"android":"levelo://app?vid=b3007b48-5401-4609-8301-f77d26f9a255","ios":"levelo://app?vid=b3007b48-5401-4609-8301-f77d26f9a255"},"vehicle_type_id":"4","last_reported":1756192286,"current_range_meters":20400,"station_id":"","pricing_plan_id":"cebpf4jnsgd1na2vs0mg"},{"bike_id":"1ef248bb-a4ad-4469-87c6-e462343a012d","system_id":"levelo_inurba_marseille","lat":43.31351,"lon":5.36724,"is_reserved":false,"is_disabled":false,"rental_uris":{"android":"levelo://app?vid=1ef248bb-a4ad-4469-87c6-e462343a012d","ios":"levelo://app?vid=1ef248bb-a4ad-4469-87c6-e462343a012d"},"vehicle_type_id":"4","last_reported":1756192286,"current_range_meters":20400,"station_id":"ce4bgr92rcd13ifvqc6g","pricing_plan_id":"cebpf4jnsgd1na2vs0mg"},{"bike_id":"3c4876c0-7670-4af2-8017-9035f4c63e4e","system_id":"levelo_inurba_marseille","lat":43.23173,"lon":5.43751,"is_reserved":false,"is_disabled":false,"rental_uris":{"android":"levelo://app?vid=3c4876c0-7670-4af2-8017-9035f4c63e4e","ios":"levelo://app?vid=3c4876c0-7670-4af2-8017-9035f4c63e4e"},"vehicle_type_id":"4","last_reported":1756192286,"current_range_meters":20400,"station_id":"ce4bhmp2rcd13ifvqgog","pricing_plan_id":"cebpf4jnsgd1na2vs0mg"},{"bike_id":"7d802eb3-8055-4765-a5e9-6c32f6d7ebc7","system_id":"levelo_inurba_marseille","lat":43.2396,"lon":5.36623,"is_reserved":false,"is_disabled":false,"rental_uris":{"android":"levelo://app?vid=7d802eb3-8055-4765-a5e9-6c32f6d7ebc7","ios":"levelo://app?vid=7d802eb3-8055-4765-a5e9-6c32f6d7ebc7"},"vehicle_type_id":"4","last_reported":1756192286,"current_range_meters":20800,"station_id":"ce4bhi12rcd13ifvqfp0","pricing_plan_id":"cebpf4jnsgd1na2vs0mg"},{"bike_id":"cb33e38f-38d6-4ceb-8fbf-31dfa003a345","system_id":"levelo_inurba_marseille","lat":43.312791,"lon":5.401651,"is_reserved":false,"is_disabled":false,"rental_uris":{"android":"levelo://app?vid=cb33e38f-38d6-4ceb-8fbf-31dfa003a345","ios":"levelo://app?vid=cb33e38f-38d6-4ceb-8fbf-31dfa003a345"},"vehicle_type_id":"4","last_reported":1756192286,"current_range_meters":20800,"station_id":"ce4bh092rcd13ifvqd30","pricing_plan_id":"cebpf4jnsgd1na2vs0mg"},{"bike_id":"5002ab8f-0c9d-4313-b523-fd24100199d7","system_id":"levelo_inurba_marseille","lat":43.32487,"lon":5.36577,"is_reserved":false,"is_disabled":false,"rental_uris":{"android":"levelo://app?vid=5002ab8f-0c9d-4313-b523-fd24100199d7","ios":"levelo://app?vid=5002ab8f-0c9d-4313-b523-fd24100199d7"},"vehicle_type_id":"4","last_reported":1756192286,"current_range_meters":20800,"station_id":"ce4bhs12rcd13ifvqhvg","pricing_plan_id":"cebpf4jnsgd1na2vs0mg"},{"bike_id":"3c09ee23-fb0b-4cf4-a9e1-d9025cda5b74","system_id":"levelo_inurba_marseille","lat":43.2623,"lon":5.40451,"is_reserved":false,"is_disabled":false,"rental_uris":{"android":"levelo://app?vid=3c09ee23-fb0b-4cf4-a9e1-d9025cda5b74","ios":"levelo://app?vid=3c09ee23-fb0b-4cf4-a9e1-d9025cda5b74"},"vehicle_type_id":"4","last_reported":1756192286,"current_range_meters":20800,"station_id":"ce4bhmh2rcd13ifvqgmg","pricing_plan_id":"cebpf4jnsgd1na2vs0mg"},{"bike_id":"71136ea1-3aaf-4521-8084-554abe261412","system_id":"levelo_inurba_marseille","lat":43.303037,"lon":5.369059,"is_reserved":false,"is_disabled":true,"rental_uris":{"android":"levelo://app?vid=71136ea1-3aaf-4521-8084-554abe261412","ios":"levelo://app?vid=71136ea1-3aaf-4521-8084-554abe261412"},"vehicle_type_id":"4","last_reported":1756192286,"current_range_meters":20800,"station_id":"","pricing_plan_id":"cebpf4jnsgd1na2vs0mg"},{"bike_id":"e6dfd505-b8fc-41ba-a42c-873433ef4234","system_id":"levelo_inurba_marseille","lat":43.21193,"lon":5.3507,"is_reserved":false,"is_disabled":false,"rental_uris":{"android":"levelo://app?vid=e6dfd505-b8fc-41ba-a42c-873433ef4234","ios":"levelo://app?vid=e6dfd505-b8fc-41ba-a42c-873433ef4234"},"vehicle_type_id":"4","last_reported":1756192286,"current_range_meters":20800,"station_id":"st_cvj6sg6p6f1abm77japg","pricing_plan_id":"cebpf4jnsgd1na2vs0mg"},{"bike_id":"3115c199-1541-45cb-a98a-f6ff5bbd4b1f","system_id":"levelo_inurba_marseille","lat":43.30808,"lon":5.36956,"is_reserved":false,"is_disabled":false,"rental_uris":{"android":"levelo://app?vid=3115c199-1541-45cb-a98a-f6ff5bbd4b1f","ios":"levelo://app?vid=3115c199-1541-45cb-a98a-f6ff5bbd4b1f"},"vehicle_type_id":"4","last_reported":1756192286,"current_range_meters":20800,"station_id":"","pricing_plan_id":"cebpf4jnsgd1na2vs0mg"},{"bike_id":"9d736fa0-bdde-4a2b-ac00-72a01eb28d2b","system_id":"levelo_inurba_marseille","lat":43.29298,"lon":5.37456,"is_reserved":false,"is_disabled":false,"rental_uris":{"android":"levelo://app?vid=9d736fa0-bdde-4a2b-ac00-72a01eb28d2b","ios":"levelo://app?vid=9d736fa0-bdde-4a2b-ac00-72a01eb28d2b"},"vehicle_type_id":"4","last_reported":1756192286,"current_range_meters":20800,"station_id":"ce4bgi12rcd13ifvqb70","pricing_plan_id":"cebpf4jnsgd1na2vs0mg"},{"bike_id":"a9d83b21-9821-4029-bb59-40c830188146","system_id":"levelo_inurba_marseille","lat":43.3237,"lon":5.36766,"is_reserved":false,"is_disabled":false,"rental_uris":{"android":"levelo://app?vid=a9d83b21-9821-4029-bb59-40c830188146","ios":"levelo://app?vid=a9d83b21-9821-4029-bb59-40c830188146"},"vehicle_type_id":"4","last_reported":1756192286,"current_range_meters":20800,"station_id":"ce4bhsh2rcd13ifvqi2g","pricing_plan_id":"cebpf4jnsgd1na2vs0mg"},{"bike_id":"536621a9-6f8a-4068-a65d-6d6de6f9a0da","system_id":"levelo_inurba_marseille","lat":43.26962,"lon":5.38638,"is_reserved":false,"is_disabled":false,"rental_uris":{"android":"levelo://app?vid=536621a9-6f8a-4068-a65d-6d6de6f9a0da","ios":"levelo://app?vid=536621a9-6f8a-4068-a65d-6d6de6f9a0da"},"vehicle_type_id":"4","last_reported":1756192286,"current_range_meters":20800,"station_id":"ce4bhh92rcd13ifvqfh0","pricing_plan_id":"cebpf4jnsgd1na2vs0mg"},{"bike_id":"f67c8e5e-7af8-4847-a4ce-1e12088b4291","system_id":"levelo_inurba_marseille","lat":43.32568,"lon":5.3688,"is_reserved":false,"is_disabled":false,"rental_uris":{"android":"levelo://app?vid=f67c8e5e-7af8-4847-a4ce-1e12088b4291","ios":"levelo://app?vid=f67c8e5e-7af8-4847-a4ce-1e12088b4291"},"vehicle_type_id":"4","last_reported":1756192286,"current_range_meters":20800,"station_id":"","pricing_plan_id":"cebpf4jnsgd1na2vs0mg"},{"bike_id":"ed1d9fd8-e38e-41b0-ac6f-437eb3e2cdb7","system_id":"levelo_inurba_marseille","lat":43.30951,"lon":5.3903,"is_reserved":false,"is_disabled":false,"rental_uris":{"android":"levelo://app?vid=ed1d9fd8-e38e-41b0-ac6f-437eb3e2cdb7","ios":"levelo://app?vid=ed1d9fd8-e38e-41b0-ac6f-437eb3e2cdb7"},"vehicle_type_id":"4","last_reported":1756192286,"current_range_meters":20800,"station_id":"ce4bgup2rcd13ifvqco0","pricing_plan_id":"cebpf4jnsgd1na2vs0mg"},{"bike_id":"0a84103c-adac-46fe-89ab-5c1b1bc04a7f","system_id":"levelo_inurba_marseille","lat":43.23196,"lon":5.35551,"is_reserved":false,"is_disabled":false,"rental_uris":{"android":"levelo://app?vid=0a84103c-adac-46fe-89ab-5c1b1bc04a7f","ios":"levelo://app?vid=0a84103c-adac-46fe-89ab-5c1b1bc04a7f"},"vehicle_type_id":"4","last_reported":1756192286,"current_range_meters":20800,"station_id":"ce4bhu92rcd13ifvqi70","pricing_plan_id":"cebpf4jnsgd1na2vs0mg"},{"bike_id":"6485dc9f-b36f-4360-a520-cd5c723dfcab","system_id":"levelo_inurba_marseille","lat":43.30311,"lon":5.36897,"is_reserved":false,"is_disabled":false,"rental_uris":{"android":"levelo://app?vid=6485dc9f-b36f-4360-a520-cd5c723dfcab","ios":"levelo://app?vid=6485dc9f-b36f-4360-a520-cd5c723dfcab"},"vehicle_type_id":"4","last_reported":1756192286,"current_range_meters":20800,"station_id":"ce4bgqh2rcd13ifvqc5g","pricing_plan_id":"cebpf4jnsgd1na2vs0mg"},{"bike_id":"a980adb7-bc2c-45be-991f-d7e0a6527f30","system_id":"levelo_inurba_marseille","lat":43.302516,"lon":5.400796,"is_reserved":false,"is_disabled":false,"rental_uris":{"android":"levelo://app?vid=a980adb7-bc2c-45be-991f-d7e0a6527f30","ios":"levelo://app?vid=a980adb7-bc2c-45be-991f-d7e0a6527f30"},"vehicle_type_id":"4","last_reported":1756192286,"current_range_meters":20800,"station_id":"","pricing_plan_id":"cebpf4jnsgd1na2vs0mg"},{"bike_id":"d4c5f537-5a7b-44e5-8f5f-709f4f477ae9","system_id":"levelo_inurba_marseille","lat":43.23972,"lon":5.36629,"is_reserved":false,"is_disabled":false,"rental_uris":{"android":"levelo://app?vid=d4c5f537-5a7b-44e5-8f5f-709f4f477ae9","ios":"levelo://app?vid=d4c5f537-5a7b-44e5-8f5f-709f4f477ae9"},"vehicle_type_id":"4","last_reported":1756192286,"current_range_meters":20800,"station_id":"ce4bhi12rcd13ifvqfp0","pricing_plan_id":"cebpf4jnsgd1na2vs0mg"},{"bike_id":"d388bba7-49c5-418c-b4c4-e03acfa12135","system_id":"levelo_inurba_marseille","lat":43.29522,"lon":5.37678,"is_reserved":false,"is_disabled":false,"rental_uris":{"android":"levelo://app?vid=d388bba7-49c5-418c-b4c4-e03acfa12135","ios":"levelo://app?vid=d388bba7-49c5-418c-b4c4-e03acfa12135"},"vehicle_type_id":"4","last_reported":1756192286,"current_range_meters":20800,"station_id":"ce4bgkp2rcd13ifvqbmg","pricing_plan_id":"cebpf4jnsgd1na2vs0mg"},{"bike_id":"c370e8fc-9853-4490-82ee-3bbad1e9d200","system_id":"levelo_inurba_marseille","lat":43.30538,"lon":5.36545,"is_reserved":false,"is_disabled":false,"rental_uris":{"android":"levelo://app?vid=c370e8fc-9853-4490-82ee-3bbad1e9d200","ios":"levelo://app?vid=c370e8fc-9853-4490-82ee-3bbad1e9d200"},"vehicle_type_id":"4","last_reported":1756192286,"current_range_meters":21600,"station_id":"ce4bgs12rcd13ifvqcag","pricing_plan_id":"cebpf4jnsgd1na2vs0mg"},