{"last_updated":1736413761,"ttl":60,"version":"2.2","data":{"bikes":[{"bike_id":"1db5158e-767d-4ae3-99cf-55245b9ab73b","system_id":"levelo_inurba_marseille","lat":43.23963,"lon":5.36627,"is_reserved":false,"is_disabled":false,"rental_uris":{"android":"levelo://app?vid=1db5158e-767d-4ae3-99cf-55245b9ab73b","ios":"levelo://app?vid=1db5158e-767d-4ae3-99cf-55245b9ab73b"},"vehicle_type_id":"4","last_reported":1736413761,"current_range_meters":22800,"station_id":"ce4bhi12rcd13ifvqfp0","pricing_plan_id":"cebpf4jnsgd1na2vs0mg"},{"bike_id":"19201661-9d2b-4f3c-b8c5-4e86fe40df0a","system_id":"levelo_inurba_marseille","lat":43.27369,"lon":5.39421,"is_reserved":false,"is_disabled":false,"rental_uris":{"android":"levelo://app?vid=19201661-9d2b-4f3c-b8c5-4e86fe40df0a","ios":"levelo://app?vid=19201661-9d2b-4f3c-b8c5-4e86fe40df0a"},"vehicle_type_id":"4","last_reported":1736413761,"current_range_meters":38800,"station_id":"ce4bhdp2rcd13ifvqf20","pricing_plan_id":"cebpf4jnsgd1na2vs0mg"},{"bike_id":"424b02a3-71fc-4629-934b-0ffcd9c06e9e","system_id":"levelo_inurba_marseille","lat":43.30874,"lon":5.39648,"is_reserved":false,"is_disabled":false,"rental_uris":{"android":"levelo://app?vid=424b02a3-71fc-4629-934b-0ffcd9c06e9e","ios":"levelo://app?vid=424b02a3-71fc-4629-934b-0ffcd9c06e9e"},"vehicle_type_id":"4","last_reported":1736413761,"current_range_meters":37600,"station_id":"ce4bh012rcd13ifvqcv0","pricing_plan_id":"cebpf4jnsgd1na2vs0mg"},{"bike_id":"c2aea2f4-9f3f-4be6-9d98-23b4bb3c1c50","system_id":"levelo_inurba_marseille","lat":43.24076,"lon":5.37757,"is_reserved":false,"is_disabled":false,"rental_uris":{"android":"levelo://app?vid=c2aea2f4-9f3f-4be6-9d98-23b4bb3c1c50","ios":"levelo://app?vid=c2aea2f4-9f3f-4be6-9d98-23b4bb3c1c50"},"vehicle_type_id":"4","last_reported":1736413761,"current_range_meters":14800,"station_id":"ce4bhnp2rcd13ifvqgvg","pricing_plan_id":"cebpf4jnsgd1na2vs0mg"},{"bike_id":"bd79f785-a877-4813-8d8f-22c9692def75","system_id":"levelo_inurba_marseille","lat":43.30524,"lon":5.36739,"is_reserved":false,"is_disabled":false,"rental_uris":{"android":"levelo://app?vid=bd79f785-a877-4813-8d8f-22c9692def75","ios":"levelo://app?vid=bd79f785-a877-4813-8d8f-22c9692def75"},"vehicle_type_id":"4","last_reported":1736413761,"current_range_meters":38800,"station_id":"ce4bgrp2rcd13ifvqc9g","pricing_plan_id":"cebpf4jnsgd1na2vs0mg"},{"bike_id":"079a2489-d193-414b-8b47-82e93bfb4b65","system_id":"levelo_inurba_marseille","lat":43.28903,"lon":5.38017,"is_reserved":false,"is_disabled":false,"rental_uris":{"android":"levelo://app?vid=079a2489-d193-414b-8b47-82e93bfb4b65","ios":"levelo://app?vid=079a2489-d193-414b-8b47-82e93bfb4b65"},"vehicle_type_id":"4","last_reported":1736413761,"current_range_meters":33600,"station_id":"","pricing_plan_id":"cebpf4jnsgd1na2vs0mg"},{"bike_id":"38b313e7-9a2f-452f-bdb8-d453ae7237a3","system_id":"levelo_inurba_marseille","lat":43.27491,"lon":5.4247,"is_reserved":false,"is_disabled":false,"rental_uris":{"android":"levelo://app?vid=38b313e7-9a2f-452f-bdb8-d453ae7237a3","ios":"levelo://app?vid=38b313e7-9a2f-452f-bdb8-d453ae7237a3"},"vehicle_type_id":"4","last_reported":1736413761,"current_range_meters":38800,"station_id":"ce4bhn92rcd13ifvqgrg","pricing_plan_id":"cebpf4jnsgd1na2vs0mg"},{"bike_id":"0602debd-05e3-4a01-9152-96c66bda4e93","system_id":"levelo_inurba_marseille","lat":43.26779,"lon":5.39417,"is_reserved":false,"is_disabled":false,"rental_uris":{"android":"levelo://app?vid=0602debd-05e3-4a01-9152-96c66bda4e93","ios":"levelo://app?vid=0602debd-05e3-4a01-9152-96c66bda4e93"},"vehicle_type_id":"4","last_reported":1736413761,"current_range_meters":16000,"station_id":"ce4bhh12rcd13ifvqfg0","pricing_plan_id":"cebpf4jnsgd1na2vs0mg"},{"bike_id":"b0b1c191-80d8-42d7-a86d-9eb2b43e4251","system_id":"levelo_inurba_marseille","lat":43.32454,"lon":5.36603,"is_reserved":false,"is_disabled":false,"rental_uris":{"android":"levelo://app?vid=b0b1c191-80d8-42d7-a86d-9eb2b43e4251","ios":"levelo://app?vid=b0b1c191-80d8-42d7-a86d-9eb2b43e4251"},"vehicle_type_id":"4","last_reported":1736413761,"current_range_meters":36400,"station_id":"ce4bhs12rcd13ifvqhvg","pricing_plan_id":"cebpf4jnsgd1na2vs0mg"},{"bike_id":"c25da445-2bd6-4668-92d8-67b9db836116","system_id":"levelo_inurba_marseille","lat":43.30588,"lon":5.37619,"is_reserved":false,"is_disabled":true,"rental_uris":{"android":"levelo://app?vid=c25da445-2bd6-4668-92d8-67b9db836116","ios":"levelo://app?vid=c25da445-2bd6-4668-92d8-67b9db836116"},"vehicle_type_id":"4","last_reported":1736413761,"current_range_meters":1600,"station_id":"","pricing_plan_id":"cebpf4jnsgd1na2vs0mg"},{"bike_id":"051ee3d7-17a2-401e-9bd5-08261edf66ab","system_id":"levelo_inurba_marseille","lat":43.25949,"lon":5.40904,"is_reserved":false,"is_disabled":false,"rental_uris":{"android":"levelo://app?vid=051ee3d7-17a2-401e-9bd5-08261edf66ab","ios":"levelo://app?vid=051ee3d7-17a2-401e-9bd5-08261edf66ab"},"vehicle_type_id":"4","last_reported":1736413761,"current_range_meters":22800,"station_id":"ce4bhm92rcd13ifvqglg","pricing_plan_id":"cebpf4jnsgd1na2vs0mg"},{"bike_id":"89b3ad15-3316-4a7f-a04e-7776dd6ff918","system_id":"levelo_inurba_marseille","lat":43.30951,"lon":5.39049,"is_reserved":false,"is_disabled":false,"rental_uris":{"android":"levelo://app?vid=89b3ad15-3316-4a7f-a04e-7776dd6ff918","ios":"levelo://app?vid=89b3ad15-3316-4a7f-a04e-7776dd6ff918"},"vehicle_type_id":"4","last_reported":1736413761,"current_range_meters":39200,"station_id":"ce4bgup2rcd13ifvqco0","pricing_plan_id":"cebpf4jnsgd1na2vs0mg"},{"bike_id":"784c114c-6b4b-4d66-8437-8a364b7d7999","system_id":"levelo_inurba_marseille","lat":43.337242,"lon":5.391728,"is_reserved":false,"is_disabled":false,"rental_uris":{"android":"levelo://app?vid=784c114c-6b4b-4d66-8437-8a364b7d7999","ios":"levelo://app?vid=784c114c-6b4b-4d66-8437-8a364b7d7999"},"vehicle_type_id":"4","last_reported":1736413761,"current_range_meters":30400,"station_id":"ce4bhr92rcd13ifvqhsg","pricing_plan_id":"cebpf4jnsgd1na2vs0mg"},{"bike_id":"bf887147-63c1-446c-9415-5e82581b5a97","system_id":"levelo_inurba_marseille","lat":43.30271,"lon":5.37726,"is_reserved":false,"is_disabled":false,"rental_uris":{"android":"levelo://app?vid=bf887147-63c1-446c-9415-5e82581b5a97","ios":"levelo://app?vid=bf887147-63c1-446c-9415-5e82581b5a97"},"vehicle_type_id":"4","last_reported":1736413761,"current_range_meters":39200,"station_id":"ce4bguh2rcd13ifvqcj0","pricing_plan_id":"cebpf4jnsgd1na2vs0mg"},{"bike_id":"1927b5c1-461b-4ad6-b434-4ee135d4d1e3","system_id":"levelo_inurba_marseille","lat":43.24051,"lon":5.37774,"is_reserved":false,"is_disabled":false,"rental_uris":{"android":"levelo://app?vid=1927b5c1-461b-4ad6-b434-4ee135d4d1e3","ios":"levelo://app?vid=1927b5c1-461b-4ad6-b434-4ee135d4d1e3"},"vehicle_type_id":"4","last_reported":1736413761,"current_range_meters":28000,"station_id":"ce4bhnp2rcd13ifvqgvg","pricing_plan_id":"cebpf4jnsgd1na2vs0mg"},{"bike_id":"0dcd0f11-f5bc-4d34-b39c-25302a44b9d0","system_id":"levelo_inurba_marseille","lat":43.29577,"lon":5.36738,"is_reserved":false,"is_disabled":false,"rental_uris":{"android":"levelo://app?vid=0dcd0f11-f5bc-4d34-b39c-25302a44b9d0","ios":"levelo://app?vid=0dcd0f11-f5bc-4d34-b39c-25302a44b9d0"},"vehicle_type_id":"4","last_reported":1736413761,"current_range_meters":29600,"station_id":"ce4bgph2rcd13ifvqc2g","pricing_plan_id":"cebpf4jnsgd1na2vs0mg"},{"bike_id":"ece82557-6569-4215-9027-5b44a37fe52e","system_id":"levelo_inurba_marseille","lat":43.29085,"lon":5.3801,"is_reserved":false,"is_disabled":true,"rental_uris":{"android":"levelo://app?vid=ece82557-6569-4215-9027-5b44a37fe52e","ios":"levelo://app?vid=ece82557-6569-4215-9027-5b44a37fe52e"},"vehicle_type_id":"4","last_reported":1736413761,"current_range_meters":0,"station_id":"","pricing_plan_id":"cebpf4jnsgd1na2vs0mg"},{"bike_id":"27867ec6-dc38-4e93-906a-9fa049ef4236","system_id":"levelo_inurba_marseille","lat":43.30513,"lon":5.36718,"is_reserved":false,"is_disabled":false,"rental_uris":{"android":"levelo://app?vid=27867ec6-dc38-4e93-906a-9fa049ef4236","ios":"levelo://app?vid=27867ec6-dc38-4e93-906a-9fa049ef4236"},"vehicle_type_id":"4","last_reported":1736413761,"current_range_meters":39200,"station_id":"ce4bgrp2rcd13ifvqc9g","pricing_plan_id":"cebpf4jnsgd1na2vs0mg"},{"bike_id":"6a7508b6-8e48-4d98-89c7-816a80a87e9a","system_id":"levelo_inurba_marseille","lat":43.28972,"lon":5.37838,"is_reserved":false,"is_disabled":false,"rental_uris":{"android":"levelo://app?vid=6a7508b6-8e48-4d98-89c7-816a80a87e9a","ios":"levelo://app?vid=6a7508b6-8e48-4d98-89c7-816a80a87e9a"},"vehicle_type_id":"4","last_reported":1736413761,"current_range_meters":20800,"station_id":"ce4bh9p2rcd13ifvqed0","pricing_plan_id":"cebpf4jnsgd1na2vs0mg"},{"bike_id":"f40a23e1-4db4-43c9-bf26-5d3436aadc87","system_id":"levelo_inurba_marseille","lat":43.28334,"lon":5.3866,"is_reserved":false,"is_disabled":true,"rental_uris":{"android":"levelo://app?vid=f40a23e1-4db4-43c9-bf26-5d3436aadc87","ios":"levelo://app?vid=f40a23e1-4db4-43c9-bf26-5d3436aadc87"},"vehicle_type_id":"4","last_reported":1736413761,"current_range_meters":35600,"station_id":"ce4bh492rcd13ifvqdvg","pricing_plan_id":"cebpf4jnsgd1na2vs0mg"},{"bike_id":"af95b07a-de52-49d8-a614-07e4f7bb8eb8","system_id":"levelo_inurba_marseille","lat":43.30076,"lon":5.39074,"is_reserved":false,"is_disabled":false,"rental_uris":{"android":"levelo://app?vid=af95b07a-de52-49d8-a614-07e4f7bb8eb8","ios":"levelo://app?vid=af95b07a-de52-49d8-a614-07e4f7bb8eb8"},"vehicle_type_id":"4","last_reported":1736413761,"current_range_meters":38800,"station_id":"ce4bh192rcd13ifvqdb0","pricing_plan_id":"cebpf4jnsgd1na2vs0mg"},{"bike_id":"73eb524f-2d58-4a00-9fa5-76f6077910dd","system_id":"levelo_inurba_marseille","lat":43.23177,"lon":5.40004,"is_reserved":false,"is_disabled":true,"rental_uris":{"android":"levelo://app?vid=73eb524f-2d58-4a00-9fa5-76f6077910dd","ios":"levelo://app?vid=73eb524f-2d58-4a00-9fa5-76f6077910dd"},"vehicle_type_id":"4","last_reported":1736413761,"current_range_meters":8800,"station_id":"ce4bhn12rcd13ifvqgqg","pricing_plan_id":"cebpf4jnsgd1na2vs0mg"},{"bike_id":"c38e3732-0196-42c9-aabd-9e168dff810d","system_id":"levelo_inurba_marseille","lat":43.30489,"lon":5.37909,"is_reserved":false,"is_disabled":false,"rental_uris":{"android":"levelo://app?vid=c38e3732-0196-42c9-aabd-9e168dff810d","ios":"levelo://app?vid=c38e3732-0196-42c9-aabd-9e168dff810d"},"vehicle_type_id":"4","last_reported":1736413761,"current_range_meters":9600,"station_id":"ce4bgup2rcd13ifvqcn0","pricing_plan_id":"cebpf4jnsgd1na2vs0mg"},{"bike_id":"2199d219-e0ca-4b28-a772-ba63161f237a","system_id":"levelo_inurba_marseille","lat":43.32112,"lon":5.36763,"is_reserved":false,"is_disabled":false,"rental_uris":{"android":"levelo://app?vid=2199d219-e0ca-4b28-a772-ba63161f237a","ios":"levelo://app?vid=2199d219-e0ca-4b28-a772-ba63161f237a"},"vehicle_type_id":"4","last_reported":1736413761,"current_range_meters":13600,"station_id":"ce4bhrh2rcd13ifvqhug","pricing_plan_id":"cebpf4jnsgd1na2vs0mg"},{"bike_id":"8bd999a3-1eff-4ddc-85f4-bc9b4d27feb6","system_id":"levelo_inurba_marseille","lat":43.26199,"lon":5.37933,"is_reserved":false,"is_disabled":true,"rental_uris":{"android":"levelo://app?vid=8bd999a3-1eff-4ddc-85f4-bc9b4d27feb6","ios":"levelo://app?vid=8bd999a3-1eff-4ddc-85f4-bc9b4d27feb6"},"vehicle_type_id":"4","last_reported":1736413761,"current_range_meters":1600,"station_id":"ce4bhjp2rcd13ifvqg90","pricing_plan_id":"cebpf4jnsgd1na2vs0mg"},{"bike_id":"2b113b8a-0b8c-4f2f-901d-2bcd3f05c301","system_id":"levelo_inurba_marseille","lat":43.30465,"lon":5.3791,"is_reserved":false,"is_disabled":false,"rental_uris":{"android":"levelo://app?vid=2b113b8a-0b8c-4f2f-901d-2bcd3f05c301","ios":"levelo://app?vid=2b113b8a-0b8c-4f2f-901d-2bcd3f05c301"},"vehicle_type_id":"4","last_reported":1736413761,"current_range_meters":24400,"station_id":"ce4bgup2rcd13ifvqcn0","pricing_plan_id":"cebpf4jnsgd1na2vs0mg"},{"bike_id":"5a5618e9-77be-4df7-ac93-29588848000f","system_id":"levelo_inurba_marseille","lat":43.3229,"lon":5.38273,"is_reserved":false,"is_disabled":false,"rental_uris":{"android":"levelo://app?vid=5a5618e9-77be-4df7-ac93-29588848000f","ios":"levelo://app?vid=5a5618e9-77be-4df7-ac93-29588848000f"},"vehicle_type_id":"4","last_reported":1736413761,"current_range_meters":30000,"station_id":"ce4bhr12rcd13ifvqhqg","pricing_plan_id":"cebpf4jnsgd1na2vs0mg"},{"bike_id":"8b3aca6d-54cb-40f6-ace5-96e7be758080","system_id":"levelo_inurba_marseille","lat":43.29795,"lon":5.38093,"is_reserved":false,"is_disabled":false,"rental_uris":{"android":"levelo://app?vid=8b3aca6d-54cb-40f6-ace5-96e7be758080","ios":"levelo://app?vid=8b3aca6d-54cb-40f6-ace5-96e7be758080"},"vehicle_type_id":"4","last_reported":1736413761,"current_range_meters":24400,"station_id":"ce4bgip2rcd13ifvqbb0","pricing_plan_id":"cebpf4jnsgd1na2vs0mg"},{"bike_id":"7e2cb16e-abcd-40ff-b2a9-ee4f3bdf6a2a","system_id":"levelo_inurba_marseille","lat":43.30949,"lon":5.39044,"is_reserved":false,"is_disabled":false,"rental_uris":{"android":"levelo://app?vid=7e2cb16e-abcd-40ff-b2a9-ee4f3bdf6a2a","ios":"levelo://app?vid=7e2cb16e-abcd-40ff-b2a9-ee4f3bdf6a2a"},"vehicle_type_id":"4","last_reported":1736413761,"current_range_meters":29600,"station_id":"ce4bgup2rcd13ifvqco0","pricing_plan_id":"cebpf4jnsgd1na2vs0mg"},{"bike_id":"8716db54-126d-408a-8960-149e8432745d","system_id":"levelo_inurba_marseille","lat":43.25928,"lon":5.4091,"is_reserved":false,"is_disabled":false,"rental_uris":{"android":"levelo://app?vid=8716db54-126d-408a-8960-149e8432745d","ios":"levelo://app?vid=8716db54-126d-408a-8960-149e8432745d"},"vehicle_type_id":"4","last_reported":1736413761,"current_range_meters":35200,"station_id":"ce4bhm92rcd13ifvqglg","pricing_plan_id":"cebpf4jnsgd1na2vs0mg"},{"bike_id":"d6ff5cea-d200-4b89-8301-213a649e853d","system_id":"levelo_inurba_marseille","lat":43.26197,"lon":5.37919,"is_reserved":false,"is_disabled":false,"rental_uris":{"android":"levelo://app?vid=d6ff5cea-d200-4b89-8301-213a649e853d","ios":"levelo://app?vid=d6ff5cea-d200-4b89-8301-213a649e853d"},"vehicle_type_id":"4","last_reported":1736413761,"current_range_meters":24400,"station_id":"ce4bhjp2rcd13ifvqg90","pricing_plan_id":"cebpf4jnsgd1na2vs0mg"},{"bike_id":"f3a0d90f-b972-446e-8f2b-57029caf2b84","system_id":"levelo_inurba_marseille","lat":43.29032,"lon":5.37571,"is_reserved":false,"is_disabled":false,"rental_uris":{"android":"levelo://app?vid=f3a0d90f-b972-446e-8f2b-57029caf2b84","ios":"levelo://app?vid=f3a0d90f-b972-446e-8f2b-57029caf2b84"},"vehicle_type_id":"4","last_reported":1736413761,"current_range_meters":33200,"station_id":"ce4bh692rcd13ifvqe90","pricing_plan_id":"cebpf4jnsgd1na2vs0mg"},{"bike_id":"5f01e351-0beb-4bec-99a6-8ccfaafab549","system_id":"levelo_inurba_marseille","lat":43.2903,"lon":5.38139,"is_reserved":false,"is_disabled":true,"rental_uris":{"android":"levelo://app?vid=5f01e351-0beb-4bec-99a6-8ccfaafab549","ios":"levelo://app?vid=5f01e351-0beb-4bec-99a6-8ccfaafab549"},"vehicle_type_id":"4","last_reported":1736413761,"current_range_meters":38000,"station_id":"ce4bh4p2rcd13ifvqe1g","pricing_plan_id":"cebpf4jnsgd1na2vs0mg"},{"bike_id":"50f8ee15-cb32-4521-b4fa-58b41ff9f783","system_id":"levelo_inurba_marseille","lat":43.27488,"lon":5.42458,"is_reserved":false,"is_disabled":false,"rental_uris":{"android":"levelo://app?vid=50f8ee15-cb32-4521-b4fa-58b41ff9f783","ios":"levelo://app?vid=50f8ee15-cb32-4521-b4fa-58b41ff9f783"},"vehicle_type_id":"4","last_reported":1736413761,"current_range_meters":20000,"station_id":"ce4bhn92rcd13ifvqgrg","pricing_plan_id":"cebpf4jnsgd1na2vs0mg"},{"bike_id":"6fa4a0b7-3bc7-4cab-82aa-608d21b68d70","system_id":"levelo_inurba_marseille","lat":43.33023,"lon":5.39047,"is_reserved":false,"is_disabled":false,"rental_uris":{"android":"levelo://app?vid=6fa4a0b7-3bc7-4cab-82aa-608d21b68d70","ios":"levelo://app?vid=6fa4a0b7-3bc7-4cab-82aa-608d21b68d70"},"vehicle_type_id":"4","last_reported":1736413761,"current_range_meters":38000,"station_id":"ce4bhr92rcd13ifvqhrg","pricing_plan_id":"cebpf4jnsgd1na2vs0mg"},{"bike_id":"e64ccaa1-341f-4e45-98d3-5478b7337fac","system_id":"levelo_inurba_marseille","lat":43.27492,"lon":5.42471,"is_reserved":false,"is_disabled":false,"rental_uris":{"android":"levelo://app?vid=e64ccaa1-341f-4e45-98d3-5478b7337fac","ios":"levelo://app?vid=e64ccaa1-341f-4e45-98d3-5478b7337fac"},"vehicle_type_id":"4","last_reported":1736413761,"current_range_meters":24800,"station_id":"ce4bhn92rcd13ifvqgrg","pricing_plan_id":"cebpf4jnsgd1na2vs0mg"},{"bike_id":"027fb515-cf5e-4431-9b8b-d23328baea59","system_id":"levelo_inurba_marseille","lat":43.2343,"lon":5.41184,"is_reserved":false,"is_disabled":false,"rental_uris":{"android":"levelo://app?vid=027fb515-cf5e-4431-9b8b-d23328baea59","ios":"levelo://app?vid=027fb515-cf5e-4431-9b8b-d23328baea59"},"vehicle_type_id":"4","last_reported":1736413761,"current_range_meters":15200,"station_id":"","pricing_plan_id":"cebpf4jnsgd1na2vs0mg"},{"bike_id":"0548464b-ef06-42b9-8259-a8997dec7927","system_id":"levelo_inurba_marseille","lat":43.29378,"lon":5.37881,"is_reserved":false,"is_disabled":true,"rental_uris":{"android":"levelo://app?vid=0548464b-ef06-42b9-8259-a8997dec7927","ios":"levelo://app?vid=0548464b-ef06-42b9-8259-a8997dec7927"},"vehicle_type_id":"4","last_reported":1736413761,"current_range_meters":39200,"station_id":"ce4bgjh2rcd13ifvqbf0","pricing_plan_id":"cebpf4jnsgd1na2vs0mg"},{"bike_id":"be4c59f4-a498-44be-a430-245c96b05e75","system_id":"levelo_inurba_marseille","lat":43.32814,"lon":5.39167,"is_reserved":false,"is_disabled":false,"rental_uris":{"android":"levelo://app?vid=be4c59f4-a498-44be-a430-245c96b05e75","ios":"levelo://app?vid=be4c59f4-a498-44be-a430-245c96b05e75"},"vehicle_type_id":"4","last_reported":1736413761,"current_range_meters":11200,"station_id":"","pricing_plan_id":"cebpf4jnsgd1na2vs0mg"},{"bike_id":"feeeae9a-4bcc-477a-bc8c-e9391fa8aedd","system_id":"levelo_inurba_marseille","lat":43.29191,"lon":5.39317,"is_reserved":false,"is_disabled":true,"rental_uris":{"android":"levelo://app?vid=feeeae9a-4bcc-477a-bc8c-e9391fa8aedd","ios":"levelo://app?vid=feeeae9a-4bcc-477a-bc8c-e9391fa8aedd"},"vehicle_type_id":"4","last_reported":1736413761,"current_range_meters":0,"station_id":"ce4bh192rcd13ifvqdd0","pricing_plan_id":"cebpf4jnsgd1na2vs0mg"},{"bike_id":"6ee350e5-00cc-410b-be46-e68683fde1e4","system_id":"levelo_inurba_marseille","lat":43.30279,"lon":5.37714,"is_reserved":false,"is_disabled":false,"rental_uris":{"android":"levelo://app?vid=6ee350e5-00cc-410b-be46-e68683fde1e4","ios":"levelo://app?vid=6ee350e5-00cc-410b-be46-e68683fde1e4"},"vehicle_type_id":"4","last_reported":1736413761,"current_range_meters":36800,"station_id":"ce4bguh2rcd13ifvqcj0","pricing_plan_id":"cebpf4jnsgd1na2vs0mg"},{"bike_id":"dbe4d7d2-95f9-4a28-b000-f9ac7c3f52eb","system_id":"levelo_inurba_marseille","lat":43.29185,"lon":5.393,"is_reserved":false,"is_disabled":true,"rental_uris":{"android":"levelo://app?vid=dbe4d7d2-95f9-4a28-b000-f9ac7c3f52eb","ios":"levelo://app?vid=dbe4d7d2-95f9-4a28-b000-f9ac7c3f52eb"},"vehicle_type_id":"4","last_reported":1736413761,"current_range_meters":0,"station_id":"ce4bh192rcd13ifvqdd0","pricing_plan_id":"cebpf4jnsgd1na2vs0mg"},{"bike_id":"b02ae6ee-06d8-4b9f-9872-c8fcf9b7576a","system_id":"levelo_inurba_marseille","lat":43.30568,"lon":5.36563,"is_reserved":false,"is_disabled":false,"rental_uris":{"android":"levelo://app?vid=b02ae6ee-06d8-4b9f-9872-c8fcf9b7576a","ios":"levelo://app?vid=b02ae6ee-06d8-4b9f-9872-c8fcf9b7576a"},"vehicle_type_id":"4","last_reported":1736413761,"current_range_meters":20400,"station_id":"ce4bgs12rcd13ifvqcag","pricing_plan_id":"cebpf4jnsgd1na2vs0mg"},{"bike_id":"5fa377fe-eb3b-4c5f-ab50-699e5f8d5bb0","system_id":"levelo_inurba_marseille","lat":43.26782,"lon":5.39416,"is_reserved":false,"is_disabled":false,"rental_uris":{"android":"levelo://app?vid=5fa377fe-eb3b-4c5f-ab50-699e5f8d5bb0","ios":"levelo://app?vid=5fa377fe-eb3b-4c5f-ab50-699e5f8d5bb0"},"vehicle_type_id":"4","last_reported":1736413761,"current_range_meters":38800,"station_id":"ce4bhh12rcd13ifvqfg0","pricing_plan_id":"cebpf4jnsgd1na2vs0mg"},{"bike_id":"88d3281d-3774-4453-a399-da9a7778c29e","system_id":"levelo_inurba_marseille","lat":43.26571,"lon":5.39012,"is_reserved":false,"is_disabled":true,"rental_uris":{"android":"levelo://app?vid=88d3281d-3774-4453-a399-da9a7778c29e","ios":"levelo://app?vid=88d3281d-3774-4453-a399-da9a7778c29e"},"vehicle_type_id":"4","last_reported":1736413761,"current_range_meters":400,"station_id":"ce4bhe12rcd13ifvqf30","pricing_plan_id":"cebpf4jnsgd1na2vs0mg"},{"bike_id":"28a111cc-3794-4268-b94a-bc117522b260","system_id":"levelo_inurba_marseille","lat":43.30951,"lon":5.39043,"is_reserved":false,"is_disabled":false,"rental_uris":{"android":"levelo://app?vid=28a111cc-3794-4268-b94a-bc117522b260","ios":"levelo://app?vid=28a111cc-3794-4268-b94a-bc117522b260"},"vehicle_type_id":"4","last_reported":1736413761,"current_range_meters":25600,"station_id":"ce4bgup2rcd13ifvqco0","pricing_plan_id":"cebpf4jnsgd1na2vs0mg"},{"bike_id":"e5410bec-fb17-4f9c-8010-02da077ef2ca","system_id":"levelo_inurba_marseille","lat":43.27969,"lon":5.38703,"is_reserved":false,"is_disabled":false,"rental_uris":{"android":"levelo://app?vid=e5410bec-fb17-4f9c-8010-02da077ef2ca","ios":"levelo://app?vid=e5410bec-fb17-4f9c-8010-02da077ef2ca"},"vehicle_type_id":"4","last_reported":1736413761,"current_range_meters":6400,"station_id":"ce4bhg12rcd13ifvqf80","pricing_plan_id":"cebpf4jnsgd1na2vs0mg"},{"bike_id":"e9b1302c-9612-4751-a40f-ab029a63718c","system_id":"levelo_inurba_marseille","lat":43.30142,"lon":5.37422,"is_reserved":false,"is_disabled":false,"rental_uris":{"android":"levelo://app?vid=e9b1302c-9612-4751-a40f-ab029a63718c","ios":"levelo://app?vid=e9b1302c-9612-4751-a40f-ab029a63718c"},"vehicle_type_id":"4","last_reported":1736413761,"current_range_meters":39200,"station_id":"ce4bgs92rcd13ifvqcc0","pricing_plan_id":"cebpf4jnsgd1na2vs0mg"},{"bike_id":"5a510936-ef30-4d40-ad66-b08ff6fa754c","system_id":"levelo_inurba_marseille","lat":43.30957,"lon":5.3904,"is_reserved":false,"is_disabled":false,"rental_uris":{"android":"levelo://app?vid=5a510936-ef30-4d40-ad66-b08ff6fa754c","ios":"levelo://app?vid=5a510936-ef30-4d40-ad66-b08ff6fa754c"},"vehicle_type_id":"4","last_reported":1736413761,"current_range_meters":38800,"station_id":"ce4bgup2rcd13ifvqco0","pricing_plan_id":"cebpf4jnsgd1na2vs0mg"},{"bike_id":"12b77917-e3cd-4f1f-8656-9e075aa5e923","system_id":"levelo_inurba_marseille","lat":43.3013,"lon":5.38786,"is_reserved":false,"is_disabled":false,"rental_uris":{"android":"levelo://app?vid=12b77917-e3cd-4f1f-8656-9e075aa5e923","ios":"levelo://app?vid=12b77917-e3cd-4f1f-8656-9e075aa5e923"},"vehicle_type_id":"4","last_reported":1736413761,"current_range_meters":36400,"station_id":"ce4bhoh2rcd13ifvqh6g","pricing_plan_id":"cebpf4jnsgd1na2vs0mg"},{"bike_id":"260ad999-6910-4ca2-bb14-f62dc04964ab","system_id":"levelo_inurba_marseille","lat":43.25003,"lon":5.38938,"is_reserved":false,"is_disabled":false,"rental_uris":{"android":"levelo://app?vid=260ad999-6910-4ca2-bb14-f62dc04964ab","ios":"levelo://app?vid=260ad999-6910-4ca2-bb14-f62dc04964ab"},"vehicle_type_id":"4","last_reported":1736413761,"current_range_meters":3600,"station_id":"ce4bhgp2rcd13ifvqfd0","pricing_plan_id":"cebpf4jnsgd1na2vs0mg"},{"bike_id":"fa4e1d94-57a7-4fd9-8196-d235d2c57bf0","system_id":"levelo_inurba_marseille","lat":43.3052,"lon":5.36689,"is_reserved":false,"is_disabled":false,"rental_uris":{"android":"levelo://app?vid=fa4e1d94-57a7-4fd9-8196-d235d2c57bf0","ios":"levelo://app?vid=fa4e1d94-57a7-4fd9-8196-d235d2c57bf0"},"vehicle_type_id":"4","last_reported":1736413761,"current_range_meters":39200,"station_id":"ce4bgrp2rcd13ifvqc9g","pricing_plan_id":"cebpf4jnsgd1na2vs0mg"},{"bike_id":"07acdbf0-e2f3-489b-bd42-61cb30669b29","system_id":"levelo_inurba_marseille","lat":43.27058,"lon":5.42281,"is_reserved":false,"is_disabled":false,"rental_uris":{"android":"levelo://app?vid=07acdbf0-e2f3-489b-bd42-61cb30669b29","ios":"levelo://app?vid=07acdbf0-e2f3-489b-bd42-61cb30669b29"},"vehicle_type_id":"4","last_reported":1736413761,"current_range_meters":39200,"station_id":"ce4bhk92rcd13ifvqgb0","pricing_plan_id":"cebpf4jnsgd1na2vs0mg"},{"bike_id":"ae870ab4-710e-4ed3-9af4-fcc88a5e6080","system_id":"levelo_inurba_marseille","lat":43.26929,"lon":5.38915,"is_reserved":false,"is_disabled":true,"rental_uris":{"android":"levelo://app?vid=ae870ab4-710e-4ed3-9af4-fcc88a5e6080","ios":"levelo://app?vid=ae870ab4-710e-4ed3-9af4-fcc88a5e6080"},"vehicle_type_id":"4","last_reported":1736413761,"current_range_meters":1600,"station_id":"ce4bhhh2rcd13ifvqfl0","pricing_plan_id":"cebpf4jnsgd1na2vs0mg"},{"bike_id":"074f581e-c7b5-47b2-a4b9-c284fa70c031","system_id":"levelo_inurba_marseille","lat":43.28419,"lon":5.3853,"is_reserved":false,"is_disabled":true,"rental_uris":{"android":"levelo://app?vid=074f581e-c7b5-47b2-a4b9-c284fa70c031","ios":"levelo://app?vid=074f581e-c7b5-47b2-a4b9-c284fa70c031"},"vehicle_type_id":"4","last_reported":1736413761,"current_range_meters":38800,"station_id":"ce4bh8p2rcd13ifvqeb0","pricing_plan_id":"cebpf4jnsgd1na2vs0mg"},{"bike_id":"1fe4de93-a972-46c6-bbc7-b129ab9b60fe","system_id":"levelo_inurba_marseille","lat":43.27486,"lon":5.42454,"is_reserved":false,"is_disabled":false,"rental_uris":{"android":"levelo://app?vid=1fe4de93-a972-46c6-bbc7-b129ab9b60fe","ios":"levelo://app?vid=1fe4de93-a972-46c6-bbc7-b129ab9b60fe"},"vehicle_type_id":"4","last_reported":1736413761,"current_range_meters":29600,"station_id":"ce4bhn92rcd13ifvqgrg","pricing_plan_id":"cebpf4jnsgd1na2vs0mg"},{"bike_id":"2efead72-824c-45ef-8cf3-b657af317181","system_id":"levelo_inurba_marseille","lat":43.29848,"lon":5.36285,"is_reserved":false,"is_disabled":false,"rental_uris":{"android":"levelo://app?vid=2efead72-824c-45ef-8cf3-b657af317181","ios":"levelo://app?vid=2efead72-824c-45ef-8cf3-b657af317181"},"vehicle_type_id":"4","last_reported":1736413761,"current_range_meters":39200,"station_id":"ce4bgpp2rcd13ifvqc3g","pricing_plan_id":"cebpf4jnsgd1na2vs0mg"},{"bike_id":"0c9f26e2-be7f-4990-af23-4023b9fc089b","system_id":"levelo_inurba_marseille","lat":43.31081,"lon":5.42439,"is_reserved":false,"is_disabled":false,"rental_uris":{"android":"levelo://app?vid=0c9f26e2-be7f-4990-af23-4023b9fc089b","ios":"levelo://app?vid=0c9f26e2-be7f-4990-af23-4023b9fc089b"},"vehicle_type_id":"4","last_reported":1736413761,"current_range_meters":38800,"station_id":"ce4bhp92rcd13ifvqhag","pricing_plan_id":"cebpf4jnsgd1na2vs0mg"},{"bike_id":"128e494f-c5f6-49d1-8da7-12ffc5ea9838","system_id":"levelo_inurba_marseille","lat":43.24153,"lon":5.36406,"is_reserved":false,"is_disabled":true,"rental_uris":{"android":"levelo://app?vid=128e494f-c5f6-49d1-8da7-12ffc5ea9838","ios":"levelo://app?vid=128e494f-c5f6-49d1-8da7-12ffc5ea9838"},"vehicle_type_id":"4","last_reported":1736413761,"current_range_meters":12400,"station_id":"cpo36qri1sfpv3e86is0","pricing_plan_id":"cebpf4jnsgd1na2vs0mg"},{"bike_id":"f01fdadf-aa17-46a2-9b2b-03f41c0aad0e","system_id":"levelo_inurba_marseille","lat":43.2668,"lon":5.38271,"is_reserved":false,"is_disabled":false,"rental_uris":{"android":"levelo://app?vid=f01fdadf-aa17-46a2-9b2b-03f41c0aad0e","ios":"levelo://app?vid=f01fdadf-aa17-46a2-9b2b-03f41c0aad0e"},"vehicle_type_id":"4","last_reported":1736413761,"current_range_meters":32400,"station_id":"ce4bhg92rcd13ifvqf90","pricing_plan_id":"cebpf4jnsgd1na2vs0mg"},{"bike_id":"5db5fa5f-f767-4b39-a1e0-690234558806","system_id":"levelo_inurba_marseille","lat":43.28702,"lon":5.39994,"is_reserved":false,"is_disabled":false,"rental_uris":{"android":"levelo://app?vid=5db5fa5f-f767-4b39-a1e0-690234558806","ios":"levelo://app?vid=5db5fa5f-f767-4b39-a1e0-690234558806"},"vehicle_type_id":"4","last_reported":1736413761,"current_range_meters":36800,"station_id":"ce4bho92rcd13ifvqh3g","pricing_plan_id":"cebpf4jnsgd1na2vs0mg"},{"bike_id":"bfe61413-0f2e-4c52-b47b-cd780543338a","system_id":"levelo_inurba_marseille","lat":43.27979,"lon":5.38747,"is_reserved":false,"is_disabled":false,"rental_uris":{"android":"levelo://app?vid=bfe61413-0f2e-4c52-b47b-cd780543338a","ios":"levelo://app?vid=bfe61413-0f2e-4c52-b47b-cd780543338a"},"vehicle_type_id":"4","last_reported":1736413761,"current_range_meters":39200,"station_id":"ce4bhg12rcd13ifvqf80","pricing_plan_id":"cebpf4jnsgd1na2vs0mg"},{"bike_id":"13410f0c-5da0-428f-a35c-269f9a8f1cde","system_id":"levelo_inurba_marseille","lat":43.29014,"lon":5.39989,"is_reserved":false,"is_disabled":false,"rental_uris":{"android":"levelo://app?vid=13410f0c-5da0-428f-a35c-269f9a8f1cde","ios":"levelo://app?vid=13410f0c-5da0-428f-a35c-269f9a8f1cde"},"vehicle_type_id":"4","last_reported":1736413761,"current_range_meters":33600,"station_id":"ce4bh392rcd13ifvqdm0","pricing_plan_id":"cebpf4jnsgd1na2vs0mg"},{"bike_id":"42d905c4-9ee2-4402-a796-7c4f27c94b70","system_id":"levelo_inurba_marseille","lat":43.29785,"lon":5.38128,"is_reserved":false,"is_disabled":true,"rental_uris":{"android":"levelo://app?vid=42d905c4-9ee2-4402-a796-7c4f27c94b70","ios":"levelo://app?vid=42d905c4-9ee2-4402-a796-7c4f27c94b70"},"vehicle_type_id":"4","last_reported":1736413761,"current_range_meters":12400,"station_id":"ce4bgip2rcd13ifvqbb0","pricing_plan_id":"cebpf4jnsgd1na2vs0mg"},{"bike_id":"9fd9a3de-90df-466c-8510-f29e450ec62b","system_id":"levelo_inurba_marseille","lat":43.31074,"lon":5.42451,"is_reserved":false,"is_disabled":true,"rental_uris":{"android":"levelo://app?vid=9fd9a3de-90df-466c-8510-f29e450ec62b","ios":"levelo://app?vid=9fd9a3de-90df-466c-8510-f29e450ec62b"},"vehicle_type_id":"4","last_reported":1736413761,"current_range_meters":14000,"station_id":"ce4bhp92rcd13ifvqhag","pricing_plan_id":"cebpf4jnsgd1na2vs0mg"},{"bike_id":"037144ed-aafa-4390-8d32-ef4e940ab49d","system_id":"levelo_inurba_marseille","lat":43.28656,"lon":5.3634,"is_reserved":false,"is_disabled":true,"rental_uris":{"android":"levelo://app?vid=037144ed-aafa-4390-8d32-ef4e940ab49d","ios":"levelo://app?vid=037144ed-aafa-4390-8d32-ef4e940ab49d"},"vehicle_type_id":"4","last_reported":1736413761,"current_range_meters":4000,"station_id":"ce4bhah2rcd13ifvqej0","pricing_plan_id":"cebpf4jnsgd1na2vs0mg"},{"bike_id":"7e647b87-ee39-48c8-8a57-8ca415c7293d","system_id":"levelo_inurba_marseille","lat":43.23059,"lon":5.35498,"is_reserved":false,"is_disabled":false,"rental_uris":{"android":"levelo://app?vid=7e647b87-ee39-48c8-8a57-8ca415c7293d","ios":"levelo://app?vid=7e647b87-ee39-48c8-8a57-8ca415c7293d"},"vehicle_type_id":"4","last_reported":1736413761,"current_range_meters":34800,"station_id":"cpo3342slgdg3j2ifvpg","pricing_plan_id":"cebpf4jnsgd1na2vs0mg"},{"bike_id":"5c32b85d-53fb-40fb-98ff-4457d6e96f8d","system_id":"levelo_inurba_marseille","lat":43.24073,"lon":5.37759,"is_reserved":false,"is_disabled":false,"rental_uris":{"android":"levelo://app?vid=5c32b85d-53fb-40fb-98ff-4457d6e96f8d","ios":"levelo://app?vid=5c32b85d-53fb-40fb-98ff-4457d6e96f8d"},"vehicle_type_id":"4","last_reported":1736413761,"current_range_meters":33200,"station_id":"ce4bhnp2rcd13ifvqgvg","pricing_plan_id":"cebpf4jnsgd1na2vs0mg"},{"bike_id":"92163386-887e-42fb-a4ee-4188451e70b7","system_id":"levelo_inurba_marseille","lat":43.26786,"lon":5.39413,"is_reserved":false,"is_disabled":false,"rental_uris":{"android":"levelo://app?vid=92163386-887e-42fb-a4ee-4188451e70b7","ios":"levelo://app?vid=92163386-887e-42fb-a4ee-4188451e70b7"},"vehicle_type_id":"4","last_reported":1736413761,"current_range_meters":21600,"station_id":"ce4bhh12rcd13ifvqfg0","pricing_plan_id":"cebpf4jnsgd1na2vs0mg"},{"bike_id":"f3ac7703-aae0-4932-9e81-9257657457ab","system_id":"levelo_inurba_marseille","lat":43.2315,"lon":5.4371,"is_reserved":false,"is_disabled":false,"rental_uris":{"android":"levelo://app?vid=f3ac7703-aae0-4932-9e81-9257657457ab","ios":"levelo://app?vid=f3ac7703-aae0-4932-9e81-9257657457ab"},"vehicle_type_id":"4","last_reported":1736413761,"current_range_meters":20000,"station_id":"ce4bhmp2rcd13ifvqgog","pricing_plan_id":"cebpf4jnsgd1na2vs0mg"},{"bike_id":"102cb488-e37e-4a25-ae00-7f174450be41","system_id":"levelo_inurba_marseille","lat":43.27566,"lon":5.38435,"is_reserved":false,"is_disabled":false,"rental_uris":{"android":"levelo://app?vid=102cb488-e37e-4a25-ae00-7f174450be41","ios":"levelo://app?vid=102cb488-e37e-4a25-ae00-7f174450be41"},"vehicle_type_id":"4","last_reported":1736413761,"current_range_meters":38400,"station_id":"ce4bhh92rcd13ifvqfi0","pricing_plan_id":"cebpf4jnsgd1na2vs0mg"},{"bike_id":"1f50cc2d-c6ef-46fb-9c7f-27b6608a6555","system_id":"levelo_inurba_marseille","lat":43.30909,"lon":5.36894,"is_reserved":false,"is_disabled":false,"rental_uris":{"android":"levelo://app?vid=1f50cc2d-c6ef-46fb-9c7f-27b6608a6555","ios":"levelo://app?vid=1f50cc2d-c6ef-46fb-9c7f-27b6608a6555"},"vehicle_type_id":"4","last_reported":1736413761,"current_range_meters":32400,"station_id":"ce4bgn92rcd13ifvqbvg","pricing_plan_id":"cebpf4jnsgd1na2vs0mg"},{"bike_id":"66262c96-b45c-4483-b296-8a78ef082310","system_id":"levelo_inurba_marseille","lat":43.30276,"lon":5.37703,"is_reserved":false,"is_disabled":false,"rental_uris":{"android":"levelo://app?vid=66262c96-b45c-4483-b296-8a78ef082310","ios":"levelo://app?vid=66262c96-b45c-4483-b296-8a78ef082310"},"vehicle_type_id":"4","last_reported":1736413761,"current_range_meters":39200,"station_id":"ce4bguh2rcd13ifvqcj0","pricing_plan_id":"cebpf4jnsgd1na2vs0mg"},{"bike_id":"a225d625-9785-4bb7-8cbe-e625f0ea2f59","system_id":"levelo_inurba_marseille","lat":43.32286,"lon":5.38277,"is_reserved":false,"is_disabled":false,"rental_uris":{"android":"levelo://app?vid=a225d625-9785-4bb7-8cbe-e625f0ea2f59","ios":"levelo://app?vid=a225d625-9785-4bb7-8cbe-e625f0ea2f59"},"vehicle_type_id":"4","last_reported":1736413761,"current_range_meters":29600,"station_id":"ce4bhr12rcd13ifvqhqg","pricing_plan_id":"cebpf4jnsgd1na2vs0mg"},{"bike_id":"2a0f7268-d576-4b7a-8eda-2537efef74a0","system_id":"levelo_inurba_marseille","lat":43.26949,"lon":5.38622,"is_reserved":false,"is_disabled":false,"rental_uris":{"android":"levelo://app?vid=2a0f7268-d576-4b7a-8eda-2537efef74a0","ios":"levelo://app?vid=2a0f7268-d576-4b7a-8eda-2537efef74a0"},"vehicle_type_id":"4","last_reported":1736413761,"current_range_meters":27200,"station_id":"ce4bhh92rcd13ifvqfh0","pricing_plan_id":"cebpf4jnsgd1na2vs0mg"},{"bike_id":"42186609-1090-4a8f-9ae0-a46a6b8a55cf","system_id":"levelo_inurba_marseille","lat":43.24657,"lon":5.38166,"is_reserved":false,"is_disabled":false,"rental_uris":{"android":"levelo://app?vid=42186609-1090-4a8f-9ae0-a46a6b8a55cf","ios":"levelo://app?vid=42186609-1090-4a8f-9ae0-a46a6b8a55cf"},"vehicle_type_id":"4","last_reported":1736413761,"current_range_meters":38800,"station_id":"ce4bhih2rcd13ifvqfr0","pricing_plan_id":"cebpf4jnsgd1na2vs0mg"},{"bike_id":"b07b477a-2ea8-494d-9e08-ad224aef84d2","system_id":"levelo_inurba_marseille","lat":43.29172,"lon":5.37168,"is_reserved":false,"is_disabled":false,"rental_uris":{"android":"levelo://app?vid=b07b477a-2ea8-494d-9e08-ad224aef84d2","ios":"levelo://app?vid=b07b477a-2ea8-494d-9e08-ad224aef84d2"},"vehicle_type_id":"4","last_reported":1736413761,"current_range_meters":16400,"station_id":"ce4bha92rcd13ifvqeh0","pricing_plan_id":"cebpf4jnsgd1na2vs0mg"},{"bike_id":"13cbce6c-172d-4fb0-8f36-08425c851344","system_id":"levelo_inurba_marseille","lat":43.3029,"lon":5.37698,"is_reserved":false,"is_disabled":false,"rental_uris":{"android":"levelo://app?vid=13cbce6c-172d-4fb0-8f36-08425c851344","ios":"levelo://app?vid=13cbce6c-172d-4fb0-8f36-08425c851344"},"vehicle_type_id":"4","last_reported":1736413761,"current_range_meters":6800,"station_id":"ce4bguh2rcd13ifvqcj0","pricing_plan_id":"cebpf4jnsgd1na2vs0mg"},{"bike_id":"26d0005d-774a-48cc-90bd-fc2ec2613bb8","system_id":"levelo_inurba_marseille","lat":43.31987,"lon":5.38172,"is_reserved":false,"is_disabled":false,"rental_uris":{"android":"levelo://app?vid=26d0005d-774a-48cc-90bd-fc2ec2613bb8","ios":"levelo://app?vid=26d0005d-774a-48cc-90bd-fc2ec2613bb8"},"vehicle_type_id":"4","last_reported":1736413761,"current_range_meters":38800,"station_id":"ce4bhr12rcd13ifvqhpg","pricing_plan_id":"cebpf4jnsgd1na2vs0mg"},{"bike_id":"2d1536de-ed9a-4813-bbd6-10bda74ca621","system_id":"levelo_inurba_marseille","lat":43.24807,"lon":5.37467,"is_reserved":false,"is_disabled":false,"rental_uris":{"android":"levelo://app?vid=2d1536de-ed9a-4813-bbd6-10bda74ca621","ios":"levelo://app?vid=2d1536de-ed9a-4813-bbd6-10bda74ca621"},"vehicle_type_id":"4","last_reported":1736413761,"current_range_meters":13600,"station_id":"ce4bhgh2rcd13ifvqfb0","pricing_plan_id":"cebpf4jnsgd1na2vs0mg"},{"bike_id":"e4b1359e-9470-4fcb-aa29-54d365c63ad5","system_id":"levelo_inurba_marseille","lat":43.30145,"lon":5.37418,"is_reserved":false,"is_disabled":false,"rental_uris":{"android":"levelo://app?vid=e4b1359e-9470-4fcb-aa29-54d365c63ad5","ios":"levelo://app?vid=e4b1359e-9470-4fcb-aa29-54d365c63ad5"},"vehicle_type_id":"4","last_reported":1736413761,"current_range_meters":38800,"station_id":"ce4bgs92rcd13ifvqcc0","pricing_plan_id":"cebpf4jnsgd1na2vs0mg"},{"bike_id":"39faa2fe-395f-49c9-9056-e37436793a85","system_id":"levelo_inurba_marseille","lat":43.30313,"lon":5.40446,"is_reserved":false,"is_disabled":true,"rental_uris":{"android":"levelo://app?vid=39faa2fe-395f-49c9-9056-e37436793a85","ios":"levelo://app?vid=39faa2fe-395f-49c9-9056-e37436793a85"},"vehicle_type_id":"4","last_reported":1736413761,"current_range_meters":28800,"station_id":"ce4bh012rcd13ifvqd10","pricing_plan_id":"cebpf4jnsgd1na2vs0mg"},{"bike_id":"80f089d1-6208-4daa-bf1d-e077f22470f1","system_id":"levelo_inurba_marseille","lat":43.33728,"lon":5.39187,"is_reserved":false,"is_disabled":false,"rental_uris":{"android":"levelo://app?vid=80f089d1-6208-4daa-bf1d-e077f22470f1","ios":"levelo://app?vid=80f089d1-6208-4daa-bf1d-e077f22470f1"},"vehicle_type_id":"4","last_reported":1736413761,"current_range_meters":19600,"station_id":"ce4bhr92rcd13ifvqhsg","pricing_plan_id":"cebpf4jnsgd1na2vs0mg"},{"bike_id":"e14b89e2-c308-4a37-be6f-d17509326321","system_id":"levelo_inurba_marseille","lat":43.31336,"lon":5.36771,"is_reserved":false,"is_disabled":false,"rental_uris":{"android":"levelo://app?vid=e14b89e2-c308-4a37-be6f-d17509326321","ios":"levelo://app?vid=e14b89e2-c308-4a37-be6f-d17509326321"},"vehicle_type_id":"4","last_reported":1736413761,"current_range_meters":29600,"station_id":"","pricing_plan_id":"cebpf4jnsgd1na2vs0mg"},{"bike_id":"ee31af65-8f6b-4958-b048-ba78a3897db1","system_id":"levelo_inurba_marseille","lat":43.33611,"lon":5.41035,"is_reserved":false,"is_disabled":false,"rental_uris":{"android":"levelo://app?vid=ee31af65-8f6b-4958-b048-ba78a3897db1","ios":"levelo://app?vid=ee31af65-8f6b-4958-b048-ba78a3897db1"},"vehicle_type_id":"4","last_reported":1736413761,"current_range_meters":16800,"station_id":"ce4bhqh2rcd13ifvqhmg","pricing_plan_id":"cebpf4jnsgd1na2vs0mg"},{"bike_id":"c5d38e55-ac65-4343-b113-b767b27a1b66","system_id":"levelo_inurba_marseille","lat":43.24156,"lon":5.39749,"is_reserved":false,"is_disabled":false,"rental_uris":{"android":"levelo://app?vid=c5d38e55-ac65-4343-b113-b767b27a1b66","ios":"levelo://app?vid=c5d38e55-ac65-4343-b113-b767b27a1b66"},"vehicle_type_id":"4","last_reported":1736413761,"current_range_meters":28000,"station_id":"ce4bhn12rcd13ifvqgpg","pricing_plan_id":"cebpf4jnsgd1na2vs0mg"},{"bike_id":"2b814576-82ce-4758-abf3-c79e907188a0","system_id":"levelo_inurba_marseille","lat":43.29476,"lon":5.37612,"is_reserved":false,"is_disabled":false,"rental_uris":{"android":"levelo://app?vid=2b814576-82ce-4758-abf3-c79e907188a0","ios":"levelo://app?vid=2b814576-82ce-4758-abf3-c79e907188a0"},"vehicle_type_id":"4","last_reported":1736413761,"current_range_meters":8400,"station_id":"","pricing_plan_id":"cebpf4jnsgd1na2vs0mg"},{"bike_id":"634a031a-85f4-4a82-a081-262bdc08dc08","system_id":"levelo_inurba_marseille","lat":43.27492,"lon":5.42457,"is_reserved":false,"is_disabled":false,"rental_uris":{"android":"levelo://app?vid=634a031a-85f4-4a82-a081-262bdc08dc08","ios":"levelo://app?vid=634a031a-85f4-4a82-a081-262bdc08dc08"},"vehicle_type_id":"4","last_reported":1736413761,"current_range_meters":34800,"station_id":"ce4bhn92rcd13ifvqgrg","pricing_plan_id":"cebpf4jnsgd1na2vs0mg"},{"bike_id":"aa09e76d-23f8-4a44-94cf-0cdad7bb336a","system_id":"levelo_inurba_marseille","lat":43.29025,"lon":5.38142,"is_reserved":false,"is_disabled":true,"rental_uris":{"android":"levelo://app?vid=aa09e76d-23f8-4a44-94cf-0cdad7bb336a","ios":"levelo://app?vid=aa09e76d-23f8-4a44-94cf-0cdad7bb336a"},"vehicle_type_id":"4","last_reported":1736413761,"current_range_meters":24400,"station_id":"ce4bh4p2rcd13ifvqe1g","pricing_plan_id":"cebpf4jnsgd1na2vs0mg"},{"bike_id":"4feb35c0-978e-4ca9-bdcd-3a9f084e520b","system_id":"levelo_inurba_marseille","lat":43.25938,"lon":5.40919,"is_reserved":false,"is_disabled":false,"rental_uris":{"android":"levelo://app?vid=4feb35c0-978e-4ca9-bdcd-3a9f084e520b","ios":"levelo://app?vid=4feb35c0-978e-4ca9-bdcd-3a9f084e520b"},"vehicle_type_id":"4","last_reported":1736413761,"current_range_meters":36400,"station_id":"ce4bhm92rcd13ifvqglg","pricing_plan_id":"cebpf4jnsgd1na2vs0mg"},{"bike_id":"f2536309-8d2b-4ccd-86e1-4c168080c77c","system_id":"levelo_inurba_marseille","lat":43.23201,"lon":5.35564,"is_reserved":false,"is_disabled":false,"rental_uris":{"android":"levelo://app?vid=f2536309-8d2b-4ccd-86e1-4c168080c77c","ios":"levelo://app?vid=f2536309-8d2b-4ccd-86e1-4c168080c77c"},"vehicle_type_id":"4","last_reported":1736413761,"current_range_meters":8000,"station_id":"ce4bhu92rcd13ifvqi70","pricing_plan_id":"cebpf4jnsgd1na2vs0mg"},{"bike_id":"98acfbe9-5036-4f04-be90-e65f01ce50b5","system_id":"levelo_inurba_marseille","lat":43.24069,"lon":5.37757,"is_reserved":false,"is_disabled":false,"rental_uris":{"android":"levelo://app?vid=98acfbe9-5036-4f04-be90-e65f01ce50b5","ios":"levelo://app?vid=98acfbe9-5036-4f04-be90-e65f01ce50b5"},"vehicle_type_id":"4","last_reported":1736413761,"current_range_meters":25200,"station_id":"ce4bhnp2rcd13ifvqgvg","pricing_plan_id":"cebpf4jnsgd1na2vs0mg"},{"bike_id":"6b640b87-7556-44b6-bc74-75d5376a29ae","system_id":"levelo_inurba_marseille","lat":43.31325,"lon":5.36766,"is_reserved":false,"is_disabled":false,"rental_uris":{"android":"levelo://app?vid=6b640b87-7556-44b6-bc74-75d5376a29ae","ios":"levelo://app?vid=6b640b87-7556-44b6-bc74-75d5376a29ae"},"vehicle_type_id":"4","last_reported":1736413761,"current_range_meters":31200,"station_id":"ce4bgr92rcd13ifvqc6g","pricing_plan_id":"cebpf4jnsgd1na2vs0mg"},{"bike_id":"37473974-effd-49ca-be9f-43a2b2a7e5ee","system_id":"levelo_inurba_marseille","lat":43.30476,"lon":5.3791,"is_reserved":false,"is_disabled":false,"rental_uris":{"android":"levelo://app?vid=37473974-effd-49ca-be9f-43a2b2a7e5ee","ios":"levelo://app?vid=37473974-effd-49ca-be9f-43a2b2a7e5ee"},"vehicle_type_id":"4","last_reported":1736413761,"current_range_meters":24000,"station_id":"ce4bgup2rcd13ifvqcn0","pricing_plan_id":"cebpf4jnsgd1na2vs0mg"},{"bike_id":"ff74a986-f967-43aa-b18f-f2e18ed7e568","system_id":"levelo_inurba_marseille","lat":43.29104,"lon":5.38129,"is_reserved":false,"is_disabled":true,"rental_uris":{"android":"levelo://app?vid=ff74a986-f967-43aa-b18f-f2e18ed7e568","ios":"levelo://app?vid=ff74a986-f967-43aa-b18f-f2e18ed7e568"},"vehicle_type_id":"4","last_reported":1736413761,"current_range_meters":9600,"station_id":"ce4bh512rcd13ifvqe2g","pricing_plan_id":"cebpf4jnsgd1na2vs0mg"},{"bike_id":"bb636211-c010-46b6-b358-bf7db6dac6a4","system_id":"levelo_inurba_marseille","lat":43.29023,"lon":5.38148,"is_reserved":false,"is_disabled":true,"rental_uris":{"android":"levelo://app?vid=bb636211-c010-46b6-b358-bf7db6dac6a4","ios":"levelo://app?vid=bb636211-c010-46b6-b358-bf7db6dac6a4"},"vehicle_type_id":"4","last_reported":1736413761,"current_range_meters":36800,"station_id":"ce4bh4p2rcd13ifvqe1g","pricing_plan_id":"cebpf4jnsgd1na2vs0mg"},{"bike_id":"4c5ac1d6-5c71-4196-bde6-e664b3c74a47","system_id":"levelo_inurba_marseille","lat":43.29631,"lon":5.37762,"is_reserved":false,"is_disabled":false,"rental_uris":{"android":"levelo://app?vid=4c5ac1d6-5c71-4196-bde6-e664b3c74a47","ios":"levelo://app?vid=4c5ac1d6-5c71-4196-bde6-e664b3c74a47"},"vehicle_type_id":"4","last_reported":1736413761,"current_range_meters":32800,"station_id":"ce4bgi92rcd13ifvqb90","pricing_plan_id":"cebpf4jnsgd1na2vs0mg"},{"bike_id":"a023b9e2-2413-4b3d-a218-b9727e7097b5","system_id":"levelo_inurba_marseille","lat":43.292991,"lon":5.374633,"is_reserved":false,"is_disabled":true,"rental_uris":{"android":"levelo://app?vid=a023b9e2-2413-4b3d-a218-b9727e7097b5","ios":"levelo://app?vid=a023b9e2-2413-4b3d-a218-b9727e7097b5"},"vehicle_type_id":"4","last_reported":1736413761,"current_range_meters":30400,"station_id":"ce4bgi12rcd13ifvqb70","pricing_plan_id":"cebpf4jnsgd1na2vs0mg"},{"bike_id":"ccdaaa6c-81ef-4113-be28-76f9f82c6762","system_id":"levelo_inurba_marseille","lat":43.31361,"lon":5.36752,"is_reserved":false,"is_disabled":false,"rental_uris":{"android":"levelo://app?vid=ccdaaa6c-81ef-4113-be28-76f9f82c6762","ios":"levelo://app?vid=ccdaaa6c-81ef-4113-be28-76f9f82c6762"},"vehicle_type_id":"4","last_reported":1736413761,"current_range_meters":27600,"station_id":"ce4bgr92rcd13ifvqc6g","pricing_plan_id":"cebpf4jnsgd1na2vs0mg"},{"bike_id":"43d93e53-9f11-415d-98d7-95709d8633e5","system_id":"levelo_inurba_marseille","lat":43.26567,"lon":5.39016,"is_reserved":false,"is_disabled":false,"rental_uris":{"android":"levelo://app?vid=43d93e53-9f11-415d-98d7-95709d8633e5","ios":"levelo://app?vid=43d93e53-9f11-415d-98d7-95709d8633e5"},"vehicle_type_id":"4","last_reported":1736413761,"current_range_meters":25200,"station_id":"ce4bhe12rcd13ifvqf30","pricing_plan_id":"cebpf4jnsgd1na2vs0mg"},{"bike_id":"d5482fcd-354e-4663-9fd9-765b1ccf8cb2","system_id":"levelo_inurba_marseille","lat":43.27208,"lon":5.39181,"is_reserved":false,"is_disabled":false,"rental_uris":{"android":"levelo://app?vid=d5482fcd-354e-4663-9fd9-765b1ccf8cb2","ios":"levelo://app?vid=d5482fcd-354e-4663-9fd9-765b1ccf8cb2"},"vehicle_type_id":"4","last_reported":1736413761,"current_range_meters":34800,"station_id":"ce4bhhp2rcd13ifvqfm0","pricing_plan_id":"cebpf4jnsgd1na2vs0mg"},{"bike_id":"2a611997-d70e-4c6d-ac36-17e21435ec55","system_id":"levelo_inurba_marseille","lat":43.30549,"lon":5.36706,"is_reserved":false,"is_disabled":false,"rental_uris":{"android":"levelo://app?vid=2a611997-d70e-4c6d-ac36-17e21435ec55","ios":"levelo://app?vid=2a611997-d70e-4c6d-ac36-17e21435ec55"},"vehicle_type_id":"4","last_reported":1736413761,"current_range_meters":38800,"station_id":"ce4bgrp2rcd13ifvqc9g","pricing_plan_id":"cebpf4jnsgd1na2vs0mg"},{"bike_id":"702703ce-9877-4f50-b0ae-4f79b291ba73","system_id":"levelo_inurba_marseille","lat":43.29227,"lon":5.3607,"is_reserved":false,"is_disabled":false,"rental_uris":{"android":"levelo://app?vid=702703ce-9877-4f50-b0ae-4f79b291ba73","ios":"levelo://app?vid=702703ce-9877-4f50-b0ae-4f79b291ba73"},"vehicle_type_id":"4","last_reported":1736413761,"current_range_meters":3600,"station_id":"ce4bhbh2rcd13ifvqeqg","pricing_plan_id":"cebpf4jnsgd1na2vs0mg"},{"bike_id":"599cb150-7973-4a42-bd67-2927c118c704","system_id":"levelo_inurba_marseille","lat":43.3359,"lon":5.40967,"is_reserved":false,"is_disabled":false,"rental_uris":{"android":"levelo://app?vid=599cb150-7973-4a42-bd67-2927c118c704","ios":"levelo://app?vid=599cb150-7973-4a42-bd67-2927c118c704"},"vehicle_type_id":"4","last_reported":1736413761,"current_range_meters":36800,"station_id":"ce4bhqh2rcd13ifvqhmg","pricing_plan_id":"cebpf4jnsgd1na2vs0mg"},{"bike_id":"e0888fda-f491-4af6-b84a-392b540e2ac4","system_id":"levelo_inurba_marseille","lat":43.27314,"lon":5.39094,"is_reserved":false,"is_disabled":false,"rental_uris":{"android":"levelo://app?vid=e0888fda-f491-4af6-b84a-392b540e2ac4","ios":"levelo://app?vid=e0888fda-f491-4af6-b84a-392b540e2ac4"},"vehicle_type_id":"4","last_reported":1736413761,"current_range_meters":39200,"station_id":"ce4bhgp2rcd13ifvqfe0","pricing_plan_id":"cebpf4jnsgd1na2vs0mg"},{"bike_id":"c1884886-7195-4587-8c39-415e45dd607f","system_id":"levelo_inurba_marseille","lat":43.24172,"lon":5.3972,"is_reserved":false,"is_disabled":false,"rental_uris":{"android":"levelo://app?vid=c1884886-7195-4587-8c39-415e45dd607f","ios":"levelo://app?vid=c1884886-7195-4587-8c39-415e45dd607f"},"vehicle_type_id":"4","last_reported":1736413761,"current_range_meters":8000,"station_id":"ce4bhn12rcd13ifvqgpg","pricing_plan_id":"cebpf4jnsgd1na2vs0mg"},{"bike_id":"3cddc7d0-66f2-44ac-afa2-f28c1202d2e7","system_id":"levelo_inurba_marseille","lat":43.33621,"lon":5.41017,"is_reserved":false,"is_disabled":false,"rental_uris":{"android":"levelo://app?vid=3cddc7d0-66f2-44ac-afa2-f28c1202d2e7","ios":"levelo://app?vid=3cddc7d0-66f2-44ac-afa2-f28c1202d2e7"},"vehicle_type_id":"4","last_reported":1736413761,"current_range_meters":38000,"station_id":"ce4bhqh2rcd13ifvqhmg","pricing_plan_id":"cebpf4jnsgd1na2vs0mg"},{"bike_id":"4efd2084-9715-446a-aae8-df22bb0734d5","system_id":"levelo_inurba_marseille","lat":43.25928,"lon":5.40916,"is_reserved":false,"is_disabled":false,"rental_uris":{"android":"levelo://app?vid=4efd2084-9715-446a-aae8-df22bb0734d5","ios":"levelo://app?vid=4efd2084-9715-446a-aae8-df22bb0734d5"},"vehicle_type_id":"4","last_reported":1736413761,"current_range_meters":23200,"station_id":"ce4bhm92rcd13ifvqglg","pricing_plan_id":"cebpf4jnsgd1na2vs0mg"},{"bike_id":"5713d483-7abf-416d-aad8-a9b2bfa017e6","system_id":"levelo_inurba_marseille","lat":43.30947,"lon":5.39033,"is_reserved":false,"is_disabled":false,"rental_uris":{"android":"levelo://app?vid=5713d483-7abf-416d-aad8-a9b2bfa017e6","ios":"levelo://app?vid=5713d483-7abf-416d-aad8-a9b2bfa017e6"},"vehicle_type_id":"4","last_reported":1736413761,"current_range_meters":33200,"station_id":"ce4bgup2rcd13ifvqco0","pricing_plan_id":"cebpf4jnsgd1na2vs0mg"},{"bike_id":"787a0a52-c6fa-4a14-a1c0-45360157a972","system_id":"levelo_inurba_marseille","lat":43.29622,"lon":5.37169,"is_reserved":false,"is_disabled":false,"rental_uris":{"android":"levelo://app?vid=787a0a52-c6fa-4a14-a1c0-45360157a972","ios":"levelo://app?vid=787a0a52-c6fa-4a14-a1c0-45360157a972"},"vehicle_type_id":"4","last_reported":1736413761,"current_range_meters":38000,"station_id":"ce4bgnh2rcd13ifvqc0g","pricing_plan_id":"cebpf4jnsgd1na2vs0mg"},{"bike_id":"7a0a8a69-615c-43f3-a001-073b74f4a57b","system_id":"levelo_inurba_marseille","lat":43.25572,"lon":5.3825,"is_reserved":false,"is_disabled":false,"rental_uris":{"android":"levelo://app?vid=7a0a8a69-615c-43f3-a001-073b74f4a57b","ios":"levelo://app?vid=7a0a8a69-615c-43f3-a001-073b74f4a57b"},"vehicle_type_id":"4","last_reported":1736413761,"current_range_meters":30800,"station_id":"ce4bhih2rcd13ifvqfs0","pricing_plan_id":"cebpf4jnsgd1na2vs0mg"},{"bike_id":"1c7d6cb4-4214-4739-b9c6-f0c98c5f642c","system_id":"levelo_inurba_marseille","lat":43.2797,"lon":5.3873,"is_reserved":false,"is_disabled":false,"rental_uris":{"android":"levelo://app?vid=1c7d6cb4-4214-4739-b9c6-f0c98c5f642c","ios":"levelo://app?vid=1c7d6cb4-4214-4739-b9c6-f0c98c5f642c"},"vehicle_type_id":"4","last_reported":1736413761,"current_range_meters":8400,"station_id":"ce4bhg12rcd13ifvqf80","pricing_plan_id":"cebpf4jnsgd1na2vs0mg"},{"bike_id":"d03baa4e-a1ff-4dbb-aa3a-8f7610789178","system_id":"levelo_inurba_marseille","lat":43.33731,"lon":5.39183,"is_reserved":false,"is_disabled":false,"rental_uris":{"android":"levelo://app?vid=d03baa4e-a1ff-4dbb-aa3a-8f7610789178","ios":"levelo://app?vid=d03baa4e-a1ff-4dbb-aa3a-8f7610789178"},"vehicle_type_id":"4","last_reported":1736413761,"current_range_meters":38800,"station_id":"ce4bhr92rcd13ifvqhsg","pricing_plan_id":"cebpf4jnsgd1na2vs0mg"},{"bike_id":"49058b21-6042-4dbf-bc84-5620d238a8c9","system_id":"levelo_inurba_marseille","lat":43.30556,"lon":5.38446,"is_reserved":false,"is_disabled":false,"rental_uris":{"android":"levelo://app?vid=49058b21-6042-4dbf-bc84-5620d238a8c9","ios":"levelo://app?vid=49058b21-6042-4dbf-bc84-5620d238a8c9"},"vehicle_type_id":"4","last_reported":1736413761,"current_range_meters":36000,"station_id":"ce4bgg92rcd13ifvqb30","pricing_plan_id":"cebpf4jnsgd1na2vs0mg"},{"bike_id":"0a3d01c7-b1b6-4282-806b-4f33aa594a92","system_id":"levelo_inurba_marseille","lat":43.24392,"lon":5.37071,"is_reserved":false,"is_disabled":false,"rental_uris":{"android":"levelo://app?vid=0a3d01c7-b1b6-4282-806b-4f33aa594a92","ios":"levelo://app?vid=0a3d01c7-b1b6-4282-806b-4f33aa594a92"},"vehicle_type_id":"4","last_reported":1736413761,"current_range_meters":38800,"station_id":"ce4bhhh2rcd13ifvqfk0","pricing_plan_id":"cebpf4jnsgd1na2vs0mg"},{"bike_id":"7ec1bd9d-e77d-4bb3-8b40-80f099c5367b","system_id":"levelo_inurba_marseille","lat":43.26199,"lon":5.37932,"is_reserved":false,"is_disabled":false,"rental_uris":{"android":"levelo://app?vid=7ec1bd9d-e77d-4bb3-8b40-80f099c5367b","ios":"levelo://app?vid=7ec1bd9d-e77d-4bb3-8b40-80f099c5367b"},"vehicle_type_id":"4","last_reported":1736413761,"current_range_meters":26800,"station_id":"ce4bhjp2rcd13ifvqg90","pricing_plan_id":"cebpf4jnsgd1na2vs0mg"},{"bike_id":"e55df270-5810-4b23-940b-dee821cadcec","system_id":"levelo_inurba_marseille","lat":43.266842,"lon":5.382725,"is_reserved":false,"is_disabled":false,"rental_uris":{"android":"levelo://app?vid=e55df270-5810-4b23-940b-dee821cadcec","ios":"levelo://app?vid=e55df270-5810-4b23-940b-dee821cadcec"},"vehicle_type_id":"4","last_reported":1736413761,"current_range_meters":36000,"station_id":"ce4bhg92rcd13ifvqf90","pricing_plan_id":"cebpf4jnsgd1na2vs0mg"},{"bike_id":"6634f8bf-9d52-4118-86a1-d5dfb9f73ba8","system_id":"levelo_inurba_marseille","lat":43.28441,"lon":5.39209,"is_reserved":false,"is_disabled":true,"rental_uris":{"android":"levelo://app?vid=6634f8bf-9d52-4118-86a1-d5dfb9f73ba8","ios":"levelo://app?vid=6634f8bf-9d52-4118-86a1-d5dfb9f73ba8"},"vehicle_type_id":"4","last_reported":1736413761,"current_range_meters":36800,"station_id":"ce4bhoh2rcd13ifvqh5g","pricing_plan_id":"cebpf4jnsgd1na2vs0mg"},{"bike_id":"3a72208a-c29b-4b71-9974-9a261b8b4994","system_id":"levelo_inurba_marseille","lat":43.30134,"lon":5.3741,"is_reserved":false,"is_disabled":false,"rental_uris":{"android":"levelo://app?vid=3a72208a-c29b-4b71-9974-9a261b8b4994","ios":"levelo://app?vid=3a72208a-c29b-4b71-9974-9a261b8b4994"},"vehicle_type_id":"4","last_reported":1736413761,"current_range_meters":24400,"station_id":"ce4bgs92rcd13ifvqcc0","pricing_plan_id":"cebpf4jnsgd1na2vs0mg"},{"bike_id":"42f5424e-3ef9-4bff-baae-9bc228ac5171","system_id":"levelo_inurba_marseille","lat":43.29028,"lon":5.38127,"is_reserved":false,"is_disabled":false,"rental_uris":{"android":"levelo://app?vid=42f5424e-3ef9-4bff-baae-9bc228ac5171","ios":"levelo://app?vid=42f5424e-3ef9-4bff-baae-9bc228ac5171"},"vehicle_type_id":"4","last_reported":1736413761,"current_range_meters":17200,"station_id":"ce4bh4p2rcd13ifvqe1g","pricing_plan_id":"cebpf4jnsgd1na2vs0mg"},{"bike_id":"ff1dc76b-e0a3-4254-8b4c-5f5d5b650629","system_id":"levelo_inurba_marseille","lat":43.30234,"lon":5.40072,"is_reserved":false,"is_disabled":true,"rental_uris":{"android":"levelo://app?vid=ff1dc76b-e0a3-4254-8b4c-5f5d5b650629","ios":"levelo://app?vid=ff1dc76b-e0a3-4254-8b4c-5f5d5b650629"},"vehicle_type_id":"4","last_reported":1736413761,"current_range_meters":0,"station_id":"ce4bgvh2rcd13ifvqcs0","pricing_plan_id":"cebpf4jnsgd1na2vs0mg"},{"bike_id":"5212e9c3-0830-4d45-8ede-e0e21f7811ee","system_id":"levelo_inurba_marseille","lat":43.27809,"lon":5.40714,"is_reserved":false,"is_disabled":false,"rental_uris":{"android":"levelo://app?vid=5212e9c3-0830-4d45-8ede-e0e21f7811ee","ios":"levelo://app?vid=5212e9c3-0830-4d45-8ede-e0e21f7811ee"},"vehicle_type_id":"4","last_reported":1736413761,"current_range_meters":28800,"station_id":"ce4bhnh2rcd13ifvqgtg","pricing_plan_id":"cebpf4jnsgd1na2vs0mg"},{"bike_id":"526503e8-93a6-418c-be12-1eb1aa5129ec","system_id":"levelo_inurba_marseille","lat":43.29515,"lon":5.37503,"is_reserved":false,"is_disabled":false,"rental_uris":{"android":"levelo://app?vid=526503e8-93a6-418c-be12-1eb1aa5129ec","ios":"levelo://app?vid=526503e8-93a6-418c-be12-1eb1aa5129ec"},"vehicle_type_id":"4","last_reported":1736413761,"current_range_meters":21600,"station_id":"ce4bgkp2rcd13ifvqbmg","pricing_plan_id":"cebpf4jnsgd1na2vs0mg"},{"bike_id":"e3487d63-f120-4e4c-a770-3d093ba1410b","system_id":"levelo_inurba_marseille","lat":43.24072,"lon":5.37764,"is_reserved":false,"is_disabled":false,"rental_uris":{"android":"levelo://app?vid=e3487d63-f120-4e4c-a770-3d093ba1410b","ios":"levelo://app?vid=e3487d63-f120-4e4c-a770-3d093ba1410b"},"vehicle_type_id":"4","last_reported":1736413761,"current_range_meters":31200,"station_id":"ce4bhnp2rcd13ifvqgvg","pricing_plan_id":"cebpf4jnsgd1na2vs0mg"},{"bike_id":"3f258685-6857-48e6-8b29-ebcc7cd98558","system_id":"levelo_inurba_marseille","lat":43.30471,"lon":5.37912,"is_reserved":false,"is_disabled":false,"rental_uris":{"android":"levelo://app?vid=3f258685-6857-48e6-8b29-ebcc7cd98558","ios":"levelo://app?vid=3f258685-6857-48e6-8b29-ebcc7cd98558"},"vehicle_type_id":"4","last_reported":1736413761,"current_range_meters":35200,"station_id":"ce4bgup2rcd13ifvqcn0","pricing_plan_id":"cebpf4jnsgd1na2vs0mg"},{"bike_id":"86f289f9-45b8-4759-8a59-be91d7de3c31","system_id":"levelo_inurba_marseille","lat":43.33612,"lon":5.41049,"is_reserved":false,"is_disabled":false,"rental_uris":{"android":"levelo://app?vid=86f289f9-45b8-4759-8a59-be91d7de3c31","ios":"levelo://app?vid=86f289f9-45b8-4759-8a59-be91d7de3c31"},"vehicle_type_id":"4","last_reported":1736413761,"current_range_meters":20000,"station_id":"ce4bhqh2rcd13ifvqhmg","pricing_plan_id":"cebpf4jnsgd1na2vs0mg"},{"bike_id":"6c3fcdde-14ca-44e2-b41b-4d1fc6a8bfc4","system_id":"levelo_inurba_marseille","lat":43.24803,"lon":5.37456,"is_reserved":false,"is_disabled":false,"rental_uris":{"android":"levelo://app?vid=6c3fcdde-14ca-44e2-b41b-4d1fc6a8bfc4","ios":"levelo://app?vid=6c3fcdde-14ca-44e2-b41b-4d1fc6a8bfc4"},"vehicle_type_id":"4","last_reported":1736413761,"current_range_meters":29600,"station_id":"ce4bhgh2rcd13ifvqfb0","pricing_plan_id":"cebpf4jnsgd1na2vs0mg"},{"bike_id":"de68c0ed-ca17-4377-aa01-b8161dea2dd1","system_id":"levelo_inurba_marseille","lat":43.30534,"lon":5.36712,"is_reserved":false,"is_disabled":false,"rental_uris":{"android":"levelo://app?vid=de68c0ed-ca17-4377-aa01-b8161dea2dd1","ios":"levelo://app?vid=de68c0ed-ca17-4377-aa01-b8161dea2dd1"},"vehicle_type_id":"4","last_reported":1736413761,"current_range_meters":36400,"station_id":"ce4bgrp2rcd13ifvqc9g","pricing_plan_id":"cebpf4jnsgd1na2vs0mg"},{"bike_id":"bb5f7b1b-fafb-45b0-a6b7-306e5a25c30d","system_id":"levelo_inurba_marseille","lat":43.23147,"lon":5.43732,"is_reserved":false,"is_disabled":false,"rental_uris":{"android":"levelo://app?vid=bb5f7b1b-fafb-45b0-a6b7-306e5a25c30d","ios":"levelo://app?vid=bb5f7b1b-fafb-45b0-a6b7-306e5a25c30d"},"vehicle_type_id":"4","last_reported":1736413761,"current_range_meters":39200,"station_id":"ce4bhmp2rcd13ifvqgog","pricing_plan_id":"cebpf4jnsgd1na2vs0mg"},{"bike_id":"945846a1-273e-4ff7-b4fa-22eab695956b","system_id":"levelo_inurba_marseille","lat":43.24071,"lon":5.37762,"is_reserved":false,"is_disabled":false,"rental_uris":{"android":"levelo://app?vid=945846a1-273e-4ff7-b4fa-22eab695956b","ios":"levelo://app?vid=945846a1-273e-4ff7-b4fa-22eab695956b"},"vehicle_type_id":"4","last_reported":1736413761,"current_range_meters":30400,"station_id":"ce4bhnp2rcd13ifvqgvg","pricing_plan_id":"cebpf4jnsgd1na2vs0mg"},{"bike_id":"8b39156c-3ea4-4869-b1d6-7c5c55ac828a","system_id":"levelo_inurba_marseille","lat":43.24069,"lon":5.37756,"is_reserved":false,"is_disabled":false,"rental_uris":{"android":"levelo://app?vid=8b39156c-3ea4-4869-b1d6-7c5c55ac828a","ios":"levelo://app?vid=8b39156c-3ea4-4869-b1d6-7c5c55ac828a"},"vehicle_type_id":"4","last_reported":1736413761,"current_range_meters":38800,"station_id":"ce4bhnp2rcd13ifvqgvg","pricing_plan_id":"cebpf4jnsgd1na2vs0mg"},{"bike_id":"c1036f07-11e0-4d1c-ac50-b0205b60a939","system_id":"levelo_inurba_marseille","lat":43.30949,"lon":5.3904,"is_reserved":false,"is_disabled":false,"rental_uris":{"android":"levelo://app?vid=c1036f07-11e0-4d1c-ac50-b0205b60a939","ios":"levelo://app?vid=c1036f07-11e0-4d1c-ac50-b0205b60a939"},"vehicle_type_id":"4","last_reported":1736413761,"current_range_meters":38800,"station_id":"ce4bgup2rcd13ifvqco0","pricing_plan_id":"cebpf4jnsgd1na2vs0mg"},{"bike_id":"1ae0215e-bc90-4e34-bdda-53b9bbc030b6","system_id":"levelo_inurba_marseille","lat":43.30247,"lon":5.40077,"is_reserved":false,"is_disabled":true,"rental_uris":{"android":"levelo://app?vid=1ae0215e-bc90-4e34-bdda-53b9bbc030b6","ios":"levelo://app?vid=1ae0215e-bc90-4e34-bdda-53b9bbc030b6"},"vehicle_type_id":"4","last_reported":1736413761,"current_range_meters":38800,"station_id":"ce4bgvh2rcd13ifvqcs0","pricing_plan_id":"cebpf4jnsgd1na2vs0mg"},{"bike_id":"8cee5632-db46-46b8-a35b-ecd5f3ed418b","system_id":"levelo_inurba_marseille","lat":43.27215,"lon":5.39186,"is_reserved":false,"is_disabled":false,"rental_uris":{"android":"levelo://app?vid=8cee5632-db46-46b8-a35b-ecd5f3ed418b","ios":"levelo://app?vid=8cee5632-db46-46b8-a35b-ecd5f3ed418b"},"vehicle_type_id":"4","last_reported":1736413761,"current_range_meters":38400,"station_id":"ce4bhhp2rcd13ifvqfm0","pricing_plan_id":"cebpf4jnsgd1na2vs0mg"},{"bike_id":"02437e7d-10f5-49c7-946a-5618422e2781","system_id":"levelo_inurba_marseille","lat":43.29777,"lon":5.37138,"is_reserved":false,"is_disabled":false,"rental_uris":{"android":"levelo://app?vid=02437e7d-10f5-49c7-946a-5618422e2781","ios":"levelo://app?vid=02437e7d-10f5-49c7-946a-5618422e2781"},"vehicle_type_id":"4","last_reported":1736413761,"current_range_meters":23200,"station_id":"ce4bgop2rcd13ifvqc1g","pricing_plan_id":"cebpf4jnsgd1na2vs0mg"},{"bike_id":"5faa3d7b-5446-4b7e-a0cc-72c93142d35d","system_id":"levelo_inurba_marseille","lat":43.27968,"lon":5.38716,"is_reserved":false,"is_disabled":false,"rental_uris":{"android":"levelo://app?vid=5faa3d7b-5446-4b7e-a0cc-72c93142d35d","ios":"levelo://app?vid=5faa3d7b-5446-4b7e-a0cc-72c93142d35d"},"vehicle_type_id":"4","last_reported":1736413761,"current_range_meters":32400,"station_id":"ce4bhg12rcd13ifvqf80","pricing_plan_id":"cebpf4jnsgd1na2vs0mg"},{"bike_id":"a5b17657-42e5-456b-bb59-7c63a1f42c97","system_id":"levelo_inurba_marseille","lat":43.23146,"lon":5.43719,"is_reserved":false,"is_disabled":false,"rental_uris":{"android":"levelo://app?vid=a5b17657-42e5-456b-bb59-7c63a1f42c97","ios":"levelo://app?vid=a5b17657-42e5-456b-bb59-7c63a1f42c97"},"vehicle_type_id":"4","last_reported":1736413761,"current_range_meters":28000,"station_id":"ce4bhmp2rcd13ifvqgog","pricing_plan_id":"cebpf4jnsgd1na2vs0mg"},{"bike_id":"37d8e1ef-d932-49d7-b893-49542cf44d13","system_id":"levelo_inurba_marseille","lat":43.32345,"lon":5.40629,"is_reserved":false,"is_disabled":true,"rental_uris":{"android":"levelo://app?vid=37d8e1ef-d932-49d7-b893-49542cf44d13","ios":"levelo://app?vid=37d8e1ef-d932-49d7-b893-49542cf44d13"},"vehicle_type_id":"4","last_reported":1736413761,"current_range_meters":0,"station_id":"ce4bhq92rcd13ifvqhjg","pricing_plan_id":"cebpf4jnsgd1na2vs0mg"},{"bike_id":"458c3d58-e6a5-4d1a-8df2-05d9cb3e0072","system_id":"levelo_inurba_marseille","lat":43.25572,"lon":5.38241,"is_reserved":false,"is_disabled":false,"rental_uris":{"android":"levelo://app?vid=458c3d58-e6a5-4d1a-8df2-05d9cb3e0072","ios":"levelo://app?vid=458c3d58-e6a5-4d1a-8df2-05d9cb3e0072"},"vehicle_type_id":"4","last_reported":1736413761,"current_range_meters":21600,"station_id":"ce4bhih2rcd13ifvqfs0","pricing_plan_id":"cebpf4jnsgd1na2vs0mg"},{"bike_id":"219fc9c4-8fbd-410a-82e7-f97c7d2332e6","system_id":"levelo_inurba_marseille","lat":43.25933,"lon":5.40907,"is_reserved":false,"is_disabled":false,"rental_uris":{"android":"levelo://app?vid=219fc9c4-8fbd-410a-82e7-f97c7d2332e6","ios":"levelo://app?vid=219fc9c4-8fbd-410a-82e7-f97c7d2332e6"},"vehicle_type_id":"4","last_reported":1736413761,"current_range_meters":24800,"station_id":"ce4bhm92rcd13ifvqglg","pricing_plan_id":"cebpf4jnsgd1na2vs0mg"},{"bike_id":"93c5a90b-5646-4017-9884-cb888d12aae9","system_id":"levelo_inurba_marseille","lat":43.30907,"lon":5.36854,"is_reserved":false,"is_disabled":false,"rental_uris":{"android":"levelo://app?vid=93c5a90b-5646-4017-9884-cb888d12aae9","ios":"levelo://app?vid=93c5a90b-5646-4017-9884-cb888d12aae9"},"vehicle_type_id":"4","last_reported":1736413761,"current_range_meters":28000,"station_id":"ce4bgn92rcd13ifvqbvg","pricing_plan_id":"cebpf4jnsgd1na2vs0mg"},{"bike_id":"4074752c-248e-472f-9cc8-f4a66852bbfc","system_id":"levelo_inurba_marseille","lat":43.28061,"lon":5.38715,"is_reserved":false,"is_disabled":false,"rental_uris":{"android":"levelo://app?vid=4074752c-248e-472f-9cc8-f4a66852bbfc","ios":"levelo://app?vid=4074752c-248e-472f-9cc8-f4a66852bbfc"},"vehicle_type_id":"4","last_reported":1736413761,"current_range_meters":30000,"station_id":"","pricing_plan_id":"cebpf4jnsgd1na2vs0mg"},{"bike_id":"63c817a8-7fe4-4bba-9c1c-70e578257f97","system_id":"levelo_inurba_marseille","lat":43.23963,"lon":5.36641,"is_reserved":false,"is_disabled":false,"rental_uris":{"android":"levelo://app?vid=63c817a8-7fe4-4bba-9c1c-70e578257f97","ios":"levelo://app?vid=63c817a8-7fe4-4bba-9c1c-70e578257f97"},"vehicle_type_id":"4","last_reported":1736413761,"current_range_meters":38000,"station_id":"ce4bhi12rcd13ifvqfp0","pricing_plan_id":"cebpf4jnsgd1na2vs0mg"},{"bike_id":"4428bc76-6a8b-4013-bfbc-831a457a428c","system_id":"levelo_inurba_marseille","lat":43.30455,"lon":5.389,"is_reserved":false,"is_disabled":false,"rental_uris":{"android":"levelo://app?vid=4428bc76-6a8b-4013-bfbc-831a457a428c","ios":"levelo://app?vid=4428bc76-6a8b-4013-bfbc-831a457a428c"},"vehicle_type_id":"4","last_reported":1736413761,"current_range_meters":35600,"station_id":"ce4bgk12rcd13ifvqbi0","pricing_plan_id":"cebpf4jnsgd1na2vs0mg"},{"bike_id":"e162055e-04f8-4e16-85e5-e66d7339ffa3","system_id":"levelo_inurba_marseille","lat":43.26674,"lon":5.3827,"is_reserved":false,"is_disabled":false,"rental_uris":{"android":"levelo://app?vid=e162055e-04f8-4e16-85e5-e66d7339ffa3","ios":"levelo://app?vid=e162055e-04f8-4e16-85e5-e66d7339ffa3"},"vehicle_type_id":"4","last_reported":1736413761,"current_range_meters":30800,"station_id":"ce4bhg92rcd13ifvqf90","pricing_plan_id":"cebpf4jnsgd1na2vs0mg"},{"bike_id":"6d37f8f5-1a8c-40d3-9867-c73680f45c7b","system_id":"levelo_inurba_marseille","lat":43.30184,"lon":5.36622,"is_reserved":false,"is_disabled":false,"rental_uris":{"android":"levelo://app?vid=6d37f8f5-1a8c-40d3-9867-c73680f45c7b","ios":"levelo://app?vid=6d37f8f5-1a8c-40d3-9867-c73680f45c7b"},"vehicle_type_id":"4","last_reported":1736413761,"current_range_meters":20000,"station_id":"ce4bgrh2rcd13ifvqc8g","pricing_plan_id":"cebpf4jnsgd1na2vs0mg"},{"bike_id":"73506a2a-d06c-45de-92d0-b96c574a5cbc","system_id":"levelo_inurba_marseille","lat":43.29374,"lon":5.37871,"is_reserved":false,"is_disabled":false,"rental_uris":{"android":"levelo://app?vid=73506a2a-d06c-45de-92d0-b96c574a5cbc","ios":"levelo://app?vid=73506a2a-d06c-45de-92d0-b96c574a5cbc"},"vehicle_type_id":"4","last_reported":1736413761,"current_range_meters":30800,"station_id":"ce4bgjh2rcd13ifvqbf0","pricing_plan_id":"cebpf4jnsgd1na2vs0mg"},{"bike_id":"770d93aa-0c23-4871-aa60-b8e9be50c50c","system_id":"levelo_inurba_marseille","lat":43.33103,"lon":5.38219,"is_reserved":false,"is_disabled":false,"rental_uris":{"android":"levelo://app?vid=770d93aa-0c23-4871-aa60-b8e9be50c50c","ios":"levelo://app?vid=770d93aa-0c23-4871-aa60-b8e9be50c50c"},"vehicle_type_id":"4","last_reported":1736413761,"current_range_meters":27600,"station_id":"","pricing_plan_id":"cebpf4jnsgd1na2vs0mg"},{"bike_id":"7cdfe5cb-2d56-48e1-be17-c9c1f3d2949e","system_id":"levelo_inurba_marseille","lat":43.2749,"lon":5.42457,"is_reserved":false,"is_disabled":false,"rental_uris":{"android":"levelo://app?vid=7cdfe5cb-2d56-48e1-be17-c9c1f3d2949e","ios":"levelo://app?vid=7cdfe5cb-2d56-48e1-be17-c9c1f3d2949e"},"vehicle_type_id":"4","last_reported":1736413761,"current_range_meters":28000,"station_id":"ce4bhn92rcd13ifvqgrg","pricing_plan_id":"cebpf4jnsgd1na2vs0mg"},{"bike_id":"f78f6930-2ded-4fbe-a7b6-76cb3ba02701","system_id":"levelo_inurba_marseille","lat":43.26923,"lon":5.40254,"is_reserved":false,"is_disabled":false,"rental_uris":{"android":"levelo://app?vid=f78f6930-2ded-4fbe-a7b6-76cb3ba02701","ios":"levelo://app?vid=f78f6930-2ded-4fbe-a7b6-76cb3ba02701"},"vehicle_type_id":"4","last_reported":1736413761,"current_range_meters":32800,"station_id":"cjm6bp8fraef2m0cb0m0","pricing_plan_id":"cebpf4jnsgd1na2vs0mg"},{"bike_id":"8e31379e-d2cf-485c-9315-17ecd57dce5b","system_id":"levelo_inurba_marseille","lat":43.2749,"lon":5.42458,"is_reserved":false,"is_disabled":false,"rental_uris":{"android":"levelo://app?vid=8e31379e-d2cf-485c-9315-17ecd57dce5b","ios":"levelo://app?vid=8e31379e-d2cf-485c-9315-17ecd57dce5b"},"vehicle_type_id":"4","last_reported":1736413761,"current_range_meters":36000,"station_id":"ce4bhn92rcd13ifvqgrg","pricing_plan_id":"cebpf4jnsgd1na2vs0mg"},{"bike_id":"7277abf6-1732-4723-9bef-c0330eccd972","system_id":"levelo_inurba_marseille","lat":43.27487,"lon":5.4246,"is_reserved":false,"is_disabled":false,"rental_uris":{"android":"levelo://app?vid=7277abf6-1732-4723-9bef-c0330eccd972","ios":"levelo://app?vid=7277abf6-1732-4723-9bef-c0330eccd972"},"vehicle_type_id":"4","last_reported":1736413761,"current_range_meters":36000,"station_id":"ce4bhn92rcd13ifvqgrg","pricing_plan_id":"cebpf4jnsgd1na2vs0mg"},{"bike_id":"36dc3b8f-35c2-4724-9be8-254949aa0f52","system_id":"levelo_inurba_marseille","lat":43.27418,"lon":5.39429,"is_reserved":false,"is_disabled":false,"rental_uris":{"android":"levelo://app?vid=36dc3b8f-35c2-4724-9be8-254949aa0f52","ios":"levelo://app?vid=36dc3b8f-35c2-4724-9be8-254949aa0f52"},"vehicle_type_id":"4","last_reported":1736413761,"current_range_meters":33600,"station_id":"ce4bhdp2rcd13ifvqf20","pricing_plan_id":"cebpf4jnsgd1na2vs0mg"},{"bike_id":"60ce1b70-e47d-4caf-abee-52e7d5bfe299","system_id":"levelo_inurba_marseille","lat":43.24647,"lon":5.38946,"is_reserved":false,"is_disabled":false,"rental_uris":{"android":"levelo://app?vid=60ce1b70-e47d-4caf-abee-52e7d5bfe299","ios":"levelo://app?vid=60ce1b70-e47d-4caf-abee-52e7d5bfe299"},"vehicle_type_id":"4","last_reported":1736413761,"current_range_meters":38400,"station_id":"ce4bhg12rcd13ifvqf60","pricing_plan_id":"cebpf4jnsgd1na2vs0mg"},{"bike_id":"453af443-818a-4987-b16c-8d007d0c1128","system_id":"levelo_inurba_marseille","lat":43.28706,"lon":5.37928,"is_reserved":false,"is_disabled":true,"rental_uris":{"android":"levelo://app?vid=453af443-818a-4987-b16c-8d007d0c1128","ios":"levelo://app?vid=453af443-818a-4987-b16c-8d007d0c1128"},"vehicle_type_id":"4","last_reported":1736413761,"current_range_meters":38800,"station_id":"ce4bh9p2rcd13ifvqec0","pricing_plan_id":"cebpf4jnsgd1na2vs0mg"},{"bike_id":"66471134-25e4-4211-abd7-23c33d84503b","system_id":"levelo_inurba_marseille","lat":43.2593,"lon":5.40906,"is_reserved":false,"is_disabled":false,"rental_uris":{"android":"levelo://app?vid=66471134-25e4-4211-abd7-23c33d84503b","ios":"levelo://app?vid=66471134-25e4-4211-abd7-23c33d84503b"},"vehicle_type_id":"4","last_reported":1736413761,"current_range_meters":38800,"station_id":"ce4bhm92rcd13ifvqglg","pricing_plan_id":"cebpf4jnsgd1na2vs0mg"},{"bike_id":"a04c750d-c2a3-4826-bb16-b9d8bd34b860","system_id":"levelo_inurba_marseille","lat":43.25562,"lon":5.3825,"is_reserved":false,"is_disabled":false,"rental_uris":{"android":"levelo://app?vid=a04c750d-c2a3-4826-bb16-b9d8bd34b860","ios":"levelo://app?vid=a04c750d-c2a3-4826-bb16-b9d8bd34b860"},"vehicle_type_id":"4","last_reported":1736413761,"current_range_meters":32800,"station_id":"ce4bhih2rcd13ifvqfs0","pricing_plan_id":"cebpf4jnsgd1na2vs0mg"},{"bike_id":"57f70021-95ef-464b-b040-5ab78a528977","system_id":"levelo_inurba_marseille","lat":43.29805,"lon":5.38088,"is_reserved":false,"is_disabled":false,"rental_uris":{"android":"levelo://app?vid=57f70021-95ef-464b-b040-5ab78a528977","ios":"levelo://app?vid=57f70021-95ef-464b-b040-5ab78a528977"},"vehicle_type_id":"4","last_reported":1736413761,"current_range_meters":39200,"station_id":"ce4bgip2rcd13ifvqbb0","pricing_plan_id":"cebpf4jnsgd1na2vs0mg"},{"bike_id":"e822d0cb-7318-4990-aa3b-3f8cdf071a79","system_id":"levelo_inurba_marseille","lat":43.30465,"lon":5.37905,"is_reserved":false,"is_disabled":false,"rental_uris":{"android":"levelo://app?vid=e822d0cb-7318-4990-aa3b-3f8cdf071a79","ios":"levelo://app?vid=e822d0cb-7318-4990-aa3b-3f8cdf071a79"},"vehicle_type_id":"4","last_reported":1736413761,"current_range_meters":30400,"station_id":"ce4bgup2rcd13ifvqcn0","pricing_plan_id":"cebpf4jnsgd1na2vs0mg"},{"bike_id":"0db5fb09-6d82-47a7-a227-f60d367170f3","system_id":"levelo_inurba_marseille","lat":43.302847,"lon":5.376963,"is_reserved":false,"is_disabled":false,"rental_uris":{"android":"levelo://app?vid=0db5fb09-6d82-47a7-a227-f60d367170f3","ios":"levelo://app?vid=0db5fb09-6d82-47a7-a227-f60d367170f3"},"vehicle_type_id":"4","last_reported":1736413761,"current_range_meters":32800,"station_id":"ce4bguh2rcd13ifvqcj0","pricing_plan_id":"cebpf4jnsgd1na2vs0mg"},{"bike_id":"6c9daffc-e174-4a9a-8b3e-30a6cf4027c8","system_id":"levelo_inurba_marseille","lat":43.32111,"lon":5.36795,"is_reserved":false,"is_disabled":false,"rental_uris":{"android":"levelo://app?vid=6c9daffc-e174-4a9a-8b3e-30a6cf4027c8","ios":"levelo://app?vid=6c9daffc-e174-4a9a-8b3e-30a6cf4027c8"},"vehicle_type_id":"4","last_reported":1736413761,"current_range_meters":16000,"station_id":"ce4bhrh2rcd13ifvqhug","pricing_plan_id":"cebpf4jnsgd1na2vs0mg"},{"bike_id":"93b7e7bc-917a-4253-af1e-71755c2c5a70","system_id":"levelo_inurba_marseille","lat":43.29603,"lon":5.37727,"is_reserved":false,"is_disabled":true,"rental_uris":{"android":"levelo://app?vid=93b7e7bc-917a-4253-af1e-71755c2c5a70","ios":"levelo://app?vid=93b7e7bc-917a-4253-af1e-71755c2c5a70"},"vehicle_type_id":"4","last_reported":1736413761,"current_range_meters":11600,"station_id":"ce4bgi92rcd13ifvqb90","pricing_plan_id":"cebpf4jnsgd1na2vs0mg"},{"bike_id":"0eb7659f-ca88-4600-85b9-5fc1232c8636","system_id":"levelo_inurba_marseille","lat":43.28703,"lon":5.37958,"is_reserved":false,"is_disabled":false,"rental_uris":{"android":"levelo://app?vid=0eb7659f-ca88-4600-85b9-5fc1232c8636","ios":"levelo://app?vid=0eb7659f-ca88-4600-85b9-5fc1232c8636"},"vehicle_type_id":"4","last_reported":1736413761,"current_range_meters":38000,"station_id":"ce4bh9p2rcd13ifvqec0","pricing_plan_id":"cebpf4jnsgd1na2vs0mg"},{"bike_id":"aa93e012-148e-4dfc-80c5-c18401d721dd","system_id":"levelo_inurba_marseille","lat":43.2797,"lon":5.38749,"is_reserved":false,"is_disabled":false,"rental_uris":{"android":"levelo://app?vid=aa93e012-148e-4dfc-80c5-c18401d721dd","ios":"levelo://app?vid=aa93e012-148e-4dfc-80c5-c18401d721dd"},"vehicle_type_id":"4","last_reported":1736413761,"current_range_meters":38000,"station_id":"ce4bhg12rcd13ifvqf80","pricing_plan_id":"cebpf4jnsgd1na2vs0mg"},{"bike_id":"49f71cfb-5f4f-4efd-8023-2c4eb676a391","system_id":"levelo_inurba_marseille","lat":43.24169,"lon":5.36384,"is_reserved":false,"is_disabled":false,"rental_uris":{"android":"levelo://app?vid=49f71cfb-5f4f-4efd-8023-2c4eb676a391","ios":"levelo://app?vid=49f71cfb-5f4f-4efd-8023-2c4eb676a391"},"vehicle_type_id":"4","last_reported":1736413761,"current_range_meters":34000,"station_id":"cpo36qri1sfpv3e86is0","pricing_plan_id":"cebpf4jnsgd1na2vs0mg"},{"bike_id":"546fbb96-800b-4f90-be23-b4f678471f8f","system_id":"levelo_inurba_marseille","lat":43.25568,"lon":5.38242,"is_reserved":false,"is_disabled":false,"rental_uris":{"android":"levelo://app?vid=546fbb96-800b-4f90-be23-b4f678471f8f","ios":"levelo://app?vid=546fbb96-800b-4f90-be23-b4f678471f8f"},"vehicle_type_id":"4","last_reported":1736413761,"current_range_meters":11600,"station_id":"ce4bhih2rcd13ifvqfs0","pricing_plan_id":"cebpf4jnsgd1na2vs0mg"},{"bike_id":"0ccade42-5a63-4395-8893-aa0d8196a166","system_id":"levelo_inurba_marseille","lat":43.3054,"lon":5.36703,"is_reserved":false,"is_disabled":false,"rental_uris":{"android":"levelo://app?vid=0ccade42-5a63-4395-8893-aa0d8196a166","ios":"levelo://app?vid=0ccade42-5a63-4395-8893-aa0d8196a166"},"vehicle_type_id":"4","last_reported":1736413761,"current_range_meters":27600,"station_id":"ce4bgrp2rcd13ifvqc9g","pricing_plan_id":"cebpf4jnsgd1na2vs0mg"},{"bike_id":"898eb003-04d7-4026-bb13-6085820c9346","system_id":"levelo_inurba_marseille","lat":43.30883,"lon":5.39636,"is_reserved":false,"is_disabled":true,"rental_uris":{"android":"levelo://app?vid=898eb003-04d7-4026-bb13-6085820c9346","ios":"levelo://app?vid=898eb003-04d7-4026-bb13-6085820c9346"},"vehicle_type_id":"4","last_reported":1736413761,"current_range_meters":38800,"station_id":"ce4bh012rcd13ifvqcv0","pricing_plan_id":"cebpf4jnsgd1na2vs0mg"},{"bike_id":"95d3448a-591f-493e-a463-7ae24e6b0478","system_id":"levelo_inurba_marseille","lat":43.30122,"lon":5.38783,"is_reserved":false,"is_disabled":true,"rental_uris":{"android":"levelo://app?vid=95d3448a-591f-493e-a463-7ae24e6b0478","ios":"levelo://app?vid=95d3448a-591f-493e-a463-7ae24e6b0478"},"vehicle_type_id":"4","last_reported":1736413761,"current_range_meters":16000,"station_id":"ce4bghh2rcd13ifvqb60","pricing_plan_id":"cebpf4jnsgd1na2vs0mg"},{"bike_id":"4be5cc74-abe4-43c5-988f-0649d8c9c89a","system_id":"levelo_inurba_marseille","lat":43.30538,"lon":5.38433,"is_reserved":false,"is_disabled":false,"rental_uris":{"android":"levelo://app?vid=4be5cc74-abe4-43c5-988f-0649d8c9c89a","ios":"levelo://app?vid=4be5cc74-abe4-43c5-988f-0649d8c9c89a"},"vehicle_type_id":"4","last_reported":1736413761,"current_range_meters":27200,"station_id":"ce4bgg92rcd13ifvqb30","pricing_plan_id":"cebpf4jnsgd1na2vs0mg"},{"bike_id":"173e31c8-c78f-4b3b-a308-9f47b47a0b39","system_id":"levelo_inurba_marseille","lat":43.32528,"lon":5.4146,"is_reserved":false,"is_disabled":false,"rental_uris":{"android":"levelo://app?vid=173e31c8-c78f-4b3b-a308-9f47b47a0b39","ios":"levelo://app?vid=173e31c8-c78f-4b3b-a308-9f47b47a0b39"},"vehicle_type_id":"4","last_reported":1736413761,"current_range_meters":26000,"station_id":"ce4bhq12rcd13ifvqhhg","pricing_plan_id":"cebpf4jnsgd1na2vs0mg"},{"bike_id":"48e12347-a76e-485d-abb7-fa8f8b2b25c3","system_id":"levelo_inurba_marseille","lat":43.27486,"lon":5.42449,"is_reserved":false,"is_disabled":false,"rental_uris":{"android":"levelo://app?vid=48e12347-a76e-485d-abb7-fa8f8b2b25c3","ios":"levelo://app?vid=48e12347-a76e-485d-abb7-fa8f8b2b25c3"},"vehicle_type_id":"4","last_reported":1736413761,"current_range_meters":32800,"station_id":"ce4bhn92rcd13ifvqgrg","pricing_plan_id":"cebpf4jnsgd1na2vs0mg"},{"bike_id":"507309ad-2c5e-4442-b16a-0a701fe1fda0","system_id":"levelo_inurba_marseille","lat":43.30548,"lon":5.36541,"is_reserved":false,"is_disabled":false,"rental_uris":{"android":"levelo://app?vid=507309ad-2c5e-4442-b16a-0a701fe1fda0","ios":"levelo://app?vid=507309ad-2c5e-4442-b16a-0a701fe1fda0"},"vehicle_type_id":"4","last_reported":1736413761,"current_range_meters":39200,"station_id":"ce4bgs12rcd13ifvqcag","pricing_plan_id":"cebpf4jnsgd1na2vs0mg"},{"bike_id":"da9494cd-3160-4cf2-b83a-5e7198beadd6","system_id":"levelo_inurba_marseille","lat":43.3095,"lon":5.39038,"is_reserved":false,"is_disabled":false,"rental_uris":{"android":"levelo://app?vid=da9494cd-3160-4cf2-b83a-5e7198beadd6","ios":"levelo://app?vid=da9494cd-3160-4cf2-b83a-5e7198beadd6"},"vehicle_type_id":"4","last_reported":1736413761,"current_range_meters":7200,"station_id":"ce4bgup2rcd13ifvqco0","pricing_plan_id":"cebpf4jnsgd1na2vs0mg"},{"bike_id":"c3fed3ff-6b92-4fcd-9518-3530a380cb58","system_id":"levelo_inurba_marseille","lat":43.28935,"lon":5.36376,"is_reserved":false,"is_disabled":true,"rental_uris":{"android":"levelo://app?vid=c3fed3ff-6b92-4fcd-9518-3530a380cb58","ios":"levelo://app?vid=c3fed3ff-6b92-4fcd-9518-3530a380cb58"},"vehicle_type_id":"4","last_reported":1736413761,"current_range_meters":37600,"station_id":"ce4bhc92rcd13ifvqetg","pricing_plan_id":"cebpf4jnsgd1na2vs0mg"},{"bike_id":"1e2223a2-c032-49e7-8dbf-982df86a0520","system_id":"levelo_inurba_marseille","lat":43.22925,"lon":5.35383,"is_reserved":false,"is_disabled":false,"rental_uris":{"android":"levelo://app?vid=1e2223a2-c032-49e7-8dbf-982df86a0520","ios":"levelo://app?vid=1e2223a2-c032-49e7-8dbf-982df86a0520"},"vehicle_type_id":"4","last_reported":1736413761,"current_range_meters":36800,"station_id":"cpo3532slgdg3j2ikp40","pricing_plan_id":"cebpf4jnsgd1na2vs0mg"},{"bike_id":"85819100-b41b-421d-a481-465ea2f61a2a","system_id":"levelo_inurba_marseille","lat":43.26682,"lon":5.38273,"is_reserved":false,"is_disabled":false,"rental_uris":{"android":"levelo://app?vid=85819100-b41b-421d-a481-465ea2f61a2a","ios":"levelo://app?vid=85819100-b41b-421d-a481-465ea2f61a2a"},"vehicle_type_id":"4","last_reported":1736413761,"current_range_meters":36800,"station_id":"ce4bhg92rcd13ifvqf90","pricing_plan_id":"cebpf4jnsgd1na2vs0mg"},{"bike_id":"3aefb9c1-3e4a-487c-b413-b90ef97c7063","system_id":"levelo_inurba_marseille","lat":43.22945,"lon":5.35399,"is_reserved":false,"is_disabled":false,"rental_uris":{"android":"levelo://app?vid=3aefb9c1-3e4a-487c-b413-b90ef97c7063","ios":"levelo://app?vid=3aefb9c1-3e4a-487c-b413-b90ef97c7063"},"vehicle_type_id":"4","last_reported":1736413761,"current_range_meters":16400,"station_id":"","pricing_plan_id":"cebpf4jnsgd1na2vs0mg"},{"bike_id":"be8a233f-ad85-41b2-af03-bfa1e3033438","system_id":"levelo_inurba_marseille","lat":43.23199,"lon":5.35559,"is_reserved":false,"is_disabled":false,"rental_uris":{"android":"levelo://app?vid=be8a233f-ad85-41b2-af03-bfa1e3033438","ios":"levelo://app?vid=be8a233f-ad85-41b2-af03-bfa1e3033438"},"vehicle_type_id":"4","last_reported":1736413761,"current_range_meters":28400,"station_id":"ce4bhu92rcd13ifvqi70","pricing_plan_id":"cebpf4jnsgd1na2vs0mg"},{"bike_id":"34c4f0f7-5b8e-46c8-9002-a277c67bb74b","system_id":"levelo_inurba_marseille","lat":43.30947,"lon":5.39063,"is_reserved":false,"is_disabled":false,"rental_uris":{"android":"levelo://app?vid=34c4f0f7-5b8e-46c8-9002-a277c67bb74b","ios":"levelo://app?vid=34c4f0f7-5b8e-46c8-9002-a277c67bb74b"},"vehicle_type_id":"4","last_reported":1736413761,"current_range_meters":30000,"station_id":"ce4bgup2rcd13ifvqco0","pricing_plan_id":"cebpf4jnsgd1na2vs0mg"},{"bike_id":"ce0d4b53-1587-493b-9be1-60a77a2c352b","system_id":"levelo_inurba_marseille","lat":43.27495,"lon":5.42461,"is_reserved":false,"is_disabled":false,"rental_uris":{"android":"levelo://app?vid=ce0d4b53-1587-493b-9be1-60a77a2c352b","ios":"levelo://app?vid=ce0d4b53-1587-493b-9be1-60a77a2c352b"},"vehicle_type_id":"4","last_reported":1736413761,"current_range_meters":20000,"station_id":"ce4bhn92rcd13ifvqgrg","pricing_plan_id":"cebpf4jnsgd1na2vs0mg"},{"bike_id":"b36967c0-ebfd-4742-ab89-97d497aa528a","system_id":"levelo_inurba_marseille","lat":43.30551,"lon":5.36579,"is_reserved":false,"is_disabled":false,"rental_uris":{"android":"levelo://app?vid=b36967c0-ebfd-4742-ab89-97d497aa528a","ios":"levelo://app?vid=b36967c0-ebfd-4742-ab89-97d497aa528a"},"vehicle_type_id":"4","last_reported":1736413761,"current_range_meters":20000,"station_id":"ce4bgs12rcd13ifvqcag","pricing_plan_id":"cebpf4jnsgd1na2vs0mg"},{"bike_id":"57f9ee1a-9883-475f-be92-b9655f4678ff","system_id":"levelo_inurba_marseille","lat":43.30442,"lon":5.3891,"is_reserved":false,"is_disabled":false,"rental_uris":{"android":"levelo://app?vid=57f9ee1a-9883-475f-be92-b9655f4678ff","ios":"levelo://app?vid=57f9ee1a-9883-475f-be92-b9655f4678ff"},"vehicle_type_id":"4","last_reported":1736413761,"current_range_meters":32400,"station_id":"ce4bgk12rcd13ifvqbi0","pricing_plan_id":"cebpf4jnsgd1na2vs0mg"},{"bike_id":"2555e9c2-41eb-42cc-8360-399e32805217","system_id":"levelo_inurba_marseille","lat":43.29599,"lon":5.377381,"is_reserved":false,"is_disabled":true,"rental_uris":{"android":"levelo://app?vid=2555e9c2-41eb-42cc-8360-399e32805217","ios":"levelo://app?vid=2555e9c2-41eb-42cc-8360-399e32805217"},"vehicle_type_id":"4","last_reported":1736413761,"current_range_meters":35200,"station_id":"ce4bgi92rcd13ifvqb90","pricing_plan_id":"cebpf4jnsgd1na2vs0mg"},{"bike_id":"3cebf9a3-0c25-460c-94d4-af04dc81215b","system_id":"levelo_inurba_marseille","lat":43.30905,"lon":5.36862,"is_reserved":false,"is_disabled":false,"rental_uris":{"android":"levelo://app?vid=3cebf9a3-0c25-460c-94d4-af04dc81215b","ios":"levelo://app?vid=3cebf9a3-0c25-460c-94d4-af04dc81215b"},"vehicle_type_id":"4","last_reported":1736413761,"current_range_meters":38800,"station_id":"ce4bgn92rcd13ifvqbvg","pricing_plan_id":"cebpf4jnsgd1na2vs0mg"},{"bike_id":"6ffba497-52f7-4a81-b005-bbbc3eee46b1","system_id":"levelo_inurba_marseille","lat":43.30141,"lon":5.38105,"is_reserved":false,"is_disabled":false,"rental_uris":{"android":"levelo://app?vid=6ffba497-52f7-4a81-b005-bbbc3eee46b1","ios":"levelo://app?vid=6ffba497-52f7-4a81-b005-bbbc3eee46b1"},"vehicle_type_id":"4","last_reported":1736413761,"current_range_meters":38800,"station_id":"ce4bgjp2rcd13ifvqbh0","pricing_plan_id":"cebpf4jnsgd1na2vs0mg"},{"bike_id":"3048cd56-0e4c-450a-a41f-55ace6e0de73","system_id":"levelo_inurba_marseille","lat":43.29575,"lon":5.36744,"is_reserved":false,"is_disabled":false,"rental_uris":{"android":"levelo://app?vid=3048cd56-0e4c-450a-a41f-55ace6e0de73","ios":"levelo://app?vid=3048cd56-0e4c-450a-a41f-55ace6e0de73"},"vehicle_type_id":"4","last_reported":1736413761,"current_range_meters":17200,"station_id":"ce4bgph2rcd13ifvqc2g","pricing_plan_id":"cebpf4jnsgd1na2vs0mg"},{"bike_id":"a2cdc16c-2ab6-429a-9af3-90d7981a1f04","system_id":"levelo_inurba_marseille","lat":43.27951,"lon":5.3869,"is_reserved":false,"is_disabled":true,"rental_uris":{"android":"levelo://app?vid=a2cdc16c-2ab6-429a-9af3-90d7981a1f04","ios":"levelo://app?vid=a2cdc16c-2ab6-429a-9af3-90d7981a1f04"},"vehicle_type_id":"4","last_reported":1736413761,"current_range_meters":1200,"station_id":"ce4bhg12rcd13ifvqf80","pricing_plan_id":"cebpf4jnsgd1na2vs0mg"},{"bike_id":"debf4b66-5bf6-44b1-b1b1-62a76440470d","system_id":"levelo_inurba_marseille","lat":43.23133,"lon":5.43719,"is_reserved":false,"is_disabled":false,"rental_uris":{"android":"levelo://app?vid=debf4b66-5bf6-44b1-b1b1-62a76440470d","ios":"levelo://app?vid=debf4b66-5bf6-44b1-b1b1-62a76440470d"},"vehicle_type_id":"4","last_reported":1736413761,"current_range_meters":25600,"station_id":"ce4bhmp2rcd13ifvqgog","pricing_plan_id":"cebpf4jnsgd1na2vs0mg"},{"bike_id":"647494de-729d-4e34-815d-ff7d8e02c61a","system_id":"levelo_inurba_marseille","lat":43.32483,"lon":5.36561,"is_reserved":false,"is_disabled":false,"rental_uris":{"android":"levelo://app?vid=647494de-729d-4e34-815d-ff7d8e02c61a","ios":"levelo://app?vid=647494de-729d-4e34-815d-ff7d8e02c61a"},"vehicle_type_id":"4","last_reported":1736413761,"current_range_meters":10000,"station_id":"ce4bhs12rcd13ifvqhvg","pricing_plan_id":"cebpf4jnsgd1na2vs0mg"},{"bike_id":"1f13abda-0c2f-485b-b7d9-de8f3b464a21","system_id":"levelo_inurba_marseille","lat":43.296,"lon":5.37721,"is_reserved":false,"is_disabled":true,"rental_uris":{"android":"levelo://app?vid=1f13abda-0c2f-485b-b7d9-de8f3b464a21","ios":"levelo://app?vid=1f13abda-0c2f-485b-b7d9-de8f3b464a21"},"vehicle_type_id":"4","last_reported":1736413761,"current_range_meters":36400,"station_id":"ce4bgi92rcd13ifvqb90","pricing_plan_id":"cebpf4jnsgd1na2vs0mg"},{"bike_id":"d33f7f21-c1d0-4041-b22d-26cb5c89808d","system_id":"levelo_inurba_marseille","lat":43.30527,"lon":5.36519,"is_reserved":false,"is_disabled":false,"rental_uris":{"android":"levelo://app?vid=d33f7f21-c1d0-4041-b22d-26cb5c89808d","ios":"levelo://app?vid=d33f7f21-c1d0-4041-b22d-26cb5c89808d"},"vehicle_type_id":"4","last_reported":1736413761,"current_range_meters":38800,"station_id":"","pricing_plan_id":"cebpf4jnsgd1na2vs0mg"},{"bike_id":"0819326e-4c9e-46b6-a47f-46eef59e79b2","system_id":"levelo_inurba_marseille","lat":43.24076,"lon":5.37755,"is_reserved":false,"is_disabled":false,"rental_uris":{"android":"levelo://app?vid=0819326e-4c9e-46b6-a47f-46eef59e79b2","ios":"levelo://app?vid=0819326e-4c9e-46b6-a47f-46eef59e79b2"},"vehicle_type_id":"4","last_reported":1736413761,"current_range_meters":28400,"station_id":"ce4bhnp2rcd13ifvqgvg","pricing_plan_id":"cebpf4jnsgd1na2vs0mg"},{"bike_id":"ad28bd53-1c8c-44ea-9a1c-1e5a5b2498fe","system_id":"levelo_inurba_marseille","lat":43.241564,"lon":5.364181,"is_reserved":false,"is_disabled":false,"rental_uris":{"android":"levelo://app?vid=ad28bd53-1c8c-44ea-9a1c-1e5a5b2498fe","ios":"levelo://app?vid=ad28bd53-1c8c-44ea-9a1c-1e5a5b2498fe"},"vehicle_type_id":"4","last_reported":1736413761,"current_range_meters":16000,"station_id":"cpo36qri1sfpv3e86is0","pricing_plan_id":"cebpf4jnsgd1na2vs0mg"},{"bike_id":"d6054180-7e08-40b3-be75-7053335ecc80","system_id":"levelo_inurba_marseille","lat":43.24055,"lon":5.37779,"is_reserved":false,"is_disabled":true,"rental_uris":{"android":"levelo://app?vid=d6054180-7e08-40b3-be75-7053335ecc80","ios":"levelo://app?vid=d6054180-7e08-40b3-be75-7053335ecc80"},"vehicle_type_id":"4","last_reported":1736413761,"current_range_meters":16800,"station_id":"ce4bhnp2rcd13ifvqgvg","pricing_plan_id":"cebpf4jnsgd1na2vs0mg"},{"bike_id":"2d2fbc61-7484-43d8-82f1-4c77f4e113dc","system_id":"levelo_inurba_marseille","lat":43.24063,"lon":5.37756,"is_reserved":false,"is_disabled":false,"rental_uris":{"android":"levelo://app?vid=2d2fbc61-7484-43d8-82f1-4c77f4e113dc","ios":"levelo://app?vid=2d2fbc61-7484-43d8-82f1-4c77f4e113dc"},"vehicle_type_id":"4","last_reported":1736413761,"current_range_meters":23200,"station_id":"ce4bhnp2rcd13ifvqgvg","pricing_plan_id":"cebpf4jnsgd1na2vs0mg"},{"bike_id":"9f2aecb8-c87c-49cf-a3c3-2bd765cca534","system_id":"levelo_inurba_marseille","lat":43.29033,"lon":5.37566,"is_reserved":false,"is_disabled":false,"rental_uris":{"android":"levelo://app?vid=9f2aecb8-c87c-49cf-a3c3-2bd765cca534","ios":"levelo://app?vid=9f2aecb8-c87c-49cf-a3c3-2bd765cca534"},"vehicle_type_id":"4","last_reported":1736413761,"current_range_meters":28800,"station_id":"ce4bh692rcd13ifvqe90","pricing_plan_id":"cebpf4jnsgd1na2vs0mg"},{"bike_id":"4e1c109b-024a-40e1-b4a7-1458febf844c","system_id":"levelo_inurba_marseille","lat":43.3122,"lon":5.36867,"is_reserved":false,"is_disabled":false,"rental_uris":{"android":"levelo://app?vid=4e1c109b-024a-40e1-b4a7-1458febf844c","ios":"levelo://app?vid=4e1c109b-024a-40e1-b4a7-1458febf844c"},"vehicle_type_id":"4","last_reported":1736413761,"current_range_meters":16800,"station_id":"ce4bgl92rcd13ifvqbq0","pricing_plan_id":"cebpf4jnsgd1na2vs0mg"},{"bike_id":"ebffa3f5-c7c7-46a9-bac5-0c5e6f701531","system_id":"levelo_inurba_marseille","lat":43.30092,"lon":5.39087,"is_reserved":false,"is_disabled":false,"rental_uris":{"android":"levelo://app?vid=ebffa3f5-c7c7-46a9-bac5-0c5e6f701531","ios":"levelo://app?vid=ebffa3f5-c7c7-46a9-bac5-0c5e6f701531"},"vehicle_type_id":"4","last_reported":1736413761,"current_range_meters":37600,"station_id":"ce4bh192rcd13ifvqdb0","pricing_plan_id":"cebpf4jnsgd1na2vs0mg"},{"bike_id":"50cd5673-6836-4309-a193-16e51cb2408d","system_id":"levelo_inurba_marseille","lat":43.26678,"lon":5.38266,"is_reserved":false,"is_disabled":false,"rental_uris":{"android":"levelo://app?vid=50cd5673-6836-4309-a193-16e51cb2408d","ios":"levelo://app?vid=50cd5673-6836-4309-a193-16e51cb2408d"},"vehicle_type_id":"4","last_reported":1736413761,"current_range_meters":39200,"station_id":"ce4bhg92rcd13ifvqf90","pricing_plan_id":"cebpf4jnsgd1na2vs0mg"},{"bike_id":"d7da6d2b-7d05-41f7-a950-0b9b99c228b0","system_id":"levelo_inurba_marseille","lat":43.25005,"lon":5.38941,"is_reserved":false,"is_disabled":false,"rental_uris":{"android":"levelo://app?vid=d7da6d2b-7d05-41f7-a950-0b9b99c228b0","ios":"levelo://app?vid=d7da6d2b-7d05-41f7-a950-0b9b99c228b0"},"vehicle_type_id":"4","last_reported":1736413761,"current_range_meters":33200,"station_id":"ce4bhgp2rcd13ifvqfd0","pricing_plan_id":"cebpf4jnsgd1na2vs0mg"},{"bike_id":"da4214b8-8d8a-4a87-bce1-7a3deee9519b","system_id":"levelo_inurba_marseille","lat":43.30235,"lon":5.40069,"is_reserved":false,"is_disabled":true,"rental_uris":{"android":"levelo://app?vid=da4214b8-8d8a-4a87-bce1-7a3deee9519b","ios":"levelo://app?vid=da4214b8-8d8a-4a87-bce1-7a3deee9519b"},"vehicle_type_id":"4","last_reported":1736413761,"current_range_meters":38800,"station_id":"ce4bgvh2rcd13ifvqcs0","pricing_plan_id":"cebpf4jnsgd1na2vs0mg"},{"bike_id":"ea8cc297-7205-42be-a82e-9b9fed9bbdda","system_id":"levelo_inurba_marseille","lat":43.28462,"lon":5.38437,"is_reserved":false,"is_disabled":false,"rental_uris":{"android":"levelo://app?vid=ea8cc297-7205-42be-a82e-9b9fed9bbdda","ios":"levelo://app?vid=ea8cc297-7205-42be-a82e-9b9fed9bbdda"},"vehicle_type_id":"4","last_reported":1736413761,"current_range_meters":33200,"station_id":"ce4bh512rcd13ifvqe3g","pricing_plan_id":"cebpf4jnsgd1na2vs0mg"},{"bike_id":"b450dfde-eda4-42e3-a726-8a34fd665df8","system_id":"levelo_inurba_marseille","lat":43.24076,"lon":5.37758,"is_reserved":false,"is_disabled":false,"rental_uris":{"android":"levelo://app?vid=b450dfde-eda4-42e3-a726-8a34fd665df8","ios":"levelo://app?vid=b450dfde-eda4-42e3-a726-8a34fd665df8"},"vehicle_type_id":"4","last_reported":1736413761,"current_range_meters":12000,"station_id":"ce4bhnp2rcd13ifvqgvg","pricing_plan_id":"cebpf4jnsgd1na2vs0mg"},{"bike_id":"7602b9db-fede-47ee-bd0b-311a54641a45","system_id":"levelo_inurba_marseille","lat":43.31889,"lon":5.40734,"is_reserved":false,"is_disabled":false,"rental_uris":{"android":"levelo://app?vid=7602b9db-fede-47ee-bd0b-311a54641a45","ios":"levelo://app?vid=7602b9db-fede-47ee-bd0b-311a54641a45"},"vehicle_type_id":"4","last_reported":1736413761,"current_range_meters":38800,"station_id":"ce4bhq12rcd13ifvqhig","pricing_plan_id":"cebpf4jnsgd1na2vs0mg"},{"bike_id":"377905ce-ff14-425c-a795-09de43f26e70","system_id":"levelo_inurba_marseille","lat":43.30538,"lon":5.3652,"is_reserved":false,"is_disabled":false,"rental_uris":{"android":"levelo://app?vid=377905ce-ff14-425c-a795-09de43f26e70","ios":"levelo://app?vid=377905ce-ff14-425c-a795-09de43f26e70"},"vehicle_type_id":"4","last_reported":1736413761,"current_range_meters":29600,"station_id":"ce4bgs12rcd13ifvqcag","pricing_plan_id":"cebpf4jnsgd1na2vs0mg"},{"bike_id":"02d8f2fc-08a0-45f1-a661-ed2256236e61","system_id":"levelo_inurba_marseille","lat":43.30864,"lon":5.3965,"is_reserved":false,"is_disabled":true,"rental_uris":{"android":"levelo://app?vid=02d8f2fc-08a0-45f1-a661-ed2256236e61","ios":"levelo://app?vid=02d8f2fc-08a0-45f1-a661-ed2256236e61"},"vehicle_type_id":"4","last_reported":1736413761,"current_range_meters":1200,"station_id":"ce4bh012rcd13ifvqcv0","pricing_plan_id":"cebpf4jnsgd1na2vs0mg"},{"bike_id":"a412c127-42d2-426f-8887-6e6167d789f2","system_id":"levelo_inurba_marseille","lat":43.32096,"lon":5.36768,"is_reserved":false,"is_disabled":false,"rental_uris":{"android":"levelo://app?vid=a412c127-42d2-426f-8887-6e6167d789f2","ios":"levelo://app?vid=a412c127-42d2-426f-8887-6e6167d789f2"},"vehicle_type_id":"4","last_reported":1736413761,"current_range_meters":36400,"station_id":"ce4bhrh2rcd13ifvqhug","pricing_plan_id":"cebpf4jnsgd1na2vs0mg"},{"bike_id":"9f45806b-0439-44e8-9147-35b59088d5f3","system_id":"levelo_inurba_marseille","lat":43.24149,"lon":5.36414,"is_reserved":false,"is_disabled":false,"rental_uris":{"android":"levelo://app?vid=9f45806b-0439-44e8-9147-35b59088d5f3","ios":"levelo://app?vid=9f45806b-0439-44e8-9147-35b59088d5f3"},"vehicle_type_id":"4","last_reported":1736413761,"current_range_meters":20000,"station_id":"cpo36qri1sfpv3e86is0","pricing_plan_id":"cebpf4jnsgd1na2vs0mg"},{"bike_id":"98c7696c-ad24-4497-8d84-0c788d79bd64","system_id":"levelo_inurba_marseille","lat":43.30143,"lon":5.37434,"is_reserved":false,"is_disabled":false,"rental_uris":{"android":"levelo://app?vid=98c7696c-ad24-4497-8d84-0c788d79bd64","ios":"levelo://app?vid=98c7696c-ad24-4497-8d84-0c788d79bd64"},"vehicle_type_id":"4","last_reported":1736413761,"current_range_meters":39200,"station_id":"ce4bgs92rcd13ifvqcc0","pricing_plan_id":"cebpf4jnsgd1na2vs0mg"},{"bike_id":"51e1289c-d38f-4381-8c55-dbfcce3dba5d","system_id":"levelo_inurba_marseille","lat":43.30523,"lon":5.36706,"is_reserved":false,"is_disabled":false,"rental_uris":{"android":"levelo://app?vid=51e1289c-d38f-4381-8c55-dbfcce3dba5d","ios":"levelo://app?vid=51e1289c-d38f-4381-8c55-dbfcce3dba5d"},"vehicle_type_id":"4","last_reported":1736413761,"current_range_meters":10000,"station_id":"ce4bgrp2rcd13ifvqc9g","pricing_plan_id":"cebpf4jnsgd1na2vs0mg"},{"bike_id":"cbe92d03-2777-4ae3-81dc-f3efd3246f2c","system_id":"levelo_inurba_marseille","lat":43.24078,"lon":5.3775,"is_reserved":false,"is_disabled":false,"rental_uris":{"android":"levelo://app?vid=cbe92d03-2777-4ae3-81dc-f3efd3246f2c","ios":"levelo://app?vid=cbe92d03-2777-4ae3-81dc-f3efd3246f2c"},"vehicle_type_id":"4","last_reported":1736413761,"current_range_meters":38800,"station_id":"ce4bhnp2rcd13ifvqgvg","pricing_plan_id":"cebpf4jnsgd1na2vs0mg"},{"bike_id":"32cb5b67-7b81-4ec4-a5d2-69200fd9d2af","system_id":"levelo_inurba_marseille","lat":43.2464,"lon":5.38904,"is_reserved":false,"is_disabled":false,"rental_uris":{"android":"levelo://app?vid=32cb5b67-7b81-4ec4-a5d2-69200fd9d2af","ios":"levelo://app?vid=32cb5b67-7b81-4ec4-a5d2-69200fd9d2af"},"vehicle_type_id":"4","last_reported":1736413761,"current_range_meters":37600,"station_id":"ce4bhg12rcd13ifvqf60","pricing_plan_id":"cebpf4jnsgd1na2vs0mg"},{"bike_id":"3108c230-0b71-48c3-ac34-2963912f8e96","system_id":"levelo_inurba_marseille","lat":43.25922,"lon":5.40939,"is_reserved":false,"is_disabled":false,"rental_uris":{"android":"levelo://app?vid=3108c230-0b71-48c3-ac34-2963912f8e96","ios":"levelo://app?vid=3108c230-0b71-48c3-ac34-2963912f8e96"},"vehicle_type_id":"4","last_reported":1736413761,"current_range_meters":17200,"station_id":"ce4bhm92rcd13ifvqglg","pricing_plan_id":"cebpf4jnsgd1na2vs0mg"},{"bike_id":"fcbc7e73-ea49-40ce-83ab-63ee72bf513a","system_id":"levelo_inurba_marseille","lat":43.31336,"lon":5.36774,"is_reserved":false,"is_disabled":false,"rental_uris":{"android":"levelo://app?vid=fcbc7e73-ea49-40ce-83ab-63ee72bf513a","ios":"levelo://app?vid=fcbc7e73-ea49-40ce-83ab-63ee72bf513a"},"vehicle_type_id":"4","last_reported":1736413761,"current_range_meters":38800,"station_id":"","pricing_plan_id":"cebpf4jnsgd1na2vs0mg"},{"bike_id":"2fb99564-c929-4ea3-85a7-9a36aa6bfb66","system_id":"levelo_inurba_marseille","lat":43.30522,"lon":5.36708,"is_reserved":false,"is_disabled":false,"rental_uris":{"android":"levelo://app?vid=2fb99564-c929-4ea3-85a7-9a36aa6bfb66","ios":"levelo://app?vid=2fb99564-c929-4ea3-85a7-9a36aa6bfb66"},"vehicle_type_id":"4","last_reported":1736413761,"current_range_meters":37600,"station_id":"ce4bgrp2rcd13ifvqc9g","pricing_plan_id":"cebpf4jnsgd1na2vs0mg"},{"bike_id":"ecc8656f-a10b-47c4-b999-50144c0165e6","system_id":"levelo_inurba_marseille","lat":43.24173,"lon":5.39725,"is_reserved":false,"is_disabled":false,"rental_uris":{"android":"levelo://app?vid=ecc8656f-a10b-47c4-b999-50144c0165e6","ios":"levelo://app?vid=ecc8656f-a10b-47c4-b999-50144c0165e6"},"vehicle_type_id":"4","last_reported":1736413761,"current_range_meters":30000,"station_id":"ce4bhn12rcd13ifvqgpg","pricing_plan_id":"cebpf4jnsgd1na2vs0mg"},{"bike_id":"1fe665a4-6e88-48f4-aedd-176f26090616","system_id":"levelo_inurba_marseille","lat":43.28325,"lon":5.38627,"is_reserved":false,"is_disabled":true,"rental_uris":{"android":"levelo://app?vid=1fe665a4-6e88-48f4-aedd-176f26090616","ios":"levelo://app?vid=1fe665a4-6e88-48f4-aedd-176f26090616"},"vehicle_type_id":"4","last_reported":1736413761,"current_range_meters":38000,"station_id":"ce4bh492rcd13ifvqdvg","pricing_plan_id":"cebpf4jnsgd1na2vs0mg"},{"bike_id":"fa60361b-37c2-4ebf-8b7f-9230aea2c8c9","system_id":"levelo_inurba_marseille","lat":43.30538,"lon":5.38433,"is_reserved":false,"is_disabled":false,"rental_uris":{"android":"levelo://app?vid=fa60361b-37c2-4ebf-8b7f-9230aea2c8c9","ios":"levelo://app?vid=fa60361b-37c2-4ebf-8b7f-9230aea2c8c9"},"vehicle_type_id":"4","last_reported":1736413761,"current_range_meters":17600,"station_id":"ce4bgg92rcd13ifvqb30","pricing_plan_id":"cebpf4jnsgd1na2vs0mg"},