{"last_updated":1752253864,"ttl":60,"version":"2.2","data":{"bikes":[{"bike_id":"f269e1fb-082a-41bf-8c8c-f66445e8a17e","system_id":"levelo_inurba_marseille","lat":43.28668,"lon":5.3865,"is_reserved":false,"is_disabled":false,"rental_uris":{"android":"levelo://app?vid=f269e1fb-082a-41bf-8c8c-f66445e8a17e","ios":"levelo://app?vid=f269e1fb-082a-41bf-8c8c-f66445e8a17e"},"vehicle_type_id":"4","last_reported":1752253864,"current_range_meters":2800,"station_id":"ce4bh492rcd13ifvqdug","pricing_plan_id":"cebpf4jnsgd1na2vs0mg"},{"bike_id":"f9426652-22fd-4d12-b0a9-c5f6f78a069d","system_id":"levelo_inurba_marseille","lat":43.2968,"lon":5.37299,"is_reserved":false,"is_disabled":false,"rental_uris":{"android":"levelo://app?vid=f9426652-22fd-4d12-b0a9-c5f6f78a069d","ios":"levelo://app?vid=f9426652-22fd-4d12-b0a9-c5f6f78a069d"},"vehicle_type_id":"4","last_reported":1752253864,"current_range_meters":2800,"station_id":"ce4bgk12rcd13ifvqbj0","pricing_plan_id":"cebpf4jnsgd1na2vs0mg"},{"bike_id":"c991bc80-86bc-41f6-bb63-73698a713b3f","system_id":"levelo_inurba_marseille","lat":43.27311,"lon":5.39107,"is_reserved":false,"is_disabled":false,"rental_uris":{"android":"levelo://app?vid=c991bc80-86bc-41f6-bb63-73698a713b3f","ios":"levelo://app?vid=c991bc80-86bc-41f6-bb63-73698a713b3f"},"vehicle_type_id":"4","last_reported":1752253864,"current_range_meters":3200,"station_id":"ce4bhgp2rcd13ifvqfe0","pricing_plan_id":"cebpf4jnsgd1na2vs0mg"},{"bike_id":"f9ace68e-417f-4077-a59b-c7fe60256e1d","system_id":"levelo_inurba_marseille","lat":43.28458,"lon":5.35881,"is_reserved":false,"is_disabled":false,"rental_uris":{"android":"levelo://app?vid=f9ace68e-417f-4077-a59b-c7fe60256e1d","ios":"levelo://app?vid=f9ace68e-417f-4077-a59b-c7fe60256e1d"},"vehicle_type_id":"4","last_reported":1752253864,"current_range_meters":3200,"station_id":"ce4bhah2rcd13ifvqei0","pricing_plan_id":"cebpf4jnsgd1na2vs0mg"},{"bike_id":"a9ee5a4c-63d3-487b-975c-0d0bbaab92bf","system_id":"levelo_inurba_marseille","lat":43.29534,"lon":5.38546,"is_reserved":false,"is_disabled":false,"rental_uris":{"android":"levelo://app?vid=a9ee5a4c-63d3-487b-975c-0d0bbaab92bf","ios":"levelo://app?vid=a9ee5a4c-63d3-487b-975c-0d0bbaab92bf"},"vehicle_type_id":"4","last_reported":1752253864,"current_range_meters":3200,"station_id":"ce4bgih2rcd13ifvqba0","pricing_plan_id":"cebpf4jnsgd1na2vs0mg"},{"bike_id":"898f7431-f919-416e-a143-8b02cedac568","system_id":"levelo_inurba_marseille","lat":43.29604,"lon":5.38105,"is_reserved":false,"is_disabled":false,"rental_uris":{"android":"levelo://app?vid=898f7431-f919-416e-a143-8b02cedac568","ios":"levelo://app?vid=898f7431-f919-416e-a143-8b02cedac568"},"vehicle_type_id":"4","last_reported":1752253864,"current_range_meters":3200,"station_id":"ce4bgl12rcd13ifvqbo0","pricing_plan_id":"cebpf4jnsgd1na2vs0mg"},{"bike_id":"3bf4909e-cd0d-4ff3-a380-a57a4608cb5b","system_id":"levelo_inurba_marseille","lat":43.28925,"lon":5.36647,"is_reserved":false,"is_disabled":false,"rental_uris":{"android":"levelo://app?vid=3bf4909e-cd0d-4ff3-a380-a57a4608cb5b","ios":"levelo://app?vid=3bf4909e-cd0d-4ff3-a380-a57a4608cb5b"},"vehicle_type_id":"4","last_reported":1752253864,"current_range_meters":400,"station_id":"ce4bhap2rcd13ifvqek0","pricing_plan_id":"cebpf4jnsgd1na2vs0mg"},{"bike_id":"5ebe513d-cba6-4898-9310-b24e9d63a48f","system_id":"levelo_inurba_marseille","lat":43.28272,"lon":5.35072,"is_reserved":false,"is_disabled":false,"rental_uris":{"android":"levelo://app?vid=5ebe513d-cba6-4898-9310-b24e9d63a48f","ios":"levelo://app?vid=5ebe513d-cba6-4898-9310-b24e9d63a48f"},"vehicle_type_id":"4","last_reported":1752253864,"current_range_meters":3200,"station_id":"","pricing_plan_id":"cebpf4jnsgd1na2vs0mg"},{"bike_id":"ea763b7d-af40-4cf0-b52e-d33e04da8bf8","system_id":"levelo_inurba_marseille","lat":43.28466,"lon":5.35892,"is_reserved":false,"is_disabled":false,"rental_uris":{"android":"levelo://app?vid=ea763b7d-af40-4cf0-b52e-d33e04da8bf8","ios":"levelo://app?vid=ea763b7d-af40-4cf0-b52e-d33e04da8bf8"},"vehicle_type_id":"4","last_reported":1752253864,"current_range_meters":3200,"station_id":"ce4bhah2rcd13ifvqei0","pricing_plan_id":"cebpf4jnsgd1na2vs0mg"},{"bike_id":"879f31c8-72d7-43e8-93aa-9d02014147f2","system_id":"levelo_inurba_marseille","lat":43.28159,"lon":5.42642,"is_reserved":false,"is_disabled":false,"rental_uris":{"android":"levelo://app?vid=879f31c8-72d7-43e8-93aa-9d02014147f2","ios":"levelo://app?vid=879f31c8-72d7-43e8-93aa-9d02014147f2"},"vehicle_type_id":"4","last_reported":1752253864,"current_range_meters":3600,"station_id":"ce4bhnh2rcd13ifvqgug","pricing_plan_id":"cebpf4jnsgd1na2vs0mg"},{"bike_id":"c9ec8264-b1f7-41db-a127-5dfa02fc980f","system_id":"levelo_inurba_marseille","lat":43.315726,"lon":5.401803,"is_reserved":false,"is_disabled":false,"rental_uris":{"android":"levelo://app?vid=c9ec8264-b1f7-41db-a127-5dfa02fc980f","ios":"levelo://app?vid=c9ec8264-b1f7-41db-a127-5dfa02fc980f"},"vehicle_type_id":"4","last_reported":1752253864,"current_range_meters":3600,"station_id":"","pricing_plan_id":"cebpf4jnsgd1na2vs0mg"},{"bike_id":"a4e71c09-d013-4906-bd5c-aaf1012438e0","system_id":"levelo_inurba_marseille","lat":43.3094,"lon":5.40157,"is_reserved":false,"is_disabled":true,"rental_uris":{"android":"levelo://app?vid=a4e71c09-d013-4906-bd5c-aaf1012438e0","ios":"levelo://app?vid=a4e71c09-d013-4906-bd5c-aaf1012438e0"},"vehicle_type_id":"4","last_reported":1752253864,"current_range_meters":3600,"station_id":"ce4bgvp2rcd13ifvqct0","pricing_plan_id":"cebpf4jnsgd1na2vs0mg"},{"bike_id":"3aad1f62-3e86-49f5-b405-383fb43ff16a","system_id":"levelo_inurba_marseille","lat":43.29891,"lon":5.3891,"is_reserved":false,"is_disabled":false,"rental_uris":{"android":"levelo://app?vid=3aad1f62-3e86-49f5-b405-383fb43ff16a","ios":"levelo://app?vid=3aad1f62-3e86-49f5-b405-383fb43ff16a"},"vehicle_type_id":"4","last_reported":1752253864,"current_range_meters":3600,"station_id":"ce4bh392rcd13ifvqdl0","pricing_plan_id":"cebpf4jnsgd1na2vs0mg"},{"bike_id":"833789d2-719f-470f-8aa2-b69edbf07c3f","system_id":"levelo_inurba_marseille","lat":43.29658,"lon":5.39275,"is_reserved":false,"is_disabled":false,"rental_uris":{"android":"levelo://app?vid=833789d2-719f-470f-8aa2-b69edbf07c3f","ios":"levelo://app?vid=833789d2-719f-470f-8aa2-b69edbf07c3f"},"vehicle_type_id":"4","last_reported":1752253864,"current_range_meters":4000,"station_id":"","pricing_plan_id":"cebpf4jnsgd1na2vs0mg"},{"bike_id":"3ed3e651-9e6a-489b-bef0-564aeb95e0cb","system_id":"levelo_inurba_marseille","lat":43.29535,"lon":5.39401,"is_reserved":false,"is_disabled":false,"rental_uris":{"android":"levelo://app?vid=3ed3e651-9e6a-489b-bef0-564aeb95e0cb","ios":"levelo://app?vid=3ed3e651-9e6a-489b-bef0-564aeb95e0cb"},"vehicle_type_id":"4","last_reported":1752253864,"current_range_meters":4000,"station_id":"ce4bh292rcd13ifvqdf0","pricing_plan_id":"cebpf4jnsgd1na2vs0mg"},{"bike_id":"45b6d349-590d-4cbb-96bd-1fb01992f22c","system_id":"levelo_inurba_marseille","lat":43.28703,"lon":5.39984,"is_reserved":false,"is_disabled":false,"rental_uris":{"android":"levelo://app?vid=45b6d349-590d-4cbb-96bd-1fb01992f22c","ios":"levelo://app?vid=45b6d349-590d-4cbb-96bd-1fb01992f22c"},"vehicle_type_id":"4","last_reported":1752253864,"current_range_meters":4000,"station_id":"ce4bho92rcd13ifvqh3g","pricing_plan_id":"cebpf4jnsgd1na2vs0mg"},{"bike_id":"6e54e213-a763-40ea-9378-bb73eb006fe1","system_id":"levelo_inurba_marseille","lat":43.27903,"lon":5.38015,"is_reserved":false,"is_disabled":false,"rental_uris":{"android":"levelo://app?vid=6e54e213-a763-40ea-9378-bb73eb006fe1","ios":"levelo://app?vid=6e54e213-a763-40ea-9378-bb73eb006fe1"},"vehicle_type_id":"4","last_reported":1752253864,"current_range_meters":4000,"station_id":"ce4bhf92rcd13ifvqf50","pricing_plan_id":"cebpf4jnsgd1na2vs0mg"},{"bike_id":"d60d8de5-1826-4d69-99a6-c45bf18f1085","system_id":"levelo_inurba_marseille","lat":43.303307,"lon":5.369143,"is_reserved":false,"is_disabled":true,"rental_uris":{"android":"levelo://app?vid=d60d8de5-1826-4d69-99a6-c45bf18f1085","ios":"levelo://app?vid=d60d8de5-1826-4d69-99a6-c45bf18f1085"},"vehicle_type_id":"4","last_reported":1752253864,"current_range_meters":4400,"station_id":"ce4bgqh2rcd13ifvqc5g","pricing_plan_id":"cebpf4jnsgd1na2vs0mg"},{"bike_id":"e117ce98-845d-4580-b722-d314a4fed87d","system_id":"levelo_inurba_marseille","lat":43.28858,"lon":5.35844,"is_reserved":false,"is_disabled":false,"rental_uris":{"android":"levelo://app?vid=e117ce98-845d-4580-b722-d314a4fed87d","ios":"levelo://app?vid=e117ce98-845d-4580-b722-d314a4fed87d"},"vehicle_type_id":"4","last_reported":1752253864,"current_range_meters":4400,"station_id":"ce4bhb12rcd13ifvqem0","pricing_plan_id":"cebpf4jnsgd1na2vs0mg"},{"bike_id":"a0746e83-c6e0-4969-a577-a23e4aa64863","system_id":"levelo_inurba_marseille","lat":43.2917,"lon":5.37165,"is_reserved":false,"is_disabled":false,"rental_uris":{"android":"levelo://app?vid=a0746e83-c6e0-4969-a577-a23e4aa64863","ios":"levelo://app?vid=a0746e83-c6e0-4969-a577-a23e4aa64863"},"vehicle_type_id":"4","last_reported":1752253864,"current_range_meters":4400,"station_id":"ce4bha92rcd13ifvqeh0","pricing_plan_id":"cebpf4jnsgd1na2vs0mg"},{"bike_id":"6bf5eb97-377e-475b-ac57-d56ceffdcd4b","system_id":"levelo_inurba_marseille","lat":43.29845,"lon":5.36274,"is_reserved":false,"is_disabled":false,"rental_uris":{"android":"levelo://app?vid=6bf5eb97-377e-475b-ac57-d56ceffdcd4b","ios":"levelo://app?vid=6bf5eb97-377e-475b-ac57-d56ceffdcd4b"},"vehicle_type_id":"4","last_reported":1752253864,"current_range_meters":4800,"station_id":"ce4bgpp2rcd13ifvqc3g","pricing_plan_id":"cebpf4jnsgd1na2vs0mg"},{"bike_id":"770f003d-2c90-4067-969e-d896fcf01d8b","system_id":"levelo_inurba_marseille","lat":43.30215,"lon":5.39474,"is_reserved":false,"is_disabled":false,"rental_uris":{"android":"levelo://app?vid=770f003d-2c90-4067-969e-d896fcf01d8b","ios":"levelo://app?vid=770f003d-2c90-4067-969e-d896fcf01d8b"},"vehicle_type_id":"4","last_reported":1752253864,"current_range_meters":6000,"station_id":"ce4bh0p2rcd13ifvqd70","pricing_plan_id":"cebpf4jnsgd1na2vs0mg"},{"bike_id":"3108e78c-759c-4d11-b361-5abb833e983c","system_id":"levelo_inurba_marseille","lat":43.28874,"lon":5.39402,"is_reserved":false,"is_disabled":false,"rental_uris":{"android":"levelo://app?vid=3108e78c-759c-4d11-b361-5abb833e983c","ios":"levelo://app?vid=3108e78c-759c-4d11-b361-5abb833e983c"},"vehicle_type_id":"4","last_reported":1752253864,"current_range_meters":4800,"station_id":"","pricing_plan_id":"cebpf4jnsgd1na2vs0mg"},{"bike_id":"a7638d86-ae46-4944-b5c6-f1ab5cfa3e94","system_id":"levelo_inurba_marseille","lat":43.337444,"lon":5.374475,"is_reserved":false,"is_disabled":false,"rental_uris":{"android":"levelo://app?vid=a7638d86-ae46-4944-b5c6-f1ab5cfa3e94","ios":"levelo://app?vid=a7638d86-ae46-4944-b5c6-f1ab5cfa3e94"},"vehicle_type_id":"4","last_reported":1752253864,"current_range_meters":4800,"station_id":"","pricing_plan_id":"cebpf4jnsgd1na2vs0mg"},{"bike_id":"44f424bd-fec1-4bfd-af96-e24ada530497","system_id":"levelo_inurba_marseille","lat":43.27563,"lon":5.38407,"is_reserved":false,"is_disabled":false,"rental_uris":{"android":"levelo://app?vid=44f424bd-fec1-4bfd-af96-e24ada530497","ios":"levelo://app?vid=44f424bd-fec1-4bfd-af96-e24ada530497"},"vehicle_type_id":"4","last_reported":1752253864,"current_range_meters":5600,"station_id":"ce4bhh92rcd13ifvqfi0","pricing_plan_id":"cebpf4jnsgd1na2vs0mg"},{"bike_id":"b8d6bf6b-ecbb-4c40-8ce7-0169ef070b49","system_id":"levelo_inurba_marseille","lat":43.29655,"lon":5.37224,"is_reserved":false,"is_disabled":false,"rental_uris":{"android":"levelo://app?vid=b8d6bf6b-ecbb-4c40-8ce7-0169ef070b49","ios":"levelo://app?vid=b8d6bf6b-ecbb-4c40-8ce7-0169ef070b49"},"vehicle_type_id":"4","last_reported":1752253864,"current_range_meters":5600,"station_id":"","pricing_plan_id":"cebpf4jnsgd1na2vs0mg"},{"bike_id":"7b0b71e1-ed3a-40d7-b7be-772796d97243","system_id":"levelo_inurba_marseille","lat":43.30594,"lon":5.39356,"is_reserved":false,"is_disabled":false,"rental_uris":{"android":"levelo://app?vid=7b0b71e1-ed3a-40d7-b7be-772796d97243","ios":"levelo://app?vid=7b0b71e1-ed3a-40d7-b7be-772796d97243"},"vehicle_type_id":"4","last_reported":1752253864,"current_range_meters":3200,"station_id":"ce4bh0p2rcd13ifvqd80","pricing_plan_id":"cebpf4jnsgd1na2vs0mg"},{"bike_id":"2b2f2206-7c4a-4b19-abac-bb6f0cceb940","system_id":"levelo_inurba_marseille","lat":43.21752,"lon":5.34596,"is_reserved":false,"is_disabled":false,"rental_uris":{"android":"levelo://app?vid=2b2f2206-7c4a-4b19-abac-bb6f0cceb940","ios":"levelo://app?vid=2b2f2206-7c4a-4b19-abac-bb6f0cceb940"},"vehicle_type_id":"4","last_reported":1752253864,"current_range_meters":5600,"station_id":"st_cvj6r9ubvosntc0bgbag","pricing_plan_id":"cebpf4jnsgd1na2vs0mg"},{"bike_id":"5dfde671-5291-44ec-9e38-b4c4b6b00a4b","system_id":"levelo_inurba_marseille","lat":43.269541,"lon":5.386343,"is_reserved":false,"is_disabled":false,"rental_uris":{"android":"levelo://app?vid=5dfde671-5291-44ec-9e38-b4c4b6b00a4b","ios":"levelo://app?vid=5dfde671-5291-44ec-9e38-b4c4b6b00a4b"},"vehicle_type_id":"4","last_reported":1752253864,"current_range_meters":5600,"station_id":"ce4bhh92rcd13ifvqfh0","pricing_plan_id":"cebpf4jnsgd1na2vs0mg"},{"bike_id":"c5d0500e-1222-4c45-a20c-0ec45e2cd604","system_id":"levelo_inurba_marseille","lat":43.27664,"lon":5.38888,"is_reserved":false,"is_disabled":false,"rental_uris":{"android":"levelo://app?vid=c5d0500e-1222-4c45-a20c-0ec45e2cd604","ios":"levelo://app?vid=c5d0500e-1222-4c45-a20c-0ec45e2cd604"},"vehicle_type_id":"4","last_reported":1752253864,"current_range_meters":5600,"station_id":"ce4bhi12rcd13ifvqfo0","pricing_plan_id":"cebpf4jnsgd1na2vs0mg"},{"bike_id":"e329eb91-d7f5-47bb-b93c-bc1cf84bdbb0","system_id":"levelo_inurba_marseille","lat":43.29965,"lon":5.38494,"is_reserved":false,"is_disabled":true,"rental_uris":{"android":"levelo://app?vid=e329eb91-d7f5-47bb-b93c-bc1cf84bdbb0","ios":"levelo://app?vid=e329eb91-d7f5-47bb-b93c-bc1cf84bdbb0"},"vehicle_type_id":"4","last_reported":1752253864,"current_range_meters":5600,"station_id":"ce4bgj92rcd13ifvqbd0","pricing_plan_id":"cebpf4jnsgd1na2vs0mg"},{"bike_id":"78d6e7c8-8477-436d-96d8-0d0ab485a2b5","system_id":"levelo_inurba_marseille","lat":43.21754,"lon":5.34585,"is_reserved":false,"is_disabled":false,"rental_uris":{"android":"levelo://app?vid=78d6e7c8-8477-436d-96d8-0d0ab485a2b5","ios":"levelo://app?vid=78d6e7c8-8477-436d-96d8-0d0ab485a2b5"},"vehicle_type_id":"4","last_reported":1752253864,"current_range_meters":6000,"station_id":"st_cvj6r9ubvosntc0bgbag","pricing_plan_id":"cebpf4jnsgd1na2vs0mg"},{"bike_id":"9b18dc1d-e9a4-488f-a945-2136df092e86","system_id":"levelo_inurba_marseille","lat":43.30879,"lon":5.37205,"is_reserved":false,"is_disabled":false,"rental_uris":{"android":"levelo://app?vid=9b18dc1d-e9a4-488f-a945-2136df092e86","ios":"levelo://app?vid=9b18dc1d-e9a4-488f-a945-2136df092e86"},"vehicle_type_id":"4","last_reported":1752253864,"current_range_meters":6000,"station_id":"ce4bguh2rcd13ifvqckg","pricing_plan_id":"cebpf4jnsgd1na2vs0mg"},{"bike_id":"bb118ffa-68f9-4a7a-8088-fb9a77d7b723","system_id":"levelo_inurba_marseille","lat":43.299701,"lon":5.371692,"is_reserved":false,"is_disabled":false,"rental_uris":{"android":"levelo://app?vid=bb118ffa-68f9-4a7a-8088-fb9a77d7b723","ios":"levelo://app?vid=bb118ffa-68f9-4a7a-8088-fb9a77d7b723"},"vehicle_type_id":"4","last_reported":1752253864,"current_range_meters":4000,"station_id":"ce4bgr92rcd13ifvqc7g","pricing_plan_id":"cebpf4jnsgd1na2vs0mg"},{"bike_id":"21ae54b9-7375-4101-b8a7-bff9d6e1fa32","system_id":"levelo_inurba_marseille","lat":43.299869,"lon":5.375804,"is_reserved":false,"is_disabled":false,"rental_uris":{"android":"levelo://app?vid=21ae54b9-7375-4101-b8a7-bff9d6e1fa32","ios":"levelo://app?vid=21ae54b9-7375-4101-b8a7-bff9d6e1fa32"},"vehicle_type_id":"4","last_reported":1752253864,"current_range_meters":6800,"station_id":"","pricing_plan_id":"cebpf4jnsgd1na2vs0mg"},{"bike_id":"eef29883-c2ca-444c-9311-81ee5c3b0090","system_id":"levelo_inurba_marseille","lat":43.26678,"lon":5.38262,"is_reserved":false,"is_disabled":false,"rental_uris":{"android":"levelo://app?vid=eef29883-c2ca-444c-9311-81ee5c3b0090","ios":"levelo://app?vid=eef29883-c2ca-444c-9311-81ee5c3b0090"},"vehicle_type_id":"4","last_reported":1752253864,"current_range_meters":6800,"station_id":"ce4bhg92rcd13ifvqf90","pricing_plan_id":"cebpf4jnsgd1na2vs0mg"},{"bike_id":"b757ffbb-2b71-4330-9f60-5f8a9d46d16e","system_id":"levelo_inurba_marseille","lat":43.29647,"lon":5.371,"is_reserved":false,"is_disabled":false,"rental_uris":{"android":"levelo://app?vid=b757ffbb-2b71-4330-9f60-5f8a9d46d16e","ios":"levelo://app?vid=b757ffbb-2b71-4330-9f60-5f8a9d46d16e"},"vehicle_type_id":"4","last_reported":1752253864,"current_range_meters":6800,"station_id":"","pricing_plan_id":"cebpf4jnsgd1na2vs0mg"},{"bike_id":"18194712-aae7-408a-bd9a-4e4e8ddc7c24","system_id":"levelo_inurba_marseille","lat":43.295288,"lon":5.385419,"is_reserved":false,"is_disabled":false,"rental_uris":{"android":"levelo://app?vid=18194712-aae7-408a-bd9a-4e4e8ddc7c24","ios":"levelo://app?vid=18194712-aae7-408a-bd9a-4e4e8ddc7c24"},"vehicle_type_id":"4","last_reported":1752253864,"current_range_meters":10800,"station_id":"ce4bgih2rcd13ifvqba0","pricing_plan_id":"cebpf4jnsgd1na2vs0mg"},{"bike_id":"3ff07c57-a2c1-4b36-bbcd-b1e71308a7c5","system_id":"levelo_inurba_marseille","lat":43.254463,"lon":5.376982,"is_reserved":false,"is_disabled":false,"rental_uris":{"android":"levelo://app?vid=3ff07c57-a2c1-4b36-bbcd-b1e71308a7c5","ios":"levelo://app?vid=3ff07c57-a2c1-4b36-bbcd-b1e71308a7c5"},"vehicle_type_id":"4","last_reported":1752253864,"current_range_meters":7200,"station_id":"ce4bhh12rcd13ifvqff0","pricing_plan_id":"cebpf4jnsgd1na2vs0mg"},{"bike_id":"b88e4282-7947-4fa6-9942-d2f3852d64bc","system_id":"levelo_inurba_marseille","lat":43.24181,"lon":5.39723,"is_reserved":false,"is_disabled":false,"rental_uris":{"android":"levelo://app?vid=b88e4282-7947-4fa6-9942-d2f3852d64bc","ios":"levelo://app?vid=b88e4282-7947-4fa6-9942-d2f3852d64bc"},"vehicle_type_id":"4","last_reported":1752253864,"current_range_meters":7200,"station_id":"ce4bhn12rcd13ifvqgpg","pricing_plan_id":"cebpf4jnsgd1na2vs0mg"},{"bike_id":"e4f8f9ee-78a6-4b68-af15-0fc04fc6855e","system_id":"levelo_inurba_marseille","lat":43.27924,"lon":5.39576,"is_reserved":false,"is_disabled":false,"rental_uris":{"android":"levelo://app?vid=e4f8f9ee-78a6-4b68-af15-0fc04fc6855e","ios":"levelo://app?vid=e4f8f9ee-78a6-4b68-af15-0fc04fc6855e"},"vehicle_type_id":"4","last_reported":1752253864,"current_range_meters":7200,"station_id":"ce4bhf92rcd13ifvqf40","pricing_plan_id":"cebpf4jnsgd1na2vs0mg"},{"bike_id":"833f97ec-e704-4051-ab3b-2e9eb58f71d0","system_id":"levelo_inurba_marseille","lat":43.30269,"lon":5.37527,"is_reserved":false,"is_disabled":false,"rental_uris":{"android":"levelo://app?vid=833f97ec-e704-4051-ab3b-2e9eb58f71d0","ios":"levelo://app?vid=833f97ec-e704-4051-ab3b-2e9eb58f71d0"},"vehicle_type_id":"4","last_reported":1752253864,"current_range_meters":8000,"station_id":"","pricing_plan_id":"cebpf4jnsgd1na2vs0mg"},{"bike_id":"85ca0c8a-0572-4a6e-bd85-0a9de639a9fe","system_id":"levelo_inurba_marseille","lat":43.29424,"lon":5.38595,"is_reserved":false,"is_disabled":true,"rental_uris":{"android":"levelo://app?vid=85ca0c8a-0572-4a6e-bd85-0a9de639a9fe","ios":"levelo://app?vid=85ca0c8a-0572-4a6e-bd85-0a9de639a9fe"},"vehicle_type_id":"4","last_reported":1752253864,"current_range_meters":8000,"station_id":"ce4bh2h2rcd13ifvqdh0","pricing_plan_id":"cebpf4jnsgd1na2vs0mg"},{"bike_id":"d4579c0e-fda2-4f4b-9aff-53932a971154","system_id":"levelo_inurba_marseille","lat":43.29533,"lon":5.38547,"is_reserved":false,"is_disabled":true,"rental_uris":{"android":"levelo://app?vid=d4579c0e-fda2-4f4b-9aff-53932a971154","ios":"levelo://app?vid=d4579c0e-fda2-4f4b-9aff-53932a971154"},"vehicle_type_id":"4","last_reported":1752253864,"current_range_meters":8400,"station_id":"ce4bgih2rcd13ifvqba0","pricing_plan_id":"cebpf4jnsgd1na2vs0mg"},{"bike_id":"4c204f19-2747-402b-a19c-08af62f7eecb","system_id":"levelo_inurba_marseille","lat":43.225053,"lon":5.347853,"is_reserved":false,"is_disabled":false,"rental_uris":{"android":"levelo://app?vid=4c204f19-2747-402b-a19c-08af62f7eecb","ios":"levelo://app?vid=4c204f19-2747-402b-a19c-08af62f7eecb"},"vehicle_type_id":"4","last_reported":1752253864,"current_range_meters":8400,"station_id":"","pricing_plan_id":"cebpf4jnsgd1na2vs0mg"},{"bike_id":"4d9cd04c-bbc3-442d-a8a3-9bb871cab7bc","system_id":"levelo_inurba_marseille","lat":43.29366,"lon":5.37823,"is_reserved":false,"is_disabled":false,"rental_uris":{"android":"levelo://app?vid=4d9cd04c-bbc3-442d-a8a3-9bb871cab7bc","ios":"levelo://app?vid=4d9cd04c-bbc3-442d-a8a3-9bb871cab7bc"},"vehicle_type_id":"4","last_reported":1752253864,"current_range_meters":12400,"station_id":"ce4bgjh2rcd13ifvqbf0","pricing_plan_id":"cebpf4jnsgd1na2vs0mg"},{"bike_id":"9317a508-1803-4ff0-947f-76025498ecdc","system_id":"levelo_inurba_marseille","lat":43.29531,"lon":5.39393,"is_reserved":false,"is_disabled":false,"rental_uris":{"android":"levelo://app?vid=9317a508-1803-4ff0-947f-76025498ecdc","ios":"levelo://app?vid=9317a508-1803-4ff0-947f-76025498ecdc"},"vehicle_type_id":"4","last_reported":1752253864,"current_range_meters":4800,"station_id":"ce4bh292rcd13ifvqdf0","pricing_plan_id":"cebpf4jnsgd1na2vs0mg"},{"bike_id":"c4a1741e-92d8-4287-bd21-36335de6fc8f","system_id":"levelo_inurba_marseille","lat":43.26056,"lon":5.39394,"is_reserved":false,"is_disabled":false,"rental_uris":{"android":"levelo://app?vid=c4a1741e-92d8-4287-bd21-36335de6fc8f","ios":"levelo://app?vid=c4a1741e-92d8-4287-bd21-36335de6fc8f"},"vehicle_type_id":"4","last_reported":1752253864,"current_range_meters":8400,"station_id":"ce4bhh92rcd13ifvqfj0","pricing_plan_id":"cebpf4jnsgd1na2vs0mg"},{"bike_id":"0b6e2d49-881f-454c-8ec3-227c15c3c687","system_id":"levelo_inurba_marseille","lat":43.26213,"lon":5.37438,"is_reserved":false,"is_disabled":false,"rental_uris":{"android":"levelo://app?vid=0b6e2d49-881f-454c-8ec3-227c15c3c687","ios":"levelo://app?vid=0b6e2d49-881f-454c-8ec3-227c15c3c687"},"vehicle_type_id":"4","last_reported":1752253864,"current_range_meters":8800,"station_id":"ce4bhgp2rcd13ifvqfc0","pricing_plan_id":"cebpf4jnsgd1na2vs0mg"},{"bike_id":"ea7f713a-f8eb-4f16-8168-36d2161084e8","system_id":"levelo_inurba_marseille","lat":43.27881,"lon":5.39473,"is_reserved":false,"is_disabled":false,"rental_uris":{"android":"levelo://app?vid=ea7f713a-f8eb-4f16-8168-36d2161084e8","ios":"levelo://app?vid=ea7f713a-f8eb-4f16-8168-36d2161084e8"},"vehicle_type_id":"4","last_reported":1752253864,"current_range_meters":8800,"station_id":"","pricing_plan_id":"cebpf4jnsgd1na2vs0mg"},{"bike_id":"96ddf7bb-36b0-49c0-a9f9-f062b79d5328","system_id":"levelo_inurba_marseille","lat":43.25087,"lon":5.39524,"is_reserved":false,"is_disabled":false,"rental_uris":{"android":"levelo://app?vid=96ddf7bb-36b0-49c0-a9f9-f062b79d5328","ios":"levelo://app?vid=96ddf7bb-36b0-49c0-a9f9-f062b79d5328"},"vehicle_type_id":"4","last_reported":1752253864,"current_range_meters":8800,"station_id":"ce4bhm12rcd13ifvqgkg","pricing_plan_id":"cebpf4jnsgd1na2vs0mg"},{"bike_id":"0c277906-323c-49e2-9a03-632de255ddbc","system_id":"levelo_inurba_marseille","lat":43.291957,"lon":5.35797,"is_reserved":false,"is_disabled":false,"rental_uris":{"android":"levelo://app?vid=0c277906-323c-49e2-9a03-632de255ddbc","ios":"levelo://app?vid=0c277906-323c-49e2-9a03-632de255ddbc"},"vehicle_type_id":"4","last_reported":1752253864,"current_range_meters":8800,"station_id":"ce4bgk12rcd13ifvqbj0","pricing_plan_id":"cebpf4jnsgd1na2vs0mg"},{"bike_id":"d95e6649-1b57-4c39-a1d3-e7e139010ab6","system_id":"levelo_inurba_marseille","lat":43.29522,"lon":5.38551,"is_reserved":false,"is_disabled":true,"rental_uris":{"android":"levelo://app?vid=d95e6649-1b57-4c39-a1d3-e7e139010ab6","ios":"levelo://app?vid=d95e6649-1b57-4c39-a1d3-e7e139010ab6"},"vehicle_type_id":"4","last_reported":1752253864,"current_range_meters":8800,"station_id":"ce4bgih2rcd13ifvqba0","pricing_plan_id":"cebpf4jnsgd1na2vs0mg"},{"bike_id":"5c28e05b-c8c0-4c91-aba8-2346456d9673","system_id":"levelo_inurba_marseille","lat":43.33047,"lon":5.3902,"is_reserved":false,"is_disabled":false,"rental_uris":{"android":"levelo://app?vid=5c28e05b-c8c0-4c91-aba8-2346456d9673","ios":"levelo://app?vid=5c28e05b-c8c0-4c91-aba8-2346456d9673"},"vehicle_type_id":"4","last_reported":1752253864,"current_range_meters":8800,"station_id":"ce4bhr92rcd13ifvqhrg","pricing_plan_id":"cebpf4jnsgd1na2vs0mg"},{"bike_id":"e2d3fd99-b91a-4c37-9498-447d4575e515","system_id":"levelo_inurba_marseille","lat":43.29007,"lon":5.35611,"is_reserved":false,"is_disabled":false,"rental_uris":{"android":"levelo://app?vid=e2d3fd99-b91a-4c37-9498-447d4575e515","ios":"levelo://app?vid=e2d3fd99-b91a-4c37-9498-447d4575e515"},"vehicle_type_id":"4","last_reported":1752253864,"current_range_meters":7200,"station_id":"ce4bhb92rcd13ifvqen0","pricing_plan_id":"cebpf4jnsgd1na2vs0mg"},{"bike_id":"6fb28618-349e-496c-93a0-30c7b7f91d7a","system_id":"levelo_inurba_marseille","lat":43.21752,"lon":5.34601,"is_reserved":false,"is_disabled":false,"rental_uris":{"android":"levelo://app?vid=6fb28618-349e-496c-93a0-30c7b7f91d7a","ios":"levelo://app?vid=6fb28618-349e-496c-93a0-30c7b7f91d7a"},"vehicle_type_id":"4","last_reported":1752253864,"current_range_meters":9200,"station_id":"st_cvj6r9ubvosntc0bgbag","pricing_plan_id":"cebpf4jnsgd1na2vs0mg"},{"bike_id":"b708935c-ed64-4c7a-8dfb-117802ea021e","system_id":"levelo_inurba_marseille","lat":43.30638,"lon":5.40094,"is_reserved":false,"is_disabled":false,"rental_uris":{"android":"levelo://app?vid=b708935c-ed64-4c7a-8dfb-117802ea021e","ios":"levelo://app?vid=b708935c-ed64-4c7a-8dfb-117802ea021e"},"vehicle_type_id":"4","last_reported":1752253864,"current_range_meters":9200,"station_id":"ce4bh112rcd13ifvqda0","pricing_plan_id":"cebpf4jnsgd1na2vs0mg"},{"bike_id":"d1cc7920-4bc9-411f-8a97-0214f2815dc1","system_id":"levelo_inurba_marseille","lat":43.29201,"lon":5.35789,"is_reserved":false,"is_disabled":false,"rental_uris":{"android":"levelo://app?vid=d1cc7920-4bc9-411f-8a97-0214f2815dc1","ios":"levelo://app?vid=d1cc7920-4bc9-411f-8a97-0214f2815dc1"},"vehicle_type_id":"4","last_reported":1752253864,"current_range_meters":9600,"station_id":"ce4bhb12rcd13ifvqel0","pricing_plan_id":"cebpf4jnsgd1na2vs0mg"},{"bike_id":"2febfca4-ec71-45c1-aa95-14e0690e9f4e","system_id":"levelo_inurba_marseille","lat":43.29169,"lon":5.37162,"is_reserved":false,"is_disabled":false,"rental_uris":{"android":"levelo://app?vid=2febfca4-ec71-45c1-aa95-14e0690e9f4e","ios":"levelo://app?vid=2febfca4-ec71-45c1-aa95-14e0690e9f4e"},"vehicle_type_id":"4","last_reported":1752253864,"current_range_meters":9600,"station_id":"ce4bha92rcd13ifvqeh0","pricing_plan_id":"cebpf4jnsgd1na2vs0mg"},{"bike_id":"e7512e6f-ed5e-4364-bbde-20cbaf4d83fc","system_id":"levelo_inurba_marseille","lat":43.24649,"lon":5.38887,"is_reserved":false,"is_disabled":false,"rental_uris":{"android":"levelo://app?vid=e7512e6f-ed5e-4364-bbde-20cbaf4d83fc","ios":"levelo://app?vid=e7512e6f-ed5e-4364-bbde-20cbaf4d83fc"},"vehicle_type_id":"4","last_reported":1752253864,"current_range_meters":9600,"station_id":"ce4bhg12rcd13ifvqf60","pricing_plan_id":"cebpf4jnsgd1na2vs0mg"},{"bike_id":"e7c1bb07-8c99-4a17-b70a-6ac8ec8d70be","system_id":"levelo_inurba_marseille","lat":43.3179,"lon":5.43674,"is_reserved":false,"is_disabled":false,"rental_uris":{"android":"levelo://app?vid=e7c1bb07-8c99-4a17-b70a-6ac8ec8d70be","ios":"levelo://app?vid=e7c1bb07-8c99-4a17-b70a-6ac8ec8d70be"},"vehicle_type_id":"4","last_reported":1752253864,"current_range_meters":9600,"station_id":"","pricing_plan_id":"cebpf4jnsgd1na2vs0mg"},{"bike_id":"f83369b3-816b-4c97-9323-55e632aad678","system_id":"levelo_inurba_marseille","lat":43.30929,"lon":5.40155,"is_reserved":false,"is_disabled":false,"rental_uris":{"android":"levelo://app?vid=f83369b3-816b-4c97-9323-55e632aad678","ios":"levelo://app?vid=f83369b3-816b-4c97-9323-55e632aad678"},"vehicle_type_id":"4","last_reported":1752253864,"current_range_meters":17600,"station_id":"ce4bgvp2rcd13ifvqct0","pricing_plan_id":"cebpf4jnsgd1na2vs0mg"},{"bike_id":"8b00e5ba-12bf-4bbf-a66a-bb6703f28692","system_id":"levelo_inurba_marseille","lat":43.280016,"lon":5.400074,"is_reserved":false,"is_disabled":false,"rental_uris":{"android":"levelo://app?vid=8b00e5ba-12bf-4bbf-a66a-bb6703f28692","ios":"levelo://app?vid=8b00e5ba-12bf-4bbf-a66a-bb6703f28692"},"vehicle_type_id":"4","last_reported":1752253864,"current_range_meters":10000,"station_id":"ce4bho92rcd13ifvqh4g","pricing_plan_id":"cebpf4jnsgd1na2vs0mg"},{"bike_id":"c4ce93cf-4268-4ad2-add7-0e166b75f60a","system_id":"levelo_inurba_marseille","lat":43.30328,"lon":5.40433,"is_reserved":false,"is_disabled":false,"rental_uris":{"android":"levelo://app?vid=c4ce93cf-4268-4ad2-add7-0e166b75f60a","ios":"levelo://app?vid=c4ce93cf-4268-4ad2-add7-0e166b75f60a"},"vehicle_type_id":"4","last_reported":1752253864,"current_range_meters":10000,"station_id":"ce4bh012rcd13ifvqd10","pricing_plan_id":"cebpf4jnsgd1na2vs0mg"},{"bike_id":"29323560-0ef0-48ed-b61d-58e8ede44089","system_id":"levelo_inurba_marseille","lat":43.2861,"lon":5.35098,"is_reserved":false,"is_disabled":false,"rental_uris":{"android":"levelo://app?vid=29323560-0ef0-48ed-b61d-58e8ede44089","ios":"levelo://app?vid=29323560-0ef0-48ed-b61d-58e8ede44089"},"vehicle_type_id":"4","last_reported":1752253864,"current_range_meters":10000,"station_id":"ce4bhch2rcd13ifvqeug","pricing_plan_id":"cebpf4jnsgd1na2vs0mg"},{"bike_id":"35a7227e-c631-4c07-a8ac-43aba4a9d9a6","system_id":"levelo_inurba_marseille","lat":43.2827,"lon":5.35071,"is_reserved":false,"is_disabled":false,"rental_uris":{"android":"levelo://app?vid=35a7227e-c631-4c07-a8ac-43aba4a9d9a6","ios":"levelo://app?vid=35a7227e-c631-4c07-a8ac-43aba4a9d9a6"},"vehicle_type_id":"4","last_reported":1752253864,"current_range_meters":10000,"station_id":"ce4bhbp2rcd13ifvqerg","pricing_plan_id":"cebpf4jnsgd1na2vs0mg"},{"bike_id":"cf87a907-5967-4011-abd1-58a5fa6189fe","system_id":"levelo_inurba_marseille","lat":43.30426,"lon":5.39746,"is_reserved":false,"is_disabled":false,"rental_uris":{"android":"levelo://app?vid=cf87a907-5967-4011-abd1-58a5fa6189fe","ios":"levelo://app?vid=cf87a907-5967-4011-abd1-58a5fa6189fe"},"vehicle_type_id":"4","last_reported":1752253864,"current_range_meters":10000,"station_id":"ce4bh092rcd13ifvqd20","pricing_plan_id":"cebpf4jnsgd1na2vs0mg"},{"bike_id":"c09072bc-83f5-495b-b0f0-a2fbca9da647","system_id":"levelo_inurba_marseille","lat":43.321112,"lon":5.367674,"is_reserved":false,"is_disabled":false,"rental_uris":{"android":"levelo://app?vid=c09072bc-83f5-495b-b0f0-a2fbca9da647","ios":"levelo://app?vid=c09072bc-83f5-495b-b0f0-a2fbca9da647"},"vehicle_type_id":"4","last_reported":1752253864,"current_range_meters":10000,"station_id":"ce4bhrh2rcd13ifvqhug","pricing_plan_id":"cebpf4jnsgd1na2vs0mg"},{"bike_id":"4e209b0c-855f-4b51-8120-2faef8673853","system_id":"levelo_inurba_marseille","lat":43.3062,"lon":5.36878,"is_reserved":false,"is_disabled":false,"rental_uris":{"android":"levelo://app?vid=4e209b0c-855f-4b51-8120-2faef8673853","ios":"levelo://app?vid=4e209b0c-855f-4b51-8120-2faef8673853"},"vehicle_type_id":"4","last_reported":1752253864,"current_range_meters":10000,"station_id":"","pricing_plan_id":"cebpf4jnsgd1na2vs0mg"},{"bike_id":"81346845-e563-4a54-9cf3-0e2793adb323","system_id":"levelo_inurba_marseille","lat":43.337598,"lon":5.37467,"is_reserved":false,"is_disabled":false,"rental_uris":{"android":"levelo://app?vid=81346845-e563-4a54-9cf3-0e2793adb323","ios":"levelo://app?vid=81346845-e563-4a54-9cf3-0e2793adb323"},"vehicle_type_id":"4","last_reported":1752253864,"current_range_meters":10800,"station_id":"","pricing_plan_id":"cebpf4jnsgd1na2vs0mg"},{"bike_id":"a7412e7d-0547-45cf-9b96-85e3684a4a02","system_id":"levelo_inurba_marseille","lat":43.28621,"lon":5.35098,"is_reserved":false,"is_disabled":false,"rental_uris":{"android":"levelo://app?vid=a7412e7d-0547-45cf-9b96-85e3684a4a02","ios":"levelo://app?vid=a7412e7d-0547-45cf-9b96-85e3684a4a02"},"vehicle_type_id":"4","last_reported":1752253864,"current_range_meters":10800,"station_id":"ce4bhch2rcd13ifvqeug","pricing_plan_id":"cebpf4jnsgd1na2vs0mg"},{"bike_id":"a42cd4da-bab6-4597-8024-ad06220176cc","system_id":"levelo_inurba_marseille","lat":43.309,"lon":5.396,"is_reserved":false,"is_disabled":false,"rental_uris":{"android":"levelo://app?vid=a42cd4da-bab6-4597-8024-ad06220176cc","ios":"levelo://app?vid=a42cd4da-bab6-4597-8024-ad06220176cc"},"vehicle_type_id":"4","last_reported":1752253864,"current_range_meters":10800,"station_id":"ce4bh012rcd13ifvqcv0","pricing_plan_id":"cebpf4jnsgd1na2vs0mg"},{"bike_id":"a4115d46-cc8a-4d81-b368-50b7b672baf6","system_id":"levelo_inurba_marseille","lat":43.28421,"lon":5.349813,"is_reserved":false,"is_disabled":false,"rental_uris":{"android":"levelo://app?vid=a4115d46-cc8a-4d81-b368-50b7b672baf6","ios":"levelo://app?vid=a4115d46-cc8a-4d81-b368-50b7b672baf6"},"vehicle_type_id":"4","last_reported":1752253864,"current_range_meters":10800,"station_id":"ce4bhbh2rcd13ifvqepg","pricing_plan_id":"cebpf4jnsgd1na2vs0mg"},{"bike_id":"8ef55320-143c-4b99-ba91-c70f2529b78f","system_id":"levelo_inurba_marseille","lat":43.30098,"lon":5.39073,"is_reserved":false,"is_disabled":false,"rental_uris":{"android":"levelo://app?vid=8ef55320-143c-4b99-ba91-c70f2529b78f","ios":"levelo://app?vid=8ef55320-143c-4b99-ba91-c70f2529b78f"},"vehicle_type_id":"4","last_reported":1752253864,"current_range_meters":11200,"station_id":"ce4bh192rcd13ifvqdb0","pricing_plan_id":"cebpf4jnsgd1na2vs0mg"},{"bike_id":"5a7b57ef-a00d-4d19-853c-d49c119db95f","system_id":"levelo_inurba_marseille","lat":43.24566,"lon":5.3734,"is_reserved":false,"is_disabled":false,"rental_uris":{"android":"levelo://app?vid=5a7b57ef-a00d-4d19-853c-d49c119db95f","ios":"levelo://app?vid=5a7b57ef-a00d-4d19-853c-d49c119db95f"},"vehicle_type_id":"4","last_reported":1752253864,"current_range_meters":11200,"station_id":"","pricing_plan_id":"cebpf4jnsgd1na2vs0mg"},{"bike_id":"8330a68f-2f6e-4337-9657-35d7d87c04ca","system_id":"levelo_inurba_marseille","lat":43.25451,"lon":5.37946,"is_reserved":false,"is_disabled":false,"rental_uris":{"android":"levelo://app?vid=8330a68f-2f6e-4337-9657-35d7d87c04ca","ios":"levelo://app?vid=8330a68f-2f6e-4337-9657-35d7d87c04ca"},"vehicle_type_id":"4","last_reported":1752253864,"current_range_meters":11200,"station_id":"","pricing_plan_id":"cebpf4jnsgd1na2vs0mg"},{"bike_id":"cc8c0160-2f23-4fd9-953a-2dc2d40aa53d","system_id":"levelo_inurba_marseille","lat":43.30214,"lon":5.38299,"is_reserved":false,"is_disabled":false,"rental_uris":{"android":"levelo://app?vid=cc8c0160-2f23-4fd9-953a-2dc2d40aa53d","ios":"levelo://app?vid=cc8c0160-2f23-4fd9-953a-2dc2d40aa53d"},"vehicle_type_id":"4","last_reported":1752253864,"current_range_meters":11600,"station_id":"","pricing_plan_id":"cebpf4jnsgd1na2vs0mg"},{"bike_id":"8c20eb1f-54b6-4f4c-9882-7aafb789e969","system_id":"levelo_inurba_marseille","lat":43.30649,"lon":5.40093,"is_reserved":false,"is_disabled":false,"rental_uris":{"android":"levelo://app?vid=8c20eb1f-54b6-4f4c-9882-7aafb789e969","ios":"levelo://app?vid=8c20eb1f-54b6-4f4c-9882-7aafb789e969"},"vehicle_type_id":"4","last_reported":1752253864,"current_range_meters":10800,"station_id":"ce4bh112rcd13ifvqda0","pricing_plan_id":"cebpf4jnsgd1na2vs0mg"},{"bike_id":"30779e2e-ca85-4674-b3f6-e57ef1c3fef6","system_id":"levelo_inurba_marseille","lat":43.28278,"lon":5.35072,"is_reserved":false,"is_disabled":false,"rental_uris":{"android":"levelo://app?vid=30779e2e-ca85-4674-b3f6-e57ef1c3fef6","ios":"levelo://app?vid=30779e2e-ca85-4674-b3f6-e57ef1c3fef6"},"vehicle_type_id":"4","last_reported":1752253864,"current_range_meters":11200,"station_id":"ce4bhbp2rcd13ifvqerg","pricing_plan_id":"cebpf4jnsgd1na2vs0mg"},{"bike_id":"d15ce2f6-b83c-43cb-9c5b-4577368cb417","system_id":"levelo_inurba_marseille","lat":43.296153,"lon":5.42318,"is_reserved":false,"is_disabled":false,"rental_uris":{"android":"levelo://app?vid=d15ce2f6-b83c-43cb-9c5b-4577368cb417","ios":"levelo://app?vid=d15ce2f6-b83c-43cb-9c5b-4577368cb417"},"vehicle_type_id":"4","last_reported":1752253864,"current_range_meters":11200,"station_id":"","pricing_plan_id":"cebpf4jnsgd1na2vs0mg"},{"bike_id":"f4c7db52-fb56-4ed3-8fa0-7ad91c40eb92","system_id":"levelo_inurba_marseille","lat":43.29514,"lon":5.39045,"is_reserved":false,"is_disabled":false,"rental_uris":{"android":"levelo://app?vid=f4c7db52-fb56-4ed3-8fa0-7ad91c40eb92","ios":"levelo://app?vid=f4c7db52-fb56-4ed3-8fa0-7ad91c40eb92"},"vehicle_type_id":"4","last_reported":1752253864,"current_range_meters":11200,"station_id":"ce4bh3p2rcd13ifvqdp0","pricing_plan_id":"cebpf4jnsgd1na2vs0mg"},{"bike_id":"89f7686a-0330-4d5d-b1d7-e094d2877cd9","system_id":"levelo_inurba_marseille","lat":43.239668,"lon":5.366223,"is_reserved":false,"is_disabled":false,"rental_uris":{"android":"levelo://app?vid=89f7686a-0330-4d5d-b1d7-e094d2877cd9","ios":"levelo://app?vid=89f7686a-0330-4d5d-b1d7-e094d2877cd9"},"vehicle_type_id":"4","last_reported":1752253864,"current_range_meters":11200,"station_id":"ce4bhi12rcd13ifvqfp0","pricing_plan_id":"cebpf4jnsgd1na2vs0mg"},{"bike_id":"cd476012-a55e-4789-b12d-1993e1bc4d04","system_id":"levelo_inurba_marseille","lat":43.282746,"lon":5.350534,"is_reserved":false,"is_disabled":false,"rental_uris":{"android":"levelo://app?vid=cd476012-a55e-4789-b12d-1993e1bc4d04","ios":"levelo://app?vid=cd476012-a55e-4789-b12d-1993e1bc4d04"},"vehicle_type_id":"4","last_reported":1752253864,"current_range_meters":11600,"station_id":"ce4bhbp2rcd13ifvqerg","pricing_plan_id":"cebpf4jnsgd1na2vs0mg"},{"bike_id":"2ae1fbdc-4e36-41ea-8e9c-bd53feca845a","system_id":"levelo_inurba_marseille","lat":43.29276,"lon":5.36839,"is_reserved":false,"is_disabled":false,"rental_uris":{"android":"levelo://app?vid=2ae1fbdc-4e36-41ea-8e9c-bd53feca845a","ios":"levelo://app?vid=2ae1fbdc-4e36-41ea-8e9c-bd53feca845a"},"vehicle_type_id":"4","last_reported":1752253864,"current_range_meters":11600,"station_id":"ce4bhbp2rcd13ifvqesg","pricing_plan_id":"cebpf4jnsgd1na2vs0mg"},{"bike_id":"efd2206e-a1ee-42fb-98bf-07155893af7f","system_id":"levelo_inurba_marseille","lat":43.28426,"lon":5.34988,"is_reserved":false,"is_disabled":false,"rental_uris":{"android":"levelo://app?vid=efd2206e-a1ee-42fb-98bf-07155893af7f","ios":"levelo://app?vid=efd2206e-a1ee-42fb-98bf-07155893af7f"},"vehicle_type_id":"4","last_reported":1752253864,"current_range_meters":11600,"station_id":"ce4bhbh2rcd13ifvqepg","pricing_plan_id":"cebpf4jnsgd1na2vs0mg"},{"bike_id":"8f89e4f3-495a-4317-bd6d-37a19186d65b","system_id":"levelo_inurba_marseille","lat":43.33743,"lon":5.3919,"is_reserved":false,"is_disabled":false,"rental_uris":{"android":"levelo://app?vid=8f89e4f3-495a-4317-bd6d-37a19186d65b","ios":"levelo://app?vid=8f89e4f3-495a-4317-bd6d-37a19186d65b"},"vehicle_type_id":"4","last_reported":1752253864,"current_range_meters":11600,"station_id":"ce4bhr92rcd13ifvqhsg","pricing_plan_id":"cebpf4jnsgd1na2vs0mg"},{"bike_id":"a2f087e4-2174-4792-b543-bc2fc14fed30","system_id":"levelo_inurba_marseille","lat":43.28432,"lon":5.34984,"is_reserved":false,"is_disabled":false,"rental_uris":{"android":"levelo://app?vid=a2f087e4-2174-4792-b543-bc2fc14fed30","ios":"levelo://app?vid=a2f087e4-2174-4792-b543-bc2fc14fed30"},"vehicle_type_id":"4","last_reported":1752253864,"current_range_meters":11600,"station_id":"ce4bhbh2rcd13ifvqepg","pricing_plan_id":"cebpf4jnsgd1na2vs0mg"},{"bike_id":"21cc4a87-2424-44a2-8db3-1f99d6545494","system_id":"levelo_inurba_marseille","lat":43.21758,"lon":5.34585,"is_reserved":false,"is_disabled":false,"rental_uris":{"android":"levelo://app?vid=21cc4a87-2424-44a2-8db3-1f99d6545494","ios":"levelo://app?vid=21cc4a87-2424-44a2-8db3-1f99d6545494"},"vehicle_type_id":"4","last_reported":1752253864,"current_range_meters":11600,"station_id":"st_cvj6r9ubvosntc0bgbag","pricing_plan_id":"cebpf4jnsgd1na2vs0mg"},{"bike_id":"6cf8d3b4-810f-4545-9316-e161dc729cfb","system_id":"levelo_inurba_marseille","lat":43.279012,"lon":5.380245,"is_reserved":false,"is_disabled":false,"rental_uris":{"android":"levelo://app?vid=6cf8d3b4-810f-4545-9316-e161dc729cfb","ios":"levelo://app?vid=6cf8d3b4-810f-4545-9316-e161dc729cfb"},"vehicle_type_id":"4","last_reported":1752253864,"current_range_meters":11600,"station_id":"ce4bhf92rcd13ifvqf50","pricing_plan_id":"cebpf4jnsgd1na2vs0mg"},{"bike_id":"534ed68d-5ceb-43a8-968b-be30f01dfa74","system_id":"levelo_inurba_marseille","lat":43.2822,"lon":5.39055,"is_reserved":false,"is_disabled":true,"rental_uris":{"android":"levelo://app?vid=534ed68d-5ceb-43a8-968b-be30f01dfa74","ios":"levelo://app?vid=534ed68d-5ceb-43a8-968b-be30f01dfa74"},"vehicle_type_id":"4","last_reported":1752253864,"current_range_meters":12000,"station_id":"","pricing_plan_id":"cebpf4jnsgd1na2vs0mg"},{"bike_id":"532fcb3c-975e-4be3-ab68-3f3d54df12d6","system_id":"levelo_inurba_marseille","lat":43.24808,"lon":5.37457,"is_reserved":false,"is_disabled":false,"rental_uris":{"android":"levelo://app?vid=532fcb3c-975e-4be3-ab68-3f3d54df12d6","ios":"levelo://app?vid=532fcb3c-975e-4be3-ab68-3f3d54df12d6"},"vehicle_type_id":"4","last_reported":1752253864,"current_range_meters":12000,"station_id":"ce4bhgh2rcd13ifvqfb0","pricing_plan_id":"cebpf4jnsgd1na2vs0mg"},{"bike_id":"e7e5071a-8e26-4a64-8b1f-39ccbe72806a","system_id":"levelo_inurba_marseille","lat":43.32339,"lon":5.40619,"is_reserved":false,"is_disabled":false,"rental_uris":{"android":"levelo://app?vid=e7e5071a-8e26-4a64-8b1f-39ccbe72806a","ios":"levelo://app?vid=e7e5071a-8e26-4a64-8b1f-39ccbe72806a"},"vehicle_type_id":"4","last_reported":1752253864,"current_range_meters":12000,"station_id":"ce4bhq92rcd13ifvqhjg","pricing_plan_id":"cebpf4jnsgd1na2vs0mg"},{"bike_id":"6990c8f4-1c2f-4bf8-9c77-fca98d5cb997","system_id":"levelo_inurba_marseille","lat":43.26929,"lon":5.38926,"is_reserved":false,"is_disabled":false,"rental_uris":{"android":"levelo://app?vid=6990c8f4-1c2f-4bf8-9c77-fca98d5cb997","ios":"levelo://app?vid=6990c8f4-1c2f-4bf8-9c77-fca98d5cb997"},"vehicle_type_id":"4","last_reported":1752253864,"current_range_meters":11600,"station_id":"ce4bhhh2rcd13ifvqfl0","pricing_plan_id":"cebpf4jnsgd1na2vs0mg"},{"bike_id":"6cfc468d-aa94-4096-bdab-f9fb6b3eace0","system_id":"levelo_inurba_marseille","lat":43.28415,"lon":5.34983,"is_reserved":false,"is_disabled":false,"rental_uris":{"android":"levelo://app?vid=6cfc468d-aa94-4096-bdab-f9fb6b3eace0","ios":"levelo://app?vid=6cfc468d-aa94-4096-bdab-f9fb6b3eace0"},"vehicle_type_id":"4","last_reported":1752253864,"current_range_meters":12000,"station_id":"ce4bhbh2rcd13ifvqepg","pricing_plan_id":"cebpf4jnsgd1na2vs0mg"},{"bike_id":"1797e06b-d9e5-4fb7-be0f-8230d778970b","system_id":"levelo_inurba_marseille","lat":43.2927,"lon":5.36839,"is_reserved":false,"is_disabled":true,"rental_uris":{"android":"levelo://app?vid=1797e06b-d9e5-4fb7-be0f-8230d778970b","ios":"levelo://app?vid=1797e06b-d9e5-4fb7-be0f-8230d778970b"},"vehicle_type_id":"4","last_reported":1752253864,"current_range_meters":12000,"station_id":"ce4bhbp2rcd13ifvqesg","pricing_plan_id":"cebpf4jnsgd1na2vs0mg"},{"bike_id":"9e3a91cc-f77f-4af4-8f67-36c61a9ef598","system_id":"levelo_inurba_marseille","lat":43.30317,"lon":5.36901,"is_reserved":false,"is_disabled":false,"rental_uris":{"android":"levelo://app?vid=9e3a91cc-f77f-4af4-8f67-36c61a9ef598","ios":"levelo://app?vid=9e3a91cc-f77f-4af4-8f67-36c61a9ef598"},"vehicle_type_id":"4","last_reported":1752253864,"current_range_meters":12000,"station_id":"ce4bgqh2rcd13ifvqc5g","pricing_plan_id":"cebpf4jnsgd1na2vs0mg"},{"bike_id":"c74b27ee-3cfc-4e11-b4c4-f418cd2e9569","system_id":"levelo_inurba_marseille","lat":43.24165,"lon":5.36395,"is_reserved":false,"is_disabled":false,"rental_uris":{"android":"levelo://app?vid=c74b27ee-3cfc-4e11-b4c4-f418cd2e9569","ios":"levelo://app?vid=c74b27ee-3cfc-4e11-b4c4-f418cd2e9569"},"vehicle_type_id":"4","last_reported":1752253864,"current_range_meters":12000,"station_id":"cpo36qri1sfpv3e86is0","pricing_plan_id":"cebpf4jnsgd1na2vs0mg"},{"bike_id":"abe4e751-1ba4-4cfa-84b5-a563281c6010","system_id":"levelo_inurba_marseille","lat":43.27842,"lon":5.39208,"is_reserved":false,"is_disabled":false,"rental_uris":{"android":"levelo://app?vid=abe4e751-1ba4-4cfa-84b5-a563281c6010","ios":"levelo://app?vid=abe4e751-1ba4-4cfa-84b5-a563281c6010"},"vehicle_type_id":"4","last_reported":1752253864,"current_range_meters":12000,"station_id":"ce4bhjp2rcd13ifvqga0","pricing_plan_id":"cebpf4jnsgd1na2vs0mg"},{"bike_id":"2c702aa4-2ac5-4550-b697-5b3cdcd314b3","system_id":"levelo_inurba_marseille","lat":43.320633,"lon":5.415157,"is_reserved":false,"is_disabled":false,"rental_uris":{"android":"levelo://app?vid=2c702aa4-2ac5-4550-b697-5b3cdcd314b3","ios":"levelo://app?vid=2c702aa4-2ac5-4550-b697-5b3cdcd314b3"},"vehicle_type_id":"4","last_reported":1752253864,"current_range_meters":12400,"station_id":"ce4bhq92rcd13ifvqhkg","pricing_plan_id":"cebpf4jnsgd1na2vs0mg"},{"bike_id":"823ef37f-20a8-4c39-8134-3e6a506b1235","system_id":"levelo_inurba_marseille","lat":43.231963,"lon":5.355528,"is_reserved":false,"is_disabled":false,"rental_uris":{"android":"levelo://app?vid=823ef37f-20a8-4c39-8134-3e6a506b1235","ios":"levelo://app?vid=823ef37f-20a8-4c39-8134-3e6a506b1235"},"vehicle_type_id":"4","last_reported":1752253864,"current_range_meters":12400,"station_id":"ce4bhu92rcd13ifvqi70","pricing_plan_id":"cebpf4jnsgd1na2vs0mg"},{"bike_id":"d849a247-c2c0-4619-bac8-f5a6994e0014","system_id":"levelo_inurba_marseille","lat":43.32046,"lon":5.41554,"is_reserved":false,"is_disabled":true,"rental_uris":{"android":"levelo://app?vid=d849a247-c2c0-4619-bac8-f5a6994e0014","ios":"levelo://app?vid=d849a247-c2c0-4619-bac8-f5a6994e0014"},"vehicle_type_id":"4","last_reported":1752253864,"current_range_meters":12400,"station_id":"ce4bhq92rcd13ifvqhkg","pricing_plan_id":"cebpf4jnsgd1na2vs0mg"},{"bike_id":"4464c91a-b8cf-48b1-82b6-b9f3398a5c02","system_id":"levelo_inurba_marseille","lat":43.284041,"lon":5.349974,"is_reserved":false,"is_disabled":false,"rental_uris":{"android":"levelo://app?vid=4464c91a-b8cf-48b1-82b6-b9f3398a5c02","ios":"levelo://app?vid=4464c91a-b8cf-48b1-82b6-b9f3398a5c02"},"vehicle_type_id":"4","last_reported":1752253864,"current_range_meters":12400,"station_id":"ce4bhbh2rcd13ifvqepg","pricing_plan_id":"cebpf4jnsgd1na2vs0mg"},{"bike_id":"45da4d15-c9ef-4fe9-9d9b-20c1ea084477","system_id":"levelo_inurba_marseille","lat":43.28618,"lon":5.35097,"is_reserved":false,"is_disabled":false,"rental_uris":{"android":"levelo://app?vid=45da4d15-c9ef-4fe9-9d9b-20c1ea084477","ios":"levelo://app?vid=45da4d15-c9ef-4fe9-9d9b-20c1ea084477"},"vehicle_type_id":"4","last_reported":1752253864,"current_range_meters":12400,"station_id":"ce4bhch2rcd13ifvqeug","pricing_plan_id":"cebpf4jnsgd1na2vs0mg"},{"bike_id":"3f50b904-8311-4781-93ab-8107c415adad","system_id":"levelo_inurba_marseille","lat":43.27635,"lon":5.36124,"is_reserved":false,"is_disabled":false,"rental_uris":{"android":"levelo://app?vid=3f50b904-8311-4781-93ab-8107c415adad","ios":"levelo://app?vid=3f50b904-8311-4781-93ab-8107c415adad"},"vehicle_type_id":"4","last_reported":1752253864,"current_range_meters":12800,"station_id":"ce4bgj92rcd13ifvqbe0","pricing_plan_id":"cebpf4jnsgd1na2vs0mg"},{"bike_id":"5076ad93-b7e2-4902-b566-655c2183f3e6","system_id":"levelo_inurba_marseille","lat":43.27963,"lon":5.38686,"is_reserved":false,"is_disabled":true,"rental_uris":{"android":"levelo://app?vid=5076ad93-b7e2-4902-b566-655c2183f3e6","ios":"levelo://app?vid=5076ad93-b7e2-4902-b566-655c2183f3e6"},"vehicle_type_id":"4","last_reported":1752253864,"current_range_meters":12800,"station_id":"ce4bhg12rcd13ifvqf80","pricing_plan_id":"cebpf4jnsgd1na2vs0mg"},{"bike_id":"6bc40032-b232-4ac9-8acf-49b7085e28e8","system_id":"levelo_inurba_marseille","lat":43.31997,"lon":5.38149,"is_reserved":false,"is_disabled":false,"rental_uris":{"android":"levelo://app?vid=6bc40032-b232-4ac9-8acf-49b7085e28e8","ios":"levelo://app?vid=6bc40032-b232-4ac9-8acf-49b7085e28e8"},"vehicle_type_id":"4","last_reported":1752253864,"current_range_meters":12800,"station_id":"ce4bhr12rcd13ifvqhpg","pricing_plan_id":"cebpf4jnsgd1na2vs0mg"},{"bike_id":"6e44525d-ed45-445a-a877-081b94eb5813","system_id":"levelo_inurba_marseille","lat":43.303643,"lon":5.418809,"is_reserved":false,"is_disabled":true,"rental_uris":{"android":"levelo://app?vid=6e44525d-ed45-445a-a877-081b94eb5813","ios":"levelo://app?vid=6e44525d-ed45-445a-a877-081b94eb5813"},"vehicle_type_id":"4","last_reported":1752253864,"current_range_meters":12800,"station_id":"ce4bhop2rcd13ifvqh7g","pricing_plan_id":"cebpf4jnsgd1na2vs0mg"},{"bike_id":"8c5dfbf1-6071-48ee-8922-1af606784ffd","system_id":"levelo_inurba_marseille","lat":43.24388,"lon":5.37054,"is_reserved":false,"is_disabled":false,"rental_uris":{"android":"levelo://app?vid=8c5dfbf1-6071-48ee-8922-1af606784ffd","ios":"levelo://app?vid=8c5dfbf1-6071-48ee-8922-1af606784ffd"},"vehicle_type_id":"4","last_reported":1752253864,"current_range_meters":12800,"station_id":"ce4bhhh2rcd13ifvqfk0","pricing_plan_id":"cebpf4jnsgd1na2vs0mg"},{"bike_id":"4d4b9e28-a4f6-4d45-ac6b-64a63a768bd8","system_id":"levelo_inurba_marseille","lat":43.31508,"lon":5.37399,"is_reserved":false,"is_disabled":false,"rental_uris":{"android":"levelo://app?vid=4d4b9e28-a4f6-4d45-ac6b-64a63a768bd8","ios":"levelo://app?vid=4d4b9e28-a4f6-4d45-ac6b-64a63a768bd8"},"vehicle_type_id":"4","last_reported":1752253864,"current_range_meters":13600,"station_id":"","pricing_plan_id":"cebpf4jnsgd1na2vs0mg"},{"bike_id":"44e28c2d-7460-4685-9997-621ecb7b271a","system_id":"levelo_inurba_marseille","lat":43.28271,"lon":5.35057,"is_reserved":false,"is_disabled":false,"rental_uris":{"android":"levelo://app?vid=44e28c2d-7460-4685-9997-621ecb7b271a","ios":"levelo://app?vid=44e28c2d-7460-4685-9997-621ecb7b271a"},"vehicle_type_id":"4","last_reported":1752253864,"current_range_meters":13600,"station_id":"ce4bhbp2rcd13ifvqerg","pricing_plan_id":"cebpf4jnsgd1na2vs0mg"},{"bike_id":"595e9351-a7ce-45de-8995-771f7d9fe86e","system_id":"levelo_inurba_marseille","lat":43.309243,"lon":5.378088,"is_reserved":false,"is_disabled":false,"rental_uris":{"android":"levelo://app?vid=595e9351-a7ce-45de-8995-771f7d9fe86e","ios":"levelo://app?vid=595e9351-a7ce-45de-8995-771f7d9fe86e"},"vehicle_type_id":"4","last_reported":1752253864,"current_range_meters":13600,"station_id":"","pricing_plan_id":"cebpf4jnsgd1na2vs0mg"},{"bike_id":"b415577f-c6f4-408e-9a47-9d8571e1dc56","system_id":"levelo_inurba_marseille","lat":43.250002,"lon":5.389255,"is_reserved":false,"is_disabled":false,"rental_uris":{"android":"levelo://app?vid=b415577f-c6f4-408e-9a47-9d8571e1dc56","ios":"levelo://app?vid=b415577f-c6f4-408e-9a47-9d8571e1dc56"},"vehicle_type_id":"4","last_reported":1752253864,"current_range_meters":12800,"station_id":"ce4bhgp2rcd13ifvqfd0","pricing_plan_id":"cebpf4jnsgd1na2vs0mg"},{"bike_id":"d69131c5-5c47-4c7b-9f07-ef1fd76159d1","system_id":"levelo_inurba_marseille","lat":43.29258,"lon":5.38442,"is_reserved":false,"is_disabled":false,"rental_uris":{"android":"levelo://app?vid=d69131c5-5c47-4c7b-9f07-ef1fd76159d1","ios":"levelo://app?vid=d69131c5-5c47-4c7b-9f07-ef1fd76159d1"},"vehicle_type_id":"4","last_reported":1752253864,"current_range_meters":13600,"station_id":"ce4bh692rcd13ifvqea0","pricing_plan_id":"cebpf4jnsgd1na2vs0mg"},{"bike_id":"c1d4fa30-fa11-4c1d-8b18-ad6d5767504c","system_id":"levelo_inurba_marseille","lat":43.28418,"lon":5.349853,"is_reserved":false,"is_disabled":false,"rental_uris":{"android":"levelo://app?vid=c1d4fa30-fa11-4c1d-8b18-ad6d5767504c","ios":"levelo://app?vid=c1d4fa30-fa11-4c1d-8b18-ad6d5767504c"},"vehicle_type_id":"4","last_reported":1752253864,"current_range_meters":13600,"station_id":"ce4bhbh2rcd13ifvqepg","pricing_plan_id":"cebpf4jnsgd1na2vs0mg"},{"bike_id":"dc745791-e4b0-4e9a-bf26-a83de36e49d9","system_id":"levelo_inurba_marseille","lat":43.286222,"lon":5.350963,"is_reserved":false,"is_disabled":false,"rental_uris":{"android":"levelo://app?vid=dc745791-e4b0-4e9a-bf26-a83de36e49d9","ios":"levelo://app?vid=dc745791-e4b0-4e9a-bf26-a83de36e49d9"},"vehicle_type_id":"4","last_reported":1752253864,"current_range_meters":13600,"station_id":"ce4bhch2rcd13ifvqeug","pricing_plan_id":"cebpf4jnsgd1na2vs0mg"},{"bike_id":"7392143f-a48d-4d17-918a-2d49b0cf2786","system_id":"levelo_inurba_marseille","lat":43.31697,"lon":5.40477,"is_reserved":false,"is_disabled":true,"rental_uris":{"android":"levelo://app?vid=7392143f-a48d-4d17-918a-2d49b0cf2786","ios":"levelo://app?vid=7392143f-a48d-4d17-918a-2d49b0cf2786"},"vehicle_type_id":"4","last_reported":1752253864,"current_range_meters":13600,"station_id":"ce4bh012rcd13ifvqd00","pricing_plan_id":"cebpf4jnsgd1na2vs0mg"},{"bike_id":"fd9f5c27-5d58-42e5-badc-a12a0344229e","system_id":"levelo_inurba_marseille","lat":43.28919,"lon":5.36073,"is_reserved":false,"is_disabled":false,"rental_uris":{"android":"levelo://app?vid=fd9f5c27-5d58-42e5-badc-a12a0344229e","ios":"levelo://app?vid=fd9f5c27-5d58-42e5-badc-a12a0344229e"},"vehicle_type_id":"4","last_reported":1752253864,"current_range_meters":14000,"station_id":"","pricing_plan_id":"cebpf4jnsgd1na2vs0mg"},{"bike_id":"ceb8bcf8-9e11-4102-bd78-9a687c0c96d2","system_id":"levelo_inurba_marseille","lat":43.28928,"lon":5.38382,"is_reserved":false,"is_disabled":true,"rental_uris":{"android":"levelo://app?vid=ceb8bcf8-9e11-4102-bd78-9a687c0c96d2","ios":"levelo://app?vid=ceb8bcf8-9e11-4102-bd78-9a687c0c96d2"},"vehicle_type_id":"4","last_reported":1752253864,"current_range_meters":14000,"station_id":"ce4bh612rcd13ifvqe6g","pricing_plan_id":"cebpf4jnsgd1na2vs0mg"},{"bike_id":"ad330721-7c83-4334-a296-643d1132042a","system_id":"levelo_inurba_marseille","lat":43.2175,"lon":5.34602,"is_reserved":false,"is_disabled":false,"rental_uris":{"android":"levelo://app?vid=ad330721-7c83-4334-a296-643d1132042a","ios":"levelo://app?vid=ad330721-7c83-4334-a296-643d1132042a"},"vehicle_type_id":"4","last_reported":1752253864,"current_range_meters":14000,"station_id":"st_cvj6r9ubvosntc0bgbag","pricing_plan_id":"cebpf4jnsgd1na2vs0mg"},{"bike_id":"e3a75ee9-c614-467b-8cc2-f813bcef2ab1","system_id":"levelo_inurba_marseille","lat":43.33743,"lon":5.3919,"is_reserved":false,"is_disabled":false,"rental_uris":{"android":"levelo://app?vid=e3a75ee9-c614-467b-8cc2-f813bcef2ab1","ios":"levelo://app?vid=e3a75ee9-c614-467b-8cc2-f813bcef2ab1"},"vehicle_type_id":"4","last_reported":1752253864,"current_range_meters":14000,"station_id":"ce4bhr92rcd13ifvqhsg","pricing_plan_id":"cebpf4jnsgd1na2vs0mg"},{"bike_id":"d699b28b-cc0e-4c05-a926-41959fb28427","system_id":"levelo_inurba_marseille","lat":43.305967,"lon":5.39344,"is_reserved":false,"is_disabled":false,"rental_uris":{"android":"levelo://app?vid=d699b28b-cc0e-4c05-a926-41959fb28427","ios":"levelo://app?vid=d699b28b-cc0e-4c05-a926-41959fb28427"},"vehicle_type_id":"4","last_reported":1752253864,"current_range_meters":14000,"station_id":"ce4bh0p2rcd13ifvqd80","pricing_plan_id":"cebpf4jnsgd1na2vs0mg"},{"bike_id":"5f27cee9-4808-4986-92e5-73f9f0fefbc8","system_id":"levelo_inurba_marseille","lat":43.24818,"lon":5.37455,"is_reserved":false,"is_disabled":false,"rental_uris":{"android":"levelo://app?vid=5f27cee9-4808-4986-92e5-73f9f0fefbc8","ios":"levelo://app?vid=5f27cee9-4808-4986-92e5-73f9f0fefbc8"},"vehicle_type_id":"4","last_reported":1752253864,"current_range_meters":14400,"station_id":"ce4bhgh2rcd13ifvqfb0","pricing_plan_id":"cebpf4jnsgd1na2vs0mg"},{"bike_id":"530fdaa0-3dcf-48bd-ae6d-18f67ca1c283","system_id":"levelo_inurba_marseille","lat":43.297111,"lon":5.366155,"is_reserved":false,"is_disabled":false,"rental_uris":{"android":"levelo://app?vid=530fdaa0-3dcf-48bd-ae6d-18f67ca1c283","ios":"levelo://app?vid=530fdaa0-3dcf-48bd-ae6d-18f67ca1c283"},"vehicle_type_id":"4","last_reported":1752253864,"current_range_meters":14400,"station_id":"","pricing_plan_id":"cebpf4jnsgd1na2vs0mg"},{"bike_id":"647a1903-1834-4730-b34e-6397917620f0","system_id":"levelo_inurba_marseille","lat":43.31675,"lon":5.37014,"is_reserved":false,"is_disabled":false,"rental_uris":{"android":"levelo://app?vid=647a1903-1834-4730-b34e-6397917620f0","ios":"levelo://app?vid=647a1903-1834-4730-b34e-6397917620f0"},"vehicle_type_id":"4","last_reported":1752253864,"current_range_meters":14400,"station_id":"","pricing_plan_id":"cebpf4jnsgd1na2vs0mg"},{"bike_id":"81043ee8-18cd-4452-a109-4451a12f03f0","system_id":"levelo_inurba_marseille","lat":43.29676,"lon":5.37286,"is_reserved":false,"is_disabled":false,"rental_uris":{"android":"levelo://app?vid=81043ee8-18cd-4452-a109-4451a12f03f0","ios":"levelo://app?vid=81043ee8-18cd-4452-a109-4451a12f03f0"},"vehicle_type_id":"4","last_reported":1752253864,"current_range_meters":14400,"station_id":"ce4bgk12rcd13ifvqbj0","pricing_plan_id":"cebpf4jnsgd1na2vs0mg"},{"bike_id":"eda0ea69-6404-43e6-9ede-2655d170d444","system_id":"levelo_inurba_marseille","lat":43.2885,"lon":5.35844,"is_reserved":false,"is_disabled":false,"rental_uris":{"android":"levelo://app?vid=eda0ea69-6404-43e6-9ede-2655d170d444","ios":"levelo://app?vid=eda0ea69-6404-43e6-9ede-2655d170d444"},"vehicle_type_id":"4","last_reported":1752253864,"current_range_meters":14400,"station_id":"ce4bhb12rcd13ifvqem0","pricing_plan_id":"cebpf4jnsgd1na2vs0mg"},{"bike_id":"650f810a-ea48-4652-b488-5274535ec11b","system_id":"levelo_inurba_marseille","lat":43.24155,"lon":5.36414,"is_reserved":false,"is_disabled":false,"rental_uris":{"android":"levelo://app?vid=650f810a-ea48-4652-b488-5274535ec11b","ios":"levelo://app?vid=650f810a-ea48-4652-b488-5274535ec11b"},"vehicle_type_id":"4","last_reported":1752253864,"current_range_meters":14400,"station_id":"cpo36qri1sfpv3e86is0","pricing_plan_id":"cebpf4jnsgd1na2vs0mg"},{"bike_id":"33f63fac-5cdb-4261-923e-b7ea5aff2fc7","system_id":"levelo_inurba_marseille","lat":43.24657,"lon":5.38891,"is_reserved":false,"is_disabled":false,"rental_uris":{"android":"levelo://app?vid=33f63fac-5cdb-4261-923e-b7ea5aff2fc7","ios":"levelo://app?vid=33f63fac-5cdb-4261-923e-b7ea5aff2fc7"},"vehicle_type_id":"4","last_reported":1752253864,"current_range_meters":14800,"station_id":"ce4bhg12rcd13ifvqf60","pricing_plan_id":"cebpf4jnsgd1na2vs0mg"},{"bike_id":"09ad3c75-90c1-4f9f-9538-55917d47c236","system_id":"levelo_inurba_marseille","lat":43.28262,"lon":5.35067,"is_reserved":false,"is_disabled":false,"rental_uris":{"android":"levelo://app?vid=09ad3c75-90c1-4f9f-9538-55917d47c236","ios":"levelo://app?vid=09ad3c75-90c1-4f9f-9538-55917d47c236"},"vehicle_type_id":"4","last_reported":1752253864,"current_range_meters":14800,"station_id":"ce4bhbp2rcd13ifvqerg","pricing_plan_id":"cebpf4jnsgd1na2vs0mg"},{"bike_id":"abd4c3bf-0665-4bf2-b1f5-b1e34d8a3feb","system_id":"levelo_inurba_marseille","lat":43.28619,"lon":5.35106,"is_reserved":false,"is_disabled":false,"rental_uris":{"android":"levelo://app?vid=abd4c3bf-0665-4bf2-b1f5-b1e34d8a3feb","ios":"levelo://app?vid=abd4c3bf-0665-4bf2-b1f5-b1e34d8a3feb"},"vehicle_type_id":"4","last_reported":1752253864,"current_range_meters":14800,"station_id":"ce4bhch2rcd13ifvqeug","pricing_plan_id":"cebpf4jnsgd1na2vs0mg"},{"bike_id":"9211b15f-14a9-4012-992e-4f9cee77fe7f","system_id":"levelo_inurba_marseille","lat":43.31513,"lon":5.37281,"is_reserved":false,"is_disabled":false,"rental_uris":{"android":"levelo://app?vid=9211b15f-14a9-4012-992e-4f9cee77fe7f","ios":"levelo://app?vid=9211b15f-14a9-4012-992e-4f9cee77fe7f"},"vehicle_type_id":"4","last_reported":1752253864,"current_range_meters":14800,"station_id":"ce4bgt12rcd13ifvqcd0","pricing_plan_id":"cebpf4jnsgd1na2vs0mg"},{"bike_id":"2199c1b7-2148-4448-8908-8771dc856d3a","system_id":"levelo_inurba_marseille","lat":43.28612,"lon":5.35101,"is_reserved":false,"is_disabled":false,"rental_uris":{"android":"levelo://app?vid=2199c1b7-2148-4448-8908-8771dc856d3a","ios":"levelo://app?vid=2199c1b7-2148-4448-8908-8771dc856d3a"},"vehicle_type_id":"4","last_reported":1752253864,"current_range_meters":14800,"station_id":"ce4bhch2rcd13ifvqeug","pricing_plan_id":"cebpf4jnsgd1na2vs0mg"},{"bike_id":"e8e03632-b9d1-480f-a4da-da482a543464","system_id":"levelo_inurba_marseille","lat":43.29027,"lon":5.3756,"is_reserved":false,"is_disabled":true,"rental_uris":{"android":"levelo://app?vid=e8e03632-b9d1-480f-a4da-da482a543464","ios":"levelo://app?vid=e8e03632-b9d1-480f-a4da-da482a543464"},"vehicle_type_id":"4","last_reported":1752253864,"current_range_meters":15200,"station_id":"ce4bh692rcd13ifvqe90","pricing_plan_id":"cebpf4jnsgd1na2vs0mg"},{"bike_id":"a9001741-1745-49c0-afeb-e7f128011c9f","system_id":"levelo_inurba_marseille","lat":43.2843,"lon":5.34991,"is_reserved":false,"is_disabled":false,"rental_uris":{"android":"levelo://app?vid=a9001741-1745-49c0-afeb-e7f128011c9f","ios":"levelo://app?vid=a9001741-1745-49c0-afeb-e7f128011c9f"},"vehicle_type_id":"4","last_reported":1752253864,"current_range_meters":15200,"station_id":"ce4bhbh2rcd13ifvqepg","pricing_plan_id":"cebpf4jnsgd1na2vs0mg"},{"bike_id":"544ec108-796d-413d-8a7c-7e4ffa805fe3","system_id":"levelo_inurba_marseille","lat":43.273321,"lon":5.392794,"is_reserved":false,"is_disabled":false,"rental_uris":{"android":"levelo://app?vid=544ec108-796d-413d-8a7c-7e4ffa805fe3","ios":"levelo://app?vid=544ec108-796d-413d-8a7c-7e4ffa805fe3"},"vehicle_type_id":"4","last_reported":1752253864,"current_range_meters":15200,"station_id":"","pricing_plan_id":"cebpf4jnsgd1na2vs0mg"},{"bike_id":"85758837-e8e8-429b-9b62-411361adebf1","system_id":"levelo_inurba_marseille","lat":43.31761,"lon":5.39016,"is_reserved":false,"is_disabled":true,"rental_uris":{"android":"levelo://app?vid=85758837-e8e8-429b-9b62-411361adebf1","ios":"levelo://app?vid=85758837-e8e8-429b-9b62-411361adebf1"},"vehicle_type_id":"4","last_reported":1752253864,"current_range_meters":15200,"station_id":"ce4bhqp2rcd13ifvqhng","pricing_plan_id":"cebpf4jnsgd1na2vs0mg"},{"bike_id":"dafa5a87-b26d-4379-9a6b-1f02133b78a6","system_id":"levelo_inurba_marseille","lat":43.21196,"lon":5.35049,"is_reserved":false,"is_disabled":false,"rental_uris":{"android":"levelo://app?vid=dafa5a87-b26d-4379-9a6b-1f02133b78a6","ios":"levelo://app?vid=dafa5a87-b26d-4379-9a6b-1f02133b78a6"},"vehicle_type_id":"4","last_reported":1752253864,"current_range_meters":15200,"station_id":"st_cvj6sg6p6f1abm77japg","pricing_plan_id":"cebpf4jnsgd1na2vs0mg"},{"bike_id":"129a54b1-d4e7-4cf2-981c-c929ee6e4e3f","system_id":"levelo_inurba_marseille","lat":43.29005,"lon":5.35608,"is_reserved":false,"is_disabled":false,"rental_uris":{"android":"levelo://app?vid=129a54b1-d4e7-4cf2-981c-c929ee6e4e3f","ios":"levelo://app?vid=129a54b1-d4e7-4cf2-981c-c929ee6e4e3f"},"vehicle_type_id":"4","last_reported":1752253864,"current_range_meters":15200,"station_id":"ce4bhb92rcd13ifvqen0","pricing_plan_id":"cebpf4jnsgd1na2vs0mg"},{"bike_id":"78e73f3e-1d29-4417-8bb3-093d8db4faed","system_id":"levelo_inurba_marseille","lat":43.2931,"lon":5.37181,"is_reserved":false,"is_disabled":false,"rental_uris":{"android":"levelo://app?vid=78e73f3e-1d29-4417-8bb3-093d8db4faed","ios":"levelo://app?vid=78e73f3e-1d29-4417-8bb3-093d8db4faed"},"vehicle_type_id":"4","last_reported":1752253864,"current_range_meters":15200,"station_id":"ce4bgh92rcd13ifvqb40","pricing_plan_id":"cebpf4jnsgd1na2vs0mg"},{"bike_id":"afdeb2ba-2021-43fa-a2f6-a8594ccc7e93","system_id":"levelo_inurba_marseille","lat":43.29786,"lon":5.38096,"is_reserved":false,"is_disabled":false,"rental_uris":{"android":"levelo://app?vid=afdeb2ba-2021-43fa-a2f6-a8594ccc7e93","ios":"levelo://app?vid=afdeb2ba-2021-43fa-a2f6-a8594ccc7e93"},"vehicle_type_id":"4","last_reported":1752253864,"current_range_meters":16000,"station_id":"ce4bgip2rcd13ifvqbb0","pricing_plan_id":"cebpf4jnsgd1na2vs0mg"},{"bike_id":"8b2e304f-bdfc-4c65-9cae-9c8089cc9da6","system_id":"levelo_inurba_marseille","lat":43.28424,"lon":5.34991,"is_reserved":false,"is_disabled":false,"rental_uris":{"android":"levelo://app?vid=8b2e304f-bdfc-4c65-9cae-9c8089cc9da6","ios":"levelo://app?vid=8b2e304f-bdfc-4c65-9cae-9c8089cc9da6"},"vehicle_type_id":"4","last_reported":1752253864,"current_range_meters":16000,"station_id":"ce4bhbh2rcd13ifvqepg","pricing_plan_id":"cebpf4jnsgd1na2vs0mg"},{"bike_id":"8929c1bf-fd4d-44e4-aa66-b3eb6538c998","system_id":"levelo_inurba_marseille","lat":43.285721,"lon":5.429714,"is_reserved":false,"is_disabled":false,"rental_uris":{"android":"levelo://app?vid=8929c1bf-fd4d-44e4-aa66-b3eb6538c998","ios":"levelo://app?vid=8929c1bf-fd4d-44e4-aa66-b3eb6538c998"},"vehicle_type_id":"4","last_reported":1752253864,"current_range_meters":16000,"station_id":"","pricing_plan_id":"cebpf4jnsgd1na2vs0mg"},{"bike_id":"e49ccf91-00a2-459c-99aa-0c4df7a15627","system_id":"levelo_inurba_marseille","lat":43.29205,"lon":5.359603,"is_reserved":false,"is_disabled":false,"rental_uris":{"android":"levelo://app?vid=e49ccf91-00a2-459c-99aa-0c4df7a15627","ios":"levelo://app?vid=e49ccf91-00a2-459c-99aa-0c4df7a15627"},"vehicle_type_id":"4","last_reported":1752253864,"current_range_meters":16000,"station_id":"ce4bhbh2rcd13ifvqepg","pricing_plan_id":"cebpf4jnsgd1na2vs0mg"},{"bike_id":"43b90c82-97e0-4fa7-8b67-2448f07d529e","system_id":"levelo_inurba_marseille","lat":43.211959,"lon":5.350668,"is_reserved":false,"is_disabled":false,"rental_uris":{"android":"levelo://app?vid=43b90c82-97e0-4fa7-8b67-2448f07d529e","ios":"levelo://app?vid=43b90c82-97e0-4fa7-8b67-2448f07d529e"},"vehicle_type_id":"4","last_reported":1752253864,"current_range_meters":16000,"station_id":"","pricing_plan_id":"cebpf4jnsgd1na2vs0mg"},{"bike_id":"a8792cb5-8073-49d0-b551-e9732393f0b0","system_id":"levelo_inurba_marseille","lat":43.28425,"lon":5.3498,"is_reserved":false,"is_disabled":false,"rental_uris":{"android":"levelo://app?vid=a8792cb5-8073-49d0-b551-e9732393f0b0","ios":"levelo://app?vid=a8792cb5-8073-49d0-b551-e9732393f0b0"},"vehicle_type_id":"4","last_reported":1752253864,"current_range_meters":16000,"station_id":"ce4bhbh2rcd13ifvqepg","pricing_plan_id":"cebpf4jnsgd1na2vs0mg"},{"bike_id":"45bf7bb2-07d1-4864-86fe-8e74a893ff6b","system_id":"levelo_inurba_marseille","lat":43.28426,"lon":5.34995,"is_reserved":false,"is_disabled":false,"rental_uris":{"android":"levelo://app?vid=45bf7bb2-07d1-4864-86fe-8e74a893ff6b","ios":"levelo://app?vid=45bf7bb2-07d1-4864-86fe-8e74a893ff6b"},"vehicle_type_id":"4","last_reported":1752253864,"current_range_meters":16000,"station_id":"ce4bhbh2rcd13ifvqepg","pricing_plan_id":"cebpf4jnsgd1na2vs0mg"},{"bike_id":"d05e987d-6766-4c70-b7d6-4c4ecf5a7258","system_id":"levelo_inurba_marseille","lat":43.284308,"lon":5.349839,"is_reserved":false,"is_disabled":false,"rental_uris":{"android":"levelo://app?vid=d05e987d-6766-4c70-b7d6-4c4ecf5a7258","ios":"levelo://app?vid=d05e987d-6766-4c70-b7d6-4c4ecf5a7258"},"vehicle_type_id":"4","last_reported":1752253864,"current_range_meters":16000,"station_id":"ce4bhbh2rcd13ifvqepg","pricing_plan_id":"cebpf4jnsgd1na2vs0mg"},{"bike_id":"0f35d6b8-0cab-463f-b2cb-038c990512d1","system_id":"levelo_inurba_marseille","lat":43.24678,"lon":5.38159,"is_reserved":false,"is_disabled":false,"rental_uris":{"android":"levelo://app?vid=0f35d6b8-0cab-463f-b2cb-038c990512d1","ios":"levelo://app?vid=0f35d6b8-0cab-463f-b2cb-038c990512d1"},"vehicle_type_id":"4","last_reported":1752253864,"current_range_meters":16000,"station_id":"ce4bhih2rcd13ifvqfr0","pricing_plan_id":"cebpf4jnsgd1na2vs0mg"},{"bike_id":"1a50a785-2074-4e83-8903-a1bc83fc89d5","system_id":"levelo_inurba_marseille","lat":43.282637,"lon":5.350641,"is_reserved":false,"is_disabled":false,"rental_uris":{"android":"levelo://app?vid=1a50a785-2074-4e83-8903-a1bc83fc89d5","ios":"levelo://app?vid=1a50a785-2074-4e83-8903-a1bc83fc89d5"},"vehicle_type_id":"4","last_reported":1752253864,"current_range_meters":16000,"station_id":"","pricing_plan_id":"cebpf4jnsgd1na2vs0mg"},{"bike_id":"7b5cd6ce-df57-4328-854d-cb2d1407ab18","system_id":"levelo_inurba_marseille","lat":43.330343,"lon":5.390413,"is_reserved":false,"is_disabled":false,"rental_uris":{"android":"levelo://app?vid=7b5cd6ce-df57-4328-854d-cb2d1407ab18","ios":"levelo://app?vid=7b5cd6ce-df57-4328-854d-cb2d1407ab18"},"vehicle_type_id":"4","last_reported":1752253864,"current_range_meters":16000,"station_id":"ce4bhr92rcd13ifvqhrg","pricing_plan_id":"cebpf4jnsgd1na2vs0mg"},{"bike_id":"8fccf46e-4269-459a-bd9a-cdd93f6b32bc","system_id":"levelo_inurba_marseille","lat":43.30356,"lon":5.41878,"is_reserved":false,"is_disabled":true,"rental_uris":{"android":"levelo://app?vid=8fccf46e-4269-459a-bd9a-cdd93f6b32bc","ios":"levelo://app?vid=8fccf46e-4269-459a-bd9a-cdd93f6b32bc"},"vehicle_type_id":"4","last_reported":1752253864,"current_range_meters":16400,"station_id":"ce4bhop2rcd13ifvqh7g","pricing_plan_id":"cebpf4jnsgd1na2vs0mg"},{"bike_id":"e9fd0cf8-573b-4177-88a6-f1faf33e8aca","system_id":"levelo_inurba_marseille","lat":43.29021,"lon":5.35632,"is_reserved":false,"is_disabled":true,"rental_uris":{"android":"levelo://app?vid=e9fd0cf8-573b-4177-88a6-f1faf33e8aca","ios":"levelo://app?vid=e9fd0cf8-573b-4177-88a6-f1faf33e8aca"},"vehicle_type_id":"4","last_reported":1752253864,"current_range_meters":16400,"station_id":"ce4bhb92rcd13ifvqen0","pricing_plan_id":"cebpf4jnsgd1na2vs0mg"},{"bike_id":"1dcc1526-eb58-41f8-9768-c1682dfaf7ba","system_id":"levelo_inurba_marseille","lat":43.310883,"lon":5.424293,"is_reserved":false,"is_disabled":false,"rental_uris":{"android":"levelo://app?vid=1dcc1526-eb58-41f8-9768-c1682dfaf7ba","ios":"levelo://app?vid=1dcc1526-eb58-41f8-9768-c1682dfaf7ba"},"vehicle_type_id":"4","last_reported":1752253864,"current_range_meters":16400,"station_id":"ce4bhp92rcd13ifvqhag","pricing_plan_id":"cebpf4jnsgd1na2vs0mg"},{"bike_id":"37b84a38-055a-4a6e-a56a-8ff3d0c1b2ec","system_id":"levelo_inurba_marseille","lat":43.21189,"lon":5.35071,"is_reserved":false,"is_disabled":false,"rental_uris":{"android":"levelo://app?vid=37b84a38-055a-4a6e-a56a-8ff3d0c1b2ec","ios":"levelo://app?vid=37b84a38-055a-4a6e-a56a-8ff3d0c1b2ec"},"vehicle_type_id":"4","last_reported":1752253864,"current_range_meters":16400,"station_id":"st_cvj6sg6p6f1abm77japg","pricing_plan_id":"cebpf4jnsgd1na2vs0mg"},{"bike_id":"dbba3321-20c7-4989-a7b5-ea9ab2c4b3e8","system_id":"levelo_inurba_marseille","lat":43.261935,"lon":5.374477,"is_reserved":false,"is_disabled":false,"rental_uris":{"android":"levelo://app?vid=dbba3321-20c7-4989-a7b5-ea9ab2c4b3e8","ios":"levelo://app?vid=dbba3321-20c7-4989-a7b5-ea9ab2c4b3e8"},"vehicle_type_id":"4","last_reported":1752253864,"current_range_meters":16400,"station_id":"ce4bhgp2rcd13ifvqfc0","pricing_plan_id":"cebpf4jnsgd1na2vs0mg"},{"bike_id":"c1398986-cba8-4ece-af51-ea4d29ebc716","system_id":"levelo_inurba_marseille","lat":43.25581,"lon":5.38231,"is_reserved":false,"is_disabled":false,"rental_uris":{"android":"levelo://app?vid=c1398986-cba8-4ece-af51-ea4d29ebc716","ios":"levelo://app?vid=c1398986-cba8-4ece-af51-ea4d29ebc716"},"vehicle_type_id":"4","last_reported":1752253864,"current_range_meters":16400,"station_id":"ce4bhih2rcd13ifvqfs0","pricing_plan_id":"cebpf4jnsgd1na2vs0mg"},{"bike_id":"c513a0d9-2f16-4998-9a33-aadb5e5869a2","system_id":"levelo_inurba_marseille","lat":43.283577,"lon":5.380907,"is_reserved":false,"is_disabled":false,"rental_uris":{"android":"levelo://app?vid=c513a0d9-2f16-4998-9a33-aadb5e5869a2","ios":"levelo://app?vid=c513a0d9-2f16-4998-9a33-aadb5e5869a2"},"vehicle_type_id":"4","last_reported":1752253864,"current_range_meters":16800,"station_id":"ce4bh412rcd13ifvqdr0","pricing_plan_id":"cebpf4jnsgd1na2vs0mg"},{"bike_id":"4ff4766f-13dc-49b2-bced-7f909eef25ac","system_id":"levelo_inurba_marseille","lat":43.273812,"lon":5.362547,"is_reserved":false,"is_disabled":false,"rental_uris":{"android":"levelo://app?vid=4ff4766f-13dc-49b2-bced-7f909eef25ac","ios":"levelo://app?vid=4ff4766f-13dc-49b2-bced-7f909eef25ac"},"vehicle_type_id":"4","last_reported":1752253864,"current_range_meters":16800,"station_id":"ce4bhbh2rcd13ifvqeo0","pricing_plan_id":"cebpf4jnsgd1na2vs0mg"},{"bike_id":"82939779-1bba-4176-8196-58b530c20a52","system_id":"levelo_inurba_marseille","lat":43.28438,"lon":5.3919,"is_reserved":false,"is_disabled":false,"rental_uris":{"android":"levelo://app?vid=82939779-1bba-4176-8196-58b530c20a52","ios":"levelo://app?vid=82939779-1bba-4176-8196-58b530c20a52"},"vehicle_type_id":"4","last_reported":1752253864,"current_range_meters":16400,"station_id":"ce4bhoh2rcd13ifvqh5g","pricing_plan_id":"cebpf4jnsgd1na2vs0mg"},{"bike_id":"5afc6da0-c19e-4c9f-92cb-ac377b121e8f","system_id":"levelo_inurba_marseille","lat":43.29526,"lon":5.39023,"is_reserved":false,"is_disabled":false,"rental_uris":{"android":"levelo://app?vid=5afc6da0-c19e-4c9f-92cb-ac377b121e8f","ios":"levelo://app?vid=5afc6da0-c19e-4c9f-92cb-ac377b121e8f"},"vehicle_type_id":"4","last_reported":1752253864,"current_range_meters":16800,"station_id":"ce4bh3p2rcd13ifvqdp0","pricing_plan_id":"cebpf4jnsgd1na2vs0mg"},{"bike_id":"eb6a2290-40e2-4780-bdeb-a149c699215d","system_id":"levelo_inurba_marseille","lat":43.27957,"lon":5.41048,"is_reserved":false,"is_disabled":false,"rental_uris":{"android":"levelo://app?vid=eb6a2290-40e2-4780-bdeb-a149c699215d","ios":"levelo://app?vid=eb6a2290-40e2-4780-bdeb-a149c699215d"},"vehicle_type_id":"4","last_reported":1752253864,"current_range_meters":16800,"station_id":"ce4bhnp2rcd13ifvqh0g","pricing_plan_id":"cebpf4jnsgd1na2vs0mg"},{"bike_id":"75fdea33-3bed-46d2-8df9-bc1de569a0c7","system_id":"levelo_inurba_marseille","lat":43.24806,"lon":5.37456,"is_reserved":false,"is_disabled":false,"rental_uris":{"android":"levelo://app?vid=75fdea33-3bed-46d2-8df9-bc1de569a0c7","ios":"levelo://app?vid=75fdea33-3bed-46d2-8df9-bc1de569a0c7"},"vehicle_type_id":"4","last_reported":1752253864,"current_range_meters":16800,"station_id":"ce4bhgh2rcd13ifvqfb0","pricing_plan_id":"cebpf4jnsgd1na2vs0mg"},{"bike_id":"82dae624-ea3d-4abd-b1f8-5c61cd951775","system_id":"levelo_inurba_marseille","lat":43.292627,"lon":5.38439,"is_reserved":false,"is_disabled":false,"rental_uris":{"android":"levelo://app?vid=82dae624-ea3d-4abd-b1f8-5c61cd951775","ios":"levelo://app?vid=82dae624-ea3d-4abd-b1f8-5c61cd951775"},"vehicle_type_id":"4","last_reported":1752253864,"current_range_meters":16800,"station_id":"ce4bh692rcd13ifvqea0","pricing_plan_id":"cebpf4jnsgd1na2vs0mg"},{"bike_id":"e86ba8c9-208d-482c-a826-4c100938472a","system_id":"levelo_inurba_marseille","lat":43.2123,"lon":5.35032,"is_reserved":false,"is_disabled":false,"rental_uris":{"android":"levelo://app?vid=e86ba8c9-208d-482c-a826-4c100938472a","ios":"levelo://app?vid=e86ba8c9-208d-482c-a826-4c100938472a"},"vehicle_type_id":"4","last_reported":1752253864,"current_range_meters":16800,"station_id":"st_cvj6sg6p6f1abm77japg","pricing_plan_id":"cebpf4jnsgd1na2vs0mg"},{"bike_id":"8ded6ea1-f35b-4974-a5b9-a4bda2cc6b40","system_id":"levelo_inurba_marseille","lat":43.290055,"lon":5.356166,"is_reserved":false,"is_disabled":false,"rental_uris":{"android":"levelo://app?vid=8ded6ea1-f35b-4974-a5b9-a4bda2cc6b40","ios":"levelo://app?vid=8ded6ea1-f35b-4974-a5b9-a4bda2cc6b40"},"vehicle_type_id":"4","last_reported":1752253864,"current_range_meters":17200,"station_id":"ce4bhb92rcd13ifvqen0","pricing_plan_id":"cebpf4jnsgd1na2vs0mg"},{"bike_id":"f55f43ba-6a58-425f-b3f7-137abf128be1","system_id":"levelo_inurba_marseille","lat":43.28084,"lon":5.40075,"is_reserved":false,"is_disabled":false,"rental_uris":{"android":"levelo://app?vid=f55f43ba-6a58-425f-b3f7-137abf128be1","ios":"levelo://app?vid=f55f43ba-6a58-425f-b3f7-137abf128be1"},"vehicle_type_id":"4","last_reported":1752253864,"current_range_meters":17200,"station_id":"","pricing_plan_id":"cebpf4jnsgd1na2vs0mg"},{"bike_id":"30663308-6de7-4b80-b2c9-3812efe10962","system_id":"levelo_inurba_marseille","lat":43.27983,"lon":5.410127,"is_reserved":false,"is_disabled":false,"rental_uris":{"android":"levelo://app?vid=30663308-6de7-4b80-b2c9-3812efe10962","ios":"levelo://app?vid=30663308-6de7-4b80-b2c9-3812efe10962"},"vehicle_type_id":"4","last_reported":1752253864,"current_range_meters":17200,"station_id":"ce4bh312rcd13ifvqdj0","pricing_plan_id":"cebpf4jnsgd1na2vs0mg"},{"bike_id":"4e2581fa-2fb7-4e18-a997-b8ff7b6be5b4","system_id":"levelo_inurba_marseille","lat":43.29058,"lon":5.35934,"is_reserved":false,"is_disabled":false,"rental_uris":{"android":"levelo://app?vid=4e2581fa-2fb7-4e18-a997-b8ff7b6be5b4","ios":"levelo://app?vid=4e2581fa-2fb7-4e18-a997-b8ff7b6be5b4"},"vehicle_type_id":"4","last_reported":1752253864,"current_range_meters":17200,"station_id":"ce4bha92rcd13ifvqeg0","pricing_plan_id":"cebpf4jnsgd1na2vs0mg"},{"bike_id":"09848d82-2201-4a8f-b9db-6c255ee39caa","system_id":"levelo_inurba_marseille","lat":43.29272,"lon":5.36838,"is_reserved":false,"is_disabled":false,"rental_uris":{"android":"levelo://app?vid=09848d82-2201-4a8f-b9db-6c255ee39caa","ios":"levelo://app?vid=09848d82-2201-4a8f-b9db-6c255ee39caa"},"vehicle_type_id":"4","last_reported":1752253864,"current_range_meters":17200,"station_id":"ce4bhbp2rcd13ifvqesg","pricing_plan_id":"cebpf4jnsgd1na2vs0mg"},{"bike_id":"452e8211-4f44-45d0-814a-3e9e25b8c44e","system_id":"levelo_inurba_marseille","lat":43.21198,"lon":5.35073,"is_reserved":false,"is_disabled":false,"rental_uris":{"android":"levelo://app?vid=452e8211-4f44-45d0-814a-3e9e25b8c44e","ios":"levelo://app?vid=452e8211-4f44-45d0-814a-3e9e25b8c44e"},"vehicle_type_id":"4","last_reported":1752253864,"current_range_meters":17200,"station_id":"st_cvj6sg6p6f1abm77japg","pricing_plan_id":"cebpf4jnsgd1na2vs0mg"},{"bike_id":"5c881fd0-2760-4821-84ab-8b598736cc55","system_id":"levelo_inurba_marseille","lat":43.2931,"lon":5.37176,"is_reserved":false,"is_disabled":false,"rental_uris":{"android":"levelo://app?vid=5c881fd0-2760-4821-84ab-8b598736cc55","ios":"levelo://app?vid=5c881fd0-2760-4821-84ab-8b598736cc55"},"vehicle_type_id":"4","last_reported":1752253864,"current_range_meters":17200,"station_id":"ce4bgh92rcd13ifvqb40","pricing_plan_id":"cebpf4jnsgd1na2vs0mg"},{"bike_id":"a81ede20-43a9-47cd-942d-8fb15c54f5f7","system_id":"levelo_inurba_marseille","lat":43.300563,"lon":5.451543,"is_reserved":false,"is_disabled":false,"rental_uris":{"android":"levelo://app?vid=a81ede20-43a9-47cd-942d-8fb15c54f5f7","ios":"levelo://app?vid=a81ede20-43a9-47cd-942d-8fb15c54f5f7"},"vehicle_type_id":"4","last_reported":1752253864,"current_range_meters":17600,"station_id":"","pricing_plan_id":"cebpf4jnsgd1na2vs0mg"},{"bike_id":"14ea0128-0a5a-4b9a-ae36-0e2a47f2cc86","system_id":"levelo_inurba_marseille","lat":43.231876,"lon":5.399906,"is_reserved":false,"is_disabled":false,"rental_uris":{"android":"levelo://app?vid=14ea0128-0a5a-4b9a-ae36-0e2a47f2cc86","ios":"levelo://app?vid=14ea0128-0a5a-4b9a-ae36-0e2a47f2cc86"},"vehicle_type_id":"4","last_reported":1752253864,"current_range_meters":17600,"station_id":"ce4bhn12rcd13ifvqgqg","pricing_plan_id":"cebpf4jnsgd1na2vs0mg"},{"bike_id":"cd2070df-519e-46b0-8434-5217d00c2436","system_id":"levelo_inurba_marseille","lat":43.26553,"lon":5.37283,"is_reserved":false,"is_disabled":false,"rental_uris":{"android":"levelo://app?vid=cd2070df-519e-46b0-8434-5217d00c2436","ios":"levelo://app?vid=cd2070df-519e-46b0-8434-5217d00c2436"},"vehicle_type_id":"4","last_reported":1752253864,"current_range_meters":17600,"station_id":"ce4bhg12rcd13ifvqf70","pricing_plan_id":"cebpf4jnsgd1na2vs0mg"},{"bike_id":"a581eef9-f0fb-4e5d-8be0-84b96bfd2d41","system_id":"levelo_inurba_marseille","lat":43.29395,"lon":5.37869,"is_reserved":false,"is_disabled":true,"rental_uris":{"android":"levelo://app?vid=a581eef9-f0fb-4e5d-8be0-84b96bfd2d41","ios":"levelo://app?vid=a581eef9-f0fb-4e5d-8be0-84b96bfd2d41"},"vehicle_type_id":"4","last_reported":1752253864,"current_range_meters":17600,"station_id":"ce4bgjh2rcd13ifvqbf0","pricing_plan_id":"cebpf4jnsgd1na2vs0mg"},{"bike_id":"598555b4-3749-44cc-8e11-87c397e89037","system_id":"levelo_inurba_marseille","lat":43.24808,"lon":5.37444,"is_reserved":false,"is_disabled":false,"rental_uris":{"android":"levelo://app?vid=598555b4-3749-44cc-8e11-87c397e89037","ios":"levelo://app?vid=598555b4-3749-44cc-8e11-87c397e89037"},"vehicle_type_id":"4","last_reported":1752253864,"current_range_meters":17600,"station_id":"ce4bhgh2rcd13ifvqfb0","pricing_plan_id":"cebpf4jnsgd1na2vs0mg"},{"bike_id":"b436ebc7-3484-4bac-8991-65f5aea1abfe","system_id":"levelo_inurba_marseille","lat":43.30594,"lon":5.39363,"is_reserved":false,"is_disabled":false,"rental_uris":{"android":"levelo://app?vid=b436ebc7-3484-4bac-8991-65f5aea1abfe","ios":"levelo://app?vid=b436ebc7-3484-4bac-8991-65f5aea1abfe"},"vehicle_type_id":"4","last_reported":1752253864,"current_range_meters":17200,"station_id":"ce4bh0p2rcd13ifvqd80","pricing_plan_id":"cebpf4jnsgd1na2vs0mg"},{"bike_id":"320769db-0e75-41d9-9137-2b13893faec4","system_id":"levelo_inurba_marseille","lat":43.295735,"lon":5.375214,"is_reserved":false,"is_disabled":false,"rental_uris":{"android":"levelo://app?vid=320769db-0e75-41d9-9137-2b13893faec4","ios":"levelo://app?vid=320769db-0e75-41d9-9137-2b13893faec4"},"vehicle_type_id":"4","last_reported":1752253864,"current_range_meters":17600,"station_id":"ce4bgh92rcd13ifvqb50","pricing_plan_id":"cebpf4jnsgd1na2vs0mg"},{"bike_id":"3b84bd47-4fb9-4e19-a267-084d6d7745b3","system_id":"levelo_inurba_marseille","lat":43.284121,"lon":5.349726,"is_reserved":false,"is_disabled":false,"rental_uris":{"android":"levelo://app?vid=3b84bd47-4fb9-4e19-a267-084d6d7745b3","ios":"levelo://app?vid=3b84bd47-4fb9-4e19-a267-084d6d7745b3"},"vehicle_type_id":"4","last_reported":1752253864,"current_range_meters":17600,"station_id":"ce4bh612rcd13ifvqe6g","pricing_plan_id":"cebpf4jnsgd1na2vs0mg"},{"bike_id":"d9f4ee32-cf3e-466f-96fd-ef2dc1d8902d","system_id":"levelo_inurba_marseille","lat":43.28623,"lon":5.35095,"is_reserved":false,"is_disabled":false,"rental_uris":{"android":"levelo://app?vid=d9f4ee32-cf3e-466f-96fd-ef2dc1d8902d","ios":"levelo://app?vid=d9f4ee32-cf3e-466f-96fd-ef2dc1d8902d"},"vehicle_type_id":"4","last_reported":1752253864,"current_range_meters":17600,"station_id":"ce4bhch2rcd13ifvqeug","pricing_plan_id":"cebpf4jnsgd1na2vs0mg"},{"bike_id":"7681165c-d6bf-4f2d-a1bc-a4d5353516df","system_id":"levelo_inurba_marseille","lat":43.311218,"lon":5.377703,"is_reserved":false,"is_disabled":false,"rental_uris":{"android":"levelo://app?vid=7681165c-d6bf-4f2d-a1bc-a4d5353516df","ios":"levelo://app?vid=7681165c-d6bf-4f2d-a1bc-a4d5353516df"},"vehicle_type_id":"4","last_reported":1752253864,"current_range_meters":18000,"station_id":"ce4bgt92rcd13ifvqcg0","pricing_plan_id":"cebpf4jnsgd1na2vs0mg"},{"bike_id":"76e34813-ea82-4d01-9974-b05e6805c9d6","system_id":"levelo_inurba_marseille","lat":43.26309,"lon":5.37368,"is_reserved":false,"is_disabled":false,"rental_uris":{"android":"levelo://app?vid=76e34813-ea82-4d01-9974-b05e6805c9d6","ios":"levelo://app?vid=76e34813-ea82-4d01-9974-b05e6805c9d6"},"vehicle_type_id":"4","last_reported":1752253864,"current_range_meters":18000,"station_id":"ce4bhgp2rcd13ifvqfc0","pricing_plan_id":"cebpf4jnsgd1na2vs0mg"},{"bike_id":"709c9beb-13f1-45e2-bbd1-0f71d60cf8b2","system_id":"levelo_inurba_marseille","lat":43.30918,"lon":5.40157,"is_reserved":false,"is_disabled":true,"rental_uris":{"android":"levelo://app?vid=709c9beb-13f1-45e2-bbd1-0f71d60cf8b2","ios":"levelo://app?vid=709c9beb-13f1-45e2-bbd1-0f71d60cf8b2"},"vehicle_type_id":"4","last_reported":1752253864,"current_range_meters":18000,"station_id":"ce4bgvp2rcd13ifvqct0","pricing_plan_id":"cebpf4jnsgd1na2vs0mg"},{"bike_id":"83f5258f-0b3a-475c-8ad3-5a12a70c8b54","system_id":"levelo_inurba_marseille","lat":43.28431,"lon":5.34998,"is_reserved":false,"is_disabled":false,"rental_uris":{"android":"levelo://app?vid=83f5258f-0b3a-475c-8ad3-5a12a70c8b54","ios":"levelo://app?vid=83f5258f-0b3a-475c-8ad3-5a12a70c8b54"},"vehicle_type_id":"4","last_reported":1752253864,"current_range_meters":18000,"station_id":"ce4bhbh2rcd13ifvqepg","pricing_plan_id":"cebpf4jnsgd1na2vs0mg"},{"bike_id":"bcaa4494-d790-4e11-a809-4e62720ddd22","system_id":"levelo_inurba_marseille","lat":43.28431,"lon":5.37511,"is_reserved":false,"is_disabled":false,"rental_uris":{"android":"levelo://app?vid=bcaa4494-d790-4e11-a809-4e62720ddd22","ios":"levelo://app?vid=bcaa4494-d790-4e11-a809-4e62720ddd22"},"vehicle_type_id":"4","last_reported":1752253864,"current_range_meters":18000,"station_id":"ce4bh412rcd13ifvqds0","pricing_plan_id":"cebpf4jnsgd1na2vs0mg"},{"bike_id":"61198919-e72c-4fce-bc96-126627987dc0","system_id":"levelo_inurba_marseille","lat":43.295861,"lon":5.378818,"is_reserved":false,"is_disabled":false,"rental_uris":{"android":"levelo://app?vid=61198919-e72c-4fce-bc96-126627987dc0","ios":"levelo://app?vid=61198919-e72c-4fce-bc96-126627987dc0"},"vehicle_type_id":"4","last_reported":1752253864,"current_range_meters":18000,"station_id":"","pricing_plan_id":"cebpf4jnsgd1na2vs0mg"},{"bike_id":"f51f994c-3d8d-42f0-8137-295062a37402","system_id":"levelo_inurba_marseille","lat":43.24801,"lon":5.37455,"is_reserved":false,"is_disabled":false,"rental_uris":{"android":"levelo://app?vid=f51f994c-3d8d-42f0-8137-295062a37402","ios":"levelo://app?vid=f51f994c-3d8d-42f0-8137-295062a37402"},"vehicle_type_id":"4","last_reported":1752253864,"current_range_meters":18000,"station_id":"ce4bhgh2rcd13ifvqfb0","pricing_plan_id":"cebpf4jnsgd1na2vs0mg"},{"bike_id":"d986ab92-05dd-4f8a-9fa1-a9294bba3783","system_id":"levelo_inurba_marseille","lat":43.28613,"lon":5.35099,"is_reserved":false,"is_disabled":false,"rental_uris":{"android":"levelo://app?vid=d986ab92-05dd-4f8a-9fa1-a9294bba3783","ios":"levelo://app?vid=d986ab92-05dd-4f8a-9fa1-a9294bba3783"},"vehicle_type_id":"4","last_reported":1752253864,"current_range_meters":18000,"station_id":"ce4bhch2rcd13ifvqeug","pricing_plan_id":"cebpf4jnsgd1na2vs0mg"},{"bike_id":"f272420d-ba4a-4b11-a790-579b5df77b6a","system_id":"levelo_inurba_marseille","lat":43.28615,"lon":5.35098,"is_reserved":false,"is_disabled":false,"rental_uris":{"android":"levelo://app?vid=f272420d-ba4a-4b11-a790-579b5df77b6a","ios":"levelo://app?vid=f272420d-ba4a-4b11-a790-579b5df77b6a"},"vehicle_type_id":"4","last_reported":1752253864,"current_range_meters":18000,"station_id":"ce4bhch2rcd13ifvqeug","pricing_plan_id":"cebpf4jnsgd1na2vs0mg"},{"bike_id":"f1872e4d-c216-45ab-a1c9-2657f0ed30ec","system_id":"levelo_inurba_marseille","lat":43.23969,"lon":5.36628,"is_reserved":false,"is_disabled":false,"rental_uris":{"android":"levelo://app?vid=f1872e4d-c216-45ab-a1c9-2657f0ed30ec","ios":"levelo://app?vid=f1872e4d-c216-45ab-a1c9-2657f0ed30ec"},"vehicle_type_id":"4","last_reported":1752253864,"current_range_meters":18800,"station_id":"ce4bhi12rcd13ifvqfp0","pricing_plan_id":"cebpf4jnsgd1na2vs0mg"},{"bike_id":"d912eff3-87db-4caa-93e1-57ec05077a56","system_id":"levelo_inurba_marseille","lat":43.2872,"lon":5.36099,"is_reserved":false,"is_disabled":false,"rental_uris":{"android":"levelo://app?vid=d912eff3-87db-4caa-93e1-57ec05077a56","ios":"levelo://app?vid=d912eff3-87db-4caa-93e1-57ec05077a56"},"vehicle_type_id":"4","last_reported":1752253864,"current_range_meters":18800,"station_id":"cki0cbj6b192h4jlfktg","pricing_plan_id":"cebpf4jnsgd1na2vs0mg"},{"bike_id":"db2690f4-eb5c-4bb7-a073-68e2f29c4ad8","system_id":"levelo_inurba_marseille","lat":43.24814,"lon":5.37427,"is_reserved":false,"is_disabled":false,"rental_uris":{"android":"levelo://app?vid=db2690f4-eb5c-4bb7-a073-68e2f29c4ad8","ios":"levelo://app?vid=db2690f4-eb5c-4bb7-a073-68e2f29c4ad8"},"vehicle_type_id":"4","last_reported":1752253864,"current_range_meters":18800,"station_id":"ce4bhgh2rcd13ifvqfb0","pricing_plan_id":"cebpf4jnsgd1na2vs0mg"},{"bike_id":"d81f9790-d569-4177-a27a-a128d7bef4df","system_id":"levelo_inurba_marseille","lat":43.26686,"lon":5.38267,"is_reserved":false,"is_disabled":false,"rental_uris":{"android":"levelo://app?vid=d81f9790-d569-4177-a27a-a128d7bef4df","ios":"levelo://app?vid=d81f9790-d569-4177-a27a-a128d7bef4df"},"vehicle_type_id":"4","last_reported":1752253864,"current_range_meters":18800,"station_id":"ce4bhg92rcd13ifvqf90","pricing_plan_id":"cebpf4jnsgd1na2vs0mg"},{"bike_id":"6460d6e1-347a-4eb4-9549-41fd991b30fd","system_id":"levelo_inurba_marseille","lat":43.309521,"lon":5.390409,"is_reserved":false,"is_disabled":false,"rental_uris":{"android":"levelo://app?vid=6460d6e1-347a-4eb4-9549-41fd991b30fd","ios":"levelo://app?vid=6460d6e1-347a-4eb4-9549-41fd991b30fd"},"vehicle_type_id":"4","last_reported":1752253864,"current_range_meters":18800,"station_id":"ce4bgup2rcd13ifvqco0","pricing_plan_id":"cebpf4jnsgd1na2vs0mg"},{"bike_id":"b61ebea1-adee-45b3-b357-d987af367b70","system_id":"levelo_inurba_marseille","lat":43.28274,"lon":5.35059,"is_reserved":false,"is_disabled":false,"rental_uris":{"android":"levelo://app?vid=b61ebea1-adee-45b3-b357-d987af367b70","ios":"levelo://app?vid=b61ebea1-adee-45b3-b357-d987af367b70"},"vehicle_type_id":"4","last_reported":1752253864,"current_range_meters":18800,"station_id":"ce4bhbp2rcd13ifvqerg","pricing_plan_id":"cebpf4jnsgd1na2vs0mg"},{"bike_id":"d21c7665-d257-424c-8511-62380bf5d047","system_id":"levelo_inurba_marseille","lat":43.24811,"lon":5.37456,"is_reserved":false,"is_disabled":false,"rental_uris":{"android":"levelo://app?vid=d21c7665-d257-424c-8511-62380bf5d047","ios":"levelo://app?vid=d21c7665-d257-424c-8511-62380bf5d047"},"vehicle_type_id":"4","last_reported":1752253864,"current_range_meters":18800,"station_id":"ce4bhgh2rcd13ifvqfb0","pricing_plan_id":"cebpf4jnsgd1na2vs0mg"},{"bike_id":"ad023729-3d33-44a6-99ca-a047715b7f88","system_id":"levelo_inurba_marseille","lat":43.2119,"lon":5.35072,"is_reserved":false,"is_disabled":false,"rental_uris":{"android":"levelo://app?vid=ad023729-3d33-44a6-99ca-a047715b7f88","ios":"levelo://app?vid=ad023729-3d33-44a6-99ca-a047715b7f88"},"vehicle_type_id":"4","last_reported":1752253864,"current_range_meters":18800,"station_id":"st_cvj6sg6p6f1abm77japg","pricing_plan_id":"cebpf4jnsgd1na2vs0mg"},{"bike_id":"e07f705c-8ac6-41fd-aafd-1b6f9c11d270","system_id":"levelo_inurba_marseille","lat":43.2953,"lon":5.39388,"is_reserved":false,"is_disabled":false,"rental_uris":{"android":"levelo://app?vid=e07f705c-8ac6-41fd-aafd-1b6f9c11d270","ios":"levelo://app?vid=e07f705c-8ac6-41fd-aafd-1b6f9c11d270"},"vehicle_type_id":"4","last_reported":1752253864,"current_range_meters":18800,"station_id":"ce4bh292rcd13ifvqdf0","pricing_plan_id":"cebpf4jnsgd1na2vs0mg"},{"bike_id":"a9995bfc-11b1-4453-8ebc-79b6f8b0436e","system_id":"levelo_inurba_marseille","lat":43.30331,"lon":5.404304,"is_reserved":false,"is_disabled":false,"rental_uris":{"android":"levelo://app?vid=a9995bfc-11b1-4453-8ebc-79b6f8b0436e","ios":"levelo://app?vid=a9995bfc-11b1-4453-8ebc-79b6f8b0436e"},"vehicle_type_id":"4","last_reported":1752253864,"current_range_meters":18800,"station_id":"ce4bh012rcd13ifvqd10","pricing_plan_id":"cebpf4jnsgd1na2vs0mg"},{"bike_id":"edba301b-5ab4-4a69-951a-ad5a7246ab20","system_id":"levelo_inurba_marseille","lat":43.301957,"lon":5.36632,"is_reserved":false,"is_disabled":false,"rental_uris":{"android":"levelo://app?vid=edba301b-5ab4-4a69-951a-ad5a7246ab20","ios":"levelo://app?vid=edba301b-5ab4-4a69-951a-ad5a7246ab20"},"vehicle_type_id":"4","last_reported":1752253864,"current_range_meters":18800,"station_id":"ce4bgrh2rcd13ifvqc8g","pricing_plan_id":"cebpf4jnsgd1na2vs0mg"},{"bike_id":"ed019ecd-f4ca-470f-953e-821f34892065","system_id":"levelo_inurba_marseille","lat":43.30545,"lon":5.367,"is_reserved":false,"is_disabled":true,"rental_uris":{"android":"levelo://app?vid=ed019ecd-f4ca-470f-953e-821f34892065","ios":"levelo://app?vid=ed019ecd-f4ca-470f-953e-821f34892065"},"vehicle_type_id":"4","last_reported":1752253864,"current_range_meters":19200,"station_id":"ce4bgrp2rcd13ifvqc9g","pricing_plan_id":"cebpf4jnsgd1na2vs0mg"},{"bike_id":"40330dcb-29a5-4ad3-8d22-d51ce4593d26","system_id":"levelo_inurba_marseille","lat":43.27373,"lon":5.36247,"is_reserved":false,"is_disabled":false,"rental_uris":{"android":"levelo://app?vid=40330dcb-29a5-4ad3-8d22-d51ce4593d26","ios":"levelo://app?vid=40330dcb-29a5-4ad3-8d22-d51ce4593d26"},"vehicle_type_id":"4","last_reported":1752253864,"current_range_meters":19200,"station_id":"ce4bhbh2rcd13ifvqeo0","pricing_plan_id":"cebpf4jnsgd1na2vs0mg"},{"bike_id":"00433137-46e6-4f59-a816-26a944e59086","system_id":"levelo_inurba_marseille","lat":43.27377,"lon":5.36228,"is_reserved":false,"is_disabled":false,"rental_uris":{"android":"levelo://app?vid=00433137-46e6-4f59-a816-26a944e59086","ios":"levelo://app?vid=00433137-46e6-4f59-a816-26a944e59086"},"vehicle_type_id":"4","last_reported":1752253864,"current_range_meters":19200,"station_id":"ce4bhbh2rcd13ifvqeo0","pricing_plan_id":"cebpf4jnsgd1na2vs0mg"},{"bike_id":"c3d35b16-307d-4b79-9ea9-716e64b20e93","system_id":"levelo_inurba_marseille","lat":43.28375,"lon":5.38628,"is_reserved":false,"is_disabled":false,"rental_uris":{"android":"levelo://app?vid=c3d35b16-307d-4b79-9ea9-716e64b20e93","ios":"levelo://app?vid=c3d35b16-307d-4b79-9ea9-716e64b20e93"},"vehicle_type_id":"4","last_reported":1752253864,"current_range_meters":19200,"station_id":"ce4bh492rcd13ifvqdvg","pricing_plan_id":"cebpf4jnsgd1na2vs0mg"},{"bike_id":"12003d71-dee2-47e2-bd21-621939ad35bb","system_id":"levelo_inurba_marseille","lat":43.28653,"lon":5.36361,"is_reserved":false,"is_disabled":false,"rental_uris":{"android":"levelo://app?vid=12003d71-dee2-47e2-bd21-621939ad35bb","ios":"levelo://app?vid=12003d71-dee2-47e2-bd21-621939ad35bb"},"vehicle_type_id":"4","last_reported":1752253864,"current_range_meters":19200,"station_id":"ce4bhah2rcd13ifvqej0","pricing_plan_id":"cebpf4jnsgd1na2vs0mg"},{"bike_id":"51c98b92-d22f-4702-aa1a-ea4c53339f00","system_id":"levelo_inurba_marseille","lat":43.29003,"lon":5.35614,"is_reserved":false,"is_disabled":true,"rental_uris":{"android":"levelo://app?vid=51c98b92-d22f-4702-aa1a-ea4c53339f00","ios":"levelo://app?vid=51c98b92-d22f-4702-aa1a-ea4c53339f00"},"vehicle_type_id":"4","last_reported":1752253864,"current_range_meters":19200,"station_id":"ce4bhb92rcd13ifvqen0","pricing_plan_id":"cebpf4jnsgd1na2vs0mg"},{"bike_id":"e44284fc-636b-455b-92d2-ff880cb5aee0","system_id":"levelo_inurba_marseille","lat":43.28274,"lon":5.35068,"is_reserved":false,"is_disabled":false,"rental_uris":{"android":"levelo://app?vid=e44284fc-636b-455b-92d2-ff880cb5aee0","ios":"levelo://app?vid=e44284fc-636b-455b-92d2-ff880cb5aee0"},"vehicle_type_id":"4","last_reported":1752253864,"current_range_meters":19200,"station_id":"ce4bhbp2rcd13ifvqerg","pricing_plan_id":"cebpf4jnsgd1na2vs0mg"},{"bike_id":"c3ded7b4-e46d-466e-93e3-02cbc768a4e0","system_id":"levelo_inurba_marseille","lat":43.28424,"lon":5.34982,"is_reserved":false,"is_disabled":false,"rental_uris":{"android":"levelo://app?vid=c3ded7b4-e46d-466e-93e3-02cbc768a4e0","ios":"levelo://app?vid=c3ded7b4-e46d-466e-93e3-02cbc768a4e0"},"vehicle_type_id":"4","last_reported":1752253864,"current_range_meters":19200,"station_id":"ce4bhbh2rcd13ifvqepg","pricing_plan_id":"cebpf4jnsgd1na2vs0mg"},{"bike_id":"3e7ec850-b571-461c-9c3e-7c16ccce9d27","system_id":"levelo_inurba_marseille","lat":43.27383,"lon":5.36255,"is_reserved":false,"is_disabled":false,"rental_uris":{"android":"levelo://app?vid=3e7ec850-b571-461c-9c3e-7c16ccce9d27","ios":"levelo://app?vid=3e7ec850-b571-461c-9c3e-7c16ccce9d27"},"vehicle_type_id":"4","last_reported":1752253864,"current_range_meters":19200,"station_id":"ce4bhbh2rcd13ifvqeo0","pricing_plan_id":"cebpf4jnsgd1na2vs0mg"},{"bike_id":"e829f604-ee2f-47e9-bdcb-43a210faf317","system_id":"levelo_inurba_marseille","lat":43.28414,"lon":5.34977,"is_reserved":false,"is_disabled":false,"rental_uris":{"android":"levelo://app?vid=e829f604-ee2f-47e9-bdcb-43a210faf317","ios":"levelo://app?vid=e829f604-ee2f-47e9-bdcb-43a210faf317"},"vehicle_type_id":"4","last_reported":1752253864,"current_range_meters":19200,"station_id":"ce4bhbh2rcd13ifvqepg","pricing_plan_id":"cebpf4jnsgd1na2vs0mg"},{"bike_id":"919e600e-ebda-4ca0-9126-38ed65a36143","system_id":"levelo_inurba_marseille","lat":43.21184,"lon":5.35067,"is_reserved":false,"is_disabled":false,"rental_uris":{"android":"levelo://app?vid=919e600e-ebda-4ca0-9126-38ed65a36143","ios":"levelo://app?vid=919e600e-ebda-4ca0-9126-38ed65a36143"},"vehicle_type_id":"4","last_reported":1752253864,"current_range_meters":19200,"station_id":"st_cvj6sg6p6f1abm77japg","pricing_plan_id":"cebpf4jnsgd1na2vs0mg"},{"bike_id":"2ae6b1e7-5c34-43d7-8294-7acc68f9703e","system_id":"levelo_inurba_marseille","lat":43.29567,"lon":5.37524,"is_reserved":false,"is_disabled":false,"rental_uris":{"android":"levelo://app?vid=2ae6b1e7-5c34-43d7-8294-7acc68f9703e","ios":"levelo://app?vid=2ae6b1e7-5c34-43d7-8294-7acc68f9703e"},"vehicle_type_id":"4","last_reported":1752253864,"current_range_meters":19200,"station_id":"ce4bgh92rcd13ifvqb50","pricing_plan_id":"cebpf4jnsgd1na2vs0mg"},{"bike_id":"1e2bf46a-4914-481e-9405-e15917577638","system_id":"levelo_inurba_marseille","lat":43.2956,"lon":5.42277,"is_reserved":false,"is_disabled":false,"rental_uris":{"android":"levelo://app?vid=1e2bf46a-4914-481e-9405-e15917577638","ios":"levelo://app?vid=1e2bf46a-4914-481e-9405-e15917577638"},"vehicle_type_id":"4","last_reported":1752253864,"current_range_meters":19200,"station_id":"ce4bhph2rcd13ifvqhdg","pricing_plan_id":"cebpf4jnsgd1na2vs0mg"},{"bike_id":"61311c34-8ad3-46f2-97a6-24b285751e2f","system_id":"levelo_inurba_marseille","lat":43.3235,"lon":5.40625,"is_reserved":false,"is_disabled":false,"rental_uris":{"android":"levelo://app?vid=61311c34-8ad3-46f2-97a6-24b285751e2f","ios":"levelo://app?vid=61311c34-8ad3-46f2-97a6-24b285751e2f"},"vehicle_type_id":"4","last_reported":1752253864,"current_range_meters":19600,"station_id":"ce4bhq92rcd13ifvqhjg","pricing_plan_id":"cebpf4jnsgd1na2vs0mg"},{"bike_id":"c094ad21-f5e6-43b0-8ec1-122056dfed81","system_id":"levelo_inurba_marseille","lat":43.28359,"lon":5.38096,"is_reserved":false,"is_disabled":false,"rental_uris":{"android":"levelo://app?vid=c094ad21-f5e6-43b0-8ec1-122056dfed81","ios":"levelo://app?vid=c094ad21-f5e6-43b0-8ec1-122056dfed81"},"vehicle_type_id":"4","last_reported":1752253864,"current_range_meters":19600,"station_id":"ce4bh412rcd13ifvqdr0","pricing_plan_id":"cebpf4jnsgd1na2vs0mg"},{"bike_id":"00bc0b3b-e317-4a17-a011-a3a9a29d816a","system_id":"levelo_inurba_marseille","lat":43.212199,"lon":5.350609,"is_reserved":false,"is_disabled":false,"rental_uris":{"android":"levelo://app?vid=00bc0b3b-e317-4a17-a011-a3a9a29d816a","ios":"levelo://app?vid=00bc0b3b-e317-4a17-a011-a3a9a29d816a"},"vehicle_type_id":"4","last_reported":1752253864,"current_range_meters":19600,"station_id":"st_cvj6sg6p6f1abm77japg","pricing_plan_id":"cebpf4jnsgd1na2vs0mg"},{"bike_id":"45a452f6-535b-464d-bc83-1aebd8007104","system_id":"levelo_inurba_marseille","lat":43.29368,"lon":5.37851,"is_reserved":false,"is_disabled":false,"rental_uris":{"android":"levelo://app?vid=45a452f6-535b-464d-bc83-1aebd8007104","ios":"levelo://app?vid=45a452f6-535b-464d-bc83-1aebd8007104"},"vehicle_type_id":"4","last_reported":1752253864,"current_range_meters":19600,"station_id":"ce4bgjh2rcd13ifvqbf0","pricing_plan_id":"cebpf4jnsgd1na2vs0mg"},{"bike_id":"ba2c3a9c-d0e2-421a-aade-5237ad9151ca","system_id":"levelo_inurba_marseille","lat":43.28279,"lon":5.35068,"is_reserved":false,"is_disabled":false,"rental_uris":{"android":"levelo://app?vid=ba2c3a9c-d0e2-421a-aade-5237ad9151ca","ios":"levelo://app?vid=ba2c3a9c-d0e2-421a-aade-5237ad9151ca"},"vehicle_type_id":"4","last_reported":1752253864,"current_range_meters":19600,"station_id":"ce4bhbp2rcd13ifvqerg","pricing_plan_id":"cebpf4jnsgd1na2vs0mg"},{"bike_id":"f7a840b8-80af-457e-aad1-02791c7ba6bd","system_id":"levelo_inurba_marseille","lat":43.27907,"lon":5.38012,"is_reserved":false,"is_disabled":false,"rental_uris":{"android":"levelo://app?vid=f7a840b8-80af-457e-aad1-02791c7ba6bd","ios":"levelo://app?vid=f7a840b8-80af-457e-aad1-02791c7ba6bd"},"vehicle_type_id":"4","last_reported":1752253864,"current_range_meters":19200,"station_id":"ce4bhf92rcd13ifvqf50","pricing_plan_id":"cebpf4jnsgd1na2vs0mg"},{"bike_id":"c6f7dabd-b092-4554-a710-07eb4af96a4c","system_id":"levelo_inurba_marseille","lat":43.211914,"lon":5.350663,"is_reserved":false,"is_disabled":false,"rental_uris":{"android":"levelo://app?vid=c6f7dabd-b092-4554-a710-07eb4af96a4c","ios":"levelo://app?vid=c6f7dabd-b092-4554-a710-07eb4af96a4c"},