{"last_updated":1744240160,"ttl":60,"version":"2.2","data":{"bikes":[{"bike_id":"755fdb66-f4d6-46b9-9314-d708a0b31240","system_id":"levelo_inurba_marseille","lat":43.30587,"lon":5.39936,"is_reserved":false,"is_disabled":false,"rental_uris":{"android":"levelo://app?vid=755fdb66-f4d6-46b9-9314-d708a0b31240","ios":"levelo://app?vid=755fdb66-f4d6-46b9-9314-d708a0b31240"},"vehicle_type_id":"4","last_reported":1744240160,"current_range_meters":2800,"station_id":"ce4bgvp2rcd13ifvqct0","pricing_plan_id":"cebpf4jnsgd1na2vs0mg"},{"bike_id":"a5893a1f-7c9d-4af5-acab-6328a27154af","system_id":"levelo_inurba_marseille","lat":43.292785,"lon":5.408999,"is_reserved":false,"is_disabled":true,"rental_uris":{"android":"levelo://app?vid=a5893a1f-7c9d-4af5-acab-6328a27154af","ios":"levelo://app?vid=a5893a1f-7c9d-4af5-acab-6328a27154af"},"vehicle_type_id":"4","last_reported":1744240160,"current_range_meters":2800,"station_id":"","pricing_plan_id":"cebpf4jnsgd1na2vs0mg"},{"bike_id":"0c3a3bd3-4301-4ccc-9dfa-35c0c716dcce","system_id":"levelo_inurba_marseille","lat":43.24648,"lon":5.38165,"is_reserved":false,"is_disabled":true,"rental_uris":{"android":"levelo://app?vid=0c3a3bd3-4301-4ccc-9dfa-35c0c716dcce","ios":"levelo://app?vid=0c3a3bd3-4301-4ccc-9dfa-35c0c716dcce"},"vehicle_type_id":"4","last_reported":1744240160,"current_range_meters":3200,"station_id":"ce4bhih2rcd13ifvqfr0","pricing_plan_id":"cebpf4jnsgd1na2vs0mg"},{"bike_id":"322b5b4a-2228-4168-ac8c-eb48c394e727","system_id":"levelo_inurba_marseille","lat":43.25725,"lon":5.41109,"is_reserved":false,"is_disabled":false,"rental_uris":{"android":"levelo://app?vid=322b5b4a-2228-4168-ac8c-eb48c394e727","ios":"levelo://app?vid=322b5b4a-2228-4168-ac8c-eb48c394e727"},"vehicle_type_id":"4","last_reported":1744240160,"current_range_meters":2800,"station_id":"ce4bhkp2rcd13ifvqgd0","pricing_plan_id":"cebpf4jnsgd1na2vs0mg"},{"bike_id":"61faeab7-d3b1-42ea-8185-a6bb834269b2","system_id":"levelo_inurba_marseille","lat":43.27114,"lon":5.4144,"is_reserved":false,"is_disabled":false,"rental_uris":{"android":"levelo://app?vid=61faeab7-d3b1-42ea-8185-a6bb834269b2","ios":"levelo://app?vid=61faeab7-d3b1-42ea-8185-a6bb834269b2"},"vehicle_type_id":"4","last_reported":1744240160,"current_range_meters":3200,"station_id":"","pricing_plan_id":"cebpf4jnsgd1na2vs0mg"},{"bike_id":"8e1f857a-8192-42a6-885d-8af1667c3797","system_id":"levelo_inurba_marseille","lat":43.303,"lon":5.39215,"is_reserved":false,"is_disabled":false,"rental_uris":{"android":"levelo://app?vid=8e1f857a-8192-42a6-885d-8af1667c3797","ios":"levelo://app?vid=8e1f857a-8192-42a6-885d-8af1667c3797"},"vehicle_type_id":"4","last_reported":1744240160,"current_range_meters":3200,"station_id":"ce4bgkh2rcd13ifvqbk0","pricing_plan_id":"cebpf4jnsgd1na2vs0mg"},{"bike_id":"e53704fe-8d2d-4679-a540-dff4c4193fd5","system_id":"levelo_inurba_marseille","lat":43.29579,"lon":5.36736,"is_reserved":false,"is_disabled":false,"rental_uris":{"android":"levelo://app?vid=e53704fe-8d2d-4679-a540-dff4c4193fd5","ios":"levelo://app?vid=e53704fe-8d2d-4679-a540-dff4c4193fd5"},"vehicle_type_id":"4","last_reported":1744240160,"current_range_meters":3200,"station_id":"ce4bgph2rcd13ifvqc2g","pricing_plan_id":"cebpf4jnsgd1na2vs0mg"},{"bike_id":"ae7fc30f-36a4-4b2d-8b99-bb40d3c9eacc","system_id":"levelo_inurba_marseille","lat":43.294169,"lon":5.386146,"is_reserved":false,"is_disabled":true,"rental_uris":{"android":"levelo://app?vid=ae7fc30f-36a4-4b2d-8b99-bb40d3c9eacc","ios":"levelo://app?vid=ae7fc30f-36a4-4b2d-8b99-bb40d3c9eacc"},"vehicle_type_id":"4","last_reported":1744240160,"current_range_meters":3600,"station_id":"ce4bh2h2rcd13ifvqdh0","pricing_plan_id":"cebpf4jnsgd1na2vs0mg"},{"bike_id":"d11733c8-940f-4cc8-96de-9e53b31e5f69","system_id":"levelo_inurba_marseille","lat":43.28614,"lon":5.35101,"is_reserved":false,"is_disabled":false,"rental_uris":{"android":"levelo://app?vid=d11733c8-940f-4cc8-96de-9e53b31e5f69","ios":"levelo://app?vid=d11733c8-940f-4cc8-96de-9e53b31e5f69"},"vehicle_type_id":"4","last_reported":1744240160,"current_range_meters":3600,"station_id":"ce4bhch2rcd13ifvqeug","pricing_plan_id":"cebpf4jnsgd1na2vs0mg"},{"bike_id":"488970c7-ad85-4166-a4ad-456252c5bcc5","system_id":"levelo_inurba_marseille","lat":43.27367,"lon":5.40862,"is_reserved":false,"is_disabled":false,"rental_uris":{"android":"levelo://app?vid=488970c7-ad85-4166-a4ad-456252c5bcc5","ios":"levelo://app?vid=488970c7-ad85-4166-a4ad-456252c5bcc5"},"vehicle_type_id":"4","last_reported":1744240160,"current_range_meters":3600,"station_id":"","pricing_plan_id":"cebpf4jnsgd1na2vs0mg"},{"bike_id":"3ea27e54-f8eb-412e-930d-2d778578f9d0","system_id":"levelo_inurba_marseille","lat":43.24076,"lon":5.37751,"is_reserved":false,"is_disabled":false,"rental_uris":{"android":"levelo://app?vid=3ea27e54-f8eb-412e-930d-2d778578f9d0","ios":"levelo://app?vid=3ea27e54-f8eb-412e-930d-2d778578f9d0"},"vehicle_type_id":"4","last_reported":1744240160,"current_range_meters":4000,"station_id":"ce4bhnp2rcd13ifvqgvg","pricing_plan_id":"cebpf4jnsgd1na2vs0mg"},{"bike_id":"58b518c7-3105-4f5e-96af-5214cce79c4a","system_id":"levelo_inurba_marseille","lat":43.30807,"lon":5.38148,"is_reserved":false,"is_disabled":false,"rental_uris":{"android":"levelo://app?vid=58b518c7-3105-4f5e-96af-5214cce79c4a","ios":"levelo://app?vid=58b518c7-3105-4f5e-96af-5214cce79c4a"},"vehicle_type_id":"4","last_reported":1744240160,"current_range_meters":4000,"station_id":"ce4bgt12rcd13ifvqce0","pricing_plan_id":"cebpf4jnsgd1na2vs0mg"},{"bike_id":"cd07658d-a6fb-41d7-b49f-5b25a6336379","system_id":"levelo_inurba_marseille","lat":43.239608,"lon":5.366304,"is_reserved":false,"is_disabled":false,"rental_uris":{"android":"levelo://app?vid=cd07658d-a6fb-41d7-b49f-5b25a6336379","ios":"levelo://app?vid=cd07658d-a6fb-41d7-b49f-5b25a6336379"},"vehicle_type_id":"4","last_reported":1744240160,"current_range_meters":4000,"station_id":"ce4bhi12rcd13ifvqfp0","pricing_plan_id":"cebpf4jnsgd1na2vs0mg"},{"bike_id":"ebe1ea58-9f38-4c10-a6da-a9d33ab03a52","system_id":"levelo_inurba_marseille","lat":43.25037,"lon":5.38954,"is_reserved":false,"is_disabled":true,"rental_uris":{"android":"levelo://app?vid=ebe1ea58-9f38-4c10-a6da-a9d33ab03a52","ios":"levelo://app?vid=ebe1ea58-9f38-4c10-a6da-a9d33ab03a52"},"vehicle_type_id":"4","last_reported":1744240160,"current_range_meters":4400,"station_id":"ce4bhgp2rcd13ifvqfd0","pricing_plan_id":"cebpf4jnsgd1na2vs0mg"},{"bike_id":"0afa710d-ae25-4ea1-8b2d-be4f5b57249c","system_id":"levelo_inurba_marseille","lat":43.27171,"lon":5.40991,"is_reserved":false,"is_disabled":false,"rental_uris":{"android":"levelo://app?vid=0afa710d-ae25-4ea1-8b2d-be4f5b57249c","ios":"levelo://app?vid=0afa710d-ae25-4ea1-8b2d-be4f5b57249c"},"vehicle_type_id":"4","last_reported":1744240160,"current_range_meters":4400,"station_id":"ce4bhl12rcd13ifvqgf0","pricing_plan_id":"cebpf4jnsgd1na2vs0mg"},{"bike_id":"ec41b842-c84f-4ab1-894c-fc6101e00efb","system_id":"levelo_inurba_marseille","lat":43.31723,"lon":5.40313,"is_reserved":false,"is_disabled":false,"rental_uris":{"android":"levelo://app?vid=ec41b842-c84f-4ab1-894c-fc6101e00efb","ios":"levelo://app?vid=ec41b842-c84f-4ab1-894c-fc6101e00efb"},"vehicle_type_id":"4","last_reported":1744240160,"current_range_meters":4400,"station_id":"","pricing_plan_id":"cebpf4jnsgd1na2vs0mg"},{"bike_id":"7708189a-89cf-4648-9115-082c524291e7","system_id":"levelo_inurba_marseille","lat":43.28702,"lon":5.37937,"is_reserved":false,"is_disabled":false,"rental_uris":{"android":"levelo://app?vid=7708189a-89cf-4648-9115-082c524291e7","ios":"levelo://app?vid=7708189a-89cf-4648-9115-082c524291e7"},"vehicle_type_id":"4","last_reported":1744240160,"current_range_meters":4800,"station_id":"ce4bh9p2rcd13ifvqec0","pricing_plan_id":"cebpf4jnsgd1na2vs0mg"},{"bike_id":"6569a176-a49c-464b-9416-ff731ba8b325","system_id":"levelo_inurba_marseille","lat":43.31126,"lon":5.37758,"is_reserved":false,"is_disabled":true,"rental_uris":{"android":"levelo://app?vid=6569a176-a49c-464b-9416-ff731ba8b325","ios":"levelo://app?vid=6569a176-a49c-464b-9416-ff731ba8b325"},"vehicle_type_id":"4","last_reported":1744240160,"current_range_meters":4800,"station_id":"ce4bgt92rcd13ifvqcg0","pricing_plan_id":"cebpf4jnsgd1na2vs0mg"},{"bike_id":"f003f0bf-25df-4449-9e4e-558c69d61f6b","system_id":"levelo_inurba_marseille","lat":43.30316,"lon":5.36893,"is_reserved":false,"is_disabled":false,"rental_uris":{"android":"levelo://app?vid=f003f0bf-25df-4449-9e4e-558c69d61f6b","ios":"levelo://app?vid=f003f0bf-25df-4449-9e4e-558c69d61f6b"},"vehicle_type_id":"4","last_reported":1744240160,"current_range_meters":4800,"station_id":"ce4bgqh2rcd13ifvqc5g","pricing_plan_id":"cebpf4jnsgd1na2vs0mg"},{"bike_id":"79b4a3fe-83b6-4a7e-b62d-fbe80c1f5666","system_id":"levelo_inurba_marseille","lat":43.21755,"lon":5.34608,"is_reserved":false,"is_disabled":false,"rental_uris":{"android":"levelo://app?vid=79b4a3fe-83b6-4a7e-b62d-fbe80c1f5666","ios":"levelo://app?vid=79b4a3fe-83b6-4a7e-b62d-fbe80c1f5666"},"vehicle_type_id":"4","last_reported":1744240160,"current_range_meters":5600,"station_id":"st_cvj6r9ubvosntc0bgbag","pricing_plan_id":"cebpf4jnsgd1na2vs0mg"},{"bike_id":"3bfd792d-8024-4b3d-8c0a-4428de874fa2","system_id":"levelo_inurba_marseille","lat":43.32042,"lon":5.38592,"is_reserved":false,"is_disabled":true,"rental_uris":{"android":"levelo://app?vid=3bfd792d-8024-4b3d-8c0a-4428de874fa2","ios":"levelo://app?vid=3bfd792d-8024-4b3d-8c0a-4428de874fa2"},"vehicle_type_id":"4","last_reported":1744240160,"current_range_meters":6000,"station_id":"","pricing_plan_id":"cebpf4jnsgd1na2vs0mg"},{"bike_id":"03926bc9-f9d8-4451-80fc-eb49eedc74e1","system_id":"levelo_inurba_marseille","lat":43.27798,"lon":5.40714,"is_reserved":false,"is_disabled":false,"rental_uris":{"android":"levelo://app?vid=03926bc9-f9d8-4451-80fc-eb49eedc74e1","ios":"levelo://app?vid=03926bc9-f9d8-4451-80fc-eb49eedc74e1"},"vehicle_type_id":"4","last_reported":1744240160,"current_range_meters":6000,"station_id":"ce4bhnh2rcd13ifvqgtg","pricing_plan_id":"cebpf4jnsgd1na2vs0mg"},{"bike_id":"9dad613b-fd85-481c-8b7c-456e1be1d564","system_id":"levelo_inurba_marseille","lat":43.26214,"lon":5.37924,"is_reserved":false,"is_disabled":false,"rental_uris":{"android":"levelo://app?vid=9dad613b-fd85-481c-8b7c-456e1be1d564","ios":"levelo://app?vid=9dad613b-fd85-481c-8b7c-456e1be1d564"},"vehicle_type_id":"4","last_reported":1744240160,"current_range_meters":6000,"station_id":"ce4bhjp2rcd13ifvqg90","pricing_plan_id":"cebpf4jnsgd1na2vs0mg"},{"bike_id":"55f6bc2d-96cc-431e-8686-27d600d2c453","system_id":"levelo_inurba_marseille","lat":43.311188,"lon":5.387428,"is_reserved":false,"is_disabled":false,"rental_uris":{"android":"levelo://app?vid=55f6bc2d-96cc-431e-8686-27d600d2c453","ios":"levelo://app?vid=55f6bc2d-96cc-431e-8686-27d600d2c453"},"vehicle_type_id":"4","last_reported":1744240160,"current_range_meters":6400,"station_id":"","pricing_plan_id":"cebpf4jnsgd1na2vs0mg"},{"bike_id":"a7b5897b-7931-4ab2-bb23-be702923d52e","system_id":"levelo_inurba_marseille","lat":43.29261,"lon":5.40904,"is_reserved":false,"is_disabled":false,"rental_uris":{"android":"levelo://app?vid=a7b5897b-7931-4ab2-bb23-be702923d52e","ios":"levelo://app?vid=a7b5897b-7931-4ab2-bb23-be702923d52e"},"vehicle_type_id":"4","last_reported":1744240160,"current_range_meters":6400,"station_id":"ce4bh192rcd13ifvqdc0","pricing_plan_id":"cebpf4jnsgd1na2vs0mg"},{"bike_id":"285e76e0-3c0a-4a19-9663-6f7f072ee190","system_id":"levelo_inurba_marseille","lat":43.286258,"lon":5.385047,"is_reserved":false,"is_disabled":false,"rental_uris":{"android":"levelo://app?vid=285e76e0-3c0a-4a19-9663-6f7f072ee190","ios":"levelo://app?vid=285e76e0-3c0a-4a19-9663-6f7f072ee190"},"vehicle_type_id":"4","last_reported":1744240160,"current_range_meters":6000,"station_id":"ce4bhjp2rcd13ifvqga0","pricing_plan_id":"cebpf4jnsgd1na2vs0mg"},{"bike_id":"c40a2e2c-2a66-4aa2-81cf-c4ae98211b54","system_id":"levelo_inurba_marseille","lat":43.21748,"lon":5.34596,"is_reserved":false,"is_disabled":false,"rental_uris":{"android":"levelo://app?vid=c40a2e2c-2a66-4aa2-81cf-c4ae98211b54","ios":"levelo://app?vid=c40a2e2c-2a66-4aa2-81cf-c4ae98211b54"},"vehicle_type_id":"4","last_reported":1744240160,"current_range_meters":6400,"station_id":"st_cvj6r9ubvosntc0bgbag","pricing_plan_id":"cebpf4jnsgd1na2vs0mg"},{"bike_id":"68d1cc33-0218-451e-8e10-d32225c21263","system_id":"levelo_inurba_marseille","lat":43.2315,"lon":5.43698,"is_reserved":false,"is_disabled":true,"rental_uris":{"android":"levelo://app?vid=68d1cc33-0218-451e-8e10-d32225c21263","ios":"levelo://app?vid=68d1cc33-0218-451e-8e10-d32225c21263"},"vehicle_type_id":"4","last_reported":1744240160,"current_range_meters":6400,"station_id":"ce4bhmp2rcd13ifvqgog","pricing_plan_id":"cebpf4jnsgd1na2vs0mg"},{"bike_id":"523b9975-fd28-4449-91c6-c8fdc50fa01e","system_id":"levelo_inurba_marseille","lat":43.27977,"lon":5.38734,"is_reserved":false,"is_disabled":false,"rental_uris":{"android":"levelo://app?vid=523b9975-fd28-4449-91c6-c8fdc50fa01e","ios":"levelo://app?vid=523b9975-fd28-4449-91c6-c8fdc50fa01e"},"vehicle_type_id":"4","last_reported":1744240160,"current_range_meters":6800,"station_id":"ce4bhg12rcd13ifvqf80","pricing_plan_id":"cebpf4jnsgd1na2vs0mg"},{"bike_id":"15a50361-cb9b-4dc4-92e8-4199d09d5ff1","system_id":"levelo_inurba_marseille","lat":43.28467,"lon":5.35884,"is_reserved":false,"is_disabled":false,"rental_uris":{"android":"levelo://app?vid=15a50361-cb9b-4dc4-92e8-4199d09d5ff1","ios":"levelo://app?vid=15a50361-cb9b-4dc4-92e8-4199d09d5ff1"},"vehicle_type_id":"4","last_reported":1744240160,"current_range_meters":6800,"station_id":"ce4bhah2rcd13ifvqei0","pricing_plan_id":"cebpf4jnsgd1na2vs0mg"},{"bike_id":"951a075f-4063-499f-95ef-2ec50db6526c","system_id":"levelo_inurba_marseille","lat":43.22933,"lon":5.353789,"is_reserved":false,"is_disabled":false,"rental_uris":{"android":"levelo://app?vid=951a075f-4063-499f-95ef-2ec50db6526c","ios":"levelo://app?vid=951a075f-4063-499f-95ef-2ec50db6526c"},"vehicle_type_id":"4","last_reported":1744240160,"current_range_meters":6800,"station_id":"cpo3532slgdg3j2ikp40","pricing_plan_id":"cebpf4jnsgd1na2vs0mg"},{"bike_id":"33d2ed2c-1909-4b18-8952-b5294741fea7","system_id":"levelo_inurba_marseille","lat":43.30795,"lon":5.37647,"is_reserved":false,"is_disabled":false,"rental_uris":{"android":"levelo://app?vid=33d2ed2c-1909-4b18-8952-b5294741fea7","ios":"levelo://app?vid=33d2ed2c-1909-4b18-8952-b5294741fea7"},"vehicle_type_id":"4","last_reported":1744240160,"current_range_meters":6800,"station_id":"ce4bgv92rcd13ifvqcq0","pricing_plan_id":"cebpf4jnsgd1na2vs0mg"},{"bike_id":"f1000c02-2c76-48ed-b645-232b017fec1a","system_id":"levelo_inurba_marseille","lat":43.28691,"lon":5.37414,"is_reserved":false,"is_disabled":false,"rental_uris":{"android":"levelo://app?vid=f1000c02-2c76-48ed-b645-232b017fec1a","ios":"levelo://app?vid=f1000c02-2c76-48ed-b645-232b017fec1a"},"vehicle_type_id":"4","last_reported":1744240160,"current_range_meters":7200,"station_id":"ce4bh3p2rcd13ifvqdq0","pricing_plan_id":"cebpf4jnsgd1na2vs0mg"},{"bike_id":"929d0315-d114-4461-af41-f6bff04d3821","system_id":"levelo_inurba_marseille","lat":43.30801,"lon":5.38144,"is_reserved":false,"is_disabled":false,"rental_uris":{"android":"levelo://app?vid=929d0315-d114-4461-af41-f6bff04d3821","ios":"levelo://app?vid=929d0315-d114-4461-af41-f6bff04d3821"},"vehicle_type_id":"4","last_reported":1744240160,"current_range_meters":7200,"station_id":"ce4bgt12rcd13ifvqce0","pricing_plan_id":"cebpf4jnsgd1na2vs0mg"},{"bike_id":"39b31432-a95f-4197-b7b1-d47fab348f93","system_id":"levelo_inurba_marseille","lat":43.25828,"lon":5.39437,"is_reserved":false,"is_disabled":false,"rental_uris":{"android":"levelo://app?vid=39b31432-a95f-4197-b7b1-d47fab348f93","ios":"levelo://app?vid=39b31432-a95f-4197-b7b1-d47fab348f93"},"vehicle_type_id":"4","last_reported":1744240160,"current_range_meters":7200,"station_id":"ce4bhip2rcd13ifvqft0","pricing_plan_id":"cebpf4jnsgd1na2vs0mg"},{"bike_id":"80663e12-6b64-446d-88c9-20255bde1a8a","system_id":"levelo_inurba_marseille","lat":43.30927,"lon":5.39616,"is_reserved":false,"is_disabled":true,"rental_uris":{"android":"levelo://app?vid=80663e12-6b64-446d-88c9-20255bde1a8a","ios":"levelo://app?vid=80663e12-6b64-446d-88c9-20255bde1a8a"},"vehicle_type_id":"4","last_reported":1744240160,"current_range_meters":7200,"station_id":"ce4bh012rcd13ifvqcv0","pricing_plan_id":"cebpf4jnsgd1na2vs0mg"},{"bike_id":"bf0c585e-5b41-4721-a51a-71274899cf15","system_id":"levelo_inurba_marseille","lat":43.29668,"lon":5.37881,"is_reserved":false,"is_disabled":false,"rental_uris":{"android":"levelo://app?vid=bf0c585e-5b41-4721-a51a-71274899cf15","ios":"levelo://app?vid=bf0c585e-5b41-4721-a51a-71274899cf15"},"vehicle_type_id":"4","last_reported":1744240160,"current_range_meters":7200,"station_id":"","pricing_plan_id":"cebpf4jnsgd1na2vs0mg"},{"bike_id":"08f9c0c8-8b33-4578-8a03-20f44d582241","system_id":"levelo_inurba_marseille","lat":43.30524,"lon":5.36976,"is_reserved":false,"is_disabled":false,"rental_uris":{"android":"levelo://app?vid=08f9c0c8-8b33-4578-8a03-20f44d582241","ios":"levelo://app?vid=08f9c0c8-8b33-4578-8a03-20f44d582241"},"vehicle_type_id":"4","last_reported":1744240160,"current_range_meters":7200,"station_id":"","pricing_plan_id":"cebpf4jnsgd1na2vs0mg"},{"bike_id":"98011710-961f-4b06-9ea5-2e20180ef4ff","system_id":"levelo_inurba_marseille","lat":43.28182,"lon":5.42623,"is_reserved":false,"is_disabled":false,"rental_uris":{"android":"levelo://app?vid=98011710-961f-4b06-9ea5-2e20180ef4ff","ios":"levelo://app?vid=98011710-961f-4b06-9ea5-2e20180ef4ff"},"vehicle_type_id":"4","last_reported":1744240160,"current_range_meters":7200,"station_id":"ce4bhnh2rcd13ifvqgug","pricing_plan_id":"cebpf4jnsgd1na2vs0mg"},{"bike_id":"feca3d9e-12e9-4a3a-8f8a-211aa953b3fa","system_id":"levelo_inurba_marseille","lat":43.293251,"lon":5.411604,"is_reserved":false,"is_disabled":false,"rental_uris":{"android":"levelo://app?vid=feca3d9e-12e9-4a3a-8f8a-211aa953b3fa","ios":"levelo://app?vid=feca3d9e-12e9-4a3a-8f8a-211aa953b3fa"},"vehicle_type_id":"4","last_reported":1744240160,"current_range_meters":7200,"station_id":"","pricing_plan_id":"cebpf4jnsgd1na2vs0mg"},{"bike_id":"44efffaa-803b-4dd7-b2ec-6bfc01dac8ce","system_id":"levelo_inurba_marseille","lat":43.27367,"lon":5.36243,"is_reserved":false,"is_disabled":false,"rental_uris":{"android":"levelo://app?vid=44efffaa-803b-4dd7-b2ec-6bfc01dac8ce","ios":"levelo://app?vid=44efffaa-803b-4dd7-b2ec-6bfc01dac8ce"},"vehicle_type_id":"4","last_reported":1744240160,"current_range_meters":7200,"station_id":"ce4bhbh2rcd13ifvqeo0","pricing_plan_id":"cebpf4jnsgd1na2vs0mg"},{"bike_id":"1adcfecd-7da9-485c-b40f-e62ffc130e51","system_id":"levelo_inurba_marseille","lat":43.21753,"lon":5.34602,"is_reserved":false,"is_disabled":false,"rental_uris":{"android":"levelo://app?vid=1adcfecd-7da9-485c-b40f-e62ffc130e51","ios":"levelo://app?vid=1adcfecd-7da9-485c-b40f-e62ffc130e51"},"vehicle_type_id":"4","last_reported":1744240160,"current_range_meters":8000,"station_id":"st_cvj6r9ubvosntc0bgbag","pricing_plan_id":"cebpf4jnsgd1na2vs0mg"},{"bike_id":"7c41bab6-0404-4314-b218-f822072c5aba","system_id":"levelo_inurba_marseille","lat":43.24082,"lon":5.3776,"is_reserved":false,"is_disabled":false,"rental_uris":{"android":"levelo://app?vid=7c41bab6-0404-4314-b218-f822072c5aba","ios":"levelo://app?vid=7c41bab6-0404-4314-b218-f822072c5aba"},"vehicle_type_id":"4","last_reported":1744240160,"current_range_meters":8000,"station_id":"ce4bhnp2rcd13ifvqgvg","pricing_plan_id":"cebpf4jnsgd1na2vs0mg"},{"bike_id":"8b06e115-e137-46c0-acbc-5608f302d9bb","system_id":"levelo_inurba_marseille","lat":43.28461,"lon":5.35892,"is_reserved":false,"is_disabled":false,"rental_uris":{"android":"levelo://app?vid=8b06e115-e137-46c0-acbc-5608f302d9bb","ios":"levelo://app?vid=8b06e115-e137-46c0-acbc-5608f302d9bb"},"vehicle_type_id":"4","last_reported":1744240160,"current_range_meters":8000,"station_id":"ce4bhah2rcd13ifvqei0","pricing_plan_id":"cebpf4jnsgd1na2vs0mg"},{"bike_id":"117be171-4e56-41e4-86e6-8fbe4c010556","system_id":"levelo_inurba_marseille","lat":43.27905,"lon":5.39591,"is_reserved":false,"is_disabled":false,"rental_uris":{"android":"levelo://app?vid=117be171-4e56-41e4-86e6-8fbe4c010556","ios":"levelo://app?vid=117be171-4e56-41e4-86e6-8fbe4c010556"},"vehicle_type_id":"4","last_reported":1744240160,"current_range_meters":8000,"station_id":"ce4bhf92rcd13ifvqf40","pricing_plan_id":"cebpf4jnsgd1na2vs0mg"},{"bike_id":"fc973399-e131-445b-9648-7b0ac8e69419","system_id":"levelo_inurba_marseille","lat":43.26555,"lon":5.37285,"is_reserved":false,"is_disabled":false,"rental_uris":{"android":"levelo://app?vid=fc973399-e131-445b-9648-7b0ac8e69419","ios":"levelo://app?vid=fc973399-e131-445b-9648-7b0ac8e69419"},"vehicle_type_id":"4","last_reported":1744240160,"current_range_meters":8000,"station_id":"ce4bhg12rcd13ifvqf70","pricing_plan_id":"cebpf4jnsgd1na2vs0mg"},{"bike_id":"7929e964-3189-4a8d-ab5b-0826ccb19e97","system_id":"levelo_inurba_marseille","lat":43.29245,"lon":5.409086,"is_reserved":false,"is_disabled":false,"rental_uris":{"android":"levelo://app?vid=7929e964-3189-4a8d-ab5b-0826ccb19e97","ios":"levelo://app?vid=7929e964-3189-4a8d-ab5b-0826ccb19e97"},"vehicle_type_id":"4","last_reported":1744240160,"current_range_meters":8000,"station_id":"ce4bh192rcd13ifvqdc0","pricing_plan_id":"cebpf4jnsgd1na2vs0mg"},{"bike_id":"2ea0e531-d908-4aba-86b9-16b6889b5ad9","system_id":"levelo_inurba_marseille","lat":43.28379,"lon":5.38628,"is_reserved":false,"is_disabled":false,"rental_uris":{"android":"levelo://app?vid=2ea0e531-d908-4aba-86b9-16b6889b5ad9","ios":"levelo://app?vid=2ea0e531-d908-4aba-86b9-16b6889b5ad9"},"vehicle_type_id":"4","last_reported":1744240160,"current_range_meters":8000,"station_id":"ce4bh492rcd13ifvqdvg","pricing_plan_id":"cebpf4jnsgd1na2vs0mg"},{"bike_id":"ee7193c5-0e4a-4b5c-aab9-2072d4aba82d","system_id":"levelo_inurba_marseille","lat":43.27951,"lon":5.38733,"is_reserved":false,"is_disabled":false,"rental_uris":{"android":"levelo://app?vid=ee7193c5-0e4a-4b5c-aab9-2072d4aba82d","ios":"levelo://app?vid=ee7193c5-0e4a-4b5c-aab9-2072d4aba82d"},"vehicle_type_id":"4","last_reported":1744240160,"current_range_meters":8000,"station_id":"ce4bhg12rcd13ifvqf80","pricing_plan_id":"cebpf4jnsgd1na2vs0mg"},{"bike_id":"13f8e009-5f6b-4ef6-9471-68169692b60e","system_id":"levelo_inurba_marseille","lat":43.29037,"lon":5.35913,"is_reserved":false,"is_disabled":false,"rental_uris":{"android":"levelo://app?vid=13f8e009-5f6b-4ef6-9471-68169692b60e","ios":"levelo://app?vid=13f8e009-5f6b-4ef6-9471-68169692b60e"},"vehicle_type_id":"4","last_reported":1744240160,"current_range_meters":7200,"station_id":"ce4bha92rcd13ifvqeg0","pricing_plan_id":"cebpf4jnsgd1na2vs0mg"},{"bike_id":"37e52355-c909-4b2a-bfa8-b62580b67c14","system_id":"levelo_inurba_marseille","lat":43.28473,"lon":5.38412,"is_reserved":false,"is_disabled":false,"rental_uris":{"android":"levelo://app?vid=37e52355-c909-4b2a-bfa8-b62580b67c14","ios":"levelo://app?vid=37e52355-c909-4b2a-bfa8-b62580b67c14"},"vehicle_type_id":"4","last_reported":1744240160,"current_range_meters":8000,"station_id":"ce4bh512rcd13ifvqe3g","pricing_plan_id":"cebpf4jnsgd1na2vs0mg"},{"bike_id":"b397701f-0d3d-44bf-ab3e-3ccc7e74fb2e","system_id":"levelo_inurba_marseille","lat":43.264417,"lon":5.422712,"is_reserved":false,"is_disabled":false,"rental_uris":{"android":"levelo://app?vid=b397701f-0d3d-44bf-ab3e-3ccc7e74fb2e","ios":"levelo://app?vid=b397701f-0d3d-44bf-ab3e-3ccc7e74fb2e"},"vehicle_type_id":"4","last_reported":1744240160,"current_range_meters":8000,"station_id":"","pricing_plan_id":"cebpf4jnsgd1na2vs0mg"},{"bike_id":"c6b6975e-7c57-426a-81aa-a263f3e5bca2","system_id":"levelo_inurba_marseille","lat":43.28859,"lon":5.35846,"is_reserved":false,"is_disabled":true,"rental_uris":{"android":"levelo://app?vid=c6b6975e-7c57-426a-81aa-a263f3e5bca2","ios":"levelo://app?vid=c6b6975e-7c57-426a-81aa-a263f3e5bca2"},"vehicle_type_id":"4","last_reported":1744240160,"current_range_meters":8000,"station_id":"ce4bhb12rcd13ifvqem0","pricing_plan_id":"cebpf4jnsgd1na2vs0mg"},{"bike_id":"549bf893-03c1-4612-865e-6efcd340b1b4","system_id":"levelo_inurba_marseille","lat":43.294159,"lon":5.386189,"is_reserved":false,"is_disabled":false,"rental_uris":{"android":"levelo://app?vid=549bf893-03c1-4612-865e-6efcd340b1b4","ios":"levelo://app?vid=549bf893-03c1-4612-865e-6efcd340b1b4"},"vehicle_type_id":"4","last_reported":1744240160,"current_range_meters":8000,"station_id":"ce4bh2h2rcd13ifvqdh0","pricing_plan_id":"cebpf4jnsgd1na2vs0mg"},{"bike_id":"cf249a5f-af00-42a3-891f-2a32c7072ed3","system_id":"levelo_inurba_marseille","lat":43.262308,"lon":5.404418,"is_reserved":false,"is_disabled":false,"rental_uris":{"android":"levelo://app?vid=cf249a5f-af00-42a3-891f-2a32c7072ed3","ios":"levelo://app?vid=cf249a5f-af00-42a3-891f-2a32c7072ed3"},"vehicle_type_id":"4","last_reported":1744240160,"current_range_meters":8400,"station_id":"ce4bhmh2rcd13ifvqgmg","pricing_plan_id":"cebpf4jnsgd1na2vs0mg"},{"bike_id":"04cceba4-bb97-4142-84a6-22236960f14b","system_id":"levelo_inurba_marseille","lat":43.28462,"lon":5.35888,"is_reserved":false,"is_disabled":false,"rental_uris":{"android":"levelo://app?vid=04cceba4-bb97-4142-84a6-22236960f14b","ios":"levelo://app?vid=04cceba4-bb97-4142-84a6-22236960f14b"},"vehicle_type_id":"4","last_reported":1744240160,"current_range_meters":8400,"station_id":"ce4bhah2rcd13ifvqei0","pricing_plan_id":"cebpf4jnsgd1na2vs0mg"},{"bike_id":"10790b2b-c447-40cf-871b-6bee3f31059c","system_id":"levelo_inurba_marseille","lat":43.31715,"lon":5.437,"is_reserved":false,"is_disabled":false,"rental_uris":{"android":"levelo://app?vid=10790b2b-c447-40cf-871b-6bee3f31059c","ios":"levelo://app?vid=10790b2b-c447-40cf-871b-6bee3f31059c"},"vehicle_type_id":"4","last_reported":1744240160,"current_range_meters":8400,"station_id":"ce4bhp92rcd13ifvqhcg","pricing_plan_id":"cebpf4jnsgd1na2vs0mg"},{"bike_id":"21263c65-45ad-4e71-916b-3a4ebc1a0504","system_id":"levelo_inurba_marseille","lat":43.2465,"lon":5.38158,"is_reserved":false,"is_disabled":false,"rental_uris":{"android":"levelo://app?vid=21263c65-45ad-4e71-916b-3a4ebc1a0504","ios":"levelo://app?vid=21263c65-45ad-4e71-916b-3a4ebc1a0504"},"vehicle_type_id":"4","last_reported":1744240160,"current_range_meters":8400,"station_id":"ce4bhih2rcd13ifvqfr0","pricing_plan_id":"cebpf4jnsgd1na2vs0mg"},{"bike_id":"0f58884c-3ca8-4379-9ac9-5621a95cf9bd","system_id":"levelo_inurba_marseille","lat":43.26569,"lon":5.39035,"is_reserved":false,"is_disabled":false,"rental_uris":{"android":"levelo://app?vid=0f58884c-3ca8-4379-9ac9-5621a95cf9bd","ios":"levelo://app?vid=0f58884c-3ca8-4379-9ac9-5621a95cf9bd"},"vehicle_type_id":"4","last_reported":1744240160,"current_range_meters":8400,"station_id":"ce4bhe12rcd13ifvqf30","pricing_plan_id":"cebpf4jnsgd1na2vs0mg"},{"bike_id":"b08cdd8b-c2a1-420d-9ba3-24c0751875e1","system_id":"levelo_inurba_marseille","lat":43.28425,"lon":5.37526,"is_reserved":false,"is_disabled":false,"rental_uris":{"android":"levelo://app?vid=b08cdd8b-c2a1-420d-9ba3-24c0751875e1","ios":"levelo://app?vid=b08cdd8b-c2a1-420d-9ba3-24c0751875e1"},"vehicle_type_id":"4","last_reported":1744240160,"current_range_meters":8000,"station_id":"ce4bh412rcd13ifvqds0","pricing_plan_id":"cebpf4jnsgd1na2vs0mg"},{"bike_id":"4eb280b3-5923-4cd2-a122-21058a7d0c17","system_id":"levelo_inurba_marseille","lat":43.24176,"lon":5.3974,"is_reserved":false,"is_disabled":false,"rental_uris":{"android":"levelo://app?vid=4eb280b3-5923-4cd2-a122-21058a7d0c17","ios":"levelo://app?vid=4eb280b3-5923-4cd2-a122-21058a7d0c17"},"vehicle_type_id":"4","last_reported":1744240160,"current_range_meters":8400,"station_id":"ce4bhn12rcd13ifvqgpg","pricing_plan_id":"cebpf4jnsgd1na2vs0mg"},{"bike_id":"62603dd0-9d2c-41c1-9b1c-a693faeaf2ed","system_id":"levelo_inurba_marseille","lat":43.25819,"lon":5.39428,"is_reserved":false,"is_disabled":false,"rental_uris":{"android":"levelo://app?vid=62603dd0-9d2c-41c1-9b1c-a693faeaf2ed","ios":"levelo://app?vid=62603dd0-9d2c-41c1-9b1c-a693faeaf2ed"},"vehicle_type_id":"4","last_reported":1744240160,"current_range_meters":8000,"station_id":"ce4bhip2rcd13ifvqft0","pricing_plan_id":"cebpf4jnsgd1na2vs0mg"},{"bike_id":"841cc48f-644f-4c42-a397-236e943da4b4","system_id":"levelo_inurba_marseille","lat":43.27104,"lon":5.42284,"is_reserved":false,"is_disabled":false,"rental_uris":{"android":"levelo://app?vid=841cc48f-644f-4c42-a397-236e943da4b4","ios":"levelo://app?vid=841cc48f-644f-4c42-a397-236e943da4b4"},"vehicle_type_id":"4","last_reported":1744240160,"current_range_meters":8400,"station_id":"ce4bhk92rcd13ifvqgb0","pricing_plan_id":"cebpf4jnsgd1na2vs0mg"},{"bike_id":"3ff04e72-73e5-4ada-9baf-e5e1244be974","system_id":"levelo_inurba_marseille","lat":43.31341,"lon":5.39691,"is_reserved":false,"is_disabled":false,"rental_uris":{"android":"levelo://app?vid=3ff04e72-73e5-4ada-9baf-e5e1244be974","ios":"levelo://app?vid=3ff04e72-73e5-4ada-9baf-e5e1244be974"},"vehicle_type_id":"4","last_reported":1744240160,"current_range_meters":8400,"station_id":"ce4bgvp2rcd13ifvqcu0","pricing_plan_id":"cebpf4jnsgd1na2vs0mg"},{"bike_id":"d3e21a76-c23b-4995-851d-d1b8e438f8d5","system_id":"levelo_inurba_marseille","lat":43.24656,"lon":5.38176,"is_reserved":false,"is_disabled":false,"rental_uris":{"android":"levelo://app?vid=d3e21a76-c23b-4995-851d-d1b8e438f8d5","ios":"levelo://app?vid=d3e21a76-c23b-4995-851d-d1b8e438f8d5"},"vehicle_type_id":"4","last_reported":1744240160,"current_range_meters":8800,"station_id":"ce4bhih2rcd13ifvqfr0","pricing_plan_id":"cebpf4jnsgd1na2vs0mg"},{"bike_id":"08294fca-a3e2-4094-bdc6-31bcd02a29d1","system_id":"levelo_inurba_marseille","lat":43.28722,"lon":5.37942,"is_reserved":false,"is_disabled":false,"rental_uris":{"android":"levelo://app?vid=08294fca-a3e2-4094-bdc6-31bcd02a29d1","ios":"levelo://app?vid=08294fca-a3e2-4094-bdc6-31bcd02a29d1"},"vehicle_type_id":"4","last_reported":1744240160,"current_range_meters":8800,"station_id":"ce4bh9p2rcd13ifvqec0","pricing_plan_id":"cebpf4jnsgd1na2vs0mg"},{"bike_id":"0e7051ad-00f7-4897-9995-929c1987289a","system_id":"levelo_inurba_marseille","lat":43.34177,"lon":5.37014,"is_reserved":false,"is_disabled":false,"rental_uris":{"android":"levelo://app?vid=0e7051ad-00f7-4897-9995-929c1987289a","ios":"levelo://app?vid=0e7051ad-00f7-4897-9995-929c1987289a"},"vehicle_type_id":"4","last_reported":1744240160,"current_range_meters":8800,"station_id":"","pricing_plan_id":"cebpf4jnsgd1na2vs0mg"},{"bike_id":"85c6c1a7-1e02-4ae5-b680-67cbc15bed7f","system_id":"levelo_inurba_marseille","lat":43.27508,"lon":5.42449,"is_reserved":false,"is_disabled":false,"rental_uris":{"android":"levelo://app?vid=85c6c1a7-1e02-4ae5-b680-67cbc15bed7f","ios":"levelo://app?vid=85c6c1a7-1e02-4ae5-b680-67cbc15bed7f"},"vehicle_type_id":"4","last_reported":1744240160,"current_range_meters":9200,"station_id":"ce4bhn92rcd13ifvqgrg","pricing_plan_id":"cebpf4jnsgd1na2vs0mg"},{"bike_id":"6f3fe993-487a-49d3-a0d0-5a8b8b04a7e6","system_id":"levelo_inurba_marseille","lat":43.28643,"lon":5.36357,"is_reserved":false,"is_disabled":false,"rental_uris":{"android":"levelo://app?vid=6f3fe993-487a-49d3-a0d0-5a8b8b04a7e6","ios":"levelo://app?vid=6f3fe993-487a-49d3-a0d0-5a8b8b04a7e6"},"vehicle_type_id":"4","last_reported":1744240160,"current_range_meters":9200,"station_id":"ce4bhah2rcd13ifvqej0","pricing_plan_id":"cebpf4jnsgd1na2vs0mg"},{"bike_id":"1a8c3bfa-7658-4f5e-93b8-93807ec24b6f","system_id":"levelo_inurba_marseille","lat":43.2657,"lon":5.3903,"is_reserved":false,"is_disabled":true,"rental_uris":{"android":"levelo://app?vid=1a8c3bfa-7658-4f5e-93b8-93807ec24b6f","ios":"levelo://app?vid=1a8c3bfa-7658-4f5e-93b8-93807ec24b6f"},"vehicle_type_id":"4","last_reported":1744240160,"current_range_meters":9200,"station_id":"ce4bhe12rcd13ifvqf30","pricing_plan_id":"cebpf4jnsgd1na2vs0mg"},{"bike_id":"0034db4b-efd6-4119-a358-80e858a45e83","system_id":"levelo_inurba_marseille","lat":43.31756,"lon":5.38918,"is_reserved":false,"is_disabled":false,"rental_uris":{"android":"levelo://app?vid=0034db4b-efd6-4119-a358-80e858a45e83","ios":"levelo://app?vid=0034db4b-efd6-4119-a358-80e858a45e83"},"vehicle_type_id":"4","last_reported":1744240160,"current_range_meters":9200,"station_id":"","pricing_plan_id":"cebpf4jnsgd1na2vs0mg"},{"bike_id":"3c249fde-5b98-4cae-8760-4364364e2db6","system_id":"levelo_inurba_marseille","lat":43.29579,"lon":5.3751,"is_reserved":false,"is_disabled":false,"rental_uris":{"android":"levelo://app?vid=3c249fde-5b98-4cae-8760-4364364e2db6","ios":"levelo://app?vid=3c249fde-5b98-4cae-8760-4364364e2db6"},"vehicle_type_id":"4","last_reported":1744240160,"current_range_meters":9200,"station_id":"ce4bgh92rcd13ifvqb50","pricing_plan_id":"cebpf4jnsgd1na2vs0mg"},{"bike_id":"a5f81979-db12-42e6-b86b-94d39f8f2d1c","system_id":"levelo_inurba_marseille","lat":43.31085,"lon":5.42433,"is_reserved":false,"is_disabled":false,"rental_uris":{"android":"levelo://app?vid=a5f81979-db12-42e6-b86b-94d39f8f2d1c","ios":"levelo://app?vid=a5f81979-db12-42e6-b86b-94d39f8f2d1c"},"vehicle_type_id":"4","last_reported":1744240160,"current_range_meters":9200,"station_id":"ce4bhp92rcd13ifvqhag","pricing_plan_id":"cebpf4jnsgd1na2vs0mg"},{"bike_id":"aac5e7eb-6c98-470f-99b0-2e086ce3595a","system_id":"levelo_inurba_marseille","lat":43.27918,"lon":5.39571,"is_reserved":false,"is_disabled":false,"rental_uris":{"android":"levelo://app?vid=aac5e7eb-6c98-470f-99b0-2e086ce3595a","ios":"levelo://app?vid=aac5e7eb-6c98-470f-99b0-2e086ce3595a"},"vehicle_type_id":"4","last_reported":1744240160,"current_range_meters":9200,"station_id":"ce4bhf92rcd13ifvqf40","pricing_plan_id":"cebpf4jnsgd1na2vs0mg"},{"bike_id":"c9ddb500-892e-4cb5-b06b-9e3a3ad97d8f","system_id":"levelo_inurba_marseille","lat":43.27172,"lon":5.40987,"is_reserved":false,"is_disabled":false,"rental_uris":{"android":"levelo://app?vid=c9ddb500-892e-4cb5-b06b-9e3a3ad97d8f","ios":"levelo://app?vid=c9ddb500-892e-4cb5-b06b-9e3a3ad97d8f"},"vehicle_type_id":"4","last_reported":1744240160,"current_range_meters":9600,"station_id":"ce4bhl12rcd13ifvqgf0","pricing_plan_id":"cebpf4jnsgd1na2vs0mg"},{"bike_id":"8fa78f52-8834-4b2c-8a1d-e4f911c35cd4","system_id":"levelo_inurba_marseille","lat":43.25737,"lon":5.41005,"is_reserved":false,"is_disabled":true,"rental_uris":{"android":"levelo://app?vid=8fa78f52-8834-4b2c-8a1d-e4f911c35cd4","ios":"levelo://app?vid=8fa78f52-8834-4b2c-8a1d-e4f911c35cd4"},"vehicle_type_id":"4","last_reported":1744240160,"current_range_meters":9600,"station_id":"ce4bhkp2rcd13ifvqgd0","pricing_plan_id":"cebpf4jnsgd1na2vs0mg"},{"bike_id":"cf334e37-1932-42c6-b9e9-e5d0e849cd74","system_id":"levelo_inurba_marseille","lat":43.29522,"lon":5.39413,"is_reserved":false,"is_disabled":false,"rental_uris":{"android":"levelo://app?vid=cf334e37-1932-42c6-b9e9-e5d0e849cd74","ios":"levelo://app?vid=cf334e37-1932-42c6-b9e9-e5d0e849cd74"},"vehicle_type_id":"4","last_reported":1744240160,"current_range_meters":9600,"station_id":"ce4bh292rcd13ifvqdf0","pricing_plan_id":"cebpf4jnsgd1na2vs0mg"},{"bike_id":"758e8708-ecd2-494d-80c8-3ff8f0fbc44b","system_id":"levelo_inurba_marseille","lat":43.29963,"lon":5.41328,"is_reserved":false,"is_disabled":false,"rental_uris":{"android":"levelo://app?vid=758e8708-ecd2-494d-80c8-3ff8f0fbc44b","ios":"levelo://app?vid=758e8708-ecd2-494d-80c8-3ff8f0fbc44b"},"vehicle_type_id":"4","last_reported":1744240160,"current_range_meters":9600,"station_id":"ce4bhp12rcd13ifvqh9g","pricing_plan_id":"cebpf4jnsgd1na2vs0mg"},{"bike_id":"523f199e-c50d-4cd7-8cb0-ecd6da8f7fb1","system_id":"levelo_inurba_marseille","lat":43.31718,"lon":5.42407,"is_reserved":false,"is_disabled":false,"rental_uris":{"android":"levelo://app?vid=523f199e-c50d-4cd7-8cb0-ecd6da8f7fb1","ios":"levelo://app?vid=523f199e-c50d-4cd7-8cb0-ecd6da8f7fb1"},"vehicle_type_id":"4","last_reported":1744240160,"current_range_meters":9600,"station_id":"ce4bhp92rcd13ifvqhbg","pricing_plan_id":"cebpf4jnsgd1na2vs0mg"},{"bike_id":"60bc3fb2-7a9c-478d-bae3-531d94541e5b","system_id":"levelo_inurba_marseille","lat":43.27068,"lon":5.4228,"is_reserved":false,"is_disabled":false,"rental_uris":{"android":"levelo://app?vid=60bc3fb2-7a9c-478d-bae3-531d94541e5b","ios":"levelo://app?vid=60bc3fb2-7a9c-478d-bae3-531d94541e5b"},"vehicle_type_id":"4","last_reported":1744240160,"current_range_meters":9600,"station_id":"ce4bhk92rcd13ifvqgb0","pricing_plan_id":"cebpf4jnsgd1na2vs0mg"},{"bike_id":"481fc7b8-eb9f-42c5-96ad-bb49054a850c","system_id":"levelo_inurba_marseille","lat":43.29851,"lon":5.39734,"is_reserved":false,"is_disabled":false,"rental_uris":{"android":"levelo://app?vid=481fc7b8-eb9f-42c5-96ad-bb49054a850c","ios":"levelo://app?vid=481fc7b8-eb9f-42c5-96ad-bb49054a850c"},"vehicle_type_id":"4","last_reported":1744240160,"current_range_meters":9600,"station_id":"ce4bh0h2rcd13ifvqd50","pricing_plan_id":"cebpf4jnsgd1na2vs0mg"},{"bike_id":"b0ee8110-12b9-4204-b103-76680f3e4afd","system_id":"levelo_inurba_marseille","lat":43.30637,"lon":5.40074,"is_reserved":false,"is_disabled":false,"rental_uris":{"android":"levelo://app?vid=b0ee8110-12b9-4204-b103-76680f3e4afd","ios":"levelo://app?vid=b0ee8110-12b9-4204-b103-76680f3e4afd"},"vehicle_type_id":"4","last_reported":1744240160,"current_range_meters":9600,"station_id":"ce4bh112rcd13ifvqda0","pricing_plan_id":"cebpf4jnsgd1na2vs0mg"},{"bike_id":"a746c4bc-0206-4d3e-9c8a-a1b43dd780da","system_id":"levelo_inurba_marseille","lat":43.30638,"lon":5.40088,"is_reserved":false,"is_disabled":false,"rental_uris":{"android":"levelo://app?vid=a746c4bc-0206-4d3e-9c8a-a1b43dd780da","ios":"levelo://app?vid=a746c4bc-0206-4d3e-9c8a-a1b43dd780da"},"vehicle_type_id":"4","last_reported":1744240160,"current_range_meters":10000,"station_id":"ce4bh112rcd13ifvqda0","pricing_plan_id":"cebpf4jnsgd1na2vs0mg"},{"bike_id":"15894a77-9805-4e6e-ae55-f5e61d71b9e0","system_id":"levelo_inurba_marseille","lat":43.25124,"lon":5.40314,"is_reserved":false,"is_disabled":false,"rental_uris":{"android":"levelo://app?vid=15894a77-9805-4e6e-ae55-f5e61d71b9e0","ios":"levelo://app?vid=15894a77-9805-4e6e-ae55-f5e61d71b9e0"},"vehicle_type_id":"4","last_reported":1744240160,"current_range_meters":10000,"station_id":"ce4bhlh2rcd13ifvqgig","pricing_plan_id":"cebpf4jnsgd1na2vs0mg"},{"bike_id":"5d3ccd40-5d02-40ea-b6f7-7ce2b0304c38","system_id":"levelo_inurba_marseille","lat":43.29902,"lon":5.4367,"is_reserved":false,"is_disabled":false,"rental_uris":{"android":"levelo://app?vid=5d3ccd40-5d02-40ea-b6f7-7ce2b0304c38","ios":"levelo://app?vid=5d3ccd40-5d02-40ea-b6f7-7ce2b0304c38"},"vehicle_type_id":"4","last_reported":1744240160,"current_range_meters":10000,"station_id":"ce4bhpp2rcd13ifvqhfg","pricing_plan_id":"cebpf4jnsgd1na2vs0mg"},{"bike_id":"0eb9ffb0-450d-436e-bc0e-57314f20bdda","system_id":"levelo_inurba_marseille","lat":43.28103,"lon":5.37826,"is_reserved":false,"is_disabled":false,"rental_uris":{"android":"levelo://app?vid=0eb9ffb0-450d-436e-bc0e-57314f20bdda","ios":"levelo://app?vid=0eb9ffb0-450d-436e-bc0e-57314f20bdda"},"vehicle_type_id":"4","last_reported":1744240160,"current_range_meters":10000,"station_id":"ce4bha12rcd13ifvqee0","pricing_plan_id":"cebpf4jnsgd1na2vs0mg"},{"bike_id":"01e31f15-bc9b-4d18-bebd-edf19bcedef2","system_id":"levelo_inurba_marseille","lat":43.287146,"lon":5.379455,"is_reserved":false,"is_disabled":true,"rental_uris":{"android":"levelo://app?vid=01e31f15-bc9b-4d18-bebd-edf19bcedef2","ios":"levelo://app?vid=01e31f15-bc9b-4d18-bebd-edf19bcedef2"},"vehicle_type_id":"4","last_reported":1744240160,"current_range_meters":10800,"station_id":"ce4bh9p2rcd13ifvqec0","pricing_plan_id":"cebpf4jnsgd1na2vs0mg"},{"bike_id":"da89b175-f719-43fe-8eec-54e316ac9d8c","system_id":"levelo_inurba_marseille","lat":43.295758,"lon":5.399654,"is_reserved":false,"is_disabled":false,"rental_uris":{"android":"levelo://app?vid=da89b175-f719-43fe-8eec-54e316ac9d8c","ios":"levelo://app?vid=da89b175-f719-43fe-8eec-54e316ac9d8c"},"vehicle_type_id":"4","last_reported":1744240160,"current_range_meters":10000,"station_id":"ce4bh312rcd13ifvqdj0","pricing_plan_id":"cebpf4jnsgd1na2vs0mg"},{"bike_id":"147f9b4c-1c73-4048-93a4-44a3ec726794","system_id":"levelo_inurba_marseille","lat":43.295746,"lon":5.375026,"is_reserved":false,"is_disabled":true,"rental_uris":{"android":"levelo://app?vid=147f9b4c-1c73-4048-93a4-44a3ec726794","ios":"levelo://app?vid=147f9b4c-1c73-4048-93a4-44a3ec726794"},"vehicle_type_id":"4","last_reported":1744240160,"current_range_meters":10800,"station_id":"ce4bgh92rcd13ifvqb50","pricing_plan_id":"cebpf4jnsgd1na2vs0mg"},{"bike_id":"de2b6aaf-ad2c-41c4-a3a5-fc286860c670","system_id":"levelo_inurba_marseille","lat":43.28366,"lon":5.3865,"is_reserved":false,"is_disabled":false,"rental_uris":{"android":"levelo://app?vid=de2b6aaf-ad2c-41c4-a3a5-fc286860c670","ios":"levelo://app?vid=de2b6aaf-ad2c-41c4-a3a5-fc286860c670"},"vehicle_type_id":"4","last_reported":1744240160,"current_range_meters":10000,"station_id":"ce4bh492rcd13ifvqdvg","pricing_plan_id":"cebpf4jnsgd1na2vs0mg"},{"bike_id":"8b1885c7-c990-486a-9363-3a428e6713c7","system_id":"levelo_inurba_marseille","lat":43.284544,"lon":5.358974,"is_reserved":false,"is_disabled":false,"rental_uris":{"android":"levelo://app?vid=8b1885c7-c990-486a-9363-3a428e6713c7","ios":"levelo://app?vid=8b1885c7-c990-486a-9363-3a428e6713c7"},"vehicle_type_id":"4","last_reported":1744240160,"current_range_meters":10800,"station_id":"ce4bhah2rcd13ifvqei0","pricing_plan_id":"cebpf4jnsgd1na2vs0mg"},{"bike_id":"cbd9b701-8eb6-4e59-877c-18ffb72248fc","system_id":"levelo_inurba_marseille","lat":43.30641,"lon":5.40076,"is_reserved":false,"is_disabled":false,"rental_uris":{"android":"levelo://app?vid=cbd9b701-8eb6-4e59-877c-18ffb72248fc","ios":"levelo://app?vid=cbd9b701-8eb6-4e59-877c-18ffb72248fc"},"vehicle_type_id":"4","last_reported":1744240160,"current_range_meters":10800,"station_id":"ce4bh112rcd13ifvqda0","pricing_plan_id":"cebpf4jnsgd1na2vs0mg"},{"bike_id":"17f4902e-c861-4806-a819-8e218247cad7","system_id":"levelo_inurba_marseille","lat":43.2467,"lon":5.38164,"is_reserved":false,"is_disabled":false,"rental_uris":{"android":"levelo://app?vid=17f4902e-c861-4806-a819-8e218247cad7","ios":"levelo://app?vid=17f4902e-c861-4806-a819-8e218247cad7"},"vehicle_type_id":"4","last_reported":1744240160,"current_range_meters":10800,"station_id":"ce4bhih2rcd13ifvqfr0","pricing_plan_id":"cebpf4jnsgd1na2vs0mg"},{"bike_id":"b85221dc-73c2-4729-bd2d-bf033ae6c975","system_id":"levelo_inurba_marseille","lat":43.29864,"lon":5.39733,"is_reserved":false,"is_disabled":false,"rental_uris":{"android":"levelo://app?vid=b85221dc-73c2-4729-bd2d-bf033ae6c975","ios":"levelo://app?vid=b85221dc-73c2-4729-bd2d-bf033ae6c975"},"vehicle_type_id":"4","last_reported":1744240160,"current_range_meters":10800,"station_id":"ce4bh0h2rcd13ifvqd50","pricing_plan_id":"cebpf4jnsgd1na2vs0mg"},{"bike_id":"5f30a5a4-de9f-499e-b151-b811ebb3b43a","system_id":"levelo_inurba_marseille","lat":43.31088,"lon":5.38339,"is_reserved":false,"is_disabled":true,"rental_uris":{"android":"levelo://app?vid=5f30a5a4-de9f-499e-b151-b811ebb3b43a","ios":"levelo://app?vid=5f30a5a4-de9f-499e-b151-b811ebb3b43a"},"vehicle_type_id":"4","last_reported":1744240160,"current_range_meters":10800,"station_id":"ce4bgv92rcd13ifvqcr0","pricing_plan_id":"cebpf4jnsgd1na2vs0mg"},{"bike_id":"2b057902-5353-4a42-8c4f-71b0e09d4c02","system_id":"levelo_inurba_marseille","lat":43.30745,"lon":5.42455,"is_reserved":false,"is_disabled":false,"rental_uris":{"android":"levelo://app?vid=2b057902-5353-4a42-8c4f-71b0e09d4c02","ios":"levelo://app?vid=2b057902-5353-4a42-8c4f-71b0e09d4c02"},"vehicle_type_id":"4","last_reported":1744240160,"current_range_meters":10800,"station_id":"st_cvj6ca6bvosntc0bfgr0","pricing_plan_id":"cebpf4jnsgd1na2vs0mg"},{"bike_id":"ddfa3600-a04a-4356-bfb6-d5c6a4e72528","system_id":"levelo_inurba_marseille","lat":43.31714,"lon":5.43711,"is_reserved":false,"is_disabled":false,"rental_uris":{"android":"levelo://app?vid=ddfa3600-a04a-4356-bfb6-d5c6a4e72528","ios":"levelo://app?vid=ddfa3600-a04a-4356-bfb6-d5c6a4e72528"},"vehicle_type_id":"4","last_reported":1744240160,"current_range_meters":10800,"station_id":"ce4bhp92rcd13ifvqhcg","pricing_plan_id":"cebpf4jnsgd1na2vs0mg"},{"bike_id":"c6b6c9fe-f58e-4729-b8e2-8688928f31a2","system_id":"levelo_inurba_marseille","lat":43.28659,"lon":5.3635,"is_reserved":false,"is_disabled":false,"rental_uris":{"android":"levelo://app?vid=c6b6c9fe-f58e-4729-b8e2-8688928f31a2","ios":"levelo://app?vid=c6b6c9fe-f58e-4729-b8e2-8688928f31a2"},"vehicle_type_id":"4","last_reported":1744240160,"current_range_meters":10800,"station_id":"ce4bhah2rcd13ifvqej0","pricing_plan_id":"cebpf4jnsgd1na2vs0mg"},{"bike_id":"57818e10-b1b6-487a-9fe7-b0971f108d0e","system_id":"levelo_inurba_marseille","lat":43.30781,"lon":5.37647,"is_reserved":false,"is_disabled":false,"rental_uris":{"android":"levelo://app?vid=57818e10-b1b6-487a-9fe7-b0971f108d0e","ios":"levelo://app?vid=57818e10-b1b6-487a-9fe7-b0971f108d0e"},"vehicle_type_id":"4","last_reported":1744240160,"current_range_meters":11200,"station_id":"ce4bgv92rcd13ifvqcq0","pricing_plan_id":"cebpf4jnsgd1na2vs0mg"},{"bike_id":"49ff83c9-b7ae-4714-8e73-f563a5b3bbce","system_id":"levelo_inurba_marseille","lat":43.28182,"lon":5.42634,"is_reserved":false,"is_disabled":false,"rental_uris":{"android":"levelo://app?vid=49ff83c9-b7ae-4714-8e73-f563a5b3bbce","ios":"levelo://app?vid=49ff83c9-b7ae-4714-8e73-f563a5b3bbce"},"vehicle_type_id":"4","last_reported":1744240160,"current_range_meters":11200,"station_id":"ce4bhnh2rcd13ifvqgug","pricing_plan_id":"cebpf4jnsgd1na2vs0mg"},{"bike_id":"9f000f15-44e9-41e4-b51d-12e9a7f823c3","system_id":"levelo_inurba_marseille","lat":43.262019,"lon":5.379263,"is_reserved":false,"is_disabled":false,"rental_uris":{"android":"levelo://app?vid=9f000f15-44e9-41e4-b51d-12e9a7f823c3","ios":"levelo://app?vid=9f000f15-44e9-41e4-b51d-12e9a7f823c3"},"vehicle_type_id":"4","last_reported":1744240160,"current_range_meters":11200,"station_id":"ce4bhjp2rcd13ifvqg90","pricing_plan_id":"cebpf4jnsgd1na2vs0mg"},{"bike_id":"68bb489e-c4e2-4ece-ba38-7a818ae7ebb3","system_id":"levelo_inurba_marseille","lat":43.27837,"lon":5.39213,"is_reserved":false,"is_disabled":false,"rental_uris":{"android":"levelo://app?vid=68bb489e-c4e2-4ece-ba38-7a818ae7ebb3","ios":"levelo://app?vid=68bb489e-c4e2-4ece-ba38-7a818ae7ebb3"},"vehicle_type_id":"4","last_reported":1744240160,"current_range_meters":11200,"station_id":"ce4bhjp2rcd13ifvqga0","pricing_plan_id":"cebpf4jnsgd1na2vs0mg"},{"bike_id":"51220fd5-275f-44db-a81e-280c0ca810af","system_id":"levelo_inurba_marseille","lat":43.32264,"lon":5.38534,"is_reserved":false,"is_disabled":false,"rental_uris":{"android":"levelo://app?vid=51220fd5-275f-44db-a81e-280c0ca810af","ios":"levelo://app?vid=51220fd5-275f-44db-a81e-280c0ca810af"},"vehicle_type_id":"4","last_reported":1744240160,"current_range_meters":11200,"station_id":"","pricing_plan_id":"cebpf4jnsgd1na2vs0mg"},{"bike_id":"b96be04a-adcd-4816-8c18-ee76dccce0e8","system_id":"levelo_inurba_marseille","lat":43.241723,"lon":5.364093,"is_reserved":false,"is_disabled":false,"rental_uris":{"android":"levelo://app?vid=b96be04a-adcd-4816-8c18-ee76dccce0e8","ios":"levelo://app?vid=b96be04a-adcd-4816-8c18-ee76dccce0e8"},"vehicle_type_id":"4","last_reported":1744240160,"current_range_meters":11200,"station_id":"cpo36qri1sfpv3e86is0","pricing_plan_id":"cebpf4jnsgd1na2vs0mg"},{"bike_id":"370c5ce7-3d00-4a67-b12b-0443c7b825ee","system_id":"levelo_inurba_marseille","lat":43.2762,"lon":5.36105,"is_reserved":false,"is_disabled":false,"rental_uris":{"android":"levelo://app?vid=370c5ce7-3d00-4a67-b12b-0443c7b825ee","ios":"levelo://app?vid=370c5ce7-3d00-4a67-b12b-0443c7b825ee"},"vehicle_type_id":"4","last_reported":1744240160,"current_range_meters":11200,"station_id":"ce4bgj92rcd13ifvqbe0","pricing_plan_id":"cebpf4jnsgd1na2vs0mg"},{"bike_id":"5786740e-1fed-4c57-957a-bd3291ce24e3","system_id":"levelo_inurba_marseille","lat":43.301249,"lon":5.398577,"is_reserved":false,"is_disabled":false,"rental_uris":{"android":"levelo://app?vid=5786740e-1fed-4c57-957a-bd3291ce24e3","ios":"levelo://app?vid=5786740e-1fed-4c57-957a-bd3291ce24e3"},"vehicle_type_id":"4","last_reported":1744240160,"current_range_meters":11200,"station_id":"ce4bh0h2rcd13ifvqd40","pricing_plan_id":"cebpf4jnsgd1na2vs0mg"},{"bike_id":"c243072f-6bd2-4d94-ba83-04162cf2a05c","system_id":"levelo_inurba_marseille","lat":43.27202,"lon":5.40111,"is_reserved":false,"is_disabled":false,"rental_uris":{"android":"levelo://app?vid=c243072f-6bd2-4d94-ba83-04162cf2a05c","ios":"levelo://app?vid=c243072f-6bd2-4d94-ba83-04162cf2a05c"},"vehicle_type_id":"4","last_reported":1744240160,"current_range_meters":11200,"station_id":"","pricing_plan_id":"cebpf4jnsgd1na2vs0mg"},{"bike_id":"f0a5f6a8-ee1a-4c3c-8234-8b7adf75d0f5","system_id":"levelo_inurba_marseille","lat":43.31125,"lon":5.37778,"is_reserved":false,"is_disabled":false,"rental_uris":{"android":"levelo://app?vid=f0a5f6a8-ee1a-4c3c-8234-8b7adf75d0f5","ios":"levelo://app?vid=f0a5f6a8-ee1a-4c3c-8234-8b7adf75d0f5"},"vehicle_type_id":"4","last_reported":1744240160,"current_range_meters":11600,"station_id":"ce4bgt92rcd13ifvqcg0","pricing_plan_id":"cebpf4jnsgd1na2vs0mg"},{"bike_id":"9fce7fb9-26b6-4832-9f96-ea1b75c489f0","system_id":"levelo_inurba_marseille","lat":43.21205,"lon":5.35067,"is_reserved":false,"is_disabled":false,"rental_uris":{"android":"levelo://app?vid=9fce7fb9-26b6-4832-9f96-ea1b75c489f0","ios":"levelo://app?vid=9fce7fb9-26b6-4832-9f96-ea1b75c489f0"},"vehicle_type_id":"4","last_reported":1744240160,"current_range_meters":11600,"station_id":"st_cvj6sg6p6f1abm77japg","pricing_plan_id":"cebpf4jnsgd1na2vs0mg"},{"bike_id":"3cfa414a-56ce-4678-b27b-88f21f1ddfeb","system_id":"levelo_inurba_marseille","lat":43.3028,"lon":5.37711,"is_reserved":false,"is_disabled":false,"rental_uris":{"android":"levelo://app?vid=3cfa414a-56ce-4678-b27b-88f21f1ddfeb","ios":"levelo://app?vid=3cfa414a-56ce-4678-b27b-88f21f1ddfeb"},"vehicle_type_id":"4","last_reported":1744240160,"current_range_meters":11600,"station_id":"ce4bguh2rcd13ifvqcj0","pricing_plan_id":"cebpf4jnsgd1na2vs0mg"},{"bike_id":"4c28f3d7-3228-4605-8a0a-01ab16fbb532","system_id":"levelo_inurba_marseille","lat":43.27198,"lon":5.39187,"is_reserved":false,"is_disabled":true,"rental_uris":{"android":"levelo://app?vid=4c28f3d7-3228-4605-8a0a-01ab16fbb532","ios":"levelo://app?vid=4c28f3d7-3228-4605-8a0a-01ab16fbb532"},"vehicle_type_id":"4","last_reported":1744240160,"current_range_meters":11600,"station_id":"ce4bhhp2rcd13ifvqfm0","pricing_plan_id":"cebpf4jnsgd1na2vs0mg"},{"bike_id":"5c889fcf-2d17-451a-80ef-75fc8b390887","system_id":"levelo_inurba_marseille","lat":43.31109,"lon":5.37766,"is_reserved":false,"is_disabled":false,"rental_uris":{"android":"levelo://app?vid=5c889fcf-2d17-451a-80ef-75fc8b390887","ios":"levelo://app?vid=5c889fcf-2d17-451a-80ef-75fc8b390887"},"vehicle_type_id":"4","last_reported":1744240160,"current_range_meters":11600,"station_id":"ce4bgt92rcd13ifvqcg0","pricing_plan_id":"cebpf4jnsgd1na2vs0mg"},{"bike_id":"c6d08ce1-4ebf-4679-afaf-757664a7b608","system_id":"levelo_inurba_marseille","lat":43.28417,"lon":5.37509,"is_reserved":false,"is_disabled":false,"rental_uris":{"android":"levelo://app?vid=c6d08ce1-4ebf-4679-afaf-757664a7b608","ios":"levelo://app?vid=c6d08ce1-4ebf-4679-afaf-757664a7b608"},"vehicle_type_id":"4","last_reported":1744240160,"current_range_meters":11600,"station_id":"ce4bh412rcd13ifvqds0","pricing_plan_id":"cebpf4jnsgd1na2vs0mg"},{"bike_id":"aa2f78da-fdbd-43b8-a925-56430a4469e7","system_id":"levelo_inurba_marseille","lat":43.31358,"lon":5.38517,"is_reserved":false,"is_disabled":false,"rental_uris":{"android":"levelo://app?vid=aa2f78da-fdbd-43b8-a925-56430a4469e7","ios":"levelo://app?vid=aa2f78da-fdbd-43b8-a925-56430a4469e7"},"vehicle_type_id":"4","last_reported":1744240160,"current_range_meters":11600,"station_id":"ce4bgt92rcd13ifvqcf0","pricing_plan_id":"cebpf4jnsgd1na2vs0mg"},{"bike_id":"b2323607-30a0-4dcd-b86a-75bb6b4b1da9","system_id":"levelo_inurba_marseille","lat":43.30885,"lon":5.39644,"is_reserved":false,"is_disabled":false,"rental_uris":{"android":"levelo://app?vid=b2323607-30a0-4dcd-b86a-75bb6b4b1da9","ios":"levelo://app?vid=b2323607-30a0-4dcd-b86a-75bb6b4b1da9"},"vehicle_type_id":"4","last_reported":1744240160,"current_range_meters":12000,"station_id":"ce4bh012rcd13ifvqcv0","pricing_plan_id":"cebpf4jnsgd1na2vs0mg"},{"bike_id":"856ad958-667d-4fa3-b7e0-4b6761bd287f","system_id":"levelo_inurba_marseille","lat":43.3036,"lon":5.41878,"is_reserved":false,"is_disabled":false,"rental_uris":{"android":"levelo://app?vid=856ad958-667d-4fa3-b7e0-4b6761bd287f","ios":"levelo://app?vid=856ad958-667d-4fa3-b7e0-4b6761bd287f"},"vehicle_type_id":"4","last_reported":1744240160,"current_range_meters":12000,"station_id":"ce4bhop2rcd13ifvqh7g","pricing_plan_id":"cebpf4jnsgd1na2vs0mg"},{"bike_id":"60e8e4b1-82cf-4403-9117-a8f4ee3a9f95","system_id":"levelo_inurba_marseille","lat":43.27815,"lon":5.40706,"is_reserved":false,"is_disabled":false,"rental_uris":{"android":"levelo://app?vid=60e8e4b1-82cf-4403-9117-a8f4ee3a9f95","ios":"levelo://app?vid=60e8e4b1-82cf-4403-9117-a8f4ee3a9f95"},"vehicle_type_id":"4","last_reported":1744240160,"current_range_meters":12000,"station_id":"ce4bhnh2rcd13ifvqgtg","pricing_plan_id":"cebpf4jnsgd1na2vs0mg"},{"bike_id":"b4b93a64-d083-4ab2-bbd0-53609c602fb5","system_id":"levelo_inurba_marseille","lat":43.30919,"lon":5.40154,"is_reserved":false,"is_disabled":true,"rental_uris":{"android":"levelo://app?vid=b4b93a64-d083-4ab2-bbd0-53609c602fb5","ios":"levelo://app?vid=b4b93a64-d083-4ab2-bbd0-53609c602fb5"},"vehicle_type_id":"4","last_reported":1744240160,"current_range_meters":12000,"station_id":"ce4bgvp2rcd13ifvqct0","pricing_plan_id":"cebpf4jnsgd1na2vs0mg"},{"bike_id":"a922a004-2353-437f-a78a-cb198e3f65e7","system_id":"levelo_inurba_marseille","lat":43.28575,"lon":5.394959,"is_reserved":false,"is_disabled":false,"rental_uris":{"android":"levelo://app?vid=a922a004-2353-437f-a78a-cb198e3f65e7","ios":"levelo://app?vid=a922a004-2353-437f-a78a-cb198e3f65e7"},"vehicle_type_id":"4","last_reported":1744240160,"current_range_meters":12000,"station_id":"ce4bh292rcd13ifvqdf0","pricing_plan_id":"cebpf4jnsgd1na2vs0mg"},{"bike_id":"f2ddeead-c55a-49b3-90e5-4eec0e251056","system_id":"levelo_inurba_marseille","lat":43.317127,"lon":5.437017,"is_reserved":false,"is_disabled":false,"rental_uris":{"android":"levelo://app?vid=f2ddeead-c55a-49b3-90e5-4eec0e251056","ios":"levelo://app?vid=f2ddeead-c55a-49b3-90e5-4eec0e251056"},"vehicle_type_id":"4","last_reported":1744240160,"current_range_meters":12000,"station_id":"ce4bhp92rcd13ifvqhcg","pricing_plan_id":"cebpf4jnsgd1na2vs0mg"},{"bike_id":"15287fa4-0d2a-49a8-9787-e219bdfe2920","system_id":"levelo_inurba_marseille","lat":43.255759,"lon":5.382435,"is_reserved":false,"is_disabled":false,"rental_uris":{"android":"levelo://app?vid=15287fa4-0d2a-49a8-9787-e219bdfe2920","ios":"levelo://app?vid=15287fa4-0d2a-49a8-9787-e219bdfe2920"},"vehicle_type_id":"4","last_reported":1744240160,"current_range_meters":11600,"station_id":"ce4bhih2rcd13ifvqfs0","pricing_plan_id":"cebpf4jnsgd1na2vs0mg"},{"bike_id":"122cdde6-9512-4fc1-b3dd-8da01087c3ed","system_id":"levelo_inurba_marseille","lat":43.211905,"lon":5.350786,"is_reserved":false,"is_disabled":false,"rental_uris":{"android":"levelo://app?vid=122cdde6-9512-4fc1-b3dd-8da01087c3ed","ios":"levelo://app?vid=122cdde6-9512-4fc1-b3dd-8da01087c3ed"},"vehicle_type_id":"4","last_reported":1744240160,"current_range_meters":12000,"station_id":"","pricing_plan_id":"cebpf4jnsgd1na2vs0mg"},{"bike_id":"70b03106-5c99-49b7-aeb3-17d6bec9fc78","system_id":"levelo_inurba_marseille","lat":43.27976,"lon":5.38726,"is_reserved":false,"is_disabled":false,"rental_uris":{"android":"levelo://app?vid=70b03106-5c99-49b7-aeb3-17d6bec9fc78","ios":"levelo://app?vid=70b03106-5c99-49b7-aeb3-17d6bec9fc78"},"vehicle_type_id":"4","last_reported":1744240160,"current_range_meters":12000,"station_id":"ce4bhg12rcd13ifvqf80","pricing_plan_id":"cebpf4jnsgd1na2vs0mg"},{"bike_id":"d44ff2b9-417e-4368-bebb-1fc974db3122","system_id":"levelo_inurba_marseille","lat":43.336365,"lon":5.397514,"is_reserved":false,"is_disabled":false,"rental_uris":{"android":"levelo://app?vid=d44ff2b9-417e-4368-bebb-1fc974db3122","ios":"levelo://app?vid=d44ff2b9-417e-4368-bebb-1fc974db3122"},"vehicle_type_id":"4","last_reported":1744240160,"current_range_meters":12400,"station_id":"","pricing_plan_id":"cebpf4jnsgd1na2vs0mg"},{"bike_id":"44cea526-a614-41bc-bc90-59ff54295822","system_id":"levelo_inurba_marseille","lat":43.29038,"lon":5.39963,"is_reserved":false,"is_disabled":false,"rental_uris":{"android":"levelo://app?vid=44cea526-a614-41bc-bc90-59ff54295822","ios":"levelo://app?vid=44cea526-a614-41bc-bc90-59ff54295822"},"vehicle_type_id":"4","last_reported":1744240160,"current_range_meters":12400,"station_id":"ce4bh392rcd13ifvqdm0","pricing_plan_id":"cebpf4jnsgd1na2vs0mg"},{"bike_id":"98d8f500-736c-4251-b859-760d38c9921e","system_id":"levelo_inurba_marseille","lat":43.24172,"lon":5.3969,"is_reserved":false,"is_disabled":false,"rental_uris":{"android":"levelo://app?vid=98d8f500-736c-4251-b859-760d38c9921e","ios":"levelo://app?vid=98d8f500-736c-4251-b859-760d38c9921e"},"vehicle_type_id":"4","last_reported":1744240160,"current_range_meters":12800,"station_id":"ce4bhn12rcd13ifvqgpg","pricing_plan_id":"cebpf4jnsgd1na2vs0mg"},{"bike_id":"aeb5d532-a5df-474f-a469-24b81f00135c","system_id":"levelo_inurba_marseille","lat":43.303583,"lon":5.418748,"is_reserved":false,"is_disabled":false,"rental_uris":{"android":"levelo://app?vid=aeb5d532-a5df-474f-a469-24b81f00135c","ios":"levelo://app?vid=aeb5d532-a5df-474f-a469-24b81f00135c"},"vehicle_type_id":"4","last_reported":1744240160,"current_range_meters":12800,"station_id":"ce4bhop2rcd13ifvqh7g","pricing_plan_id":"cebpf4jnsgd1na2vs0mg"},{"bike_id":"fb3b29bf-fe06-4895-be75-065f73d8983a","system_id":"levelo_inurba_marseille","lat":43.299165,"lon":5.381431,"is_reserved":false,"is_disabled":false,"rental_uris":{"android":"levelo://app?vid=fb3b29bf-fe06-4895-be75-065f73d8983a","ios":"levelo://app?vid=fb3b29bf-fe06-4895-be75-065f73d8983a"},"vehicle_type_id":"4","last_reported":1744240160,"current_range_meters":12400,"station_id":"ce4bh9p2rcd13ifvqec0","pricing_plan_id":"cebpf4jnsgd1na2vs0mg"},{"bike_id":"359554b7-9be0-4fad-af0c-7636833d5bf1","system_id":"levelo_inurba_marseille","lat":43.27604,"lon":5.3612,"is_reserved":false,"is_disabled":false,"rental_uris":{"android":"levelo://app?vid=359554b7-9be0-4fad-af0c-7636833d5bf1","ios":"levelo://app?vid=359554b7-9be0-4fad-af0c-7636833d5bf1"},"vehicle_type_id":"4","last_reported":1744240160,"current_range_meters":12800,"station_id":"ce4bgj92rcd13ifvqbe0","pricing_plan_id":"cebpf4jnsgd1na2vs0mg"},{"bike_id":"8ab6dcfc-9a38-4d9a-b92d-93ebc3289f5f","system_id":"levelo_inurba_marseille","lat":43.260681,"lon":5.393895,"is_reserved":false,"is_disabled":true,"rental_uris":{"android":"levelo://app?vid=8ab6dcfc-9a38-4d9a-b92d-93ebc3289f5f","ios":"levelo://app?vid=8ab6dcfc-9a38-4d9a-b92d-93ebc3289f5f"},"vehicle_type_id":"4","last_reported":1744240160,"current_range_meters":12800,"station_id":"ce4bhh92rcd13ifvqfj0","pricing_plan_id":"cebpf4jnsgd1na2vs0mg"},{"bike_id":"414ede67-eac2-425c-a4ce-c004dccc09ee","system_id":"levelo_inurba_marseille","lat":43.32357,"lon":5.40591,"is_reserved":false,"is_disabled":false,"rental_uris":{"android":"levelo://app?vid=414ede67-eac2-425c-a4ce-c004dccc09ee","ios":"levelo://app?vid=414ede67-eac2-425c-a4ce-c004dccc09ee"},"vehicle_type_id":"4","last_reported":1744240160,"current_range_meters":12800,"station_id":"ce4bhq92rcd13ifvqhjg","pricing_plan_id":"cebpf4jnsgd1na2vs0mg"},{"bike_id":"b7051e28-1c11-488e-b9b9-e85881346c71","system_id":"levelo_inurba_marseille","lat":43.30438,"lon":5.38888,"is_reserved":false,"is_disabled":false,"rental_uris":{"android":"levelo://app?vid=b7051e28-1c11-488e-b9b9-e85881346c71","ios":"levelo://app?vid=b7051e28-1c11-488e-b9b9-e85881346c71"},"vehicle_type_id":"4","last_reported":1744240160,"current_range_meters":12800,"station_id":"ce4bgk12rcd13ifvqbi0","pricing_plan_id":"cebpf4jnsgd1na2vs0mg"},{"bike_id":"ae7f5023-ae11-420f-985c-1ea539511dfd","system_id":"levelo_inurba_marseille","lat":43.30353,"lon":5.41878,"is_reserved":false,"is_disabled":false,"rental_uris":{"android":"levelo://app?vid=ae7f5023-ae11-420f-985c-1ea539511dfd","ios":"levelo://app?vid=ae7f5023-ae11-420f-985c-1ea539511dfd"},"vehicle_type_id":"4","last_reported":1744240160,"current_range_meters":12800,"station_id":"ce4bhop2rcd13ifvqh7g","pricing_plan_id":"cebpf4jnsgd1na2vs0mg"},{"bike_id":"9a4ad9f3-6572-4bbd-bf10-fffb6380c165","system_id":"levelo_inurba_marseille","lat":43.24672,"lon":5.38163,"is_reserved":false,"is_disabled":false,"rental_uris":{"android":"levelo://app?vid=9a4ad9f3-6572-4bbd-bf10-fffb6380c165","ios":"levelo://app?vid=9a4ad9f3-6572-4bbd-bf10-fffb6380c165"},"vehicle_type_id":"4","last_reported":1744240160,"current_range_meters":12800,"station_id":"ce4bhih2rcd13ifvqfr0","pricing_plan_id":"cebpf4jnsgd1na2vs0mg"},{"bike_id":"5a0fa541-6fc2-4ae1-99ec-a2e2ec69a941","system_id":"levelo_inurba_marseille","lat":43.33024,"lon":5.43861,"is_reserved":false,"is_disabled":false,"rental_uris":{"android":"levelo://app?vid=5a0fa541-6fc2-4ae1-99ec-a2e2ec69a941","ios":"levelo://app?vid=5a0fa541-6fc2-4ae1-99ec-a2e2ec69a941"},"vehicle_type_id":"4","last_reported":1744240160,"current_range_meters":13600,"station_id":"","pricing_plan_id":"cebpf4jnsgd1na2vs0mg"},{"bike_id":"4d2b5cd5-2c6c-4905-b4b8-8faa5aae631b","system_id":"levelo_inurba_marseille","lat":43.33142,"lon":5.39356,"is_reserved":false,"is_disabled":false,"rental_uris":{"android":"levelo://app?vid=4d2b5cd5-2c6c-4905-b4b8-8faa5aae631b","ios":"levelo://app?vid=4d2b5cd5-2c6c-4905-b4b8-8faa5aae631b"},"vehicle_type_id":"4","last_reported":1744240160,"current_range_meters":13600,"station_id":"","pricing_plan_id":"cebpf4jnsgd1na2vs0mg"},{"bike_id":"cc29b15f-44c2-432a-b8c5-44e366421085","system_id":"levelo_inurba_marseille","lat":43.32297,"lon":5.38602,"is_reserved":false,"is_disabled":false,"rental_uris":{"android":"levelo://app?vid=cc29b15f-44c2-432a-b8c5-44e366421085","ios":"levelo://app?vid=cc29b15f-44c2-432a-b8c5-44e366421085"},"vehicle_type_id":"4","last_reported":1744240160,"current_range_meters":13600,"station_id":"","pricing_plan_id":"cebpf4jnsgd1na2vs0mg"},{"bike_id":"c0ffd1ba-d086-4370-a000-5d77e17fbfc6","system_id":"levelo_inurba_marseille","lat":43.28715,"lon":5.36087,"is_reserved":false,"is_disabled":false,"rental_uris":{"android":"levelo://app?vid=c0ffd1ba-d086-4370-a000-5d77e17fbfc6","ios":"levelo://app?vid=c0ffd1ba-d086-4370-a000-5d77e17fbfc6"},"vehicle_type_id":"4","last_reported":1744240160,"current_range_meters":13600,"station_id":"cki0cbj6b192h4jlfktg","pricing_plan_id":"cebpf4jnsgd1na2vs0mg"},{"bike_id":"e6b27e51-7a6f-4c87-9cdb-e0dbaf392783","system_id":"levelo_inurba_marseille","lat":43.30977,"lon":5.39657,"is_reserved":false,"is_disabled":false,"rental_uris":{"android":"levelo://app?vid=e6b27e51-7a6f-4c87-9cdb-e0dbaf392783","ios":"levelo://app?vid=e6b27e51-7a6f-4c87-9cdb-e0dbaf392783"},"vehicle_type_id":"4","last_reported":1744240160,"current_range_meters":13600,"station_id":"","pricing_plan_id":"cebpf4jnsgd1na2vs0mg"},{"bike_id":"8d708f6d-df7e-4b8c-9703-c7e737ed86bd","system_id":"levelo_inurba_marseille","lat":43.29564,"lon":5.39979,"is_reserved":false,"is_disabled":false,"rental_uris":{"android":"levelo://app?vid=8d708f6d-df7e-4b8c-9703-c7e737ed86bd","ios":"levelo://app?vid=8d708f6d-df7e-4b8c-9703-c7e737ed86bd"},"vehicle_type_id":"4","last_reported":1744240160,"current_range_meters":13600,"station_id":"ce4bh312rcd13ifvqdj0","pricing_plan_id":"cebpf4jnsgd1na2vs0mg"},{"bike_id":"3ce3d920-dde9-4fd8-b282-79c836620424","system_id":"levelo_inurba_marseille","lat":43.28171,"lon":5.4262,"is_reserved":false,"is_disabled":false,"rental_uris":{"android":"levelo://app?vid=3ce3d920-dde9-4fd8-b282-79c836620424","ios":"levelo://app?vid=3ce3d920-dde9-4fd8-b282-79c836620424"},"vehicle_type_id":"4","last_reported":1744240160,"current_range_meters":13600,"station_id":"ce4bhnh2rcd13ifvqgug","pricing_plan_id":"cebpf4jnsgd1na2vs0mg"},{"bike_id":"a18ac900-59de-4b74-9131-b1a2764dbc18","system_id":"levelo_inurba_marseille","lat":43.28068,"lon":5.39627,"is_reserved":false,"is_disabled":false,"rental_uris":{"android":"levelo://app?vid=a18ac900-59de-4b74-9131-b1a2764dbc18","ios":"levelo://app?vid=a18ac900-59de-4b74-9131-b1a2764dbc18"},"vehicle_type_id":"4","last_reported":1744240160,"current_range_meters":13600,"station_id":"ce4bho12rcd13ifvqh2g","pricing_plan_id":"cebpf4jnsgd1na2vs0mg"},{"bike_id":"e1ffd054-020d-4588-a350-d64605b6e1ba","system_id":"levelo_inurba_marseille","lat":43.31191,"lon":5.38723,"is_reserved":false,"is_disabled":false,"rental_uris":{"android":"levelo://app?vid=e1ffd054-020d-4588-a350-d64605b6e1ba","ios":"levelo://app?vid=e1ffd054-020d-4588-a350-d64605b6e1ba"},"vehicle_type_id":"4","last_reported":1744240160,"current_range_meters":13600,"station_id":"ce4bgv12rcd13ifvqcp0","pricing_plan_id":"cebpf4jnsgd1na2vs0mg"},{"bike_id":"5829cd0d-c17e-4de3-b63f-9cd151926e69","system_id":"levelo_inurba_marseille","lat":43.29592,"lon":5.36744,"is_reserved":false,"is_disabled":true,"rental_uris":{"android":"levelo://app?vid=5829cd0d-c17e-4de3-b63f-9cd151926e69","ios":"levelo://app?vid=5829cd0d-c17e-4de3-b63f-9cd151926e69"},"vehicle_type_id":"4","last_reported":1744240160,"current_range_meters":13600,"station_id":"ce4bgph2rcd13ifvqc2g","pricing_plan_id":"cebpf4jnsgd1na2vs0mg"},{"bike_id":"12e9a811-6973-4c16-b3bc-e69c3717a772","system_id":"levelo_inurba_marseille","lat":43.28934,"lon":5.36428,"is_reserved":false,"is_disabled":false,"rental_uris":{"android":"levelo://app?vid=12e9a811-6973-4c16-b3bc-e69c3717a772","ios":"levelo://app?vid=12e9a811-6973-4c16-b3bc-e69c3717a772"},"vehicle_type_id":"4","last_reported":1744240160,"current_range_meters":14000,"station_id":"ce4bhc92rcd13ifvqetg","pricing_plan_id":"cebpf4jnsgd1na2vs0mg"},{"bike_id":"ba5b2267-01ae-4ff2-9af2-8f2cfd3174e7","system_id":"levelo_inurba_marseille","lat":43.28666,"lon":5.36356,"is_reserved":false,"is_disabled":false,"rental_uris":{"android":"levelo://app?vid=ba5b2267-01ae-4ff2-9af2-8f2cfd3174e7","ios":"levelo://app?vid=ba5b2267-01ae-4ff2-9af2-8f2cfd3174e7"},"vehicle_type_id":"4","last_reported":1744240160,"current_range_meters":14000,"station_id":"ce4bhah2rcd13ifvqej0","pricing_plan_id":"cebpf4jnsgd1na2vs0mg"},{"bike_id":"6ea13098-fa17-4d72-9a98-dc3e83f8f184","system_id":"levelo_inurba_marseille","lat":43.30891,"lon":5.39641,"is_reserved":false,"is_disabled":false,"rental_uris":{"android":"levelo://app?vid=6ea13098-fa17-4d72-9a98-dc3e83f8f184","ios":"levelo://app?vid=6ea13098-fa17-4d72-9a98-dc3e83f8f184"},"vehicle_type_id":"4","last_reported":1744240160,"current_range_meters":14000,"station_id":"ce4bh012rcd13ifvqcv0","pricing_plan_id":"cebpf4jnsgd1na2vs0mg"},{"bike_id":"d87cc5c4-1c8e-421b-a351-02b810df9ea3","system_id":"levelo_inurba_marseille","lat":43.25824,"lon":5.39432,"is_reserved":false,"is_disabled":false,"rental_uris":{"android":"levelo://app?vid=d87cc5c4-1c8e-421b-a351-02b810df9ea3","ios":"levelo://app?vid=d87cc5c4-1c8e-421b-a351-02b810df9ea3"},"vehicle_type_id":"4","last_reported":1744240160,"current_range_meters":14400,"station_id":"ce4bhip2rcd13ifvqft0","pricing_plan_id":"cebpf4jnsgd1na2vs0mg"},{"bike_id":"42c1fdc6-38af-4ea1-a910-702e15d5a9b4","system_id":"levelo_inurba_marseille","lat":43.309256,"lon":5.401579,"is_reserved":false,"is_disabled":true,"rental_uris":{"android":"levelo://app?vid=42c1fdc6-38af-4ea1-a910-702e15d5a9b4","ios":"levelo://app?vid=42c1fdc6-38af-4ea1-a910-702e15d5a9b4"},"vehicle_type_id":"4","last_reported":1744240160,"current_range_meters":14400,"station_id":"ce4bgvp2rcd13ifvqct0","pricing_plan_id":"cebpf4jnsgd1na2vs0mg"},{"bike_id":"07cc1acb-30f9-4921-80a8-59527275e1ae","system_id":"levelo_inurba_marseille","lat":43.28105,"lon":5.37837,"is_reserved":false,"is_disabled":false,"rental_uris":{"android":"levelo://app?vid=07cc1acb-30f9-4921-80a8-59527275e1ae","ios":"levelo://app?vid=07cc1acb-30f9-4921-80a8-59527275e1ae"},"vehicle_type_id":"4","last_reported":1744240160,"current_range_meters":14400,"station_id":"ce4bha12rcd13ifvqee0","pricing_plan_id":"cebpf4jnsgd1na2vs0mg"},{"bike_id":"5d14c852-7d39-4daa-9337-9b008497a52a","system_id":"levelo_inurba_marseille","lat":43.29421,"lon":5.38616,"is_reserved":false,"is_disabled":true,"rental_uris":{"android":"levelo://app?vid=5d14c852-7d39-4daa-9337-9b008497a52a","ios":"levelo://app?vid=5d14c852-7d39-4daa-9337-9b008497a52a"},"vehicle_type_id":"4","last_reported":1744240160,"current_range_meters":14800,"station_id":"ce4bh2h2rcd13ifvqdh0","pricing_plan_id":"cebpf4jnsgd1na2vs0mg"},{"bike_id":"8bb7c20e-adad-477d-b0bf-f2af07cf296c","system_id":"levelo_inurba_marseille","lat":43.312501,"lon":5.377898,"is_reserved":false,"is_disabled":false,"rental_uris":{"android":"levelo://app?vid=8bb7c20e-adad-477d-b0bf-f2af07cf296c","ios":"levelo://app?vid=8bb7c20e-adad-477d-b0bf-f2af07cf296c"},"vehicle_type_id":"4","last_reported":1744240160,"current_range_meters":14800,"station_id":"","pricing_plan_id":"cebpf4jnsgd1na2vs0mg"},{"bike_id":"5fb7c417-bf5d-4451-874a-0354d5f8c51d","system_id":"levelo_inurba_marseille","lat":43.28454,"lon":5.39214,"is_reserved":false,"is_disabled":false,"rental_uris":{"android":"levelo://app?vid=5fb7c417-bf5d-4451-874a-0354d5f8c51d","ios":"levelo://app?vid=5fb7c417-bf5d-4451-874a-0354d5f8c51d"},"vehicle_type_id":"4","last_reported":1744240160,"current_range_meters":14800,"station_id":"ce4bhoh2rcd13ifvqh5g","pricing_plan_id":"cebpf4jnsgd1na2vs0mg"},{"bike_id":"8ef273ac-c689-4f24-a851-468efa4e0854","system_id":"levelo_inurba_marseille","lat":43.29028,"lon":5.36816,"is_reserved":false,"is_disabled":false,"rental_uris":{"android":"levelo://app?vid=8ef273ac-c689-4f24-a851-468efa4e0854","ios":"levelo://app?vid=8ef273ac-c689-4f24-a851-468efa4e0854"},"vehicle_type_id":"4","last_reported":1744240160,"current_range_meters":14800,"station_id":"","pricing_plan_id":"cebpf4jnsgd1na2vs0mg"},{"bike_id":"9b82f406-39b0-4553-bbda-77cf3b0d0d86","system_id":"levelo_inurba_marseille","lat":43.27938,"lon":5.41032,"is_reserved":false,"is_disabled":false,"rental_uris":{"android":"levelo://app?vid=9b82f406-39b0-4553-bbda-77cf3b0d0d86","ios":"levelo://app?vid=9b82f406-39b0-4553-bbda-77cf3b0d0d86"},"vehicle_type_id":"4","last_reported":1744240160,"current_range_meters":14800,"station_id":"ce4bhnp2rcd13ifvqh0g","pricing_plan_id":"cebpf4jnsgd1na2vs0mg"},{"bike_id":"7ac5e4e4-1c47-42cd-ac75-de36908cb4da","system_id":"levelo_inurba_marseille","lat":43.2316,"lon":5.43713,"is_reserved":false,"is_disabled":false,"rental_uris":{"android":"levelo://app?vid=7ac5e4e4-1c47-42cd-ac75-de36908cb4da","ios":"levelo://app?vid=7ac5e4e4-1c47-42cd-ac75-de36908cb4da"},"vehicle_type_id":"4","last_reported":1744240160,"current_range_meters":15200,"station_id":"ce4bhmp2rcd13ifvqgog","pricing_plan_id":"cebpf4jnsgd1na2vs0mg"},{"bike_id":"c2209f18-97a1-40e7-8cbf-36bb7ebb189d","system_id":"levelo_inurba_marseille","lat":43.287208,"lon":5.36085,"is_reserved":false,"is_disabled":false,"rental_uris":{"android":"levelo://app?vid=c2209f18-97a1-40e7-8cbf-36bb7ebb189d","ios":"levelo://app?vid=c2209f18-97a1-40e7-8cbf-36bb7ebb189d"},"vehicle_type_id":"4","last_reported":1744240160,"current_range_meters":15200,"station_id":"cki0cbj6b192h4jlfktg","pricing_plan_id":"cebpf4jnsgd1na2vs0mg"},{"bike_id":"42ad74d9-2479-44b8-8b31-2f58dbbdf817","system_id":"levelo_inurba_marseille","lat":43.2963,"lon":5.40595,"is_reserved":false,"is_disabled":false,"rental_uris":{"android":"levelo://app?vid=42ad74d9-2479-44b8-8b31-2f58dbbdf817","ios":"levelo://app?vid=42ad74d9-2479-44b8-8b31-2f58dbbdf817"},"vehicle_type_id":"4","last_reported":1744240160,"current_range_meters":15200,"station_id":"ce4bh0h2rcd13ifvqd60","pricing_plan_id":"cebpf4jnsgd1na2vs0mg"},{"bike_id":"eb8c36a9-afac-4779-8fc5-b186cf531e1e","system_id":"levelo_inurba_marseille","lat":43.29521,"lon":5.39388,"is_reserved":false,"is_disabled":false,"rental_uris":{"android":"levelo://app?vid=eb8c36a9-afac-4779-8fc5-b186cf531e1e","ios":"levelo://app?vid=eb8c36a9-afac-4779-8fc5-b186cf531e1e"},"vehicle_type_id":"4","last_reported":1744240160,"current_range_meters":15200,"station_id":"ce4bh292rcd13ifvqdf0","pricing_plan_id":"cebpf4jnsgd1na2vs0mg"},{"bike_id":"1a3cd0ab-ec77-41b3-982c-74e5093499a8","system_id":"levelo_inurba_marseille","lat":43.30455,"lon":5.38896,"is_reserved":false,"is_disabled":true,"rental_uris":{"android":"levelo://app?vid=1a3cd0ab-ec77-41b3-982c-74e5093499a8","ios":"levelo://app?vid=1a3cd0ab-ec77-41b3-982c-74e5093499a8"},"vehicle_type_id":"4","last_reported":1744240160,"current_range_meters":15200,"station_id":"ce4bgk12rcd13ifvqbi0","pricing_plan_id":"cebpf4jnsgd1na2vs0mg"},{"bike_id":"ae1832e1-7b93-4e1d-88b5-eda451936766","system_id":"levelo_inurba_marseille","lat":43.29277,"lon":5.40113,"is_reserved":false,"is_disabled":false,"rental_uris":{"android":"levelo://app?vid=ae1832e1-7b93-4e1d-88b5-eda451936766","ios":"levelo://app?vid=ae1832e1-7b93-4e1d-88b5-eda451936766"},"vehicle_type_id":"4","last_reported":1744240160,"current_range_meters":15200,"station_id":"ce4bh312rcd13ifvqdk0","pricing_plan_id":"cebpf4jnsgd1na2vs0mg"},{"bike_id":"5b330a5a-9ad5-4c84-bd4a-392268a14414","system_id":"levelo_inurba_marseille","lat":43.28937,"lon":5.36419,"is_reserved":false,"is_disabled":false,"rental_uris":{"android":"levelo://app?vid=5b330a5a-9ad5-4c84-bd4a-392268a14414","ios":"levelo://app?vid=5b330a5a-9ad5-4c84-bd4a-392268a14414"},"vehicle_type_id":"4","last_reported":1744240160,"current_range_meters":16000,"station_id":"ce4bhc92rcd13ifvqetg","pricing_plan_id":"cebpf4jnsgd1na2vs0mg"},{"bike_id":"f9fde33d-3e05-4f24-9670-2ad2d1cacdc1","system_id":"levelo_inurba_marseille","lat":43.28825,"lon":5.37264,"is_reserved":false,"is_disabled":false,"rental_uris":{"android":"levelo://app?vid=f9fde33d-3e05-4f24-9670-2ad2d1cacdc1","ios":"levelo://app?vid=f9fde33d-3e05-4f24-9670-2ad2d1cacdc1"},"vehicle_type_id":"4","last_reported":1744240160,"current_range_meters":15200,"station_id":"","pricing_plan_id":"cebpf4jnsgd1na2vs0mg"},{"bike_id":"066918e9-658d-41fb-94df-83bd20a02c25","system_id":"levelo_inurba_marseille","lat":43.23051,"lon":5.35494,"is_reserved":false,"is_disabled":true,"rental_uris":{"android":"levelo://app?vid=066918e9-658d-41fb-94df-83bd20a02c25","ios":"levelo://app?vid=066918e9-658d-41fb-94df-83bd20a02c25"},"vehicle_type_id":"4","last_reported":1744240160,"current_range_meters":16000,"station_id":"cpo3342slgdg3j2ifvpg","pricing_plan_id":"cebpf4jnsgd1na2vs0mg"},{"bike_id":"ae158248-d8c1-42a9-9466-b356e48cc0e3","system_id":"levelo_inurba_marseille","lat":43.30805,"lon":5.38144,"is_reserved":false,"is_disabled":false,"rental_uris":{"android":"levelo://app?vid=ae158248-d8c1-42a9-9466-b356e48cc0e3","ios":"levelo://app?vid=ae158248-d8c1-42a9-9466-b356e48cc0e3"},"vehicle_type_id":"4","last_reported":1744240160,"current_range_meters":16000,"station_id":"ce4bgt12rcd13ifvqce0","pricing_plan_id":"cebpf4jnsgd1na2vs0mg"},{"bike_id":"934d286e-1a7a-4e88-8688-5048b50c70aa","system_id":"levelo_inurba_marseille","lat":43.27838,"lon":5.39206,"is_reserved":false,"is_disabled":false,"rental_uris":{"android":"levelo://app?vid=934d286e-1a7a-4e88-8688-5048b50c70aa","ios":"levelo://app?vid=934d286e-1a7a-4e88-8688-5048b50c70aa"},"vehicle_type_id":"4","last_reported":1744240160,"current_range_meters":16000,"station_id":"ce4bhjp2rcd13ifvqga0","pricing_plan_id":"cebpf4jnsgd1na2vs0mg"},{"bike_id":"192245d1-93e6-4270-b430-c855513cb15b","system_id":"levelo_inurba_marseille","lat":43.28378,"lon":5.38634,"is_reserved":false,"is_disabled":false,"rental_uris":{"android":"levelo://app?vid=192245d1-93e6-4270-b430-c855513cb15b","ios":"levelo://app?vid=192245d1-93e6-4270-b430-c855513cb15b"},"vehicle_type_id":"4","last_reported":1744240160,"current_range_meters":16000,"station_id":"ce4bh492rcd13ifvqdvg","pricing_plan_id":"cebpf4jnsgd1na2vs0mg"},{"bike_id":"5047455d-c97a-4875-9440-a0dd56a0356d","system_id":"levelo_inurba_marseille","lat":43.3236,"lon":5.36716,"is_reserved":false,"is_disabled":false,"rental_uris":{"android":"levelo://app?vid=5047455d-c97a-4875-9440-a0dd56a0356d","ios":"levelo://app?vid=5047455d-c97a-4875-9440-a0dd56a0356d"},"vehicle_type_id":"4","last_reported":1744240160,"current_range_meters":16000,"station_id":"ce4bhsh2rcd13ifvqi2g","pricing_plan_id":"cebpf4jnsgd1na2vs0mg"},{"bike_id":"592bed2c-a4f8-4346-b2a9-f06bb14a3321","system_id":"levelo_inurba_marseille","lat":43.31309,"lon":5.39718,"is_reserved":false,"is_disabled":false,"rental_uris":{"android":"levelo://app?vid=592bed2c-a4f8-4346-b2a9-f06bb14a3321","ios":"levelo://app?vid=592bed2c-a4f8-4346-b2a9-f06bb14a3321"},"vehicle_type_id":"4","last_reported":1744240160,"current_range_meters":16400,"station_id":"ce4bgvp2rcd13ifvqcu0","pricing_plan_id":"cebpf4jnsgd1na2vs0mg"},{"bike_id":"47e374ae-a561-4737-901c-f41db5e10158","system_id":"levelo_inurba_marseille","lat":43.31527,"lon":5.38023,"is_reserved":false,"is_disabled":false,"rental_uris":{"android":"levelo://app?vid=47e374ae-a561-4737-901c-f41db5e10158","ios":"levelo://app?vid=47e374ae-a561-4737-901c-f41db5e10158"},"vehicle_type_id":"4","last_reported":1744240160,"current_range_meters":16400,"station_id":"ce4bhsp2rcd13ifvqi50","pricing_plan_id":"cebpf4jnsgd1na2vs0mg"},{"bike_id":"58a06d5c-23f8-466b-a88d-449307d0c901","system_id":"levelo_inurba_marseille","lat":43.31469,"lon":5.36891,"is_reserved":false,"is_disabled":false,"rental_uris":{"android":"levelo://app?vid=58a06d5c-23f8-466b-a88d-449307d0c901","ios":"levelo://app?vid=58a06d5c-23f8-466b-a88d-449307d0c901"},"vehicle_type_id":"4","last_reported":1744240160,"current_range_meters":16400,"station_id":"","pricing_plan_id":"cebpf4jnsgd1na2vs0mg"},{"bike_id":"d5271ad9-da96-4b25-a877-fbc78197d97e","system_id":"levelo_inurba_marseille","lat":43.31168,"lon":5.3872,"is_reserved":false,"is_disabled":false,"rental_uris":{"android":"levelo://app?vid=d5271ad9-da96-4b25-a877-fbc78197d97e","ios":"levelo://app?vid=d5271ad9-da96-4b25-a877-fbc78197d97e"},"vehicle_type_id":"4","last_reported":1744240160,"current_range_meters":16400,"station_id":"ce4bgv12rcd13ifvqcp0","pricing_plan_id":"cebpf4jnsgd1na2vs0mg"},{"bike_id":"e7bed98f-2a9e-4c45-aee8-8ae9fa6eeef1","system_id":"levelo_inurba_marseille","lat":43.29523,"lon":5.3941,"is_reserved":false,"is_disabled":false,"rental_uris":{"android":"levelo://app?vid=e7bed98f-2a9e-4c45-aee8-8ae9fa6eeef1","ios":"levelo://app?vid=e7bed98f-2a9e-4c45-aee8-8ae9fa6eeef1"},"vehicle_type_id":"4","last_reported":1744240160,"current_range_meters":16400,"station_id":"ce4bh292rcd13ifvqdf0","pricing_plan_id":"cebpf4jnsgd1na2vs0mg"},{"bike_id":"e3c3a051-8134-4ed3-913b-374aa217874c","system_id":"levelo_inurba_marseille","lat":43.2559,"lon":5.40455,"is_reserved":false,"is_disabled":false,"rental_uris":{"android":"levelo://app?vid=e3c3a051-8134-4ed3-913b-374aa217874c","ios":"levelo://app?vid=e3c3a051-8134-4ed3-913b-374aa217874c"},"vehicle_type_id":"4","last_reported":1744240160,"current_range_meters":16800,"station_id":"","pricing_plan_id":"cebpf4jnsgd1na2vs0mg"},{"bike_id":"1208f44a-1901-4bd0-937a-66980a65c41c","system_id":"levelo_inurba_marseille","lat":43.30653,"lon":5.4009,"is_reserved":false,"is_disabled":false,"rental_uris":{"android":"levelo://app?vid=1208f44a-1901-4bd0-937a-66980a65c41c","ios":"levelo://app?vid=1208f44a-1901-4bd0-937a-66980a65c41c"},"vehicle_type_id":"4","last_reported":1744240160,"current_range_meters":16800,"station_id":"ce4bh112rcd13ifvqda0","pricing_plan_id":"cebpf4jnsgd1na2vs0mg"},{"bike_id":"94dd9459-42c8-4b57-a4ac-e309f448cd0c","system_id":"levelo_inurba_marseille","lat":43.2838,"lon":5.38634,"is_reserved":false,"is_disabled":false,"rental_uris":{"android":"levelo://app?vid=94dd9459-42c8-4b57-a4ac-e309f448cd0c","ios":"levelo://app?vid=94dd9459-42c8-4b57-a4ac-e309f448cd0c"},"vehicle_type_id":"4","last_reported":1744240160,"current_range_meters":16800,"station_id":"ce4bh492rcd13ifvqdvg","pricing_plan_id":"cebpf4jnsgd1na2vs0mg"},{"bike_id":"e305259c-6e8b-4c30-bb3e-d31643eeb2cc","system_id":"levelo_inurba_marseille","lat":43.29269,"lon":5.40134,"is_reserved":false,"is_disabled":false,"rental_uris":{"android":"levelo://app?vid=e305259c-6e8b-4c30-bb3e-d31643eeb2cc","ios":"levelo://app?vid=e305259c-6e8b-4c30-bb3e-d31643eeb2cc"},"vehicle_type_id":"4","last_reported":1744240160,"current_range_meters":16800,"station_id":"ce4bh312rcd13ifvqdk0","pricing_plan_id":"cebpf4jnsgd1na2vs0mg"},{"bike_id":"5d7db4b2-25bb-442b-b054-c3f9e9515910","system_id":"levelo_inurba_marseille","lat":43.30319,"lon":5.40437,"is_reserved":false,"is_disabled":false,"rental_uris":{"android":"levelo://app?vid=5d7db4b2-25bb-442b-b054-c3f9e9515910","ios":"levelo://app?vid=5d7db4b2-25bb-442b-b054-c3f9e9515910"},"vehicle_type_id":"4","last_reported":1744240160,"current_range_meters":16800,"station_id":"ce4bh012rcd13ifvqd10","pricing_plan_id":"cebpf4jnsgd1na2vs0mg"},{"bike_id":"d1f92f28-9609-4256-bd4a-880c7b09d4e8","system_id":"levelo_inurba_marseille","lat":43.2933,"lon":5.41169,"is_reserved":false,"is_disabled":false,"rental_uris":{"android":"levelo://app?vid=d1f92f28-9609-4256-bd4a-880c7b09d4e8","ios":"levelo://app?vid=d1f92f28-9609-4256-bd4a-880c7b09d4e8"},"vehicle_type_id":"4","last_reported":1744240160,"current_range_meters":16800,"station_id":"","pricing_plan_id":"cebpf4jnsgd1na2vs0mg"},{"bike_id":"aca4a431-5366-4c84-b3b7-8d3167681cd1","system_id":"levelo_inurba_marseille","lat":43.30183,"lon":5.36612,"is_reserved":false,"is_disabled":false,"rental_uris":{"android":"levelo://app?vid=aca4a431-5366-4c84-b3b7-8d3167681cd1","ios":"levelo://app?vid=aca4a431-5366-4c84-b3b7-8d3167681cd1"},"vehicle_type_id":"4","last_reported":1744240160,"current_range_meters":16800,"station_id":"ce4bgrh2rcd13ifvqc8g","pricing_plan_id":"cebpf4jnsgd1na2vs0mg"},{"bike_id":"41450272-6e87-44ce-8831-dc714361d2ba","system_id":"levelo_inurba_marseille","lat":43.29907,"lon":5.38153,"is_reserved":false,"is_disabled":false,"rental_uris":{"android":"levelo://app?vid=41450272-6e87-44ce-8831-dc714361d2ba","ios":"levelo://app?vid=41450272-6e87-44ce-8831-dc714361d2ba"},"vehicle_type_id":"4","last_reported":1744240160,"current_range_meters":16800,"station_id":"ce4bgj12rcd13ifvqbc0","pricing_plan_id":"cebpf4jnsgd1na2vs0mg"},{"bike_id":"db5be933-c7e5-4a29-9c34-77d17a0fe362","system_id":"levelo_inurba_marseille","lat":43.30428,"lon":5.38877,"is_reserved":false,"is_disabled":false,"rental_uris":{"android":"levelo://app?vid=db5be933-c7e5-4a29-9c34-77d17a0fe362","ios":"levelo://app?vid=db5be933-c7e5-4a29-9c34-77d17a0fe362"},"vehicle_type_id":"4","last_reported":1744240160,"current_range_meters":16800,"station_id":"ce4bgk12rcd13ifvqbi0","pricing_plan_id":"cebpf4jnsgd1na2vs0mg"},{"bike_id":"15f502ba-6dbd-4920-9148-eb3c8881b1ee","system_id":"levelo_inurba_marseille","lat":43.2847,"lon":5.38411,"is_reserved":false,"is_disabled":false,"rental_uris":{"android":"levelo://app?vid=15f502ba-6dbd-4920-9148-eb3c8881b1ee","ios":"levelo://app?vid=15f502ba-6dbd-4920-9148-eb3c8881b1ee"},"vehicle_type_id":"4","last_reported":1744240160,"current_range_meters":17200,"station_id":"ce4bh512rcd13ifvqe3g","pricing_plan_id":"cebpf4jnsgd1na2vs0mg"},{"bike_id":"36b8f8d2-b677-4569-b292-4d4050722963","system_id":"levelo_inurba_marseille","lat":43.25767,"lon":5.41088,"is_reserved":false,"is_disabled":false,"rental_uris":{"android":"levelo://app?vid=36b8f8d2-b677-4569-b292-4d4050722963","ios":"levelo://app?vid=36b8f8d2-b677-4569-b292-4d4050722963"},"vehicle_type_id":"4","last_reported":1744240160,"current_range_meters":16800,"station_id":"ce4bhkp2rcd13ifvqgd0","pricing_plan_id":"cebpf4jnsgd1na2vs0mg"},{"bike_id":"bddcf046-3c0e-4a5e-b527-8096b2ab72f1","system_id":"levelo_inurba_marseille","lat":43.29877,"lon":5.39729,"is_reserved":false,"is_disabled":false,"rental_uris":{"android":"levelo://app?vid=bddcf046-3c0e-4a5e-b527-8096b2ab72f1","ios":"levelo://app?vid=bddcf046-3c0e-4a5e-b527-8096b2ab72f1"},"vehicle_type_id":"4","last_reported":1744240160,"current_range_meters":17200,"station_id":"ce4bh0h2rcd13ifvqd50","pricing_plan_id":"cebpf4jnsgd1na2vs0mg"},{"bike_id":"640b6901-af87-4cbb-84ba-cf000e7c8d63","system_id":"levelo_inurba_marseille","lat":43.26494,"lon":5.39559,"is_reserved":false,"is_disabled":true,"rental_uris":{"android":"levelo://app?vid=640b6901-af87-4cbb-84ba-cf000e7c8d63","ios":"levelo://app?vid=640b6901-af87-4cbb-84ba-cf000e7c8d63"},"vehicle_type_id":"4","last_reported":1744240160,"current_range_meters":17200,"station_id":"ce4bhi12rcd13ifvqfq0","pricing_plan_id":"cebpf4jnsgd1na2vs0mg"},{"bike_id":"19e57953-6d0c-43b9-ae97-3bf79908d670","system_id":"levelo_inurba_marseille","lat":43.272049,"lon":5.391888,"is_reserved":false,"is_disabled":true,"rental_uris":{"android":"levelo://app?vid=19e57953-6d0c-43b9-ae97-3bf79908d670","ios":"levelo://app?vid=19e57953-6d0c-43b9-ae97-3bf79908d670"},"vehicle_type_id":"4","last_reported":1744240160,"current_range_meters":17200,"station_id":"ce4bhhp2rcd13ifvqfm0","pricing_plan_id":"cebpf4jnsgd1na2vs0mg"},{"bike_id":"8fc75a06-b383-4356-9ce0-507c4c1bc08f","system_id":"levelo_inurba_marseille","lat":43.2707,"lon":5.42282,"is_reserved":false,"is_disabled":false,"rental_uris":{"android":"levelo://app?vid=8fc75a06-b383-4356-9ce0-507c4c1bc08f","ios":"levelo://app?vid=8fc75a06-b383-4356-9ce0-507c4c1bc08f"},"vehicle_type_id":"4","last_reported":1744240160,"current_range_meters":17200,"station_id":"ce4bhk92rcd13ifvqgb0","pricing_plan_id":"cebpf4jnsgd1na2vs0mg"},{"bike_id":"073955c6-6f8e-4d79-bdbc-3802d168fcc3","system_id":"levelo_inurba_marseille","lat":43.24176,"lon":5.36391,"is_reserved":false,"is_disabled":false,"rental_uris":{"android":"levelo://app?vid=073955c6-6f8e-4d79-bdbc-3802d168fcc3","ios":"levelo://app?vid=073955c6-6f8e-4d79-bdbc-3802d168fcc3"},"vehicle_type_id":"4","last_reported":1744240160,"current_range_meters":17200,"station_id":"cpo36qri1sfpv3e86is0","pricing_plan_id":"cebpf4jnsgd1na2vs0mg"},{"bike_id":"39d569f2-804d-4c1f-93cb-ffdd8bba0563","system_id":"levelo_inurba_marseille","lat":43.30545,"lon":5.38437,"is_reserved":false,"is_disabled":true,"rental_uris":{"android":"levelo://app?vid=39d569f2-804d-4c1f-93cb-ffdd8bba0563","ios":"levelo://app?vid=39d569f2-804d-4c1f-93cb-ffdd8bba0563"},"vehicle_type_id":"4","last_reported":1744240160,"current_range_meters":17600,"station_id":"ce4bgg92rcd13ifvqb30","pricing_plan_id":"cebpf4jnsgd1na2vs0mg"},{"bike_id":"dad1b0b5-9864-4d37-aead-4e0c633b2ef0","system_id":"levelo_inurba_marseille","lat":43.297829,"lon":5.393373,"is_reserved":false,"is_disabled":false,"rental_uris":{"android":"levelo://app?vid=dad1b0b5-9864-4d37-aead-4e0c633b2ef0","ios":"levelo://app?vid=dad1b0b5-9864-4d37-aead-4e0c633b2ef0"},"vehicle_type_id":"4","last_reported":1744240160,"current_range_meters":17600,"station_id":"chh1huq6cuj3fo74tm60","pricing_plan_id":"cebpf4jnsgd1na2vs0mg"},{"bike_id":"f78bf8a8-b506-43e9-9fc4-9ec4cb688e82","system_id":"levelo_inurba_marseille","lat":43.32125,"lon":5.36751,"is_reserved":false,"is_disabled":false,"rental_uris":{"android":"levelo://app?vid=f78bf8a8-b506-43e9-9fc4-9ec4cb688e82","ios":"levelo://app?vid=f78bf8a8-b506-43e9-9fc4-9ec4cb688e82"},"vehicle_type_id":"4","last_reported":1744240160,"current_range_meters":17600,"station_id":"ce4bhrh2rcd13ifvqhug","pricing_plan_id":"cebpf4jnsgd1na2vs0mg"},{"bike_id":"253d8f55-13d7-4b6e-9758-326c99ac425c","system_id":"levelo_inurba_marseille","lat":43.24666,"lon":5.38178,"is_reserved":false,"is_disabled":false,"rental_uris":{"android":"levelo://app?vid=253d8f55-13d7-4b6e-9758-326c99ac425c","ios":"levelo://app?vid=253d8f55-13d7-4b6e-9758-326c99ac425c"},"vehicle_type_id":"4","last_reported":1744240160,"current_range_meters":17600,"station_id":"ce4bhih2rcd13ifvqfr0","pricing_plan_id":"cebpf4jnsgd1na2vs0mg"},{"bike_id":"20135a28-cd15-4f4d-bbeb-9a39f64882d9","system_id":"levelo_inurba_marseille","lat":43.28429,"lon":5.37501,"is_reserved":false,"is_disabled":false,"rental_uris":{"android":"levelo://app?vid=20135a28-cd15-4f4d-bbeb-9a39f64882d9","ios":"levelo://app?vid=20135a28-cd15-4f4d-bbeb-9a39f64882d9"},"vehicle_type_id":"4","last_reported":1744240160,"current_range_meters":17600,"station_id":"ce4bh412rcd13ifvqds0","pricing_plan_id":"cebpf4jnsgd1na2vs0mg"},{"bike_id":"231aaa88-1e79-4a74-a543-651d8fd5a027","system_id":"levelo_inurba_marseille","lat":43.33077,"lon":5.40521,"is_reserved":false,"is_disabled":false,"rental_uris":{"android":"levelo://app?vid=231aaa88-1e79-4a74-a543-651d8fd5a027","ios":"levelo://app?vid=231aaa88-1e79-4a74-a543-651d8fd5a027"},"vehicle_type_id":"4","last_reported":1744240160,"current_range_meters":17600,"station_id":"","pricing_plan_id":"cebpf4jnsgd1na2vs0mg"},{"bike_id":"49f12fd7-4c87-4529-a7b9-de78fd0243f1","system_id":"levelo_inurba_marseille","lat":43.32478,"lon":5.36556,"is_reserved":false,"is_disabled":false,"rental_uris":{"android":"levelo://app?vid=49f12fd7-4c87-4529-a7b9-de78fd0243f1","ios":"levelo://app?vid=49f12fd7-4c87-4529-a7b9-de78fd0243f1"},"vehicle_type_id":"4","last_reported":1744240160,"current_range_meters":17600,"station_id":"ce4bhs12rcd13ifvqhvg","pricing_plan_id":"cebpf4jnsgd1na2vs0mg"},{"bike_id":"8ee9f686-4549-4aad-af30-9017baadcb23","system_id":"levelo_inurba_marseille","lat":43.314568,"lon":5.37591,"is_reserved":false,"is_disabled":false,"rental_uris":{"android":"levelo://app?vid=8ee9f686-4549-4aad-af30-9017baadcb23","ios":"levelo://app?vid=8ee9f686-4549-4aad-af30-9017baadcb23"},"vehicle_type_id":"4","last_reported":1744240160,"current_range_meters":17600,"station_id":"","pricing_plan_id":"cebpf4jnsgd1na2vs0mg"},{"bike_id":"ef291804-1477-432e-b153-82ea15725418","system_id":"levelo_inurba_marseille","lat":43.33751,"lon":5.37496,"is_reserved":false,"is_disabled":false,"rental_uris":{"android":"levelo://app?vid=ef291804-1477-432e-b153-82ea15725418","ios":"levelo://app?vid=ef291804-1477-432e-b153-82ea15725418"},"vehicle_type_id":"4","last_reported":1744240160,"current_range_meters":17600,"station_id":"","pricing_plan_id":"cebpf4jnsgd1na2vs0mg"},{"bike_id":"b72a1b52-33d4-4852-8e1b-ac62a6d7d170","system_id":"levelo_inurba_marseille","lat":43.32643,"lon":5.41002,"is_reserved":false,"is_disabled":false,"rental_uris":{"android":"levelo://app?vid=b72a1b52-33d4-4852-8e1b-ac62a6d7d170","ios":"levelo://app?vid=b72a1b52-33d4-4852-8e1b-ac62a6d7d170"},"vehicle_type_id":"4","last_reported":1744240160,"current_range_meters":17600,"station_id":"ce4bhpp2rcd13ifvqhgg","pricing_plan_id":"cebpf4jnsgd1na2vs0mg"},{"bike_id":"e4c4571d-16b2-4eac-9eff-e8ab59a81972","system_id":"levelo_inurba_marseille","lat":43.290353,"lon":5.399613,"is_reserved":false,"is_disabled":false,"rental_uris":{"android":"levelo://app?vid=e4c4571d-16b2-4eac-9eff-e8ab59a81972","ios":"levelo://app?vid=e4c4571d-16b2-4eac-9eff-e8ab59a81972"},"vehicle_type_id":"4","last_reported":1744240160,"current_range_meters":17600,"station_id":"ce4bh392rcd13ifvqdm0","pricing_plan_id":"cebpf4jnsgd1na2vs0mg"},{"bike_id":"86c831ba-15d4-49e4-9ea1-51f53c0d1de1","system_id":"levelo_inurba_marseille","lat":43.3025,"lon":5.400573,"is_reserved":false,"is_disabled":false,"rental_uris":{"android":"levelo://app?vid=86c831ba-15d4-49e4-9ea1-51f53c0d1de1","ios":"levelo://app?vid=86c831ba-15d4-49e4-9ea1-51f53c0d1de1"},"vehicle_type_id":"4","last_reported":1744240160,"current_range_meters":17600,"station_id":"ce4bgvh2rcd13ifvqcs0","pricing_plan_id":"cebpf4jnsgd1na2vs0mg"},{"bike_id":"c5803cf2-eedb-4297-9474-679d200ec1ea","system_id":"levelo_inurba_marseille","lat":43.31484,"lon":5.37293,"is_reserved":false,"is_disabled":false,"rental_uris":{"android":"levelo://app?vid=c5803cf2-eedb-4297-9474-679d200ec1ea","ios":"levelo://app?vid=c5803cf2-eedb-4297-9474-679d200ec1ea"},"vehicle_type_id":"4","last_reported":1744240160,"current_range_meters":18000,"station_id":"ce4bgt12rcd13ifvqcd0","pricing_plan_id":"cebpf4jnsgd1na2vs0mg"},{"bike_id":"884e6334-b043-464c-8456-24ffa90768b5","system_id":"levelo_inurba_marseille","lat":43.30799,"lon":5.38157,"is_reserved":false,"is_disabled":false,"rental_uris":{"android":"levelo://app?vid=884e6334-b043-464c-8456-24ffa90768b5","ios":"levelo://app?vid=884e6334-b043-464c-8456-24ffa90768b5"},"vehicle_type_id":"4","last_reported":1744240160,"current_range_meters":18000,"station_id":"ce4bgt12rcd13ifvqce0","pricing_plan_id":"cebpf4jnsgd1na2vs0mg"},{"bike_id":"9424ff7d-9f58-4df2-9476-8a3c6226273c","system_id":"levelo_inurba_marseille","lat":43.31496,"lon":5.3731,"is_reserved":false,"is_disabled":false,"rental_uris":{"android":"levelo://app?vid=9424ff7d-9f58-4df2-9476-8a3c6226273c","ios":"levelo://app?vid=9424ff7d-9f58-4df2-9476-8a3c6226273c"},"vehicle_type_id":"4","last_reported":1744240160,"current_range_meters":17600,"station_id":"ce4bgt12rcd13ifvqcd0","pricing_plan_id":"cebpf4jnsgd1na2vs0mg"},{"bike_id":"4f510143-d367-4bdb-be1d-1e4f7b307eb7","system_id":"levelo_inurba_marseille","lat":43.33614,"lon":5.41014,"is_reserved":false,"is_disabled":false,"rental_uris":{"android":"levelo://app?vid=4f510143-d367-4bdb-be1d-1e4f7b307eb7","ios":"levelo://app?vid=4f510143-d367-4bdb-be1d-1e4f7b307eb7"},"vehicle_type_id":"4","last_reported":1744240160,"current_range_meters":18000,"station_id":"ce4bhqh2rcd13ifvqhmg","pricing_plan_id":"cebpf4jnsgd1na2vs0mg"},{"bike_id":"783ac722-a0ed-4a97-add2-2a8e0a181a13","system_id":"levelo_inurba_marseille","lat":43.28721,"lon":5.36088,"is_reserved":false,"is_disabled":false,"rental_uris":{"android":"levelo://app?vid=783ac722-a0ed-4a97-add2-2a8e0a181a13","ios":"levelo://app?vid=783ac722-a0ed-4a97-add2-2a8e0a181a13"},"vehicle_type_id":"4","last_reported":1744240160,"current_range_meters":18000,"station_id":"cki0cbj6b192h4jlfktg","pricing_plan_id":"cebpf4jnsgd1na2vs0mg"},{"bike_id":"2b54a496-5bb2-42c4-bb01-6f1e5c2215a7","system_id":"levelo_inurba_marseille","lat":43.30808,"lon":5.37672,"is_reserved":false,"is_disabled":true,"rental_uris":{"android":"levelo://app?vid=2b54a496-5bb2-42c4-bb01-6f1e5c2215a7","ios":"levelo://app?vid=2b54a496-5bb2-42c4-bb01-6f1e5c2215a7"},"vehicle_type_id":"4","last_reported":1744240160,"current_range_meters":18000,"station_id":"ce4bgv92rcd13ifvqcq0","pricing_plan_id":"cebpf4jnsgd1na2vs0mg"},{"bike_id":"2db062fe-2ccd-450d-85dd-3c77819ba37a","system_id":"levelo_inurba_marseille","lat":43.289401,"lon":5.366288,"is_reserved":false,"is_disabled":true,"rental_uris":{"android":"levelo://app?vid=2db062fe-2ccd-450d-85dd-3c77819ba37a","ios":"levelo://app?vid=2db062fe-2ccd-450d-85dd-3c77819ba37a"},"vehicle_type_id":"4","last_reported":1744240160,"current_range_meters":18000,"station_id":"ce4bhap2rcd13ifvqek0","pricing_plan_id":"cebpf4jnsgd1na2vs0mg"},{"bike_id":"2648bfc7-c104-4917-b690-98196c8ef3ac","system_id":"levelo_inurba_marseille","lat":43.29885,"lon":5.39763,"is_reserved":false,"is_disabled":false,"rental_uris":{"android":"levelo://app?vid=2648bfc7-c104-4917-b690-98196c8ef3ac","ios":"levelo://app?vid=2648bfc7-c104-4917-b690-98196c8ef3ac"},"vehicle_type_id":"4","last_reported":1744240160,"current_range_meters":18000,"station_id":"ce4bh0h2rcd13ifvqd50","pricing_plan_id":"cebpf4jnsgd1na2vs0mg"},{"bike_id":"06ba34ca-91dc-44c4-ba22-fae2f1847045","system_id":"levelo_inurba_marseille","lat":43.29558,"lon":5.38073,"is_reserved":false,"is_disabled":false,"rental_uris":{"android":"levelo://app?vid=06ba34ca-91dc-44c4-ba22-fae2f1847045","ios":"levelo://app?vid=06ba34ca-91dc-44c4-ba22-fae2f1847045"},"vehicle_type_id":"4","last_reported":1744240160,"current_range_meters":18800,"station_id":"","pricing_plan_id":"cebpf4jnsgd1na2vs0mg"},{"bike_id":"0922821c-4e1d-4817-9469-860e55f8f0d1","system_id":"levelo_inurba_marseille","lat":43.2251,"lon":5.34791,"is_reserved":false,"is_disabled":false,"rental_uris":{"android":"levelo://app?vid=0922821c-4e1d-4817-9469-860e55f8f0d1","ios":"levelo://app?vid=0922821c-4e1d-4817-9469-860e55f8f0d1"},"vehicle_type_id":"4","last_reported":1744240160,"current_range_meters":18800,"station_id":"st_cvj5dfep6f1abm77gieg","pricing_plan_id":"cebpf4jnsgd1na2vs0mg"},{"bike_id":"d7adffc4-cf62-4fea-aaaf-6657cbfbb451","system_id":"levelo_inurba_marseille","lat":43.28861,"lon":5.35843,"is_reserved":false,"is_disabled":true,"rental_uris":{"android":"levelo://app?vid=d7adffc4-cf62-4fea-aaaf-6657cbfbb451","ios":"levelo://app?vid=d7adffc4-cf62-4fea-aaaf-6657cbfbb451"},"vehicle_type_id":"4","last_reported":1744240160,"current_range_meters":19200,"station_id":"ce4bhb12rcd13ifvqem0","pricing_plan_id":"cebpf4jnsgd1na2vs0mg"},{"bike_id":"f1e866a5-7c3e-45b7-ba42-0d6523e7a78c","system_id":"levelo_inurba_marseille","lat":43.27499,"lon":5.42453,"is_reserved":false,"is_disabled":false,"rental_uris":{"android":"levelo://app?vid=f1e866a5-7c3e-45b7-ba42-0d6523e7a78c","ios":"levelo://app?vid=f1e866a5-7c3e-45b7-ba42-0d6523e7a78c"},"vehicle_type_id":"4","last_reported":1744240160,"current_range_meters":19200,"station_id":"ce4bhn92rcd13ifvqgrg","pricing_plan_id":"cebpf4jnsgd1na2vs0mg"},{"bike_id":"d35b2008-f0a8-4785-a34c-1a28e16cb02a","system_id":"levelo_inurba_marseille","lat":43.27423,"lon":5.394104,"is_reserved":false,"is_disabled":false,"rental_uris":{"android":"levelo://app?vid=d35b2008-f0a8-4785-a34c-1a28e16cb02a","ios":"levelo://app?vid=d35b2008-f0a8-4785-a34c-1a28e16cb02a"},"vehicle_type_id":"4","last_reported":1744240160,"current_range_meters":19200,"station_id":"ce4bhdp2rcd13ifvqf20","pricing_plan_id":"cebpf4jnsgd1na2vs0mg"},{"bike_id":"77434f79-432f-4dc2-93f3-ac3c158bed25","system_id":"levelo_inurba_marseille","lat":43.30798,"lon":5.38157,"is_reserved":false,"is_disabled":false,"rental_uris":{"android":"levelo://app?vid=77434f79-432f-4dc2-93f3-ac3c158bed25","ios":"levelo://app?vid=77434f79-432f-4dc2-93f3-ac3c158bed25"},"vehicle_type_id":"4","last_reported":1744240160,"current_range_meters":19200,"station_id":"ce4bgt12rcd13ifvqce0","pricing_plan_id":"cebpf4jnsgd1na2vs0mg"},{"bike_id":"de55079f-07c9-4089-ace6-b78957bd77cb","system_id":"levelo_inurba_marseille","lat":43.28711,"lon":5.374,"is_reserved":false,"is_disabled":false,"rental_uris":{"android":"levelo://app?vid=de55079f-07c9-4089-ace6-b78957bd77cb","ios":"levelo://app?vid=de55079f-07c9-4089-ace6-b78957bd77cb"},"vehicle_type_id":"4","last_reported":1744240160,"current_range_meters":19200,"station_id":"ce4bh3p2rcd13ifvqdq0","pricing_plan_id":"cebpf4jnsgd1na2vs0mg"},{"bike_id":"f112d351-cf97-4def-8a45-af5e1e8e51c9","system_id":"levelo_inurba_marseille","lat":43.22932,"lon":5.35378,"is_reserved":false,"is_disabled":false,"rental_uris":{"android":"levelo://app?vid=f112d351-cf97-4def-8a45-af5e1e8e51c9","ios":"levelo://app?vid=f112d351-cf97-4def-8a45-af5e1e8e51c9"},"vehicle_type_id":"4","last_reported":1744240160,"current_range_meters":19200,"station_id":"cpo3532slgdg3j2ikp40","pricing_plan_id":"cebpf4jnsgd1na2vs0mg"},{"bike_id":"8982cd44-d331-4463-a648-1638e3f0f17f","system_id":"levelo_inurba_marseille","lat":43.30142,"lon":5.38773,"is_reserved":false,"is_disabled":false,"rental_uris":{"android":"levelo://app?vid=8982cd44-d331-4463-a648-1638e3f0f17f","ios":"levelo://app?vid=8982cd44-d331-4463-a648-1638e3f0f17f"},"vehicle_type_id":"4","last_reported":1744240160,"current_range_meters":19200,"station_id":"ce4bghh2rcd13ifvqb60","pricing_plan_id":"cebpf4jnsgd1na2vs0mg"},{"bike_id":"bce5a2e8-b9b9-44a2-afd3-1c2570051af9","system_id":"levelo_inurba_marseille","lat":43.29635,"lon":5.40601,"is_reserved":false,"is_disabled":false,"rental_uris":{"android":"levelo://app?vid=bce5a2e8-b9b9-44a2-afd3-1c2570051af9","ios":"levelo://app?vid=bce5a2e8-b9b9-44a2-afd3-1c2570051af9"},"vehicle_type_id":"4","last_reported":1744240160,"current_range_meters":19200,"station_id":"ce4bh0h2rcd13ifvqd60","pricing_plan_id":"cebpf4jnsgd1na2vs0mg"},{"bike_id":"7544ef24-9ae3-4d72-9af3-9fcfc281f1fe","system_id":"levelo_inurba_marseille","lat":43.30661,"lon":5.40018,"is_reserved":false,"is_disabled":false,"rental_uris":{"android":"levelo://app?vid=7544ef24-9ae3-4d72-9af3-9fcfc281f1fe","ios":"levelo://app?vid=7544ef24-9ae3-4d72-9af3-9fcfc281f1fe"},"vehicle_type_id":"4","last_reported":1744240160,"current_range_meters":19200,"station_id":"","pricing_plan_id":"cebpf4jnsgd1na2vs0mg"},