{"last_updated":1712498776,"ttl":30,"version":"2.2","data":{"bikes":[{"bike_id":"05b55163-fd46-44f8-95c6-f3ddcf2752b6","system_id":"levelo_inurba_marseille","lat":43.31341,"lon":5.367098,"is_reserved":false,"is_disabled":false,"rental_uris":{"android":"levelo://app?vid=05b55163-fd46-44f8-95c6-f3ddcf2752b6","ios":"levelo://app?vid=05b55163-fd46-44f8-95c6-f3ddcf2752b6"},"vehicle_type_id":"4","last_reported":1712498776,"current_range_meters":14000,"station_id":"ce4bgr92rcd13ifvqc6g","pricing_plan_id":"cebpf4jnsgd1na2vs0mg"},{"bike_id":"c677a063-9fb9-4591-afbd-943437cfe0ea","system_id":"levelo_inurba_marseille","lat":43.312239,"lon":5.368562,"is_reserved":false,"is_disabled":false,"rental_uris":{"android":"levelo://app?vid=c677a063-9fb9-4591-afbd-943437cfe0ea","ios":"levelo://app?vid=c677a063-9fb9-4591-afbd-943437cfe0ea"},"vehicle_type_id":"4","last_reported":1712498776,"current_range_meters":19600,"station_id":"ce4bgl92rcd13ifvqbq0","pricing_plan_id":"cebpf4jnsgd1na2vs0mg"},{"bike_id":"162ff919-471d-4913-a04e-828dfb252ea0","system_id":"levelo_inurba_marseille","lat":43.312239,"lon":5.368562,"is_reserved":false,"is_disabled":false,"rental_uris":{"android":"levelo://app?vid=162ff919-471d-4913-a04e-828dfb252ea0","ios":"levelo://app?vid=162ff919-471d-4913-a04e-828dfb252ea0"},"vehicle_type_id":"4","last_reported":1712498776,"current_range_meters":15200,"station_id":"ce4bgl92rcd13ifvqbq0","pricing_plan_id":"cebpf4jnsgd1na2vs0mg"},{"bike_id":"d6608c96-0aab-4f6d-ab3b-1663836839b6","system_id":"levelo_inurba_marseille","lat":43.30908,"lon":5.36853,"is_reserved":false,"is_disabled":false,"rental_uris":{"android":"levelo://app?vid=d6608c96-0aab-4f6d-ab3b-1663836839b6","ios":"levelo://app?vid=d6608c96-0aab-4f6d-ab3b-1663836839b6"},"vehicle_type_id":"4","last_reported":1712498776,"current_range_meters":0,"station_id":"ce4bgn92rcd13ifvqbvg","pricing_plan_id":"cebpf4jnsgd1na2vs0mg"},{"bike_id":"eacab57b-e4a6-42ee-a8d0-e672822bc45b","system_id":"levelo_inurba_marseille","lat":43.309076,"lon":5.368465,"is_reserved":false,"is_disabled":false,"rental_uris":{"android":"levelo://app?vid=eacab57b-e4a6-42ee-a8d0-e672822bc45b","ios":"levelo://app?vid=eacab57b-e4a6-42ee-a8d0-e672822bc45b"},"vehicle_type_id":"4","last_reported":1712498776,"current_range_meters":18400,"station_id":"ce4bgn92rcd13ifvqbvg","pricing_plan_id":"cebpf4jnsgd1na2vs0mg"},{"bike_id":"9bafa147-34a4-46f6-a550-7ffe61998637","system_id":"levelo_inurba_marseille","lat":43.309,"lon":5.36849,"is_reserved":false,"is_disabled":false,"rental_uris":{"android":"levelo://app?vid=9bafa147-34a4-46f6-a550-7ffe61998637","ios":"levelo://app?vid=9bafa147-34a4-46f6-a550-7ffe61998637"},"vehicle_type_id":"4","last_reported":1712498776,"current_range_meters":3600,"station_id":"ce4bgn92rcd13ifvqbvg","pricing_plan_id":"cebpf4jnsgd1na2vs0mg"},{"bike_id":"73706916-b3f3-4ff0-b068-cec67895e8b1","system_id":"levelo_inurba_marseille","lat":43.308808,"lon":5.367436,"is_reserved":false,"is_disabled":false,"rental_uris":{"android":"levelo://app?vid=73706916-b3f3-4ff0-b068-cec67895e8b1","ios":"levelo://app?vid=73706916-b3f3-4ff0-b068-cec67895e8b1"},"vehicle_type_id":"4","last_reported":1712498776,"current_range_meters":8400,"station_id":"","pricing_plan_id":"cebpf4jnsgd1na2vs0mg"},{"bike_id":"f72a74db-4208-4ee2-8cf1-37fc6713364b","system_id":"levelo_inurba_marseille","lat":43.314811,"lon":5.373103,"is_reserved":false,"is_disabled":false,"rental_uris":{"android":"levelo://app?vid=f72a74db-4208-4ee2-8cf1-37fc6713364b","ios":"levelo://app?vid=f72a74db-4208-4ee2-8cf1-37fc6713364b"},"vehicle_type_id":"4","last_reported":1712498776,"current_range_meters":21200,"station_id":"ce4bgt12rcd13ifvqcd0","pricing_plan_id":"cebpf4jnsgd1na2vs0mg"},{"bike_id":"a603b29e-3874-41bd-bb73-797609ef4df6","system_id":"levelo_inurba_marseille","lat":43.314811,"lon":5.373104,"is_reserved":false,"is_disabled":false,"rental_uris":{"android":"levelo://app?vid=a603b29e-3874-41bd-bb73-797609ef4df6","ios":"levelo://app?vid=a603b29e-3874-41bd-bb73-797609ef4df6"},"vehicle_type_id":"4","last_reported":1712498776,"current_range_meters":1600,"station_id":"ce4bgt12rcd13ifvqcd0","pricing_plan_id":"cebpf4jnsgd1na2vs0mg"},{"bike_id":"94447e5b-7556-45de-adb9-432891e961e4","system_id":"levelo_inurba_marseille","lat":43.314811,"lon":5.373103,"is_reserved":false,"is_disabled":false,"rental_uris":{"android":"levelo://app?vid=94447e5b-7556-45de-adb9-432891e961e4","ios":"levelo://app?vid=94447e5b-7556-45de-adb9-432891e961e4"},"vehicle_type_id":"4","last_reported":1712498776,"current_range_meters":9200,"station_id":"ce4bgt12rcd13ifvqcd0","pricing_plan_id":"cebpf4jnsgd1na2vs0mg"},{"bike_id":"bf95340b-f9f5-41cf-b96c-25ecf653dba3","system_id":"levelo_inurba_marseille","lat":43.314811,"lon":5.373103,"is_reserved":false,"is_disabled":false,"rental_uris":{"android":"levelo://app?vid=bf95340b-f9f5-41cf-b96c-25ecf653dba3","ios":"levelo://app?vid=bf95340b-f9f5-41cf-b96c-25ecf653dba3"},"vehicle_type_id":"4","last_reported":1712498776,"current_range_meters":11600,"station_id":"ce4bgt12rcd13ifvqcd0","pricing_plan_id":"cebpf4jnsgd1na2vs0mg"},{"bike_id":"282bd8a6-eb48-4df9-9d6f-a77582a79d8a","system_id":"levelo_inurba_marseille","lat":43.2936,"lon":5.37835,"is_reserved":false,"is_disabled":false,"rental_uris":{"android":"levelo://app?vid=282bd8a6-eb48-4df9-9d6f-a77582a79d8a","ios":"levelo://app?vid=282bd8a6-eb48-4df9-9d6f-a77582a79d8a"},"vehicle_type_id":"4","last_reported":1712498776,"current_range_meters":26000,"station_id":"ce4bgjh2rcd13ifvqbf0","pricing_plan_id":"cebpf4jnsgd1na2vs0mg"},{"bike_id":"da3f878f-c89e-4627-a190-cbaa48d5b30d","system_id":"levelo_inurba_marseille","lat":43.314811,"lon":5.373104,"is_reserved":false,"is_disabled":false,"rental_uris":{"android":"levelo://app?vid=da3f878f-c89e-4627-a190-cbaa48d5b30d","ios":"levelo://app?vid=da3f878f-c89e-4627-a190-cbaa48d5b30d"},"vehicle_type_id":"4","last_reported":1712498776,"current_range_meters":4000,"station_id":"ce4bgt12rcd13ifvqcd0","pricing_plan_id":"cebpf4jnsgd1na2vs0mg"},{"bike_id":"fafbeb37-3374-42fc-971f-84d5af37cb1f","system_id":"levelo_inurba_marseille","lat":43.314811,"lon":5.373103,"is_reserved":false,"is_disabled":false,"rental_uris":{"android":"levelo://app?vid=fafbeb37-3374-42fc-971f-84d5af37cb1f","ios":"levelo://app?vid=fafbeb37-3374-42fc-971f-84d5af37cb1f"},"vehicle_type_id":"4","last_reported":1712498776,"current_range_meters":24000,"station_id":"ce4bgt12rcd13ifvqcd0","pricing_plan_id":"cebpf4jnsgd1na2vs0mg"},{"bike_id":"cf5914a0-ebe9-4ebd-9a3d-a2e8b0fbeeef","system_id":"levelo_inurba_marseille","lat":43.314811,"lon":5.373103,"is_reserved":false,"is_disabled":false,"rental_uris":{"android":"levelo://app?vid=cf5914a0-ebe9-4ebd-9a3d-a2e8b0fbeeef","ios":"levelo://app?vid=cf5914a0-ebe9-4ebd-9a3d-a2e8b0fbeeef"},"vehicle_type_id":"4","last_reported":1712498776,"current_range_meters":14400,"station_id":"ce4bgt12rcd13ifvqcd0","pricing_plan_id":"cebpf4jnsgd1na2vs0mg"},{"bike_id":"e528fde0-27de-453c-9da6-0026ea4d1d54","system_id":"levelo_inurba_marseille","lat":43.314811,"lon":5.373104,"is_reserved":false,"is_disabled":false,"rental_uris":{"android":"levelo://app?vid=e528fde0-27de-453c-9da6-0026ea4d1d54","ios":"levelo://app?vid=e528fde0-27de-453c-9da6-0026ea4d1d54"},"vehicle_type_id":"4","last_reported":1712498776,"current_range_meters":31200,"station_id":"ce4bgt12rcd13ifvqcd0","pricing_plan_id":"cebpf4jnsgd1na2vs0mg"},{"bike_id":"3c8a360e-bd9a-4ef1-9e1e-fcf375b6c497","system_id":"levelo_inurba_marseille","lat":43.309039,"lon":5.371797,"is_reserved":false,"is_disabled":false,"rental_uris":{"android":"levelo://app?vid=3c8a360e-bd9a-4ef1-9e1e-fcf375b6c497","ios":"levelo://app?vid=3c8a360e-bd9a-4ef1-9e1e-fcf375b6c497"},"vehicle_type_id":"4","last_reported":1712498776,"current_range_meters":8800,"station_id":"ce4bguh2rcd13ifvqckg","pricing_plan_id":"cebpf4jnsgd1na2vs0mg"},{"bike_id":"1a777162-6346-4652-b202-b4279758ff97","system_id":"levelo_inurba_marseille","lat":43.309034,"lon":5.371783,"is_reserved":false,"is_disabled":false,"rental_uris":{"android":"levelo://app?vid=1a777162-6346-4652-b202-b4279758ff97","ios":"levelo://app?vid=1a777162-6346-4652-b202-b4279758ff97"},"vehicle_type_id":"4","last_reported":1712498776,"current_range_meters":2000,"station_id":"ce4bguh2rcd13ifvqckg","pricing_plan_id":"cebpf4jnsgd1na2vs0mg"},{"bike_id":"26232aca-b23e-4a4d-8fad-d35c512f9a72","system_id":"levelo_inurba_marseille","lat":43.30537,"lon":5.367345,"is_reserved":false,"is_disabled":false,"rental_uris":{"android":"levelo://app?vid=26232aca-b23e-4a4d-8fad-d35c512f9a72","ios":"levelo://app?vid=26232aca-b23e-4a4d-8fad-d35c512f9a72"},"vehicle_type_id":"4","last_reported":1712498776,"current_range_meters":2000,"station_id":"ce4bgrp2rcd13ifvqc9g","pricing_plan_id":"cebpf4jnsgd1na2vs0mg"},{"bike_id":"202845d6-5374-4351-afc5-425c0bce9b59","system_id":"levelo_inurba_marseille","lat":43.286039,"lon":5.370679,"is_reserved":false,"is_disabled":false,"rental_uris":{"android":"levelo://app?vid=202845d6-5374-4351-afc5-425c0bce9b59","ios":"levelo://app?vid=202845d6-5374-4351-afc5-425c0bce9b59"},"vehicle_type_id":"4","last_reported":1712498776,"current_range_meters":4000,"station_id":"ce4bht12rcd13ifvqi60","pricing_plan_id":"cebpf4jnsgd1na2vs0mg"},{"bike_id":"af9cfaf3-9936-44ad-988f-6ac4d715e946","system_id":"levelo_inurba_marseille","lat":43.305706,"lon":5.365654,"is_reserved":false,"is_disabled":false,"rental_uris":{"android":"levelo://app?vid=af9cfaf3-9936-44ad-988f-6ac4d715e946","ios":"levelo://app?vid=af9cfaf3-9936-44ad-988f-6ac4d715e946"},"vehicle_type_id":"4","last_reported":1712498776,"current_range_meters":6000,"station_id":"ce4bgs12rcd13ifvqcag","pricing_plan_id":"cebpf4jnsgd1na2vs0mg"},{"bike_id":"51e6f591-be60-4cc3-9e26-6eeed6d1a032","system_id":"levelo_inurba_marseille","lat":43.305706,"lon":5.365654,"is_reserved":false,"is_disabled":false,"rental_uris":{"android":"levelo://app?vid=51e6f591-be60-4cc3-9e26-6eeed6d1a032","ios":"levelo://app?vid=51e6f591-be60-4cc3-9e26-6eeed6d1a032"},"vehicle_type_id":"4","last_reported":1712498776,"current_range_meters":1200,"station_id":"ce4bgs12rcd13ifvqcag","pricing_plan_id":"cebpf4jnsgd1na2vs0mg"},{"bike_id":"a10b98bb-eb27-423e-928b-6a569b46c2ca","system_id":"levelo_inurba_marseille","lat":43.305706,"lon":5.365654,"is_reserved":false,"is_disabled":false,"rental_uris":{"android":"levelo://app?vid=a10b98bb-eb27-423e-928b-6a569b46c2ca","ios":"levelo://app?vid=a10b98bb-eb27-423e-928b-6a569b46c2ca"},"vehicle_type_id":"4","last_reported":1712498776,"current_range_meters":1200,"station_id":"ce4bgs12rcd13ifvqcag","pricing_plan_id":"cebpf4jnsgd1na2vs0mg"},{"bike_id":"31579868-ca74-439e-824f-bebba79dd4b9","system_id":"levelo_inurba_marseille","lat":43.31122,"lon":5.3777,"is_reserved":false,"is_disabled":false,"rental_uris":{"android":"levelo://app?vid=31579868-ca74-439e-824f-bebba79dd4b9","ios":"levelo://app?vid=31579868-ca74-439e-824f-bebba79dd4b9"},"vehicle_type_id":"4","last_reported":1712498776,"current_range_meters":28000,"station_id":"ce4bgt92rcd13ifvqcg0","pricing_plan_id":"cebpf4jnsgd1na2vs0mg"},{"bike_id":"fb3a2c88-26d0-47c4-8e76-b85b8162829f","system_id":"levelo_inurba_marseille","lat":43.311177,"lon":5.377737,"is_reserved":false,"is_disabled":false,"rental_uris":{"android":"levelo://app?vid=fb3a2c88-26d0-47c4-8e76-b85b8162829f","ios":"levelo://app?vid=fb3a2c88-26d0-47c4-8e76-b85b8162829f"},"vehicle_type_id":"4","last_reported":1712498776,"current_range_meters":18800,"station_id":"ce4bgt92rcd13ifvqcg0","pricing_plan_id":"cebpf4jnsgd1na2vs0mg"},{"bike_id":"c0a7588a-3397-4570-bec1-c03fe86cd91d","system_id":"levelo_inurba_marseille","lat":43.307945,"lon":5.376487,"is_reserved":false,"is_disabled":false,"rental_uris":{"android":"levelo://app?vid=c0a7588a-3397-4570-bec1-c03fe86cd91d","ios":"levelo://app?vid=c0a7588a-3397-4570-bec1-c03fe86cd91d"},"vehicle_type_id":"4","last_reported":1712498776,"current_range_meters":26800,"station_id":"ce4bgv92rcd13ifvqcq0","pricing_plan_id":"cebpf4jnsgd1na2vs0mg"},{"bike_id":"6212c891-d44f-40a6-b2ab-bac41d1e8263","system_id":"levelo_inurba_marseille","lat":43.30781,"lon":5.37642,"is_reserved":false,"is_disabled":false,"rental_uris":{"android":"levelo://app?vid=6212c891-d44f-40a6-b2ab-bac41d1e8263","ios":"levelo://app?vid=6212c891-d44f-40a6-b2ab-bac41d1e8263"},"vehicle_type_id":"4","last_reported":1712498776,"current_range_meters":0,"station_id":"ce4bgv92rcd13ifvqcq0","pricing_plan_id":"cebpf4jnsgd1na2vs0mg"},{"bike_id":"ebdc316d-aa6e-4a25-a53f-61fc7f795ec2","system_id":"levelo_inurba_marseille","lat":43.307945,"lon":5.376487,"is_reserved":false,"is_disabled":false,"rental_uris":{"android":"levelo://app?vid=ebdc316d-aa6e-4a25-a53f-61fc7f795ec2","ios":"levelo://app?vid=ebdc316d-aa6e-4a25-a53f-61fc7f795ec2"},"vehicle_type_id":"4","last_reported":1712498776,"current_range_meters":22400,"station_id":"ce4bgv92rcd13ifvqcq0","pricing_plan_id":"cebpf4jnsgd1na2vs0mg"},{"bike_id":"61fc0251-d3e2-43e6-a6d8-4d34979117f1","system_id":"levelo_inurba_marseille","lat":43.30315,"lon":5.36899,"is_reserved":false,"is_disabled":false,"rental_uris":{"android":"levelo://app?vid=61fc0251-d3e2-43e6-a6d8-4d34979117f1","ios":"levelo://app?vid=61fc0251-d3e2-43e6-a6d8-4d34979117f1"},"vehicle_type_id":"4","last_reported":1712498776,"current_range_meters":10800,"station_id":"ce4bgqh2rcd13ifvqc5g","pricing_plan_id":"cebpf4jnsgd1na2vs0mg"},{"bike_id":"f30f3731-d804-4efd-b33e-5783a8adaf83","system_id":"levelo_inurba_marseille","lat":43.303046,"lon":5.368981,"is_reserved":false,"is_disabled":false,"rental_uris":{"android":"levelo://app?vid=f30f3731-d804-4efd-b33e-5783a8adaf83","ios":"levelo://app?vid=f30f3731-d804-4efd-b33e-5783a8adaf83"},"vehicle_type_id":"4","last_reported":1712498776,"current_range_meters":15600,"station_id":"ce4bgqh2rcd13ifvqc5g","pricing_plan_id":"cebpf4jnsgd1na2vs0mg"},{"bike_id":"8d52d5c8-667f-4d77-93e8-cd931a270f6b","system_id":"levelo_inurba_marseille","lat":43.303046,"lon":5.368981,"is_reserved":false,"is_disabled":false,"rental_uris":{"android":"levelo://app?vid=8d52d5c8-667f-4d77-93e8-cd931a270f6b","ios":"levelo://app?vid=8d52d5c8-667f-4d77-93e8-cd931a270f6b"},"vehicle_type_id":"4","last_reported":1712498776,"current_range_meters":26400,"station_id":"ce4bgqh2rcd13ifvqc5g","pricing_plan_id":"cebpf4jnsgd1na2vs0mg"},{"bike_id":"3d96fff3-3872-4a95-9a20-40e7b0aee83b","system_id":"levelo_inurba_marseille","lat":43.303046,"lon":5.368981,"is_reserved":false,"is_disabled":false,"rental_uris":{"android":"levelo://app?vid=3d96fff3-3872-4a95-9a20-40e7b0aee83b","ios":"levelo://app?vid=3d96fff3-3872-4a95-9a20-40e7b0aee83b"},"vehicle_type_id":"4","last_reported":1712498776,"current_range_meters":5200,"station_id":"ce4bgqh2rcd13ifvqc5g","pricing_plan_id":"cebpf4jnsgd1na2vs0mg"},{"bike_id":"a17b2c40-f03c-41b8-935e-824e93430878","system_id":"levelo_inurba_marseille","lat":43.295748,"lon":5.37522,"is_reserved":false,"is_disabled":false,"rental_uris":{"android":"levelo://app?vid=a17b2c40-f03c-41b8-935e-824e93430878","ios":"levelo://app?vid=a17b2c40-f03c-41b8-935e-824e93430878"},"vehicle_type_id":"4","last_reported":1712498776,"current_range_meters":7600,"station_id":"ce4bgh92rcd13ifvqb50","pricing_plan_id":"cebpf4jnsgd1na2vs0mg"},{"bike_id":"394e2f52-e67f-44ce-9429-980448a075d8","system_id":"levelo_inurba_marseille","lat":43.302893,"lon":5.364862,"is_reserved":false,"is_disabled":false,"rental_uris":{"android":"levelo://app?vid=394e2f52-e67f-44ce-9429-980448a075d8","ios":"levelo://app?vid=394e2f52-e67f-44ce-9429-980448a075d8"},"vehicle_type_id":"4","last_reported":1712498776,"current_range_meters":0,"station_id":"","pricing_plan_id":"cebpf4jnsgd1na2vs0mg"},{"bike_id":"4f010575-387a-4205-8a88-6e408fbaa74b","system_id":"levelo_inurba_marseille","lat":43.308012,"lon":5.381511,"is_reserved":false,"is_disabled":false,"rental_uris":{"android":"levelo://app?vid=4f010575-387a-4205-8a88-6e408fbaa74b","ios":"levelo://app?vid=4f010575-387a-4205-8a88-6e408fbaa74b"},"vehicle_type_id":"4","last_reported":1712498776,"current_range_meters":11600,"station_id":"ce4bgt12rcd13ifvqce0","pricing_plan_id":"cebpf4jnsgd1na2vs0mg"},{"bike_id":"df1631a5-cad8-4674-b724-b318b8ac426b","system_id":"levelo_inurba_marseille","lat":43.301939,"lon":5.366286,"is_reserved":false,"is_disabled":false,"rental_uris":{"android":"levelo://app?vid=df1631a5-cad8-4674-b724-b318b8ac426b","ios":"levelo://app?vid=df1631a5-cad8-4674-b724-b318b8ac426b"},"vehicle_type_id":"4","last_reported":1712498776,"current_range_meters":27200,"station_id":"ce4bgrh2rcd13ifvqc8g","pricing_plan_id":"cebpf4jnsgd1na2vs0mg"},{"bike_id":"cc2d517d-a851-48ca-82f6-b566ab813a07","system_id":"levelo_inurba_marseille","lat":43.302087,"lon":5.373977,"is_reserved":false,"is_disabled":false,"rental_uris":{"android":"levelo://app?vid=cc2d517d-a851-48ca-82f6-b566ab813a07","ios":"levelo://app?vid=cc2d517d-a851-48ca-82f6-b566ab813a07"},"vehicle_type_id":"4","last_reported":1712498776,"current_range_meters":15200,"station_id":"","pricing_plan_id":"cebpf4jnsgd1na2vs0mg"},{"bike_id":"bfbf2eec-2571-4bb5-ae46-776b32419774","system_id":"levelo_inurba_marseille","lat":43.30474,"lon":5.37899,"is_reserved":false,"is_disabled":false,"rental_uris":{"android":"levelo://app?vid=bfbf2eec-2571-4bb5-ae46-776b32419774","ios":"levelo://app?vid=bfbf2eec-2571-4bb5-ae46-776b32419774"},"vehicle_type_id":"4","last_reported":1712498776,"current_range_meters":0,"station_id":"ce4bgup2rcd13ifvqcn0","pricing_plan_id":"cebpf4jnsgd1na2vs0mg"},{"bike_id":"a11b2f00-3d6f-436e-90f7-3ee3fc6b61dd","system_id":"levelo_inurba_marseille","lat":43.324771,"lon":5.36557,"is_reserved":false,"is_disabled":false,"rental_uris":{"android":"levelo://app?vid=a11b2f00-3d6f-436e-90f7-3ee3fc6b61dd","ios":"levelo://app?vid=a11b2f00-3d6f-436e-90f7-3ee3fc6b61dd"},"vehicle_type_id":"4","last_reported":1712498776,"current_range_meters":2400,"station_id":"ce4bhs12rcd13ifvqhvg","pricing_plan_id":"cebpf4jnsgd1na2vs0mg"},{"bike_id":"60c10bf1-ac0f-4dd5-a8e3-f6ac2835c879","system_id":"levelo_inurba_marseille","lat":43.324771,"lon":5.36557,"is_reserved":false,"is_disabled":false,"rental_uris":{"android":"levelo://app?vid=60c10bf1-ac0f-4dd5-a8e3-f6ac2835c879","ios":"levelo://app?vid=60c10bf1-ac0f-4dd5-a8e3-f6ac2835c879"},"vehicle_type_id":"4","last_reported":1712498776,"current_range_meters":16800,"station_id":"ce4bhs12rcd13ifvqhvg","pricing_plan_id":"cebpf4jnsgd1na2vs0mg"},{"bike_id":"838c2dd4-455d-466b-8a57-56eea9304413","system_id":"levelo_inurba_marseille","lat":43.324771,"lon":5.36557,"is_reserved":false,"is_disabled":false,"rental_uris":{"android":"levelo://app?vid=838c2dd4-455d-466b-8a57-56eea9304413","ios":"levelo://app?vid=838c2dd4-455d-466b-8a57-56eea9304413"},"vehicle_type_id":"4","last_reported":1712498776,"current_range_meters":2400,"station_id":"ce4bhs12rcd13ifvqhvg","pricing_plan_id":"cebpf4jnsgd1na2vs0mg"},{"bike_id":"fbe54d72-960f-4803-ad86-6a70b8869c4d","system_id":"levelo_inurba_marseille","lat":43.324887,"lon":5.365797,"is_reserved":false,"is_disabled":false,"rental_uris":{"android":"levelo://app?vid=fbe54d72-960f-4803-ad86-6a70b8869c4d","ios":"levelo://app?vid=fbe54d72-960f-4803-ad86-6a70b8869c4d"},"vehicle_type_id":"4","last_reported":1712498776,"current_range_meters":9600,"station_id":"ce4bhs12rcd13ifvqhvg","pricing_plan_id":"cebpf4jnsgd1na2vs0mg"},{"bike_id":"1231fab5-489d-4959-8322-492db28fdbb1","system_id":"levelo_inurba_marseille","lat":43.32489,"lon":5.365685,"is_reserved":false,"is_disabled":false,"rental_uris":{"android":"levelo://app?vid=1231fab5-489d-4959-8322-492db28fdbb1","ios":"levelo://app?vid=1231fab5-489d-4959-8322-492db28fdbb1"},"vehicle_type_id":"4","last_reported":1712498776,"current_range_meters":19600,"station_id":"ce4bhs12rcd13ifvqhvg","pricing_plan_id":"cebpf4jnsgd1na2vs0mg"},{"bike_id":"6724a062-823a-4278-8e14-1714aada2097","system_id":"levelo_inurba_marseille","lat":43.310804,"lon":5.38359,"is_reserved":false,"is_disabled":false,"rental_uris":{"android":"levelo://app?vid=6724a062-823a-4278-8e14-1714aada2097","ios":"levelo://app?vid=6724a062-823a-4278-8e14-1714aada2097"},"vehicle_type_id":"4","last_reported":1712498776,"current_range_meters":0,"station_id":"ce4bgv92rcd13ifvqcr0","pricing_plan_id":"cebpf4jnsgd1na2vs0mg"},{"bike_id":"72adab14-0448-4dcc-8cd2-aa9fa66d722f","system_id":"levelo_inurba_marseille","lat":43.302735,"lon":5.376983,"is_reserved":false,"is_disabled":false,"rental_uris":{"android":"levelo://app?vid=72adab14-0448-4dcc-8cd2-aa9fa66d722f","ios":"levelo://app?vid=72adab14-0448-4dcc-8cd2-aa9fa66d722f"},"vehicle_type_id":"4","last_reported":1712498776,"current_range_meters":0,"station_id":"ce4bguh2rcd13ifvqcj0","pricing_plan_id":"cebpf4jnsgd1na2vs0mg"},{"bike_id":"25b81afe-091a-46bc-9758-44c86563b934","system_id":"levelo_inurba_marseille","lat":43.301429,"lon":5.37413,"is_reserved":false,"is_disabled":false,"rental_uris":{"android":"levelo://app?vid=25b81afe-091a-46bc-9758-44c86563b934","ios":"levelo://app?vid=25b81afe-091a-46bc-9758-44c86563b934"},"vehicle_type_id":"4","last_reported":1712498776,"current_range_meters":4800,"station_id":"ce4bgs92rcd13ifvqcc0","pricing_plan_id":"cebpf4jnsgd1na2vs0mg"},{"bike_id":"743b096b-85f1-4579-bc25-91624a87f25a","system_id":"levelo_inurba_marseille","lat":43.301429,"lon":5.37413,"is_reserved":false,"is_disabled":false,"rental_uris":{"android":"levelo://app?vid=743b096b-85f1-4579-bc25-91624a87f25a","ios":"levelo://app?vid=743b096b-85f1-4579-bc25-91624a87f25a"},"vehicle_type_id":"4","last_reported":1712498776,"current_range_meters":20800,"station_id":"ce4bgs92rcd13ifvqcc0","pricing_plan_id":"cebpf4jnsgd1na2vs0mg"},{"bike_id":"3ef36938-246a-4479-92f8-f408ccd64378","system_id":"levelo_inurba_marseille","lat":43.31987,"lon":5.3816,"is_reserved":false,"is_disabled":false,"rental_uris":{"android":"levelo://app?vid=3ef36938-246a-4479-92f8-f408ccd64378","ios":"levelo://app?vid=3ef36938-246a-4479-92f8-f408ccd64378"},"vehicle_type_id":"4","last_reported":1712498776,"current_range_meters":24000,"station_id":"ce4bhr12rcd13ifvqhpg","pricing_plan_id":"cebpf4jnsgd1na2vs0mg"},{"bike_id":"ceae34e7-43b9-4b5c-a652-c6bc90b6aea7","system_id":"levelo_inurba_marseille","lat":43.313571,"lon":5.384829,"is_reserved":false,"is_disabled":false,"rental_uris":{"android":"levelo://app?vid=ceae34e7-43b9-4b5c-a652-c6bc90b6aea7","ios":"levelo://app?vid=ceae34e7-43b9-4b5c-a652-c6bc90b6aea7"},"vehicle_type_id":"4","last_reported":1712498776,"current_range_meters":24400,"station_id":"ce4bgt92rcd13ifvqcf0","pricing_plan_id":"cebpf4jnsgd1na2vs0mg"},{"bike_id":"6dba70de-e6f5-46d5-88b0-7dbf0fe63e88","system_id":"levelo_inurba_marseille","lat":43.299394,"lon":5.366644,"is_reserved":false,"is_disabled":false,"rental_uris":{"android":"levelo://app?vid=6dba70de-e6f5-46d5-88b0-7dbf0fe63e88","ios":"levelo://app?vid=6dba70de-e6f5-46d5-88b0-7dbf0fe63e88"},"vehicle_type_id":"4","last_reported":1712498776,"current_range_meters":0,"station_id":"","pricing_plan_id":"cebpf4jnsgd1na2vs0mg"},{"bike_id":"8c476736-44a6-4c98-a2a7-d15b3a644a74","system_id":"levelo_inurba_marseille","lat":43.299724,"lon":5.371829,"is_reserved":false,"is_disabled":false,"rental_uris":{"android":"levelo://app?vid=8c476736-44a6-4c98-a2a7-d15b3a644a74","ios":"levelo://app?vid=8c476736-44a6-4c98-a2a7-d15b3a644a74"},"vehicle_type_id":"4","last_reported":1712498776,"current_range_meters":20000,"station_id":"ce4bgr92rcd13ifvqc7g","pricing_plan_id":"cebpf4jnsgd1na2vs0mg"},{"bike_id":"026ab05d-7127-428d-8725-8daf9336db22","system_id":"levelo_inurba_marseille","lat":43.299028,"lon":5.381509,"is_reserved":false,"is_disabled":false,"rental_uris":{"android":"levelo://app?vid=026ab05d-7127-428d-8725-8daf9336db22","ios":"levelo://app?vid=026ab05d-7127-428d-8725-8daf9336db22"},"vehicle_type_id":"4","last_reported":1712498776,"current_range_meters":10800,"station_id":"ce4bgj12rcd13ifvqbc0","pricing_plan_id":"cebpf4jnsgd1na2vs0mg"},{"bike_id":"e16b2be6-16ce-4c58-bdbb-5ec305e86959","system_id":"levelo_inurba_marseille","lat":43.298433,"lon":5.362774,"is_reserved":false,"is_disabled":false,"rental_uris":{"android":"levelo://app?vid=e16b2be6-16ce-4c58-bdbb-5ec305e86959","ios":"levelo://app?vid=e16b2be6-16ce-4c58-bdbb-5ec305e86959"},"vehicle_type_id":"4","last_reported":1712498776,"current_range_meters":22800,"station_id":"ce4bgpp2rcd13ifvqc3g","pricing_plan_id":"cebpf4jnsgd1na2vs0mg"},{"bike_id":"a33e5a44-79ea-4904-8284-d0d7a20b234b","system_id":"levelo_inurba_marseille","lat":43.299243,"lon":5.374807,"is_reserved":false,"is_disabled":false,"rental_uris":{"android":"levelo://app?vid=a33e5a44-79ea-4904-8284-d0d7a20b234b","ios":"levelo://app?vid=a33e5a44-79ea-4904-8284-d0d7a20b234b"},"vehicle_type_id":"4","last_reported":1712498776,"current_range_meters":0,"station_id":"ce4bgjh2rcd13ifvqbg0","pricing_plan_id":"cebpf4jnsgd1na2vs0mg"},{"bike_id":"68362988-6a45-43e6-bbcf-534141869f33","system_id":"levelo_inurba_marseille","lat":43.311722,"lon":5.387247,"is_reserved":false,"is_disabled":false,"rental_uris":{"android":"levelo://app?vid=68362988-6a45-43e6-bbcf-534141869f33","ios":"levelo://app?vid=68362988-6a45-43e6-bbcf-534141869f33"},"vehicle_type_id":"4","last_reported":1712498776,"current_range_meters":0,"station_id":"ce4bgv12rcd13ifvqcp0","pricing_plan_id":"cebpf4jnsgd1na2vs0mg"},{"bike_id":"1200e163-5feb-41c4-8dbd-1b7092a20458","system_id":"levelo_inurba_marseille","lat":43.298433,"lon":5.362774,"is_reserved":false,"is_disabled":false,"rental_uris":{"android":"levelo://app?vid=1200e163-5feb-41c4-8dbd-1b7092a20458","ios":"levelo://app?vid=1200e163-5feb-41c4-8dbd-1b7092a20458"},"vehicle_type_id":"4","last_reported":1712498776,"current_range_meters":0,"station_id":"ce4bgpp2rcd13ifvqc3g","pricing_plan_id":"cebpf4jnsgd1na2vs0mg"},{"bike_id":"aaa973f8-2d22-4d18-9270-aae4de268d07","system_id":"levelo_inurba_marseille","lat":43.298433,"lon":5.362774,"is_reserved":false,"is_disabled":false,"rental_uris":{"android":"levelo://app?vid=aaa973f8-2d22-4d18-9270-aae4de268d07","ios":"levelo://app?vid=aaa973f8-2d22-4d18-9270-aae4de268d07"},"vehicle_type_id":"4","last_reported":1712498776,"current_range_meters":23600,"station_id":"ce4bgpp2rcd13ifvqc3g","pricing_plan_id":"cebpf4jnsgd1na2vs0mg"},{"bike_id":"01eff0ba-b7c1-43d3-a2ca-eb6048055bf0","system_id":"levelo_inurba_marseille","lat":43.298433,"lon":5.362774,"is_reserved":false,"is_disabled":false,"rental_uris":{"android":"levelo://app?vid=01eff0ba-b7c1-43d3-a2ca-eb6048055bf0","ios":"levelo://app?vid=01eff0ba-b7c1-43d3-a2ca-eb6048055bf0"},"vehicle_type_id":"4","last_reported":1712498776,"current_range_meters":9200,"station_id":"ce4bgpp2rcd13ifvqc3g","pricing_plan_id":"cebpf4jnsgd1na2vs0mg"},{"bike_id":"090ac0e3-c568-4216-9c48-af049604032d","system_id":"levelo_inurba_marseille","lat":43.299213,"lon":5.374607,"is_reserved":false,"is_disabled":false,"rental_uris":{"android":"levelo://app?vid=090ac0e3-c568-4216-9c48-af049604032d","ios":"levelo://app?vid=090ac0e3-c568-4216-9c48-af049604032d"},"vehicle_type_id":"4","last_reported":1712498776,"current_range_meters":14800,"station_id":"ce4bgjh2rcd13ifvqbg0","pricing_plan_id":"cebpf4jnsgd1na2vs0mg"},{"bike_id":"1bbcaaf6-fa97-4072-b931-2920e64bba02","system_id":"levelo_inurba_marseille","lat":43.298433,"lon":5.362774,"is_reserved":false,"is_disabled":false,"rental_uris":{"android":"levelo://app?vid=1bbcaaf6-fa97-4072-b931-2920e64bba02","ios":"levelo://app?vid=1bbcaaf6-fa97-4072-b931-2920e64bba02"},"vehicle_type_id":"4","last_reported":1712498776,"current_range_meters":4400,"station_id":"ce4bgpp2rcd13ifvqc3g","pricing_plan_id":"cebpf4jnsgd1na2vs0mg"},{"bike_id":"d4372b4a-8dcc-4cc9-af7f-1d896c66dbe9","system_id":"levelo_inurba_marseille","lat":43.299243,"lon":5.37481,"is_reserved":false,"is_disabled":false,"rental_uris":{"android":"levelo://app?vid=d4372b4a-8dcc-4cc9-af7f-1d896c66dbe9","ios":"levelo://app?vid=d4372b4a-8dcc-4cc9-af7f-1d896c66dbe9"},"vehicle_type_id":"4","last_reported":1712498776,"current_range_meters":20400,"station_id":"ce4bgjh2rcd13ifvqbg0","pricing_plan_id":"cebpf4jnsgd1na2vs0mg"},{"bike_id":"2eb6b913-9d7b-4f7e-a0c9-0e4a1bdbe57f","system_id":"levelo_inurba_marseille","lat":43.297794,"lon":5.370888,"is_reserved":false,"is_disabled":false,"rental_uris":{"android":"levelo://app?vid=2eb6b913-9d7b-4f7e-a0c9-0e4a1bdbe57f","ios":"levelo://app?vid=2eb6b913-9d7b-4f7e-a0c9-0e4a1bdbe57f"},"vehicle_type_id":"4","last_reported":1712498776,"current_range_meters":400,"station_id":"ce4bgop2rcd13ifvqc1g","pricing_plan_id":"cebpf4jnsgd1na2vs0mg"},{"bike_id":"500e0309-9435-4e37-b0f9-d2930ec67aab","system_id":"levelo_inurba_marseille","lat":43.29914,"lon":5.37474,"is_reserved":false,"is_disabled":false,"rental_uris":{"android":"levelo://app?vid=500e0309-9435-4e37-b0f9-d2930ec67aab","ios":"levelo://app?vid=500e0309-9435-4e37-b0f9-d2930ec67aab"},"vehicle_type_id":"4","last_reported":1712498776,"current_range_meters":26000,"station_id":"ce4bgjh2rcd13ifvqbg0","pricing_plan_id":"cebpf4jnsgd1na2vs0mg"},{"bike_id":"966a467e-94ef-45aa-ac75-489bc5e756b3","system_id":"levelo_inurba_marseille","lat":43.299243,"lon":5.37481,"is_reserved":false,"is_disabled":false,"rental_uris":{"android":"levelo://app?vid=966a467e-94ef-45aa-ac75-489bc5e756b3","ios":"levelo://app?vid=966a467e-94ef-45aa-ac75-489bc5e756b3"},"vehicle_type_id":"4","last_reported":1712498776,"current_range_meters":19600,"station_id":"ce4bgjh2rcd13ifvqbg0","pricing_plan_id":"cebpf4jnsgd1na2vs0mg"},{"bike_id":"c59232ca-a791-42df-9f23-c88cb3127fc7","system_id":"levelo_inurba_marseille","lat":43.311722,"lon":5.387247,"is_reserved":false,"is_disabled":false,"rental_uris":{"android":"levelo://app?vid=c59232ca-a791-42df-9f23-c88cb3127fc7","ios":"levelo://app?vid=c59232ca-a791-42df-9f23-c88cb3127fc7"},"vehicle_type_id":"4","last_reported":1712498776,"current_range_meters":15600,"station_id":"ce4bgv12rcd13ifvqcp0","pricing_plan_id":"cebpf4jnsgd1na2vs0mg"},{"bike_id":"2fb1b287-928d-43ef-96c3-e81d93721de4","system_id":"levelo_inurba_marseille","lat":43.328081,"lon":5.365753,"is_reserved":false,"is_disabled":false,"rental_uris":{"android":"levelo://app?vid=2fb1b287-928d-43ef-96c3-e81d93721de4","ios":"levelo://app?vid=2fb1b287-928d-43ef-96c3-e81d93721de4"},"vehicle_type_id":"4","last_reported":1712498776,"current_range_meters":8800,"station_id":"","pricing_plan_id":"cebpf4jnsgd1na2vs0mg"},{"bike_id":"79a09dc1-a136-4553-b035-ca9b20a658e5","system_id":"levelo_inurba_marseille","lat":43.30181,"lon":5.3818,"is_reserved":false,"is_disabled":false,"rental_uris":{"android":"levelo://app?vid=79a09dc1-a136-4553-b035-ca9b20a658e5","ios":"levelo://app?vid=79a09dc1-a136-4553-b035-ca9b20a658e5"},"vehicle_type_id":"4","last_reported":1712498776,"current_range_meters":5600,"station_id":"","pricing_plan_id":"cebpf4jnsgd1na2vs0mg"},{"bike_id":"d7e75336-9aea-4ee5-aa8f-9dbaad3fb19a","system_id":"levelo_inurba_marseille","lat":43.297163,"lon":5.365866,"is_reserved":false,"is_disabled":false,"rental_uris":{"android":"levelo://app?vid=d7e75336-9aea-4ee5-aa8f-9dbaad3fb19a","ios":"levelo://app?vid=d7e75336-9aea-4ee5-aa8f-9dbaad3fb19a"},"vehicle_type_id":"4","last_reported":1712498776,"current_range_meters":22000,"station_id":"ce4bgn12rcd13ifvqbt0","pricing_plan_id":"cebpf4jnsgd1na2vs0mg"},{"bike_id":"6542f455-e9aa-4e84-9cfd-ed2fbafdbca4","system_id":"levelo_inurba_marseille","lat":43.297163,"lon":5.365866,"is_reserved":false,"is_disabled":false,"rental_uris":{"android":"levelo://app?vid=6542f455-e9aa-4e84-9cfd-ed2fbafdbca4","ios":"levelo://app?vid=6542f455-e9aa-4e84-9cfd-ed2fbafdbca4"},"vehicle_type_id":"4","last_reported":1712498776,"current_range_meters":28400,"station_id":"ce4bgn12rcd13ifvqbt0","pricing_plan_id":"cebpf4jnsgd1na2vs0mg"},{"bike_id":"f7a41675-4dbc-446b-a223-efb694c432af","system_id":"levelo_inurba_marseille","lat":43.297163,"lon":5.365866,"is_reserved":false,"is_disabled":false,"rental_uris":{"android":"levelo://app?vid=f7a41675-4dbc-446b-a223-efb694c432af","ios":"levelo://app?vid=f7a41675-4dbc-446b-a223-efb694c432af"},"vehicle_type_id":"4","last_reported":1712498776,"current_range_meters":20000,"station_id":"ce4bgn12rcd13ifvqbt0","pricing_plan_id":"cebpf4jnsgd1na2vs0mg"},{"bike_id":"a9fe6da3-e193-4844-81a2-d623e1db6295","system_id":"levelo_inurba_marseille","lat":43.29615,"lon":5.37075,"is_reserved":false,"is_disabled":false,"rental_uris":{"android":"levelo://app?vid=a9fe6da3-e193-4844-81a2-d623e1db6295","ios":"levelo://app?vid=a9fe6da3-e193-4844-81a2-d623e1db6295"},"vehicle_type_id":"4","last_reported":1712498776,"current_range_meters":0,"station_id":"","pricing_plan_id":"cebpf4jnsgd1na2vs0mg"},{"bike_id":"aed6b8c7-3d65-430e-a536-bdd4937d8fd2","system_id":"levelo_inurba_marseille","lat":43.255756,"lon":5.382303,"is_reserved":false,"is_disabled":false,"rental_uris":{"android":"levelo://app?vid=aed6b8c7-3d65-430e-a536-bdd4937d8fd2","ios":"levelo://app?vid=aed6b8c7-3d65-430e-a536-bdd4937d8fd2"},"vehicle_type_id":"4","last_reported":1712498776,"current_range_meters":14000,"station_id":"ce4bhih2rcd13ifvqfs0","pricing_plan_id":"cebpf4jnsgd1na2vs0mg"},{"bike_id":"58afc412-84f7-4df9-b14c-09d888cbd65b","system_id":"levelo_inurba_marseille","lat":43.29573,"lon":5.367355,"is_reserved":false,"is_disabled":false,"rental_uris":{"android":"levelo://app?vid=58afc412-84f7-4df9-b14c-09d888cbd65b","ios":"levelo://app?vid=58afc412-84f7-4df9-b14c-09d888cbd65b"},"vehicle_type_id":"4","last_reported":1712498776,"current_range_meters":26400,"station_id":"ce4bgph2rcd13ifvqc2g","pricing_plan_id":"cebpf4jnsgd1na2vs0mg"},{"bike_id":"ea2ba775-6cc0-4564-8fb2-9a898769a4cb","system_id":"levelo_inurba_marseille","lat":43.296935,"lon":5.376544,"is_reserved":false,"is_disabled":false,"rental_uris":{"android":"levelo://app?vid=ea2ba775-6cc0-4564-8fb2-9a898769a4cb","ios":"levelo://app?vid=ea2ba775-6cc0-4564-8fb2-9a898769a4cb"},"vehicle_type_id":"4","last_reported":1712498776,"current_range_meters":13600,"station_id":"ce4bgkh2rcd13ifvqbl0","pricing_plan_id":"cebpf4jnsgd1na2vs0mg"},{"bike_id":"e522f37e-1964-4d3e-9893-7c2860f80bd9","system_id":"levelo_inurba_marseille","lat":43.309589,"lon":5.390258,"is_reserved":false,"is_disabled":false,"rental_uris":{"android":"levelo://app?vid=e522f37e-1964-4d3e-9893-7c2860f80bd9","ios":"levelo://app?vid=e522f37e-1964-4d3e-9893-7c2860f80bd9"},"vehicle_type_id":"4","last_reported":1712498776,"current_range_meters":28800,"station_id":"ce4bgup2rcd13ifvqco0","pricing_plan_id":"cebpf4jnsgd1na2vs0mg"},{"bike_id":"e74b80f4-a674-4f42-916a-3dddcca7319b","system_id":"levelo_inurba_marseille","lat":43.309589,"lon":5.390258,"is_reserved":false,"is_disabled":false,"rental_uris":{"android":"levelo://app?vid=e74b80f4-a674-4f42-916a-3dddcca7319b","ios":"levelo://app?vid=e74b80f4-a674-4f42-916a-3dddcca7319b"},"vehicle_type_id":"4","last_reported":1712498776,"current_range_meters":4400,"station_id":"ce4bgup2rcd13ifvqco0","pricing_plan_id":"cebpf4jnsgd1na2vs0mg"},{"bike_id":"ebde5dd0-1c84-4524-98ca-48985273a003","system_id":"levelo_inurba_marseille","lat":43.298433,"lon":5.362774,"is_reserved":false,"is_disabled":false,"rental_uris":{"android":"levelo://app?vid=ebde5dd0-1c84-4524-98ca-48985273a003","ios":"levelo://app?vid=ebde5dd0-1c84-4524-98ca-48985273a003"},"vehicle_type_id":"4","last_reported":1712498776,"current_range_meters":7200,"station_id":"ce4bgpp2rcd13ifvqc3g","pricing_plan_id":"cebpf4jnsgd1na2vs0mg"},{"bike_id":"0fd6e2f7-38bd-4ca2-aacc-206ae44a64ed","system_id":"levelo_inurba_marseille","lat":43.317557,"lon":5.390173,"is_reserved":false,"is_disabled":false,"rental_uris":{"android":"levelo://app?vid=0fd6e2f7-38bd-4ca2-aacc-206ae44a64ed","ios":"levelo://app?vid=0fd6e2f7-38bd-4ca2-aacc-206ae44a64ed"},"vehicle_type_id":"4","last_reported":1712498776,"current_range_meters":23600,"station_id":"ce4bhqp2rcd13ifvqhng","pricing_plan_id":"cebpf4jnsgd1na2vs0mg"},{"bike_id":"5c4b54e7-da2d-41de-a4cb-d7b9e819f750","system_id":"levelo_inurba_marseille","lat":43.295748,"lon":5.37522,"is_reserved":false,"is_disabled":false,"rental_uris":{"android":"levelo://app?vid=5c4b54e7-da2d-41de-a4cb-d7b9e819f750","ios":"levelo://app?vid=5c4b54e7-da2d-41de-a4cb-d7b9e819f750"},"vehicle_type_id":"4","last_reported":1712498776,"current_range_meters":0,"station_id":"ce4bgh92rcd13ifvqb50","pricing_plan_id":"cebpf4jnsgd1na2vs0mg"},{"bike_id":"25d14f35-e804-4c29-86b7-6b7a5ecc82b6","system_id":"levelo_inurba_marseille","lat":43.295748,"lon":5.37522,"is_reserved":false,"is_disabled":false,"rental_uris":{"android":"levelo://app?vid=25d14f35-e804-4c29-86b7-6b7a5ecc82b6","ios":"levelo://app?vid=25d14f35-e804-4c29-86b7-6b7a5ecc82b6"},"vehicle_type_id":"4","last_reported":1712498776,"current_range_meters":0,"station_id":"ce4bgh92rcd13ifvqb50","pricing_plan_id":"cebpf4jnsgd1na2vs0mg"},{"bike_id":"3bbd6a0d-0b9f-4d54-96ee-e625021d06d6","system_id":"levelo_inurba_marseille","lat":43.295748,"lon":5.37522,"is_reserved":false,"is_disabled":false,"rental_uris":{"android":"levelo://app?vid=3bbd6a0d-0b9f-4d54-96ee-e625021d06d6","ios":"levelo://app?vid=3bbd6a0d-0b9f-4d54-96ee-e625021d06d6"},"vehicle_type_id":"4","last_reported":1712498776,"current_range_meters":27200,"station_id":"ce4bgh92rcd13ifvqb50","pricing_plan_id":"cebpf4jnsgd1na2vs0mg"},{"bike_id":"8d8cd24b-e28d-44a2-b2b1-4a0d252a16d5","system_id":"levelo_inurba_marseille","lat":43.295748,"lon":5.37522,"is_reserved":false,"is_disabled":false,"rental_uris":{"android":"levelo://app?vid=8d8cd24b-e28d-44a2-b2b1-4a0d252a16d5","ios":"levelo://app?vid=8d8cd24b-e28d-44a2-b2b1-4a0d252a16d5"},"vehicle_type_id":"4","last_reported":1712498776,"current_range_meters":400,"station_id":"ce4bgh92rcd13ifvqb50","pricing_plan_id":"cebpf4jnsgd1na2vs0mg"},{"bike_id":"64647913-f8d6-4c56-b15a-5fbe90dccecb","system_id":"levelo_inurba_marseille","lat":43.302759,"lon":5.400793,"is_reserved":false,"is_disabled":false,"rental_uris":{"android":"levelo://app?vid=64647913-f8d6-4c56-b15a-5fbe90dccecb","ios":"levelo://app?vid=64647913-f8d6-4c56-b15a-5fbe90dccecb"},"vehicle_type_id":"4","last_reported":1712498776,"current_range_meters":6400,"station_id":"ce4bgvh2rcd13ifvqcs0","pricing_plan_id":"cebpf4jnsgd1na2vs0mg"},{"bike_id":"2656005b-c7c5-414e-93e9-c20f07be1a70","system_id":"levelo_inurba_marseille","lat":43.292749,"lon":5.368402,"is_reserved":false,"is_disabled":false,"rental_uris":{"android":"levelo://app?vid=2656005b-c7c5-414e-93e9-c20f07be1a70","ios":"levelo://app?vid=2656005b-c7c5-414e-93e9-c20f07be1a70"},"vehicle_type_id":"4","last_reported":1712498776,"current_range_meters":12400,"station_id":"ce4bhbp2rcd13ifvqesg","pricing_plan_id":"cebpf4jnsgd1na2vs0mg"},{"bike_id":"d763b77b-58df-464f-9f17-e2d94351e019","system_id":"levelo_inurba_marseille","lat":43.298037,"lon":5.381066,"is_reserved":false,"is_disabled":false,"rental_uris":{"android":"levelo://app?vid=d763b77b-58df-464f-9f17-e2d94351e019","ios":"levelo://app?vid=d763b77b-58df-464f-9f17-e2d94351e019"},"vehicle_type_id":"4","last_reported":1712498776,"current_range_meters":15200,"station_id":"ce4bgip2rcd13ifvqbb0","pricing_plan_id":"cebpf4jnsgd1na2vs0mg"},{"bike_id":"56c3de64-7417-4df8-8ddb-f5a95a6e6763","system_id":"levelo_inurba_marseille","lat":43.2963,"lon":5.37732,"is_reserved":false,"is_disabled":false,"rental_uris":{"android":"levelo://app?vid=56c3de64-7417-4df8-8ddb-f5a95a6e6763","ios":"levelo://app?vid=56c3de64-7417-4df8-8ddb-f5a95a6e6763"},"vehicle_type_id":"4","last_reported":1712498776,"current_range_meters":0,"station_id":"ce4bgi92rcd13ifvqb90","pricing_plan_id":"cebpf4jnsgd1na2vs0mg"},{"bike_id":"e0458af9-7149-4d8f-b578-5fb4257957ea","system_id":"levelo_inurba_marseille","lat":43.304278,"lon":5.388868,"is_reserved":false,"is_disabled":false,"rental_uris":{"android":"levelo://app?vid=e0458af9-7149-4d8f-b578-5fb4257957ea","ios":"levelo://app?vid=e0458af9-7149-4d8f-b578-5fb4257957ea"},"vehicle_type_id":"4","last_reported":1712498776,"current_range_meters":5200,"station_id":"ce4bgk12rcd13ifvqbi0","pricing_plan_id":"cebpf4jnsgd1na2vs0mg"},{"bike_id":"86f1cb3f-3777-4201-9b2e-e513b5938380","system_id":"levelo_inurba_marseille","lat":43.304278,"lon":5.388868,"is_reserved":false,"is_disabled":false,"rental_uris":{"android":"levelo://app?vid=86f1cb3f-3777-4201-9b2e-e513b5938380","ios":"levelo://app?vid=86f1cb3f-3777-4201-9b2e-e513b5938380"},"vehicle_type_id":"4","last_reported":1712498776,"current_range_meters":4400,"station_id":"ce4bgk12rcd13ifvqbi0","pricing_plan_id":"cebpf4jnsgd1na2vs0mg"},{"bike_id":"66a0af39-d9b5-412b-9226-e2fcd51622c0","system_id":"levelo_inurba_marseille","lat":43.296263,"lon":5.377094,"is_reserved":false,"is_disabled":false,"rental_uris":{"android":"levelo://app?vid=66a0af39-d9b5-412b-9226-e2fcd51622c0","ios":"levelo://app?vid=66a0af39-d9b5-412b-9226-e2fcd51622c0"},"vehicle_type_id":"4","last_reported":1712498776,"current_range_meters":0,"station_id":"ce4bgi92rcd13ifvqb90","pricing_plan_id":"cebpf4jnsgd1na2vs0mg"},{"bike_id":"a1f7a928-cb41-4e2b-9bbb-c74363ac1de6","system_id":"levelo_inurba_marseille","lat":43.296277,"lon":5.377108,"is_reserved":false,"is_disabled":false,"rental_uris":{"android":"levelo://app?vid=a1f7a928-cb41-4e2b-9bbb-c74363ac1de6","ios":"levelo://app?vid=a1f7a928-cb41-4e2b-9bbb-c74363ac1de6"},"vehicle_type_id":"4","last_reported":1712498776,"current_range_meters":4800,"station_id":"ce4bgi92rcd13ifvqb90","pricing_plan_id":"cebpf4jnsgd1na2vs0mg"},{"bike_id":"d089b7ec-9848-4fd9-94cf-249d00643186","system_id":"levelo_inurba_marseille","lat":43.296277,"lon":5.377108,"is_reserved":false,"is_disabled":false,"rental_uris":{"android":"levelo://app?vid=d089b7ec-9848-4fd9-94cf-249d00643186","ios":"levelo://app?vid=d089b7ec-9848-4fd9-94cf-249d00643186"},"vehicle_type_id":"4","last_reported":1712498776,"current_range_meters":2400,"station_id":"ce4bgi92rcd13ifvqb90","pricing_plan_id":"cebpf4jnsgd1na2vs0mg"},{"bike_id":"7a2e8024-371f-4d91-b893-f5938dc0e05f","system_id":"levelo_inurba_marseille","lat":43.29533,"lon":5.37426,"is_reserved":false,"is_disabled":false,"rental_uris":{"android":"levelo://app?vid=7a2e8024-371f-4d91-b893-f5938dc0e05f","ios":"levelo://app?vid=7a2e8024-371f-4d91-b893-f5938dc0e05f"},"vehicle_type_id":"4","last_reported":1712498776,"current_range_meters":17200,"station_id":"","pricing_plan_id":"cebpf4jnsgd1na2vs0mg"},{"bike_id":"7a22330f-583d-465a-9027-74ec718d6b8b","system_id":"levelo_inurba_marseille","lat":43.28856,"lon":5.358371,"is_reserved":false,"is_disabled":false,"rental_uris":{"android":"levelo://app?vid=7a22330f-583d-465a-9027-74ec718d6b8b","ios":"levelo://app?vid=7a22330f-583d-465a-9027-74ec718d6b8b"},"vehicle_type_id":"4","last_reported":1712498776,"current_range_meters":29600,"station_id":"ce4bhb12rcd13ifvqem0","pricing_plan_id":"cebpf4jnsgd1na2vs0mg"},{"bike_id":"fe1a8230-09c4-489c-9aa6-809add6b2743","system_id":"levelo_inurba_marseille","lat":43.29528,"lon":5.37504,"is_reserved":false,"is_disabled":false,"rental_uris":{"android":"levelo://app?vid=fe1a8230-09c4-489c-9aa6-809add6b2743","ios":"levelo://app?vid=fe1a8230-09c4-489c-9aa6-809add6b2743"},"vehicle_type_id":"4","last_reported":1712498776,"current_range_meters":20000,"station_id":"ce4bgkp2rcd13ifvqbmg","pricing_plan_id":"cebpf4jnsgd1na2vs0mg"},{"bike_id":"c443759c-45ab-4b80-9f4a-b6ed57661d5f","system_id":"levelo_inurba_marseille","lat":43.29522,"lon":5.37497,"is_reserved":false,"is_disabled":false,"rental_uris":{"android":"levelo://app?vid=c443759c-45ab-4b80-9f4a-b6ed57661d5f","ios":"levelo://app?vid=c443759c-45ab-4b80-9f4a-b6ed57661d5f"},"vehicle_type_id":"4","last_reported":1712498776,"current_range_meters":4000,"station_id":"ce4bgkp2rcd13ifvqbmg","pricing_plan_id":"cebpf4jnsgd1na2vs0mg"},{"bike_id":"a8b6f662-c6ff-49cd-921d-8dbbffa6dc9f","system_id":"levelo_inurba_marseille","lat":43.29971,"lon":5.38502,"is_reserved":false,"is_disabled":false,"rental_uris":{"android":"levelo://app?vid=a8b6f662-c6ff-49cd-921d-8dbbffa6dc9f","ios":"levelo://app?vid=a8b6f662-c6ff-49cd-921d-8dbbffa6dc9f"},"vehicle_type_id":"4","last_reported":1712498776,"current_range_meters":0,"station_id":"ce4bgj92rcd13ifvqbd0","pricing_plan_id":"cebpf4jnsgd1na2vs0mg"},{"bike_id":"b762fe4c-e7de-4b4f-a471-fd28babaa0f8","system_id":"levelo_inurba_marseille","lat":43.299724,"lon":5.384848,"is_reserved":false,"is_disabled":false,"rental_uris":{"android":"levelo://app?vid=b762fe4c-e7de-4b4f-a471-fd28babaa0f8","ios":"levelo://app?vid=b762fe4c-e7de-4b4f-a471-fd28babaa0f8"},"vehicle_type_id":"4","last_reported":1712498776,"current_range_meters":9200,"station_id":"ce4bgj92rcd13ifvqbd0","pricing_plan_id":"cebpf4jnsgd1na2vs0mg"},{"bike_id":"510316f1-9198-41df-b97f-8e24f8784545","system_id":"levelo_inurba_marseille","lat":43.32367,"lon":5.388836,"is_reserved":false,"is_disabled":false,"rental_uris":{"android":"levelo://app?vid=510316f1-9198-41df-b97f-8e24f8784545","ios":"levelo://app?vid=510316f1-9198-41df-b97f-8e24f8784545"},"vehicle_type_id":"4","last_reported":1712498776,"current_range_meters":4400,"station_id":"ce4bhqp2rcd13ifvqhog","pricing_plan_id":"cebpf4jnsgd1na2vs0mg"},{"bike_id":"1f2c4194-57b7-428c-a396-3c984af6ed48","system_id":"levelo_inurba_marseille","lat":43.32367,"lon":5.388836,"is_reserved":false,"is_disabled":false,"rental_uris":{"android":"levelo://app?vid=1f2c4194-57b7-428c-a396-3c984af6ed48","ios":"levelo://app?vid=1f2c4194-57b7-428c-a396-3c984af6ed48"},"vehicle_type_id":"4","last_reported":1712498776,"current_range_meters":2800,"station_id":"ce4bhqp2rcd13ifvqhog","pricing_plan_id":"cebpf4jnsgd1na2vs0mg"},{"bike_id":"8cc67321-7b3a-4636-be25-b2c28d445842","system_id":"levelo_inurba_marseille","lat":43.29601,"lon":5.381084,"is_reserved":false,"is_disabled":false,"rental_uris":{"android":"levelo://app?vid=8cc67321-7b3a-4636-be25-b2c28d445842","ios":"levelo://app?vid=8cc67321-7b3a-4636-be25-b2c28d445842"},"vehicle_type_id":"4","last_reported":1712498776,"current_range_meters":8800,"station_id":"ce4bgl12rcd13ifvqbo0","pricing_plan_id":"cebpf4jnsgd1na2vs0mg"},{"bike_id":"873d663f-892e-407d-86cd-ad278864b6af","system_id":"levelo_inurba_marseille","lat":43.293259,"lon":5.371586,"is_reserved":false,"is_disabled":false,"rental_uris":{"android":"levelo://app?vid=873d663f-892e-407d-86cd-ad278864b6af","ios":"levelo://app?vid=873d663f-892e-407d-86cd-ad278864b6af"},"vehicle_type_id":"4","last_reported":1712498776,"current_range_meters":15200,"station_id":"ce4bgh92rcd13ifvqb40","pricing_plan_id":"cebpf4jnsgd1na2vs0mg"},{"bike_id":"f281304c-557b-46c2-b4ce-26668e115df3","system_id":"levelo_inurba_marseille","lat":43.294917,"lon":5.379653,"is_reserved":false,"is_disabled":false,"rental_uris":{"android":"levelo://app?vid=f281304c-557b-46c2-b4ce-26668e115df3","ios":"levelo://app?vid=f281304c-557b-46c2-b4ce-26668e115df3"},"vehicle_type_id":"4","last_reported":1712498776,"current_range_meters":6800,"station_id":"","pricing_plan_id":"cebpf4jnsgd1na2vs0mg"},{"bike_id":"920c4f3c-a3ea-4e97-b8d4-83d8f8d236d7","system_id":"levelo_inurba_marseille","lat":43.300019,"lon":5.388551,"is_reserved":false,"is_disabled":false,"rental_uris":{"android":"levelo://app?vid=920c4f3c-a3ea-4e97-b8d4-83d8f8d236d7","ios":"levelo://app?vid=920c4f3c-a3ea-4e97-b8d4-83d8f8d236d7"},"vehicle_type_id":"4","last_reported":1712498776,"current_range_meters":21600,"station_id":"","pricing_plan_id":"cebpf4jnsgd1na2vs0mg"},{"bike_id":"c29de7dc-75c7-49ec-afb6-5565874b232e","system_id":"levelo_inurba_marseille","lat":43.2936,"lon":5.37835,"is_reserved":false,"is_disabled":false,"rental_uris":{"android":"levelo://app?vid=c29de7dc-75c7-49ec-afb6-5565874b232e","ios":"levelo://app?vid=c29de7dc-75c7-49ec-afb6-5565874b232e"},"vehicle_type_id":"4","last_reported":1712498776,"current_range_meters":2800,"station_id":"ce4bgjh2rcd13ifvqbf0","pricing_plan_id":"cebpf4jnsgd1na2vs0mg"},{"bike_id":"b27edba3-d1de-4586-a708-952b5382655c","system_id":"levelo_inurba_marseille","lat":43.293009,"lon":5.374584,"is_reserved":false,"is_disabled":false,"rental_uris":{"android":"levelo://app?vid=b27edba3-d1de-4586-a708-952b5382655c","ios":"levelo://app?vid=b27edba3-d1de-4586-a708-952b5382655c"},"vehicle_type_id":"4","last_reported":1712498776,"current_range_meters":0,"station_id":"ce4bgi12rcd13ifvqb70","pricing_plan_id":"cebpf4jnsgd1na2vs0mg"},{"bike_id":"1fc2fe82-849a-4ee6-a5f3-10e2912634e8","system_id":"levelo_inurba_marseille","lat":43.29339,"lon":5.377023,"is_reserved":false,"is_disabled":false,"rental_uris":{"android":"levelo://app?vid=1fc2fe82-849a-4ee6-a5f3-10e2912634e8","ios":"levelo://app?vid=1fc2fe82-849a-4ee6-a5f3-10e2912634e8"},"vehicle_type_id":"4","last_reported":1712498776,"current_range_meters":0,"station_id":"","pricing_plan_id":"cebpf4jnsgd1na2vs0mg"},{"bike_id":"3f7828da-4451-44f7-8922-2dcf1e3555c2","system_id":"levelo_inurba_marseille","lat":43.302992,"lon":5.392136,"is_reserved":false,"is_disabled":false,"rental_uris":{"android":"levelo://app?vid=3f7828da-4451-44f7-8922-2dcf1e3555c2","ios":"levelo://app?vid=3f7828da-4451-44f7-8922-2dcf1e3555c2"},"vehicle_type_id":"4","last_reported":1712498776,"current_range_meters":0,"station_id":"ce4bgkh2rcd13ifvqbk0","pricing_plan_id":"cebpf4jnsgd1na2vs0mg"},{"bike_id":"77f6f354-cfa2-41c4-8b2a-c928d7067227","system_id":"levelo_inurba_marseille","lat":43.292311,"lon":5.360731,"is_reserved":false,"is_disabled":false,"rental_uris":{"android":"levelo://app?vid=77f6f354-cfa2-41c4-8b2a-c928d7067227","ios":"levelo://app?vid=77f6f354-cfa2-41c4-8b2a-c928d7067227"},"vehicle_type_id":"4","last_reported":1712498776,"current_range_meters":29600,"station_id":"ce4bhbh2rcd13ifvqeqg","pricing_plan_id":"cebpf4jnsgd1na2vs0mg"},{"bike_id":"07b2ded7-ef9d-4540-b063-e10585d51891","system_id":"levelo_inurba_marseille","lat":43.292311,"lon":5.360731,"is_reserved":false,"is_disabled":false,"rental_uris":{"android":"levelo://app?vid=07b2ded7-ef9d-4540-b063-e10585d51891","ios":"levelo://app?vid=07b2ded7-ef9d-4540-b063-e10585d51891"},"vehicle_type_id":"4","last_reported":1712498776,"current_range_meters":20400,"station_id":"ce4bhbh2rcd13ifvqeqg","pricing_plan_id":"cebpf4jnsgd1na2vs0mg"},{"bike_id":"4c7c1456-31b3-4ae5-84d1-6eba0c64bb3f","system_id":"levelo_inurba_marseille","lat":43.292311,"lon":5.360731,"is_reserved":false,"is_disabled":false,"rental_uris":{"android":"levelo://app?vid=4c7c1456-31b3-4ae5-84d1-6eba0c64bb3f","ios":"levelo://app?vid=4c7c1456-31b3-4ae5-84d1-6eba0c64bb3f"},"vehicle_type_id":"4","last_reported":1712498776,"current_range_meters":0,"station_id":"ce4bhbh2rcd13ifvqeqg","pricing_plan_id":"cebpf4jnsgd1na2vs0mg"},{"bike_id":"0b520915-0355-4047-ba5a-a29e0912143b","system_id":"levelo_inurba_marseille","lat":43.300852,"lon":5.390859,"is_reserved":false,"is_disabled":false,"rental_uris":{"android":"levelo://app?vid=0b520915-0355-4047-ba5a-a29e0912143b","ios":"levelo://app?vid=0b520915-0355-4047-ba5a-a29e0912143b"},"vehicle_type_id":"4","last_reported":1712498776,"current_range_meters":21600,"station_id":"ce4bh192rcd13ifvqdb0","pricing_plan_id":"cebpf4jnsgd1na2vs0mg"},{"bike_id":"4a71f95d-ca85-4620-9533-5855f76f0dbb","system_id":"levelo_inurba_marseille","lat":43.292311,"lon":5.360731,"is_reserved":false,"is_disabled":false,"rental_uris":{"android":"levelo://app?vid=4a71f95d-ca85-4620-9533-5855f76f0dbb","ios":"levelo://app?vid=4a71f95d-ca85-4620-9533-5855f76f0dbb"},"vehicle_type_id":"4","last_reported":1712498776,"current_range_meters":4400,"station_id":"ce4bhbh2rcd13ifvqeqg","pricing_plan_id":"cebpf4jnsgd1na2vs0mg"},{"bike_id":"59012100-1528-4a04-aef0-7455ce64a463","system_id":"levelo_inurba_marseille","lat":43.29224,"lon":5.36067,"is_reserved":false,"is_disabled":false,"rental_uris":{"android":"levelo://app?vid=59012100-1528-4a04-aef0-7455ce64a463","ios":"levelo://app?vid=59012100-1528-4a04-aef0-7455ce64a463"},"vehicle_type_id":"4","last_reported":1712498776,"current_range_meters":18400,"station_id":"ce4bhbh2rcd13ifvqeqg","pricing_plan_id":"cebpf4jnsgd1na2vs0mg"},{"bike_id":"10e3ae8d-26f5-47a5-be21-5db3ec60e54e","system_id":"levelo_inurba_marseille","lat":43.29225,"lon":5.3606,"is_reserved":false,"is_disabled":false,"rental_uris":{"android":"levelo://app?vid=10e3ae8d-26f5-47a5-be21-5db3ec60e54e","ios":"levelo://app?vid=10e3ae8d-26f5-47a5-be21-5db3ec60e54e"},"vehicle_type_id":"4","last_reported":1712498776,"current_range_meters":22000,"station_id":"ce4bhbh2rcd13ifvqeqg","pricing_plan_id":"cebpf4jnsgd1na2vs0mg"},{"bike_id":"0661acdf-6075-4d4a-b2dd-18609c1cb0a4","system_id":"levelo_inurba_marseille","lat":43.292311,"lon":5.360731,"is_reserved":false,"is_disabled":false,"rental_uris":{"android":"levelo://app?vid=0661acdf-6075-4d4a-b2dd-18609c1cb0a4","ios":"levelo://app?vid=0661acdf-6075-4d4a-b2dd-18609c1cb0a4"},"vehicle_type_id":"4","last_reported":1712498776,"current_range_meters":22000,"station_id":"ce4bhbh2rcd13ifvqeqg","pricing_plan_id":"cebpf4jnsgd1na2vs0mg"},{"bike_id":"7e89054e-311d-44b4-b185-7ca564e01301","system_id":"levelo_inurba_marseille","lat":43.291671,"lon":5.371575,"is_reserved":false,"is_disabled":false,"rental_uris":{"android":"levelo://app?vid=7e89054e-311d-44b4-b185-7ca564e01301","ios":"levelo://app?vid=7e89054e-311d-44b4-b185-7ca564e01301"},"vehicle_type_id":"4","last_reported":1712498776,"current_range_meters":14400,"station_id":"ce4bha92rcd13ifvqeh0","pricing_plan_id":"cebpf4jnsgd1na2vs0mg"},{"bike_id":"bc039b7c-7523-4fe5-b94b-6ae39acd7668","system_id":"levelo_inurba_marseille","lat":43.298764,"lon":5.388973,"is_reserved":false,"is_disabled":false,"rental_uris":{"android":"levelo://app?vid=bc039b7c-7523-4fe5-b94b-6ae39acd7668","ios":"levelo://app?vid=bc039b7c-7523-4fe5-b94b-6ae39acd7668"},"vehicle_type_id":"4","last_reported":1712498776,"current_range_meters":27200,"station_id":"ce4bh392rcd13ifvqdl0","pricing_plan_id":"cebpf4jnsgd1na2vs0mg"},{"bike_id":"a1a4e105-30b6-40e8-a453-38d8f94ddaa0","system_id":"levelo_inurba_marseille","lat":43.298764,"lon":5.388973,"is_reserved":false,"is_disabled":false,"rental_uris":{"android":"levelo://app?vid=a1a4e105-30b6-40e8-a453-38d8f94ddaa0","ios":"levelo://app?vid=a1a4e105-30b6-40e8-a453-38d8f94ddaa0"},"vehicle_type_id":"4","last_reported":1712498776,"current_range_meters":0,"station_id":"ce4bh392rcd13ifvqdl0","pricing_plan_id":"cebpf4jnsgd1na2vs0mg"},{"bike_id":"db4bc776-cbce-4b79-ae2a-5ae31c1ec093","system_id":"levelo_inurba_marseille","lat":43.2936,"lon":5.37835,"is_reserved":false,"is_disabled":false,"rental_uris":{"android":"levelo://app?vid=db4bc776-cbce-4b79-ae2a-5ae31c1ec093","ios":"levelo://app?vid=db4bc776-cbce-4b79-ae2a-5ae31c1ec093"},"vehicle_type_id":"4","last_reported":1712498776,"current_range_meters":400,"station_id":"ce4bgjh2rcd13ifvqbf0","pricing_plan_id":"cebpf4jnsgd1na2vs0mg"},{"bike_id":"d1972f1f-b4e7-4bf9-8cc3-d45e0b088f0a","system_id":"levelo_inurba_marseille","lat":43.292005,"lon":5.357875,"is_reserved":false,"is_disabled":false,"rental_uris":{"android":"levelo://app?vid=d1972f1f-b4e7-4bf9-8cc3-d45e0b088f0a","ios":"levelo://app?vid=d1972f1f-b4e7-4bf9-8cc3-d45e0b088f0a"},"vehicle_type_id":"4","last_reported":1712498776,"current_range_meters":0,"station_id":"ce4bhb12rcd13ifvqel0","pricing_plan_id":"cebpf4jnsgd1na2vs0mg"},{"bike_id":"ca01e377-1db9-4cb4-b000-59b60b7cd638","system_id":"levelo_inurba_marseille","lat":43.313291,"lon":5.396838,"is_reserved":false,"is_disabled":false,"rental_uris":{"android":"levelo://app?vid=ca01e377-1db9-4cb4-b000-59b60b7cd638","ios":"levelo://app?vid=ca01e377-1db9-4cb4-b000-59b60b7cd638"},"vehicle_type_id":"4","last_reported":1712498776,"current_range_meters":2000,"station_id":"ce4bgvp2rcd13ifvqcu0","pricing_plan_id":"cebpf4jnsgd1na2vs0mg"},{"bike_id":"34384bcd-295a-4cb9-b642-a29b75723e8b","system_id":"levelo_inurba_marseille","lat":43.305706,"lon":5.365654,"is_reserved":false,"is_disabled":false,"rental_uris":{"android":"levelo://app?vid=34384bcd-295a-4cb9-b642-a29b75723e8b","ios":"levelo://app?vid=34384bcd-295a-4cb9-b642-a29b75723e8b"},"vehicle_type_id":"4","last_reported":1712498776,"current_range_meters":0,"station_id":"ce4bgs12rcd13ifvqcag","pricing_plan_id":"cebpf4jnsgd1na2vs0mg"},{"bike_id":"ab45ed4c-2081-4c89-883d-8261d5109eed","system_id":"levelo_inurba_marseille","lat":43.290779,"lon":5.371482,"is_reserved":false,"is_disabled":false,"rental_uris":{"android":"levelo://app?vid=ab45ed4c-2081-4c89-883d-8261d5109eed","ios":"levelo://app?vid=ab45ed4c-2081-4c89-883d-8261d5109eed"},"vehicle_type_id":"4","last_reported":1712498776,"current_range_meters":21600,"station_id":"ce4bh5p2rcd13ifvqe4g","pricing_plan_id":"cebpf4jnsgd1na2vs0mg"},{"bike_id":"662a9a62-b209-44cc-befb-a71297399f3d","system_id":"levelo_inurba_marseille","lat":43.29454,"lon":5.38563,"is_reserved":false,"is_disabled":false,"rental_uris":{"android":"levelo://app?vid=662a9a62-b209-44cc-befb-a71297399f3d","ios":"levelo://app?vid=662a9a62-b209-44cc-befb-a71297399f3d"},"vehicle_type_id":"4","last_reported":1712498776,"current_range_meters":9600,"station_id":"","pricing_plan_id":"cebpf4jnsgd1na2vs0mg"},{"bike_id":"f39e18b5-4718-4d18-9315-e0a22aeb09bb","system_id":"levelo_inurba_marseille","lat":43.299707,"lon":5.384859,"is_reserved":false,"is_disabled":false,"rental_uris":{"android":"levelo://app?vid=f39e18b5-4718-4d18-9315-e0a22aeb09bb","ios":"levelo://app?vid=f39e18b5-4718-4d18-9315-e0a22aeb09bb"},"vehicle_type_id":"4","last_reported":1712498776,"current_range_meters":22800,"station_id":"ce4bgj92rcd13ifvqbd0","pricing_plan_id":"cebpf4jnsgd1na2vs0mg"},{"bike_id":"a4ba4064-ce4a-4972-85f6-cb6f56f59947","system_id":"levelo_inurba_marseille","lat":43.290631,"lon":5.359244,"is_reserved":false,"is_disabled":false,"rental_uris":{"android":"levelo://app?vid=a4ba4064-ce4a-4972-85f6-cb6f56f59947","ios":"levelo://app?vid=a4ba4064-ce4a-4972-85f6-cb6f56f59947"},"vehicle_type_id":"4","last_reported":1712498776,"current_range_meters":22000,"station_id":"ce4bha92rcd13ifvqeg0","pricing_plan_id":"cebpf4jnsgd1na2vs0mg"},{"bike_id":"761abf59-83d2-48ce-9bb4-8b4ff6f6a275","system_id":"levelo_inurba_marseille","lat":43.290631,"lon":5.359244,"is_reserved":false,"is_disabled":false,"rental_uris":{"android":"levelo://app?vid=761abf59-83d2-48ce-9bb4-8b4ff6f6a275","ios":"levelo://app?vid=761abf59-83d2-48ce-9bb4-8b4ff6f6a275"},"vehicle_type_id":"4","last_reported":1712498776,"current_range_meters":20400,"station_id":"ce4bha92rcd13ifvqeg0","pricing_plan_id":"cebpf4jnsgd1na2vs0mg"},{"bike_id":"aeb481ad-e089-4189-9063-5f34c1646c58","system_id":"levelo_inurba_marseille","lat":43.28968,"lon":5.37023,"is_reserved":false,"is_disabled":false,"rental_uris":{"android":"levelo://app?vid=aeb481ad-e089-4189-9063-5f34c1646c58","ios":"levelo://app?vid=aeb481ad-e089-4189-9063-5f34c1646c58"},"vehicle_type_id":"4","last_reported":1712498776,"current_range_meters":14000,"station_id":"","pricing_plan_id":"cebpf4jnsgd1na2vs0mg"},{"bike_id":"d77d8ba9-26b1-418e-9ad5-753169798597","system_id":"levelo_inurba_marseille","lat":43.29416,"lon":5.38632,"is_reserved":false,"is_disabled":false,"rental_uris":{"android":"levelo://app?vid=d77d8ba9-26b1-418e-9ad5-753169798597","ios":"levelo://app?vid=d77d8ba9-26b1-418e-9ad5-753169798597"},"vehicle_type_id":"4","last_reported":1712498776,"current_range_meters":23200,"station_id":"ce4bh2h2rcd13ifvqdh0","pricing_plan_id":"cebpf4jnsgd1na2vs0mg"},{"bike_id":"2073a914-add1-4049-90e7-eea87851ab46","system_id":"levelo_inurba_marseille","lat":43.289184,"lon":5.366408,"is_reserved":false,"is_disabled":false,"rental_uris":{"android":"levelo://app?vid=2073a914-add1-4049-90e7-eea87851ab46","ios":"levelo://app?vid=2073a914-add1-4049-90e7-eea87851ab46"},"vehicle_type_id":"4","last_reported":1712498776,"current_range_meters":12400,"station_id":"ce4bhap2rcd13ifvqek0","pricing_plan_id":"cebpf4jnsgd1na2vs0mg"},{"bike_id":"196a0c71-6d98-4985-82d1-b3e8ad917f41","system_id":"levelo_inurba_marseille","lat":43.29006,"lon":5.35618,"is_reserved":false,"is_disabled":false,"rental_uris":{"android":"levelo://app?vid=196a0c71-6d98-4985-82d1-b3e8ad917f41","ios":"levelo://app?vid=196a0c71-6d98-4985-82d1-b3e8ad917f41"},"vehicle_type_id":"4","last_reported":1712498776,"current_range_meters":400,"station_id":"ce4bhb92rcd13ifvqen0","pricing_plan_id":"cebpf4jnsgd1na2vs0mg"},{"bike_id":"7efd0e35-7c96-4c21-8903-3dd001ae98df","system_id":"levelo_inurba_marseille","lat":43.28999,"lon":5.35617,"is_reserved":false,"is_disabled":false,"rental_uris":{"android":"levelo://app?vid=7efd0e35-7c96-4c21-8903-3dd001ae98df","ios":"levelo://app?vid=7efd0e35-7c96-4c21-8903-3dd001ae98df"},"vehicle_type_id":"4","last_reported":1712498776,"current_range_meters":2800,"station_id":"ce4bhb92rcd13ifvqen0","pricing_plan_id":"cebpf4jnsgd1na2vs0mg"},{"bike_id":"c9c3b4ca-fe64-4da9-bf38-b130e324ca60","system_id":"levelo_inurba_marseille","lat":43.297815,"lon":5.393548,"is_reserved":false,"is_disabled":false,"rental_uris":{"android":"levelo://app?vid=c9c3b4ca-fe64-4da9-bf38-b130e324ca60","ios":"levelo://app?vid=c9c3b4ca-fe64-4da9-bf38-b130e324ca60"},"vehicle_type_id":"4","last_reported":1712498776,"current_range_meters":12000,"station_id":"chh1huq6cuj3fo74tm60","pricing_plan_id":"cebpf4jnsgd1na2vs0mg"},{"bike_id":"083169ce-ce62-4a3b-a544-3a90c20ecfe6","system_id":"levelo_inurba_marseille","lat":43.330442,"lon":5.389148,"is_reserved":false,"is_disabled":false,"rental_uris":{"android":"levelo://app?vid=083169ce-ce62-4a3b-a544-3a90c20ecfe6","ios":"levelo://app?vid=083169ce-ce62-4a3b-a544-3a90c20ecfe6"},"vehicle_type_id":"4","last_reported":1712498776,"current_range_meters":21600,"station_id":"ce4bhr92rcd13ifvqhrg","pricing_plan_id":"cebpf4jnsgd1na2vs0mg"},{"bike_id":"169a4c40-7f0e-44ab-b5bb-2cdcc7af3075","system_id":"levelo_inurba_marseille","lat":43.330442,"lon":5.389148,"is_reserved":false,"is_disabled":false,"rental_uris":{"android":"levelo://app?vid=169a4c40-7f0e-44ab-b5bb-2cdcc7af3075","ios":"levelo://app?vid=169a4c40-7f0e-44ab-b5bb-2cdcc7af3075"},"vehicle_type_id":"4","last_reported":1712498776,"current_range_meters":15600,"station_id":"ce4bhr92rcd13ifvqhrg","pricing_plan_id":"cebpf4jnsgd1na2vs0mg"},{"bike_id":"1dce9aa1-5232-4b74-8ce2-5f74a5bbde23","system_id":"levelo_inurba_marseille","lat":43.33113,"lon":5.38923,"is_reserved":false,"is_disabled":false,"rental_uris":{"android":"levelo://app?vid=1dce9aa1-5232-4b74-8ce2-5f74a5bbde23","ios":"levelo://app?vid=1dce9aa1-5232-4b74-8ce2-5f74a5bbde23"},"vehicle_type_id":"4","last_reported":1712498776,"current_range_meters":13200,"station_id":"","pricing_plan_id":"cebpf4jnsgd1na2vs0mg"},{"bike_id":"cb50bf84-8ca3-4487-9071-a935e4cf9288","system_id":"levelo_inurba_marseille","lat":43.33023,"lon":5.39056,"is_reserved":false,"is_disabled":false,"rental_uris":{"android":"levelo://app?vid=cb50bf84-8ca3-4487-9071-a935e4cf9288","ios":"levelo://app?vid=cb50bf84-8ca3-4487-9071-a935e4cf9288"},"vehicle_type_id":"4","last_reported":1712498776,"current_range_meters":0,"station_id":"ce4bhr92rcd13ifvqhrg","pricing_plan_id":"cebpf4jnsgd1na2vs0mg"},{"bike_id":"da201d7d-990d-4d75-b101-27b10da0557a","system_id":"levelo_inurba_marseille","lat":43.28856,"lon":5.358371,"is_reserved":false,"is_disabled":false,"rental_uris":{"android":"levelo://app?vid=da201d7d-990d-4d75-b101-27b10da0557a","ios":"levelo://app?vid=da201d7d-990d-4d75-b101-27b10da0557a"},"vehicle_type_id":"4","last_reported":1712498776,"current_range_meters":0,"station_id":"ce4bhb12rcd13ifvqem0","pricing_plan_id":"cebpf4jnsgd1na2vs0mg"},{"bike_id":"c1194a20-8ab5-4acc-980e-08c576a12e63","system_id":"levelo_inurba_marseille","lat":43.28856,"lon":5.358371,"is_reserved":false,"is_disabled":false,"rental_uris":{"android":"levelo://app?vid=c1194a20-8ab5-4acc-980e-08c576a12e63","ios":"levelo://app?vid=c1194a20-8ab5-4acc-980e-08c576a12e63"},"vehicle_type_id":"4","last_reported":1712498776,"current_range_meters":5200,"station_id":"ce4bhb12rcd13ifvqem0","pricing_plan_id":"cebpf4jnsgd1na2vs0mg"},{"bike_id":"21661b26-86ac-4363-a8a1-8288d7ab33e4","system_id":"levelo_inurba_marseille","lat":43.309371,"lon":5.401449,"is_reserved":false,"is_disabled":false,"rental_uris":{"android":"levelo://app?vid=21661b26-86ac-4363-a8a1-8288d7ab33e4","ios":"levelo://app?vid=21661b26-86ac-4363-a8a1-8288d7ab33e4"},"vehicle_type_id":"4","last_reported":1712498776,"current_range_meters":12400,"station_id":"ce4bgvp2rcd13ifvqct0","pricing_plan_id":"cebpf4jnsgd1na2vs0mg"},{"bike_id":"979ae432-9ff5-4588-908b-a7c2ac444746","system_id":"levelo_inurba_marseille","lat":43.3375,"lon":5.37452,"is_reserved":false,"is_disabled":false,"rental_uris":{"android":"levelo://app?vid=979ae432-9ff5-4588-908b-a7c2ac444746","ios":"levelo://app?vid=979ae432-9ff5-4588-908b-a7c2ac444746"},"vehicle_type_id":"4","last_reported":1712498776,"current_range_meters":27200,"station_id":"","pricing_plan_id":"cebpf4jnsgd1na2vs0mg"},{"bike_id":"1e59752e-6b15-4628-bf41-92555f0e94f5","system_id":"levelo_inurba_marseille","lat":43.301117,"lon":5.398795,"is_reserved":false,"is_disabled":false,"rental_uris":{"android":"levelo://app?vid=1e59752e-6b15-4628-bf41-92555f0e94f5","ios":"levelo://app?vid=1e59752e-6b15-4628-bf41-92555f0e94f5"},"vehicle_type_id":"4","last_reported":1712498776,"current_range_meters":20800,"station_id":"ce4bh0h2rcd13ifvqd40","pricing_plan_id":"cebpf4jnsgd1na2vs0mg"},{"bike_id":"51b87177-b725-4d18-aecc-06ed2257a44b","system_id":"levelo_inurba_marseille","lat":43.28728,"lon":5.36098,"is_reserved":false,"is_disabled":false,"rental_uris":{"android":"levelo://app?vid=51b87177-b725-4d18-aecc-06ed2257a44b","ios":"levelo://app?vid=51b87177-b725-4d18-aecc-06ed2257a44b"},"vehicle_type_id":"4","last_reported":1712498776,"current_range_meters":2400,"station_id":"","pricing_plan_id":"cebpf4jnsgd1na2vs0mg"},{"bike_id":"75d6ca6e-416f-48e2-96f9-d2c8c4660d97","system_id":"levelo_inurba_marseille","lat":43.28727,"lon":5.36078,"is_reserved":false,"is_disabled":false,"rental_uris":{"android":"levelo://app?vid=75d6ca6e-416f-48e2-96f9-d2c8c4660d97","ios":"levelo://app?vid=75d6ca6e-416f-48e2-96f9-d2c8c4660d97"},"vehicle_type_id":"4","last_reported":1712498776,"current_range_meters":10000,"station_id":"cki0cbj6b192h4jlfktg","pricing_plan_id":"cebpf4jnsgd1na2vs0mg"},{"bike_id":"6920934d-5248-4a40-a37e-c31d06678774","system_id":"levelo_inurba_marseille","lat":43.28727,"lon":5.36078,"is_reserved":false,"is_disabled":false,"rental_uris":{"android":"levelo://app?vid=6920934d-5248-4a40-a37e-c31d06678774","ios":"levelo://app?vid=6920934d-5248-4a40-a37e-c31d06678774"},"vehicle_type_id":"4","last_reported":1712498776,"current_range_meters":23600,"station_id":"cki0cbj6b192h4jlfktg","pricing_plan_id":"cebpf4jnsgd1na2vs0mg"},{"bike_id":"0216428b-d477-466d-85c7-854935cb57d6","system_id":"levelo_inurba_marseille","lat":43.28727,"lon":5.36078,"is_reserved":false,"is_disabled":false,"rental_uris":{"android":"levelo://app?vid=0216428b-d477-466d-85c7-854935cb57d6","ios":"levelo://app?vid=0216428b-d477-466d-85c7-854935cb57d6"},"vehicle_type_id":"4","last_reported":1712498776,"current_range_meters":4000,"station_id":"cki0cbj6b192h4jlfktg","pricing_plan_id":"cebpf4jnsgd1na2vs0mg"},{"bike_id":"54e60d85-2410-4908-a857-b448eea9b620","system_id":"levelo_inurba_marseille","lat":43.298681,"lon":5.397225,"is_reserved":false,"is_disabled":false,"rental_uris":{"android":"levelo://app?vid=54e60d85-2410-4908-a857-b448eea9b620","ios":"levelo://app?vid=54e60d85-2410-4908-a857-b448eea9b620"},"vehicle_type_id":"4","last_reported":1712498776,"current_range_meters":4400,"station_id":"ce4bh0h2rcd13ifvqd50","pricing_plan_id":"cebpf4jnsgd1na2vs0mg"},{"bike_id":"3f54d565-a2c0-4931-acd4-22494c016ebf","system_id":"levelo_inurba_marseille","lat":43.28702,"lon":5.37383,"is_reserved":false,"is_disabled":false,"rental_uris":{"android":"levelo://app?vid=3f54d565-a2c0-4931-acd4-22494c016ebf","ios":"levelo://app?vid=3f54d565-a2c0-4931-acd4-22494c016ebf"},"vehicle_type_id":"4","last_reported":1712498776,"current_range_meters":0,"station_id":"ce4bh3p2rcd13ifvqdq0","pricing_plan_id":"cebpf4jnsgd1na2vs0mg"},{"bike_id":"556ade00-7aca-4073-af41-0e25e8e0cbfe","system_id":"levelo_inurba_marseille","lat":43.28697,"lon":5.37385,"is_reserved":false,"is_disabled":false,"rental_uris":{"android":"levelo://app?vid=556ade00-7aca-4073-af41-0e25e8e0cbfe","ios":"levelo://app?vid=556ade00-7aca-4073-af41-0e25e8e0cbfe"},"vehicle_type_id":"4","last_reported":1712498776,"current_range_meters":0,"station_id":"ce4bh3p2rcd13ifvqdq0","pricing_plan_id":"cebpf4jnsgd1na2vs0mg"},{"bike_id":"f13d291a-2c6e-467e-af99-048212b92dbe","system_id":"levelo_inurba_marseille","lat":43.286591,"lon":5.363346,"is_reserved":false,"is_disabled":false,"rental_uris":{"android":"levelo://app?vid=f13d291a-2c6e-467e-af99-048212b92dbe","ios":"levelo://app?vid=f13d291a-2c6e-467e-af99-048212b92dbe"},"vehicle_type_id":"4","last_reported":1712498776,"current_range_meters":24800,"station_id":"ce4bhah2rcd13ifvqej0","pricing_plan_id":"cebpf4jnsgd1na2vs0mg"},{"bike_id":"72fc9154-39ae-4a04-a895-efe5f79869d7","system_id":"levelo_inurba_marseille","lat":43.289307,"lon":5.38406,"is_reserved":false,"is_disabled":false,"rental_uris":{"android":"levelo://app?vid=72fc9154-39ae-4a04-a895-efe5f79869d7","ios":"levelo://app?vid=72fc9154-39ae-4a04-a895-efe5f79869d7"},"vehicle_type_id":"4","last_reported":1712498776,"current_range_meters":19600,"station_id":"ce4bh612rcd13ifvqe6g","pricing_plan_id":"cebpf4jnsgd1na2vs0mg"},{"bike_id":"3f91feea-9bc7-4ea9-a4bc-b3ac02190544","system_id":"levelo_inurba_marseille","lat":43.306704,"lon":5.402475,"is_reserved":false,"is_disabled":false,"rental_uris":{"android":"levelo://app?vid=3f91feea-9bc7-4ea9-a4bc-b3ac02190544","ios":"levelo://app?vid=3f91feea-9bc7-4ea9-a4bc-b3ac02190544"},"vehicle_type_id":"4","last_reported":1712498776,"current_range_meters":4400,"station_id":"","pricing_plan_id":"cebpf4jnsgd1na2vs0mg"},{"bike_id":"2a0fa7ba-23a2-451c-8158-2900eab16864","system_id":"levelo_inurba_marseille","lat":43.290278,"lon":5.386462,"is_reserved":false,"is_disabled":false,"rental_uris":{"android":"levelo://app?vid=2a0fa7ba-23a2-451c-8158-2900eab16864","ios":"levelo://app?vid=2a0fa7ba-23a2-451c-8158-2900eab16864"},"vehicle_type_id":"4","last_reported":1712498776,"current_range_meters":2000,"station_id":"ce4bh4p2rcd13ifvqe0g","pricing_plan_id":"cebpf4jnsgd1na2vs0mg"},{"bike_id":"5ab442bf-bbd6-4707-a1a4-e906e68f155a","system_id":"levelo_inurba_marseille","lat":43.30248,"lon":5.40063,"is_reserved":false,"is_disabled":false,"rental_uris":{"android":"levelo://app?vid=5ab442bf-bbd6-4707-a1a4-e906e68f155a","ios":"levelo://app?vid=5ab442bf-bbd6-4707-a1a4-e906e68f155a"},"vehicle_type_id":"4","last_reported":1712498776,"current_range_meters":0,"station_id":"ce4bgvh2rcd13ifvqcs0","pricing_plan_id":"cebpf4jnsgd1na2vs0mg"},{"bike_id":"03c772ac-7b43-447e-bca3-7cdaa5de329c","system_id":"levelo_inurba_marseille","lat":43.284793,"lon":5.384113,"is_reserved":false,"is_disabled":false,"rental_uris":{"android":"levelo://app?vid=03c772ac-7b43-447e-bca3-7cdaa5de329c","ios":"levelo://app?vid=03c772ac-7b43-447e-bca3-7cdaa5de329c"},"vehicle_type_id":"4","last_reported":1712498776,"current_range_meters":17200,"station_id":"ce4bh512rcd13ifvqe3g","pricing_plan_id":"cebpf4jnsgd1na2vs0mg"},{"bike_id":"8d7108dc-d3ca-40d6-bc88-b17d8eb61752","system_id":"levelo_inurba_marseille","lat":43.302759,"lon":5.400793,"is_reserved":false,"is_disabled":false,"rental_uris":{"android":"levelo://app?vid=8d7108dc-d3ca-40d6-bc88-b17d8eb61752","ios":"levelo://app?vid=8d7108dc-d3ca-40d6-bc88-b17d8eb61752"},"vehicle_type_id":"4","last_reported":1712498776,"current_range_meters":12400,"station_id":"ce4bgvh2rcd13ifvqcs0","pricing_plan_id":"cebpf4jnsgd1na2vs0mg"},{"bike_id":"16480952-6279-4bcf-a6c7-2c2ac5801df7","system_id":"levelo_inurba_marseille","lat":43.286039,"lon":5.370679,"is_reserved":false,"is_disabled":false,"rental_uris":{"android":"levelo://app?vid=16480952-6279-4bcf-a6c7-2c2ac5801df7","ios":"levelo://app?vid=16480952-6279-4bcf-a6c7-2c2ac5801df7"},"vehicle_type_id":"4","last_reported":1712498776,"current_range_meters":21200,"station_id":"ce4bht12rcd13ifvqi60","pricing_plan_id":"cebpf4jnsgd1na2vs0mg"},{"bike_id":"6406a290-c908-46a9-bcca-2e90460364ae","system_id":"levelo_inurba_marseille","lat":43.286039,"lon":5.370679,"is_reserved":false,"is_disabled":false,"rental_uris":{"android":"levelo://app?vid=6406a290-c908-46a9-bcca-2e90460364ae","ios":"levelo://app?vid=6406a290-c908-46a9-bcca-2e90460364ae"},"vehicle_type_id":"4","last_reported":1712498776,"current_range_meters":11600,"station_id":"ce4bht12rcd13ifvqi60","pricing_plan_id":"cebpf4jnsgd1na2vs0mg"},{"bike_id":"a0a55a3d-e7ce-4142-8b87-e8725c256a07","system_id":"levelo_inurba_marseille","lat":43.286039,"lon":5.370681,"is_reserved":false,"is_disabled":false,"rental_uris":{"android":"levelo://app?vid=a0a55a3d-e7ce-4142-8b87-e8725c256a07","ios":"levelo://app?vid=a0a55a3d-e7ce-4142-8b87-e8725c256a07"},"vehicle_type_id":"4","last_reported":1712498776,"current_range_meters":17200,"station_id":"ce4bht12rcd13ifvqi60","pricing_plan_id":"cebpf4jnsgd1na2vs0mg"},{"bike_id":"76f1923b-7c22-406a-94b3-67ced098a077","system_id":"levelo_inurba_marseille","lat":43.286039,"lon":5.370679,"is_reserved":false,"is_disabled":false,"rental_uris":{"android":"levelo://app?vid=76f1923b-7c22-406a-94b3-67ced098a077","ios":"levelo://app?vid=76f1923b-7c22-406a-94b3-67ced098a077"},"vehicle_type_id":"4","last_reported":1712498776,"current_range_meters":800,"station_id":"ce4bht12rcd13ifvqi60","pricing_plan_id":"cebpf4jnsgd1na2vs0mg"},{"bike_id":"eb423e94-40b1-47d4-9529-9f4fdab8f0f2","system_id":"levelo_inurba_marseille","lat":43.286039,"lon":5.370681,"is_reserved":false,"is_disabled":false,"rental_uris":{"android":"levelo://app?vid=eb423e94-40b1-47d4-9529-9f4fdab8f0f2","ios":"levelo://app?vid=eb423e94-40b1-47d4-9529-9f4fdab8f0f2"},"vehicle_type_id":"4","last_reported":1712498776,"current_range_meters":22400,"station_id":"ce4bht12rcd13ifvqi60","pricing_plan_id":"cebpf4jnsgd1na2vs0mg"},{"bike_id":"12fc72d5-9772-4bea-b920-b7362d784d9a","system_id":"levelo_inurba_marseille","lat":43.293259,"lon":5.371586,"is_reserved":false,"is_disabled":false,"rental_uris":{"android":"levelo://app?vid=12fc72d5-9772-4bea-b920-b7362d784d9a","ios":"levelo://app?vid=12fc72d5-9772-4bea-b920-b7362d784d9a"},"vehicle_type_id":"4","last_reported":1712498776,"current_range_meters":23600,"station_id":"ce4bgh92rcd13ifvqb40","pricing_plan_id":"cebpf4jnsgd1na2vs0mg"},{"bike_id":"5c742e2e-cb0d-4906-a67f-c5a709282ccf","system_id":"levelo_inurba_marseille","lat":43.287184,"lon":5.37937,"is_reserved":false,"is_disabled":false,"rental_uris":{"android":"levelo://app?vid=5c742e2e-cb0d-4906-a67f-c5a709282ccf","ios":"levelo://app?vid=5c742e2e-cb0d-4906-a67f-c5a709282ccf"},"vehicle_type_id":"4","last_reported":1712498776,"current_range_meters":16800,"station_id":"ce4bh9p2rcd13ifvqec0","pricing_plan_id":"cebpf4jnsgd1na2vs0mg"},{"bike_id":"5255229b-ac0e-4939-9fba-45e94aa71c89","system_id":"levelo_inurba_marseille","lat":43.287185,"lon":5.379373,"is_reserved":false,"is_disabled":false,"rental_uris":{"android":"levelo://app?vid=5255229b-ac0e-4939-9fba-45e94aa71c89","ios":"levelo://app?vid=5255229b-ac0e-4939-9fba-45e94aa71c89"},"vehicle_type_id":"4","last_reported":1712498776,"current_range_meters":6800,"station_id":"ce4bh9p2rcd13ifvqec0","pricing_plan_id":"cebpf4jnsgd1na2vs0mg"},{"bike_id":"e540e031-c9c4-4149-b758-dda53b441083","system_id":"levelo_inurba_marseille","lat":43.316828,"lon":5.404723,"is_reserved":false,"is_disabled":false,"rental_uris":{"android":"levelo://app?vid=e540e031-c9c4-4149-b758-dda53b441083","ios":"levelo://app?vid=e540e031-c9c4-4149-b758-dda53b441083"},"vehicle_type_id":"4","last_reported":1712498776,"current_range_meters":0,"station_id":"ce4bh012rcd13ifvqd00","pricing_plan_id":"cebpf4jnsgd1na2vs0mg"},{"bike_id":"f1788c8b-9af8-4661-9cf0-92722853d4fb","system_id":"levelo_inurba_marseille","lat":43.316965,"lon":5.404756,"is_reserved":false,"is_disabled":false,"rental_uris":{"android":"levelo://app?vid=f1788c8b-9af8-4661-9cf0-92722853d4fb","ios":"levelo://app?vid=f1788c8b-9af8-4661-9cf0-92722853d4fb"},"vehicle_type_id":"4","last_reported":1712498776,"current_range_meters":27200,"station_id":"ce4bh012rcd13ifvqd00","pricing_plan_id":"cebpf4jnsgd1na2vs0mg"},{"bike_id":"073680a3-9086-4366-9580-a4cac07ab472","system_id":"levelo_inurba_marseille","lat":43.284774,"lon":5.368135,"is_reserved":false,"is_disabled":false,"rental_uris":{"android":"levelo://app?vid=073680a3-9086-4366-9580-a4cac07ab472","ios":"levelo://app?vid=073680a3-9086-4366-9580-a4cac07ab472"},"vehicle_type_id":"4","last_reported":1712498776,"current_range_meters":4000,"station_id":"","pricing_plan_id":"cebpf4jnsgd1na2vs0mg"},{"bike_id":"9e64c3b5-171a-42ff-ac9e-ddb477a1f032","system_id":"levelo_inurba_marseille","lat":43.291994,"lon":5.392907,"is_reserved":false,"is_disabled":false,"rental_uris":{"android":"levelo://app?vid=9e64c3b5-171a-42ff-ac9e-ddb477a1f032","ios":"levelo://app?vid=9e64c3b5-171a-42ff-ac9e-ddb477a1f032"},"vehicle_type_id":"4","last_reported":1712498776,"current_range_meters":8000,"station_id":"ce4bh192rcd13ifvqdd0","pricing_plan_id":"cebpf4jnsgd1na2vs0mg"},{"bike_id":"b9ae5368-df9a-4931-b0f9-a7040f300750","system_id":"levelo_inurba_marseille","lat":43.284538,"lon":5.358657,"is_reserved":false,"is_disabled":false,"rental_uris":{"android":"levelo://app?vid=b9ae5368-df9a-4931-b0f9-a7040f300750","ios":"levelo://app?vid=b9ae5368-df9a-4931-b0f9-a7040f300750"},"vehicle_type_id":"4","last_reported":1712498776,"current_range_meters":14400,"station_id":"ce4bhah2rcd13ifvqei0","pricing_plan_id":"cebpf4jnsgd1na2vs0mg"},{"bike_id":"4d324b65-fb28-49a3-9d80-0bb834b016ba","system_id":"levelo_inurba_marseille","lat":43.294314,"lon":5.397498,"is_reserved":false,"is_disabled":false,"rental_uris":{"android":"levelo://app?vid=4d324b65-fb28-49a3-9d80-0bb834b016ba","ios":"levelo://app?vid=4d324b65-fb28-49a3-9d80-0bb834b016ba"},"vehicle_type_id":"4","last_reported":1712498776,"current_range_meters":17600,"station_id":"ce4bh3h2rcd13ifvqdo0","pricing_plan_id":"cebpf4jnsgd1na2vs0mg"},{"bike_id":"1ccd2f99-e6ec-47f0-89cd-cc40ac8096d5","system_id":"levelo_inurba_marseille","lat":43.285856,"lon":5.350771,"is_reserved":false,"is_disabled":false,"rental_uris":{"android":"levelo://app?vid=1ccd2f99-e6ec-47f0-89cd-cc40ac8096d5","ios":"levelo://app?vid=1ccd2f99-e6ec-47f0-89cd-cc40ac8096d5"},"vehicle_type_id":"4","last_reported":1712498776,"current_range_meters":5600,"station_id":"ce4bhch2rcd13ifvqeug","pricing_plan_id":"cebpf4jnsgd1na2vs0mg"},{"bike_id":"d457b919-4ca2-4f32-8f40-dc8384fcf5b0","system_id":"levelo_inurba_marseille","lat":43.28613,"lon":5.35095,"is_reserved":false,"is_disabled":false,"rental_uris":{"android":"levelo://app?vid=d457b919-4ca2-4f32-8f40-dc8384fcf5b0","ios":"levelo://app?vid=d457b919-4ca2-4f32-8f40-dc8384fcf5b0"},"vehicle_type_id":"4","last_reported":1712498776,"current_range_meters":18800,"station_id":"ce4bhch2rcd13ifvqeug","pricing_plan_id":"cebpf4jnsgd1na2vs0mg"},{"bike_id":"d2fc22f2-2095-4355-b031-c39c2fc3de96","system_id":"levelo_inurba_marseille","lat":43.286057,"lon":5.35109,"is_reserved":false,"is_disabled":false,"rental_uris":{"android":"levelo://app?vid=d2fc22f2-2095-4355-b031-c39c2fc3de96","ios":"levelo://app?vid=d2fc22f2-2095-4355-b031-c39c2fc3de96"},"vehicle_type_id":"4","last_reported":1712498776,"current_range_meters":0,"station_id":"ce4bhch2rcd13ifvqeug","pricing_plan_id":"cebpf4jnsgd1na2vs0mg"},{"bike_id":"444dab74-89b6-45bc-8d77-6c98bdd19bb7","system_id":"levelo_inurba_marseille","lat":43.283998,"lon":5.375062,"is_reserved":false,"is_disabled":false,"rental_uris":{"android":"levelo://app?vid=444dab74-89b6-45bc-8d77-6c98bdd19bb7","ios":"levelo://app?vid=444dab74-89b6-45bc-8d77-6c98bdd19bb7"},"vehicle_type_id":"4","last_reported":1712498776,"current_range_meters":18800,"station_id":"ce4bh412rcd13ifvqds0","pricing_plan_id":"cebpf4jnsgd1na2vs0mg"},{"bike_id":"15e3be9a-e475-4ae1-a75a-0130cdc6791a","system_id":"levelo_inurba_marseille","lat":43.283998,"lon":5.375062,"is_reserved":false,"is_disabled":false,"rental_uris":{"android":"levelo://app?vid=15e3be9a-e475-4ae1-a75a-0130cdc6791a","ios":"levelo://app?vid=15e3be9a-e475-4ae1-a75a-0130cdc6791a"},"vehicle_type_id":"4","last_reported":1712498776,"current_range_meters":24000,"station_id":"ce4bh412rcd13ifvqds0","pricing_plan_id":"cebpf4jnsgd1na2vs0mg"},{"bike_id":"ad26ca57-63a6-4856-979b-1bfeedf35246","system_id":"levelo_inurba_marseille","lat":43.28402,"lon":5.37518,"is_reserved":false,"is_disabled":false,"rental_uris":{"android":"levelo://app?vid=ad26ca57-63a6-4856-979b-1bfeedf35246","ios":"levelo://app?vid=ad26ca57-63a6-4856-979b-1bfeedf35246"},"vehicle_type_id":"4","last_reported":1712498776,"current_range_meters":0,"station_id":"ce4bh412rcd13ifvqds0","pricing_plan_id":"cebpf4jnsgd1na2vs0mg"},{"bike_id":"035ea621-5f6b-4e5d-9390-1c94c61640e9","system_id":"levelo_inurba_marseille","lat":43.319179,"lon":5.407725,"is_reserved":false,"is_disabled":false,"rental_uris":{"android":"levelo://app?vid=035ea621-5f6b-4e5d-9390-1c94c61640e9","ios":"levelo://app?vid=035ea621-5f6b-4e5d-9390-1c94c61640e9"},"vehicle_type_id":"4","last_reported":1712498776,"current_range_meters":9200,"station_id":"ce4bhq12rcd13ifvqhig","pricing_plan_id":"cebpf4jnsgd1na2vs0mg"},{"bike_id":"e23de2b5-67f2-440d-9b4f-4ce0b4db5585","system_id":"levelo_inurba_marseille","lat":43.319179,"lon":5.407725,"is_reserved":false,"is_disabled":false,"rental_uris":{"android":"levelo://app?vid=e23de2b5-67f2-440d-9b4f-4ce0b4db5585","ios":"levelo://app?vid=e23de2b5-67f2-440d-9b4f-4ce0b4db5585"},"vehicle_type_id":"4","last_reported":1712498776,"current_range_meters":22800,"station_id":"ce4bhq12rcd13ifvqhig","pricing_plan_id":"cebpf4jnsgd1na2vs0mg"},{"bike_id":"3444a19d-5830-4747-9225-dbf137d9a459","system_id":"levelo_inurba_marseille","lat":43.319179,"lon":5.407725,"is_reserved":false,"is_disabled":false,"rental_uris":{"android":"levelo://app?vid=3444a19d-5830-4747-9225-dbf137d9a459","ios":"levelo://app?vid=3444a19d-5830-4747-9225-dbf137d9a459"},"vehicle_type_id":"4","last_reported":1712498776,"current_range_meters":16000,"station_id":"ce4bhq12rcd13ifvqhig","pricing_plan_id":"cebpf4jnsgd1na2vs0mg"},{"bike_id":"3d969812-5ecd-4ae9-aa44-37cea3113185","system_id":"levelo_inurba_marseille","lat":43.33713,"lon":5.39184,"is_reserved":false,"is_disabled":false,"rental_uris":{"android":"levelo://app?vid=3d969812-5ecd-4ae9-aa44-37cea3113185","ios":"levelo://app?vid=3d969812-5ecd-4ae9-aa44-37cea3113185"},"vehicle_type_id":"4","last_reported":1712498776,"current_range_meters":1600,"station_id":"ce4bhr92rcd13ifvqhsg","pricing_plan_id":"cebpf4jnsgd1na2vs0mg"},{"bike_id":"73490e10-4ca7-49b7-982e-b12605d7133c","system_id":"levelo_inurba_marseille","lat":43.337168,"lon":5.391825,"is_reserved":false,"is_disabled":false,"rental_uris":{"android":"levelo://app?vid=73490e10-4ca7-49b7-982e-b12605d7133c","ios":"levelo://app?vid=73490e10-4ca7-49b7-982e-b12605d7133c"},"vehicle_type_id":"4","last_reported":1712498776,"current_range_meters":400,"station_id":"ce4bhr92rcd13ifvqhsg","pricing_plan_id":"cebpf4jnsgd1na2vs0mg"},{"bike_id":"cbc13be4-e843-495a-9362-a717fe274d41","system_id":"levelo_inurba_marseille","lat":43.284793,"lon":5.384113,"is_reserved":false,"is_disabled":false,"rental_uris":{"android":"levelo://app?vid=cbc13be4-e843-495a-9362-a717fe274d41","ios":"levelo://app?vid=cbc13be4-e843-495a-9362-a717fe274d41"},"vehicle_type_id":"4","last_reported":1712498776,"current_range_meters":6000,"station_id":"ce4bh512rcd13ifvqe3g","pricing_plan_id":"cebpf4jnsgd1na2vs0mg"},{"bike_id":"71c46410-09f6-40e3-907c-ff3131d850e9","system_id":"levelo_inurba_marseille","lat":43.297946,"lon":5.404063,"is_reserved":false,"is_disabled":false,"rental_uris":{"android":"levelo://app?vid=71c46410-09f6-40e3-907c-ff3131d850e9","ios":"levelo://app?vid=71c46410-09f6-40e3-907c-ff3131d850e9"},"vehicle_type_id":"4","last_reported":1712498776,"current_range_meters":16000,"station_id":"ce4bh112rcd13ifvqd90","pricing_plan_id":"cebpf4jnsgd1na2vs0mg"},{"bike_id":"02602784-e7f9-4a81-86a1-80cac8571954","system_id":"levelo_inurba_marseille","lat":43.288497,"lon":5.393089,"is_reserved":false,"is_disabled":false,"rental_uris":{"android":"levelo://app?vid=02602784-e7f9-4a81-86a1-80cac8571954","ios":"levelo://app?vid=02602784-e7f9-4a81-86a1-80cac8571954"},"vehicle_type_id":"4","last_reported":1712498776,"current_range_meters":2000,"station_id":"ce4bh2p2rcd13ifvqdi0","pricing_plan_id":"cebpf4jnsgd1na2vs0mg"},{"bike_id":"3486987e-bbd1-4f38-b65f-8260f5275226","system_id":"levelo_inurba_marseille","lat":43.297946,"lon":5.404063,"is_reserved":false,"is_disabled":false,"rental_uris":{"android":"levelo://app?vid=3486987e-bbd1-4f38-b65f-8260f5275226","ios":"levelo://app?vid=3486987e-bbd1-4f38-b65f-8260f5275226"},"vehicle_type_id":"4","last_reported":1712498776,"current_range_meters":0,"station_id":"ce4bh112rcd13ifvqd90","pricing_plan_id":"cebpf4jnsgd1na2vs0mg"},{"bike_id":"fb06e4f0-f647-4893-a656-f9199be7d001","system_id":"levelo_inurba_marseille","lat":43.283517,"lon":5.381063,"is_reserved":false,"is_disabled":false,"rental_uris":{"android":"levelo://app?vid=fb06e4f0-f647-4893-a656-f9199be7d001","ios":"levelo://app?vid=fb06e4f0-f647-4893-a656-f9199be7d001"},"vehicle_type_id":"4","last_reported":1712498776,"current_range_meters":0,"station_id":"ce4bh412rcd13ifvqdr0","pricing_plan_id":"cebpf4jnsgd1na2vs0mg"},{"bike_id":"5fa1255f-2337-4a1f-bc8e-d5695af3df49","system_id":"levelo_inurba_marseille","lat":43.284217,"lon":5.349697,"is_reserved":false,"is_disabled":false,"rental_uris":{"android":"levelo://app?vid=5fa1255f-2337-4a1f-bc8e-d5695af3df49","ios":"levelo://app?vid=5fa1255f-2337-4a1f-bc8e-d5695af3df49"},"vehicle_type_id":"4","last_reported":1712498776,"current_range_meters":31200,"station_id":"ce4bhbh2rcd13ifvqepg","pricing_plan_id":"cebpf4jnsgd1na2vs0mg"},{"bike_id":"bddc3c52-cf91-434b-ad86-acb4097cdabe","system_id":"levelo_inurba_marseille","lat":43.284217,"lon":5.349697,"is_reserved":false,"is_disabled":false,"rental_uris":{"android":"levelo://app?vid=bddc3c52-cf91-434b-ad86-acb4097cdabe","ios":"levelo://app?vid=bddc3c52-cf91-434b-ad86-acb4097cdabe"},"vehicle_type_id":"4","last_reported":1712498776,"current_range_meters":31200,"station_id":"ce4bhbh2rcd13ifvqepg","pricing_plan_id":"cebpf4jnsgd1na2vs0mg"},{"bike_id":"d0778cc1-c90a-4a38-9795-145058428f57","system_id":"levelo_inurba_marseille","lat":43.284219,"lon":5.3497,"is_reserved":false,"is_disabled":false,"rental_uris":{"android":"levelo://app?vid=d0778cc1-c90a-4a38-9795-145058428f57","ios":"levelo://app?vid=d0778cc1-c90a-4a38-9795-145058428f57"},"vehicle_type_id":"4","last_reported":1712498776,"current_range_meters":18000,"station_id":"ce4bhbh2rcd13ifvqepg","pricing_plan_id":"cebpf4jnsgd1na2vs0mg"},{"bike_id":"fc9ac9d4-ce71-401f-a8fe-e9a3251e6be0","system_id":"levelo_inurba_marseille","lat":43.284217,"lon":5.349697,"is_reserved":false,"is_disabled":false,"rental_uris":{"android":"levelo://app?vid=fc9ac9d4-ce71-401f-a8fe-e9a3251e6be0","ios":"levelo://app?vid=fc9ac9d4-ce71-401f-a8fe-e9a3251e6be0"},"vehicle_type_id":"4","last_reported":1712498776,"current_range_meters":21600,"station_id":"ce4bhbh2rcd13ifvqepg","pricing_plan_id":"cebpf4jnsgd1na2vs0mg"},{"bike_id":"dbc128c6-d17f-48aa-b28d-3287e072eddc","system_id":"levelo_inurba_marseille","lat":43.284219,"lon":5.3497,"is_reserved":false,"is_disabled":false,"rental_uris":{"android":"levelo://app?vid=dbc128c6-d17f-48aa-b28d-3287e072eddc","ios":"levelo://app?vid=dbc128c6-d17f-48aa-b28d-3287e072eddc"},"vehicle_type_id":"4","last_reported":1712498776,"current_range_meters":28000,"station_id":"ce4bhbh2rcd13ifvqepg","pricing_plan_id":"cebpf4jnsgd1na2vs0mg"},{"bike_id":"121240de-67ac-4ce0-a722-730638936152","system_id":"levelo_inurba_marseille","lat":43.284217,"lon":5.349697,"is_reserved":false,"is_disabled":false,"rental_uris":{"android":"levelo://app?vid=121240de-67ac-4ce0-a722-730638936152","ios":"levelo://app?vid=121240de-67ac-4ce0-a722-730638936152"},"vehicle_type_id":"4","last_reported":1712498776,"current_range_meters":4000,"station_id":"ce4bhbh2rcd13ifvqepg","pricing_plan_id":"cebpf4jnsgd1na2vs0mg"},{"bike_id":"2b782f10-316b-4457-bb5e-b4c92a56d8db","system_id":"levelo_inurba_marseille","lat":43.283498,"lon":5.380948,"is_reserved":false,"is_disabled":false,"rental_uris":{"android":"levelo://app?vid=2b782f10-316b-4457-bb5e-b4c92a56d8db","ios":"levelo://app?vid=2b782f10-316b-4457-bb5e-b4c92a56d8db"},"vehicle_type_id":"4","last_reported":1712498776,"current_range_meters":5200,"station_id":"ce4bh412rcd13ifvqdr0","pricing_plan_id":"cebpf4jnsgd1na2vs0mg"},{"bike_id":"2dd729ab-cb3a-478d-a59f-8a76d95d248b","system_id":"levelo_inurba_marseille","lat":43.284214,"lon":5.349706,"is_reserved":false,"is_disabled":false,"rental_uris":{"android":"levelo://app?vid=2dd729ab-cb3a-478d-a59f-8a76d95d248b","ios":"levelo://app?vid=2dd729ab-cb3a-478d-a59f-8a76d95d248b"},"vehicle_type_id":"4","last_reported":1712498776,"current_range_meters":31600,"station_id":"ce4bhbh2rcd13ifvqepg","pricing_plan_id":"cebpf4jnsgd1na2vs0mg"},{"bike_id":"9e468b1c-ac67-4412-ae9e-2e2d15d2082e","system_id":"levelo_inurba_marseille","lat":43.284219,"lon":5.3497,"is_reserved":false,"is_disabled":false,"rental_uris":{"android":"levelo://app?vid=9e468b1c-ac67-4412-ae9e-2e2d15d2082e","ios":"levelo://app?vid=9e468b1c-ac67-4412-ae9e-2e2d15d2082e"},"vehicle_type_id":"4","last_reported":1712498776,"current_range_meters":7600,"station_id":"ce4bhbh2rcd13ifvqepg","pricing_plan_id":"cebpf4jnsgd1na2vs0mg"},{"bike_id":"304fccb9-64f8-4e17-820a-fed415f42a74","system_id":"levelo_inurba_marseille","lat":43.283498,"lon":5.380948,"is_reserved":false,"is_disabled":false,"rental_uris":{"android":"levelo://app?vid=304fccb9-64f8-4e17-820a-fed415f42a74","ios":"levelo://app?vid=304fccb9-64f8-4e17-820a-fed415f42a74"},"vehicle_type_id":"4","last_reported":1712498776,"current_range_meters":7600,"station_id":"ce4bh412rcd13ifvqdr0","pricing_plan_id":"cebpf4jnsgd1na2vs0mg"},{"bike_id":"35fd4f5c-7405-41db-8813-6eb8eb11d9fc","system_id":"levelo_inurba_marseille","lat":43.284217,"lon":5.349697,"is_reserved":false,"is_disabled":false,"rental_uris":{"android":"levelo://app?vid=35fd4f5c-7405-41db-8813-6eb8eb11d9fc","ios":"levelo://app?vid=35fd4f5c-7405-41db-8813-6eb8eb11d9fc"},"vehicle_type_id":"4","last_reported":1712498776,"current_range_meters":30000,"station_id":"ce4bhbh2rcd13ifvqepg","pricing_plan_id":"cebpf4jnsgd1na2vs0mg"},{"bike_id":"3de3c480-cd03-4acb-86ae-e8211d6aebcd","system_id":"levelo_inurba_marseille","lat":43.284217,"lon":5.349697,"is_reserved":false,"is_disabled":false,"rental_uris":{"android":"levelo://app?vid=3de3c480-cd03-4acb-86ae-e8211d6aebcd","ios":"levelo://app?vid=3de3c480-cd03-4acb-86ae-e8211d6aebcd"},"vehicle_type_id":"4","last_reported":1712498776,"current_range_meters":17200,"station_id":"ce4bhbh2rcd13ifvqepg","pricing_plan_id":"cebpf4jnsgd1na2vs0mg"},{"bike_id":"6c2b4c0b-aac8-4d61-a266-78a419e9862a","system_id":"levelo_inurba_marseille","lat":43.284217,"lon":5.349697,"is_reserved":false,"is_disabled":false,"rental_uris":{"android":"levelo://app?vid=6c2b4c0b-aac8-4d61-a266-78a419e9862a","ios":"levelo://app?vid=6c2b4c0b-aac8-4d61-a266-78a419e9862a"},"vehicle_type_id":"4","last_reported":1712498776,"current_range_meters":8800,"station_id":"ce4bhbh2rcd13ifvqepg","pricing_plan_id":"cebpf4jnsgd1na2vs0mg"},{"bike_id":"f0d0a8a4-47fc-453c-b21c-6be33d4b784b","system_id":"levelo_inurba_marseille","lat":43.284219,"lon":5.3497,"is_reserved":false,"is_disabled":false,"rental_uris":{"android":"levelo://app?vid=f0d0a8a4-47fc-453c-b21c-6be33d4b784b","ios":"levelo://app?vid=f0d0a8a4-47fc-453c-b21c-6be33d4b784b"},"vehicle_type_id":"4","last_reported":1712498776,"current_range_meters":800,"station_id":"ce4bhbh2rcd13ifvqepg","pricing_plan_id":"cebpf4jnsgd1na2vs0mg"},{"bike_id":"f65763c0-264f-4a02-b2b9-ef4bc0658d30","system_id":"levelo_inurba_marseille","lat":43.284214,"lon":5.349706,"is_reserved":false,"is_disabled":false,"rental_uris":{"android":"levelo://app?vid=f65763c0-264f-4a02-b2b9-ef4bc0658d30","ios":"levelo://app?vid=f65763c0-264f-4a02-b2b9-ef4bc0658d30"},"vehicle_type_id":"4","last_reported":1712498776,"current_range_meters":19600,"station_id":"ce4bhbh2rcd13ifvqepg","pricing_plan_id":"cebpf4jnsgd1na2vs0mg"},{"bike_id":"df6f005d-627a-40c8-b8ce-e9db5dbad548","system_id":"levelo_inurba_marseille","lat":43.284217,"lon":5.349697,"is_reserved":false,"is_disabled":false,"rental_uris":{"android":"levelo://app?vid=df6f005d-627a-40c8-b8ce-e9db5dbad548","ios":"levelo://app?vid=df6f005d-627a-40c8-b8ce-e9db5dbad548"},"vehicle_type_id":"4","last_reported":1712498776,"current_range_meters":23600,"station_id":"ce4bhbh2rcd13ifvqepg","pricing_plan_id":"cebpf4jnsgd1na2vs0mg"},{"bike_id":"bd2cc1f8-9bcd-47d5-a485-0d8d3cb7796e","system_id":"levelo_inurba_marseille","lat":43.284217,"lon":5.349697,"is_reserved":false,"is_disabled":false,"rental_uris":{"android":"levelo://app?vid=bd2cc1f8-9bcd-47d5-a485-0d8d3cb7796e","ios":"levelo://app?vid=bd2cc1f8-9bcd-47d5-a485-0d8d3cb7796e"},"vehicle_type_id":"4","last_reported":1712498776,"current_range_meters":9600,"station_id":"ce4bhbh2rcd13ifvqepg","pricing_plan_id":"cebpf4jnsgd1na2vs0mg"},{"bike_id":"66b99c75-db57-4b88-bb53-820538ddad44","system_id":"levelo_inurba_marseille","lat":43.284217,"lon":5.349697,"is_reserved":false,"is_disabled":false,"rental_uris":{"android":"levelo://app?vid=66b99c75-db57-4b88-bb53-820538ddad44","ios":"levelo://app?vid=66b99c75-db57-4b88-bb53-820538ddad44"},"vehicle_type_id":"4","last_reported":1712498776,"current_range_meters":9600,"station_id":"ce4bhbh2rcd13ifvqepg","pricing_plan_id":"cebpf4jnsgd1na2vs0mg"},{"bike_id":"f1227c3f-ef1f-4756-9016-94f12728ea42","system_id":"levelo_inurba_marseille","lat":43.284217,"lon":5.349697,"is_reserved":false,"is_disabled":false,"rental_uris":{"android":"levelo://app?vid=f1227c3f-ef1f-4756-9016-94f12728ea42","ios":"levelo://app?vid=f1227c3f-ef1f-4756-9016-94f12728ea42"},"vehicle_type_id":"4","last_reported":1712498776,"current_range_meters":16400,"station_id":"ce4bhbh2rcd13ifvqepg","pricing_plan_id":"cebpf4jnsgd1na2vs0mg"},{"bike_id":"91c99812-7c13-45ba-89f5-cf7bab985494","system_id":"levelo_inurba_marseille","lat":43.284214,"lon":5.349706,"is_reserved":false,"is_disabled":false,"rental_uris":{"android":"levelo://app?vid=91c99812-7c13-45ba-89f5-cf7bab985494","ios":"levelo://app?vid=91c99812-7c13-45ba-89f5-cf7bab985494"},"vehicle_type_id":"4","last_reported":1712498776,"current_range_meters":8000,"station_id":"ce4bhbh2rcd13ifvqepg","pricing_plan_id":"cebpf4jnsgd1na2vs0mg"},{"bike_id":"2d2fd88a-ff5a-43c3-91eb-d4c473094d93","system_id":"levelo_inurba_marseille","lat":43.284219,"lon":5.3497,"is_reserved":false,"is_disabled":false,"rental_uris":{"android":"levelo://app?vid=2d2fd88a-ff5a-43c3-91eb-d4c473094d93","ios":"levelo://app?vid=2d2fd88a-ff5a-43c3-91eb-d4c473094d93"},"vehicle_type_id":"4","last_reported":1712498776,"current_range_meters":31200,"station_id":"ce4bhbh2rcd13ifvqepg","pricing_plan_id":"cebpf4jnsgd1na2vs0mg"},{"bike_id":"9060a4f3-fd68-40cd-91c0-d184e23e187c","system_id":"levelo_inurba_marseille","lat":43.284214,"lon":5.349706,"is_reserved":false,"is_disabled":false,"rental_uris":{"android":"levelo://app?vid=9060a4f3-fd68-40cd-91c0-d184e23e187c","ios":"levelo://app?vid=9060a4f3-fd68-40cd-91c0-d184e23e187c"},"vehicle_type_id":"4","last_reported":1712498776,"current_range_meters":22800,"station_id":"ce4bhbh2rcd13ifvqepg","pricing_plan_id":"cebpf4jnsgd1na2vs0mg"},{"bike_id":"b833006c-46f5-491d-bbfb-a79e27c6be0b","system_id":"levelo_inurba_marseille","lat":43.284219,"lon":5.3497,"is_reserved":false,"is_disabled":false,"rental_uris":{"android":"levelo://app?vid=b833006c-46f5-491d-bbfb-a79e27c6be0b","ios":"levelo://app?vid=b833006c-46f5-491d-bbfb-a79e27c6be0b"},"vehicle_type_id":"4","last_reported":1712498776,"current_range_meters":21200,"station_id":"ce4bhbh2rcd13ifvqepg","pricing_plan_id":"cebpf4jnsgd1na2vs0mg"},{"bike_id":"5014ef1b-a848-44de-a2d0-959af6b90ea1","system_id":"levelo_inurba_marseille","lat":43.284217,"lon":5.349697,"is_reserved":false,"is_disabled":false,"rental_uris":{"android":"levelo://app?vid=5014ef1b-a848-44de-a2d0-959af6b90ea1","ios":"levelo://app?vid=5014ef1b-a848-44de-a2d0-959af6b90ea1"},"vehicle_type_id":"4","last_reported":1712498776,"current_range_meters":10800,"station_id":"ce4bhbh2rcd13ifvqepg","pricing_plan_id":"cebpf4jnsgd1na2vs0mg"},{"bike_id":"6bc1b683-846a-4c13-9328-937aa322e837","system_id":"levelo_inurba_marseille","lat":43.284214,"lon":5.349706,"is_reserved":false,"is_disabled":false,"rental_uris":{"android":"levelo://app?vid=6bc1b683-846a-4c13-9328-937aa322e837","ios":"levelo://app?vid=6bc1b683-846a-4c13-9328-937aa322e837"},"vehicle_type_id":"4","last_reported":1712498776,"current_range_meters":12000,"station_id":"ce4bhbh2rcd13ifvqepg","pricing_plan_id":"cebpf4jnsgd1na2vs0mg"},{"bike_id":"e99fc65f-986c-41c6-9fc8-46830c3f6640","system_id":"levelo_inurba_marseille","lat":43.284217,"lon":5.349697,"is_reserved":false,"is_disabled":false,"rental_uris":{"android":"levelo://app?vid=e99fc65f-986c-41c6-9fc8-46830c3f6640","ios":"levelo://app?vid=e99fc65f-986c-41c6-9fc8-46830c3f6640"},"vehicle_type_id":"4","last_reported":1712498776,"current_range_meters":6000,"station_id":"ce4bhbh2rcd13ifvqepg","pricing_plan_id":"cebpf4jnsgd1na2vs0mg"},{"bike_id":"60709c0a-2bac-45ee-878c-d3da7cadb5c0","system_id":"levelo_inurba_marseille","lat":43.284214,"lon":5.349706,"is_reserved":false,"is_disabled":false,"rental_uris":{"android":"levelo://app?vid=60709c0a-2bac-45ee-878c-d3da7cadb5c0","ios":"levelo://app?vid=60709c0a-2bac-45ee-878c-d3da7cadb5c0"},"vehicle_type_id":"4","last_reported":1712498776,"current_range_meters":11200,"station_id":"ce4bhbh2rcd13ifvqepg","pricing_plan_id":"cebpf4jnsgd1na2vs0mg"},{"bike_id":"222fa0b7-995f-4c24-8077-bbde3139c3fd","system_id":"levelo_inurba_marseille","lat":43.289363,"lon":5.396322,"is_reserved":false,"is_disabled":false,"rental_uris":{"android":"levelo://app?vid=222fa0b7-995f-4c24-8077-bbde3139c3fd","ios":"levelo://app?vid=222fa0b7-995f-4c24-8077-bbde3139c3fd"},"vehicle_type_id":"4","last_reported":1712498776,"current_range_meters":17200,"station_id":"ce4bh3h2rcd13ifvqdn0","pricing_plan_id":"cebpf4jnsgd1na2vs0mg"},{"bike_id":"66bbfe9d-dba7-44d6-bf57-2dd0f99ed988","system_id":"levelo_inurba_marseille","lat":43.282744,"lon":5.350533,"is_reserved":false,"is_disabled":false,"rental_uris":{"android":"levelo://app?vid=66bbfe9d-dba7-44d6-bf57-2dd0f99ed988","ios":"levelo://app?vid=66bbfe9d-dba7-44d6-bf57-2dd0f99ed988"},"vehicle_type_id":"4","last_reported":1712498776,"current_range_meters":3200,"station_id":"ce4bhbp2rcd13ifvqerg","pricing_plan_id":"cebpf4jnsgd1na2vs0mg"},{"bike_id":"cf2eaed0-880d-4ba6-8248-60b7b01bd812","system_id":"levelo_inurba_marseille","lat":43.28277,"lon":5.3507,"is_reserved":false,"is_disabled":false,"rental_uris":{"android":"levelo://app?vid=cf2eaed0-880d-4ba6-8248-60b7b01bd812","ios":"levelo://app?vid=cf2eaed0-880d-4ba6-8248-60b7b01bd812"},"vehicle_type_id":"4","last_reported":1712498776,"current_range_meters":16400,"station_id":"ce4bhbp2rcd13ifvqerg","pricing_plan_id":"cebpf4jnsgd1na2vs0mg"},{"bike_id":"fd777205-39ad-4c15-bb09-71668c9f568a","system_id":"levelo_inurba_marseille","lat":43.282744,"lon":5.350533,"is_reserved":false,"is_disabled":false,"rental_uris":{"android":"levelo://app?vid=fd777205-39ad-4c15-bb09-71668c9f568a","ios":"levelo://app?vid=fd777205-39ad-4c15-bb09-71668c9f568a"},"vehicle_type_id":"4","last_reported":1712498776,"current_range_meters":18400,"station_id":"ce4bhbp2rcd13ifvqerg","pricing_plan_id":"cebpf4jnsgd1na2vs0mg"},{"bike_id":"dc64b930-4ff3-486a-aa20-910aff91c73b","system_id":"levelo_inurba_marseille","lat":43.28271,"lon":5.35064,"is_reserved":false,"is_disabled":false,"rental_uris":{"android":"levelo://app?vid=dc64b930-4ff3-486a-aa20-910aff91c73b","ios":"levelo://app?vid=dc64b930-4ff3-486a-aa20-910aff91c73b"},"vehicle_type_id":"4","last_reported":1712498776,"current_range_meters":10800,"station_id":"ce4bhbp2rcd13ifvqerg","pricing_plan_id":"cebpf4jnsgd1na2vs0mg"},{"bike_id":"4e67e76a-8f77-43e5-8c8b-6584fff768a0","system_id":"levelo_inurba_marseille","lat":43.282754,"lon":5.350519,"is_reserved":false,"is_disabled":false,"rental_uris":{"android":"levelo://app?vid=4e67e76a-8f77-43e5-8c8b-6584fff768a0","ios":"levelo://app?vid=4e67e76a-8f77-43e5-8c8b-6584fff768a0"},"vehicle_type_id":"4","last_reported":1712498776,"current_range_meters":6000,"station_id":"ce4bhbp2rcd13ifvqerg","pricing_plan_id":"cebpf4jnsgd1na2vs0mg"},