{"last_updated":1732975675,"ttl":60,"version":"2.2","data":{"bikes":[{"bike_id":"c154376e-81a4-4c09-89dd-3a6cf12029e1","system_id":"levelo_inurba_marseille","lat":43.23055,"lon":5.35487,"is_reserved":false,"is_disabled":false,"rental_uris":{"android":"levelo://app?vid=c154376e-81a4-4c09-89dd-3a6cf12029e1","ios":"levelo://app?vid=c154376e-81a4-4c09-89dd-3a6cf12029e1"},"vehicle_type_id":"4","last_reported":1732975676,"current_range_meters":12000,"station_id":"cpo3342slgdg3j2ifvpg","pricing_plan_id":"cebpf4jnsgd1na2vs0mg"},{"bike_id":"644d7c2e-07ee-4853-ab65-a3d12cba9053","system_id":"levelo_inurba_marseille","lat":43.29571,"lon":5.37522,"is_reserved":false,"is_disabled":false,"rental_uris":{"android":"levelo://app?vid=644d7c2e-07ee-4853-ab65-a3d12cba9053","ios":"levelo://app?vid=644d7c2e-07ee-4853-ab65-a3d12cba9053"},"vehicle_type_id":"4","last_reported":1732975676,"current_range_meters":25200,"station_id":"ce4bgh92rcd13ifvqb50","pricing_plan_id":"cebpf4jnsgd1na2vs0mg"},{"bike_id":"eda49a19-2d4a-4589-ada5-f68a13a20082","system_id":"levelo_inurba_marseille","lat":43.2315,"lon":5.43718,"is_reserved":false,"is_disabled":false,"rental_uris":{"android":"levelo://app?vid=eda49a19-2d4a-4589-ada5-f68a13a20082","ios":"levelo://app?vid=eda49a19-2d4a-4589-ada5-f68a13a20082"},"vehicle_type_id":"4","last_reported":1732975676,"current_range_meters":6400,"station_id":"ce4bhmp2rcd13ifvqgog","pricing_plan_id":"cebpf4jnsgd1na2vs0mg"},{"bike_id":"b856c8b4-412d-4c25-bdd4-e6b29aed04cb","system_id":"levelo_inurba_marseille","lat":43.22933,"lon":5.35379,"is_reserved":false,"is_disabled":false,"rental_uris":{"android":"levelo://app?vid=b856c8b4-412d-4c25-bdd4-e6b29aed04cb","ios":"levelo://app?vid=b856c8b4-412d-4c25-bdd4-e6b29aed04cb"},"vehicle_type_id":"4","last_reported":1732975676,"current_range_meters":39200,"station_id":"cpo3532slgdg3j2ikp40","pricing_plan_id":"cebpf4jnsgd1na2vs0mg"},{"bike_id":"7ab5ca07-c9c4-44c3-b1bf-a9fe940ac72c","system_id":"levelo_inurba_marseille","lat":43.23054,"lon":5.35486,"is_reserved":false,"is_disabled":false,"rental_uris":{"android":"levelo://app?vid=7ab5ca07-c9c4-44c3-b1bf-a9fe940ac72c","ios":"levelo://app?vid=7ab5ca07-c9c4-44c3-b1bf-a9fe940ac72c"},"vehicle_type_id":"4","last_reported":1732975676,"current_range_meters":8000,"station_id":"cpo3342slgdg3j2ifvpg","pricing_plan_id":"cebpf4jnsgd1na2vs0mg"},{"bike_id":"23b90ceb-3223-48b7-9ace-19035204d64b","system_id":"levelo_inurba_marseille","lat":43.2957,"lon":5.37512,"is_reserved":false,"is_disabled":false,"rental_uris":{"android":"levelo://app?vid=23b90ceb-3223-48b7-9ace-19035204d64b","ios":"levelo://app?vid=23b90ceb-3223-48b7-9ace-19035204d64b"},"vehicle_type_id":"4","last_reported":1732975676,"current_range_meters":39200,"station_id":"ce4bgh92rcd13ifvqb50","pricing_plan_id":"cebpf4jnsgd1na2vs0mg"},{"bike_id":"ed4c75df-290a-4667-b83f-741261928f0c","system_id":"levelo_inurba_marseille","lat":43.308,"lon":5.43526,"is_reserved":false,"is_disabled":false,"rental_uris":{"android":"levelo://app?vid=ed4c75df-290a-4667-b83f-741261928f0c","ios":"levelo://app?vid=ed4c75df-290a-4667-b83f-741261928f0c"},"vehicle_type_id":"4","last_reported":1732975676,"current_range_meters":15200,"station_id":"ce4bhph2rcd13ifvqheg","pricing_plan_id":"cebpf4jnsgd1na2vs0mg"},{"bike_id":"24b58811-c922-45fc-9bd8-9af52b722bc3","system_id":"levelo_inurba_marseille","lat":43.32482,"lon":5.36573,"is_reserved":false,"is_disabled":false,"rental_uris":{"android":"levelo://app?vid=24b58811-c922-45fc-9bd8-9af52b722bc3","ios":"levelo://app?vid=24b58811-c922-45fc-9bd8-9af52b722bc3"},"vehicle_type_id":"4","last_reported":1732975676,"current_range_meters":29600,"station_id":"ce4bhs12rcd13ifvqhvg","pricing_plan_id":"cebpf4jnsgd1na2vs0mg"},{"bike_id":"cb7da550-44a4-4d7c-88f2-fa396439c53a","system_id":"levelo_inurba_marseille","lat":43.29702,"lon":5.37693,"is_reserved":false,"is_disabled":false,"rental_uris":{"android":"levelo://app?vid=cb7da550-44a4-4d7c-88f2-fa396439c53a","ios":"levelo://app?vid=cb7da550-44a4-4d7c-88f2-fa396439c53a"},"vehicle_type_id":"4","last_reported":1732975676,"current_range_meters":37600,"station_id":"ce4bgkh2rcd13ifvqbl0","pricing_plan_id":"cebpf4jnsgd1na2vs0mg"},{"bike_id":"e78b0a11-4dd2-4baa-8605-ce04154b84e3","system_id":"levelo_inurba_marseille","lat":43.30448,"lon":5.38834,"is_reserved":false,"is_disabled":false,"rental_uris":{"android":"levelo://app?vid=e78b0a11-4dd2-4baa-8605-ce04154b84e3","ios":"levelo://app?vid=e78b0a11-4dd2-4baa-8605-ce04154b84e3"},"vehicle_type_id":"4","last_reported":1732975676,"current_range_meters":19600,"station_id":"ce4bgk12rcd13ifvqbi0","pricing_plan_id":"cebpf4jnsgd1na2vs0mg"},{"bike_id":"cab3ddae-b6b8-48f4-a87f-2efe404ca0fc","system_id":"levelo_inurba_marseille","lat":43.29634,"lon":5.37164,"is_reserved":false,"is_disabled":false,"rental_uris":{"android":"levelo://app?vid=cab3ddae-b6b8-48f4-a87f-2efe404ca0fc","ios":"levelo://app?vid=cab3ddae-b6b8-48f4-a87f-2efe404ca0fc"},"vehicle_type_id":"4","last_reported":1732975676,"current_range_meters":23200,"station_id":"ce4bgnh2rcd13ifvqc0g","pricing_plan_id":"cebpf4jnsgd1na2vs0mg"},{"bike_id":"966791e8-cdff-4838-a42b-c9b609a533a7","system_id":"levelo_inurba_marseille","lat":43.28338,"lon":5.38532,"is_reserved":false,"is_disabled":true,"rental_uris":{"android":"levelo://app?vid=966791e8-cdff-4838-a42b-c9b609a533a7","ios":"levelo://app?vid=966791e8-cdff-4838-a42b-c9b609a533a7"},"vehicle_type_id":"4","last_reported":1732975676,"current_range_meters":2800,"station_id":"","pricing_plan_id":"cebpf4jnsgd1na2vs0mg"},{"bike_id":"6f692286-d8f1-47d7-afbe-9c21dd6c9ff2","system_id":"levelo_inurba_marseille","lat":43.23191,"lon":5.35549,"is_reserved":false,"is_disabled":false,"rental_uris":{"android":"levelo://app?vid=6f692286-d8f1-47d7-afbe-9c21dd6c9ff2","ios":"levelo://app?vid=6f692286-d8f1-47d7-afbe-9c21dd6c9ff2"},"vehicle_type_id":"4","last_reported":1732975676,"current_range_meters":9600,"station_id":"ce4bhu92rcd13ifvqi70","pricing_plan_id":"cebpf4jnsgd1na2vs0mg"},{"bike_id":"7974306f-50f1-4979-96e6-42a3a669c81a","system_id":"levelo_inurba_marseille","lat":43.32002,"lon":5.38153,"is_reserved":false,"is_disabled":false,"rental_uris":{"android":"levelo://app?vid=7974306f-50f1-4979-96e6-42a3a669c81a","ios":"levelo://app?vid=7974306f-50f1-4979-96e6-42a3a669c81a"},"vehicle_type_id":"4","last_reported":1732975676,"current_range_meters":10000,"station_id":"ce4bhr12rcd13ifvqhpg","pricing_plan_id":"cebpf4jnsgd1na2vs0mg"},{"bike_id":"32910786-5518-43e3-8702-d33e2f317cdf","system_id":"levelo_inurba_marseille","lat":43.24167,"lon":5.36397,"is_reserved":false,"is_disabled":false,"rental_uris":{"android":"levelo://app?vid=32910786-5518-43e3-8702-d33e2f317cdf","ios":"levelo://app?vid=32910786-5518-43e3-8702-d33e2f317cdf"},"vehicle_type_id":"4","last_reported":1732975676,"current_range_meters":35600,"station_id":"cpo36qri1sfpv3e86is0","pricing_plan_id":"cebpf4jnsgd1na2vs0mg"},{"bike_id":"08a4096a-2386-457c-87fb-9fd2b845acb1","system_id":"levelo_inurba_marseille","lat":43.29519,"lon":5.37511,"is_reserved":false,"is_disabled":false,"rental_uris":{"android":"levelo://app?vid=08a4096a-2386-457c-87fb-9fd2b845acb1","ios":"levelo://app?vid=08a4096a-2386-457c-87fb-9fd2b845acb1"},"vehicle_type_id":"4","last_reported":1732975676,"current_range_meters":28800,"station_id":"ce4bgkp2rcd13ifvqbmg","pricing_plan_id":"cebpf4jnsgd1na2vs0mg"},{"bike_id":"16ad7140-94bd-46fe-8e45-10e36bf131cc","system_id":"levelo_inurba_marseille","lat":43.29575,"lon":5.37493,"is_reserved":false,"is_disabled":false,"rental_uris":{"android":"levelo://app?vid=16ad7140-94bd-46fe-8e45-10e36bf131cc","ios":"levelo://app?vid=16ad7140-94bd-46fe-8e45-10e36bf131cc"},"vehicle_type_id":"4","last_reported":1732975676,"current_range_meters":38800,"station_id":"ce4bgh92rcd13ifvqb50","pricing_plan_id":"cebpf4jnsgd1na2vs0mg"},{"bike_id":"2c1a3127-a502-4c56-b570-60c43eb99f2c","system_id":"levelo_inurba_marseille","lat":43.31745,"lon":5.3903,"is_reserved":false,"is_disabled":false,"rental_uris":{"android":"levelo://app?vid=2c1a3127-a502-4c56-b570-60c43eb99f2c","ios":"levelo://app?vid=2c1a3127-a502-4c56-b570-60c43eb99f2c"},"vehicle_type_id":"4","last_reported":1732975676,"current_range_meters":39200,"station_id":"ce4bhqp2rcd13ifvqhng","pricing_plan_id":"cebpf4jnsgd1na2vs0mg"},{"bike_id":"98b1170c-0d5c-4b81-8f49-eea4684ce966","system_id":"levelo_inurba_marseille","lat":43.23968,"lon":5.36633,"is_reserved":false,"is_disabled":false,"rental_uris":{"android":"levelo://app?vid=98b1170c-0d5c-4b81-8f49-eea4684ce966","ios":"levelo://app?vid=98b1170c-0d5c-4b81-8f49-eea4684ce966"},"vehicle_type_id":"4","last_reported":1732975676,"current_range_meters":28000,"station_id":"ce4bhi12rcd13ifvqfp0","pricing_plan_id":"cebpf4jnsgd1na2vs0mg"},{"bike_id":"ee073a71-2c6e-4ad2-b79a-ee06e5a9bd61","system_id":"levelo_inurba_marseille","lat":43.29632,"lon":5.406,"is_reserved":false,"is_disabled":false,"rental_uris":{"android":"levelo://app?vid=ee073a71-2c6e-4ad2-b79a-ee06e5a9bd61","ios":"levelo://app?vid=ee073a71-2c6e-4ad2-b79a-ee06e5a9bd61"},"vehicle_type_id":"4","last_reported":1732975676,"current_range_meters":30400,"station_id":"ce4bh0h2rcd13ifvqd60","pricing_plan_id":"cebpf4jnsgd1na2vs0mg"},{"bike_id":"b7cc3603-8952-4969-81a2-7285ceb87fb0","system_id":"levelo_inurba_marseille","lat":43.29708,"lon":5.37697,"is_reserved":false,"is_disabled":false,"rental_uris":{"android":"levelo://app?vid=b7cc3603-8952-4969-81a2-7285ceb87fb0","ios":"levelo://app?vid=b7cc3603-8952-4969-81a2-7285ceb87fb0"},"vehicle_type_id":"4","last_reported":1732975676,"current_range_meters":4000,"station_id":"ce4bgkh2rcd13ifvqbl0","pricing_plan_id":"cebpf4jnsgd1na2vs0mg"},{"bike_id":"d77c8fa8-9230-4eda-bc9a-5b066cfdd6cc","system_id":"levelo_inurba_marseille","lat":43.25714,"lon":5.41109,"is_reserved":false,"is_disabled":false,"rental_uris":{"android":"levelo://app?vid=d77c8fa8-9230-4eda-bc9a-5b066cfdd6cc","ios":"levelo://app?vid=d77c8fa8-9230-4eda-bc9a-5b066cfdd6cc"},"vehicle_type_id":"4","last_reported":1732975676,"current_range_meters":22400,"station_id":"ce4bhkp2rcd13ifvqgd0","pricing_plan_id":"cebpf4jnsgd1na2vs0mg"},{"bike_id":"c06d749e-ca03-47d5-9638-fd9ffd61a0de","system_id":"levelo_inurba_marseille","lat":43.29455,"lon":5.37878,"is_reserved":false,"is_disabled":false,"rental_uris":{"android":"levelo://app?vid=c06d749e-ca03-47d5-9638-fd9ffd61a0de","ios":"levelo://app?vid=c06d749e-ca03-47d5-9638-fd9ffd61a0de"},"vehicle_type_id":"4","last_reported":1732975676,"current_range_meters":33600,"station_id":"ce4bgs12rcd13ifvqcag","pricing_plan_id":"cebpf4jnsgd1na2vs0mg"},{"bike_id":"886c07da-82ae-4ddc-a4f2-4ce16eec7887","system_id":"levelo_inurba_marseille","lat":43.29002,"lon":5.35618,"is_reserved":false,"is_disabled":false,"rental_uris":{"android":"levelo://app?vid=886c07da-82ae-4ddc-a4f2-4ce16eec7887","ios":"levelo://app?vid=886c07da-82ae-4ddc-a4f2-4ce16eec7887"},"vehicle_type_id":"4","last_reported":1732975676,"current_range_meters":30800,"station_id":"ce4bhb92rcd13ifvqen0","pricing_plan_id":"cebpf4jnsgd1na2vs0mg"},{"bike_id":"b0bd4cdf-7308-45f0-8e99-a0d5811907ff","system_id":"levelo_inurba_marseille","lat":43.25434,"lon":5.38177,"is_reserved":false,"is_disabled":true,"rental_uris":{"android":"levelo://app?vid=b0bd4cdf-7308-45f0-8e99-a0d5811907ff","ios":"levelo://app?vid=b0bd4cdf-7308-45f0-8e99-a0d5811907ff"},"vehicle_type_id":"4","last_reported":1732975676,"current_range_meters":0,"station_id":"","pricing_plan_id":"cebpf4jnsgd1na2vs0mg"},{"bike_id":"6db2668d-562c-4528-9019-1cb20a81449a","system_id":"levelo_inurba_marseille","lat":43.3093,"lon":5.37121,"is_reserved":false,"is_disabled":false,"rental_uris":{"android":"levelo://app?vid=6db2668d-562c-4528-9019-1cb20a81449a","ios":"levelo://app?vid=6db2668d-562c-4528-9019-1cb20a81449a"},"vehicle_type_id":"4","last_reported":1732975676,"current_range_meters":33200,"station_id":"","pricing_plan_id":"cebpf4jnsgd1na2vs0mg"},{"bike_id":"68691d0c-3f2d-4b69-a391-9240c70279ee","system_id":"levelo_inurba_marseille","lat":43.29928,"lon":5.38133,"is_reserved":false,"is_disabled":false,"rental_uris":{"android":"levelo://app?vid=68691d0c-3f2d-4b69-a391-9240c70279ee","ios":"levelo://app?vid=68691d0c-3f2d-4b69-a391-9240c70279ee"},"vehicle_type_id":"4","last_reported":1732975676,"current_range_meters":37600,"station_id":"ce4bgj12rcd13ifvqbc0","pricing_plan_id":"cebpf4jnsgd1na2vs0mg"},{"bike_id":"3beb74fc-fd6d-4b2f-8e33-efb410627112","system_id":"levelo_inurba_marseille","lat":43.23966,"lon":5.36635,"is_reserved":false,"is_disabled":false,"rental_uris":{"android":"levelo://app?vid=3beb74fc-fd6d-4b2f-8e33-efb410627112","ios":"levelo://app?vid=3beb74fc-fd6d-4b2f-8e33-efb410627112"},"vehicle_type_id":"4","last_reported":1732975676,"current_range_meters":10800,"station_id":"ce4bhi12rcd13ifvqfp0","pricing_plan_id":"cebpf4jnsgd1na2vs0mg"},{"bike_id":"51a11fec-ff6a-4129-9b27-2a058321d7b3","system_id":"levelo_inurba_marseille","lat":43.29968,"lon":5.37181,"is_reserved":false,"is_disabled":true,"rental_uris":{"android":"levelo://app?vid=51a11fec-ff6a-4129-9b27-2a058321d7b3","ios":"levelo://app?vid=51a11fec-ff6a-4129-9b27-2a058321d7b3"},"vehicle_type_id":"4","last_reported":1732975676,"current_range_meters":2000,"station_id":"ce4bgr92rcd13ifvqc7g","pricing_plan_id":"cebpf4jnsgd1na2vs0mg"},{"bike_id":"3c241112-0e96-425e-8646-c6f08bf02411","system_id":"levelo_inurba_marseille","lat":43.24654,"lon":5.38892,"is_reserved":false,"is_disabled":false,"rental_uris":{"android":"levelo://app?vid=3c241112-0e96-425e-8646-c6f08bf02411","ios":"levelo://app?vid=3c241112-0e96-425e-8646-c6f08bf02411"},"vehicle_type_id":"4","last_reported":1732975676,"current_range_meters":40000,"station_id":"ce4bhg12rcd13ifvqf60","pricing_plan_id":"cebpf4jnsgd1na2vs0mg"},{"bike_id":"6f7949e1-de87-4a49-8620-fec27e04447f","system_id":"levelo_inurba_marseille","lat":43.3376,"lon":5.39163,"is_reserved":false,"is_disabled":false,"rental_uris":{"android":"levelo://app?vid=6f7949e1-de87-4a49-8620-fec27e04447f","ios":"levelo://app?vid=6f7949e1-de87-4a49-8620-fec27e04447f"},"vehicle_type_id":"4","last_reported":1732975676,"current_range_meters":27600,"station_id":"","pricing_plan_id":"cebpf4jnsgd1na2vs0mg"},{"bike_id":"440cb15e-33be-4df8-8721-48d188434d9c","system_id":"levelo_inurba_marseille","lat":43.2466,"lon":5.38165,"is_reserved":false,"is_disabled":false,"rental_uris":{"android":"levelo://app?vid=440cb15e-33be-4df8-8721-48d188434d9c","ios":"levelo://app?vid=440cb15e-33be-4df8-8721-48d188434d9c"},"vehicle_type_id":"4","last_reported":1732975676,"current_range_meters":16400,"station_id":"ce4bhih2rcd13ifvqfr0","pricing_plan_id":"cebpf4jnsgd1na2vs0mg"},{"bike_id":"1a535d41-eaf9-461f-bf9a-33662b5eaa71","system_id":"levelo_inurba_marseille","lat":43.28154,"lon":5.42642,"is_reserved":false,"is_disabled":false,"rental_uris":{"android":"levelo://app?vid=1a535d41-eaf9-461f-bf9a-33662b5eaa71","ios":"levelo://app?vid=1a535d41-eaf9-461f-bf9a-33662b5eaa71"},"vehicle_type_id":"4","last_reported":1732975676,"current_range_meters":34000,"station_id":"ce4bhnh2rcd13ifvqgug","pricing_plan_id":"cebpf4jnsgd1na2vs0mg"},{"bike_id":"7066298c-8444-4dbb-8e5a-afa45f0890f5","system_id":"levelo_inurba_marseille","lat":43.28854,"lon":5.39328,"is_reserved":false,"is_disabled":true,"rental_uris":{"android":"levelo://app?vid=7066298c-8444-4dbb-8e5a-afa45f0890f5","ios":"levelo://app?vid=7066298c-8444-4dbb-8e5a-afa45f0890f5"},"vehicle_type_id":"4","last_reported":1732975676,"current_range_meters":12000,"station_id":"ce4bh2p2rcd13ifvqdi0","pricing_plan_id":"cebpf4jnsgd1na2vs0mg"},{"bike_id":"79da6e11-068f-4f85-891a-bf5d6033ae1b","system_id":"levelo_inurba_marseille","lat":43.29195,"lon":5.39326,"is_reserved":false,"is_disabled":true,"rental_uris":{"android":"levelo://app?vid=79da6e11-068f-4f85-891a-bf5d6033ae1b","ios":"levelo://app?vid=79da6e11-068f-4f85-891a-bf5d6033ae1b"},"vehicle_type_id":"4","last_reported":1732975676,"current_range_meters":24400,"station_id":"ce4bh192rcd13ifvqdd0","pricing_plan_id":"cebpf4jnsgd1na2vs0mg"},{"bike_id":"7f809bf0-bf36-4d68-9b42-4bce379ad3d0","system_id":"levelo_inurba_marseille","lat":43.30592,"lon":5.3936,"is_reserved":false,"is_disabled":false,"rental_uris":{"android":"levelo://app?vid=7f809bf0-bf36-4d68-9b42-4bce379ad3d0","ios":"levelo://app?vid=7f809bf0-bf36-4d68-9b42-4bce379ad3d0"},"vehicle_type_id":"4","last_reported":1732975676,"current_range_meters":36000,"station_id":"ce4bh0p2rcd13ifvqd80","pricing_plan_id":"cebpf4jnsgd1na2vs0mg"},{"bike_id":"4c67ad55-d69a-439d-a421-ef2f7f11fb36","system_id":"levelo_inurba_marseille","lat":43.31081,"lon":5.42435,"is_reserved":false,"is_disabled":false,"rental_uris":{"android":"levelo://app?vid=4c67ad55-d69a-439d-a421-ef2f7f11fb36","ios":"levelo://app?vid=4c67ad55-d69a-439d-a421-ef2f7f11fb36"},"vehicle_type_id":"4","last_reported":1732975676,"current_range_meters":38000,"station_id":"ce4bhp92rcd13ifvqhag","pricing_plan_id":"cebpf4jnsgd1na2vs0mg"},{"bike_id":"835d153f-e532-46c5-8589-d6e611faf784","system_id":"levelo_inurba_marseille","lat":43.27612,"lon":5.36109,"is_reserved":false,"is_disabled":false,"rental_uris":{"android":"levelo://app?vid=835d153f-e532-46c5-8589-d6e611faf784","ios":"levelo://app?vid=835d153f-e532-46c5-8589-d6e611faf784"},"vehicle_type_id":"4","last_reported":1732975676,"current_range_meters":8000,"station_id":"ce4bgj92rcd13ifvqbe0","pricing_plan_id":"cebpf4jnsgd1na2vs0mg"},{"bike_id":"f26bfa4f-1b03-4d40-bd8a-9396393c620d","system_id":"levelo_inurba_marseille","lat":43.25579,"lon":5.38239,"is_reserved":false,"is_disabled":false,"rental_uris":{"android":"levelo://app?vid=f26bfa4f-1b03-4d40-bd8a-9396393c620d","ios":"levelo://app?vid=f26bfa4f-1b03-4d40-bd8a-9396393c620d"},"vehicle_type_id":"4","last_reported":1732975676,"current_range_meters":39200,"station_id":"ce4bhih2rcd13ifvqfs0","pricing_plan_id":"cebpf4jnsgd1na2vs0mg"},{"bike_id":"69a5c247-8aae-40d6-aec8-95f7c0091299","system_id":"levelo_inurba_marseille","lat":43.30137,"lon":5.39855,"is_reserved":false,"is_disabled":false,"rental_uris":{"android":"levelo://app?vid=69a5c247-8aae-40d6-aec8-95f7c0091299","ios":"levelo://app?vid=69a5c247-8aae-40d6-aec8-95f7c0091299"},"vehicle_type_id":"4","last_reported":1732975676,"current_range_meters":22400,"station_id":"ce4bh0h2rcd13ifvqd40","pricing_plan_id":"cebpf4jnsgd1na2vs0mg"},{"bike_id":"8fc41d74-9629-4800-9712-ea7a43dd0f0c","system_id":"levelo_inurba_marseille","lat":43.28615,"lon":5.35103,"is_reserved":false,"is_disabled":false,"rental_uris":{"android":"levelo://app?vid=8fc41d74-9629-4800-9712-ea7a43dd0f0c","ios":"levelo://app?vid=8fc41d74-9629-4800-9712-ea7a43dd0f0c"},"vehicle_type_id":"4","last_reported":1732975676,"current_range_meters":12000,"station_id":"ce4bhch2rcd13ifvqeug","pricing_plan_id":"cebpf4jnsgd1na2vs0mg"},{"bike_id":"4cd0fae9-9b96-4c08-80a7-0987ebb39a57","system_id":"levelo_inurba_marseille","lat":43.28992,"lon":5.35617,"is_reserved":false,"is_disabled":false,"rental_uris":{"android":"levelo://app?vid=4cd0fae9-9b96-4c08-80a7-0987ebb39a57","ios":"levelo://app?vid=4cd0fae9-9b96-4c08-80a7-0987ebb39a57"},"vehicle_type_id":"4","last_reported":1732975676,"current_range_meters":38800,"station_id":"ce4bhb92rcd13ifvqen0","pricing_plan_id":"cebpf4jnsgd1na2vs0mg"},{"bike_id":"98037c3a-9b2c-4fc3-b5c9-984ee3607601","system_id":"levelo_inurba_marseille","lat":43.32358,"lon":5.36753,"is_reserved":false,"is_disabled":false,"rental_uris":{"android":"levelo://app?vid=98037c3a-9b2c-4fc3-b5c9-984ee3607601","ios":"levelo://app?vid=98037c3a-9b2c-4fc3-b5c9-984ee3607601"},"vehicle_type_id":"4","last_reported":1732975676,"current_range_meters":8000,"station_id":"ce4bhsh2rcd13ifvqi2g","pricing_plan_id":"cebpf4jnsgd1na2vs0mg"},{"bike_id":"772b46d4-4c9c-490d-b252-fa3243a38fbe","system_id":"levelo_inurba_marseille","lat":43.28266,"lon":5.3507,"is_reserved":false,"is_disabled":false,"rental_uris":{"android":"levelo://app?vid=772b46d4-4c9c-490d-b252-fa3243a38fbe","ios":"levelo://app?vid=772b46d4-4c9c-490d-b252-fa3243a38fbe"},"vehicle_type_id":"4","last_reported":1732975676,"current_range_meters":24800,"station_id":"ce4bhbp2rcd13ifvqerg","pricing_plan_id":"cebpf4jnsgd1na2vs0mg"},{"bike_id":"daae3d9a-9063-4da9-81dd-2c3aafd97d80","system_id":"levelo_inurba_marseille","lat":43.24118,"lon":5.36451,"is_reserved":false,"is_disabled":false,"rental_uris":{"android":"levelo://app?vid=daae3d9a-9063-4da9-81dd-2c3aafd97d80","ios":"levelo://app?vid=daae3d9a-9063-4da9-81dd-2c3aafd97d80"},"vehicle_type_id":"4","last_reported":1732975676,"current_range_meters":33600,"station_id":"cpo36qri1sfpv3e86is0","pricing_plan_id":"cebpf4jnsgd1na2vs0mg"},{"bike_id":"8d04f02f-d227-4755-8001-37a91b33121e","system_id":"levelo_inurba_marseille","lat":43.25589,"lon":5.38223,"is_reserved":false,"is_disabled":false,"rental_uris":{"android":"levelo://app?vid=8d04f02f-d227-4755-8001-37a91b33121e","ios":"levelo://app?vid=8d04f02f-d227-4755-8001-37a91b33121e"},"vehicle_type_id":"4","last_reported":1732975676,"current_range_meters":30400,"station_id":"ce4bhih2rcd13ifvqfs0","pricing_plan_id":"cebpf4jnsgd1na2vs0mg"},{"bike_id":"d350231d-a46d-4666-ba51-f12c2e69a01c","system_id":"levelo_inurba_marseille","lat":43.25718,"lon":5.41113,"is_reserved":false,"is_disabled":false,"rental_uris":{"android":"levelo://app?vid=d350231d-a46d-4666-ba51-f12c2e69a01c","ios":"levelo://app?vid=d350231d-a46d-4666-ba51-f12c2e69a01c"},"vehicle_type_id":"4","last_reported":1732975676,"current_range_meters":39200,"station_id":"ce4bhkp2rcd13ifvqgd0","pricing_plan_id":"cebpf4jnsgd1na2vs0mg"},{"bike_id":"385b33d2-1c16-4ef6-a22f-27cf07ac44d1","system_id":"levelo_inurba_marseille","lat":43.26222,"lon":5.37904,"is_reserved":false,"is_disabled":false,"rental_uris":{"android":"levelo://app?vid=385b33d2-1c16-4ef6-a22f-27cf07ac44d1","ios":"levelo://app?vid=385b33d2-1c16-4ef6-a22f-27cf07ac44d1"},"vehicle_type_id":"4","last_reported":1732975676,"current_range_meters":8800,"station_id":"ce4bhjp2rcd13ifvqg90","pricing_plan_id":"cebpf4jnsgd1na2vs0mg"},{"bike_id":"1b9d6586-57d2-41ae-a557-b4794a67a371","system_id":"levelo_inurba_marseille","lat":43.32034,"lon":5.41549,"is_reserved":false,"is_disabled":false,"rental_uris":{"android":"levelo://app?vid=1b9d6586-57d2-41ae-a557-b4794a67a371","ios":"levelo://app?vid=1b9d6586-57d2-41ae-a557-b4794a67a371"},"vehicle_type_id":"4","last_reported":1732975676,"current_range_meters":19200,"station_id":"ce4bhq92rcd13ifvqhkg","pricing_plan_id":"cebpf4jnsgd1na2vs0mg"},{"bike_id":"973568af-5e1b-4076-bd26-32e4e284fced","system_id":"levelo_inurba_marseille","lat":43.27175,"lon":5.40996,"is_reserved":false,"is_disabled":true,"rental_uris":{"android":"levelo://app?vid=973568af-5e1b-4076-bd26-32e4e284fced","ios":"levelo://app?vid=973568af-5e1b-4076-bd26-32e4e284fced"},"vehicle_type_id":"4","last_reported":1732975676,"current_range_meters":0,"station_id":"ce4bhl12rcd13ifvqgf0","pricing_plan_id":"cebpf4jnsgd1na2vs0mg"},{"bike_id":"9d22430f-206f-4dac-a138-8e0c20ce2558","system_id":"levelo_inurba_marseille","lat":43.2549,"lon":5.37647,"is_reserved":false,"is_disabled":false,"rental_uris":{"android":"levelo://app?vid=9d22430f-206f-4dac-a138-8e0c20ce2558","ios":"levelo://app?vid=9d22430f-206f-4dac-a138-8e0c20ce2558"},"vehicle_type_id":"4","last_reported":1732975676,"current_range_meters":33200,"station_id":"ce4bhh12rcd13ifvqff0","pricing_plan_id":"cebpf4jnsgd1na2vs0mg"},{"bike_id":"80d2731f-b906-4617-8ebf-25c514f46b29","system_id":"levelo_inurba_marseille","lat":43.22929,"lon":5.35379,"is_reserved":false,"is_disabled":false,"rental_uris":{"android":"levelo://app?vid=80d2731f-b906-4617-8ebf-25c514f46b29","ios":"levelo://app?vid=80d2731f-b906-4617-8ebf-25c514f46b29"},"vehicle_type_id":"4","last_reported":1732975676,"current_range_meters":26800,"station_id":"cpo3532slgdg3j2ikp40","pricing_plan_id":"cebpf4jnsgd1na2vs0mg"},{"bike_id":"ab3952f5-337d-4020-81e0-a652b3a93f73","system_id":"levelo_inurba_marseille","lat":43.31484,"lon":5.37309,"is_reserved":false,"is_disabled":false,"rental_uris":{"android":"levelo://app?vid=ab3952f5-337d-4020-81e0-a652b3a93f73","ios":"levelo://app?vid=ab3952f5-337d-4020-81e0-a652b3a93f73"},"vehicle_type_id":"4","last_reported":1732975676,"current_range_meters":30000,"station_id":"ce4bgt12rcd13ifvqcd0","pricing_plan_id":"cebpf4jnsgd1na2vs0mg"},{"bike_id":"67fa2a9e-eed8-4ed6-bdd8-7d1023a52b4e","system_id":"levelo_inurba_marseille","lat":43.26937,"lon":5.38925,"is_reserved":false,"is_disabled":true,"rental_uris":{"android":"levelo://app?vid=67fa2a9e-eed8-4ed6-bdd8-7d1023a52b4e","ios":"levelo://app?vid=67fa2a9e-eed8-4ed6-bdd8-7d1023a52b4e"},"vehicle_type_id":"4","last_reported":1732975676,"current_range_meters":9600,"station_id":"ce4bhhh2rcd13ifvqfl0","pricing_plan_id":"cebpf4jnsgd1na2vs0mg"},{"bike_id":"dcc0f076-9c63-4b1f-9f73-4d12b244a522","system_id":"levelo_inurba_marseille","lat":43.2993,"lon":5.36554,"is_reserved":false,"is_disabled":false,"rental_uris":{"android":"levelo://app?vid=dcc0f076-9c63-4b1f-9f73-4d12b244a522","ios":"levelo://app?vid=dcc0f076-9c63-4b1f-9f73-4d12b244a522"},"vehicle_type_id":"4","last_reported":1732975676,"current_range_meters":11200,"station_id":"ce4bgm92rcd13ifvqbr0","pricing_plan_id":"cebpf4jnsgd1na2vs0mg"},{"bike_id":"668e2ee9-a198-4160-90ec-b474472e7019","system_id":"levelo_inurba_marseille","lat":43.3234,"lon":5.40614,"is_reserved":false,"is_disabled":false,"rental_uris":{"android":"levelo://app?vid=668e2ee9-a198-4160-90ec-b474472e7019","ios":"levelo://app?vid=668e2ee9-a198-4160-90ec-b474472e7019"},"vehicle_type_id":"4","last_reported":1732975676,"current_range_meters":26800,"station_id":"ce4bhq92rcd13ifvqhjg","pricing_plan_id":"cebpf4jnsgd1na2vs0mg"},{"bike_id":"a117daaa-32b4-4aab-8852-2bd429df895d","system_id":"levelo_inurba_marseille","lat":43.3248,"lon":5.36564,"is_reserved":false,"is_disabled":false,"rental_uris":{"android":"levelo://app?vid=a117daaa-32b4-4aab-8852-2bd429df895d","ios":"levelo://app?vid=a117daaa-32b4-4aab-8852-2bd429df895d"},"vehicle_type_id":"4","last_reported":1732975676,"current_range_meters":28800,"station_id":"ce4bhs12rcd13ifvqhvg","pricing_plan_id":"cebpf4jnsgd1na2vs0mg"},{"bike_id":"a2ac41da-6096-4fe3-9a6c-690722f4702a","system_id":"levelo_inurba_marseille","lat":43.24388,"lon":5.37065,"is_reserved":false,"is_disabled":false,"rental_uris":{"android":"levelo://app?vid=a2ac41da-6096-4fe3-9a6c-690722f4702a","ios":"levelo://app?vid=a2ac41da-6096-4fe3-9a6c-690722f4702a"},"vehicle_type_id":"4","last_reported":1732975676,"current_range_meters":6800,"station_id":"ce4bhhh2rcd13ifvqfk0","pricing_plan_id":"cebpf4jnsgd1na2vs0mg"},{"bike_id":"fe2c00d6-fab6-472b-887d-35960cae9038","system_id":"levelo_inurba_marseille","lat":43.25939,"lon":5.409,"is_reserved":false,"is_disabled":false,"rental_uris":{"android":"levelo://app?vid=fe2c00d6-fab6-472b-887d-35960cae9038","ios":"levelo://app?vid=fe2c00d6-fab6-472b-887d-35960cae9038"},"vehicle_type_id":"4","last_reported":1732975676,"current_range_meters":36800,"station_id":"ce4bhm92rcd13ifvqglg","pricing_plan_id":"cebpf4jnsgd1na2vs0mg"},{"bike_id":"b0cfacae-9f18-42f1-94ee-3529769d08fd","system_id":"levelo_inurba_marseille","lat":43.283913,"lon":5.375126,"is_reserved":false,"is_disabled":false,"rental_uris":{"android":"levelo://app?vid=b0cfacae-9f18-42f1-94ee-3529769d08fd","ios":"levelo://app?vid=b0cfacae-9f18-42f1-94ee-3529769d08fd"},"vehicle_type_id":"4","last_reported":1732975676,"current_range_meters":29600,"station_id":"ce4bh412rcd13ifvqds0","pricing_plan_id":"cebpf4jnsgd1na2vs0mg"},{"bike_id":"41caa9ee-86f5-464c-8b22-d4d7c535acc8","system_id":"levelo_inurba_marseille","lat":43.2846,"lon":5.35887,"is_reserved":false,"is_disabled":true,"rental_uris":{"android":"levelo://app?vid=41caa9ee-86f5-464c-8b22-d4d7c535acc8","ios":"levelo://app?vid=41caa9ee-86f5-464c-8b22-d4d7c535acc8"},"vehicle_type_id":"4","last_reported":1732975676,"current_range_meters":6000,"station_id":"ce4bhah2rcd13ifvqei0","pricing_plan_id":"cebpf4jnsgd1na2vs0mg"},{"bike_id":"bc749360-3ce4-4dd6-a0ac-83aa82c323a7","system_id":"levelo_inurba_marseille","lat":43.28157,"lon":5.42641,"is_reserved":false,"is_disabled":true,"rental_uris":{"android":"levelo://app?vid=bc749360-3ce4-4dd6-a0ac-83aa82c323a7","ios":"levelo://app?vid=bc749360-3ce4-4dd6-a0ac-83aa82c323a7"},"vehicle_type_id":"4","last_reported":1732975676,"current_range_meters":35600,"station_id":"ce4bhnh2rcd13ifvqgug","pricing_plan_id":"cebpf4jnsgd1na2vs0mg"},{"bike_id":"0a9f63f4-efb5-41f8-835a-fc87563066f0","system_id":"levelo_inurba_marseille","lat":43.337444,"lon":5.374475,"is_reserved":false,"is_disabled":false,"rental_uris":{"android":"levelo://app?vid=0a9f63f4-efb5-41f8-835a-fc87563066f0","ios":"levelo://app?vid=0a9f63f4-efb5-41f8-835a-fc87563066f0"},"vehicle_type_id":"4","last_reported":1732975676,"current_range_meters":32400,"station_id":"","pricing_plan_id":"cebpf4jnsgd1na2vs0mg"},{"bike_id":"b358c565-b88d-4053-bff7-82b78920a65f","system_id":"levelo_inurba_marseille","lat":43.231903,"lon":5.355507,"is_reserved":false,"is_disabled":false,"rental_uris":{"android":"levelo://app?vid=b358c565-b88d-4053-bff7-82b78920a65f","ios":"levelo://app?vid=b358c565-b88d-4053-bff7-82b78920a65f"},"vehicle_type_id":"4","last_reported":1732975676,"current_range_meters":38800,"station_id":"ce4bhu92rcd13ifvqi70","pricing_plan_id":"cebpf4jnsgd1na2vs0mg"},{"bike_id":"4d4c884f-6933-49c0-8899-f9856d90f44d","system_id":"levelo_inurba_marseille","lat":43.29748,"lon":5.37971,"is_reserved":false,"is_disabled":true,"rental_uris":{"android":"levelo://app?vid=4d4c884f-6933-49c0-8899-f9856d90f44d","ios":"levelo://app?vid=4d4c884f-6933-49c0-8899-f9856d90f44d"},"vehicle_type_id":"4","last_reported":1732975676,"current_range_meters":0,"station_id":"","pricing_plan_id":"cebpf4jnsgd1na2vs0mg"},{"bike_id":"49383f8c-5e0c-4bb5-aa2b-e1c81f4536f3","system_id":"levelo_inurba_marseille","lat":43.32286,"lon":5.38267,"is_reserved":false,"is_disabled":false,"rental_uris":{"android":"levelo://app?vid=49383f8c-5e0c-4bb5-aa2b-e1c81f4536f3","ios":"levelo://app?vid=49383f8c-5e0c-4bb5-aa2b-e1c81f4536f3"},"vehicle_type_id":"4","last_reported":1732975676,"current_range_meters":30000,"station_id":"ce4bhr12rcd13ifvqhqg","pricing_plan_id":"cebpf4jnsgd1na2vs0mg"},{"bike_id":"d1aec432-d9bc-4694-bfd7-252a619ff2e1","system_id":"levelo_inurba_marseille","lat":43.30467,"lon":5.37912,"is_reserved":false,"is_disabled":false,"rental_uris":{"android":"levelo://app?vid=d1aec432-d9bc-4694-bfd7-252a619ff2e1","ios":"levelo://app?vid=d1aec432-d9bc-4694-bfd7-252a619ff2e1"},"vehicle_type_id":"4","last_reported":1732975676,"current_range_meters":16400,"station_id":"ce4bgup2rcd13ifvqcn0","pricing_plan_id":"cebpf4jnsgd1na2vs0mg"},{"bike_id":"cda0931b-2d27-480a-9da9-cea037c24240","system_id":"levelo_inurba_marseille","lat":43.26216,"lon":5.37894,"is_reserved":false,"is_disabled":false,"rental_uris":{"android":"levelo://app?vid=cda0931b-2d27-480a-9da9-cea037c24240","ios":"levelo://app?vid=cda0931b-2d27-480a-9da9-cea037c24240"},"vehicle_type_id":"4","last_reported":1732975676,"current_range_meters":38400,"station_id":"ce4bhjp2rcd13ifvqg90","pricing_plan_id":"cebpf4jnsgd1na2vs0mg"},{"bike_id":"48ddb7b0-f160-4c58-a5e2-50d069fa2a5d","system_id":"levelo_inurba_marseille","lat":43.29269,"lon":5.36843,"is_reserved":false,"is_disabled":false,"rental_uris":{"android":"levelo://app?vid=48ddb7b0-f160-4c58-a5e2-50d069fa2a5d","ios":"levelo://app?vid=48ddb7b0-f160-4c58-a5e2-50d069fa2a5d"},"vehicle_type_id":"4","last_reported":1732975676,"current_range_meters":38800,"station_id":"ce4bhbp2rcd13ifvqesg","pricing_plan_id":"cebpf4jnsgd1na2vs0mg"},{"bike_id":"9009be37-c6b1-406b-b0a8-fbab355f715e","system_id":"levelo_inurba_marseille","lat":43.33763,"lon":5.37495,"is_reserved":false,"is_disabled":false,"rental_uris":{"android":"levelo://app?vid=9009be37-c6b1-406b-b0a8-fbab355f715e","ios":"levelo://app?vid=9009be37-c6b1-406b-b0a8-fbab355f715e"},"vehicle_type_id":"4","last_reported":1732975676,"current_range_meters":36000,"station_id":"","pricing_plan_id":"cebpf4jnsgd1na2vs0mg"},{"bike_id":"2d935013-838b-4196-a076-6a1507e4cc81","system_id":"levelo_inurba_marseille","lat":43.23965,"lon":5.36634,"is_reserved":false,"is_disabled":false,"rental_uris":{"android":"levelo://app?vid=2d935013-838b-4196-a076-6a1507e4cc81","ios":"levelo://app?vid=2d935013-838b-4196-a076-6a1507e4cc81"},"vehicle_type_id":"4","last_reported":1732975676,"current_range_meters":19600,"station_id":"ce4bhi12rcd13ifvqfp0","pricing_plan_id":"cebpf4jnsgd1na2vs0mg"},{"bike_id":"f315444c-3182-4e6c-adf2-7365eb3bf125","system_id":"levelo_inurba_marseille","lat":43.24075,"lon":5.37763,"is_reserved":false,"is_disabled":false,"rental_uris":{"android":"levelo://app?vid=f315444c-3182-4e6c-adf2-7365eb3bf125","ios":"levelo://app?vid=f315444c-3182-4e6c-adf2-7365eb3bf125"},"vehicle_type_id":"4","last_reported":1732975676,"current_range_meters":3600,"station_id":"ce4bhnp2rcd13ifvqgvg","pricing_plan_id":"cebpf4jnsgd1na2vs0mg"},{"bike_id":"ac49fba4-30df-4893-b052-7d9d76fd86a2","system_id":"levelo_inurba_marseille","lat":43.29249,"lon":5.38432,"is_reserved":false,"is_disabled":true,"rental_uris":{"android":"levelo://app?vid=ac49fba4-30df-4893-b052-7d9d76fd86a2","ios":"levelo://app?vid=ac49fba4-30df-4893-b052-7d9d76fd86a2"},"vehicle_type_id":"4","last_reported":1732975676,"current_range_meters":17600,"station_id":"ce4bh692rcd13ifvqea0","pricing_plan_id":"cebpf4jnsgd1na2vs0mg"},{"bike_id":"defa0072-dc95-413a-aca7-4a1620de77f0","system_id":"levelo_inurba_marseille","lat":43.29888,"lon":5.38909,"is_reserved":false,"is_disabled":false,"rental_uris":{"android":"levelo://app?vid=defa0072-dc95-413a-aca7-4a1620de77f0","ios":"levelo://app?vid=defa0072-dc95-413a-aca7-4a1620de77f0"},"vehicle_type_id":"4","last_reported":1732975676,"current_range_meters":32400,"station_id":"ce4bh392rcd13ifvqdl0","pricing_plan_id":"cebpf4jnsgd1na2vs0mg"},{"bike_id":"56a51390-ab43-4f44-9c27-9ff36621ac39","system_id":"levelo_inurba_marseille","lat":43.33773,"lon":5.37421,"is_reserved":false,"is_disabled":false,"rental_uris":{"android":"levelo://app?vid=56a51390-ab43-4f44-9c27-9ff36621ac39","ios":"levelo://app?vid=56a51390-ab43-4f44-9c27-9ff36621ac39"},"vehicle_type_id":"4","last_reported":1732975676,"current_range_meters":31200,"station_id":"","pricing_plan_id":"cebpf4jnsgd1na2vs0mg"},{"bike_id":"be1ea8ae-bb6c-4cc9-9878-4dd6e7c328d6","system_id":"levelo_inurba_marseille","lat":43.3211,"lon":5.36781,"is_reserved":false,"is_disabled":false,"rental_uris":{"android":"levelo://app?vid=be1ea8ae-bb6c-4cc9-9878-4dd6e7c328d6","ios":"levelo://app?vid=be1ea8ae-bb6c-4cc9-9878-4dd6e7c328d6"},"vehicle_type_id":"4","last_reported":1732975676,"current_range_meters":30400,"station_id":"ce4bhrh2rcd13ifvqhug","pricing_plan_id":"cebpf4jnsgd1na2vs0mg"},{"bike_id":"3abdb507-aca9-41cf-ab5c-c13fb795c3a0","system_id":"levelo_inurba_marseille","lat":43.284054,"lon":5.349836,"is_reserved":false,"is_disabled":true,"rental_uris":{"android":"levelo://app?vid=3abdb507-aca9-41cf-ab5c-c13fb795c3a0","ios":"levelo://app?vid=3abdb507-aca9-41cf-ab5c-c13fb795c3a0"},"vehicle_type_id":"4","last_reported":1732975676,"current_range_meters":38400,"station_id":"ce4bhbh2rcd13ifvqepg","pricing_plan_id":"cebpf4jnsgd1na2vs0mg"},{"bike_id":"7d383a9d-8fca-49d0-a191-1f3cff7f915a","system_id":"levelo_inurba_marseille","lat":43.30421,"lon":5.39751,"is_reserved":false,"is_disabled":false,"rental_uris":{"android":"levelo://app?vid=7d383a9d-8fca-49d0-a191-1f3cff7f915a","ios":"levelo://app?vid=7d383a9d-8fca-49d0-a191-1f3cff7f915a"},"vehicle_type_id":"4","last_reported":1732975676,"current_range_meters":38800,"station_id":"ce4bh092rcd13ifvqd20","pricing_plan_id":"cebpf4jnsgd1na2vs0mg"},{"bike_id":"659c3713-9f69-48d4-ab56-f16999acb99a","system_id":"levelo_inurba_marseille","lat":43.33019,"lon":5.39034,"is_reserved":false,"is_disabled":false,"rental_uris":{"android":"levelo://app?vid=659c3713-9f69-48d4-ab56-f16999acb99a","ios":"levelo://app?vid=659c3713-9f69-48d4-ab56-f16999acb99a"},"vehicle_type_id":"4","last_reported":1732975676,"current_range_meters":26000,"station_id":"ce4bhr92rcd13ifvqhrg","pricing_plan_id":"cebpf4jnsgd1na2vs0mg"},{"bike_id":"a76ab13f-71c5-48ad-9cec-0ff7fa8c8b1a","system_id":"levelo_inurba_marseille","lat":43.25859,"lon":5.39908,"is_reserved":false,"is_disabled":false,"rental_uris":{"android":"levelo://app?vid=a76ab13f-71c5-48ad-9cec-0ff7fa8c8b1a","ios":"levelo://app?vid=a76ab13f-71c5-48ad-9cec-0ff7fa8c8b1a"},"vehicle_type_id":"4","last_reported":1732975676,"current_range_meters":1600,"station_id":"ce4bhl92rcd13ifvqghg","pricing_plan_id":"cebpf4jnsgd1na2vs0mg"},{"bike_id":"97b35c0e-7e77-4f0a-83fa-58fbc99a2959","system_id":"levelo_inurba_marseille","lat":43.337444,"lon":5.374475,"is_reserved":false,"is_disabled":false,"rental_uris":{"android":"levelo://app?vid=97b35c0e-7e77-4f0a-83fa-58fbc99a2959","ios":"levelo://app?vid=97b35c0e-7e77-4f0a-83fa-58fbc99a2959"},"vehicle_type_id":"4","last_reported":1732975676,"current_range_meters":35200,"station_id":"","pricing_plan_id":"cebpf4jnsgd1na2vs0mg"},{"bike_id":"57516422-900b-4fee-adbc-7ea31a53a248","system_id":"levelo_inurba_marseille","lat":43.25723,"lon":5.41105,"is_reserved":false,"is_disabled":false,"rental_uris":{"android":"levelo://app?vid=57516422-900b-4fee-adbc-7ea31a53a248","ios":"levelo://app?vid=57516422-900b-4fee-adbc-7ea31a53a248"},"vehicle_type_id":"4","last_reported":1732975676,"current_range_meters":38800,"station_id":"ce4bhkp2rcd13ifvqgd0","pricing_plan_id":"cebpf4jnsgd1na2vs0mg"},{"bike_id":"bd592188-d898-4edf-9253-c06b88f51b1b","system_id":"levelo_inurba_marseille","lat":43.304643,"lon":5.379167,"is_reserved":false,"is_disabled":false,"rental_uris":{"android":"levelo://app?vid=bd592188-d898-4edf-9253-c06b88f51b1b","ios":"levelo://app?vid=bd592188-d898-4edf-9253-c06b88f51b1b"},"vehicle_type_id":"4","last_reported":1732975676,"current_range_meters":38800,"station_id":"ce4bgup2rcd13ifvqcn0","pricing_plan_id":"cebpf4jnsgd1na2vs0mg"},{"bike_id":"5d7560ca-2d2d-46fd-ba91-63027f6383d6","system_id":"levelo_inurba_marseille","lat":43.31214,"lon":5.36859,"is_reserved":false,"is_disabled":false,"rental_uris":{"android":"levelo://app?vid=5d7560ca-2d2d-46fd-ba91-63027f6383d6","ios":"levelo://app?vid=5d7560ca-2d2d-46fd-ba91-63027f6383d6"},"vehicle_type_id":"4","last_reported":1732975676,"current_range_meters":2800,"station_id":"ce4bgl92rcd13ifvqbq0","pricing_plan_id":"cebpf4jnsgd1na2vs0mg"},{"bike_id":"d8893ea1-0749-47d0-bcb7-133a48050ff5","system_id":"levelo_inurba_marseille","lat":43.24651,"lon":5.38903,"is_reserved":false,"is_disabled":false,"rental_uris":{"android":"levelo://app?vid=d8893ea1-0749-47d0-bcb7-133a48050ff5","ios":"levelo://app?vid=d8893ea1-0749-47d0-bcb7-133a48050ff5"},"vehicle_type_id":"4","last_reported":1732975676,"current_range_meters":9600,"station_id":"ce4bhg12rcd13ifvqf60","pricing_plan_id":"cebpf4jnsgd1na2vs0mg"},{"bike_id":"886ec63f-d5a1-4a1a-ba68-c525d37258f9","system_id":"levelo_inurba_marseille","lat":43.27373,"lon":5.36262,"is_reserved":false,"is_disabled":true,"rental_uris":{"android":"levelo://app?vid=886ec63f-d5a1-4a1a-ba68-c525d37258f9","ios":"levelo://app?vid=886ec63f-d5a1-4a1a-ba68-c525d37258f9"},"vehicle_type_id":"4","last_reported":1732975676,"current_range_meters":0,"station_id":"ce4bhbh2rcd13ifvqeo0","pricing_plan_id":"cebpf4jnsgd1na2vs0mg"},{"bike_id":"b2d953f4-eb10-4545-acc8-7f2058a172db","system_id":"levelo_inurba_marseille","lat":43.24804,"lon":5.37457,"is_reserved":false,"is_disabled":false,"rental_uris":{"android":"levelo://app?vid=b2d953f4-eb10-4545-acc8-7f2058a172db","ios":"levelo://app?vid=b2d953f4-eb10-4545-acc8-7f2058a172db"},"vehicle_type_id":"4","last_reported":1732975676,"current_range_meters":39200,"station_id":"ce4bhgh2rcd13ifvqfb0","pricing_plan_id":"cebpf4jnsgd1na2vs0mg"},{"bike_id":"064861a6-5a15-4e22-bc40-26ea165590ab","system_id":"levelo_inurba_marseille","lat":43.291989,"lon":5.393144,"is_reserved":false,"is_disabled":true,"rental_uris":{"android":"levelo://app?vid=064861a6-5a15-4e22-bc40-26ea165590ab","ios":"levelo://app?vid=064861a6-5a15-4e22-bc40-26ea165590ab"},"vehicle_type_id":"4","last_reported":1732975676,"current_range_meters":28000,"station_id":"ce4bh192rcd13ifvqdd0","pricing_plan_id":"cebpf4jnsgd1na2vs0mg"},{"bike_id":"e5b0aaf0-48d6-4728-b0e8-abee52c57611","system_id":"levelo_inurba_marseille","lat":43.26927,"lon":5.38915,"is_reserved":false,"is_disabled":false,"rental_uris":{"android":"levelo://app?vid=e5b0aaf0-48d6-4728-b0e8-abee52c57611","ios":"levelo://app?vid=e5b0aaf0-48d6-4728-b0e8-abee52c57611"},"vehicle_type_id":"4","last_reported":1732975676,"current_range_meters":36400,"station_id":"ce4bhhh2rcd13ifvqfl0","pricing_plan_id":"cebpf4jnsgd1na2vs0mg"},{"bike_id":"46507057-863b-4762-9275-3f3b81fccf53","system_id":"levelo_inurba_marseille","lat":43.24993,"lon":5.38934,"is_reserved":false,"is_disabled":false,"rental_uris":{"android":"levelo://app?vid=46507057-863b-4762-9275-3f3b81fccf53","ios":"levelo://app?vid=46507057-863b-4762-9275-3f3b81fccf53"},"vehicle_type_id":"4","last_reported":1732975676,"current_range_meters":24800,"station_id":"ce4bhgp2rcd13ifvqfd0","pricing_plan_id":"cebpf4jnsgd1na2vs0mg"},{"bike_id":"e8fa7be1-2407-41a7-b843-e7c70f1917ef","system_id":"levelo_inurba_marseille","lat":43.27611,"lon":5.36109,"is_reserved":false,"is_disabled":true,"rental_uris":{"android":"levelo://app?vid=e8fa7be1-2407-41a7-b843-e7c70f1917ef","ios":"levelo://app?vid=e8fa7be1-2407-41a7-b843-e7c70f1917ef"},"vehicle_type_id":"4","last_reported":1732975676,"current_range_meters":0,"station_id":"ce4bgj92rcd13ifvqbe0","pricing_plan_id":"cebpf4jnsgd1na2vs0mg"},{"bike_id":"86798679-2d11-4f7c-88f2-6fb22d206b65","system_id":"levelo_inurba_marseille","lat":43.33764,"lon":5.37426,"is_reserved":false,"is_disabled":false,"rental_uris":{"android":"levelo://app?vid=86798679-2d11-4f7c-88f2-6fb22d206b65","ios":"levelo://app?vid=86798679-2d11-4f7c-88f2-6fb22d206b65"},"vehicle_type_id":"4","last_reported":1732975676,"current_range_meters":38000,"station_id":"","pricing_plan_id":"cebpf4jnsgd1na2vs0mg"},{"bike_id":"fa0dc8cc-311e-4c0c-b32b-8a38ee713a16","system_id":"levelo_inurba_marseille","lat":43.26501,"lon":5.39541,"is_reserved":false,"is_disabled":false,"rental_uris":{"android":"levelo://app?vid=fa0dc8cc-311e-4c0c-b32b-8a38ee713a16","ios":"levelo://app?vid=fa0dc8cc-311e-4c0c-b32b-8a38ee713a16"},"vehicle_type_id":"4","last_reported":1732975676,"current_range_meters":29600,"station_id":"ce4bhi12rcd13ifvqfq0","pricing_plan_id":"cebpf4jnsgd1na2vs0mg"},{"bike_id":"ae110baa-6fa5-463d-9c19-2aa3237d6213","system_id":"levelo_inurba_marseille","lat":43.2319,"lon":5.35555,"is_reserved":false,"is_disabled":false,"rental_uris":{"android":"levelo://app?vid=ae110baa-6fa5-463d-9c19-2aa3237d6213","ios":"levelo://app?vid=ae110baa-6fa5-463d-9c19-2aa3237d6213"},"vehicle_type_id":"4","last_reported":1732975676,"current_range_meters":25600,"station_id":"ce4bhu92rcd13ifvqi70","pricing_plan_id":"cebpf4jnsgd1na2vs0mg"},{"bike_id":"9700beae-0fbf-4e58-beda-d02b6fed27fe","system_id":"levelo_inurba_marseille","lat":43.337444,"lon":5.374475,"is_reserved":false,"is_disabled":false,"rental_uris":{"android":"levelo://app?vid=9700beae-0fbf-4e58-beda-d02b6fed27fe","ios":"levelo://app?vid=9700beae-0fbf-4e58-beda-d02b6fed27fe"},"vehicle_type_id":"4","last_reported":1732975676,"current_range_meters":38400,"station_id":"","pricing_plan_id":"cebpf4jnsgd1na2vs0mg"},{"bike_id":"08226cce-1374-4711-b45d-e670b0ff171c","system_id":"levelo_inurba_marseille","lat":43.28404,"lon":5.34988,"is_reserved":false,"is_disabled":false,"rental_uris":{"android":"levelo://app?vid=08226cce-1374-4711-b45d-e670b0ff171c","ios":"levelo://app?vid=08226cce-1374-4711-b45d-e670b0ff171c"},"vehicle_type_id":"4","last_reported":1732975676,"current_range_meters":3200,"station_id":"ce4bhbh2rcd13ifvqepg","pricing_plan_id":"cebpf4jnsgd1na2vs0mg"},{"bike_id":"57be8da2-cc15-4fa0-ab5c-c8edf9f8151f","system_id":"levelo_inurba_marseille","lat":43.25004,"lon":5.3892,"is_reserved":false,"is_disabled":false,"rental_uris":{"android":"levelo://app?vid=57be8da2-cc15-4fa0-ab5c-c8edf9f8151f","ios":"levelo://app?vid=57be8da2-cc15-4fa0-ab5c-c8edf9f8151f"},"vehicle_type_id":"4","last_reported":1732975676,"current_range_meters":10000,"station_id":"ce4bhgp2rcd13ifvqfd0","pricing_plan_id":"cebpf4jnsgd1na2vs0mg"},{"bike_id":"0fa1a0ee-35c1-4ef4-95ba-73f88ec1db30","system_id":"levelo_inurba_marseille","lat":43.23193,"lon":5.3555,"is_reserved":false,"is_disabled":false,"rental_uris":{"android":"levelo://app?vid=0fa1a0ee-35c1-4ef4-95ba-73f88ec1db30","ios":"levelo://app?vid=0fa1a0ee-35c1-4ef4-95ba-73f88ec1db30"},"vehicle_type_id":"4","last_reported":1732975676,"current_range_meters":8400,"station_id":"ce4bhu92rcd13ifvqi70","pricing_plan_id":"cebpf4jnsgd1na2vs0mg"},{"bike_id":"58cc47a8-7400-4783-8e9f-bef56208b81d","system_id":"levelo_inurba_marseille","lat":43.25577,"lon":5.38244,"is_reserved":false,"is_disabled":false,"rental_uris":{"android":"levelo://app?vid=58cc47a8-7400-4783-8e9f-bef56208b81d","ios":"levelo://app?vid=58cc47a8-7400-4783-8e9f-bef56208b81d"},"vehicle_type_id":"4","last_reported":1732975676,"current_range_meters":10800,"station_id":"ce4bhih2rcd13ifvqfs0","pricing_plan_id":"cebpf4jnsgd1na2vs0mg"},{"bike_id":"0b8d2dd3-2ad4-4d56-807f-dd43464a6cec","system_id":"levelo_inurba_marseille","lat":43.2315,"lon":5.43726,"is_reserved":false,"is_disabled":false,"rental_uris":{"android":"levelo://app?vid=0b8d2dd3-2ad4-4d56-807f-dd43464a6cec","ios":"levelo://app?vid=0b8d2dd3-2ad4-4d56-807f-dd43464a6cec"},"vehicle_type_id":"4","last_reported":1732975676,"current_range_meters":28800,"station_id":"ce4bhmp2rcd13ifvqgog","pricing_plan_id":"cebpf4jnsgd1na2vs0mg"},{"bike_id":"fce7b415-6c1f-411f-99ba-29155b1d7da6","system_id":"levelo_inurba_marseille","lat":43.30551,"lon":5.36548,"is_reserved":false,"is_disabled":false,"rental_uris":{"android":"levelo://app?vid=fce7b415-6c1f-411f-99ba-29155b1d7da6","ios":"levelo://app?vid=fce7b415-6c1f-411f-99ba-29155b1d7da6"},"vehicle_type_id":"4","last_reported":1732975676,"current_range_meters":34800,"station_id":"ce4bgs12rcd13ifvqcag","pricing_plan_id":"cebpf4jnsgd1na2vs0mg"},{"bike_id":"68457cd8-6f2b-4006-98da-1bd6dee1144e","system_id":"levelo_inurba_marseille","lat":43.26559,"lon":5.39012,"is_reserved":false,"is_disabled":false,"rental_uris":{"android":"levelo://app?vid=68457cd8-6f2b-4006-98da-1bd6dee1144e","ios":"levelo://app?vid=68457cd8-6f2b-4006-98da-1bd6dee1144e"},"vehicle_type_id":"4","last_reported":1732975676,"current_range_meters":25600,"station_id":"ce4bhe12rcd13ifvqf30","pricing_plan_id":"cebpf4jnsgd1na2vs0mg"},{"bike_id":"e2afb0c8-6f8e-4653-b2ff-08c7e15c038f","system_id":"levelo_inurba_marseille","lat":43.29675,"lon":5.3782,"is_reserved":false,"is_disabled":false,"rental_uris":{"android":"levelo://app?vid=e2afb0c8-6f8e-4653-b2ff-08c7e15c038f","ios":"levelo://app?vid=e2afb0c8-6f8e-4653-b2ff-08c7e15c038f"},"vehicle_type_id":"4","last_reported":1732975676,"current_range_meters":24000,"station_id":"ce4bgvp2rcd13ifvqcu0","pricing_plan_id":"cebpf4jnsgd1na2vs0mg"},{"bike_id":"2cf1db6c-ef1f-43f2-a53c-274b18c4e94a","system_id":"levelo_inurba_marseille","lat":43.30526,"lon":5.36552,"is_reserved":false,"is_disabled":false,"rental_uris":{"android":"levelo://app?vid=2cf1db6c-ef1f-43f2-a53c-274b18c4e94a","ios":"levelo://app?vid=2cf1db6c-ef1f-43f2-a53c-274b18c4e94a"},"vehicle_type_id":"4","last_reported":1732975676,"current_range_meters":38000,"station_id":"ce4bgs12rcd13ifvqcag","pricing_plan_id":"cebpf4jnsgd1na2vs0mg"},{"bike_id":"4a2be555-d056-454c-bed3-fe781ba86f8e","system_id":"levelo_inurba_marseille","lat":43.25886,"lon":5.39954,"is_reserved":false,"is_disabled":true,"rental_uris":{"android":"levelo://app?vid=4a2be555-d056-454c-bed3-fe781ba86f8e","ios":"levelo://app?vid=4a2be555-d056-454c-bed3-fe781ba86f8e"},"vehicle_type_id":"4","last_reported":1732975676,"current_range_meters":0,"station_id":"","pricing_plan_id":"cebpf4jnsgd1na2vs0mg"},{"bike_id":"0762035b-11a6-43b1-906c-953817361917","system_id":"levelo_inurba_marseille","lat":43.32475,"lon":5.36564,"is_reserved":false,"is_disabled":false,"rental_uris":{"android":"levelo://app?vid=0762035b-11a6-43b1-906c-953817361917","ios":"levelo://app?vid=0762035b-11a6-43b1-906c-953817361917"},"vehicle_type_id":"4","last_reported":1732975676,"current_range_meters":38800,"station_id":"ce4bhs12rcd13ifvqhvg","pricing_plan_id":"cebpf4jnsgd1na2vs0mg"},{"bike_id":"1e8f6e93-7fa2-4ba1-a3ff-18be559bf58c","system_id":"levelo_inurba_marseille","lat":43.29,"lon":5.37333,"is_reserved":false,"is_disabled":true,"rental_uris":{"android":"levelo://app?vid=1e8f6e93-7fa2-4ba1-a3ff-18be559bf58c","ios":"levelo://app?vid=1e8f6e93-7fa2-4ba1-a3ff-18be559bf58c"},"vehicle_type_id":"4","last_reported":1732975676,"current_range_meters":36800,"station_id":"","pricing_plan_id":"cebpf4jnsgd1na2vs0mg"},{"bike_id":"8942a591-de10-4ccf-b053-77881b8b9160","system_id":"levelo_inurba_marseille","lat":43.25002,"lon":5.3893,"is_reserved":false,"is_disabled":true,"rental_uris":{"android":"levelo://app?vid=8942a591-de10-4ccf-b053-77881b8b9160","ios":"levelo://app?vid=8942a591-de10-4ccf-b053-77881b8b9160"},"vehicle_type_id":"4","last_reported":1732975676,"current_range_meters":800,"station_id":"ce4bhgp2rcd13ifvqfd0","pricing_plan_id":"cebpf4jnsgd1na2vs0mg"},{"bike_id":"df4d15f9-6943-4f80-a988-88218f64cbbf","system_id":"levelo_inurba_marseille","lat":43.23177,"lon":5.39989,"is_reserved":false,"is_disabled":false,"rental_uris":{"android":"levelo://app?vid=df4d15f9-6943-4f80-a988-88218f64cbbf","ios":"levelo://app?vid=df4d15f9-6943-4f80-a988-88218f64cbbf"},"vehicle_type_id":"4","last_reported":1732975676,"current_range_meters":23200,"station_id":"ce4bhn12rcd13ifvqgqg","pricing_plan_id":"cebpf4jnsgd1na2vs0mg"},{"bike_id":"80ee5806-271f-4b24-a602-2dc27d804313","system_id":"levelo_inurba_marseille","lat":43.32107,"lon":5.36783,"is_reserved":false,"is_disabled":false,"rental_uris":{"android":"levelo://app?vid=80ee5806-271f-4b24-a602-2dc27d804313","ios":"levelo://app?vid=80ee5806-271f-4b24-a602-2dc27d804313"},"vehicle_type_id":"4","last_reported":1732975676,"current_range_meters":9200,"station_id":"ce4bhrh2rcd13ifvqhug","pricing_plan_id":"cebpf4jnsgd1na2vs0mg"},{"bike_id":"a54cf03c-4c63-4ed8-a0f2-94009a2d2ff6","system_id":"levelo_inurba_marseille","lat":43.27053,"lon":5.40262,"is_reserved":false,"is_disabled":false,"rental_uris":{"android":"levelo://app?vid=a54cf03c-4c63-4ed8-a0f2-94009a2d2ff6","ios":"levelo://app?vid=a54cf03c-4c63-4ed8-a0f2-94009a2d2ff6"},"vehicle_type_id":"4","last_reported":1732975676,"current_range_meters":35200,"station_id":"ce4bhk92rcd13ifvqgc0","pricing_plan_id":"cebpf4jnsgd1na2vs0mg"},{"bike_id":"000b518d-442b-4752-8b9a-e2fc3654d286","system_id":"levelo_inurba_marseille","lat":43.29436,"lon":5.39761,"is_reserved":false,"is_disabled":true,"rental_uris":{"android":"levelo://app?vid=000b518d-442b-4752-8b9a-e2fc3654d286","ios":"levelo://app?vid=000b518d-442b-4752-8b9a-e2fc3654d286"},"vehicle_type_id":"4","last_reported":1732975676,"current_range_meters":22800,"station_id":"ce4bh3h2rcd13ifvqdo0","pricing_plan_id":"cebpf4jnsgd1na2vs0mg"},{"bike_id":"8410cca3-953f-4753-980b-b4d3e12817fc","system_id":"levelo_inurba_marseille","lat":43.282654,"lon":5.350635,"is_reserved":false,"is_disabled":false,"rental_uris":{"android":"levelo://app?vid=8410cca3-953f-4753-980b-b4d3e12817fc","ios":"levelo://app?vid=8410cca3-953f-4753-980b-b4d3e12817fc"},"vehicle_type_id":"4","last_reported":1732975676,"current_range_meters":28800,"station_id":"ce4bhbp2rcd13ifvqerg","pricing_plan_id":"cebpf4jnsgd1na2vs0mg"},{"bike_id":"a9ca3b2a-8ad8-42e0-a6f4-4d5ff8e743b6","system_id":"levelo_inurba_marseille","lat":43.2499,"lon":5.38944,"is_reserved":false,"is_disabled":false,"rental_uris":{"android":"levelo://app?vid=a9ca3b2a-8ad8-42e0-a6f4-4d5ff8e743b6","ios":"levelo://app?vid=a9ca3b2a-8ad8-42e0-a6f4-4d5ff8e743b6"},"vehicle_type_id":"4","last_reported":1732975676,"current_range_meters":18800,"station_id":"ce4bhgp2rcd13ifvqfd0","pricing_plan_id":"cebpf4jnsgd1na2vs0mg"},{"bike_id":"489fc078-53ba-46cd-9b33-a7c9c289306b","system_id":"levelo_inurba_marseille","lat":43.26942,"lon":5.40246,"is_reserved":false,"is_disabled":true,"rental_uris":{"android":"levelo://app?vid=489fc078-53ba-46cd-9b33-a7c9c289306b","ios":"levelo://app?vid=489fc078-53ba-46cd-9b33-a7c9c289306b"},"vehicle_type_id":"4","last_reported":1732975676,"current_range_meters":0,"station_id":"cjm6bp8fraef2m0cb0m0","pricing_plan_id":"cebpf4jnsgd1na2vs0mg"},{"bike_id":"981f5323-76ee-4aff-abdb-308b2ece5ca8","system_id":"levelo_inurba_marseille","lat":43.33729,"lon":5.39187,"is_reserved":false,"is_disabled":false,"rental_uris":{"android":"levelo://app?vid=981f5323-76ee-4aff-abdb-308b2ece5ca8","ios":"levelo://app?vid=981f5323-76ee-4aff-abdb-308b2ece5ca8"},"vehicle_type_id":"4","last_reported":1732975676,"current_range_meters":38800,"station_id":"ce4bhr92rcd13ifvqhsg","pricing_plan_id":"cebpf4jnsgd1na2vs0mg"},{"bike_id":"720e72b8-1461-4298-8f87-d24f2f95a2bf","system_id":"levelo_inurba_marseille","lat":43.29582,"lon":5.37512,"is_reserved":false,"is_disabled":false,"rental_uris":{"android":"levelo://app?vid=720e72b8-1461-4298-8f87-d24f2f95a2bf","ios":"levelo://app?vid=720e72b8-1461-4298-8f87-d24f2f95a2bf"},"vehicle_type_id":"4","last_reported":1732975676,"current_range_meters":20400,"station_id":"ce4bgh92rcd13ifvqb50","pricing_plan_id":"cebpf4jnsgd1na2vs0mg"},{"bike_id":"f713e698-5684-46a7-920e-6e7b5b3020b8","system_id":"levelo_inurba_marseille","lat":43.29423,"lon":5.38621,"is_reserved":false,"is_disabled":false,"rental_uris":{"android":"levelo://app?vid=f713e698-5684-46a7-920e-6e7b5b3020b8","ios":"levelo://app?vid=f713e698-5684-46a7-920e-6e7b5b3020b8"},"vehicle_type_id":"4","last_reported":1732975676,"current_range_meters":22000,"station_id":"ce4bh2h2rcd13ifvqdh0","pricing_plan_id":"cebpf4jnsgd1na2vs0mg"},{"bike_id":"5c0aac63-9976-4e65-9fa5-b97e2e5b4885","system_id":"levelo_inurba_marseille","lat":43.31222,"lon":5.3685,"is_reserved":false,"is_disabled":false,"rental_uris":{"android":"levelo://app?vid=5c0aac63-9976-4e65-9fa5-b97e2e5b4885","ios":"levelo://app?vid=5c0aac63-9976-4e65-9fa5-b97e2e5b4885"},"vehicle_type_id":"4","last_reported":1732975676,"current_range_meters":38800,"station_id":"ce4bgl92rcd13ifvqbq0","pricing_plan_id":"cebpf4jnsgd1na2vs0mg"},{"bike_id":"e2b51d6b-cb0b-4fbd-ba8e-ca7faa50fcce","system_id":"levelo_inurba_marseille","lat":43.23185,"lon":5.39985,"is_reserved":false,"is_disabled":false,"rental_uris":{"android":"levelo://app?vid=e2b51d6b-cb0b-4fbd-ba8e-ca7faa50fcce","ios":"levelo://app?vid=e2b51d6b-cb0b-4fbd-ba8e-ca7faa50fcce"},"vehicle_type_id":"4","last_reported":1732975676,"current_range_meters":38800,"station_id":"ce4bhn12rcd13ifvqgqg","pricing_plan_id":"cebpf4jnsgd1na2vs0mg"},{"bike_id":"ab1db49f-701c-4711-8b20-531372b5e60f","system_id":"levelo_inurba_marseille","lat":43.32623,"lon":5.37554,"is_reserved":false,"is_disabled":false,"rental_uris":{"android":"levelo://app?vid=ab1db49f-701c-4711-8b20-531372b5e60f","ios":"levelo://app?vid=ab1db49f-701c-4711-8b20-531372b5e60f"},"vehicle_type_id":"4","last_reported":1732975676,"current_range_meters":33200,"station_id":"","pricing_plan_id":"cebpf4jnsgd1na2vs0mg"},{"bike_id":"29a80c71-9648-4a26-b6c9-5f69092eaa01","system_id":"levelo_inurba_marseille","lat":43.2707,"lon":5.42279,"is_reserved":false,"is_disabled":false,"rental_uris":{"android":"levelo://app?vid=29a80c71-9648-4a26-b6c9-5f69092eaa01","ios":"levelo://app?vid=29a80c71-9648-4a26-b6c9-5f69092eaa01"},"vehicle_type_id":"4","last_reported":1732975676,"current_range_meters":38800,"station_id":"ce4bhk92rcd13ifvqgb0","pricing_plan_id":"cebpf4jnsgd1na2vs0mg"},{"bike_id":"253d5c42-e7c3-4c19-b3eb-1aea1dc77c52","system_id":"levelo_inurba_marseille","lat":43.29572,"lon":5.37526,"is_reserved":false,"is_disabled":false,"rental_uris":{"android":"levelo://app?vid=253d5c42-e7c3-4c19-b3eb-1aea1dc77c52","ios":"levelo://app?vid=253d5c42-e7c3-4c19-b3eb-1aea1dc77c52"},"vehicle_type_id":"4","last_reported":1732975676,"current_range_meters":19200,"station_id":"ce4bgh92rcd13ifvqb50","pricing_plan_id":"cebpf4jnsgd1na2vs0mg"},{"bike_id":"1d254919-d365-45fb-b430-3f5fcef33dde","system_id":"levelo_inurba_marseille","lat":43.29792,"lon":5.37104,"is_reserved":false,"is_disabled":false,"rental_uris":{"android":"levelo://app?vid=1d254919-d365-45fb-b430-3f5fcef33dde","ios":"levelo://app?vid=1d254919-d365-45fb-b430-3f5fcef33dde"},"vehicle_type_id":"4","last_reported":1732975676,"current_range_meters":9600,"station_id":"ce4bgop2rcd13ifvqc1g","pricing_plan_id":"cebpf4jnsgd1na2vs0mg"},{"bike_id":"1f1695f6-28c7-4290-9cae-9ab214f50f69","system_id":"levelo_inurba_marseille","lat":43.2803,"lon":5.36952,"is_reserved":false,"is_disabled":false,"rental_uris":{"android":"levelo://app?vid=1f1695f6-28c7-4290-9cae-9ab214f50f69","ios":"levelo://app?vid=1f1695f6-28c7-4290-9cae-9ab214f50f69"},"vehicle_type_id":"4","last_reported":1732975676,"current_range_meters":38800,"station_id":"ce4bha12rcd13ifvqef0","pricing_plan_id":"cebpf4jnsgd1na2vs0mg"},{"bike_id":"0174841e-8011-4a7b-bd18-480101bee765","system_id":"levelo_inurba_marseille","lat":43.23952,"lon":5.36639,"is_reserved":false,"is_disabled":true,"rental_uris":{"android":"levelo://app?vid=0174841e-8011-4a7b-bd18-480101bee765","ios":"levelo://app?vid=0174841e-8011-4a7b-bd18-480101bee765"},"vehicle_type_id":"4","last_reported":1732975676,"current_range_meters":0,"station_id":"ce4bhi12rcd13ifvqfp0","pricing_plan_id":"cebpf4jnsgd1na2vs0mg"},{"bike_id":"22a9f54b-7703-4896-932f-a5372ffc42ab","system_id":"levelo_inurba_marseille","lat":43.24166,"lon":5.36399,"is_reserved":false,"is_disabled":false,"rental_uris":{"android":"levelo://app?vid=22a9f54b-7703-4896-932f-a5372ffc42ab","ios":"levelo://app?vid=22a9f54b-7703-4896-932f-a5372ffc42ab"},"vehicle_type_id":"4","last_reported":1732975676,"current_range_meters":16000,"station_id":"cpo36qri1sfpv3e86is0","pricing_plan_id":"cebpf4jnsgd1na2vs0mg"},{"bike_id":"fd405db4-6f5b-4763-b335-7a51479a2ea9","system_id":"levelo_inurba_marseille","lat":43.25571,"lon":5.38259,"is_reserved":false,"is_disabled":false,"rental_uris":{"android":"levelo://app?vid=fd405db4-6f5b-4763-b335-7a51479a2ea9","ios":"levelo://app?vid=fd405db4-6f5b-4763-b335-7a51479a2ea9"},"vehicle_type_id":"4","last_reported":1732975676,"current_range_meters":39200,"station_id":"ce4bhih2rcd13ifvqfs0","pricing_plan_id":"cebpf4jnsgd1na2vs0mg"},{"bike_id":"0cff04d7-ac42-44fe-8172-e6b3f4744a1b","system_id":"levelo_inurba_marseille","lat":43.3172,"lon":5.42403,"is_reserved":false,"is_disabled":false,"rental_uris":{"android":"levelo://app?vid=0cff04d7-ac42-44fe-8172-e6b3f4744a1b","ios":"levelo://app?vid=0cff04d7-ac42-44fe-8172-e6b3f4744a1b"},"vehicle_type_id":"4","last_reported":1732975676,"current_range_meters":10800,"station_id":"ce4bhp92rcd13ifvqhbg","pricing_plan_id":"cebpf4jnsgd1na2vs0mg"},{"bike_id":"00b5e211-7497-40e0-9a48-4abd0dd8f0c1","system_id":"levelo_inurba_marseille","lat":43.2396,"lon":5.36644,"is_reserved":false,"is_disabled":false,"rental_uris":{"android":"levelo://app?vid=00b5e211-7497-40e0-9a48-4abd0dd8f0c1","ios":"levelo://app?vid=00b5e211-7497-40e0-9a48-4abd0dd8f0c1"},"vehicle_type_id":"4","last_reported":1732975676,"current_range_meters":39200,"station_id":"ce4bhi12rcd13ifvqfp0","pricing_plan_id":"cebpf4jnsgd1na2vs0mg"},{"bike_id":"a233b25b-869e-422b-bf5e-63d3d8ff686f","system_id":"levelo_inurba_marseille","lat":43.30923,"lon":5.40151,"is_reserved":false,"is_disabled":true,"rental_uris":{"android":"levelo://app?vid=a233b25b-869e-422b-bf5e-63d3d8ff686f","ios":"levelo://app?vid=a233b25b-869e-422b-bf5e-63d3d8ff686f"},"vehicle_type_id":"4","last_reported":1732975676,"current_range_meters":24400,"station_id":"ce4bgvp2rcd13ifvqct0","pricing_plan_id":"cebpf4jnsgd1na2vs0mg"},{"bike_id":"870e05f6-0df3-4119-bbdd-fb9e9ed33323","system_id":"levelo_inurba_marseille","lat":43.30074,"lon":5.39082,"is_reserved":false,"is_disabled":false,"rental_uris":{"android":"levelo://app?vid=870e05f6-0df3-4119-bbdd-fb9e9ed33323","ios":"levelo://app?vid=870e05f6-0df3-4119-bbdd-fb9e9ed33323"},"vehicle_type_id":"4","last_reported":1732975676,"current_range_meters":35600,"station_id":"ce4bh192rcd13ifvqdb0","pricing_plan_id":"cebpf4jnsgd1na2vs0mg"},{"bike_id":"12ba7dd0-6a56-48af-8971-129f9405fb29","system_id":"levelo_inurba_marseille","lat":43.32484,"lon":5.36566,"is_reserved":false,"is_disabled":false,"rental_uris":{"android":"levelo://app?vid=12ba7dd0-6a56-48af-8971-129f9405fb29","ios":"levelo://app?vid=12ba7dd0-6a56-48af-8971-129f9405fb29"},"vehicle_type_id":"4","last_reported":1732975676,"current_range_meters":16400,"station_id":"ce4bhs12rcd13ifvqhvg","pricing_plan_id":"cebpf4jnsgd1na2vs0mg"},{"bike_id":"8106e2f7-49ce-4140-a15f-c5300afe9786","system_id":"levelo_inurba_marseille","lat":43.2954,"lon":5.39019,"is_reserved":false,"is_disabled":false,"rental_uris":{"android":"levelo://app?vid=8106e2f7-49ce-4140-a15f-c5300afe9786","ios":"levelo://app?vid=8106e2f7-49ce-4140-a15f-c5300afe9786"},"vehicle_type_id":"4","last_reported":1732975676,"current_range_meters":24400,"station_id":"ce4bh3p2rcd13ifvqdp0","pricing_plan_id":"cebpf4jnsgd1na2vs0mg"},{"bike_id":"6e914fb7-e6d2-4357-b161-70e1de222ef2","system_id":"levelo_inurba_marseille","lat":43.25728,"lon":5.41109,"is_reserved":false,"is_disabled":false,"rental_uris":{"android":"levelo://app?vid=6e914fb7-e6d2-4357-b161-70e1de222ef2","ios":"levelo://app?vid=6e914fb7-e6d2-4357-b161-70e1de222ef2"},"vehicle_type_id":"4","last_reported":1732975676,"current_range_meters":38800,"station_id":"ce4bhkp2rcd13ifvqgd0","pricing_plan_id":"cebpf4jnsgd1na2vs0mg"},{"bike_id":"6e35291f-c68c-460e-b6ce-f5cf6e232cc9","system_id":"levelo_inurba_marseille","lat":43.24545,"lon":5.39524,"is_reserved":false,"is_disabled":false,"rental_uris":{"android":"levelo://app?vid=6e35291f-c68c-460e-b6ce-f5cf6e232cc9","ios":"levelo://app?vid=6e35291f-c68c-460e-b6ce-f5cf6e232cc9"},"vehicle_type_id":"4","last_reported":1732975676,"current_range_meters":36000,"station_id":"ce4bhlp2rcd13ifvqgjg","pricing_plan_id":"cebpf4jnsgd1na2vs0mg"},{"bike_id":"c53456cf-9ecd-48ab-bd70-22a06cf80d9a","system_id":"levelo_inurba_marseille","lat":43.25496,"lon":5.37649,"is_reserved":false,"is_disabled":false,"rental_uris":{"android":"levelo://app?vid=c53456cf-9ecd-48ab-bd70-22a06cf80d9a","ios":"levelo://app?vid=c53456cf-9ecd-48ab-bd70-22a06cf80d9a"},"vehicle_type_id":"4","last_reported":1732975676,"current_range_meters":39200,"station_id":"ce4bhh12rcd13ifvqff0","pricing_plan_id":"cebpf4jnsgd1na2vs0mg"},{"bike_id":"5039f4f8-fff8-4426-9012-065bce9b15e4","system_id":"levelo_inurba_marseille","lat":43.28371,"lon":5.38646,"is_reserved":false,"is_disabled":false,"rental_uris":{"android":"levelo://app?vid=5039f4f8-fff8-4426-9012-065bce9b15e4","ios":"levelo://app?vid=5039f4f8-fff8-4426-9012-065bce9b15e4"},"vehicle_type_id":"4","last_reported":1732975676,"current_range_meters":38400,"station_id":"ce4bh492rcd13ifvqdvg","pricing_plan_id":"cebpf4jnsgd1na2vs0mg"},{"bike_id":"c2d172e1-98e6-4a29-80b6-476b9c5f1669","system_id":"levelo_inurba_marseille","lat":43.27613,"lon":5.3614,"is_reserved":false,"is_disabled":false,"rental_uris":{"android":"levelo://app?vid=c2d172e1-98e6-4a29-80b6-476b9c5f1669","ios":"levelo://app?vid=c2d172e1-98e6-4a29-80b6-476b9c5f1669"},"vehicle_type_id":"4","last_reported":1732975676,"current_range_meters":38400,"station_id":"ce4bgj92rcd13ifvqbe0","pricing_plan_id":"cebpf4jnsgd1na2vs0mg"},{"bike_id":"70186716-1e2a-4bdb-a6a5-2c6f1496489f","system_id":"levelo_inurba_marseille","lat":43.32042,"lon":5.41546,"is_reserved":false,"is_disabled":false,"rental_uris":{"android":"levelo://app?vid=70186716-1e2a-4bdb-a6a5-2c6f1496489f","ios":"levelo://app?vid=70186716-1e2a-4bdb-a6a5-2c6f1496489f"},"vehicle_type_id":"4","last_reported":1732975676,"current_range_meters":16800,"station_id":"ce4bhq92rcd13ifvqhkg","pricing_plan_id":"cebpf4jnsgd1na2vs0mg"},{"bike_id":"eec69a7d-2180-49cd-8de7-0502da6ab253","system_id":"levelo_inurba_marseille","lat":43.32481,"lon":5.36572,"is_reserved":false,"is_disabled":false,"rental_uris":{"android":"levelo://app?vid=eec69a7d-2180-49cd-8de7-0502da6ab253","ios":"levelo://app?vid=eec69a7d-2180-49cd-8de7-0502da6ab253"},"vehicle_type_id":"4","last_reported":1732975676,"current_range_meters":38000,"station_id":"ce4bhs12rcd13ifvqhvg","pricing_plan_id":"cebpf4jnsgd1na2vs0mg"},{"bike_id":"42fda7a3-f217-4edf-bec5-ee93c03c12f6","system_id":"levelo_inurba_marseille","lat":43.30545,"lon":5.36549,"is_reserved":false,"is_disabled":false,"rental_uris":{"android":"levelo://app?vid=42fda7a3-f217-4edf-bec5-ee93c03c12f6","ios":"levelo://app?vid=42fda7a3-f217-4edf-bec5-ee93c03c12f6"},"vehicle_type_id":"4","last_reported":1732975676,"current_range_meters":14800,"station_id":"ce4bgs12rcd13ifvqcag","pricing_plan_id":"cebpf4jnsgd1na2vs0mg"},{"bike_id":"43905799-c38d-4f05-9334-c0bcf2038165","system_id":"levelo_inurba_marseille","lat":43.29274,"lon":5.36849,"is_reserved":false,"is_disabled":false,"rental_uris":{"android":"levelo://app?vid=43905799-c38d-4f05-9334-c0bcf2038165","ios":"levelo://app?vid=43905799-c38d-4f05-9334-c0bcf2038165"},"vehicle_type_id":"4","last_reported":1732975676,"current_range_meters":35200,"station_id":"ce4bhbp2rcd13ifvqesg","pricing_plan_id":"cebpf4jnsgd1na2vs0mg"},{"bike_id":"f0f4501c-af35-41f4-bf7c-59199a68798d","system_id":"levelo_inurba_marseille","lat":43.29968,"lon":5.38493,"is_reserved":false,"is_disabled":false,"rental_uris":{"android":"levelo://app?vid=f0f4501c-af35-41f4-bf7c-59199a68798d","ios":"levelo://app?vid=f0f4501c-af35-41f4-bf7c-59199a68798d"},"vehicle_type_id":"4","last_reported":1732975676,"current_range_meters":34000,"station_id":"ce4bgj92rcd13ifvqbd0","pricing_plan_id":"cebpf4jnsgd1na2vs0mg"},{"bike_id":"527e9215-5e4e-41d1-879f-857f198e8537","system_id":"levelo_inurba_marseille","lat":43.28424,"lon":5.3502,"is_reserved":false,"is_disabled":false,"rental_uris":{"android":"levelo://app?vid=527e9215-5e4e-41d1-879f-857f198e8537","ios":"levelo://app?vid=527e9215-5e4e-41d1-879f-857f198e8537"},"vehicle_type_id":"4","last_reported":1732975676,"current_range_meters":7200,"station_id":"ce4bhbh2rcd13ifvqepg","pricing_plan_id":"cebpf4jnsgd1na2vs0mg"},{"bike_id":"cf9f3a3f-ec66-4a92-abcd-f016e9c0310b","system_id":"levelo_inurba_marseille","lat":43.33022,"lon":5.39039,"is_reserved":false,"is_disabled":false,"rental_uris":{"android":"levelo://app?vid=cf9f3a3f-ec66-4a92-abcd-f016e9c0310b","ios":"levelo://app?vid=cf9f3a3f-ec66-4a92-abcd-f016e9c0310b"},"vehicle_type_id":"4","last_reported":1732975676,"current_range_meters":30800,"station_id":"ce4bhr92rcd13ifvqhrg","pricing_plan_id":"cebpf4jnsgd1na2vs0mg"},{"bike_id":"e86133f9-5578-434a-882b-86a3d400611f","system_id":"levelo_inurba_marseille","lat":43.29238,"lon":5.38446,"is_reserved":false,"is_disabled":false,"rental_uris":{"android":"levelo://app?vid=e86133f9-5578-434a-882b-86a3d400611f","ios":"levelo://app?vid=e86133f9-5578-434a-882b-86a3d400611f"},"vehicle_type_id":"4","last_reported":1732975676,"current_range_meters":39200,"station_id":"ce4bh692rcd13ifvqea0","pricing_plan_id":"cebpf4jnsgd1na2vs0mg"},{"bike_id":"3d5e7cb1-c444-4a70-8c14-a76042fbdaf3","system_id":"levelo_inurba_marseille","lat":43.29571,"lon":5.37525,"is_reserved":false,"is_disabled":false,"rental_uris":{"android":"levelo://app?vid=3d5e7cb1-c444-4a70-8c14-a76042fbdaf3","ios":"levelo://app?vid=3d5e7cb1-c444-4a70-8c14-a76042fbdaf3"},"vehicle_type_id":"4","last_reported":1732975676,"current_range_meters":34800,"station_id":"ce4bgh92rcd13ifvqb50","pricing_plan_id":"cebpf4jnsgd1na2vs0mg"},{"bike_id":"24d1e4f0-61ae-49cc-98e8-07bf8d63cd31","system_id":"levelo_inurba_marseille","lat":43.29978,"lon":5.38482,"is_reserved":false,"is_disabled":false,"rental_uris":{"android":"levelo://app?vid=24d1e4f0-61ae-49cc-98e8-07bf8d63cd31","ios":"levelo://app?vid=24d1e4f0-61ae-49cc-98e8-07bf8d63cd31"},"vehicle_type_id":"4","last_reported":1732975676,"current_range_meters":28800,"station_id":"ce4bgj92rcd13ifvqbd0","pricing_plan_id":"cebpf4jnsgd1na2vs0mg"},{"bike_id":"ae7276f4-0867-48f1-b28f-b95e39e0658e","system_id":"levelo_inurba_marseille","lat":43.30277,"lon":5.3771,"is_reserved":false,"is_disabled":false,"rental_uris":{"android":"levelo://app?vid=ae7276f4-0867-48f1-b28f-b95e39e0658e","ios":"levelo://app?vid=ae7276f4-0867-48f1-b28f-b95e39e0658e"},"vehicle_type_id":"4","last_reported":1732975676,"current_range_meters":36400,"station_id":"ce4bguh2rcd13ifvqcj0","pricing_plan_id":"cebpf4jnsgd1na2vs0mg"},{"bike_id":"fe1c6c60-0f4f-4b5c-a7ea-9f2ff8347245","system_id":"levelo_inurba_marseille","lat":43.27608,"lon":5.36142,"is_reserved":false,"is_disabled":false,"rental_uris":{"android":"levelo://app?vid=fe1c6c60-0f4f-4b5c-a7ea-9f2ff8347245","ios":"levelo://app?vid=fe1c6c60-0f4f-4b5c-a7ea-9f2ff8347245"},"vehicle_type_id":"4","last_reported":1732975676,"current_range_meters":38800,"station_id":"ce4bgj92rcd13ifvqbe0","pricing_plan_id":"cebpf4jnsgd1na2vs0mg"},{"bike_id":"4abebe2b-dec7-442c-a6a0-da33deb742de","system_id":"levelo_inurba_marseille","lat":43.32078,"lon":5.36789,"is_reserved":false,"is_disabled":false,"rental_uris":{"android":"levelo://app?vid=4abebe2b-dec7-442c-a6a0-da33deb742de","ios":"levelo://app?vid=4abebe2b-dec7-442c-a6a0-da33deb742de"},"vehicle_type_id":"4","last_reported":1732975676,"current_range_meters":36800,"station_id":"ce4bhrh2rcd13ifvqhug","pricing_plan_id":"cebpf4jnsgd1na2vs0mg"},{"bike_id":"e8761c76-5abe-46ec-a02e-5c1eaaf3ecfa","system_id":"levelo_inurba_marseille","lat":43.24169,"lon":5.36392,"is_reserved":false,"is_disabled":false,"rental_uris":{"android":"levelo://app?vid=e8761c76-5abe-46ec-a02e-5c1eaaf3ecfa","ios":"levelo://app?vid=e8761c76-5abe-46ec-a02e-5c1eaaf3ecfa"},"vehicle_type_id":"4","last_reported":1732975676,"current_range_meters":30000,"station_id":"cpo36qri1sfpv3e86is0","pricing_plan_id":"cebpf4jnsgd1na2vs0mg"},{"bike_id":"94c7ef9a-ec0a-4aea-920b-162ae2bfcd60","system_id":"levelo_inurba_marseille","lat":43.30275,"lon":5.37717,"is_reserved":false,"is_disabled":false,"rental_uris":{"android":"levelo://app?vid=94c7ef9a-ec0a-4aea-920b-162ae2bfcd60","ios":"levelo://app?vid=94c7ef9a-ec0a-4aea-920b-162ae2bfcd60"},"vehicle_type_id":"4","last_reported":1732975676,"current_range_meters":38800,"station_id":"ce4bguh2rcd13ifvqcj0","pricing_plan_id":"cebpf4jnsgd1na2vs0mg"},{"bike_id":"048a5b9e-befd-4e9e-a97c-f931a23386af","system_id":"levelo_inurba_marseille","lat":43.27607,"lon":5.36119,"is_reserved":false,"is_disabled":true,"rental_uris":{"android":"levelo://app?vid=048a5b9e-befd-4e9e-a97c-f931a23386af","ios":"levelo://app?vid=048a5b9e-befd-4e9e-a97c-f931a23386af"},"vehicle_type_id":"4","last_reported":1732975676,"current_range_meters":1200,"station_id":"ce4bgj92rcd13ifvqbe0","pricing_plan_id":"cebpf4jnsgd1na2vs0mg"},{"bike_id":"2ec9c555-9651-4856-bea1-88502813cb6a","system_id":"levelo_inurba_marseille","lat":43.2694,"lon":5.40263,"is_reserved":false,"is_disabled":false,"rental_uris":{"android":"levelo://app?vid=2ec9c555-9651-4856-bea1-88502813cb6a","ios":"levelo://app?vid=2ec9c555-9651-4856-bea1-88502813cb6a"},"vehicle_type_id":"4","last_reported":1732975676,"current_range_meters":28000,"station_id":"cjm6bp8fraef2m0cb0m0","pricing_plan_id":"cebpf4jnsgd1na2vs0mg"},{"bike_id":"3db6fc97-fd79-416f-840b-97cd32494b8d","system_id":"levelo_inurba_marseille","lat":43.29918,"lon":5.37481,"is_reserved":false,"is_disabled":false,"rental_uris":{"android":"levelo://app?vid=3db6fc97-fd79-416f-840b-97cd32494b8d","ios":"levelo://app?vid=3db6fc97-fd79-416f-840b-97cd32494b8d"},"vehicle_type_id":"4","last_reported":1732975676,"current_range_meters":10800,"station_id":"ce4bgjh2rcd13ifvqbg0","pricing_plan_id":"cebpf4jnsgd1na2vs0mg"},{"bike_id":"4520a954-afbb-4389-944b-43f2263fde0d","system_id":"levelo_inurba_marseille","lat":43.27311,"lon":5.36296,"is_reserved":false,"is_disabled":false,"rental_uris":{"android":"levelo://app?vid=4520a954-afbb-4389-944b-43f2263fde0d","ios":"levelo://app?vid=4520a954-afbb-4389-944b-43f2263fde0d"},"vehicle_type_id":"4","last_reported":1732975676,"current_range_meters":13600,"station_id":"ce4bha92rcd13ifvqeh0","pricing_plan_id":"cebpf4jnsgd1na2vs0mg"},{"bike_id":"c63d1d32-8326-43e4-9161-07aa66247f84","system_id":"levelo_inurba_marseille","lat":43.23055,"lon":5.35501,"is_reserved":false,"is_disabled":true,"rental_uris":{"android":"levelo://app?vid=c63d1d32-8326-43e4-9161-07aa66247f84","ios":"levelo://app?vid=c63d1d32-8326-43e4-9161-07aa66247f84"},"vehicle_type_id":"4","last_reported":1732975676,"current_range_meters":0,"station_id":"cpo3342slgdg3j2ifvpg","pricing_plan_id":"cebpf4jnsgd1na2vs0mg"},{"bike_id":"e2e936dc-8655-447b-9d2b-10b1c1f5df31","system_id":"levelo_inurba_marseille","lat":43.284058,"lon":5.349933,"is_reserved":false,"is_disabled":false,"rental_uris":{"android":"levelo://app?vid=e2e936dc-8655-447b-9d2b-10b1c1f5df31","ios":"levelo://app?vid=e2e936dc-8655-447b-9d2b-10b1c1f5df31"},"vehicle_type_id":"4","last_reported":1732975676,"current_range_meters":14000,"station_id":"ce4bhbh2rcd13ifvqepg","pricing_plan_id":"cebpf4jnsgd1na2vs0mg"},{"bike_id":"0bab6015-08f5-4e71-a39c-ebe1ec0d6a21","system_id":"levelo_inurba_marseille","lat":43.24165,"lon":5.36401,"is_reserved":false,"is_disabled":false,"rental_uris":{"android":"levelo://app?vid=0bab6015-08f5-4e71-a39c-ebe1ec0d6a21","ios":"levelo://app?vid=0bab6015-08f5-4e71-a39c-ebe1ec0d6a21"},"vehicle_type_id":"4","last_reported":1732975676,"current_range_meters":22000,"station_id":"cpo36qri1sfpv3e86is0","pricing_plan_id":"cebpf4jnsgd1na2vs0mg"},{"bike_id":"6600e157-3b76-41f3-80a6-c9b2d762cdba","system_id":"levelo_inurba_marseille","lat":43.29682,"lon":5.37749,"is_reserved":false,"is_disabled":false,"rental_uris":{"android":"levelo://app?vid=6600e157-3b76-41f3-80a6-c9b2d762cdba","ios":"levelo://app?vid=6600e157-3b76-41f3-80a6-c9b2d762cdba"},"vehicle_type_id":"4","last_reported":1732975676,"current_range_meters":38400,"station_id":"","pricing_plan_id":"cebpf4jnsgd1na2vs0mg"},{"bike_id":"9dd1fc98-a89e-437a-b707-6eb8b3c899e8","system_id":"levelo_inurba_marseille","lat":43.29038,"lon":5.35927,"is_reserved":false,"is_disabled":true,"rental_uris":{"android":"levelo://app?vid=9dd1fc98-a89e-437a-b707-6eb8b3c899e8","ios":"levelo://app?vid=9dd1fc98-a89e-437a-b707-6eb8b3c899e8"},"vehicle_type_id":"4","last_reported":1732975676,"current_range_meters":0,"station_id":"ce4bha92rcd13ifvqeg0","pricing_plan_id":"cebpf4jnsgd1na2vs0mg"},{"bike_id":"aea6b7a8-fa3c-4842-89c6-693b08a99724","system_id":"levelo_inurba_marseille","lat":43.33752,"lon":5.37428,"is_reserved":false,"is_disabled":false,"rental_uris":{"android":"levelo://app?vid=aea6b7a8-fa3c-4842-89c6-693b08a99724","ios":"levelo://app?vid=aea6b7a8-fa3c-4842-89c6-693b08a99724"},"vehicle_type_id":"4","last_reported":1732975676,"current_range_meters":38800,"station_id":"","pricing_plan_id":"cebpf4jnsgd1na2vs0mg"},{"bike_id":"873fd052-9978-4f27-b782-8807a1f3aba0","system_id":"levelo_inurba_marseille","lat":43.32132,"lon":5.3747,"is_reserved":false,"is_disabled":false,"rental_uris":{"android":"levelo://app?vid=873fd052-9978-4f27-b782-8807a1f3aba0","ios":"levelo://app?vid=873fd052-9978-4f27-b782-8807a1f3aba0"},"vehicle_type_id":"4","last_reported":1732975676,"current_range_meters":30000,"station_id":"","pricing_plan_id":"cebpf4jnsgd1na2vs0mg"},{"bike_id":"2766e660-23fa-47fd-9f7d-f877c21ec72f","system_id":"levelo_inurba_marseille","lat":43.3054,"lon":5.36557,"is_reserved":false,"is_disabled":false,"rental_uris":{"android":"levelo://app?vid=2766e660-23fa-47fd-9f7d-f877c21ec72f","ios":"levelo://app?vid=2766e660-23fa-47fd-9f7d-f877c21ec72f"},"vehicle_type_id":"4","last_reported":1732975676,"current_range_meters":12800,"station_id":"ce4bgs12rcd13ifvqcag","pricing_plan_id":"cebpf4jnsgd1na2vs0mg"},{"bike_id":"a1da46ac-0823-493f-ac56-218330798636","system_id":"levelo_inurba_marseille","lat":43.24363,"lon":5.37086,"is_reserved":false,"is_disabled":false,"rental_uris":{"android":"levelo://app?vid=a1da46ac-0823-493f-ac56-218330798636","ios":"levelo://app?vid=a1da46ac-0823-493f-ac56-218330798636"},"vehicle_type_id":"4","last_reported":1732975676,"current_range_meters":38800,"station_id":"ce4bhhh2rcd13ifvqfk0","pricing_plan_id":"cebpf4jnsgd1na2vs0mg"},{"bike_id":"a5909545-3e09-4859-9fda-9ffe4e6e4883","system_id":"levelo_inurba_marseille","lat":43.23066,"lon":5.35492,"is_reserved":false,"is_disabled":false,"rental_uris":{"android":"levelo://app?vid=a5909545-3e09-4859-9fda-9ffe4e6e4883","ios":"levelo://app?vid=a5909545-3e09-4859-9fda-9ffe4e6e4883"},"vehicle_type_id":"4","last_reported":1732975676,"current_range_meters":11200,"station_id":"cpo3342slgdg3j2ifvpg","pricing_plan_id":"cebpf4jnsgd1na2vs0mg"},{"bike_id":"01dd0f6c-5d7c-4e63-a161-668f65657b81","system_id":"levelo_inurba_marseille","lat":43.22925,"lon":5.35386,"is_reserved":false,"is_disabled":false,"rental_uris":{"android":"levelo://app?vid=01dd0f6c-5d7c-4e63-a161-668f65657b81","ios":"levelo://app?vid=01dd0f6c-5d7c-4e63-a161-668f65657b81"},"vehicle_type_id":"4","last_reported":1732975676,"current_range_meters":38800,"station_id":"cpo3532slgdg3j2ikp40","pricing_plan_id":"cebpf4jnsgd1na2vs0mg"},{"bike_id":"d5973569-a961-429a-b17f-58dc0a54f83d","system_id":"levelo_inurba_marseille","lat":43.3054,"lon":5.36557,"is_reserved":false,"is_disabled":false,"rental_uris":{"android":"levelo://app?vid=d5973569-a961-429a-b17f-58dc0a54f83d","ios":"levelo://app?vid=d5973569-a961-429a-b17f-58dc0a54f83d"},"vehicle_type_id":"4","last_reported":1732975676,"current_range_meters":6800,"station_id":"ce4bgs12rcd13ifvqcag","pricing_plan_id":"cebpf4jnsgd1na2vs0mg"},{"bike_id":"5bc9d9cf-df24-4e03-a64c-e5379f67945a","system_id":"levelo_inurba_marseille","lat":43.27496,"lon":5.42447,"is_reserved":false,"is_disabled":false,"rental_uris":{"android":"levelo://app?vid=5bc9d9cf-df24-4e03-a64c-e5379f67945a","ios":"levelo://app?vid=5bc9d9cf-df24-4e03-a64c-e5379f67945a"},"vehicle_type_id":"4","last_reported":1732975676,"current_range_meters":38800,"station_id":"ce4bhn92rcd13ifvqgrg","pricing_plan_id":"cebpf4jnsgd1na2vs0mg"},{"bike_id":"26574650-f3c5-4496-af68-033e727c7c94","system_id":"levelo_inurba_marseille","lat":43.33023,"lon":5.39049,"is_reserved":false,"is_disabled":false,"rental_uris":{"android":"levelo://app?vid=26574650-f3c5-4496-af68-033e727c7c94","ios":"levelo://app?vid=26574650-f3c5-4496-af68-033e727c7c94"},"vehicle_type_id":"4","last_reported":1732975676,"current_range_meters":25600,"station_id":"ce4bhr92rcd13ifvqhrg","pricing_plan_id":"cebpf4jnsgd1na2vs0mg"},{"bike_id":"827b6a79-e088-4f63-a12c-f094bdd119b8","system_id":"levelo_inurba_marseille","lat":43.29571,"lon":5.39985,"is_reserved":false,"is_disabled":false,"rental_uris":{"android":"levelo://app?vid=827b6a79-e088-4f63-a12c-f094bdd119b8","ios":"levelo://app?vid=827b6a79-e088-4f63-a12c-f094bdd119b8"},"vehicle_type_id":"4","last_reported":1732975676,"current_range_meters":20400,"station_id":"ce4bh312rcd13ifvqdj0","pricing_plan_id":"cebpf4jnsgd1na2vs0mg"},{"bike_id":"e5951ee3-4a5a-4ebb-b469-096c5188dfa3","system_id":"levelo_inurba_marseille","lat":43.23192,"lon":5.3556,"is_reserved":false,"is_disabled":false,"rental_uris":{"android":"levelo://app?vid=e5951ee3-4a5a-4ebb-b469-096c5188dfa3","ios":"levelo://app?vid=e5951ee3-4a5a-4ebb-b469-096c5188dfa3"},"vehicle_type_id":"4","last_reported":1732975676,"current_range_meters":19200,"station_id":"ce4bhu92rcd13ifvqi70","pricing_plan_id":"cebpf4jnsgd1na2vs0mg"},{"bike_id":"f9a63393-5401-4f98-ae5a-dfbb8291ab6d","system_id":"levelo_inurba_marseille","lat":43.3004,"lon":5.37551,"is_reserved":false,"is_disabled":true,"rental_uris":{"android":"levelo://app?vid=f9a63393-5401-4f98-ae5a-dfbb8291ab6d","ios":"levelo://app?vid=f9a63393-5401-4f98-ae5a-dfbb8291ab6d"},"vehicle_type_id":"4","last_reported":1732975676,"current_range_meters":0,"station_id":"","pricing_plan_id":"cebpf4jnsgd1na2vs0mg"},{"bike_id":"d2300a67-e59d-4c6d-84e8-89c1777cddcc","system_id":"levelo_inurba_marseille","lat":43.31994,"lon":5.38146,"is_reserved":false,"is_disabled":false,"rental_uris":{"android":"levelo://app?vid=d2300a67-e59d-4c6d-84e8-89c1777cddcc","ios":"levelo://app?vid=d2300a67-e59d-4c6d-84e8-89c1777cddcc"},"vehicle_type_id":"4","last_reported":1732975676,"current_range_meters":38800,"station_id":"ce4bhr12rcd13ifvqhpg","pricing_plan_id":"cebpf4jnsgd1na2vs0mg"},{"bike_id":"b38c09bb-a215-4e8b-b764-0091f548550c","system_id":"levelo_inurba_marseille","lat":43.22929,"lon":5.35381,"is_reserved":false,"is_disabled":false,"rental_uris":{"android":"levelo://app?vid=b38c09bb-a215-4e8b-b764-0091f548550c","ios":"levelo://app?vid=b38c09bb-a215-4e8b-b764-0091f548550c"},"vehicle_type_id":"4","last_reported":1732975676,"current_range_meters":33600,"station_id":"cpo3532slgdg3j2ikp40","pricing_plan_id":"cebpf4jnsgd1na2vs0mg"},{"bike_id":"42062f9d-6c85-4a6b-8d48-4233b22428d6","system_id":"levelo_inurba_marseille","lat":43.22932,"lon":5.35376,"is_reserved":false,"is_disabled":false,"rental_uris":{"android":"levelo://app?vid=42062f9d-6c85-4a6b-8d48-4233b22428d6","ios":"levelo://app?vid=42062f9d-6c85-4a6b-8d48-4233b22428d6"},"vehicle_type_id":"4","last_reported":1732975676,"current_range_meters":16800,"station_id":"cpo3532slgdg3j2ikp40","pricing_plan_id":"cebpf4jnsgd1na2vs0mg"},{"bike_id":"209edce5-94bd-42b7-894c-233f806592a5","system_id":"levelo_inurba_marseille","lat":43.32362,"lon":5.36755,"is_reserved":false,"is_disabled":false,"rental_uris":{"android":"levelo://app?vid=209edce5-94bd-42b7-894c-233f806592a5","ios":"levelo://app?vid=209edce5-94bd-42b7-894c-233f806592a5"},"vehicle_type_id":"4","last_reported":1732975676,"current_range_meters":28000,"station_id":"ce4bhsh2rcd13ifvqi2g","pricing_plan_id":"cebpf4jnsgd1na2vs0mg"},{"bike_id":"1de0a350-cd1a-4ed9-8ee4-56645600bb9f","system_id":"levelo_inurba_marseille","lat":43.29256,"lon":5.36863,"is_reserved":false,"is_disabled":false,"rental_uris":{"android":"levelo://app?vid=1de0a350-cd1a-4ed9-8ee4-56645600bb9f","ios":"levelo://app?vid=1de0a350-cd1a-4ed9-8ee4-56645600bb9f"},"vehicle_type_id":"4","last_reported":1732975676,"current_range_meters":38800,"station_id":"ce4bhbp2rcd13ifvqesg","pricing_plan_id":"cebpf4jnsgd1na2vs0mg"},{"bike_id":"0eaa03eb-eed7-4926-80a8-68beee9f8548","system_id":"levelo_inurba_marseille","lat":43.3377,"lon":5.37425,"is_reserved":false,"is_disabled":false,"rental_uris":{"android":"levelo://app?vid=0eaa03eb-eed7-4926-80a8-68beee9f8548","ios":"levelo://app?vid=0eaa03eb-eed7-4926-80a8-68beee9f8548"},"vehicle_type_id":"4","last_reported":1732975676,"current_range_meters":33600,"station_id":"","pricing_plan_id":"cebpf4jnsgd1na2vs0mg"},{"bike_id":"04791269-9bad-451a-a252-9b63a8db9660","system_id":"levelo_inurba_marseille","lat":43.28033,"lon":5.36947,"is_reserved":false,"is_disabled":false,"rental_uris":{"android":"levelo://app?vid=04791269-9bad-451a-a252-9b63a8db9660","ios":"levelo://app?vid=04791269-9bad-451a-a252-9b63a8db9660"},"vehicle_type_id":"4","last_reported":1732975676,"current_range_meters":7200,"station_id":"ce4bha12rcd13ifvqef0","pricing_plan_id":"cebpf4jnsgd1na2vs0mg"},{"bike_id":"efbc4d20-bdec-45eb-8f74-c8ad3b7ba3bb","system_id":"levelo_inurba_marseille","lat":43.23043,"lon":5.35514,"is_reserved":false,"is_disabled":false,"rental_uris":{"android":"levelo://app?vid=efbc4d20-bdec-45eb-8f74-c8ad3b7ba3bb","ios":"levelo://app?vid=efbc4d20-bdec-45eb-8f74-c8ad3b7ba3bb"},"vehicle_type_id":"4","last_reported":1732975676,"current_range_meters":29600,"station_id":"cpo3342slgdg3j2ifvpg","pricing_plan_id":"cebpf4jnsgd1na2vs0mg"},{"bike_id":"2f912621-5ca1-46ff-9674-4fff9f98c56b","system_id":"levelo_inurba_marseille","lat":43.29894,"lon":5.37479,"is_reserved":false,"is_disabled":false,"rental_uris":{"android":"levelo://app?vid=2f912621-5ca1-46ff-9674-4fff9f98c56b","ios":"levelo://app?vid=2f912621-5ca1-46ff-9674-4fff9f98c56b"},"vehicle_type_id":"4","last_reported":1732975676,"current_range_meters":18800,"station_id":"ce4bgjh2rcd13ifvqbg0","pricing_plan_id":"cebpf4jnsgd1na2vs0mg"},{"bike_id":"213bf158-be68-4d7e-b8cc-c5dc1c5b6312","system_id":"levelo_inurba_marseille","lat":43.30766,"lon":5.36649,"is_reserved":false,"is_disabled":false,"rental_uris":{"android":"levelo://app?vid=213bf158-be68-4d7e-b8cc-c5dc1c5b6312","ios":"levelo://app?vid=213bf158-be68-4d7e-b8cc-c5dc1c5b6312"},"vehicle_type_id":"4","last_reported":1732975676,"current_range_meters":34800,"station_id":"","pricing_plan_id":"cebpf4jnsgd1na2vs0mg"},{"bike_id":"ffee92d3-4119-470f-811e-5a167fe07917","system_id":"levelo_inurba_marseille","lat":43.33024,"lon":5.39039,"is_reserved":false,"is_disabled":false,"rental_uris":{"android":"levelo://app?vid=ffee92d3-4119-470f-811e-5a167fe07917","ios":"levelo://app?vid=ffee92d3-4119-470f-811e-5a167fe07917"},"vehicle_type_id":"4","last_reported":1732975676,"current_range_meters":40000,"station_id":"ce4bhr92rcd13ifvqhrg","pricing_plan_id":"cebpf4jnsgd1na2vs0mg"},{"bike_id":"b075e94a-8442-4fee-981a-8a052399d933","system_id":"levelo_inurba_marseille","lat":43.30545,"lon":5.36554,"is_reserved":false,"is_disabled":false,"rental_uris":{"android":"levelo://app?vid=b075e94a-8442-4fee-981a-8a052399d933","ios":"levelo://app?vid=b075e94a-8442-4fee-981a-8a052399d933"},"vehicle_type_id":"4","last_reported":1732975676,"current_range_meters":30800,"station_id":"ce4bgs12rcd13ifvqcag","pricing_plan_id":"cebpf4jnsgd1na2vs0mg"},{"bike_id":"361546dc-2717-40fc-9f67-3f91e07a19dd","system_id":"levelo_inurba_marseille","lat":43.24543,"lon":5.39528,"is_reserved":false,"is_disabled":false,"rental_uris":{"android":"levelo://app?vid=361546dc-2717-40fc-9f67-3f91e07a19dd","ios":"levelo://app?vid=361546dc-2717-40fc-9f67-3f91e07a19dd"},"vehicle_type_id":"4","last_reported":1732975676,"current_range_meters":4000,"station_id":"ce4bhlp2rcd13ifvqgjg","pricing_plan_id":"cebpf4jnsgd1na2vs0mg"},{"bike_id":"38798db8-5bd5-4792-b41b-6f809d1b1c45","system_id":"levelo_inurba_marseille","lat":43.32004,"lon":5.3815,"is_reserved":false,"is_disabled":false,"rental_uris":{"android":"levelo://app?vid=38798db8-5bd5-4792-b41b-6f809d1b1c45","ios":"levelo://app?vid=38798db8-5bd5-4792-b41b-6f809d1b1c45"},"vehicle_type_id":"4","last_reported":1732975676,"current_range_meters":18800,"station_id":"ce4bhr12rcd13ifvqhpg","pricing_plan_id":"cebpf4jnsgd1na2vs0mg"},{"bike_id":"e1ebf7cc-49b3-47c3-b832-a2b8322c1169","system_id":"levelo_inurba_marseille","lat":43.29628,"lon":5.37172,"is_reserved":false,"is_disabled":false,"rental_uris":{"android":"levelo://app?vid=e1ebf7cc-49b3-47c3-b832-a2b8322c1169","ios":"levelo://app?vid=e1ebf7cc-49b3-47c3-b832-a2b8322c1169"},"vehicle_type_id":"4","last_reported":1732975676,"current_range_meters":22800,"station_id":"ce4bgnh2rcd13ifvqc0g","pricing_plan_id":"cebpf4jnsgd1na2vs0mg"},{"bike_id":"375f3ff8-f817-4dea-ba6a-e7f3d0cf2b56","system_id":"levelo_inurba_marseille","lat":43.28033,"lon":5.36955,"is_reserved":false,"is_disabled":false,"rental_uris":{"android":"levelo://app?vid=375f3ff8-f817-4dea-ba6a-e7f3d0cf2b56","ios":"levelo://app?vid=375f3ff8-f817-4dea-ba6a-e7f3d0cf2b56"},"vehicle_type_id":"4","last_reported":1732975676,"current_range_meters":39200,"station_id":"ce4bha12rcd13ifvqef0","pricing_plan_id":"cebpf4jnsgd1na2vs0mg"},{"bike_id":"8a4c2d4e-1120-4a44-aa6a-b97a693b8a01","system_id":"levelo_inurba_marseille","lat":43.29641,"lon":5.36267,"is_reserved":false,"is_disabled":false,"rental_uris":{"android":"levelo://app?vid=8a4c2d4e-1120-4a44-aa6a-b97a693b8a01","ios":"levelo://app?vid=8a4c2d4e-1120-4a44-aa6a-b97a693b8a01"},"vehicle_type_id":"4","last_reported":1732975676,"current_range_meters":36800,"station_id":"","pricing_plan_id":"cebpf4jnsgd1na2vs0mg"},{"bike_id":"e05ac5be-d807-4203-8b20-bdb26cceefb0","system_id":"levelo_inurba_marseille","lat":43.31761,"lon":5.39018,"is_reserved":false,"is_disabled":false,"rental_uris":{"android":"levelo://app?vid=e05ac5be-d807-4203-8b20-bdb26cceefb0","ios":"levelo://app?vid=e05ac5be-d807-4203-8b20-bdb26cceefb0"},"vehicle_type_id":"4","last_reported":1732975676,"current_range_meters":35600,"station_id":"ce4bhqp2rcd13ifvqhng","pricing_plan_id":"cebpf4jnsgd1na2vs0mg"},{"bike_id":"925f3b51-6fab-43b7-8f3f-91d2233f4dda","system_id":"levelo_inurba_marseille","lat":43.27991,"lon":5.40019,"is_reserved":false,"is_disabled":true,"rental_uris":{"android":"levelo://app?vid=925f3b51-6fab-43b7-8f3f-91d2233f4dda","ios":"levelo://app?vid=925f3b51-6fab-43b7-8f3f-91d2233f4dda"},"vehicle_type_id":"4","last_reported":1732975676,"current_range_meters":0,"station_id":"ce4bho92rcd13ifvqh4g","pricing_plan_id":"cebpf4jnsgd1na2vs0mg"},{"bike_id":"ed151763-9b18-498c-894b-855dfd42d28d","system_id":"levelo_inurba_marseille","lat":43.27027,"lon":5.36393,"is_reserved":false,"is_disabled":true,"rental_uris":{"android":"levelo://app?vid=ed151763-9b18-498c-894b-855dfd42d28d","ios":"levelo://app?vid=ed151763-9b18-498c-894b-855dfd42d28d"},"vehicle_type_id":"4","last_reported":1732975676,"current_range_meters":1200,"station_id":"ce4bhgh2rcd13ifvqfa0","pricing_plan_id":"cebpf4jnsgd1na2vs0mg"},{"bike_id":"62edf88c-6b39-4bd2-b87e-e81d7482be78","system_id":"levelo_inurba_marseille","lat":43.337444,"lon":5.374475,"is_reserved":false,"is_disabled":false,"rental_uris":{"android":"levelo://app?vid=62edf88c-6b39-4bd2-b87e-e81d7482be78","ios":"levelo://app?vid=62edf88c-6b39-4bd2-b87e-e81d7482be78"},"vehicle_type_id":"4","last_reported":1732975676,"current_range_meters":33600,"station_id":"","pricing_plan_id":"cebpf4jnsgd1na2vs0mg"},{"bike_id":"71617b7c-b19b-4263-8bc2-83b163c2545f","system_id":"levelo_inurba_marseille","lat":43.26943,"lon":5.38926,"is_reserved":false,"is_disabled":false,"rental_uris":{"android":"levelo://app?vid=71617b7c-b19b-4263-8bc2-83b163c2545f","ios":"levelo://app?vid=71617b7c-b19b-4263-8bc2-83b163c2545f"},"vehicle_type_id":"4","last_reported":1732975676,"current_range_meters":28800,"station_id":"ce4bhhh2rcd13ifvqfl0","pricing_plan_id":"cebpf4jnsgd1na2vs0mg"},{"bike_id":"43746d86-8a13-4845-9faf-ae69b548d714","system_id":"levelo_inurba_marseille","lat":43.29459,"lon":5.37917,"is_reserved":false,"is_disabled":true,"rental_uris":{"android":"levelo://app?vid=43746d86-8a13-4845-9faf-ae69b548d714","ios":"levelo://app?vid=43746d86-8a13-4845-9faf-ae69b548d714"},"vehicle_type_id":"4","last_reported":1732975676,"current_range_meters":0,"station_id":"","pricing_plan_id":"cebpf4jnsgd1na2vs0mg"},{"bike_id":"b99d912f-5dc0-4792-8912-e0c60fda2b57","system_id":"levelo_inurba_marseille","lat":43.23055,"lon":5.35496,"is_reserved":false,"is_disabled":false,"rental_uris":{"android":"levelo://app?vid=b99d912f-5dc0-4792-8912-e0c60fda2b57","ios":"levelo://app?vid=b99d912f-5dc0-4792-8912-e0c60fda2b57"},"vehicle_type_id":"4","last_reported":1732975676,"current_range_meters":27600,"station_id":"cpo3342slgdg3j2ifvpg","pricing_plan_id":"cebpf4jnsgd1na2vs0mg"},{"bike_id":"7f22ee2c-d398-4e8b-b4d2-44176f5c1ee0","system_id":"levelo_inurba_marseille","lat":43.29579,"lon":5.37506,"is_reserved":false,"is_disabled":false,"rental_uris":{"android":"levelo://app?vid=7f22ee2c-d398-4e8b-b4d2-44176f5c1ee0","ios":"levelo://app?vid=7f22ee2c-d398-4e8b-b4d2-44176f5c1ee0"},"vehicle_type_id":"4","last_reported":1732975676,"current_range_meters":38000,"station_id":"ce4bgh92rcd13ifvqb50","pricing_plan_id":"cebpf4jnsgd1na2vs0mg"},{"bike_id":"6a6d2bce-2322-4739-920d-d863ed9f7029","system_id":"levelo_inurba_marseille","lat":43.24662,"lon":5.3816,"is_reserved":false,"is_disabled":true,"rental_uris":{"android":"levelo://app?vid=6a6d2bce-2322-4739-920d-d863ed9f7029","ios":"levelo://app?vid=6a6d2bce-2322-4739-920d-d863ed9f7029"},"vehicle_type_id":"4","last_reported":1732975676,"current_range_meters":0,"station_id":"ce4bhih2rcd13ifvqfr0","pricing_plan_id":"cebpf4jnsgd1na2vs0mg"},{"bike_id":"7f673855-a40b-45fc-a998-51b1035c8353","system_id":"levelo_inurba_marseille","lat":43.25495,"lon":5.37655,"is_reserved":false,"is_disabled":false,"rental_uris":{"android":"levelo://app?vid=7f673855-a40b-45fc-a998-51b1035c8353","ios":"levelo://app?vid=7f673855-a40b-45fc-a998-51b1035c8353"},"vehicle_type_id":"4","last_reported":1732975676,"current_range_meters":30800,"station_id":"ce4bhh12rcd13ifvqff0","pricing_plan_id":"cebpf4jnsgd1na2vs0mg"},{"bike_id":"ecc7e7c8-3074-4a2f-aa84-9318fb2fb3a3","system_id":"levelo_inurba_marseille","lat":43.29001,"lon":5.35605,"is_reserved":false,"is_disabled":false,"rental_uris":{"android":"levelo://app?vid=ecc7e7c8-3074-4a2f-aa84-9318fb2fb3a3","ios":"levelo://app?vid=ecc7e7c8-3074-4a2f-aa84-9318fb2fb3a3"},"vehicle_type_id":"4","last_reported":1732975676,"current_range_meters":25600,"station_id":"ce4bhb92rcd13ifvqen0","pricing_plan_id":"cebpf4jnsgd1na2vs0mg"},{"bike_id":"dbac7c9d-7351-4834-9305-199d6f97007a","system_id":"levelo_inurba_marseille","lat":43.29006,"lon":5.3561,"is_reserved":false,"is_disabled":false,"rental_uris":{"android":"levelo://app?vid=dbac7c9d-7351-4834-9305-199d6f97007a","ios":"levelo://app?vid=dbac7c9d-7351-4834-9305-199d6f97007a"},"vehicle_type_id":"4","last_reported":1732975676,"current_range_meters":10000,"station_id":"ce4bhb92rcd13ifvqen0","pricing_plan_id":"cebpf4jnsgd1na2vs0mg"},{"bike_id":"13f5029f-7360-41a1-9500-c847dc91435c","system_id":"levelo_inurba_marseille","lat":43.29004,"lon":5.35613,"is_reserved":false,"is_disabled":false,"rental_uris":{"android":"levelo://app?vid=13f5029f-7360-41a1-9500-c847dc91435c","ios":"levelo://app?vid=13f5029f-7360-41a1-9500-c847dc91435c"},"vehicle_type_id":"4","last_reported":1732975676,"current_range_meters":22800,"station_id":"ce4bhb92rcd13ifvqen0","pricing_plan_id":"cebpf4jnsgd1na2vs0mg"},{"bike_id":"9e2dae0c-4997-4761-9c82-eeabee0ca3bb","system_id":"levelo_inurba_marseille","lat":43.28153,"lon":5.42645,"is_reserved":false,"is_disabled":false,"rental_uris":{"android":"levelo://app?vid=9e2dae0c-4997-4761-9c82-eeabee0ca3bb","ios":"levelo://app?vid=9e2dae0c-4997-4761-9c82-eeabee0ca3bb"},"vehicle_type_id":"4","last_reported":1732975676,"current_range_meters":30400,"station_id":"ce4bhnh2rcd13ifvqgug","pricing_plan_id":"cebpf4jnsgd1na2vs0mg"},{"bike_id":"15e24c31-4292-4084-bcd3-e24f0a31685e","system_id":"levelo_inurba_marseille","lat":43.28421,"lon":5.35002,"is_reserved":false,"is_disabled":true,"rental_uris":{"android":"levelo://app?vid=15e24c31-4292-4084-bcd3-e24f0a31685e","ios":"levelo://app?vid=15e24c31-4292-4084-bcd3-e24f0a31685e"},"vehicle_type_id":"4","last_reported":1732975676,"current_range_meters":34800,"station_id":"ce4bhbh2rcd13ifvqepg","pricing_plan_id":"cebpf4jnsgd1na2vs0mg"},{"bike_id":"0bddf575-30c9-49f4-93de-cd92598ee327","system_id":"levelo_inurba_marseille","lat":43.33017,"lon":5.39027,"is_reserved":false,"is_disabled":false,"rental_uris":{"android":"levelo://app?vid=0bddf575-30c9-49f4-93de-cd92598ee327","ios":"levelo://app?vid=0bddf575-30c9-49f4-93de-cd92598ee327"},"vehicle_type_id":"4","last_reported":1732975676,"current_range_meters":35200,"station_id":"ce4bhr92rcd13ifvqhrg","pricing_plan_id":"cebpf4jnsgd1na2vs0mg"},{"bike_id":"ed2e18cb-6b73-482a-997d-872d2e2185a6","system_id":"levelo_inurba_marseille","lat":43.22931,"lon":5.35372,"is_reserved":false,"is_disabled":false,"rental_uris":{"android":"levelo://app?vid=ed2e18cb-6b73-482a-997d-872d2e2185a6","ios":"levelo://app?vid=ed2e18cb-6b73-482a-997d-872d2e2185a6"},"vehicle_type_id":"4","last_reported":1732975676,"current_range_meters":39200,"station_id":"cpo3532slgdg3j2ikp40","pricing_plan_id":"cebpf4jnsgd1na2vs0mg"},{"bike_id":"10abe4b6-26e4-45e3-b0b0-8edd299bef5f","system_id":"levelo_inurba_marseille","lat":43.29579,"lon":5.37505,"is_reserved":false,"is_disabled":false,"rental_uris":{"android":"levelo://app?vid=10abe4b6-26e4-45e3-b0b0-8edd299bef5f","ios":"levelo://app?vid=10abe4b6-26e4-45e3-b0b0-8edd299bef5f"},"vehicle_type_id":"4","last_reported":1732975676,"current_range_meters":36800,"station_id":"ce4bgh92rcd13ifvqb50","pricing_plan_id":"cebpf4jnsgd1na2vs0mg"},{"bike_id":"fc4d15f5-6256-45a3-90d6-77bb4c676955","system_id":"levelo_inurba_marseille","lat":43.296284,"lon":5.377877,"is_reserved":false,"is_disabled":true,"rental_uris":{"android":"levelo://app?vid=fc4d15f5-6256-45a3-90d6-77bb4c676955","ios":"levelo://app?vid=fc4d15f5-6256-45a3-90d6-77bb4c676955"},"vehicle_type_id":"4","last_reported":1732975676,"current_range_meters":24400,"station_id":"","pricing_plan_id":"cebpf4jnsgd1na2vs0mg"},{"bike_id":"308d453b-8afd-40fc-8da6-3d092fa4e110","system_id":"levelo_inurba_marseille","lat":43.29619,"lon":5.37171,"is_reserved":false,"is_disabled":true,"rental_uris":{"android":"levelo://app?vid=308d453b-8afd-40fc-8da6-3d092fa4e110","ios":"levelo://app?vid=308d453b-8afd-40fc-8da6-3d092fa4e110"},"vehicle_type_id":"4","last_reported":1732975676,"current_range_meters":0,"station_id":"ce4bgnh2rcd13ifvqc0g","pricing_plan_id":"cebpf4jnsgd1na2vs0mg"},{"bike_id":"77aad076-1e5a-4c62-9b92-f3d5dff7c157","system_id":"levelo_inurba_marseille","lat":43.28999,"lon":5.35614,"is_reserved":false,"is_disabled":false,"rental_uris":{"android":"levelo://app?vid=77aad076-1e5a-4c62-9b92-f3d5dff7c157","ios":"levelo://app?vid=77aad076-1e5a-4c62-9b92-f3d5dff7c157"},"vehicle_type_id":"4","last_reported":1732975676,"current_range_meters":34000,"station_id":"ce4bhb92rcd13ifvqen0","pricing_plan_id":"cebpf4jnsgd1na2vs0mg"},{"bike_id":"a16afe75-0fd4-4a69-b96a-bb6ed635780c","system_id":"levelo_inurba_marseille","lat":43.31116,"lon":5.37779,"is_reserved":false,"is_disabled":true,"rental_uris":{"android":"levelo://app?vid=a16afe75-0fd4-4a69-b96a-bb6ed635780c","ios":"levelo://app?vid=a16afe75-0fd4-4a69-b96a-bb6ed635780c"},"vehicle_type_id":"4","last_reported":1732975676,"current_range_meters":21600,"station_id":"ce4bgt92rcd13ifvqcg0","pricing_plan_id":"cebpf4jnsgd1na2vs0mg"},{"bike_id":"479fcb6f-d5c9-4eb3-a005-e862b08e88d1","system_id":"levelo_inurba_marseille","lat":43.32492,"lon":5.36556,"is_reserved":false,"is_disabled":false,"rental_uris":{"android":"levelo://app?vid=479fcb6f-d5c9-4eb3-a005-e862b08e88d1","ios":"levelo://app?vid=479fcb6f-d5c9-4eb3-a005-e862b08e88d1"},"vehicle_type_id":"4","last_reported":1732975676,"current_range_meters":16800,"station_id":"ce4bhs12rcd13ifvqhvg","pricing_plan_id":"cebpf4jnsgd1na2vs0mg"},{"bike_id":"da719756-3742-4209-8d60-b3804f08c501","system_id":"levelo_inurba_marseille","lat":43.29803,"lon":5.37991,"is_reserved":false,"is_disabled":false,"rental_uris":{"android":"levelo://app?vid=da719756-3742-4209-8d60-b3804f08c501","ios":"levelo://app?vid=da719756-3742-4209-8d60-b3804f08c501"},"vehicle_type_id":"4","last_reported":1732975676,"current_range_meters":27200,"station_id":"","pricing_plan_id":"cebpf4jnsgd1na2vs0mg"},{"bike_id":"5304605d-b7ca-4cc8-98e9-21b3ce51804f","system_id":"levelo_inurba_marseille","lat":43.3036,"lon":5.3972,"is_reserved":false,"is_disabled":false,"rental_uris":{"android":"levelo://app?vid=5304605d-b7ca-4cc8-98e9-21b3ce51804f","ios":"levelo://app?vid=5304605d-b7ca-4cc8-98e9-21b3ce51804f"},"vehicle_type_id":"4","last_reported":1732975676,"current_range_meters":28000,"station_id":"ce4bh092rcd13ifvqd20","pricing_plan_id":"cebpf4jnsgd1na2vs0mg"},{"bike_id":"5547a441-9653-482c-905c-97a54076438b","system_id":"levelo_inurba_marseille","lat":43.3236,"lon":5.36759,"is_reserved":false,"is_disabled":false,"rental_uris":{"android":"levelo://app?vid=5547a441-9653-482c-905c-97a54076438b","ios":"levelo://app?vid=5547a441-9653-482c-905c-97a54076438b"},"vehicle_type_id":"4","last_reported":1732975676,"current_range_meters":15200,"station_id":"ce4bhsh2rcd13ifvqi2g","pricing_plan_id":"cebpf4jnsgd1na2vs0mg"},{"bike_id":"c19f1075-9016-4ad7-b936-56a1b6afdac3","system_id":"levelo_inurba_marseille","lat":43.28458,"lon":5.35896,"is_reserved":false,"is_disabled":false,"rental_uris":{"android":"levelo://app?vid=c19f1075-9016-4ad7-b936-56a1b6afdac3","ios":"levelo://app?vid=c19f1075-9016-4ad7-b936-56a1b6afdac3"},"vehicle_type_id":"4","last_reported":1732975676,"current_range_meters":10800,"station_id":"ce4bhah2rcd13ifvqei0","pricing_plan_id":"cebpf4jnsgd1na2vs0mg"},{"bike_id":"395c2d9e-32cd-448f-a03e-441d227160f5","system_id":"levelo_inurba_marseille","lat":43.27994,"lon":5.40008,"is_reserved":false,"is_disabled":false,"rental_uris":{"android":"levelo://app?vid=395c2d9e-32cd-448f-a03e-441d227160f5","ios":"levelo://app?vid=395c2d9e-32cd-448f-a03e-441d227160f5"},"vehicle_type_id":"4","last_reported":1732975676,"current_range_meters":32400,"station_id":"ce4bho92rcd13ifvqh4g","pricing_plan_id":"cebpf4jnsgd1na2vs0mg"},