{"last_updated":1783424214,"ttl":60,"version":"2.2","data":{"bikes":[{"bike_id":"ba0c28b1-8732-48e2-8079-f25b2b3fbc3c","system_id":"levelo_inurba_marseille","lat":43.337444,"lon":5.374475,"is_reserved":false,"is_disabled":false,"rental_uris":{"android":"levelo://app?vid=ba0c28b1-8732-48e2-8079-f25b2b3fbc3c","ios":"levelo://app?vid=ba0c28b1-8732-48e2-8079-f25b2b3fbc3c"},"vehicle_type_id":"4","last_reported":1783424215,"current_range_meters":0,"station_id":"","pricing_plan_id":"cebpf4jnsgd1na2vs0mg"},{"bike_id":"4b71ea7a-3ffc-4ca2-a5b0-91fcaaf1579c","system_id":"levelo_inurba_marseille","lat":43.30297,"lon":5.38293,"is_reserved":false,"is_disabled":false,"rental_uris":{"android":"levelo://app?vid=4b71ea7a-3ffc-4ca2-a5b0-91fcaaf1579c","ios":"levelo://app?vid=4b71ea7a-3ffc-4ca2-a5b0-91fcaaf1579c"},"vehicle_type_id":"4","last_reported":1783424215,"current_range_meters":2800,"station_id":"","pricing_plan_id":"cebpf4jnsgd1na2vs0mg"},{"bike_id":"5f8491b7-6afe-4763-8c6d-f7eadff0e4de","system_id":"levelo_inurba_marseille","lat":43.26567,"lon":5.36992,"is_reserved":false,"is_disabled":true,"rental_uris":{"android":"levelo://app?vid=5f8491b7-6afe-4763-8c6d-f7eadff0e4de","ios":"levelo://app?vid=5f8491b7-6afe-4763-8c6d-f7eadff0e4de"},"vehicle_type_id":"4","last_reported":1783424215,"current_range_meters":2800,"station_id":"","pricing_plan_id":"cebpf4jnsgd1na2vs0mg"},{"bike_id":"92a0c0cb-0818-4864-a9ba-8af564118461","system_id":"levelo_inurba_marseille","lat":43.32398,"lon":5.37421,"is_reserved":false,"is_disabled":false,"rental_uris":{"android":"levelo://app?vid=92a0c0cb-0818-4864-a9ba-8af564118461","ios":"levelo://app?vid=92a0c0cb-0818-4864-a9ba-8af564118461"},"vehicle_type_id":"4","last_reported":1783424215,"current_range_meters":2800,"station_id":"","pricing_plan_id":"cebpf4jnsgd1na2vs0mg"},{"bike_id":"366d6231-d2d9-4a39-9350-0c67a9fa9de3","system_id":"levelo_inurba_marseille","lat":43.30455,"lon":5.37893,"is_reserved":false,"is_disabled":false,"rental_uris":{"android":"levelo://app?vid=366d6231-d2d9-4a39-9350-0c67a9fa9de3","ios":"levelo://app?vid=366d6231-d2d9-4a39-9350-0c67a9fa9de3"},"vehicle_type_id":"4","last_reported":1783424215,"current_range_meters":2800,"station_id":"ce4bgup2rcd13ifvqcn0","pricing_plan_id":"cebpf4jnsgd1na2vs0mg"},{"bike_id":"93b621d9-de3a-451a-bd44-74d9060bb4e0","system_id":"levelo_inurba_marseille","lat":43.3113,"lon":5.37759,"is_reserved":false,"is_disabled":false,"rental_uris":{"android":"levelo://app?vid=93b621d9-de3a-451a-bd44-74d9060bb4e0","ios":"levelo://app?vid=93b621d9-de3a-451a-bd44-74d9060bb4e0"},"vehicle_type_id":"4","last_reported":1783424215,"current_range_meters":2800,"station_id":"ce4bgt92rcd13ifvqcg0","pricing_plan_id":"cebpf4jnsgd1na2vs0mg"},{"bike_id":"dca9537f-861d-4bd5-b498-55f61df3d200","system_id":"levelo_inurba_marseille","lat":43.22554,"lon":5.41645,"is_reserved":false,"is_disabled":false,"rental_uris":{"android":"levelo://app?vid=dca9537f-861d-4bd5-b498-55f61df3d200","ios":"levelo://app?vid=dca9537f-861d-4bd5-b498-55f61df3d200"},"vehicle_type_id":"4","last_reported":1783424215,"current_range_meters":2800,"station_id":"st_d2o4gvlbi1j2169b742g","pricing_plan_id":"cebpf4jnsgd1na2vs0mg"},{"bike_id":"afe9a566-d8c0-4f06-a183-9935532dd6e0","system_id":"levelo_inurba_marseille","lat":43.25277,"lon":5.375,"is_reserved":false,"is_disabled":false,"rental_uris":{"android":"levelo://app?vid=afe9a566-d8c0-4f06-a183-9935532dd6e0","ios":"levelo://app?vid=afe9a566-d8c0-4f06-a183-9935532dd6e0"},"vehicle_type_id":"4","last_reported":1783424215,"current_range_meters":2800,"station_id":"","pricing_plan_id":"cebpf4jnsgd1na2vs0mg"},{"bike_id":"f094764f-2ddf-4452-be4a-c8029998973a","system_id":"levelo_inurba_marseille","lat":43.26678,"lon":5.39537,"is_reserved":false,"is_disabled":false,"rental_uris":{"android":"levelo://app?vid=f094764f-2ddf-4452-be4a-c8029998973a","ios":"levelo://app?vid=f094764f-2ddf-4452-be4a-c8029998973a"},"vehicle_type_id":"4","last_reported":1783424215,"current_range_meters":2800,"station_id":"","pricing_plan_id":"cebpf4jnsgd1na2vs0mg"},{"bike_id":"16dce98e-af5a-4303-bd42-fb6ad09d3355","system_id":"levelo_inurba_marseille","lat":43.29882,"lon":5.38887,"is_reserved":false,"is_disabled":false,"rental_uris":{"android":"levelo://app?vid=16dce98e-af5a-4303-bd42-fb6ad09d3355","ios":"levelo://app?vid=16dce98e-af5a-4303-bd42-fb6ad09d3355"},"vehicle_type_id":"4","last_reported":1783424215,"current_range_meters":2800,"station_id":"ce4bh392rcd13ifvqdl0","pricing_plan_id":"cebpf4jnsgd1na2vs0mg"},{"bike_id":"bcf38765-cf7c-4d21-80e9-c9417464a6f0","system_id":"levelo_inurba_marseille","lat":43.23959,"lon":5.36631,"is_reserved":false,"is_disabled":false,"rental_uris":{"android":"levelo://app?vid=bcf38765-cf7c-4d21-80e9-c9417464a6f0","ios":"levelo://app?vid=bcf38765-cf7c-4d21-80e9-c9417464a6f0"},"vehicle_type_id":"4","last_reported":1783424215,"current_range_meters":2800,"station_id":"ce4bhi12rcd13ifvqfp0","pricing_plan_id":"cebpf4jnsgd1na2vs0mg"},{"bike_id":"77605cd3-81fb-4b7b-af04-7f63fe917165","system_id":"levelo_inurba_marseille","lat":43.28406,"lon":5.37504,"is_reserved":false,"is_disabled":false,"rental_uris":{"android":"levelo://app?vid=77605cd3-81fb-4b7b-af04-7f63fe917165","ios":"levelo://app?vid=77605cd3-81fb-4b7b-af04-7f63fe917165"},"vehicle_type_id":"4","last_reported":1783424215,"current_range_meters":3200,"station_id":"ce4bh412rcd13ifvqds0","pricing_plan_id":"cebpf4jnsgd1na2vs0mg"},{"bike_id":"793bfc67-4c70-4120-baa6-7f0c64642122","system_id":"levelo_inurba_marseille","lat":43.29194,"lon":5.39331,"is_reserved":false,"is_disabled":false,"rental_uris":{"android":"levelo://app?vid=793bfc67-4c70-4120-baa6-7f0c64642122","ios":"levelo://app?vid=793bfc67-4c70-4120-baa6-7f0c64642122"},"vehicle_type_id":"4","last_reported":1783424215,"current_range_meters":3200,"station_id":"ce4bh192rcd13ifvqdd0","pricing_plan_id":"cebpf4jnsgd1na2vs0mg"},{"bike_id":"4037519a-24ab-4479-a819-726517224ee5","system_id":"levelo_inurba_marseille","lat":43.27375,"lon":5.3626,"is_reserved":false,"is_disabled":false,"rental_uris":{"android":"levelo://app?vid=4037519a-24ab-4479-a819-726517224ee5","ios":"levelo://app?vid=4037519a-24ab-4479-a819-726517224ee5"},"vehicle_type_id":"4","last_reported":1783424215,"current_range_meters":3200,"station_id":"ce4bhbh2rcd13ifvqeo0","pricing_plan_id":"cebpf4jnsgd1na2vs0mg"},{"bike_id":"1cf746e0-5249-4cd4-b68c-9f0df4a1967a","system_id":"levelo_inurba_marseille","lat":43.27837,"lon":5.39208,"is_reserved":false,"is_disabled":false,"rental_uris":{"android":"levelo://app?vid=1cf746e0-5249-4cd4-b68c-9f0df4a1967a","ios":"levelo://app?vid=1cf746e0-5249-4cd4-b68c-9f0df4a1967a"},"vehicle_type_id":"4","last_reported":1783424215,"current_range_meters":3200,"station_id":"ce4bhjp2rcd13ifvqga0","pricing_plan_id":"cebpf4jnsgd1na2vs0mg"},{"bike_id":"15482f22-4138-4303-a0df-9a0915e9a859","system_id":"levelo_inurba_marseille","lat":43.2174,"lon":5.34609,"is_reserved":false,"is_disabled":false,"rental_uris":{"android":"levelo://app?vid=15482f22-4138-4303-a0df-9a0915e9a859","ios":"levelo://app?vid=15482f22-4138-4303-a0df-9a0915e9a859"},"vehicle_type_id":"4","last_reported":1783424215,"current_range_meters":3200,"station_id":"st_cvj6r9ubvosntc0bgbag","pricing_plan_id":"cebpf4jnsgd1na2vs0mg"},{"bike_id":"02f774b4-931b-4615-b971-c8f3a96710aa","system_id":"levelo_inurba_marseille","lat":43.28138,"lon":5.42652,"is_reserved":false,"is_disabled":false,"rental_uris":{"android":"levelo://app?vid=02f774b4-931b-4615-b971-c8f3a96710aa","ios":"levelo://app?vid=02f774b4-931b-4615-b971-c8f3a96710aa"},"vehicle_type_id":"4","last_reported":1783424215,"current_range_meters":3200,"station_id":"ce4bhnh2rcd13ifvqgug","pricing_plan_id":"cebpf4jnsgd1na2vs0mg"},{"bike_id":"ddb221bb-299b-45ec-b8ca-be370332f846","system_id":"levelo_inurba_marseille","lat":43.27941,"lon":5.38727,"is_reserved":false,"is_disabled":false,"rental_uris":{"android":"levelo://app?vid=ddb221bb-299b-45ec-b8ca-be370332f846","ios":"levelo://app?vid=ddb221bb-299b-45ec-b8ca-be370332f846"},"vehicle_type_id":"4","last_reported":1783424215,"current_range_meters":3200,"station_id":"ce4bhg12rcd13ifvqf80","pricing_plan_id":"cebpf4jnsgd1na2vs0mg"},{"bike_id":"927f034a-0960-4153-81f1-316c469b9213","system_id":"levelo_inurba_marseille","lat":43.25864,"lon":5.3992,"is_reserved":false,"is_disabled":true,"rental_uris":{"android":"levelo://app?vid=927f034a-0960-4153-81f1-316c469b9213","ios":"levelo://app?vid=927f034a-0960-4153-81f1-316c469b9213"},"vehicle_type_id":"4","last_reported":1783424215,"current_range_meters":3200,"station_id":"ce4bhl92rcd13ifvqghg","pricing_plan_id":"cebpf4jnsgd1na2vs0mg"},{"bike_id":"78610874-b30c-4905-9599-bcdb35b4c544","system_id":"levelo_inurba_marseille","lat":43.25572,"lon":5.38248,"is_reserved":false,"is_disabled":false,"rental_uris":{"android":"levelo://app?vid=78610874-b30c-4905-9599-bcdb35b4c544","ios":"levelo://app?vid=78610874-b30c-4905-9599-bcdb35b4c544"},"vehicle_type_id":"4","last_reported":1783424215,"current_range_meters":3200,"station_id":"ce4bhih2rcd13ifvqfs0","pricing_plan_id":"cebpf4jnsgd1na2vs0mg"},{"bike_id":"92bc169b-9c36-4c93-8432-6f60b6f3d084","system_id":"levelo_inurba_marseille","lat":43.31205,"lon":5.3695,"is_reserved":false,"is_disabled":false,"rental_uris":{"android":"levelo://app?vid=92bc169b-9c36-4c93-8432-6f60b6f3d084","ios":"levelo://app?vid=92bc169b-9c36-4c93-8432-6f60b6f3d084"},"vehicle_type_id":"4","last_reported":1783424215,"current_range_meters":3200,"station_id":"ce4bgl92rcd13ifvqbq0","pricing_plan_id":"cebpf4jnsgd1na2vs0mg"},{"bike_id":"da995ece-b413-4ae7-8af4-b3e727781c7e","system_id":"levelo_inurba_marseille","lat":43.28465,"lon":5.43763,"is_reserved":false,"is_disabled":false,"rental_uris":{"android":"levelo://app?vid=da995ece-b413-4ae7-8af4-b3e727781c7e","ios":"levelo://app?vid=da995ece-b413-4ae7-8af4-b3e727781c7e"},"vehicle_type_id":"4","last_reported":1783424215,"current_range_meters":3200,"station_id":"","pricing_plan_id":"cebpf4jnsgd1na2vs0mg"},{"bike_id":"72db5589-dfd0-442a-904d-e9c5bdcd1d4f","system_id":"levelo_inurba_marseille","lat":43.31609,"lon":5.37947,"is_reserved":false,"is_disabled":false,"rental_uris":{"android":"levelo://app?vid=72db5589-dfd0-442a-904d-e9c5bdcd1d4f","ios":"levelo://app?vid=72db5589-dfd0-442a-904d-e9c5bdcd1d4f"},"vehicle_type_id":"4","last_reported":1783424215,"current_range_meters":3600,"station_id":"","pricing_plan_id":"cebpf4jnsgd1na2vs0mg"},{"bike_id":"27fc9101-a369-4e47-9076-0eb666625f7a","system_id":"levelo_inurba_marseille","lat":43.31279,"lon":5.40152,"is_reserved":false,"is_disabled":false,"rental_uris":{"android":"levelo://app?vid=27fc9101-a369-4e47-9076-0eb666625f7a","ios":"levelo://app?vid=27fc9101-a369-4e47-9076-0eb666625f7a"},"vehicle_type_id":"4","last_reported":1783424215,"current_range_meters":3600,"station_id":"ce4bh092rcd13ifvqd30","pricing_plan_id":"cebpf4jnsgd1na2vs0mg"},{"bike_id":"0a752399-1c76-455b-a7d0-f1ad051ba9c4","system_id":"levelo_inurba_marseille","lat":43.31211,"lon":5.36908,"is_reserved":false,"is_disabled":false,"rental_uris":{"android":"levelo://app?vid=0a752399-1c76-455b-a7d0-f1ad051ba9c4","ios":"levelo://app?vid=0a752399-1c76-455b-a7d0-f1ad051ba9c4"},"vehicle_type_id":"4","last_reported":1783424215,"current_range_meters":3600,"station_id":"ce4bgl92rcd13ifvqbq0","pricing_plan_id":"cebpf4jnsgd1na2vs0mg"},{"bike_id":"7d10bfdd-8317-4405-8d84-d5cbb117c668","system_id":"levelo_inurba_marseille","lat":43.28999,"lon":5.35607,"is_reserved":false,"is_disabled":false,"rental_uris":{"android":"levelo://app?vid=7d10bfdd-8317-4405-8d84-d5cbb117c668","ios":"levelo://app?vid=7d10bfdd-8317-4405-8d84-d5cbb117c668"},"vehicle_type_id":"4","last_reported":1783424215,"current_range_meters":3600,"station_id":"ce4bhgp2rcd13ifvqfc0","pricing_plan_id":"cebpf4jnsgd1na2vs0mg"},{"bike_id":"20caa1fc-06d5-4252-9f45-594b25108b35","system_id":"levelo_inurba_marseille","lat":43.2846,"lon":5.48417,"is_reserved":false,"is_disabled":false,"rental_uris":{"android":"levelo://app?vid=20caa1fc-06d5-4252-9f45-594b25108b35","ios":"levelo://app?vid=20caa1fc-06d5-4252-9f45-594b25108b35"},"vehicle_type_id":"4","last_reported":1783424215,"current_range_meters":3600,"station_id":"st_d3svhcjqgbts73a3dn0g","pricing_plan_id":"cebpf4jnsgd1na2vs0mg"},{"bike_id":"e3022a6a-a8f2-4537-83b2-c5cd58afaf3e","system_id":"levelo_inurba_marseille","lat":43.25091,"lon":5.39524,"is_reserved":false,"is_disabled":true,"rental_uris":{"android":"levelo://app?vid=e3022a6a-a8f2-4537-83b2-c5cd58afaf3e","ios":"levelo://app?vid=e3022a6a-a8f2-4537-83b2-c5cd58afaf3e"},"vehicle_type_id":"4","last_reported":1783424215,"current_range_meters":3600,"station_id":"ce4bhm12rcd13ifvqgkg","pricing_plan_id":"cebpf4jnsgd1na2vs0mg"},{"bike_id":"faae4998-2660-4cc6-a836-6400055fc88a","system_id":"levelo_inurba_marseille","lat":43.29856,"lon":5.36293,"is_reserved":false,"is_disabled":true,"rental_uris":{"android":"levelo://app?vid=faae4998-2660-4cc6-a836-6400055fc88a","ios":"levelo://app?vid=faae4998-2660-4cc6-a836-6400055fc88a"},"vehicle_type_id":"4","last_reported":1783424215,"current_range_meters":3600,"station_id":"ce4bgpp2rcd13ifvqc3g","pricing_plan_id":"cebpf4jnsgd1na2vs0mg"},{"bike_id":"f12954c2-1b6f-4584-a636-0a2083bce431","system_id":"levelo_inurba_marseille","lat":43.31316,"lon":5.40525,"is_reserved":false,"is_disabled":false,"rental_uris":{"android":"levelo://app?vid=f12954c2-1b6f-4584-a636-0a2083bce431","ios":"levelo://app?vid=f12954c2-1b6f-4584-a636-0a2083bce431"},"vehicle_type_id":"4","last_reported":1783424215,"current_range_meters":3600,"station_id":"","pricing_plan_id":"cebpf4jnsgd1na2vs0mg"},{"bike_id":"9f8c4878-7f85-4b02-a5dc-0bb532acdbb0","system_id":"levelo_inurba_marseille","lat":43.24488,"lon":5.42548,"is_reserved":false,"is_disabled":false,"rental_uris":{"android":"levelo://app?vid=9f8c4878-7f85-4b02-a5dc-0bb532acdbb0","ios":"levelo://app?vid=9f8c4878-7f85-4b02-a5dc-0bb532acdbb0"},"vehicle_type_id":"4","last_reported":1783424215,"current_range_meters":3600,"station_id":"st_d4a3vfp97mjs738cd8kg","pricing_plan_id":"cebpf4jnsgd1na2vs0mg"},{"bike_id":"7678e258-73ee-4d26-8d86-8beb357c78a0","system_id":"levelo_inurba_marseille","lat":43.24347,"lon":5.40595,"is_reserved":false,"is_disabled":false,"rental_uris":{"android":"levelo://app?vid=7678e258-73ee-4d26-8d86-8beb357c78a0","ios":"levelo://app?vid=7678e258-73ee-4d26-8d86-8beb357c78a0"},"vehicle_type_id":"4","last_reported":1783424215,"current_range_meters":3600,"station_id":"","pricing_plan_id":"cebpf4jnsgd1na2vs0mg"},{"bike_id":"9c6b0603-2e00-48ba-9d87-cc406e994bc8","system_id":"levelo_inurba_marseille","lat":43.30116,"lon":5.37369,"is_reserved":false,"is_disabled":false,"rental_uris":{"android":"levelo://app?vid=9c6b0603-2e00-48ba-9d87-cc406e994bc8","ios":"levelo://app?vid=9c6b0603-2e00-48ba-9d87-cc406e994bc8"},"vehicle_type_id":"4","last_reported":1783424215,"current_range_meters":3600,"station_id":"ce4bgs92rcd13ifvqcc0","pricing_plan_id":"cebpf4jnsgd1na2vs0mg"},{"bike_id":"83fb8ce7-8e88-4970-b350-62286bca9be9","system_id":"levelo_inurba_marseille","lat":43.31222,"lon":5.36899,"is_reserved":false,"is_disabled":false,"rental_uris":{"android":"levelo://app?vid=83fb8ce7-8e88-4970-b350-62286bca9be9","ios":"levelo://app?vid=83fb8ce7-8e88-4970-b350-62286bca9be9"},"vehicle_type_id":"4","last_reported":1783424215,"current_range_meters":3600,"station_id":"ce4bgl92rcd13ifvqbq0","pricing_plan_id":"cebpf4jnsgd1na2vs0mg"},{"bike_id":"d7c33e32-1bf6-466d-abaf-8816e2645afe","system_id":"levelo_inurba_marseille","lat":43.31873,"lon":5.40726,"is_reserved":false,"is_disabled":true,"rental_uris":{"android":"levelo://app?vid=d7c33e32-1bf6-466d-abaf-8816e2645afe","ios":"levelo://app?vid=d7c33e32-1bf6-466d-abaf-8816e2645afe"},"vehicle_type_id":"4","last_reported":1783424215,"current_range_meters":4000,"station_id":"ce4bhq12rcd13ifvqhig","pricing_plan_id":"cebpf4jnsgd1na2vs0mg"},{"bike_id":"48baf9d8-7c54-446d-acef-aec0f74b8a22","system_id":"levelo_inurba_marseille","lat":43.29726,"lon":5.37124,"is_reserved":false,"is_disabled":false,"rental_uris":{"android":"levelo://app?vid=48baf9d8-7c54-446d-acef-aec0f74b8a22","ios":"levelo://app?vid=48baf9d8-7c54-446d-acef-aec0f74b8a22"},"vehicle_type_id":"4","last_reported":1783424215,"current_range_meters":4000,"station_id":"","pricing_plan_id":"cebpf4jnsgd1na2vs0mg"},{"bike_id":"42bee4b1-a5b1-4a30-9579-ee3979881087","system_id":"levelo_inurba_marseille","lat":43.26679,"lon":5.38261,"is_reserved":false,"is_disabled":false,"rental_uris":{"android":"levelo://app?vid=42bee4b1-a5b1-4a30-9579-ee3979881087","ios":"levelo://app?vid=42bee4b1-a5b1-4a30-9579-ee3979881087"},"vehicle_type_id":"4","last_reported":1783424215,"current_range_meters":4000,"station_id":"ce4bhg92rcd13ifvqf90","pricing_plan_id":"cebpf4jnsgd1na2vs0mg"},{"bike_id":"7fb54030-81c0-4653-ab50-a6e69be8636f","system_id":"levelo_inurba_marseille","lat":43.26042,"lon":5.37474,"is_reserved":false,"is_disabled":true,"rental_uris":{"android":"levelo://app?vid=7fb54030-81c0-4653-ab50-a6e69be8636f","ios":"levelo://app?vid=7fb54030-81c0-4653-ab50-a6e69be8636f"},"vehicle_type_id":"4","last_reported":1783424215,"current_range_meters":4000,"station_id":"ce4bhgh2rcd13ifvqfa0","pricing_plan_id":"cebpf4jnsgd1na2vs0mg"},{"bike_id":"8e169c95-f463-48bf-8af2-6d0aa89128c3","system_id":"levelo_inurba_marseille","lat":43.30527,"lon":5.36544,"is_reserved":false,"is_disabled":false,"rental_uris":{"android":"levelo://app?vid=8e169c95-f463-48bf-8af2-6d0aa89128c3","ios":"levelo://app?vid=8e169c95-f463-48bf-8af2-6d0aa89128c3"},"vehicle_type_id":"4","last_reported":1783424215,"current_range_meters":4000,"station_id":"ce4bgs12rcd13ifvqcag","pricing_plan_id":"cebpf4jnsgd1na2vs0mg"},{"bike_id":"efce0065-4524-417a-a35d-e4c1a8a9f922","system_id":"levelo_inurba_marseille","lat":43.28201,"lon":5.34868,"is_reserved":false,"is_disabled":false,"rental_uris":{"android":"levelo://app?vid=efce0065-4524-417a-a35d-e4c1a8a9f922","ios":"levelo://app?vid=efce0065-4524-417a-a35d-e4c1a8a9f922"},"vehicle_type_id":"4","last_reported":1783424215,"current_range_meters":4000,"station_id":"","pricing_plan_id":"cebpf4jnsgd1na2vs0mg"},{"bike_id":"1b38264d-b828-4294-b072-9ccc46169fbe","system_id":"levelo_inurba_marseille","lat":43.31126,"lon":5.43856,"is_reserved":false,"is_disabled":false,"rental_uris":{"android":"levelo://app?vid=1b38264d-b828-4294-b072-9ccc46169fbe","ios":"levelo://app?vid=1b38264d-b828-4294-b072-9ccc46169fbe"},"vehicle_type_id":"4","last_reported":1783424215,"current_range_meters":4000,"station_id":"","pricing_plan_id":"cebpf4jnsgd1na2vs0mg"},{"bike_id":"5c27c21d-e49d-4272-89f4-b58751c04dc1","system_id":"levelo_inurba_marseille","lat":43.23429,"lon":5.38121,"is_reserved":false,"is_disabled":false,"rental_uris":{"android":"levelo://app?vid=5c27c21d-e49d-4272-89f4-b58751c04dc1","ios":"levelo://app?vid=5c27c21d-e49d-4272-89f4-b58751c04dc1"},"vehicle_type_id":"4","last_reported":1783424215,"current_range_meters":4000,"station_id":"","pricing_plan_id":"cebpf4jnsgd1na2vs0mg"},{"bike_id":"0af7f693-01d8-4139-b250-54ff27492633","system_id":"levelo_inurba_marseille","lat":43.31988,"lon":5.38157,"is_reserved":false,"is_disabled":false,"rental_uris":{"android":"levelo://app?vid=0af7f693-01d8-4139-b250-54ff27492633","ios":"levelo://app?vid=0af7f693-01d8-4139-b250-54ff27492633"},"vehicle_type_id":"4","last_reported":1783424215,"current_range_meters":4000,"station_id":"ce4bhr12rcd13ifvqhpg","pricing_plan_id":"cebpf4jnsgd1na2vs0mg"},{"bike_id":"83d9625d-b00b-4129-85ca-0b095b690b27","system_id":"levelo_inurba_marseille","lat":43.28962,"lon":5.42755,"is_reserved":false,"is_disabled":false,"rental_uris":{"android":"levelo://app?vid=83d9625d-b00b-4129-85ca-0b095b690b27","ios":"levelo://app?vid=83d9625d-b00b-4129-85ca-0b095b690b27"},"vehicle_type_id":"4","last_reported":1783424215,"current_range_meters":4000,"station_id":"","pricing_plan_id":"cebpf4jnsgd1na2vs0mg"},{"bike_id":"1003ef5d-a9f0-4a9e-81b2-dceac176a4bf","system_id":"levelo_inurba_marseille","lat":43.24389,"lon":5.37073,"is_reserved":false,"is_disabled":false,"rental_uris":{"android":"levelo://app?vid=1003ef5d-a9f0-4a9e-81b2-dceac176a4bf","ios":"levelo://app?vid=1003ef5d-a9f0-4a9e-81b2-dceac176a4bf"},"vehicle_type_id":"4","last_reported":1783424215,"current_range_meters":4000,"station_id":"ce4bhhh2rcd13ifvqfk0","pricing_plan_id":"cebpf4jnsgd1na2vs0mg"},{"bike_id":"3112c030-03e7-4ad3-a895-94002cb7d5c7","system_id":"levelo_inurba_marseille","lat":43.23959,"lon":5.36618,"is_reserved":false,"is_disabled":true,"rental_uris":{"android":"levelo://app?vid=3112c030-03e7-4ad3-a895-94002cb7d5c7","ios":"levelo://app?vid=3112c030-03e7-4ad3-a895-94002cb7d5c7"},"vehicle_type_id":"4","last_reported":1783424215,"current_range_meters":4000,"station_id":"ce4bhi12rcd13ifvqfp0","pricing_plan_id":"cebpf4jnsgd1na2vs0mg"},{"bike_id":"e2177bbe-d1e2-4068-a60b-00ea647c3457","system_id":"levelo_inurba_marseille","lat":43.23308,"lon":5.41224,"is_reserved":false,"is_disabled":false,"rental_uris":{"android":"levelo://app?vid=e2177bbe-d1e2-4068-a60b-00ea647c3457","ios":"levelo://app?vid=e2177bbe-d1e2-4068-a60b-00ea647c3457"},"vehicle_type_id":"4","last_reported":1783424215,"current_range_meters":4000,"station_id":"","pricing_plan_id":"cebpf4jnsgd1na2vs0mg"},{"bike_id":"3177f657-0de7-42df-990b-aa125d58299f","system_id":"levelo_inurba_marseille","lat":43.27497,"lon":5.416,"is_reserved":false,"is_disabled":false,"rental_uris":{"android":"levelo://app?vid=3177f657-0de7-42df-990b-aa125d58299f","ios":"levelo://app?vid=3177f657-0de7-42df-990b-aa125d58299f"},"vehicle_type_id":"4","last_reported":1783424215,"current_range_meters":4000,"station_id":"st_d6im8g6chgec73a5pndg","pricing_plan_id":"cebpf4jnsgd1na2vs0mg"},{"bike_id":"a9c01ff4-dfc1-454d-a08e-3145f94f5ebd","system_id":"levelo_inurba_marseille","lat":43.28095,"lon":5.39624,"is_reserved":false,"is_disabled":false,"rental_uris":{"android":"levelo://app?vid=a9c01ff4-dfc1-454d-a08e-3145f94f5ebd","ios":"levelo://app?vid=a9c01ff4-dfc1-454d-a08e-3145f94f5ebd"},"vehicle_type_id":"4","last_reported":1783424215,"current_range_meters":4000,"station_id":"ce4bho12rcd13ifvqh2g","pricing_plan_id":"cebpf4jnsgd1na2vs0mg"},{"bike_id":"7a71c416-c3b5-4289-ad0e-531bcb18f06d","system_id":"levelo_inurba_marseille","lat":43.32459,"lon":5.36461,"is_reserved":false,"is_disabled":false,"rental_uris":{"android":"levelo://app?vid=7a71c416-c3b5-4289-ad0e-531bcb18f06d","ios":"levelo://app?vid=7a71c416-c3b5-4289-ad0e-531bcb18f06d"},"vehicle_type_id":"4","last_reported":1783424215,"current_range_meters":4000,"station_id":"","pricing_plan_id":"cebpf4jnsgd1na2vs0mg"},{"bike_id":"87a31e5c-69d8-49ff-9ede-a7e5d1237f76","system_id":"levelo_inurba_marseille","lat":43.30442,"lon":5.38905,"is_reserved":false,"is_disabled":false,"rental_uris":{"android":"levelo://app?vid=87a31e5c-69d8-49ff-9ede-a7e5d1237f76","ios":"levelo://app?vid=87a31e5c-69d8-49ff-9ede-a7e5d1237f76"},"vehicle_type_id":"4","last_reported":1783424215,"current_range_meters":4000,"station_id":"ce4bgk12rcd13ifvqbi0","pricing_plan_id":"cebpf4jnsgd1na2vs0mg"},{"bike_id":"0ff58a81-f80e-4fd9-b7d3-014020309c44","system_id":"levelo_inurba_marseille","lat":43.31357,"lon":5.3681,"is_reserved":false,"is_disabled":false,"rental_uris":{"android":"levelo://app?vid=0ff58a81-f80e-4fd9-b7d3-014020309c44","ios":"levelo://app?vid=0ff58a81-f80e-4fd9-b7d3-014020309c44"},"vehicle_type_id":"4","last_reported":1783424215,"current_range_meters":4000,"station_id":"","pricing_plan_id":"cebpf4jnsgd1na2vs0mg"},{"bike_id":"dc35cf86-6aac-4a89-981b-39624eae6548","system_id":"levelo_inurba_marseille","lat":43.3023,"lon":5.40047,"is_reserved":false,"is_disabled":false,"rental_uris":{"android":"levelo://app?vid=dc35cf86-6aac-4a89-981b-39624eae6548","ios":"levelo://app?vid=dc35cf86-6aac-4a89-981b-39624eae6548"},"vehicle_type_id":"4","last_reported":1783424215,"current_range_meters":4000,"station_id":"ce4bgvh2rcd13ifvqcs0","pricing_plan_id":"cebpf4jnsgd1na2vs0mg"},{"bike_id":"59ec8c16-a749-45d0-89d7-44bdbc3919f9","system_id":"levelo_inurba_marseille","lat":43.25627,"lon":5.40471,"is_reserved":false,"is_disabled":false,"rental_uris":{"android":"levelo://app?vid=59ec8c16-a749-45d0-89d7-44bdbc3919f9","ios":"levelo://app?vid=59ec8c16-a749-45d0-89d7-44bdbc3919f9"},"vehicle_type_id":"4","last_reported":1783424215,"current_range_meters":4000,"station_id":"","pricing_plan_id":"cebpf4jnsgd1na2vs0mg"},{"bike_id":"a40fac1c-fdae-4a33-8735-3f7c9c669ebe","system_id":"levelo_inurba_marseille","lat":43.29706,"lon":5.38184,"is_reserved":false,"is_disabled":false,"rental_uris":{"android":"levelo://app?vid=a40fac1c-fdae-4a33-8735-3f7c9c669ebe","ios":"levelo://app?vid=a40fac1c-fdae-4a33-8735-3f7c9c669ebe"},"vehicle_type_id":"4","last_reported":1783424215,"current_range_meters":4400,"station_id":"","pricing_plan_id":"cebpf4jnsgd1na2vs0mg"},{"bike_id":"5082f3c5-8915-482d-ac51-2ec88a8b088b","system_id":"levelo_inurba_marseille","lat":43.2918,"lon":5.39334,"is_reserved":false,"is_disabled":false,"rental_uris":{"android":"levelo://app?vid=5082f3c5-8915-482d-ac51-2ec88a8b088b","ios":"levelo://app?vid=5082f3c5-8915-482d-ac51-2ec88a8b088b"},"vehicle_type_id":"4","last_reported":1783424215,"current_range_meters":4400,"station_id":"ce4bh192rcd13ifvqdd0","pricing_plan_id":"cebpf4jnsgd1na2vs0mg"},{"bike_id":"812e626a-05c0-41da-9cef-ada4028844ff","system_id":"levelo_inurba_marseille","lat":43.31329,"lon":5.36752,"is_reserved":false,"is_disabled":false,"rental_uris":{"android":"levelo://app?vid=812e626a-05c0-41da-9cef-ada4028844ff","ios":"levelo://app?vid=812e626a-05c0-41da-9cef-ada4028844ff"},"vehicle_type_id":"4","last_reported":1783424215,"current_range_meters":4400,"station_id":"ce4bgr92rcd13ifvqc6g","pricing_plan_id":"cebpf4jnsgd1na2vs0mg"},{"bike_id":"dbed68a0-d683-4130-99cc-7a5d070add5a","system_id":"levelo_inurba_marseille","lat":43.23158,"lon":5.43707,"is_reserved":false,"is_disabled":true,"rental_uris":{"android":"levelo://app?vid=dbed68a0-d683-4130-99cc-7a5d070add5a","ios":"levelo://app?vid=dbed68a0-d683-4130-99cc-7a5d070add5a"},"vehicle_type_id":"4","last_reported":1783424215,"current_range_meters":4400,"station_id":"ce4bhmp2rcd13ifvqgog","pricing_plan_id":"cebpf4jnsgd1na2vs0mg"},{"bike_id":"d0b958a4-0781-4a1e-83d0-28cb0b198006","system_id":"levelo_inurba_marseille","lat":43.29601,"lon":5.38591,"is_reserved":false,"is_disabled":false,"rental_uris":{"android":"levelo://app?vid=d0b958a4-0781-4a1e-83d0-28cb0b198006","ios":"levelo://app?vid=d0b958a4-0781-4a1e-83d0-28cb0b198006"},"vehicle_type_id":"4","last_reported":1783424215,"current_range_meters":4400,"station_id":"","pricing_plan_id":"cebpf4jnsgd1na2vs0mg"},{"bike_id":"0a589d31-153c-478d-86a0-9378c12860d7","system_id":"levelo_inurba_marseille","lat":43.31988,"lon":5.38164,"is_reserved":false,"is_disabled":false,"rental_uris":{"android":"levelo://app?vid=0a589d31-153c-478d-86a0-9378c12860d7","ios":"levelo://app?vid=0a589d31-153c-478d-86a0-9378c12860d7"},"vehicle_type_id":"4","last_reported":1783424215,"current_range_meters":4400,"station_id":"ce4bhr12rcd13ifvqhpg","pricing_plan_id":"cebpf4jnsgd1na2vs0mg"},{"bike_id":"95a39e4c-95ac-4032-860e-d3fb60474668","system_id":"levelo_inurba_marseille","lat":43.28828,"lon":5.37054,"is_reserved":false,"is_disabled":false,"rental_uris":{"android":"levelo://app?vid=95a39e4c-95ac-4032-860e-d3fb60474668","ios":"levelo://app?vid=95a39e4c-95ac-4032-860e-d3fb60474668"},"vehicle_type_id":"4","last_reported":1783424215,"current_range_meters":4400,"station_id":"","pricing_plan_id":"cebpf4jnsgd1na2vs0mg"},{"bike_id":"151318e1-1ede-4f1c-8297-71ff21b43437","system_id":"levelo_inurba_marseille","lat":43.28894,"lon":5.37776,"is_reserved":false,"is_disabled":false,"rental_uris":{"android":"levelo://app?vid=151318e1-1ede-4f1c-8297-71ff21b43437","ios":"levelo://app?vid=151318e1-1ede-4f1c-8297-71ff21b43437"},"vehicle_type_id":"4","last_reported":1783424215,"current_range_meters":4400,"station_id":"","pricing_plan_id":"cebpf4jnsgd1na2vs0mg"},{"bike_id":"1feb4c18-fbf5-4abb-af21-96c8e9d59e53","system_id":"levelo_inurba_marseille","lat":43.30162,"lon":5.38172,"is_reserved":false,"is_disabled":false,"rental_uris":{"android":"levelo://app?vid=1feb4c18-fbf5-4abb-af21-96c8e9d59e53","ios":"levelo://app?vid=1feb4c18-fbf5-4abb-af21-96c8e9d59e53"},"vehicle_type_id":"4","last_reported":1783424215,"current_range_meters":4800,"station_id":"","pricing_plan_id":"cebpf4jnsgd1na2vs0mg"},{"bike_id":"f21fd926-5813-45e9-a3de-4c08808a5877","system_id":"levelo_inurba_marseille","lat":43.21524,"lon":5.34753,"is_reserved":false,"is_disabled":false,"rental_uris":{"android":"levelo://app?vid=f21fd926-5813-45e9-a3de-4c08808a5877","ios":"levelo://app?vid=f21fd926-5813-45e9-a3de-4c08808a5877"},"vehicle_type_id":"4","last_reported":1783424215,"current_range_meters":4800,"station_id":"","pricing_plan_id":"cebpf4jnsgd1na2vs0mg"},{"bike_id":"6dba7751-9b32-49d1-8663-50c18acacf6a","system_id":"levelo_inurba_marseille","lat":43.30635,"lon":5.37581,"is_reserved":false,"is_disabled":false,"rental_uris":{"android":"levelo://app?vid=6dba7751-9b32-49d1-8663-50c18acacf6a","ios":"levelo://app?vid=6dba7751-9b32-49d1-8663-50c18acacf6a"},"vehicle_type_id":"4","last_reported":1783424215,"current_range_meters":4800,"station_id":"","pricing_plan_id":"cebpf4jnsgd1na2vs0mg"},{"bike_id":"69aa2a07-fa8e-4241-9a10-c2a605583547","system_id":"levelo_inurba_marseille","lat":43.23858,"lon":5.37134,"is_reserved":false,"is_disabled":false,"rental_uris":{"android":"levelo://app?vid=69aa2a07-fa8e-4241-9a10-c2a605583547","ios":"levelo://app?vid=69aa2a07-fa8e-4241-9a10-c2a605583547"},"vehicle_type_id":"4","last_reported":1783424215,"current_range_meters":4800,"station_id":"","pricing_plan_id":"cebpf4jnsgd1na2vs0mg"},{"bike_id":"2116fbda-aa7e-4c51-89b7-624446379050","system_id":"levelo_inurba_marseille","lat":43.2717,"lon":5.40992,"is_reserved":false,"is_disabled":false,"rental_uris":{"android":"levelo://app?vid=2116fbda-aa7e-4c51-89b7-624446379050","ios":"levelo://app?vid=2116fbda-aa7e-4c51-89b7-624446379050"},"vehicle_type_id":"4","last_reported":1783424215,"current_range_meters":4800,"station_id":"ce4bhl12rcd13ifvqgf0","pricing_plan_id":"cebpf4jnsgd1na2vs0mg"},{"bike_id":"7a11a729-3a4c-4b8e-af25-3300c6f354fe","system_id":"levelo_inurba_marseille","lat":43.32115,"lon":5.36784,"is_reserved":false,"is_disabled":false,"rental_uris":{"android":"levelo://app?vid=7a11a729-3a4c-4b8e-af25-3300c6f354fe","ios":"levelo://app?vid=7a11a729-3a4c-4b8e-af25-3300c6f354fe"},"vehicle_type_id":"4","last_reported":1783424215,"current_range_meters":4800,"station_id":"ce4bhrh2rcd13ifvqhug","pricing_plan_id":"cebpf4jnsgd1na2vs0mg"},{"bike_id":"5b0ada4d-76ff-4576-883f-11875d199ef1","system_id":"levelo_inurba_marseille","lat":43.28085,"lon":5.39658,"is_reserved":false,"is_disabled":false,"rental_uris":{"android":"levelo://app?vid=5b0ada4d-76ff-4576-883f-11875d199ef1","ios":"levelo://app?vid=5b0ada4d-76ff-4576-883f-11875d199ef1"},"vehicle_type_id":"4","last_reported":1783424215,"current_range_meters":4800,"station_id":"","pricing_plan_id":"cebpf4jnsgd1na2vs0mg"},{"bike_id":"8f9589bc-5102-48ec-bff3-0aa876684c01","system_id":"levelo_inurba_marseille","lat":43.29803,"lon":5.44078,"is_reserved":false,"is_disabled":true,"rental_uris":{"android":"levelo://app?vid=8f9589bc-5102-48ec-bff3-0aa876684c01","ios":"levelo://app?vid=8f9589bc-5102-48ec-bff3-0aa876684c01"},"vehicle_type_id":"4","last_reported":1783424215,"current_range_meters":4800,"station_id":"st_d3jp68qikq2c7381ktn0","pricing_plan_id":"cebpf4jnsgd1na2vs0mg"},{"bike_id":"6c1578a9-cf4e-4dca-8bb8-d3addb11f80a","system_id":"levelo_inurba_marseille","lat":43.25127,"lon":5.38595,"is_reserved":false,"is_disabled":false,"rental_uris":{"android":"levelo://app?vid=6c1578a9-cf4e-4dca-8bb8-d3addb11f80a","ios":"levelo://app?vid=6c1578a9-cf4e-4dca-8bb8-d3addb11f80a"},"vehicle_type_id":"4","last_reported":1783424215,"current_range_meters":4800,"station_id":"","pricing_plan_id":"cebpf4jnsgd1na2vs0mg"},{"bike_id":"5638fb1c-f264-4d71-b077-41f133782915","system_id":"levelo_inurba_marseille","lat":43.30587,"lon":5.36547,"is_reserved":false,"is_disabled":false,"rental_uris":{"android":"levelo://app?vid=5638fb1c-f264-4d71-b077-41f133782915","ios":"levelo://app?vid=5638fb1c-f264-4d71-b077-41f133782915"},"vehicle_type_id":"4","last_reported":1783424215,"current_range_meters":4800,"station_id":"ce4bgs12rcd13ifvqcag","pricing_plan_id":"cebpf4jnsgd1na2vs0mg"},{"bike_id":"bcafedd2-38c1-4439-b646-e38cd7f3d3c9","system_id":"levelo_inurba_marseille","lat":43.25524,"lon":5.40088,"is_reserved":false,"is_disabled":true,"rental_uris":{"android":"levelo://app?vid=bcafedd2-38c1-4439-b646-e38cd7f3d3c9","ios":"levelo://app?vid=bcafedd2-38c1-4439-b646-e38cd7f3d3c9"},"vehicle_type_id":"4","last_reported":1783424215,"current_range_meters":4800,"station_id":"","pricing_plan_id":"cebpf4jnsgd1na2vs0mg"},{"bike_id":"9dbc6b5d-d921-4618-b2d6-4ccd5a1ce15a","system_id":"levelo_inurba_marseille","lat":43.31113,"lon":5.38251,"is_reserved":false,"is_disabled":false,"rental_uris":{"android":"levelo://app?vid=9dbc6b5d-d921-4618-b2d6-4ccd5a1ce15a","ios":"levelo://app?vid=9dbc6b5d-d921-4618-b2d6-4ccd5a1ce15a"},"vehicle_type_id":"4","last_reported":1783424215,"current_range_meters":5600,"station_id":"","pricing_plan_id":"cebpf4jnsgd1na2vs0mg"},{"bike_id":"4461f359-e578-4853-804a-593f2289f613","system_id":"levelo_inurba_marseille","lat":43.29652,"lon":5.40117,"is_reserved":false,"is_disabled":false,"rental_uris":{"android":"levelo://app?vid=4461f359-e578-4853-804a-593f2289f613","ios":"levelo://app?vid=4461f359-e578-4853-804a-593f2289f613"},"vehicle_type_id":"4","last_reported":1783424215,"current_range_meters":5600,"station_id":"","pricing_plan_id":"cebpf4jnsgd1na2vs0mg"},{"bike_id":"401beb52-7dd5-4e26-b86e-92c4b7a914f4","system_id":"levelo_inurba_marseille","lat":43.28432,"lon":5.34995,"is_reserved":false,"is_disabled":true,"rental_uris":{"android":"levelo://app?vid=401beb52-7dd5-4e26-b86e-92c4b7a914f4","ios":"levelo://app?vid=401beb52-7dd5-4e26-b86e-92c4b7a914f4"},"vehicle_type_id":"4","last_reported":1783424215,"current_range_meters":5600,"station_id":"ce4bhbh2rcd13ifvqepg","pricing_plan_id":"cebpf4jnsgd1na2vs0mg"},{"bike_id":"c5b2a45b-13f5-4042-a70a-3f7cde4d47e6","system_id":"levelo_inurba_marseille","lat":43.29195,"lon":5.39332,"is_reserved":false,"is_disabled":false,"rental_uris":{"android":"levelo://app?vid=c5b2a45b-13f5-4042-a70a-3f7cde4d47e6","ios":"levelo://app?vid=c5b2a45b-13f5-4042-a70a-3f7cde4d47e6"},"vehicle_type_id":"4","last_reported":1783424215,"current_range_meters":5600,"station_id":"ce4bh192rcd13ifvqdd0","pricing_plan_id":"cebpf4jnsgd1na2vs0mg"},{"bike_id":"8dad15c2-11f5-48f0-b4ae-02ed32279dc9","system_id":"levelo_inurba_marseille","lat":43.30434,"lon":5.37906,"is_reserved":false,"is_disabled":false,"rental_uris":{"android":"levelo://app?vid=8dad15c2-11f5-48f0-b4ae-02ed32279dc9","ios":"levelo://app?vid=8dad15c2-11f5-48f0-b4ae-02ed32279dc9"},"vehicle_type_id":"4","last_reported":1783424215,"current_range_meters":5600,"station_id":"ce4bgup2rcd13ifvqcn0","pricing_plan_id":"cebpf4jnsgd1na2vs0mg"},{"bike_id":"9e34d128-1d34-4407-ba36-d96f6162c936","system_id":"levelo_inurba_marseille","lat":43.31262,"lon":5.40166,"is_reserved":false,"is_disabled":false,"rental_uris":{"android":"levelo://app?vid=9e34d128-1d34-4407-ba36-d96f6162c936","ios":"levelo://app?vid=9e34d128-1d34-4407-ba36-d96f6162c936"},"vehicle_type_id":"4","last_reported":1783424215,"current_range_meters":5600,"station_id":"ce4bh092rcd13ifvqd30","pricing_plan_id":"cebpf4jnsgd1na2vs0mg"},{"bike_id":"7cc14779-95e8-43ae-bbb7-38867f6be718","system_id":"levelo_inurba_marseille","lat":43.30464,"lon":5.37921,"is_reserved":false,"is_disabled":false,"rental_uris":{"android":"levelo://app?vid=7cc14779-95e8-43ae-bbb7-38867f6be718","ios":"levelo://app?vid=7cc14779-95e8-43ae-bbb7-38867f6be718"},"vehicle_type_id":"4","last_reported":1783424215,"current_range_meters":5600,"station_id":"ce4bgup2rcd13ifvqcn0","pricing_plan_id":"cebpf4jnsgd1na2vs0mg"},{"bike_id":"2549e1d3-109c-4882-94e1-f40d18d22d6e","system_id":"levelo_inurba_marseille","lat":43.33159,"lon":5.37699,"is_reserved":false,"is_disabled":false,"rental_uris":{"android":"levelo://app?vid=2549e1d3-109c-4882-94e1-f40d18d22d6e","ios":"levelo://app?vid=2549e1d3-109c-4882-94e1-f40d18d22d6e"},"vehicle_type_id":"4","last_reported":1783424215,"current_range_meters":5600,"station_id":"st_d46cu089ee8s73dldbu0","pricing_plan_id":"cebpf4jnsgd1na2vs0mg"},{"bike_id":"3ee42266-3712-4488-b386-bdbbb5e2d040","system_id":"levelo_inurba_marseille","lat":43.25083,"lon":5.39508,"is_reserved":false,"is_disabled":true,"rental_uris":{"android":"levelo://app?vid=3ee42266-3712-4488-b386-bdbbb5e2d040","ios":"levelo://app?vid=3ee42266-3712-4488-b386-bdbbb5e2d040"},"vehicle_type_id":"4","last_reported":1783424215,"current_range_meters":5600,"station_id":"ce4bhm12rcd13ifvqgkg","pricing_plan_id":"cebpf4jnsgd1na2vs0mg"},{"bike_id":"08846a08-b430-4ac3-81b5-4bdc8c051a22","system_id":"levelo_inurba_marseille","lat":43.29299,"lon":5.37179,"is_reserved":false,"is_disabled":false,"rental_uris":{"android":"levelo://app?vid=08846a08-b430-4ac3-81b5-4bdc8c051a22","ios":"levelo://app?vid=08846a08-b430-4ac3-81b5-4bdc8c051a22"},"vehicle_type_id":"4","last_reported":1783424215,"current_range_meters":5600,"station_id":"ce4bgh92rcd13ifvqb40","pricing_plan_id":"cebpf4jnsgd1na2vs0mg"},{"bike_id":"0a3ef0c6-38f0-4163-8ee6-c449e4ea2d90","system_id":"levelo_inurba_marseille","lat":43.32465,"lon":5.36603,"is_reserved":false,"is_disabled":false,"rental_uris":{"android":"levelo://app?vid=0a3ef0c6-38f0-4163-8ee6-c449e4ea2d90","ios":"levelo://app?vid=0a3ef0c6-38f0-4163-8ee6-c449e4ea2d90"},"vehicle_type_id":"4","last_reported":1783424215,"current_range_meters":5600,"station_id":"ce4bhs12rcd13ifvqhvg","pricing_plan_id":"cebpf4jnsgd1na2vs0mg"},{"bike_id":"e1db049d-c7e2-4e73-b67a-5a448fef14b4","system_id":"levelo_inurba_marseille","lat":43.29366,"lon":5.37849,"is_reserved":false,"is_disabled":false,"rental_uris":{"android":"levelo://app?vid=e1db049d-c7e2-4e73-b67a-5a448fef14b4","ios":"levelo://app?vid=e1db049d-c7e2-4e73-b67a-5a448fef14b4"},"vehicle_type_id":"4","last_reported":1783424215,"current_range_meters":5600,"station_id":"ce4bgjh2rcd13ifvqbf0","pricing_plan_id":"cebpf4jnsgd1na2vs0mg"},{"bike_id":"43463906-30d0-4691-953f-eba235a730cf","system_id":"levelo_inurba_marseille","lat":43.33558,"lon":5.37478,"is_reserved":false,"is_disabled":false,"rental_uris":{"android":"levelo://app?vid=43463906-30d0-4691-953f-eba235a730cf","ios":"levelo://app?vid=43463906-30d0-4691-953f-eba235a730cf"},"vehicle_type_id":"4","last_reported":1783424215,"current_range_meters":5600,"station_id":"st_d46tts09ee8s73dlu43g","pricing_plan_id":"cebpf4jnsgd1na2vs0mg"},{"bike_id":"b37090c6-8b19-4521-83df-d27250b81afd","system_id":"levelo_inurba_marseille","lat":43.23198,"lon":5.35548,"is_reserved":false,"is_disabled":false,"rental_uris":{"android":"levelo://app?vid=b37090c6-8b19-4521-83df-d27250b81afd","ios":"levelo://app?vid=b37090c6-8b19-4521-83df-d27250b81afd"},"vehicle_type_id":"4","last_reported":1783424215,"current_range_meters":5600,"station_id":"ce4bhu92rcd13ifvqi70","pricing_plan_id":"cebpf4jnsgd1na2vs0mg"},{"bike_id":"14458e2b-d7a9-4538-bdaa-d9a0feab9107","system_id":"levelo_inurba_marseille","lat":43.2997,"lon":5.38482,"is_reserved":false,"is_disabled":false,"rental_uris":{"android":"levelo://app?vid=14458e2b-d7a9-4538-bdaa-d9a0feab9107","ios":"levelo://app?vid=14458e2b-d7a9-4538-bdaa-d9a0feab9107"},"vehicle_type_id":"4","last_reported":1783424215,"current_range_meters":5600,"station_id":"ce4bgj92rcd13ifvqbd0","pricing_plan_id":"cebpf4jnsgd1na2vs0mg"},{"bike_id":"142ca722-67ad-43e9-9570-61af76e43330","system_id":"levelo_inurba_marseille","lat":43.31375,"lon":5.36723,"is_reserved":false,"is_disabled":false,"rental_uris":{"android":"levelo://app?vid=142ca722-67ad-43e9-9570-61af76e43330","ios":"levelo://app?vid=142ca722-67ad-43e9-9570-61af76e43330"},"vehicle_type_id":"4","last_reported":1783424215,"current_range_meters":5600,"station_id":"ce4bgr92rcd13ifvqc6g","pricing_plan_id":"cebpf4jnsgd1na2vs0mg"},{"bike_id":"ce246acd-8c78-4e93-8d68-b477575009da","system_id":"levelo_inurba_marseille","lat":43.2522,"lon":5.37771,"is_reserved":false,"is_disabled":false,"rental_uris":{"android":"levelo://app?vid=ce246acd-8c78-4e93-8d68-b477575009da","ios":"levelo://app?vid=ce246acd-8c78-4e93-8d68-b477575009da"},"vehicle_type_id":"4","last_reported":1783424215,"current_range_meters":5600,"station_id":"","pricing_plan_id":"cebpf4jnsgd1na2vs0mg"},{"bike_id":"a0108452-af6b-457d-8b2d-9a3ee3655faf","system_id":"levelo_inurba_marseille","lat":43.23189,"lon":5.35568,"is_reserved":false,"is_disabled":false,"rental_uris":{"android":"levelo://app?vid=a0108452-af6b-457d-8b2d-9a3ee3655faf","ios":"levelo://app?vid=a0108452-af6b-457d-8b2d-9a3ee3655faf"},"vehicle_type_id":"4","last_reported":1783424215,"current_range_meters":6000,"station_id":"ce4bhu92rcd13ifvqi70","pricing_plan_id":"cebpf4jnsgd1na2vs0mg"},{"bike_id":"c33bac24-7d2b-4184-8c4a-db5ab7b94a68","system_id":"levelo_inurba_marseille","lat":43.25392,"lon":5.42781,"is_reserved":false,"is_disabled":false,"rental_uris":{"android":"levelo://app?vid=c33bac24-7d2b-4184-8c4a-db5ab7b94a68","ios":"levelo://app?vid=c33bac24-7d2b-4184-8c4a-db5ab7b94a68"},"vehicle_type_id":"4","last_reported":1783424215,"current_range_meters":6000,"station_id":"","pricing_plan_id":"cebpf4jnsgd1na2vs0mg"},{"bike_id":"d09d06ec-6663-4f8c-b230-af578ef3ea45","system_id":"levelo_inurba_marseille","lat":43.28269,"lon":5.35064,"is_reserved":false,"is_disabled":false,"rental_uris":{"android":"levelo://app?vid=d09d06ec-6663-4f8c-b230-af578ef3ea45","ios":"levelo://app?vid=d09d06ec-6663-4f8c-b230-af578ef3ea45"},"vehicle_type_id":"4","last_reported":1783424215,"current_range_meters":6000,"station_id":"ce4bhbp2rcd13ifvqerg","pricing_plan_id":"cebpf4jnsgd1na2vs0mg"},{"bike_id":"2fa0e237-ba63-4b8c-8993-7270fa3aaacc","system_id":"levelo_inurba_marseille","lat":43.2991,"lon":5.36643,"is_reserved":false,"is_disabled":false,"rental_uris":{"android":"levelo://app?vid=2fa0e237-ba63-4b8c-8993-7270fa3aaacc","ios":"levelo://app?vid=2fa0e237-ba63-4b8c-8993-7270fa3aaacc"},"vehicle_type_id":"4","last_reported":1783424215,"current_range_meters":6000,"station_id":"","pricing_plan_id":"cebpf4jnsgd1na2vs0mg"},{"bike_id":"aedc01e4-6ecb-406c-a9df-318160062f2b","system_id":"levelo_inurba_marseille","lat":43.29276,"lon":5.36857,"is_reserved":false,"is_disabled":false,"rental_uris":{"android":"levelo://app?vid=aedc01e4-6ecb-406c-a9df-318160062f2b","ios":"levelo://app?vid=aedc01e4-6ecb-406c-a9df-318160062f2b"},"vehicle_type_id":"4","last_reported":1783424215,"current_range_meters":6000,"station_id":"ce4bhbp2rcd13ifvqesg","pricing_plan_id":"cebpf4jnsgd1na2vs0mg"},{"bike_id":"ec21b348-a79c-45e5-a2ca-3a10372453e7","system_id":"levelo_inurba_marseille","lat":43.31908,"lon":5.39879,"is_reserved":false,"is_disabled":false,"rental_uris":{"android":"levelo://app?vid=ec21b348-a79c-45e5-a2ca-3a10372453e7","ios":"levelo://app?vid=ec21b348-a79c-45e5-a2ca-3a10372453e7"},"vehicle_type_id":"4","last_reported":1783424215,"current_range_meters":6000,"station_id":"","pricing_plan_id":"cebpf4jnsgd1na2vs0mg"},{"bike_id":"30943e09-16fc-488e-ad38-eca01f9d1c7b","system_id":"levelo_inurba_marseille","lat":43.24818,"lon":5.37461,"is_reserved":false,"is_disabled":true,"rental_uris":{"android":"levelo://app?vid=30943e09-16fc-488e-ad38-eca01f9d1c7b","ios":"levelo://app?vid=30943e09-16fc-488e-ad38-eca01f9d1c7b"},"vehicle_type_id":"4","last_reported":1783424215,"current_range_meters":6000,"station_id":"ce4bhgh2rcd13ifvqfb0","pricing_plan_id":"cebpf4jnsgd1na2vs0mg"},{"bike_id":"7e7db7de-590b-4a1b-a86a-87265c93e888","system_id":"levelo_inurba_marseille","lat":43.31483,"lon":5.39566,"is_reserved":false,"is_disabled":false,"rental_uris":{"android":"levelo://app?vid=7e7db7de-590b-4a1b-a86a-87265c93e888","ios":"levelo://app?vid=7e7db7de-590b-4a1b-a86a-87265c93e888"},"vehicle_type_id":"4","last_reported":1783424215,"current_range_meters":6000,"station_id":"","pricing_plan_id":"cebpf4jnsgd1na2vs0mg"},{"bike_id":"ce984c70-b306-4b18-a72a-4e5e26192971","system_id":"levelo_inurba_marseille","lat":43.23685,"lon":5.36032,"is_reserved":false,"is_disabled":false,"rental_uris":{"android":"levelo://app?vid=ce984c70-b306-4b18-a72a-4e5e26192971","ios":"levelo://app?vid=ce984c70-b306-4b18-a72a-4e5e26192971"},"vehicle_type_id":"4","last_reported":1783424215,"current_range_meters":6000,"station_id":"","pricing_plan_id":"cebpf4jnsgd1na2vs0mg"},{"bike_id":"48e9f399-608e-4ef3-aef5-0ea0fdd27ad4","system_id":"levelo_inurba_marseille","lat":43.29247,"lon":5.40911,"is_reserved":false,"is_disabled":true,"rental_uris":{"android":"levelo://app?vid=48e9f399-608e-4ef3-aef5-0ea0fdd27ad4","ios":"levelo://app?vid=48e9f399-608e-4ef3-aef5-0ea0fdd27ad4"},"vehicle_type_id":"4","last_reported":1783424215,"current_range_meters":6000,"station_id":"ce4bh192rcd13ifvqdc0","pricing_plan_id":"cebpf4jnsgd1na2vs0mg"},{"bike_id":"299e017c-2e18-42bc-a1e7-ff9688dc2341","system_id":"levelo_inurba_marseille","lat":43.293382,"lon":5.371394,"is_reserved":false,"is_disabled":false,"rental_uris":{"android":"levelo://app?vid=299e017c-2e18-42bc-a1e7-ff9688dc2341","ios":"levelo://app?vid=299e017c-2e18-42bc-a1e7-ff9688dc2341"},"vehicle_type_id":"4","last_reported":1783424215,"current_range_meters":6000,"station_id":"ce4bgh92rcd13ifvqb40","pricing_plan_id":"cebpf4jnsgd1na2vs0mg"},{"bike_id":"55439c1c-5c0f-403c-a18c-9e1aad1f2d06","system_id":"levelo_inurba_marseille","lat":43.24169,"lon":5.36422,"is_reserved":false,"is_disabled":false,"rental_uris":{"android":"levelo://app?vid=55439c1c-5c0f-403c-a18c-9e1aad1f2d06","ios":"levelo://app?vid=55439c1c-5c0f-403c-a18c-9e1aad1f2d06"},"vehicle_type_id":"4","last_reported":1783424215,"current_range_meters":6400,"station_id":"cpo36qri1sfpv3e86is0","pricing_plan_id":"cebpf4jnsgd1na2vs0mg"},{"bike_id":"1f8f3e40-17a8-4f5c-8f54-b5b36153126c","system_id":"levelo_inurba_marseille","lat":43.28862,"lon":5.425181,"is_reserved":false,"is_disabled":false,"rental_uris":{"android":"levelo://app?vid=1f8f3e40-17a8-4f5c-8f54-b5b36153126c","ios":"levelo://app?vid=1f8f3e40-17a8-4f5c-8f54-b5b36153126c"},"vehicle_type_id":"4","last_reported":1783424215,"current_range_meters":6400,"station_id":"st_d3b462108ojc7389ooeg","pricing_plan_id":"cebpf4jnsgd1na2vs0mg"},{"bike_id":"c223056a-cee4-44b0-b411-9e874d6d5516","system_id":"levelo_inurba_marseille","lat":43.29466,"lon":5.39921,"is_reserved":false,"is_disabled":false,"rental_uris":{"android":"levelo://app?vid=c223056a-cee4-44b0-b411-9e874d6d5516","ios":"levelo://app?vid=c223056a-cee4-44b0-b411-9e874d6d5516"},"vehicle_type_id":"4","last_reported":1783424215,"current_range_meters":6400,"station_id":"","pricing_plan_id":"cebpf4jnsgd1na2vs0mg"},{"bike_id":"0961aae5-8acf-4e66-95a7-76ee8fdbcad6","system_id":"levelo_inurba_marseille","lat":43.29581,"lon":5.38096,"is_reserved":false,"is_disabled":true,"rental_uris":{"android":"levelo://app?vid=0961aae5-8acf-4e66-95a7-76ee8fdbcad6","ios":"levelo://app?vid=0961aae5-8acf-4e66-95a7-76ee8fdbcad6"},"vehicle_type_id":"4","last_reported":1783424215,"current_range_meters":6400,"station_id":"ce4bgl12rcd13ifvqbo0","pricing_plan_id":"cebpf4jnsgd1na2vs0mg"},{"bike_id":"cc738f32-f811-4e3f-b968-0bc0d7c9be0d","system_id":"levelo_inurba_marseille","lat":43.29261,"lon":5.40876,"is_reserved":false,"is_disabled":true,"rental_uris":{"android":"levelo://app?vid=cc738f32-f811-4e3f-b968-0bc0d7c9be0d","ios":"levelo://app?vid=cc738f32-f811-4e3f-b968-0bc0d7c9be0d"},"vehicle_type_id":"4","last_reported":1783424215,"current_range_meters":6400,"station_id":"ce4bh192rcd13ifvqdc0","pricing_plan_id":"cebpf4jnsgd1na2vs0mg"},{"bike_id":"f7809977-bda7-43e8-bb7e-4bef8b6f0f97","system_id":"levelo_inurba_marseille","lat":43.30004,"lon":5.37373,"is_reserved":false,"is_disabled":false,"rental_uris":{"android":"levelo://app?vid=f7809977-bda7-43e8-bb7e-4bef8b6f0f97","ios":"levelo://app?vid=f7809977-bda7-43e8-bb7e-4bef8b6f0f97"},"vehicle_type_id":"4","last_reported":1783424215,"current_range_meters":6400,"station_id":"","pricing_plan_id":"cebpf4jnsgd1na2vs0mg"},{"bike_id":"39d344a6-9f9e-4e03-abbf-54d88c3a78f1","system_id":"levelo_inurba_marseille","lat":43.33761,"lon":5.37463,"is_reserved":false,"is_disabled":false,"rental_uris":{"android":"levelo://app?vid=39d344a6-9f9e-4e03-abbf-54d88c3a78f1","ios":"levelo://app?vid=39d344a6-9f9e-4e03-abbf-54d88c3a78f1"},"vehicle_type_id":"4","last_reported":1783424215,"current_range_meters":6400,"station_id":"","pricing_plan_id":"cebpf4jnsgd1na2vs0mg"},{"bike_id":"b91befbb-6e17-4be1-8cb9-8bec22a584cc","system_id":"levelo_inurba_marseille","lat":43.26542,"lon":5.42239,"is_reserved":false,"is_disabled":false,"rental_uris":{"android":"levelo://app?vid=b91befbb-6e17-4be1-8cb9-8bec22a584cc","ios":"levelo://app?vid=b91befbb-6e17-4be1-8cb9-8bec22a584cc"},"vehicle_type_id":"4","last_reported":1783424215,"current_range_meters":6400,"station_id":"","pricing_plan_id":"cebpf4jnsgd1na2vs0mg"},{"bike_id":"cbffe552-c502-4467-b802-f1ec89c62402","system_id":"levelo_inurba_marseille","lat":43.28478,"lon":5.38575,"is_reserved":false,"is_disabled":false,"rental_uris":{"android":"levelo://app?vid=cbffe552-c502-4467-b802-f1ec89c62402","ios":"levelo://app?vid=cbffe552-c502-4467-b802-f1ec89c62402"},"vehicle_type_id":"4","last_reported":1783424215,"current_range_meters":6400,"station_id":"ce4bh8p2rcd13ifvqeb0","pricing_plan_id":"cebpf4jnsgd1na2vs0mg"},{"bike_id":"fe41a9f8-4643-4315-a096-9f68091db764","system_id":"levelo_inurba_marseille","lat":43.26183,"lon":5.37491,"is_reserved":false,"is_disabled":false,"rental_uris":{"android":"levelo://app?vid=fe41a9f8-4643-4315-a096-9f68091db764","ios":"levelo://app?vid=fe41a9f8-4643-4315-a096-9f68091db764"},"vehicle_type_id":"4","last_reported":1783424215,"current_range_meters":6400,"station_id":"ce4bhgp2rcd13ifvqfc0","pricing_plan_id":"cebpf4jnsgd1na2vs0mg"},{"bike_id":"0142e413-32f0-4a67-9da0-eaf8d8ac0718","system_id":"levelo_inurba_marseille","lat":43.30732,"lon":5.44569,"is_reserved":false,"is_disabled":true,"rental_uris":{"android":"levelo://app?vid=0142e413-32f0-4a67-9da0-eaf8d8ac0718","ios":"levelo://app?vid=0142e413-32f0-4a67-9da0-eaf8d8ac0718"},"vehicle_type_id":"4","last_reported":1783424215,"current_range_meters":6400,"station_id":"","pricing_plan_id":"cebpf4jnsgd1na2vs0mg"},{"bike_id":"3997527f-deb7-4b11-9138-1a11c9687d69","system_id":"levelo_inurba_marseille","lat":43.291,"lon":5.38131,"is_reserved":false,"is_disabled":false,"rental_uris":{"android":"levelo://app?vid=3997527f-deb7-4b11-9138-1a11c9687d69","ios":"levelo://app?vid=3997527f-deb7-4b11-9138-1a11c9687d69"},"vehicle_type_id":"4","last_reported":1783424215,"current_range_meters":6400,"station_id":"ce4bh512rcd13ifvqe2g","pricing_plan_id":"cebpf4jnsgd1na2vs0mg"},{"bike_id":"c1313536-cb60-40be-921b-6e8f18a14b72","system_id":"levelo_inurba_marseille","lat":43.28393,"lon":5.34979,"is_reserved":false,"is_disabled":false,"rental_uris":{"android":"levelo://app?vid=c1313536-cb60-40be-921b-6e8f18a14b72","ios":"levelo://app?vid=c1313536-cb60-40be-921b-6e8f18a14b72"},"vehicle_type_id":"4","last_reported":1783424215,"current_range_meters":6400,"station_id":"ce4bhbh2rcd13ifvqepg","pricing_plan_id":"cebpf4jnsgd1na2vs0mg"},{"bike_id":"5d86b446-fd99-4166-8a03-4ca2106a40d6","system_id":"levelo_inurba_marseille","lat":43.25087,"lon":5.40413,"is_reserved":false,"is_disabled":false,"rental_uris":{"android":"levelo://app?vid=5d86b446-fd99-4166-8a03-4ca2106a40d6","ios":"levelo://app?vid=5d86b446-fd99-4166-8a03-4ca2106a40d6"},"vehicle_type_id":"4","last_reported":1783424215,"current_range_meters":6400,"station_id":"","pricing_plan_id":"cebpf4jnsgd1na2vs0mg"},{"bike_id":"fa9610b3-3089-401d-bac1-691989c4488a","system_id":"levelo_inurba_marseille","lat":43.296823,"lon":5.372947,"is_reserved":false,"is_disabled":false,"rental_uris":{"android":"levelo://app?vid=fa9610b3-3089-401d-bac1-691989c4488a","ios":"levelo://app?vid=fa9610b3-3089-401d-bac1-691989c4488a"},"vehicle_type_id":"4","last_reported":1783424215,"current_range_meters":6800,"station_id":"ce4bgk12rcd13ifvqbj0","pricing_plan_id":"cebpf4jnsgd1na2vs0mg"},{"bike_id":"6f4fccde-d7eb-45ae-b31f-60bbbc67f714","system_id":"levelo_inurba_marseille","lat":43.29559,"lon":5.37502,"is_reserved":false,"is_disabled":true,"rental_uris":{"android":"levelo://app?vid=6f4fccde-d7eb-45ae-b31f-60bbbc67f714","ios":"levelo://app?vid=6f4fccde-d7eb-45ae-b31f-60bbbc67f714"},"vehicle_type_id":"4","last_reported":1783424215,"current_range_meters":6800,"station_id":"ce4bgh92rcd13ifvqb50","pricing_plan_id":"cebpf4jnsgd1na2vs0mg"},{"bike_id":"24dafd05-3350-4a6c-8e12-d7f8e2db1b37","system_id":"levelo_inurba_marseille","lat":43.31504,"lon":5.37282,"is_reserved":false,"is_disabled":false,"rental_uris":{"android":"levelo://app?vid=24dafd05-3350-4a6c-8e12-d7f8e2db1b37","ios":"levelo://app?vid=24dafd05-3350-4a6c-8e12-d7f8e2db1b37"},"vehicle_type_id":"4","last_reported":1783424215,"current_range_meters":6800,"station_id":"ce4bgt12rcd13ifvqcd0","pricing_plan_id":"cebpf4jnsgd1na2vs0mg"},{"bike_id":"407904b3-6280-4467-ad1a-5711acc7b00a","system_id":"levelo_inurba_marseille","lat":43.3088,"lon":5.39638,"is_reserved":false,"is_disabled":false,"rental_uris":{"android":"levelo://app?vid=407904b3-6280-4467-ad1a-5711acc7b00a","ios":"levelo://app?vid=407904b3-6280-4467-ad1a-5711acc7b00a"},"vehicle_type_id":"4","last_reported":1783424215,"current_range_meters":6800,"station_id":"ce4bh012rcd13ifvqcv0","pricing_plan_id":"cebpf4jnsgd1na2vs0mg"},{"bike_id":"f32cdf9a-576b-4b27-b9be-a25712691f8e","system_id":"levelo_inurba_marseille","lat":43.31689,"lon":5.37337,"is_reserved":false,"is_disabled":false,"rental_uris":{"android":"levelo://app?vid=f32cdf9a-576b-4b27-b9be-a25712691f8e","ios":"levelo://app?vid=f32cdf9a-576b-4b27-b9be-a25712691f8e"},"vehicle_type_id":"4","last_reported":1783424215,"current_range_meters":6800,"station_id":"","pricing_plan_id":"cebpf4jnsgd1na2vs0mg"},{"bike_id":"019acd3a-6fbc-4d83-a626-d74663c6b7da","system_id":"levelo_inurba_marseille","lat":43.26057,"lon":5.39428,"is_reserved":false,"is_disabled":false,"rental_uris":{"android":"levelo://app?vid=019acd3a-6fbc-4d83-a626-d74663c6b7da","ios":"levelo://app?vid=019acd3a-6fbc-4d83-a626-d74663c6b7da"},"vehicle_type_id":"4","last_reported":1783424215,"current_range_meters":6800,"station_id":"ce4bhh92rcd13ifvqfj0","pricing_plan_id":"cebpf4jnsgd1na2vs0mg"},{"bike_id":"a9238693-a4cb-41ad-ba8b-dd97cbaaa5b3","system_id":"levelo_inurba_marseille","lat":43.31219,"lon":5.36822,"is_reserved":false,"is_disabled":false,"rental_uris":{"android":"levelo://app?vid=a9238693-a4cb-41ad-ba8b-dd97cbaaa5b3","ios":"levelo://app?vid=a9238693-a4cb-41ad-ba8b-dd97cbaaa5b3"},"vehicle_type_id":"4","last_reported":1783424215,"current_range_meters":6800,"station_id":"ce4bgl92rcd13ifvqbq0","pricing_plan_id":"cebpf4jnsgd1na2vs0mg"},{"bike_id":"108bd70f-62e9-4002-9e5e-6bb29c3d4e15","system_id":"levelo_inurba_marseille","lat":43.24612,"lon":5.38981,"is_reserved":false,"is_disabled":false,"rental_uris":{"android":"levelo://app?vid=108bd70f-62e9-4002-9e5e-6bb29c3d4e15","ios":"levelo://app?vid=108bd70f-62e9-4002-9e5e-6bb29c3d4e15"},"vehicle_type_id":"4","last_reported":1783424215,"current_range_meters":6800,"station_id":"","pricing_plan_id":"cebpf4jnsgd1na2vs0mg"},{"bike_id":"e1291685-9088-4c4d-bc26-fe0f55959aba","system_id":"levelo_inurba_marseille","lat":43.299375,"lon":5.365631,"is_reserved":false,"is_disabled":false,"rental_uris":{"android":"levelo://app?vid=e1291685-9088-4c4d-bc26-fe0f55959aba","ios":"levelo://app?vid=e1291685-9088-4c4d-bc26-fe0f55959aba"},"vehicle_type_id":"4","last_reported":1783424215,"current_range_meters":6800,"station_id":"ce4bgm92rcd13ifvqbr0","pricing_plan_id":"cebpf4jnsgd1na2vs0mg"},{"bike_id":"d01c050c-01af-4669-9b24-ecb08a878208","system_id":"levelo_inurba_marseille","lat":43.30917,"lon":5.36846,"is_reserved":false,"is_disabled":false,"rental_uris":{"android":"levelo://app?vid=d01c050c-01af-4669-9b24-ecb08a878208","ios":"levelo://app?vid=d01c050c-01af-4669-9b24-ecb08a878208"},"vehicle_type_id":"4","last_reported":1783424215,"current_range_meters":6800,"station_id":"ce4bgn92rcd13ifvqbvg","pricing_plan_id":"cebpf4jnsgd1na2vs0mg"},{"bike_id":"c57df2e8-8347-484b-ab95-76c6c47888ee","system_id":"levelo_inurba_marseille","lat":43.28408,"lon":5.34979,"is_reserved":false,"is_disabled":false,"rental_uris":{"android":"levelo://app?vid=c57df2e8-8347-484b-ab95-76c6c47888ee","ios":"levelo://app?vid=c57df2e8-8347-484b-ab95-76c6c47888ee"},"vehicle_type_id":"4","last_reported":1783424215,"current_range_meters":6800,"station_id":"ce4bhbh2rcd13ifvqepg","pricing_plan_id":"cebpf4jnsgd1na2vs0mg"},{"bike_id":"cab93404-54da-4c0f-b059-b48a09d93cc7","system_id":"levelo_inurba_marseille","lat":43.27058,"lon":5.40264,"is_reserved":false,"is_disabled":true,"rental_uris":{"android":"levelo://app?vid=cab93404-54da-4c0f-b059-b48a09d93cc7","ios":"levelo://app?vid=cab93404-54da-4c0f-b059-b48a09d93cc7"},"vehicle_type_id":"4","last_reported":1783424215,"current_range_meters":6800,"station_id":"ce4bhk92rcd13ifvqgc0","pricing_plan_id":"cebpf4jnsgd1na2vs0mg"},{"bike_id":"57170baf-b2ef-4272-aafa-6e39478e8a2a","system_id":"levelo_inurba_marseille","lat":43.24996,"lon":5.38926,"is_reserved":false,"is_disabled":false,"rental_uris":{"android":"levelo://app?vid=57170baf-b2ef-4272-aafa-6e39478e8a2a","ios":"levelo://app?vid=57170baf-b2ef-4272-aafa-6e39478e8a2a"},"vehicle_type_id":"4","last_reported":1783424215,"current_range_meters":6800,"station_id":"ce4bhgp2rcd13ifvqfd0","pricing_plan_id":"cebpf4jnsgd1na2vs0mg"},{"bike_id":"7fd9efcd-f6e1-44e1-9ce3-35e698a6b046","system_id":"levelo_inurba_marseille","lat":43.26194,"lon":5.3745,"is_reserved":false,"is_disabled":false,"rental_uris":{"android":"levelo://app?vid=7fd9efcd-f6e1-44e1-9ce3-35e698a6b046","ios":"levelo://app?vid=7fd9efcd-f6e1-44e1-9ce3-35e698a6b046"},"vehicle_type_id":"4","last_reported":1783424215,"current_range_meters":6800,"station_id":"ce4bhgp2rcd13ifvqfc0","pricing_plan_id":"cebpf4jnsgd1na2vs0mg"},{"bike_id":"3f5a3c1b-1dd0-4f63-adc4-fee55e0c9465","system_id":"levelo_inurba_marseille","lat":43.33387,"lon":5.40702,"is_reserved":false,"is_disabled":false,"rental_uris":{"android":"levelo://app?vid=3f5a3c1b-1dd0-4f63-adc4-fee55e0c9465","ios":"levelo://app?vid=3f5a3c1b-1dd0-4f63-adc4-fee55e0c9465"},"vehicle_type_id":"4","last_reported":1783424215,"current_range_meters":6800,"station_id":"","pricing_plan_id":"cebpf4jnsgd1na2vs0mg"},{"bike_id":"fa5128ab-74d3-4aa3-a8a0-74384e2d67ba","system_id":"levelo_inurba_marseille","lat":43.24397,"lon":5.37067,"is_reserved":false,"is_disabled":false,"rental_uris":{"android":"levelo://app?vid=fa5128ab-74d3-4aa3-a8a0-74384e2d67ba","ios":"levelo://app?vid=fa5128ab-74d3-4aa3-a8a0-74384e2d67ba"},"vehicle_type_id":"4","last_reported":1783424215,"current_range_meters":6800,"station_id":"ce4bhhh2rcd13ifvqfk0","pricing_plan_id":"cebpf4jnsgd1na2vs0mg"},{"bike_id":"c43cd925-afba-40f9-b421-a22763c107c9","system_id":"levelo_inurba_marseille","lat":43.28343,"lon":5.38098,"is_reserved":false,"is_disabled":false,"rental_uris":{"android":"levelo://app?vid=c43cd925-afba-40f9-b421-a22763c107c9","ios":"levelo://app?vid=c43cd925-afba-40f9-b421-a22763c107c9"},"vehicle_type_id":"4","last_reported":1783424215,"current_range_meters":7200,"station_id":"ce4bh412rcd13ifvqdr0","pricing_plan_id":"cebpf4jnsgd1na2vs0mg"},{"bike_id":"74cfeb45-9323-40a0-ad8a-fa3bbd259c57","system_id":"levelo_inurba_marseille","lat":43.301465,"lon":5.380753,"is_reserved":false,"is_disabled":false,"rental_uris":{"android":"levelo://app?vid=74cfeb45-9323-40a0-ad8a-fa3bbd259c57","ios":"levelo://app?vid=74cfeb45-9323-40a0-ad8a-fa3bbd259c57"},"vehicle_type_id":"4","last_reported":1783424215,"current_range_meters":7200,"station_id":"ce4bgjp2rcd13ifvqbh0","pricing_plan_id":"cebpf4jnsgd1na2vs0mg"},{"bike_id":"a8bc9b95-568e-42e9-904a-dc73a068f4bc","system_id":"levelo_inurba_marseille","lat":43.29247,"lon":5.40911,"is_reserved":false,"is_disabled":true,"rental_uris":{"android":"levelo://app?vid=a8bc9b95-568e-42e9-904a-dc73a068f4bc","ios":"levelo://app?vid=a8bc9b95-568e-42e9-904a-dc73a068f4bc"},"vehicle_type_id":"4","last_reported":1783424215,"current_range_meters":7200,"station_id":"ce4bh192rcd13ifvqdc0","pricing_plan_id":"cebpf4jnsgd1na2vs0mg"},{"bike_id":"0bc726fc-7c6e-451b-996c-31afb9db2aa7","system_id":"levelo_inurba_marseille","lat":43.26496,"lon":5.39547,"is_reserved":false,"is_disabled":false,"rental_uris":{"android":"levelo://app?vid=0bc726fc-7c6e-451b-996c-31afb9db2aa7","ios":"levelo://app?vid=0bc726fc-7c6e-451b-996c-31afb9db2aa7"},"vehicle_type_id":"4","last_reported":1783424215,"current_range_meters":7200,"station_id":"ce4bhi12rcd13ifvqfq0","pricing_plan_id":"cebpf4jnsgd1na2vs0mg"},{"bike_id":"221ec150-698f-48ca-9871-424f5de01c03","system_id":"levelo_inurba_marseille","lat":43.27374,"lon":5.36259,"is_reserved":false,"is_disabled":false,"rental_uris":{"android":"levelo://app?vid=221ec150-698f-48ca-9871-424f5de01c03","ios":"levelo://app?vid=221ec150-698f-48ca-9871-424f5de01c03"},"vehicle_type_id":"4","last_reported":1783424215,"current_range_meters":7200,"station_id":"ce4bhbh2rcd13ifvqeo0","pricing_plan_id":"cebpf4jnsgd1na2vs0mg"},{"bike_id":"2c6d7156-846d-4c6b-a45c-8deca83ab881","system_id":"levelo_inurba_marseille","lat":43.31398,"lon":5.39403,"is_reserved":false,"is_disabled":false,"rental_uris":{"android":"levelo://app?vid=2c6d7156-846d-4c6b-a45c-8deca83ab881","ios":"levelo://app?vid=2c6d7156-846d-4c6b-a45c-8deca83ab881"},"vehicle_type_id":"4","last_reported":1783424215,"current_range_meters":7200,"station_id":"","pricing_plan_id":"cebpf4jnsgd1na2vs0mg"},{"bike_id":"d76c8370-7377-410d-bcc7-fdc52eaf857c","system_id":"levelo_inurba_marseille","lat":43.24633,"lon":5.43151,"is_reserved":false,"is_disabled":false,"rental_uris":{"android":"levelo://app?vid=d76c8370-7377-410d-bcc7-fdc52eaf857c","ios":"levelo://app?vid=d76c8370-7377-410d-bcc7-fdc52eaf857c"},"vehicle_type_id":"4","last_reported":1783424215,"current_range_meters":7200,"station_id":"st_d2m6c4gdas8pm72e190g","pricing_plan_id":"cebpf4jnsgd1na2vs0mg"},{"bike_id":"81794b5e-7ec2-4f91-8e91-fd6bd8a3372c","system_id":"levelo_inurba_marseille","lat":43.269,"lon":5.38889,"is_reserved":false,"is_disabled":false,"rental_uris":{"android":"levelo://app?vid=81794b5e-7ec2-4f91-8e91-fd6bd8a3372c","ios":"levelo://app?vid=81794b5e-7ec2-4f91-8e91-fd6bd8a3372c"},"vehicle_type_id":"4","last_reported":1783424215,"current_range_meters":7200,"station_id":"","pricing_plan_id":"cebpf4jnsgd1na2vs0mg"},{"bike_id":"66ad3a53-2f63-4f55-a61f-cc15913d9f59","system_id":"levelo_inurba_marseille","lat":43.30395,"lon":5.38081,"is_reserved":false,"is_disabled":false,"rental_uris":{"android":"levelo://app?vid=66ad3a53-2f63-4f55-a61f-cc15913d9f59","ios":"levelo://app?vid=66ad3a53-2f63-4f55-a61f-cc15913d9f59"},"vehicle_type_id":"4","last_reported":1783424215,"current_range_meters":7200,"station_id":"","pricing_plan_id":"cebpf4jnsgd1na2vs0mg"},{"bike_id":"608321a7-d21b-4547-97df-d889bd2a6436","system_id":"levelo_inurba_marseille","lat":43.28413,"lon":5.34962,"is_reserved":false,"is_disabled":false,"rental_uris":{"android":"levelo://app?vid=608321a7-d21b-4547-97df-d889bd2a6436","ios":"levelo://app?vid=608321a7-d21b-4547-97df-d889bd2a6436"},"vehicle_type_id":"4","last_reported":1783424215,"current_range_meters":7200,"station_id":"ce4bhbh2rcd13ifvqepg","pricing_plan_id":"cebpf4jnsgd1na2vs0mg"},{"bike_id":"2354a338-7e2f-42a9-bca5-86ecc9f16a7e","system_id":"levelo_inurba_marseille","lat":43.30149,"lon":5.38078,"is_reserved":false,"is_disabled":false,"rental_uris":{"android":"levelo://app?vid=2354a338-7e2f-42a9-bca5-86ecc9f16a7e","ios":"levelo://app?vid=2354a338-7e2f-42a9-bca5-86ecc9f16a7e"},"vehicle_type_id":"4","last_reported":1783424215,"current_range_meters":7200,"station_id":"ce4bgjp2rcd13ifvqbh0","pricing_plan_id":"cebpf4jnsgd1na2vs0mg"},{"bike_id":"5349d702-3eef-4360-8c75-b943a368bbbb","system_id":"levelo_inurba_marseille","lat":43.27545,"lon":5.36608,"is_reserved":false,"is_disabled":false,"rental_uris":{"android":"levelo://app?vid=5349d702-3eef-4360-8c75-b943a368bbbb","ios":"levelo://app?vid=5349d702-3eef-4360-8c75-b943a368bbbb"},"vehicle_type_id":"4","last_reported":1783424215,"current_range_meters":7200,"station_id":"","pricing_plan_id":"cebpf4jnsgd1na2vs0mg"},{"bike_id":"0b194c88-54f1-4092-afcf-6f6c3987f017","system_id":"levelo_inurba_marseille","lat":43.3118,"lon":5.369,"is_reserved":false,"is_disabled":false,"rental_uris":{"android":"levelo://app?vid=0b194c88-54f1-4092-afcf-6f6c3987f017","ios":"levelo://app?vid=0b194c88-54f1-4092-afcf-6f6c3987f017"},"vehicle_type_id":"4","last_reported":1783424215,"current_range_meters":7200,"station_id":"","pricing_plan_id":"cebpf4jnsgd1na2vs0mg"},{"bike_id":"3247f82b-6b0f-4798-afe4-c86511b153dd","system_id":"levelo_inurba_marseille","lat":43.32105,"lon":5.36766,"is_reserved":false,"is_disabled":false,"rental_uris":{"android":"levelo://app?vid=3247f82b-6b0f-4798-afe4-c86511b153dd","ios":"levelo://app?vid=3247f82b-6b0f-4798-afe4-c86511b153dd"},"vehicle_type_id":"4","last_reported":1783424215,"current_range_meters":7200,"station_id":"ce4bhrh2rcd13ifvqhug","pricing_plan_id":"cebpf4jnsgd1na2vs0mg"},{"bike_id":"4e21efce-ec3a-4034-95a7-46a7bef3fcd2","system_id":"levelo_inurba_marseille","lat":43.337444,"lon":5.374475,"is_reserved":false,"is_disabled":false,"rental_uris":{"android":"levelo://app?vid=4e21efce-ec3a-4034-95a7-46a7bef3fcd2","ios":"levelo://app?vid=4e21efce-ec3a-4034-95a7-46a7bef3fcd2"},"vehicle_type_id":"4","last_reported":1783424215,"current_range_meters":7200,"station_id":"","pricing_plan_id":"cebpf4jnsgd1na2vs0mg"},{"bike_id":"50235bd3-55a8-4ac0-b844-30153944fd9e","system_id":"levelo_inurba_marseille","lat":43.23151,"lon":5.43718,"is_reserved":false,"is_disabled":false,"rental_uris":{"android":"levelo://app?vid=50235bd3-55a8-4ac0-b844-30153944fd9e","ios":"levelo://app?vid=50235bd3-55a8-4ac0-b844-30153944fd9e"},"vehicle_type_id":"4","last_reported":1783424215,"current_range_meters":7200,"station_id":"ce4bhmp2rcd13ifvqgog","pricing_plan_id":"cebpf4jnsgd1na2vs0mg"},{"bike_id":"9909ee19-b4ca-42e8-9496-ca01c243939a","system_id":"levelo_inurba_marseille","lat":43.23145,"lon":5.40517,"is_reserved":false,"is_disabled":false,"rental_uris":{"android":"levelo://app?vid=9909ee19-b4ca-42e8-9496-ca01c243939a","ios":"levelo://app?vid=9909ee19-b4ca-42e8-9496-ca01c243939a"},"vehicle_type_id":"4","last_reported":1783424215,"current_range_meters":7200,"station_id":"","pricing_plan_id":"cebpf4jnsgd1na2vs0mg"},{"bike_id":"f1c9c986-5455-4d04-87d5-c59d16c88599","system_id":"levelo_inurba_marseille","lat":43.24751,"lon":5.39265,"is_reserved":false,"is_disabled":false,"rental_uris":{"android":"levelo://app?vid=f1c9c986-5455-4d04-87d5-c59d16c88599","ios":"levelo://app?vid=f1c9c986-5455-4d04-87d5-c59d16c88599"},"vehicle_type_id":"4","last_reported":1783424215,"current_range_meters":7200,"station_id":"","pricing_plan_id":"cebpf4jnsgd1na2vs0mg"},{"bike_id":"8268b130-38af-494c-be3f-0e39b8ffdd2f","system_id":"levelo_inurba_marseille","lat":43.29266,"lon":5.38447,"is_reserved":false,"is_disabled":false,"rental_uris":{"android":"levelo://app?vid=8268b130-38af-494c-be3f-0e39b8ffdd2f","ios":"levelo://app?vid=8268b130-38af-494c-be3f-0e39b8ffdd2f"},"vehicle_type_id":"4","last_reported":1783424215,"current_range_meters":7200,"station_id":"ce4bh692rcd13ifvqea0","pricing_plan_id":"cebpf4jnsgd1na2vs0mg"},{"bike_id":"529bc5b1-7d8d-4619-a01a-d34c94fb17bd","system_id":"levelo_inurba_marseille","lat":43.30546,"lon":5.36536,"is_reserved":false,"is_disabled":false,"rental_uris":{"android":"levelo://app?vid=529bc5b1-7d8d-4619-a01a-d34c94fb17bd","ios":"levelo://app?vid=529bc5b1-7d8d-4619-a01a-d34c94fb17bd"},"vehicle_type_id":"4","last_reported":1783424215,"current_range_meters":7200,"station_id":"ce4bgs12rcd13ifvqcag","pricing_plan_id":"cebpf4jnsgd1na2vs0mg"},{"bike_id":"d0208d64-9cdd-47cc-b418-2abbaf29b1fd","system_id":"levelo_inurba_marseille","lat":43.32989,"lon":5.39694,"is_reserved":false,"is_disabled":false,"rental_uris":{"android":"levelo://app?vid=d0208d64-9cdd-47cc-b418-2abbaf29b1fd","ios":"levelo://app?vid=d0208d64-9cdd-47cc-b418-2abbaf29b1fd"},"vehicle_type_id":"4","last_reported":1783424215,"current_range_meters":7200,"station_id":"","pricing_plan_id":"cebpf4jnsgd1na2vs0mg"},{"bike_id":"26807e64-e705-48d3-a4b2-a5a9802a8e7c","system_id":"levelo_inurba_marseille","lat":43.28475,"lon":5.48402,"is_reserved":false,"is_disabled":false,"rental_uris":{"android":"levelo://app?vid=26807e64-e705-48d3-a4b2-a5a9802a8e7c","ios":"levelo://app?vid=26807e64-e705-48d3-a4b2-a5a9802a8e7c"},"vehicle_type_id":"4","last_reported":1783424215,"current_range_meters":7200,"station_id":"st_d3svhcjqgbts73a3dn0g","pricing_plan_id":"cebpf4jnsgd1na2vs0mg"},{"bike_id":"5e3e40d6-9294-40ef-85b7-97206f583b7b","system_id":"levelo_inurba_marseille","lat":43.24385,"lon":5.37064,"is_reserved":false,"is_disabled":false,"rental_uris":{"android":"levelo://app?vid=5e3e40d6-9294-40ef-85b7-97206f583b7b","ios":"levelo://app?vid=5e3e40d6-9294-40ef-85b7-97206f583b7b"},"vehicle_type_id":"4","last_reported":1783424215,"current_range_meters":7200,"station_id":"ce4bhhh2rcd13ifvqfk0","pricing_plan_id":"cebpf4jnsgd1na2vs0mg"},{"bike_id":"b7841ab8-cf64-4c27-9ae1-388859f4dffe","system_id":"levelo_inurba_marseille","lat":43.2885,"lon":5.42543,"is_reserved":false,"is_disabled":false,"rental_uris":{"android":"levelo://app?vid=b7841ab8-cf64-4c27-9ae1-388859f4dffe","ios":"levelo://app?vid=b7841ab8-cf64-4c27-9ae1-388859f4dffe"},"vehicle_type_id":"4","last_reported":1783424215,"current_range_meters":8000,"station_id":"st_d3b462108ojc7389ooeg","pricing_plan_id":"cebpf4jnsgd1na2vs0mg"},{"bike_id":"77b41e3f-5c16-4e91-aacc-0bc34f6f7a05","system_id":"levelo_inurba_marseille","lat":43.31715,"lon":5.40584,"is_reserved":false,"is_disabled":false,"rental_uris":{"android":"levelo://app?vid=77b41e3f-5c16-4e91-aacc-0bc34f6f7a05","ios":"levelo://app?vid=77b41e3f-5c16-4e91-aacc-0bc34f6f7a05"},"vehicle_type_id":"4","last_reported":1783424215,"current_range_meters":8000,"station_id":"","pricing_plan_id":"cebpf4jnsgd1na2vs0mg"},{"bike_id":"8a60fd99-29f2-48fa-9eaa-21feda21be50","system_id":"levelo_inurba_marseille","lat":43.27171,"lon":5.4099,"is_reserved":false,"is_disabled":false,"rental_uris":{"android":"levelo://app?vid=8a60fd99-29f2-48fa-9eaa-21feda21be50","ios":"levelo://app?vid=8a60fd99-29f2-48fa-9eaa-21feda21be50"},"vehicle_type_id":"4","last_reported":1783424215,"current_range_meters":8000,"station_id":"ce4bhl12rcd13ifvqgf0","pricing_plan_id":"cebpf4jnsgd1na2vs0mg"},{"bike_id":"c526e977-effa-4911-a937-df5a8ad4590c","system_id":"levelo_inurba_marseille","lat":43.23786,"lon":5.3663,"is_reserved":false,"is_disabled":false,"rental_uris":{"android":"levelo://app?vid=c526e977-effa-4911-a937-df5a8ad4590c","ios":"levelo://app?vid=c526e977-effa-4911-a937-df5a8ad4590c"},"vehicle_type_id":"4","last_reported":1783424215,"current_range_meters":8000,"station_id":"st_d3nk18o9ro0c73en2l3g","pricing_plan_id":"cebpf4jnsgd1na2vs0mg"},{"bike_id":"67a2e93b-2965-44d6-8929-48a05b43d102","system_id":"levelo_inurba_marseille","lat":43.28692,"lon":5.46723,"is_reserved":false,"is_disabled":false,"rental_uris":{"android":"levelo://app?vid=67a2e93b-2965-44d6-8929-48a05b43d102","ios":"levelo://app?vid=67a2e93b-2965-44d6-8929-48a05b43d102"},"vehicle_type_id":"4","last_reported":1783424215,"current_range_meters":8000,"station_id":"st_d6tc3vkotcvc738tfjhg","pricing_plan_id":"cebpf4jnsgd1na2vs0mg"},{"bike_id":"f656c73b-66f0-4628-958e-49d4903923bd","system_id":"levelo_inurba_marseille","lat":43.31826,"lon":5.36827,"is_reserved":false,"is_disabled":false,"rental_uris":{"android":"levelo://app?vid=f656c73b-66f0-4628-958e-49d4903923bd","ios":"levelo://app?vid=f656c73b-66f0-4628-958e-49d4903923bd"},"vehicle_type_id":"4","last_reported":1783424215,"current_range_meters":8000,"station_id":"st_d6o2h0d0559c73evc1b0","pricing_plan_id":"cebpf4jnsgd1na2vs0mg"},{"bike_id":"21969074-1fb3-488c-9873-38abdcacbdf0","system_id":"levelo_inurba_marseille","lat":43.28695,"lon":5.46691,"is_reserved":false,"is_disabled":false,"rental_uris":{"android":"levelo://app?vid=21969074-1fb3-488c-9873-38abdcacbdf0","ios":"levelo://app?vid=21969074-1fb3-488c-9873-38abdcacbdf0"},"vehicle_type_id":"4","last_reported":1783424215,"current_range_meters":8000,"station_id":"st_d6tc3vkotcvc738tfjhg","pricing_plan_id":"cebpf4jnsgd1na2vs0mg"},{"bike_id":"a2d180cc-5623-43b1-a97b-c7e627f1d45e","system_id":"levelo_inurba_marseille","lat":43.2833,"lon":5.38444,"is_reserved":false,"is_disabled":false,"rental_uris":{"android":"levelo://app?vid=a2d180cc-5623-43b1-a97b-c7e627f1d45e","ios":"levelo://app?vid=a2d180cc-5623-43b1-a97b-c7e627f1d45e"},"vehicle_type_id":"4","last_reported":1783424215,"current_range_meters":8000,"station_id":"","pricing_plan_id":"cebpf4jnsgd1na2vs0mg"},{"bike_id":"2016481f-9158-496a-8d25-1444518c18ed","system_id":"levelo_inurba_marseille","lat":43.26559,"lon":5.39011,"is_reserved":false,"is_disabled":false,"rental_uris":{"android":"levelo://app?vid=2016481f-9158-496a-8d25-1444518c18ed","ios":"levelo://app?vid=2016481f-9158-496a-8d25-1444518c18ed"},"vehicle_type_id":"4","last_reported":1783424215,"current_range_meters":8000,"station_id":"ce4bhe12rcd13ifvqf30","pricing_plan_id":"cebpf4jnsgd1na2vs0mg"},{"bike_id":"ecadc7bf-823d-4875-abd9-39273010d63f","system_id":"levelo_inurba_marseille","lat":43.30543,"lon":5.36555,"is_reserved":false,"is_disabled":false,"rental_uris":{"android":"levelo://app?vid=ecadc7bf-823d-4875-abd9-39273010d63f","ios":"levelo://app?vid=ecadc7bf-823d-4875-abd9-39273010d63f"},"vehicle_type_id":"4","last_reported":1783424215,"current_range_meters":8000,"station_id":"ce4bgs12rcd13ifvqcag","pricing_plan_id":"cebpf4jnsgd1na2vs0mg"},{"bike_id":"81d96b17-bcd7-4d18-ade9-c8e65af26f25","system_id":"levelo_inurba_marseille","lat":43.35114,"lon":5.36864,"is_reserved":false,"is_disabled":false,"rental_uris":{"android":"levelo://app?vid=81d96b17-bcd7-4d18-ade9-c8e65af26f25","ios":"levelo://app?vid=81d96b17-bcd7-4d18-ade9-c8e65af26f25"},"vehicle_type_id":"4","last_reported":1783424215,"current_range_meters":8000,"station_id":"","pricing_plan_id":"cebpf4jnsgd1na2vs0mg"},{"bike_id":"842d1814-2335-4a6a-958d-aa2b889abfa0","system_id":"levelo_inurba_marseille","lat":43.28442,"lon":5.35189,"is_reserved":false,"is_disabled":false,"rental_uris":{"android":"levelo://app?vid=842d1814-2335-4a6a-958d-aa2b889abfa0","ios":"levelo://app?vid=842d1814-2335-4a6a-958d-aa2b889abfa0"},"vehicle_type_id":"4","last_reported":1783424215,"current_range_meters":8000,"station_id":"","pricing_plan_id":"cebpf4jnsgd1na2vs0mg"},{"bike_id":"7beb3ef3-4f17-4d71-88ef-73dbdae0aa62","system_id":"levelo_inurba_marseille","lat":43.240776,"lon":5.377559,"is_reserved":false,"is_disabled":false,"rental_uris":{"android":"levelo://app?vid=7beb3ef3-4f17-4d71-88ef-73dbdae0aa62","ios":"levelo://app?vid=7beb3ef3-4f17-4d71-88ef-73dbdae0aa62"},"vehicle_type_id":"4","last_reported":1783424215,"current_range_meters":8400,"station_id":"ce4bhnp2rcd13ifvqgvg","pricing_plan_id":"cebpf4jnsgd1na2vs0mg"},{"bike_id":"4dc80e3e-7401-422e-a86b-b12725c914de","system_id":"levelo_inurba_marseille","lat":43.31244,"lon":5.36841,"is_reserved":false,"is_disabled":false,"rental_uris":{"android":"levelo://app?vid=4dc80e3e-7401-422e-a86b-b12725c914de","ios":"levelo://app?vid=4dc80e3e-7401-422e-a86b-b12725c914de"},"vehicle_type_id":"4","last_reported":1783424215,"current_range_meters":8400,"station_id":"ce4bgl92rcd13ifvqbq0","pricing_plan_id":"cebpf4jnsgd1na2vs0mg"},{"bike_id":"e4a2d089-fcbb-4b37-af7a-0e49f934baa8","system_id":"levelo_inurba_marseille","lat":43.23791,"lon":5.36632,"is_reserved":false,"is_disabled":false,"rental_uris":{"android":"levelo://app?vid=e4a2d089-fcbb-4b37-af7a-0e49f934baa8","ios":"levelo://app?vid=e4a2d089-fcbb-4b37-af7a-0e49f934baa8"},"vehicle_type_id":"4","last_reported":1783424215,"current_range_meters":8400,"station_id":"st_d3nk18o9ro0c73en2l3g","pricing_plan_id":"cebpf4jnsgd1na2vs0mg"},{"bike_id":"0b5e0ec2-f5ad-416e-9a30-63d6c0b4b58a","system_id":"levelo_inurba_marseille","lat":43.29617,"lon":5.37147,"is_reserved":false,"is_disabled":false,"rental_uris":{"android":"levelo://app?vid=0b5e0ec2-f5ad-416e-9a30-63d6c0b4b58a","ios":"levelo://app?vid=0b5e0ec2-f5ad-416e-9a30-63d6c0b4b58a"},"vehicle_type_id":"4","last_reported":1783424215,"current_range_meters":8400,"station_id":"","pricing_plan_id":"cebpf4jnsgd1na2vs0mg"},{"bike_id":"36ac71f0-8ab5-42f4-b955-03285432c1fc","system_id":"levelo_inurba_marseille","lat":43.32605,"lon":5.3665,"is_reserved":false,"is_disabled":false,"rental_uris":{"android":"levelo://app?vid=36ac71f0-8ab5-42f4-b955-03285432c1fc","ios":"levelo://app?vid=36ac71f0-8ab5-42f4-b955-03285432c1fc"},"vehicle_type_id":"4","last_reported":1783424215,"current_range_meters":8400,"station_id":"","pricing_plan_id":"cebpf4jnsgd1na2vs0mg"},{"bike_id":"8dd35461-9e62-483a-b06c-d9f25cfa8a30","system_id":"levelo_inurba_marseille","lat":43.24074,"lon":5.3778,"is_reserved":false,"is_disabled":false,"rental_uris":{"android":"levelo://app?vid=8dd35461-9e62-483a-b06c-d9f25cfa8a30","ios":"levelo://app?vid=8dd35461-9e62-483a-b06c-d9f25cfa8a30"},"vehicle_type_id":"4","last_reported":1783424215,"current_range_meters":8400,"station_id":"ce4bhnp2rcd13ifvqgvg","pricing_plan_id":"cebpf4jnsgd1na2vs0mg"},{"bike_id":"b6879253-f1ac-4d6d-9740-19b6fcdcbe7a","system_id":"levelo_inurba_marseille","lat":43.32941,"lon":5.39026,"is_reserved":false,"is_disabled":false,"rental_uris":{"android":"levelo://app?vid=b6879253-f1ac-4d6d-9740-19b6fcdcbe7a","ios":"levelo://app?vid=b6879253-f1ac-4d6d-9740-19b6fcdcbe7a"},"vehicle_type_id":"4","last_reported":1783424215,"current_range_meters":8400,"station_id":"","pricing_plan_id":"cebpf4jnsgd1na2vs0mg"},{"bike_id":"e46c5852-2b83-432c-9089-a1a12e85d39c","system_id":"levelo_inurba_marseille","lat":43.31883,"lon":5.42902,"is_reserved":false,"is_disabled":false,"rental_uris":{"android":"levelo://app?vid=e46c5852-2b83-432c-9089-a1a12e85d39c","ios":"levelo://app?vid=e46c5852-2b83-432c-9089-a1a12e85d39c"},"vehicle_type_id":"4","last_reported":1783424215,"current_range_meters":8400,"station_id":"","pricing_plan_id":"cebpf4jnsgd1na2vs0mg"},{"bike_id":"ff4bba37-8ee4-4d91-8ad0-6f5bf2535057","system_id":"levelo_inurba_marseille","lat":43.28247,"lon":5.3903,"is_reserved":false,"is_disabled":true,"rental_uris":{"android":"levelo://app?vid=ff4bba37-8ee4-4d91-8ad0-6f5bf2535057","ios":"levelo://app?vid=ff4bba37-8ee4-4d91-8ad0-6f5bf2535057"},"vehicle_type_id":"4","last_reported":1783424215,"current_range_meters":8400,"station_id":"","pricing_plan_id":"cebpf4jnsgd1na2vs0mg"},{"bike_id":"d93f320f-de47-4dc7-a96f-d2b5a1c85600","system_id":"levelo_inurba_marseille","lat":43.26703,"lon":5.3826,"is_reserved":false,"is_disabled":false,"rental_uris":{"android":"levelo://app?vid=d93f320f-de47-4dc7-a96f-d2b5a1c85600","ios":"levelo://app?vid=d93f320f-de47-4dc7-a96f-d2b5a1c85600"},"vehicle_type_id":"4","last_reported":1783424215,"current_range_meters":8400,"station_id":"ce4bhg92rcd13ifvqf90","pricing_plan_id":"cebpf4jnsgd1na2vs0mg"},{"bike_id":"ba6ee79b-8db5-4c55-ac7a-ce7ef7fe1b07","system_id":"levelo_inurba_marseille","lat":43.29826,"lon":5.37742,"is_reserved":false,"is_disabled":false,"rental_uris":{"android":"levelo://app?vid=ba6ee79b-8db5-4c55-ac7a-ce7ef7fe1b07","ios":"levelo://app?vid=ba6ee79b-8db5-4c55-ac7a-ce7ef7fe1b07"},"vehicle_type_id":"4","last_reported":1783424215,"current_range_meters":8400,"station_id":"","pricing_plan_id":"cebpf4jnsgd1na2vs0mg"},{"bike_id":"c5428954-6a8c-434b-b478-2c2d81e3d859","system_id":"levelo_inurba_marseille","lat":43.29273,"lon":5.40893,"is_reserved":false,"is_disabled":true,"rental_uris":{"android":"levelo://app?vid=c5428954-6a8c-434b-b478-2c2d81e3d859","ios":"levelo://app?vid=c5428954-6a8c-434b-b478-2c2d81e3d859"},"vehicle_type_id":"4","last_reported":1783424215,"current_range_meters":8400,"station_id":"ce4bh192rcd13ifvqdc0","pricing_plan_id":"cebpf4jnsgd1na2vs0mg"},{"bike_id":"8302d9a6-ce5a-4b83-8fdb-dfd9baed0a89","system_id":"levelo_inurba_marseille","lat":43.29523,"lon":5.37466,"is_reserved":false,"is_disabled":false,"rental_uris":{"android":"levelo://app?vid=8302d9a6-ce5a-4b83-8fdb-dfd9baed0a89","ios":"levelo://app?vid=8302d9a6-ce5a-4b83-8fdb-dfd9baed0a89"},"vehicle_type_id":"4","last_reported":1783424215,"current_range_meters":8400,"station_id":"ce4bgkp2rcd13ifvqbmg","pricing_plan_id":"cebpf4jnsgd1na2vs0mg"},{"bike_id":"1cb4246d-f93e-4693-827c-649782a12af8","system_id":"levelo_inurba_marseille","lat":43.24052,"lon":5.37781,"is_reserved":false,"is_disabled":false,"rental_uris":{"android":"levelo://app?vid=1cb4246d-f93e-4693-827c-649782a12af8","ios":"levelo://app?vid=1cb4246d-f93e-4693-827c-649782a12af8"},"vehicle_type_id":"4","last_reported":1783424215,"current_range_meters":8400,"station_id":"ce4bhnp2rcd13ifvqgvg","pricing_plan_id":"cebpf4jnsgd1na2vs0mg"},{"bike_id":"e712692a-c6bc-471e-9c68-4baf1b7b1203","system_id":"levelo_inurba_marseille","lat":43.23365,"lon":5.41217,"is_reserved":false,"is_disabled":false,"rental_uris":{"android":"levelo://app?vid=e712692a-c6bc-471e-9c68-4baf1b7b1203","ios":"levelo://app?vid=e712692a-c6bc-471e-9c68-4baf1b7b1203"},"vehicle_type_id":"4","last_reported":1783424215,"current_range_meters":8400,"station_id":"st_d75pvndhf9lc73cqq3eg","pricing_plan_id":"cebpf4jnsgd1na2vs0mg"},{"bike_id":"8feab343-aadc-43ad-bb24-73d5b419b2d0","system_id":"levelo_inurba_marseille","lat":43.24479,"lon":5.39697,"is_reserved":false,"is_disabled":false,"rental_uris":{"android":"levelo://app?vid=8feab343-aadc-43ad-bb24-73d5b419b2d0","ios":"levelo://app?vid=8feab343-aadc-43ad-bb24-73d5b419b2d0"},"vehicle_type_id":"4","last_reported":1783424215,"current_range_meters":8400,"station_id":"","pricing_plan_id":"cebpf4jnsgd1na2vs0mg"},{"bike_id":"d66fed1f-3b09-49c9-a9ba-8e7e79e89561","system_id":"levelo_inurba_marseille","lat":43.29192,"lon":5.39344,"is_reserved":false,"is_disabled":false,"rental_uris":{"android":"levelo://app?vid=d66fed1f-3b09-49c9-a9ba-8e7e79e89561","ios":"levelo://app?vid=d66fed1f-3b09-49c9-a9ba-8e7e79e89561"},"vehicle_type_id":"4","last_reported":1783424215,"current_range_meters":8400,"station_id":"ce4bh192rcd13ifvqdd0","pricing_plan_id":"cebpf4jnsgd1na2vs0mg"},{"bike_id":"f2e0d1c9-ce7a-44b0-b599-61773509016b","system_id":"levelo_inurba_marseille","lat":43.30151,"lon":5.38088,"is_reserved":false,"is_disabled":false,"rental_uris":{"android":"levelo://app?vid=f2e0d1c9-ce7a-44b0-b599-61773509016b","ios":"levelo://app?vid=f2e0d1c9-ce7a-44b0-b599-61773509016b"},"vehicle_type_id":"4","last_reported":1783424215,"current_range_meters":8400,"station_id":"ce4bgjp2rcd13ifvqbh0","pricing_plan_id":"cebpf4jnsgd1na2vs0mg"},{"bike_id":"252d1181-7cba-4203-a6a7-936ef78e828d","system_id":"levelo_inurba_marseille","lat":43.25139,"lon":5.38569,"is_reserved":false,"is_disabled":false,"rental_uris":{"android":"levelo://app?vid=252d1181-7cba-4203-a6a7-936ef78e828d","ios":"levelo://app?vid=252d1181-7cba-4203-a6a7-936ef78e828d"},"vehicle_type_id":"4","last_reported":1783424215,"current_range_meters":8400,"station_id":"","pricing_plan_id":"cebpf4jnsgd1na2vs0mg"},{"bike_id":"6ece98e6-5614-401c-8121-062daed19056","system_id":"levelo_inurba_marseille","lat":43.291995,"lon":5.393204,"is_reserved":false,"is_disabled":false,"rental_uris":{"android":"levelo://app?vid=6ece98e6-5614-401c-8121-062daed19056","ios":"levelo://app?vid=6ece98e6-5614-401c-8121-062daed19056"},"vehicle_type_id":"4","last_reported":1783424215,"current_range_meters":8400,"station_id":"ce4bh192rcd13ifvqdd0","pricing_plan_id":"cebpf4jnsgd1na2vs0mg"},{"bike_id":"6968e0c3-c5b3-4dbf-a14d-97be3bff89ab","system_id":"levelo_inurba_marseille","lat":43.29937,"lon":5.3653,"is_reserved":false,"is_disabled":false,"rental_uris":{"android":"levelo://app?vid=6968e0c3-c5b3-4dbf-a14d-97be3bff89ab","ios":"levelo://app?vid=6968e0c3-c5b3-4dbf-a14d-97be3bff89ab"},"vehicle_type_id":"4","last_reported":1783424215,"current_range_meters":8400,"station_id":"ce4bgm92rcd13ifvqbr0","pricing_plan_id":"cebpf4jnsgd1na2vs0mg"},{"bike_id":"88e8b0e2-3394-467c-80ea-7be30d7b20ec","system_id":"levelo_inurba_marseille","lat":43.24065,"lon":5.37763,"is_reserved":false,"is_disabled":false,"rental_uris":{"android":"levelo://app?vid=88e8b0e2-3394-467c-80ea-7be30d7b20ec","ios":"levelo://app?vid=88e8b0e2-3394-467c-80ea-7be30d7b20ec"},"vehicle_type_id":"4","last_reported":1783424215,"current_range_meters":8400,"station_id":"ce4bhnp2rcd13ifvqgvg","pricing_plan_id":"cebpf4jnsgd1na2vs0mg"},{"bike_id":"67bcbc55-6f99-4c8b-a46b-c948bbfaac7f","system_id":"levelo_inurba_marseille","lat":43.28847,"lon":5.393037,"is_reserved":false,"is_disabled":false,"rental_uris":{"android":"levelo://app?vid=67bcbc55-6f99-4c8b-a46b-c948bbfaac7f","ios":"levelo://app?vid=67bcbc55-6f99-4c8b-a46b-c948bbfaac7f"},"vehicle_type_id":"4","last_reported":1783424215,"current_range_meters":8400,"station_id":"ce4bh2p2rcd13ifvqdi0","pricing_plan_id":"cebpf4jnsgd1na2vs0mg"},{"bike_id":"9becea1e-16f4-40a1-8de2-01572efae89f","system_id":"levelo_inurba_marseille","lat":43.30543,"lon":5.36545,"is_reserved":false,"is_disabled":true,"rental_uris":{"android":"levelo://app?vid=9becea1e-16f4-40a1-8de2-01572efae89f","ios":"levelo://app?vid=9becea1e-16f4-40a1-8de2-01572efae89f"},"vehicle_type_id":"4","last_reported":1783424215,"current_range_meters":8400,"station_id":"ce4bgs12rcd13ifvqcag","pricing_plan_id":"cebpf4jnsgd1na2vs0mg"},{"bike_id":"447b7f3a-5e82-4f1a-8b4e-a6f928e7b7a3","system_id":"levelo_inurba_marseille","lat":43.23154,"lon":5.4373,"is_reserved":false,"is_disabled":false,"rental_uris":{"android":"levelo://app?vid=447b7f3a-5e82-4f1a-8b4e-a6f928e7b7a3","ios":"levelo://app?vid=447b7f3a-5e82-4f1a-8b4e-a6f928e7b7a3"},"vehicle_type_id":"4","last_reported":1783424215,"current_range_meters":8400,"station_id":"ce4bhmp2rcd13ifvqgog","pricing_plan_id":"cebpf4jnsgd1na2vs0mg"},{"bike_id":"29bf15ed-cb5f-495d-9a7b-afd83bf34a21","system_id":"levelo_inurba_marseille","lat":43.23111,"lon":5.41313,"is_reserved":false,"is_disabled":false,"rental_uris":{"android":"levelo://app?vid=29bf15ed-cb5f-495d-9a7b-afd83bf34a21","ios":"levelo://app?vid=29bf15ed-cb5f-495d-9a7b-afd83bf34a21"},"vehicle_type_id":"4","last_reported":1783424215,"current_range_meters":8400,"station_id":"","pricing_plan_id":"cebpf4jnsgd1na2vs0mg"},{"bike_id":"908b998f-00b2-4acc-870f-2e099b43d756","system_id":"levelo_inurba_marseille","lat":43.26237,"lon":5.39738,"is_reserved":false,"is_disabled":false,"rental_uris":{"android":"levelo://app?vid=908b998f-00b2-4acc-870f-2e099b43d756","ios":"levelo://app?vid=908b998f-00b2-4acc-870f-2e099b43d756"},"vehicle_type_id":"4","last_reported":1783424215,"current_range_meters":8400,"station_id":"","pricing_plan_id":"cebpf4jnsgd1na2vs0mg"},{"bike_id":"e30c8b72-5b29-47cd-89a6-54ab1e7652a9","system_id":"levelo_inurba_marseille","lat":43.30467,"lon":5.37937,"is_reserved":false,"is_disabled":false,"rental_uris":{"android":"levelo://app?vid=e30c8b72-5b29-47cd-89a6-54ab1e7652a9","ios":"levelo://app?vid=e30c8b72-5b29-47cd-89a6-54ab1e7652a9"},"vehicle_type_id":"4","last_reported":1783424215,"current_range_meters":8400,"station_id":"ce4bgup2rcd13ifvqcn0","pricing_plan_id":"cebpf4jnsgd1na2vs0mg"},{"bike_id":"f0418703-7a27-4dca-9433-bdd8213135dc","system_id":"levelo_inurba_marseille","lat":43.21185,"lon":5.35071,"is_reserved":false,"is_disabled":false,"rental_uris":{"android":"levelo://app?vid=f0418703-7a27-4dca-9433-bdd8213135dc","ios":"levelo://app?vid=f0418703-7a27-4dca-9433-bdd8213135dc"},"vehicle_type_id":"4","last_reported":1783424215,"current_range_meters":8800,"station_id":"st_cvj6sg6p6f1abm77japg","pricing_plan_id":"cebpf4jnsgd1na2vs0mg"},{"bike_id":"4c9944a6-aaf7-45ae-8e87-2b334fcb025e","system_id":"levelo_inurba_marseille","lat":43.26683,"lon":5.38277,"is_reserved":false,"is_disabled":false,"rental_uris":{"android":"levelo://app?vid=4c9944a6-aaf7-45ae-8e87-2b334fcb025e","ios":"levelo://app?vid=4c9944a6-aaf7-45ae-8e87-2b334fcb025e"},"vehicle_type_id":"4","last_reported":1783424215,"current_range_meters":8800,"station_id":"ce4bhg92rcd13ifvqf90","pricing_plan_id":"cebpf4jnsgd1na2vs0mg"},{"bike_id":"7155bfde-ce60-489f-98f0-b99791326710","system_id":"levelo_inurba_marseille","lat":43.27956,"lon":5.41065,"is_reserved":false,"is_disabled":false,"rental_uris":{"android":"levelo://app?vid=7155bfde-ce60-489f-98f0-b99791326710","ios":"levelo://app?vid=7155bfde-ce60-489f-98f0-b99791326710"},"vehicle_type_id":"4","last_reported":1783424215,"current_range_meters":8800,"station_id":"ce4bhnp2rcd13ifvqh0g","pricing_plan_id":"cebpf4jnsgd1na2vs0mg"},{"bike_id":"34858486-0402-4039-b576-76403f9310bd","system_id":"levelo_inurba_marseille","lat":43.30489,"lon":5.37966,"is_reserved":false,"is_disabled":false,"rental_uris":{"android":"levelo://app?vid=34858486-0402-4039-b576-76403f9310bd","ios":"levelo://app?vid=34858486-0402-4039-b576-76403f9310bd"},"vehicle_type_id":"4","last_reported":1783424215,"current_range_meters":8800,"station_id":"","pricing_plan_id":"cebpf4jnsgd1na2vs0mg"},{"bike_id":"32a584d6-86ff-4c98-8427-803d2a0f8f9e","system_id":"levelo_inurba_marseille","lat":43.2353,"lon":5.36027,"is_reserved":false,"is_disabled":false,"rental_uris":{"android":"levelo://app?vid=32a584d6-86ff-4c98-8427-803d2a0f8f9e","ios":"levelo://app?vid=32a584d6-86ff-4c98-8427-803d2a0f8f9e"},"vehicle_type_id":"4","last_reported":1783424215,"current_range_meters":8800,"station_id":"","pricing_plan_id":"cebpf4jnsgd1na2vs0mg"},{"bike_id":"17b83c15-a7c0-4c3f-925a-da4393c25d1c","system_id":"levelo_inurba_marseille","lat":43.321,"lon":5.36772,"is_reserved":false,"is_disabled":false,"rental_uris":{"android":"levelo://app?vid=17b83c15-a7c0-4c3f-925a-da4393c25d1c","ios":"levelo://app?vid=17b83c15-a7c0-4c3f-925a-da4393c25d1c"},"vehicle_type_id":"4","last_reported":1783424215,"current_range_meters":8800,"station_id":"ce4bhrh2rcd13ifvqhug","pricing_plan_id":"cebpf4jnsgd1na2vs0mg"},{"bike_id":"65867055-bc77-4ee2-873b-394472118251","system_id":"levelo_inurba_marseille","lat":43.23536,"lon":5.36026,"is_reserved":false,"is_disabled":false,"rental_uris":{"android":"levelo://app?vid=65867055-bc77-4ee2-873b-394472118251","ios":"levelo://app?vid=65867055-bc77-4ee2-873b-394472118251"},"vehicle_type_id":"4","last_reported":1783424215,"current_range_meters":8800,"station_id":"","pricing_plan_id":"cebpf4jnsgd1na2vs0mg"},{"bike_id":"8ec4c20e-c279-4cec-9541-00f648c4d06f","system_id":"levelo_inurba_marseille","lat":43.32096,"lon":5.36776,"is_reserved":false,"is_disabled":false,"rental_uris":{"android":"levelo://app?vid=8ec4c20e-c279-4cec-9541-00f648c4d06f","ios":"levelo://app?vid=8ec4c20e-c279-4cec-9541-00f648c4d06f"},"vehicle_type_id":"4","last_reported":1783424215,"current_range_meters":8800,"station_id":"ce4bhrh2rcd13ifvqhug","pricing_plan_id":"cebpf4jnsgd1na2vs0mg"},{"bike_id":"ddca8688-0e1e-4edf-aa81-1c389c567fb7","system_id":"levelo_inurba_marseille","lat":43.32107,"lon":5.3678,"is_reserved":false,"is_disabled":false,"rental_uris":{"android":"levelo://app?vid=ddca8688-0e1e-4edf-aa81-1c389c567fb7","ios":"levelo://app?vid=ddca8688-0e1e-4edf-aa81-1c389c567fb7"},"vehicle_type_id":"4","last_reported":1783424215,"current_range_meters":8800,"station_id":"ce4bhrh2rcd13ifvqhug","pricing_plan_id":"cebpf4jnsgd1na2vs0mg"},{"bike_id":"934dfb9c-4fc1-4b3e-8e0c-b30bf9b88f7f","system_id":"levelo_inurba_marseille","lat":43.26627,"lon":5.41966,"is_reserved":false,"is_disabled":false,"rental_uris":{"android":"levelo://app?vid=934dfb9c-4fc1-4b3e-8e0c-b30bf9b88f7f","ios":"levelo://app?vid=934dfb9c-4fc1-4b3e-8e0c-b30bf9b88f7f"},"vehicle_type_id":"4","last_reported":1783424215,"current_range_meters":8800,"station_id":"","pricing_plan_id":"cebpf4jnsgd1na2vs0mg"},{"bike_id":"ad34d44b-469b-4e90-b677-7106980b3284","system_id":"levelo_inurba_marseille","lat":43.2925,"lon":5.37616,"is_reserved":false,"is_disabled":false,"rental_uris":{"android":"levelo://app?vid=ad34d44b-469b-4e90-b677-7106980b3284","ios":"levelo://app?vid=ad34d44b-469b-4e90-b677-7106980b3284"},"vehicle_type_id":"4","last_reported":1783424215,"current_range_meters":8800,"station_id":"ce4bgi12rcd13ifvqb80","pricing_plan_id":"cebpf4jnsgd1na2vs0mg"},{"bike_id":"64951def-ef17-4b15-8f10-380bdd8345ff","system_id":"levelo_inurba_marseille","lat":43.28462,"lon":5.35891,"is_reserved":false,"is_disabled":false,"rental_uris":{"android":"levelo://app?vid=64951def-ef17-4b15-8f10-380bdd8345ff","ios":"levelo://app?vid=64951def-ef17-4b15-8f10-380bdd8345ff"},"vehicle_type_id":"4","last_reported":1783424215,"current_range_meters":8800,"station_id":"ce4bhah2rcd13ifvqei0","pricing_plan_id":"cebpf4jnsgd1na2vs0mg"},{"bike_id":"59539554-abb2-4855-97b2-f874f00c65fa","system_id":"levelo_inurba_marseille","lat":43.31849,"lon":5.38344,"is_reserved":false,"is_disabled":false,"rental_uris":{"android":"levelo://app?vid=59539554-abb2-4855-97b2-f874f00c65fa","ios":"levelo://app?vid=59539554-abb2-4855-97b2-f874f00c65fa"},"vehicle_type_id":"4","last_reported":1783424215,"current_range_meters":8800,"station_id":"","pricing_plan_id":"cebpf4jnsgd1na2vs0mg"},{"bike_id":"9fa8befa-b3fc-42e0-a54d-a23dac7e2cec","system_id":"levelo_inurba_marseille","lat":43.30552,"lon":5.36713,"is_reserved":false,"is_disabled":false,"rental_uris":{"android":"levelo://app?vid=9fa8befa-b3fc-42e0-a54d-a23dac7e2cec","ios":"levelo://app?vid=9fa8befa-b3fc-42e0-a54d-a23dac7e2cec"},"vehicle_type_id":"4","last_reported":1783424215,"current_range_meters":8800,"station_id":"ce4bgrp2rcd13ifvqc9g","pricing_plan_id":"cebpf4jnsgd1na2vs0mg"},{"bike_id":"62731766-b9dc-4f2c-9ed8-f008f73b62de","system_id":"levelo_inurba_marseille","lat":43.26733,"lon":5.39799,"is_reserved":false,"is_disabled":true,"rental_uris":{"android":"levelo://app?vid=62731766-b9dc-4f2c-9ed8-f008f73b62de","ios":"levelo://app?vid=62731766-b9dc-4f2c-9ed8-f008f73b62de"},"vehicle_type_id":"4","last_reported":1783424215,"current_range_meters":8800,"station_id":"","pricing_plan_id":"cebpf4jnsgd1na2vs0mg"},{"bike_id":"7f1469a0-1e2d-436a-82be-135ac60ddf87","system_id":"levelo_inurba_marseille","lat":43.22809,"lon":5.34956,"is_reserved":false,"is_disabled":false,"rental_uris":{"android":"levelo://app?vid=7f1469a0-1e2d-436a-82be-135ac60ddf87","ios":"levelo://app?vid=7f1469a0-1e2d-436a-82be-135ac60ddf87"},"vehicle_type_id":"4","last_reported":1783424215,"current_range_meters":8800,"station_id":"","pricing_plan_id":"cebpf4jnsgd1na2vs0mg"},{"bike_id":"6e99b13c-10ae-4bdd-ab40-fcc3328ed9a3","system_id":"levelo_inurba_marseille","lat":43.26678,"lon":5.38272,"is_reserved":false,"is_disabled":false,"rental_uris":{"android":"levelo://app?vid=6e99b13c-10ae-4bdd-ab40-fcc3328ed9a3","ios":"levelo://app?vid=6e99b13c-10ae-4bdd-ab40-fcc3328ed9a3"},"vehicle_type_id":"4","last_reported":1783424215,"current_range_meters":8800,"station_id":"ce4bhg92rcd13ifvqf90","pricing_plan_id":"cebpf4jnsgd1na2vs0mg"},{"bike_id":"358d34e0-2031-4d64-b36c-46e50bc67032","system_id":"levelo_inurba_marseille","lat":43.30411,"lon":5.38767,"is_reserved":false,"is_disabled":false,"rental_uris":{"android":"levelo://app?vid=358d34e0-2031-4d64-b36c-46e50bc67032","ios":"levelo://app?vid=358d34e0-2031-4d64-b36c-46e50bc67032"},"vehicle_type_id":"4","last_reported":1783424215,"current_range_meters":8800,"station_id":"","pricing_plan_id":"cebpf4jnsgd1na2vs0mg"},{"bike_id":"fad7c241-9105-4dba-a227-fa37614edb1e","system_id":"levelo_inurba_marseille","lat":43.28932,"lon":5.38405,"is_reserved":false,"is_disabled":false,"rental_uris":{"android":"levelo://app?vid=fad7c241-9105-4dba-a227-fa37614edb1e","ios":"levelo://app?vid=fad7c241-9105-4dba-a227-fa37614edb1e"},"vehicle_type_id":"4","last_reported":1783424215,"current_range_meters":8800,"station_id":"ce4bh612rcd13ifvqe6g","pricing_plan_id":"cebpf4jnsgd1na2vs0mg"},{"bike_id":"3a99ff56-78d0-470e-82a6-8cbd5cd799f6","system_id":"levelo_inurba_marseille","lat":43.28572,"lon":5.39515,"is_reserved":false,"is_disabled":false,"rental_uris":{"android":"levelo://app?vid=3a99ff56-78d0-470e-82a6-8cbd5cd799f6","ios":"levelo://app?vid=3a99ff56-78d0-470e-82a6-8cbd5cd799f6"},"vehicle_type_id":"4","last_reported":1783424215,"current_range_meters":8800,"station_id":"ce4bh292rcd13ifvqdg0","pricing_plan_id":"cebpf4jnsgd1na2vs0mg"},{"bike_id":"eee55a43-b6ee-4c74-8c62-53587545e5d5","system_id":"levelo_inurba_marseille","lat":43.31518,"lon":5.38035,"is_reserved":false,"is_disabled":false,"rental_uris":{"android":"levelo://app?vid=eee55a43-b6ee-4c74-8c62-53587545e5d5","ios":"levelo://app?vid=eee55a43-b6ee-4c74-8c62-53587545e5d5"},"vehicle_type_id":"4","last_reported":1783424215,"current_range_meters":9200,"station_id":"ce4bhsp2rcd13ifvqi50","pricing_plan_id":"cebpf4jnsgd1na2vs0mg"},{"bike_id":"d3392b34-7faa-4fb7-9230-b97216d7fd27","system_id":"levelo_inurba_marseille","lat":43.31357,"lon":5.385,"is_reserved":false,"is_disabled":false,"rental_uris":{"android":"levelo://app?vid=d3392b34-7faa-4fb7-9230-b97216d7fd27","ios":"levelo://app?vid=d3392b34-7faa-4fb7-9230-b97216d7fd27"},"vehicle_type_id":"4","last_reported":1783424215,"current_range_meters":9200,"station_id":"ce4bgt92rcd13ifvqcf0","pricing_plan_id":"cebpf4jnsgd1na2vs0mg"},{"bike_id":"9371abd5-679a-4772-8beb-bdd702a387b2","system_id":"levelo_inurba_marseille","lat":43.29515,"lon":5.38138,"is_reserved":false,"is_disabled":false,"rental_uris":{"android":"levelo://app?vid=9371abd5-679a-4772-8beb-bdd702a387b2","ios":"levelo://app?vid=9371abd5-679a-4772-8beb-bdd702a387b2"},"vehicle_type_id":"4","last_reported":1783424215,"current_range_meters":9200,"station_id":"","pricing_plan_id":"cebpf4jnsgd1na2vs0mg"},{"bike_id":"d428cd76-a315-4752-916d-f19733390218","system_id":"levelo_inurba_marseille","lat":43.30177,"lon":5.40221,"is_reserved":false,"is_disabled":false,"rental_uris":{"android":"levelo://app?vid=d428cd76-a315-4752-916d-f19733390218","ios":"levelo://app?vid=d428cd76-a315-4752-916d-f19733390218"},"vehicle_type_id":"4","last_reported":1783424215,"current_range_meters":9200,"station_id":"","pricing_plan_id":"cebpf4jnsgd1na2vs0mg"},{"bike_id":"806b70bd-fc29-47b1-86d4-bd20ec15b7ac","system_id":"levelo_inurba_marseille","lat":43.27386,"lon":5.42455,"is_reserved":false,"is_disabled":false,"rental_uris":{"android":"levelo://app?vid=806b70bd-fc29-47b1-86d4-bd20ec15b7ac","ios":"levelo://app?vid=806b70bd-fc29-47b1-86d4-bd20ec15b7ac"},"vehicle_type_id":"4","last_reported":1783424215,"current_range_meters":9200,"station_id":"","pricing_plan_id":"cebpf4jnsgd1na2vs0mg"},{"bike_id":"65871c73-f04e-4546-851a-8aaee0876ca9","system_id":"levelo_inurba_marseille","lat":43.29618,"lon":5.37175,"is_reserved":false,"is_disabled":false,"rental_uris":{"android":"levelo://app?vid=65871c73-f04e-4546-851a-8aaee0876ca9","ios":"levelo://app?vid=65871c73-f04e-4546-851a-8aaee0876ca9"},"vehicle_type_id":"4","last_reported":1783424215,"current_range_meters":9200,"station_id":"","pricing_plan_id":"cebpf4jnsgd1na2vs0mg"},{"bike_id":"081f8295-86ff-40ed-b93d-b1cea19ac9d2","system_id":"levelo_inurba_marseille","lat":43.29532,"lon":5.3855,"is_reserved":false,"is_disabled":false,"rental_uris":{"android":"levelo://app?vid=081f8295-86ff-40ed-b93d-b1cea19ac9d2","ios":"levelo://app?vid=081f8295-86ff-40ed-b93d-b1cea19ac9d2"},"vehicle_type_id":"4","last_reported":1783424215,"current_range_meters":9200,"station_id":"ce4bgih2rcd13ifvqba0","pricing_plan_id":"cebpf4jnsgd1na2vs0mg"},{"bike_id":"e1a244c3-d2b6-40a2-a79e-0eb67aace49b","system_id":"levelo_inurba_marseille","lat":43.2637,"lon":5.41074,"is_reserved":false,"is_disabled":false,"rental_uris":{"android":"levelo://app?vid=e1a244c3-d2b6-40a2-a79e-0eb67aace49b","ios":"levelo://app?vid=e1a244c3-d2b6-40a2-a79e-0eb67aace49b"},"vehicle_type_id":"4","last_reported":1783424215,"current_range_meters":9200,"station_id":"st_d4e5ca6na9uc73bfl5fg","pricing_plan_id":"cebpf4jnsgd1na2vs0mg"},{"bike_id":"7ec46cec-4060-471b-8fbe-01d8be488277","system_id":"levelo_inurba_marseille","lat":43.3017,"lon":5.37195,"is_reserved":false,"is_disabled":false,"rental_uris":{"android":"levelo://app?vid=7ec46cec-4060-471b-8fbe-01d8be488277","ios":"levelo://app?vid=7ec46cec-4060-471b-8fbe-01d8be488277"},