{"last_updated":1714921593,"ttl":30,"version":"2.2","data":{"bikes":[{"bike_id":"a28fb4f2-3e28-4e42-a7ca-7e7d7dd0ee10","system_id":"levelo_inurba_marseille","lat":43.312239,"lon":5.368562,"is_reserved":false,"is_disabled":false,"rental_uris":{"android":"levelo://app?vid=a28fb4f2-3e28-4e42-a7ca-7e7d7dd0ee10","ios":"levelo://app?vid=a28fb4f2-3e28-4e42-a7ca-7e7d7dd0ee10"},"vehicle_type_id":"4","last_reported":1714921593,"current_range_meters":13600,"station_id":"ce4bgl92rcd13ifvqbq0","pricing_plan_id":"cebpf4jnsgd1na2vs0mg"},{"bike_id":"8cb293cf-867b-478c-b1f8-df00360934de","system_id":"levelo_inurba_marseille","lat":43.312239,"lon":5.368562,"is_reserved":false,"is_disabled":false,"rental_uris":{"android":"levelo://app?vid=8cb293cf-867b-478c-b1f8-df00360934de","ios":"levelo://app?vid=8cb293cf-867b-478c-b1f8-df00360934de"},"vehicle_type_id":"4","last_reported":1714921593,"current_range_meters":5200,"station_id":"ce4bgl92rcd13ifvqbq0","pricing_plan_id":"cebpf4jnsgd1na2vs0mg"},{"bike_id":"83238e40-aed0-4c3c-840e-0d53f6ce86ef","system_id":"levelo_inurba_marseille","lat":43.312239,"lon":5.368562,"is_reserved":false,"is_disabled":false,"rental_uris":{"android":"levelo://app?vid=83238e40-aed0-4c3c-840e-0d53f6ce86ef","ios":"levelo://app?vid=83238e40-aed0-4c3c-840e-0d53f6ce86ef"},"vehicle_type_id":"4","last_reported":1714921593,"current_range_meters":31600,"station_id":"ce4bgl92rcd13ifvqbq0","pricing_plan_id":"cebpf4jnsgd1na2vs0mg"},{"bike_id":"98fb75b6-2ab3-4e66-b67c-cd7ab183cb32","system_id":"levelo_inurba_marseille","lat":43.312239,"lon":5.368562,"is_reserved":false,"is_disabled":false,"rental_uris":{"android":"levelo://app?vid=98fb75b6-2ab3-4e66-b67c-cd7ab183cb32","ios":"levelo://app?vid=98fb75b6-2ab3-4e66-b67c-cd7ab183cb32"},"vehicle_type_id":"4","last_reported":1714921593,"current_range_meters":2800,"station_id":"ce4bgl92rcd13ifvqbq0","pricing_plan_id":"cebpf4jnsgd1na2vs0mg"},{"bike_id":"2fe977eb-5e3b-40e8-947e-1608123d4140","system_id":"levelo_inurba_marseille","lat":43.31231,"lon":5.36864,"is_reserved":false,"is_disabled":false,"rental_uris":{"android":"levelo://app?vid=2fe977eb-5e3b-40e8-947e-1608123d4140","ios":"levelo://app?vid=2fe977eb-5e3b-40e8-947e-1608123d4140"},"vehicle_type_id":"4","last_reported":1714921593,"current_range_meters":5600,"station_id":"ce4bgl92rcd13ifvqbq0","pricing_plan_id":"cebpf4jnsgd1na2vs0mg"},{"bike_id":"0ec48161-6bfe-458e-bf81-49b3c1bff76b","system_id":"levelo_inurba_marseille","lat":43.312239,"lon":5.368562,"is_reserved":false,"is_disabled":false,"rental_uris":{"android":"levelo://app?vid=0ec48161-6bfe-458e-bf81-49b3c1bff76b","ios":"levelo://app?vid=0ec48161-6bfe-458e-bf81-49b3c1bff76b"},"vehicle_type_id":"4","last_reported":1714921593,"current_range_meters":14400,"station_id":"ce4bgl92rcd13ifvqbq0","pricing_plan_id":"cebpf4jnsgd1na2vs0mg"},{"bike_id":"aa59d07c-d1ff-4555-88d3-e56d013796b0","system_id":"levelo_inurba_marseille","lat":43.309039,"lon":5.371797,"is_reserved":false,"is_disabled":false,"rental_uris":{"android":"levelo://app?vid=aa59d07c-d1ff-4555-88d3-e56d013796b0","ios":"levelo://app?vid=aa59d07c-d1ff-4555-88d3-e56d013796b0"},"vehicle_type_id":"4","last_reported":1714921593,"current_range_meters":8000,"station_id":"ce4bguh2rcd13ifvqckg","pricing_plan_id":"cebpf4jnsgd1na2vs0mg"},{"bike_id":"b9a07058-5369-428c-b758-7a23bf0a0902","system_id":"levelo_inurba_marseille","lat":43.309039,"lon":5.371797,"is_reserved":false,"is_disabled":false,"rental_uris":{"android":"levelo://app?vid=b9a07058-5369-428c-b758-7a23bf0a0902","ios":"levelo://app?vid=b9a07058-5369-428c-b758-7a23bf0a0902"},"vehicle_type_id":"4","last_reported":1714921593,"current_range_meters":24000,"station_id":"ce4bguh2rcd13ifvqckg","pricing_plan_id":"cebpf4jnsgd1na2vs0mg"},{"bike_id":"fe5c45c6-0d59-4203-beb4-965e23ec8909","system_id":"levelo_inurba_marseille","lat":43.305714,"lon":5.365633,"is_reserved":false,"is_disabled":false,"rental_uris":{"android":"levelo://app?vid=fe5c45c6-0d59-4203-beb4-965e23ec8909","ios":"levelo://app?vid=fe5c45c6-0d59-4203-beb4-965e23ec8909"},"vehicle_type_id":"4","last_reported":1714921593,"current_range_meters":0,"station_id":"ce4bgs12rcd13ifvqcag","pricing_plan_id":"cebpf4jnsgd1na2vs0mg"},{"bike_id":"098ca026-98f8-4ec7-973e-5c9f2d0abd15","system_id":"levelo_inurba_marseille","lat":43.32014,"lon":5.36552,"is_reserved":false,"is_disabled":false,"rental_uris":{"android":"levelo://app?vid=098ca026-98f8-4ec7-973e-5c9f2d0abd15","ios":"levelo://app?vid=098ca026-98f8-4ec7-973e-5c9f2d0abd15"},"vehicle_type_id":"4","last_reported":1714921593,"current_range_meters":15200,"station_id":"","pricing_plan_id":"cebpf4jnsgd1na2vs0mg"},{"bike_id":"95e497f0-cbf6-441d-a9e0-ae1fe8420ff5","system_id":"levelo_inurba_marseille","lat":43.305714,"lon":5.365633,"is_reserved":false,"is_disabled":false,"rental_uris":{"android":"levelo://app?vid=95e497f0-cbf6-441d-a9e0-ae1fe8420ff5","ios":"levelo://app?vid=95e497f0-cbf6-441d-a9e0-ae1fe8420ff5"},"vehicle_type_id":"4","last_reported":1714921593,"current_range_meters":17600,"station_id":"ce4bgs12rcd13ifvqcag","pricing_plan_id":"cebpf4jnsgd1na2vs0mg"},{"bike_id":"9d763daf-65ac-4130-b658-637466957d59","system_id":"levelo_inurba_marseille","lat":43.305989,"lon":5.37225,"is_reserved":false,"is_disabled":false,"rental_uris":{"android":"levelo://app?vid=9d763daf-65ac-4130-b658-637466957d59","ios":"levelo://app?vid=9d763daf-65ac-4130-b658-637466957d59"},"vehicle_type_id":"4","last_reported":1714921593,"current_range_meters":7200,"station_id":"ce4bgqh2rcd13ifvqc4g","pricing_plan_id":"cebpf4jnsgd1na2vs0mg"},{"bike_id":"b91b8cec-748d-4c1f-aebf-bf583e6c24fa","system_id":"levelo_inurba_marseille","lat":43.305989,"lon":5.37225,"is_reserved":false,"is_disabled":false,"rental_uris":{"android":"levelo://app?vid=b91b8cec-748d-4c1f-aebf-bf583e6c24fa","ios":"levelo://app?vid=b91b8cec-748d-4c1f-aebf-bf583e6c24fa"},"vehicle_type_id":"4","last_reported":1714921593,"current_range_meters":17600,"station_id":"ce4bgqh2rcd13ifvqc4g","pricing_plan_id":"cebpf4jnsgd1na2vs0mg"},{"bike_id":"3eaea4c3-ba02-498c-881a-243e0bce646b","system_id":"levelo_inurba_marseille","lat":43.305989,"lon":5.37225,"is_reserved":false,"is_disabled":false,"rental_uris":{"android":"levelo://app?vid=3eaea4c3-ba02-498c-881a-243e0bce646b","ios":"levelo://app?vid=3eaea4c3-ba02-498c-881a-243e0bce646b"},"vehicle_type_id":"4","last_reported":1714921593,"current_range_meters":13200,"station_id":"ce4bgqh2rcd13ifvqc4g","pricing_plan_id":"cebpf4jnsgd1na2vs0mg"},{"bike_id":"6eafa27b-3410-408a-9f4f-f5ba39f006ae","system_id":"levelo_inurba_marseille","lat":43.311125,"lon":5.377624,"is_reserved":false,"is_disabled":false,"rental_uris":{"android":"levelo://app?vid=6eafa27b-3410-408a-9f4f-f5ba39f006ae","ios":"levelo://app?vid=6eafa27b-3410-408a-9f4f-f5ba39f006ae"},"vehicle_type_id":"4","last_reported":1714921593,"current_range_meters":0,"station_id":"ce4bgt92rcd13ifvqcg0","pricing_plan_id":"cebpf4jnsgd1na2vs0mg"},{"bike_id":"fc078434-a606-4513-9cfb-c5df4158f05f","system_id":"levelo_inurba_marseille","lat":43.317075,"lon":5.377367,"is_reserved":false,"is_disabled":false,"rental_uris":{"android":"levelo://app?vid=fc078434-a606-4513-9cfb-c5df4158f05f","ios":"levelo://app?vid=fc078434-a606-4513-9cfb-c5df4158f05f"},"vehicle_type_id":"4","last_reported":1714921593,"current_range_meters":16000,"station_id":"ce4bgth2rcd13ifvqch0","pricing_plan_id":"cebpf4jnsgd1na2vs0mg"},{"bike_id":"99e868c0-7b59-439b-b0f5-d685b850c670","system_id":"levelo_inurba_marseille","lat":43.30498,"lon":5.37358,"is_reserved":false,"is_disabled":false,"rental_uris":{"android":"levelo://app?vid=99e868c0-7b59-439b-b0f5-d685b850c670","ios":"levelo://app?vid=99e868c0-7b59-439b-b0f5-d685b850c670"},"vehicle_type_id":"4","last_reported":1714921593,"current_range_meters":25600,"station_id":"","pricing_plan_id":"cebpf4jnsgd1na2vs0mg"},{"bike_id":"c3c0c803-d135-4e0f-a88c-91cfb2e2eb6f","system_id":"levelo_inurba_marseille","lat":43.31921,"lon":5.37613,"is_reserved":false,"is_disabled":false,"rental_uris":{"android":"levelo://app?vid=c3c0c803-d135-4e0f-a88c-91cfb2e2eb6f","ios":"levelo://app?vid=c3c0c803-d135-4e0f-a88c-91cfb2e2eb6f"},"vehicle_type_id":"4","last_reported":1714921593,"current_range_meters":0,"station_id":"","pricing_plan_id":"cebpf4jnsgd1na2vs0mg"},{"bike_id":"4ab5672d-b6a8-4cf0-8451-386f2f7f2b6a","system_id":"levelo_inurba_marseille","lat":43.312484,"lon":5.379724,"is_reserved":false,"is_disabled":false,"rental_uris":{"android":"levelo://app?vid=4ab5672d-b6a8-4cf0-8451-386f2f7f2b6a","ios":"levelo://app?vid=4ab5672d-b6a8-4cf0-8451-386f2f7f2b6a"},"vehicle_type_id":"4","last_reported":1714921593,"current_range_meters":3200,"station_id":"","pricing_plan_id":"cebpf4jnsgd1na2vs0mg"},{"bike_id":"8889d630-2e26-4fd7-ac00-bdf9a09a6d4e","system_id":"levelo_inurba_marseille","lat":43.3031,"lon":5.36905,"is_reserved":false,"is_disabled":false,"rental_uris":{"android":"levelo://app?vid=8889d630-2e26-4fd7-ac00-bdf9a09a6d4e","ios":"levelo://app?vid=8889d630-2e26-4fd7-ac00-bdf9a09a6d4e"},"vehicle_type_id":"4","last_reported":1714921593,"current_range_meters":0,"station_id":"ce4bgqh2rcd13ifvqc5g","pricing_plan_id":"cebpf4jnsgd1na2vs0mg"},{"bike_id":"44e0af09-f38a-4924-8adb-29b7e0e35ff4","system_id":"levelo_inurba_marseille","lat":43.30304,"lon":5.368987,"is_reserved":false,"is_disabled":false,"rental_uris":{"android":"levelo://app?vid=44e0af09-f38a-4924-8adb-29b7e0e35ff4","ios":"levelo://app?vid=44e0af09-f38a-4924-8adb-29b7e0e35ff4"},"vehicle_type_id":"4","last_reported":1714921593,"current_range_meters":18400,"station_id":"ce4bgqh2rcd13ifvqc5g","pricing_plan_id":"cebpf4jnsgd1na2vs0mg"},{"bike_id":"67edf009-292f-4f42-939e-35120a28c907","system_id":"levelo_inurba_marseille","lat":43.299222,"lon":5.365554,"is_reserved":false,"is_disabled":false,"rental_uris":{"android":"levelo://app?vid=67edf009-292f-4f42-939e-35120a28c907","ios":"levelo://app?vid=67edf009-292f-4f42-939e-35120a28c907"},"vehicle_type_id":"4","last_reported":1714921593,"current_range_meters":11600,"station_id":"ce4bgm92rcd13ifvqbr0","pricing_plan_id":"cebpf4jnsgd1na2vs0mg"},{"bike_id":"7107454f-a8ed-4403-85e5-63e8f2005d00","system_id":"levelo_inurba_marseille","lat":43.324771,"lon":5.36557,"is_reserved":false,"is_disabled":false,"rental_uris":{"android":"levelo://app?vid=7107454f-a8ed-4403-85e5-63e8f2005d00","ios":"levelo://app?vid=7107454f-a8ed-4403-85e5-63e8f2005d00"},"vehicle_type_id":"4","last_reported":1714921593,"current_range_meters":19200,"station_id":"ce4bhs12rcd13ifvqhvg","pricing_plan_id":"cebpf4jnsgd1na2vs0mg"},{"bike_id":"8909905b-9e5a-4374-b2f5-fb360420b558","system_id":"levelo_inurba_marseille","lat":43.324771,"lon":5.36557,"is_reserved":false,"is_disabled":false,"rental_uris":{"android":"levelo://app?vid=8909905b-9e5a-4374-b2f5-fb360420b558","ios":"levelo://app?vid=8909905b-9e5a-4374-b2f5-fb360420b558"},"vehicle_type_id":"4","last_reported":1714921593,"current_range_meters":9600,"station_id":"ce4bhs12rcd13ifvqhvg","pricing_plan_id":"cebpf4jnsgd1na2vs0mg"},{"bike_id":"1b36ce78-22de-4bc1-8332-0b964fdec04e","system_id":"levelo_inurba_marseille","lat":43.324771,"lon":5.36557,"is_reserved":false,"is_disabled":false,"rental_uris":{"android":"levelo://app?vid=1b36ce78-22de-4bc1-8332-0b964fdec04e","ios":"levelo://app?vid=1b36ce78-22de-4bc1-8332-0b964fdec04e"},"vehicle_type_id":"4","last_reported":1714921593,"current_range_meters":18400,"station_id":"ce4bhs12rcd13ifvqhvg","pricing_plan_id":"cebpf4jnsgd1na2vs0mg"},{"bike_id":"2bbfc07e-d9ea-490e-bdcf-45a7767ee9c0","system_id":"levelo_inurba_marseille","lat":43.310804,"lon":5.38359,"is_reserved":false,"is_disabled":false,"rental_uris":{"android":"levelo://app?vid=2bbfc07e-d9ea-490e-bdcf-45a7767ee9c0","ios":"levelo://app?vid=2bbfc07e-d9ea-490e-bdcf-45a7767ee9c0"},"vehicle_type_id":"4","last_reported":1714921593,"current_range_meters":5200,"station_id":"ce4bgv92rcd13ifvqcr0","pricing_plan_id":"cebpf4jnsgd1na2vs0mg"},{"bike_id":"37d50f13-f787-4d12-bd3f-cb75565af00d","system_id":"levelo_inurba_marseille","lat":43.30143,"lon":5.37413,"is_reserved":false,"is_disabled":false,"rental_uris":{"android":"levelo://app?vid=37d50f13-f787-4d12-bd3f-cb75565af00d","ios":"levelo://app?vid=37d50f13-f787-4d12-bd3f-cb75565af00d"},"vehicle_type_id":"4","last_reported":1714921593,"current_range_meters":8400,"station_id":"ce4bgs92rcd13ifvqcc0","pricing_plan_id":"cebpf4jnsgd1na2vs0mg"},{"bike_id":"d518c8f5-82d3-4190-be6b-08c32c6e4085","system_id":"levelo_inurba_marseille","lat":43.301429,"lon":5.37413,"is_reserved":false,"is_disabled":false,"rental_uris":{"android":"levelo://app?vid=d518c8f5-82d3-4190-be6b-08c32c6e4085","ios":"levelo://app?vid=d518c8f5-82d3-4190-be6b-08c32c6e4085"},"vehicle_type_id":"4","last_reported":1714921593,"current_range_meters":15200,"station_id":"ce4bgs92rcd13ifvqcc0","pricing_plan_id":"cebpf4jnsgd1na2vs0mg"},{"bike_id":"fc2f57a5-8e44-4650-883c-5a7c060cac6a","system_id":"levelo_inurba_marseille","lat":43.313571,"lon":5.384829,"is_reserved":false,"is_disabled":false,"rental_uris":{"android":"levelo://app?vid=fc2f57a5-8e44-4650-883c-5a7c060cac6a","ios":"levelo://app?vid=fc2f57a5-8e44-4650-883c-5a7c060cac6a"},"vehicle_type_id":"4","last_reported":1714921593,"current_range_meters":0,"station_id":"ce4bgt92rcd13ifvqcf0","pricing_plan_id":"cebpf4jnsgd1na2vs0mg"},{"bike_id":"5ce726a1-045b-4ca4-95be-7904246af8c0","system_id":"levelo_inurba_marseille","lat":43.299222,"lon":5.365554,"is_reserved":false,"is_disabled":false,"rental_uris":{"android":"levelo://app?vid=5ce726a1-045b-4ca4-95be-7904246af8c0","ios":"levelo://app?vid=5ce726a1-045b-4ca4-95be-7904246af8c0"},"vehicle_type_id":"4","last_reported":1714921593,"current_range_meters":0,"station_id":"ce4bgm92rcd13ifvqbr0","pricing_plan_id":"cebpf4jnsgd1na2vs0mg"},{"bike_id":"1b12b9dc-10bb-48fa-971a-96580f8af409","system_id":"levelo_inurba_marseille","lat":43.299222,"lon":5.365554,"is_reserved":false,"is_disabled":false,"rental_uris":{"android":"levelo://app?vid=1b12b9dc-10bb-48fa-971a-96580f8af409","ios":"levelo://app?vid=1b12b9dc-10bb-48fa-971a-96580f8af409"},"vehicle_type_id":"4","last_reported":1714921593,"current_range_meters":0,"station_id":"ce4bgm92rcd13ifvqbr0","pricing_plan_id":"cebpf4jnsgd1na2vs0mg"},{"bike_id":"2a1eb9b9-f715-4f3d-8cca-094f5d3fd5b4","system_id":"levelo_inurba_marseille","lat":43.299222,"lon":5.365554,"is_reserved":false,"is_disabled":false,"rental_uris":{"android":"levelo://app?vid=2a1eb9b9-f715-4f3d-8cca-094f5d3fd5b4","ios":"levelo://app?vid=2a1eb9b9-f715-4f3d-8cca-094f5d3fd5b4"},"vehicle_type_id":"4","last_reported":1714921593,"current_range_meters":6400,"station_id":"ce4bgm92rcd13ifvqbr0","pricing_plan_id":"cebpf4jnsgd1na2vs0mg"},{"bike_id":"8be8d8b3-dbe0-492d-b7a0-8c2a00aaf88c","system_id":"levelo_inurba_marseille","lat":43.299222,"lon":5.365554,"is_reserved":false,"is_disabled":false,"rental_uris":{"android":"levelo://app?vid=8be8d8b3-dbe0-492d-b7a0-8c2a00aaf88c","ios":"levelo://app?vid=8be8d8b3-dbe0-492d-b7a0-8c2a00aaf88c"},"vehicle_type_id":"4","last_reported":1714921593,"current_range_meters":0,"station_id":"ce4bgm92rcd13ifvqbr0","pricing_plan_id":"cebpf4jnsgd1na2vs0mg"},{"bike_id":"7c74ce3a-6d64-431d-bf86-aaedcb3c2c19","system_id":"levelo_inurba_marseille","lat":43.299222,"lon":5.365554,"is_reserved":false,"is_disabled":false,"rental_uris":{"android":"levelo://app?vid=7c74ce3a-6d64-431d-bf86-aaedcb3c2c19","ios":"levelo://app?vid=7c74ce3a-6d64-431d-bf86-aaedcb3c2c19"},"vehicle_type_id":"4","last_reported":1714921593,"current_range_meters":0,"station_id":"ce4bgm92rcd13ifvqbr0","pricing_plan_id":"cebpf4jnsgd1na2vs0mg"},{"bike_id":"3b01a514-7777-4476-9362-98829a4ca048","system_id":"levelo_inurba_marseille","lat":43.299222,"lon":5.365554,"is_reserved":false,"is_disabled":false,"rental_uris":{"android":"levelo://app?vid=3b01a514-7777-4476-9362-98829a4ca048","ios":"levelo://app?vid=3b01a514-7777-4476-9362-98829a4ca048"},"vehicle_type_id":"4","last_reported":1714921593,"current_range_meters":8800,"station_id":"ce4bgm92rcd13ifvqbr0","pricing_plan_id":"cebpf4jnsgd1na2vs0mg"},{"bike_id":"34f38a89-b3e3-4e21-9e1a-d4d86ecbb51a","system_id":"levelo_inurba_marseille","lat":43.29891,"lon":5.36507,"is_reserved":false,"is_disabled":false,"rental_uris":{"android":"levelo://app?vid=34f38a89-b3e3-4e21-9e1a-d4d86ecbb51a","ios":"levelo://app?vid=34f38a89-b3e3-4e21-9e1a-d4d86ecbb51a"},"vehicle_type_id":"4","last_reported":1714921593,"current_range_meters":12000,"station_id":"ce4bhi12rcd13ifvqfp0","pricing_plan_id":"cebpf4jnsgd1na2vs0mg"},{"bike_id":"3bb06735-b0c1-4380-8aae-2bbdf2ef5f76","system_id":"levelo_inurba_marseille","lat":43.298433,"lon":5.362774,"is_reserved":false,"is_disabled":false,"rental_uris":{"android":"levelo://app?vid=3bb06735-b0c1-4380-8aae-2bbdf2ef5f76","ios":"levelo://app?vid=3bb06735-b0c1-4380-8aae-2bbdf2ef5f76"},"vehicle_type_id":"4","last_reported":1714921593,"current_range_meters":2400,"station_id":"ce4bgpp2rcd13ifvqc3g","pricing_plan_id":"cebpf4jnsgd1na2vs0mg"},{"bike_id":"62c6b3f2-af18-46d7-97c7-d8155a9dc462","system_id":"levelo_inurba_marseille","lat":43.298433,"lon":5.362774,"is_reserved":false,"is_disabled":false,"rental_uris":{"android":"levelo://app?vid=62c6b3f2-af18-46d7-97c7-d8155a9dc462","ios":"levelo://app?vid=62c6b3f2-af18-46d7-97c7-d8155a9dc462"},"vehicle_type_id":"4","last_reported":1714921593,"current_range_meters":2800,"station_id":"ce4bgpp2rcd13ifvqc3g","pricing_plan_id":"cebpf4jnsgd1na2vs0mg"},{"bike_id":"3072ba0f-aec4-424d-b2a7-97eb79118053","system_id":"levelo_inurba_marseille","lat":43.298433,"lon":5.362774,"is_reserved":false,"is_disabled":false,"rental_uris":{"android":"levelo://app?vid=3072ba0f-aec4-424d-b2a7-97eb79118053","ios":"levelo://app?vid=3072ba0f-aec4-424d-b2a7-97eb79118053"},"vehicle_type_id":"4","last_reported":1714921593,"current_range_meters":23200,"station_id":"ce4bgpp2rcd13ifvqc3g","pricing_plan_id":"cebpf4jnsgd1na2vs0mg"},{"bike_id":"f6b444b0-408e-4392-886a-2fc075e5777e","system_id":"levelo_inurba_marseille","lat":43.298433,"lon":5.362774,"is_reserved":false,"is_disabled":false,"rental_uris":{"android":"levelo://app?vid=f6b444b0-408e-4392-886a-2fc075e5777e","ios":"levelo://app?vid=f6b444b0-408e-4392-886a-2fc075e5777e"},"vehicle_type_id":"4","last_reported":1714921593,"current_range_meters":11600,"station_id":"ce4bgpp2rcd13ifvqc3g","pricing_plan_id":"cebpf4jnsgd1na2vs0mg"},{"bike_id":"6c860c7a-1b39-4514-a1e6-98fac0450396","system_id":"levelo_inurba_marseille","lat":43.298433,"lon":5.362774,"is_reserved":false,"is_disabled":false,"rental_uris":{"android":"levelo://app?vid=6c860c7a-1b39-4514-a1e6-98fac0450396","ios":"levelo://app?vid=6c860c7a-1b39-4514-a1e6-98fac0450396"},"vehicle_type_id":"4","last_reported":1714921593,"current_range_meters":0,"station_id":"ce4bgpp2rcd13ifvqc3g","pricing_plan_id":"cebpf4jnsgd1na2vs0mg"},{"bike_id":"21ab5687-c2da-49c1-9d46-144fe3ee52bf","system_id":"levelo_inurba_marseille","lat":43.298433,"lon":5.362774,"is_reserved":false,"is_disabled":false,"rental_uris":{"android":"levelo://app?vid=21ab5687-c2da-49c1-9d46-144fe3ee52bf","ios":"levelo://app?vid=21ab5687-c2da-49c1-9d46-144fe3ee52bf"},"vehicle_type_id":"4","last_reported":1714921593,"current_range_meters":14000,"station_id":"ce4bgpp2rcd13ifvqc3g","pricing_plan_id":"cebpf4jnsgd1na2vs0mg"},{"bike_id":"f867d545-33e7-4d07-b756-683952e98b5f","system_id":"levelo_inurba_marseille","lat":43.298433,"lon":5.362774,"is_reserved":false,"is_disabled":false,"rental_uris":{"android":"levelo://app?vid=f867d545-33e7-4d07-b756-683952e98b5f","ios":"levelo://app?vid=f867d545-33e7-4d07-b756-683952e98b5f"},"vehicle_type_id":"4","last_reported":1714921593,"current_range_meters":0,"station_id":"ce4bgpp2rcd13ifvqc3g","pricing_plan_id":"cebpf4jnsgd1na2vs0mg"},{"bike_id":"882d26e5-5e80-440e-9f20-422dcb672391","system_id":"levelo_inurba_marseille","lat":43.298433,"lon":5.362774,"is_reserved":false,"is_disabled":false,"rental_uris":{"android":"levelo://app?vid=882d26e5-5e80-440e-9f20-422dcb672391","ios":"levelo://app?vid=882d26e5-5e80-440e-9f20-422dcb672391"},"vehicle_type_id":"4","last_reported":1714921593,"current_range_meters":2000,"station_id":"ce4bgpp2rcd13ifvqc3g","pricing_plan_id":"cebpf4jnsgd1na2vs0mg"},{"bike_id":"8f4ced06-6de5-4ad4-9da7-e6c83ff22d4f","system_id":"levelo_inurba_marseille","lat":43.298433,"lon":5.362774,"is_reserved":false,"is_disabled":false,"rental_uris":{"android":"levelo://app?vid=8f4ced06-6de5-4ad4-9da7-e6c83ff22d4f","ios":"levelo://app?vid=8f4ced06-6de5-4ad4-9da7-e6c83ff22d4f"},"vehicle_type_id":"4","last_reported":1714921593,"current_range_meters":16400,"station_id":"ce4bgpp2rcd13ifvqc3g","pricing_plan_id":"cebpf4jnsgd1na2vs0mg"},{"bike_id":"ec6d6882-aa6d-493c-8306-8e53c11f64b8","system_id":"levelo_inurba_marseille","lat":43.298433,"lon":5.362774,"is_reserved":false,"is_disabled":false,"rental_uris":{"android":"levelo://app?vid=ec6d6882-aa6d-493c-8306-8e53c11f64b8","ios":"levelo://app?vid=ec6d6882-aa6d-493c-8306-8e53c11f64b8"},"vehicle_type_id":"4","last_reported":1714921593,"current_range_meters":2800,"station_id":"ce4bgpp2rcd13ifvqc3g","pricing_plan_id":"cebpf4jnsgd1na2vs0mg"},{"bike_id":"e5e81f11-6989-437d-96f3-a4de0d1d9bf3","system_id":"levelo_inurba_marseille","lat":43.298433,"lon":5.362774,"is_reserved":false,"is_disabled":false,"rental_uris":{"android":"levelo://app?vid=e5e81f11-6989-437d-96f3-a4de0d1d9bf3","ios":"levelo://app?vid=e5e81f11-6989-437d-96f3-a4de0d1d9bf3"},"vehicle_type_id":"4","last_reported":1714921593,"current_range_meters":2000,"station_id":"ce4bgpp2rcd13ifvqc3g","pricing_plan_id":"cebpf4jnsgd1na2vs0mg"},{"bike_id":"1f8cbd1f-2855-497c-90c8-7c5be6c309ce","system_id":"levelo_inurba_marseille","lat":43.298433,"lon":5.362774,"is_reserved":false,"is_disabled":false,"rental_uris":{"android":"levelo://app?vid=1f8cbd1f-2855-497c-90c8-7c5be6c309ce","ios":"levelo://app?vid=1f8cbd1f-2855-497c-90c8-7c5be6c309ce"},"vehicle_type_id":"4","last_reported":1714921593,"current_range_meters":11200,"station_id":"ce4bgpp2rcd13ifvqc3g","pricing_plan_id":"cebpf4jnsgd1na2vs0mg"},{"bike_id":"6d56010a-e655-4406-9da3-d49b2a674b25","system_id":"levelo_inurba_marseille","lat":43.299243,"lon":5.374807,"is_reserved":false,"is_disabled":false,"rental_uris":{"android":"levelo://app?vid=6d56010a-e655-4406-9da3-d49b2a674b25","ios":"levelo://app?vid=6d56010a-e655-4406-9da3-d49b2a674b25"},"vehicle_type_id":"4","last_reported":1714921593,"current_range_meters":0,"station_id":"ce4bgjh2rcd13ifvqbg0","pricing_plan_id":"cebpf4jnsgd1na2vs0mg"},{"bike_id":"6dbc2287-b993-42c6-9d9c-e3950a07cd7c","system_id":"levelo_inurba_marseille","lat":43.298433,"lon":5.362774,"is_reserved":false,"is_disabled":false,"rental_uris":{"android":"levelo://app?vid=6dbc2287-b993-42c6-9d9c-e3950a07cd7c","ios":"levelo://app?vid=6dbc2287-b993-42c6-9d9c-e3950a07cd7c"},"vehicle_type_id":"4","last_reported":1714921593,"current_range_meters":24000,"station_id":"ce4bgpp2rcd13ifvqc3g","pricing_plan_id":"cebpf4jnsgd1na2vs0mg"},{"bike_id":"c97047cd-aaac-4fbc-86f4-8bc5b834bb1c","system_id":"levelo_inurba_marseille","lat":43.311722,"lon":5.387247,"is_reserved":false,"is_disabled":false,"rental_uris":{"android":"levelo://app?vid=c97047cd-aaac-4fbc-86f4-8bc5b834bb1c","ios":"levelo://app?vid=c97047cd-aaac-4fbc-86f4-8bc5b834bb1c"},"vehicle_type_id":"4","last_reported":1714921593,"current_range_meters":23600,"station_id":"ce4bgv12rcd13ifvqcp0","pricing_plan_id":"cebpf4jnsgd1na2vs0mg"},{"bike_id":"2d18849e-032d-4d81-b5a4-9ad147339139","system_id":"levelo_inurba_marseille","lat":43.29824,"lon":5.362444,"is_reserved":false,"is_disabled":false,"rental_uris":{"android":"levelo://app?vid=2d18849e-032d-4d81-b5a4-9ad147339139","ios":"levelo://app?vid=2d18849e-032d-4d81-b5a4-9ad147339139"},"vehicle_type_id":"4","last_reported":1714921593,"current_range_meters":13200,"station_id":"ce4bgpp2rcd13ifvqc3g","pricing_plan_id":"cebpf4jnsgd1na2vs0mg"},{"bike_id":"995c2f9c-29ed-450b-abb3-3c436d20a67a","system_id":"levelo_inurba_marseille","lat":43.29806,"lon":5.36347,"is_reserved":false,"is_disabled":false,"rental_uris":{"android":"levelo://app?vid=995c2f9c-29ed-450b-abb3-3c436d20a67a","ios":"levelo://app?vid=995c2f9c-29ed-450b-abb3-3c436d20a67a"},"vehicle_type_id":"4","last_reported":1714921593,"current_range_meters":6400,"station_id":"","pricing_plan_id":"cebpf4jnsgd1na2vs0mg"},{"bike_id":"58bfe730-33c8-47b3-9317-d2113e0ac47e","system_id":"levelo_inurba_marseille","lat":43.297774,"lon":5.370875,"is_reserved":false,"is_disabled":false,"rental_uris":{"android":"levelo://app?vid=58bfe730-33c8-47b3-9317-d2113e0ac47e","ios":"levelo://app?vid=58bfe730-33c8-47b3-9317-d2113e0ac47e"},"vehicle_type_id":"4","last_reported":1714921593,"current_range_meters":2000,"station_id":"ce4bgop2rcd13ifvqc1g","pricing_plan_id":"cebpf4jnsgd1na2vs0mg"},{"bike_id":"94b81e0a-d62a-4fc1-b66d-6fda1aa54365","system_id":"levelo_inurba_marseille","lat":43.297774,"lon":5.370875,"is_reserved":false,"is_disabled":false,"rental_uris":{"android":"levelo://app?vid=94b81e0a-d62a-4fc1-b66d-6fda1aa54365","ios":"levelo://app?vid=94b81e0a-d62a-4fc1-b66d-6fda1aa54365"},"vehicle_type_id":"4","last_reported":1714921593,"current_range_meters":24400,"station_id":"ce4bgop2rcd13ifvqc1g","pricing_plan_id":"cebpf4jnsgd1na2vs0mg"},{"bike_id":"6aa1aa38-2044-4e80-864f-5381a82bc9cc","system_id":"levelo_inurba_marseille","lat":43.297163,"lon":5.365866,"is_reserved":false,"is_disabled":false,"rental_uris":{"android":"levelo://app?vid=6aa1aa38-2044-4e80-864f-5381a82bc9cc","ios":"levelo://app?vid=6aa1aa38-2044-4e80-864f-5381a82bc9cc"},"vehicle_type_id":"4","last_reported":1714921593,"current_range_meters":18400,"station_id":"ce4bgn12rcd13ifvqbt0","pricing_plan_id":"cebpf4jnsgd1na2vs0mg"},{"bike_id":"58f5b57c-b762-4376-9401-b5e2fd608f81","system_id":"levelo_inurba_marseille","lat":43.297163,"lon":5.365866,"is_reserved":false,"is_disabled":false,"rental_uris":{"android":"levelo://app?vid=58f5b57c-b762-4376-9401-b5e2fd608f81","ios":"levelo://app?vid=58f5b57c-b762-4376-9401-b5e2fd608f81"},"vehicle_type_id":"4","last_reported":1714921593,"current_range_meters":0,"station_id":"ce4bgn12rcd13ifvqbt0","pricing_plan_id":"cebpf4jnsgd1na2vs0mg"},{"bike_id":"6d855d5c-94b2-4f8f-b0b2-2c129a6ae1af","system_id":"levelo_inurba_marseille","lat":43.2968,"lon":5.37291,"is_reserved":false,"is_disabled":false,"rental_uris":{"android":"levelo://app?vid=6d855d5c-94b2-4f8f-b0b2-2c129a6ae1af","ios":"levelo://app?vid=6d855d5c-94b2-4f8f-b0b2-2c129a6ae1af"},"vehicle_type_id":"4","last_reported":1714921593,"current_range_meters":28400,"station_id":"ce4bgk12rcd13ifvqbj0","pricing_plan_id":"cebpf4jnsgd1na2vs0mg"},{"bike_id":"1f701b43-8046-441e-9b56-0afcde08550d","system_id":"levelo_inurba_marseille","lat":43.296131,"lon":5.370791,"is_reserved":false,"is_disabled":false,"rental_uris":{"android":"levelo://app?vid=1f701b43-8046-441e-9b56-0afcde08550d","ios":"levelo://app?vid=1f701b43-8046-441e-9b56-0afcde08550d"},"vehicle_type_id":"4","last_reported":1714921593,"current_range_meters":0,"station_id":"ce4bgnh2rcd13ifvqc0g","pricing_plan_id":"cebpf4jnsgd1na2vs0mg"},{"bike_id":"34ed3acf-f35e-4d2c-9f4f-d4401206897b","system_id":"levelo_inurba_marseille","lat":43.29622,"lon":5.37155,"is_reserved":false,"is_disabled":false,"rental_uris":{"android":"levelo://app?vid=34ed3acf-f35e-4d2c-9f4f-d4401206897b","ios":"levelo://app?vid=34ed3acf-f35e-4d2c-9f4f-d4401206897b"},"vehicle_type_id":"4","last_reported":1714921593,"current_range_meters":9200,"station_id":"","pricing_plan_id":"cebpf4jnsgd1na2vs0mg"},{"bike_id":"5831e132-75c8-486f-909a-751346353c00","system_id":"levelo_inurba_marseille","lat":43.29573,"lon":5.367355,"is_reserved":false,"is_disabled":false,"rental_uris":{"android":"levelo://app?vid=5831e132-75c8-486f-909a-751346353c00","ios":"levelo://app?vid=5831e132-75c8-486f-909a-751346353c00"},"vehicle_type_id":"4","last_reported":1714921593,"current_range_meters":25600,"station_id":"ce4bgph2rcd13ifvqc2g","pricing_plan_id":"cebpf4jnsgd1na2vs0mg"},{"bike_id":"72cbcc88-0044-4765-bffd-a5a690456ee2","system_id":"levelo_inurba_marseille","lat":43.29573,"lon":5.367355,"is_reserved":false,"is_disabled":false,"rental_uris":{"android":"levelo://app?vid=72cbcc88-0044-4765-bffd-a5a690456ee2","ios":"levelo://app?vid=72cbcc88-0044-4765-bffd-a5a690456ee2"},"vehicle_type_id":"4","last_reported":1714921593,"current_range_meters":22000,"station_id":"ce4bgph2rcd13ifvqc2g","pricing_plan_id":"cebpf4jnsgd1na2vs0mg"},{"bike_id":"56ac8876-5cea-4d7a-b3ec-a5f70bda944b","system_id":"levelo_inurba_marseille","lat":43.29573,"lon":5.367355,"is_reserved":false,"is_disabled":false,"rental_uris":{"android":"levelo://app?vid=56ac8876-5cea-4d7a-b3ec-a5f70bda944b","ios":"levelo://app?vid=56ac8876-5cea-4d7a-b3ec-a5f70bda944b"},"vehicle_type_id":"4","last_reported":1714921593,"current_range_meters":6800,"station_id":"ce4bgph2rcd13ifvqc2g","pricing_plan_id":"cebpf4jnsgd1na2vs0mg"},{"bike_id":"122424e6-d8fe-4f6b-869d-bcafb45a25f1","system_id":"levelo_inurba_marseille","lat":43.29573,"lon":5.367355,"is_reserved":false,"is_disabled":false,"rental_uris":{"android":"levelo://app?vid=122424e6-d8fe-4f6b-869d-bcafb45a25f1","ios":"levelo://app?vid=122424e6-d8fe-4f6b-869d-bcafb45a25f1"},"vehicle_type_id":"4","last_reported":1714921593,"current_range_meters":2000,"station_id":"ce4bgph2rcd13ifvqc2g","pricing_plan_id":"cebpf4jnsgd1na2vs0mg"},{"bike_id":"cbd7dc33-b578-4c37-8b1c-6a24e2046c53","system_id":"levelo_inurba_marseille","lat":43.309589,"lon":5.390258,"is_reserved":false,"is_disabled":false,"rental_uris":{"android":"levelo://app?vid=cbd7dc33-b578-4c37-8b1c-6a24e2046c53","ios":"levelo://app?vid=cbd7dc33-b578-4c37-8b1c-6a24e2046c53"},"vehicle_type_id":"4","last_reported":1714921593,"current_range_meters":0,"station_id":"ce4bgup2rcd13ifvqco0","pricing_plan_id":"cebpf4jnsgd1na2vs0mg"},{"bike_id":"ecda13a2-b44c-4c35-8d60-08213e28375a","system_id":"levelo_inurba_marseille","lat":43.309589,"lon":5.390258,"is_reserved":false,"is_disabled":false,"rental_uris":{"android":"levelo://app?vid=ecda13a2-b44c-4c35-8d60-08213e28375a","ios":"levelo://app?vid=ecda13a2-b44c-4c35-8d60-08213e28375a"},"vehicle_type_id":"4","last_reported":1714921593,"current_range_meters":22000,"station_id":"ce4bgup2rcd13ifvqco0","pricing_plan_id":"cebpf4jnsgd1na2vs0mg"},{"bike_id":"edaae19a-ac8f-4a8e-b4a1-08bbb84a53e4","system_id":"levelo_inurba_marseille","lat":43.309589,"lon":5.390258,"is_reserved":false,"is_disabled":false,"rental_uris":{"android":"levelo://app?vid=edaae19a-ac8f-4a8e-b4a1-08bbb84a53e4","ios":"levelo://app?vid=edaae19a-ac8f-4a8e-b4a1-08bbb84a53e4"},"vehicle_type_id":"4","last_reported":1714921593,"current_range_meters":13600,"station_id":"ce4bgup2rcd13ifvqco0","pricing_plan_id":"cebpf4jnsgd1na2vs0mg"},{"bike_id":"45607523-3287-4322-bc2b-bfa8476dcd43","system_id":"levelo_inurba_marseille","lat":43.309589,"lon":5.390258,"is_reserved":false,"is_disabled":false,"rental_uris":{"android":"levelo://app?vid=45607523-3287-4322-bc2b-bfa8476dcd43","ios":"levelo://app?vid=45607523-3287-4322-bc2b-bfa8476dcd43"},"vehicle_type_id":"4","last_reported":1714921593,"current_range_meters":19200,"station_id":"ce4bgup2rcd13ifvqco0","pricing_plan_id":"cebpf4jnsgd1na2vs0mg"},{"bike_id":"3a60d2d8-4cbe-4dc9-82e9-49029fe09ffe","system_id":"levelo_inurba_marseille","lat":43.309589,"lon":5.390258,"is_reserved":false,"is_disabled":false,"rental_uris":{"android":"levelo://app?vid=3a60d2d8-4cbe-4dc9-82e9-49029fe09ffe","ios":"levelo://app?vid=3a60d2d8-4cbe-4dc9-82e9-49029fe09ffe"},"vehicle_type_id":"4","last_reported":1714921593,"current_range_meters":13200,"station_id":"ce4bgup2rcd13ifvqco0","pricing_plan_id":"cebpf4jnsgd1na2vs0mg"},{"bike_id":"3d315f48-dcba-402c-8802-9154e15291fb","system_id":"levelo_inurba_marseille","lat":43.309589,"lon":5.390258,"is_reserved":false,"is_disabled":false,"rental_uris":{"android":"levelo://app?vid=3d315f48-dcba-402c-8802-9154e15291fb","ios":"levelo://app?vid=3d315f48-dcba-402c-8802-9154e15291fb"},"vehicle_type_id":"4","last_reported":1714921593,"current_range_meters":0,"station_id":"ce4bgup2rcd13ifvqco0","pricing_plan_id":"cebpf4jnsgd1na2vs0mg"},{"bike_id":"93da280c-0539-4395-a954-220c4cbe645d","system_id":"levelo_inurba_marseille","lat":43.309589,"lon":5.390258,"is_reserved":false,"is_disabled":false,"rental_uris":{"android":"levelo://app?vid=93da280c-0539-4395-a954-220c4cbe645d","ios":"levelo://app?vid=93da280c-0539-4395-a954-220c4cbe645d"},"vehicle_type_id":"4","last_reported":1714921593,"current_range_meters":2800,"station_id":"ce4bgup2rcd13ifvqco0","pricing_plan_id":"cebpf4jnsgd1na2vs0mg"},{"bike_id":"81611be0-c2a4-4400-9552-2c66d9c4ff47","system_id":"levelo_inurba_marseille","lat":43.309589,"lon":5.390258,"is_reserved":false,"is_disabled":false,"rental_uris":{"android":"levelo://app?vid=81611be0-c2a4-4400-9552-2c66d9c4ff47","ios":"levelo://app?vid=81611be0-c2a4-4400-9552-2c66d9c4ff47"},"vehicle_type_id":"4","last_reported":1714921593,"current_range_meters":2400,"station_id":"ce4bgup2rcd13ifvqco0","pricing_plan_id":"cebpf4jnsgd1na2vs0mg"},{"bike_id":"3a57ef19-b2a4-4c2e-a6ba-f602554b5a29","system_id":"levelo_inurba_marseille","lat":43.309589,"lon":5.390258,"is_reserved":false,"is_disabled":false,"rental_uris":{"android":"levelo://app?vid=3a57ef19-b2a4-4c2e-a6ba-f602554b5a29","ios":"levelo://app?vid=3a57ef19-b2a4-4c2e-a6ba-f602554b5a29"},"vehicle_type_id":"4","last_reported":1714921593,"current_range_meters":20400,"station_id":"ce4bgup2rcd13ifvqco0","pricing_plan_id":"cebpf4jnsgd1na2vs0mg"},{"bike_id":"9adf691d-0fd7-45fb-8de7-0a7d4f55cf25","system_id":"levelo_inurba_marseille","lat":43.317557,"lon":5.390173,"is_reserved":false,"is_disabled":false,"rental_uris":{"android":"levelo://app?vid=9adf691d-0fd7-45fb-8de7-0a7d4f55cf25","ios":"levelo://app?vid=9adf691d-0fd7-45fb-8de7-0a7d4f55cf25"},"vehicle_type_id":"4","last_reported":1714921593,"current_range_meters":7200,"station_id":"ce4bhqp2rcd13ifvqhng","pricing_plan_id":"cebpf4jnsgd1na2vs0mg"},{"bike_id":"35b70ffc-51ea-402e-93f7-932f466d751f","system_id":"levelo_inurba_marseille","lat":43.317563,"lon":5.390252,"is_reserved":false,"is_disabled":false,"rental_uris":{"android":"levelo://app?vid=35b70ffc-51ea-402e-93f7-932f466d751f","ios":"levelo://app?vid=35b70ffc-51ea-402e-93f7-932f466d751f"},"vehicle_type_id":"4","last_reported":1714921593,"current_range_meters":31200,"station_id":"ce4bhqp2rcd13ifvqhng","pricing_plan_id":"cebpf4jnsgd1na2vs0mg"},{"bike_id":"b3b5d156-a1ba-4e41-a085-fb8053222532","system_id":"levelo_inurba_marseille","lat":43.29724,"lon":5.37869,"is_reserved":false,"is_disabled":false,"rental_uris":{"android":"levelo://app?vid=b3b5d156-a1ba-4e41-a085-fb8053222532","ios":"levelo://app?vid=b3b5d156-a1ba-4e41-a085-fb8053222532"},"vehicle_type_id":"4","last_reported":1714921593,"current_range_meters":10400,"station_id":"","pricing_plan_id":"cebpf4jnsgd1na2vs0mg"},{"bike_id":"9c8568b6-bad8-471e-a898-a235aec8eccd","system_id":"levelo_inurba_marseille","lat":43.295748,"lon":5.37522,"is_reserved":false,"is_disabled":false,"rental_uris":{"android":"levelo://app?vid=9c8568b6-bad8-471e-a898-a235aec8eccd","ios":"levelo://app?vid=9c8568b6-bad8-471e-a898-a235aec8eccd"},"vehicle_type_id":"4","last_reported":1714921593,"current_range_meters":22000,"station_id":"ce4bgh92rcd13ifvqb50","pricing_plan_id":"cebpf4jnsgd1na2vs0mg"},{"bike_id":"d20a60f8-a8f9-4757-b17c-042686551ce6","system_id":"levelo_inurba_marseille","lat":43.295748,"lon":5.37522,"is_reserved":false,"is_disabled":false,"rental_uris":{"android":"levelo://app?vid=d20a60f8-a8f9-4757-b17c-042686551ce6","ios":"levelo://app?vid=d20a60f8-a8f9-4757-b17c-042686551ce6"},"vehicle_type_id":"4","last_reported":1714921593,"current_range_meters":2400,"station_id":"ce4bgh92rcd13ifvqb50","pricing_plan_id":"cebpf4jnsgd1na2vs0mg"},{"bike_id":"9823489a-4e45-4c94-aa16-f77cbc926042","system_id":"levelo_inurba_marseille","lat":43.29576,"lon":5.3752,"is_reserved":false,"is_disabled":false,"rental_uris":{"android":"levelo://app?vid=9823489a-4e45-4c94-aa16-f77cbc926042","ios":"levelo://app?vid=9823489a-4e45-4c94-aa16-f77cbc926042"},"vehicle_type_id":"4","last_reported":1714921593,"current_range_meters":18800,"station_id":"","pricing_plan_id":"cebpf4jnsgd1na2vs0mg"},{"bike_id":"8d9a0b32-1d53-4dc7-8216-402a50351d25","system_id":"levelo_inurba_marseille","lat":43.304278,"lon":5.388868,"is_reserved":false,"is_disabled":false,"rental_uris":{"android":"levelo://app?vid=8d9a0b32-1d53-4dc7-8216-402a50351d25","ios":"levelo://app?vid=8d9a0b32-1d53-4dc7-8216-402a50351d25"},"vehicle_type_id":"4","last_reported":1714921593,"current_range_meters":4400,"station_id":"ce4bgk12rcd13ifvqbi0","pricing_plan_id":"cebpf4jnsgd1na2vs0mg"},{"bike_id":"02cc71ca-0648-493d-a894-89798fc75d13","system_id":"levelo_inurba_marseille","lat":43.297864,"lon":5.380981,"is_reserved":false,"is_disabled":false,"rental_uris":{"android":"levelo://app?vid=02cc71ca-0648-493d-a894-89798fc75d13","ios":"levelo://app?vid=02cc71ca-0648-493d-a894-89798fc75d13"},"vehicle_type_id":"4","last_reported":1714921593,"current_range_meters":0,"station_id":"ce4bgip2rcd13ifvqbb0","pricing_plan_id":"cebpf4jnsgd1na2vs0mg"},{"bike_id":"6f64ceb9-3c4b-4fd8-a588-6d4b04554151","system_id":"levelo_inurba_marseille","lat":43.296263,"lon":5.377094,"is_reserved":false,"is_disabled":false,"rental_uris":{"android":"levelo://app?vid=6f64ceb9-3c4b-4fd8-a588-6d4b04554151","ios":"levelo://app?vid=6f64ceb9-3c4b-4fd8-a588-6d4b04554151"},"vehicle_type_id":"4","last_reported":1714921593,"current_range_meters":8000,"station_id":"ce4bgi92rcd13ifvqb90","pricing_plan_id":"cebpf4jnsgd1na2vs0mg"},{"bike_id":"4bc4c658-b7ff-4c3d-b51a-28ed4c0f6e2d","system_id":"levelo_inurba_marseille","lat":43.296277,"lon":5.377108,"is_reserved":false,"is_disabled":false,"rental_uris":{"android":"levelo://app?vid=4bc4c658-b7ff-4c3d-b51a-28ed4c0f6e2d","ios":"levelo://app?vid=4bc4c658-b7ff-4c3d-b51a-28ed4c0f6e2d"},"vehicle_type_id":"4","last_reported":1714921593,"current_range_meters":6000,"station_id":"ce4bgi92rcd13ifvqb90","pricing_plan_id":"cebpf4jnsgd1na2vs0mg"},{"bike_id":"07ba95f1-bca4-40ac-a166-1dba764e1554","system_id":"levelo_inurba_marseille","lat":43.296277,"lon":5.377108,"is_reserved":false,"is_disabled":false,"rental_uris":{"android":"levelo://app?vid=07ba95f1-bca4-40ac-a166-1dba764e1554","ios":"levelo://app?vid=07ba95f1-bca4-40ac-a166-1dba764e1554"},"vehicle_type_id":"4","last_reported":1714921593,"current_range_meters":4800,"station_id":"ce4bgi92rcd13ifvqb90","pricing_plan_id":"cebpf4jnsgd1na2vs0mg"},{"bike_id":"9bec4d91-47e8-416f-911c-5c121c6ff375","system_id":"levelo_inurba_marseille","lat":43.296263,"lon":5.377094,"is_reserved":false,"is_disabled":false,"rental_uris":{"android":"levelo://app?vid=9bec4d91-47e8-416f-911c-5c121c6ff375","ios":"levelo://app?vid=9bec4d91-47e8-416f-911c-5c121c6ff375"},"vehicle_type_id":"4","last_reported":1714921593,"current_range_meters":2000,"station_id":"ce4bgi92rcd13ifvqb90","pricing_plan_id":"cebpf4jnsgd1na2vs0mg"},{"bike_id":"8a308912-e235-460a-81b8-fcbdb8f20684","system_id":"levelo_inurba_marseille","lat":43.304029,"lon":5.388883,"is_reserved":false,"is_disabled":false,"rental_uris":{"android":"levelo://app?vid=8a308912-e235-460a-81b8-fcbdb8f20684","ios":"levelo://app?vid=8a308912-e235-460a-81b8-fcbdb8f20684"},"vehicle_type_id":"4","last_reported":1714921593,"current_range_meters":9600,"station_id":"","pricing_plan_id":"cebpf4jnsgd1na2vs0mg"},{"bike_id":"85818ded-7603-42c4-903a-84b60289ea62","system_id":"levelo_inurba_marseille","lat":43.29538,"lon":5.37504,"is_reserved":false,"is_disabled":false,"rental_uris":{"android":"levelo://app?vid=85818ded-7603-42c4-903a-84b60289ea62","ios":"levelo://app?vid=85818ded-7603-42c4-903a-84b60289ea62"},"vehicle_type_id":"4","last_reported":1714921593,"current_range_meters":28400,"station_id":"ce4bgkp2rcd13ifvqbmg","pricing_plan_id":"cebpf4jnsgd1na2vs0mg"},{"bike_id":"d327b022-a533-4878-b2d2-bc3639cdf73f","system_id":"levelo_inurba_marseille","lat":43.299707,"lon":5.384859,"is_reserved":false,"is_disabled":false,"rental_uris":{"android":"levelo://app?vid=d327b022-a533-4878-b2d2-bc3639cdf73f","ios":"levelo://app?vid=d327b022-a533-4878-b2d2-bc3639cdf73f"},"vehicle_type_id":"4","last_reported":1714921593,"current_range_meters":0,"station_id":"ce4bgj92rcd13ifvqbd0","pricing_plan_id":"cebpf4jnsgd1na2vs0mg"},{"bike_id":"693f50be-0fe0-4e0d-825e-fce8073c78f6","system_id":"levelo_inurba_marseille","lat":43.29532,"lon":5.37518,"is_reserved":false,"is_disabled":false,"rental_uris":{"android":"levelo://app?vid=693f50be-0fe0-4e0d-825e-fce8073c78f6","ios":"levelo://app?vid=693f50be-0fe0-4e0d-825e-fce8073c78f6"},"vehicle_type_id":"4","last_reported":1714921593,"current_range_meters":22400,"station_id":"ce4bgkp2rcd13ifvqbmg","pricing_plan_id":"cebpf4jnsgd1na2vs0mg"},{"bike_id":"9f7db532-abe3-4034-953d-c9a7725974a4","system_id":"levelo_inurba_marseille","lat":43.289184,"lon":5.366408,"is_reserved":false,"is_disabled":false,"rental_uris":{"android":"levelo://app?vid=9f7db532-abe3-4034-953d-c9a7725974a4","ios":"levelo://app?vid=9f7db532-abe3-4034-953d-c9a7725974a4"},"vehicle_type_id":"4","last_reported":1714921593,"current_range_meters":26400,"station_id":"ce4bhap2rcd13ifvqek0","pricing_plan_id":"cebpf4jnsgd1na2vs0mg"},{"bike_id":"682e9d29-336e-4f48-b46c-1f62f8c3f199","system_id":"levelo_inurba_marseille","lat":43.32369,"lon":5.3888,"is_reserved":false,"is_disabled":false,"rental_uris":{"android":"levelo://app?vid=682e9d29-336e-4f48-b46c-1f62f8c3f199","ios":"levelo://app?vid=682e9d29-336e-4f48-b46c-1f62f8c3f199"},"vehicle_type_id":"4","last_reported":1714921593,"current_range_meters":2400,"station_id":"ce4bhqp2rcd13ifvqhog","pricing_plan_id":"cebpf4jnsgd1na2vs0mg"},{"bike_id":"4a39b302-b5a2-4539-b586-f66857dbb7c6","system_id":"levelo_inurba_marseille","lat":43.32367,"lon":5.38886,"is_reserved":false,"is_disabled":false,"rental_uris":{"android":"levelo://app?vid=4a39b302-b5a2-4539-b586-f66857dbb7c6","ios":"levelo://app?vid=4a39b302-b5a2-4539-b586-f66857dbb7c6"},"vehicle_type_id":"4","last_reported":1714921593,"current_range_meters":0,"station_id":"ce4bhqp2rcd13ifvqhog","pricing_plan_id":"cebpf4jnsgd1na2vs0mg"},{"bike_id":"eeffdc5c-f838-457f-bd0a-cc34574453cf","system_id":"levelo_inurba_marseille","lat":43.32366,"lon":5.38887,"is_reserved":false,"is_disabled":false,"rental_uris":{"android":"levelo://app?vid=eeffdc5c-f838-457f-bd0a-cc34574453cf","ios":"levelo://app?vid=eeffdc5c-f838-457f-bd0a-cc34574453cf"},"vehicle_type_id":"4","last_reported":1714921593,"current_range_meters":400,"station_id":"ce4bhqp2rcd13ifvqhog","pricing_plan_id":"cebpf4jnsgd1na2vs0mg"},{"bike_id":"1fc11f39-f529-4d0c-b983-077ff3b7c6d7","system_id":"levelo_inurba_marseille","lat":43.309589,"lon":5.390258,"is_reserved":false,"is_disabled":false,"rental_uris":{"android":"levelo://app?vid=1fc11f39-f529-4d0c-b983-077ff3b7c6d7","ios":"levelo://app?vid=1fc11f39-f529-4d0c-b983-077ff3b7c6d7"},"vehicle_type_id":"4","last_reported":1714921593,"current_range_meters":8800,"station_id":"ce4bgup2rcd13ifvqco0","pricing_plan_id":"cebpf4jnsgd1na2vs0mg"},{"bike_id":"c7bd524f-057f-4c3e-97ac-1a63b9b25d7c","system_id":"levelo_inurba_marseille","lat":43.29286,"lon":5.36839,"is_reserved":false,"is_disabled":false,"rental_uris":{"android":"levelo://app?vid=c7bd524f-057f-4c3e-97ac-1a63b9b25d7c","ios":"levelo://app?vid=c7bd524f-057f-4c3e-97ac-1a63b9b25d7c"},"vehicle_type_id":"4","last_reported":1714921593,"current_range_meters":0,"station_id":"ce4bhbp2rcd13ifvqesg","pricing_plan_id":"cebpf4jnsgd1na2vs0mg"},{"bike_id":"1f89da3e-2a94-4d93-b103-bd1d304be535","system_id":"levelo_inurba_marseille","lat":43.292749,"lon":5.368402,"is_reserved":false,"is_disabled":false,"rental_uris":{"android":"levelo://app?vid=1f89da3e-2a94-4d93-b103-bd1d304be535","ios":"levelo://app?vid=1f89da3e-2a94-4d93-b103-bd1d304be535"},"vehicle_type_id":"4","last_reported":1714921593,"current_range_meters":25200,"station_id":"ce4bhbp2rcd13ifvqesg","pricing_plan_id":"cebpf4jnsgd1na2vs0mg"},{"bike_id":"342155a9-b71e-49f6-96be-8e49482c31ee","system_id":"levelo_inurba_marseille","lat":43.29311,"lon":5.37174,"is_reserved":false,"is_disabled":false,"rental_uris":{"android":"levelo://app?vid=342155a9-b71e-49f6-96be-8e49482c31ee","ios":"levelo://app?vid=342155a9-b71e-49f6-96be-8e49482c31ee"},"vehicle_type_id":"4","last_reported":1714921593,"current_range_meters":0,"station_id":"ce4bgh92rcd13ifvqb40","pricing_plan_id":"cebpf4jnsgd1na2vs0mg"},{"bike_id":"d0996ccf-fd57-4127-b1e5-24fe6e64c785","system_id":"levelo_inurba_marseille","lat":43.29277,"lon":5.36839,"is_reserved":false,"is_disabled":false,"rental_uris":{"android":"levelo://app?vid=d0996ccf-fd57-4127-b1e5-24fe6e64c785","ios":"levelo://app?vid=d0996ccf-fd57-4127-b1e5-24fe6e64c785"},"vehicle_type_id":"4","last_reported":1714921593,"current_range_meters":4800,"station_id":"ce4bhbp2rcd13ifvqesg","pricing_plan_id":"cebpf4jnsgd1na2vs0mg"},{"bike_id":"09f7cb5d-9edd-47d2-a04e-f1b90dc48fc4","system_id":"levelo_inurba_marseille","lat":43.292749,"lon":5.368402,"is_reserved":false,"is_disabled":false,"rental_uris":{"android":"levelo://app?vid=09f7cb5d-9edd-47d2-a04e-f1b90dc48fc4","ios":"levelo://app?vid=09f7cb5d-9edd-47d2-a04e-f1b90dc48fc4"},"vehicle_type_id":"4","last_reported":1714921593,"current_range_meters":20800,"station_id":"ce4bhbp2rcd13ifvqesg","pricing_plan_id":"cebpf4jnsgd1na2vs0mg"},{"bike_id":"97c5903c-eb9c-4b39-acd7-a7e0e6f99be1","system_id":"levelo_inurba_marseille","lat":43.293259,"lon":5.371586,"is_reserved":false,"is_disabled":false,"rental_uris":{"android":"levelo://app?vid=97c5903c-eb9c-4b39-acd7-a7e0e6f99be1","ios":"levelo://app?vid=97c5903c-eb9c-4b39-acd7-a7e0e6f99be1"},"vehicle_type_id":"4","last_reported":1714921593,"current_range_meters":12800,"station_id":"ce4bgh92rcd13ifvqb40","pricing_plan_id":"cebpf4jnsgd1na2vs0mg"},{"bike_id":"af905aa2-3e73-44fb-8385-f496f8803d18","system_id":"levelo_inurba_marseille","lat":43.29308,"lon":5.37462,"is_reserved":false,"is_disabled":false,"rental_uris":{"android":"levelo://app?vid=af905aa2-3e73-44fb-8385-f496f8803d18","ios":"levelo://app?vid=af905aa2-3e73-44fb-8385-f496f8803d18"},"vehicle_type_id":"4","last_reported":1714921593,"current_range_meters":0,"station_id":"ce4bgi12rcd13ifvqb70","pricing_plan_id":"cebpf4jnsgd1na2vs0mg"},{"bike_id":"41a08ff2-45fb-4b93-ae56-8efa9ab9d77b","system_id":"levelo_inurba_marseille","lat":43.293009,"lon":5.374584,"is_reserved":false,"is_disabled":false,"rental_uris":{"android":"levelo://app?vid=41a08ff2-45fb-4b93-ae56-8efa9ab9d77b","ios":"levelo://app?vid=41a08ff2-45fb-4b93-ae56-8efa9ab9d77b"},"vehicle_type_id":"4","last_reported":1714921593,"current_range_meters":22800,"station_id":"ce4bgi12rcd13ifvqb70","pricing_plan_id":"cebpf4jnsgd1na2vs0mg"},{"bike_id":"9bc7598c-bcf2-45d9-9236-4cd6f5c0a97c","system_id":"levelo_inurba_marseille","lat":43.293009,"lon":5.374584,"is_reserved":false,"is_disabled":false,"rental_uris":{"android":"levelo://app?vid=9bc7598c-bcf2-45d9-9236-4cd6f5c0a97c","ios":"levelo://app?vid=9bc7598c-bcf2-45d9-9236-4cd6f5c0a97c"},"vehicle_type_id":"4","last_reported":1714921593,"current_range_meters":11600,"station_id":"ce4bgi12rcd13ifvqb70","pricing_plan_id":"cebpf4jnsgd1na2vs0mg"},{"bike_id":"8b37b151-55e3-4017-98d0-8515ca9478a7","system_id":"levelo_inurba_marseille","lat":43.293009,"lon":5.374584,"is_reserved":false,"is_disabled":false,"rental_uris":{"android":"levelo://app?vid=8b37b151-55e3-4017-98d0-8515ca9478a7","ios":"levelo://app?vid=8b37b151-55e3-4017-98d0-8515ca9478a7"},"vehicle_type_id":"4","last_reported":1714921593,"current_range_meters":4400,"station_id":"ce4bgi12rcd13ifvqb70","pricing_plan_id":"cebpf4jnsgd1na2vs0mg"},{"bike_id":"9e389392-779b-4cfa-b005-70b2d3e15c6e","system_id":"levelo_inurba_marseille","lat":43.293009,"lon":5.374584,"is_reserved":false,"is_disabled":false,"rental_uris":{"android":"levelo://app?vid=9e389392-779b-4cfa-b005-70b2d3e15c6e","ios":"levelo://app?vid=9e389392-779b-4cfa-b005-70b2d3e15c6e"},"vehicle_type_id":"4","last_reported":1714921593,"current_range_meters":5600,"station_id":"ce4bgi12rcd13ifvqb70","pricing_plan_id":"cebpf4jnsgd1na2vs0mg"},{"bike_id":"b3dbf2f6-6dbc-42e4-ab60-2e1525564a2f","system_id":"levelo_inurba_marseille","lat":43.29228,"lon":5.36056,"is_reserved":false,"is_disabled":false,"rental_uris":{"android":"levelo://app?vid=b3dbf2f6-6dbc-42e4-ab60-2e1525564a2f","ios":"levelo://app?vid=b3dbf2f6-6dbc-42e4-ab60-2e1525564a2f"},"vehicle_type_id":"4","last_reported":1714921593,"current_range_meters":14400,"station_id":"ce4bhbh2rcd13ifvqeqg","pricing_plan_id":"cebpf4jnsgd1na2vs0mg"},{"bike_id":"7b5b67c1-941b-492e-b1f8-e23f08b2a3e4","system_id":"levelo_inurba_marseille","lat":43.29226,"lon":5.36058,"is_reserved":false,"is_disabled":false,"rental_uris":{"android":"levelo://app?vid=7b5b67c1-941b-492e-b1f8-e23f08b2a3e4","ios":"levelo://app?vid=7b5b67c1-941b-492e-b1f8-e23f08b2a3e4"},"vehicle_type_id":"4","last_reported":1714921593,"current_range_meters":24000,"station_id":"ce4bhbh2rcd13ifvqeqg","pricing_plan_id":"cebpf4jnsgd1na2vs0mg"},{"bike_id":"a99244b8-9760-46a7-8310-1d219cdac3e7","system_id":"levelo_inurba_marseille","lat":43.29226,"lon":5.36052,"is_reserved":false,"is_disabled":false,"rental_uris":{"android":"levelo://app?vid=a99244b8-9760-46a7-8310-1d219cdac3e7","ios":"levelo://app?vid=a99244b8-9760-46a7-8310-1d219cdac3e7"},"vehicle_type_id":"4","last_reported":1714921593,"current_range_meters":0,"station_id":"ce4bhbh2rcd13ifvqeqg","pricing_plan_id":"cebpf4jnsgd1na2vs0mg"},{"bike_id":"ba603a1c-1a7c-41a2-9b07-7a254f9e0799","system_id":"levelo_inurba_marseille","lat":43.29224,"lon":5.36046,"is_reserved":false,"is_disabled":false,"rental_uris":{"android":"levelo://app?vid=ba603a1c-1a7c-41a2-9b07-7a254f9e0799","ios":"levelo://app?vid=ba603a1c-1a7c-41a2-9b07-7a254f9e0799"},"vehicle_type_id":"4","last_reported":1714921593,"current_range_meters":26000,"station_id":"ce4bhbh2rcd13ifvqeqg","pricing_plan_id":"cebpf4jnsgd1na2vs0mg"},{"bike_id":"fd5d6575-6b80-4b6b-b1b3-402e63c9fb12","system_id":"levelo_inurba_marseille","lat":43.292116,"lon":5.360423,"is_reserved":false,"is_disabled":false,"rental_uris":{"android":"levelo://app?vid=fd5d6575-6b80-4b6b-b1b3-402e63c9fb12","ios":"levelo://app?vid=fd5d6575-6b80-4b6b-b1b3-402e63c9fb12"},"vehicle_type_id":"4","last_reported":1714921593,"current_range_meters":28400,"station_id":"ce4bhbh2rcd13ifvqeqg","pricing_plan_id":"cebpf4jnsgd1na2vs0mg"},{"bike_id":"d2ec8e2d-d5ef-429c-9796-a8ae2a063ab8","system_id":"levelo_inurba_marseille","lat":43.298764,"lon":5.388973,"is_reserved":false,"is_disabled":false,"rental_uris":{"android":"levelo://app?vid=d2ec8e2d-d5ef-429c-9796-a8ae2a063ab8","ios":"levelo://app?vid=d2ec8e2d-d5ef-429c-9796-a8ae2a063ab8"},"vehicle_type_id":"4","last_reported":1714921593,"current_range_meters":400,"station_id":"ce4bh392rcd13ifvqdl0","pricing_plan_id":"cebpf4jnsgd1na2vs0mg"},{"bike_id":"83a4a090-70f6-4680-8063-2b5365337912","system_id":"levelo_inurba_marseille","lat":43.298764,"lon":5.388973,"is_reserved":false,"is_disabled":false,"rental_uris":{"android":"levelo://app?vid=83a4a090-70f6-4680-8063-2b5365337912","ios":"levelo://app?vid=83a4a090-70f6-4680-8063-2b5365337912"},"vehicle_type_id":"4","last_reported":1714921593,"current_range_meters":0,"station_id":"ce4bh392rcd13ifvqdl0","pricing_plan_id":"cebpf4jnsgd1na2vs0mg"},{"bike_id":"50af9f53-107e-43dd-9d6f-bd2f5dc10b5c","system_id":"levelo_inurba_marseille","lat":43.291671,"lon":5.371575,"is_reserved":false,"is_disabled":false,"rental_uris":{"android":"levelo://app?vid=50af9f53-107e-43dd-9d6f-bd2f5dc10b5c","ios":"levelo://app?vid=50af9f53-107e-43dd-9d6f-bd2f5dc10b5c"},"vehicle_type_id":"4","last_reported":1714921593,"current_range_meters":14400,"station_id":"ce4bha92rcd13ifvqeh0","pricing_plan_id":"cebpf4jnsgd1na2vs0mg"},{"bike_id":"373641e7-3f95-414d-923c-ad61769c16ee","system_id":"levelo_inurba_marseille","lat":43.298764,"lon":5.388973,"is_reserved":false,"is_disabled":false,"rental_uris":{"android":"levelo://app?vid=373641e7-3f95-414d-923c-ad61769c16ee","ios":"levelo://app?vid=373641e7-3f95-414d-923c-ad61769c16ee"},"vehicle_type_id":"4","last_reported":1714921593,"current_range_meters":12800,"station_id":"ce4bh392rcd13ifvqdl0","pricing_plan_id":"cebpf4jnsgd1na2vs0mg"},{"bike_id":"c7cf6e96-8861-41ed-ba4f-ee2334aa3320","system_id":"levelo_inurba_marseille","lat":43.291994,"lon":5.357886,"is_reserved":false,"is_disabled":false,"rental_uris":{"android":"levelo://app?vid=c7cf6e96-8861-41ed-ba4f-ee2334aa3320","ios":"levelo://app?vid=c7cf6e96-8861-41ed-ba4f-ee2334aa3320"},"vehicle_type_id":"4","last_reported":1714921593,"current_range_meters":0,"station_id":"ce4bhb12rcd13ifvqel0","pricing_plan_id":"cebpf4jnsgd1na2vs0mg"},{"bike_id":"2aae409b-9083-473b-bcc8-dc61b57141c3","system_id":"levelo_inurba_marseille","lat":43.309038,"lon":5.396546,"is_reserved":false,"is_disabled":false,"rental_uris":{"android":"levelo://app?vid=2aae409b-9083-473b-bcc8-dc61b57141c3","ios":"levelo://app?vid=2aae409b-9083-473b-bcc8-dc61b57141c3"},"vehicle_type_id":"4","last_reported":1714921593,"current_range_meters":22400,"station_id":"ce4bh012rcd13ifvqcv0","pricing_plan_id":"cebpf4jnsgd1na2vs0mg"},{"bike_id":"46bb4007-2595-4ff6-ada1-960504aa3280","system_id":"levelo_inurba_marseille","lat":43.313291,"lon":5.396838,"is_reserved":false,"is_disabled":false,"rental_uris":{"android":"levelo://app?vid=46bb4007-2595-4ff6-ada1-960504aa3280","ios":"levelo://app?vid=46bb4007-2595-4ff6-ada1-960504aa3280"},"vehicle_type_id":"4","last_reported":1714921593,"current_range_meters":11200,"station_id":"ce4bgvp2rcd13ifvqcu0","pricing_plan_id":"cebpf4jnsgd1na2vs0mg"},{"bike_id":"2389c128-5e27-46bd-82ec-f0ba42ad865d","system_id":"levelo_inurba_marseille","lat":43.292005,"lon":5.357875,"is_reserved":false,"is_disabled":false,"rental_uris":{"android":"levelo://app?vid=2389c128-5e27-46bd-82ec-f0ba42ad865d","ios":"levelo://app?vid=2389c128-5e27-46bd-82ec-f0ba42ad865d"},"vehicle_type_id":"4","last_reported":1714921593,"current_range_meters":31600,"station_id":"ce4bhb12rcd13ifvqel0","pricing_plan_id":"cebpf4jnsgd1na2vs0mg"},{"bike_id":"da62dfac-332f-4a1c-b037-b7bc9d12aa56","system_id":"levelo_inurba_marseille","lat":43.30889,"lon":5.39645,"is_reserved":false,"is_disabled":false,"rental_uris":{"android":"levelo://app?vid=da62dfac-332f-4a1c-b037-b7bc9d12aa56","ios":"levelo://app?vid=da62dfac-332f-4a1c-b037-b7bc9d12aa56"},"vehicle_type_id":"4","last_reported":1714921593,"current_range_meters":0,"station_id":"ce4bh012rcd13ifvqcv0","pricing_plan_id":"cebpf4jnsgd1na2vs0mg"},{"bike_id":"1ecd6e75-f48d-454b-953b-57f798406478","system_id":"levelo_inurba_marseille","lat":43.309038,"lon":5.396546,"is_reserved":false,"is_disabled":false,"rental_uris":{"android":"levelo://app?vid=1ecd6e75-f48d-454b-953b-57f798406478","ios":"levelo://app?vid=1ecd6e75-f48d-454b-953b-57f798406478"},"vehicle_type_id":"4","last_reported":1714921593,"current_range_meters":27200,"station_id":"ce4bh012rcd13ifvqcv0","pricing_plan_id":"cebpf4jnsgd1na2vs0mg"},{"bike_id":"4a90d86b-4ffe-4194-b9c5-5509a5d98b04","system_id":"levelo_inurba_marseille","lat":43.29539,"lon":5.386396,"is_reserved":false,"is_disabled":false,"rental_uris":{"android":"levelo://app?vid=4a90d86b-4ffe-4194-b9c5-5509a5d98b04","ios":"levelo://app?vid=4a90d86b-4ffe-4194-b9c5-5509a5d98b04"},"vehicle_type_id":"4","last_reported":1714921593,"current_range_meters":0,"station_id":"ce4bgih2rcd13ifvqba0","pricing_plan_id":"cebpf4jnsgd1na2vs0mg"},{"bike_id":"03e615b2-e5bd-4d70-aacb-790598cdc51b","system_id":"levelo_inurba_marseille","lat":43.289184,"lon":5.366408,"is_reserved":false,"is_disabled":false,"rental_uris":{"android":"levelo://app?vid=03e615b2-e5bd-4d70-aacb-790598cdc51b","ios":"levelo://app?vid=03e615b2-e5bd-4d70-aacb-790598cdc51b"},"vehicle_type_id":"4","last_reported":1714921593,"current_range_meters":16800,"station_id":"ce4bhap2rcd13ifvqek0","pricing_plan_id":"cebpf4jnsgd1na2vs0mg"},{"bike_id":"b39fe77f-8f36-44fe-9e12-3e71fc50c65e","system_id":"levelo_inurba_marseille","lat":43.290327,"lon":5.375711,"is_reserved":false,"is_disabled":false,"rental_uris":{"android":"levelo://app?vid=b39fe77f-8f36-44fe-9e12-3e71fc50c65e","ios":"levelo://app?vid=b39fe77f-8f36-44fe-9e12-3e71fc50c65e"},"vehicle_type_id":"4","last_reported":1714921593,"current_range_meters":1200,"station_id":"ce4bh692rcd13ifvqe90","pricing_plan_id":"cebpf4jnsgd1na2vs0mg"},{"bike_id":"802f1cc5-d865-4218-bc66-a7602189cd22","system_id":"levelo_inurba_marseille","lat":43.2895,"lon":5.36636,"is_reserved":false,"is_disabled":false,"rental_uris":{"android":"levelo://app?vid=802f1cc5-d865-4218-bc66-a7602189cd22","ios":"levelo://app?vid=802f1cc5-d865-4218-bc66-a7602189cd22"},"vehicle_type_id":"4","last_reported":1714921593,"current_range_meters":0,"station_id":"ce4bhap2rcd13ifvqek0","pricing_plan_id":"cebpf4jnsgd1na2vs0mg"},{"bike_id":"8d9c6bb7-025a-43c6-968e-cb4ff175c61b","system_id":"levelo_inurba_marseille","lat":43.290319,"lon":5.375732,"is_reserved":false,"is_disabled":false,"rental_uris":{"android":"levelo://app?vid=8d9c6bb7-025a-43c6-968e-cb4ff175c61b","ios":"levelo://app?vid=8d9c6bb7-025a-43c6-968e-cb4ff175c61b"},"vehicle_type_id":"4","last_reported":1714921593,"current_range_meters":23200,"station_id":"ce4bh692rcd13ifvqe90","pricing_plan_id":"cebpf4jnsgd1na2vs0mg"},{"bike_id":"81fad076-4081-49cb-9a67-deaf8fa44231","system_id":"levelo_inurba_marseille","lat":43.289184,"lon":5.366408,"is_reserved":false,"is_disabled":false,"rental_uris":{"android":"levelo://app?vid=81fad076-4081-49cb-9a67-deaf8fa44231","ios":"levelo://app?vid=81fad076-4081-49cb-9a67-deaf8fa44231"},"vehicle_type_id":"4","last_reported":1714921593,"current_range_meters":10800,"station_id":"ce4bhap2rcd13ifvqek0","pricing_plan_id":"cebpf4jnsgd1na2vs0mg"},{"bike_id":"49b00d5a-77ff-4a9a-ae7d-5499dc6ab661","system_id":"levelo_inurba_marseille","lat":43.28942,"lon":5.36633,"is_reserved":false,"is_disabled":false,"rental_uris":{"android":"levelo://app?vid=49b00d5a-77ff-4a9a-ae7d-5499dc6ab661","ios":"levelo://app?vid=49b00d5a-77ff-4a9a-ae7d-5499dc6ab661"},"vehicle_type_id":"4","last_reported":1714921593,"current_range_meters":9200,"station_id":"ce4bhap2rcd13ifvqek0","pricing_plan_id":"cebpf4jnsgd1na2vs0mg"},{"bike_id":"7c238d62-b6c4-4d95-80b5-9fb1ac721298","system_id":"levelo_inurba_marseille","lat":43.294017,"lon":5.386113,"is_reserved":false,"is_disabled":false,"rental_uris":{"android":"levelo://app?vid=7c238d62-b6c4-4d95-80b5-9fb1ac721298","ios":"levelo://app?vid=7c238d62-b6c4-4d95-80b5-9fb1ac721298"},"vehicle_type_id":"4","last_reported":1714921593,"current_range_meters":20800,"station_id":"ce4bh2h2rcd13ifvqdh0","pricing_plan_id":"cebpf4jnsgd1na2vs0mg"},{"bike_id":"9f0f963e-e4d3-470c-b9f0-d49a4f5d5c38","system_id":"levelo_inurba_marseille","lat":43.289383,"lon":5.366398,"is_reserved":false,"is_disabled":false,"rental_uris":{"android":"levelo://app?vid=9f0f963e-e4d3-470c-b9f0-d49a4f5d5c38","ios":"levelo://app?vid=9f0f963e-e4d3-470c-b9f0-d49a4f5d5c38"},"vehicle_type_id":"4","last_reported":1714921593,"current_range_meters":0,"station_id":"ce4bhap2rcd13ifvqek0","pricing_plan_id":"cebpf4jnsgd1na2vs0mg"},{"bike_id":"55429490-9048-4f4c-ae89-a9966bb42571","system_id":"levelo_inurba_marseille","lat":43.289468,"lon":5.363719,"is_reserved":false,"is_disabled":false,"rental_uris":{"android":"levelo://app?vid=55429490-9048-4f4c-ae89-a9966bb42571","ios":"levelo://app?vid=55429490-9048-4f4c-ae89-a9966bb42571"},"vehicle_type_id":"4","last_reported":1714921593,"current_range_meters":11200,"station_id":"ce4bhc92rcd13ifvqetg","pricing_plan_id":"cebpf4jnsgd1na2vs0mg"},{"bike_id":"18659ab3-07ec-48ef-859a-c4a77b78c50f","system_id":"levelo_inurba_marseille","lat":43.28938,"lon":5.36401,"is_reserved":false,"is_disabled":false,"rental_uris":{"android":"levelo://app?vid=18659ab3-07ec-48ef-859a-c4a77b78c50f","ios":"levelo://app?vid=18659ab3-07ec-48ef-859a-c4a77b78c50f"},"vehicle_type_id":"4","last_reported":1714921593,"current_range_meters":0,"station_id":"ce4bhc92rcd13ifvqetg","pricing_plan_id":"cebpf4jnsgd1na2vs0mg"},{"bike_id":"0c82b6da-893b-4405-b6bc-9e0c3007d28d","system_id":"levelo_inurba_marseille","lat":43.304296,"lon":5.397513,"is_reserved":false,"is_disabled":false,"rental_uris":{"android":"levelo://app?vid=0c82b6da-893b-4405-b6bc-9e0c3007d28d","ios":"levelo://app?vid=0c82b6da-893b-4405-b6bc-9e0c3007d28d"},"vehicle_type_id":"4","last_reported":1714921593,"current_range_meters":4000,"station_id":"ce4bh092rcd13ifvqd20","pricing_plan_id":"cebpf4jnsgd1na2vs0mg"},{"bike_id":"8be2416c-c876-4ff0-b3c7-dfc00c238b57","system_id":"levelo_inurba_marseille","lat":43.292644,"lon":5.384257,"is_reserved":false,"is_disabled":false,"rental_uris":{"android":"levelo://app?vid=8be2416c-c876-4ff0-b3c7-dfc00c238b57","ios":"levelo://app?vid=8be2416c-c876-4ff0-b3c7-dfc00c238b57"},"vehicle_type_id":"4","last_reported":1714921593,"current_range_meters":0,"station_id":"ce4bh692rcd13ifvqea0","pricing_plan_id":"cebpf4jnsgd1na2vs0mg"},{"bike_id":"f84b48e1-b371-4f0a-8308-30e3cb173be1","system_id":"levelo_inurba_marseille","lat":43.292644,"lon":5.384257,"is_reserved":false,"is_disabled":false,"rental_uris":{"android":"levelo://app?vid=f84b48e1-b371-4f0a-8308-30e3cb173be1","ios":"levelo://app?vid=f84b48e1-b371-4f0a-8308-30e3cb173be1"},"vehicle_type_id":"4","last_reported":1714921593,"current_range_meters":24000,"station_id":"ce4bh692rcd13ifvqea0","pricing_plan_id":"cebpf4jnsgd1na2vs0mg"},{"bike_id":"782eeeac-c687-4e9d-9d1f-5e9021c7f0e8","system_id":"levelo_inurba_marseille","lat":43.292642,"lon":5.384254,"is_reserved":false,"is_disabled":false,"rental_uris":{"android":"levelo://app?vid=782eeeac-c687-4e9d-9d1f-5e9021c7f0e8","ios":"levelo://app?vid=782eeeac-c687-4e9d-9d1f-5e9021c7f0e8"},"vehicle_type_id":"4","last_reported":1714921593,"current_range_meters":12400,"station_id":"ce4bh692rcd13ifvqea0","pricing_plan_id":"cebpf4jnsgd1na2vs0mg"},{"bike_id":"a966d9df-2ec6-4ba1-aa22-0443b06ee6b5","system_id":"levelo_inurba_marseille","lat":43.29016,"lon":5.35611,"is_reserved":false,"is_disabled":false,"rental_uris":{"android":"levelo://app?vid=a966d9df-2ec6-4ba1-aa22-0443b06ee6b5","ios":"levelo://app?vid=a966d9df-2ec6-4ba1-aa22-0443b06ee6b5"},"vehicle_type_id":"4","last_reported":1714921593,"current_range_meters":0,"station_id":"ce4bhb92rcd13ifvqen0","pricing_plan_id":"cebpf4jnsgd1na2vs0mg"},{"bike_id":"ec3af330-4b4d-4921-b2d2-7a18c6fc9d22","system_id":"levelo_inurba_marseille","lat":43.290995,"lon":5.381361,"is_reserved":false,"is_disabled":false,"rental_uris":{"android":"levelo://app?vid=ec3af330-4b4d-4921-b2d2-7a18c6fc9d22","ios":"levelo://app?vid=ec3af330-4b4d-4921-b2d2-7a18c6fc9d22"},"vehicle_type_id":"4","last_reported":1714921593,"current_range_meters":5200,"station_id":"ce4bh512rcd13ifvqe2g","pricing_plan_id":"cebpf4jnsgd1na2vs0mg"},{"bike_id":"66f645ec-9ce0-4725-ab22-7c0bad2f8f46","system_id":"levelo_inurba_marseille","lat":43.290103,"lon":5.356114,"is_reserved":false,"is_disabled":false,"rental_uris":{"android":"levelo://app?vid=66f645ec-9ce0-4725-ab22-7c0bad2f8f46","ios":"levelo://app?vid=66f645ec-9ce0-4725-ab22-7c0bad2f8f46"},"vehicle_type_id":"4","last_reported":1714921593,"current_range_meters":7600,"station_id":"ce4bhb92rcd13ifvqen0","pricing_plan_id":"cebpf4jnsgd1na2vs0mg"},{"bike_id":"3524adb5-0faa-4d7b-8b09-2013944e7de3","system_id":"levelo_inurba_marseille","lat":43.290103,"lon":5.356114,"is_reserved":false,"is_disabled":false,"rental_uris":{"android":"levelo://app?vid=3524adb5-0faa-4d7b-8b09-2013944e7de3","ios":"levelo://app?vid=3524adb5-0faa-4d7b-8b09-2013944e7de3"},"vehicle_type_id":"4","last_reported":1714921593,"current_range_meters":12400,"station_id":"ce4bhb92rcd13ifvqen0","pricing_plan_id":"cebpf4jnsgd1na2vs0mg"},{"bike_id":"3a7f97cc-a181-4343-84af-eed5e2ec2cdc","system_id":"levelo_inurba_marseille","lat":43.290104,"lon":5.356111,"is_reserved":false,"is_disabled":false,"rental_uris":{"android":"levelo://app?vid=3a7f97cc-a181-4343-84af-eed5e2ec2cdc","ios":"levelo://app?vid=3a7f97cc-a181-4343-84af-eed5e2ec2cdc"},"vehicle_type_id":"4","last_reported":1714921593,"current_range_meters":1200,"station_id":"ce4bhb92rcd13ifvqen0","pricing_plan_id":"cebpf4jnsgd1na2vs0mg"},{"bike_id":"a1f10908-6e16-41eb-9f42-ddaa82c8bc32","system_id":"levelo_inurba_marseille","lat":43.290067,"lon":5.356103,"is_reserved":false,"is_disabled":false,"rental_uris":{"android":"levelo://app?vid=a1f10908-6e16-41eb-9f42-ddaa82c8bc32","ios":"levelo://app?vid=a1f10908-6e16-41eb-9f42-ddaa82c8bc32"},"vehicle_type_id":"4","last_reported":1714921593,"current_range_meters":0,"station_id":"ce4bhb92rcd13ifvqen0","pricing_plan_id":"cebpf4jnsgd1na2vs0mg"},{"bike_id":"6050d991-3f6d-4e9a-af3e-e805a2506824","system_id":"levelo_inurba_marseille","lat":43.290103,"lon":5.356114,"is_reserved":false,"is_disabled":false,"rental_uris":{"android":"levelo://app?vid=6050d991-3f6d-4e9a-af3e-e805a2506824","ios":"levelo://app?vid=6050d991-3f6d-4e9a-af3e-e805a2506824"},"vehicle_type_id":"4","last_reported":1714921593,"current_range_meters":28800,"station_id":"ce4bhb92rcd13ifvqen0","pricing_plan_id":"cebpf4jnsgd1na2vs0mg"},{"bike_id":"bbe84023-91f7-498c-b455-af8090f4b000","system_id":"levelo_inurba_marseille","lat":43.29002,"lon":5.35614,"is_reserved":false,"is_disabled":false,"rental_uris":{"android":"levelo://app?vid=bbe84023-91f7-498c-b455-af8090f4b000","ios":"levelo://app?vid=bbe84023-91f7-498c-b455-af8090f4b000"},"vehicle_type_id":"4","last_reported":1714921593,"current_range_meters":0,"station_id":"ce4bhb92rcd13ifvqen0","pricing_plan_id":"cebpf4jnsgd1na2vs0mg"},{"bike_id":"6b881336-e1c4-42bc-920d-e804985bd2ab","system_id":"levelo_inurba_marseille","lat":43.290995,"lon":5.381361,"is_reserved":false,"is_disabled":false,"rental_uris":{"android":"levelo://app?vid=6b881336-e1c4-42bc-920d-e804985bd2ab","ios":"levelo://app?vid=6b881336-e1c4-42bc-920d-e804985bd2ab"},"vehicle_type_id":"4","last_reported":1714921593,"current_range_meters":800,"station_id":"ce4bh512rcd13ifvqe2g","pricing_plan_id":"cebpf4jnsgd1na2vs0mg"},{"bike_id":"a5fb727b-9179-4a99-802e-6d679e9dfc9b","system_id":"levelo_inurba_marseille","lat":43.289809,"lon":5.355605,"is_reserved":false,"is_disabled":false,"rental_uris":{"android":"levelo://app?vid=a5fb727b-9179-4a99-802e-6d679e9dfc9b","ios":"levelo://app?vid=a5fb727b-9179-4a99-802e-6d679e9dfc9b"},"vehicle_type_id":"4","last_reported":1714921593,"current_range_meters":14800,"station_id":"ce4bhb92rcd13ifvqen0","pricing_plan_id":"cebpf4jnsgd1na2vs0mg"},{"bike_id":"35f86c37-f8ed-4e9b-a5d1-6c032de14145","system_id":"levelo_inurba_marseille","lat":43.330442,"lon":5.389148,"is_reserved":false,"is_disabled":false,"rental_uris":{"android":"levelo://app?vid=35f86c37-f8ed-4e9b-a5d1-6c032de14145","ios":"levelo://app?vid=35f86c37-f8ed-4e9b-a5d1-6c032de14145"},"vehicle_type_id":"4","last_reported":1714921593,"current_range_meters":22400,"station_id":"ce4bhr92rcd13ifvqhrg","pricing_plan_id":"cebpf4jnsgd1na2vs0mg"},{"bike_id":"fb50930e-d9ab-4c58-9038-8b368f6ef1ce","system_id":"levelo_inurba_marseille","lat":43.330442,"lon":5.389148,"is_reserved":false,"is_disabled":false,"rental_uris":{"android":"levelo://app?vid=fb50930e-d9ab-4c58-9038-8b368f6ef1ce","ios":"levelo://app?vid=fb50930e-d9ab-4c58-9038-8b368f6ef1ce"},"vehicle_type_id":"4","last_reported":1714921593,"current_range_meters":14800,"station_id":"ce4bhr92rcd13ifvqhrg","pricing_plan_id":"cebpf4jnsgd1na2vs0mg"},{"bike_id":"6d2095b4-5c81-412f-a8bc-d143bf2fd710","system_id":"levelo_inurba_marseille","lat":43.288566,"lon":5.358411,"is_reserved":false,"is_disabled":false,"rental_uris":{"android":"levelo://app?vid=6d2095b4-5c81-412f-a8bc-d143bf2fd710","ios":"levelo://app?vid=6d2095b4-5c81-412f-a8bc-d143bf2fd710"},"vehicle_type_id":"4","last_reported":1714921593,"current_range_meters":0,"station_id":"ce4bhb12rcd13ifvqem0","pricing_plan_id":"cebpf4jnsgd1na2vs0mg"},{"bike_id":"282ce718-da37-46a0-9059-f4382919fcfe","system_id":"levelo_inurba_marseille","lat":43.309371,"lon":5.401449,"is_reserved":false,"is_disabled":false,"rental_uris":{"android":"levelo://app?vid=282ce718-da37-46a0-9059-f4382919fcfe","ios":"levelo://app?vid=282ce718-da37-46a0-9059-f4382919fcfe"},"vehicle_type_id":"4","last_reported":1714921593,"current_range_meters":23200,"station_id":"ce4bgvp2rcd13ifvqct0","pricing_plan_id":"cebpf4jnsgd1na2vs0mg"},{"bike_id":"b1276a31-4b51-4c23-9919-099303832754","system_id":"levelo_inurba_marseille","lat":43.30929,"lon":5.40144,"is_reserved":false,"is_disabled":false,"rental_uris":{"android":"levelo://app?vid=b1276a31-4b51-4c23-9919-099303832754","ios":"levelo://app?vid=b1276a31-4b51-4c23-9919-099303832754"},"vehicle_type_id":"4","last_reported":1714921593,"current_range_meters":22400,"station_id":"ce4bgvp2rcd13ifvqct0","pricing_plan_id":"cebpf4jnsgd1na2vs0mg"},{"bike_id":"22cf14a4-f3a1-429f-ad5d-16b162b67729","system_id":"levelo_inurba_marseille","lat":43.3375,"lon":5.37453,"is_reserved":false,"is_disabled":false,"rental_uris":{"android":"levelo://app?vid=22cf14a4-f3a1-429f-ad5d-16b162b67729","ios":"levelo://app?vid=22cf14a4-f3a1-429f-ad5d-16b162b67729"},"vehicle_type_id":"4","last_reported":1714921593,"current_range_meters":4000,"station_id":"","pricing_plan_id":"cebpf4jnsgd1na2vs0mg"},{"bike_id":"01b1b7bd-5dbd-4411-9455-bdf092035ec7","system_id":"levelo_inurba_marseille","lat":43.33747,"lon":5.3748,"is_reserved":false,"is_disabled":false,"rental_uris":{"android":"levelo://app?vid=01b1b7bd-5dbd-4411-9455-bdf092035ec7","ios":"levelo://app?vid=01b1b7bd-5dbd-4411-9455-bdf092035ec7"},"vehicle_type_id":"4","last_reported":1714921593,"current_range_meters":20800,"station_id":"","pricing_plan_id":"cebpf4jnsgd1na2vs0mg"},{"bike_id":"c2965c40-030a-407b-a472-fca5d0db2691","system_id":"levelo_inurba_marseille","lat":43.33747,"lon":5.37484,"is_reserved":false,"is_disabled":false,"rental_uris":{"android":"levelo://app?vid=c2965c40-030a-407b-a472-fca5d0db2691","ios":"levelo://app?vid=c2965c40-030a-407b-a472-fca5d0db2691"},"vehicle_type_id":"4","last_reported":1714921593,"current_range_meters":20800,"station_id":"","pricing_plan_id":"cebpf4jnsgd1na2vs0mg"},{"bike_id":"b7173264-767a-4600-82d6-2fe1ae1d4552","system_id":"levelo_inurba_marseille","lat":43.33755,"lon":5.37485,"is_reserved":false,"is_disabled":false,"rental_uris":{"android":"levelo://app?vid=b7173264-767a-4600-82d6-2fe1ae1d4552","ios":"levelo://app?vid=b7173264-767a-4600-82d6-2fe1ae1d4552"},"vehicle_type_id":"4","last_reported":1714921593,"current_range_meters":30800,"station_id":"","pricing_plan_id":"cebpf4jnsgd1na2vs0mg"},{"bike_id":"ca8ccd4d-487c-497a-8708-408020f6855c","system_id":"levelo_inurba_marseille","lat":43.337669,"lon":5.374325,"is_reserved":false,"is_disabled":false,"rental_uris":{"android":"levelo://app?vid=ca8ccd4d-487c-497a-8708-408020f6855c","ios":"levelo://app?vid=ca8ccd4d-487c-497a-8708-408020f6855c"},"vehicle_type_id":"4","last_reported":1714921593,"current_range_meters":18800,"station_id":"","pricing_plan_id":"cebpf4jnsgd1na2vs0mg"},{"bike_id":"ef5d437e-c350-4987-8d90-08ab90903350","system_id":"levelo_inurba_marseille","lat":43.295196,"lon":5.39397,"is_reserved":false,"is_disabled":false,"rental_uris":{"android":"levelo://app?vid=ef5d437e-c350-4987-8d90-08ab90903350","ios":"levelo://app?vid=ef5d437e-c350-4987-8d90-08ab90903350"},"vehicle_type_id":"4","last_reported":1714921593,"current_range_meters":12000,"station_id":"ce4bh292rcd13ifvqdf0","pricing_plan_id":"cebpf4jnsgd1na2vs0mg"},{"bike_id":"6bd011bf-24c3-4b0e-8310-4f793526c8e4","system_id":"levelo_inurba_marseille","lat":43.28727,"lon":5.36078,"is_reserved":false,"is_disabled":false,"rental_uris":{"android":"levelo://app?vid=6bd011bf-24c3-4b0e-8310-4f793526c8e4","ios":"levelo://app?vid=6bd011bf-24c3-4b0e-8310-4f793526c8e4"},"vehicle_type_id":"4","last_reported":1714921593,"current_range_meters":22400,"station_id":"cki0cbj6b192h4jlfktg","pricing_plan_id":"cebpf4jnsgd1na2vs0mg"},{"bike_id":"e4261e97-1b0a-4012-be19-f2844070acdb","system_id":"levelo_inurba_marseille","lat":43.295196,"lon":5.39397,"is_reserved":false,"is_disabled":false,"rental_uris":{"android":"levelo://app?vid=e4261e97-1b0a-4012-be19-f2844070acdb","ios":"levelo://app?vid=e4261e97-1b0a-4012-be19-f2844070acdb"},"vehicle_type_id":"4","last_reported":1714921593,"current_range_meters":12000,"station_id":"ce4bh292rcd13ifvqdf0","pricing_plan_id":"cebpf4jnsgd1na2vs0mg"},{"bike_id":"2e815981-eb21-42e8-8d70-ce86a3393141","system_id":"levelo_inurba_marseille","lat":43.286591,"lon":5.363346,"is_reserved":false,"is_disabled":false,"rental_uris":{"android":"levelo://app?vid=2e815981-eb21-42e8-8d70-ce86a3393141","ios":"levelo://app?vid=2e815981-eb21-42e8-8d70-ce86a3393141"},"vehicle_type_id":"4","last_reported":1714921593,"current_range_meters":12400,"station_id":"ce4bhah2rcd13ifvqej0","pricing_plan_id":"cebpf4jnsgd1na2vs0mg"},{"bike_id":"a9a40b45-ae11-49f3-a65f-a2513c7382e1","system_id":"levelo_inurba_marseille","lat":43.286961,"lon":5.373785,"is_reserved":false,"is_disabled":false,"rental_uris":{"android":"levelo://app?vid=a9a40b45-ae11-49f3-a65f-a2513c7382e1","ios":"levelo://app?vid=a9a40b45-ae11-49f3-a65f-a2513c7382e1"},"vehicle_type_id":"4","last_reported":1714921593,"current_range_meters":21200,"station_id":"ce4bh3p2rcd13ifvqdq0","pricing_plan_id":"cebpf4jnsgd1na2vs0mg"},{"bike_id":"3b110e2f-5fde-41ff-b642-dcbba6b6ebf9","system_id":"levelo_inurba_marseille","lat":43.295194,"lon":5.39397,"is_reserved":false,"is_disabled":false,"rental_uris":{"android":"levelo://app?vid=3b110e2f-5fde-41ff-b642-dcbba6b6ebf9","ios":"levelo://app?vid=3b110e2f-5fde-41ff-b642-dcbba6b6ebf9"},"vehicle_type_id":"4","last_reported":1714921593,"current_range_meters":0,"station_id":"ce4bh292rcd13ifvqdf0","pricing_plan_id":"cebpf4jnsgd1na2vs0mg"},{"bike_id":"a145688c-24a8-474b-8f3b-c5b3c15a63e5","system_id":"levelo_inurba_marseille","lat":43.289307,"lon":5.38406,"is_reserved":false,"is_disabled":false,"rental_uris":{"android":"levelo://app?vid=a145688c-24a8-474b-8f3b-c5b3c15a63e5","ios":"levelo://app?vid=a145688c-24a8-474b-8f3b-c5b3c15a63e5"},"vehicle_type_id":"4","last_reported":1714921593,"current_range_meters":400,"station_id":"ce4bh612rcd13ifvqe6g","pricing_plan_id":"cebpf4jnsgd1na2vs0mg"},{"bike_id":"41d8490b-cabf-439a-93c0-9f034bc56eea","system_id":"levelo_inurba_marseille","lat":43.302759,"lon":5.400793,"is_reserved":false,"is_disabled":false,"rental_uris":{"android":"levelo://app?vid=41d8490b-cabf-439a-93c0-9f034bc56eea","ios":"levelo://app?vid=41d8490b-cabf-439a-93c0-9f034bc56eea"},"vehicle_type_id":"4","last_reported":1714921593,"current_range_meters":1600,"station_id":"ce4bgvh2rcd13ifvqcs0","pricing_plan_id":"cebpf4jnsgd1na2vs0mg"},{"bike_id":"f5c8b8c7-0b75-4c2b-a2a2-4ba764fb4b59","system_id":"levelo_inurba_marseille","lat":43.290345,"lon":5.38646,"is_reserved":false,"is_disabled":false,"rental_uris":{"android":"levelo://app?vid=f5c8b8c7-0b75-4c2b-a2a2-4ba764fb4b59","ios":"levelo://app?vid=f5c8b8c7-0b75-4c2b-a2a2-4ba764fb4b59"},"vehicle_type_id":"4","last_reported":1714921593,"current_range_meters":3600,"station_id":"ce4bh4p2rcd13ifvqe0g","pricing_plan_id":"cebpf4jnsgd1na2vs0mg"},{"bike_id":"b6fa641c-953b-40cc-b976-3c66e663a3f0","system_id":"levelo_inurba_marseille","lat":43.289307,"lon":5.38406,"is_reserved":false,"is_disabled":false,"rental_uris":{"android":"levelo://app?vid=b6fa641c-953b-40cc-b976-3c66e663a3f0","ios":"levelo://app?vid=b6fa641c-953b-40cc-b976-3c66e663a3f0"},"vehicle_type_id":"4","last_reported":1714921593,"current_range_meters":13600,"station_id":"ce4bh612rcd13ifvqe6g","pricing_plan_id":"cebpf4jnsgd1na2vs0mg"},{"bike_id":"2116a038-465a-4e63-b014-3e2edce7a87e","system_id":"levelo_inurba_marseille","lat":43.289307,"lon":5.38406,"is_reserved":false,"is_disabled":false,"rental_uris":{"android":"levelo://app?vid=2116a038-465a-4e63-b014-3e2edce7a87e","ios":"levelo://app?vid=2116a038-465a-4e63-b014-3e2edce7a87e"},"vehicle_type_id":"4","last_reported":1714921593,"current_range_meters":13600,"station_id":"ce4bh612rcd13ifvqe6g","pricing_plan_id":"cebpf4jnsgd1na2vs0mg"},{"bike_id":"0e4980f3-d26b-46c8-8a8e-d1ac876353bd","system_id":"levelo_inurba_marseille","lat":43.28922,"lon":5.38392,"is_reserved":false,"is_disabled":false,"rental_uris":{"android":"levelo://app?vid=0e4980f3-d26b-46c8-8a8e-d1ac876353bd","ios":"levelo://app?vid=0e4980f3-d26b-46c8-8a8e-d1ac876353bd"},"vehicle_type_id":"4","last_reported":1714921593,"current_range_meters":16800,"station_id":"ce4bh612rcd13ifvqe6g","pricing_plan_id":"cebpf4jnsgd1na2vs0mg"},{"bike_id":"38de73fa-4cd2-4464-b119-57b92de812fa","system_id":"levelo_inurba_marseille","lat":43.28709,"lon":5.37928,"is_reserved":false,"is_disabled":false,"rental_uris":{"android":"levelo://app?vid=38de73fa-4cd2-4464-b119-57b92de812fa","ios":"levelo://app?vid=38de73fa-4cd2-4464-b119-57b92de812fa"},"vehicle_type_id":"4","last_reported":1714921593,"current_range_meters":17600,"station_id":"ce4bh9p2rcd13ifvqec0","pricing_plan_id":"cebpf4jnsgd1na2vs0mg"},{"bike_id":"ac19dea2-60f1-4f3a-a06a-fcb22265daef","system_id":"levelo_inurba_marseille","lat":43.287994,"lon":5.382701,"is_reserved":false,"is_disabled":false,"rental_uris":{"android":"levelo://app?vid=ac19dea2-60f1-4f3a-a06a-fcb22265daef","ios":"levelo://app?vid=ac19dea2-60f1-4f3a-a06a-fcb22265daef"},"vehicle_type_id":"4","last_reported":1714921593,"current_range_meters":15200,"station_id":"","pricing_plan_id":"cebpf4jnsgd1na2vs0mg"},{"bike_id":"0fdebaa6-fd8e-4e45-9185-1761148725df","system_id":"levelo_inurba_marseille","lat":43.291994,"lon":5.392907,"is_reserved":false,"is_disabled":false,"rental_uris":{"android":"levelo://app?vid=0fdebaa6-fd8e-4e45-9185-1761148725df","ios":"levelo://app?vid=0fdebaa6-fd8e-4e45-9185-1761148725df"},"vehicle_type_id":"4","last_reported":1714921593,"current_range_meters":2000,"station_id":"ce4bh192rcd13ifvqdd0","pricing_plan_id":"cebpf4jnsgd1na2vs0mg"},{"bike_id":"ee1ad99e-402e-46b8-8f1a-b9a1609d950f","system_id":"levelo_inurba_marseille","lat":43.284538,"lon":5.358657,"is_reserved":false,"is_disabled":false,"rental_uris":{"android":"levelo://app?vid=ee1ad99e-402e-46b8-8f1a-b9a1609d950f","ios":"levelo://app?vid=ee1ad99e-402e-46b8-8f1a-b9a1609d950f"},"vehicle_type_id":"4","last_reported":1714921593,"current_range_meters":7600,"station_id":"ce4bhah2rcd13ifvqei0","pricing_plan_id":"cebpf4jnsgd1na2vs0mg"},{"bike_id":"ee221e6b-a0b4-41f9-a38b-e16658cc60b9","system_id":"levelo_inurba_marseille","lat":43.29446,"lon":5.397453,"is_reserved":false,"is_disabled":false,"rental_uris":{"android":"levelo://app?vid=ee221e6b-a0b4-41f9-a38b-e16658cc60b9","ios":"levelo://app?vid=ee221e6b-a0b4-41f9-a38b-e16658cc60b9"},"vehicle_type_id":"4","last_reported":1714921593,"current_range_meters":0,"station_id":"ce4bh3h2rcd13ifvqdo0","pricing_plan_id":"cebpf4jnsgd1na2vs0mg"},{"bike_id":"b24b58c8-713b-46dd-8bfe-bce0f98e139f","system_id":"levelo_inurba_marseille","lat":43.294314,"lon":5.397498,"is_reserved":false,"is_disabled":false,"rental_uris":{"android":"levelo://app?vid=b24b58c8-713b-46dd-8bfe-bce0f98e139f","ios":"levelo://app?vid=b24b58c8-713b-46dd-8bfe-bce0f98e139f"},"vehicle_type_id":"4","last_reported":1714921593,"current_range_meters":15600,"station_id":"ce4bh3h2rcd13ifvqdo0","pricing_plan_id":"cebpf4jnsgd1na2vs0mg"},{"bike_id":"93fdb550-70f8-4a36-b8df-c12a196a471d","system_id":"levelo_inurba_marseille","lat":43.28621,"lon":5.35104,"is_reserved":false,"is_disabled":false,"rental_uris":{"android":"levelo://app?vid=93fdb550-70f8-4a36-b8df-c12a196a471d","ios":"levelo://app?vid=93fdb550-70f8-4a36-b8df-c12a196a471d"},"vehicle_type_id":"4","last_reported":1714921593,"current_range_meters":11600,"station_id":"ce4bhch2rcd13ifvqeug","pricing_plan_id":"cebpf4jnsgd1na2vs0mg"},{"bike_id":"1e9151dc-cb8f-4107-b786-14190c503277","system_id":"levelo_inurba_marseille","lat":43.285856,"lon":5.350771,"is_reserved":false,"is_disabled":false,"rental_uris":{"android":"levelo://app?vid=1e9151dc-cb8f-4107-b786-14190c503277","ios":"levelo://app?vid=1e9151dc-cb8f-4107-b786-14190c503277"},"vehicle_type_id":"4","last_reported":1714921593,"current_range_meters":6000,"station_id":"ce4bhch2rcd13ifvqeug","pricing_plan_id":"cebpf4jnsgd1na2vs0mg"},{"bike_id":"a505032f-0222-4124-94b3-bf98204fd377","system_id":"levelo_inurba_marseille","lat":43.28619,"lon":5.35107,"is_reserved":false,"is_disabled":false,"rental_uris":{"android":"levelo://app?vid=a505032f-0222-4124-94b3-bf98204fd377","ios":"levelo://app?vid=a505032f-0222-4124-94b3-bf98204fd377"},"vehicle_type_id":"4","last_reported":1714921593,"current_range_meters":8400,"station_id":"ce4bhch2rcd13ifvqeug","pricing_plan_id":"cebpf4jnsgd1na2vs0mg"},{"bike_id":"6510a7f7-158c-4a95-ba6f-ad819680de47","system_id":"levelo_inurba_marseille","lat":43.2862,"lon":5.35099,"is_reserved":false,"is_disabled":false,"rental_uris":{"android":"levelo://app?vid=6510a7f7-158c-4a95-ba6f-ad819680de47","ios":"levelo://app?vid=6510a7f7-158c-4a95-ba6f-ad819680de47"},"vehicle_type_id":"4","last_reported":1714921593,"current_range_meters":10800,"station_id":"ce4bhch2rcd13ifvqeug","pricing_plan_id":"cebpf4jnsgd1na2vs0mg"},{"bike_id":"025f1970-d963-4361-bc98-77624ffab88b","system_id":"levelo_inurba_marseille","lat":43.28619,"lon":5.35101,"is_reserved":false,"is_disabled":false,"rental_uris":{"android":"levelo://app?vid=025f1970-d963-4361-bc98-77624ffab88b","ios":"levelo://app?vid=025f1970-d963-4361-bc98-77624ffab88b"},"vehicle_type_id":"4","last_reported":1714921593,"current_range_meters":10000,"station_id":"ce4bhch2rcd13ifvqeug","pricing_plan_id":"cebpf4jnsgd1na2vs0mg"},{"bike_id":"cae60ccf-22ef-4f99-b6f3-5cbdde7d7dba","system_id":"levelo_inurba_marseille","lat":43.28618,"lon":5.35102,"is_reserved":false,"is_disabled":false,"rental_uris":{"android":"levelo://app?vid=cae60ccf-22ef-4f99-b6f3-5cbdde7d7dba","ios":"levelo://app?vid=cae60ccf-22ef-4f99-b6f3-5cbdde7d7dba"},"vehicle_type_id":"4","last_reported":1714921593,"current_range_meters":0,"station_id":"ce4bhch2rcd13ifvqeug","pricing_plan_id":"cebpf4jnsgd1na2vs0mg"},{"bike_id":"08bfcac3-2bb8-4550-9c0b-702ffaaaa7d6","system_id":"levelo_inurba_marseille","lat":43.28617,"lon":5.35105,"is_reserved":false,"is_disabled":false,"rental_uris":{"android":"levelo://app?vid=08bfcac3-2bb8-4550-9c0b-702ffaaaa7d6","ios":"levelo://app?vid=08bfcac3-2bb8-4550-9c0b-702ffaaaa7d6"},"vehicle_type_id":"4","last_reported":1714921593,"current_range_meters":8000,"station_id":"ce4bhch2rcd13ifvqeug","pricing_plan_id":"cebpf4jnsgd1na2vs0mg"},{"bike_id":"b64f8222-82b8-4a2b-89da-7ab5f9c7f0b4","system_id":"levelo_inurba_marseille","lat":43.28616,"lon":5.35108,"is_reserved":false,"is_disabled":false,"rental_uris":{"android":"levelo://app?vid=b64f8222-82b8-4a2b-89da-7ab5f9c7f0b4","ios":"levelo://app?vid=b64f8222-82b8-4a2b-89da-7ab5f9c7f0b4"},"vehicle_type_id":"4","last_reported":1714921593,"current_range_meters":7200,"station_id":"ce4bhch2rcd13ifvqeug","pricing_plan_id":"cebpf4jnsgd1na2vs0mg"},{"bike_id":"fd73d440-73b2-45b6-83f4-0f8d1b013250","system_id":"levelo_inurba_marseille","lat":43.28618,"lon":5.35101,"is_reserved":false,"is_disabled":false,"rental_uris":{"android":"levelo://app?vid=fd73d440-73b2-45b6-83f4-0f8d1b013250","ios":"levelo://app?vid=fd73d440-73b2-45b6-83f4-0f8d1b013250"},"vehicle_type_id":"4","last_reported":1714921593,"current_range_meters":5200,"station_id":"ce4bhch2rcd13ifvqeug","pricing_plan_id":"cebpf4jnsgd1na2vs0mg"},{"bike_id":"f19b2e91-1351-47e2-abb0-21f95006ea05","system_id":"levelo_inurba_marseille","lat":43.28616,"lon":5.35107,"is_reserved":false,"is_disabled":false,"rental_uris":{"android":"levelo://app?vid=f19b2e91-1351-47e2-abb0-21f95006ea05","ios":"levelo://app?vid=f19b2e91-1351-47e2-abb0-21f95006ea05"},"vehicle_type_id":"4","last_reported":1714921593,"current_range_meters":29200,"station_id":"ce4bhch2rcd13ifvqeug","pricing_plan_id":"cebpf4jnsgd1na2vs0mg"},{"bike_id":"3a3c8550-dc84-4c98-97c3-cd862d032290","system_id":"levelo_inurba_marseille","lat":43.285848,"lon":5.350787,"is_reserved":false,"is_disabled":false,"rental_uris":{"android":"levelo://app?vid=3a3c8550-dc84-4c98-97c3-cd862d032290","ios":"levelo://app?vid=3a3c8550-dc84-4c98-97c3-cd862d032290"},"vehicle_type_id":"4","last_reported":1714921593,"current_range_meters":13200,"station_id":"ce4bhch2rcd13ifvqeug","pricing_plan_id":"cebpf4jnsgd1na2vs0mg"},{"bike_id":"9aaba4af-3920-4527-a15b-3c9399479851","system_id":"levelo_inurba_marseille","lat":43.28617,"lon":5.35102,"is_reserved":false,"is_disabled":false,"rental_uris":{"android":"levelo://app?vid=9aaba4af-3920-4527-a15b-3c9399479851","ios":"levelo://app?vid=9aaba4af-3920-4527-a15b-3c9399479851"},"vehicle_type_id":"4","last_reported":1714921593,"current_range_meters":25200,"station_id":"ce4bhch2rcd13ifvqeug","pricing_plan_id":"cebpf4jnsgd1na2vs0mg"},{"bike_id":"18d78b59-3080-4ff7-befd-b7dfd50012fc","system_id":"levelo_inurba_marseille","lat":43.286157,"lon":5.35106,"is_reserved":false,"is_disabled":false,"rental_uris":{"android":"levelo://app?vid=18d78b59-3080-4ff7-befd-b7dfd50012fc","ios":"levelo://app?vid=18d78b59-3080-4ff7-befd-b7dfd50012fc"},"vehicle_type_id":"4","last_reported":1714921593,"current_range_meters":29200,"station_id":"ce4bhch2rcd13ifvqeug","pricing_plan_id":"cebpf4jnsgd1na2vs0mg"},{"bike_id":"cfcb1ba8-407c-4850-af3b-22b5dfd37986","system_id":"levelo_inurba_marseille","lat":43.28616,"lon":5.35105,"is_reserved":false,"is_disabled":false,"rental_uris":{"android":"levelo://app?vid=cfcb1ba8-407c-4850-af3b-22b5dfd37986","ios":"levelo://app?vid=cfcb1ba8-407c-4850-af3b-22b5dfd37986"},"vehicle_type_id":"4","last_reported":1714921593,"current_range_meters":22800,"station_id":"ce4bhch2rcd13ifvqeug","pricing_plan_id":"cebpf4jnsgd1na2vs0mg"},{"bike_id":"d1cde66f-969d-4195-96bd-3806aa4aa7bd","system_id":"levelo_inurba_marseille","lat":43.28616,"lon":5.35103,"is_reserved":false,"is_disabled":false,"rental_uris":{"android":"levelo://app?vid=d1cde66f-969d-4195-96bd-3806aa4aa7bd","ios":"levelo://app?vid=d1cde66f-969d-4195-96bd-3806aa4aa7bd"},"vehicle_type_id":"4","last_reported":1714921593,"current_range_meters":10800,"station_id":"ce4bhch2rcd13ifvqeug","pricing_plan_id":"cebpf4jnsgd1na2vs0mg"},{"bike_id":"f0fa5ace-247f-4e60-ae7b-5389311ed38a","system_id":"levelo_inurba_marseille","lat":43.28616,"lon":5.35101,"is_reserved":false,"is_disabled":false,"rental_uris":{"android":"levelo://app?vid=f0fa5ace-247f-4e60-ae7b-5389311ed38a","ios":"levelo://app?vid=f0fa5ace-247f-4e60-ae7b-5389311ed38a"},"vehicle_type_id":"4","last_reported":1714921593,"current_range_meters":6000,"station_id":"ce4bhch2rcd13ifvqeug","pricing_plan_id":"cebpf4jnsgd1na2vs0mg"},{"bike_id":"c0f92431-0e88-439e-80dc-81b74e4bcb1f","system_id":"levelo_inurba_marseille","lat":43.28614,"lon":5.35105,"is_reserved":false,"is_disabled":false,"rental_uris":{"android":"levelo://app?vid=c0f92431-0e88-439e-80dc-81b74e4bcb1f","ios":"levelo://app?vid=c0f92431-0e88-439e-80dc-81b74e4bcb1f"},"vehicle_type_id":"4","last_reported":1714921593,"current_range_meters":23600,"station_id":"ce4bhch2rcd13ifvqeug","pricing_plan_id":"cebpf4jnsgd1na2vs0mg"},{"bike_id":"c0e4a321-c998-4319-9f20-671270fb87b4","system_id":"levelo_inurba_marseille","lat":43.28614,"lon":5.35104,"is_reserved":false,"is_disabled":false,"rental_uris":{"android":"levelo://app?vid=c0e4a321-c998-4319-9f20-671270fb87b4","ios":"levelo://app?vid=c0e4a321-c998-4319-9f20-671270fb87b4"},"vehicle_type_id":"4","last_reported":1714921593,"current_range_meters":11600,"station_id":"ce4bhch2rcd13ifvqeug","pricing_plan_id":"cebpf4jnsgd1na2vs0mg"},{"bike_id":"7e406677-23d2-46a0-af1b-0c60df9538ea","system_id":"levelo_inurba_marseille","lat":43.28614,"lon":5.35103,"is_reserved":false,"is_disabled":false,"rental_uris":{"android":"levelo://app?vid=7e406677-23d2-46a0-af1b-0c60df9538ea","ios":"levelo://app?vid=7e406677-23d2-46a0-af1b-0c60df9538ea"},"vehicle_type_id":"4","last_reported":1714921593,"current_range_meters":25600,"station_id":"ce4bhch2rcd13ifvqeug","pricing_plan_id":"cebpf4jnsgd1na2vs0mg"},{"bike_id":"d482cfe5-df3d-4600-9cee-b8ef46d41162","system_id":"levelo_inurba_marseille","lat":43.28613,"lon":5.35104,"is_reserved":false,"is_disabled":false,"rental_uris":{"android":"levelo://app?vid=d482cfe5-df3d-4600-9cee-b8ef46d41162","ios":"levelo://app?vid=d482cfe5-df3d-4600-9cee-b8ef46d41162"},"vehicle_type_id":"4","last_reported":1714921593,"current_range_meters":18000,"station_id":"ce4bhch2rcd13ifvqeug","pricing_plan_id":"cebpf4jnsgd1na2vs0mg"},{"bike_id":"a8f11267-e3f4-4314-b6e3-6868ebd0102d","system_id":"levelo_inurba_marseille","lat":43.28613,"lon":5.35101,"is_reserved":false,"is_disabled":false,"rental_uris":{"android":"levelo://app?vid=a8f11267-e3f4-4314-b6e3-6868ebd0102d","ios":"levelo://app?vid=a8f11267-e3f4-4314-b6e3-6868ebd0102d"},"vehicle_type_id":"4","last_reported":1714921593,"current_range_meters":25200,"station_id":"ce4bhch2rcd13ifvqeug","pricing_plan_id":"cebpf4jnsgd1na2vs0mg"},{"bike_id":"f5e6e16a-6452-4a97-8a95-0bcb64983177","system_id":"levelo_inurba_marseille","lat":43.28614,"lon":5.35097,"is_reserved":false,"is_disabled":false,"rental_uris":{"android":"levelo://app?vid=f5e6e16a-6452-4a97-8a95-0bcb64983177","ios":"levelo://app?vid=f5e6e16a-6452-4a97-8a95-0bcb64983177"},"vehicle_type_id":"4","last_reported":1714921593,"current_range_meters":8000,"station_id":"ce4bhch2rcd13ifvqeug","pricing_plan_id":"cebpf4jnsgd1na2vs0mg"},{"bike_id":"2f3e4a61-0986-4f4f-a4bd-242fdde135b5","system_id":"levelo_inurba_marseille","lat":43.28613,"lon":5.351,"is_reserved":false,"is_disabled":false,"rental_uris":{"android":"levelo://app?vid=2f3e4a61-0986-4f4f-a4bd-242fdde135b5","ios":"levelo://app?vid=2f3e4a61-0986-4f4f-a4bd-242fdde135b5"},"vehicle_type_id":"4","last_reported":1714921593,"current_range_meters":28000,"station_id":"ce4bhch2rcd13ifvqeug","pricing_plan_id":"cebpf4jnsgd1na2vs0mg"},{"bike_id":"19389aa2-a834-4f5c-ad36-8b6c7c77a3aa","system_id":"levelo_inurba_marseille","lat":43.28612,"lon":5.35102,"is_reserved":false,"is_disabled":false,"rental_uris":{"android":"levelo://app?vid=19389aa2-a834-4f5c-ad36-8b6c7c77a3aa","ios":"levelo://app?vid=19389aa2-a834-4f5c-ad36-8b6c7c77a3aa"},"vehicle_type_id":"4","last_reported":1714921593,"current_range_meters":400,"station_id":"ce4bhch2rcd13ifvqeug","pricing_plan_id":"cebpf4jnsgd1na2vs0mg"},{"bike_id":"67f587bb-d5d5-4e0a-865d-64c8ceeeec3c","system_id":"levelo_inurba_marseille","lat":43.28611,"lon":5.35097,"is_reserved":false,"is_disabled":false,"rental_uris":{"android":"levelo://app?vid=67f587bb-d5d5-4e0a-865d-64c8ceeeec3c","ios":"levelo://app?vid=67f587bb-d5d5-4e0a-865d-64c8ceeeec3c"},"vehicle_type_id":"4","last_reported":1714921593,"current_range_meters":25600,"station_id":"ce4bhch2rcd13ifvqeug","pricing_plan_id":"cebpf4jnsgd1na2vs0mg"},{"bike_id":"588beccb-ca24-4f04-b763-b62047090229","system_id":"levelo_inurba_marseille","lat":43.2861,"lon":5.35096,"is_reserved":false,"is_disabled":false,"rental_uris":{"android":"levelo://app?vid=588beccb-ca24-4f04-b763-b62047090229","ios":"levelo://app?vid=588beccb-ca24-4f04-b763-b62047090229"},"vehicle_type_id":"4","last_reported":1714921593,"current_range_meters":1200,"station_id":"ce4bhch2rcd13ifvqeug","pricing_plan_id":"cebpf4jnsgd1na2vs0mg"},{"bike_id":"38a94375-6930-431b-81e6-69e1e4f626bf","system_id":"levelo_inurba_marseille","lat":43.29571,"lon":5.39968,"is_reserved":false,"is_disabled":false,"rental_uris":{"android":"levelo://app?vid=38a94375-6930-431b-81e6-69e1e4f626bf","ios":"levelo://app?vid=38a94375-6930-431b-81e6-69e1e4f626bf"},"vehicle_type_id":"4","last_reported":1714921593,"current_range_meters":0,"station_id":"ce4bh312rcd13ifvqdj0","pricing_plan_id":"cebpf4jnsgd1na2vs0mg"},{"bike_id":"89f31275-2c00-45a9-b1dd-fb4e8637c7b0","system_id":"levelo_inurba_marseille","lat":43.283998,"lon":5.375062,"is_reserved":false,"is_disabled":false,"rental_uris":{"android":"levelo://app?vid=89f31275-2c00-45a9-b1dd-fb4e8637c7b0","ios":"levelo://app?vid=89f31275-2c00-45a9-b1dd-fb4e8637c7b0"},"vehicle_type_id":"4","last_reported":1714921593,"current_range_meters":18800,"station_id":"ce4bh412rcd13ifvqds0","pricing_plan_id":"cebpf4jnsgd1na2vs0mg"},{"bike_id":"132c681a-3017-46ff-bc9d-fcbbf41af4ae","system_id":"levelo_inurba_marseille","lat":43.28404,"lon":5.37515,"is_reserved":false,"is_disabled":false,"rental_uris":{"android":"levelo://app?vid=132c681a-3017-46ff-bc9d-fcbbf41af4ae","ios":"levelo://app?vid=132c681a-3017-46ff-bc9d-fcbbf41af4ae"},"vehicle_type_id":"4","last_reported":1714921593,"current_range_meters":3600,"station_id":"ce4bh412rcd13ifvqds0","pricing_plan_id":"cebpf4jnsgd1na2vs0mg"},{"bike_id":"962ddfdf-68a5-492f-94fa-66ace836d883","system_id":"levelo_inurba_marseille","lat":43.286595,"lon":5.386795,"is_reserved":false,"is_disabled":false,"rental_uris":{"android":"levelo://app?vid=962ddfdf-68a5-492f-94fa-66ace836d883","ios":"levelo://app?vid=962ddfdf-68a5-492f-94fa-66ace836d883"},"vehicle_type_id":"4","last_reported":1714921593,"current_range_meters":16000,"station_id":"ce4bh492rcd13ifvqdug","pricing_plan_id":"cebpf4jnsgd1na2vs0mg"},{"bike_id":"566b5b39-c959-48ef-9260-851e22a94372","system_id":"levelo_inurba_marseille","lat":43.290103,"lon":5.356114,"is_reserved":false,"is_disabled":false,"rental_uris":{"android":"levelo://app?vid=566b5b39-c959-48ef-9260-851e22a94372","ios":"levelo://app?vid=566b5b39-c959-48ef-9260-851e22a94372"},"vehicle_type_id":"4","last_reported":1714921593,"current_range_meters":8800,"station_id":"ce4bhb92rcd13ifvqen0","pricing_plan_id":"cebpf4jnsgd1na2vs0mg"},{"bike_id":"6059b312-b15d-4086-a16f-023054f17366","system_id":"levelo_inurba_marseille","lat":43.33717,"lon":5.391857,"is_reserved":false,"is_disabled":false,"rental_uris":{"android":"levelo://app?vid=6059b312-b15d-4086-a16f-023054f17366","ios":"levelo://app?vid=6059b312-b15d-4086-a16f-023054f17366"},"vehicle_type_id":"4","last_reported":1714921593,"current_range_meters":31600,"station_id":"ce4bhr92rcd13ifvqhsg","pricing_plan_id":"cebpf4jnsgd1na2vs0mg"},{"bike_id":"1148216d-3cf9-466a-a863-a8013f843238","system_id":"levelo_inurba_marseille","lat":43.337168,"lon":5.391825,"is_reserved":false,"is_disabled":false,"rental_uris":{"android":"levelo://app?vid=1148216d-3cf9-466a-a863-a8013f843238","ios":"levelo://app?vid=1148216d-3cf9-466a-a863-a8013f843238"},"vehicle_type_id":"4","last_reported":1714921593,"current_range_meters":26400,"station_id":"ce4bhr92rcd13ifvqhsg","pricing_plan_id":"cebpf4jnsgd1na2vs0mg"},{"bike_id":"c22b5bdc-3e4f-4c6c-81f4-34a07d5d5230","system_id":"levelo_inurba_marseille","lat":43.323464,"lon":5.406297,"is_reserved":false,"is_disabled":false,"rental_uris":{"android":"levelo://app?vid=c22b5bdc-3e4f-4c6c-81f4-34a07d5d5230","ios":"levelo://app?vid=c22b5bdc-3e4f-4c6c-81f4-34a07d5d5230"},"vehicle_type_id":"4","last_reported":1714921593,"current_range_meters":26400,"station_id":"ce4bhq92rcd13ifvqhjg","pricing_plan_id":"cebpf4jnsgd1na2vs0mg"},{"bike_id":"b52255ee-4144-4c7d-91e2-f53ed2084969","system_id":"levelo_inurba_marseille","lat":43.284793,"lon":5.384113,"is_reserved":false,"is_disabled":false,"rental_uris":{"android":"levelo://app?vid=b52255ee-4144-4c7d-91e2-f53ed2084969","ios":"levelo://app?vid=b52255ee-4144-4c7d-91e2-f53ed2084969"},"vehicle_type_id":"4","last_reported":1714921593,"current_range_meters":29600,"station_id":"ce4bh512rcd13ifvqe3g","pricing_plan_id":"cebpf4jnsgd1na2vs0mg"},{"bike_id":"3d9a902a-5509-4c74-961a-4b2884ea0576","system_id":"levelo_inurba_marseille","lat":43.283498,"lon":5.380948,"is_reserved":false,"is_disabled":false,"rental_uris":{"android":"levelo://app?vid=3d9a902a-5509-4c74-961a-4b2884ea0576","ios":"levelo://app?vid=3d9a902a-5509-4c74-961a-4b2884ea0576"},"vehicle_type_id":"4","last_reported":1714921593,"current_range_meters":4000,"station_id":"ce4bh412rcd13ifvqdr0","pricing_plan_id":"cebpf4jnsgd1na2vs0mg"},{"bike_id":"b06fafab-5db3-4b84-abf1-62cef2d834dd","system_id":"levelo_inurba_marseille","lat":43.284214,"lon":5.349706,"is_reserved":false,"is_disabled":false,"rental_uris":{"android":"levelo://app?vid=b06fafab-5db3-4b84-abf1-62cef2d834dd","ios":"levelo://app?vid=b06fafab-5db3-4b84-abf1-62cef2d834dd"},"vehicle_type_id":"4","last_reported":1714921593,"current_range_meters":28000,"station_id":"ce4bhbh2rcd13ifvqepg","pricing_plan_id":"cebpf4jnsgd1na2vs0mg"},{"bike_id":"59187297-c103-4b07-8cff-13400905b02e","system_id":"levelo_inurba_marseille","lat":43.284214,"lon":5.349706,"is_reserved":false,"is_disabled":false,"rental_uris":{"android":"levelo://app?vid=59187297-c103-4b07-8cff-13400905b02e","ios":"levelo://app?vid=59187297-c103-4b07-8cff-13400905b02e"},"vehicle_type_id":"4","last_reported":1714921593,"current_range_meters":30800,"station_id":"ce4bhbh2rcd13ifvqepg","pricing_plan_id":"cebpf4jnsgd1na2vs0mg"},{"bike_id":"0139a917-92ed-45cc-b348-e3e2556b6e15","system_id":"levelo_inurba_marseille","lat":43.284219,"lon":5.3497,"is_reserved":false,"is_disabled":false,"rental_uris":{"android":"levelo://app?vid=0139a917-92ed-45cc-b348-e3e2556b6e15","ios":"levelo://app?vid=0139a917-92ed-45cc-b348-e3e2556b6e15"},"vehicle_type_id":"4","last_reported":1714921593,"current_range_meters":21600,"station_id":"ce4bhbh2rcd13ifvqepg","pricing_plan_id":"cebpf4jnsgd1na2vs0mg"},{"bike_id":"565214e3-36c2-41f7-89b1-7b5fb4cd31c7","system_id":"levelo_inurba_marseille","lat":43.284217,"lon":5.349697,"is_reserved":false,"is_disabled":false,"rental_uris":{"android":"levelo://app?vid=565214e3-36c2-41f7-89b1-7b5fb4cd31c7","ios":"levelo://app?vid=565214e3-36c2-41f7-89b1-7b5fb4cd31c7"},"vehicle_type_id":"4","last_reported":1714921593,"current_range_meters":31600,"station_id":"ce4bhbh2rcd13ifvqepg","pricing_plan_id":"cebpf4jnsgd1na2vs0mg"},{"bike_id":"493a20e9-dc3d-41b6-830e-65c5057a4418","system_id":"levelo_inurba_marseille","lat":43.28422,"lon":5.34999,"is_reserved":false,"is_disabled":false,"rental_uris":{"android":"levelo://app?vid=493a20e9-dc3d-41b6-830e-65c5057a4418","ios":"levelo://app?vid=493a20e9-dc3d-41b6-830e-65c5057a4418"},"vehicle_type_id":"4","last_reported":1714921593,"current_range_meters":25600,"station_id":"ce4bhbh2rcd13ifvqepg","pricing_plan_id":"cebpf4jnsgd1na2vs0mg"},{"bike_id":"38fe37ae-0520-4e09-90a9-e663b1ba4b21","system_id":"levelo_inurba_marseille","lat":43.28425,"lon":5.34989,"is_reserved":false,"is_disabled":false,"rental_uris":{"android":"levelo://app?vid=38fe37ae-0520-4e09-90a9-e663b1ba4b21","ios":"levelo://app?vid=38fe37ae-0520-4e09-90a9-e663b1ba4b21"},"vehicle_type_id":"4","last_reported":1714921593,"current_range_meters":26000,"station_id":"ce4bhbh2rcd13ifvqepg","pricing_plan_id":"cebpf4jnsgd1na2vs0mg"},{"bike_id":"9ed05be6-8609-4e47-b946-fb116575cfbf","system_id":"levelo_inurba_marseille","lat":43.284219,"lon":5.3497,"is_reserved":false,"is_disabled":false,"rental_uris":{"android":"levelo://app?vid=9ed05be6-8609-4e47-b946-fb116575cfbf","ios":"levelo://app?vid=9ed05be6-8609-4e47-b946-fb116575cfbf"},"vehicle_type_id":"4","last_reported":1714921593,"current_range_meters":16800,"station_id":"ce4bhbh2rcd13ifvqepg","pricing_plan_id":"cebpf4jnsgd1na2vs0mg"},{"bike_id":"42b19938-0bde-4b43-b913-bd5c4bbe75fa","system_id":"levelo_inurba_marseille","lat":43.284219,"lon":5.3497,"is_reserved":false,"is_disabled":false,"rental_uris":{"android":"levelo://app?vid=42b19938-0bde-4b43-b913-bd5c4bbe75fa","ios":"levelo://app?vid=42b19938-0bde-4b43-b913-bd5c4bbe75fa"},"vehicle_type_id":"4","last_reported":1714921593,"current_range_meters":21600,"station_id":"ce4bhbh2rcd13ifvqepg","pricing_plan_id":"cebpf4jnsgd1na2vs0mg"},{"bike_id":"8d2601cd-19da-42d2-8064-4626881e90e4","system_id":"levelo_inurba_marseille","lat":43.284214,"lon":5.349706,"is_reserved":false,"is_disabled":false,"rental_uris":{"android":"levelo://app?vid=8d2601cd-19da-42d2-8064-4626881e90e4","ios":"levelo://app?vid=8d2601cd-19da-42d2-8064-4626881e90e4"},"vehicle_type_id":"4","last_reported":1714921593,"current_range_meters":22400,"station_id":"ce4bhbh2rcd13ifvqepg","pricing_plan_id":"cebpf4jnsgd1na2vs0mg"},{"bike_id":"faf4a3e2-0cd4-4f1a-9c89-3f93e687163d","system_id":"levelo_inurba_marseille","lat":43.2842,"lon":5.34988,"is_reserved":false,"is_disabled":false,"rental_uris":{"android":"levelo://app?vid=faf4a3e2-0cd4-4f1a-9c89-3f93e687163d","ios":"levelo://app?vid=faf4a3e2-0cd4-4f1a-9c89-3f93e687163d"},"vehicle_type_id":"4","last_reported":1714921593,"current_range_meters":0,"station_id":"ce4bhbh2rcd13ifvqepg","pricing_plan_id":"cebpf4jnsgd1na2vs0mg"},