{"last_updated":1693598820,"ttl":30,"version":"2.2","data":{"bikes":[{"bike_id":"8214a226-41f9-4a56-9195-1a396a23c9de","system_id":"levelo_inurba_marseille","lat":43.312239,"lon":5.368562,"is_reserved":false,"is_disabled":false,"rental_uris":{"android":"levelo://app?vid=8214a226-41f9-4a56-9195-1a396a23c9de","ios":"levelo://app?vid=8214a226-41f9-4a56-9195-1a396a23c9de"},"vehicle_type_id":"4","last_reported":1693598820,"current_range_meters":22800,"station_id":"ce4bgl92rcd13ifvqbq0","pricing_plan_id":"free"},{"bike_id":"edd8a4c6-44e8-4b9d-a38a-8265b2800530","system_id":"levelo_inurba_marseille","lat":43.312239,"lon":5.368562,"is_reserved":false,"is_disabled":false,"rental_uris":{"android":"levelo://app?vid=edd8a4c6-44e8-4b9d-a38a-8265b2800530","ios":"levelo://app?vid=edd8a4c6-44e8-4b9d-a38a-8265b2800530"},"vehicle_type_id":"4","last_reported":1693598820,"current_range_meters":15200,"station_id":"ce4bgl92rcd13ifvqbq0","pricing_plan_id":"free"},{"bike_id":"8223ed73-6276-46a4-98a2-974a1df0fe65","system_id":"levelo_inurba_marseille","lat":43.312239,"lon":5.368562,"is_reserved":false,"is_disabled":false,"rental_uris":{"android":"levelo://app?vid=8223ed73-6276-46a4-98a2-974a1df0fe65","ios":"levelo://app?vid=8223ed73-6276-46a4-98a2-974a1df0fe65"},"vehicle_type_id":"4","last_reported":1693598820,"current_range_meters":21200,"station_id":"ce4bgl92rcd13ifvqbq0","pricing_plan_id":"free"},{"bike_id":"f1d04b79-6d2b-4458-91ac-6b2bed34ae92","system_id":"levelo_inurba_marseille","lat":43.309076,"lon":5.368465,"is_reserved":false,"is_disabled":false,"rental_uris":{"android":"levelo://app?vid=f1d04b79-6d2b-4458-91ac-6b2bed34ae92","ios":"levelo://app?vid=f1d04b79-6d2b-4458-91ac-6b2bed34ae92"},"vehicle_type_id":"4","last_reported":1693598820,"current_range_meters":0,"station_id":"ce4bgn92rcd13ifvqbvg","pricing_plan_id":"free"},{"bike_id":"20aaa129-52a8-4094-a730-1970b543294e","system_id":"levelo_inurba_marseille","lat":43.314811,"lon":5.373103,"is_reserved":false,"is_disabled":false,"rental_uris":{"android":"levelo://app?vid=20aaa129-52a8-4094-a730-1970b543294e","ios":"levelo://app?vid=20aaa129-52a8-4094-a730-1970b543294e"},"vehicle_type_id":"4","last_reported":1693598820,"current_range_meters":22400,"station_id":"ce4bgt12rcd13ifvqcd0","pricing_plan_id":"free"},{"bike_id":"d2be997d-44d2-40a5-bb20-02aeaaf65fa5","system_id":"levelo_inurba_marseille","lat":43.314811,"lon":5.373104,"is_reserved":false,"is_disabled":false,"rental_uris":{"android":"levelo://app?vid=d2be997d-44d2-40a5-bb20-02aeaaf65fa5","ios":"levelo://app?vid=d2be997d-44d2-40a5-bb20-02aeaaf65fa5"},"vehicle_type_id":"4","last_reported":1693598820,"current_range_meters":30800,"station_id":"ce4bgt12rcd13ifvqcd0","pricing_plan_id":"free"},{"bike_id":"845531f4-5ec1-402e-aaf8-c70966a913e2","system_id":"levelo_inurba_marseille","lat":43.314811,"lon":5.373103,"is_reserved":false,"is_disabled":false,"rental_uris":{"android":"levelo://app?vid=845531f4-5ec1-402e-aaf8-c70966a913e2","ios":"levelo://app?vid=845531f4-5ec1-402e-aaf8-c70966a913e2"},"vehicle_type_id":"4","last_reported":1693598820,"current_range_meters":19200,"station_id":"ce4bgt12rcd13ifvqcd0","pricing_plan_id":"free"},{"bike_id":"45b92bbc-5809-473c-ae1e-aa7779de068c","system_id":"levelo_inurba_marseille","lat":43.30898,"lon":5.37185,"is_reserved":false,"is_disabled":false,"rental_uris":{"android":"levelo://app?vid=45b92bbc-5809-473c-ae1e-aa7779de068c","ios":"levelo://app?vid=45b92bbc-5809-473c-ae1e-aa7779de068c"},"vehicle_type_id":"4","last_reported":1693598820,"current_range_meters":13600,"station_id":"ce4bguh2rcd13ifvqckg","pricing_plan_id":"free"},{"bike_id":"fc21e9cc-81c7-4410-a686-1826a77af952","system_id":"levelo_inurba_marseille","lat":43.309039,"lon":5.371797,"is_reserved":false,"is_disabled":false,"rental_uris":{"android":"levelo://app?vid=fc21e9cc-81c7-4410-a686-1826a77af952","ios":"levelo://app?vid=fc21e9cc-81c7-4410-a686-1826a77af952"},"vehicle_type_id":"4","last_reported":1693598820,"current_range_meters":11600,"station_id":"ce4bguh2rcd13ifvqckg","pricing_plan_id":"free"},{"bike_id":"76779ad5-f914-4ad1-86a7-a7406d4399f6","system_id":"levelo_inurba_marseille","lat":43.30891,"lon":5.37192,"is_reserved":false,"is_disabled":false,"rental_uris":{"android":"levelo://app?vid=76779ad5-f914-4ad1-86a7-a7406d4399f6","ios":"levelo://app?vid=76779ad5-f914-4ad1-86a7-a7406d4399f6"},"vehicle_type_id":"4","last_reported":1693598820,"current_range_meters":16400,"station_id":"ce4bguh2rcd13ifvqckg","pricing_plan_id":"free"},{"bike_id":"dbdfb9f1-27ea-41a9-8aaa-8528b50c591b","system_id":"levelo_inurba_marseille","lat":43.309039,"lon":5.371797,"is_reserved":false,"is_disabled":false,"rental_uris":{"android":"levelo://app?vid=dbdfb9f1-27ea-41a9-8aaa-8528b50c591b","ios":"levelo://app?vid=dbdfb9f1-27ea-41a9-8aaa-8528b50c591b"},"vehicle_type_id":"4","last_reported":1693598820,"current_range_meters":23600,"station_id":"ce4bguh2rcd13ifvqckg","pricing_plan_id":"free"},{"bike_id":"91a2612c-3865-48b4-9050-0a0ede693d35","system_id":"levelo_inurba_marseille","lat":43.305989,"lon":5.37225,"is_reserved":false,"is_disabled":false,"rental_uris":{"android":"levelo://app?vid=91a2612c-3865-48b4-9050-0a0ede693d35","ios":"levelo://app?vid=91a2612c-3865-48b4-9050-0a0ede693d35"},"vehicle_type_id":"4","last_reported":1693598820,"current_range_meters":14800,"station_id":"ce4bgqh2rcd13ifvqc4g","pricing_plan_id":"free"},{"bike_id":"0fe14439-f5fb-4611-be00-cccecea170c2","system_id":"levelo_inurba_marseille","lat":43.30602,"lon":5.37222,"is_reserved":false,"is_disabled":false,"rental_uris":{"android":"levelo://app?vid=0fe14439-f5fb-4611-be00-cccecea170c2","ios":"levelo://app?vid=0fe14439-f5fb-4611-be00-cccecea170c2"},"vehicle_type_id":"4","last_reported":1693598820,"current_range_meters":28000,"station_id":"ce4bgqh2rcd13ifvqc4g","pricing_plan_id":"free"},{"bike_id":"5b553c2a-459c-4234-b727-e9408200025a","system_id":"levelo_inurba_marseille","lat":43.311131,"lon":5.377651,"is_reserved":false,"is_disabled":false,"rental_uris":{"android":"levelo://app?vid=5b553c2a-459c-4234-b727-e9408200025a","ios":"levelo://app?vid=5b553c2a-459c-4234-b727-e9408200025a"},"vehicle_type_id":"4","last_reported":1693598820,"current_range_meters":5600,"station_id":"ce4bgt92rcd13ifvqcg0","pricing_plan_id":"free"},{"bike_id":"96cf4c32-db00-4cb8-b0a3-d6c84e6d7046","system_id":"levelo_inurba_marseille","lat":43.311131,"lon":5.377651,"is_reserved":false,"is_disabled":false,"rental_uris":{"android":"levelo://app?vid=96cf4c32-db00-4cb8-b0a3-d6c84e6d7046","ios":"levelo://app?vid=96cf4c32-db00-4cb8-b0a3-d6c84e6d7046"},"vehicle_type_id":"4","last_reported":1693598820,"current_range_meters":8800,"station_id":"ce4bgt92rcd13ifvqcg0","pricing_plan_id":"free"},{"bike_id":"1bc24091-5590-4bd2-a736-68f1fcdb711d","system_id":"levelo_inurba_marseille","lat":43.311125,"lon":5.377624,"is_reserved":false,"is_disabled":false,"rental_uris":{"android":"levelo://app?vid=1bc24091-5590-4bd2-a736-68f1fcdb711d","ios":"levelo://app?vid=1bc24091-5590-4bd2-a736-68f1fcdb711d"},"vehicle_type_id":"4","last_reported":1693598820,"current_range_meters":2400,"station_id":"ce4bgt92rcd13ifvqcg0","pricing_plan_id":"free"},{"bike_id":"0a8bc6ea-896e-45e9-8f79-184bc706b2c8","system_id":"levelo_inurba_marseille","lat":43.311131,"lon":5.377651,"is_reserved":false,"is_disabled":false,"rental_uris":{"android":"levelo://app?vid=0a8bc6ea-896e-45e9-8f79-184bc706b2c8","ios":"levelo://app?vid=0a8bc6ea-896e-45e9-8f79-184bc706b2c8"},"vehicle_type_id":"4","last_reported":1693598820,"current_range_meters":27600,"station_id":"ce4bgt92rcd13ifvqcg0","pricing_plan_id":"free"},{"bike_id":"98bf92d7-d38f-4a5b-afc7-d43abdbdd918","system_id":"levelo_inurba_marseille","lat":43.311125,"lon":5.377624,"is_reserved":false,"is_disabled":false,"rental_uris":{"android":"levelo://app?vid=98bf92d7-d38f-4a5b-afc7-d43abdbdd918","ios":"levelo://app?vid=98bf92d7-d38f-4a5b-afc7-d43abdbdd918"},"vehicle_type_id":"4","last_reported":1693598820,"current_range_meters":21600,"station_id":"ce4bgt92rcd13ifvqcg0","pricing_plan_id":"free"},{"bike_id":"b2bb8ee1-953c-4e20-825c-2a8290b24960","system_id":"levelo_inurba_marseille","lat":43.311125,"lon":5.377624,"is_reserved":false,"is_disabled":false,"rental_uris":{"android":"levelo://app?vid=b2bb8ee1-953c-4e20-825c-2a8290b24960","ios":"levelo://app?vid=b2bb8ee1-953c-4e20-825c-2a8290b24960"},"vehicle_type_id":"4","last_reported":1693598820,"current_range_meters":800,"station_id":"ce4bgt92rcd13ifvqcg0","pricing_plan_id":"free"},{"bike_id":"478e5943-5bdf-46ce-b102-8c9dcf2b43b7","system_id":"levelo_inurba_marseille","lat":43.32036,"lon":5.37108,"is_reserved":false,"is_disabled":false,"rental_uris":{"android":"levelo://app?vid=478e5943-5bdf-46ce-b102-8c9dcf2b43b7","ios":"levelo://app?vid=478e5943-5bdf-46ce-b102-8c9dcf2b43b7"},"vehicle_type_id":"4","last_reported":1693598820,"current_range_meters":11200,"station_id":"","pricing_plan_id":"free"},{"bike_id":"d4f6e01b-ef0c-47ae-b736-e50485906c06","system_id":"levelo_inurba_marseille","lat":43.307945,"lon":5.376487,"is_reserved":false,"is_disabled":false,"rental_uris":{"android":"levelo://app?vid=d4f6e01b-ef0c-47ae-b736-e50485906c06","ios":"levelo://app?vid=d4f6e01b-ef0c-47ae-b736-e50485906c06"},"vehicle_type_id":"4","last_reported":1693598820,"current_range_meters":5600,"station_id":"ce4bgv92rcd13ifvqcq0","pricing_plan_id":"free"},{"bike_id":"cd2430b5-d827-457f-a12a-f29afa394529","system_id":"levelo_inurba_marseille","lat":43.317075,"lon":5.377367,"is_reserved":false,"is_disabled":false,"rental_uris":{"android":"levelo://app?vid=cd2430b5-d827-457f-a12a-f29afa394529","ios":"levelo://app?vid=cd2430b5-d827-457f-a12a-f29afa394529"},"vehicle_type_id":"4","last_reported":1693598820,"current_range_meters":21600,"station_id":"ce4bgth2rcd13ifvqch0","pricing_plan_id":"free"},{"bike_id":"789e1c4c-7275-4f68-9ff5-9bcaad86797f","system_id":"levelo_inurba_marseille","lat":43.303046,"lon":5.368981,"is_reserved":false,"is_disabled":false,"rental_uris":{"android":"levelo://app?vid=789e1c4c-7275-4f68-9ff5-9bcaad86797f","ios":"levelo://app?vid=789e1c4c-7275-4f68-9ff5-9bcaad86797f"},"vehicle_type_id":"4","last_reported":1693598820,"current_range_meters":0,"station_id":"ce4bgqh2rcd13ifvqc5g","pricing_plan_id":"free"},{"bike_id":"9dbfb0b2-a7cf-4105-b5e7-5cc01e87f170","system_id":"levelo_inurba_marseille","lat":43.3153,"lon":5.38031,"is_reserved":false,"is_disabled":false,"rental_uris":{"android":"levelo://app?vid=9dbfb0b2-a7cf-4105-b5e7-5cc01e87f170","ios":"levelo://app?vid=9dbfb0b2-a7cf-4105-b5e7-5cc01e87f170"},"vehicle_type_id":"4","last_reported":1693598820,"current_range_meters":29600,"station_id":"ce4bhsp2rcd13ifvqi50","pricing_plan_id":"free"},{"bike_id":"835f3d5b-3ea7-4499-b76b-f4a1b50f9a72","system_id":"levelo_inurba_marseille","lat":43.301939,"lon":5.366286,"is_reserved":false,"is_disabled":false,"rental_uris":{"android":"levelo://app?vid=835f3d5b-3ea7-4499-b76b-f4a1b50f9a72","ios":"levelo://app?vid=835f3d5b-3ea7-4499-b76b-f4a1b50f9a72"},"vehicle_type_id":"4","last_reported":1693598820,"current_range_meters":22000,"station_id":"ce4bgrh2rcd13ifvqc8g","pricing_plan_id":"free"},{"bike_id":"9bea51f9-ea43-4b31-8db7-dddbb2670e77","system_id":"levelo_inurba_marseille","lat":43.30465,"lon":5.37901,"is_reserved":false,"is_disabled":false,"rental_uris":{"android":"levelo://app?vid=9bea51f9-ea43-4b31-8db7-dddbb2670e77","ios":"levelo://app?vid=9bea51f9-ea43-4b31-8db7-dddbb2670e77"},"vehicle_type_id":"4","last_reported":1693598820,"current_range_meters":30800,"station_id":"ce4bgup2rcd13ifvqcn0","pricing_plan_id":"free"},{"bike_id":"b44bee94-15eb-4ca1-a789-5f43b599c114","system_id":"levelo_inurba_marseille","lat":43.30161,"lon":5.37414,"is_reserved":false,"is_disabled":false,"rental_uris":{"android":"levelo://app?vid=b44bee94-15eb-4ca1-a789-5f43b599c114","ios":"levelo://app?vid=b44bee94-15eb-4ca1-a789-5f43b599c114"},"vehicle_type_id":"4","last_reported":1693598820,"current_range_meters":11200,"station_id":"","pricing_plan_id":"free"},{"bike_id":"dbf03ef2-74c8-4e39-9d91-b728525d07cb","system_id":"levelo_inurba_marseille","lat":43.302784,"lon":5.377158,"is_reserved":false,"is_disabled":false,"rental_uris":{"android":"levelo://app?vid=dbf03ef2-74c8-4e39-9d91-b728525d07cb","ios":"levelo://app?vid=dbf03ef2-74c8-4e39-9d91-b728525d07cb"},"vehicle_type_id":"4","last_reported":1693598820,"current_range_meters":29600,"station_id":"ce4bguh2rcd13ifvqcj0","pricing_plan_id":"free"},{"bike_id":"c0aa06d4-ea1c-42f1-82e3-b4b98c641344","system_id":"levelo_inurba_marseille","lat":43.31998,"lon":5.38144,"is_reserved":false,"is_disabled":false,"rental_uris":{"android":"levelo://app?vid=c0aa06d4-ea1c-42f1-82e3-b4b98c641344","ios":"levelo://app?vid=c0aa06d4-ea1c-42f1-82e3-b4b98c641344"},"vehicle_type_id":"4","last_reported":1693598820,"current_range_meters":23200,"station_id":"ce4bhr12rcd13ifvqhpg","pricing_plan_id":"free"},{"bike_id":"1e0f211e-028a-46cb-9a0d-9899ac904750","system_id":"levelo_inurba_marseille","lat":43.31997,"lon":5.38146,"is_reserved":false,"is_disabled":false,"rental_uris":{"android":"levelo://app?vid=1e0f211e-028a-46cb-9a0d-9899ac904750","ios":"levelo://app?vid=1e0f211e-028a-46cb-9a0d-9899ac904750"},"vehicle_type_id":"4","last_reported":1693598820,"current_range_meters":28800,"station_id":"ce4bhr12rcd13ifvqhpg","pricing_plan_id":"free"},{"bike_id":"d13e2fc0-5196-41d3-8d49-bf9314309b08","system_id":"levelo_inurba_marseille","lat":43.319935,"lon":5.381699,"is_reserved":false,"is_disabled":false,"rental_uris":{"android":"levelo://app?vid=d13e2fc0-5196-41d3-8d49-bf9314309b08","ios":"levelo://app?vid=d13e2fc0-5196-41d3-8d49-bf9314309b08"},"vehicle_type_id":"4","last_reported":1693598820,"current_range_meters":31200,"station_id":"ce4bhr12rcd13ifvqhpg","pricing_plan_id":"free"},{"bike_id":"3ce12e8d-2187-433e-90ea-725012bee47a","system_id":"levelo_inurba_marseille","lat":43.31996,"lon":5.3815,"is_reserved":false,"is_disabled":false,"rental_uris":{"android":"levelo://app?vid=3ce12e8d-2187-433e-90ea-725012bee47a","ios":"levelo://app?vid=3ce12e8d-2187-433e-90ea-725012bee47a"},"vehicle_type_id":"4","last_reported":1693598820,"current_range_meters":26400,"station_id":"ce4bhr12rcd13ifvqhpg","pricing_plan_id":"free"},{"bike_id":"77cc4a87-903a-4ac8-836f-05d771ccc1e4","system_id":"levelo_inurba_marseille","lat":43.319935,"lon":5.381699,"is_reserved":false,"is_disabled":false,"rental_uris":{"android":"levelo://app?vid=77cc4a87-903a-4ac8-836f-05d771ccc1e4","ios":"levelo://app?vid=77cc4a87-903a-4ac8-836f-05d771ccc1e4"},"vehicle_type_id":"4","last_reported":1693598820,"current_range_meters":26800,"station_id":"ce4bhr12rcd13ifvqhpg","pricing_plan_id":"free"},{"bike_id":"b6abff1c-f097-4297-b7f5-e905b62cd8ab","system_id":"levelo_inurba_marseille","lat":43.32001,"lon":5.38149,"is_reserved":false,"is_disabled":false,"rental_uris":{"android":"levelo://app?vid=b6abff1c-f097-4297-b7f5-e905b62cd8ab","ios":"levelo://app?vid=b6abff1c-f097-4297-b7f5-e905b62cd8ab"},"vehicle_type_id":"4","last_reported":1693598820,"current_range_meters":18800,"station_id":"ce4bhr12rcd13ifvqhpg","pricing_plan_id":"free"},{"bike_id":"cc28612f-b913-4e07-81a1-e8a4df49747b","system_id":"levelo_inurba_marseille","lat":43.319935,"lon":5.381699,"is_reserved":false,"is_disabled":false,"rental_uris":{"android":"levelo://app?vid=cc28612f-b913-4e07-81a1-e8a4df49747b","ios":"levelo://app?vid=cc28612f-b913-4e07-81a1-e8a4df49747b"},"vehicle_type_id":"4","last_reported":1693598820,"current_range_meters":16800,"station_id":"ce4bhr12rcd13ifvqhpg","pricing_plan_id":"free"},{"bike_id":"00edcf87-6a10-4e8c-a610-8fd14ac44513","system_id":"levelo_inurba_marseille","lat":43.31998,"lon":5.381603,"is_reserved":false,"is_disabled":false,"rental_uris":{"android":"levelo://app?vid=00edcf87-6a10-4e8c-a610-8fd14ac44513","ios":"levelo://app?vid=00edcf87-6a10-4e8c-a610-8fd14ac44513"},"vehicle_type_id":"4","last_reported":1693598820,"current_range_meters":16800,"station_id":"ce4bhr12rcd13ifvqhpg","pricing_plan_id":"free"},{"bike_id":"414ddebc-50ee-4b72-8933-b9fb6243d3af","system_id":"levelo_inurba_marseille","lat":43.313571,"lon":5.384829,"is_reserved":false,"is_disabled":false,"rental_uris":{"android":"levelo://app?vid=414ddebc-50ee-4b72-8933-b9fb6243d3af","ios":"levelo://app?vid=414ddebc-50ee-4b72-8933-b9fb6243d3af"},"vehicle_type_id":"4","last_reported":1693598820,"current_range_meters":13200,"station_id":"ce4bgt92rcd13ifvqcf0","pricing_plan_id":"free"},{"bike_id":"4ae58d25-f777-459d-8748-105368245b55","system_id":"levelo_inurba_marseille","lat":43.313571,"lon":5.384829,"is_reserved":false,"is_disabled":false,"rental_uris":{"android":"levelo://app?vid=4ae58d25-f777-459d-8748-105368245b55","ios":"levelo://app?vid=4ae58d25-f777-459d-8748-105368245b55"},"vehicle_type_id":"4","last_reported":1693598820,"current_range_meters":20800,"station_id":"ce4bgt92rcd13ifvqcf0","pricing_plan_id":"free"},{"bike_id":"45f20a59-c022-42d0-9e41-5fd7fba30146","system_id":"levelo_inurba_marseille","lat":43.30537,"lon":5.38421,"is_reserved":false,"is_disabled":false,"rental_uris":{"android":"levelo://app?vid=45f20a59-c022-42d0-9e41-5fd7fba30146","ios":"levelo://app?vid=45f20a59-c022-42d0-9e41-5fd7fba30146"},"vehicle_type_id":"4","last_reported":1693598820,"current_range_meters":3200,"station_id":"ce4bgg92rcd13ifvqb30","pricing_plan_id":"free"},{"bike_id":"4ade4f25-81eb-4790-8b82-da5cbe4a7854","system_id":"levelo_inurba_marseille","lat":43.305364,"lon":5.384119,"is_reserved":false,"is_disabled":false,"rental_uris":{"android":"levelo://app?vid=4ade4f25-81eb-4790-8b82-da5cbe4a7854","ios":"levelo://app?vid=4ade4f25-81eb-4790-8b82-da5cbe4a7854"},"vehicle_type_id":"4","last_reported":1693598820,"current_range_meters":20800,"station_id":"ce4bgg92rcd13ifvqb30","pricing_plan_id":"free"},{"bike_id":"da2e6ba6-9fcb-413e-8371-19c2f62b947b","system_id":"levelo_inurba_marseille","lat":43.298433,"lon":5.362774,"is_reserved":false,"is_disabled":false,"rental_uris":{"android":"levelo://app?vid=da2e6ba6-9fcb-413e-8371-19c2f62b947b","ios":"levelo://app?vid=da2e6ba6-9fcb-413e-8371-19c2f62b947b"},"vehicle_type_id":"4","last_reported":1693598820,"current_range_meters":13600,"station_id":"ce4bgpp2rcd13ifvqc3g","pricing_plan_id":"free"},{"bike_id":"869ca548-97c2-4abf-bbba-b18e247d2fad","system_id":"levelo_inurba_marseille","lat":43.30535,"lon":5.38433,"is_reserved":false,"is_disabled":false,"rental_uris":{"android":"levelo://app?vid=869ca548-97c2-4abf-bbba-b18e247d2fad","ios":"levelo://app?vid=869ca548-97c2-4abf-bbba-b18e247d2fad"},"vehicle_type_id":"4","last_reported":1693598820,"current_range_meters":0,"station_id":"ce4bgg92rcd13ifvqb30","pricing_plan_id":"free"},{"bike_id":"0d375795-512b-4698-877c-0dd7ffcad4d9","system_id":"levelo_inurba_marseille","lat":43.305364,"lon":5.384119,"is_reserved":false,"is_disabled":false,"rental_uris":{"android":"levelo://app?vid=0d375795-512b-4698-877c-0dd7ffcad4d9","ios":"levelo://app?vid=0d375795-512b-4698-877c-0dd7ffcad4d9"},"vehicle_type_id":"4","last_reported":1693598820,"current_range_meters":1600,"station_id":"ce4bgg92rcd13ifvqb30","pricing_plan_id":"free"},{"bike_id":"b2e8338d-3ca9-42f1-ab8c-a3b85a421810","system_id":"levelo_inurba_marseille","lat":43.311722,"lon":5.387247,"is_reserved":false,"is_disabled":false,"rental_uris":{"android":"levelo://app?vid=b2e8338d-3ca9-42f1-ab8c-a3b85a421810","ios":"levelo://app?vid=b2e8338d-3ca9-42f1-ab8c-a3b85a421810"},"vehicle_type_id":"4","last_reported":1693598820,"current_range_meters":30000,"station_id":"ce4bgv12rcd13ifvqcp0","pricing_plan_id":"free"},{"bike_id":"2787b3a9-a734-430f-93c3-9cdac1c5480a","system_id":"levelo_inurba_marseille","lat":43.311722,"lon":5.387247,"is_reserved":false,"is_disabled":false,"rental_uris":{"android":"levelo://app?vid=2787b3a9-a734-430f-93c3-9cdac1c5480a","ios":"levelo://app?vid=2787b3a9-a734-430f-93c3-9cdac1c5480a"},"vehicle_type_id":"4","last_reported":1693598820,"current_range_meters":4400,"station_id":"ce4bgv12rcd13ifvqcp0","pricing_plan_id":"free"},{"bike_id":"050ec1c3-7ce2-452e-a5b9-800ce73f308c","system_id":"levelo_inurba_marseille","lat":43.311722,"lon":5.387247,"is_reserved":false,"is_disabled":false,"rental_uris":{"android":"levelo://app?vid=050ec1c3-7ce2-452e-a5b9-800ce73f308c","ios":"levelo://app?vid=050ec1c3-7ce2-452e-a5b9-800ce73f308c"},"vehicle_type_id":"4","last_reported":1693598820,"current_range_meters":4400,"station_id":"ce4bgv12rcd13ifvqcp0","pricing_plan_id":"free"},{"bike_id":"7907798f-9429-4e10-ad1e-c23347674211","system_id":"levelo_inurba_marseille","lat":43.311722,"lon":5.387247,"is_reserved":false,"is_disabled":false,"rental_uris":{"android":"levelo://app?vid=7907798f-9429-4e10-ad1e-c23347674211","ios":"levelo://app?vid=7907798f-9429-4e10-ad1e-c23347674211"},"vehicle_type_id":"4","last_reported":1693598820,"current_range_meters":10400,"station_id":"ce4bgv12rcd13ifvqcp0","pricing_plan_id":"free"},{"bike_id":"c2ec4fbc-8b23-4e69-a172-23a461a681e6","system_id":"levelo_inurba_marseille","lat":43.311722,"lon":5.387247,"is_reserved":false,"is_disabled":false,"rental_uris":{"android":"levelo://app?vid=c2ec4fbc-8b23-4e69-a172-23a461a681e6","ios":"levelo://app?vid=c2ec4fbc-8b23-4e69-a172-23a461a681e6"},"vehicle_type_id":"4","last_reported":1693598820,"current_range_meters":8800,"station_id":"ce4bgv12rcd13ifvqcp0","pricing_plan_id":"free"},{"bike_id":"836ee4b7-ecc3-4a0d-8603-b32b6febec90","system_id":"levelo_inurba_marseille","lat":43.311722,"lon":5.387247,"is_reserved":false,"is_disabled":false,"rental_uris":{"android":"levelo://app?vid=836ee4b7-ecc3-4a0d-8603-b32b6febec90","ios":"levelo://app?vid=836ee4b7-ecc3-4a0d-8603-b32b6febec90"},"vehicle_type_id":"4","last_reported":1693598820,"current_range_meters":10400,"station_id":"ce4bgv12rcd13ifvqcp0","pricing_plan_id":"free"},{"bike_id":"27e1b2f2-13ce-4f0d-ae11-867c202da577","system_id":"levelo_inurba_marseille","lat":43.311722,"lon":5.387247,"is_reserved":false,"is_disabled":false,"rental_uris":{"android":"levelo://app?vid=27e1b2f2-13ce-4f0d-ae11-867c202da577","ios":"levelo://app?vid=27e1b2f2-13ce-4f0d-ae11-867c202da577"},"vehicle_type_id":"4","last_reported":1693598820,"current_range_meters":11200,"station_id":"ce4bgv12rcd13ifvqcp0","pricing_plan_id":"free"},{"bike_id":"2f9e2def-2173-4eb4-a460-9a385f59debe","system_id":"levelo_inurba_marseille","lat":43.299243,"lon":5.37481,"is_reserved":false,"is_disabled":false,"rental_uris":{"android":"levelo://app?vid=2f9e2def-2173-4eb4-a460-9a385f59debe","ios":"levelo://app?vid=2f9e2def-2173-4eb4-a460-9a385f59debe"},"vehicle_type_id":"4","last_reported":1693598820,"current_range_meters":31200,"station_id":"ce4bgjh2rcd13ifvqbg0","pricing_plan_id":"free"},{"bike_id":"b1637fee-f770-43c1-8fbb-27221feb94a8","system_id":"levelo_inurba_marseille","lat":43.311722,"lon":5.387247,"is_reserved":false,"is_disabled":false,"rental_uris":{"android":"levelo://app?vid=b1637fee-f770-43c1-8fbb-27221feb94a8","ios":"levelo://app?vid=b1637fee-f770-43c1-8fbb-27221feb94a8"},"vehicle_type_id":"4","last_reported":1693598820,"current_range_meters":29600,"station_id":"ce4bgv12rcd13ifvqcp0","pricing_plan_id":"free"},{"bike_id":"924d6452-f7f7-4baa-af9a-49926af70474","system_id":"levelo_inurba_marseille","lat":43.297794,"lon":5.370888,"is_reserved":false,"is_disabled":false,"rental_uris":{"android":"levelo://app?vid=924d6452-f7f7-4baa-af9a-49926af70474","ios":"levelo://app?vid=924d6452-f7f7-4baa-af9a-49926af70474"},"vehicle_type_id":"4","last_reported":1693598820,"current_range_meters":28400,"station_id":"ce4bgop2rcd13ifvqc1g","pricing_plan_id":"free"},{"bike_id":"8143ebd5-c5c5-467f-a353-1c0066f90341","system_id":"levelo_inurba_marseille","lat":43.29786,"lon":5.37098,"is_reserved":false,"is_disabled":false,"rental_uris":{"android":"levelo://app?vid=8143ebd5-c5c5-467f-a353-1c0066f90341","ios":"levelo://app?vid=8143ebd5-c5c5-467f-a353-1c0066f90341"},"vehicle_type_id":"4","last_reported":1693598820,"current_range_meters":31200,"station_id":"ce4bgop2rcd13ifvqc1g","pricing_plan_id":"free"},{"bike_id":"88c4a93e-f84a-4492-9ca8-7095f26ad20a","system_id":"levelo_inurba_marseille","lat":43.32271,"lon":5.38272,"is_reserved":false,"is_disabled":false,"rental_uris":{"android":"levelo://app?vid=88c4a93e-f84a-4492-9ca8-7095f26ad20a","ios":"levelo://app?vid=88c4a93e-f84a-4492-9ca8-7095f26ad20a"},"vehicle_type_id":"4","last_reported":1693598820,"current_range_meters":14000,"station_id":"ce4bhr12rcd13ifvqhqg","pricing_plan_id":"free"},{"bike_id":"3d2a691c-74eb-4958-aebd-9ebc95f3d8a8","system_id":"levelo_inurba_marseille","lat":43.32286,"lon":5.38272,"is_reserved":false,"is_disabled":false,"rental_uris":{"android":"levelo://app?vid=3d2a691c-74eb-4958-aebd-9ebc95f3d8a8","ios":"levelo://app?vid=3d2a691c-74eb-4958-aebd-9ebc95f3d8a8"},"vehicle_type_id":"4","last_reported":1693598820,"current_range_meters":13600,"station_id":"ce4bhr12rcd13ifvqhqg","pricing_plan_id":"free"},{"bike_id":"c29114e8-dc25-4be3-832f-1611beb9061c","system_id":"levelo_inurba_marseille","lat":43.32287,"lon":5.38272,"is_reserved":false,"is_disabled":false,"rental_uris":{"android":"levelo://app?vid=c29114e8-dc25-4be3-832f-1611beb9061c","ios":"levelo://app?vid=c29114e8-dc25-4be3-832f-1611beb9061c"},"vehicle_type_id":"4","last_reported":1693598820,"current_range_meters":26000,"station_id":"ce4bhr12rcd13ifvqhqg","pricing_plan_id":"free"},{"bike_id":"bc8f34a2-0447-439b-8108-9a4250aef71a","system_id":"levelo_inurba_marseille","lat":43.32294,"lon":5.38267,"is_reserved":false,"is_disabled":false,"rental_uris":{"android":"levelo://app?vid=bc8f34a2-0447-439b-8108-9a4250aef71a","ios":"levelo://app?vid=bc8f34a2-0447-439b-8108-9a4250aef71a"},"vehicle_type_id":"4","last_reported":1693598820,"current_range_meters":29600,"station_id":"ce4bhr12rcd13ifvqhqg","pricing_plan_id":"free"},{"bike_id":"c5eee610-be09-4243-9cee-abef8479a037","system_id":"levelo_inurba_marseille","lat":43.32286,"lon":5.38278,"is_reserved":false,"is_disabled":false,"rental_uris":{"android":"levelo://app?vid=c5eee610-be09-4243-9cee-abef8479a037","ios":"levelo://app?vid=c5eee610-be09-4243-9cee-abef8479a037"},"vehicle_type_id":"4","last_reported":1693598820,"current_range_meters":14800,"station_id":"ce4bhr12rcd13ifvqhqg","pricing_plan_id":"free"},{"bike_id":"61aecc97-3e80-4a49-8c3e-0135b524d154","system_id":"levelo_inurba_marseille","lat":43.32294,"lon":5.38279,"is_reserved":false,"is_disabled":false,"rental_uris":{"android":"levelo://app?vid=61aecc97-3e80-4a49-8c3e-0135b524d154","ios":"levelo://app?vid=61aecc97-3e80-4a49-8c3e-0135b524d154"},"vehicle_type_id":"4","last_reported":1693598820,"current_range_meters":22000,"station_id":"ce4bhr12rcd13ifvqhqg","pricing_plan_id":"free"},{"bike_id":"c60d4868-4096-4de5-aded-d4c06007e703","system_id":"levelo_inurba_marseille","lat":43.32828,"lon":5.36695,"is_reserved":false,"is_disabled":false,"rental_uris":{"android":"levelo://app?vid=c60d4868-4096-4de5-aded-d4c06007e703","ios":"levelo://app?vid=c60d4868-4096-4de5-aded-d4c06007e703"},"vehicle_type_id":"4","last_reported":1693598820,"current_range_meters":2400,"station_id":"ce4bhs92rcd13ifvqi0g","pricing_plan_id":"free"},{"bike_id":"3dbd29e3-656f-4591-9768-b2ad20e6e577","system_id":"levelo_inurba_marseille","lat":43.3283,"lon":5.36693,"is_reserved":false,"is_disabled":false,"rental_uris":{"android":"levelo://app?vid=3dbd29e3-656f-4591-9768-b2ad20e6e577","ios":"levelo://app?vid=3dbd29e3-656f-4591-9768-b2ad20e6e577"},"vehicle_type_id":"4","last_reported":1693598820,"current_range_meters":2800,"station_id":"ce4bhs92rcd13ifvqi0g","pricing_plan_id":"free"},{"bike_id":"bd0bd295-6ecc-40c4-a4d0-89f645593756","system_id":"levelo_inurba_marseille","lat":43.297163,"lon":5.365866,"is_reserved":false,"is_disabled":false,"rental_uris":{"android":"levelo://app?vid=bd0bd295-6ecc-40c4-a4d0-89f645593756","ios":"levelo://app?vid=bd0bd295-6ecc-40c4-a4d0-89f645593756"},"vehicle_type_id":"4","last_reported":1693598820,"current_range_meters":21600,"station_id":"ce4bgn12rcd13ifvqbt0","pricing_plan_id":"free"},{"bike_id":"dd789220-e7b5-42c1-b9dc-dc4243148021","system_id":"levelo_inurba_marseille","lat":43.297163,"lon":5.365866,"is_reserved":false,"is_disabled":false,"rental_uris":{"android":"levelo://app?vid=dd789220-e7b5-42c1-b9dc-dc4243148021","ios":"levelo://app?vid=dd789220-e7b5-42c1-b9dc-dc4243148021"},"vehicle_type_id":"4","last_reported":1693598820,"current_range_meters":31600,"station_id":"ce4bgn12rcd13ifvqbt0","pricing_plan_id":"free"},{"bike_id":"3de0ebeb-800b-45b0-9be0-5b0f6d30f8b1","system_id":"levelo_inurba_marseille","lat":43.297163,"lon":5.365866,"is_reserved":false,"is_disabled":false,"rental_uris":{"android":"levelo://app?vid=3de0ebeb-800b-45b0-9be0-5b0f6d30f8b1","ios":"levelo://app?vid=3de0ebeb-800b-45b0-9be0-5b0f6d30f8b1"},"vehicle_type_id":"4","last_reported":1693598820,"current_range_meters":29600,"station_id":"ce4bgn12rcd13ifvqbt0","pricing_plan_id":"free"},{"bike_id":"00c157ca-a5a8-49d0-a5fe-1a6e7f7f8a87","system_id":"levelo_inurba_marseille","lat":43.2968,"lon":5.37291,"is_reserved":false,"is_disabled":false,"rental_uris":{"android":"levelo://app?vid=00c157ca-a5a8-49d0-a5fe-1a6e7f7f8a87","ios":"levelo://app?vid=00c157ca-a5a8-49d0-a5fe-1a6e7f7f8a87"},"vehicle_type_id":"4","last_reported":1693598820,"current_range_meters":27200,"station_id":"ce4bgk12rcd13ifvqbj0","pricing_plan_id":"free"},{"bike_id":"10d32cd1-8307-45ca-ad3e-2653e5514234","system_id":"levelo_inurba_marseille","lat":43.2964,"lon":5.37123,"is_reserved":false,"is_disabled":false,"rental_uris":{"android":"levelo://app?vid=10d32cd1-8307-45ca-ad3e-2653e5514234","ios":"levelo://app?vid=10d32cd1-8307-45ca-ad3e-2653e5514234"},"vehicle_type_id":"4","last_reported":1693598820,"current_range_meters":0,"station_id":"","pricing_plan_id":"free"},{"bike_id":"65d934c8-ea94-404c-b991-a012f59c0b64","system_id":"levelo_inurba_marseille","lat":43.296129,"lon":5.370777,"is_reserved":false,"is_disabled":false,"rental_uris":{"android":"levelo://app?vid=65d934c8-ea94-404c-b991-a012f59c0b64","ios":"levelo://app?vid=65d934c8-ea94-404c-b991-a012f59c0b64"},"vehicle_type_id":"4","last_reported":1693598820,"current_range_meters":26000,"station_id":"ce4bgnh2rcd13ifvqc0g","pricing_plan_id":"free"},{"bike_id":"d3139180-8ba9-4c91-b6e4-8baae3c22113","system_id":"levelo_inurba_marseille","lat":43.296131,"lon":5.370773,"is_reserved":false,"is_disabled":false,"rental_uris":{"android":"levelo://app?vid=d3139180-8ba9-4c91-b6e4-8baae3c22113","ios":"levelo://app?vid=d3139180-8ba9-4c91-b6e4-8baae3c22113"},"vehicle_type_id":"4","last_reported":1693598820,"current_range_meters":31200,"station_id":"ce4bgnh2rcd13ifvqc0g","pricing_plan_id":"free"},{"bike_id":"781edb80-c07b-4df6-b3e0-515e25505c04","system_id":"levelo_inurba_marseille","lat":43.29576,"lon":5.36743,"is_reserved":false,"is_disabled":false,"rental_uris":{"android":"levelo://app?vid=781edb80-c07b-4df6-b3e0-515e25505c04","ios":"levelo://app?vid=781edb80-c07b-4df6-b3e0-515e25505c04"},"vehicle_type_id":"4","last_reported":1693598820,"current_range_meters":2400,"station_id":"","pricing_plan_id":"free"},{"bike_id":"2cbe8bb1-871c-4572-9fcc-d677f19e861f","system_id":"levelo_inurba_marseille","lat":43.305714,"lon":5.365633,"is_reserved":false,"is_disabled":false,"rental_uris":{"android":"levelo://app?vid=2cbe8bb1-871c-4572-9fcc-d677f19e861f","ios":"levelo://app?vid=2cbe8bb1-871c-4572-9fcc-d677f19e861f"},"vehicle_type_id":"4","last_reported":1693598820,"current_range_meters":17200,"station_id":"ce4bgs12rcd13ifvqcag","pricing_plan_id":"free"},{"bike_id":"74603b1d-5a06-445b-bae1-cbfb427aa90e","system_id":"levelo_inurba_marseille","lat":43.309589,"lon":5.390258,"is_reserved":false,"is_disabled":false,"rental_uris":{"android":"levelo://app?vid=74603b1d-5a06-445b-bae1-cbfb427aa90e","ios":"levelo://app?vid=74603b1d-5a06-445b-bae1-cbfb427aa90e"},"vehicle_type_id":"4","last_reported":1693598820,"current_range_meters":31200,"station_id":"ce4bgup2rcd13ifvqco0","pricing_plan_id":"free"},{"bike_id":"87b8c104-5edc-420c-81bb-d7adc5bfeda5","system_id":"levelo_inurba_marseille","lat":43.3095,"lon":5.39027,"is_reserved":false,"is_disabled":false,"rental_uris":{"android":"levelo://app?vid=87b8c104-5edc-420c-81bb-d7adc5bfeda5","ios":"levelo://app?vid=87b8c104-5edc-420c-81bb-d7adc5bfeda5"},"vehicle_type_id":"4","last_reported":1693598820,"current_range_meters":24800,"station_id":"ce4bgup2rcd13ifvqco0","pricing_plan_id":"free"},{"bike_id":"f99d2b46-cbf2-496e-a5b3-f0583a89f274","system_id":"levelo_inurba_marseille","lat":43.30956,"lon":5.3903,"is_reserved":false,"is_disabled":false,"rental_uris":{"android":"levelo://app?vid=f99d2b46-cbf2-496e-a5b3-f0583a89f274","ios":"levelo://app?vid=f99d2b46-cbf2-496e-a5b3-f0583a89f274"},"vehicle_type_id":"4","last_reported":1693598820,"current_range_meters":6400,"station_id":"ce4bgup2rcd13ifvqco0","pricing_plan_id":"free"},{"bike_id":"d8c035ee-09c2-427e-b08a-af4a4f183bfd","system_id":"levelo_inurba_marseille","lat":43.3095,"lon":5.39029,"is_reserved":false,"is_disabled":false,"rental_uris":{"android":"levelo://app?vid=d8c035ee-09c2-427e-b08a-af4a4f183bfd","ios":"levelo://app?vid=d8c035ee-09c2-427e-b08a-af4a4f183bfd"},"vehicle_type_id":"4","last_reported":1693598820,"current_range_meters":9200,"station_id":"ce4bgup2rcd13ifvqco0","pricing_plan_id":"free"},{"bike_id":"02d7d09e-c48d-45bb-a090-3f7efb092853","system_id":"levelo_inurba_marseille","lat":43.30958,"lon":5.39033,"is_reserved":false,"is_disabled":false,"rental_uris":{"android":"levelo://app?vid=02d7d09e-c48d-45bb-a090-3f7efb092853","ios":"levelo://app?vid=02d7d09e-c48d-45bb-a090-3f7efb092853"},"vehicle_type_id":"4","last_reported":1693598820,"current_range_meters":16800,"station_id":"ce4bgup2rcd13ifvqco0","pricing_plan_id":"free"},{"bike_id":"33832156-628f-4131-8140-5c15b13b19d8","system_id":"levelo_inurba_marseille","lat":43.30958,"lon":5.39033,"is_reserved":false,"is_disabled":false,"rental_uris":{"android":"levelo://app?vid=33832156-628f-4131-8140-5c15b13b19d8","ios":"levelo://app?vid=33832156-628f-4131-8140-5c15b13b19d8"},"vehicle_type_id":"4","last_reported":1693598820,"current_range_meters":17600,"station_id":"ce4bgup2rcd13ifvqco0","pricing_plan_id":"free"},{"bike_id":"88dbf378-ec90-4519-a400-42ff6fe9ab28","system_id":"levelo_inurba_marseille","lat":43.309589,"lon":5.390258,"is_reserved":false,"is_disabled":false,"rental_uris":{"android":"levelo://app?vid=88dbf378-ec90-4519-a400-42ff6fe9ab28","ios":"levelo://app?vid=88dbf378-ec90-4519-a400-42ff6fe9ab28"},"vehicle_type_id":"4","last_reported":1693598820,"current_range_meters":400,"station_id":"ce4bgup2rcd13ifvqco0","pricing_plan_id":"free"},{"bike_id":"af51b089-c834-4333-a5ab-6860ea370ca5","system_id":"levelo_inurba_marseille","lat":43.309589,"lon":5.390258,"is_reserved":false,"is_disabled":false,"rental_uris":{"android":"levelo://app?vid=af51b089-c834-4333-a5ab-6860ea370ca5","ios":"levelo://app?vid=af51b089-c834-4333-a5ab-6860ea370ca5"},"vehicle_type_id":"4","last_reported":1693598820,"current_range_meters":8400,"station_id":"ce4bgup2rcd13ifvqco0","pricing_plan_id":"free"},{"bike_id":"bd8ee5b0-8919-468c-b648-85a911512627","system_id":"levelo_inurba_marseille","lat":43.309589,"lon":5.390258,"is_reserved":false,"is_disabled":false,"rental_uris":{"android":"levelo://app?vid=bd8ee5b0-8919-468c-b648-85a911512627","ios":"levelo://app?vid=bd8ee5b0-8919-468c-b648-85a911512627"},"vehicle_type_id":"4","last_reported":1693598820,"current_range_meters":22000,"station_id":"ce4bgup2rcd13ifvqco0","pricing_plan_id":"free"},{"bike_id":"0aa9eb35-7a3f-482d-97dc-6fa1d23af6d2","system_id":"levelo_inurba_marseille","lat":43.30956,"lon":5.39039,"is_reserved":false,"is_disabled":false,"rental_uris":{"android":"levelo://app?vid=0aa9eb35-7a3f-482d-97dc-6fa1d23af6d2","ios":"levelo://app?vid=0aa9eb35-7a3f-482d-97dc-6fa1d23af6d2"},"vehicle_type_id":"4","last_reported":1693598820,"current_range_meters":10000,"station_id":"ce4bgup2rcd13ifvqco0","pricing_plan_id":"free"},{"bike_id":"9ee7b5b4-9d8d-42ac-b8f4-92526e4653aa","system_id":"levelo_inurba_marseille","lat":43.30959,"lon":5.3904,"is_reserved":false,"is_disabled":false,"rental_uris":{"android":"levelo://app?vid=9ee7b5b4-9d8d-42ac-b8f4-92526e4653aa","ios":"levelo://app?vid=9ee7b5b4-9d8d-42ac-b8f4-92526e4653aa"},"vehicle_type_id":"4","last_reported":1693598820,"current_range_meters":31200,"station_id":"ce4bgup2rcd13ifvqco0","pricing_plan_id":"free"},{"bike_id":"588ba0bb-cd97-4057-a1a6-440ce5c30f14","system_id":"levelo_inurba_marseille","lat":43.309589,"lon":5.390258,"is_reserved":false,"is_disabled":false,"rental_uris":{"android":"levelo://app?vid=588ba0bb-cd97-4057-a1a6-440ce5c30f14","ios":"levelo://app?vid=588ba0bb-cd97-4057-a1a6-440ce5c30f14"},"vehicle_type_id":"4","last_reported":1693598820,"current_range_meters":19200,"station_id":"ce4bgup2rcd13ifvqco0","pricing_plan_id":"free"},{"bike_id":"aadd2831-4387-4257-bbe5-124cc36e4a79","system_id":"levelo_inurba_marseille","lat":43.30942,"lon":5.39036,"is_reserved":false,"is_disabled":false,"rental_uris":{"android":"levelo://app?vid=aadd2831-4387-4257-bbe5-124cc36e4a79","ios":"levelo://app?vid=aadd2831-4387-4257-bbe5-124cc36e4a79"},"vehicle_type_id":"4","last_reported":1693598820,"current_range_meters":5600,"station_id":"ce4bgup2rcd13ifvqco0","pricing_plan_id":"free"},{"bike_id":"b82b79d0-dbe4-43fb-bcd1-7501457914d0","system_id":"levelo_inurba_marseille","lat":43.309589,"lon":5.390258,"is_reserved":false,"is_disabled":false,"rental_uris":{"android":"levelo://app?vid=b82b79d0-dbe4-43fb-bcd1-7501457914d0","ios":"levelo://app?vid=b82b79d0-dbe4-43fb-bcd1-7501457914d0"},"vehicle_type_id":"4","last_reported":1693598820,"current_range_meters":5600,"station_id":"ce4bgup2rcd13ifvqco0","pricing_plan_id":"free"},{"bike_id":"90962355-875b-48e5-b1de-616679754405","system_id":"levelo_inurba_marseille","lat":43.30948,"lon":5.39039,"is_reserved":false,"is_disabled":false,"rental_uris":{"android":"levelo://app?vid=90962355-875b-48e5-b1de-616679754405","ios":"levelo://app?vid=90962355-875b-48e5-b1de-616679754405"},"vehicle_type_id":"4","last_reported":1693598820,"current_range_meters":2000,"station_id":"ce4bgup2rcd13ifvqco0","pricing_plan_id":"free"},{"bike_id":"824a5153-66b5-4a98-b547-3f5e3d93b921","system_id":"levelo_inurba_marseille","lat":43.30949,"lon":5.3904,"is_reserved":false,"is_disabled":false,"rental_uris":{"android":"levelo://app?vid=824a5153-66b5-4a98-b547-3f5e3d93b921","ios":"levelo://app?vid=824a5153-66b5-4a98-b547-3f5e3d93b921"},"vehicle_type_id":"4","last_reported":1693598820,"current_range_meters":12000,"station_id":"ce4bgup2rcd13ifvqco0","pricing_plan_id":"free"},{"bike_id":"ca425522-56a2-4cc8-8f07-5e7e4c0b5846","system_id":"levelo_inurba_marseille","lat":43.30949,"lon":5.3904,"is_reserved":false,"is_disabled":false,"rental_uris":{"android":"levelo://app?vid=ca425522-56a2-4cc8-8f07-5e7e4c0b5846","ios":"levelo://app?vid=ca425522-56a2-4cc8-8f07-5e7e4c0b5846"},"vehicle_type_id":"4","last_reported":1693598820,"current_range_meters":16000,"station_id":"ce4bgup2rcd13ifvqco0","pricing_plan_id":"free"},{"bike_id":"3089806e-cb19-4b3c-a915-4f3952c345c1","system_id":"levelo_inurba_marseille","lat":43.30949,"lon":5.39041,"is_reserved":false,"is_disabled":false,"rental_uris":{"android":"levelo://app?vid=3089806e-cb19-4b3c-a915-4f3952c345c1","ios":"levelo://app?vid=3089806e-cb19-4b3c-a915-4f3952c345c1"},"vehicle_type_id":"4","last_reported":1693598820,"current_range_meters":2000,"station_id":"ce4bgup2rcd13ifvqco0","pricing_plan_id":"free"},{"bike_id":"bfa17b4e-9fb3-4aff-82c1-4d5ce35e01fa","system_id":"levelo_inurba_marseille","lat":43.30945,"lon":5.3904,"is_reserved":false,"is_disabled":false,"rental_uris":{"android":"levelo://app?vid=bfa17b4e-9fb3-4aff-82c1-4d5ce35e01fa","ios":"levelo://app?vid=bfa17b4e-9fb3-4aff-82c1-4d5ce35e01fa"},"vehicle_type_id":"4","last_reported":1693598820,"current_range_meters":9600,"station_id":"ce4bgup2rcd13ifvqco0","pricing_plan_id":"free"},{"bike_id":"47aea273-49fa-4220-a2a1-cdea554722b5","system_id":"levelo_inurba_marseille","lat":43.30943,"lon":5.39041,"is_reserved":false,"is_disabled":false,"rental_uris":{"android":"levelo://app?vid=47aea273-49fa-4220-a2a1-cdea554722b5","ios":"levelo://app?vid=47aea273-49fa-4220-a2a1-cdea554722b5"},"vehicle_type_id":"4","last_reported":1693598820,"current_range_meters":26800,"station_id":"ce4bgup2rcd13ifvqco0","pricing_plan_id":"free"},{"bike_id":"c821e34f-8692-4125-b850-d4744425baf6","system_id":"levelo_inurba_marseille","lat":43.3095,"lon":5.39043,"is_reserved":false,"is_disabled":false,"rental_uris":{"android":"levelo://app?vid=c821e34f-8692-4125-b850-d4744425baf6","ios":"levelo://app?vid=c821e34f-8692-4125-b850-d4744425baf6"},"vehicle_type_id":"4","last_reported":1693598820,"current_range_meters":1600,"station_id":"ce4bgup2rcd13ifvqco0","pricing_plan_id":"free"},{"bike_id":"82acabdf-ee1e-4436-b0ee-908eb1d71b44","system_id":"levelo_inurba_marseille","lat":43.30953,"lon":5.39044,"is_reserved":false,"is_disabled":false,"rental_uris":{"android":"levelo://app?vid=82acabdf-ee1e-4436-b0ee-908eb1d71b44","ios":"levelo://app?vid=82acabdf-ee1e-4436-b0ee-908eb1d71b44"},"vehicle_type_id":"4","last_reported":1693598820,"current_range_meters":25200,"station_id":"ce4bgup2rcd13ifvqco0","pricing_plan_id":"free"},{"bike_id":"147144be-c18f-4579-9cce-21f3433a0e8c","system_id":"levelo_inurba_marseille","lat":43.30955,"lon":5.39045,"is_reserved":false,"is_disabled":false,"rental_uris":{"android":"levelo://app?vid=147144be-c18f-4579-9cce-21f3433a0e8c","ios":"levelo://app?vid=147144be-c18f-4579-9cce-21f3433a0e8c"},"vehicle_type_id":"4","last_reported":1693598820,"current_range_meters":10000,"station_id":"ce4bgup2rcd13ifvqco0","pricing_plan_id":"free"},{"bike_id":"a6a21b1c-9610-43c9-9344-f1839e0842bd","system_id":"levelo_inurba_marseille","lat":43.309589,"lon":5.390258,"is_reserved":false,"is_disabled":false,"rental_uris":{"android":"levelo://app?vid=a6a21b1c-9610-43c9-9344-f1839e0842bd","ios":"levelo://app?vid=a6a21b1c-9610-43c9-9344-f1839e0842bd"},"vehicle_type_id":"4","last_reported":1693598820,"current_range_meters":16000,"station_id":"ce4bgup2rcd13ifvqco0","pricing_plan_id":"free"},{"bike_id":"b7839de8-0137-4850-b337-b5bb09fca875","system_id":"levelo_inurba_marseille","lat":43.309589,"lon":5.390258,"is_reserved":false,"is_disabled":false,"rental_uris":{"android":"levelo://app?vid=b7839de8-0137-4850-b337-b5bb09fca875","ios":"levelo://app?vid=b7839de8-0137-4850-b337-b5bb09fca875"},"vehicle_type_id":"4","last_reported":1693598820,"current_range_meters":28000,"station_id":"ce4bgup2rcd13ifvqco0","pricing_plan_id":"free"},{"bike_id":"eb539361-761c-49a4-bc64-9688333cc02e","system_id":"levelo_inurba_marseille","lat":43.30953,"lon":5.39047,"is_reserved":false,"is_disabled":false,"rental_uris":{"android":"levelo://app?vid=eb539361-761c-49a4-bc64-9688333cc02e","ios":"levelo://app?vid=eb539361-761c-49a4-bc64-9688333cc02e"},"vehicle_type_id":"4","last_reported":1693598820,"current_range_meters":13200,"station_id":"ce4bgup2rcd13ifvqco0","pricing_plan_id":"free"},{"bike_id":"a986c416-aa0d-447d-9e1b-9cb4b03a12f8","system_id":"levelo_inurba_marseille","lat":43.30953,"lon":5.39047,"is_reserved":false,"is_disabled":false,"rental_uris":{"android":"levelo://app?vid=a986c416-aa0d-447d-9e1b-9cb4b03a12f8","ios":"levelo://app?vid=a986c416-aa0d-447d-9e1b-9cb4b03a12f8"},"vehicle_type_id":"4","last_reported":1693598820,"current_range_meters":8400,"station_id":"ce4bgup2rcd13ifvqco0","pricing_plan_id":"free"},{"bike_id":"7d481d78-7da7-4cd0-9141-1ef971372069","system_id":"levelo_inurba_marseille","lat":43.3095,"lon":5.39047,"is_reserved":false,"is_disabled":false,"rental_uris":{"android":"levelo://app?vid=7d481d78-7da7-4cd0-9141-1ef971372069","ios":"levelo://app?vid=7d481d78-7da7-4cd0-9141-1ef971372069"},"vehicle_type_id":"4","last_reported":1693598820,"current_range_meters":13200,"station_id":"ce4bgup2rcd13ifvqco0","pricing_plan_id":"free"},{"bike_id":"b1d5e77b-d88e-4446-83aa-2fc90bbea47c","system_id":"levelo_inurba_marseille","lat":43.30948,"lon":5.39049,"is_reserved":false,"is_disabled":false,"rental_uris":{"android":"levelo://app?vid=b1d5e77b-d88e-4446-83aa-2fc90bbea47c","ios":"levelo://app?vid=b1d5e77b-d88e-4446-83aa-2fc90bbea47c"},"vehicle_type_id":"4","last_reported":1693598820,"current_range_meters":8400,"station_id":"ce4bgup2rcd13ifvqco0","pricing_plan_id":"free"},{"bike_id":"2c93ce6f-c5e1-4ec9-9941-ebb7469bb8f2","system_id":"levelo_inurba_marseille","lat":43.31763,"lon":5.39005,"is_reserved":false,"is_disabled":false,"rental_uris":{"android":"levelo://app?vid=2c93ce6f-c5e1-4ec9-9941-ebb7469bb8f2","ios":"levelo://app?vid=2c93ce6f-c5e1-4ec9-9941-ebb7469bb8f2"},"vehicle_type_id":"4","last_reported":1693598820,"current_range_meters":18800,"station_id":"ce4bhqp2rcd13ifvqhng","pricing_plan_id":"free"},{"bike_id":"1b5b4211-83a3-483e-9cdf-2b196fba5adb","system_id":"levelo_inurba_marseille","lat":43.317557,"lon":5.390173,"is_reserved":false,"is_disabled":false,"rental_uris":{"android":"levelo://app?vid=1b5b4211-83a3-483e-9cdf-2b196fba5adb","ios":"levelo://app?vid=1b5b4211-83a3-483e-9cdf-2b196fba5adb"},"vehicle_type_id":"4","last_reported":1693598820,"current_range_meters":27600,"station_id":"ce4bhqp2rcd13ifvqhng","pricing_plan_id":"free"},{"bike_id":"93a3695c-51b1-411c-a1c4-cdb271a31bf2","system_id":"levelo_inurba_marseille","lat":43.31764,"lon":5.39015,"is_reserved":false,"is_disabled":false,"rental_uris":{"android":"levelo://app?vid=93a3695c-51b1-411c-a1c4-cdb271a31bf2","ios":"levelo://app?vid=93a3695c-51b1-411c-a1c4-cdb271a31bf2"},"vehicle_type_id":"4","last_reported":1693598820,"current_range_meters":7600,"station_id":"ce4bhqp2rcd13ifvqhng","pricing_plan_id":"free"},{"bike_id":"88d9d596-f438-4684-ae9f-d2d3fa8d2d69","system_id":"levelo_inurba_marseille","lat":43.317557,"lon":5.390173,"is_reserved":false,"is_disabled":false,"rental_uris":{"android":"levelo://app?vid=88d9d596-f438-4684-ae9f-d2d3fa8d2d69","ios":"levelo://app?vid=88d9d596-f438-4684-ae9f-d2d3fa8d2d69"},"vehicle_type_id":"4","last_reported":1693598820,"current_range_meters":28400,"station_id":"ce4bhqp2rcd13ifvqhng","pricing_plan_id":"free"},{"bike_id":"86d37462-6f2c-4ee1-b5e1-16f3e9285866","system_id":"levelo_inurba_marseille","lat":43.31755,"lon":5.39023,"is_reserved":false,"is_disabled":false,"rental_uris":{"android":"levelo://app?vid=86d37462-6f2c-4ee1-b5e1-16f3e9285866","ios":"levelo://app?vid=86d37462-6f2c-4ee1-b5e1-16f3e9285866"},"vehicle_type_id":"4","last_reported":1693598820,"current_range_meters":19200,"station_id":"ce4bhqp2rcd13ifvqhng","pricing_plan_id":"free"},{"bike_id":"60c26bea-b6ea-44c2-8838-59b00d1bf8b2","system_id":"levelo_inurba_marseille","lat":43.317557,"lon":5.390173,"is_reserved":false,"is_disabled":false,"rental_uris":{"android":"levelo://app?vid=60c26bea-b6ea-44c2-8838-59b00d1bf8b2","ios":"levelo://app?vid=60c26bea-b6ea-44c2-8838-59b00d1bf8b2"},"vehicle_type_id":"4","last_reported":1693598820,"current_range_meters":31200,"station_id":"ce4bhqp2rcd13ifvqhng","pricing_plan_id":"free"},{"bike_id":"2d38d843-9501-4a8b-8d1e-e53e054245cc","system_id":"levelo_inurba_marseille","lat":43.29702,"lon":5.37811,"is_reserved":false,"is_disabled":false,"rental_uris":{"android":"levelo://app?vid=2d38d843-9501-4a8b-8d1e-e53e054245cc","ios":"levelo://app?vid=2d38d843-9501-4a8b-8d1e-e53e054245cc"},"vehicle_type_id":"4","last_reported":1693598820,"current_range_meters":30800,"station_id":"","pricing_plan_id":"free"},{"bike_id":"441a706c-9556-4ea3-a4ea-9ee981ddce65","system_id":"levelo_inurba_marseille","lat":43.298037,"lon":5.381066,"is_reserved":false,"is_disabled":false,"rental_uris":{"android":"levelo://app?vid=441a706c-9556-4ea3-a4ea-9ee981ddce65","ios":"levelo://app?vid=441a706c-9556-4ea3-a4ea-9ee981ddce65"},"vehicle_type_id":"4","last_reported":1693598820,"current_range_meters":10400,"station_id":"ce4bgip2rcd13ifvqbb0","pricing_plan_id":"free"},{"bike_id":"4d3c1433-41f4-4453-b91c-c995ec1e7d27","system_id":"levelo_inurba_marseille","lat":43.295748,"lon":5.37522,"is_reserved":false,"is_disabled":false,"rental_uris":{"android":"levelo://app?vid=4d3c1433-41f4-4453-b91c-c995ec1e7d27","ios":"levelo://app?vid=4d3c1433-41f4-4453-b91c-c995ec1e7d27"},"vehicle_type_id":"4","last_reported":1693598820,"current_range_meters":14000,"station_id":"ce4bgh92rcd13ifvqb50","pricing_plan_id":"free"},{"bike_id":"aa0c3157-c2d7-4dee-831f-d9b49e051f33","system_id":"levelo_inurba_marseille","lat":43.295748,"lon":5.37522,"is_reserved":false,"is_disabled":false,"rental_uris":{"android":"levelo://app?vid=aa0c3157-c2d7-4dee-831f-d9b49e051f33","ios":"levelo://app?vid=aa0c3157-c2d7-4dee-831f-d9b49e051f33"},"vehicle_type_id":"4","last_reported":1693598820,"current_range_meters":8000,"station_id":"ce4bgh92rcd13ifvqb50","pricing_plan_id":"free"},{"bike_id":"14d1fa76-22d5-4000-978b-8a79765bf1b4","system_id":"levelo_inurba_marseille","lat":43.29574,"lon":5.37516,"is_reserved":false,"is_disabled":false,"rental_uris":{"android":"levelo://app?vid=14d1fa76-22d5-4000-978b-8a79765bf1b4","ios":"levelo://app?vid=14d1fa76-22d5-4000-978b-8a79765bf1b4"},"vehicle_type_id":"4","last_reported":1693598820,"current_range_meters":20000,"station_id":"ce4bgh92rcd13ifvqb50","pricing_plan_id":"free"},{"bike_id":"cb22f326-0c91-4af2-945b-0560c3f9070c","system_id":"levelo_inurba_marseille","lat":43.29801,"lon":5.38122,"is_reserved":false,"is_disabled":false,"rental_uris":{"android":"levelo://app?vid=cb22f326-0c91-4af2-945b-0560c3f9070c","ios":"levelo://app?vid=cb22f326-0c91-4af2-945b-0560c3f9070c"},"vehicle_type_id":"4","last_reported":1693598820,"current_range_meters":21200,"station_id":"ce4bgip2rcd13ifvqbb0","pricing_plan_id":"free"},{"bike_id":"acf21a7b-3062-4c96-9b5d-6ab7d0654e0b","system_id":"levelo_inurba_marseille","lat":43.295748,"lon":5.37522,"is_reserved":false,"is_disabled":false,"rental_uris":{"android":"levelo://app?vid=acf21a7b-3062-4c96-9b5d-6ab7d0654e0b","ios":"levelo://app?vid=acf21a7b-3062-4c96-9b5d-6ab7d0654e0b"},"vehicle_type_id":"4","last_reported":1693598820,"current_range_meters":14000,"station_id":"ce4bgh92rcd13ifvqb50","pricing_plan_id":"free"},{"bike_id":"17b6eb61-09b5-4f3e-bd78-ff4ea769e69d","system_id":"levelo_inurba_marseille","lat":43.295748,"lon":5.37522,"is_reserved":false,"is_disabled":false,"rental_uris":{"android":"levelo://app?vid=17b6eb61-09b5-4f3e-bd78-ff4ea769e69d","ios":"levelo://app?vid=17b6eb61-09b5-4f3e-bd78-ff4ea769e69d"},"vehicle_type_id":"4","last_reported":1693598820,"current_range_meters":17200,"station_id":"ce4bgh92rcd13ifvqb50","pricing_plan_id":"free"},{"bike_id":"5810e9c4-06ed-454d-b78b-82ae30324dcc","system_id":"levelo_inurba_marseille","lat":43.304278,"lon":5.388868,"is_reserved":false,"is_disabled":false,"rental_uris":{"android":"levelo://app?vid=5810e9c4-06ed-454d-b78b-82ae30324dcc","ios":"levelo://app?vid=5810e9c4-06ed-454d-b78b-82ae30324dcc"},"vehicle_type_id":"4","last_reported":1693598820,"current_range_meters":15200,"station_id":"ce4bgk12rcd13ifvqbi0","pricing_plan_id":"free"},{"bike_id":"a8e35c5d-3c9e-44ab-bc15-0900023caf42","system_id":"levelo_inurba_marseille","lat":43.295748,"lon":5.37522,"is_reserved":false,"is_disabled":false,"rental_uris":{"android":"levelo://app?vid=a8e35c5d-3c9e-44ab-bc15-0900023caf42","ios":"levelo://app?vid=a8e35c5d-3c9e-44ab-bc15-0900023caf42"},"vehicle_type_id":"4","last_reported":1693598820,"current_range_meters":18000,"station_id":"ce4bgh92rcd13ifvqb50","pricing_plan_id":"free"},{"bike_id":"75895f86-02b8-4f67-9e17-6afcb69a812b","system_id":"levelo_inurba_marseille","lat":43.3042,"lon":5.38884,"is_reserved":false,"is_disabled":false,"rental_uris":{"android":"levelo://app?vid=75895f86-02b8-4f67-9e17-6afcb69a812b","ios":"levelo://app?vid=75895f86-02b8-4f67-9e17-6afcb69a812b"},"vehicle_type_id":"4","last_reported":1693598820,"current_range_meters":0,"station_id":"ce4bgk12rcd13ifvqbi0","pricing_plan_id":"free"},{"bike_id":"baa5510e-c529-4b6d-916e-83edb18f4e71","system_id":"levelo_inurba_marseille","lat":43.304367,"lon":5.388999,"is_reserved":false,"is_disabled":false,"rental_uris":{"android":"levelo://app?vid=baa5510e-c529-4b6d-916e-83edb18f4e71","ios":"levelo://app?vid=baa5510e-c529-4b6d-916e-83edb18f4e71"},"vehicle_type_id":"4","last_reported":1693598820,"current_range_meters":6000,"station_id":"ce4bgk12rcd13ifvqbi0","pricing_plan_id":"free"},{"bike_id":"cf82b828-4415-4ac0-b89a-e73658c60b39","system_id":"levelo_inurba_marseille","lat":43.296263,"lon":5.377094,"is_reserved":false,"is_disabled":false,"rental_uris":{"android":"levelo://app?vid=cf82b828-4415-4ac0-b89a-e73658c60b39","ios":"levelo://app?vid=cf82b828-4415-4ac0-b89a-e73658c60b39"},"vehicle_type_id":"4","last_reported":1693598820,"current_range_meters":22000,"station_id":"ce4bgi92rcd13ifvqb90","pricing_plan_id":"free"},{"bike_id":"1c0bddb7-3ac3-4fc5-bb60-cdb9ce4bda87","system_id":"levelo_inurba_marseille","lat":43.299717,"lon":5.384845,"is_reserved":false,"is_disabled":false,"rental_uris":{"android":"levelo://app?vid=1c0bddb7-3ac3-4fc5-bb60-cdb9ce4bda87","ios":"levelo://app?vid=1c0bddb7-3ac3-4fc5-bb60-cdb9ce4bda87"},"vehicle_type_id":"4","last_reported":1693598820,"current_range_meters":3200,"station_id":"ce4bgj92rcd13ifvqbd0","pricing_plan_id":"free"},{"bike_id":"9fd06587-7f29-44fb-a7bb-29de0f6d46cd","system_id":"levelo_inurba_marseille","lat":43.299717,"lon":5.384845,"is_reserved":false,"is_disabled":false,"rental_uris":{"android":"levelo://app?vid=9fd06587-7f29-44fb-a7bb-29de0f6d46cd","ios":"levelo://app?vid=9fd06587-7f29-44fb-a7bb-29de0f6d46cd"},"vehicle_type_id":"4","last_reported":1693598820,"current_range_meters":9600,"station_id":"ce4bgj92rcd13ifvqbd0","pricing_plan_id":"free"},{"bike_id":"9180c84f-0f25-4355-8dec-d34711128242","system_id":"levelo_inurba_marseille","lat":43.32364,"lon":5.38878,"is_reserved":false,"is_disabled":false,"rental_uris":{"android":"levelo://app?vid=9180c84f-0f25-4355-8dec-d34711128242","ios":"levelo://app?vid=9180c84f-0f25-4355-8dec-d34711128242"},"vehicle_type_id":"4","last_reported":1693598820,"current_range_meters":24000,"station_id":"ce4bhqp2rcd13ifvqhog","pricing_plan_id":"free"},{"bike_id":"8181e861-4f28-43e6-b352-b668aa565979","system_id":"levelo_inurba_marseille","lat":43.32366,"lon":5.38878,"is_reserved":false,"is_disabled":false,"rental_uris":{"android":"levelo://app?vid=8181e861-4f28-43e6-b352-b668aa565979","ios":"levelo://app?vid=8181e861-4f28-43e6-b352-b668aa565979"},"vehicle_type_id":"4","last_reported":1693598820,"current_range_meters":30000,"station_id":"ce4bhqp2rcd13ifvqhog","pricing_plan_id":"free"},{"bike_id":"ff25b2c0-9288-4710-aefe-153e38ec535b","system_id":"levelo_inurba_marseille","lat":43.32364,"lon":5.38881,"is_reserved":false,"is_disabled":false,"rental_uris":{"android":"levelo://app?vid=ff25b2c0-9288-4710-aefe-153e38ec535b","ios":"levelo://app?vid=ff25b2c0-9288-4710-aefe-153e38ec535b"},"vehicle_type_id":"4","last_reported":1693598820,"current_range_meters":20800,"station_id":"ce4bhqp2rcd13ifvqhog","pricing_plan_id":"free"},{"bike_id":"75dd2d9b-e11c-4209-90bf-8c81a9698c47","system_id":"levelo_inurba_marseille","lat":43.32365,"lon":5.38882,"is_reserved":false,"is_disabled":false,"rental_uris":{"android":"levelo://app?vid=75dd2d9b-e11c-4209-90bf-8c81a9698c47","ios":"levelo://app?vid=75dd2d9b-e11c-4209-90bf-8c81a9698c47"},"vehicle_type_id":"4","last_reported":1693598820,"current_range_meters":29600,"station_id":"ce4bhqp2rcd13ifvqhog","pricing_plan_id":"free"},{"bike_id":"982e8d03-ab6f-4922-8981-759d28ba6ba2","system_id":"levelo_inurba_marseille","lat":43.32363,"lon":5.38884,"is_reserved":false,"is_disabled":false,"rental_uris":{"android":"levelo://app?vid=982e8d03-ab6f-4922-8981-759d28ba6ba2","ios":"levelo://app?vid=982e8d03-ab6f-4922-8981-759d28ba6ba2"},"vehicle_type_id":"4","last_reported":1693598820,"current_range_meters":2800,"station_id":"ce4bhqp2rcd13ifvqhog","pricing_plan_id":"free"},{"bike_id":"04bd86b5-0561-4cf7-b54e-88dfd8a933b3","system_id":"levelo_inurba_marseille","lat":43.32374,"lon":5.3888,"is_reserved":false,"is_disabled":false,"rental_uris":{"android":"levelo://app?vid=04bd86b5-0561-4cf7-b54e-88dfd8a933b3","ios":"levelo://app?vid=04bd86b5-0561-4cf7-b54e-88dfd8a933b3"},"vehicle_type_id":"4","last_reported":1693598820,"current_range_meters":29600,"station_id":"ce4bhqp2rcd13ifvqhog","pricing_plan_id":"free"},{"bike_id":"899db4cf-53c9-490f-9588-c2dabe0e6d13","system_id":"levelo_inurba_marseille","lat":43.3237,"lon":5.38888,"is_reserved":false,"is_disabled":false,"rental_uris":{"android":"levelo://app?vid=899db4cf-53c9-490f-9588-c2dabe0e6d13","ios":"levelo://app?vid=899db4cf-53c9-490f-9588-c2dabe0e6d13"},"vehicle_type_id":"4","last_reported":1693598820,"current_range_meters":5600,"station_id":"ce4bhqp2rcd13ifvqhog","pricing_plan_id":"free"},{"bike_id":"6dd7fb96-2e90-4fe7-86ff-332f8f79d4ad","system_id":"levelo_inurba_marseille","lat":43.29595,"lon":5.38098,"is_reserved":false,"is_disabled":false,"rental_uris":{"android":"levelo://app?vid=6dd7fb96-2e90-4fe7-86ff-332f8f79d4ad","ios":"levelo://app?vid=6dd7fb96-2e90-4fe7-86ff-332f8f79d4ad"},"vehicle_type_id":"4","last_reported":1693598820,"current_range_meters":31200,"station_id":"ce4bgl12rcd13ifvqbo0","pricing_plan_id":"free"},{"bike_id":"558e233a-de57-483f-8fda-ed6cb6c5dd83","system_id":"levelo_inurba_marseille","lat":43.29594,"lon":5.38103,"is_reserved":false,"is_disabled":false,"rental_uris":{"android":"levelo://app?vid=558e233a-de57-483f-8fda-ed6cb6c5dd83","ios":"levelo://app?vid=558e233a-de57-483f-8fda-ed6cb6c5dd83"},"vehicle_type_id":"4","last_reported":1693598820,"current_range_meters":22000,"station_id":"ce4bgl12rcd13ifvqbo0","pricing_plan_id":"free"},{"bike_id":"c2f96d2e-1086-43f6-9b29-fd098a4da6c3","system_id":"levelo_inurba_marseille","lat":43.29601,"lon":5.381084,"is_reserved":false,"is_disabled":false,"rental_uris":{"android":"levelo://app?vid=c2f96d2e-1086-43f6-9b29-fd098a4da6c3","ios":"levelo://app?vid=c2f96d2e-1086-43f6-9b29-fd098a4da6c3"},"vehicle_type_id":"4","last_reported":1693598820,"current_range_meters":12000,"station_id":"ce4bgl12rcd13ifvqbo0","pricing_plan_id":"free"},{"bike_id":"11bc524c-a082-48ac-86f5-9bd8ceea3835","system_id":"levelo_inurba_marseille","lat":43.30555,"lon":5.39213,"is_reserved":false,"is_disabled":false,"rental_uris":{"android":"levelo://app?vid=11bc524c-a082-48ac-86f5-9bd8ceea3835","ios":"levelo://app?vid=11bc524c-a082-48ac-86f5-9bd8ceea3835"},"vehicle_type_id":"4","last_reported":1693598820,"current_range_meters":24800,"station_id":"","pricing_plan_id":"free"},{"bike_id":"5834679b-0a97-420a-84c3-61621902485c","system_id":"levelo_inurba_marseille","lat":43.29301,"lon":5.37192,"is_reserved":false,"is_disabled":false,"rental_uris":{"android":"levelo://app?vid=5834679b-0a97-420a-84c3-61621902485c","ios":"levelo://app?vid=5834679b-0a97-420a-84c3-61621902485c"},"vehicle_type_id":"4","last_reported":1693598820,"current_range_meters":21200,"station_id":"ce4bgh92rcd13ifvqb40","pricing_plan_id":"free"},{"bike_id":"c4ee2781-97fe-4e68-81af-6fe8ec3dbb09","system_id":"levelo_inurba_marseille","lat":43.292749,"lon":5.368402,"is_reserved":false,"is_disabled":false,"rental_uris":{"android":"levelo://app?vid=c4ee2781-97fe-4e68-81af-6fe8ec3dbb09","ios":"levelo://app?vid=c4ee2781-97fe-4e68-81af-6fe8ec3dbb09"},"vehicle_type_id":"4","last_reported":1693598820,"current_range_meters":6000,"station_id":"ce4bhbp2rcd13ifvqesg","pricing_plan_id":"free"},{"bike_id":"af378848-4ab5-4a0c-a75c-c290cd6c3483","system_id":"levelo_inurba_marseille","lat":43.32459,"lon":5.38946,"is_reserved":false,"is_disabled":false,"rental_uris":{"android":"levelo://app?vid=af378848-4ab5-4a0c-a75c-c290cd6c3483","ios":"levelo://app?vid=af378848-4ab5-4a0c-a75c-c290cd6c3483"},"vehicle_type_id":"4","last_reported":1693598820,"current_range_meters":2400,"station_id":"","pricing_plan_id":"free"},{"bike_id":"23702376-db1b-488d-b9fb-50a7950993b2","system_id":"levelo_inurba_marseille","lat":43.293009,"lon":5.374584,"is_reserved":false,"is_disabled":false,"rental_uris":{"android":"levelo://app?vid=23702376-db1b-488d-b9fb-50a7950993b2","ios":"levelo://app?vid=23702376-db1b-488d-b9fb-50a7950993b2"},"vehicle_type_id":"4","last_reported":1693598820,"current_range_meters":4800,"station_id":"ce4bgi12rcd13ifvqb70","pricing_plan_id":"free"},{"bike_id":"b0291229-e6fa-41c9-8b8f-7fdcd74778ed","system_id":"levelo_inurba_marseille","lat":43.293009,"lon":5.374584,"is_reserved":false,"is_disabled":false,"rental_uris":{"android":"levelo://app?vid=b0291229-e6fa-41c9-8b8f-7fdcd74778ed","ios":"levelo://app?vid=b0291229-e6fa-41c9-8b8f-7fdcd74778ed"},"vehicle_type_id":"4","last_reported":1693598820,"current_range_meters":24800,"station_id":"ce4bgi12rcd13ifvqb70","pricing_plan_id":"free"},{"bike_id":"0724f352-a262-45b7-9b71-9a09ff17d945","system_id":"levelo_inurba_marseille","lat":43.30305,"lon":5.39204,"is_reserved":false,"is_disabled":false,"rental_uris":{"android":"levelo://app?vid=0724f352-a262-45b7-9b71-9a09ff17d945","ios":"levelo://app?vid=0724f352-a262-45b7-9b71-9a09ff17d945"},"vehicle_type_id":"4","last_reported":1693598820,"current_range_meters":26000,"station_id":"ce4bgkh2rcd13ifvqbk0","pricing_plan_id":"free"},{"bike_id":"38fef587-7cc5-4800-b069-87b8f296a10a","system_id":"levelo_inurba_marseille","lat":43.303002,"lon":5.392142,"is_reserved":false,"is_disabled":false,"rental_uris":{"android":"levelo://app?vid=38fef587-7cc5-4800-b069-87b8f296a10a","ios":"levelo://app?vid=38fef587-7cc5-4800-b069-87b8f296a10a"},"vehicle_type_id":"4","last_reported":1693598820,"current_range_meters":22800,"station_id":"ce4bgkh2rcd13ifvqbk0","pricing_plan_id":"free"},{"bike_id":"a3c50639-ec62-410d-bd03-6dbabc581330","system_id":"levelo_inurba_marseille","lat":43.30309,"lon":5.39214,"is_reserved":false,"is_disabled":false,"rental_uris":{"android":"levelo://app?vid=a3c50639-ec62-410d-bd03-6dbabc581330","ios":"levelo://app?vid=a3c50639-ec62-410d-bd03-6dbabc581330"},"vehicle_type_id":"4","last_reported":1693598820,"current_range_meters":2800,"station_id":"ce4bgkh2rcd13ifvqbk0","pricing_plan_id":"free"},{"bike_id":"59d4a7cc-c4d8-47e1-a63f-2e26b5d209c3","system_id":"levelo_inurba_marseille","lat":43.2936,"lon":5.37835,"is_reserved":false,"is_disabled":false,"rental_uris":{"android":"levelo://app?vid=59d4a7cc-c4d8-47e1-a63f-2e26b5d209c3","ios":"levelo://app?vid=59d4a7cc-c4d8-47e1-a63f-2e26b5d209c3"},"vehicle_type_id":"4","last_reported":1693598820,"current_range_meters":31200,"station_id":"ce4bgjh2rcd13ifvqbf0","pricing_plan_id":"free"},{"bike_id":"ece0593d-60ab-4fa7-a86d-35e53b1e5879","system_id":"levelo_inurba_marseille","lat":43.303002,"lon":5.392142,"is_reserved":false,"is_disabled":false,"rental_uris":{"android":"levelo://app?vid=ece0593d-60ab-4fa7-a86d-35e53b1e5879","ios":"levelo://app?vid=ece0593d-60ab-4fa7-a86d-35e53b1e5879"},"vehicle_type_id":"4","last_reported":1693598820,"current_range_meters":28400,"station_id":"ce4bgkh2rcd13ifvqbk0","pricing_plan_id":"free"},{"bike_id":"313762ac-e1ed-4933-8f32-3d720e7af9af","system_id":"levelo_inurba_marseille","lat":43.2936,"lon":5.37835,"is_reserved":false,"is_disabled":false,"rental_uris":{"android":"levelo://app?vid=313762ac-e1ed-4933-8f32-3d720e7af9af","ios":"levelo://app?vid=313762ac-e1ed-4933-8f32-3d720e7af9af"},"vehicle_type_id":"4","last_reported":1693598820,"current_range_meters":26000,"station_id":"ce4bgjh2rcd13ifvqbf0","pricing_plan_id":"free"},{"bike_id":"e4e0266c-ac7c-413c-9310-2524c36034f2","system_id":"levelo_inurba_marseille","lat":43.300852,"lon":5.390859,"is_reserved":false,"is_disabled":false,"rental_uris":{"android":"levelo://app?vid=e4e0266c-ac7c-413c-9310-2524c36034f2","ios":"levelo://app?vid=e4e0266c-ac7c-413c-9310-2524c36034f2"},"vehicle_type_id":"4","last_reported":1693598820,"current_range_meters":12400,"station_id":"ce4bh192rcd13ifvqdb0","pricing_plan_id":"free"},{"bike_id":"f042969d-edb1-48d8-a4ad-8db7e844d7c9","system_id":"levelo_inurba_marseille","lat":43.29264,"lon":5.37631,"is_reserved":false,"is_disabled":false,"rental_uris":{"android":"levelo://app?vid=f042969d-edb1-48d8-a4ad-8db7e844d7c9","ios":"levelo://app?vid=f042969d-edb1-48d8-a4ad-8db7e844d7c9"},"vehicle_type_id":"4","last_reported":1693598820,"current_range_meters":2400,"station_id":"ce4bgi12rcd13ifvqb80","pricing_plan_id":"free"},{"bike_id":"b127cb02-a67f-4944-955b-2653cb69db42","system_id":"levelo_inurba_marseille","lat":43.29142,"lon":5.36689,"is_reserved":false,"is_disabled":false,"rental_uris":{"android":"levelo://app?vid=b127cb02-a67f-4944-955b-2653cb69db42","ios":"levelo://app?vid=b127cb02-a67f-4944-955b-2653cb69db42"},"vehicle_type_id":"4","last_reported":1693598820,"current_range_meters":24800,"station_id":"ce4bhc92rcd13ifvqetg","pricing_plan_id":"free"},{"bike_id":"a84d01ad-95dd-49f7-b3d3-6b7ce7705c1c","system_id":"levelo_inurba_marseille","lat":43.298764,"lon":5.388973,"is_reserved":false,"is_disabled":false,"rental_uris":{"android":"levelo://app?vid=a84d01ad-95dd-49f7-b3d3-6b7ce7705c1c","ios":"levelo://app?vid=a84d01ad-95dd-49f7-b3d3-6b7ce7705c1c"},"vehicle_type_id":"4","last_reported":1693598820,"current_range_meters":27600,"station_id":"ce4bh392rcd13ifvqdl0","pricing_plan_id":"free"},{"bike_id":"2501742b-d44a-4085-94e5-84c3a1ef9fce","system_id":"levelo_inurba_marseille","lat":43.298764,"lon":5.388973,"is_reserved":false,"is_disabled":false,"rental_uris":{"android":"levelo://app?vid=2501742b-d44a-4085-94e5-84c3a1ef9fce","ios":"levelo://app?vid=2501742b-d44a-4085-94e5-84c3a1ef9fce"},"vehicle_type_id":"4","last_reported":1693598820,"current_range_meters":26000,"station_id":"ce4bh392rcd13ifvqdl0","pricing_plan_id":"free"},{"bike_id":"1885ecbc-3efc-4739-b99b-abff2df6f834","system_id":"levelo_inurba_marseille","lat":43.29883,"lon":5.38921,"is_reserved":false,"is_disabled":false,"rental_uris":{"android":"levelo://app?vid=1885ecbc-3efc-4739-b99b-abff2df6f834","ios":"levelo://app?vid=1885ecbc-3efc-4739-b99b-abff2df6f834"},"vehicle_type_id":"4","last_reported":1693598820,"current_range_meters":0,"station_id":"ce4bh392rcd13ifvqdl0","pricing_plan_id":"free"},{"bike_id":"73c2e0c0-a939-4bc3-943a-e52094180bff","system_id":"levelo_inurba_marseille","lat":43.291994,"lon":5.357886,"is_reserved":false,"is_disabled":false,"rental_uris":{"android":"levelo://app?vid=73c2e0c0-a939-4bc3-943a-e52094180bff","ios":"levelo://app?vid=73c2e0c0-a939-4bc3-943a-e52094180bff"},"vehicle_type_id":"4","last_reported":1693598820,"current_range_meters":21600,"station_id":"ce4bhb12rcd13ifvqel0","pricing_plan_id":"free"},{"bike_id":"a81e6be8-9084-4e54-9437-76518ecec159","system_id":"levelo_inurba_marseille","lat":43.291994,"lon":5.357886,"is_reserved":false,"is_disabled":false,"rental_uris":{"android":"levelo://app?vid=a81e6be8-9084-4e54-9437-76518ecec159","ios":"levelo://app?vid=a81e6be8-9084-4e54-9437-76518ecec159"},"vehicle_type_id":"4","last_reported":1693598820,"current_range_meters":0,"station_id":"ce4bhb12rcd13ifvqel0","pricing_plan_id":"free"},{"bike_id":"ee7b75ff-b1b7-4965-a139-7fd200d2a06e","system_id":"levelo_inurba_marseille","lat":43.313291,"lon":5.396838,"is_reserved":false,"is_disabled":false,"rental_uris":{"android":"levelo://app?vid=ee7b75ff-b1b7-4965-a139-7fd200d2a06e","ios":"levelo://app?vid=ee7b75ff-b1b7-4965-a139-7fd200d2a06e"},"vehicle_type_id":"4","last_reported":1693598820,"current_range_meters":6800,"station_id":"ce4bgvp2rcd13ifvqcu0","pricing_plan_id":"free"},{"bike_id":"2d071a18-5574-4b5a-9ca3-038b5a7f8932","system_id":"levelo_inurba_marseille","lat":43.313291,"lon":5.396838,"is_reserved":false,"is_disabled":false,"rental_uris":{"android":"levelo://app?vid=2d071a18-5574-4b5a-9ca3-038b5a7f8932","ios":"levelo://app?vid=2d071a18-5574-4b5a-9ca3-038b5a7f8932"},"vehicle_type_id":"4","last_reported":1693598820,"current_range_meters":10000,"station_id":"ce4bgvp2rcd13ifvqcu0","pricing_plan_id":"free"},{"bike_id":"210451a7-243e-4271-8ee9-2b571b3c07b8","system_id":"levelo_inurba_marseille","lat":43.31335,"lon":5.39694,"is_reserved":false,"is_disabled":false,"rental_uris":{"android":"levelo://app?vid=210451a7-243e-4271-8ee9-2b571b3c07b8","ios":"levelo://app?vid=210451a7-243e-4271-8ee9-2b571b3c07b8"},"vehicle_type_id":"4","last_reported":1693598820,"current_range_meters":15600,"station_id":"ce4bgvp2rcd13ifvqcu0","pricing_plan_id":"free"},{"bike_id":"253324a0-8e51-4b02-a62c-d67e6655a9b6","system_id":"levelo_inurba_marseille","lat":43.3133,"lon":5.39695,"is_reserved":false,"is_disabled":false,"rental_uris":{"android":"levelo://app?vid=253324a0-8e51-4b02-a62c-d67e6655a9b6","ios":"levelo://app?vid=253324a0-8e51-4b02-a62c-d67e6655a9b6"},"vehicle_type_id":"4","last_reported":1693598820,"current_range_meters":1200,"station_id":"ce4bgvp2rcd13ifvqcu0","pricing_plan_id":"free"},{"bike_id":"72409e3d-4b23-4d60-9c11-cc228a6ba556","system_id":"levelo_inurba_marseille","lat":43.29529,"lon":5.385581,"is_reserved":false,"is_disabled":false,"rental_uris":{"android":"levelo://app?vid=72409e3d-4b23-4d60-9c11-cc228a6ba556","ios":"levelo://app?vid=72409e3d-4b23-4d60-9c11-cc228a6ba556"},"vehicle_type_id":"4","last_reported":1693598820,"current_range_meters":4400,"station_id":"ce4bgih2rcd13ifvqba0","pricing_plan_id":"free"},{"bike_id":"97fa4800-3c2a-4ab7-9b62-18dbf81a251a","system_id":"levelo_inurba_marseille","lat":43.29529,"lon":5.385581,"is_reserved":false,"is_disabled":false,"rental_uris":{"android":"levelo://app?vid=97fa4800-3c2a-4ab7-9b62-18dbf81a251a","ios":"levelo://app?vid=97fa4800-3c2a-4ab7-9b62-18dbf81a251a"},"vehicle_type_id":"4","last_reported":1693598820,"current_range_meters":30400,"station_id":"ce4bgih2rcd13ifvqba0","pricing_plan_id":"free"},{"bike_id":"220a77a9-939d-443c-b6da-a943306dee53","system_id":"levelo_inurba_marseille","lat":43.29181,"lon":5.35784,"is_reserved":false,"is_disabled":false,"rental_uris":{"android":"levelo://app?vid=220a77a9-939d-443c-b6da-a943306dee53","ios":"levelo://app?vid=220a77a9-939d-443c-b6da-a943306dee53"},"vehicle_type_id":"4","last_reported":1693598820,"current_range_meters":17200,"station_id":"ce4bhb12rcd13ifvqel0","pricing_plan_id":"free"},{"bike_id":"6d431db5-a3ee-4172-99a0-f77125fae1bc","system_id":"levelo_inurba_marseille","lat":43.29529,"lon":5.385581,"is_reserved":false,"is_disabled":false,"rental_uris":{"android":"levelo://app?vid=6d431db5-a3ee-4172-99a0-f77125fae1bc","ios":"levelo://app?vid=6d431db5-a3ee-4172-99a0-f77125fae1bc"},"vehicle_type_id":"4","last_reported":1693598820,"current_range_meters":7200,"station_id":"ce4bgih2rcd13ifvqba0","pricing_plan_id":"free"},{"bike_id":"59039588-674d-4233-a46f-b9fae01a9697","system_id":"levelo_inurba_marseille","lat":43.29537,"lon":5.38552,"is_reserved":false,"is_disabled":false,"rental_uris":{"android":"levelo://app?vid=59039588-674d-4233-a46f-b9fae01a9697","ios":"levelo://app?vid=59039588-674d-4233-a46f-b9fae01a9697"},"vehicle_type_id":"4","last_reported":1693598820,"current_range_meters":1200,"station_id":"ce4bgih2rcd13ifvqba0","pricing_plan_id":"free"},{"bike_id":"3985d4c3-c3bd-4d32-a9cc-1d4a1af56ff5","system_id":"levelo_inurba_marseille","lat":43.29529,"lon":5.385581,"is_reserved":false,"is_disabled":false,"rental_uris":{"android":"levelo://app?vid=3985d4c3-c3bd-4d32-a9cc-1d4a1af56ff5","ios":"levelo://app?vid=3985d4c3-c3bd-4d32-a9cc-1d4a1af56ff5"},"vehicle_type_id":"4","last_reported":1693598820,"current_range_meters":12000,"station_id":"ce4bgih2rcd13ifvqba0","pricing_plan_id":"free"},{"bike_id":"b82caeaf-e210-41da-8e75-d1caad5b716f","system_id":"levelo_inurba_marseille","lat":43.29536,"lon":5.38556,"is_reserved":false,"is_disabled":false,"rental_uris":{"android":"levelo://app?vid=b82caeaf-e210-41da-8e75-d1caad5b716f","ios":"levelo://app?vid=b82caeaf-e210-41da-8e75-d1caad5b716f"},"vehicle_type_id":"4","last_reported":1693598820,"current_range_meters":4400,"station_id":"ce4bgih2rcd13ifvqba0","pricing_plan_id":"free"},{"bike_id":"0d962e12-b732-4464-bc89-f40845207671","system_id":"levelo_inurba_marseille","lat":43.33221,"lon":5.38114,"is_reserved":false,"is_disabled":false,"rental_uris":{"android":"levelo://app?vid=0d962e12-b732-4464-bc89-f40845207671","ios":"levelo://app?vid=0d962e12-b732-4464-bc89-f40845207671"},"vehicle_type_id":"4","last_reported":1693598820,"current_range_meters":10000,"station_id":"","pricing_plan_id":"free"},{"bike_id":"8e7445aa-4380-4afd-9587-9366f27bac25","system_id":"levelo_inurba_marseille","lat":43.29527,"lon":5.38541,"is_reserved":false,"is_disabled":false,"rental_uris":{"android":"levelo://app?vid=8e7445aa-4380-4afd-9587-9366f27bac25","ios":"levelo://app?vid=8e7445aa-4380-4afd-9587-9366f27bac25"},"vehicle_type_id":"4","last_reported":1693598820,"current_range_meters":19200,"station_id":"ce4bgih2rcd13ifvqba0","pricing_plan_id":"free"},{"bike_id":"5d71c570-0b53-4e2a-b5f5-b80854820506","system_id":"levelo_inurba_marseille","lat":43.29529,"lon":5.38545,"is_reserved":false,"is_disabled":false,"rental_uris":{"android":"levelo://app?vid=5d71c570-0b53-4e2a-b5f5-b80854820506","ios":"levelo://app?vid=5d71c570-0b53-4e2a-b5f5-b80854820506"},"vehicle_type_id":"4","last_reported":1693598820,"current_range_meters":29600,"station_id":"ce4bgih2rcd13ifvqba0","pricing_plan_id":"free"},{"bike_id":"8654e87c-5b06-49ef-85a5-2f313513e5b3","system_id":"levelo_inurba_marseille","lat":43.29529,"lon":5.385581,"is_reserved":false,"is_disabled":false,"rental_uris":{"android":"levelo://app?vid=8654e87c-5b06-49ef-85a5-2f313513e5b3","ios":"levelo://app?vid=8654e87c-5b06-49ef-85a5-2f313513e5b3"},"vehicle_type_id":"4","last_reported":1693598820,"current_range_meters":19600,"station_id":"ce4bgih2rcd13ifvqba0","pricing_plan_id":"free"},{"bike_id":"909fdf6c-5e62-4343-a1aa-1ee12fbeb75b","system_id":"levelo_inurba_marseille","lat":43.29529,"lon":5.38546,"is_reserved":false,"is_disabled":false,"rental_uris":{"android":"levelo://app?vid=909fdf6c-5e62-4343-a1aa-1ee12fbeb75b","ios":"levelo://app?vid=909fdf6c-5e62-4343-a1aa-1ee12fbeb75b"},"vehicle_type_id":"4","last_reported":1693598820,"current_range_meters":22800,"station_id":"ce4bgih2rcd13ifvqba0","pricing_plan_id":"free"},{"bike_id":"ff4a6e20-4f18-4ce1-a555-e44ac0c7f9d1","system_id":"levelo_inurba_marseille","lat":43.29531,"lon":5.3855,"is_reserved":false,"is_disabled":false,"rental_uris":{"android":"levelo://app?vid=ff4a6e20-4f18-4ce1-a555-e44ac0c7f9d1","ios":"levelo://app?vid=ff4a6e20-4f18-4ce1-a555-e44ac0c7f9d1"},"vehicle_type_id":"4","last_reported":1693598820,"current_range_meters":4800,"station_id":"ce4bgih2rcd13ifvqba0","pricing_plan_id":"free"},{"bike_id":"37a049f3-19fa-4921-bae4-abb7f828c2e5","system_id":"levelo_inurba_marseille","lat":43.29531,"lon":5.38553,"is_reserved":false,"is_disabled":false,"rental_uris":{"android":"levelo://app?vid=37a049f3-19fa-4921-bae4-abb7f828c2e5","ios":"levelo://app?vid=37a049f3-19fa-4921-bae4-abb7f828c2e5"},"vehicle_type_id":"4","last_reported":1693598820,"current_range_meters":0,"station_id":"ce4bgih2rcd13ifvqba0","pricing_plan_id":"free"},{"bike_id":"ebf4550f-ea30-4ba4-ad1a-629f10da813a","system_id":"levelo_inurba_marseille","lat":43.29529,"lon":5.385581,"is_reserved":false,"is_disabled":false,"rental_uris":{"android":"levelo://app?vid=ebf4550f-ea30-4ba4-ad1a-629f10da813a","ios":"levelo://app?vid=ebf4550f-ea30-4ba4-ad1a-629f10da813a"},"vehicle_type_id":"4","last_reported":1693598820,"current_range_meters":11600,"station_id":"ce4bgih2rcd13ifvqba0","pricing_plan_id":"free"},{"bike_id":"975f2aa9-9b78-45b0-9356-c53e68e26b38","system_id":"levelo_inurba_marseille","lat":43.29529,"lon":5.385581,"is_reserved":false,"is_disabled":false,"rental_uris":{"android":"levelo://app?vid=975f2aa9-9b78-45b0-9356-c53e68e26b38","ios":"levelo://app?vid=975f2aa9-9b78-45b0-9356-c53e68e26b38"},"vehicle_type_id":"4","last_reported":1693598820,"current_range_meters":5200,"station_id":"ce4bgih2rcd13ifvqba0","pricing_plan_id":"free"},{"bike_id":"b622d6df-c024-4058-9725-7170b542b1ba","system_id":"levelo_inurba_marseille","lat":43.294153,"lon":5.386305,"is_reserved":false,"is_disabled":false,"rental_uris":{"android":"levelo://app?vid=b622d6df-c024-4058-9725-7170b542b1ba","ios":"levelo://app?vid=b622d6df-c024-4058-9725-7170b542b1ba"},"vehicle_type_id":"4","last_reported":1693598820,"current_range_meters":4000,"station_id":"ce4bh2h2rcd13ifvqdh0","pricing_plan_id":"free"},{"bike_id":"c3ddec41-8dd9-4e4e-90a4-c5a436a3f617","system_id":"levelo_inurba_marseille","lat":43.294153,"lon":5.386305,"is_reserved":false,"is_disabled":false,"rental_uris":{"android":"levelo://app?vid=c3ddec41-8dd9-4e4e-90a4-c5a436a3f617","ios":"levelo://app?vid=c3ddec41-8dd9-4e4e-90a4-c5a436a3f617"},"vehicle_type_id":"4","last_reported":1693598820,"current_range_meters":0,"station_id":"ce4bh2h2rcd13ifvqdh0","pricing_plan_id":"free"},{"bike_id":"92514ba3-aacf-49c0-abe1-d16db36e8777","system_id":"levelo_inurba_marseille","lat":43.294153,"lon":5.386305,"is_reserved":false,"is_disabled":false,"rental_uris":{"android":"levelo://app?vid=92514ba3-aacf-49c0-abe1-d16db36e8777","ios":"levelo://app?vid=92514ba3-aacf-49c0-abe1-d16db36e8777"},"vehicle_type_id":"4","last_reported":1693598820,"current_range_meters":6400,"station_id":"ce4bh2h2rcd13ifvqdh0","pricing_plan_id":"free"},{"bike_id":"05bf879c-acfe-435c-b601-beb38fe74966","system_id":"levelo_inurba_marseille","lat":43.29424,"lon":5.38632,"is_reserved":false,"is_disabled":false,"rental_uris":{"android":"levelo://app?vid=05bf879c-acfe-435c-b601-beb38fe74966","ios":"levelo://app?vid=05bf879c-acfe-435c-b601-beb38fe74966"},"vehicle_type_id":"4","last_reported":1693598820,"current_range_meters":16000,"station_id":"ce4bh2h2rcd13ifvqdh0","pricing_plan_id":"free"},{"bike_id":"f54af421-ce5b-434b-87de-e751691cf183","system_id":"levelo_inurba_marseille","lat":43.294153,"lon":5.386305,"is_reserved":false,"is_disabled":false,"rental_uris":{"android":"levelo://app?vid=f54af421-ce5b-434b-87de-e751691cf183","ios":"levelo://app?vid=f54af421-ce5b-434b-87de-e751691cf183"},"vehicle_type_id":"4","last_reported":1693598820,"current_range_meters":19200,"station_id":"ce4bh2h2rcd13ifvqdh0","pricing_plan_id":"free"},{"bike_id":"56c9e8fc-f529-4115-b74f-b1aa508fed5d","system_id":"levelo_inurba_marseille","lat":43.29421,"lon":5.38628,"is_reserved":false,"is_disabled":false,"rental_uris":{"android":"levelo://app?vid=56c9e8fc-f529-4115-b74f-b1aa508fed5d","ios":"levelo://app?vid=56c9e8fc-f529-4115-b74f-b1aa508fed5d"},"vehicle_type_id":"4","last_reported":1693598820,"current_range_meters":29200,"station_id":"ce4bh2h2rcd13ifvqdh0","pricing_plan_id":"free"},{"bike_id":"6898eece-d8a0-4229-864d-ea44e84db71a","system_id":"levelo_inurba_marseille","lat":43.29421,"lon":5.38631,"is_reserved":false,"is_disabled":false,"rental_uris":{"android":"levelo://app?vid=6898eece-d8a0-4229-864d-ea44e84db71a","ios":"levelo://app?vid=6898eece-d8a0-4229-864d-ea44e84db71a"},"vehicle_type_id":"4","last_reported":1693598820,"current_range_meters":26400,"station_id":"ce4bh2h2rcd13ifvqdh0","pricing_plan_id":"free"},{"bike_id":"2b50aac6-44cb-4d47-8cf2-344026331b9b","system_id":"levelo_inurba_marseille","lat":43.294153,"lon":5.386305,"is_reserved":false,"is_disabled":false,"rental_uris":{"android":"levelo://app?vid=2b50aac6-44cb-4d47-8cf2-344026331b9b","ios":"levelo://app?vid=2b50aac6-44cb-4d47-8cf2-344026331b9b"},"vehicle_type_id":"4","last_reported":1693598820,"current_range_meters":26400,"station_id":"ce4bh2h2rcd13ifvqdh0","pricing_plan_id":"free"},{"bike_id":"3b9c48e6-fff0-47c3-af97-3590007ca2a1","system_id":"levelo_inurba_marseille","lat":43.294153,"lon":5.386305,"is_reserved":false,"is_disabled":false,"rental_uris":{"android":"levelo://app?vid=3b9c48e6-fff0-47c3-af97-3590007ca2a1","ios":"levelo://app?vid=3b9c48e6-fff0-47c3-af97-3590007ca2a1"},"vehicle_type_id":"4","last_reported":1693598820,"current_range_meters":4000,"station_id":"ce4bh2h2rcd13ifvqdh0","pricing_plan_id":"free"},{"bike_id":"cab8c4f6-137a-40c0-81e1-9e01e0ecb22e","system_id":"levelo_inurba_marseille","lat":43.294162,"lon":5.386292,"is_reserved":false,"is_disabled":false,"rental_uris":{"android":"levelo://app?vid=cab8c4f6-137a-40c0-81e1-9e01e0ecb22e","ios":"levelo://app?vid=cab8c4f6-137a-40c0-81e1-9e01e0ecb22e"},"vehicle_type_id":"4","last_reported":1693598820,"current_range_meters":18800,"station_id":"ce4bh2h2rcd13ifvqdh0","pricing_plan_id":"free"},{"bike_id":"bcacf829-299f-461b-ab6b-faff43b418f5","system_id":"levelo_inurba_marseille","lat":43.29415,"lon":5.38624,"is_reserved":false,"is_disabled":false,"rental_uris":{"android":"levelo://app?vid=bcacf829-299f-461b-ab6b-faff43b418f5","ios":"levelo://app?vid=bcacf829-299f-461b-ab6b-faff43b418f5"},"vehicle_type_id":"4","last_reported":1693598820,"current_range_meters":0,"station_id":"ce4bh2h2rcd13ifvqdh0","pricing_plan_id":"free"},{"bike_id":"bafb1535-23e2-44ab-aa35-216c1ec9d2ea","system_id":"levelo_inurba_marseille","lat":43.29416,"lon":5.3863,"is_reserved":false,"is_disabled":false,"rental_uris":{"android":"levelo://app?vid=bafb1535-23e2-44ab-aa35-216c1ec9d2ea","ios":"levelo://app?vid=bafb1535-23e2-44ab-aa35-216c1ec9d2ea"},"vehicle_type_id":"4","last_reported":1693598820,"current_range_meters":14400,"station_id":"ce4bh2h2rcd13ifvqdh0","pricing_plan_id":"free"},{"bike_id":"2f93318d-a393-4e93-88c9-60d3ec241b0e","system_id":"levelo_inurba_marseille","lat":43.289184,"lon":5.366408,"is_reserved":false,"is_disabled":false,"rental_uris":{"android":"levelo://app?vid=2f93318d-a393-4e93-88c9-60d3ec241b0e","ios":"levelo://app?vid=2f93318d-a393-4e93-88c9-60d3ec241b0e"},"vehicle_type_id":"4","last_reported":1693598820,"current_range_meters":31200,"station_id":"ce4bhap2rcd13ifvqek0","pricing_plan_id":"free"},{"bike_id":"8dc2db0d-b4cc-4dba-b238-26b3eeb3667d","system_id":"levelo_inurba_marseille","lat":43.29411,"lon":5.38631,"is_reserved":false,"is_disabled":false,"rental_uris":{"android":"levelo://app?vid=8dc2db0d-b4cc-4dba-b238-26b3eeb3667d","ios":"levelo://app?vid=8dc2db0d-b4cc-4dba-b238-26b3eeb3667d"},"vehicle_type_id":"4","last_reported":1693598820,"current_range_meters":10400,"station_id":"ce4bh2h2rcd13ifvqdh0","pricing_plan_id":"free"},{"bike_id":"eaf2f402-c3f4-4034-9af1-2ef9b78dbe06","system_id":"levelo_inurba_marseille","lat":43.29267,"lon":5.3843,"is_reserved":false,"is_disabled":false,"rental_uris":{"android":"levelo://app?vid=eaf2f402-c3f4-4034-9af1-2ef9b78dbe06","ios":"levelo://app?vid=eaf2f402-c3f4-4034-9af1-2ef9b78dbe06"},"vehicle_type_id":"4","last_reported":1693598820,"current_range_meters":20800,"station_id":"ce4bh692rcd13ifvqea0","pricing_plan_id":"free"},{"bike_id":"b395d563-f533-4fd1-9389-2d73adc711a5","system_id":"levelo_inurba_marseille","lat":43.292644,"lon":5.384257,"is_reserved":false,"is_disabled":false,"rental_uris":{"android":"levelo://app?vid=b395d563-f533-4fd1-9389-2d73adc711a5","ios":"levelo://app?vid=b395d563-f533-4fd1-9389-2d73adc711a5"},"vehicle_type_id":"4","last_reported":1693598820,"current_range_meters":15200,"station_id":"ce4bh692rcd13ifvqea0","pricing_plan_id":"free"},{"bike_id":"59d736bb-ed64-40fc-9cc2-a4a1b23ea210","system_id":"levelo_inurba_marseille","lat":43.29262,"lon":5.384259,"is_reserved":false,"is_disabled":false,"rental_uris":{"android":"levelo://app?vid=59d736bb-ed64-40fc-9cc2-a4a1b23ea210","ios":"levelo://app?vid=59d736bb-ed64-40fc-9cc2-a4a1b23ea210"},"vehicle_type_id":"4","last_reported":1693598820,"current_range_meters":10400,"station_id":"ce4bgup2rcd13ifvqco0","pricing_plan_id":"free"},{"bike_id":"d1007c05-9ada-45fa-bcb1-97fab45f4906","system_id":"levelo_inurba_marseille","lat":43.292644,"lon":5.384257,"is_reserved":false,"is_disabled":false,"rental_uris":{"android":"levelo://app?vid=d1007c05-9ada-45fa-bcb1-97fab45f4906","ios":"levelo://app?vid=d1007c05-9ada-45fa-bcb1-97fab45f4906"},"vehicle_type_id":"4","last_reported":1693598820,"current_range_meters":26000,"station_id":"ce4bh692rcd13ifvqea0","pricing_plan_id":"free"},{"bike_id":"6da74a4d-48a2-4d0d-8852-698b67965a75","system_id":"levelo_inurba_marseille","lat":43.292644,"lon":5.384257,"is_reserved":false,"is_disabled":false,"rental_uris":{"android":"levelo://app?vid=6da74a4d-48a2-4d0d-8852-698b67965a75","ios":"levelo://app?vid=6da74a4d-48a2-4d0d-8852-698b67965a75"},"vehicle_type_id":"4","last_reported":1693598820,"current_range_meters":19200,"station_id":"ce4bh692rcd13ifvqea0","pricing_plan_id":"free"},{"bike_id":"23e53b32-5fe1-4499-b80e-a00ef108cd20","system_id":"levelo_inurba_marseille","lat":43.29266,"lon":5.38441,"is_reserved":false,"is_disabled":false,"rental_uris":{"android":"levelo://app?vid=23e53b32-5fe1-4499-b80e-a00ef108cd20","ios":"levelo://app?vid=23e53b32-5fe1-4499-b80e-a00ef108cd20"},"vehicle_type_id":"4","last_reported":1693598820,"current_range_meters":400,"station_id":"ce4bh692rcd13ifvqea0","pricing_plan_id":"free"},{"bike_id":"6ea99cb3-d610-46c8-a870-6244dfa124c0","system_id":"levelo_inurba_marseille","lat":43.292644,"lon":5.384257,"is_reserved":false,"is_disabled":false,"rental_uris":{"android":"levelo://app?vid=6ea99cb3-d610-46c8-a870-6244dfa124c0","ios":"levelo://app?vid=6ea99cb3-d610-46c8-a870-6244dfa124c0"},"vehicle_type_id":"4","last_reported":1693598820,"current_range_meters":3600,"station_id":"ce4bh692rcd13ifvqea0","pricing_plan_id":"free"},{"bike_id":"23477c32-3190-4ae9-895d-b5455964647d","system_id":"levelo_inurba_marseille","lat":43.292644,"lon":5.384257,"is_reserved":false,"is_disabled":false,"rental_uris":{"android":"levelo://app?vid=23477c32-3190-4ae9-895d-b5455964647d","ios":"levelo://app?vid=23477c32-3190-4ae9-895d-b5455964647d"},"vehicle_type_id":"4","last_reported":1693598820,"current_range_meters":17600,"station_id":"ce4bh692rcd13ifvqea0","pricing_plan_id":"free"},{"bike_id":"be519bc5-7de9-4c45-9239-02d518d0bfcb","system_id":"levelo_inurba_marseille","lat":43.29263,"lon":5.38436,"is_reserved":false,"is_disabled":false,"rental_uris":{"android":"levelo://app?vid=be519bc5-7de9-4c45-9239-02d518d0bfcb","ios":"levelo://app?vid=be519bc5-7de9-4c45-9239-02d518d0bfcb"},"vehicle_type_id":"4","last_reported":1693598820,"current_range_meters":0,"station_id":"ce4bh692rcd13ifvqea0","pricing_plan_id":"free"},{"bike_id":"421018e0-23bf-425c-aa8b-e47ab340e271","system_id":"levelo_inurba_marseille","lat":43.29262,"lon":5.38434,"is_reserved":false,"is_disabled":false,"rental_uris":{"android":"levelo://app?vid=421018e0-23bf-425c-aa8b-e47ab340e271","ios":"levelo://app?vid=421018e0-23bf-425c-aa8b-e47ab340e271"},"vehicle_type_id":"4","last_reported":1693598820,"current_range_meters":4000,"station_id":"ce4bh692rcd13ifvqea0","pricing_plan_id":"free"},{"bike_id":"34b8981c-c6ca-4754-a3fe-b2525478b1a2","system_id":"levelo_inurba_marseille","lat":43.292644,"lon":5.384257,"is_reserved":false,"is_disabled":false,"rental_uris":{"android":"levelo://app?vid=34b8981c-c6ca-4754-a3fe-b2525478b1a2","ios":"levelo://app?vid=34b8981c-c6ca-4754-a3fe-b2525478b1a2"},"vehicle_type_id":"4","last_reported":1693598820,"current_range_meters":0,"station_id":"ce4bh692rcd13ifvqea0","pricing_plan_id":"free"},{"bike_id":"cd8afd36-bfad-4c23-8caf-367537cfb0a4","system_id":"levelo_inurba_marseille","lat":43.29263,"lon":5.38437,"is_reserved":false,"is_disabled":false,"rental_uris":{"android":"levelo://app?vid=cd8afd36-bfad-4c23-8caf-367537cfb0a4","ios":"levelo://app?vid=cd8afd36-bfad-4c23-8caf-367537cfb0a4"},"vehicle_type_id":"4","last_reported":1693598820,"current_range_meters":7200,"station_id":"ce4bh692rcd13ifvqea0","pricing_plan_id":"free"},{"bike_id":"c80dec75-9f2a-4022-a594-a86811d89819","system_id":"levelo_inurba_marseille","lat":43.292644,"lon":5.384257,"is_reserved":false,"is_disabled":false,"rental_uris":{"android":"levelo://app?vid=c80dec75-9f2a-4022-a594-a86811d89819","ios":"levelo://app?vid=c80dec75-9f2a-4022-a594-a86811d89819"},"vehicle_type_id":"4","last_reported":1693598820,"current_range_meters":11600,"station_id":"ce4bh692rcd13ifvqea0","pricing_plan_id":"free"},{"bike_id":"1c3b597a-295a-4179-98ee-16646ac17333","system_id":"levelo_inurba_marseille","lat":43.29264,"lon":5.38441,"is_reserved":false,"is_disabled":false,"rental_uris":{"android":"levelo://app?vid=1c3b597a-295a-4179-98ee-16646ac17333","ios":"levelo://app?vid=1c3b597a-295a-4179-98ee-16646ac17333"},"vehicle_type_id":"4","last_reported":1693598820,"current_range_meters":0,"station_id":"ce4bh692rcd13ifvqea0","pricing_plan_id":"free"},{"bike_id":"e44af03c-f3b3-43a9-8686-e6b8537b8bda","system_id":"levelo_inurba_marseille","lat":43.29263,"lon":5.38439,"is_reserved":false,"is_disabled":false,"rental_uris":{"android":"levelo://app?vid=e44af03c-f3b3-43a9-8686-e6b8537b8bda","ios":"levelo://app?vid=e44af03c-f3b3-43a9-8686-e6b8537b8bda"},"vehicle_type_id":"4","last_reported":1693598820,"current_range_meters":13600,"station_id":"ce4bh692rcd13ifvqea0","pricing_plan_id":"free"},{"bike_id":"3c641ebd-f6ac-448a-9fde-619339d6cb8e","system_id":"levelo_inurba_marseille","lat":43.29258,"lon":5.38429,"is_reserved":false,"is_disabled":false,"rental_uris":{"android":"levelo://app?vid=3c641ebd-f6ac-448a-9fde-619339d6cb8e","ios":"levelo://app?vid=3c641ebd-f6ac-448a-9fde-619339d6cb8e"},"vehicle_type_id":"4","last_reported":1693598820,"current_range_meters":4800,"station_id":"ce4bh692rcd13ifvqea0","pricing_plan_id":"free"},{"bike_id":"0f984e05-70a2-44bd-896b-c46098531b69","system_id":"levelo_inurba_marseille","lat":43.29261,"lon":5.38437,"is_reserved":false,"is_disabled":false,"rental_uris":{"android":"levelo://app?vid=0f984e05-70a2-44bd-896b-c46098531b69","ios":"levelo://app?vid=0f984e05-70a2-44bd-896b-c46098531b69"},"vehicle_type_id":"4","last_reported":1693598820,"current_range_meters":16000,"station_id":"ce4bh692rcd13ifvqea0","pricing_plan_id":"free"},{"bike_id":"82090cb3-57bc-4b79-b1d2-c25c19f6af83","system_id":"levelo_inurba_marseille","lat":43.29261,"lon":5.38437,"is_reserved":false,"is_disabled":false,"rental_uris":{"android":"levelo://app?vid=82090cb3-57bc-4b79-b1d2-c25c19f6af83","ios":"levelo://app?vid=82090cb3-57bc-4b79-b1d2-c25c19f6af83"},"vehicle_type_id":"4","last_reported":1693598820,"current_range_meters":5600,"station_id":"ce4bh692rcd13ifvqea0","pricing_plan_id":"free"},{"bike_id":"62cd3945-ecfb-4212-bde0-f5bdf3d7325e","system_id":"levelo_inurba_marseille","lat":43.292644,"lon":5.384257,"is_reserved":false,"is_disabled":false,"rental_uris":{"android":"levelo://app?vid=62cd3945-ecfb-4212-bde0-f5bdf3d7325e","ios":"levelo://app?vid=62cd3945-ecfb-4212-bde0-f5bdf3d7325e"},"vehicle_type_id":"4","last_reported":1693598820,"current_range_meters":4000,"station_id":"ce4bh692rcd13ifvqea0","pricing_plan_id":"free"},{"bike_id":"310c6495-fa77-4cec-9c03-ea042d96805c","system_id":"levelo_inurba_marseille","lat":43.2926,"lon":5.38435,"is_reserved":false,"is_disabled":false,"rental_uris":{"android":"levelo://app?vid=310c6495-fa77-4cec-9c03-ea042d96805c","ios":"levelo://app?vid=310c6495-fa77-4cec-9c03-ea042d96805c"},"vehicle_type_id":"4","last_reported":1693598820,"current_range_meters":11600,"station_id":"ce4bh692rcd13ifvqea0","pricing_plan_id":"free"},{"bike_id":"afef8a81-214b-4702-8354-14445cf04fb9","system_id":"levelo_inurba_marseille","lat":43.29265,"lon":5.38446,"is_reserved":false,"is_disabled":false,"rental_uris":{"android":"levelo://app?vid=afef8a81-214b-4702-8354-14445cf04fb9","ios":"levelo://app?vid=afef8a81-214b-4702-8354-14445cf04fb9"},"vehicle_type_id":"4","last_reported":1693598820,"current_range_meters":26800,"station_id":"ce4bh692rcd13ifvqea0","pricing_plan_id":"free"},{"bike_id":"a957ad81-e126-40eb-b75f-a19e36c408a8","system_id":"levelo_inurba_marseille","lat":43.29263,"lon":5.38444,"is_reserved":false,"is_disabled":false,"rental_uris":{"android":"levelo://app?vid=a957ad81-e126-40eb-b75f-a19e36c408a8","ios":"levelo://app?vid=a957ad81-e126-40eb-b75f-a19e36c408a8"},"vehicle_type_id":"4","last_reported":1693598820,"current_range_meters":3600,"station_id":"ce4bh692rcd13ifvqea0","pricing_plan_id":"free"},{"bike_id":"c12f7f3b-3db4-41a9-9afe-e4836bdcb03c","system_id":"levelo_inurba_marseille","lat":43.29257,"lon":5.38434,"is_reserved":false,"is_disabled":false,"rental_uris":{"android":"levelo://app?vid=c12f7f3b-3db4-41a9-9afe-e4836bdcb03c","ios":"levelo://app?vid=c12f7f3b-3db4-41a9-9afe-e4836bdcb03c"},"vehicle_type_id":"4","last_reported":1693598820,"current_range_meters":400,"station_id":"ce4bh692rcd13ifvqea0","pricing_plan_id":"free"},{"bike_id":"5b3abdba-e3cc-499c-a0be-aad05feec029","system_id":"levelo_inurba_marseille","lat":43.292644,"lon":5.384257,"is_reserved":false,"is_disabled":false,"rental_uris":{"android":"levelo://app?vid=5b3abdba-e3cc-499c-a0be-aad05feec029","ios":"levelo://app?vid=5b3abdba-e3cc-499c-a0be-aad05feec029"},"vehicle_type_id":"4","last_reported":1693598820,"current_range_meters":0,"station_id":"ce4bh692rcd13ifvqea0","pricing_plan_id":"free"},{"bike_id":"20b5a9e1-0409-4c18-99b6-88ddda5400f1","system_id":"levelo_inurba_marseille","lat":43.29263,"lon":5.3845,"is_reserved":false,"is_disabled":false,"rental_uris":{"android":"levelo://app?vid=20b5a9e1-0409-4c18-99b6-88ddda5400f1","ios":"levelo://app?vid=20b5a9e1-0409-4c18-99b6-88ddda5400f1"},"vehicle_type_id":"4","last_reported":1693598820,"current_range_meters":8000,"station_id":"ce4bh692rcd13ifvqea0","pricing_plan_id":"free"},{"bike_id":"aba2ab9e-7b02-4968-a396-dad630575e5b","system_id":"levelo_inurba_marseille","lat":43.292644,"lon":5.384257,"is_reserved":false,"is_disabled":false,"rental_uris":{"android":"levelo://app?vid=aba2ab9e-7b02-4968-a396-dad630575e5b","ios":"levelo://app?vid=aba2ab9e-7b02-4968-a396-dad630575e5b"},"vehicle_type_id":"4","last_reported":1693598820,"current_range_meters":5200,"station_id":"ce4bh692rcd13ifvqea0","pricing_plan_id":"free"},{"bike_id":"dc14ed53-0af7-42cc-ab12-e486e52d9a8a","system_id":"levelo_inurba_marseille","lat":43.29261,"lon":5.38447,"is_reserved":false,"is_disabled":false,"rental_uris":{"android":"levelo://app?vid=dc14ed53-0af7-42cc-ab12-e486e52d9a8a","ios":"levelo://app?vid=dc14ed53-0af7-42cc-ab12-e486e52d9a8a"},"vehicle_type_id":"4","last_reported":1693598820,"current_range_meters":26800,"station_id":"ce4bh692rcd13ifvqea0","pricing_plan_id":"free"},{"bike_id":"378bcb72-f095-4a47-9ecd-21b6b7b081ef","system_id":"levelo_inurba_marseille","lat":43.292642,"lon":5.384254,"is_reserved":false,"is_disabled":false,"rental_uris":{"android":"levelo://app?vid=378bcb72-f095-4a47-9ecd-21b6b7b081ef","ios":"levelo://app?vid=378bcb72-f095-4a47-9ecd-21b6b7b081ef"},"vehicle_type_id":"4","last_reported":1693598820,"current_range_meters":1600,"station_id":"ce4bh692rcd13ifvqea0","pricing_plan_id":"free"},{"bike_id":"fe6046d0-bfdc-42de-a8cb-67b29f3e597f","system_id":"levelo_inurba_marseille","lat":43.29257,"lon":5.38444,"is_reserved":false,"is_disabled":false,"rental_uris":{"android":"levelo://app?vid=fe6046d0-bfdc-42de-a8cb-67b29f3e597f","ios":"levelo://app?vid=fe6046d0-bfdc-42de-a8cb-67b29f3e597f"},"vehicle_type_id":"4","last_reported":1693598820,"current_range_meters":3200,"station_id":"ce4bh692rcd13ifvqea0","pricing_plan_id":"free"},{"bike_id":"6e0a2f94-eaca-4fae-9318-35a8ee2643d9","system_id":"levelo_inurba_marseille","lat":43.292644,"lon":5.384257,"is_reserved":false,"is_disabled":false,"rental_uris":{"android":"levelo://app?vid=6e0a2f94-eaca-4fae-9318-35a8ee2643d9","ios":"levelo://app?vid=6e0a2f94-eaca-4fae-9318-35a8ee2643d9"},"vehicle_type_id":"4","last_reported":1693598820,"current_range_meters":3600,"station_id":"ce4bh692rcd13ifvqea0","pricing_plan_id":"free"},{"bike_id":"e2ec3ec1-c163-460f-ae27-67bb688990ad","system_id":"levelo_inurba_marseille","lat":43.330367,"lon":5.389202,"is_reserved":false,"is_disabled":false,"rental_uris":{"android":"levelo://app?vid=e2ec3ec1-c163-460f-ae27-67bb688990ad","ios":"levelo://app?vid=e2ec3ec1-c163-460f-ae27-67bb688990ad"},"vehicle_type_id":"4","last_reported":1693598820,"current_range_meters":0,"station_id":"ce4bhr92rcd13ifvqhrg","pricing_plan_id":"free"},{"bike_id":"c1b0850d-0a53-4da0-9f6b-a9a94f67666e","system_id":"levelo_inurba_marseille","lat":43.33045,"lon":5.38909,"is_reserved":false,"is_disabled":false,"rental_uris":{"android":"levelo://app?vid=c1b0850d-0a53-4da0-9f6b-a9a94f67666e","ios":"levelo://app?vid=c1b0850d-0a53-4da0-9f6b-a9a94f67666e"},"vehicle_type_id":"4","last_reported":1693598820,"current_range_meters":24400,"station_id":"ce4bhr92rcd13ifvqhrg","pricing_plan_id":"free"},{"bike_id":"276df892-9a2a-40a9-929d-29c6fe2dac65","system_id":"levelo_inurba_marseille","lat":43.33045,"lon":5.3891,"is_reserved":false,"is_disabled":false,"rental_uris":{"android":"levelo://app?vid=276df892-9a2a-40a9-929d-29c6fe2dac65","ios":"levelo://app?vid=276df892-9a2a-40a9-929d-29c6fe2dac65"},"vehicle_type_id":"4","last_reported":1693598820,"current_range_meters":26000,"station_id":"ce4bhr92rcd13ifvqhrg","pricing_plan_id":"free"},{"bike_id":"d346ead7-ea15-4af0-898b-f25c067a214a","system_id":"levelo_inurba_marseille","lat":43.33042,"lon":5.38917,"is_reserved":false,"is_disabled":false,"rental_uris":{"android":"levelo://app?vid=d346ead7-ea15-4af0-898b-f25c067a214a","ios":"levelo://app?vid=d346ead7-ea15-4af0-898b-f25c067a214a"},"vehicle_type_id":"4","last_reported":1693598820,"current_range_meters":18800,"station_id":"ce4bhr92rcd13ifvqhrg","pricing_plan_id":"free"},{"bike_id":"978b0ff4-c9df-43ed-a4e7-ec9b1854c595","system_id":"levelo_inurba_marseille","lat":43.33041,"lon":5.38919,"is_reserved":false,"is_disabled":false,"rental_uris":{"android":"levelo://app?vid=978b0ff4-c9df-43ed-a4e7-ec9b1854c595","ios":"levelo://app?vid=978b0ff4-c9df-43ed-a4e7-ec9b1854c595"},"vehicle_type_id":"4","last_reported":1693598820,"current_range_meters":20000,"station_id":"ce4bhr92rcd13ifvqhrg","pricing_plan_id":"free"},{"bike_id":"90f1fc97-49d0-4df8-9f32-3dfcd4a32851","system_id":"levelo_inurba_marseille","lat":43.33043,"lon":5.38916,"is_reserved":false,"is_disabled":false,"rental_uris":{"android":"levelo://app?vid=90f1fc97-49d0-4df8-9f32-3dfcd4a32851","ios":"levelo://app?vid=90f1fc97-49d0-4df8-9f32-3dfcd4a32851"},"vehicle_type_id":"4","last_reported":1693598820,"current_range_meters":17600,"station_id":"ce4bhr92rcd13ifvqhrg","pricing_plan_id":"free"},{"bike_id":"97bd55a4-42e4-4fe4-b814-e15741181f07","system_id":"levelo_inurba_marseille","lat":43.33045,"lon":5.38914,"is_reserved":false,"is_disabled":false,"rental_uris":{"android":"levelo://app?vid=97bd55a4-42e4-4fe4-b814-e15741181f07","ios":"levelo://app?vid=97bd55a4-42e4-4fe4-b814-e15741181f07"},"vehicle_type_id":"4","last_reported":1693598820,"current_range_meters":4800,"station_id":"ce4bhr92rcd13ifvqhrg","pricing_plan_id":"free"},{"bike_id":"3e0449ec-e32f-417c-946f-951095c26cc1","system_id":"levelo_inurba_marseille","lat":43.33041,"lon":5.38921,"is_reserved":false,"is_disabled":false,"rental_uris":{"android":"levelo://app?vid=3e0449ec-e32f-417c-946f-951095c26cc1","ios":"levelo://app?vid=3e0449ec-e32f-417c-946f-951095c26cc1"},"vehicle_type_id":"4","last_reported":1693598820,"current_range_meters":30000,"station_id":"ce4bhr92rcd13ifvqhrg","pricing_plan_id":"free"},{"bike_id":"d9b7cf73-e139-46ed-8d02-84759924fdf4","system_id":"levelo_inurba_marseille","lat":43.33044,"lon":5.38918,"is_reserved":false,"is_disabled":false,"rental_uris":{"android":"levelo://app?vid=d9b7cf73-e139-46ed-8d02-84759924fdf4","ios":"levelo://app?vid=d9b7cf73-e139-46ed-8d02-84759924fdf4"},"vehicle_type_id":"4","last_reported":1693598820,"current_range_meters":10000,"station_id":"ce4bhr92rcd13ifvqhrg","pricing_plan_id":"free"},{"bike_id":"10a8b87c-9464-45fb-affc-beff0fff9410","system_id":"levelo_inurba_marseille","lat":43.33047,"lon":5.38914,"is_reserved":false,"is_disabled":false,"rental_uris":{"android":"levelo://app?vid=10a8b87c-9464-45fb-affc-beff0fff9410","ios":"levelo://app?vid=10a8b87c-9464-45fb-affc-beff0fff9410"},"vehicle_type_id":"4","last_reported":1693598820,"current_range_meters":3600,"station_id":"ce4bhr92rcd13ifvqhrg","pricing_plan_id":"free"},{"bike_id":"2cdba739-ebc5-413a-8a24-35edd08d69ea","system_id":"levelo_inurba_marseille","lat":43.33048,"lon":5.38913,"is_reserved":false,"is_disabled":false,"rental_uris":{"android":"levelo://app?vid=2cdba739-ebc5-413a-8a24-35edd08d69ea","ios":"levelo://app?vid=2cdba739-ebc5-413a-8a24-35edd08d69ea"},"vehicle_type_id":"4","last_reported":1693598820,"current_range_meters":20000,"station_id":"ce4bhr92rcd13ifvqhrg","pricing_plan_id":"free"},{"bike_id":"8077604d-b9d4-4aae-b42f-6a79c8cc4721","system_id":"levelo_inurba_marseille","lat":43.33041,"lon":5.38924,"is_reserved":false,"is_disabled":false,"rental_uris":{"android":"levelo://app?vid=8077604d-b9d4-4aae-b42f-6a79c8cc4721","ios":"levelo://app?vid=8077604d-b9d4-4aae-b42f-6a79c8cc4721"},