{"last_updated":1706724432,"ttl":30,"version":"2.2","data":{"bikes":[{"bike_id":"a90a5c70-f350-481a-a38e-1f8e546f49d7","system_id":"levelo_inurba_marseille","lat":43.312239,"lon":5.368562,"is_reserved":false,"is_disabled":false,"rental_uris":{"android":"levelo://app?vid=a90a5c70-f350-481a-a38e-1f8e546f49d7","ios":"levelo://app?vid=a90a5c70-f350-481a-a38e-1f8e546f49d7"},"vehicle_type_id":"4","last_reported":1706724432,"current_range_meters":2400,"station_id":"ce4bgl92rcd13ifvqbq0","pricing_plan_id":"free"},{"bike_id":"f4e22888-e77e-48a6-8c9b-5e2bea4e533a","system_id":"levelo_inurba_marseille","lat":43.309039,"lon":5.371797,"is_reserved":false,"is_disabled":false,"rental_uris":{"android":"levelo://app?vid=f4e22888-e77e-48a6-8c9b-5e2bea4e533a","ios":"levelo://app?vid=f4e22888-e77e-48a6-8c9b-5e2bea4e533a"},"vehicle_type_id":"4","last_reported":1706724432,"current_range_meters":0,"station_id":"ce4bguh2rcd13ifvqckg","pricing_plan_id":"free"},{"bike_id":"98d085c8-fbb6-4526-979b-cedc30409b30","system_id":"levelo_inurba_marseille","lat":43.309039,"lon":5.371797,"is_reserved":false,"is_disabled":false,"rental_uris":{"android":"levelo://app?vid=98d085c8-fbb6-4526-979b-cedc30409b30","ios":"levelo://app?vid=98d085c8-fbb6-4526-979b-cedc30409b30"},"vehicle_type_id":"4","last_reported":1706724432,"current_range_meters":0,"station_id":"ce4bguh2rcd13ifvqckg","pricing_plan_id":"free"},{"bike_id":"2d96c2be-c98f-448b-9056-e6b4399d5025","system_id":"levelo_inurba_marseille","lat":43.30886,"lon":5.37195,"is_reserved":false,"is_disabled":false,"rental_uris":{"android":"levelo://app?vid=2d96c2be-c98f-448b-9056-e6b4399d5025","ios":"levelo://app?vid=2d96c2be-c98f-448b-9056-e6b4399d5025"},"vehicle_type_id":"4","last_reported":1706724432,"current_range_meters":0,"station_id":"ce4bguh2rcd13ifvqckg","pricing_plan_id":"free"},{"bike_id":"ecd6f2dc-6809-47b0-bd4e-70b396d5ea36","system_id":"levelo_inurba_marseille","lat":43.309039,"lon":5.371797,"is_reserved":false,"is_disabled":false,"rental_uris":{"android":"levelo://app?vid=ecd6f2dc-6809-47b0-bd4e-70b396d5ea36","ios":"levelo://app?vid=ecd6f2dc-6809-47b0-bd4e-70b396d5ea36"},"vehicle_type_id":"4","last_reported":1706724432,"current_range_meters":4800,"station_id":"ce4bguh2rcd13ifvqckg","pricing_plan_id":"free"},{"bike_id":"1ea59acd-238e-4364-a176-07c4d11ac849","system_id":"levelo_inurba_marseille","lat":43.309039,"lon":5.371797,"is_reserved":false,"is_disabled":false,"rental_uris":{"android":"levelo://app?vid=1ea59acd-238e-4364-a176-07c4d11ac849","ios":"levelo://app?vid=1ea59acd-238e-4364-a176-07c4d11ac849"},"vehicle_type_id":"4","last_reported":1706724432,"current_range_meters":19600,"station_id":"ce4bguh2rcd13ifvqckg","pricing_plan_id":"free"},{"bike_id":"a67d0acd-a811-48d7-a95e-56c7674565bf","system_id":"levelo_inurba_marseille","lat":43.305567,"lon":5.366969,"is_reserved":false,"is_disabled":false,"rental_uris":{"android":"levelo://app?vid=a67d0acd-a811-48d7-a95e-56c7674565bf","ios":"levelo://app?vid=a67d0acd-a811-48d7-a95e-56c7674565bf"},"vehicle_type_id":"4","last_reported":1706724432,"current_range_meters":24800,"station_id":"ce4bgrp2rcd13ifvqc9g","pricing_plan_id":"free"},{"bike_id":"1fd85532-a66a-4bee-a605-3cf871c90519","system_id":"levelo_inurba_marseille","lat":43.30547,"lon":5.36695,"is_reserved":false,"is_disabled":false,"rental_uris":{"android":"levelo://app?vid=1fd85532-a66a-4bee-a605-3cf871c90519","ios":"levelo://app?vid=1fd85532-a66a-4bee-a605-3cf871c90519"},"vehicle_type_id":"4","last_reported":1706724432,"current_range_meters":0,"station_id":"ce4bgrp2rcd13ifvqc9g","pricing_plan_id":"free"},{"bike_id":"d7a0e131-f926-43c3-91ae-3f85e63aead5","system_id":"levelo_inurba_marseille","lat":43.305542,"lon":5.365419,"is_reserved":false,"is_disabled":false,"rental_uris":{"android":"levelo://app?vid=d7a0e131-f926-43c3-91ae-3f85e63aead5","ios":"levelo://app?vid=d7a0e131-f926-43c3-91ae-3f85e63aead5"},"vehicle_type_id":"4","last_reported":1706724432,"current_range_meters":0,"station_id":"ce4bgs12rcd13ifvqcag","pricing_plan_id":"free"},{"bike_id":"fbeb6779-ff5c-4c10-9b3b-a4646a3a2f8f","system_id":"levelo_inurba_marseille","lat":43.305357,"lon":5.367247,"is_reserved":false,"is_disabled":false,"rental_uris":{"android":"levelo://app?vid=fbeb6779-ff5c-4c10-9b3b-a4646a3a2f8f","ios":"levelo://app?vid=fbeb6779-ff5c-4c10-9b3b-a4646a3a2f8f"},"vehicle_type_id":"4","last_reported":1706724432,"current_range_meters":0,"station_id":"ce4bgrp2rcd13ifvqc9g","pricing_plan_id":"free"},{"bike_id":"f6ad36c1-845a-4812-a4c6-010691d684cc","system_id":"levelo_inurba_marseille","lat":43.30541,"lon":5.365384,"is_reserved":false,"is_disabled":false,"rental_uris":{"android":"levelo://app?vid=f6ad36c1-845a-4812-a4c6-010691d684cc","ios":"levelo://app?vid=f6ad36c1-845a-4812-a4c6-010691d684cc"},"vehicle_type_id":"4","last_reported":1706724432,"current_range_meters":0,"station_id":"ce4bgs12rcd13ifvqcag","pricing_plan_id":"free"},{"bike_id":"d1d3ab8c-3d24-4865-8572-6c6db982d8ed","system_id":"levelo_inurba_marseille","lat":43.307945,"lon":5.376487,"is_reserved":false,"is_disabled":false,"rental_uris":{"android":"levelo://app?vid=d1d3ab8c-3d24-4865-8572-6c6db982d8ed","ios":"levelo://app?vid=d1d3ab8c-3d24-4865-8572-6c6db982d8ed"},"vehicle_type_id":"4","last_reported":1706724432,"current_range_meters":6000,"station_id":"ce4bgv92rcd13ifvqcq0","pricing_plan_id":"free"},{"bike_id":"d58d4763-0c14-4d0f-b1a2-f3e422a48109","system_id":"levelo_inurba_marseille","lat":43.317075,"lon":5.377367,"is_reserved":false,"is_disabled":false,"rental_uris":{"android":"levelo://app?vid=d58d4763-0c14-4d0f-b1a2-f3e422a48109","ios":"levelo://app?vid=d58d4763-0c14-4d0f-b1a2-f3e422a48109"},"vehicle_type_id":"4","last_reported":1706724432,"current_range_meters":12800,"station_id":"ce4bgth2rcd13ifvqch0","pricing_plan_id":"free"},{"bike_id":"939d97a5-2ccb-4ff6-8e74-847cf8201e56","system_id":"levelo_inurba_marseille","lat":43.317075,"lon":5.377367,"is_reserved":false,"is_disabled":false,"rental_uris":{"android":"levelo://app?vid=939d97a5-2ccb-4ff6-8e74-847cf8201e56","ios":"levelo://app?vid=939d97a5-2ccb-4ff6-8e74-847cf8201e56"},"vehicle_type_id":"4","last_reported":1706724432,"current_range_meters":19600,"station_id":"ce4bgth2rcd13ifvqch0","pricing_plan_id":"free"},{"bike_id":"729e910e-b439-4a9f-a2e0-03915baca13b","system_id":"levelo_inurba_marseille","lat":43.30304,"lon":5.368987,"is_reserved":false,"is_disabled":false,"rental_uris":{"android":"levelo://app?vid=729e910e-b439-4a9f-a2e0-03915baca13b","ios":"levelo://app?vid=729e910e-b439-4a9f-a2e0-03915baca13b"},"vehicle_type_id":"4","last_reported":1706724432,"current_range_meters":20800,"station_id":"ce4bgqh2rcd13ifvqc5g","pricing_plan_id":"free"},{"bike_id":"d621c7c6-f8f7-4aff-8255-da4375603046","system_id":"levelo_inurba_marseille","lat":43.301939,"lon":5.366286,"is_reserved":false,"is_disabled":false,"rental_uris":{"android":"levelo://app?vid=d621c7c6-f8f7-4aff-8255-da4375603046","ios":"levelo://app?vid=d621c7c6-f8f7-4aff-8255-da4375603046"},"vehicle_type_id":"4","last_reported":1706724432,"current_range_meters":4800,"station_id":"ce4bgrh2rcd13ifvqc8g","pricing_plan_id":"free"},{"bike_id":"4f64f789-11f7-4855-9c01-9124f8d29710","system_id":"levelo_inurba_marseille","lat":43.30304,"lon":5.368987,"is_reserved":false,"is_disabled":false,"rental_uris":{"android":"levelo://app?vid=4f64f789-11f7-4855-9c01-9124f8d29710","ios":"levelo://app?vid=4f64f789-11f7-4855-9c01-9124f8d29710"},"vehicle_type_id":"4","last_reported":1706724432,"current_range_meters":2800,"station_id":"ce4bgqh2rcd13ifvqc5g","pricing_plan_id":"free"},{"bike_id":"06e54ca5-d6e1-4b65-82a0-49c9d63e4656","system_id":"levelo_inurba_marseille","lat":43.301939,"lon":5.366286,"is_reserved":false,"is_disabled":false,"rental_uris":{"android":"levelo://app?vid=06e54ca5-d6e1-4b65-82a0-49c9d63e4656","ios":"levelo://app?vid=06e54ca5-d6e1-4b65-82a0-49c9d63e4656"},"vehicle_type_id":"4","last_reported":1706724432,"current_range_meters":2400,"station_id":"ce4bgrh2rcd13ifvqc8g","pricing_plan_id":"free"},{"bike_id":"0a4822bb-612e-4846-9da0-4e169a0eeef9","system_id":"levelo_inurba_marseille","lat":43.3047,"lon":5.37915,"is_reserved":false,"is_disabled":false,"rental_uris":{"android":"levelo://app?vid=0a4822bb-612e-4846-9da0-4e169a0eeef9","ios":"levelo://app?vid=0a4822bb-612e-4846-9da0-4e169a0eeef9"},"vehicle_type_id":"4","last_reported":1706724432,"current_range_meters":0,"station_id":"ce4bgup2rcd13ifvqcn0","pricing_plan_id":"free"},{"bike_id":"f9b3aa5a-40af-4040-a917-268c7acc95ae","system_id":"levelo_inurba_marseille","lat":43.32482,"lon":5.3657,"is_reserved":false,"is_disabled":false,"rental_uris":{"android":"levelo://app?vid=f9b3aa5a-40af-4040-a917-268c7acc95ae","ios":"levelo://app?vid=f9b3aa5a-40af-4040-a917-268c7acc95ae"},"vehicle_type_id":"4","last_reported":1706724432,"current_range_meters":16400,"station_id":"ce4bhs12rcd13ifvqhvg","pricing_plan_id":"free"},{"bike_id":"4c1d912b-8425-4b28-bcd4-0691a1724560","system_id":"levelo_inurba_marseille","lat":43.324827,"lon":5.365772,"is_reserved":false,"is_disabled":false,"rental_uris":{"android":"levelo://app?vid=4c1d912b-8425-4b28-bcd4-0691a1724560","ios":"levelo://app?vid=4c1d912b-8425-4b28-bcd4-0691a1724560"},"vehicle_type_id":"4","last_reported":1706724432,"current_range_meters":18000,"station_id":"ce4bhs12rcd13ifvqhvg","pricing_plan_id":"free"},{"bike_id":"7df6fddf-7de7-4e45-a5d5-a1d74a35e156","system_id":"levelo_inurba_marseille","lat":43.302784,"lon":5.377158,"is_reserved":false,"is_disabled":false,"rental_uris":{"android":"levelo://app?vid=7df6fddf-7de7-4e45-a5d5-a1d74a35e156","ios":"levelo://app?vid=7df6fddf-7de7-4e45-a5d5-a1d74a35e156"},"vehicle_type_id":"4","last_reported":1706724432,"current_range_meters":14000,"station_id":"ce4bguh2rcd13ifvqcj0","pricing_plan_id":"free"},{"bike_id":"b6a27ef5-c24a-41bb-8660-01c51af87bb9","system_id":"levelo_inurba_marseille","lat":43.319935,"lon":5.381699,"is_reserved":false,"is_disabled":false,"rental_uris":{"android":"levelo://app?vid=b6a27ef5-c24a-41bb-8660-01c51af87bb9","ios":"levelo://app?vid=b6a27ef5-c24a-41bb-8660-01c51af87bb9"},"vehicle_type_id":"4","last_reported":1706724432,"current_range_meters":9600,"station_id":"ce4bhr12rcd13ifvqhpg","pricing_plan_id":"free"},{"bike_id":"74a5bc9b-7b98-4c08-b89d-ae418136b231","system_id":"levelo_inurba_marseille","lat":43.310243,"lon":5.38447,"is_reserved":false,"is_disabled":false,"rental_uris":{"android":"levelo://app?vid=74a5bc9b-7b98-4c08-b89d-ae418136b231","ios":"levelo://app?vid=74a5bc9b-7b98-4c08-b89d-ae418136b231"},"vehicle_type_id":"4","last_reported":1706724432,"current_range_meters":6800,"station_id":"","pricing_plan_id":"free"},{"bike_id":"a3c6a6db-c252-4fd3-a7fd-589af4a8a1d9","system_id":"levelo_inurba_marseille","lat":43.31359,"lon":5.38486,"is_reserved":false,"is_disabled":false,"rental_uris":{"android":"levelo://app?vid=a3c6a6db-c252-4fd3-a7fd-589af4a8a1d9","ios":"levelo://app?vid=a3c6a6db-c252-4fd3-a7fd-589af4a8a1d9"},"vehicle_type_id":"4","last_reported":1706724432,"current_range_meters":3200,"station_id":"ce4bgt92rcd13ifvqcf0","pricing_plan_id":"free"},{"bike_id":"af0b3212-aa95-4634-8e3d-d1f352a565ea","system_id":"levelo_inurba_marseille","lat":43.313571,"lon":5.384829,"is_reserved":false,"is_disabled":false,"rental_uris":{"android":"levelo://app?vid=af0b3212-aa95-4634-8e3d-d1f352a565ea","ios":"levelo://app?vid=af0b3212-aa95-4634-8e3d-d1f352a565ea"},"vehicle_type_id":"4","last_reported":1706724432,"current_range_meters":10000,"station_id":"ce4bgt92rcd13ifvqcf0","pricing_plan_id":"free"},{"bike_id":"da136550-699b-4277-872f-230b21277639","system_id":"levelo_inurba_marseille","lat":43.29935,"lon":5.36564,"is_reserved":false,"is_disabled":false,"rental_uris":{"android":"levelo://app?vid=da136550-699b-4277-872f-230b21277639","ios":"levelo://app?vid=da136550-699b-4277-872f-230b21277639"},"vehicle_type_id":"4","last_reported":1706724432,"current_range_meters":0,"station_id":"ce4bgm92rcd13ifvqbr0","pricing_plan_id":"free"},{"bike_id":"639a58a8-5679-4a20-9014-ed1eb921742b","system_id":"levelo_inurba_marseille","lat":43.322872,"lon":5.382756,"is_reserved":false,"is_disabled":false,"rental_uris":{"android":"levelo://app?vid=639a58a8-5679-4a20-9014-ed1eb921742b","ios":"levelo://app?vid=639a58a8-5679-4a20-9014-ed1eb921742b"},"vehicle_type_id":"4","last_reported":1706724432,"current_range_meters":16000,"station_id":"ce4bhr12rcd13ifvqhqg","pricing_plan_id":"free"},{"bike_id":"ea5ad0a1-27e3-47c4-89a1-e718950473b9","system_id":"levelo_inurba_marseille","lat":43.322872,"lon":5.382756,"is_reserved":false,"is_disabled":false,"rental_uris":{"android":"levelo://app?vid=ea5ad0a1-27e3-47c4-89a1-e718950473b9","ios":"levelo://app?vid=ea5ad0a1-27e3-47c4-89a1-e718950473b9"},"vehicle_type_id":"4","last_reported":1706724432,"current_range_meters":800,"station_id":"ce4bhr12rcd13ifvqhqg","pricing_plan_id":"free"},{"bike_id":"b804f899-963d-4bd6-b3dd-e2781b06570a","system_id":"levelo_inurba_marseille","lat":43.322872,"lon":5.382756,"is_reserved":false,"is_disabled":false,"rental_uris":{"android":"levelo://app?vid=b804f899-963d-4bd6-b3dd-e2781b06570a","ios":"levelo://app?vid=b804f899-963d-4bd6-b3dd-e2781b06570a"},"vehicle_type_id":"4","last_reported":1706724432,"current_range_meters":800,"station_id":"ce4bhr12rcd13ifvqhqg","pricing_plan_id":"free"},{"bike_id":"2b65db30-3315-4a51-a4c6-1bedc9bd51c7","system_id":"levelo_inurba_marseille","lat":43.322872,"lon":5.382756,"is_reserved":false,"is_disabled":false,"rental_uris":{"android":"levelo://app?vid=2b65db30-3315-4a51-a4c6-1bedc9bd51c7","ios":"levelo://app?vid=2b65db30-3315-4a51-a4c6-1bedc9bd51c7"},"vehicle_type_id":"4","last_reported":1706724432,"current_range_meters":30800,"station_id":"ce4bhr12rcd13ifvqhqg","pricing_plan_id":"free"},{"bike_id":"19e08926-8857-44b7-a342-a968b5312c1d","system_id":"levelo_inurba_marseille","lat":43.32289,"lon":5.38273,"is_reserved":false,"is_disabled":false,"rental_uris":{"android":"levelo://app?vid=19e08926-8857-44b7-a342-a968b5312c1d","ios":"levelo://app?vid=19e08926-8857-44b7-a342-a968b5312c1d"},"vehicle_type_id":"4","last_reported":1706724432,"current_range_meters":10000,"station_id":"ce4bhr12rcd13ifvqhqg","pricing_plan_id":"free"},{"bike_id":"d54749f2-afe6-40a1-a18e-d1935eb8f708","system_id":"levelo_inurba_marseille","lat":43.328371,"lon":5.366909,"is_reserved":false,"is_disabled":false,"rental_uris":{"android":"levelo://app?vid=d54749f2-afe6-40a1-a18e-d1935eb8f708","ios":"levelo://app?vid=d54749f2-afe6-40a1-a18e-d1935eb8f708"},"vehicle_type_id":"4","last_reported":1706724432,"current_range_meters":24400,"station_id":"ce4bhs92rcd13ifvqi0g","pricing_plan_id":"free"},{"bike_id":"c2d59a41-e09b-4576-9fe5-633f505b8c83","system_id":"levelo_inurba_marseille","lat":43.328371,"lon":5.366909,"is_reserved":false,"is_disabled":false,"rental_uris":{"android":"levelo://app?vid=c2d59a41-e09b-4576-9fe5-633f505b8c83","ios":"levelo://app?vid=c2d59a41-e09b-4576-9fe5-633f505b8c83"},"vehicle_type_id":"4","last_reported":1706724432,"current_range_meters":7200,"station_id":"ce4bhs92rcd13ifvqi0g","pricing_plan_id":"free"},{"bike_id":"b0406924-208d-4f46-a9d1-b04eb3217411","system_id":"levelo_inurba_marseille","lat":43.297163,"lon":5.365866,"is_reserved":false,"is_disabled":false,"rental_uris":{"android":"levelo://app?vid=b0406924-208d-4f46-a9d1-b04eb3217411","ios":"levelo://app?vid=b0406924-208d-4f46-a9d1-b04eb3217411"},"vehicle_type_id":"4","last_reported":1706724432,"current_range_meters":16000,"station_id":"ce4bgn12rcd13ifvqbt0","pricing_plan_id":"free"},{"bike_id":"07c7f22b-84ab-469b-91b6-4b8d170ab235","system_id":"levelo_inurba_marseille","lat":43.297163,"lon":5.365866,"is_reserved":false,"is_disabled":false,"rental_uris":{"android":"levelo://app?vid=07c7f22b-84ab-469b-91b6-4b8d170ab235","ios":"levelo://app?vid=07c7f22b-84ab-469b-91b6-4b8d170ab235"},"vehicle_type_id":"4","last_reported":1706724432,"current_range_meters":14400,"station_id":"ce4bgn12rcd13ifvqbt0","pricing_plan_id":"free"},{"bike_id":"9f158f6e-bebf-4e16-a920-4a5ab4eb6921","system_id":"levelo_inurba_marseille","lat":43.328544,"lon":5.366881,"is_reserved":false,"is_disabled":false,"rental_uris":{"android":"levelo://app?vid=9f158f6e-bebf-4e16-a920-4a5ab4eb6921","ios":"levelo://app?vid=9f158f6e-bebf-4e16-a920-4a5ab4eb6921"},"vehicle_type_id":"4","last_reported":1706724432,"current_range_meters":19600,"station_id":"","pricing_plan_id":"free"},{"bike_id":"359edfee-a8b5-4e14-8bc4-a7fa356532b9","system_id":"levelo_inurba_marseille","lat":43.31751,"lon":5.38907,"is_reserved":false,"is_disabled":false,"rental_uris":{"android":"levelo://app?vid=359edfee-a8b5-4e14-8bc4-a7fa356532b9","ios":"levelo://app?vid=359edfee-a8b5-4e14-8bc4-a7fa356532b9"},"vehicle_type_id":"4","last_reported":1706724432,"current_range_meters":26800,"station_id":"","pricing_plan_id":"free"},{"bike_id":"e262bd2c-a5dc-4b5b-96cc-85c07f4a270b","system_id":"levelo_inurba_marseille","lat":43.29573,"lon":5.367355,"is_reserved":false,"is_disabled":false,"rental_uris":{"android":"levelo://app?vid=e262bd2c-a5dc-4b5b-96cc-85c07f4a270b","ios":"levelo://app?vid=e262bd2c-a5dc-4b5b-96cc-85c07f4a270b"},"vehicle_type_id":"4","last_reported":1706724432,"current_range_meters":12800,"station_id":"ce4bgph2rcd13ifvqc2g","pricing_plan_id":"free"},{"bike_id":"14046b79-abb9-49bc-b271-6a47920d48c9","system_id":"levelo_inurba_marseille","lat":43.309589,"lon":5.390258,"is_reserved":false,"is_disabled":false,"rental_uris":{"android":"levelo://app?vid=14046b79-abb9-49bc-b271-6a47920d48c9","ios":"levelo://app?vid=14046b79-abb9-49bc-b271-6a47920d48c9"},"vehicle_type_id":"4","last_reported":1706724432,"current_range_meters":400,"station_id":"ce4bgup2rcd13ifvqco0","pricing_plan_id":"free"},{"bike_id":"ef05301e-f895-4fa2-9f3a-d4ad9a010ec5","system_id":"levelo_inurba_marseille","lat":43.309589,"lon":5.390258,"is_reserved":false,"is_disabled":false,"rental_uris":{"android":"levelo://app?vid=ef05301e-f895-4fa2-9f3a-d4ad9a010ec5","ios":"levelo://app?vid=ef05301e-f895-4fa2-9f3a-d4ad9a010ec5"},"vehicle_type_id":"4","last_reported":1706724432,"current_range_meters":15200,"station_id":"ce4bgup2rcd13ifvqco0","pricing_plan_id":"free"},{"bike_id":"7afe9903-ce72-4c33-9428-a620b7908559","system_id":"levelo_inurba_marseille","lat":43.30946,"lon":5.39033,"is_reserved":false,"is_disabled":false,"rental_uris":{"android":"levelo://app?vid=7afe9903-ce72-4c33-9428-a620b7908559","ios":"levelo://app?vid=7afe9903-ce72-4c33-9428-a620b7908559"},"vehicle_type_id":"4","last_reported":1706724432,"current_range_meters":0,"station_id":"ce4bgup2rcd13ifvqco0","pricing_plan_id":"free"},{"bike_id":"7f5c9131-9ee0-470a-aa39-1387751ee568","system_id":"levelo_inurba_marseille","lat":43.304274,"lon":5.388873,"is_reserved":false,"is_disabled":false,"rental_uris":{"android":"levelo://app?vid=7f5c9131-9ee0-470a-aa39-1387751ee568","ios":"levelo://app?vid=7f5c9131-9ee0-470a-aa39-1387751ee568"},"vehicle_type_id":"4","last_reported":1706724432,"current_range_meters":4400,"station_id":"ce4bgk12rcd13ifvqbi0","pricing_plan_id":"free"},{"bike_id":"f6c8bae3-1672-4c76-b0e4-4d775cd3fd32","system_id":"levelo_inurba_marseille","lat":43.304274,"lon":5.388873,"is_reserved":false,"is_disabled":false,"rental_uris":{"android":"levelo://app?vid=f6c8bae3-1672-4c76-b0e4-4d775cd3fd32","ios":"levelo://app?vid=f6c8bae3-1672-4c76-b0e4-4d775cd3fd32"},"vehicle_type_id":"4","last_reported":1706724432,"current_range_meters":4000,"station_id":"ce4bgk12rcd13ifvqbi0","pricing_plan_id":"free"},{"bike_id":"7b0b5cba-eb9a-451b-aa6e-d8ab9d68cc97","system_id":"levelo_inurba_marseille","lat":43.29574,"lon":5.37508,"is_reserved":false,"is_disabled":false,"rental_uris":{"android":"levelo://app?vid=7b0b5cba-eb9a-451b-aa6e-d8ab9d68cc97","ios":"levelo://app?vid=7b0b5cba-eb9a-451b-aa6e-d8ab9d68cc97"},"vehicle_type_id":"4","last_reported":1706724432,"current_range_meters":0,"station_id":"ce4bgh92rcd13ifvqb50","pricing_plan_id":"free"},{"bike_id":"b0426798-da9f-4518-9680-6370ae1d7dee","system_id":"levelo_inurba_marseille","lat":43.304274,"lon":5.388873,"is_reserved":false,"is_disabled":false,"rental_uris":{"android":"levelo://app?vid=b0426798-da9f-4518-9680-6370ae1d7dee","ios":"levelo://app?vid=b0426798-da9f-4518-9680-6370ae1d7dee"},"vehicle_type_id":"4","last_reported":1706724432,"current_range_meters":0,"station_id":"ce4bgk12rcd13ifvqbi0","pricing_plan_id":"free"},{"bike_id":"12a6cefa-8a7e-469c-a1f8-7bb636efbf8a","system_id":"levelo_inurba_marseille","lat":43.304274,"lon":5.388873,"is_reserved":false,"is_disabled":false,"rental_uris":{"android":"levelo://app?vid=12a6cefa-8a7e-469c-a1f8-7bb636efbf8a","ios":"levelo://app?vid=12a6cefa-8a7e-469c-a1f8-7bb636efbf8a"},"vehicle_type_id":"4","last_reported":1706724432,"current_range_meters":9200,"station_id":"ce4bgk12rcd13ifvqbi0","pricing_plan_id":"free"},{"bike_id":"9b463098-daff-456a-a2da-a1e1e9bb586a","system_id":"levelo_inurba_marseille","lat":43.304358,"lon":5.388936,"is_reserved":false,"is_disabled":false,"rental_uris":{"android":"levelo://app?vid=9b463098-daff-456a-a2da-a1e1e9bb586a","ios":"levelo://app?vid=9b463098-daff-456a-a2da-a1e1e9bb586a"},"vehicle_type_id":"4","last_reported":1706724432,"current_range_meters":6400,"station_id":"ce4bgk12rcd13ifvqbi0","pricing_plan_id":"free"},{"bike_id":"4b310cfb-7ca9-4941-bb78-a82cb9ba2539","system_id":"levelo_inurba_marseille","lat":43.296263,"lon":5.377094,"is_reserved":false,"is_disabled":false,"rental_uris":{"android":"levelo://app?vid=4b310cfb-7ca9-4941-bb78-a82cb9ba2539","ios":"levelo://app?vid=4b310cfb-7ca9-4941-bb78-a82cb9ba2539"},"vehicle_type_id":"4","last_reported":1706724432,"current_range_meters":800,"station_id":"ce4bgi92rcd13ifvqb90","pricing_plan_id":"free"},{"bike_id":"b3fb5533-224a-4429-b40a-6551527cd891","system_id":"levelo_inurba_marseille","lat":43.296263,"lon":5.377094,"is_reserved":false,"is_disabled":false,"rental_uris":{"android":"levelo://app?vid=b3fb5533-224a-4429-b40a-6551527cd891","ios":"levelo://app?vid=b3fb5533-224a-4429-b40a-6551527cd891"},"vehicle_type_id":"4","last_reported":1706724432,"current_range_meters":28000,"station_id":"ce4bgi92rcd13ifvqb90","pricing_plan_id":"free"},{"bike_id":"016e9ac0-1f8f-449f-8ce1-008f449bc857","system_id":"levelo_inurba_marseille","lat":43.30435,"lon":5.38903,"is_reserved":false,"is_disabled":false,"rental_uris":{"android":"levelo://app?vid=016e9ac0-1f8f-449f-8ce1-008f449bc857","ios":"levelo://app?vid=016e9ac0-1f8f-449f-8ce1-008f449bc857"},"vehicle_type_id":"4","last_reported":1706724432,"current_range_meters":2400,"station_id":"ce4bgk12rcd13ifvqbi0","pricing_plan_id":"free"},{"bike_id":"34e7da9f-4ca8-451e-b996-82e8ddb4ce37","system_id":"levelo_inurba_marseille","lat":43.30427,"lon":5.389,"is_reserved":false,"is_disabled":false,"rental_uris":{"android":"levelo://app?vid=34e7da9f-4ca8-451e-b996-82e8ddb4ce37","ios":"levelo://app?vid=34e7da9f-4ca8-451e-b996-82e8ddb4ce37"},"vehicle_type_id":"4","last_reported":1706724432,"current_range_meters":11600,"station_id":"ce4bgk12rcd13ifvqbi0","pricing_plan_id":"free"},{"bike_id":"ac6e29c5-7c2d-48ec-90b1-e8337dca8449","system_id":"levelo_inurba_marseille","lat":43.304274,"lon":5.388873,"is_reserved":false,"is_disabled":false,"rental_uris":{"android":"levelo://app?vid=ac6e29c5-7c2d-48ec-90b1-e8337dca8449","ios":"levelo://app?vid=ac6e29c5-7c2d-48ec-90b1-e8337dca8449"},"vehicle_type_id":"4","last_reported":1706724432,"current_range_meters":8400,"station_id":"ce4bgk12rcd13ifvqbi0","pricing_plan_id":"free"},{"bike_id":"4e4159e9-c454-4ddb-9095-8fc6caf1aee9","system_id":"levelo_inurba_marseille","lat":43.296263,"lon":5.377094,"is_reserved":false,"is_disabled":false,"rental_uris":{"android":"levelo://app?vid=4e4159e9-c454-4ddb-9095-8fc6caf1aee9","ios":"levelo://app?vid=4e4159e9-c454-4ddb-9095-8fc6caf1aee9"},"vehicle_type_id":"4","last_reported":1706724432,"current_range_meters":0,"station_id":"ce4bgi92rcd13ifvqb90","pricing_plan_id":"free"},{"bike_id":"78c8e776-b23c-4e27-bc59-f89782da20a9","system_id":"levelo_inurba_marseille","lat":43.29618,"lon":5.37749,"is_reserved":false,"is_disabled":false,"rental_uris":{"android":"levelo://app?vid=78c8e776-b23c-4e27-bc59-f89782da20a9","ios":"levelo://app?vid=78c8e776-b23c-4e27-bc59-f89782da20a9"},"vehicle_type_id":"4","last_reported":1706724432,"current_range_meters":20800,"station_id":"ce4bgi92rcd13ifvqb90","pricing_plan_id":"free"},{"bike_id":"2e4ce19c-5bcd-4ec4-b547-86307f028c78","system_id":"levelo_inurba_marseille","lat":43.2998,"lon":5.38491,"is_reserved":false,"is_disabled":false,"rental_uris":{"android":"levelo://app?vid=2e4ce19c-5bcd-4ec4-b547-86307f028c78","ios":"levelo://app?vid=2e4ce19c-5bcd-4ec4-b547-86307f028c78"},"vehicle_type_id":"4","last_reported":1706724432,"current_range_meters":0,"station_id":"ce4bgj92rcd13ifvqbd0","pricing_plan_id":"free"},{"bike_id":"62f1202c-3887-41cf-ae44-f51fc7dcb791","system_id":"levelo_inurba_marseille","lat":43.29971,"lon":5.38492,"is_reserved":false,"is_disabled":false,"rental_uris":{"android":"levelo://app?vid=62f1202c-3887-41cf-ae44-f51fc7dcb791","ios":"levelo://app?vid=62f1202c-3887-41cf-ae44-f51fc7dcb791"},"vehicle_type_id":"4","last_reported":1706724432,"current_range_meters":0,"station_id":"ce4bgj92rcd13ifvqbd0","pricing_plan_id":"free"},{"bike_id":"a3468455-8216-4c95-b061-82925f7778eb","system_id":"levelo_inurba_marseille","lat":43.299717,"lon":5.384937,"is_reserved":false,"is_disabled":false,"rental_uris":{"android":"levelo://app?vid=a3468455-8216-4c95-b061-82925f7778eb","ios":"levelo://app?vid=a3468455-8216-4c95-b061-82925f7778eb"},"vehicle_type_id":"4","last_reported":1706724432,"current_range_meters":0,"station_id":"ce4bgj92rcd13ifvqbd0","pricing_plan_id":"free"},{"bike_id":"32391738-0fcc-403d-aaf1-4aa382b7b90e","system_id":"levelo_inurba_marseille","lat":43.2997,"lon":5.385,"is_reserved":false,"is_disabled":false,"rental_uris":{"android":"levelo://app?vid=32391738-0fcc-403d-aaf1-4aa382b7b90e","ios":"levelo://app?vid=32391738-0fcc-403d-aaf1-4aa382b7b90e"},"vehicle_type_id":"4","last_reported":1706724432,"current_range_meters":0,"station_id":"ce4bgj92rcd13ifvqbd0","pricing_plan_id":"free"},{"bike_id":"8d1b387f-dad2-4eca-b89d-15a2990580a2","system_id":"levelo_inurba_marseille","lat":43.29966,"lon":5.38499,"is_reserved":false,"is_disabled":false,"rental_uris":{"android":"levelo://app?vid=8d1b387f-dad2-4eca-b89d-15a2990580a2","ios":"levelo://app?vid=8d1b387f-dad2-4eca-b89d-15a2990580a2"},"vehicle_type_id":"4","last_reported":1706724432,"current_range_meters":0,"station_id":"ce4bgj92rcd13ifvqbd0","pricing_plan_id":"free"},{"bike_id":"c9e13156-543b-4d84-9cce-0bc8252e5e4d","system_id":"levelo_inurba_marseille","lat":43.29966,"lon":5.38504,"is_reserved":false,"is_disabled":false,"rental_uris":{"android":"levelo://app?vid=c9e13156-543b-4d84-9cce-0bc8252e5e4d","ios":"levelo://app?vid=c9e13156-543b-4d84-9cce-0bc8252e5e4d"},"vehicle_type_id":"4","last_reported":1706724432,"current_range_meters":0,"station_id":"ce4bgj92rcd13ifvqbd0","pricing_plan_id":"free"},{"bike_id":"bd27f4ca-820c-4a1f-98e7-63a71f7d0085","system_id":"levelo_inurba_marseille","lat":43.29958,"lon":5.3851,"is_reserved":false,"is_disabled":false,"rental_uris":{"android":"levelo://app?vid=bd27f4ca-820c-4a1f-98e7-63a71f7d0085","ios":"levelo://app?vid=bd27f4ca-820c-4a1f-98e7-63a71f7d0085"},"vehicle_type_id":"4","last_reported":1706724432,"current_range_meters":400,"station_id":"ce4bgj92rcd13ifvqbd0","pricing_plan_id":"free"},{"bike_id":"6242b800-4253-4cb6-a80b-1255fb07d8f5","system_id":"levelo_inurba_marseille","lat":43.308037,"lon":5.392142,"is_reserved":false,"is_disabled":false,"rental_uris":{"android":"levelo://app?vid=6242b800-4253-4cb6-a80b-1255fb07d8f5","ios":"levelo://app?vid=6242b800-4253-4cb6-a80b-1255fb07d8f5"},"vehicle_type_id":"4","last_reported":1706724432,"current_range_meters":4000,"station_id":"","pricing_plan_id":"free"},{"bike_id":"de25d637-84ec-4203-b892-3e1c2d7c4ddb","system_id":"levelo_inurba_marseille","lat":43.331709,"lon":5.364425,"is_reserved":false,"is_disabled":false,"rental_uris":{"android":"levelo://app?vid=de25d637-84ec-4203-b892-3e1c2d7c4ddb","ios":"levelo://app?vid=de25d637-84ec-4203-b892-3e1c2d7c4ddb"},"vehicle_type_id":"4","last_reported":1706724432,"current_range_meters":6400,"station_id":"","pricing_plan_id":"free"},{"bike_id":"3304c29f-fdd7-464a-8890-39b8a8474937","system_id":"levelo_inurba_marseille","lat":43.30275,"lon":5.38944,"is_reserved":false,"is_disabled":false,"rental_uris":{"android":"levelo://app?vid=3304c29f-fdd7-464a-8890-39b8a8474937","ios":"levelo://app?vid=3304c29f-fdd7-464a-8890-39b8a8474937"},"vehicle_type_id":"4","last_reported":1706724432,"current_range_meters":8800,"station_id":"","pricing_plan_id":"free"},{"bike_id":"fa3d4808-eb27-4a37-a159-8401d77aea42","system_id":"levelo_inurba_marseille","lat":43.32367,"lon":5.388836,"is_reserved":false,"is_disabled":false,"rental_uris":{"android":"levelo://app?vid=fa3d4808-eb27-4a37-a159-8401d77aea42","ios":"levelo://app?vid=fa3d4808-eb27-4a37-a159-8401d77aea42"},"vehicle_type_id":"4","last_reported":1706724432,"current_range_meters":12800,"station_id":"ce4bhqp2rcd13ifvqhog","pricing_plan_id":"free"},{"bike_id":"202df9dd-3b20-4310-9dde-7a88eca4db2d","system_id":"levelo_inurba_marseille","lat":43.32365,"lon":5.38889,"is_reserved":false,"is_disabled":false,"rental_uris":{"android":"levelo://app?vid=202df9dd-3b20-4310-9dde-7a88eca4db2d","ios":"levelo://app?vid=202df9dd-3b20-4310-9dde-7a88eca4db2d"},"vehicle_type_id":"4","last_reported":1706724432,"current_range_meters":8800,"station_id":"ce4bhqp2rcd13ifvqhog","pricing_plan_id":"free"},{"bike_id":"4529c56e-d471-49c9-8582-c56775c4173e","system_id":"levelo_inurba_marseille","lat":43.29602,"lon":5.381084,"is_reserved":false,"is_disabled":false,"rental_uris":{"android":"levelo://app?vid=4529c56e-d471-49c9-8582-c56775c4173e","ios":"levelo://app?vid=4529c56e-d471-49c9-8582-c56775c4173e"},"vehicle_type_id":"4","last_reported":1706724432,"current_range_meters":400,"station_id":"ce4bgl12rcd13ifvqbo0","pricing_plan_id":"free"},{"bike_id":"efa6bd51-c94f-4107-9e97-437d3697b8cb","system_id":"levelo_inurba_marseille","lat":43.33145,"lon":5.37472,"is_reserved":false,"is_disabled":false,"rental_uris":{"android":"levelo://app?vid=efa6bd51-c94f-4107-9e97-437d3697b8cb","ios":"levelo://app?vid=efa6bd51-c94f-4107-9e97-437d3697b8cb"},"vehicle_type_id":"4","last_reported":1706724432,"current_range_meters":28800,"station_id":"","pricing_plan_id":"free"},{"bike_id":"f4cc0559-0ba1-47ab-a69f-73cc627a9475","system_id":"levelo_inurba_marseille","lat":43.293259,"lon":5.371586,"is_reserved":false,"is_disabled":false,"rental_uris":{"android":"levelo://app?vid=f4cc0559-0ba1-47ab-a69f-73cc627a9475","ios":"levelo://app?vid=f4cc0559-0ba1-47ab-a69f-73cc627a9475"},"vehicle_type_id":"4","last_reported":1706724432,"current_range_meters":9600,"station_id":"ce4bgh92rcd13ifvqb40","pricing_plan_id":"free"},{"bike_id":"52db7834-2583-4aa3-9746-a2730babf098","system_id":"levelo_inurba_marseille","lat":43.293259,"lon":5.371586,"is_reserved":false,"is_disabled":false,"rental_uris":{"android":"levelo://app?vid=52db7834-2583-4aa3-9746-a2730babf098","ios":"levelo://app?vid=52db7834-2583-4aa3-9746-a2730babf098"},"vehicle_type_id":"4","last_reported":1706724432,"current_range_meters":13600,"station_id":"ce4bgh92rcd13ifvqb40","pricing_plan_id":"free"},{"bike_id":"caeabf0c-7ce3-4a1d-9061-d5b7cd8645ed","system_id":"levelo_inurba_marseille","lat":43.293259,"lon":5.371586,"is_reserved":false,"is_disabled":false,"rental_uris":{"android":"levelo://app?vid=caeabf0c-7ce3-4a1d-9061-d5b7cd8645ed","ios":"levelo://app?vid=caeabf0c-7ce3-4a1d-9061-d5b7cd8645ed"},"vehicle_type_id":"4","last_reported":1706724432,"current_range_meters":3200,"station_id":"ce4bgh92rcd13ifvqb40","pricing_plan_id":"free"},{"bike_id":"509b1e88-b0a8-4501-885f-ca5a3f582e89","system_id":"levelo_inurba_marseille","lat":43.293259,"lon":5.371586,"is_reserved":false,"is_disabled":false,"rental_uris":{"android":"levelo://app?vid=509b1e88-b0a8-4501-885f-ca5a3f582e89","ios":"levelo://app?vid=509b1e88-b0a8-4501-885f-ca5a3f582e89"},"vehicle_type_id":"4","last_reported":1706724432,"current_range_meters":9200,"station_id":"ce4bgh92rcd13ifvqb40","pricing_plan_id":"free"},{"bike_id":"694ed850-4b48-41e6-b57c-eeab05ac0295","system_id":"levelo_inurba_marseille","lat":43.305994,"lon":5.393687,"is_reserved":false,"is_disabled":false,"rental_uris":{"android":"levelo://app?vid=694ed850-4b48-41e6-b57c-eeab05ac0295","ios":"levelo://app?vid=694ed850-4b48-41e6-b57c-eeab05ac0295"},"vehicle_type_id":"4","last_reported":1706724432,"current_range_meters":0,"station_id":"ce4bh0p2rcd13ifvqd80","pricing_plan_id":"free"},{"bike_id":"fea24239-bd8e-4a4d-b8fa-8d535edc205d","system_id":"levelo_inurba_marseille","lat":43.293009,"lon":5.374584,"is_reserved":false,"is_disabled":false,"rental_uris":{"android":"levelo://app?vid=fea24239-bd8e-4a4d-b8fa-8d535edc205d","ios":"levelo://app?vid=fea24239-bd8e-4a4d-b8fa-8d535edc205d"},"vehicle_type_id":"4","last_reported":1706724432,"current_range_meters":0,"station_id":"ce4bgi12rcd13ifvqb70","pricing_plan_id":"free"},{"bike_id":"43e4c28f-7b1a-4617-8930-8b4de64ac82a","system_id":"levelo_inurba_marseille","lat":43.293009,"lon":5.374584,"is_reserved":false,"is_disabled":false,"rental_uris":{"android":"levelo://app?vid=43e4c28f-7b1a-4617-8930-8b4de64ac82a","ios":"levelo://app?vid=43e4c28f-7b1a-4617-8930-8b4de64ac82a"},"vehicle_type_id":"4","last_reported":1706724432,"current_range_meters":2000,"station_id":"ce4bgi12rcd13ifvqb70","pricing_plan_id":"free"},{"bike_id":"7cc00cef-f13d-4b9b-ad52-4090def52b1d","system_id":"levelo_inurba_marseille","lat":43.30597,"lon":5.393613,"is_reserved":false,"is_disabled":false,"rental_uris":{"android":"levelo://app?vid=7cc00cef-f13d-4b9b-ad52-4090def52b1d","ios":"levelo://app?vid=7cc00cef-f13d-4b9b-ad52-4090def52b1d"},"vehicle_type_id":"4","last_reported":1706724432,"current_range_meters":0,"station_id":"ce4bh0p2rcd13ifvqd80","pricing_plan_id":"free"},{"bike_id":"5bdffaff-0c59-4afd-a277-9fbd29ff0660","system_id":"levelo_inurba_marseille","lat":43.305994,"lon":5.393687,"is_reserved":false,"is_disabled":false,"rental_uris":{"android":"levelo://app?vid=5bdffaff-0c59-4afd-a277-9fbd29ff0660","ios":"levelo://app?vid=5bdffaff-0c59-4afd-a277-9fbd29ff0660"},"vehicle_type_id":"4","last_reported":1706724432,"current_range_meters":19600,"station_id":"ce4bh0p2rcd13ifvqd80","pricing_plan_id":"free"},{"bike_id":"3f0114e7-c247-421d-9348-5c3b2a0a8e70","system_id":"levelo_inurba_marseille","lat":43.293009,"lon":5.374584,"is_reserved":false,"is_disabled":false,"rental_uris":{"android":"levelo://app?vid=3f0114e7-c247-421d-9348-5c3b2a0a8e70","ios":"levelo://app?vid=3f0114e7-c247-421d-9348-5c3b2a0a8e70"},"vehicle_type_id":"4","last_reported":1706724432,"current_range_meters":0,"station_id":"ce4bgi12rcd13ifvqb70","pricing_plan_id":"free"},{"bike_id":"4050bfd6-686e-4273-b323-7782895efe21","system_id":"levelo_inurba_marseille","lat":43.292311,"lon":5.360731,"is_reserved":false,"is_disabled":false,"rental_uris":{"android":"levelo://app?vid=4050bfd6-686e-4273-b323-7782895efe21","ios":"levelo://app?vid=4050bfd6-686e-4273-b323-7782895efe21"},"vehicle_type_id":"4","last_reported":1706724432,"current_range_meters":26800,"station_id":"ce4bhbh2rcd13ifvqeqg","pricing_plan_id":"free"},{"bike_id":"9010475e-9b25-45cb-8d7c-bf75bb9eaad4","system_id":"levelo_inurba_marseille","lat":43.300852,"lon":5.390859,"is_reserved":false,"is_disabled":false,"rental_uris":{"android":"levelo://app?vid=9010475e-9b25-45cb-8d7c-bf75bb9eaad4","ios":"levelo://app?vid=9010475e-9b25-45cb-8d7c-bf75bb9eaad4"},"vehicle_type_id":"4","last_reported":1706724432,"current_range_meters":16400,"station_id":"ce4bh192rcd13ifvqdb0","pricing_plan_id":"free"},{"bike_id":"64276e4f-6355-44af-b186-8e7098e0ada7","system_id":"levelo_inurba_marseille","lat":43.292311,"lon":5.360731,"is_reserved":false,"is_disabled":false,"rental_uris":{"android":"levelo://app?vid=64276e4f-6355-44af-b186-8e7098e0ada7","ios":"levelo://app?vid=64276e4f-6355-44af-b186-8e7098e0ada7"},"vehicle_type_id":"4","last_reported":1706724432,"current_range_meters":6000,"station_id":"ce4bhbh2rcd13ifvqeqg","pricing_plan_id":"free"},{"bike_id":"107bd944-459a-4ea1-a3f7-09f2d96cc030","system_id":"levelo_inurba_marseille","lat":43.30095,"lon":5.39076,"is_reserved":false,"is_disabled":false,"rental_uris":{"android":"levelo://app?vid=107bd944-459a-4ea1-a3f7-09f2d96cc030","ios":"levelo://app?vid=107bd944-459a-4ea1-a3f7-09f2d96cc030"},"vehicle_type_id":"4","last_reported":1706724432,"current_range_meters":0,"station_id":"ce4bh192rcd13ifvqdb0","pricing_plan_id":"free"},{"bike_id":"81681c36-90c0-49a0-8db9-49a0df457fae","system_id":"levelo_inurba_marseille","lat":43.292311,"lon":5.360731,"is_reserved":false,"is_disabled":false,"rental_uris":{"android":"levelo://app?vid=81681c36-90c0-49a0-8db9-49a0df457fae","ios":"levelo://app?vid=81681c36-90c0-49a0-8db9-49a0df457fae"},"vehicle_type_id":"4","last_reported":1706724432,"current_range_meters":0,"station_id":"ce4bhbh2rcd13ifvqeqg","pricing_plan_id":"free"},{"bike_id":"3939da30-03aa-4400-a959-40ba0b795c4a","system_id":"levelo_inurba_marseille","lat":43.326605,"lon":5.409903,"is_reserved":false,"is_disabled":false,"rental_uris":{"android":"levelo://app?vid=3939da30-03aa-4400-a959-40ba0b795c4a","ios":"levelo://app?vid=3939da30-03aa-4400-a959-40ba0b795c4a"},"vehicle_type_id":"4","last_reported":1706724432,"current_range_meters":4400,"station_id":"ce4bhpp2rcd13ifvqhgg","pricing_plan_id":"free"},{"bike_id":"0d27a998-cd38-4984-bb8b-ecde0c157c05","system_id":"levelo_inurba_marseille","lat":43.298764,"lon":5.388973,"is_reserved":false,"is_disabled":false,"rental_uris":{"android":"levelo://app?vid=0d27a998-cd38-4984-bb8b-ecde0c157c05","ios":"levelo://app?vid=0d27a998-cd38-4984-bb8b-ecde0c157c05"},"vehicle_type_id":"4","last_reported":1706724432,"current_range_meters":14000,"station_id":"ce4bh392rcd13ifvqdl0","pricing_plan_id":"free"},{"bike_id":"a4832daf-7cca-42cf-b35e-930c3e2e725c","system_id":"levelo_inurba_marseille","lat":43.298764,"lon":5.388973,"is_reserved":false,"is_disabled":false,"rental_uris":{"android":"levelo://app?vid=a4832daf-7cca-42cf-b35e-930c3e2e725c","ios":"levelo://app?vid=a4832daf-7cca-42cf-b35e-930c3e2e725c"},"vehicle_type_id":"4","last_reported":1706724432,"current_range_meters":4400,"station_id":"ce4bh392rcd13ifvqdl0","pricing_plan_id":"free"},{"bike_id":"3f67b705-c2f0-450a-b953-06a448c9721e","system_id":"levelo_inurba_marseille","lat":43.291675,"lon":5.371583,"is_reserved":false,"is_disabled":false,"rental_uris":{"android":"levelo://app?vid=3f67b705-c2f0-450a-b953-06a448c9721e","ios":"levelo://app?vid=3f67b705-c2f0-450a-b953-06a448c9721e"},"vehicle_type_id":"4","last_reported":1706724432,"current_range_meters":2000,"station_id":"ce4bha92rcd13ifvqeh0","pricing_plan_id":"free"},{"bike_id":"fa471f23-ac54-485a-ad8f-af65f2e7eae9","system_id":"levelo_inurba_marseille","lat":43.298764,"lon":5.388973,"is_reserved":false,"is_disabled":false,"rental_uris":{"android":"levelo://app?vid=fa471f23-ac54-485a-ad8f-af65f2e7eae9","ios":"levelo://app?vid=fa471f23-ac54-485a-ad8f-af65f2e7eae9"},"vehicle_type_id":"4","last_reported":1706724432,"current_range_meters":20000,"station_id":"ce4bh392rcd13ifvqdl0","pricing_plan_id":"free"},{"bike_id":"d25efc9b-d4f5-4a3d-a9c6-d6d96c1c453b","system_id":"levelo_inurba_marseille","lat":43.291671,"lon":5.371575,"is_reserved":false,"is_disabled":false,"rental_uris":{"android":"levelo://app?vid=d25efc9b-d4f5-4a3d-a9c6-d6d96c1c453b","ios":"levelo://app?vid=d25efc9b-d4f5-4a3d-a9c6-d6d96c1c453b"},"vehicle_type_id":"4","last_reported":1706724432,"current_range_meters":20800,"station_id":"ce4bha92rcd13ifvqeh0","pricing_plan_id":"free"},{"bike_id":"514376f8-dac2-4543-a383-9b9b373a0163","system_id":"levelo_inurba_marseille","lat":43.298764,"lon":5.388973,"is_reserved":false,"is_disabled":false,"rental_uris":{"android":"levelo://app?vid=514376f8-dac2-4543-a383-9b9b373a0163","ios":"levelo://app?vid=514376f8-dac2-4543-a383-9b9b373a0163"},"vehicle_type_id":"4","last_reported":1706724432,"current_range_meters":5200,"station_id":"ce4bh392rcd13ifvqdl0","pricing_plan_id":"free"},{"bike_id":"78f3c2d9-a08f-45c9-a860-8dbae5071766","system_id":"levelo_inurba_marseille","lat":43.298764,"lon":5.388973,"is_reserved":false,"is_disabled":false,"rental_uris":{"android":"levelo://app?vid=78f3c2d9-a08f-45c9-a860-8dbae5071766","ios":"levelo://app?vid=78f3c2d9-a08f-45c9-a860-8dbae5071766"},"vehicle_type_id":"4","last_reported":1706724432,"current_range_meters":20400,"station_id":"ce4bh392rcd13ifvqdl0","pricing_plan_id":"free"},{"bike_id":"29e3ea3d-aca2-47fd-b399-2c3f041eaf9a","system_id":"levelo_inurba_marseille","lat":43.291675,"lon":5.371583,"is_reserved":false,"is_disabled":false,"rental_uris":{"android":"levelo://app?vid=29e3ea3d-aca2-47fd-b399-2c3f041eaf9a","ios":"levelo://app?vid=29e3ea3d-aca2-47fd-b399-2c3f041eaf9a"},"vehicle_type_id":"4","last_reported":1706724432,"current_range_meters":800,"station_id":"ce4bha92rcd13ifvqeh0","pricing_plan_id":"free"},{"bike_id":"28d8bd03-0322-40e7-bac4-3decd46340d9","system_id":"levelo_inurba_marseille","lat":43.291994,"lon":5.357886,"is_reserved":false,"is_disabled":false,"rental_uris":{"android":"levelo://app?vid=28d8bd03-0322-40e7-bac4-3decd46340d9","ios":"levelo://app?vid=28d8bd03-0322-40e7-bac4-3decd46340d9"},"vehicle_type_id":"4","last_reported":1706724432,"current_range_meters":9200,"station_id":"ce4bhb12rcd13ifvqel0","pricing_plan_id":"free"},{"bike_id":"153ed029-925b-404c-a29f-63f526ab6166","system_id":"levelo_inurba_marseille","lat":43.313291,"lon":5.396838,"is_reserved":false,"is_disabled":false,"rental_uris":{"android":"levelo://app?vid=153ed029-925b-404c-a29f-63f526ab6166","ios":"levelo://app?vid=153ed029-925b-404c-a29f-63f526ab6166"},"vehicle_type_id":"4","last_reported":1706724432,"current_range_meters":8400,"station_id":"ce4bgvp2rcd13ifvqcu0","pricing_plan_id":"free"},{"bike_id":"d61d5bf2-30cc-49c9-a2ed-f96af34b1ed9","system_id":"levelo_inurba_marseille","lat":43.291994,"lon":5.357886,"is_reserved":false,"is_disabled":false,"rental_uris":{"android":"levelo://app?vid=d61d5bf2-30cc-49c9-a2ed-f96af34b1ed9","ios":"levelo://app?vid=d61d5bf2-30cc-49c9-a2ed-f96af34b1ed9"},"vehicle_type_id":"4","last_reported":1706724432,"current_range_meters":18000,"station_id":"ce4bhb12rcd13ifvqel0","pricing_plan_id":"free"},{"bike_id":"36848623-e794-4c81-bef5-3113f320eabd","system_id":"levelo_inurba_marseille","lat":43.29197,"lon":5.3579,"is_reserved":false,"is_disabled":false,"rental_uris":{"android":"levelo://app?vid=36848623-e794-4c81-bef5-3113f320eabd","ios":"levelo://app?vid=36848623-e794-4c81-bef5-3113f320eabd"},"vehicle_type_id":"4","last_reported":1706724432,"current_range_meters":2800,"station_id":"ce4bhb12rcd13ifvqel0","pricing_plan_id":"free"},{"bike_id":"a53b1ff3-4836-4608-9f9e-a3e15bb84ca2","system_id":"levelo_inurba_marseille","lat":43.313291,"lon":5.396838,"is_reserved":false,"is_disabled":false,"rental_uris":{"android":"levelo://app?vid=a53b1ff3-4836-4608-9f9e-a3e15bb84ca2","ios":"levelo://app?vid=a53b1ff3-4836-4608-9f9e-a3e15bb84ca2"},"vehicle_type_id":"4","last_reported":1706724432,"current_range_meters":400,"station_id":"ce4bgvp2rcd13ifvqcu0","pricing_plan_id":"free"},{"bike_id":"b38030bc-e1b3-41c5-9575-e0da08d3be54","system_id":"levelo_inurba_marseille","lat":43.29529,"lon":5.385581,"is_reserved":false,"is_disabled":false,"rental_uris":{"android":"levelo://app?vid=b38030bc-e1b3-41c5-9575-e0da08d3be54","ios":"levelo://app?vid=b38030bc-e1b3-41c5-9575-e0da08d3be54"},"vehicle_type_id":"4","last_reported":1706724432,"current_range_meters":19200,"station_id":"ce4bgih2rcd13ifvqba0","pricing_plan_id":"free"},{"bike_id":"26e268e3-337c-4bd2-bd95-83062980e2c3","system_id":"levelo_inurba_marseille","lat":43.29537,"lon":5.38545,"is_reserved":false,"is_disabled":false,"rental_uris":{"android":"levelo://app?vid=26e268e3-337c-4bd2-bd95-83062980e2c3","ios":"levelo://app?vid=26e268e3-337c-4bd2-bd95-83062980e2c3"},"vehicle_type_id":"4","last_reported":1706724432,"current_range_meters":2000,"station_id":"ce4bgih2rcd13ifvqba0","pricing_plan_id":"free"},{"bike_id":"616adcec-eabb-4a02-8ecf-11e4fbc220cf","system_id":"levelo_inurba_marseille","lat":43.29529,"lon":5.385581,"is_reserved":false,"is_disabled":false,"rental_uris":{"android":"levelo://app?vid=616adcec-eabb-4a02-8ecf-11e4fbc220cf","ios":"levelo://app?vid=616adcec-eabb-4a02-8ecf-11e4fbc220cf"},"vehicle_type_id":"4","last_reported":1706724432,"current_range_meters":0,"station_id":"ce4bgih2rcd13ifvqba0","pricing_plan_id":"free"},{"bike_id":"0913c4fe-bdaf-496b-879c-817964f4bef5","system_id":"levelo_inurba_marseille","lat":43.29529,"lon":5.385581,"is_reserved":false,"is_disabled":false,"rental_uris":{"android":"levelo://app?vid=0913c4fe-bdaf-496b-879c-817964f4bef5","ios":"levelo://app?vid=0913c4fe-bdaf-496b-879c-817964f4bef5"},"vehicle_type_id":"4","last_reported":1706724432,"current_range_meters":15200,"station_id":"ce4bgih2rcd13ifvqba0","pricing_plan_id":"free"},{"bike_id":"90231a53-f8d3-4a57-a06f-946d4ec3dfee","system_id":"levelo_inurba_marseille","lat":43.29529,"lon":5.385581,"is_reserved":false,"is_disabled":false,"rental_uris":{"android":"levelo://app?vid=90231a53-f8d3-4a57-a06f-946d4ec3dfee","ios":"levelo://app?vid=90231a53-f8d3-4a57-a06f-946d4ec3dfee"},"vehicle_type_id":"4","last_reported":1706724432,"current_range_meters":0,"station_id":"ce4bgih2rcd13ifvqba0","pricing_plan_id":"free"},{"bike_id":"a5b9c79f-1704-454d-a82e-551687786e55","system_id":"levelo_inurba_marseille","lat":43.29529,"lon":5.385581,"is_reserved":false,"is_disabled":false,"rental_uris":{"android":"levelo://app?vid=a5b9c79f-1704-454d-a82e-551687786e55","ios":"levelo://app?vid=a5b9c79f-1704-454d-a82e-551687786e55"},"vehicle_type_id":"4","last_reported":1706724432,"current_range_meters":0,"station_id":"ce4bgih2rcd13ifvqba0","pricing_plan_id":"free"},{"bike_id":"bad35557-89f4-4389-b2cd-69ffb217b346","system_id":"levelo_inurba_marseille","lat":43.2953,"lon":5.38547,"is_reserved":false,"is_disabled":false,"rental_uris":{"android":"levelo://app?vid=bad35557-89f4-4389-b2cd-69ffb217b346","ios":"levelo://app?vid=bad35557-89f4-4389-b2cd-69ffb217b346"},"vehicle_type_id":"4","last_reported":1706724432,"current_range_meters":9200,"station_id":"ce4bgih2rcd13ifvqba0","pricing_plan_id":"free"},{"bike_id":"ab12ea50-7449-4efc-8f77-89ec66ee1556","system_id":"levelo_inurba_marseille","lat":43.29527,"lon":5.38543,"is_reserved":false,"is_disabled":false,"rental_uris":{"android":"levelo://app?vid=ab12ea50-7449-4efc-8f77-89ec66ee1556","ios":"levelo://app?vid=ab12ea50-7449-4efc-8f77-89ec66ee1556"},"vehicle_type_id":"4","last_reported":1706724432,"current_range_meters":0,"station_id":"ce4bgih2rcd13ifvqba0","pricing_plan_id":"free"},{"bike_id":"ff47aba7-18d6-4631-be87-909dbe9402ae","system_id":"levelo_inurba_marseille","lat":43.29529,"lon":5.385581,"is_reserved":false,"is_disabled":false,"rental_uris":{"android":"levelo://app?vid=ff47aba7-18d6-4631-be87-909dbe9402ae","ios":"levelo://app?vid=ff47aba7-18d6-4631-be87-909dbe9402ae"},"vehicle_type_id":"4","last_reported":1706724432,"current_range_meters":2400,"station_id":"ce4bgih2rcd13ifvqba0","pricing_plan_id":"free"},{"bike_id":"14884857-8600-49e3-baee-a6a978da98f2","system_id":"levelo_inurba_marseille","lat":43.295289,"lon":5.385469,"is_reserved":false,"is_disabled":false,"rental_uris":{"android":"levelo://app?vid=14884857-8600-49e3-baee-a6a978da98f2","ios":"levelo://app?vid=14884857-8600-49e3-baee-a6a978da98f2"},"vehicle_type_id":"4","last_reported":1706724432,"current_range_meters":0,"station_id":"ce4bgih2rcd13ifvqba0","pricing_plan_id":"free"},{"bike_id":"9204efed-1635-4897-aa06-1f184de6b459","system_id":"levelo_inurba_marseille","lat":43.2953,"lon":5.38549,"is_reserved":false,"is_disabled":false,"rental_uris":{"android":"levelo://app?vid=9204efed-1635-4897-aa06-1f184de6b459","ios":"levelo://app?vid=9204efed-1635-4897-aa06-1f184de6b459"},"vehicle_type_id":"4","last_reported":1706724432,"current_range_meters":0,"station_id":"ce4bgih2rcd13ifvqba0","pricing_plan_id":"free"},{"bike_id":"dbac8d81-ce1c-45c5-801f-4a5a7492c5ac","system_id":"levelo_inurba_marseille","lat":43.29529,"lon":5.385581,"is_reserved":false,"is_disabled":false,"rental_uris":{"android":"levelo://app?vid=dbac8d81-ce1c-45c5-801f-4a5a7492c5ac","ios":"levelo://app?vid=dbac8d81-ce1c-45c5-801f-4a5a7492c5ac"},"vehicle_type_id":"4","last_reported":1706724432,"current_range_meters":4000,"station_id":"ce4bgih2rcd13ifvqba0","pricing_plan_id":"free"},{"bike_id":"efbd7d48-b1eb-4f0a-8b3f-b2a66e048b49","system_id":"levelo_inurba_marseille","lat":43.29529,"lon":5.385581,"is_reserved":false,"is_disabled":false,"rental_uris":{"android":"levelo://app?vid=efbd7d48-b1eb-4f0a-8b3f-b2a66e048b49","ios":"levelo://app?vid=efbd7d48-b1eb-4f0a-8b3f-b2a66e048b49"},"vehicle_type_id":"4","last_reported":1706724432,"current_range_meters":6000,"station_id":"ce4bgih2rcd13ifvqba0","pricing_plan_id":"free"},{"bike_id":"a9f20c07-511b-4115-9e82-5f0a8f1bb9b4","system_id":"levelo_inurba_marseille","lat":43.290779,"lon":5.371482,"is_reserved":false,"is_disabled":false,"rental_uris":{"android":"levelo://app?vid=a9f20c07-511b-4115-9e82-5f0a8f1bb9b4","ios":"levelo://app?vid=a9f20c07-511b-4115-9e82-5f0a8f1bb9b4"},"vehicle_type_id":"4","last_reported":1706724432,"current_range_meters":2800,"station_id":"ce4bh5p2rcd13ifvqe4g","pricing_plan_id":"free"},{"bike_id":"7999414f-6546-439b-b701-0027b24c97fd","system_id":"levelo_inurba_marseille","lat":43.290624,"lon":5.359245,"is_reserved":false,"is_disabled":false,"rental_uris":{"android":"levelo://app?vid=7999414f-6546-439b-b701-0027b24c97fd","ios":"levelo://app?vid=7999414f-6546-439b-b701-0027b24c97fd"},"vehicle_type_id":"4","last_reported":1706724432,"current_range_meters":0,"station_id":"ce4bha92rcd13ifvqeg0","pricing_plan_id":"free"},{"bike_id":"bcbb6514-1443-40e2-830b-8804571f3399","system_id":"levelo_inurba_marseille","lat":43.290631,"lon":5.359244,"is_reserved":false,"is_disabled":false,"rental_uris":{"android":"levelo://app?vid=bcbb6514-1443-40e2-830b-8804571f3399","ios":"levelo://app?vid=bcbb6514-1443-40e2-830b-8804571f3399"},"vehicle_type_id":"4","last_reported":1706724432,"current_range_meters":8400,"station_id":"ce4bha92rcd13ifvqeg0","pricing_plan_id":"free"},{"bike_id":"2c1e47ad-3478-424c-8c66-23a600b1f0dc","system_id":"levelo_inurba_marseille","lat":43.290441,"lon":5.359123,"is_reserved":false,"is_disabled":false,"rental_uris":{"android":"levelo://app?vid=2c1e47ad-3478-424c-8c66-23a600b1f0dc","ios":"levelo://app?vid=2c1e47ad-3478-424c-8c66-23a600b1f0dc"},"vehicle_type_id":"4","last_reported":1706724432,"current_range_meters":13200,"station_id":"","pricing_plan_id":"free"},{"bike_id":"3ec5be11-0d25-4ea0-84ce-58546eb94924","system_id":"levelo_inurba_marseille","lat":43.2942,"lon":5.38618,"is_reserved":false,"is_disabled":false,"rental_uris":{"android":"levelo://app?vid=3ec5be11-0d25-4ea0-84ce-58546eb94924","ios":"levelo://app?vid=3ec5be11-0d25-4ea0-84ce-58546eb94924"},"vehicle_type_id":"4","last_reported":1706724432,"current_range_meters":3200,"station_id":"ce4bh2h2rcd13ifvqdh0","pricing_plan_id":"free"},{"bike_id":"0b5d7cb2-82b1-4f96-a504-146b3e8b7ce3","system_id":"levelo_inurba_marseille","lat":43.29421,"lon":5.3862,"is_reserved":false,"is_disabled":false,"rental_uris":{"android":"levelo://app?vid=0b5d7cb2-82b1-4f96-a504-146b3e8b7ce3","ios":"levelo://app?vid=0b5d7cb2-82b1-4f96-a504-146b3e8b7ce3"},"vehicle_type_id":"4","last_reported":1706724432,"current_range_meters":12400,"station_id":"ce4bh2h2rcd13ifvqdh0","pricing_plan_id":"free"},{"bike_id":"e516b649-c5e6-418b-b26f-e78f7f400230","system_id":"levelo_inurba_marseille","lat":43.29421,"lon":5.38622,"is_reserved":false,"is_disabled":false,"rental_uris":{"android":"levelo://app?vid=e516b649-c5e6-418b-b26f-e78f7f400230","ios":"levelo://app?vid=e516b649-c5e6-418b-b26f-e78f7f400230"},"vehicle_type_id":"4","last_reported":1706724432,"current_range_meters":13600,"station_id":"ce4bh2h2rcd13ifvqdh0","pricing_plan_id":"free"},{"bike_id":"9397cc24-5686-485d-bcb8-d2123a099d94","system_id":"levelo_inurba_marseille","lat":43.294153,"lon":5.386305,"is_reserved":false,"is_disabled":false,"rental_uris":{"android":"levelo://app?vid=9397cc24-5686-485d-bcb8-d2123a099d94","ios":"levelo://app?vid=9397cc24-5686-485d-bcb8-d2123a099d94"},"vehicle_type_id":"4","last_reported":1706724432,"current_range_meters":6000,"station_id":"ce4bh2h2rcd13ifvqdh0","pricing_plan_id":"free"},{"bike_id":"b33ac4b4-19cf-43df-bbe8-77cd5fc80ca5","system_id":"levelo_inurba_marseille","lat":43.2942,"lon":5.38625,"is_reserved":false,"is_disabled":false,"rental_uris":{"android":"levelo://app?vid=b33ac4b4-19cf-43df-bbe8-77cd5fc80ca5","ios":"levelo://app?vid=b33ac4b4-19cf-43df-bbe8-77cd5fc80ca5"},"vehicle_type_id":"4","last_reported":1706724432,"current_range_meters":22000,"station_id":"ce4bh2h2rcd13ifvqdh0","pricing_plan_id":"free"},{"bike_id":"592a499f-813a-4e2a-acb6-d79996e5c52a","system_id":"levelo_inurba_marseille","lat":43.294162,"lon":5.386292,"is_reserved":false,"is_disabled":false,"rental_uris":{"android":"levelo://app?vid=592a499f-813a-4e2a-acb6-d79996e5c52a","ios":"levelo://app?vid=592a499f-813a-4e2a-acb6-d79996e5c52a"},"vehicle_type_id":"4","last_reported":1706724432,"current_range_meters":2000,"station_id":"ce4bh2h2rcd13ifvqdh0","pricing_plan_id":"free"},{"bike_id":"5fa39e2c-8049-4ada-9b58-e8da938851a0","system_id":"levelo_inurba_marseille","lat":43.294162,"lon":5.386292,"is_reserved":false,"is_disabled":false,"rental_uris":{"android":"levelo://app?vid=5fa39e2c-8049-4ada-9b58-e8da938851a0","ios":"levelo://app?vid=5fa39e2c-8049-4ada-9b58-e8da938851a0"},"vehicle_type_id":"4","last_reported":1706724432,"current_range_meters":14000,"station_id":"ce4bh2h2rcd13ifvqdh0","pricing_plan_id":"free"},{"bike_id":"fd678c68-6897-4ec9-afdb-c0f3750ae455","system_id":"levelo_inurba_marseille","lat":43.29417,"lon":5.38625,"is_reserved":false,"is_disabled":false,"rental_uris":{"android":"levelo://app?vid=fd678c68-6897-4ec9-afdb-c0f3750ae455","ios":"levelo://app?vid=fd678c68-6897-4ec9-afdb-c0f3750ae455"},"vehicle_type_id":"4","last_reported":1706724432,"current_range_meters":0,"station_id":"ce4bh2h2rcd13ifvqdh0","pricing_plan_id":"free"},{"bike_id":"37e54d30-259c-45d9-bdf6-04e9a1211f6a","system_id":"levelo_inurba_marseille","lat":43.289184,"lon":5.366408,"is_reserved":false,"is_disabled":false,"rental_uris":{"android":"levelo://app?vid=37e54d30-259c-45d9-bdf6-04e9a1211f6a","ios":"levelo://app?vid=37e54d30-259c-45d9-bdf6-04e9a1211f6a"},"vehicle_type_id":"4","last_reported":1706724432,"current_range_meters":12000,"station_id":"ce4bhap2rcd13ifvqek0","pricing_plan_id":"free"},{"bike_id":"07c78788-2f68-4a23-829a-4857bd46995b","system_id":"levelo_inurba_marseille","lat":43.29414,"lon":5.38624,"is_reserved":false,"is_disabled":false,"rental_uris":{"android":"levelo://app?vid=07c78788-2f68-4a23-829a-4857bd46995b","ios":"levelo://app?vid=07c78788-2f68-4a23-829a-4857bd46995b"},"vehicle_type_id":"4","last_reported":1706724432,"current_range_meters":7600,"station_id":"ce4bh2h2rcd13ifvqdh0","pricing_plan_id":"free"},{"bike_id":"2d18ab25-689c-45a3-8604-eb3f93206bd3","system_id":"levelo_inurba_marseille","lat":43.289468,"lon":5.363719,"is_reserved":false,"is_disabled":false,"rental_uris":{"android":"levelo://app?vid=2d18ab25-689c-45a3-8604-eb3f93206bd3","ios":"levelo://app?vid=2d18ab25-689c-45a3-8604-eb3f93206bd3"},"vehicle_type_id":"4","last_reported":1706724432,"current_range_meters":3200,"station_id":"ce4bhc92rcd13ifvqetg","pricing_plan_id":"free"},{"bike_id":"28f3da58-5aff-488f-a9b4-60d8b6efe704","system_id":"levelo_inurba_marseille","lat":43.294153,"lon":5.386305,"is_reserved":false,"is_disabled":false,"rental_uris":{"android":"levelo://app?vid=28f3da58-5aff-488f-a9b4-60d8b6efe704","ios":"levelo://app?vid=28f3da58-5aff-488f-a9b4-60d8b6efe704"},"vehicle_type_id":"4","last_reported":1706724432,"current_range_meters":1200,"station_id":"ce4bh2h2rcd13ifvqdh0","pricing_plan_id":"free"},{"bike_id":"e757a97d-bcc1-4c54-bd0d-f2d9fa2ace30","system_id":"levelo_inurba_marseille","lat":43.289468,"lon":5.363719,"is_reserved":false,"is_disabled":false,"rental_uris":{"android":"levelo://app?vid=e757a97d-bcc1-4c54-bd0d-f2d9fa2ace30","ios":"levelo://app?vid=e757a97d-bcc1-4c54-bd0d-f2d9fa2ace30"},"vehicle_type_id":"4","last_reported":1706724432,"current_range_meters":0,"station_id":"ce4bhc92rcd13ifvqetg","pricing_plan_id":"free"},{"bike_id":"edca5b5f-b0cc-46a8-9e30-bcf1b73fe563","system_id":"levelo_inurba_marseille","lat":43.294153,"lon":5.386305,"is_reserved":false,"is_disabled":false,"rental_uris":{"android":"levelo://app?vid=edca5b5f-b0cc-46a8-9e30-bcf1b73fe563","ios":"levelo://app?vid=edca5b5f-b0cc-46a8-9e30-bcf1b73fe563"},"vehicle_type_id":"4","last_reported":1706724432,"current_range_meters":0,"station_id":"ce4bh2h2rcd13ifvqdh0","pricing_plan_id":"free"},{"bike_id":"3057ec2e-1218-4c16-8728-660eb957c7ce","system_id":"levelo_inurba_marseille","lat":43.289184,"lon":5.366408,"is_reserved":false,"is_disabled":false,"rental_uris":{"android":"levelo://app?vid=3057ec2e-1218-4c16-8728-660eb957c7ce","ios":"levelo://app?vid=3057ec2e-1218-4c16-8728-660eb957c7ce"},"vehicle_type_id":"4","last_reported":1706724432,"current_range_meters":18800,"station_id":"ce4bhap2rcd13ifvqek0","pricing_plan_id":"free"},{"bike_id":"267c4fb6-cce5-4224-9f79-ddf50aacbc65","system_id":"levelo_inurba_marseille","lat":43.289468,"lon":5.363719,"is_reserved":false,"is_disabled":false,"rental_uris":{"android":"levelo://app?vid=267c4fb6-cce5-4224-9f79-ddf50aacbc65","ios":"levelo://app?vid=267c4fb6-cce5-4224-9f79-ddf50aacbc65"},"vehicle_type_id":"4","last_reported":1706724432,"current_range_meters":21600,"station_id":"ce4bhc92rcd13ifvqetg","pricing_plan_id":"free"},{"bike_id":"0264069d-612f-4151-927b-a5c66b80ca19","system_id":"levelo_inurba_marseille","lat":43.304274,"lon":5.397513,"is_reserved":false,"is_disabled":false,"rental_uris":{"android":"levelo://app?vid=0264069d-612f-4151-927b-a5c66b80ca19","ios":"levelo://app?vid=0264069d-612f-4151-927b-a5c66b80ca19"},"vehicle_type_id":"4","last_reported":1706724432,"current_range_meters":400,"station_id":"ce4bh092rcd13ifvqd20","pricing_plan_id":"free"},{"bike_id":"4d3a6488-33be-45ca-bbe8-a0077958ee6a","system_id":"levelo_inurba_marseille","lat":43.290995,"lon":5.381361,"is_reserved":false,"is_disabled":false,"rental_uris":{"android":"levelo://app?vid=4d3a6488-33be-45ca-bbe8-a0077958ee6a","ios":"levelo://app?vid=4d3a6488-33be-45ca-bbe8-a0077958ee6a"},"vehicle_type_id":"4","last_reported":1706724432,"current_range_meters":3600,"station_id":"ce4bh512rcd13ifvqe2g","pricing_plan_id":"free"},{"bike_id":"bd3e0c59-9432-4d28-8408-0358549511b4","system_id":"levelo_inurba_marseille","lat":43.290995,"lon":5.381361,"is_reserved":false,"is_disabled":false,"rental_uris":{"android":"levelo://app?vid=bd3e0c59-9432-4d28-8408-0358549511b4","ios":"levelo://app?vid=bd3e0c59-9432-4d28-8408-0358549511b4"},"vehicle_type_id":"4","last_reported":1706724432,"current_range_meters":0,"station_id":"ce4bh512rcd13ifvqe2g","pricing_plan_id":"free"},{"bike_id":"0a9c8c4f-b8ab-4fd4-b079-61a852011143","system_id":"levelo_inurba_marseille","lat":43.329695,"lon":5.390686,"is_reserved":false,"is_disabled":false,"rental_uris":{"android":"levelo://app?vid=0a9c8c4f-b8ab-4fd4-b079-61a852011143","ios":"levelo://app?vid=0a9c8c4f-b8ab-4fd4-b079-61a852011143"},"vehicle_type_id":"4","last_reported":1706724432,"current_range_meters":24000,"station_id":"","pricing_plan_id":"free"},{"bike_id":"54c0e810-b006-4c79-be62-131ec3e8064d","system_id":"levelo_inurba_marseille","lat":43.289905,"lon":5.378283,"is_reserved":false,"is_disabled":false,"rental_uris":{"android":"levelo://app?vid=54c0e810-b006-4c79-be62-131ec3e8064d","ios":"levelo://app?vid=54c0e810-b006-4c79-be62-131ec3e8064d"},"vehicle_type_id":"4","last_reported":1706724432,"current_range_meters":4400,"station_id":"ce4bh9p2rcd13ifvqed0","pricing_plan_id":"free"},{"bike_id":"003d6453-dba8-4058-be1c-554c6bc3364e","system_id":"levelo_inurba_marseille","lat":43.29776,"lon":5.39325,"is_reserved":false,"is_disabled":false,"rental_uris":{"android":"levelo://app?vid=003d6453-dba8-4058-be1c-554c6bc3364e","ios":"levelo://app?vid=003d6453-dba8-4058-be1c-554c6bc3364e"},"vehicle_type_id":"4","last_reported":1706724432,"current_range_meters":1200,"station_id":"chh1huq6cuj3fo74tm60","pricing_plan_id":"free"},{"bike_id":"b738b9d3-9d4b-43ce-8c21-06410c89caa3","system_id":"levelo_inurba_marseille","lat":43.289743,"lon":5.378304,"is_reserved":false,"is_disabled":false,"rental_uris":{"android":"levelo://app?vid=b738b9d3-9d4b-43ce-8c21-06410c89caa3","ios":"levelo://app?vid=b738b9d3-9d4b-43ce-8c21-06410c89caa3"},"vehicle_type_id":"4","last_reported":1706724432,"current_range_meters":0,"station_id":"ce4bh9p2rcd13ifvqed0","pricing_plan_id":"free"},{"bike_id":"9383a6a4-26f7-457e-892e-c4c24f622a73","system_id":"levelo_inurba_marseille","lat":43.297843,"lon":5.393513,"is_reserved":false,"is_disabled":false,"rental_uris":{"android":"levelo://app?vid=9383a6a4-26f7-457e-892e-c4c24f622a73","ios":"levelo://app?vid=9383a6a4-26f7-457e-892e-c4c24f622a73"},"vehicle_type_id":"4","last_reported":1706724432,"current_range_meters":0,"station_id":"chh1huq6cuj3fo74tm60","pricing_plan_id":"free"},{"bike_id":"f16e5f89-5426-4883-9eb2-053457ad1b07","system_id":"levelo_inurba_marseille","lat":43.295169,"lon":5.390426,"is_reserved":false,"is_disabled":false,"rental_uris":{"android":"levelo://app?vid=f16e5f89-5426-4883-9eb2-053457ad1b07","ios":"levelo://app?vid=f16e5f89-5426-4883-9eb2-053457ad1b07"},"vehicle_type_id":"4","last_reported":1706724432,"current_range_meters":10000,"station_id":"ce4bh3p2rcd13ifvqdp0","pricing_plan_id":"free"},{"bike_id":"8e2a75d9-d954-4dce-a114-01a90cc13b7a","system_id":"levelo_inurba_marseille","lat":43.33023,"lon":5.3904,"is_reserved":false,"is_disabled":false,"rental_uris":{"android":"levelo://app?vid=8e2a75d9-d954-4dce-a114-01a90cc13b7a","ios":"levelo://app?vid=8e2a75d9-d954-4dce-a114-01a90cc13b7a"},"vehicle_type_id":"4","last_reported":1706724432,"current_range_meters":0,"station_id":"ce4bhr92rcd13ifvqhrg","pricing_plan_id":"free"},{"bike_id":"38d6d5d9-211f-4492-87b5-7ad24c532790","system_id":"levelo_inurba_marseille","lat":43.330442,"lon":5.389148,"is_reserved":false,"is_disabled":false,"rental_uris":{"android":"levelo://app?vid=38d6d5d9-211f-4492-87b5-7ad24c532790","ios":"levelo://app?vid=38d6d5d9-211f-4492-87b5-7ad24c532790"},"vehicle_type_id":"4","last_reported":1706724432,"current_range_meters":400,"station_id":"ce4bhr92rcd13ifvqhrg","pricing_plan_id":"free"},{"bike_id":"b1ab14f4-2878-45aa-9fbd-2e06b8f21083","system_id":"levelo_inurba_marseille","lat":43.330442,"lon":5.389148,"is_reserved":false,"is_disabled":false,"rental_uris":{"android":"levelo://app?vid=b1ab14f4-2878-45aa-9fbd-2e06b8f21083","ios":"levelo://app?vid=b1ab14f4-2878-45aa-9fbd-2e06b8f21083"},"vehicle_type_id":"4","last_reported":1706724432,"current_range_meters":15600,"station_id":"ce4bhr92rcd13ifvqhrg","pricing_plan_id":"free"},{"bike_id":"bcd04d77-89ce-4902-a5e1-2aac8e238102","system_id":"levelo_inurba_marseille","lat":43.330442,"lon":5.389148,"is_reserved":false,"is_disabled":false,"rental_uris":{"android":"levelo://app?vid=bcd04d77-89ce-4902-a5e1-2aac8e238102","ios":"levelo://app?vid=bcd04d77-89ce-4902-a5e1-2aac8e238102"},"vehicle_type_id":"4","last_reported":1706724432,"current_range_meters":8000,"station_id":"ce4bhr92rcd13ifvqhrg","pricing_plan_id":"free"},{"bike_id":"0e48ea18-4a05-478d-9af4-be1e93a0fa05","system_id":"levelo_inurba_marseille","lat":43.295169,"lon":5.390426,"is_reserved":false,"is_disabled":false,"rental_uris":{"android":"levelo://app?vid=0e48ea18-4a05-478d-9af4-be1e93a0fa05","ios":"levelo://app?vid=0e48ea18-4a05-478d-9af4-be1e93a0fa05"},"vehicle_type_id":"4","last_reported":1706724432,"current_range_meters":8400,"station_id":"ce4bh3p2rcd13ifvqdp0","pricing_plan_id":"free"},{"bike_id":"f7bcc24b-317a-4f37-a99b-5e688e57824a","system_id":"levelo_inurba_marseille","lat":43.28875,"lon":5.35868,"is_reserved":false,"is_disabled":false,"rental_uris":{"android":"levelo://app?vid=f7bcc24b-317a-4f37-a99b-5e688e57824a","ios":"levelo://app?vid=f7bcc24b-317a-4f37-a99b-5e688e57824a"},"vehicle_type_id":"4","last_reported":1706724432,"current_range_meters":28800,"station_id":"ce4bhb12rcd13ifvqem0","pricing_plan_id":"free"},{"bike_id":"e953704b-93fa-4f4c-b45a-21232b972f80","system_id":"levelo_inurba_marseille","lat":43.29027,"lon":5.38127,"is_reserved":false,"is_disabled":false,"rental_uris":{"android":"levelo://app?vid=e953704b-93fa-4f4c-b45a-21232b972f80","ios":"levelo://app?vid=e953704b-93fa-4f4c-b45a-21232b972f80"},"vehicle_type_id":"4","last_reported":1706724432,"current_range_meters":0,"station_id":"ce4bh4p2rcd13ifvqe1g","pricing_plan_id":"free"},{"bike_id":"8b5c3664-99b2-465d-a369-1fa8f55dfd92","system_id":"levelo_inurba_marseille","lat":43.295713,"lon":5.399639,"is_reserved":false,"is_disabled":false,"rental_uris":{"android":"levelo://app?vid=8b5c3664-99b2-465d-a369-1fa8f55dfd92","ios":"levelo://app?vid=8b5c3664-99b2-465d-a369-1fa8f55dfd92"},"vehicle_type_id":"4","last_reported":1706724432,"current_range_meters":17600,"station_id":"ce4bh312rcd13ifvqdj0","pricing_plan_id":"free"},{"bike_id":"66da0ff0-ebb7-4c38-a5df-ed8a4d12214c","system_id":"levelo_inurba_marseille","lat":43.2901,"lon":5.381269,"is_reserved":false,"is_disabled":false,"rental_uris":{"android":"levelo://app?vid=66da0ff0-ebb7-4c38-a5df-ed8a4d12214c","ios":"levelo://app?vid=66da0ff0-ebb7-4c38-a5df-ed8a4d12214c"},"vehicle_type_id":"4","last_reported":1706724432,"current_range_meters":2000,"station_id":"ce4bh4p2rcd13ifvqe1g","pricing_plan_id":"free"},{"bike_id":"09ffc386-82f9-44ac-a2a8-b7ea475096cf","system_id":"levelo_inurba_marseille","lat":43.28856,"lon":5.358371,"is_reserved":false,"is_disabled":false,"rental_uris":{"android":"levelo://app?vid=09ffc386-82f9-44ac-a2a8-b7ea475096cf","ios":"levelo://app?vid=09ffc386-82f9-44ac-a2a8-b7ea475096cf"},"vehicle_type_id":"4","last_reported":1706724432,"current_range_meters":31600,"station_id":"ce4bhb12rcd13ifvqem0","pricing_plan_id":"free"},{"bike_id":"5a1a2280-1233-41e1-b8ca-a8ebc291b34c","system_id":"levelo_inurba_marseille","lat":43.28856,"lon":5.358371,"is_reserved":false,"is_disabled":false,"rental_uris":{"android":"levelo://app?vid=5a1a2280-1233-41e1-b8ca-a8ebc291b34c","ios":"levelo://app?vid=5a1a2280-1233-41e1-b8ca-a8ebc291b34c"},"vehicle_type_id":"4","last_reported":1706724432,"current_range_meters":13600,"station_id":"ce4bhb12rcd13ifvqem0","pricing_plan_id":"free"},{"bike_id":"a560cc0d-391b-4d22-a9df-71c761011448","system_id":"levelo_inurba_marseille","lat":43.28856,"lon":5.358371,"is_reserved":false,"is_disabled":false,"rental_uris":{"android":"levelo://app?vid=a560cc0d-391b-4d22-a9df-71c761011448","ios":"levelo://app?vid=a560cc0d-391b-4d22-a9df-71c761011448"},"vehicle_type_id":"4","last_reported":1706724432,"current_range_meters":14400,"station_id":"ce4bhb12rcd13ifvqem0","pricing_plan_id":"free"},{"bike_id":"59b7b843-f242-48ca-b87c-21f005f48f05","system_id":"levelo_inurba_marseille","lat":43.28856,"lon":5.358371,"is_reserved":false,"is_disabled":false,"rental_uris":{"android":"levelo://app?vid=59b7b843-f242-48ca-b87c-21f005f48f05","ios":"levelo://app?vid=59b7b843-f242-48ca-b87c-21f005f48f05"},"vehicle_type_id":"4","last_reported":1706724432,"current_range_meters":13600,"station_id":"ce4bhb12rcd13ifvqem0","pricing_plan_id":"free"},{"bike_id":"d85e73cc-0091-45d8-b104-cfa06fbfa938","system_id":"levelo_inurba_marseille","lat":43.28856,"lon":5.35856,"is_reserved":false,"is_disabled":false,"rental_uris":{"android":"levelo://app?vid=d85e73cc-0091-45d8-b104-cfa06fbfa938","ios":"levelo://app?vid=d85e73cc-0091-45d8-b104-cfa06fbfa938"},"vehicle_type_id":"4","last_reported":1706724432,"current_range_meters":0,"station_id":"ce4bhb12rcd13ifvqem0","pricing_plan_id":"free"},{"bike_id":"abfe1efa-c58d-485e-9965-49f1107e9644","system_id":"levelo_inurba_marseille","lat":43.288483,"lon":5.358487,"is_reserved":false,"is_disabled":false,"rental_uris":{"android":"levelo://app?vid=abfe1efa-c58d-485e-9965-49f1107e9644","ios":"levelo://app?vid=abfe1efa-c58d-485e-9965-49f1107e9644"},"vehicle_type_id":"4","last_reported":1706724432,"current_range_meters":0,"station_id":"ce4bhb12rcd13ifvqem0","pricing_plan_id":"free"},{"bike_id":"69fc39f7-326e-4127-8377-bfb3e3304975","system_id":"levelo_inurba_marseille","lat":43.33723,"lon":5.37438,"is_reserved":false,"is_disabled":false,"rental_uris":{"android":"levelo://app?vid=69fc39f7-326e-4127-8377-bfb3e3304975","ios":"levelo://app?vid=69fc39f7-326e-4127-8377-bfb3e3304975"},"vehicle_type_id":"4","last_reported":1706724432,"current_range_meters":28400,"station_id":"","pricing_plan_id":"free"},{"bike_id":"3a9fbb0e-5c5a-4876-817e-0d05a9186890","system_id":"levelo_inurba_marseille","lat":43.308178,"lon":5.401123,"is_reserved":false,"is_disabled":false,"rental_uris":{"android":"levelo://app?vid=3a9fbb0e-5c5a-4876-817e-0d05a9186890","ios":"levelo://app?vid=3a9fbb0e-5c5a-4876-817e-0d05a9186890"},"vehicle_type_id":"4","last_reported":1706724432,"current_range_meters":0,"station_id":"","pricing_plan_id":"free"},{"bike_id":"b9a619f6-2e97-49bd-95fd-73d5e5dbf7e5","system_id":"levelo_inurba_marseille","lat":43.309371,"lon":5.401449,"is_reserved":false,"is_disabled":false,"rental_uris":{"android":"levelo://app?vid=b9a619f6-2e97-49bd-95fd-73d5e5dbf7e5","ios":"levelo://app?vid=b9a619f6-2e97-49bd-95fd-73d5e5dbf7e5"},"vehicle_type_id":"4","last_reported":1706724432,"current_range_meters":400,"station_id":"ce4bgvp2rcd13ifvqct0","pricing_plan_id":"free"},{"bike_id":"b4d85829-ffae-4a59-aa2a-c43afc09c240","system_id":"levelo_inurba_marseille","lat":43.33745,"lon":5.37446,"is_reserved":false,"is_disabled":false,"rental_uris":{"android":"levelo://app?vid=b4d85829-ffae-4a59-aa2a-c43afc09c240","ios":"levelo://app?vid=b4d85829-ffae-4a59-aa2a-c43afc09c240"},"vehicle_type_id":"4","last_reported":1706724432,"current_range_meters":22000,"station_id":"","pricing_plan_id":"free"},{"bike_id":"b964d9fd-972c-4750-b880-29a57e9d7707","system_id":"levelo_inurba_marseille","lat":43.312609,"lon":5.401662,"is_reserved":false,"is_disabled":false,"rental_uris":{"android":"levelo://app?vid=b964d9fd-972c-4750-b880-29a57e9d7707","ios":"levelo://app?vid=b964d9fd-972c-4750-b880-29a57e9d7707"},"vehicle_type_id":"4","last_reported":1706724432,"current_range_meters":0,"station_id":"ce4bh092rcd13ifvqd30","pricing_plan_id":"free"},{"bike_id":"286f917e-0a5a-4a5d-a8b9-fc4f7abedf84","system_id":"levelo_inurba_marseille","lat":43.33746,"lon":5.37459,"is_reserved":false,"is_disabled":false,"rental_uris":{"android":"levelo://app?vid=286f917e-0a5a-4a5d-a8b9-fc4f7abedf84","ios":"levelo://app?vid=286f917e-0a5a-4a5d-a8b9-fc4f7abedf84"},"vehicle_type_id":"4","last_reported":1706724432,"current_range_meters":18400,"station_id":"","pricing_plan_id":"free"},{"bike_id":"a325d2e5-bd08-406e-aa24-f6e903d5a592","system_id":"levelo_inurba_marseille","lat":43.30646,"lon":5.40072,"is_reserved":false,"is_disabled":false,"rental_uris":{"android":"levelo://app?vid=a325d2e5-bd08-406e-aa24-f6e903d5a592","ios":"levelo://app?vid=a325d2e5-bd08-406e-aa24-f6e903d5a592"},"vehicle_type_id":"4","last_reported":1706724432,"current_range_meters":5600,"station_id":"ce4bh112rcd13ifvqda0","pricing_plan_id":"free"},{"bike_id":"0a8a08b1-6bb5-4f0e-80d1-0d24900a3ea3","system_id":"levelo_inurba_marseille","lat":43.312609,"lon":5.401662,"is_reserved":false,"is_disabled":false,"rental_uris":{"android":"levelo://app?vid=0a8a08b1-6bb5-4f0e-80d1-0d24900a3ea3","ios":"levelo://app?vid=0a8a08b1-6bb5-4f0e-80d1-0d24900a3ea3"},"vehicle_type_id":"4","last_reported":1706724432,"current_range_meters":16800,"station_id":"ce4bh092rcd13ifvqd30","pricing_plan_id":"free"},{"bike_id":"75d9bb83-4e19-4556-89a8-0878667d5ca3","system_id":"levelo_inurba_marseille","lat":43.309371,"lon":5.401449,"is_reserved":false,"is_disabled":false,"rental_uris":{"android":"levelo://app?vid=75d9bb83-4e19-4556-89a8-0878667d5ca3","ios":"levelo://app?vid=75d9bb83-4e19-4556-89a8-0878667d5ca3"},"vehicle_type_id":"4","last_reported":1706724432,"current_range_meters":8400,"station_id":"ce4bgvp2rcd13ifvqct0","pricing_plan_id":"free"},{"bike_id":"b7d3b81d-d85a-44b5-a0c7-8f9c9f74639e","system_id":"levelo_inurba_marseille","lat":43.337587,"lon":5.374576,"is_reserved":false,"is_disabled":false,"rental_uris":{"android":"levelo://app?vid=b7d3b81d-d85a-44b5-a0c7-8f9c9f74639e","ios":"levelo://app?vid=b7d3b81d-d85a-44b5-a0c7-8f9c9f74639e"},"vehicle_type_id":"4","last_reported":1706724432,"current_range_meters":14800,"station_id":"","pricing_plan_id":"free"},{"bike_id":"12568932-a9a7-4d52-8b2c-668683b75358","system_id":"levelo_inurba_marseille","lat":43.33754,"lon":5.375013,"is_reserved":false,"is_disabled":false,"rental_uris":{"android":"levelo://app?vid=12568932-a9a7-4d52-8b2c-668683b75358","ios":"levelo://app?vid=12568932-a9a7-4d52-8b2c-668683b75358"},"vehicle_type_id":"4","last_reported":1706724432,"current_range_meters":16400,"station_id":"","pricing_plan_id":"free"},{"bike_id":"1facbbf3-baac-42f8-85eb-cb1e36f3e4b9","system_id":"levelo_inurba_marseille","lat":43.337623,"lon":5.374883,"is_reserved":false,"is_disabled":false,"rental_uris":{"android":"levelo://app?vid=1facbbf3-baac-42f8-85eb-cb1e36f3e4b9","ios":"levelo://app?vid=1facbbf3-baac-42f8-85eb-cb1e36f3e4b9"},"vehicle_type_id":"4","last_reported":1706724432,"current_range_meters":3200,"station_id":"","pricing_plan_id":"free"},{"bike_id":"7b6c2f24-74fa-4b24-9a41-bede95cb1bb8","system_id":"levelo_inurba_marseille","lat":43.30636,"lon":5.40096,"is_reserved":false,"is_disabled":false,"rental_uris":{"android":"levelo://app?vid=7b6c2f24-74fa-4b24-9a41-bede95cb1bb8","ios":"levelo://app?vid=7b6c2f24-74fa-4b24-9a41-bede95cb1bb8"},"vehicle_type_id":"4","last_reported":1706724432,"current_range_meters":4800,"station_id":"ce4bh112rcd13ifvqda0","pricing_plan_id":"free"},{"bike_id":"1c9b258d-89a7-4fc6-86b6-5702b23eecb5","system_id":"levelo_inurba_marseille","lat":43.301117,"lon":5.398795,"is_reserved":false,"is_disabled":false,"rental_uris":{"android":"levelo://app?vid=1c9b258d-89a7-4fc6-86b6-5702b23eecb5","ios":"levelo://app?vid=1c9b258d-89a7-4fc6-86b6-5702b23eecb5"},"vehicle_type_id":"4","last_reported":1706724432,"current_range_meters":12000,"station_id":"ce4bh0h2rcd13ifvqd40","pricing_plan_id":"free"},{"bike_id":"fc8f7230-c127-43bb-a083-7e16494fc81e","system_id":"levelo_inurba_marseille","lat":43.301117,"lon":5.398795,"is_reserved":false,"is_disabled":false,"rental_uris":{"android":"levelo://app?vid=fc8f7230-c127-43bb-a083-7e16494fc81e","ios":"levelo://app?vid=fc8f7230-c127-43bb-a083-7e16494fc81e"},"vehicle_type_id":"4","last_reported":1706724432,"current_range_meters":0,"station_id":"ce4bh0h2rcd13ifvqd40","pricing_plan_id":"free"},{"bike_id":"ff43fdb2-abef-4046-95ea-5b6c835967bd","system_id":"levelo_inurba_marseille","lat":43.306412,"lon":5.401035,"is_reserved":false,"is_disabled":false,"rental_uris":{"android":"levelo://app?vid=ff43fdb2-abef-4046-95ea-5b6c835967bd","ios":"levelo://app?vid=ff43fdb2-abef-4046-95ea-5b6c835967bd"},"vehicle_type_id":"4","last_reported":1706724432,"current_range_meters":8800,"station_id":"ce4bh112rcd13ifvqda0","pricing_plan_id":"free"},{"bike_id":"152e5cf2-7f87-4f04-ac78-ff99fe495d41","system_id":"levelo_inurba_marseille","lat":43.301117,"lon":5.398795,"is_reserved":false,"is_disabled":false,"rental_uris":{"android":"levelo://app?vid=152e5cf2-7f87-4f04-ac78-ff99fe495d41","ios":"levelo://app?vid=152e5cf2-7f87-4f04-ac78-ff99fe495d41"},"vehicle_type_id":"4","last_reported":1706724432,"current_range_meters":400,"station_id":"ce4bh0h2rcd13ifvqd40","pricing_plan_id":"free"},{"bike_id":"3dff1af7-c251-4a16-b81f-53c0278032b3","system_id":"levelo_inurba_marseille","lat":43.301117,"lon":5.398795,"is_reserved":false,"is_disabled":false,"rental_uris":{"android":"levelo://app?vid=3dff1af7-c251-4a16-b81f-53c0278032b3","ios":"levelo://app?vid=3dff1af7-c251-4a16-b81f-53c0278032b3"},"vehicle_type_id":"4","last_reported":1706724432,"current_range_meters":2400,"station_id":"ce4bh0h2rcd13ifvqd40","pricing_plan_id":"free"},{"bike_id":"46c6cd19-2109-4842-8ac8-360b99a7e6e1","system_id":"levelo_inurba_marseille","lat":43.301117,"lon":5.398795,"is_reserved":false,"is_disabled":false,"rental_uris":{"android":"levelo://app?vid=46c6cd19-2109-4842-8ac8-360b99a7e6e1","ios":"levelo://app?vid=46c6cd19-2109-4842-8ac8-360b99a7e6e1"},"vehicle_type_id":"4","last_reported":1706724432,"current_range_meters":10400,"station_id":"ce4bh0h2rcd13ifvqd40","pricing_plan_id":"free"},{"bike_id":"372fa799-0494-42c9-bc67-e7b52b566a03","system_id":"levelo_inurba_marseille","lat":43.301117,"lon":5.398795,"is_reserved":false,"is_disabled":false,"rental_uris":{"android":"levelo://app?vid=372fa799-0494-42c9-bc67-e7b52b566a03","ios":"levelo://app?vid=372fa799-0494-42c9-bc67-e7b52b566a03"},"vehicle_type_id":"4","last_reported":1706724432,"current_range_meters":2000,"station_id":"ce4bh0h2rcd13ifvqd40","pricing_plan_id":"free"},{"bike_id":"76a76d72-876d-4eba-ab4b-c16c5ef84b37","system_id":"levelo_inurba_marseille","lat":43.301117,"lon":5.398795,"is_reserved":false,"is_disabled":false,"rental_uris":{"android":"levelo://app?vid=76a76d72-876d-4eba-ab4b-c16c5ef84b37","ios":"levelo://app?vid=76a76d72-876d-4eba-ab4b-c16c5ef84b37"},"vehicle_type_id":"4","last_reported":1706724432,"current_range_meters":0,"station_id":"ce4bh0h2rcd13ifvqd40","pricing_plan_id":"free"},{"bike_id":"8fcfcc28-0908-4dc4-81a9-90a07ca3043f","system_id":"levelo_inurba_marseille","lat":43.301117,"lon":5.398795,"is_reserved":false,"is_disabled":false,"rental_uris":{"android":"levelo://app?vid=8fcfcc28-0908-4dc4-81a9-90a07ca3043f","ios":"levelo://app?vid=8fcfcc28-0908-4dc4-81a9-90a07ca3043f"},"vehicle_type_id":"4","last_reported":1706724432,"current_range_meters":5600,"station_id":"ce4bh0h2rcd13ifvqd40","pricing_plan_id":"free"},{"bike_id":"cef74c65-cf09-469f-ae05-a7ebdbf5e18a","system_id":"levelo_inurba_marseille","lat":43.301117,"lon":5.398795,"is_reserved":false,"is_disabled":false,"rental_uris":{"android":"levelo://app?vid=cef74c65-cf09-469f-ae05-a7ebdbf5e18a","ios":"levelo://app?vid=cef74c65-cf09-469f-ae05-a7ebdbf5e18a"},"vehicle_type_id":"4","last_reported":1706724432,"current_range_meters":8400,"station_id":"ce4bh0h2rcd13ifvqd40","pricing_plan_id":"free"},{"bike_id":"06dc8a98-2f0d-4073-8a4a-a0839b3c6cd3","system_id":"levelo_inurba_marseille","lat":43.301117,"lon":5.398795,"is_reserved":false,"is_disabled":false,"rental_uris":{"android":"levelo://app?vid=06dc8a98-2f0d-4073-8a4a-a0839b3c6cd3","ios":"levelo://app?vid=06dc8a98-2f0d-4073-8a4a-a0839b3c6cd3"},"vehicle_type_id":"4","last_reported":1706724432,"current_range_meters":6800,"station_id":"ce4bh0h2rcd13ifvqd40","pricing_plan_id":"free"},{"bike_id":"0c57ca09-8143-44e5-94a8-ff344ab6f432","system_id":"levelo_inurba_marseille","lat":43.28719,"lon":5.36088,"is_reserved":false,"is_disabled":false,"rental_uris":{"android":"levelo://app?vid=0c57ca09-8143-44e5-94a8-ff344ab6f432","ios":"levelo://app?vid=0c57ca09-8143-44e5-94a8-ff344ab6f432"},"vehicle_type_id":"4","last_reported":1706724432,"current_range_meters":0,"station_id":"cki0cbj6b192h4jlfktg","pricing_plan_id":"free"},{"bike_id":"befa0c5d-654b-4cfd-8583-d7ce96f5f1c6","system_id":"levelo_inurba_marseille","lat":43.299724,"lon":5.371829,"is_reserved":false,"is_disabled":false,"rental_uris":{"android":"levelo://app?vid=befa0c5d-654b-4cfd-8583-d7ce96f5f1c6","ios":"levelo://app?vid=befa0c5d-654b-4cfd-8583-d7ce96f5f1c6"},"vehicle_type_id":"4","last_reported":1706724432,"current_range_meters":0,"station_id":"ce4bgr92rcd13ifvqc7g","pricing_plan_id":"free"},{"bike_id":"14d0ef62-1764-41e7-af4c-4664d45255ba","system_id":"levelo_inurba_marseille","lat":43.295748,"lon":5.37522,"is_reserved":false,"is_disabled":false,"rental_uris":{"android":"levelo://app?vid=14d0ef62-1764-41e7-af4c-4664d45255ba","ios":"levelo://app?vid=14d0ef62-1764-41e7-af4c-4664d45255ba"},"vehicle_type_id":"4","last_reported":1706724432,"current_range_meters":20800,"station_id":"ce4bgh92rcd13ifvqb50","pricing_plan_id":"free"},{"bike_id":"ba2323e1-96e6-499e-9cc4-64c45a72213c","system_id":"levelo_inurba_marseille","lat":43.295194,"lon":5.39397,"is_reserved":false,"is_disabled":false,"rental_uris":{"android":"levelo://app?vid=ba2323e1-96e6-499e-9cc4-64c45a72213c","ios":"levelo://app?vid=ba2323e1-96e6-499e-9cc4-64c45a72213c"},"vehicle_type_id":"4","last_reported":1706724432,"current_range_meters":6800,"station_id":"ce4bh292rcd13ifvqdf0","pricing_plan_id":"free"},{"bike_id":"3c2a8e4c-0367-41e8-a5a5-266ddd334c2a","system_id":"levelo_inurba_marseille","lat":43.295196,"lon":5.39397,"is_reserved":false,"is_disabled":false,"rental_uris":{"android":"levelo://app?vid=3c2a8e4c-0367-41e8-a5a5-266ddd334c2a","ios":"levelo://app?vid=3c2a8e4c-0367-41e8-a5a5-266ddd334c2a"},"vehicle_type_id":"4","last_reported":1706724432,"current_range_meters":2000,"station_id":"ce4bh292rcd13ifvqdf0","pricing_plan_id":"free"},{"bike_id":"7869142d-4a88-4e51-bfb7-fcda9675011a","system_id":"levelo_inurba_marseille","lat":43.298681,"lon":5.397225,"is_reserved":false,"is_disabled":false,"rental_uris":{"android":"levelo://app?vid=7869142d-4a88-4e51-bfb7-fcda9675011a","ios":"levelo://app?vid=7869142d-4a88-4e51-bfb7-fcda9675011a"},"vehicle_type_id":"4","last_reported":1706724432,"current_range_meters":0,"station_id":"ce4bh0h2rcd13ifvqd50","pricing_plan_id":"free"},{"bike_id":"d54dab59-3766-4136-af1f-1157ddaa937a","system_id":"levelo_inurba_marseille","lat":43.295194,"lon":5.39397,"is_reserved":false,"is_disabled":false,"rental_uris":{"android":"levelo://app?vid=d54dab59-3766-4136-af1f-1157ddaa937a","ios":"levelo://app?vid=d54dab59-3766-4136-af1f-1157ddaa937a"},"vehicle_type_id":"4","last_reported":1706724432,"current_range_meters":800,"station_id":"ce4bh292rcd13ifvqdf0","pricing_plan_id":"free"},{"bike_id":"e020e291-4ae3-4bd6-973e-db7589bd5bf2","system_id":"levelo_inurba_marseille","lat":43.298681,"lon":5.397225,"is_reserved":false,"is_disabled":false,"rental_uris":{"android":"levelo://app?vid=e020e291-4ae3-4bd6-973e-db7589bd5bf2","ios":"levelo://app?vid=e020e291-4ae3-4bd6-973e-db7589bd5bf2"},"vehicle_type_id":"4","last_reported":1706724432,"current_range_meters":9200,"station_id":"ce4bh0h2rcd13ifvqd50","pricing_plan_id":"free"},{"bike_id":"c06bbf20-665f-471f-bbc7-ee29ecae26ec","system_id":"levelo_inurba_marseille","lat":43.295196,"lon":5.39397,"is_reserved":false,"is_disabled":false,"rental_uris":{"android":"levelo://app?vid=c06bbf20-665f-471f-bbc7-ee29ecae26ec","ios":"levelo://app?vid=c06bbf20-665f-471f-bbc7-ee29ecae26ec"},"vehicle_type_id":"4","last_reported":1706724432,"current_range_meters":21600,"station_id":"ce4bh292rcd13ifvqdf0","pricing_plan_id":"free"},{"bike_id":"6831f594-8ee6-455c-b819-f3c1c5af35bd","system_id":"levelo_inurba_marseille","lat":43.295194,"lon":5.39397,"is_reserved":false,"is_disabled":false,"rental_uris":{"android":"levelo://app?vid=6831f594-8ee6-455c-b819-f3c1c5af35bd","ios":"levelo://app?vid=6831f594-8ee6-455c-b819-f3c1c5af35bd"},"vehicle_type_id":"4","last_reported":1706724432,"current_range_meters":7600,"station_id":"ce4bh292rcd13ifvqdf0","pricing_plan_id":"free"},{"bike_id":"efdafd31-e3cd-444b-a93c-824c55fa1438","system_id":"levelo_inurba_marseille","lat":43.295196,"lon":5.39397,"is_reserved":false,"is_disabled":false,"rental_uris":{"android":"levelo://app?vid=efdafd31-e3cd-444b-a93c-824c55fa1438","ios":"levelo://app?vid=efdafd31-e3cd-444b-a93c-824c55fa1438"},"vehicle_type_id":"4","last_reported":1706724432,"current_range_meters":30000,"station_id":"ce4bh292rcd13ifvqdf0","pricing_plan_id":"free"},{"bike_id":"a27440f6-5cb2-4f3a-9608-1e30ad6c7abc","system_id":"levelo_inurba_marseille","lat":43.295196,"lon":5.39397,"is_reserved":false,"is_disabled":false,"rental_uris":{"android":"levelo://app?vid=a27440f6-5cb2-4f3a-9608-1e30ad6c7abc","ios":"levelo://app?vid=a27440f6-5cb2-4f3a-9608-1e30ad6c7abc"},"vehicle_type_id":"4","last_reported":1706724432,"current_range_meters":25200,"station_id":"ce4bh292rcd13ifvqdf0","pricing_plan_id":"free"},{"bike_id":"ec2592a3-5b7f-4a27-8942-71d05c7284a4","system_id":"levelo_inurba_marseille","lat":43.29521,"lon":5.39418,"is_reserved":false,"is_disabled":false,"rental_uris":{"android":"levelo://app?vid=ec2592a3-5b7f-4a27-8942-71d05c7284a4","ios":"levelo://app?vid=ec2592a3-5b7f-4a27-8942-71d05c7284a4"},"vehicle_type_id":"4","last_reported":1706724432,"current_range_meters":0,"station_id":"ce4bh292rcd13ifvqdf0","pricing_plan_id":"free"},{"bike_id":"4ed65d48-97c8-4ade-9228-df99c44d988a","system_id":"levelo_inurba_marseille","lat":43.289307,"lon":5.38406,"is_reserved":false,"is_disabled":false,"rental_uris":{"android":"levelo://app?vid=4ed65d48-97c8-4ade-9228-df99c44d988a","ios":"levelo://app?vid=4ed65d48-97c8-4ade-9228-df99c44d988a"},"vehicle_type_id":"4","last_reported":1706724432,"current_range_meters":0,"station_id":"ce4bh612rcd13ifvqe6g","pricing_plan_id":"free"},{"bike_id":"7b4c20b1-7f65-4e60-afbe-01b5a20c0397","system_id":"levelo_inurba_marseille","lat":43.302759,"lon":5.400793,"is_reserved":false,"is_disabled":false,"rental_uris":{"android":"levelo://app?vid=7b4c20b1-7f65-4e60-afbe-01b5a20c0397","ios":"levelo://app?vid=7b4c20b1-7f65-4e60-afbe-01b5a20c0397"},"vehicle_type_id":"4","last_reported":1706724432,"current_range_meters":5600,"station_id":"ce4bgvh2rcd13ifvqcs0","pricing_plan_id":"free"},{"bike_id":"76c1eb3a-ccb9-441f-8fc5-039905c537ed","system_id":"levelo_inurba_marseille","lat":43.295196,"lon":5.39397,"is_reserved":false,"is_disabled":false,"rental_uris":{"android":"levelo://app?vid=76c1eb3a-ccb9-441f-8fc5-039905c537ed","ios":"levelo://app?vid=76c1eb3a-ccb9-441f-8fc5-039905c537ed"},"vehicle_type_id":"4","last_reported":1706724432,"current_range_meters":18000,"station_id":"ce4bh292rcd13ifvqdf0","pricing_plan_id":"free"},{"bike_id":"4d9057f0-6216-4523-8962-8bbccf27f90c","system_id":"levelo_inurba_marseille","lat":43.30248,"lon":5.40056,"is_reserved":false,"is_disabled":false,"rental_uris":{"android":"levelo://app?vid=4d9057f0-6216-4523-8962-8bbccf27f90c","ios":"levelo://app?vid=4d9057f0-6216-4523-8962-8bbccf27f90c"},"vehicle_type_id":"4","last_reported":1706724432,"current_range_meters":17600,"station_id":"ce4bgvh2rcd13ifvqcs0","pricing_plan_id":"free"},{"bike_id":"3cfeb8c3-59ca-442d-a87a-f09802c44a5d","system_id":"levelo_inurba_marseille","lat":43.302759,"lon":5.400793,"is_reserved":false,"is_disabled":false,"rental_uris":{"android":"levelo://app?vid=3cfeb8c3-59ca-442d-a87a-f09802c44a5d","ios":"levelo://app?vid=3cfeb8c3-59ca-442d-a87a-f09802c44a5d"},"vehicle_type_id":"4","last_reported":1706724432,"current_range_meters":5200,"station_id":"ce4bgvh2rcd13ifvqcs0","pricing_plan_id":"free"},{"bike_id":"b02f2093-a3fc-45d1-a914-d58f96d4c8dd","system_id":"levelo_inurba_marseille","lat":43.302471,"lon":5.400589,"is_reserved":false,"is_disabled":false,"rental_uris":{"android":"levelo://app?vid=b02f2093-a3fc-45d1-a914-d58f96d4c8dd","ios":"levelo://app?vid=b02f2093-a3fc-45d1-a914-d58f96d4c8dd"},"vehicle_type_id":"4","last_reported":1706724432,"current_range_meters":0,"station_id":"ce4bgvh2rcd13ifvqcs0","pricing_plan_id":"free"},{"bike_id":"5b8c776c-aec6-4857-b2d7-d46ed220deac","system_id":"levelo_inurba_marseille","lat":43.302511,"lon":5.400653,"is_reserved":false,"is_disabled":false,"rental_uris":{"android":"levelo://app?vid=5b8c776c-aec6-4857-b2d7-d46ed220deac","ios":"levelo://app?vid=5b8c776c-aec6-4857-b2d7-d46ed220deac"},"vehicle_type_id":"4","last_reported":1706724432,"current_range_meters":0,"station_id":"ce4bgth2rcd13ifvqch0","pricing_plan_id":"free"},{"bike_id":"145bff43-435f-4413-b497-92b4edceb844","system_id":"levelo_inurba_marseille","lat":43.302759,"lon":5.400793,"is_reserved":false,"is_disabled":false,"rental_uris":{"android":"levelo://app?vid=145bff43-435f-4413-b497-92b4edceb844","ios":"levelo://app?vid=145bff43-435f-4413-b497-92b4edceb844"},"vehicle_type_id":"4","last_reported":1706724432,"current_range_meters":21600,"station_id":"ce4bgvh2rcd13ifvqcs0","pricing_plan_id":"free"},{"bike_id":"cf3f2473-6dee-47d4-8fce-77244733d11b","system_id":"levelo_inurba_marseille","lat":43.290336,"lon":5.386425,"is_reserved":false,"is_disabled":false,"rental_uris":{"android":"levelo://app?vid=cf3f2473-6dee-47d4-8fce-77244733d11b","ios":"levelo://app?vid=cf3f2473-6dee-47d4-8fce-77244733d11b"},"vehicle_type_id":"4","last_reported":1706724432,"current_range_meters":9200,"station_id":"ce4bh4p2rcd13ifvqe0g","pricing_plan_id":"free"},{"bike_id":"973d26d1-fe80-47c2-af71-99ffc553ba5c","system_id":"levelo_inurba_marseille","lat":43.302759,"lon":5.400793,"is_reserved":false,"is_disabled":false,"rental_uris":{"android":"levelo://app?vid=973d26d1-fe80-47c2-af71-99ffc553ba5c","ios":"levelo://app?vid=973d26d1-fe80-47c2-af71-99ffc553ba5c"},"vehicle_type_id":"4","last_reported":1706724432,"current_range_meters":29600,"station_id":"ce4bgvh2rcd13ifvqcs0","pricing_plan_id":"free"},{"bike_id":"a9ca356d-bc28-47c9-8f75-c4819610b8ea","system_id":"levelo_inurba_marseille","lat":43.302549,"lon":5.400792,"is_reserved":false,"is_disabled":false,"rental_uris":{"android":"levelo://app?vid=a9ca356d-bc28-47c9-8f75-c4819610b8ea","ios":"levelo://app?vid=a9ca356d-bc28-47c9-8f75-c4819610b8ea"},"vehicle_type_id":"4","last_reported":1706724432,"current_range_meters":0,"station_id":"ce4bgvh2rcd13ifvqcs0","pricing_plan_id":"free"},{"bike_id":"9198179b-0a59-4c9c-9498-d226b82725d9","system_id":"levelo_inurba_marseille","lat":43.30251,"lon":5.40077,"is_reserved":false,"is_disabled":false,"rental_uris":{"android":"levelo://app?vid=9198179b-0a59-4c9c-9498-d226b82725d9","ios":"levelo://app?vid=9198179b-0a59-4c9c-9498-d226b82725d9"},"vehicle_type_id":"4","last_reported":1706724432,"current_range_meters":0,"station_id":"ce4bgvh2rcd13ifvqcs0","pricing_plan_id":"free"},{"bike_id":"c3ce098d-89c2-494e-8573-3d7abd9378d0","system_id":"levelo_inurba_marseille","lat":43.286039,"lon":5.370679,"is_reserved":false,"is_disabled":false,"rental_uris":{"android":"levelo://app?vid=c3ce098d-89c2-494e-8573-3d7abd9378d0","ios":"levelo://app?vid=c3ce098d-89c2-494e-8573-3d7abd9378d0"},"vehicle_type_id":"4","last_reported":1706724432,"current_range_meters":28400,"station_id":"ce4bht12rcd13ifvqi60","pricing_plan_id":"free"},{"bike_id":"58aa3820-b5a3-4ad2-8b67-c7ea870b1b56","system_id":"levelo_inurba_marseille","lat":43.302536,"lon":5.400909,"is_reserved":false,"is_disabled":false,"rental_uris":{"android":"levelo://app?vid=58aa3820-b5a3-4ad2-8b67-c7ea870b1b56","ios":"levelo://app?vid=58aa3820-b5a3-4ad2-8b67-c7ea870b1b56"},"vehicle_type_id":"4","last_reported":1706724432,"current_range_meters":13600,"station_id":"ce4bgvh2rcd13ifvqcs0","pricing_plan_id":"free"},{"bike_id":"a2aed7bf-0871-4f24-9846-b2862495538a","system_id":"levelo_inurba_marseille","lat":43.30256,"lon":5.40094,"is_reserved":false,"is_disabled":false,"rental_uris":{"android":"levelo://app?vid=a2aed7bf-0871-4f24-9846-b2862495538a","ios":"levelo://app?vid=a2aed7bf-0871-4f24-9846-b2862495538a"},"vehicle_type_id":"4","last_reported":1706724432,"current_range_meters":18800,"station_id":"ce4bgvh2rcd13ifvqcs0","pricing_plan_id":"free"},{"bike_id":"82cb52b3-97c9-409c-afb9-0dd2a2c6638d","system_id":"levelo_inurba_marseille","lat":43.286039,"lon":5.370679,"is_reserved":false,"is_disabled":false,"rental_uris":{"android":"levelo://app?vid=82cb52b3-97c9-409c-afb9-0dd2a2c6638d","ios":"levelo://app?vid=82cb52b3-97c9-409c-afb9-0dd2a2c6638d"},"vehicle_type_id":"4","last_reported":1706724432,"current_range_meters":4000,"station_id":"ce4bht12rcd13ifvqi60","pricing_plan_id":"free"},{"bike_id":"1d103124-cc61-42a3-b2f4-790d77c11fea","system_id":"levelo_inurba_marseille","lat":43.286039,"lon":5.370679,"is_reserved":false,"is_disabled":false,"rental_uris":{"android":"levelo://app?vid=1d103124-cc61-42a3-b2f4-790d77c11fea","ios":"levelo://app?vid=1d103124-cc61-42a3-b2f4-790d77c11fea"},"vehicle_type_id":"4","last_reported":1706724432,"current_range_meters":26400,"station_id":"ce4bht12rcd13ifvqi60","pricing_plan_id":"free"},{"bike_id":"7ca128cb-df0e-475d-b35b-92b6831f28f2","system_id":"levelo_inurba_marseille","lat":43.286039,"lon":5.370679,"is_reserved":false,"is_disabled":false,"rental_uris":{"android":"levelo://app?vid=7ca128cb-df0e-475d-b35b-92b6831f28f2","ios":"levelo://app?vid=7ca128cb-df0e-475d-b35b-92b6831f28f2"},"vehicle_type_id":"4","last_reported":1706724432,"current_range_meters":16000,"station_id":"ce4bht12rcd13ifvqi60","pricing_plan_id":"free"},{"bike_id":"f39e81d7-f19e-48a9-abe7-5ebc8393cf66","system_id":"levelo_inurba_marseille","lat":43.286039,"lon":5.370679,"is_reserved":false,"is_disabled":false,"rental_uris":{"android":"levelo://app?vid=f39e81d7-f19e-48a9-abe7-5ebc8393cf66","ios":"levelo://app?vid=f39e81d7-f19e-48a9-abe7-5ebc8393cf66"},"vehicle_type_id":"4","last_reported":1706724432,"current_range_meters":12800,"station_id":"ce4bht12rcd13ifvqi60","pricing_plan_id":"free"},{"bike_id":"3285b43b-c943-4df9-ac6d-5c94fdb9c40c","system_id":"levelo_inurba_marseille","lat":43.286039,"lon":5.370679,"is_reserved":false,"is_disabled":false,"rental_uris":{"android":"levelo://app?vid=3285b43b-c943-4df9-ac6d-5c94fdb9c40c","ios":"levelo://app?vid=3285b43b-c943-4df9-ac6d-5c94fdb9c40c"},"vehicle_type_id":"4","last_reported":1706724432,"current_range_meters":31600,"station_id":"ce4bht12rcd13ifvqi60","pricing_plan_id":"free"},{"bike_id":"e9d29f7d-df76-43e4-81dd-95826a749c6b","system_id":"levelo_inurba_marseille","lat":43.287185,"lon":5.379373,"is_reserved":false,"is_disabled":false,"rental_uris":{"android":"levelo://app?vid=e9d29f7d-df76-43e4-81dd-95826a749c6b","ios":"levelo://app?vid=e9d29f7d-df76-43e4-81dd-95826a749c6b"},"vehicle_type_id":"4","last_reported":1706724432,"current_range_meters":2400,"station_id":"ce4bh9p2rcd13ifvqec0","pricing_plan_id":"free"},{"bike_id":"00d076ac-d4ce-4aa4-a1d0-bb4aa96948f0","system_id":"levelo_inurba_marseille","lat":43.287185,"lon":5.379373,"is_reserved":false,"is_disabled":false,"rental_uris":{"android":"levelo://app?vid=00d076ac-d4ce-4aa4-a1d0-bb4aa96948f0","ios":"levelo://app?vid=00d076ac-d4ce-4aa4-a1d0-bb4aa96948f0"},"vehicle_type_id":"4","last_reported":1706724432,"current_range_meters":2000,"station_id":"ce4bh9p2rcd13ifvqec0","pricing_plan_id":"free"},{"bike_id":"1db26e94-9fd4-4c7c-bc40-732903c52862","system_id":"levelo_inurba_marseille","lat":43.28709,"lon":5.37943,"is_reserved":false,"is_disabled":false,"rental_uris":{"android":"levelo://app?vid=1db26e94-9fd4-4c7c-bc40-732903c52862","ios":"levelo://app?vid=1db26e94-9fd4-4c7c-bc40-732903c52862"},"vehicle_type_id":"4","last_reported":1706724432,"current_range_meters":29200,"station_id":"ce4bh9p2rcd13ifvqec0","pricing_plan_id":"free"},{"bike_id":"b06ebad0-b81d-4330-ba3a-33ae9a0df119","system_id":"levelo_inurba_marseille","lat":43.31708,"lon":5.40466,"is_reserved":false,"is_disabled":false,"rental_uris":{"android":"levelo://app?vid=b06ebad0-b81d-4330-ba3a-33ae9a0df119","ios":"levelo://app?vid=b06ebad0-b81d-4330-ba3a-33ae9a0df119"},"vehicle_type_id":"4","last_reported":1706724432,"current_range_meters":0,"station_id":"ce4bh012rcd13ifvqd00","pricing_plan_id":"free"},{"bike_id":"66b95509-7dd3-4dba-9f53-ea4eeb3b2c85","system_id":"levelo_inurba_marseille","lat":43.316821,"lon":5.404737,"is_reserved":false,"is_disabled":false,"rental_uris":{"android":"levelo://app?vid=66b95509-7dd3-4dba-9f53-ea4eeb3b2c85","ios":"levelo://app?vid=66b95509-7dd3-4dba-9f53-ea4eeb3b2c85"},"vehicle_type_id":"4","last_reported":1706724432,"current_range_meters":4000,"station_id":"ce4bh012rcd13ifvqd00","pricing_plan_id":"free"},{"bike_id":"dd85450c-6853-4041-a222-e57f0120bb79","system_id":"levelo_inurba_marseille","lat":43.291994,"lon":5.392907,"is_reserved":false,"is_disabled":false,"rental_uris":{"android":"levelo://app?vid=dd85450c-6853-4041-a222-e57f0120bb79","ios":"levelo://app?vid=dd85450c-6853-4041-a222-e57f0120bb79"},"vehicle_type_id":"4","last_reported":1706724432,"current_range_meters":22800,"station_id":"ce4bh192rcd13ifvqdd0","pricing_plan_id":"free"},{"bike_id":"dab90844-fd52-4b29-a651-9d7990c77576","system_id":"levelo_inurba_marseille","lat":43.291994,"lon":5.392907,"is_reserved":false,"is_disabled":false,"rental_uris":{"android":"levelo://app?vid=dab90844-fd52-4b29-a651-9d7990c77576","ios":"levelo://app?vid=dab90844-fd52-4b29-a651-9d7990c77576"},"vehicle_type_id":"4","last_reported":1706724432,"current_range_meters":22800,"station_id":"ce4bh192rcd13ifvqdd0","pricing_plan_id":"free"},{"bike_id":"5b084601-1cf9-452f-83c7-15dcf2253b0e","system_id":"levelo_inurba_marseille","lat":43.284538,"lon":5.358657,"is_reserved":false,"is_disabled":false,"rental_uris":{"android":"levelo://app?vid=5b084601-1cf9-452f-83c7-15dcf2253b0e","ios":"levelo://app?vid=5b084601-1cf9-452f-83c7-15dcf2253b0e"},"vehicle_type_id":"4","last_reported":1706724432,"current_range_meters":12400,"station_id":"ce4bhah2rcd13ifvqei0","pricing_plan_id":"free"},{"bike_id":"5da3ceb5-4ecd-49ac-bd6b-5926a78da9e0","system_id":"levelo_inurba_marseille","lat":43.28465,"lon":5.35885,"is_reserved":false,"is_disabled":false,"rental_uris":{"android":"levelo://app?vid=5da3ceb5-4ecd-49ac-bd6b-5926a78da9e0","ios":"levelo://app?vid=5da3ceb5-4ecd-49ac-bd6b-5926a78da9e0"},"vehicle_type_id":"4","last_reported":1706724432,"current_range_meters":3200,"station_id":"ce4bhah2rcd13ifvqei0","pricing_plan_id":"free"},{"bike_id":"aa29293e-437d-409b-8a78-8bb11533f9e8","system_id":"levelo_inurba_marseille","lat":43.28463,"lon":5.35893,"is_reserved":false,"is_disabled":false,"rental_uris":{"android":"levelo://app?vid=aa29293e-437d-409b-8a78-8bb11533f9e8","ios":"levelo://app?vid=aa29293e-437d-409b-8a78-8bb11533f9e8"},"vehicle_type_id":"4","last_reported":1706724432,"current_range_meters":0,"station_id":"ce4bhah2rcd13ifvqei0","pricing_plan_id":"free"},{"bike_id":"2d36f33f-dbf9-4875-8ab9-2cdd8dfc2309","system_id":"levelo_inurba_marseille","lat":43.284538,"lon":5.358657,"is_reserved":false,"is_disabled":false,"rental_uris":{"android":"levelo://app?vid=2d36f33f-dbf9-4875-8ab9-2cdd8dfc2309","ios":"levelo://app?vid=2d36f33f-dbf9-4875-8ab9-2cdd8dfc2309"},"vehicle_type_id":"4","last_reported":1706724432,"current_range_meters":0,"station_id":"ce4bhah2rcd13ifvqei0","pricing_plan_id":"free"},{"bike_id":"8ace6342-3010-4aad-a715-3c2ebc3fdf71","system_id":"levelo_inurba_marseille","lat":43.284593,"lon":5.358877,"is_reserved":false,"is_disabled":false,"rental_uris":{"android":"levelo://app?vid=8ace6342-3010-4aad-a715-3c2ebc3fdf71","ios":"levelo://app?vid=8ace6342-3010-4aad-a715-3c2ebc3fdf71"},"vehicle_type_id":"4","last_reported":1706724432,"current_range_meters":6800,"station_id":"ce4bhah2rcd13ifvqei0","pricing_plan_id":"free"},{"bike_id":"620160d6-fda2-4466-9778-913ab5080656","system_id":"levelo_inurba_marseille","lat":43.284592,"lon":5.358872,"is_reserved":false,"is_disabled":false,"rental_uris":{"android":"levelo://app?vid=620160d6-fda2-4466-9778-913ab5080656","ios":"levelo://app?vid=620160d6-fda2-4466-9778-913ab5080656"},"vehicle_type_id":"4","last_reported":1706724432,"current_range_meters":10000,"station_id":"ce4bhah2rcd13ifvqei0","pricing_plan_id":"free"},{"bike_id":"ff48841d-199b-47ab-bdd1-b64e270eff69","system_id":"levelo_inurba_marseille","lat":43.294314,"lon":5.397498,"is_reserved":false,"is_disabled":false,"rental_uris":{"android":"levelo://app?vid=ff48841d-199b-47ab-bdd1-b64e270eff69","ios":"levelo://app?vid=ff48841d-199b-47ab-bdd1-b64e270eff69"},"vehicle_type_id":"4","last_reported":1706724432,"current_range_meters":25200,"station_id":"ce4bh3h2rcd13ifvqdo0","pricing_plan_id":"free"},{"bike_id":"1bcef8c1-2eae-41fe-b794-02f30ba1463b","system_id":"levelo_inurba_marseille","lat":43.295713,"lon":5.399639,"is_reserved":false,"is_disabled":false,"rental_uris":{"android":"levelo://app?vid=1bcef8c1-2eae-41fe-b794-02f30ba1463b","ios":"levelo://app?vid=1bcef8c1-2eae-41fe-b794-02f30ba1463b"},"vehicle_type_id":"4","last_reported":1706724432,"current_range_meters":10800,"station_id":"ce4bh312rcd13ifvqdj0","pricing_plan_id":"free"},