{"last_updated":1766185891,"ttl":60,"version":"2.2","data":{"bikes":[{"bike_id":"3cde007c-a409-4597-91e7-ca2461274ad1","system_id":"levelo_inurba_marseille","lat":43.26566,"lon":5.40197,"is_reserved":false,"is_disabled":false,"rental_uris":{"android":"levelo://app?vid=3cde007c-a409-4597-91e7-ca2461274ad1","ios":"levelo://app?vid=3cde007c-a409-4597-91e7-ca2461274ad1"},"vehicle_type_id":"4","last_reported":1766185891,"current_range_meters":2800,"station_id":"","pricing_plan_id":"cebpf4jnsgd1na2vs0mg"},{"bike_id":"cf110137-2c27-41bc-ab34-724e43c33a1a","system_id":"levelo_inurba_marseille","lat":43.2834,"lon":5.38121,"is_reserved":false,"is_disabled":false,"rental_uris":{"android":"levelo://app?vid=cf110137-2c27-41bc-ab34-724e43c33a1a","ios":"levelo://app?vid=cf110137-2c27-41bc-ab34-724e43c33a1a"},"vehicle_type_id":"4","last_reported":1766185891,"current_range_meters":2800,"station_id":"ce4bh412rcd13ifvqdr0","pricing_plan_id":"cebpf4jnsgd1na2vs0mg"},{"bike_id":"9e2df764-524d-4049-b2f4-7c3ca814317f","system_id":"levelo_inurba_marseille","lat":43.32083,"lon":5.36823,"is_reserved":false,"is_disabled":false,"rental_uris":{"android":"levelo://app?vid=9e2df764-524d-4049-b2f4-7c3ca814317f","ios":"levelo://app?vid=9e2df764-524d-4049-b2f4-7c3ca814317f"},"vehicle_type_id":"4","last_reported":1766185891,"current_range_meters":3200,"station_id":"ce4bhrh2rcd13ifvqhug","pricing_plan_id":"cebpf4jnsgd1na2vs0mg"},{"bike_id":"0f0ba93b-2f84-46c7-a059-9539de548098","system_id":"levelo_inurba_marseille","lat":43.3016,"lon":5.3807,"is_reserved":false,"is_disabled":false,"rental_uris":{"android":"levelo://app?vid=0f0ba93b-2f84-46c7-a059-9539de548098","ios":"levelo://app?vid=0f0ba93b-2f84-46c7-a059-9539de548098"},"vehicle_type_id":"4","last_reported":1766185891,"current_range_meters":3600,"station_id":"ce4bgjp2rcd13ifvqbh0","pricing_plan_id":"cebpf4jnsgd1na2vs0mg"},{"bike_id":"da18a3b0-ce97-43eb-b181-936e440b40e5","system_id":"levelo_inurba_marseille","lat":43.31697,"lon":5.40392,"is_reserved":false,"is_disabled":false,"rental_uris":{"android":"levelo://app?vid=da18a3b0-ce97-43eb-b181-936e440b40e5","ios":"levelo://app?vid=da18a3b0-ce97-43eb-b181-936e440b40e5"},"vehicle_type_id":"4","last_reported":1766185891,"current_range_meters":3600,"station_id":"","pricing_plan_id":"cebpf4jnsgd1na2vs0mg"},{"bike_id":"3f6d46e0-f23b-43b9-85f3-e2bf12e289ab","system_id":"levelo_inurba_marseille","lat":43.28615,"lon":5.35114,"is_reserved":false,"is_disabled":false,"rental_uris":{"android":"levelo://app?vid=3f6d46e0-f23b-43b9-85f3-e2bf12e289ab","ios":"levelo://app?vid=3f6d46e0-f23b-43b9-85f3-e2bf12e289ab"},"vehicle_type_id":"4","last_reported":1766185891,"current_range_meters":4000,"station_id":"ce4bhch2rcd13ifvqeug","pricing_plan_id":"cebpf4jnsgd1na2vs0mg"},{"bike_id":"40c51ff6-bcdf-4189-b2f9-53259a9dc236","system_id":"levelo_inurba_marseille","lat":43.28306,"lon":5.38919,"is_reserved":false,"is_disabled":true,"rental_uris":{"android":"levelo://app?vid=40c51ff6-bcdf-4189-b2f9-53259a9dc236","ios":"levelo://app?vid=40c51ff6-bcdf-4189-b2f9-53259a9dc236"},"vehicle_type_id":"4","last_reported":1766185891,"current_range_meters":4400,"station_id":"","pricing_plan_id":"cebpf4jnsgd1na2vs0mg"},{"bike_id":"ac41d71a-a0f6-4279-9736-0e05292c7bf3","system_id":"levelo_inurba_marseille","lat":43.29524,"lon":5.39035,"is_reserved":false,"is_disabled":false,"rental_uris":{"android":"levelo://app?vid=ac41d71a-a0f6-4279-9736-0e05292c7bf3","ios":"levelo://app?vid=ac41d71a-a0f6-4279-9736-0e05292c7bf3"},"vehicle_type_id":"4","last_reported":1766185891,"current_range_meters":4400,"station_id":"ce4bh3p2rcd13ifvqdp0","pricing_plan_id":"cebpf4jnsgd1na2vs0mg"},{"bike_id":"6924b67c-0229-42f6-9ec0-2d529bf4f889","system_id":"levelo_inurba_marseille","lat":43.2982,"lon":5.44067,"is_reserved":false,"is_disabled":false,"rental_uris":{"android":"levelo://app?vid=6924b67c-0229-42f6-9ec0-2d529bf4f889","ios":"levelo://app?vid=6924b67c-0229-42f6-9ec0-2d529bf4f889"},"vehicle_type_id":"4","last_reported":1766185891,"current_range_meters":4400,"station_id":"st_d3jp68qikq2c7381ktn0","pricing_plan_id":"cebpf4jnsgd1na2vs0mg"},{"bike_id":"3716e57b-8b58-48a8-acd4-e34ef480306e","system_id":"levelo_inurba_marseille","lat":43.28674,"lon":5.36358,"is_reserved":false,"is_disabled":false,"rental_uris":{"android":"levelo://app?vid=3716e57b-8b58-48a8-acd4-e34ef480306e","ios":"levelo://app?vid=3716e57b-8b58-48a8-acd4-e34ef480306e"},"vehicle_type_id":"4","last_reported":1766185891,"current_range_meters":4400,"station_id":"ce4bhah2rcd13ifvqej0","pricing_plan_id":"cebpf4jnsgd1na2vs0mg"},{"bike_id":"2086225a-a747-4f9f-9bfb-723b2da30c0e","system_id":"levelo_inurba_marseille","lat":43.24816,"lon":5.39632,"is_reserved":false,"is_disabled":false,"rental_uris":{"android":"levelo://app?vid=2086225a-a747-4f9f-9bfb-723b2da30c0e","ios":"levelo://app?vid=2086225a-a747-4f9f-9bfb-723b2da30c0e"},"vehicle_type_id":"4","last_reported":1766185891,"current_range_meters":4400,"station_id":"","pricing_plan_id":"cebpf4jnsgd1na2vs0mg"},{"bike_id":"a9d8ede2-19f6-4ee3-b723-05670f44aadc","system_id":"levelo_inurba_marseille","lat":43.29803,"lon":5.40386,"is_reserved":false,"is_disabled":false,"rental_uris":{"android":"levelo://app?vid=a9d8ede2-19f6-4ee3-b723-05670f44aadc","ios":"levelo://app?vid=a9d8ede2-19f6-4ee3-b723-05670f44aadc"},"vehicle_type_id":"4","last_reported":1766185891,"current_range_meters":4800,"station_id":"ce4bh112rcd13ifvqd90","pricing_plan_id":"cebpf4jnsgd1na2vs0mg"},{"bike_id":"467517c8-ed87-4e02-bef8-4ed63963538d","system_id":"levelo_inurba_marseille","lat":43.271837,"lon":5.409981,"is_reserved":false,"is_disabled":true,"rental_uris":{"android":"levelo://app?vid=467517c8-ed87-4e02-bef8-4ed63963538d","ios":"levelo://app?vid=467517c8-ed87-4e02-bef8-4ed63963538d"},"vehicle_type_id":"4","last_reported":1766185891,"current_range_meters":4800,"station_id":"ce4bhl12rcd13ifvqgf0","pricing_plan_id":"cebpf4jnsgd1na2vs0mg"},{"bike_id":"dc35b912-8b94-45e3-b9b0-01a84973c768","system_id":"levelo_inurba_marseille","lat":43.269354,"lon":5.389203,"is_reserved":false,"is_disabled":false,"rental_uris":{"android":"levelo://app?vid=dc35b912-8b94-45e3-b9b0-01a84973c768","ios":"levelo://app?vid=dc35b912-8b94-45e3-b9b0-01a84973c768"},"vehicle_type_id":"4","last_reported":1766185891,"current_range_meters":4800,"station_id":"ce4bhhh2rcd13ifvqfl0","pricing_plan_id":"cebpf4jnsgd1na2vs0mg"},{"bike_id":"1643c512-ae4c-4b85-87df-a6f746ce8558","system_id":"levelo_inurba_marseille","lat":43.34141,"lon":5.40898,"is_reserved":false,"is_disabled":false,"rental_uris":{"android":"levelo://app?vid=1643c512-ae4c-4b85-87df-a6f746ce8558","ios":"levelo://app?vid=1643c512-ae4c-4b85-87df-a6f746ce8558"},"vehicle_type_id":"4","last_reported":1766185891,"current_range_meters":5600,"station_id":"ce4bhqh2rcd13ifvqhlg","pricing_plan_id":"cebpf4jnsgd1na2vs0mg"},{"bike_id":"e09a9c2b-86ec-4cbf-9a9a-c3cdb50c5d71","system_id":"levelo_inurba_marseille","lat":43.27212,"lon":5.39188,"is_reserved":false,"is_disabled":false,"rental_uris":{"android":"levelo://app?vid=e09a9c2b-86ec-4cbf-9a9a-c3cdb50c5d71","ios":"levelo://app?vid=e09a9c2b-86ec-4cbf-9a9a-c3cdb50c5d71"},"vehicle_type_id":"4","last_reported":1766185891,"current_range_meters":5600,"station_id":"ce4bhhp2rcd13ifvqfm0","pricing_plan_id":"cebpf4jnsgd1na2vs0mg"},{"bike_id":"458614dc-8184-40b1-987d-eb24947c318e","system_id":"levelo_inurba_marseille","lat":43.286241,"lon":5.393272,"is_reserved":false,"is_disabled":false,"rental_uris":{"android":"levelo://app?vid=458614dc-8184-40b1-987d-eb24947c318e","ios":"levelo://app?vid=458614dc-8184-40b1-987d-eb24947c318e"},"vehicle_type_id":"4","last_reported":1766185891,"current_range_meters":6000,"station_id":"ce4bh292rcd13ifvqdg0","pricing_plan_id":"cebpf4jnsgd1na2vs0mg"},{"bike_id":"cf0e2dfe-8751-4251-bbd3-3ad00be9f3ad","system_id":"levelo_inurba_marseille","lat":43.28481,"lon":5.48395,"is_reserved":false,"is_disabled":false,"rental_uris":{"android":"levelo://app?vid=cf0e2dfe-8751-4251-bbd3-3ad00be9f3ad","ios":"levelo://app?vid=cf0e2dfe-8751-4251-bbd3-3ad00be9f3ad"},"vehicle_type_id":"4","last_reported":1766185891,"current_range_meters":6000,"station_id":"","pricing_plan_id":"cebpf4jnsgd1na2vs0mg"},{"bike_id":"649334de-4c95-4658-8e7d-e81851856940","system_id":"levelo_inurba_marseille","lat":43.27493,"lon":5.42446,"is_reserved":false,"is_disabled":false,"rental_uris":{"android":"levelo://app?vid=649334de-4c95-4658-8e7d-e81851856940","ios":"levelo://app?vid=649334de-4c95-4658-8e7d-e81851856940"},"vehicle_type_id":"4","last_reported":1766185891,"current_range_meters":6000,"station_id":"ce4bhn92rcd13ifvqgrg","pricing_plan_id":"cebpf4jnsgd1na2vs0mg"},{"bike_id":"daf4e466-6da6-4301-bc40-126ba493a358","system_id":"levelo_inurba_marseille","lat":43.30251,"lon":5.40074,"is_reserved":false,"is_disabled":false,"rental_uris":{"android":"levelo://app?vid=daf4e466-6da6-4301-bc40-126ba493a358","ios":"levelo://app?vid=daf4e466-6da6-4301-bc40-126ba493a358"},"vehicle_type_id":"4","last_reported":1766185891,"current_range_meters":6400,"station_id":"ce4bgvh2rcd13ifvqcs0","pricing_plan_id":"cebpf4jnsgd1na2vs0mg"},{"bike_id":"4a614ce4-d61c-499d-8955-0569e02f377b","system_id":"levelo_inurba_marseille","lat":43.27517,"lon":5.37267,"is_reserved":false,"is_disabled":false,"rental_uris":{"android":"levelo://app?vid=4a614ce4-d61c-499d-8955-0569e02f377b","ios":"levelo://app?vid=4a614ce4-d61c-499d-8955-0569e02f377b"},"vehicle_type_id":"4","last_reported":1766185891,"current_range_meters":6400,"station_id":"","pricing_plan_id":"cebpf4jnsgd1na2vs0mg"},{"bike_id":"1b5dbd7c-c63e-4ef4-99ed-0dfcb5187432","system_id":"levelo_inurba_marseille","lat":43.2902,"lon":5.38938,"is_reserved":false,"is_disabled":false,"rental_uris":{"android":"levelo://app?vid=1b5dbd7c-c63e-4ef4-99ed-0dfcb5187432","ios":"levelo://app?vid=1b5dbd7c-c63e-4ef4-99ed-0dfcb5187432"},"vehicle_type_id":"4","last_reported":1766185891,"current_range_meters":6400,"station_id":"","pricing_plan_id":"cebpf4jnsgd1na2vs0mg"},{"bike_id":"36e2e30c-331c-4425-a7b0-bcef0ceb5d91","system_id":"levelo_inurba_marseille","lat":43.2948,"lon":5.43321,"is_reserved":false,"is_disabled":false,"rental_uris":{"android":"levelo://app?vid=36e2e30c-331c-4425-a7b0-bcef0ceb5d91","ios":"levelo://app?vid=36e2e30c-331c-4425-a7b0-bcef0ceb5d91"},"vehicle_type_id":"4","last_reported":1766185891,"current_range_meters":6400,"station_id":"st_d3j5ugp08ojc73fj9d10","pricing_plan_id":"cebpf4jnsgd1na2vs0mg"},{"bike_id":"ace3bb70-80f1-4997-99cc-ed927c670e00","system_id":"levelo_inurba_marseille","lat":43.26525,"lon":5.37265,"is_reserved":false,"is_disabled":false,"rental_uris":{"android":"levelo://app?vid=ace3bb70-80f1-4997-99cc-ed927c670e00","ios":"levelo://app?vid=ace3bb70-80f1-4997-99cc-ed927c670e00"},"vehicle_type_id":"4","last_reported":1766185891,"current_range_meters":6400,"station_id":"","pricing_plan_id":"cebpf4jnsgd1na2vs0mg"},{"bike_id":"436e467e-3ef8-4484-b12e-82fd46509f97","system_id":"levelo_inurba_marseille","lat":43.23298,"lon":5.44391,"is_reserved":false,"is_disabled":false,"rental_uris":{"android":"levelo://app?vid=436e467e-3ef8-4484-b12e-82fd46509f97","ios":"levelo://app?vid=436e467e-3ef8-4484-b12e-82fd46509f97"},"vehicle_type_id":"4","last_reported":1766185891,"current_range_meters":6800,"station_id":"","pricing_plan_id":"cebpf4jnsgd1na2vs0mg"},{"bike_id":"6ae5c5d7-9508-4aff-bf6b-f54c64146479","system_id":"levelo_inurba_marseille","lat":43.29824,"lon":5.40547,"is_reserved":false,"is_disabled":false,"rental_uris":{"android":"levelo://app?vid=6ae5c5d7-9508-4aff-bf6b-f54c64146479","ios":"levelo://app?vid=6ae5c5d7-9508-4aff-bf6b-f54c64146479"},"vehicle_type_id":"4","last_reported":1766185891,"current_range_meters":6800,"station_id":"","pricing_plan_id":"cebpf4jnsgd1na2vs0mg"},{"bike_id":"5abe1518-edc8-43c8-a456-841d56e7c801","system_id":"levelo_inurba_marseille","lat":43.24083,"lon":5.37753,"is_reserved":false,"is_disabled":false,"rental_uris":{"android":"levelo://app?vid=5abe1518-edc8-43c8-a456-841d56e7c801","ios":"levelo://app?vid=5abe1518-edc8-43c8-a456-841d56e7c801"},"vehicle_type_id":"4","last_reported":1766185891,"current_range_meters":6800,"station_id":"ce4bhnp2rcd13ifvqgvg","pricing_plan_id":"cebpf4jnsgd1na2vs0mg"},{"bike_id":"60d6e0a5-0d7d-4a05-80f2-f8bc57d49907","system_id":"levelo_inurba_marseille","lat":43.28474,"lon":5.35901,"is_reserved":false,"is_disabled":false,"rental_uris":{"android":"levelo://app?vid=60d6e0a5-0d7d-4a05-80f2-f8bc57d49907","ios":"levelo://app?vid=60d6e0a5-0d7d-4a05-80f2-f8bc57d49907"},"vehicle_type_id":"4","last_reported":1766185891,"current_range_meters":6800,"station_id":"ce4bhah2rcd13ifvqei0","pricing_plan_id":"cebpf4jnsgd1na2vs0mg"},{"bike_id":"cb81b6fb-b6f3-467d-86a0-7103765f0eb3","system_id":"levelo_inurba_marseille","lat":43.248092,"lon":5.374652,"is_reserved":false,"is_disabled":false,"rental_uris":{"android":"levelo://app?vid=cb81b6fb-b6f3-467d-86a0-7103765f0eb3","ios":"levelo://app?vid=cb81b6fb-b6f3-467d-86a0-7103765f0eb3"},"vehicle_type_id":"4","last_reported":1766185891,"current_range_meters":6800,"station_id":"ce4bhgh2rcd13ifvqfb0","pricing_plan_id":"cebpf4jnsgd1na2vs0mg"},{"bike_id":"2d860b81-0081-47f0-80fb-7e4c62824916","system_id":"levelo_inurba_marseille","lat":43.30134,"lon":5.43108,"is_reserved":false,"is_disabled":false,"rental_uris":{"android":"levelo://app?vid=2d860b81-0081-47f0-80fb-7e4c62824916","ios":"levelo://app?vid=2d860b81-0081-47f0-80fb-7e4c62824916"},"vehicle_type_id":"4","last_reported":1766185891,"current_range_meters":7200,"station_id":"st_d3js3co5814s73ftftug","pricing_plan_id":"cebpf4jnsgd1na2vs0mg"},{"bike_id":"5df7b55b-dd19-40d3-99bb-4b6c44e98605","system_id":"levelo_inurba_marseille","lat":43.29797,"lon":5.40425,"is_reserved":false,"is_disabled":false,"rental_uris":{"android":"levelo://app?vid=5df7b55b-dd19-40d3-99bb-4b6c44e98605","ios":"levelo://app?vid=5df7b55b-dd19-40d3-99bb-4b6c44e98605"},"vehicle_type_id":"4","last_reported":1766185891,"current_range_meters":7200,"station_id":"ce4bh112rcd13ifvqd90","pricing_plan_id":"cebpf4jnsgd1na2vs0mg"},{"bike_id":"c5365846-c619-4f12-8c92-97c9f9725a15","system_id":"levelo_inurba_marseille","lat":43.29512,"lon":5.3794,"is_reserved":false,"is_disabled":false,"rental_uris":{"android":"levelo://app?vid=c5365846-c619-4f12-8c92-97c9f9725a15","ios":"levelo://app?vid=c5365846-c619-4f12-8c92-97c9f9725a15"},"vehicle_type_id":"4","last_reported":1766185891,"current_range_meters":7200,"station_id":"","pricing_plan_id":"cebpf4jnsgd1na2vs0mg"},{"bike_id":"03e4dca1-acaf-4bad-95d9-352b5bb50a79","system_id":"levelo_inurba_marseille","lat":43.29252,"lon":5.3838,"is_reserved":false,"is_disabled":false,"rental_uris":{"android":"levelo://app?vid=03e4dca1-acaf-4bad-95d9-352b5bb50a79","ios":"levelo://app?vid=03e4dca1-acaf-4bad-95d9-352b5bb50a79"},"vehicle_type_id":"4","last_reported":1766185891,"current_range_meters":7200,"station_id":"ce4bh692rcd13ifvqea0","pricing_plan_id":"cebpf4jnsgd1na2vs0mg"},{"bike_id":"e4b02c9d-c28f-40f6-a1ae-2d4355067cb5","system_id":"levelo_inurba_marseille","lat":43.30907,"lon":5.36845,"is_reserved":false,"is_disabled":false,"rental_uris":{"android":"levelo://app?vid=e4b02c9d-c28f-40f6-a1ae-2d4355067cb5","ios":"levelo://app?vid=e4b02c9d-c28f-40f6-a1ae-2d4355067cb5"},"vehicle_type_id":"4","last_reported":1766185891,"current_range_meters":8000,"station_id":"ce4bgn92rcd13ifvqbvg","pricing_plan_id":"cebpf4jnsgd1na2vs0mg"},{"bike_id":"83ab2c40-8a14-4cc3-a934-154fe465b750","system_id":"levelo_inurba_marseille","lat":43.30474,"lon":5.38925,"is_reserved":false,"is_disabled":false,"rental_uris":{"android":"levelo://app?vid=83ab2c40-8a14-4cc3-a934-154fe465b750","ios":"levelo://app?vid=83ab2c40-8a14-4cc3-a934-154fe465b750"},"vehicle_type_id":"4","last_reported":1766185891,"current_range_meters":8000,"station_id":"","pricing_plan_id":"cebpf4jnsgd1na2vs0mg"},{"bike_id":"1f8bf9e3-c9bd-4c05-9201-34f9580d25af","system_id":"levelo_inurba_marseille","lat":43.21193,"lon":5.35087,"is_reserved":false,"is_disabled":false,"rental_uris":{"android":"levelo://app?vid=1f8bf9e3-c9bd-4c05-9201-34f9580d25af","ios":"levelo://app?vid=1f8bf9e3-c9bd-4c05-9201-34f9580d25af"},"vehicle_type_id":"4","last_reported":1766185891,"current_range_meters":8000,"station_id":"st_cvj6sg6p6f1abm77japg","pricing_plan_id":"cebpf4jnsgd1na2vs0mg"},{"bike_id":"ee6f7e5c-24b4-4046-a3ec-072080785116","system_id":"levelo_inurba_marseille","lat":43.21746,"lon":5.34594,"is_reserved":false,"is_disabled":true,"rental_uris":{"android":"levelo://app?vid=ee6f7e5c-24b4-4046-a3ec-072080785116","ios":"levelo://app?vid=ee6f7e5c-24b4-4046-a3ec-072080785116"},"vehicle_type_id":"4","last_reported":1766185891,"current_range_meters":8000,"station_id":"st_cvj6r9ubvosntc0bgbag","pricing_plan_id":"cebpf4jnsgd1na2vs0mg"},{"bike_id":"c989796d-dcc1-4fc7-b147-6dbca1d74de3","system_id":"levelo_inurba_marseille","lat":43.28152,"lon":5.38344,"is_reserved":false,"is_disabled":false,"rental_uris":{"android":"levelo://app?vid=c989796d-dcc1-4fc7-b147-6dbca1d74de3","ios":"levelo://app?vid=c989796d-dcc1-4fc7-b147-6dbca1d74de3"},"vehicle_type_id":"4","last_reported":1766185891,"current_range_meters":8000,"station_id":"","pricing_plan_id":"cebpf4jnsgd1na2vs0mg"},{"bike_id":"f3a4c2fd-c27a-4ca6-bbe5-3949d2a88808","system_id":"levelo_inurba_marseille","lat":43.28571,"lon":5.42989,"is_reserved":false,"is_disabled":false,"rental_uris":{"android":"levelo://app?vid=f3a4c2fd-c27a-4ca6-bbe5-3949d2a88808","ios":"levelo://app?vid=f3a4c2fd-c27a-4ca6-bbe5-3949d2a88808"},"vehicle_type_id":"4","last_reported":1766185891,"current_range_meters":8000,"station_id":"","pricing_plan_id":"cebpf4jnsgd1na2vs0mg"},{"bike_id":"17a49efb-d179-4b85-b20c-4afe87c0613f","system_id":"levelo_inurba_marseille","lat":43.310699,"lon":5.371632,"is_reserved":false,"is_disabled":true,"rental_uris":{"android":"levelo://app?vid=17a49efb-d179-4b85-b20c-4afe87c0613f","ios":"levelo://app?vid=17a49efb-d179-4b85-b20c-4afe87c0613f"},"vehicle_type_id":"4","last_reported":1766185891,"current_range_meters":8000,"station_id":"st_d4kl2rp97mjs73e7tdfg","pricing_plan_id":"cebpf4jnsgd1na2vs0mg"},{"bike_id":"ca7678c2-c868-4872-9cd9-6f562a57b9d8","system_id":"levelo_inurba_marseille","lat":43.28335,"lon":5.38085,"is_reserved":false,"is_disabled":false,"rental_uris":{"android":"levelo://app?vid=ca7678c2-c868-4872-9cd9-6f562a57b9d8","ios":"levelo://app?vid=ca7678c2-c868-4872-9cd9-6f562a57b9d8"},"vehicle_type_id":"4","last_reported":1766185891,"current_range_meters":8000,"station_id":"ce4bh412rcd13ifvqdr0","pricing_plan_id":"cebpf4jnsgd1na2vs0mg"},{"bike_id":"323d151e-2f99-489e-bfb3-0b56b60cf062","system_id":"levelo_inurba_marseille","lat":43.27062,"lon":5.38341,"is_reserved":false,"is_disabled":false,"rental_uris":{"android":"levelo://app?vid=323d151e-2f99-489e-bfb3-0b56b60cf062","ios":"levelo://app?vid=323d151e-2f99-489e-bfb3-0b56b60cf062"},"vehicle_type_id":"4","last_reported":1766185891,"current_range_meters":8000,"station_id":"st_d3n2fo6cfp8s73cte1j0","pricing_plan_id":"cebpf4jnsgd1na2vs0mg"},{"bike_id":"374a0371-4968-4fe9-88a9-ac5ffa94b236","system_id":"levelo_inurba_marseille","lat":43.31468,"lon":5.45376,"is_reserved":false,"is_disabled":false,"rental_uris":{"android":"levelo://app?vid=374a0371-4968-4fe9-88a9-ac5ffa94b236","ios":"levelo://app?vid=374a0371-4968-4fe9-88a9-ac5ffa94b236"},"vehicle_type_id":"4","last_reported":1766185891,"current_range_meters":8000,"station_id":"","pricing_plan_id":"cebpf4jnsgd1na2vs0mg"},{"bike_id":"f53a3524-0925-40fa-ba5b-aa01632d8e15","system_id":"levelo_inurba_marseille","lat":43.30313,"lon":5.36886,"is_reserved":false,"is_disabled":false,"rental_uris":{"android":"levelo://app?vid=f53a3524-0925-40fa-ba5b-aa01632d8e15","ios":"levelo://app?vid=f53a3524-0925-40fa-ba5b-aa01632d8e15"},"vehicle_type_id":"4","last_reported":1766185891,"current_range_meters":8000,"station_id":"ce4bgqh2rcd13ifvqc5g","pricing_plan_id":"cebpf4jnsgd1na2vs0mg"},{"bike_id":"a6bb7fde-2db0-447e-8cac-38a0c3844ce6","system_id":"levelo_inurba_marseille","lat":43.27752,"lon":5.38829,"is_reserved":false,"is_disabled":false,"rental_uris":{"android":"levelo://app?vid=a6bb7fde-2db0-447e-8cac-38a0c3844ce6","ios":"levelo://app?vid=a6bb7fde-2db0-447e-8cac-38a0c3844ce6"},"vehicle_type_id":"4","last_reported":1766185891,"current_range_meters":8400,"station_id":"","pricing_plan_id":"cebpf4jnsgd1na2vs0mg"},{"bike_id":"42f3d177-2c64-42aa-9df9-a8c5fb0c9f28","system_id":"levelo_inurba_marseille","lat":43.25008,"lon":5.38937,"is_reserved":false,"is_disabled":false,"rental_uris":{"android":"levelo://app?vid=42f3d177-2c64-42aa-9df9-a8c5fb0c9f28","ios":"levelo://app?vid=42f3d177-2c64-42aa-9df9-a8c5fb0c9f28"},"vehicle_type_id":"4","last_reported":1766185891,"current_range_meters":8400,"station_id":"ce4bhgp2rcd13ifvqfd0","pricing_plan_id":"cebpf4jnsgd1na2vs0mg"},{"bike_id":"714733e6-34f0-4182-bde4-6c4cd4839db4","system_id":"levelo_inurba_marseille","lat":43.29785,"lon":5.39337,"is_reserved":false,"is_disabled":false,"rental_uris":{"android":"levelo://app?vid=714733e6-34f0-4182-bde4-6c4cd4839db4","ios":"levelo://app?vid=714733e6-34f0-4182-bde4-6c4cd4839db4"},"vehicle_type_id":"4","last_reported":1766185891,"current_range_meters":8400,"station_id":"chh1huq6cuj3fo74tm60","pricing_plan_id":"cebpf4jnsgd1na2vs0mg"},{"bike_id":"2a7ace86-79e3-414e-bec6-2f2ac2a70a88","system_id":"levelo_inurba_marseille","lat":43.25654,"lon":5.38644,"is_reserved":false,"is_disabled":false,"rental_uris":{"android":"levelo://app?vid=2a7ace86-79e3-414e-bec6-2f2ac2a70a88","ios":"levelo://app?vid=2a7ace86-79e3-414e-bec6-2f2ac2a70a88"},"vehicle_type_id":"4","last_reported":1766185891,"current_range_meters":8400,"station_id":"","pricing_plan_id":"cebpf4jnsgd1na2vs0mg"},{"bike_id":"da555a48-dfbf-401a-aed8-57741611d863","system_id":"levelo_inurba_marseille","lat":43.25825,"lon":5.39428,"is_reserved":false,"is_disabled":false,"rental_uris":{"android":"levelo://app?vid=da555a48-dfbf-401a-aed8-57741611d863","ios":"levelo://app?vid=da555a48-dfbf-401a-aed8-57741611d863"},"vehicle_type_id":"4","last_reported":1766185891,"current_range_meters":8800,"station_id":"ce4bhip2rcd13ifvqft0","pricing_plan_id":"cebpf4jnsgd1na2vs0mg"},{"bike_id":"e3274b93-485a-4dc0-9c57-cf084311a57a","system_id":"levelo_inurba_marseille","lat":43.33598,"lon":5.41007,"is_reserved":false,"is_disabled":false,"rental_uris":{"android":"levelo://app?vid=e3274b93-485a-4dc0-9c57-cf084311a57a","ios":"levelo://app?vid=e3274b93-485a-4dc0-9c57-cf084311a57a"},"vehicle_type_id":"4","last_reported":1766185891,"current_range_meters":8800,"station_id":"","pricing_plan_id":"cebpf4jnsgd1na2vs0mg"},{"bike_id":"e84d9385-0a7d-4bf7-99ed-b77bbc4ae04a","system_id":"levelo_inurba_marseille","lat":43.25089,"lon":5.39534,"is_reserved":false,"is_disabled":false,"rental_uris":{"android":"levelo://app?vid=e84d9385-0a7d-4bf7-99ed-b77bbc4ae04a","ios":"levelo://app?vid=e84d9385-0a7d-4bf7-99ed-b77bbc4ae04a"},"vehicle_type_id":"4","last_reported":1766185891,"current_range_meters":8800,"station_id":"ce4bhm12rcd13ifvqgkg","pricing_plan_id":"cebpf4jnsgd1na2vs0mg"},{"bike_id":"43b73d10-2c68-446f-a5e8-06f042e6a42a","system_id":"levelo_inurba_marseille","lat":43.25342,"lon":5.42184,"is_reserved":false,"is_disabled":false,"rental_uris":{"android":"levelo://app?vid=43b73d10-2c68-446f-a5e8-06f042e6a42a","ios":"levelo://app?vid=43b73d10-2c68-446f-a5e8-06f042e6a42a"},"vehicle_type_id":"4","last_reported":1766185891,"current_range_meters":8800,"station_id":"st_d2m65c5bi1j21697t3ng","pricing_plan_id":"cebpf4jnsgd1na2vs0mg"},{"bike_id":"48e30a46-3a61-4ed5-93c8-2b0ee8661bac","system_id":"levelo_inurba_marseille","lat":43.29891,"lon":5.37881,"is_reserved":false,"is_disabled":false,"rental_uris":{"android":"levelo://app?vid=48e30a46-3a61-4ed5-93c8-2b0ee8661bac","ios":"levelo://app?vid=48e30a46-3a61-4ed5-93c8-2b0ee8661bac"},"vehicle_type_id":"4","last_reported":1766185891,"current_range_meters":8800,"station_id":"","pricing_plan_id":"cebpf4jnsgd1na2vs0mg"},{"bike_id":"b77184a7-be10-4111-83c2-ca75b86c1b80","system_id":"levelo_inurba_marseille","lat":43.297,"lon":5.3773,"is_reserved":false,"is_disabled":false,"rental_uris":{"android":"levelo://app?vid=b77184a7-be10-4111-83c2-ca75b86c1b80","ios":"levelo://app?vid=b77184a7-be10-4111-83c2-ca75b86c1b80"},"vehicle_type_id":"4","last_reported":1766185891,"current_range_meters":8800,"station_id":"","pricing_plan_id":"cebpf4jnsgd1na2vs0mg"},{"bike_id":"109cbf23-51e0-43a6-9769-d5aa2dfd9f5f","system_id":"levelo_inurba_marseille","lat":43.3048,"lon":5.37908,"is_reserved":false,"is_disabled":false,"rental_uris":{"android":"levelo://app?vid=109cbf23-51e0-43a6-9769-d5aa2dfd9f5f","ios":"levelo://app?vid=109cbf23-51e0-43a6-9769-d5aa2dfd9f5f"},"vehicle_type_id":"4","last_reported":1766185891,"current_range_meters":8800,"station_id":"ce4bgup2rcd13ifvqcn0","pricing_plan_id":"cebpf4jnsgd1na2vs0mg"},{"bike_id":"92759241-3c39-493b-8cd6-5f7c49d05eab","system_id":"levelo_inurba_marseille","lat":43.295984,"lon":5.380953,"is_reserved":false,"is_disabled":false,"rental_uris":{"android":"levelo://app?vid=92759241-3c39-493b-8cd6-5f7c49d05eab","ios":"levelo://app?vid=92759241-3c39-493b-8cd6-5f7c49d05eab"},"vehicle_type_id":"4","last_reported":1766185891,"current_range_meters":9200,"station_id":"ce4bgl12rcd13ifvqbo0","pricing_plan_id":"cebpf4jnsgd1na2vs0mg"},{"bike_id":"8d46c75b-8169-4cdf-9076-8d7be2a35c56","system_id":"levelo_inurba_marseille","lat":43.31716,"lon":5.4045,"is_reserved":false,"is_disabled":false,"rental_uris":{"android":"levelo://app?vid=8d46c75b-8169-4cdf-9076-8d7be2a35c56","ios":"levelo://app?vid=8d46c75b-8169-4cdf-9076-8d7be2a35c56"},"vehicle_type_id":"4","last_reported":1766185891,"current_range_meters":9200,"station_id":"ce4bh012rcd13ifvqd00","pricing_plan_id":"cebpf4jnsgd1na2vs0mg"},{"bike_id":"72c0f9e7-8d77-4f38-92a2-6febbd80bb80","system_id":"levelo_inurba_marseille","lat":43.26691,"lon":5.38277,"is_reserved":false,"is_disabled":false,"rental_uris":{"android":"levelo://app?vid=72c0f9e7-8d77-4f38-92a2-6febbd80bb80","ios":"levelo://app?vid=72c0f9e7-8d77-4f38-92a2-6febbd80bb80"},"vehicle_type_id":"4","last_reported":1766185891,"current_range_meters":9200,"station_id":"ce4bhg92rcd13ifvqf90","pricing_plan_id":"cebpf4jnsgd1na2vs0mg"},{"bike_id":"ea42a270-3b7e-4605-a2c3-58de8f8d1765","system_id":"levelo_inurba_marseille","lat":43.29033,"lon":5.38635,"is_reserved":false,"is_disabled":false,"rental_uris":{"android":"levelo://app?vid=ea42a270-3b7e-4605-a2c3-58de8f8d1765","ios":"levelo://app?vid=ea42a270-3b7e-4605-a2c3-58de8f8d1765"},"vehicle_type_id":"4","last_reported":1766185891,"current_range_meters":9200,"station_id":"ce4bh4p2rcd13ifvqe0g","pricing_plan_id":"cebpf4jnsgd1na2vs0mg"},{"bike_id":"94a7711a-c287-4efc-8aa7-00f63cdb3e1d","system_id":"levelo_inurba_marseille","lat":43.26574,"lon":5.37287,"is_reserved":false,"is_disabled":true,"rental_uris":{"android":"levelo://app?vid=94a7711a-c287-4efc-8aa7-00f63cdb3e1d","ios":"levelo://app?vid=94a7711a-c287-4efc-8aa7-00f63cdb3e1d"},"vehicle_type_id":"4","last_reported":1766185891,"current_range_meters":9200,"station_id":"ce4bhg12rcd13ifvqf70","pricing_plan_id":"cebpf4jnsgd1na2vs0mg"},{"bike_id":"2e0f4d82-421e-473d-a4c5-ba48724f71ca","system_id":"levelo_inurba_marseille","lat":43.24627,"lon":5.43162,"is_reserved":false,"is_disabled":false,"rental_uris":{"android":"levelo://app?vid=2e0f4d82-421e-473d-a4c5-ba48724f71ca","ios":"levelo://app?vid=2e0f4d82-421e-473d-a4c5-ba48724f71ca"},"vehicle_type_id":"4","last_reported":1766185891,"current_range_meters":9200,"station_id":"st_d2m6c4gdas8pm72e190g","pricing_plan_id":"cebpf4jnsgd1na2vs0mg"},{"bike_id":"700442f5-a082-454e-8bc7-ab3bbb77bfce","system_id":"levelo_inurba_marseille","lat":43.26655,"lon":5.3744,"is_reserved":false,"is_disabled":false,"rental_uris":{"android":"levelo://app?vid=700442f5-a082-454e-8bc7-ab3bbb77bfce","ios":"levelo://app?vid=700442f5-a082-454e-8bc7-ab3bbb77bfce"},"vehicle_type_id":"4","last_reported":1766185891,"current_range_meters":9200,"station_id":"","pricing_plan_id":"cebpf4jnsgd1na2vs0mg"},{"bike_id":"305412fd-41fd-4f48-b0ce-d25b5a7eb63f","system_id":"levelo_inurba_marseille","lat":43.32549,"lon":5.38915,"is_reserved":false,"is_disabled":false,"rental_uris":{"android":"levelo://app?vid=305412fd-41fd-4f48-b0ce-d25b5a7eb63f","ios":"levelo://app?vid=305412fd-41fd-4f48-b0ce-d25b5a7eb63f"},"vehicle_type_id":"4","last_reported":1766185891,"current_range_meters":9600,"station_id":"","pricing_plan_id":"cebpf4jnsgd1na2vs0mg"},{"bike_id":"1c79eb29-135e-40c1-8651-901759d4aaa6","system_id":"levelo_inurba_marseille","lat":43.28564,"lon":5.3529,"is_reserved":false,"is_disabled":false,"rental_uris":{"android":"levelo://app?vid=1c79eb29-135e-40c1-8651-901759d4aaa6","ios":"levelo://app?vid=1c79eb29-135e-40c1-8651-901759d4aaa6"},"vehicle_type_id":"4","last_reported":1766185891,"current_range_meters":9600,"station_id":"","pricing_plan_id":"cebpf4jnsgd1na2vs0mg"},{"bike_id":"b3af5914-3150-4b1b-b7e0-4d8dc07e4895","system_id":"levelo_inurba_marseille","lat":43.27948,"lon":5.41047,"is_reserved":false,"is_disabled":false,"rental_uris":{"android":"levelo://app?vid=b3af5914-3150-4b1b-b7e0-4d8dc07e4895","ios":"levelo://app?vid=b3af5914-3150-4b1b-b7e0-4d8dc07e4895"},"vehicle_type_id":"4","last_reported":1766185891,"current_range_meters":9600,"station_id":"ce4bhnp2rcd13ifvqh0g","pricing_plan_id":"cebpf4jnsgd1na2vs0mg"},{"bike_id":"22427a63-f3ec-4b99-836b-262688f03dbd","system_id":"levelo_inurba_marseille","lat":43.30675,"lon":5.40075,"is_reserved":false,"is_disabled":false,"rental_uris":{"android":"levelo://app?vid=22427a63-f3ec-4b99-836b-262688f03dbd","ios":"levelo://app?vid=22427a63-f3ec-4b99-836b-262688f03dbd"},"vehicle_type_id":"4","last_reported":1766185891,"current_range_meters":9600,"station_id":"ce4bh112rcd13ifvqda0","pricing_plan_id":"cebpf4jnsgd1na2vs0mg"},{"bike_id":"51850788-6d18-4067-a22e-183a3dbd8b5e","system_id":"levelo_inurba_marseille","lat":43.28614,"lon":5.35103,"is_reserved":false,"is_disabled":false,"rental_uris":{"android":"levelo://app?vid=51850788-6d18-4067-a22e-183a3dbd8b5e","ios":"levelo://app?vid=51850788-6d18-4067-a22e-183a3dbd8b5e"},"vehicle_type_id":"4","last_reported":1766185891,"current_range_meters":9600,"station_id":"ce4bhch2rcd13ifvqeug","pricing_plan_id":"cebpf4jnsgd1na2vs0mg"},{"bike_id":"ef7b9373-df73-4bf3-b00b-b3c2306b7428","system_id":"levelo_inurba_marseille","lat":43.24179,"lon":5.39716,"is_reserved":false,"is_disabled":false,"rental_uris":{"android":"levelo://app?vid=ef7b9373-df73-4bf3-b00b-b3c2306b7428","ios":"levelo://app?vid=ef7b9373-df73-4bf3-b00b-b3c2306b7428"},"vehicle_type_id":"4","last_reported":1766185891,"current_range_meters":9600,"station_id":"ce4bhn12rcd13ifvqgpg","pricing_plan_id":"cebpf4jnsgd1na2vs0mg"},{"bike_id":"ab0d50a6-559b-4ce2-b4b3-0b4a6d90a626","system_id":"levelo_inurba_marseille","lat":43.30167,"lon":5.39866,"is_reserved":false,"is_disabled":false,"rental_uris":{"android":"levelo://app?vid=ab0d50a6-559b-4ce2-b4b3-0b4a6d90a626","ios":"levelo://app?vid=ab0d50a6-559b-4ce2-b4b3-0b4a6d90a626"},"vehicle_type_id":"4","last_reported":1766185891,"current_range_meters":10000,"station_id":"ce4bh0h2rcd13ifvqd40","pricing_plan_id":"cebpf4jnsgd1na2vs0mg"},{"bike_id":"fcae12e9-dde1-430e-95a7-f5567d679aa5","system_id":"levelo_inurba_marseille","lat":43.29258,"lon":5.38428,"is_reserved":false,"is_disabled":true,"rental_uris":{"android":"levelo://app?vid=fcae12e9-dde1-430e-95a7-f5567d679aa5","ios":"levelo://app?vid=fcae12e9-dde1-430e-95a7-f5567d679aa5"},"vehicle_type_id":"4","last_reported":1766185891,"current_range_meters":10000,"station_id":"ce4bh692rcd13ifvqea0","pricing_plan_id":"cebpf4jnsgd1na2vs0mg"},{"bike_id":"9bf89e5f-aaa6-4ccd-bcf3-970eda9694d1","system_id":"levelo_inurba_marseille","lat":43.337444,"lon":5.374475,"is_reserved":false,"is_disabled":false,"rental_uris":{"android":"levelo://app?vid=9bf89e5f-aaa6-4ccd-bcf3-970eda9694d1","ios":"levelo://app?vid=9bf89e5f-aaa6-4ccd-bcf3-970eda9694d1"},"vehicle_type_id":"4","last_reported":1766185891,"current_range_meters":10000,"station_id":"ce4bgv92rcd13ifvqcq0","pricing_plan_id":"cebpf4jnsgd1na2vs0mg"},{"bike_id":"38df2fd9-96c2-46a4-8b43-f60147b98b19","system_id":"levelo_inurba_marseille","lat":43.2962,"lon":5.38108,"is_reserved":false,"is_disabled":false,"rental_uris":{"android":"levelo://app?vid=38df2fd9-96c2-46a4-8b43-f60147b98b19","ios":"levelo://app?vid=38df2fd9-96c2-46a4-8b43-f60147b98b19"},"vehicle_type_id":"4","last_reported":1766185891,"current_range_meters":10000,"station_id":"ce4bgl12rcd13ifvqbo0","pricing_plan_id":"cebpf4jnsgd1na2vs0mg"},{"bike_id":"2804a5d3-faa8-4e3b-a458-ce91cd4919af","system_id":"levelo_inurba_marseille","lat":43.29231,"lon":5.36067,"is_reserved":false,"is_disabled":false,"rental_uris":{"android":"levelo://app?vid=2804a5d3-faa8-4e3b-a458-ce91cd4919af","ios":"levelo://app?vid=2804a5d3-faa8-4e3b-a458-ce91cd4919af"},"vehicle_type_id":"4","last_reported":1766185891,"current_range_meters":10000,"station_id":"ce4bhbh2rcd13ifvqeqg","pricing_plan_id":"cebpf4jnsgd1na2vs0mg"},{"bike_id":"2c6c0ef6-0bf3-4f94-aab2-eb7b06747719","system_id":"levelo_inurba_marseille","lat":43.272107,"lon":5.391673,"is_reserved":false,"is_disabled":false,"rental_uris":{"android":"levelo://app?vid=2c6c0ef6-0bf3-4f94-aab2-eb7b06747719","ios":"levelo://app?vid=2c6c0ef6-0bf3-4f94-aab2-eb7b06747719"},"vehicle_type_id":"4","last_reported":1766185891,"current_range_meters":10000,"station_id":"ce4bh0h2rcd13ifvqd60","pricing_plan_id":"cebpf4jnsgd1na2vs0mg"},{"bike_id":"cdc226a2-5450-465b-9210-146eb2309e95","system_id":"levelo_inurba_marseille","lat":43.31528,"lon":5.38041,"is_reserved":false,"is_disabled":false,"rental_uris":{"android":"levelo://app?vid=cdc226a2-5450-465b-9210-146eb2309e95","ios":"levelo://app?vid=cdc226a2-5450-465b-9210-146eb2309e95"},"vehicle_type_id":"4","last_reported":1766185891,"current_range_meters":10000,"station_id":"ce4bhsp2rcd13ifvqi50","pricing_plan_id":"cebpf4jnsgd1na2vs0mg"},{"bike_id":"8904b4bb-56aa-4c10-9b41-090bb0962df2","system_id":"levelo_inurba_marseille","lat":43.27579,"lon":5.3995,"is_reserved":false,"is_disabled":false,"rental_uris":{"android":"levelo://app?vid=8904b4bb-56aa-4c10-9b41-090bb0962df2","ios":"levelo://app?vid=8904b4bb-56aa-4c10-9b41-090bb0962df2"},"vehicle_type_id":"4","last_reported":1766185891,"current_range_meters":10000,"station_id":"","pricing_plan_id":"cebpf4jnsgd1na2vs0mg"},{"bike_id":"ef1b9967-bf99-45fc-9f01-026b3f031813","system_id":"levelo_inurba_marseille","lat":43.28888,"lon":5.35395,"is_reserved":false,"is_disabled":false,"rental_uris":{"android":"levelo://app?vid=ef1b9967-bf99-45fc-9f01-026b3f031813","ios":"levelo://app?vid=ef1b9967-bf99-45fc-9f01-026b3f031813"},"vehicle_type_id":"4","last_reported":1766185891,"current_range_meters":10000,"station_id":"ce4bhch2rcd13ifvqeug","pricing_plan_id":"cebpf4jnsgd1na2vs0mg"},{"bike_id":"fd2b7d18-a481-450d-ba7e-f64474c4d754","system_id":"levelo_inurba_marseille","lat":43.28777,"lon":5.387437,"is_reserved":false,"is_disabled":false,"rental_uris":{"android":"levelo://app?vid=fd2b7d18-a481-450d-ba7e-f64474c4d754","ios":"levelo://app?vid=fd2b7d18-a481-450d-ba7e-f64474c4d754"},"vehicle_type_id":"4","last_reported":1766185891,"current_range_meters":10000,"station_id":"","pricing_plan_id":"cebpf4jnsgd1na2vs0mg"},{"bike_id":"81cdd19c-9eb0-4b68-8437-f268e3e9b7c5","system_id":"levelo_inurba_marseille","lat":43.26492,"lon":5.39571,"is_reserved":false,"is_disabled":false,"rental_uris":{"android":"levelo://app?vid=81cdd19c-9eb0-4b68-8437-f268e3e9b7c5","ios":"levelo://app?vid=81cdd19c-9eb0-4b68-8437-f268e3e9b7c5"},"vehicle_type_id":"4","last_reported":1766185891,"current_range_meters":10800,"station_id":"ce4bhi12rcd13ifvqfq0","pricing_plan_id":"cebpf4jnsgd1na2vs0mg"},{"bike_id":"6cb74e32-ec6a-45dd-9113-6f2f1aa8ca4f","system_id":"levelo_inurba_marseille","lat":43.29582,"lon":5.39969,"is_reserved":false,"is_disabled":false,"rental_uris":{"android":"levelo://app?vid=6cb74e32-ec6a-45dd-9113-6f2f1aa8ca4f","ios":"levelo://app?vid=6cb74e32-ec6a-45dd-9113-6f2f1aa8ca4f"},"vehicle_type_id":"4","last_reported":1766185891,"current_range_meters":10800,"station_id":"ce4bh312rcd13ifvqdj0","pricing_plan_id":"cebpf4jnsgd1na2vs0mg"},{"bike_id":"128f68df-e6c8-471d-bf6e-3a9c347712de","system_id":"levelo_inurba_marseille","lat":43.29234,"lon":5.40898,"is_reserved":false,"is_disabled":false,"rental_uris":{"android":"levelo://app?vid=128f68df-e6c8-471d-bf6e-3a9c347712de","ios":"levelo://app?vid=128f68df-e6c8-471d-bf6e-3a9c347712de"},"vehicle_type_id":"4","last_reported":1766185891,"current_range_meters":10800,"station_id":"ce4bh192rcd13ifvqdc0","pricing_plan_id":"cebpf4jnsgd1na2vs0mg"},{"bike_id":"a1fd8253-edff-49f6-95c0-f7c7da314418","system_id":"levelo_inurba_marseille","lat":43.29797,"lon":5.39351,"is_reserved":false,"is_disabled":false,"rental_uris":{"android":"levelo://app?vid=a1fd8253-edff-49f6-95c0-f7c7da314418","ios":"levelo://app?vid=a1fd8253-edff-49f6-95c0-f7c7da314418"},"vehicle_type_id":"4","last_reported":1766185891,"current_range_meters":10800,"station_id":"chh1huq6cuj3fo74tm60","pricing_plan_id":"cebpf4jnsgd1na2vs0mg"},{"bike_id":"0792b884-26df-417f-8d22-567bf0d2088d","system_id":"levelo_inurba_marseille","lat":43.30374,"lon":5.42488,"is_reserved":false,"is_disabled":false,"rental_uris":{"android":"levelo://app?vid=0792b884-26df-417f-8d22-567bf0d2088d","ios":"levelo://app?vid=0792b884-26df-417f-8d22-567bf0d2088d"},"vehicle_type_id":"4","last_reported":1766185891,"current_range_meters":10800,"station_id":"ce4bhoh2rcd13ifvqh6g","pricing_plan_id":"cebpf4jnsgd1na2vs0mg"},{"bike_id":"67486f1b-a40b-4e91-8dc3-2d661fa8d1bb","system_id":"levelo_inurba_marseille","lat":43.29231,"lon":5.36073,"is_reserved":false,"is_disabled":false,"rental_uris":{"android":"levelo://app?vid=67486f1b-a40b-4e91-8dc3-2d661fa8d1bb","ios":"levelo://app?vid=67486f1b-a40b-4e91-8dc3-2d661fa8d1bb"},"vehicle_type_id":"4","last_reported":1766185891,"current_range_meters":10800,"station_id":"ce4bhbh2rcd13ifvqeqg","pricing_plan_id":"cebpf4jnsgd1na2vs0mg"},{"bike_id":"576571cc-ef90-463e-a5f9-dc0cd6370114","system_id":"levelo_inurba_marseille","lat":43.28629,"lon":5.35089,"is_reserved":false,"is_disabled":false,"rental_uris":{"android":"levelo://app?vid=576571cc-ef90-463e-a5f9-dc0cd6370114","ios":"levelo://app?vid=576571cc-ef90-463e-a5f9-dc0cd6370114"},"vehicle_type_id":"4","last_reported":1766185891,"current_range_meters":10800,"station_id":"ce4bhch2rcd13ifvqeug","pricing_plan_id":"cebpf4jnsgd1na2vs0mg"},{"bike_id":"a8aeeda6-194b-4475-b3bc-d04052d865f0","system_id":"levelo_inurba_marseille","lat":43.29034,"lon":5.38647,"is_reserved":false,"is_disabled":false,"rental_uris":{"android":"levelo://app?vid=a8aeeda6-194b-4475-b3bc-d04052d865f0","ios":"levelo://app?vid=a8aeeda6-194b-4475-b3bc-d04052d865f0"},"vehicle_type_id":"4","last_reported":1766185891,"current_range_meters":10800,"station_id":"ce4bh4p2rcd13ifvqe0g","pricing_plan_id":"cebpf4jnsgd1na2vs0mg"},{"bike_id":"dcf784f4-8fb6-484a-a880-b53a6c3cae38","system_id":"levelo_inurba_marseille","lat":43.24477,"lon":5.42533,"is_reserved":false,"is_disabled":false,"rental_uris":{"android":"levelo://app?vid=dcf784f4-8fb6-484a-a880-b53a6c3cae38","ios":"levelo://app?vid=dcf784f4-8fb6-484a-a880-b53a6c3cae38"},"vehicle_type_id":"4","last_reported":1766185891,"current_range_meters":10800,"station_id":"st_d4a3vfp97mjs738cd8kg","pricing_plan_id":"cebpf4jnsgd1na2vs0mg"},{"bike_id":"53cdb612-e52e-4ecc-8a92-230cc55078c4","system_id":"levelo_inurba_marseille","lat":43.2695,"lon":5.38639,"is_reserved":false,"is_disabled":false,"rental_uris":{"android":"levelo://app?vid=53cdb612-e52e-4ecc-8a92-230cc55078c4","ios":"levelo://app?vid=53cdb612-e52e-4ecc-8a92-230cc55078c4"},"vehicle_type_id":"4","last_reported":1766185891,"current_range_meters":10800,"station_id":"ce4bhh92rcd13ifvqfh0","pricing_plan_id":"cebpf4jnsgd1na2vs0mg"},{"bike_id":"c9aea15c-a7f5-400f-986d-7bd6afd3ce32","system_id":"levelo_inurba_marseille","lat":43.30089,"lon":5.39072,"is_reserved":false,"is_disabled":false,"rental_uris":{"android":"levelo://app?vid=c9aea15c-a7f5-400f-986d-7bd6afd3ce32","ios":"levelo://app?vid=c9aea15c-a7f5-400f-986d-7bd6afd3ce32"},"vehicle_type_id":"4","last_reported":1766185891,"current_range_meters":10800,"station_id":"ce4bh192rcd13ifvqdb0","pricing_plan_id":"cebpf4jnsgd1na2vs0mg"},{"bike_id":"8ca42c75-83fc-47f3-8798-7bc1fc1f198d","system_id":"levelo_inurba_marseille","lat":43.28858,"lon":5.42544,"is_reserved":false,"is_disabled":false,"rental_uris":{"android":"levelo://app?vid=8ca42c75-83fc-47f3-8798-7bc1fc1f198d","ios":"levelo://app?vid=8ca42c75-83fc-47f3-8798-7bc1fc1f198d"},"vehicle_type_id":"4","last_reported":1766185891,"current_range_meters":10800,"station_id":"st_d3b462108ojc7389ooeg","pricing_plan_id":"cebpf4jnsgd1na2vs0mg"},{"bike_id":"6ec9a6be-eed9-4adb-a34f-9a64c85ea37b","system_id":"levelo_inurba_marseille","lat":43.30645,"lon":5.37559,"is_reserved":false,"is_disabled":false,"rental_uris":{"android":"levelo://app?vid=6ec9a6be-eed9-4adb-a34f-9a64c85ea37b","ios":"levelo://app?vid=6ec9a6be-eed9-4adb-a34f-9a64c85ea37b"},"vehicle_type_id":"4","last_reported":1766185891,"current_range_meters":10800,"station_id":"","pricing_plan_id":"cebpf4jnsgd1na2vs0mg"},{"bike_id":"d49815ca-6c79-4618-afdc-b693c03146d9","system_id":"levelo_inurba_marseille","lat":43.24836,"lon":5.37447,"is_reserved":false,"is_disabled":false,"rental_uris":{"android":"levelo://app?vid=d49815ca-6c79-4618-afdc-b693c03146d9","ios":"levelo://app?vid=d49815ca-6c79-4618-afdc-b693c03146d9"},"vehicle_type_id":"4","last_reported":1766185891,"current_range_meters":10800,"station_id":"","pricing_plan_id":"cebpf4jnsgd1na2vs0mg"},{"bike_id":"fcd75001-1344-42ec-a013-2f4c6240ace8","system_id":"levelo_inurba_marseille","lat":43.29819,"lon":5.38651,"is_reserved":false,"is_disabled":false,"rental_uris":{"android":"levelo://app?vid=fcd75001-1344-42ec-a013-2f4c6240ace8","ios":"levelo://app?vid=fcd75001-1344-42ec-a013-2f4c6240ace8"},"vehicle_type_id":"4","last_reported":1766185891,"current_range_meters":11200,"station_id":"","pricing_plan_id":"cebpf4jnsgd1na2vs0mg"},{"bike_id":"4c4a46eb-6946-44ae-a67b-162596eea213","system_id":"levelo_inurba_marseille","lat":43.24665,"lon":5.38151,"is_reserved":false,"is_disabled":false,"rental_uris":{"android":"levelo://app?vid=4c4a46eb-6946-44ae-a67b-162596eea213","ios":"levelo://app?vid=4c4a46eb-6946-44ae-a67b-162596eea213"},"vehicle_type_id":"4","last_reported":1766185891,"current_range_meters":11200,"station_id":"ce4bhih2rcd13ifvqfr0","pricing_plan_id":"cebpf4jnsgd1na2vs0mg"},{"bike_id":"f76f9e4d-d309-41e5-bccd-e5b55b3c97ca","system_id":"levelo_inurba_marseille","lat":43.28616,"lon":5.35097,"is_reserved":false,"is_disabled":false,"rental_uris":{"android":"levelo://app?vid=f76f9e4d-d309-41e5-bccd-e5b55b3c97ca","ios":"levelo://app?vid=f76f9e4d-d309-41e5-bccd-e5b55b3c97ca"},"vehicle_type_id":"4","last_reported":1766185891,"current_range_meters":11200,"station_id":"ce4bhch2rcd13ifvqeug","pricing_plan_id":"cebpf4jnsgd1na2vs0mg"},{"bike_id":"0d303fc7-606f-4943-9629-57c31a744736","system_id":"levelo_inurba_marseille","lat":43.28539,"lon":5.44094,"is_reserved":false,"is_disabled":false,"rental_uris":{"android":"levelo://app?vid=0d303fc7-606f-4943-9629-57c31a744736","ios":"levelo://app?vid=0d303fc7-606f-4943-9629-57c31a744736"},"vehicle_type_id":"4","last_reported":1766185891,"current_range_meters":11200,"station_id":"st_d3j3df2ikq2c7380ej80","pricing_plan_id":"cebpf4jnsgd1na2vs0mg"},{"bike_id":"2e7dc1ab-5624-44a1-98cc-138e4f1d28a0","system_id":"levelo_inurba_marseille","lat":43.265654,"lon":5.403289,"is_reserved":false,"is_disabled":false,"rental_uris":{"android":"levelo://app?vid=2e7dc1ab-5624-44a1-98cc-138e4f1d28a0","ios":"levelo://app?vid=2e7dc1ab-5624-44a1-98cc-138e4f1d28a0"},"vehicle_type_id":"4","last_reported":1766185891,"current_range_meters":11200,"station_id":"ce4bho92rcd13ifvqh4g","pricing_plan_id":"cebpf4jnsgd1na2vs0mg"},{"bike_id":"657677ff-bd0f-45b9-a985-0cee09b5fde2","system_id":"levelo_inurba_marseille","lat":43.31707,"lon":5.43678,"is_reserved":false,"is_disabled":false,"rental_uris":{"android":"levelo://app?vid=657677ff-bd0f-45b9-a985-0cee09b5fde2","ios":"levelo://app?vid=657677ff-bd0f-45b9-a985-0cee09b5fde2"},"vehicle_type_id":"4","last_reported":1766185891,"current_range_meters":11200,"station_id":"ce4bhp92rcd13ifvqhcg","pricing_plan_id":"cebpf4jnsgd1na2vs0mg"},{"bike_id":"5cfdf108-64c2-4b38-8628-9d012576cd8b","system_id":"levelo_inurba_marseille","lat":43.335374,"lon":5.374755,"is_reserved":false,"is_disabled":false,"rental_uris":{"android":"levelo://app?vid=5cfdf108-64c2-4b38-8628-9d012576cd8b","ios":"levelo://app?vid=5cfdf108-64c2-4b38-8628-9d012576cd8b"},"vehicle_type_id":"4","last_reported":1766185891,"current_range_meters":11200,"station_id":"st_d46tts09ee8s73dlu43g","pricing_plan_id":"cebpf4jnsgd1na2vs0mg"},{"bike_id":"c52f4729-ea83-4ef1-8401-6bfac9482282","system_id":"levelo_inurba_marseille","lat":43.3337,"lon":5.41842,"is_reserved":false,"is_disabled":false,"rental_uris":{"android":"levelo://app?vid=c52f4729-ea83-4ef1-8401-6bfac9482282","ios":"levelo://app?vid=c52f4729-ea83-4ef1-8401-6bfac9482282"},"vehicle_type_id":"4","last_reported":1766185891,"current_range_meters":11200,"station_id":"","pricing_plan_id":"cebpf4jnsgd1na2vs0mg"},{"bike_id":"ad2613ac-694a-4da1-936b-f66c7811a7eb","system_id":"levelo_inurba_marseille","lat":43.23188,"lon":5.39976,"is_reserved":false,"is_disabled":false,"rental_uris":{"android":"levelo://app?vid=ad2613ac-694a-4da1-936b-f66c7811a7eb","ios":"levelo://app?vid=ad2613ac-694a-4da1-936b-f66c7811a7eb"},"vehicle_type_id":"4","last_reported":1766185891,"current_range_meters":11200,"station_id":"ce4bhn12rcd13ifvqgqg","pricing_plan_id":"cebpf4jnsgd1na2vs0mg"},{"bike_id":"154f0579-c369-43a7-b535-ac4c82931911","system_id":"levelo_inurba_marseille","lat":43.3043,"lon":5.38896,"is_reserved":false,"is_disabled":false,"rental_uris":{"android":"levelo://app?vid=154f0579-c369-43a7-b535-ac4c82931911","ios":"levelo://app?vid=154f0579-c369-43a7-b535-ac4c82931911"},"vehicle_type_id":"4","last_reported":1766185891,"current_range_meters":11200,"station_id":"ce4bgk12rcd13ifvqbi0","pricing_plan_id":"cebpf4jnsgd1na2vs0mg"},{"bike_id":"00a29bb1-88ca-440d-9219-07d673c689ed","system_id":"levelo_inurba_marseille","lat":43.30474,"lon":5.36856,"is_reserved":false,"is_disabled":false,"rental_uris":{"android":"levelo://app?vid=00a29bb1-88ca-440d-9219-07d673c689ed","ios":"levelo://app?vid=00a29bb1-88ca-440d-9219-07d673c689ed"},"vehicle_type_id":"4","last_reported":1766185891,"current_range_meters":11600,"station_id":"","pricing_plan_id":"cebpf4jnsgd1na2vs0mg"},{"bike_id":"3f8979fd-1c73-47d2-bae2-2c2698b5af25","system_id":"levelo_inurba_marseille","lat":43.32047,"lon":5.41546,"is_reserved":false,"is_disabled":false,"rental_uris":{"android":"levelo://app?vid=3f8979fd-1c73-47d2-bae2-2c2698b5af25","ios":"levelo://app?vid=3f8979fd-1c73-47d2-bae2-2c2698b5af25"},"vehicle_type_id":"4","last_reported":1766185891,"current_range_meters":11600,"station_id":"ce4bhq92rcd13ifvqhkg","pricing_plan_id":"cebpf4jnsgd1na2vs0mg"},{"bike_id":"1818541f-8e74-41e7-b7cb-57e7d6fa274f","system_id":"levelo_inurba_marseille","lat":43.24472,"lon":5.39034,"is_reserved":false,"is_disabled":false,"rental_uris":{"android":"levelo://app?vid=1818541f-8e74-41e7-b7cb-57e7d6fa274f","ios":"levelo://app?vid=1818541f-8e74-41e7-b7cb-57e7d6fa274f"},"vehicle_type_id":"4","last_reported":1766185891,"current_range_meters":11600,"station_id":"","pricing_plan_id":"cebpf4jnsgd1na2vs0mg"},{"bike_id":"342831ac-e927-49d6-8b43-22fa72e5bef8","system_id":"levelo_inurba_marseille","lat":43.28028,"lon":5.38731,"is_reserved":false,"is_disabled":false,"rental_uris":{"android":"levelo://app?vid=342831ac-e927-49d6-8b43-22fa72e5bef8","ios":"levelo://app?vid=342831ac-e927-49d6-8b43-22fa72e5bef8"},"vehicle_type_id":"4","last_reported":1766185891,"current_range_meters":11600,"station_id":"","pricing_plan_id":"cebpf4jnsgd1na2vs0mg"},{"bike_id":"92651f48-eaf8-4638-b5c2-12df896424b7","system_id":"levelo_inurba_marseille","lat":43.30209,"lon":5.39475,"is_reserved":false,"is_disabled":false,"rental_uris":{"android":"levelo://app?vid=92651f48-eaf8-4638-b5c2-12df896424b7","ios":"levelo://app?vid=92651f48-eaf8-4638-b5c2-12df896424b7"},"vehicle_type_id":"4","last_reported":1766185891,"current_range_meters":11600,"station_id":"ce4bh0p2rcd13ifvqd70","pricing_plan_id":"cebpf4jnsgd1na2vs0mg"},{"bike_id":"bbe6d64f-2cb1-409d-ba24-ff27de876e43","system_id":"levelo_inurba_marseille","lat":43.28523,"lon":5.44101,"is_reserved":false,"is_disabled":false,"rental_uris":{"android":"levelo://app?vid=bbe6d64f-2cb1-409d-ba24-ff27de876e43","ios":"levelo://app?vid=bbe6d64f-2cb1-409d-ba24-ff27de876e43"},"vehicle_type_id":"4","last_reported":1766185891,"current_range_meters":12000,"station_id":"st_d3j3df2ikq2c7380ej80","pricing_plan_id":"cebpf4jnsgd1na2vs0mg"},{"bike_id":"f11b44de-a66e-4f4b-bbcd-9eba3e1ea4eb","system_id":"levelo_inurba_marseille","lat":43.29076,"lon":5.37782,"is_reserved":false,"is_disabled":false,"rental_uris":{"android":"levelo://app?vid=f11b44de-a66e-4f4b-bbcd-9eba3e1ea4eb","ios":"levelo://app?vid=f11b44de-a66e-4f4b-bbcd-9eba3e1ea4eb"},"vehicle_type_id":"4","last_reported":1766185891,"current_range_meters":12000,"station_id":"","pricing_plan_id":"cebpf4jnsgd1na2vs0mg"},{"bike_id":"61400083-f616-4ed1-b9c8-dd52c9c8a6c7","system_id":"levelo_inurba_marseille","lat":43.24177,"lon":5.39736,"is_reserved":false,"is_disabled":false,"rental_uris":{"android":"levelo://app?vid=61400083-f616-4ed1-b9c8-dd52c9c8a6c7","ios":"levelo://app?vid=61400083-f616-4ed1-b9c8-dd52c9c8a6c7"},"vehicle_type_id":"4","last_reported":1766185891,"current_range_meters":12000,"station_id":"ce4bhn12rcd13ifvqgpg","pricing_plan_id":"cebpf4jnsgd1na2vs0mg"},{"bike_id":"207776d7-b88e-48a6-b74f-2b1aae5e54c7","system_id":"levelo_inurba_marseille","lat":43.268961,"lon":5.387159,"is_reserved":false,"is_disabled":false,"rental_uris":{"android":"levelo://app?vid=207776d7-b88e-48a6-b74f-2b1aae5e54c7","ios":"levelo://app?vid=207776d7-b88e-48a6-b74f-2b1aae5e54c7"},"vehicle_type_id":"4","last_reported":1766185891,"current_range_meters":12000,"station_id":"","pricing_plan_id":"cebpf4jnsgd1na2vs0mg"},{"bike_id":"49eaeb99-01db-4a25-87fd-cb6c87f1647c","system_id":"levelo_inurba_marseille","lat":43.30116,"lon":5.43109,"is_reserved":false,"is_disabled":false,"rental_uris":{"android":"levelo://app?vid=49eaeb99-01db-4a25-87fd-cb6c87f1647c","ios":"levelo://app?vid=49eaeb99-01db-4a25-87fd-cb6c87f1647c"},"vehicle_type_id":"4","last_reported":1766185891,"current_range_meters":12000,"station_id":"st_d3js3co5814s73ftftug","pricing_plan_id":"cebpf4jnsgd1na2vs0mg"},{"bike_id":"bb67b255-5e37-444f-b7a3-316dd67e2430","system_id":"levelo_inurba_marseille","lat":43.29177,"lon":5.35789,"is_reserved":false,"is_disabled":false,"rental_uris":{"android":"levelo://app?vid=bb67b255-5e37-444f-b7a3-316dd67e2430","ios":"levelo://app?vid=bb67b255-5e37-444f-b7a3-316dd67e2430"},"vehicle_type_id":"4","last_reported":1766185891,"current_range_meters":12000,"station_id":"ce4bgh92rcd13ifvqb40","pricing_plan_id":"cebpf4jnsgd1na2vs0mg"},{"bike_id":"8ddf5f0b-8638-4227-b0ee-efe27c023df6","system_id":"levelo_inurba_marseille","lat":43.308014,"lon":5.381433,"is_reserved":false,"is_disabled":false,"rental_uris":{"android":"levelo://app?vid=8ddf5f0b-8638-4227-b0ee-efe27c023df6","ios":"levelo://app?vid=8ddf5f0b-8638-4227-b0ee-efe27c023df6"},"vehicle_type_id":"4","last_reported":1766185891,"current_range_meters":12000,"station_id":"ce4bgjp2rcd13ifvqbh0","pricing_plan_id":"cebpf4jnsgd1na2vs0mg"},{"bike_id":"31c9152a-849a-4af9-8bff-cf0dceb3f554","system_id":"levelo_inurba_marseille","lat":43.28411,"lon":5.37509,"is_reserved":false,"is_disabled":false,"rental_uris":{"android":"levelo://app?vid=31c9152a-849a-4af9-8bff-cf0dceb3f554","ios":"levelo://app?vid=31c9152a-849a-4af9-8bff-cf0dceb3f554"},"vehicle_type_id":"4","last_reported":1766185891,"current_range_meters":12000,"station_id":"ce4bh412rcd13ifvqds0","pricing_plan_id":"cebpf4jnsgd1na2vs0mg"},{"bike_id":"56032247-2072-4eaa-80b1-e11470cf0bc6","system_id":"levelo_inurba_marseille","lat":43.28335,"lon":5.38097,"is_reserved":false,"is_disabled":false,"rental_uris":{"android":"levelo://app?vid=56032247-2072-4eaa-80b1-e11470cf0bc6","ios":"levelo://app?vid=56032247-2072-4eaa-80b1-e11470cf0bc6"},"vehicle_type_id":"4","last_reported":1766185891,"current_range_meters":12000,"station_id":"ce4bh412rcd13ifvqdr0","pricing_plan_id":"cebpf4jnsgd1na2vs0mg"},{"bike_id":"a06441de-f7c5-4645-b8a0-3d60ebf2a496","system_id":"levelo_inurba_marseille","lat":43.26553,"lon":5.37281,"is_reserved":false,"is_disabled":false,"rental_uris":{"android":"levelo://app?vid=a06441de-f7c5-4645-b8a0-3d60ebf2a496","ios":"levelo://app?vid=a06441de-f7c5-4645-b8a0-3d60ebf2a496"},"vehicle_type_id":"4","last_reported":1766185891,"current_range_meters":12000,"station_id":"ce4bhg12rcd13ifvqf70","pricing_plan_id":"cebpf4jnsgd1na2vs0mg"},{"bike_id":"4c98e2c0-49e0-42f1-9463-b2a225bcd211","system_id":"levelo_inurba_marseille","lat":43.29514,"lon":5.39035,"is_reserved":false,"is_disabled":false,"rental_uris":{"android":"levelo://app?vid=4c98e2c0-49e0-42f1-9463-b2a225bcd211","ios":"levelo://app?vid=4c98e2c0-49e0-42f1-9463-b2a225bcd211"},"vehicle_type_id":"4","last_reported":1766185891,"current_range_meters":12000,"station_id":"ce4bh3p2rcd13ifvqdp0","pricing_plan_id":"cebpf4jnsgd1na2vs0mg"},{"bike_id":"6147b2c8-629e-4457-b54b-c0dc21f0f0aa","system_id":"levelo_inurba_marseille","lat":43.30883,"lon":5.37211,"is_reserved":false,"is_disabled":true,"rental_uris":{"android":"levelo://app?vid=6147b2c8-629e-4457-b54b-c0dc21f0f0aa","ios":"levelo://app?vid=6147b2c8-629e-4457-b54b-c0dc21f0f0aa"},"vehicle_type_id":"4","last_reported":1766185891,"current_range_meters":12000,"station_id":"ce4bguh2rcd13ifvqckg","pricing_plan_id":"cebpf4jnsgd1na2vs0mg"},{"bike_id":"62f7b72f-cbf9-4328-8dd5-274165057235","system_id":"levelo_inurba_marseille","lat":43.297259,"lon":5.371657,"is_reserved":false,"is_disabled":false,"rental_uris":{"android":"levelo://app?vid=62f7b72f-cbf9-4328-8dd5-274165057235","ios":"levelo://app?vid=62f7b72f-cbf9-4328-8dd5-274165057235"},"vehicle_type_id":"4","last_reported":1766185891,"current_range_meters":12000,"station_id":"ce4bgop2rcd13ifvqc1g","pricing_plan_id":"cebpf4jnsgd1na2vs0mg"},{"bike_id":"67fe2471-1cc2-49f3-8860-6c45a1e6b28e","system_id":"levelo_inurba_marseille","lat":43.27377,"lon":5.36262,"is_reserved":false,"is_disabled":false,"rental_uris":{"android":"levelo://app?vid=67fe2471-1cc2-49f3-8860-6c45a1e6b28e","ios":"levelo://app?vid=67fe2471-1cc2-49f3-8860-6c45a1e6b28e"},"vehicle_type_id":"4","last_reported":1766185891,"current_range_meters":12000,"station_id":"ce4bhbh2rcd13ifvqeo0","pricing_plan_id":"cebpf4jnsgd1na2vs0mg"},{"bike_id":"f1c6ef30-df40-4531-b632-19b3b8de3f93","system_id":"levelo_inurba_marseille","lat":43.337444,"lon":5.374475,"is_reserved":false,"is_disabled":false,"rental_uris":{"android":"levelo://app?vid=f1c6ef30-df40-4531-b632-19b3b8de3f93","ios":"levelo://app?vid=f1c6ef30-df40-4531-b632-19b3b8de3f93"},"vehicle_type_id":"4","last_reported":1766185891,"current_range_meters":12400,"station_id":"","pricing_plan_id":"cebpf4jnsgd1na2vs0mg"},{"bike_id":"bcb638ec-1f7a-45bb-913f-62a7a0a453a1","system_id":"levelo_inurba_marseille","lat":43.2984,"lon":5.38597,"is_reserved":false,"is_disabled":false,"rental_uris":{"android":"levelo://app?vid=bcb638ec-1f7a-45bb-913f-62a7a0a453a1","ios":"levelo://app?vid=bcb638ec-1f7a-45bb-913f-62a7a0a453a1"},"vehicle_type_id":"4","last_reported":1766185891,"current_range_meters":12400,"station_id":"","pricing_plan_id":"cebpf4jnsgd1na2vs0mg"},{"bike_id":"0f4393ba-68fe-4087-95db-b21e571550f6","system_id":"levelo_inurba_marseille","lat":43.30128,"lon":5.3877,"is_reserved":false,"is_disabled":false,"rental_uris":{"android":"levelo://app?vid=0f4393ba-68fe-4087-95db-b21e571550f6","ios":"levelo://app?vid=0f4393ba-68fe-4087-95db-b21e571550f6"},"vehicle_type_id":"4","last_reported":1766185891,"current_range_meters":12400,"station_id":"ce4bghh2rcd13ifvqb60","pricing_plan_id":"cebpf4jnsgd1na2vs0mg"},{"bike_id":"6244ba23-4432-4050-a6de-b074545c45d3","system_id":"levelo_inurba_marseille","lat":43.24146,"lon":5.36459,"is_reserved":false,"is_disabled":false,"rental_uris":{"android":"levelo://app?vid=6244ba23-4432-4050-a6de-b074545c45d3","ios":"levelo://app?vid=6244ba23-4432-4050-a6de-b074545c45d3"},"vehicle_type_id":"4","last_reported":1766185891,"current_range_meters":12400,"station_id":"","pricing_plan_id":"cebpf4jnsgd1na2vs0mg"},{"bike_id":"177fd090-0076-4f92-9832-62b1c96ea1ea","system_id":"levelo_inurba_marseille","lat":43.25339,"lon":5.42171,"is_reserved":false,"is_disabled":true,"rental_uris":{"android":"levelo://app?vid=177fd090-0076-4f92-9832-62b1c96ea1ea","ios":"levelo://app?vid=177fd090-0076-4f92-9832-62b1c96ea1ea"},"vehicle_type_id":"4","last_reported":1766185891,"current_range_meters":12400,"station_id":"st_d2m65c5bi1j21697t3ng","pricing_plan_id":"cebpf4jnsgd1na2vs0mg"},{"bike_id":"af1f9193-90aa-4f34-b2c4-fb0bbaea183c","system_id":"levelo_inurba_marseille","lat":43.28478,"lon":5.48406,"is_reserved":false,"is_disabled":false,"rental_uris":{"android":"levelo://app?vid=af1f9193-90aa-4f34-b2c4-fb0bbaea183c","ios":"levelo://app?vid=af1f9193-90aa-4f34-b2c4-fb0bbaea183c"},"vehicle_type_id":"4","last_reported":1766185891,"current_range_meters":12400,"station_id":"st_d3svhcjqgbts73a3dn0g","pricing_plan_id":"cebpf4jnsgd1na2vs0mg"},{"bike_id":"a155df3e-4b60-4af2-bb99-ef9672812592","system_id":"levelo_inurba_marseille","lat":43.31152,"lon":5.38192,"is_reserved":false,"is_disabled":false,"rental_uris":{"android":"levelo://app?vid=a155df3e-4b60-4af2-bb99-ef9672812592","ios":"levelo://app?vid=a155df3e-4b60-4af2-bb99-ef9672812592"},"vehicle_type_id":"4","last_reported":1766185891,"current_range_meters":12400,"station_id":"","pricing_plan_id":"cebpf4jnsgd1na2vs0mg"},{"bike_id":"a9e7b318-545a-41eb-9190-411f10629a06","system_id":"levelo_inurba_marseille","lat":43.29014,"lon":5.39992,"is_reserved":false,"is_disabled":false,"rental_uris":{"android":"levelo://app?vid=a9e7b318-545a-41eb-9190-411f10629a06","ios":"levelo://app?vid=a9e7b318-545a-41eb-9190-411f10629a06"},"vehicle_type_id":"4","last_reported":1766185891,"current_range_meters":12400,"station_id":"ce4bh392rcd13ifvqdm0","pricing_plan_id":"cebpf4jnsgd1na2vs0mg"},{"bike_id":"bac88a4d-041f-4cb3-9411-f4e99e0e2f13","system_id":"levelo_inurba_marseille","lat":43.26542,"lon":5.37292,"is_reserved":false,"is_disabled":false,"rental_uris":{"android":"levelo://app?vid=bac88a4d-041f-4cb3-9411-f4e99e0e2f13","ios":"levelo://app?vid=bac88a4d-041f-4cb3-9411-f4e99e0e2f13"},"vehicle_type_id":"4","last_reported":1766185891,"current_range_meters":12800,"station_id":"ce4bhg12rcd13ifvqf70","pricing_plan_id":"cebpf4jnsgd1na2vs0mg"},{"bike_id":"eb1341ba-ba7e-4c28-827b-ac87efb87a9d","system_id":"levelo_inurba_marseille","lat":43.23792,"lon":5.36635,"is_reserved":false,"is_disabled":false,"rental_uris":{"android":"levelo://app?vid=eb1341ba-ba7e-4c28-827b-ac87efb87a9d","ios":"levelo://app?vid=eb1341ba-ba7e-4c28-827b-ac87efb87a9d"},"vehicle_type_id":"4","last_reported":1766185891,"current_range_meters":12800,"station_id":"st_d3nk18o9ro0c73en2l3g","pricing_plan_id":"cebpf4jnsgd1na2vs0mg"},{"bike_id":"960000b9-5f6a-4874-8ba2-61bf0329fc25","system_id":"levelo_inurba_marseille","lat":43.30644,"lon":5.41011,"is_reserved":false,"is_disabled":false,"rental_uris":{"android":"levelo://app?vid=960000b9-5f6a-4874-8ba2-61bf0329fc25","ios":"levelo://app?vid=960000b9-5f6a-4874-8ba2-61bf0329fc25"},"vehicle_type_id":"4","last_reported":1766185891,"current_range_meters":12800,"station_id":"","pricing_plan_id":"cebpf4jnsgd1na2vs0mg"},{"bike_id":"2c2969fa-feff-4190-9bce-e7023f11afc5","system_id":"levelo_inurba_marseille","lat":43.29775,"lon":5.37104,"is_reserved":false,"is_disabled":true,"rental_uris":{"android":"levelo://app?vid=2c2969fa-feff-4190-9bce-e7023f11afc5","ios":"levelo://app?vid=2c2969fa-feff-4190-9bce-e7023f11afc5"},"vehicle_type_id":"4","last_reported":1766185891,"current_range_meters":12800,"station_id":"ce4bgop2rcd13ifvqc1g","pricing_plan_id":"cebpf4jnsgd1na2vs0mg"},{"bike_id":"99ad97c1-5a83-4b1c-9cf1-08492f7d7210","system_id":"levelo_inurba_marseille","lat":43.29249,"lon":5.409,"is_reserved":false,"is_disabled":false,"rental_uris":{"android":"levelo://app?vid=99ad97c1-5a83-4b1c-9cf1-08492f7d7210","ios":"levelo://app?vid=99ad97c1-5a83-4b1c-9cf1-08492f7d7210"},"vehicle_type_id":"4","last_reported":1766185891,"current_range_meters":12800,"station_id":"ce4bh192rcd13ifvqdc0","pricing_plan_id":"cebpf4jnsgd1na2vs0mg"},{"bike_id":"2726a107-954d-4500-8b58-47d1ec0e0b7c","system_id":"levelo_inurba_marseille","lat":43.29535,"lon":5.38548,"is_reserved":false,"is_disabled":false,"rental_uris":{"android":"levelo://app?vid=2726a107-954d-4500-8b58-47d1ec0e0b7c","ios":"levelo://app?vid=2726a107-954d-4500-8b58-47d1ec0e0b7c"},"vehicle_type_id":"4","last_reported":1766185891,"current_range_meters":12800,"station_id":"ce4bgih2rcd13ifvqba0","pricing_plan_id":"cebpf4jnsgd1na2vs0mg"},{"bike_id":"758abfb4-7d25-40b9-9ad2-97a3bc28aac3","system_id":"levelo_inurba_marseille","lat":43.2919,"lon":5.37152,"is_reserved":false,"is_disabled":false,"rental_uris":{"android":"levelo://app?vid=758abfb4-7d25-40b9-9ad2-97a3bc28aac3","ios":"levelo://app?vid=758abfb4-7d25-40b9-9ad2-97a3bc28aac3"},"vehicle_type_id":"4","last_reported":1766185891,"current_range_meters":12800,"station_id":"ce4bha92rcd13ifvqeh0","pricing_plan_id":"cebpf4jnsgd1na2vs0mg"},{"bike_id":"342f1aab-f383-4095-9af9-476f39ec27e6","system_id":"levelo_inurba_marseille","lat":43.22564,"lon":5.41635,"is_reserved":false,"is_disabled":false,"rental_uris":{"android":"levelo://app?vid=342f1aab-f383-4095-9af9-476f39ec27e6","ios":"levelo://app?vid=342f1aab-f383-4095-9af9-476f39ec27e6"},"vehicle_type_id":"4","last_reported":1766185891,"current_range_meters":12800,"station_id":"st_d2o4gvlbi1j2169b742g","pricing_plan_id":"cebpf4jnsgd1na2vs0mg"},{"bike_id":"5aa6494d-0eee-4a3c-bc5e-0d25343561e5","system_id":"levelo_inurba_marseille","lat":43.27064,"lon":5.38294,"is_reserved":false,"is_disabled":false,"rental_uris":{"android":"levelo://app?vid=5aa6494d-0eee-4a3c-bc5e-0d25343561e5","ios":"levelo://app?vid=5aa6494d-0eee-4a3c-bc5e-0d25343561e5"},"vehicle_type_id":"4","last_reported":1766185891,"current_range_meters":12800,"station_id":"st_d3n2fo6cfp8s73cte1j0","pricing_plan_id":"cebpf4jnsgd1na2vs0mg"},{"bike_id":"41b7875d-ddef-45ed-b43a-195d2d6a8204","system_id":"levelo_inurba_marseille","lat":43.257252,"lon":5.4111,"is_reserved":false,"is_disabled":false,"rental_uris":{"android":"levelo://app?vid=41b7875d-ddef-45ed-b43a-195d2d6a8204","ios":"levelo://app?vid=41b7875d-ddef-45ed-b43a-195d2d6a8204"},"vehicle_type_id":"4","last_reported":1766185891,"current_range_meters":12800,"station_id":"","pricing_plan_id":"cebpf4jnsgd1na2vs0mg"},{"bike_id":"e18d88c4-447f-4613-ac8f-5a6e3bb9a21c","system_id":"levelo_inurba_marseille","lat":43.29811,"lon":5.44069,"is_reserved":false,"is_disabled":false,"rental_uris":{"android":"levelo://app?vid=e18d88c4-447f-4613-ac8f-5a6e3bb9a21c","ios":"levelo://app?vid=e18d88c4-447f-4613-ac8f-5a6e3bb9a21c"},"vehicle_type_id":"4","last_reported":1766185891,"current_range_meters":12800,"station_id":"st_d3jp68qikq2c7381ktn0","pricing_plan_id":"cebpf4jnsgd1na2vs0mg"},{"bike_id":"9e550898-8d6d-47a0-a376-e2bc2dbefa70","system_id":"levelo_inurba_marseille","lat":43.3031,"lon":5.36889,"is_reserved":false,"is_disabled":false,"rental_uris":{"android":"levelo://app?vid=9e550898-8d6d-47a0-a376-e2bc2dbefa70","ios":"levelo://app?vid=9e550898-8d6d-47a0-a376-e2bc2dbefa70"},"vehicle_type_id":"4","last_reported":1766185891,"current_range_meters":12800,"station_id":"ce4bgqh2rcd13ifvqc5g","pricing_plan_id":"cebpf4jnsgd1na2vs0mg"},{"bike_id":"025b4a43-9c11-4504-9502-51f200349bee","system_id":"levelo_inurba_marseille","lat":43.23196,"lon":5.39979,"is_reserved":false,"is_disabled":false,"rental_uris":{"android":"levelo://app?vid=025b4a43-9c11-4504-9502-51f200349bee","ios":"levelo://app?vid=025b4a43-9c11-4504-9502-51f200349bee"},"vehicle_type_id":"4","last_reported":1766185891,"current_range_meters":12800,"station_id":"ce4bhn12rcd13ifvqgqg","pricing_plan_id":"cebpf4jnsgd1na2vs0mg"},{"bike_id":"8fcf17e9-6f12-40c5-b477-90499f0bb83c","system_id":"levelo_inurba_marseille","lat":43.337444,"lon":5.374475,"is_reserved":false,"is_disabled":false,"rental_uris":{"android":"levelo://app?vid=8fcf17e9-6f12-40c5-b477-90499f0bb83c","ios":"levelo://app?vid=8fcf17e9-6f12-40c5-b477-90499f0bb83c"},"vehicle_type_id":"4","last_reported":1766185891,"current_range_meters":13600,"station_id":"","pricing_plan_id":"cebpf4jnsgd1na2vs0mg"},{"bike_id":"025bcf3c-9127-4e0c-b7ed-8709d35ce958","system_id":"levelo_inurba_marseille","lat":43.31747,"lon":5.37216,"is_reserved":false,"is_disabled":false,"rental_uris":{"android":"levelo://app?vid=025bcf3c-9127-4e0c-b7ed-8709d35ce958","ios":"levelo://app?vid=025bcf3c-9127-4e0c-b7ed-8709d35ce958"},"vehicle_type_id":"4","last_reported":1766185891,"current_range_meters":13600,"station_id":"","pricing_plan_id":"cebpf4jnsgd1na2vs0mg"},{"bike_id":"dd02578a-3ce3-4a5b-a150-72db34f2d7af","system_id":"levelo_inurba_marseille","lat":43.2816,"lon":5.42626,"is_reserved":false,"is_disabled":false,"rental_uris":{"android":"levelo://app?vid=dd02578a-3ce3-4a5b-a150-72db34f2d7af","ios":"levelo://app?vid=dd02578a-3ce3-4a5b-a150-72db34f2d7af"},"vehicle_type_id":"4","last_reported":1766185891,"current_range_meters":13600,"station_id":"ce4bhnh2rcd13ifvqgug","pricing_plan_id":"cebpf4jnsgd1na2vs0mg"},{"bike_id":"ce634916-e630-4474-8c32-4b2bfe924f7f","system_id":"levelo_inurba_marseille","lat":43.24647,"lon":5.43148,"is_reserved":false,"is_disabled":false,"rental_uris":{"android":"levelo://app?vid=ce634916-e630-4474-8c32-4b2bfe924f7f","ios":"levelo://app?vid=ce634916-e630-4474-8c32-4b2bfe924f7f"},"vehicle_type_id":"4","last_reported":1766185891,"current_range_meters":13600,"station_id":"st_d2m6c4gdas8pm72e190g","pricing_plan_id":"cebpf4jnsgd1na2vs0mg"},{"bike_id":"6752380e-4e1e-4a90-a7cf-7f791592ec16","system_id":"levelo_inurba_marseille","lat":43.29517,"lon":5.3905,"is_reserved":false,"is_disabled":false,"rental_uris":{"android":"levelo://app?vid=6752380e-4e1e-4a90-a7cf-7f791592ec16","ios":"levelo://app?vid=6752380e-4e1e-4a90-a7cf-7f791592ec16"},"vehicle_type_id":"4","last_reported":1766185891,"current_range_meters":13600,"station_id":"ce4bh3p2rcd13ifvqdp0","pricing_plan_id":"cebpf4jnsgd1na2vs0mg"},{"bike_id":"ff400a14-182c-4479-9723-f211d61c81db","system_id":"levelo_inurba_marseille","lat":43.31982,"lon":5.40402,"is_reserved":false,"is_disabled":false,"rental_uris":{"android":"levelo://app?vid=ff400a14-182c-4479-9723-f211d61c81db","ios":"levelo://app?vid=ff400a14-182c-4479-9723-f211d61c81db"},"vehicle_type_id":"4","last_reported":1766185891,"current_range_meters":13600,"station_id":"","pricing_plan_id":"cebpf4jnsgd1na2vs0mg"},{"bike_id":"20e9dd8e-ed66-4bff-9188-35cbfde59a24","system_id":"levelo_inurba_marseille","lat":43.32323,"lon":5.39369,"is_reserved":false,"is_disabled":false,"rental_uris":{"android":"levelo://app?vid=20e9dd8e-ed66-4bff-9188-35cbfde59a24","ios":"levelo://app?vid=20e9dd8e-ed66-4bff-9188-35cbfde59a24"},"vehicle_type_id":"4","last_reported":1766185891,"current_range_meters":13600,"station_id":"","pricing_plan_id":"cebpf4jnsgd1na2vs0mg"},{"bike_id":"d3d1420e-f945-407f-b74d-0ceced85b713","system_id":"levelo_inurba_marseille","lat":43.28038,"lon":5.36946,"is_reserved":false,"is_disabled":false,"rental_uris":{"android":"levelo://app?vid=d3d1420e-f945-407f-b74d-0ceced85b713","ios":"levelo://app?vid=d3d1420e-f945-407f-b74d-0ceced85b713"},"vehicle_type_id":"4","last_reported":1766185891,"current_range_meters":13600,"station_id":"ce4bha12rcd13ifvqef0","pricing_plan_id":"cebpf4jnsgd1na2vs0mg"},{"bike_id":"3d8062de-4bd0-49c7-86a6-7bf3b5df4845","system_id":"levelo_inurba_marseille","lat":43.28479,"lon":5.48398,"is_reserved":false,"is_disabled":false,"rental_uris":{"android":"levelo://app?vid=3d8062de-4bd0-49c7-86a6-7bf3b5df4845","ios":"levelo://app?vid=3d8062de-4bd0-49c7-86a6-7bf3b5df4845"},"vehicle_type_id":"4","last_reported":1766185891,"current_range_meters":13600,"station_id":"st_d3svhcjqgbts73a3dn0g","pricing_plan_id":"cebpf4jnsgd1na2vs0mg"},{"bike_id":"d26729f5-210b-4096-acd6-99d477896379","system_id":"levelo_inurba_marseille","lat":43.25011,"lon":5.38918,"is_reserved":false,"is_disabled":false,"rental_uris":{"android":"levelo://app?vid=d26729f5-210b-4096-acd6-99d477896379","ios":"levelo://app?vid=d26729f5-210b-4096-acd6-99d477896379"},"vehicle_type_id":"4","last_reported":1766185891,"current_range_meters":13600,"station_id":"ce4bhgp2rcd13ifvqfd0","pricing_plan_id":"cebpf4jnsgd1na2vs0mg"},{"bike_id":"f09dc2af-e0da-4a11-8145-09ed4c1e291b","system_id":"levelo_inurba_marseille","lat":43.29382,"lon":5.3786,"is_reserved":false,"is_disabled":true,"rental_uris":{"android":"levelo://app?vid=f09dc2af-e0da-4a11-8145-09ed4c1e291b","ios":"levelo://app?vid=f09dc2af-e0da-4a11-8145-09ed4c1e291b"},"vehicle_type_id":"4","last_reported":1766185891,"current_range_meters":13600,"station_id":"ce4bgjh2rcd13ifvqbf0","pricing_plan_id":"cebpf4jnsgd1na2vs0mg"},{"bike_id":"9081b6b0-5131-4993-9c79-f21976ce7776","system_id":"levelo_inurba_marseille","lat":43.337444,"lon":5.374475,"is_reserved":false,"is_disabled":false,"rental_uris":{"android":"levelo://app?vid=9081b6b0-5131-4993-9c79-f21976ce7776","ios":"levelo://app?vid=9081b6b0-5131-4993-9c79-f21976ce7776"},"vehicle_type_id":"4","last_reported":1766185891,"current_range_meters":13600,"station_id":"","pricing_plan_id":"cebpf4jnsgd1na2vs0mg"},{"bike_id":"fb031e77-f804-4531-9f6a-28bc59abda80","system_id":"levelo_inurba_marseille","lat":43.2906,"lon":5.3782,"is_reserved":false,"is_disabled":false,"rental_uris":{"android":"levelo://app?vid=fb031e77-f804-4531-9f6a-28bc59abda80","ios":"levelo://app?vid=fb031e77-f804-4531-9f6a-28bc59abda80"},"vehicle_type_id":"4","last_reported":1766185891,"current_range_meters":14000,"station_id":"","pricing_plan_id":"cebpf4jnsgd1na2vs0mg"},{"bike_id":"9e1886ee-5978-4b4e-a4ad-7b1a3973e38d","system_id":"levelo_inurba_marseille","lat":43.311717,"lon":5.387126,"is_reserved":false,"is_disabled":false,"rental_uris":{"android":"levelo://app?vid=9e1886ee-5978-4b4e-a4ad-7b1a3973e38d","ios":"levelo://app?vid=9e1886ee-5978-4b4e-a4ad-7b1a3973e38d"},"vehicle_type_id":"4","last_reported":1766185891,"current_range_meters":14000,"station_id":"ce4bgv12rcd13ifvqcp0","pricing_plan_id":"cebpf4jnsgd1na2vs0mg"},{"bike_id":"7a2810d9-a7a2-4f55-a626-e3338912c6bf","system_id":"levelo_inurba_marseille","lat":43.33741,"lon":5.37474,"is_reserved":false,"is_disabled":false,"rental_uris":{"android":"levelo://app?vid=7a2810d9-a7a2-4f55-a626-e3338912c6bf","ios":"levelo://app?vid=7a2810d9-a7a2-4f55-a626-e3338912c6bf"},"vehicle_type_id":"4","last_reported":1766185891,"current_range_meters":14000,"station_id":"","pricing_plan_id":"cebpf4jnsgd1na2vs0mg"},{"bike_id":"26f6d6a5-5821-4875-a164-33d619759de8","system_id":"levelo_inurba_marseille","lat":43.2417,"lon":5.36399,"is_reserved":false,"is_disabled":false,"rental_uris":{"android":"levelo://app?vid=26f6d6a5-5821-4875-a164-33d619759de8","ios":"levelo://app?vid=26f6d6a5-5821-4875-a164-33d619759de8"},"vehicle_type_id":"4","last_reported":1766185891,"current_range_meters":14000,"station_id":"cpo36qri1sfpv3e86is0","pricing_plan_id":"cebpf4jnsgd1na2vs0mg"},{"bike_id":"9dda9b0f-3aee-451b-807e-9b7f2564409f","system_id":"levelo_inurba_marseille","lat":43.29528,"lon":5.37509,"is_reserved":false,"is_disabled":false,"rental_uris":{"android":"levelo://app?vid=9dda9b0f-3aee-451b-807e-9b7f2564409f","ios":"levelo://app?vid=9dda9b0f-3aee-451b-807e-9b7f2564409f"},"vehicle_type_id":"4","last_reported":1766185891,"current_range_meters":14000,"station_id":"ce4bgkp2rcd13ifvqbmg","pricing_plan_id":"cebpf4jnsgd1na2vs0mg"},{"bike_id":"b9fd6a3a-e5d4-452a-99d2-fbb6f9148990","system_id":"levelo_inurba_marseille","lat":43.29279,"lon":5.40138,"is_reserved":false,"is_disabled":false,"rental_uris":{"android":"levelo://app?vid=b9fd6a3a-e5d4-452a-99d2-fbb6f9148990","ios":"levelo://app?vid=b9fd6a3a-e5d4-452a-99d2-fbb6f9148990"},"vehicle_type_id":"4","last_reported":1766185891,"current_range_meters":14000,"station_id":"ce4bh312rcd13ifvqdk0","pricing_plan_id":"cebpf4jnsgd1na2vs0mg"},{"bike_id":"0c1f6896-cbd5-4c55-b68a-3cd9b92201dc","system_id":"levelo_inurba_marseille","lat":43.29896,"lon":5.43646,"is_reserved":false,"is_disabled":false,"rental_uris":{"android":"levelo://app?vid=0c1f6896-cbd5-4c55-b68a-3cd9b92201dc","ios":"levelo://app?vid=0c1f6896-cbd5-4c55-b68a-3cd9b92201dc"},"vehicle_type_id":"4","last_reported":1766185891,"current_range_meters":14000,"station_id":"ce4bhpp2rcd13ifvqhfg","pricing_plan_id":"cebpf4jnsgd1na2vs0mg"},{"bike_id":"6bb7cf08-cc4f-43ae-aed3-8d6ab6b6c137","system_id":"levelo_inurba_marseille","lat":43.33152,"lon":5.3762,"is_reserved":false,"is_disabled":false,"rental_uris":{"android":"levelo://app?vid=6bb7cf08-cc4f-43ae-aed3-8d6ab6b6c137","ios":"levelo://app?vid=6bb7cf08-cc4f-43ae-aed3-8d6ab6b6c137"},"vehicle_type_id":"4","last_reported":1766185891,"current_range_meters":14000,"station_id":"st_d46cu089ee8s73dldbu0","pricing_plan_id":"cebpf4jnsgd1na2vs0mg"},{"bike_id":"14d95818-03e7-4056-adcf-13b7fb61a04b","system_id":"levelo_inurba_marseille","lat":43.2917,"lon":5.37147,"is_reserved":false,"is_disabled":false,"rental_uris":{"android":"levelo://app?vid=14d95818-03e7-4056-adcf-13b7fb61a04b","ios":"levelo://app?vid=14d95818-03e7-4056-adcf-13b7fb61a04b"},"vehicle_type_id":"4","last_reported":1766185891,"current_range_meters":14000,"station_id":"ce4bha92rcd13ifvqeh0","pricing_plan_id":"cebpf4jnsgd1na2vs0mg"},{"bike_id":"410aa719-af76-4967-8457-d347b0a2e6bb","system_id":"levelo_inurba_marseille","lat":43.25519,"lon":5.37648,"is_reserved":false,"is_disabled":false,"rental_uris":{"android":"levelo://app?vid=410aa719-af76-4967-8457-d347b0a2e6bb","ios":"levelo://app?vid=410aa719-af76-4967-8457-d347b0a2e6bb"},"vehicle_type_id":"4","last_reported":1766185891,"current_range_meters":14000,"station_id":"ce4bhh12rcd13ifvqff0","pricing_plan_id":"cebpf4jnsgd1na2vs0mg"},{"bike_id":"ab723927-49b4-49bb-acac-7a4d21d9263e","system_id":"levelo_inurba_marseille","lat":43.33616,"lon":5.41035,"is_reserved":false,"is_disabled":false,"rental_uris":{"android":"levelo://app?vid=ab723927-49b4-49bb-acac-7a4d21d9263e","ios":"levelo://app?vid=ab723927-49b4-49bb-acac-7a4d21d9263e"},"vehicle_type_id":"4","last_reported":1766185891,"current_range_meters":14000,"station_id":"ce4bhqh2rcd13ifvqhmg","pricing_plan_id":"cebpf4jnsgd1na2vs0mg"},{"bike_id":"b292fd92-46bd-4eb2-8f8a-728e2e6f3dfc","system_id":"levelo_inurba_marseille","lat":43.28499,"lon":5.38435,"is_reserved":false,"is_disabled":false,"rental_uris":{"android":"levelo://app?vid=b292fd92-46bd-4eb2-8f8a-728e2e6f3dfc","ios":"levelo://app?vid=b292fd92-46bd-4eb2-8f8a-728e2e6f3dfc"},"vehicle_type_id":"4","last_reported":1766185891,"current_range_meters":14000,"station_id":"ce4bh512rcd13ifvqe3g","pricing_plan_id":"cebpf4jnsgd1na2vs0mg"},{"bike_id":"8580f57b-5aa3-4bcd-953e-6f28ee58972f","system_id":"levelo_inurba_marseille","lat":43.24631,"lon":5.43158,"is_reserved":false,"is_disabled":false,"rental_uris":{"android":"levelo://app?vid=8580f57b-5aa3-4bcd-953e-6f28ee58972f","ios":"levelo://app?vid=8580f57b-5aa3-4bcd-953e-6f28ee58972f"},"vehicle_type_id":"4","last_reported":1766185891,"current_range_meters":14000,"station_id":"st_d2m6c4gdas8pm72e190g","pricing_plan_id":"cebpf4jnsgd1na2vs0mg"},{"bike_id":"7d7cd1a6-c729-482c-ae5b-9123613e01ec","system_id":"levelo_inurba_marseille","lat":43.23804,"lon":5.36635,"is_reserved":false,"is_disabled":false,"rental_uris":{"android":"levelo://app?vid=7d7cd1a6-c729-482c-ae5b-9123613e01ec","ios":"levelo://app?vid=7d7cd1a6-c729-482c-ae5b-9123613e01ec"},"vehicle_type_id":"4","last_reported":1766185891,"current_range_meters":14000,"station_id":"st_d3nk18o9ro0c73en2l3g","pricing_plan_id":"cebpf4jnsgd1na2vs0mg"},{"bike_id":"f3b1e206-d95c-4749-81ff-7ea507ffa6a5","system_id":"levelo_inurba_marseille","lat":43.265504,"lon":5.372922,"is_reserved":false,"is_disabled":false,"rental_uris":{"android":"levelo://app?vid=f3b1e206-d95c-4749-81ff-7ea507ffa6a5","ios":"levelo://app?vid=f3b1e206-d95c-4749-81ff-7ea507ffa6a5"},"vehicle_type_id":"4","last_reported":1766185891,"current_range_meters":14400,"station_id":"ce4bhg12rcd13ifvqf70","pricing_plan_id":"cebpf4jnsgd1na2vs0mg"},{"bike_id":"fb8e0d3b-0f42-4824-95db-81c4fbdf59f8","system_id":"levelo_inurba_marseille","lat":43.307736,"lon":5.376777,"is_reserved":false,"is_disabled":false,"rental_uris":{"android":"levelo://app?vid=fb8e0d3b-0f42-4824-95db-81c4fbdf59f8","ios":"levelo://app?vid=fb8e0d3b-0f42-4824-95db-81c4fbdf59f8"},"vehicle_type_id":"4","last_reported":1766185891,"current_range_meters":14400,"station_id":"ce4bgv92rcd13ifvqcq0","pricing_plan_id":"cebpf4jnsgd1na2vs0mg"},{"bike_id":"e42ac7ed-f66a-44b4-b394-3418e57e1ec0","system_id":"levelo_inurba_marseille","lat":43.21191,"lon":5.35076,"is_reserved":false,"is_disabled":false,"rental_uris":{"android":"levelo://app?vid=e42ac7ed-f66a-44b4-b394-3418e57e1ec0","ios":"levelo://app?vid=e42ac7ed-f66a-44b4-b394-3418e57e1ec0"},"vehicle_type_id":"4","last_reported":1766185891,"current_range_meters":14400,"station_id":"st_cvj6sg6p6f1abm77japg","pricing_plan_id":"cebpf4jnsgd1na2vs0mg"},{"bike_id":"ba5ddc14-134d-4f97-af1c-22a9ea8f76d0","system_id":"levelo_inurba_marseille","lat":43.27838,"lon":5.39202,"is_reserved":false,"is_disabled":true,"rental_uris":{"android":"levelo://app?vid=ba5ddc14-134d-4f97-af1c-22a9ea8f76d0","ios":"levelo://app?vid=ba5ddc14-134d-4f97-af1c-22a9ea8f76d0"},"vehicle_type_id":"4","last_reported":1766185891,"current_range_meters":14400,"station_id":"ce4bhjp2rcd13ifvqga0","pricing_plan_id":"cebpf4jnsgd1na2vs0mg"},{"bike_id":"8b58605c-24f9-43bc-b38b-d3f57666bf2b","system_id":"levelo_inurba_marseille","lat":43.27937,"lon":5.41051,"is_reserved":false,"is_disabled":false,"rental_uris":{"android":"levelo://app?vid=8b58605c-24f9-43bc-b38b-d3f57666bf2b","ios":"levelo://app?vid=8b58605c-24f9-43bc-b38b-d3f57666bf2b"},"vehicle_type_id":"4","last_reported":1766185891,"current_range_meters":14400,"station_id":"ce4bhnp2rcd13ifvqh0g","pricing_plan_id":"cebpf4jnsgd1na2vs0mg"},{"bike_id":"78567a20-b1ed-46c4-a479-2ee451b65c20","system_id":"levelo_inurba_marseille","lat":43.29569,"lon":5.37502,"is_reserved":false,"is_disabled":false,"rental_uris":{"android":"levelo://app?vid=78567a20-b1ed-46c4-a479-2ee451b65c20","ios":"levelo://app?vid=78567a20-b1ed-46c4-a479-2ee451b65c20"},"vehicle_type_id":"4","last_reported":1766185891,"current_range_meters":14400,"station_id":"ce4bgh92rcd13ifvqb50","pricing_plan_id":"cebpf4jnsgd1na2vs0mg"},{"bike_id":"2085b852-1d74-495b-98a0-b5219ae4a550","system_id":"levelo_inurba_marseille","lat":43.24159,"lon":5.36407,"is_reserved":false,"is_disabled":false,"rental_uris":{"android":"levelo://app?vid=2085b852-1d74-495b-98a0-b5219ae4a550","ios":"levelo://app?vid=2085b852-1d74-495b-98a0-b5219ae4a550"},"vehicle_type_id":"4","last_reported":1766185891,"current_range_meters":14400,"station_id":"cpo36qri1sfpv3e86is0","pricing_plan_id":"cebpf4jnsgd1na2vs0mg"},{"bike_id":"e854eef1-e631-49df-8024-94b8790f513f","system_id":"levelo_inurba_marseille","lat":43.30793,"lon":5.38147,"is_reserved":false,"is_disabled":false,"rental_uris":{"android":"levelo://app?vid=e854eef1-e631-49df-8024-94b8790f513f","ios":"levelo://app?vid=e854eef1-e631-49df-8024-94b8790f513f"},"vehicle_type_id":"4","last_reported":1766185891,"current_range_meters":14400,"station_id":"ce4bgt12rcd13ifvqce0","pricing_plan_id":"cebpf4jnsgd1na2vs0mg"},{"bike_id":"19f83498-9c2c-438c-9319-9c90e9928c89","system_id":"levelo_inurba_marseille","lat":43.302928,"lon":5.376866,"is_reserved":false,"is_disabled":false,"rental_uris":{"android":"levelo://app?vid=19f83498-9c2c-438c-9319-9c90e9928c89","ios":"levelo://app?vid=19f83498-9c2c-438c-9319-9c90e9928c89"},"vehicle_type_id":"4","last_reported":1766185891,"current_range_meters":14400,"station_id":"ce4bguh2rcd13ifvqcj0","pricing_plan_id":"cebpf4jnsgd1na2vs0mg"},{"bike_id":"71574c61-777d-4df7-8925-2e141c5c5094","system_id":"levelo_inurba_marseille","lat":43.312753,"lon":5.401803,"is_reserved":false,"is_disabled":false,"rental_uris":{"android":"levelo://app?vid=71574c61-777d-4df7-8925-2e141c5c5094","ios":"levelo://app?vid=71574c61-777d-4df7-8925-2e141c5c5094"},"vehicle_type_id":"4","last_reported":1766185891,"current_range_meters":14400,"station_id":"","pricing_plan_id":"cebpf4jnsgd1na2vs0mg"},{"bike_id":"81d9b9c0-6984-4243-9b90-5a011f67b45b","system_id":"levelo_inurba_marseille","lat":43.26563,"lon":5.37312,"is_reserved":false,"is_disabled":false,"rental_uris":{"android":"levelo://app?vid=81d9b9c0-6984-4243-9b90-5a011f67b45b","ios":"levelo://app?vid=81d9b9c0-6984-4243-9b90-5a011f67b45b"},"vehicle_type_id":"4","last_reported":1766185891,"current_range_meters":14400,"station_id":"ce4bhg12rcd13ifvqf70","pricing_plan_id":"cebpf4jnsgd1na2vs0mg"},{"bike_id":"9ed2abc5-3eb4-46ee-9006-c9e3411abb84","system_id":"levelo_inurba_marseille","lat":43.26363,"lon":5.39919,"is_reserved":false,"is_disabled":false,"rental_uris":{"android":"levelo://app?vid=9ed2abc5-3eb4-46ee-9006-c9e3411abb84","ios":"levelo://app?vid=9ed2abc5-3eb4-46ee-9006-c9e3411abb84"},"vehicle_type_id":"4","last_reported":1766185891,"current_range_meters":14400,"station_id":"","pricing_plan_id":"cebpf4jnsgd1na2vs0mg"},{"bike_id":"a4d7c751-6e4e-449e-8b0c-f6b7a7209501","system_id":"levelo_inurba_marseille","lat":43.31052,"lon":5.37153,"is_reserved":false,"is_disabled":false,"rental_uris":{"android":"levelo://app?vid=a4d7c751-6e4e-449e-8b0c-f6b7a7209501","ios":"levelo://app?vid=a4d7c751-6e4e-449e-8b0c-f6b7a7209501"},"vehicle_type_id":"4","last_reported":1766185891,"current_range_meters":14400,"station_id":"st_d4kl2rp97mjs73e7tdfg","pricing_plan_id":"cebpf4jnsgd1na2vs0mg"},{"bike_id":"20ce8cf1-9f9d-448e-ad1e-77f9e595930e","system_id":"levelo_inurba_marseille","lat":43.23776,"lon":5.36658,"is_reserved":false,"is_disabled":false,"rental_uris":{"android":"levelo://app?vid=20ce8cf1-9f9d-448e-ad1e-77f9e595930e","ios":"levelo://app?vid=20ce8cf1-9f9d-448e-ad1e-77f9e595930e"},"vehicle_type_id":"4","last_reported":1766185891,"current_range_meters":14800,"station_id":"st_d3nk18o9ro0c73en2l3g","pricing_plan_id":"cebpf4jnsgd1na2vs0mg"},{"bike_id":"26710569-0a32-4772-bdf2-90eda4871cac","system_id":"levelo_inurba_marseille","lat":43.29869,"lon":5.38906,"is_reserved":false,"is_disabled":true,"rental_uris":{"android":"levelo://app?vid=26710569-0a32-4772-bdf2-90eda4871cac","ios":"levelo://app?vid=26710569-0a32-4772-bdf2-90eda4871cac"},"vehicle_type_id":"4","last_reported":1766185891,"current_range_meters":14800,"station_id":"ce4bh392rcd13ifvqdl0","pricing_plan_id":"cebpf4jnsgd1na2vs0mg"},{"bike_id":"d333f5c5-54f8-4cf5-940a-bb6a2ed8e5fd","system_id":"levelo_inurba_marseille","lat":43.30538,"lon":5.37611,"is_reserved":false,"is_disabled":false,"rental_uris":{"android":"levelo://app?vid=d333f5c5-54f8-4cf5-940a-bb6a2ed8e5fd","ios":"levelo://app?vid=d333f5c5-54f8-4cf5-940a-bb6a2ed8e5fd"},"vehicle_type_id":"4","last_reported":1766185891,"current_range_meters":14800,"station_id":"","pricing_plan_id":"cebpf4jnsgd1na2vs0mg"},{"bike_id":"e38b8f28-f63b-4c54-b33c-3b917dffbe40","system_id":"levelo_inurba_marseille","lat":43.22543,"lon":5.34838,"is_reserved":false,"is_disabled":false,"rental_uris":{"android":"levelo://app?vid=e38b8f28-f63b-4c54-b33c-3b917dffbe40","ios":"levelo://app?vid=e38b8f28-f63b-4c54-b33c-3b917dffbe40"},"vehicle_type_id":"4","last_reported":1766185891,"current_range_meters":14800,"station_id":"","pricing_plan_id":"cebpf4jnsgd1na2vs0mg"},{"bike_id":"90f8fe9a-ddea-490c-a93c-f47190bbab49","system_id":"levelo_inurba_marseille","lat":43.31419,"lon":5.36711,"is_reserved":false,"is_disabled":false,"rental_uris":{"android":"levelo://app?vid=90f8fe9a-ddea-490c-a93c-f47190bbab49","ios":"levelo://app?vid=90f8fe9a-ddea-490c-a93c-f47190bbab49"},"vehicle_type_id":"4","last_reported":1766185891,"current_range_meters":14800,"station_id":"ce4bgr92rcd13ifvqc6g","pricing_plan_id":"cebpf4jnsgd1na2vs0mg"},{"bike_id":"d796ac3e-d924-4d00-9348-0900ac0099ff","system_id":"levelo_inurba_marseille","lat":43.24467,"lon":5.42534,"is_reserved":false,"is_disabled":false,"rental_uris":{"android":"levelo://app?vid=d796ac3e-d924-4d00-9348-0900ac0099ff","ios":"levelo://app?vid=d796ac3e-d924-4d00-9348-0900ac0099ff"},"vehicle_type_id":"4","last_reported":1766185891,"current_range_meters":14800,"station_id":"st_d4a3vfp97mjs738cd8kg","pricing_plan_id":"cebpf4jnsgd1na2vs0mg"},{"bike_id":"dd7cc88c-c7d9-4919-8116-cf39ed770198","system_id":"levelo_inurba_marseille","lat":43.309546,"lon":5.40152,"is_reserved":false,"is_disabled":false,"rental_uris":{"android":"levelo://app?vid=dd7cc88c-c7d9-4919-8116-cf39ed770198","ios":"levelo://app?vid=dd7cc88c-c7d9-4919-8116-cf39ed770198"},"vehicle_type_id":"4","last_reported":1766185891,"current_range_meters":14800,"station_id":"ce4bgvp2rcd13ifvqct0","pricing_plan_id":"cebpf4jnsgd1na2vs0mg"},{"bike_id":"4627b20e-1272-4967-a6bb-d3a2840e7d29","system_id":"levelo_inurba_marseille","lat":43.331525,"lon":5.376909,"is_reserved":false,"is_disabled":false,"rental_uris":{"android":"levelo://app?vid=4627b20e-1272-4967-a6bb-d3a2840e7d29","ios":"levelo://app?vid=4627b20e-1272-4967-a6bb-d3a2840e7d29"},"vehicle_type_id":"4","last_reported":1766185891,"current_range_meters":14800,"station_id":"st_d46cu089ee8s73dldbu0","pricing_plan_id":"cebpf4jnsgd1na2vs0mg"},{"bike_id":"2daa50ed-05b8-48ab-9b99-88e642947944","system_id":"levelo_inurba_marseille","lat":43.30547,"lon":5.38435,"is_reserved":false,"is_disabled":false,"rental_uris":{"android":"levelo://app?vid=2daa50ed-05b8-48ab-9b99-88e642947944","ios":"levelo://app?vid=2daa50ed-05b8-48ab-9b99-88e642947944"},"vehicle_type_id":"4","last_reported":1766185891,"current_range_meters":14800,"station_id":"ce4bgg92rcd13ifvqb30","pricing_plan_id":"cebpf4jnsgd1na2vs0mg"},{"bike_id":"e4ea7d09-2075-4c2e-84c3-9a697f2f820b","system_id":"levelo_inurba_marseille","lat":43.282328,"lon":5.370104,"is_reserved":false,"is_disabled":false,"rental_uris":{"android":"levelo://app?vid=e4ea7d09-2075-4c2e-84c3-9a697f2f820b","ios":"levelo://app?vid=e4ea7d09-2075-4c2e-84c3-9a697f2f820b"},"vehicle_type_id":"4","last_reported":1766185891,"current_range_meters":14800,"station_id":"","pricing_plan_id":"cebpf4jnsgd1na2vs0mg"},{"bike_id":"3a68f052-ef14-4b15-a197-210bb3d4845c","system_id":"levelo_inurba_marseille","lat":43.28575,"lon":5.39524,"is_reserved":false,"is_disabled":false,"rental_uris":{"android":"levelo://app?vid=3a68f052-ef14-4b15-a197-210bb3d4845c","ios":"levelo://app?vid=3a68f052-ef14-4b15-a197-210bb3d4845c"},"vehicle_type_id":"4","last_reported":1766185891,"current_range_meters":15200,"station_id":"ce4bh292rcd13ifvqdg0","pricing_plan_id":"cebpf4jnsgd1na2vs0mg"},{"bike_id":"623bd85b-e1ae-4e4c-9772-6ebc7131dc6e","system_id":"levelo_inurba_marseille","lat":43.31111,"lon":5.37767,"is_reserved":false,"is_disabled":false,"rental_uris":{"android":"levelo://app?vid=623bd85b-e1ae-4e4c-9772-6ebc7131dc6e","ios":"levelo://app?vid=623bd85b-e1ae-4e4c-9772-6ebc7131dc6e"},"vehicle_type_id":"4","last_reported":1766185891,"current_range_meters":15200,"station_id":"ce4bgt92rcd13ifvqcg0","pricing_plan_id":"cebpf4jnsgd1na2vs0mg"},{"bike_id":"d93eed39-a491-45bd-a27b-3b19929bf78e","system_id":"levelo_inurba_marseille","lat":43.237842,"lon":5.366316,"is_reserved":false,"is_disabled":false,"rental_uris":{"android":"levelo://app?vid=d93eed39-a491-45bd-a27b-3b19929bf78e","ios":"levelo://app?vid=d93eed39-a491-45bd-a27b-3b19929bf78e"},"vehicle_type_id":"4","last_reported":1766185891,"current_range_meters":15200,"station_id":"st_d3nk18o9ro0c73en2l3g","pricing_plan_id":"cebpf4jnsgd1na2vs0mg"},{"bike_id":"13510b18-4a9b-47d0-a954-6d7cdc2c118c","system_id":"levelo_inurba_marseille","lat":43.28479,"lon":5.48399,"is_reserved":false,"is_disabled":false,"rental_uris":{"android":"levelo://app?vid=13510b18-4a9b-47d0-a954-6d7cdc2c118c","ios":"levelo://app?vid=13510b18-4a9b-47d0-a954-6d7cdc2c118c"},"vehicle_type_id":"4","last_reported":1766185891,"current_range_meters":15200,"station_id":"","pricing_plan_id":"cebpf4jnsgd1na2vs0mg"},{"bike_id":"b3c3bc4c-301f-4da2-bf0c-9377255fa4f2","system_id":"levelo_inurba_marseille","lat":43.30146,"lon":5.43105,"is_reserved":false,"is_disabled":false,"rental_uris":{"android":"levelo://app?vid=b3c3bc4c-301f-4da2-bf0c-9377255fa4f2","ios":"levelo://app?vid=b3c3bc4c-301f-4da2-bf0c-9377255fa4f2"},"vehicle_type_id":"4","last_reported":1766185891,"current_range_meters":15200,"station_id":"st_d3js3co5814s73ftftug","pricing_plan_id":"cebpf4jnsgd1na2vs0mg"},{"bike_id":"d5050a0b-d40f-4b78-90dd-ec7e23fa4355","system_id":"levelo_inurba_marseille","lat":43.2996,"lon":5.384967,"is_reserved":false,"is_disabled":false,"rental_uris":{"android":"levelo://app?vid=d5050a0b-d40f-4b78-90dd-ec7e23fa4355","ios":"levelo://app?vid=d5050a0b-d40f-4b78-90dd-ec7e23fa4355"},"vehicle_type_id":"4","last_reported":1766185891,"current_range_meters":15200,"station_id":"ce4bgj92rcd13ifvqbd0","pricing_plan_id":"cebpf4jnsgd1na2vs0mg"},{"bike_id":"38037a8b-e273-42d2-a455-4b2107ee1743","system_id":"levelo_inurba_marseille","lat":43.30107,"lon":5.43145,"is_reserved":false,"is_disabled":false,"rental_uris":{"android":"levelo://app?vid=38037a8b-e273-42d2-a455-4b2107ee1743","ios":"levelo://app?vid=38037a8b-e273-42d2-a455-4b2107ee1743"},"vehicle_type_id":"4","last_reported":1766185891,"current_range_meters":15200,"station_id":"st_d3js3co5814s73ftftug","pricing_plan_id":"cebpf4jnsgd1na2vs0mg"},{"bike_id":"98c040ff-ac12-4358-bded-c79cb9358db9","system_id":"levelo_inurba_marseille","lat":43.31721,"lon":5.42404,"is_reserved":false,"is_disabled":false,"rental_uris":{"android":"levelo://app?vid=98c040ff-ac12-4358-bded-c79cb9358db9","ios":"levelo://app?vid=98c040ff-ac12-4358-bded-c79cb9358db9"},"vehicle_type_id":"4","last_reported":1766185891,"current_range_meters":15200,"station_id":"ce4bhp92rcd13ifvqhbg","pricing_plan_id":"cebpf4jnsgd1na2vs0mg"},{"bike_id":"f6a1d849-a8eb-4332-80ad-f13ff4419fe3","system_id":"levelo_inurba_marseille","lat":43.26555,"lon":5.39013,"is_reserved":false,"is_disabled":false,"rental_uris":{"android":"levelo://app?vid=f6a1d849-a8eb-4332-80ad-f13ff4419fe3","ios":"levelo://app?vid=f6a1d849-a8eb-4332-80ad-f13ff4419fe3"},"vehicle_type_id":"4","last_reported":1766185891,"current_range_meters":15200,"station_id":"ce4bhe12rcd13ifvqf30","pricing_plan_id":"cebpf4jnsgd1na2vs0mg"},{"bike_id":"90d67441-640b-42e5-96dc-0fa0703de501","system_id":"levelo_inurba_marseille","lat":43.27571,"lon":5.38428,"is_reserved":false,"is_disabled":false,"rental_uris":{"android":"levelo://app?vid=90d67441-640b-42e5-96dc-0fa0703de501","ios":"levelo://app?vid=90d67441-640b-42e5-96dc-0fa0703de501"},"vehicle_type_id":"4","last_reported":1766185891,"current_range_meters":15200,"station_id":"ce4bhh92rcd13ifvqfi0","pricing_plan_id":"cebpf4jnsgd1na2vs0mg"},{"bike_id":"40d73e8d-0c27-4119-afd6-7fe731b3c8a2","system_id":"levelo_inurba_marseille","lat":43.23193,"lon":5.35544,"is_reserved":false,"is_disabled":false,"rental_uris":{"android":"levelo://app?vid=40d73e8d-0c27-4119-afd6-7fe731b3c8a2","ios":"levelo://app?vid=40d73e8d-0c27-4119-afd6-7fe731b3c8a2"},"vehicle_type_id":"4","last_reported":1766185891,"current_range_meters":16000,"station_id":"ce4bhu92rcd13ifvqi70","pricing_plan_id":"cebpf4jnsgd1na2vs0mg"},{"bike_id":"36ade634-df48-44f9-b075-40ec36cf2977","system_id":"levelo_inurba_marseille","lat":43.28265,"lon":5.35057,"is_reserved":false,"is_disabled":false,"rental_uris":{"android":"levelo://app?vid=36ade634-df48-44f9-b075-40ec36cf2977","ios":"levelo://app?vid=36ade634-df48-44f9-b075-40ec36cf2977"},"vehicle_type_id":"4","last_reported":1766185891,"current_range_meters":16000,"station_id":"ce4bhbp2rcd13ifvqerg","pricing_plan_id":"cebpf4jnsgd1na2vs0mg"},{"bike_id":"156e61f2-3d75-4260-9924-a8b3ec92c21b","system_id":"levelo_inurba_marseille","lat":43.22565,"lon":5.41631,"is_reserved":false,"is_disabled":true,"rental_uris":{"android":"levelo://app?vid=156e61f2-3d75-4260-9924-a8b3ec92c21b","ios":"levelo://app?vid=156e61f2-3d75-4260-9924-a8b3ec92c21b"},"vehicle_type_id":"4","last_reported":1766185891,"current_range_meters":16000,"station_id":"st_d2o4gvlbi1j2169b742g","pricing_plan_id":"cebpf4jnsgd1na2vs0mg"},{"bike_id":"c84b8e47-5802-4c21-b1cc-1df47c4f26c2","system_id":"levelo_inurba_marseille","lat":43.28481,"lon":5.48389,"is_reserved":false,"is_disabled":false,"rental_uris":{"android":"levelo://app?vid=c84b8e47-5802-4c21-b1cc-1df47c4f26c2","ios":"levelo://app?vid=c84b8e47-5802-4c21-b1cc-1df47c4f26c2"},"vehicle_type_id":"4","last_reported":1766185891,"current_range_meters":16000,"station_id":"","pricing_plan_id":"cebpf4jnsgd1na2vs0mg"},{"bike_id":"855d16cb-a0fd-4e07-9270-f8edf3ac4bcb","system_id":"levelo_inurba_marseille","lat":43.27997,"lon":5.41739,"is_reserved":false,"is_disabled":false,"rental_uris":{"android":"levelo://app?vid=855d16cb-a0fd-4e07-9270-f8edf3ac4bcb","ios":"levelo://app?vid=855d16cb-a0fd-4e07-9270-f8edf3ac4bcb"},"vehicle_type_id":"4","last_reported":1766185891,"current_range_meters":16000,"station_id":"","pricing_plan_id":"cebpf4jnsgd1na2vs0mg"},{"bike_id":"6d5041ce-41c2-4e8b-be96-64e9af87e22a","system_id":"levelo_inurba_marseille","lat":43.31687,"lon":5.37842,"is_reserved":false,"is_disabled":false,"rental_uris":{"android":"levelo://app?vid=6d5041ce-41c2-4e8b-be96-64e9af87e22a","ios":"levelo://app?vid=6d5041ce-41c2-4e8b-be96-64e9af87e22a"},"vehicle_type_id":"4","last_reported":1766185891,"current_range_meters":16000,"station_id":"ce4bgth2rcd13ifvqch0","pricing_plan_id":"cebpf4jnsgd1na2vs0mg"},{"bike_id":"fdbadaf6-7a4c-43c3-a7a8-dea8eea79bab","system_id":"levelo_inurba_marseille","lat":43.291977,"lon":5.400473,"is_reserved":false,"is_disabled":false,"rental_uris":{"android":"levelo://app?vid=fdbadaf6-7a4c-43c3-a7a8-dea8eea79bab","ios":"levelo://app?vid=fdbadaf6-7a4c-43c3-a7a8-dea8eea79bab"},"vehicle_type_id":"4","last_reported":1766185891,"current_range_meters":16000,"station_id":"ce4bh312rcd13ifvqdk0","pricing_plan_id":"cebpf4jnsgd1na2vs0mg"},{"bike_id":"fcede5a4-20f9-412b-a918-55a3036b937b","system_id":"levelo_inurba_marseille","lat":43.29961,"lon":5.36536,"is_reserved":false,"is_disabled":false,"rental_uris":{"android":"levelo://app?vid=fcede5a4-20f9-412b-a918-55a3036b937b","ios":"levelo://app?vid=fcede5a4-20f9-412b-a918-55a3036b937b"},"vehicle_type_id":"4","last_reported":1766185891,"current_range_meters":16000,"station_id":"ce4bgm92rcd13ifvqbr0","pricing_plan_id":"cebpf4jnsgd1na2vs0mg"},{"bike_id":"28ad1a9a-391c-435e-96a8-1e7f1aea86aa","system_id":"levelo_inurba_marseille","lat":43.30127,"lon":5.43145,"is_reserved":false,"is_disabled":false,"rental_uris":{"android":"levelo://app?vid=28ad1a9a-391c-435e-96a8-1e7f1aea86aa","ios":"levelo://app?vid=28ad1a9a-391c-435e-96a8-1e7f1aea86aa"},"vehicle_type_id":"4","last_reported":1766185891,"current_range_meters":16400,"station_id":"st_d3js3co5814s73ftftug","pricing_plan_id":"cebpf4jnsgd1na2vs0mg"},{"bike_id":"90dac6f2-4e58-4623-b929-4f8d06ec1c31","system_id":"levelo_inurba_marseille","lat":43.28508,"lon":5.42541,"is_reserved":false,"is_disabled":false,"rental_uris":{"android":"levelo://app?vid=90dac6f2-4e58-4623-b929-4f8d06ec1c31","ios":"levelo://app?vid=90dac6f2-4e58-4623-b929-4f8d06ec1c31"},"vehicle_type_id":"4","last_reported":1766185891,"current_range_meters":16400,"station_id":"","pricing_plan_id":"cebpf4jnsgd1na2vs0mg"},{"bike_id":"5cdf0c26-71fe-4230-ab4f-b50d47db508a","system_id":"levelo_inurba_marseille","lat":43.30149,"lon":5.39755,"is_reserved":false,"is_disabled":false,"rental_uris":{"android":"levelo://app?vid=5cdf0c26-71fe-4230-ab4f-b50d47db508a","ios":"levelo://app?vid=5cdf0c26-71fe-4230-ab4f-b50d47db508a"},"vehicle_type_id":"4","last_reported":1766185891,"current_range_meters":16400,"station_id":"","pricing_plan_id":"cebpf4jnsgd1na2vs0mg"},{"bike_id":"f2c2f21a-2643-40c9-a83e-5a52788ba994","system_id":"levelo_inurba_marseille","lat":43.23789,"lon":5.36625,"is_reserved":false,"is_disabled":false,"rental_uris":{"android":"levelo://app?vid=f2c2f21a-2643-40c9-a83e-5a52788ba994","ios":"levelo://app?vid=f2c2f21a-2643-40c9-a83e-5a52788ba994"},"vehicle_type_id":"4","last_reported":1766185891,"current_range_meters":16400,"station_id":"st_d3nk18o9ro0c73en2l3g","pricing_plan_id":"cebpf4jnsgd1na2vs0mg"},{"bike_id":"e690c867-6f92-4878-bff7-a3243322d024","system_id":"levelo_inurba_marseille","lat":43.294586,"lon":5.427346,"is_reserved":false,"is_disabled":false,"rental_uris":{"android":"levelo://app?vid=e690c867-6f92-4878-bff7-a3243322d024","ios":"levelo://app?vid=e690c867-6f92-4878-bff7-a3243322d024"},"vehicle_type_id":"4","last_reported":1766185891,"current_range_meters":16400,"station_id":"","pricing_plan_id":"cebpf4jnsgd1na2vs0mg"},{"bike_id":"f247771e-2838-4c74-9387-68cb8feccb4e","system_id":"levelo_inurba_marseille","lat":43.28566,"lon":5.40459,"is_reserved":false,"is_disabled":false,"rental_uris":{"android":"levelo://app?vid=f247771e-2838-4c74-9387-68cb8feccb4e","ios":"levelo://app?vid=f247771e-2838-4c74-9387-68cb8feccb4e"},"vehicle_type_id":"4","last_reported":1766185891,"current_range_meters":16400,"station_id":"","pricing_plan_id":"cebpf4jnsgd1na2vs0mg"},{"bike_id":"830f0a5e-9f3c-4372-a0fa-03870374ddc2","system_id":"levelo_inurba_marseille","lat":43.254761,"lon":5.401194,"is_reserved":false,"is_disabled":false,"rental_uris":{"android":"levelo://app?vid=830f0a5e-9f3c-4372-a0fa-03870374ddc2","ios":"levelo://app?vid=830f0a5e-9f3c-4372-a0fa-03870374ddc2"},"vehicle_type_id":"4","last_reported":1766185891,"current_range_meters":16400,"station_id":"ce4bhlh2rcd13ifvqgig","pricing_plan_id":"cebpf4jnsgd1na2vs0mg"},{"bike_id":"8c281682-981b-41c2-9901-6c275d52d0e2","system_id":"levelo_inurba_marseille","lat":43.286236,"lon":5.351048,"is_reserved":false,"is_disabled":false,"rental_uris":{"android":"levelo://app?vid=8c281682-981b-41c2-9901-6c275d52d0e2","ios":"levelo://app?vid=8c281682-981b-41c2-9901-6c275d52d0e2"},"vehicle_type_id":"4","last_reported":1766185891,"current_range_meters":16400,"station_id":"ce4bhch2rcd13ifvqeug","pricing_plan_id":"cebpf4jnsgd1na2vs0mg"},{"bike_id":"a7287041-9fda-41b8-b6f1-3cc87120ceec","system_id":"levelo_inurba_marseille","lat":43.27946,"lon":5.41058,"is_reserved":false,"is_disabled":false,"rental_uris":{"android":"levelo://app?vid=a7287041-9fda-41b8-b6f1-3cc87120ceec","ios":"levelo://app?vid=a7287041-9fda-41b8-b6f1-3cc87120ceec"},"vehicle_type_id":"4","last_reported":1766185891,"current_range_meters":16400,"station_id":"ce4bhnp2rcd13ifvqh0g","pricing_plan_id":"cebpf4jnsgd1na2vs0mg"},{"bike_id":"c77925b6-3ecc-478f-bd5f-39a2551d5e66","system_id":"levelo_inurba_marseille","lat":43.29564,"lon":5.42272,"is_reserved":false,"is_disabled":false,"rental_uris":{"android":"levelo://app?vid=c77925b6-3ecc-478f-bd5f-39a2551d5e66","ios":"levelo://app?vid=c77925b6-3ecc-478f-bd5f-39a2551d5e66"},"vehicle_type_id":"4","last_reported":1766185891,"current_range_meters":16400,"station_id":"ce4bhph2rcd13ifvqhdg","pricing_plan_id":"cebpf4jnsgd1na2vs0mg"},{"bike_id":"1a399a16-62ed-47ae-ba1c-654e7762c033","system_id":"levelo_inurba_marseille","lat":43.3003,"lon":5.38004,"is_reserved":false,"is_disabled":false,"rental_uris":{"android":"levelo://app?vid=1a399a16-62ed-47ae-ba1c-654e7762c033","ios":"levelo://app?vid=1a399a16-62ed-47ae-ba1c-654e7762c033"},"vehicle_type_id":"4","last_reported":1766185891,"current_range_meters":16800,"station_id":"","pricing_plan_id":"cebpf4jnsgd1na2vs0mg"},{"bike_id":"22a40d0a-95d4-4372-b972-453fda8655a6","system_id":"levelo_inurba_marseille","lat":43.30875,"lon":5.39623,"is_reserved":false,"is_disabled":false,"rental_uris":{"android":"levelo://app?vid=22a40d0a-95d4-4372-b972-453fda8655a6","ios":"levelo://app?vid=22a40d0a-95d4-4372-b972-453fda8655a6"},"vehicle_type_id":"4","last_reported":1766185891,"current_range_meters":16800,"station_id":"ce4bh012rcd13ifvqcv0","pricing_plan_id":"cebpf4jnsgd1na2vs0mg"},