{"last_updated":1774747433,"ttl":60,"version":"2.2","data":{"bikes":[{"bike_id":"4ddee2e3-bbb9-4f86-9a53-c64aca028eb7","system_id":"levelo_inurba_marseille","lat":43.2572,"lon":5.41083,"is_reserved":false,"is_disabled":false,"rental_uris":{"android":"levelo://app?vid=4ddee2e3-bbb9-4f86-9a53-c64aca028eb7","ios":"levelo://app?vid=4ddee2e3-bbb9-4f86-9a53-c64aca028eb7"},"vehicle_type_id":"4","last_reported":1774747434,"current_range_meters":2800,"station_id":"ce4bhkp2rcd13ifvqgd0","pricing_plan_id":"cebpf4jnsgd1na2vs0mg"},{"bike_id":"2873a201-01ad-44f0-a3f4-1c2939d32934","system_id":"levelo_inurba_marseille","lat":43.31544,"lon":5.38011,"is_reserved":false,"is_disabled":false,"rental_uris":{"android":"levelo://app?vid=2873a201-01ad-44f0-a3f4-1c2939d32934","ios":"levelo://app?vid=2873a201-01ad-44f0-a3f4-1c2939d32934"},"vehicle_type_id":"4","last_reported":1774747434,"current_range_meters":2800,"station_id":"ce4bhsp2rcd13ifvqi50","pricing_plan_id":"cebpf4jnsgd1na2vs0mg"},{"bike_id":"5530c769-9e93-4d66-baaa-f3800a978493","system_id":"levelo_inurba_marseille","lat":43.24481,"lon":5.42527,"is_reserved":false,"is_disabled":false,"rental_uris":{"android":"levelo://app?vid=5530c769-9e93-4d66-baaa-f3800a978493","ios":"levelo://app?vid=5530c769-9e93-4d66-baaa-f3800a978493"},"vehicle_type_id":"4","last_reported":1774747434,"current_range_meters":2800,"station_id":"st_d4a3vfp97mjs738cd8kg","pricing_plan_id":"cebpf4jnsgd1na2vs0mg"},{"bike_id":"38121aba-cf52-46ff-b72d-8bcc0c109707","system_id":"levelo_inurba_marseille","lat":43.31447,"lon":5.37333,"is_reserved":false,"is_disabled":false,"rental_uris":{"android":"levelo://app?vid=38121aba-cf52-46ff-b72d-8bcc0c109707","ios":"levelo://app?vid=38121aba-cf52-46ff-b72d-8bcc0c109707"},"vehicle_type_id":"4","last_reported":1774747434,"current_range_meters":2800,"station_id":"ce4bgt12rcd13ifvqcd0","pricing_plan_id":"cebpf4jnsgd1na2vs0mg"},{"bike_id":"09308185-3b0f-4ee1-afda-90dee92cbe0f","system_id":"levelo_inurba_marseille","lat":43.2999,"lon":5.38481,"is_reserved":false,"is_disabled":true,"rental_uris":{"android":"levelo://app?vid=09308185-3b0f-4ee1-afda-90dee92cbe0f","ios":"levelo://app?vid=09308185-3b0f-4ee1-afda-90dee92cbe0f"},"vehicle_type_id":"4","last_reported":1774747434,"current_range_meters":2800,"station_id":"ce4bgj92rcd13ifvqbd0","pricing_plan_id":"cebpf4jnsgd1na2vs0mg"},{"bike_id":"248e7202-bf14-41af-ab35-7275ee6c4d6f","system_id":"levelo_inurba_marseille","lat":43.23349,"lon":5.41224,"is_reserved":false,"is_disabled":false,"rental_uris":{"android":"levelo://app?vid=248e7202-bf14-41af-ab35-7275ee6c4d6f","ios":"levelo://app?vid=248e7202-bf14-41af-ab35-7275ee6c4d6f"},"vehicle_type_id":"4","last_reported":1774747434,"current_range_meters":2800,"station_id":"","pricing_plan_id":"cebpf4jnsgd1na2vs0mg"},{"bike_id":"978dcbd9-0fc7-4491-a030-3fdcc187b5bc","system_id":"levelo_inurba_marseille","lat":43.25113,"lon":5.40317,"is_reserved":false,"is_disabled":false,"rental_uris":{"android":"levelo://app?vid=978dcbd9-0fc7-4491-a030-3fdcc187b5bc","ios":"levelo://app?vid=978dcbd9-0fc7-4491-a030-3fdcc187b5bc"},"vehicle_type_id":"4","last_reported":1774747434,"current_range_meters":2800,"station_id":"ce4bhlh2rcd13ifvqgig","pricing_plan_id":"cebpf4jnsgd1na2vs0mg"},{"bike_id":"82523050-0114-4216-bd2a-f22e8eeab525","system_id":"levelo_inurba_marseille","lat":43.2926,"lon":5.40917,"is_reserved":false,"is_disabled":false,"rental_uris":{"android":"levelo://app?vid=82523050-0114-4216-bd2a-f22e8eeab525","ios":"levelo://app?vid=82523050-0114-4216-bd2a-f22e8eeab525"},"vehicle_type_id":"4","last_reported":1774747434,"current_range_meters":2800,"station_id":"ce4bh192rcd13ifvqdc0","pricing_plan_id":"cebpf4jnsgd1na2vs0mg"},{"bike_id":"ff23f6c3-07d6-471d-b47c-972e4e2656c1","system_id":"levelo_inurba_marseille","lat":43.21187,"lon":5.35069,"is_reserved":false,"is_disabled":false,"rental_uris":{"android":"levelo://app?vid=ff23f6c3-07d6-471d-b47c-972e4e2656c1","ios":"levelo://app?vid=ff23f6c3-07d6-471d-b47c-972e4e2656c1"},"vehicle_type_id":"4","last_reported":1774747434,"current_range_meters":2800,"station_id":"st_cvj6sg6p6f1abm77japg","pricing_plan_id":"cebpf4jnsgd1na2vs0mg"},{"bike_id":"248e9d38-5dcd-4d98-894a-0300a4c25074","system_id":"levelo_inurba_marseille","lat":43.29256,"lon":5.409,"is_reserved":false,"is_disabled":false,"rental_uris":{"android":"levelo://app?vid=248e9d38-5dcd-4d98-894a-0300a4c25074","ios":"levelo://app?vid=248e9d38-5dcd-4d98-894a-0300a4c25074"},"vehicle_type_id":"4","last_reported":1774747434,"current_range_meters":2800,"station_id":"ce4bh192rcd13ifvqdc0","pricing_plan_id":"cebpf4jnsgd1na2vs0mg"},{"bike_id":"5d9a9864-e5e4-40d5-ad99-0f5d38dee145","system_id":"levelo_inurba_marseille","lat":43.31359,"lon":5.3848,"is_reserved":false,"is_disabled":false,"rental_uris":{"android":"levelo://app?vid=5d9a9864-e5e4-40d5-ad99-0f5d38dee145","ios":"levelo://app?vid=5d9a9864-e5e4-40d5-ad99-0f5d38dee145"},"vehicle_type_id":"4","last_reported":1774747434,"current_range_meters":2800,"station_id":"ce4bgt92rcd13ifvqcf0","pricing_plan_id":"cebpf4jnsgd1na2vs0mg"},{"bike_id":"8332c11a-d9ee-4af9-a920-e46730fceba4","system_id":"levelo_inurba_marseille","lat":43.31477,"lon":5.37312,"is_reserved":false,"is_disabled":false,"rental_uris":{"android":"levelo://app?vid=8332c11a-d9ee-4af9-a920-e46730fceba4","ios":"levelo://app?vid=8332c11a-d9ee-4af9-a920-e46730fceba4"},"vehicle_type_id":"4","last_reported":1774747434,"current_range_meters":2800,"station_id":"ce4bgt12rcd13ifvqcd0","pricing_plan_id":"cebpf4jnsgd1na2vs0mg"},{"bike_id":"d3189d47-dd75-4abb-8e67-66479bea3cca","system_id":"levelo_inurba_marseille","lat":43.28726,"lon":5.36087,"is_reserved":false,"is_disabled":false,"rental_uris":{"android":"levelo://app?vid=d3189d47-dd75-4abb-8e67-66479bea3cca","ios":"levelo://app?vid=d3189d47-dd75-4abb-8e67-66479bea3cca"},"vehicle_type_id":"4","last_reported":1774747434,"current_range_meters":3200,"station_id":"cki0cbj6b192h4jlfktg","pricing_plan_id":"cebpf4jnsgd1na2vs0mg"},{"bike_id":"f967aac8-bff7-4d61-9c8d-307b8d7b6ffd","system_id":"levelo_inurba_marseille","lat":43.25338,"lon":5.42178,"is_reserved":false,"is_disabled":false,"rental_uris":{"android":"levelo://app?vid=f967aac8-bff7-4d61-9c8d-307b8d7b6ffd","ios":"levelo://app?vid=f967aac8-bff7-4d61-9c8d-307b8d7b6ffd"},"vehicle_type_id":"4","last_reported":1774747434,"current_range_meters":3200,"station_id":"st_d2m65c5bi1j21697t3ng","pricing_plan_id":"cebpf4jnsgd1na2vs0mg"},{"bike_id":"15009c73-8d83-4cee-9f07-9c44560112ac","system_id":"levelo_inurba_marseille","lat":43.28704,"lon":5.46672,"is_reserved":false,"is_disabled":false,"rental_uris":{"android":"levelo://app?vid=15009c73-8d83-4cee-9f07-9c44560112ac","ios":"levelo://app?vid=15009c73-8d83-4cee-9f07-9c44560112ac"},"vehicle_type_id":"4","last_reported":1774747434,"current_range_meters":3200,"station_id":"st_d6tc3vkotcvc738tfjhg","pricing_plan_id":"cebpf4jnsgd1na2vs0mg"},{"bike_id":"fd8fc34e-5fb3-4bdf-bcc0-aa4dd264c70d","system_id":"levelo_inurba_marseille","lat":43.2957,"lon":5.39964,"is_reserved":false,"is_disabled":false,"rental_uris":{"android":"levelo://app?vid=fd8fc34e-5fb3-4bdf-bcc0-aa4dd264c70d","ios":"levelo://app?vid=fd8fc34e-5fb3-4bdf-bcc0-aa4dd264c70d"},"vehicle_type_id":"4","last_reported":1774747434,"current_range_meters":3200,"station_id":"ce4bh312rcd13ifvqdj0","pricing_plan_id":"cebpf4jnsgd1na2vs0mg"},{"bike_id":"bd89dab9-7c16-4ba5-903e-9663dd927b27","system_id":"levelo_inurba_marseille","lat":43.27471,"lon":5.41585,"is_reserved":false,"is_disabled":false,"rental_uris":{"android":"levelo://app?vid=bd89dab9-7c16-4ba5-903e-9663dd927b27","ios":"levelo://app?vid=bd89dab9-7c16-4ba5-903e-9663dd927b27"},"vehicle_type_id":"4","last_reported":1774747434,"current_range_meters":3200,"station_id":"st_d6im8g6chgec73a5pndg","pricing_plan_id":"cebpf4jnsgd1na2vs0mg"},{"bike_id":"3365cd90-c529-49a7-89a8-3d4d70eb70ab","system_id":"levelo_inurba_marseille","lat":43.28617,"lon":5.35103,"is_reserved":false,"is_disabled":false,"rental_uris":{"android":"levelo://app?vid=3365cd90-c529-49a7-89a8-3d4d70eb70ab","ios":"levelo://app?vid=3365cd90-c529-49a7-89a8-3d4d70eb70ab"},"vehicle_type_id":"4","last_reported":1774747434,"current_range_meters":3200,"station_id":"ce4bhch2rcd13ifvqeug","pricing_plan_id":"cebpf4jnsgd1na2vs0mg"},{"bike_id":"e2fd0609-65a4-4990-91d6-e89e8fbab07e","system_id":"levelo_inurba_marseille","lat":43.32103,"lon":5.36756,"is_reserved":false,"is_disabled":false,"rental_uris":{"android":"levelo://app?vid=e2fd0609-65a4-4990-91d6-e89e8fbab07e","ios":"levelo://app?vid=e2fd0609-65a4-4990-91d6-e89e8fbab07e"},"vehicle_type_id":"4","last_reported":1774747434,"current_range_meters":3200,"station_id":"ce4bhrh2rcd13ifvqhug","pricing_plan_id":"cebpf4jnsgd1na2vs0mg"},{"bike_id":"9c448445-1c60-4520-a1cb-98a7a7992b90","system_id":"levelo_inurba_marseille","lat":43.2847,"lon":5.48402,"is_reserved":false,"is_disabled":false,"rental_uris":{"android":"levelo://app?vid=9c448445-1c60-4520-a1cb-98a7a7992b90","ios":"levelo://app?vid=9c448445-1c60-4520-a1cb-98a7a7992b90"},"vehicle_type_id":"4","last_reported":1774747434,"current_range_meters":3200,"station_id":"","pricing_plan_id":"cebpf4jnsgd1na2vs0mg"},{"bike_id":"0ecb7028-3593-41c3-bcd3-f3eb8b920aa6","system_id":"levelo_inurba_marseille","lat":43.30954,"lon":5.39075,"is_reserved":false,"is_disabled":false,"rental_uris":{"android":"levelo://app?vid=0ecb7028-3593-41c3-bcd3-f3eb8b920aa6","ios":"levelo://app?vid=0ecb7028-3593-41c3-bcd3-f3eb8b920aa6"},"vehicle_type_id":"4","last_reported":1774747434,"current_range_meters":3200,"station_id":"ce4bgup2rcd13ifvqco0","pricing_plan_id":"cebpf4jnsgd1na2vs0mg"},{"bike_id":"274566a6-b928-4208-94b9-678ac66d2af4","system_id":"levelo_inurba_marseille","lat":43.24169,"lon":5.36385,"is_reserved":false,"is_disabled":false,"rental_uris":{"android":"levelo://app?vid=274566a6-b928-4208-94b9-678ac66d2af4","ios":"levelo://app?vid=274566a6-b928-4208-94b9-678ac66d2af4"},"vehicle_type_id":"4","last_reported":1774747434,"current_range_meters":3600,"station_id":"cpo36qri1sfpv3e86is0","pricing_plan_id":"cebpf4jnsgd1na2vs0mg"},{"bike_id":"ff0da1a2-3d1c-43ac-899e-2eb7e114000d","system_id":"levelo_inurba_marseille","lat":43.24181,"lon":5.39726,"is_reserved":false,"is_disabled":false,"rental_uris":{"android":"levelo://app?vid=ff0da1a2-3d1c-43ac-899e-2eb7e114000d","ios":"levelo://app?vid=ff0da1a2-3d1c-43ac-899e-2eb7e114000d"},"vehicle_type_id":"4","last_reported":1774747434,"current_range_meters":3600,"station_id":"ce4bhn12rcd13ifvqgpg","pricing_plan_id":"cebpf4jnsgd1na2vs0mg"},{"bike_id":"d97252d0-3958-45e2-926c-26e2d5f2ad61","system_id":"levelo_inurba_marseille","lat":43.24808,"lon":5.37448,"is_reserved":false,"is_disabled":false,"rental_uris":{"android":"levelo://app?vid=d97252d0-3958-45e2-926c-26e2d5f2ad61","ios":"levelo://app?vid=d97252d0-3958-45e2-926c-26e2d5f2ad61"},"vehicle_type_id":"4","last_reported":1774747434,"current_range_meters":3600,"station_id":"ce4bhgh2rcd13ifvqfb0","pricing_plan_id":"cebpf4jnsgd1na2vs0mg"},{"bike_id":"d81c99f3-fb90-40d5-94f1-2a1f623d7f8c","system_id":"levelo_inurba_marseille","lat":43.337444,"lon":5.374475,"is_reserved":false,"is_disabled":false,"rental_uris":{"android":"levelo://app?vid=d81c99f3-fb90-40d5-94f1-2a1f623d7f8c","ios":"levelo://app?vid=d81c99f3-fb90-40d5-94f1-2a1f623d7f8c"},"vehicle_type_id":"4","last_reported":1774747434,"current_range_meters":3600,"station_id":"","pricing_plan_id":"cebpf4jnsgd1na2vs0mg"},{"bike_id":"04430eb0-456e-42ab-bb2d-cdaf64eb791f","system_id":"levelo_inurba_marseille","lat":43.24672,"lon":5.38162,"is_reserved":false,"is_disabled":true,"rental_uris":{"android":"levelo://app?vid=04430eb0-456e-42ab-bb2d-cdaf64eb791f","ios":"levelo://app?vid=04430eb0-456e-42ab-bb2d-cdaf64eb791f"},"vehicle_type_id":"4","last_reported":1774747434,"current_range_meters":3600,"station_id":"ce4bhih2rcd13ifvqfr0","pricing_plan_id":"cebpf4jnsgd1na2vs0mg"},{"bike_id":"5969c3f9-bb5c-48df-9b54-f62d28d08c6a","system_id":"levelo_inurba_marseille","lat":43.26059,"lon":5.39397,"is_reserved":false,"is_disabled":false,"rental_uris":{"android":"levelo://app?vid=5969c3f9-bb5c-48df-9b54-f62d28d08c6a","ios":"levelo://app?vid=5969c3f9-bb5c-48df-9b54-f62d28d08c6a"},"vehicle_type_id":"4","last_reported":1774747434,"current_range_meters":3600,"station_id":"ce4bhh92rcd13ifvqfj0","pricing_plan_id":"cebpf4jnsgd1na2vs0mg"},{"bike_id":"eefb45c2-fa8b-4f25-81e2-e893ce88a482","system_id":"levelo_inurba_marseille","lat":43.31114,"lon":5.37767,"is_reserved":false,"is_disabled":false,"rental_uris":{"android":"levelo://app?vid=eefb45c2-fa8b-4f25-81e2-e893ce88a482","ios":"levelo://app?vid=eefb45c2-fa8b-4f25-81e2-e893ce88a482"},"vehicle_type_id":"4","last_reported":1774747434,"current_range_meters":3600,"station_id":"ce4bgt92rcd13ifvqcg0","pricing_plan_id":"cebpf4jnsgd1na2vs0mg"},{"bike_id":"f3d47af6-5b42-4057-b9f6-c501bdc25d75","system_id":"levelo_inurba_marseille","lat":43.23386,"lon":5.41301,"is_reserved":false,"is_disabled":false,"rental_uris":{"android":"levelo://app?vid=f3d47af6-5b42-4057-b9f6-c501bdc25d75","ios":"levelo://app?vid=f3d47af6-5b42-4057-b9f6-c501bdc25d75"},"vehicle_type_id":"4","last_reported":1774747434,"current_range_meters":3600,"station_id":"","pricing_plan_id":"cebpf4jnsgd1na2vs0mg"},{"bike_id":"89fc3df2-6f9e-4a63-82c3-1c1f9794e259","system_id":"levelo_inurba_marseille","lat":43.27065,"lon":5.38296,"is_reserved":false,"is_disabled":false,"rental_uris":{"android":"levelo://app?vid=89fc3df2-6f9e-4a63-82c3-1c1f9794e259","ios":"levelo://app?vid=89fc3df2-6f9e-4a63-82c3-1c1f9794e259"},"vehicle_type_id":"4","last_reported":1774747434,"current_range_meters":3600,"station_id":"st_d3n2fo6cfp8s73cte1j0","pricing_plan_id":"cebpf4jnsgd1na2vs0mg"},{"bike_id":"c2cbf983-2126-4d2f-a4e8-a91108dd55c4","system_id":"levelo_inurba_marseille","lat":43.27375,"lon":5.36252,"is_reserved":false,"is_disabled":false,"rental_uris":{"android":"levelo://app?vid=c2cbf983-2126-4d2f-a4e8-a91108dd55c4","ios":"levelo://app?vid=c2cbf983-2126-4d2f-a4e8-a91108dd55c4"},"vehicle_type_id":"4","last_reported":1774747434,"current_range_meters":3600,"station_id":"ce4bhbh2rcd13ifvqeo0","pricing_plan_id":"cebpf4jnsgd1na2vs0mg"},{"bike_id":"62e86b36-0068-406a-b0f3-96b5d04c2a75","system_id":"levelo_inurba_marseille","lat":43.30908,"lon":5.39669,"is_reserved":false,"is_disabled":false,"rental_uris":{"android":"levelo://app?vid=62e86b36-0068-406a-b0f3-96b5d04c2a75","ios":"levelo://app?vid=62e86b36-0068-406a-b0f3-96b5d04c2a75"},"vehicle_type_id":"4","last_reported":1774747434,"current_range_meters":3600,"station_id":"ce4bh012rcd13ifvqcv0","pricing_plan_id":"cebpf4jnsgd1na2vs0mg"},{"bike_id":"8ca828fa-310a-4adb-ae46-512d1c32f75b","system_id":"levelo_inurba_marseille","lat":43.24455,"lon":5.4255,"is_reserved":false,"is_disabled":false,"rental_uris":{"android":"levelo://app?vid=8ca828fa-310a-4adb-ae46-512d1c32f75b","ios":"levelo://app?vid=8ca828fa-310a-4adb-ae46-512d1c32f75b"},"vehicle_type_id":"4","last_reported":1774747434,"current_range_meters":3600,"station_id":"st_d4a3vfp97mjs738cd8kg","pricing_plan_id":"cebpf4jnsgd1na2vs0mg"},{"bike_id":"86e3e1be-de71-4d03-bbfe-667fe711947f","system_id":"levelo_inurba_marseille","lat":43.28106,"lon":5.37824,"is_reserved":false,"is_disabled":false,"rental_uris":{"android":"levelo://app?vid=86e3e1be-de71-4d03-bbfe-667fe711947f","ios":"levelo://app?vid=86e3e1be-de71-4d03-bbfe-667fe711947f"},"vehicle_type_id":"4","last_reported":1774747434,"current_range_meters":3600,"station_id":"ce4bha12rcd13ifvqee0","pricing_plan_id":"cebpf4jnsgd1na2vs0mg"},{"bike_id":"74c2f3b7-b258-4056-82f9-4ddbc7605a5a","system_id":"levelo_inurba_marseille","lat":43.29516,"lon":5.39027,"is_reserved":false,"is_disabled":false,"rental_uris":{"android":"levelo://app?vid=74c2f3b7-b258-4056-82f9-4ddbc7605a5a","ios":"levelo://app?vid=74c2f3b7-b258-4056-82f9-4ddbc7605a5a"},"vehicle_type_id":"4","last_reported":1774747434,"current_range_meters":3600,"station_id":"ce4bh3p2rcd13ifvqdp0","pricing_plan_id":"cebpf4jnsgd1na2vs0mg"},{"bike_id":"edd74370-b43f-47b3-88f7-58d130733f2b","system_id":"levelo_inurba_marseille","lat":43.3112,"lon":5.37758,"is_reserved":false,"is_disabled":false,"rental_uris":{"android":"levelo://app?vid=edd74370-b43f-47b3-88f7-58d130733f2b","ios":"levelo://app?vid=edd74370-b43f-47b3-88f7-58d130733f2b"},"vehicle_type_id":"4","last_reported":1774747434,"current_range_meters":3600,"station_id":"ce4bgt92rcd13ifvqcg0","pricing_plan_id":"cebpf4jnsgd1na2vs0mg"},{"bike_id":"1e02fd97-12b6-42bd-b23c-433ee22bd9de","system_id":"levelo_inurba_marseille","lat":43.29013,"lon":5.38084,"is_reserved":false,"is_disabled":true,"rental_uris":{"android":"levelo://app?vid=1e02fd97-12b6-42bd-b23c-433ee22bd9de","ios":"levelo://app?vid=1e02fd97-12b6-42bd-b23c-433ee22bd9de"},"vehicle_type_id":"4","last_reported":1774747434,"current_range_meters":4000,"station_id":"ce4bh4p2rcd13ifvqe1g","pricing_plan_id":"cebpf4jnsgd1na2vs0mg"},{"bike_id":"2f019591-3087-43f0-affb-e2eede13213e","system_id":"levelo_inurba_marseille","lat":43.24211,"lon":5.36636,"is_reserved":false,"is_disabled":false,"rental_uris":{"android":"levelo://app?vid=2f019591-3087-43f0-affb-e2eede13213e","ios":"levelo://app?vid=2f019591-3087-43f0-affb-e2eede13213e"},"vehicle_type_id":"4","last_reported":1774747434,"current_range_meters":4000,"station_id":"","pricing_plan_id":"cebpf4jnsgd1na2vs0mg"},{"bike_id":"da3828ab-d25e-4e73-a41f-fb498af2d4d4","system_id":"levelo_inurba_marseille","lat":43.24392,"lon":5.37075,"is_reserved":false,"is_disabled":false,"rental_uris":{"android":"levelo://app?vid=da3828ab-d25e-4e73-a41f-fb498af2d4d4","ios":"levelo://app?vid=da3828ab-d25e-4e73-a41f-fb498af2d4d4"},"vehicle_type_id":"4","last_reported":1774747434,"current_range_meters":4000,"station_id":"ce4bhhh2rcd13ifvqfk0","pricing_plan_id":"cebpf4jnsgd1na2vs0mg"},{"bike_id":"70554858-9556-43bb-bfb7-43f716f9ffc9","system_id":"levelo_inurba_marseille","lat":43.279056,"lon":5.380182,"is_reserved":false,"is_disabled":false,"rental_uris":{"android":"levelo://app?vid=70554858-9556-43bb-bfb7-43f716f9ffc9","ios":"levelo://app?vid=70554858-9556-43bb-bfb7-43f716f9ffc9"},"vehicle_type_id":"4","last_reported":1774747434,"current_range_meters":4000,"station_id":"ce4bhf92rcd13ifvqf50","pricing_plan_id":"cebpf4jnsgd1na2vs0mg"},{"bike_id":"76afd0f9-39c6-4d10-a3a3-3323a029e46a","system_id":"levelo_inurba_marseille","lat":43.23377,"lon":5.41238,"is_reserved":false,"is_disabled":false,"rental_uris":{"android":"levelo://app?vid=76afd0f9-39c6-4d10-a3a3-3323a029e46a","ios":"levelo://app?vid=76afd0f9-39c6-4d10-a3a3-3323a029e46a"},"vehicle_type_id":"4","last_reported":1774747434,"current_range_meters":4000,"station_id":"","pricing_plan_id":"cebpf4jnsgd1na2vs0mg"},{"bike_id":"789f2066-f382-4428-a768-b3d3bc4c5dbf","system_id":"levelo_inurba_marseille","lat":43.25824,"lon":5.38921,"is_reserved":false,"is_disabled":false,"rental_uris":{"android":"levelo://app?vid=789f2066-f382-4428-a768-b3d3bc4c5dbf","ios":"levelo://app?vid=789f2066-f382-4428-a768-b3d3bc4c5dbf"},"vehicle_type_id":"4","last_reported":1774747434,"current_range_meters":4000,"station_id":"","pricing_plan_id":"cebpf4jnsgd1na2vs0mg"},{"bike_id":"7b10d34b-967c-4d19-a36c-dd223082af95","system_id":"levelo_inurba_marseille","lat":43.31205,"lon":5.36908,"is_reserved":false,"is_disabled":false,"rental_uris":{"android":"levelo://app?vid=7b10d34b-967c-4d19-a36c-dd223082af95","ios":"levelo://app?vid=7b10d34b-967c-4d19-a36c-dd223082af95"},"vehicle_type_id":"4","last_reported":1774747434,"current_range_meters":4000,"station_id":"ce4bgl92rcd13ifvqbq0","pricing_plan_id":"cebpf4jnsgd1na2vs0mg"},{"bike_id":"497fda9f-6df1-4984-af5f-2a9a0a5d0268","system_id":"levelo_inurba_marseille","lat":43.29024,"lon":5.35611,"is_reserved":false,"is_disabled":false,"rental_uris":{"android":"levelo://app?vid=497fda9f-6df1-4984-af5f-2a9a0a5d0268","ios":"levelo://app?vid=497fda9f-6df1-4984-af5f-2a9a0a5d0268"},"vehicle_type_id":"4","last_reported":1774747434,"current_range_meters":4000,"station_id":"ce4bhb92rcd13ifvqen0","pricing_plan_id":"cebpf4jnsgd1na2vs0mg"},{"bike_id":"7f5f4a35-fda4-4a33-b7ae-332aa08e4387","system_id":"levelo_inurba_marseille","lat":43.29754,"lon":5.42799,"is_reserved":false,"is_disabled":false,"rental_uris":{"android":"levelo://app?vid=7f5f4a35-fda4-4a33-b7ae-332aa08e4387","ios":"levelo://app?vid=7f5f4a35-fda4-4a33-b7ae-332aa08e4387"},"vehicle_type_id":"4","last_reported":1774747434,"current_range_meters":4000,"station_id":"st_d3md5207bmas73dh9klg","pricing_plan_id":"cebpf4jnsgd1na2vs0mg"},{"bike_id":"a90dad55-39f3-4ef6-bb34-de170b062a3d","system_id":"levelo_inurba_marseille","lat":43.30917,"lon":5.4007,"is_reserved":false,"is_disabled":false,"rental_uris":{"android":"levelo://app?vid=a90dad55-39f3-4ef6-bb34-de170b062a3d","ios":"levelo://app?vid=a90dad55-39f3-4ef6-bb34-de170b062a3d"},"vehicle_type_id":"4","last_reported":1774747434,"current_range_meters":4000,"station_id":"ce4bgvp2rcd13ifvqct0","pricing_plan_id":"cebpf4jnsgd1na2vs0mg"},{"bike_id":"bb159b77-97e9-4963-999e-8d19807be3b1","system_id":"levelo_inurba_marseille","lat":43.28474,"lon":5.35857,"is_reserved":false,"is_disabled":false,"rental_uris":{"android":"levelo://app?vid=bb159b77-97e9-4963-999e-8d19807be3b1","ios":"levelo://app?vid=bb159b77-97e9-4963-999e-8d19807be3b1"},"vehicle_type_id":"4","last_reported":1774747434,"current_range_meters":4000,"station_id":"ce4bhah2rcd13ifvqei0","pricing_plan_id":"cebpf4jnsgd1na2vs0mg"},{"bike_id":"fbd013e2-8567-4cc4-a7c6-24dd8fd5e924","system_id":"levelo_inurba_marseille","lat":43.2899,"lon":5.35636,"is_reserved":false,"is_disabled":false,"rental_uris":{"android":"levelo://app?vid=fbd013e2-8567-4cc4-a7c6-24dd8fd5e924","ios":"levelo://app?vid=fbd013e2-8567-4cc4-a7c6-24dd8fd5e924"},"vehicle_type_id":"4","last_reported":1774747434,"current_range_meters":4000,"station_id":"ce4bhb92rcd13ifvqen0","pricing_plan_id":"cebpf4jnsgd1na2vs0mg"},{"bike_id":"3c6fd87c-e79a-4815-b92c-9fde7e116348","system_id":"levelo_inurba_marseille","lat":43.27047,"lon":5.40262,"is_reserved":false,"is_disabled":false,"rental_uris":{"android":"levelo://app?vid=3c6fd87c-e79a-4815-b92c-9fde7e116348","ios":"levelo://app?vid=3c6fd87c-e79a-4815-b92c-9fde7e116348"},"vehicle_type_id":"4","last_reported":1774747434,"current_range_meters":4000,"station_id":"ce4bhk92rcd13ifvqgc0","pricing_plan_id":"cebpf4jnsgd1na2vs0mg"},{"bike_id":"ac4add4d-0d0e-4278-879c-33c8f18e4696","system_id":"levelo_inurba_marseille","lat":43.30549,"lon":5.36526,"is_reserved":false,"is_disabled":false,"rental_uris":{"android":"levelo://app?vid=ac4add4d-0d0e-4278-879c-33c8f18e4696","ios":"levelo://app?vid=ac4add4d-0d0e-4278-879c-33c8f18e4696"},"vehicle_type_id":"4","last_reported":1774747434,"current_range_meters":4000,"station_id":"ce4bgs12rcd13ifvqcag","pricing_plan_id":"cebpf4jnsgd1na2vs0mg"},{"bike_id":"ac1a9d6c-17a0-4e01-9607-d886e691e83d","system_id":"levelo_inurba_marseille","lat":43.24397,"lon":5.37056,"is_reserved":false,"is_disabled":false,"rental_uris":{"android":"levelo://app?vid=ac1a9d6c-17a0-4e01-9607-d886e691e83d","ios":"levelo://app?vid=ac1a9d6c-17a0-4e01-9607-d886e691e83d"},"vehicle_type_id":"4","last_reported":1774747434,"current_range_meters":4400,"station_id":"ce4bhhh2rcd13ifvqfk0","pricing_plan_id":"cebpf4jnsgd1na2vs0mg"},{"bike_id":"f6d4245b-c41c-4ec7-bb98-524c289bd3f3","system_id":"levelo_inurba_marseille","lat":43.25561,"lon":5.38254,"is_reserved":false,"is_disabled":false,"rental_uris":{"android":"levelo://app?vid=f6d4245b-c41c-4ec7-bb98-524c289bd3f3","ios":"levelo://app?vid=f6d4245b-c41c-4ec7-bb98-524c289bd3f3"},"vehicle_type_id":"4","last_reported":1774747434,"current_range_meters":4400,"station_id":"ce4bhih2rcd13ifvqfs0","pricing_plan_id":"cebpf4jnsgd1na2vs0mg"},{"bike_id":"2febdeb9-0fee-4e6a-b6f8-0d1a667393bc","system_id":"levelo_inurba_marseille","lat":43.29518,"lon":5.38669,"is_reserved":false,"is_disabled":false,"rental_uris":{"android":"levelo://app?vid=2febdeb9-0fee-4e6a-b6f8-0d1a667393bc","ios":"levelo://app?vid=2febdeb9-0fee-4e6a-b6f8-0d1a667393bc"},"vehicle_type_id":"4","last_reported":1774747434,"current_range_meters":4400,"station_id":"","pricing_plan_id":"cebpf4jnsgd1na2vs0mg"},{"bike_id":"5c6c5e19-1de9-4eac-9ab8-08e9926677c5","system_id":"levelo_inurba_marseille","lat":43.31281,"lon":5.40139,"is_reserved":false,"is_disabled":false,"rental_uris":{"android":"levelo://app?vid=5c6c5e19-1de9-4eac-9ab8-08e9926677c5","ios":"levelo://app?vid=5c6c5e19-1de9-4eac-9ab8-08e9926677c5"},"vehicle_type_id":"4","last_reported":1774747434,"current_range_meters":4400,"station_id":"ce4bh092rcd13ifvqd30","pricing_plan_id":"cebpf4jnsgd1na2vs0mg"},{"bike_id":"a8c3f471-9f54-43a4-9d32-c7edd5f99357","system_id":"levelo_inurba_marseille","lat":43.23889,"lon":5.3746,"is_reserved":false,"is_disabled":false,"rental_uris":{"android":"levelo://app?vid=a8c3f471-9f54-43a4-9d32-c7edd5f99357","ios":"levelo://app?vid=a8c3f471-9f54-43a4-9d32-c7edd5f99357"},"vehicle_type_id":"4","last_reported":1774747434,"current_range_meters":4400,"station_id":"st_d6sm7csbq4hs73f8fpjg","pricing_plan_id":"cebpf4jnsgd1na2vs0mg"},{"bike_id":"24e33862-4a12-4541-89ad-f4788938f0e6","system_id":"levelo_inurba_marseille","lat":43.3093,"lon":5.40173,"is_reserved":false,"is_disabled":false,"rental_uris":{"android":"levelo://app?vid=24e33862-4a12-4541-89ad-f4788938f0e6","ios":"levelo://app?vid=24e33862-4a12-4541-89ad-f4788938f0e6"},"vehicle_type_id":"4","last_reported":1774747434,"current_range_meters":4400,"station_id":"ce4bgvp2rcd13ifvqct0","pricing_plan_id":"cebpf4jnsgd1na2vs0mg"},{"bike_id":"80f7f6c4-1406-416c-b47d-0fd56bd91196","system_id":"levelo_inurba_marseille","lat":43.2121,"lon":5.35063,"is_reserved":false,"is_disabled":false,"rental_uris":{"android":"levelo://app?vid=80f7f6c4-1406-416c-b47d-0fd56bd91196","ios":"levelo://app?vid=80f7f6c4-1406-416c-b47d-0fd56bd91196"},"vehicle_type_id":"4","last_reported":1774747434,"current_range_meters":4400,"station_id":"st_cvj6sg6p6f1abm77japg","pricing_plan_id":"cebpf4jnsgd1na2vs0mg"},{"bike_id":"b74978cb-5b51-4041-8c1c-97c8f4ca71d2","system_id":"levelo_inurba_marseille","lat":43.31144,"lon":5.40579,"is_reserved":false,"is_disabled":false,"rental_uris":{"android":"levelo://app?vid=b74978cb-5b51-4041-8c1c-97c8f4ca71d2","ios":"levelo://app?vid=b74978cb-5b51-4041-8c1c-97c8f4ca71d2"},"vehicle_type_id":"4","last_reported":1774747434,"current_range_meters":4800,"station_id":"","pricing_plan_id":"cebpf4jnsgd1na2vs0mg"},{"bike_id":"9c0c7dc2-8e4c-4e55-891f-3e8c2c779959","system_id":"levelo_inurba_marseille","lat":43.24998,"lon":5.38922,"is_reserved":false,"is_disabled":false,"rental_uris":{"android":"levelo://app?vid=9c0c7dc2-8e4c-4e55-891f-3e8c2c779959","ios":"levelo://app?vid=9c0c7dc2-8e4c-4e55-891f-3e8c2c779959"},"vehicle_type_id":"4","last_reported":1774747434,"current_range_meters":4800,"station_id":"ce4bhgp2rcd13ifvqfd0","pricing_plan_id":"cebpf4jnsgd1na2vs0mg"},{"bike_id":"9838442e-79cd-4f6a-bff7-a0fb829a22f1","system_id":"levelo_inurba_marseille","lat":43.29128,"lon":5.36634,"is_reserved":false,"is_disabled":false,"rental_uris":{"android":"levelo://app?vid=9838442e-79cd-4f6a-bff7-a0fb829a22f1","ios":"levelo://app?vid=9838442e-79cd-4f6a-bff7-a0fb829a22f1"},"vehicle_type_id":"4","last_reported":1774747434,"current_range_meters":4800,"station_id":"","pricing_plan_id":"cebpf4jnsgd1na2vs0mg"},{"bike_id":"65b9b97b-854c-48dd-bdf1-822b26888732","system_id":"levelo_inurba_marseille","lat":43.28413,"lon":5.34967,"is_reserved":false,"is_disabled":false,"rental_uris":{"android":"levelo://app?vid=65b9b97b-854c-48dd-bdf1-822b26888732","ios":"levelo://app?vid=65b9b97b-854c-48dd-bdf1-822b26888732"},"vehicle_type_id":"4","last_reported":1774747434,"current_range_meters":4800,"station_id":"ce4bhbh2rcd13ifvqepg","pricing_plan_id":"cebpf4jnsgd1na2vs0mg"},{"bike_id":"3e80a70b-d902-4f38-bb78-001cfd129e63","system_id":"levelo_inurba_marseille","lat":43.28406,"lon":5.34975,"is_reserved":false,"is_disabled":false,"rental_uris":{"android":"levelo://app?vid=3e80a70b-d902-4f38-bb78-001cfd129e63","ios":"levelo://app?vid=3e80a70b-d902-4f38-bb78-001cfd129e63"},"vehicle_type_id":"4","last_reported":1774747434,"current_range_meters":4800,"station_id":"ce4bhbh2rcd13ifvqepg","pricing_plan_id":"cebpf4jnsgd1na2vs0mg"},{"bike_id":"40c58c01-8a97-43d9-a8ab-de0a41339dce","system_id":"levelo_inurba_marseille","lat":43.31181,"lon":5.3867,"is_reserved":false,"is_disabled":false,"rental_uris":{"android":"levelo://app?vid=40c58c01-8a97-43d9-a8ab-de0a41339dce","ios":"levelo://app?vid=40c58c01-8a97-43d9-a8ab-de0a41339dce"},"vehicle_type_id":"4","last_reported":1774747434,"current_range_meters":4800,"station_id":"ce4bgv12rcd13ifvqcp0","pricing_plan_id":"cebpf4jnsgd1na2vs0mg"},{"bike_id":"28ae4317-f1df-4e81-b78b-8b397394412a","system_id":"levelo_inurba_marseille","lat":43.31034,"lon":5.39367,"is_reserved":false,"is_disabled":false,"rental_uris":{"android":"levelo://app?vid=28ae4317-f1df-4e81-b78b-8b397394412a","ios":"levelo://app?vid=28ae4317-f1df-4e81-b78b-8b397394412a"},"vehicle_type_id":"4","last_reported":1774747434,"current_range_meters":4800,"station_id":"","pricing_plan_id":"cebpf4jnsgd1na2vs0mg"},{"bike_id":"3137e3ea-7797-4cae-a237-2a996dd9ad4a","system_id":"levelo_inurba_marseille","lat":43.28467,"lon":5.48389,"is_reserved":false,"is_disabled":false,"rental_uris":{"android":"levelo://app?vid=3137e3ea-7797-4cae-a237-2a996dd9ad4a","ios":"levelo://app?vid=3137e3ea-7797-4cae-a237-2a996dd9ad4a"},"vehicle_type_id":"4","last_reported":1774747434,"current_range_meters":5600,"station_id":"","pricing_plan_id":"cebpf4jnsgd1na2vs0mg"},{"bike_id":"d3c8f6b1-90dd-4df5-8ddd-99fe24abd7dc","system_id":"levelo_inurba_marseille","lat":43.28618,"lon":5.35112,"is_reserved":false,"is_disabled":false,"rental_uris":{"android":"levelo://app?vid=d3c8f6b1-90dd-4df5-8ddd-99fe24abd7dc","ios":"levelo://app?vid=d3c8f6b1-90dd-4df5-8ddd-99fe24abd7dc"},"vehicle_type_id":"4","last_reported":1774747434,"current_range_meters":5600,"station_id":"ce4bhch2rcd13ifvqeug","pricing_plan_id":"cebpf4jnsgd1na2vs0mg"},{"bike_id":"6a81cdf5-2025-45a6-96ce-f8396d3ff5a3","system_id":"levelo_inurba_marseille","lat":43.29938,"lon":5.36539,"is_reserved":false,"is_disabled":false,"rental_uris":{"android":"levelo://app?vid=6a81cdf5-2025-45a6-96ce-f8396d3ff5a3","ios":"levelo://app?vid=6a81cdf5-2025-45a6-96ce-f8396d3ff5a3"},"vehicle_type_id":"4","last_reported":1774747434,"current_range_meters":5600,"station_id":"ce4bgm92rcd13ifvqbr0","pricing_plan_id":"cebpf4jnsgd1na2vs0mg"},{"bike_id":"2d5262be-582c-4d87-a7a2-b4c3f4ed4d38","system_id":"levelo_inurba_marseille","lat":43.2256,"lon":5.41634,"is_reserved":false,"is_disabled":false,"rental_uris":{"android":"levelo://app?vid=2d5262be-582c-4d87-a7a2-b4c3f4ed4d38","ios":"levelo://app?vid=2d5262be-582c-4d87-a7a2-b4c3f4ed4d38"},"vehicle_type_id":"4","last_reported":1774747434,"current_range_meters":5600,"station_id":"st_d2o4gvlbi1j2169b742g","pricing_plan_id":"cebpf4jnsgd1na2vs0mg"},{"bike_id":"1bca506e-2c43-43d5-9cab-3f814da8f5fe","system_id":"levelo_inurba_marseille","lat":43.22561,"lon":5.4162,"is_reserved":false,"is_disabled":false,"rental_uris":{"android":"levelo://app?vid=1bca506e-2c43-43d5-9cab-3f814da8f5fe","ios":"levelo://app?vid=1bca506e-2c43-43d5-9cab-3f814da8f5fe"},"vehicle_type_id":"4","last_reported":1774747434,"current_range_meters":5600,"station_id":"st_d2o4gvlbi1j2169b742g","pricing_plan_id":"cebpf4jnsgd1na2vs0mg"},{"bike_id":"b0cb8f2c-ed5f-45b1-a6b7-fba3fd705003","system_id":"levelo_inurba_marseille","lat":43.28605,"lon":5.351,"is_reserved":false,"is_disabled":false,"rental_uris":{"android":"levelo://app?vid=b0cb8f2c-ed5f-45b1-a6b7-fba3fd705003","ios":"levelo://app?vid=b0cb8f2c-ed5f-45b1-a6b7-fba3fd705003"},"vehicle_type_id":"4","last_reported":1774747434,"current_range_meters":5600,"station_id":"ce4bhch2rcd13ifvqeug","pricing_plan_id":"cebpf4jnsgd1na2vs0mg"},{"bike_id":"cb42d8dc-b761-4ac4-a26f-34b08cfe8436","system_id":"levelo_inurba_marseille","lat":43.24962,"lon":5.40474,"is_reserved":false,"is_disabled":false,"rental_uris":{"android":"levelo://app?vid=cb42d8dc-b761-4ac4-a26f-34b08cfe8436","ios":"levelo://app?vid=cb42d8dc-b761-4ac4-a26f-34b08cfe8436"},"vehicle_type_id":"4","last_reported":1774747434,"current_range_meters":5600,"station_id":"st_d2ngiaodas8pm72gd1h0","pricing_plan_id":"cebpf4jnsgd1na2vs0mg"},{"bike_id":"c82691aa-ba67-49e2-8ab8-9f87a1546b96","system_id":"levelo_inurba_marseille","lat":43.2318,"lon":5.35561,"is_reserved":false,"is_disabled":false,"rental_uris":{"android":"levelo://app?vid=c82691aa-ba67-49e2-8ab8-9f87a1546b96","ios":"levelo://app?vid=c82691aa-ba67-49e2-8ab8-9f87a1546b96"},"vehicle_type_id":"4","last_reported":1774747434,"current_range_meters":6000,"station_id":"ce4bhu92rcd13ifvqi70","pricing_plan_id":"cebpf4jnsgd1na2vs0mg"},{"bike_id":"42ac2f6b-68e9-415e-abf4-d533376356a8","system_id":"levelo_inurba_marseille","lat":43.29534,"lon":5.38654,"is_reserved":false,"is_disabled":false,"rental_uris":{"android":"levelo://app?vid=42ac2f6b-68e9-415e-abf4-d533376356a8","ios":"levelo://app?vid=42ac2f6b-68e9-415e-abf4-d533376356a8"},"vehicle_type_id":"4","last_reported":1774747434,"current_range_meters":6000,"station_id":"","pricing_plan_id":"cebpf4jnsgd1na2vs0mg"},{"bike_id":"7005161c-2e0d-4cdc-b67a-ab23e115a888","system_id":"levelo_inurba_marseille","lat":43.30542,"lon":5.36522,"is_reserved":false,"is_disabled":false,"rental_uris":{"android":"levelo://app?vid=7005161c-2e0d-4cdc-b67a-ab23e115a888","ios":"levelo://app?vid=7005161c-2e0d-4cdc-b67a-ab23e115a888"},"vehicle_type_id":"4","last_reported":1774747434,"current_range_meters":6000,"station_id":"ce4bgs12rcd13ifvqcag","pricing_plan_id":"cebpf4jnsgd1na2vs0mg"},{"bike_id":"6f348649-3b5a-4143-911c-4cd4b0517f43","system_id":"levelo_inurba_marseille","lat":43.30424,"lon":5.37583,"is_reserved":false,"is_disabled":false,"rental_uris":{"android":"levelo://app?vid=6f348649-3b5a-4143-911c-4cd4b0517f43","ios":"levelo://app?vid=6f348649-3b5a-4143-911c-4cd4b0517f43"},"vehicle_type_id":"4","last_reported":1774747434,"current_range_meters":6000,"station_id":"","pricing_plan_id":"cebpf4jnsgd1na2vs0mg"},{"bike_id":"80c32fd9-77a9-4dbc-bc47-49dc7d6c07ba","system_id":"levelo_inurba_marseille","lat":43.28031,"lon":5.36949,"is_reserved":false,"is_disabled":false,"rental_uris":{"android":"levelo://app?vid=80c32fd9-77a9-4dbc-bc47-49dc7d6c07ba","ios":"levelo://app?vid=80c32fd9-77a9-4dbc-bc47-49dc7d6c07ba"},"vehicle_type_id":"4","last_reported":1774747434,"current_range_meters":6000,"station_id":"ce4bha12rcd13ifvqef0","pricing_plan_id":"cebpf4jnsgd1na2vs0mg"},{"bike_id":"18eddf02-1b59-4724-8b34-3fa740043546","system_id":"levelo_inurba_marseille","lat":43.22935,"lon":5.35375,"is_reserved":false,"is_disabled":false,"rental_uris":{"android":"levelo://app?vid=18eddf02-1b59-4724-8b34-3fa740043546","ios":"levelo://app?vid=18eddf02-1b59-4724-8b34-3fa740043546"},"vehicle_type_id":"4","last_reported":1774747434,"current_range_meters":6000,"station_id":"cpo3532slgdg3j2ikp40","pricing_plan_id":"cebpf4jnsgd1na2vs0mg"},{"bike_id":"f31d687b-f39f-4799-a123-ec0aec4b625b","system_id":"levelo_inurba_marseille","lat":43.30617,"lon":5.37236,"is_reserved":false,"is_disabled":true,"rental_uris":{"android":"levelo://app?vid=f31d687b-f39f-4799-a123-ec0aec4b625b","ios":"levelo://app?vid=f31d687b-f39f-4799-a123-ec0aec4b625b"},"vehicle_type_id":"4","last_reported":1774747434,"current_range_meters":6000,"station_id":"ce4bgqh2rcd13ifvqc4g","pricing_plan_id":"cebpf4jnsgd1na2vs0mg"},{"bike_id":"2c46e4b0-a2ca-415e-8d0e-765460846233","system_id":"levelo_inurba_marseille","lat":43.23148,"lon":5.43718,"is_reserved":false,"is_disabled":false,"rental_uris":{"android":"levelo://app?vid=2c46e4b0-a2ca-415e-8d0e-765460846233","ios":"levelo://app?vid=2c46e4b0-a2ca-415e-8d0e-765460846233"},"vehicle_type_id":"4","last_reported":1774747434,"current_range_meters":6000,"station_id":"ce4bhmp2rcd13ifvqgog","pricing_plan_id":"cebpf4jnsgd1na2vs0mg"},{"bike_id":"712de7a4-bbc0-4027-bf8c-1dc976525cfa","system_id":"levelo_inurba_marseille","lat":43.24646,"lon":5.38863,"is_reserved":false,"is_disabled":false,"rental_uris":{"android":"levelo://app?vid=712de7a4-bbc0-4027-bf8c-1dc976525cfa","ios":"levelo://app?vid=712de7a4-bbc0-4027-bf8c-1dc976525cfa"},"vehicle_type_id":"4","last_reported":1774747434,"current_range_meters":6000,"station_id":"ce4bhg12rcd13ifvqf60","pricing_plan_id":"cebpf4jnsgd1na2vs0mg"},{"bike_id":"277cf752-b9ed-41aa-a7a8-c21d885b59ac","system_id":"levelo_inurba_marseille","lat":43.24165,"lon":5.36413,"is_reserved":false,"is_disabled":false,"rental_uris":{"android":"levelo://app?vid=277cf752-b9ed-41aa-a7a8-c21d885b59ac","ios":"levelo://app?vid=277cf752-b9ed-41aa-a7a8-c21d885b59ac"},"vehicle_type_id":"4","last_reported":1774747434,"current_range_meters":6000,"station_id":"cpo36qri1sfpv3e86is0","pricing_plan_id":"cebpf4jnsgd1na2vs0mg"},{"bike_id":"3558ea35-7992-4ccb-8605-1b3d24e2540d","system_id":"levelo_inurba_marseille","lat":43.22925,"lon":5.35367,"is_reserved":false,"is_disabled":false,"rental_uris":{"android":"levelo://app?vid=3558ea35-7992-4ccb-8605-1b3d24e2540d","ios":"levelo://app?vid=3558ea35-7992-4ccb-8605-1b3d24e2540d"},"vehicle_type_id":"4","last_reported":1774747434,"current_range_meters":6000,"station_id":"cpo3532slgdg3j2ikp40","pricing_plan_id":"cebpf4jnsgd1na2vs0mg"},{"bike_id":"88fb9af6-0dea-445a-910b-bf18a4d2f559","system_id":"levelo_inurba_marseille","lat":43.27375,"lon":5.36263,"is_reserved":false,"is_disabled":false,"rental_uris":{"android":"levelo://app?vid=88fb9af6-0dea-445a-910b-bf18a4d2f559","ios":"levelo://app?vid=88fb9af6-0dea-445a-910b-bf18a4d2f559"},"vehicle_type_id":"4","last_reported":1774747434,"current_range_meters":6000,"station_id":"ce4bhbh2rcd13ifvqeo0","pricing_plan_id":"cebpf4jnsgd1na2vs0mg"},{"bike_id":"50bb6ba6-f4da-49a0-9fd2-7c39eb052557","system_id":"levelo_inurba_marseille","lat":43.28372,"lon":5.38628,"is_reserved":false,"is_disabled":false,"rental_uris":{"android":"levelo://app?vid=50bb6ba6-f4da-49a0-9fd2-7c39eb052557","ios":"levelo://app?vid=50bb6ba6-f4da-49a0-9fd2-7c39eb052557"},"vehicle_type_id":"4","last_reported":1774747434,"current_range_meters":6400,"station_id":"ce4bh492rcd13ifvqdvg","pricing_plan_id":"cebpf4jnsgd1na2vs0mg"},{"bike_id":"f475bd3a-d396-47c0-a41f-cbe7adc6add5","system_id":"levelo_inurba_marseille","lat":43.31345,"lon":5.3673,"is_reserved":false,"is_disabled":false,"rental_uris":{"android":"levelo://app?vid=f475bd3a-d396-47c0-a41f-cbe7adc6add5","ios":"levelo://app?vid=f475bd3a-d396-47c0-a41f-cbe7adc6add5"},"vehicle_type_id":"4","last_reported":1774747434,"current_range_meters":6400,"station_id":"ce4bgr92rcd13ifvqc6g","pricing_plan_id":"cebpf4jnsgd1na2vs0mg"},{"bike_id":"9894d46f-f5cd-4c55-b506-7a9646c52762","system_id":"levelo_inurba_marseille","lat":43.25093,"lon":5.39525,"is_reserved":false,"is_disabled":false,"rental_uris":{"android":"levelo://app?vid=9894d46f-f5cd-4c55-b506-7a9646c52762","ios":"levelo://app?vid=9894d46f-f5cd-4c55-b506-7a9646c52762"},"vehicle_type_id":"4","last_reported":1774747434,"current_range_meters":6400,"station_id":"ce4bhm12rcd13ifvqgkg","pricing_plan_id":"cebpf4jnsgd1na2vs0mg"},{"bike_id":"a0e1fe6f-1b0c-4b69-b699-3f3295a2fce0","system_id":"levelo_inurba_marseille","lat":43.28404,"lon":5.34972,"is_reserved":false,"is_disabled":false,"rental_uris":{"android":"levelo://app?vid=a0e1fe6f-1b0c-4b69-b699-3f3295a2fce0","ios":"levelo://app?vid=a0e1fe6f-1b0c-4b69-b699-3f3295a2fce0"},"vehicle_type_id":"4","last_reported":1774747434,"current_range_meters":6400,"station_id":"ce4bhbh2rcd13ifvqepg","pricing_plan_id":"cebpf4jnsgd1na2vs0mg"},{"bike_id":"20cfdd43-a03e-463a-b192-0993e1d4f40a","system_id":"levelo_inurba_marseille","lat":43.279424,"lon":5.410532,"is_reserved":false,"is_disabled":false,"rental_uris":{"android":"levelo://app?vid=20cfdd43-a03e-463a-b192-0993e1d4f40a","ios":"levelo://app?vid=20cfdd43-a03e-463a-b192-0993e1d4f40a"},"vehicle_type_id":"4","last_reported":1774747434,"current_range_meters":6400,"station_id":"ce4bhnp2rcd13ifvqh0g","pricing_plan_id":"cebpf4jnsgd1na2vs0mg"},{"bike_id":"c8e3f134-bd1d-4bd8-925f-75061382b49c","system_id":"levelo_inurba_marseille","lat":43.2954,"lon":5.38652,"is_reserved":false,"is_disabled":false,"rental_uris":{"android":"levelo://app?vid=c8e3f134-bd1d-4bd8-925f-75061382b49c","ios":"levelo://app?vid=c8e3f134-bd1d-4bd8-925f-75061382b49c"},"vehicle_type_id":"4","last_reported":1774747434,"current_range_meters":6400,"station_id":"","pricing_plan_id":"cebpf4jnsgd1na2vs0mg"},{"bike_id":"4261fad2-1e9a-40a4-a4ce-af58c191085f","system_id":"levelo_inurba_marseille","lat":43.31494,"lon":5.37292,"is_reserved":false,"is_disabled":false,"rental_uris":{"android":"levelo://app?vid=4261fad2-1e9a-40a4-a4ce-af58c191085f","ios":"levelo://app?vid=4261fad2-1e9a-40a4-a4ce-af58c191085f"},"vehicle_type_id":"4","last_reported":1774747434,"current_range_meters":6400,"station_id":"ce4bgt12rcd13ifvqcd0","pricing_plan_id":"cebpf4jnsgd1na2vs0mg"},{"bike_id":"7fa1e8ee-3f22-414a-9068-e3858caf636b","system_id":"levelo_inurba_marseille","lat":43.2826,"lon":5.35064,"is_reserved":false,"is_disabled":false,"rental_uris":{"android":"levelo://app?vid=7fa1e8ee-3f22-414a-9068-e3858caf636b","ios":"levelo://app?vid=7fa1e8ee-3f22-414a-9068-e3858caf636b"},"vehicle_type_id":"4","last_reported":1774747434,"current_range_meters":6400,"station_id":"ce4bhbp2rcd13ifvqerg","pricing_plan_id":"cebpf4jnsgd1na2vs0mg"},{"bike_id":"2457fc1b-679d-4a71-90e9-ad408ab6ed9d","system_id":"levelo_inurba_marseille","lat":43.33483,"lon":5.3797,"is_reserved":false,"is_disabled":false,"rental_uris":{"android":"levelo://app?vid=2457fc1b-679d-4a71-90e9-ad408ab6ed9d","ios":"levelo://app?vid=2457fc1b-679d-4a71-90e9-ad408ab6ed9d"},"vehicle_type_id":"4","last_reported":1774747434,"current_range_meters":6400,"station_id":"","pricing_plan_id":"cebpf4jnsgd1na2vs0mg"},{"bike_id":"451a5f24-c040-4b1d-af60-c45f4f404333","system_id":"levelo_inurba_marseille","lat":43.23903,"lon":5.37452,"is_reserved":false,"is_disabled":false,"rental_uris":{"android":"levelo://app?vid=451a5f24-c040-4b1d-af60-c45f4f404333","ios":"levelo://app?vid=451a5f24-c040-4b1d-af60-c45f4f404333"},"vehicle_type_id":"4","last_reported":1774747434,"current_range_meters":6400,"station_id":"st_d6sm7csbq4hs73f8fpjg","pricing_plan_id":"cebpf4jnsgd1na2vs0mg"},{"bike_id":"c420f719-a4cc-4702-b6da-68e6d0f37e6c","system_id":"levelo_inurba_marseille","lat":43.28525,"lon":5.44091,"is_reserved":false,"is_disabled":false,"rental_uris":{"android":"levelo://app?vid=c420f719-a4cc-4702-b6da-68e6d0f37e6c","ios":"levelo://app?vid=c420f719-a4cc-4702-b6da-68e6d0f37e6c"},"vehicle_type_id":"4","last_reported":1774747434,"current_range_meters":6400,"station_id":"st_d3j3df2ikq2c7380ej80","pricing_plan_id":"cebpf4jnsgd1na2vs0mg"},{"bike_id":"24579790-dbc0-48f5-9802-612c25e33241","system_id":"levelo_inurba_marseille","lat":43.28532,"lon":5.44077,"is_reserved":false,"is_disabled":false,"rental_uris":{"android":"levelo://app?vid=24579790-dbc0-48f5-9802-612c25e33241","ios":"levelo://app?vid=24579790-dbc0-48f5-9802-612c25e33241"},"vehicle_type_id":"4","last_reported":1774747434,"current_range_meters":6400,"station_id":"st_d3j3df2ikq2c7380ej80","pricing_plan_id":"cebpf4jnsgd1na2vs0mg"},{"bike_id":"f057f137-0cac-4b50-91e6-948f8581886d","system_id":"levelo_inurba_marseille","lat":43.24655,"lon":5.38189,"is_reserved":false,"is_disabled":false,"rental_uris":{"android":"levelo://app?vid=f057f137-0cac-4b50-91e6-948f8581886d","ios":"levelo://app?vid=f057f137-0cac-4b50-91e6-948f8581886d"},"vehicle_type_id":"4","last_reported":1774747434,"current_range_meters":6400,"station_id":"ce4bhih2rcd13ifvqfr0","pricing_plan_id":"cebpf4jnsgd1na2vs0mg"},{"bike_id":"44e6ef2e-f582-4dae-8b58-95600b73b872","system_id":"levelo_inurba_marseille","lat":43.33549,"lon":5.37485,"is_reserved":false,"is_disabled":false,"rental_uris":{"android":"levelo://app?vid=44e6ef2e-f582-4dae-8b58-95600b73b872","ios":"levelo://app?vid=44e6ef2e-f582-4dae-8b58-95600b73b872"},"vehicle_type_id":"4","last_reported":1774747434,"current_range_meters":6400,"station_id":"st_d46tts09ee8s73dlu43g","pricing_plan_id":"cebpf4jnsgd1na2vs0mg"},{"bike_id":"eb4384fa-d5d7-4c63-bd34-12d1814ac274","system_id":"levelo_inurba_marseille","lat":43.30764,"lon":5.38101,"is_reserved":false,"is_disabled":false,"rental_uris":{"android":"levelo://app?vid=eb4384fa-d5d7-4c63-bd34-12d1814ac274","ios":"levelo://app?vid=eb4384fa-d5d7-4c63-bd34-12d1814ac274"},"vehicle_type_id":"4","last_reported":1774747434,"current_range_meters":6400,"station_id":"","pricing_plan_id":"cebpf4jnsgd1na2vs0mg"},{"bike_id":"3ff24676-23bf-45ec-b0f9-26c82beab495","system_id":"levelo_inurba_marseille","lat":43.24663,"lon":5.38172,"is_reserved":false,"is_disabled":false,"rental_uris":{"android":"levelo://app?vid=3ff24676-23bf-45ec-b0f9-26c82beab495","ios":"levelo://app?vid=3ff24676-23bf-45ec-b0f9-26c82beab495"},"vehicle_type_id":"4","last_reported":1774747434,"current_range_meters":6400,"station_id":"ce4bhih2rcd13ifvqfr0","pricing_plan_id":"cebpf4jnsgd1na2vs0mg"},{"bike_id":"e8df776f-5803-4824-ad9b-fb7b4a2275bd","system_id":"levelo_inurba_marseille","lat":43.30416,"lon":5.39754,"is_reserved":false,"is_disabled":false,"rental_uris":{"android":"levelo://app?vid=e8df776f-5803-4824-ad9b-fb7b4a2275bd","ios":"levelo://app?vid=e8df776f-5803-4824-ad9b-fb7b4a2275bd"},"vehicle_type_id":"4","last_reported":1774747434,"current_range_meters":6400,"station_id":"ce4bh092rcd13ifvqd20","pricing_plan_id":"cebpf4jnsgd1na2vs0mg"},{"bike_id":"d81decec-1336-453f-8815-0de2ad63968a","system_id":"levelo_inurba_marseille","lat":43.24803,"lon":5.37449,"is_reserved":false,"is_disabled":false,"rental_uris":{"android":"levelo://app?vid=d81decec-1336-453f-8815-0de2ad63968a","ios":"levelo://app?vid=d81decec-1336-453f-8815-0de2ad63968a"},"vehicle_type_id":"4","last_reported":1774747434,"current_range_meters":6400,"station_id":"ce4bhgh2rcd13ifvqfb0","pricing_plan_id":"cebpf4jnsgd1na2vs0mg"},{"bike_id":"2bf237c2-c4a5-409d-aaf2-b153a3e1ff10","system_id":"levelo_inurba_marseille","lat":43.21756,"lon":5.34595,"is_reserved":false,"is_disabled":false,"rental_uris":{"android":"levelo://app?vid=2bf237c2-c4a5-409d-aaf2-b153a3e1ff10","ios":"levelo://app?vid=2bf237c2-c4a5-409d-aaf2-b153a3e1ff10"},"vehicle_type_id":"4","last_reported":1774747434,"current_range_meters":6800,"station_id":"st_cvj6r9ubvosntc0bgbag","pricing_plan_id":"cebpf4jnsgd1na2vs0mg"},{"bike_id":"290afd09-0584-4963-a797-1ed96debbdfe","system_id":"levelo_inurba_marseille","lat":43.21185,"lon":5.35068,"is_reserved":false,"is_disabled":false,"rental_uris":{"android":"levelo://app?vid=290afd09-0584-4963-a797-1ed96debbdfe","ios":"levelo://app?vid=290afd09-0584-4963-a797-1ed96debbdfe"},"vehicle_type_id":"4","last_reported":1774747434,"current_range_meters":6800,"station_id":"st_cvj6sg6p6f1abm77japg","pricing_plan_id":"cebpf4jnsgd1na2vs0mg"},{"bike_id":"98e0a438-206a-4b87-8125-2d77d96858e9","system_id":"levelo_inurba_marseille","lat":43.28612,"lon":5.35094,"is_reserved":false,"is_disabled":false,"rental_uris":{"android":"levelo://app?vid=98e0a438-206a-4b87-8125-2d77d96858e9","ios":"levelo://app?vid=98e0a438-206a-4b87-8125-2d77d96858e9"},"vehicle_type_id":"4","last_reported":1774747434,"current_range_meters":6800,"station_id":"ce4bhch2rcd13ifvqeug","pricing_plan_id":"cebpf4jnsgd1na2vs0mg"},{"bike_id":"350829bd-8f82-4446-b854-d7c797e10f49","system_id":"levelo_inurba_marseille","lat":43.27829,"lon":5.39211,"is_reserved":false,"is_disabled":false,"rental_uris":{"android":"levelo://app?vid=350829bd-8f82-4446-b854-d7c797e10f49","ios":"levelo://app?vid=350829bd-8f82-4446-b854-d7c797e10f49"},"vehicle_type_id":"4","last_reported":1774747434,"current_range_meters":6800,"station_id":"ce4bhjp2rcd13ifvqga0","pricing_plan_id":"cebpf4jnsgd1na2vs0mg"},{"bike_id":"253bfbd1-c3f6-4b72-a716-55890f3b4db7","system_id":"levelo_inurba_marseille","lat":43.28481,"lon":5.48381,"is_reserved":false,"is_disabled":false,"rental_uris":{"android":"levelo://app?vid=253bfbd1-c3f6-4b72-a716-55890f3b4db7","ios":"levelo://app?vid=253bfbd1-c3f6-4b72-a716-55890f3b4db7"},"vehicle_type_id":"4","last_reported":1774747434,"current_range_meters":6800,"station_id":"","pricing_plan_id":"cebpf4jnsgd1na2vs0mg"},{"bike_id":"899c9f36-9b83-4ce9-bd7d-0f95dd541b6a","system_id":"levelo_inurba_marseille","lat":43.3234,"lon":5.36735,"is_reserved":false,"is_disabled":false,"rental_uris":{"android":"levelo://app?vid=899c9f36-9b83-4ce9-bd7d-0f95dd541b6a","ios":"levelo://app?vid=899c9f36-9b83-4ce9-bd7d-0f95dd541b6a"},"vehicle_type_id":"4","last_reported":1774747434,"current_range_meters":6800,"station_id":"ce4bhsh2rcd13ifvqi2g","pricing_plan_id":"cebpf4jnsgd1na2vs0mg"},{"bike_id":"cac65e9a-4f7e-4ab5-8945-0eea67327b18","system_id":"levelo_inurba_marseille","lat":43.30551,"lon":5.3652,"is_reserved":false,"is_disabled":false,"rental_uris":{"android":"levelo://app?vid=cac65e9a-4f7e-4ab5-8945-0eea67327b18","ios":"levelo://app?vid=cac65e9a-4f7e-4ab5-8945-0eea67327b18"},"vehicle_type_id":"4","last_reported":1774747434,"current_range_meters":6800,"station_id":"ce4bgs12rcd13ifvqcag","pricing_plan_id":"cebpf4jnsgd1na2vs0mg"},{"bike_id":"b6d75310-1f09-4d3a-82e5-bf0096756e96","system_id":"levelo_inurba_marseille","lat":43.28529,"lon":5.44091,"is_reserved":false,"is_disabled":false,"rental_uris":{"android":"levelo://app?vid=b6d75310-1f09-4d3a-82e5-bf0096756e96","ios":"levelo://app?vid=b6d75310-1f09-4d3a-82e5-bf0096756e96"},"vehicle_type_id":"4","last_reported":1774747434,"current_range_meters":6800,"station_id":"st_d3j3df2ikq2c7380ej80","pricing_plan_id":"cebpf4jnsgd1na2vs0mg"},{"bike_id":"6627d87e-d8cc-4315-9870-c98a872f12b5","system_id":"levelo_inurba_marseille","lat":43.24665,"lon":5.38163,"is_reserved":false,"is_disabled":false,"rental_uris":{"android":"levelo://app?vid=6627d87e-d8cc-4315-9870-c98a872f12b5","ios":"levelo://app?vid=6627d87e-d8cc-4315-9870-c98a872f12b5"},"vehicle_type_id":"4","last_reported":1774747434,"current_range_meters":6800,"station_id":"ce4bhih2rcd13ifvqfr0","pricing_plan_id":"cebpf4jnsgd1na2vs0mg"},{"bike_id":"adc1d067-d978-4d49-be63-6c2af6fbae1f","system_id":"levelo_inurba_marseille","lat":43.27964,"lon":5.40993,"is_reserved":false,"is_disabled":false,"rental_uris":{"android":"levelo://app?vid=adc1d067-d978-4d49-be63-6c2af6fbae1f","ios":"levelo://app?vid=adc1d067-d978-4d49-be63-6c2af6fbae1f"},"vehicle_type_id":"4","last_reported":1774747434,"current_range_meters":6800,"station_id":"ce4bhnp2rcd13ifvqh0g","pricing_plan_id":"cebpf4jnsgd1na2vs0mg"},{"bike_id":"98742e50-c668-44ec-bd8c-76659df0017a","system_id":"levelo_inurba_marseille","lat":43.325367,"lon":5.414554,"is_reserved":false,"is_disabled":false,"rental_uris":{"android":"levelo://app?vid=98742e50-c668-44ec-bd8c-76659df0017a","ios":"levelo://app?vid=98742e50-c668-44ec-bd8c-76659df0017a"},"vehicle_type_id":"4","last_reported":1774747434,"current_range_meters":6800,"station_id":"ce4bhq12rcd13ifvqhhg","pricing_plan_id":"cebpf4jnsgd1na2vs0mg"},{"bike_id":"6fec1a12-9571-4a00-90e7-0e9927dbd87f","system_id":"levelo_inurba_marseille","lat":43.29585,"lon":5.39955,"is_reserved":false,"is_disabled":false,"rental_uris":{"android":"levelo://app?vid=6fec1a12-9571-4a00-90e7-0e9927dbd87f","ios":"levelo://app?vid=6fec1a12-9571-4a00-90e7-0e9927dbd87f"},"vehicle_type_id":"4","last_reported":1774747434,"current_range_meters":6800,"station_id":"ce4bh312rcd13ifvqdj0","pricing_plan_id":"cebpf4jnsgd1na2vs0mg"},{"bike_id":"c2981b41-70b3-4e70-8d06-dc1902aed07f","system_id":"levelo_inurba_marseille","lat":43.28618,"lon":5.35061,"is_reserved":false,"is_disabled":false,"rental_uris":{"android":"levelo://app?vid=c2981b41-70b3-4e70-8d06-dc1902aed07f","ios":"levelo://app?vid=c2981b41-70b3-4e70-8d06-dc1902aed07f"},"vehicle_type_id":"4","last_reported":1774747434,"current_range_meters":6800,"station_id":"ce4bhch2rcd13ifvqeug","pricing_plan_id":"cebpf4jnsgd1na2vs0mg"},{"bike_id":"ef935ed1-650a-4632-b4dd-10e5cb1ef5b4","system_id":"levelo_inurba_marseille","lat":43.28426,"lon":5.34976,"is_reserved":false,"is_disabled":false,"rental_uris":{"android":"levelo://app?vid=ef935ed1-650a-4632-b4dd-10e5cb1ef5b4","ios":"levelo://app?vid=ef935ed1-650a-4632-b4dd-10e5cb1ef5b4"},"vehicle_type_id":"4","last_reported":1774747434,"current_range_meters":6800,"station_id":"ce4bhbh2rcd13ifvqepg","pricing_plan_id":"cebpf4jnsgd1na2vs0mg"},{"bike_id":"4f5cf7ef-ddb5-4d25-9c0b-bec33f5f4447","system_id":"levelo_inurba_marseille","lat":43.30959,"lon":5.36873,"is_reserved":false,"is_disabled":false,"rental_uris":{"android":"levelo://app?vid=4f5cf7ef-ddb5-4d25-9c0b-bec33f5f4447","ios":"levelo://app?vid=4f5cf7ef-ddb5-4d25-9c0b-bec33f5f4447"},"vehicle_type_id":"4","last_reported":1774747434,"current_range_meters":6800,"station_id":"","pricing_plan_id":"cebpf4jnsgd1na2vs0mg"},{"bike_id":"be4a1afc-a843-49e6-a087-d809924f7dda","system_id":"levelo_inurba_marseille","lat":43.28931,"lon":5.38365,"is_reserved":false,"is_disabled":true,"rental_uris":{"android":"levelo://app?vid=be4a1afc-a843-49e6-a087-d809924f7dda","ios":"levelo://app?vid=be4a1afc-a843-49e6-a087-d809924f7dda"},"vehicle_type_id":"4","last_reported":1774747434,"current_range_meters":6800,"station_id":"ce4bh612rcd13ifvqe6g","pricing_plan_id":"cebpf4jnsgd1na2vs0mg"},{"bike_id":"94332f62-18fd-47b9-84db-561ebf5e5075","system_id":"levelo_inurba_marseille","lat":43.22557,"lon":5.41619,"is_reserved":false,"is_disabled":false,"rental_uris":{"android":"levelo://app?vid=94332f62-18fd-47b9-84db-561ebf5e5075","ios":"levelo://app?vid=94332f62-18fd-47b9-84db-561ebf5e5075"},"vehicle_type_id":"4","last_reported":1774747434,"current_range_meters":6800,"station_id":"st_d2o4gvlbi1j2169b742g","pricing_plan_id":"cebpf4jnsgd1na2vs0mg"},{"bike_id":"825bca4a-aff7-48e8-8885-db808d49f605","system_id":"levelo_inurba_marseille","lat":43.2551,"lon":5.37644,"is_reserved":false,"is_disabled":false,"rental_uris":{"android":"levelo://app?vid=825bca4a-aff7-48e8-8885-db808d49f605","ios":"levelo://app?vid=825bca4a-aff7-48e8-8885-db808d49f605"},"vehicle_type_id":"4","last_reported":1774747434,"current_range_meters":6800,"station_id":"ce4bhh12rcd13ifvqff0","pricing_plan_id":"cebpf4jnsgd1na2vs0mg"},{"bike_id":"c1aba81b-5ff1-430f-92b9-3e158465efa4","system_id":"levelo_inurba_marseille","lat":43.31168,"lon":5.38682,"is_reserved":false,"is_disabled":false,"rental_uris":{"android":"levelo://app?vid=c1aba81b-5ff1-430f-92b9-3e158465efa4","ios":"levelo://app?vid=c1aba81b-5ff1-430f-92b9-3e158465efa4"},"vehicle_type_id":"4","last_reported":1774747434,"current_range_meters":6800,"station_id":"ce4bgv12rcd13ifvqcp0","pricing_plan_id":"cebpf4jnsgd1na2vs0mg"},{"bike_id":"3569b0a0-b3ab-4543-80a5-4bd5fae65589","system_id":"levelo_inurba_marseille","lat":43.29687,"lon":5.36578,"is_reserved":false,"is_disabled":false,"rental_uris":{"android":"levelo://app?vid=3569b0a0-b3ab-4543-80a5-4bd5fae65589","ios":"levelo://app?vid=3569b0a0-b3ab-4543-80a5-4bd5fae65589"},"vehicle_type_id":"4","last_reported":1774747434,"current_range_meters":6800,"station_id":"ce4bgn12rcd13ifvqbt0","pricing_plan_id":"cebpf4jnsgd1na2vs0mg"},{"bike_id":"970c0018-efd3-4265-ba0d-669fd24b3e90","system_id":"levelo_inurba_marseille","lat":43.30959,"lon":5.3903,"is_reserved":false,"is_disabled":true,"rental_uris":{"android":"levelo://app?vid=970c0018-efd3-4265-ba0d-669fd24b3e90","ios":"levelo://app?vid=970c0018-efd3-4265-ba0d-669fd24b3e90"},"vehicle_type_id":"4","last_reported":1774747434,"current_range_meters":7200,"station_id":"ce4bgup2rcd13ifvqco0","pricing_plan_id":"cebpf4jnsgd1na2vs0mg"},{"bike_id":"8fbeefe2-ac09-4bfa-957f-70fb060f4dec","system_id":"levelo_inurba_marseille","lat":43.2988,"lon":5.3971,"is_reserved":false,"is_disabled":false,"rental_uris":{"android":"levelo://app?vid=8fbeefe2-ac09-4bfa-957f-70fb060f4dec","ios":"levelo://app?vid=8fbeefe2-ac09-4bfa-957f-70fb060f4dec"},"vehicle_type_id":"4","last_reported":1774747434,"current_range_meters":7200,"station_id":"ce4bh0h2rcd13ifvqd50","pricing_plan_id":"cebpf4jnsgd1na2vs0mg"},{"bike_id":"dae9b504-6cf4-422e-bb27-3021d0fcca09","system_id":"levelo_inurba_marseille","lat":43.28834,"lon":5.35872,"is_reserved":false,"is_disabled":false,"rental_uris":{"android":"levelo://app?vid=dae9b504-6cf4-422e-bb27-3021d0fcca09","ios":"levelo://app?vid=dae9b504-6cf4-422e-bb27-3021d0fcca09"},"vehicle_type_id":"4","last_reported":1774747434,"current_range_meters":7200,"station_id":"ce4bhb12rcd13ifvqem0","pricing_plan_id":"cebpf4jnsgd1na2vs0mg"},{"bike_id":"1bebdd87-eb20-43f1-8d96-9fdb37cf655b","system_id":"levelo_inurba_marseille","lat":43.2953,"lon":5.38667,"is_reserved":false,"is_disabled":false,"rental_uris":{"android":"levelo://app?vid=1bebdd87-eb20-43f1-8d96-9fdb37cf655b","ios":"levelo://app?vid=1bebdd87-eb20-43f1-8d96-9fdb37cf655b"},"vehicle_type_id":"4","last_reported":1774747434,"current_range_meters":7200,"station_id":"","pricing_plan_id":"cebpf4jnsgd1na2vs0mg"},{"bike_id":"c09263af-5f3c-4487-9b20-dca4afc4c1ed","system_id":"levelo_inurba_marseille","lat":43.28615,"lon":5.35089,"is_reserved":false,"is_disabled":false,"rental_uris":{"android":"levelo://app?vid=c09263af-5f3c-4487-9b20-dca4afc4c1ed","ios":"levelo://app?vid=c09263af-5f3c-4487-9b20-dca4afc4c1ed"},"vehicle_type_id":"4","last_reported":1774747434,"current_range_meters":7200,"station_id":"ce4bhch2rcd13ifvqeug","pricing_plan_id":"cebpf4jnsgd1na2vs0mg"},{"bike_id":"71d48357-1730-42ac-b4ec-13bb8f5c6b51","system_id":"levelo_inurba_marseille","lat":43.31047,"lon":5.37153,"is_reserved":false,"is_disabled":false,"rental_uris":{"android":"levelo://app?vid=71d48357-1730-42ac-b4ec-13bb8f5c6b51","ios":"levelo://app?vid=71d48357-1730-42ac-b4ec-13bb8f5c6b51"},"vehicle_type_id":"4","last_reported":1774747434,"current_range_meters":7200,"station_id":"st_d4kl2rp97mjs73e7tdfg","pricing_plan_id":"cebpf4jnsgd1na2vs0mg"},{"bike_id":"4b8bd687-040a-43a0-9ca8-957b0e4f64cc","system_id":"levelo_inurba_marseille","lat":43.28402,"lon":5.37553,"is_reserved":false,"is_disabled":false,"rental_uris":{"android":"levelo://app?vid=4b8bd687-040a-43a0-9ca8-957b0e4f64cc","ios":"levelo://app?vid=4b8bd687-040a-43a0-9ca8-957b0e4f64cc"},"vehicle_type_id":"4","last_reported":1774747434,"current_range_meters":7200,"station_id":"ce4bh412rcd13ifvqds0","pricing_plan_id":"cebpf4jnsgd1na2vs0mg"},{"bike_id":"38c52583-f242-4023-a7a1-bfe149595de6","system_id":"levelo_inurba_marseille","lat":43.27359,"lon":5.3625,"is_reserved":false,"is_disabled":false,"rental_uris":{"android":"levelo://app?vid=38c52583-f242-4023-a7a1-bfe149595de6","ios":"levelo://app?vid=38c52583-f242-4023-a7a1-bfe149595de6"},"vehicle_type_id":"4","last_reported":1774747434,"current_range_meters":7200,"station_id":"ce4bhbh2rcd13ifvqeo0","pricing_plan_id":"cebpf4jnsgd1na2vs0mg"},{"bike_id":"651ccc8e-7873-40ba-89c6-a2f41f6c62c7","system_id":"levelo_inurba_marseille","lat":43.30807,"lon":5.38145,"is_reserved":false,"is_disabled":false,"rental_uris":{"android":"levelo://app?vid=651ccc8e-7873-40ba-89c6-a2f41f6c62c7","ios":"levelo://app?vid=651ccc8e-7873-40ba-89c6-a2f41f6c62c7"},"vehicle_type_id":"4","last_reported":1774747434,"current_range_meters":7200,"station_id":"ce4bgt12rcd13ifvqce0","pricing_plan_id":"cebpf4jnsgd1na2vs0mg"},{"bike_id":"d42918c2-5949-42d0-8ebe-a9ca1daba3bd","system_id":"levelo_inurba_marseille","lat":43.28468,"lon":5.35885,"is_reserved":false,"is_disabled":true,"rental_uris":{"android":"levelo://app?vid=d42918c2-5949-42d0-8ebe-a9ca1daba3bd","ios":"levelo://app?vid=d42918c2-5949-42d0-8ebe-a9ca1daba3bd"},"vehicle_type_id":"4","last_reported":1774747434,"current_range_meters":7200,"station_id":"ce4bhah2rcd13ifvqei0","pricing_plan_id":"cebpf4jnsgd1na2vs0mg"},{"bike_id":"53831c41-fd69-4f74-a006-a454351e7cd7","system_id":"levelo_inurba_marseille","lat":43.25112,"lon":5.40325,"is_reserved":false,"is_disabled":false,"rental_uris":{"android":"levelo://app?vid=53831c41-fd69-4f74-a006-a454351e7cd7","ios":"levelo://app?vid=53831c41-fd69-4f74-a006-a454351e7cd7"},"vehicle_type_id":"4","last_reported":1774747434,"current_range_meters":7200,"station_id":"ce4bhlh2rcd13ifvqgig","pricing_plan_id":"cebpf4jnsgd1na2vs0mg"},{"bike_id":"5ff2ff10-2277-4f18-b111-ba3916543196","system_id":"levelo_inurba_marseille","lat":43.31755,"lon":5.39004,"is_reserved":false,"is_disabled":false,"rental_uris":{"android":"levelo://app?vid=5ff2ff10-2277-4f18-b111-ba3916543196","ios":"levelo://app?vid=5ff2ff10-2277-4f18-b111-ba3916543196"},"vehicle_type_id":"4","last_reported":1774747434,"current_range_meters":7200,"station_id":"ce4bhqp2rcd13ifvqhng","pricing_plan_id":"cebpf4jnsgd1na2vs0mg"},{"bike_id":"9c90e154-1ad6-4039-8066-16f77ee3b88c","system_id":"levelo_inurba_marseille","lat":43.29535,"lon":5.38654,"is_reserved":false,"is_disabled":false,"rental_uris":{"android":"levelo://app?vid=9c90e154-1ad6-4039-8066-16f77ee3b88c","ios":"levelo://app?vid=9c90e154-1ad6-4039-8066-16f77ee3b88c"},"vehicle_type_id":"4","last_reported":1774747434,"current_range_meters":7200,"station_id":"","pricing_plan_id":"cebpf4jnsgd1na2vs0mg"},{"bike_id":"fadb9bc0-68a6-44e7-984d-9151bdc84414","system_id":"levelo_inurba_marseille","lat":43.31378,"lon":5.38479,"is_reserved":false,"is_disabled":false,"rental_uris":{"android":"levelo://app?vid=fadb9bc0-68a6-44e7-984d-9151bdc84414","ios":"levelo://app?vid=fadb9bc0-68a6-44e7-984d-9151bdc84414"},"vehicle_type_id":"4","last_reported":1774747434,"current_range_meters":7200,"station_id":"ce4bgt92rcd13ifvqcf0","pricing_plan_id":"cebpf4jnsgd1na2vs0mg"},{"bike_id":"67c1c6e6-4211-4250-be02-a52880e1c23a","system_id":"levelo_inurba_marseille","lat":43.26508,"lon":5.40703,"is_reserved":false,"is_disabled":false,"rental_uris":{"android":"levelo://app?vid=67c1c6e6-4211-4250-be02-a52880e1c23a","ios":"levelo://app?vid=67c1c6e6-4211-4250-be02-a52880e1c23a"},"vehicle_type_id":"4","last_reported":1774747434,"current_range_meters":7200,"station_id":"","pricing_plan_id":"cebpf4jnsgd1na2vs0mg"},{"bike_id":"2467f598-920a-477f-9c27-52d7293cbf42","system_id":"levelo_inurba_marseille","lat":43.2842,"lon":5.34998,"is_reserved":false,"is_disabled":false,"rental_uris":{"android":"levelo://app?vid=2467f598-920a-477f-9c27-52d7293cbf42","ios":"levelo://app?vid=2467f598-920a-477f-9c27-52d7293cbf42"},"vehicle_type_id":"4","last_reported":1774747434,"current_range_meters":8000,"station_id":"ce4bhbh2rcd13ifvqepg","pricing_plan_id":"cebpf4jnsgd1na2vs0mg"},{"bike_id":"36141db5-b3a5-4009-8266-2dd4f38320ae","system_id":"levelo_inurba_marseille","lat":43.23781,"lon":5.3662,"is_reserved":false,"is_disabled":false,"rental_uris":{"android":"levelo://app?vid=36141db5-b3a5-4009-8266-2dd4f38320ae","ios":"levelo://app?vid=36141db5-b3a5-4009-8266-2dd4f38320ae"},"vehicle_type_id":"4","last_reported":1774747434,"current_range_meters":8000,"station_id":"st_d3nk18o9ro0c73en2l3g","pricing_plan_id":"cebpf4jnsgd1na2vs0mg"},{"bike_id":"b1e731c5-a019-40fb-b94c-b458e0eddb64","system_id":"levelo_inurba_marseille","lat":43.23803,"lon":5.3862,"is_reserved":false,"is_disabled":false,"rental_uris":{"android":"levelo://app?vid=b1e731c5-a019-40fb-b94c-b458e0eddb64","ios":"levelo://app?vid=b1e731c5-a019-40fb-b94c-b458e0eddb64"},"vehicle_type_id":"4","last_reported":1774747434,"current_range_meters":8000,"station_id":"","pricing_plan_id":"cebpf4jnsgd1na2vs0mg"},{"bike_id":"20fc9eeb-b07e-4d7c-82d1-08b6e3eee36e","system_id":"levelo_inurba_marseille","lat":43.33606,"lon":5.41006,"is_reserved":false,"is_disabled":false,"rental_uris":{"android":"levelo://app?vid=20fc9eeb-b07e-4d7c-82d1-08b6e3eee36e","ios":"levelo://app?vid=20fc9eeb-b07e-4d7c-82d1-08b6e3eee36e"},"vehicle_type_id":"4","last_reported":1774747434,"current_range_meters":8000,"station_id":"ce4bhqh2rcd13ifvqhmg","pricing_plan_id":"cebpf4jnsgd1na2vs0mg"},{"bike_id":"2c76498e-1409-4d1d-aa11-912dd68ff926","system_id":"levelo_inurba_marseille","lat":43.28546,"lon":5.44069,"is_reserved":false,"is_disabled":false,"rental_uris":{"android":"levelo://app?vid=2c76498e-1409-4d1d-aa11-912dd68ff926","ios":"levelo://app?vid=2c76498e-1409-4d1d-aa11-912dd68ff926"},"vehicle_type_id":"4","last_reported":1774747434,"current_range_meters":8000,"station_id":"st_d3j3df2ikq2c7380ej80","pricing_plan_id":"cebpf4jnsgd1na2vs0mg"},{"bike_id":"44b061ea-ac90-4ccb-8d43-7cab8ff1f0e0","system_id":"levelo_inurba_marseille","lat":43.26062,"lon":5.39394,"is_reserved":false,"is_disabled":false,"rental_uris":{"android":"levelo://app?vid=44b061ea-ac90-4ccb-8d43-7cab8ff1f0e0","ios":"levelo://app?vid=44b061ea-ac90-4ccb-8d43-7cab8ff1f0e0"},"vehicle_type_id":"4","last_reported":1774747434,"current_range_meters":8000,"station_id":"ce4bhh92rcd13ifvqfj0","pricing_plan_id":"cebpf4jnsgd1na2vs0mg"},{"bike_id":"5045795a-cbc8-4b4d-89b1-a27530f4e118","system_id":"levelo_inurba_marseille","lat":43.30928,"lon":5.40158,"is_reserved":false,"is_disabled":false,"rental_uris":{"android":"levelo://app?vid=5045795a-cbc8-4b4d-89b1-a27530f4e118","ios":"levelo://app?vid=5045795a-cbc8-4b4d-89b1-a27530f4e118"},"vehicle_type_id":"4","last_reported":1774747434,"current_range_meters":8000,"station_id":"ce4bgvp2rcd13ifvqct0","pricing_plan_id":"cebpf4jnsgd1na2vs0mg"},{"bike_id":"92cb4986-12bc-44d4-ad49-496427bf2b45","system_id":"levelo_inurba_marseille","lat":43.28549,"lon":5.44104,"is_reserved":false,"is_disabled":false,"rental_uris":{"android":"levelo://app?vid=92cb4986-12bc-44d4-ad49-496427bf2b45","ios":"levelo://app?vid=92cb4986-12bc-44d4-ad49-496427bf2b45"},"vehicle_type_id":"4","last_reported":1774747434,"current_range_meters":8000,"station_id":"st_d3j3df2ikq2c7380ej80","pricing_plan_id":"cebpf4jnsgd1na2vs0mg"},{"bike_id":"76201515-ae70-408c-82ba-b2d7c39b0327","system_id":"levelo_inurba_marseille","lat":43.25105,"lon":5.40322,"is_reserved":false,"is_disabled":false,"rental_uris":{"android":"levelo://app?vid=76201515-ae70-408c-82ba-b2d7c39b0327","ios":"levelo://app?vid=76201515-ae70-408c-82ba-b2d7c39b0327"},"vehicle_type_id":"4","last_reported":1774747434,"current_range_meters":8000,"station_id":"ce4bhlh2rcd13ifvqgig","pricing_plan_id":"cebpf4jnsgd1na2vs0mg"},{"bike_id":"f4d3e11e-69a9-4a83-a09a-831756173891","system_id":"levelo_inurba_marseille","lat":43.30898,"lon":5.39631,"is_reserved":false,"is_disabled":false,"rental_uris":{"android":"levelo://app?vid=f4d3e11e-69a9-4a83-a09a-831756173891","ios":"levelo://app?vid=f4d3e11e-69a9-4a83-a09a-831756173891"},"vehicle_type_id":"4","last_reported":1774747434,"current_range_meters":8000,"station_id":"ce4bh012rcd13ifvqcv0","pricing_plan_id":"cebpf4jnsgd1na2vs0mg"},{"bike_id":"ce4bb8b5-8a16-4588-8ca5-c266a05621c6","system_id":"levelo_inurba_marseille","lat":43.23894,"lon":5.37456,"is_reserved":false,"is_disabled":false,"rental_uris":{"android":"levelo://app?vid=ce4bb8b5-8a16-4588-8ca5-c266a05621c6","ios":"levelo://app?vid=ce4bb8b5-8a16-4588-8ca5-c266a05621c6"},"vehicle_type_id":"4","last_reported":1774747434,"current_range_meters":8000,"station_id":"st_d6sm7csbq4hs73f8fpjg","pricing_plan_id":"cebpf4jnsgd1na2vs0mg"},{"bike_id":"3d9bfe0a-1a61-476c-b7a1-3899d9fa2736","system_id":"levelo_inurba_marseille","lat":43.31362,"lon":5.38491,"is_reserved":false,"is_disabled":false,"rental_uris":{"android":"levelo://app?vid=3d9bfe0a-1a61-476c-b7a1-3899d9fa2736","ios":"levelo://app?vid=3d9bfe0a-1a61-476c-b7a1-3899d9fa2736"},"vehicle_type_id":"4","last_reported":1774747434,"current_range_meters":8000,"station_id":"ce4bgt92rcd13ifvqcf0","pricing_plan_id":"cebpf4jnsgd1na2vs0mg"},{"bike_id":"535985be-6701-42a3-828b-fce4f4082d57","system_id":"levelo_inurba_marseille","lat":43.30424,"lon":5.39735,"is_reserved":false,"is_disabled":false,"rental_uris":{"android":"levelo://app?vid=535985be-6701-42a3-828b-fce4f4082d57","ios":"levelo://app?vid=535985be-6701-42a3-828b-fce4f4082d57"},"vehicle_type_id":"4","last_reported":1774747434,"current_range_meters":8000,"station_id":"ce4bh092rcd13ifvqd20","pricing_plan_id":"cebpf4jnsgd1na2vs0mg"},{"bike_id":"ab4b0b0a-a492-4e9f-be28-328b99b9b079","system_id":"levelo_inurba_marseille","lat":43.30797,"lon":5.38142,"is_reserved":false,"is_disabled":false,"rental_uris":{"android":"levelo://app?vid=ab4b0b0a-a492-4e9f-be28-328b99b9b079","ios":"levelo://app?vid=ab4b0b0a-a492-4e9f-be28-328b99b9b079"},"vehicle_type_id":"4","last_reported":1774747434,"current_range_meters":8000,"station_id":"ce4bgt12rcd13ifvqce0","pricing_plan_id":"cebpf4jnsgd1na2vs0mg"},{"bike_id":"a739175e-16e1-4a15-a74c-b5a3add56728","system_id":"levelo_inurba_marseille","lat":43.317423,"lon":5.423981,"is_reserved":false,"is_disabled":false,"rental_uris":{"android":"levelo://app?vid=a739175e-16e1-4a15-a74c-b5a3add56728","ios":"levelo://app?vid=a739175e-16e1-4a15-a74c-b5a3add56728"},"vehicle_type_id":"4","last_reported":1774747434,"current_range_meters":8000,"station_id":"ce4bhp92rcd13ifvqhbg","pricing_plan_id":"cebpf4jnsgd1na2vs0mg"},{"bike_id":"4551fba9-ca68-4a9f-8631-cadfdbf3b6b6","system_id":"levelo_inurba_marseille","lat":43.30597,"lon":5.39342,"is_reserved":false,"is_disabled":false,"rental_uris":{"android":"levelo://app?vid=4551fba9-ca68-4a9f-8631-cadfdbf3b6b6","ios":"levelo://app?vid=4551fba9-ca68-4a9f-8631-cadfdbf3b6b6"},"vehicle_type_id":"4","last_reported":1774747434,"current_range_meters":8000,"station_id":"ce4bh0p2rcd13ifvqd80","pricing_plan_id":"cebpf4jnsgd1na2vs0mg"},{"bike_id":"8c941434-7bbe-479c-a48b-5170f2bc45af","system_id":"levelo_inurba_marseille","lat":43.24557,"lon":5.39515,"is_reserved":false,"is_disabled":false,"rental_uris":{"android":"levelo://app?vid=8c941434-7bbe-479c-a48b-5170f2bc45af","ios":"levelo://app?vid=8c941434-7bbe-479c-a48b-5170f2bc45af"},"vehicle_type_id":"4","last_reported":1774747434,"current_range_meters":8000,"station_id":"ce4bhlp2rcd13ifvqgjg","pricing_plan_id":"cebpf4jnsgd1na2vs0mg"},{"bike_id":"e6e0ab00-239b-4834-b498-34a54d1fd851","system_id":"levelo_inurba_marseille","lat":43.28842,"lon":5.35844,"is_reserved":false,"is_disabled":false,"rental_uris":{"android":"levelo://app?vid=e6e0ab00-239b-4834-b498-34a54d1fd851","ios":"levelo://app?vid=e6e0ab00-239b-4834-b498-34a54d1fd851"},"vehicle_type_id":"4","last_reported":1774747434,"current_range_meters":8000,"station_id":"ce4bhb12rcd13ifvqem0","pricing_plan_id":"cebpf4jnsgd1na2vs0mg"},{"bike_id":"501f9c85-b477-4be8-9666-bfbfd3fe9340","system_id":"levelo_inurba_marseille","lat":43.30943,"lon":5.4013,"is_reserved":false,"is_disabled":false,"rental_uris":{"android":"levelo://app?vid=501f9c85-b477-4be8-9666-bfbfd3fe9340","ios":"levelo://app?vid=501f9c85-b477-4be8-9666-bfbfd3fe9340"},"vehicle_type_id":"4","last_reported":1774747434,"current_range_meters":8000,"station_id":"ce4bgvp2rcd13ifvqct0","pricing_plan_id":"cebpf4jnsgd1na2vs0mg"},{"bike_id":"b5e7cb5e-2e24-49c6-af22-d84b189ad9fd","system_id":"levelo_inurba_marseille","lat":43.28102,"lon":5.37819,"is_reserved":false,"is_disabled":false,"rental_uris":{"android":"levelo://app?vid=b5e7cb5e-2e24-49c6-af22-d84b189ad9fd","ios":"levelo://app?vid=b5e7cb5e-2e24-49c6-af22-d84b189ad9fd"},"vehicle_type_id":"4","last_reported":1774747434,"current_range_meters":8000,"station_id":"ce4bha12rcd13ifvqee0","pricing_plan_id":"cebpf4jnsgd1na2vs0mg"},{"bike_id":"659ccfdf-569f-4f01-84dd-6c9bbfa33ac4","system_id":"levelo_inurba_marseille","lat":43.23783,"lon":5.36627,"is_reserved":false,"is_disabled":false,"rental_uris":{"android":"levelo://app?vid=659ccfdf-569f-4f01-84dd-6c9bbfa33ac4","ios":"levelo://app?vid=659ccfdf-569f-4f01-84dd-6c9bbfa33ac4"},"vehicle_type_id":"4","last_reported":1774747434,"current_range_meters":8000,"station_id":"st_d3nk18o9ro0c73en2l3g","pricing_plan_id":"cebpf4jnsgd1na2vs0mg"},{"bike_id":"71588326-2d07-4c46-a9e0-f9e83dda3206","system_id":"levelo_inurba_marseille","lat":43.28264,"lon":5.35053,"is_reserved":false,"is_disabled":false,"rental_uris":{"android":"levelo://app?vid=71588326-2d07-4c46-a9e0-f9e83dda3206","ios":"levelo://app?vid=71588326-2d07-4c46-a9e0-f9e83dda3206"},"vehicle_type_id":"4","last_reported":1774747434,"current_range_meters":8000,"station_id":"ce4bhbp2rcd13ifvqerg","pricing_plan_id":"cebpf4jnsgd1na2vs0mg"},{"bike_id":"2f2b1d2c-1be4-402e-a839-6d84d3bfb79f","system_id":"levelo_inurba_marseille","lat":43.28411,"lon":5.34969,"is_reserved":false,"is_disabled":false,"rental_uris":{"android":"levelo://app?vid=2f2b1d2c-1be4-402e-a839-6d84d3bfb79f","ios":"levelo://app?vid=2f2b1d2c-1be4-402e-a839-6d84d3bfb79f"},"vehicle_type_id":"4","last_reported":1774747434,"current_range_meters":8000,"station_id":"ce4bhbh2rcd13ifvqepg","pricing_plan_id":"cebpf4jnsgd1na2vs0mg"},{"bike_id":"a67fc460-c077-4ade-9390-37cad8d5479c","system_id":"levelo_inurba_marseille","lat":43.21744,"lon":5.34597,"is_reserved":false,"is_disabled":false,"rental_uris":{"android":"levelo://app?vid=a67fc460-c077-4ade-9390-37cad8d5479c","ios":"levelo://app?vid=a67fc460-c077-4ade-9390-37cad8d5479c"},"vehicle_type_id":"4","last_reported":1774747434,"current_range_meters":8000,"station_id":"st_cvj6r9ubvosntc0bgbag","pricing_plan_id":"cebpf4jnsgd1na2vs0mg"},{"bike_id":"5a6e5c84-8876-49f7-9e5a-93cccecfd145","system_id":"levelo_inurba_marseille","lat":43.25084,"lon":5.39516,"is_reserved":false,"is_disabled":false,"rental_uris":{"android":"levelo://app?vid=5a6e5c84-8876-49f7-9e5a-93cccecfd145","ios":"levelo://app?vid=5a6e5c84-8876-49f7-9e5a-93cccecfd145"},"vehicle_type_id":"4","last_reported":1774747434,"current_range_meters":8000,"station_id":"ce4bhm12rcd13ifvqgkg","pricing_plan_id":"cebpf4jnsgd1na2vs0mg"},{"bike_id":"2890b77e-7b82-4cf9-8b35-b2e9af77bfcf","system_id":"levelo_inurba_marseille","lat":43.25335,"lon":5.42171,"is_reserved":false,"is_disabled":false,"rental_uris":{"android":"levelo://app?vid=2890b77e-7b82-4cf9-8b35-b2e9af77bfcf","ios":"levelo://app?vid=2890b77e-7b82-4cf9-8b35-b2e9af77bfcf"},"vehicle_type_id":"4","last_reported":1774747434,"current_range_meters":8400,"station_id":"st_d2m65c5bi1j21697t3ng","pricing_plan_id":"cebpf4jnsgd1na2vs0mg"},{"bike_id":"a9176eb7-c188-4ff4-912f-d4e94b60be86","system_id":"levelo_inurba_marseille","lat":43.23782,"lon":5.36604,"is_reserved":false,"is_disabled":false,"rental_uris":{"android":"levelo://app?vid=a9176eb7-c188-4ff4-912f-d4e94b60be86","ios":"levelo://app?vid=a9176eb7-c188-4ff4-912f-d4e94b60be86"},"vehicle_type_id":"4","last_reported":1774747434,"current_range_meters":8400,"station_id":"st_d3nk18o9ro0c73en2l3g","pricing_plan_id":"cebpf4jnsgd1na2vs0mg"},{"bike_id":"80e580b8-1788-4daa-b228-9d50c2e69288","system_id":"levelo_inurba_marseille","lat":43.30302,"lon":5.36897,"is_reserved":false,"is_disabled":false,"rental_uris":{"android":"levelo://app?vid=80e580b8-1788-4daa-b228-9d50c2e69288","ios":"levelo://app?vid=80e580b8-1788-4daa-b228-9d50c2e69288"},"vehicle_type_id":"4","last_reported":1774747434,"current_range_meters":8400,"station_id":"ce4bgqh2rcd13ifvqc5g","pricing_plan_id":"cebpf4jnsgd1na2vs0mg"},{"bike_id":"f359c56e-5568-4f21-9bf4-1d2f49c6c6e8","system_id":"levelo_inurba_marseille","lat":43.24064,"lon":5.37737,"is_reserved":false,"is_disabled":false,"rental_uris":{"android":"levelo://app?vid=f359c56e-5568-4f21-9bf4-1d2f49c6c6e8","ios":"levelo://app?vid=f359c56e-5568-4f21-9bf4-1d2f49c6c6e8"},"vehicle_type_id":"4","last_reported":1774747434,"current_range_meters":8400,"station_id":"ce4bhnp2rcd13ifvqgvg","pricing_plan_id":"cebpf4jnsgd1na2vs0mg"},{"bike_id":"4a2c0f41-33ad-4d27-89ae-3ec521f606e9","system_id":"levelo_inurba_marseille","lat":43.28403,"lon":5.3496,"is_reserved":false,"is_disabled":false,"rental_uris":{"android":"levelo://app?vid=4a2c0f41-33ad-4d27-89ae-3ec521f606e9","ios":"levelo://app?vid=4a2c0f41-33ad-4d27-89ae-3ec521f606e9"},"vehicle_type_id":"4","last_reported":1774747434,"current_range_meters":8400,"station_id":"ce4bhbh2rcd13ifvqepg","pricing_plan_id":"cebpf4jnsgd1na2vs0mg"},{"bike_id":"0f430097-8d5e-4a5a-9147-4fc5e40a362e","system_id":"levelo_inurba_marseille","lat":43.33547,"lon":5.37454,"is_reserved":false,"is_disabled":false,"rental_uris":{"android":"levelo://app?vid=0f430097-8d5e-4a5a-9147-4fc5e40a362e","ios":"levelo://app?vid=0f430097-8d5e-4a5a-9147-4fc5e40a362e"},"vehicle_type_id":"4","last_reported":1774747434,"current_range_meters":8400,"station_id":"st_d46tts09ee8s73dlu43g","pricing_plan_id":"cebpf4jnsgd1na2vs0mg"},{"bike_id":"1c7a4677-5489-4538-9aef-ce12275b760d","system_id":"levelo_inurba_marseille","lat":43.28105,"lon":5.37827,"is_reserved":false,"is_disabled":false,"rental_uris":{"android":"levelo://app?vid=1c7a4677-5489-4538-9aef-ce12275b760d","ios":"levelo://app?vid=1c7a4677-5489-4538-9aef-ce12275b760d"},"vehicle_type_id":"4","last_reported":1774747434,"current_range_meters":8400,"station_id":"ce4bha12rcd13ifvqee0","pricing_plan_id":"cebpf4jnsgd1na2vs0mg"},{"bike_id":"54ea3d34-d79a-4ab1-886f-1335ba6b438a","system_id":"levelo_inurba_marseille","lat":43.30155,"lon":5.38098,"is_reserved":false,"is_disabled":true,"rental_uris":{"android":"levelo://app?vid=54ea3d34-d79a-4ab1-886f-1335ba6b438a","ios":"levelo://app?vid=54ea3d34-d79a-4ab1-886f-1335ba6b438a"},"vehicle_type_id":"4","last_reported":1774747434,"current_range_meters":8400,"station_id":"ce4bgjp2rcd13ifvqbh0","pricing_plan_id":"cebpf4jnsgd1na2vs0mg"},{"bike_id":"10977d10-9297-45ce-a62f-b76ac59b0bae","system_id":"levelo_inurba_marseille","lat":43.31352,"lon":5.36708,"is_reserved":false,"is_disabled":false,"rental_uris":{"android":"levelo://app?vid=10977d10-9297-45ce-a62f-b76ac59b0bae","ios":"levelo://app?vid=10977d10-9297-45ce-a62f-b76ac59b0bae"},"vehicle_type_id":"4","last_reported":1774747434,"current_range_meters":8400,"station_id":"ce4bgr92rcd13ifvqc6g","pricing_plan_id":"cebpf4jnsgd1na2vs0mg"},{"bike_id":"ac1c3fc4-dc46-4f27-8240-6af85c3a9b6d","system_id":"levelo_inurba_marseille","lat":43.25332,"lon":5.42147,"is_reserved":false,"is_disabled":false,"rental_uris":{"android":"levelo://app?vid=ac1c3fc4-dc46-4f27-8240-6af85c3a9b6d","ios":"levelo://app?vid=ac1c3fc4-dc46-4f27-8240-6af85c3a9b6d"},"vehicle_type_id":"4","last_reported":1774747434,"current_range_meters":8400,"station_id":"st_d2m65c5bi1j21697t3ng","pricing_plan_id":"cebpf4jnsgd1na2vs0mg"},{"bike_id":"d9275995-6199-47cd-9641-416f87712e15","system_id":"levelo_inurba_marseille","lat":43.23777,"lon":5.36635,"is_reserved":false,"is_disabled":false,"rental_uris":{"android":"levelo://app?vid=d9275995-6199-47cd-9641-416f87712e15","ios":"levelo://app?vid=d9275995-6199-47cd-9641-416f87712e15"},"vehicle_type_id":"4","last_reported":1774747434,"current_range_meters":8400,"station_id":"st_d3nk18o9ro0c73en2l3g","pricing_plan_id":"cebpf4jnsgd1na2vs0mg"},{"bike_id":"cc59f728-d7ea-44ba-a83b-ab5dcd4ed237","system_id":"levelo_inurba_marseille","lat":43.30549,"lon":5.36527,"is_reserved":false,"is_disabled":false,"rental_uris":{"android":"levelo://app?vid=cc59f728-d7ea-44ba-a83b-ab5dcd4ed237","ios":"levelo://app?vid=cc59f728-d7ea-44ba-a83b-ab5dcd4ed237"},"vehicle_type_id":"4","last_reported":1774747434,"current_range_meters":8400,"station_id":"ce4bgs12rcd13ifvqcag","pricing_plan_id":"cebpf4jnsgd1na2vs0mg"},{"bike_id":"1961bb3e-d5c8-4c76-b4b1-96f51bad8908","system_id":"levelo_inurba_marseille","lat":43.26547,"lon":5.37283,"is_reserved":false,"is_disabled":false,"rental_uris":{"android":"levelo://app?vid=1961bb3e-d5c8-4c76-b4b1-96f51bad8908","ios":"levelo://app?vid=1961bb3e-d5c8-4c76-b4b1-96f51bad8908"},"vehicle_type_id":"4","last_reported":1774747434,"current_range_meters":8400,"station_id":"ce4bhg12rcd13ifvqf70","pricing_plan_id":"cebpf4jnsgd1na2vs0mg"},{"bike_id":"e7bd119b-30de-4df6-bef1-c0224e1d1fa7","system_id":"levelo_inurba_marseille","lat":43.30555,"lon":5.36537,"is_reserved":false,"is_disabled":false,"rental_uris":{"android":"levelo://app?vid=e7bd119b-30de-4df6-bef1-c0224e1d1fa7","ios":"levelo://app?vid=e7bd119b-30de-4df6-bef1-c0224e1d1fa7"},"vehicle_type_id":"4","last_reported":1774747434,"current_range_meters":8400,"station_id":"ce4bgs12rcd13ifvqcag","pricing_plan_id":"cebpf4jnsgd1na2vs0mg"},{"bike_id":"2d0fdc3d-338a-4727-826c-caea44a0cbfa","system_id":"levelo_inurba_marseille","lat":43.29815,"lon":5.4406,"is_reserved":false,"is_disabled":false,"rental_uris":{"android":"levelo://app?vid=2d0fdc3d-338a-4727-826c-caea44a0cbfa","ios":"levelo://app?vid=2d0fdc3d-338a-4727-826c-caea44a0cbfa"},"vehicle_type_id":"4","last_reported":1774747434,"current_range_meters":8400,"station_id":"st_d3jp68qikq2c7381ktn0","pricing_plan_id":"cebpf4jnsgd1na2vs0mg"},{"bike_id":"c609aa61-79d9-47bd-b7b7-62d640d7b9ef","system_id":"levelo_inurba_marseille","lat":43.26542,"lon":5.37308,"is_reserved":false,"is_disabled":true,"rental_uris":{"android":"levelo://app?vid=c609aa61-79d9-47bd-b7b7-62d640d7b9ef","ios":"levelo://app?vid=c609aa61-79d9-47bd-b7b7-62d640d7b9ef"},"vehicle_type_id":"4","last_reported":1774747434,"current_range_meters":8400,"station_id":"ce4bhg12rcd13ifvqf70","pricing_plan_id":"cebpf4jnsgd1na2vs0mg"},{"bike_id":"752abf57-2523-4a36-ab7b-c328452703b1","system_id":"levelo_inurba_marseille","lat":43.24809,"lon":5.3746,"is_reserved":false,"is_disabled":false,"rental_uris":{"android":"levelo://app?vid=752abf57-2523-4a36-ab7b-c328452703b1","ios":"levelo://app?vid=752abf57-2523-4a36-ab7b-c328452703b1"},"vehicle_type_id":"4","last_reported":1774747434,"current_range_meters":8400,"station_id":"ce4bhgh2rcd13ifvqfb0","pricing_plan_id":"cebpf4jnsgd1na2vs0mg"},{"bike_id":"c21db2bd-cbeb-4388-9b57-9b4bb729632d","system_id":"levelo_inurba_marseille","lat":43.31123,"lon":5.37769,"is_reserved":false,"is_disabled":false,"rental_uris":{"android":"levelo://app?vid=c21db2bd-cbeb-4388-9b57-9b4bb729632d","ios":"levelo://app?vid=c21db2bd-cbeb-4388-9b57-9b4bb729632d"},"vehicle_type_id":"4","last_reported":1774747434,"current_range_meters":8400,"station_id":"ce4bgt92rcd13ifvqcg0","pricing_plan_id":"cebpf4jnsgd1na2vs0mg"},{"bike_id":"56603236-0b6d-44e6-924a-3489e7c8fead","system_id":"levelo_inurba_marseille","lat":43.25772,"lon":5.38693,"is_reserved":false,"is_disabled":false,"rental_uris":{"android":"levelo://app?vid=56603236-0b6d-44e6-924a-3489e7c8fead","ios":"levelo://app?vid=56603236-0b6d-44e6-924a-3489e7c8fead"},"vehicle_type_id":"4","last_reported":1774747434,"current_range_meters":8400,"station_id":"","pricing_plan_id":"cebpf4jnsgd1na2vs0mg"},{"bike_id":"c81f22e8-21db-4c70-8596-d574dd26cced","system_id":"levelo_inurba_marseille","lat":43.24412,"lon":5.37419,"is_reserved":false,"is_disabled":false,"rental_uris":{"android":"levelo://app?vid=c81f22e8-21db-4c70-8596-d574dd26cced","ios":"levelo://app?vid=c81f22e8-21db-4c70-8596-d574dd26cced"},"vehicle_type_id":"4","last_reported":1774747434,"current_range_meters":8400,"station_id":"","pricing_plan_id":"cebpf4jnsgd1na2vs0mg"},{"bike_id":"56ed71d3-4f24-4bcb-9e63-f10b7aa4866e","system_id":"levelo_inurba_marseille","lat":43.28412,"lon":5.34986,"is_reserved":false,"is_disabled":false,"rental_uris":{"android":"levelo://app?vid=56ed71d3-4f24-4bcb-9e63-f10b7aa4866e","ios":"levelo://app?vid=56ed71d3-4f24-4bcb-9e63-f10b7aa4866e"},"vehicle_type_id":"4","last_reported":1774747434,"current_range_meters":8400,"station_id":"ce4bhbh2rcd13ifvqepg","pricing_plan_id":"cebpf4jnsgd1na2vs0mg"},{"bike_id":"4632252b-ae52-448c-8098-4aac9bdc698d","system_id":"levelo_inurba_marseille","lat":43.32711,"lon":5.40979,"is_reserved":false,"is_disabled":false,"rental_uris":{"android":"levelo://app?vid=4632252b-ae52-448c-8098-4aac9bdc698d","ios":"levelo://app?vid=4632252b-ae52-448c-8098-4aac9bdc698d"},"vehicle_type_id":"4","last_reported":1774747434,"current_range_meters":8400,"station_id":"","pricing_plan_id":"cebpf4jnsgd1na2vs0mg"},{"bike_id":"a20860db-5e6f-4257-b103-c77c212b043f","system_id":"levelo_inurba_marseille","lat":43.29794,"lon":5.39355,"is_reserved":false,"is_disabled":true,"rental_uris":{"android":"levelo://app?vid=a20860db-5e6f-4257-b103-c77c212b043f","ios":"levelo://app?vid=a20860db-5e6f-4257-b103-c77c212b043f"},"vehicle_type_id":"4","last_reported":1774747434,"current_range_meters":8400,"station_id":"chh1huq6cuj3fo74tm60","pricing_plan_id":"cebpf4jnsgd1na2vs0mg"},{"bike_id":"6331e265-ff3d-4bb0-928c-a2e7419ad1aa","system_id":"levelo_inurba_marseille","lat":43.29258,"lon":5.40919,"is_reserved":false,"is_disabled":false,"rental_uris":{"android":"levelo://app?vid=6331e265-ff3d-4bb0-928c-a2e7419ad1aa","ios":"levelo://app?vid=6331e265-ff3d-4bb0-928c-a2e7419ad1aa"},"vehicle_type_id":"4","last_reported":1774747434,"current_range_meters":8400,"station_id":"ce4bh192rcd13ifvqdc0","pricing_plan_id":"cebpf4jnsgd1na2vs0mg"},{"bike_id":"4c9a3293-f2c3-4e99-b5e1-94195ca699a4","system_id":"levelo_inurba_marseille","lat":43.2854,"lon":5.44096,"is_reserved":false,"is_disabled":false,"rental_uris":{"android":"levelo://app?vid=4c9a3293-f2c3-4e99-b5e1-94195ca699a4","ios":"levelo://app?vid=4c9a3293-f2c3-4e99-b5e1-94195ca699a4"},"vehicle_type_id":"4","last_reported":1774747434,"current_range_meters":8400,"station_id":"st_d3j3df2ikq2c7380ej80","pricing_plan_id":"cebpf4jnsgd1na2vs0mg"},{"bike_id":"4247c776-2951-4741-b1a8-85d5eef00372","system_id":"levelo_inurba_marseille","lat":43.27376,"lon":5.36249,"is_reserved":false,"is_disabled":false,"rental_uris":{"android":"levelo://app?vid=4247c776-2951-4741-b1a8-85d5eef00372","ios":"levelo://app?vid=4247c776-2951-4741-b1a8-85d5eef00372"},"vehicle_type_id":"4","last_reported":1774747434,"current_range_meters":8800,"station_id":"ce4bhbh2rcd13ifvqeo0","pricing_plan_id":"cebpf4jnsgd1na2vs0mg"},{"bike_id":"16676640-f72e-484b-9b6a-5559b5b1df30","system_id":"levelo_inurba_marseille","lat":43.31362,"lon":5.3849,"is_reserved":false,"is_disabled":false,"rental_uris":{"android":"levelo://app?vid=16676640-f72e-484b-9b6a-5559b5b1df30","ios":"levelo://app?vid=16676640-f72e-484b-9b6a-5559b5b1df30"},"vehicle_type_id":"4","last_reported":1774747434,"current_range_meters":8800,"station_id":"ce4bgt92rcd13ifvqcf0","pricing_plan_id":"cebpf4jnsgd1na2vs0mg"},{"bike_id":"2934d88c-6221-44dd-bee3-989a0775ea80","system_id":"levelo_inurba_marseille","lat":43.31048,"lon":5.37179,"is_reserved":false,"is_disabled":false,"rental_uris":{"android":"levelo://app?vid=2934d88c-6221-44dd-bee3-989a0775ea80","ios":"levelo://app?vid=2934d88c-6221-44dd-bee3-989a0775ea80"},"vehicle_type_id":"4","last_reported":1774747434,"current_range_meters":8800,"station_id":"st_d4kl2rp97mjs73e7tdfg","pricing_plan_id":"cebpf4jnsgd1na2vs0mg"},{"bike_id":"dd2afc2a-d3f5-42c3-a3d7-6c4ed376f5b8","system_id":"levelo_inurba_marseille","lat":43.23195,"lon":5.35558,"is_reserved":false,"is_disabled":false,"rental_uris":{"android":"levelo://app?vid=dd2afc2a-d3f5-42c3-a3d7-6c4ed376f5b8","ios":"levelo://app?vid=dd2afc2a-d3f5-42c3-a3d7-6c4ed376f5b8"},"vehicle_type_id":"4","last_reported":1774747434,"current_range_meters":8800,"station_id":"ce4bhu92rcd13ifvqi70","pricing_plan_id":"cebpf4jnsgd1na2vs0mg"},{"bike_id":"2de38fd0-4d56-4129-8633-4ee1741a5e1b","system_id":"levelo_inurba_marseille","lat":43.21187,"lon":5.35062,"is_reserved":false,"is_disabled":false,"rental_uris":{"android":"levelo://app?vid=2de38fd0-4d56-4129-8633-4ee1741a5e1b","ios":"levelo://app?vid=2de38fd0-4d56-4129-8633-4ee1741a5e1b"},"vehicle_type_id":"4","last_reported":1774747434,"current_range_meters":8800,"station_id":"st_cvj6sg6p6f1abm77japg","pricing_plan_id":"cebpf4jnsgd1na2vs0mg"},{"bike_id":"bd9e7044-fa5a-4d5e-9dc9-77ebb0db9903","system_id":"levelo_inurba_marseille","lat":43.2979,"lon":5.37098,"is_reserved":false,"is_disabled":false,"rental_uris":{"android":"levelo://app?vid=bd9e7044-fa5a-4d5e-9dc9-77ebb0db9903","ios":"levelo://app?vid=bd9e7044-fa5a-4d5e-9dc9-77ebb0db9903"},"vehicle_type_id":"4","last_reported":1774747434,"current_range_meters":8800,"station_id":"ce4bgop2rcd13ifvqc1g","pricing_plan_id":"cebpf4jnsgd1na2vs0mg"},{"bike_id":"3f200426-1eba-4d5e-acb1-a1a43666133b","system_id":"levelo_inurba_marseille","lat":43.21198,"lon":5.35074,"is_reserved":false,"is_disabled":false,"rental_uris":{"android":"levelo://app?vid=3f200426-1eba-4d5e-acb1-a1a43666133b","ios":"levelo://app?vid=3f200426-1eba-4d5e-acb1-a1a43666133b"},"vehicle_type_id":"4","last_reported":1774747434,"current_range_meters":8800,"station_id":"st_cvj6sg6p6f1abm77japg","pricing_plan_id":"cebpf4jnsgd1na2vs0mg"},{"bike_id":"cd54dc5b-eef2-49ee-a6fa-402f58aeed05","system_id":"levelo_inurba_marseille","lat":43.33057,"lon":5.39033,"is_reserved":false,"is_disabled":false,"rental_uris":{"android":"levelo://app?vid=cd54dc5b-eef2-49ee-a6fa-402f58aeed05","ios":"levelo://app?vid=cd54dc5b-eef2-49ee-a6fa-402f58aeed05"},"vehicle_type_id":"4","last_reported":1774747434,"current_range_meters":8800,"station_id":"ce4bhr92rcd13ifvqhrg","pricing_plan_id":"cebpf4jnsgd1na2vs0mg"},{"bike_id":"90aaae4f-4bea-44a9-9991-726dd88eccf2","system_id":"levelo_inurba_marseille","lat":43.23388,"lon":5.41218,"is_reserved":false,"is_disabled":true,"rental_uris":{"android":"levelo://app?vid=90aaae4f-4bea-44a9-9991-726dd88eccf2","ios":"levelo://app?vid=90aaae4f-4bea-44a9-9991-726dd88eccf2"},"vehicle_type_id":"4","last_reported":1774747434,"current_range_meters":8800,"station_id":"","pricing_plan_id":"cebpf4jnsgd1na2vs0mg"},{"bike_id":"32a7a92c-b34f-4be3-bc6d-bf21d2e60027","system_id":"levelo_inurba_marseille","lat":43.32751,"lon":5.36636,"is_reserved":false,"is_disabled":true,"rental_uris":{"android":"levelo://app?vid=32a7a92c-b34f-4be3-bc6d-bf21d2e60027","ios":"levelo://app?vid=32a7a92c-b34f-4be3-bc6d-bf21d2e60027"},"vehicle_type_id":"4","last_reported":1774747434,"current_range_meters":8800,"station_id":"","pricing_plan_id":"cebpf4jnsgd1na2vs0mg"},{"bike_id":"baf7c004-e890-47af-ba3f-3dcb4a5e4db3","system_id":"levelo_inurba_marseille","lat":43.24636,"lon":5.389,"is_reserved":false,"is_disabled":false,"rental_uris":{"android":"levelo://app?vid=baf7c004-e890-47af-ba3f-3dcb4a5e4db3","ios":"levelo://app?vid=baf7c004-e890-47af-ba3f-3dcb4a5e4db3"},"vehicle_type_id":"4","last_reported":1774747434,"current_range_meters":8800,"station_id":"ce4bhg12rcd13ifvqf60","pricing_plan_id":"cebpf4jnsgd1na2vs0mg"},{"bike_id":"5dc7a0c1-467a-4151-97ef-a8a655c4f7a5","system_id":"levelo_inurba_marseille","lat":43.28463,"lon":5.48394,"is_reserved":false,"is_disabled":false,"rental_uris":{"android":"levelo://app?vid=5dc7a0c1-467a-4151-97ef-a8a655c4f7a5","ios":"levelo://app?vid=5dc7a0c1-467a-4151-97ef-a8a655c4f7a5"},"vehicle_type_id":"4","last_reported":1774747434,"current_range_meters":8800,"station_id":"","pricing_plan_id":"cebpf4jnsgd1na2vs0mg"},{"bike_id":"b8bf157e-659b-4230-b7a5-7abce9abcca2","system_id":"levelo_inurba_marseille","lat":43.24661,"lon":5.38131,"is_reserved":false,"is_disabled":false,"rental_uris":{"android":"levelo://app?vid=b8bf157e-659b-4230-b7a5-7abce9abcca2","ios":"levelo://app?vid=b8bf157e-659b-4230-b7a5-7abce9abcca2"},"vehicle_type_id":"4","last_reported":1774747434,"current_range_meters":8800,"station_id":"ce4bhih2rcd13ifvqfr0","pricing_plan_id":"cebpf4jnsgd1na2vs0mg"},{"bike_id":"6cd08817-61b4-4fc1-aeda-8267dd2c4320","system_id":"levelo_inurba_marseille","lat":43.28516,"lon":5.44124,"is_reserved":false,"is_disabled":false,"rental_uris":{"android":"levelo://app?vid=6cd08817-61b4-4fc1-aeda-8267dd2c4320","ios":"levelo://app?vid=6cd08817-61b4-4fc1-aeda-8267dd2c4320"},"vehicle_type_id":"4","last_reported":1774747434,"current_range_meters":8800,"station_id":"st_d3j3df2ikq2c7380ej80","pricing_plan_id":"cebpf4jnsgd1na2vs0mg"},{"bike_id":"8f3f698c-46a4-4821-8400-160b87834396","system_id":"levelo_inurba_marseille","lat":43.23219,"lon":5.35517,"is_reserved":false,"is_disabled":false,"rental_uris":{"android":"levelo://app?vid=8f3f698c-46a4-4821-8400-160b87834396","ios":"levelo://app?vid=8f3f698c-46a4-4821-8400-160b87834396"},"vehicle_type_id":"4","last_reported":1774747434,"current_range_meters":8800,"station_id":"ce4bhu92rcd13ifvqi70","pricing_plan_id":"cebpf4jnsgd1na2vs0mg"},{"bike_id":"e20ac608-d21b-4f4e-b648-b5a261d2f29e","system_id":"levelo_inurba_marseille","lat":43.25061,"lon":5.40428,"is_reserved":false,"is_disabled":false,"rental_uris":{"android":"levelo://app?vid=e20ac608-d21b-4f4e-b648-b5a261d2f29e","ios":"levelo://app?vid=e20ac608-d21b-4f4e-b648-b5a261d2f29e"},"vehicle_type_id":"4","last_reported":1774747434,"current_range_meters":8800,"station_id":"","pricing_plan_id":"cebpf4jnsgd1na2vs0mg"},{"bike_id":"2047c3ff-7bcf-4a9f-96dc-7ba1721a1a46","system_id":"levelo_inurba_marseille","lat":43.28578,"lon":5.39482,"is_reserved":false,"is_disabled":false,"rental_uris":{"android":"levelo://app?vid=2047c3ff-7bcf-4a9f-96dc-7ba1721a1a46","ios":"levelo://app?vid=2047c3ff-7bcf-4a9f-96dc-7ba1721a1a46"},"vehicle_type_id":"4","last_reported":1774747434,"current_range_meters":8800,"station_id":"ce4bh292rcd13ifvqdg0","pricing_plan_id":"cebpf4jnsgd1na2vs0mg"},{"bike_id":"c2c2fdc2-88a9-4727-9a80-676fa95d9041","system_id":"levelo_inurba_marseille","lat":43.3053,"lon":5.36681,"is_reserved":false,"is_disabled":false,"rental_uris":{"android":"levelo://app?vid=c2c2fdc2-88a9-4727-9a80-676fa95d9041","ios":"levelo://app?vid=c2c2fdc2-88a9-4727-9a80-676fa95d9041"},"vehicle_type_id":"4","last_reported":1774747434,"current_range_meters":9200,"station_id":"ce4bgrp2rcd13ifvqc9g","pricing_plan_id":"cebpf4jnsgd1na2vs0mg"},{"bike_id":"5a9b9910-8cef-46e8-809c-e17a448cd71a","system_id":"levelo_inurba_marseille","lat":43.31364,"lon":5.36707,"is_reserved":false,"is_disabled":false,"rental_uris":{"android":"levelo://app?vid=5a9b9910-8cef-46e8-809c-e17a448cd71a","ios":"levelo://app?vid=5a9b9910-8cef-46e8-809c-e17a448cd71a"},"vehicle_type_id":"4","last_reported":1774747434,"current_range_meters":9200,"station_id":"ce4bgr92rcd13ifvqc6g","pricing_plan_id":"cebpf4jnsgd1na2vs0mg"},{"bike_id":"daa2426d-5a42-48e0-9fd1-ff0694055be5","system_id":"levelo_inurba_marseille","lat":43.27183,"lon":5.39143,"is_reserved":false,"is_disabled":false,"rental_uris":{"android":"levelo://app?vid=daa2426d-5a42-48e0-9fd1-ff0694055be5","ios":"levelo://app?vid=daa2426d-5a42-48e0-9fd1-ff0694055be5"},"vehicle_type_id":"4","last_reported":1774747434,"current_range_meters":9200,"station_id":"ce4bhhp2rcd13ifvqfm0","pricing_plan_id":"cebpf4jnsgd1na2vs0mg"},{"bike_id":"0b65a916-8cef-4651-900b-b2155a488b12","system_id":"levelo_inurba_marseille","lat":43.27503,"lon":5.416,"is_reserved":false,"is_disabled":false,"rental_uris":{"android":"levelo://app?vid=0b65a916-8cef-4651-900b-b2155a488b12","ios":"levelo://app?vid=0b65a916-8cef-4651-900b-b2155a488b12"},"vehicle_type_id":"4","last_reported":1774747434,"current_range_meters":9200,"station_id":"st_d6im8g6chgec73a5pndg","pricing_plan_id":"cebpf4jnsgd1na2vs0mg"},{"bike_id":"17aee5aa-a14a-45fb-a9a6-9babf34ac0fc","system_id":"levelo_inurba_marseille","lat":43.30418,"lon":5.41256,"is_reserved":false,"is_disabled":false,"rental_uris":{"android":"levelo://app?vid=17aee5aa-a14a-45fb-a9a6-9babf34ac0fc","ios":"levelo://app?vid=17aee5aa-a14a-45fb-a9a6-9babf34ac0fc"},"vehicle_type_id":"4","last_reported":1774747434,"current_range_meters":9200,"station_id":"ce4bhop2rcd13ifvqh8g","pricing_plan_id":"cebpf4jnsgd1na2vs0mg"},{"bike_id":"fd3e8197-4d94-44cb-91e0-3c82d7bfaa0b","system_id":"levelo_inurba_marseille","lat":43.30134,"lon":5.37431,"is_reserved":false,"is_disabled":false,"rental_uris":{"android":"levelo://app?vid=fd3e8197-4d94-44cb-91e0-3c82d7bfaa0b","ios":"levelo://app?vid=fd3e8197-4d94-44cb-91e0-3c82d7bfaa0b"},"vehicle_type_id":"4","last_reported":1774747434,"current_range_meters":9200,"station_id":"ce4bgs92rcd13ifvqcc0","pricing_plan_id":"cebpf4jnsgd1na2vs0mg"},{"bike_id":"ff9fd0ae-74d3-4fed-a36e-0d29021b7d46","system_id":"levelo_inurba_marseille","lat":43.29791,"lon":5.39344,"is_reserved":false,"is_disabled":false,"rental_uris":{"android":"levelo://app?vid=ff9fd0ae-74d3-4fed-a36e-0d29021b7d46","ios":"levelo://app?vid=ff9fd0ae-74d3-4fed-a36e-0d29021b7d46"},"vehicle_type_id":"4","last_reported":1774747434,"current_range_meters":9200,"station_id":"chh1huq6cuj3fo74tm60","pricing_plan_id":"cebpf4jnsgd1na2vs0mg"},{"bike_id":"aeca9453-ce08-40c1-8c68-c50a96f12fa4","system_id":"levelo_inurba_marseille","lat":43.28616,"lon":5.351,"is_reserved":false,"is_disabled":false,"rental_uris":{"android":"levelo://app?vid=aeca9453-ce08-40c1-8c68-c50a96f12fa4","ios":"levelo://app?vid=aeca9453-ce08-40c1-8c68-c50a96f12fa4"},"vehicle_type_id":"4","last_reported":1774747434,"current_range_meters":9200,"station_id":"ce4bhch2rcd13ifvqeug","pricing_plan_id":"cebpf4jnsgd1na2vs0mg"},{"bike_id":"1b52061f-2407-41b6-9fde-eceac5ab1e54","system_id":"levelo_inurba_marseille","lat":43.21179,"lon":5.35071,"is_reserved":false,"is_disabled":false,"rental_uris":{"android":"levelo://app?vid=1b52061f-2407-41b6-9fde-eceac5ab1e54","ios":"levelo://app?vid=1b52061f-2407-41b6-9fde-eceac5ab1e54"},"vehicle_type_id":"4","last_reported":1774747434,"current_range_meters":9200,"station_id":"st_cvj6sg6p6f1abm77japg","pricing_plan_id":"cebpf4jnsgd1na2vs0mg"},{"bike_id":"f8198a32-a864-439a-a3b3-c3c7c9158a22","system_id":"levelo_inurba_marseille","lat":43.28931,"lon":5.36636,"is_reserved":false,"is_disabled":false,"rental_uris":{"android":"levelo://app?vid=f8198a32-a864-439a-a3b3-c3c7c9158a22","ios":"levelo://app?vid=f8198a32-a864-439a-a3b3-c3c7c9158a22"},"vehicle_type_id":"4","last_reported":1774747434,"current_range_meters":9200,"station_id":"ce4bhap2rcd13ifvqek0","pricing_plan_id":"cebpf4jnsgd1na2vs0mg"},{"bike_id":"b236f643-53ba-43fa-b29d-c90773116eb2","system_id":"levelo_inurba_marseille","lat":43.24467,"lon":5.42526,"is_reserved":false,"is_disabled":false,"rental_uris":{"android":"levelo://app?vid=b236f643-53ba-43fa-b29d-c90773116eb2","ios":"levelo://app?vid=b236f643-53ba-43fa-b29d-c90773116eb2"},"vehicle_type_id":"4","last_reported":1774747434,"current_range_meters":9200,"station_id":"st_d4a3vfp97mjs738cd8kg","pricing_plan_id":"cebpf4jnsgd1na2vs0mg"},{"bike_id":"8ebdddeb-65fa-4a6a-a7a1-243a6f4f1f0d","system_id":"levelo_inurba_marseille","lat":43.30414,"lon":5.39761,"is_reserved":false,"is_disabled":true,"rental_uris":{"android":"levelo://app?vid=8ebdddeb-65fa-4a6a-a7a1-243a6f4f1f0d","ios":"levelo://app?vid=8ebdddeb-65fa-4a6a-a7a1-243a6f4f1f0d"},"vehicle_type_id":"4","last_reported":1774747434,"current_range_meters":9200,"station_id":"ce4bh092rcd13ifvqd20","pricing_plan_id":"cebpf4jnsgd1na2vs0mg"},{"bike_id":"25a215c0-6185-4988-a946-459e463e94c2","system_id":"levelo_inurba_marseille","lat":43.28608,"lon":5.35103,"is_reserved":false,"is_disabled":false,"rental_uris":{"android":"levelo://app?vid=25a215c0-6185-4988-a946-459e463e94c2","ios":"levelo://app?vid=25a215c0-6185-4988-a946-459e463e94c2"},"vehicle_type_id":"4","last_reported":1774747434,"current_range_meters":9200,"station_id":"ce4bhch2rcd13ifvqeug","pricing_plan_id":"cebpf4jnsgd1na2vs0mg"},{"bike_id":"48c12b74-6f3a-40a8-94b3-e62be28f6fcf","system_id":"levelo_inurba_marseille","lat":43.32343,"lon":5.36735,"is_reserved":false,"is_disabled":false,"rental_uris":{"android":"levelo://app?vid=48c12b74-6f3a-40a8-94b3-e62be28f6fcf","ios":"levelo://app?vid=48c12b74-6f3a-40a8-94b3-e62be28f6fcf"},"vehicle_type_id":"4","last_reported":1774747434,"current_range_meters":9200,"station_id":"ce4bhsh2rcd13ifvqi2g","pricing_plan_id":"cebpf4jnsgd1na2vs0mg"},{"bike_id":"7f4a9e02-b53b-41d5-b65e-ebf80553ca14","system_id":"levelo_inurba_marseille","lat":43.24468,"lon":5.42545,"is_reserved":false,"is_disabled":false,"rental_uris":{"android":"levelo://app?vid=7f4a9e02-b53b-41d5-b65e-ebf80553ca14","ios":"levelo://app?vid=7f4a9e02-b53b-41d5-b65e-ebf80553ca14"},"vehicle_type_id":"4","last_reported":1774747434,"current_range_meters":9200,"station_id":"st_d4a3vfp97mjs738cd8kg","pricing_plan_id":"cebpf4jnsgd1na2vs0mg"},{"bike_id":"dfa63997-c246-478c-868d-b23a291344da","system_id":"levelo_inurba_marseille","lat":43.31253,"lon":5.41338,"is_reserved":false,"is_disabled":false,"rental_uris":{"android":"levelo://app?vid=dfa63997-c246-478c-868d-b23a291344da","ios":"levelo://app?vid=dfa63997-c246-478c-868d-b23a291344da"},"vehicle_type_id":"4","last_reported":1774747434,"current_range_meters":9200,"station_id":"","pricing_plan_id":"cebpf4jnsgd1na2vs0mg"},{"bike_id":"831afe97-5b46-40a3-b3a8-9267430cd93d","system_id":"levelo_inurba_marseille","lat":43.22925,"lon":5.35384,"is_reserved":false,"is_disabled":false,"rental_uris":{"android":"levelo://app?vid=831afe97-5b46-40a3-b3a8-9267430cd93d","ios":"levelo://app?vid=831afe97-5b46-40a3-b3a8-9267430cd93d"},"vehicle_type_id":"4","last_reported":1774747434,"current_range_meters":9200,"station_id":"cpo3532slgdg3j2ikp40","pricing_plan_id":"cebpf4jnsgd1na2vs0mg"},