{"last_updated":1758722965,"ttl":60,"version":"2.2","data":{"bikes":[{"bike_id":"cc86ce9e-3187-41d2-92a8-407d9d00c1b6","system_id":"levelo_inurba_marseille","lat":43.28463,"lon":5.35898,"is_reserved":false,"is_disabled":false,"rental_uris":{"android":"levelo://app?vid=cc86ce9e-3187-41d2-92a8-407d9d00c1b6","ios":"levelo://app?vid=cc86ce9e-3187-41d2-92a8-407d9d00c1b6"},"vehicle_type_id":"4","last_reported":1758722965,"current_range_meters":2800,"station_id":"ce4bhah2rcd13ifvqei0","pricing_plan_id":"cebpf4jnsgd1na2vs0mg"},{"bike_id":"e3e926d8-b807-4ddb-ba03-e288bfec7036","system_id":"levelo_inurba_marseille","lat":43.30139,"lon":5.37396,"is_reserved":false,"is_disabled":false,"rental_uris":{"android":"levelo://app?vid=e3e926d8-b807-4ddb-ba03-e288bfec7036","ios":"levelo://app?vid=e3e926d8-b807-4ddb-ba03-e288bfec7036"},"vehicle_type_id":"4","last_reported":1758722965,"current_range_meters":2800,"station_id":"ce4bgs92rcd13ifvqcc0","pricing_plan_id":"cebpf4jnsgd1na2vs0mg"},{"bike_id":"31a300f9-74b0-42f3-9743-40bd0814dad3","system_id":"levelo_inurba_marseille","lat":43.25823,"lon":5.39435,"is_reserved":false,"is_disabled":false,"rental_uris":{"android":"levelo://app?vid=31a300f9-74b0-42f3-9743-40bd0814dad3","ios":"levelo://app?vid=31a300f9-74b0-42f3-9743-40bd0814dad3"},"vehicle_type_id":"4","last_reported":1758722965,"current_range_meters":2000,"station_id":"ce4bhip2rcd13ifvqft0","pricing_plan_id":"cebpf4jnsgd1na2vs0mg"},{"bike_id":"4c537adb-4937-483d-9805-6e30ccbb8406","system_id":"levelo_inurba_marseille","lat":43.31115,"lon":5.37783,"is_reserved":false,"is_disabled":false,"rental_uris":{"android":"levelo://app?vid=4c537adb-4937-483d-9805-6e30ccbb8406","ios":"levelo://app?vid=4c537adb-4937-483d-9805-6e30ccbb8406"},"vehicle_type_id":"4","last_reported":1758722965,"current_range_meters":3200,"station_id":"ce4bgt92rcd13ifvqcg0","pricing_plan_id":"cebpf4jnsgd1na2vs0mg"},{"bike_id":"bd6039c4-f1ab-4292-b245-e38e78f9ce3d","system_id":"levelo_inurba_marseille","lat":43.33015,"lon":5.3905,"is_reserved":false,"is_disabled":true,"rental_uris":{"android":"levelo://app?vid=bd6039c4-f1ab-4292-b245-e38e78f9ce3d","ios":"levelo://app?vid=bd6039c4-f1ab-4292-b245-e38e78f9ce3d"},"vehicle_type_id":"4","last_reported":1758722965,"current_range_meters":3200,"station_id":"ce4bhr92rcd13ifvqhrg","pricing_plan_id":"cebpf4jnsgd1na2vs0mg"},{"bike_id":"213937f4-0cd9-48b8-9d64-0b73c37bc721","system_id":"levelo_inurba_marseille","lat":43.29558,"lon":5.38174,"is_reserved":false,"is_disabled":false,"rental_uris":{"android":"levelo://app?vid=213937f4-0cd9-48b8-9d64-0b73c37bc721","ios":"levelo://app?vid=213937f4-0cd9-48b8-9d64-0b73c37bc721"},"vehicle_type_id":"4","last_reported":1758722965,"current_range_meters":3200,"station_id":"","pricing_plan_id":"cebpf4jnsgd1na2vs0mg"},{"bike_id":"d25fe0ce-95ac-44cd-adb6-9b477cfcb65f","system_id":"levelo_inurba_marseille","lat":43.225364,"lon":5.348375,"is_reserved":false,"is_disabled":false,"rental_uris":{"android":"levelo://app?vid=d25fe0ce-95ac-44cd-adb6-9b477cfcb65f","ios":"levelo://app?vid=d25fe0ce-95ac-44cd-adb6-9b477cfcb65f"},"vehicle_type_id":"4","last_reported":1758722965,"current_range_meters":3200,"station_id":"","pricing_plan_id":"cebpf4jnsgd1na2vs0mg"},{"bike_id":"b8d00a57-c220-463e-9e93-303b3b4cfd27","system_id":"levelo_inurba_marseille","lat":43.274215,"lon":5.394188,"is_reserved":false,"is_disabled":false,"rental_uris":{"android":"levelo://app?vid=b8d00a57-c220-463e-9e93-303b3b4cfd27","ios":"levelo://app?vid=b8d00a57-c220-463e-9e93-303b3b4cfd27"},"vehicle_type_id":"4","last_reported":1758722965,"current_range_meters":2800,"station_id":"ce4bhdp2rcd13ifvqf20","pricing_plan_id":"cebpf4jnsgd1na2vs0mg"},{"bike_id":"0a1ab1a5-b85e-4ac3-936e-fe171b7ebe82","system_id":"levelo_inurba_marseille","lat":43.296295,"lon":5.381289,"is_reserved":false,"is_disabled":false,"rental_uris":{"android":"levelo://app?vid=0a1ab1a5-b85e-4ac3-936e-fe171b7ebe82","ios":"levelo://app?vid=0a1ab1a5-b85e-4ac3-936e-fe171b7ebe82"},"vehicle_type_id":"4","last_reported":1758722965,"current_range_meters":3600,"station_id":"","pricing_plan_id":"cebpf4jnsgd1na2vs0mg"},{"bike_id":"2c067bcf-5c8d-4739-bcc6-b263224cc674","system_id":"levelo_inurba_marseille","lat":43.31316,"lon":5.39705,"is_reserved":false,"is_disabled":false,"rental_uris":{"android":"levelo://app?vid=2c067bcf-5c8d-4739-bcc6-b263224cc674","ios":"levelo://app?vid=2c067bcf-5c8d-4739-bcc6-b263224cc674"},"vehicle_type_id":"4","last_reported":1758722965,"current_range_meters":3600,"station_id":"ce4bgvp2rcd13ifvqcu0","pricing_plan_id":"cebpf4jnsgd1na2vs0mg"},{"bike_id":"ded3cc9c-f33f-4be8-b8cc-6d4337158a87","system_id":"levelo_inurba_marseille","lat":43.30152,"lon":5.38098,"is_reserved":false,"is_disabled":false,"rental_uris":{"android":"levelo://app?vid=ded3cc9c-f33f-4be8-b8cc-6d4337158a87","ios":"levelo://app?vid=ded3cc9c-f33f-4be8-b8cc-6d4337158a87"},"vehicle_type_id":"4","last_reported":1758722965,"current_range_meters":3600,"station_id":"ce4bgjp2rcd13ifvqbh0","pricing_plan_id":"cebpf4jnsgd1na2vs0mg"},{"bike_id":"7c5ef729-ebef-4bde-a73f-4d514b4e92c0","system_id":"levelo_inurba_marseille","lat":43.280366,"lon":5.36947,"is_reserved":false,"is_disabled":false,"rental_uris":{"android":"levelo://app?vid=7c5ef729-ebef-4bde-a73f-4d514b4e92c0","ios":"levelo://app?vid=7c5ef729-ebef-4bde-a73f-4d514b4e92c0"},"vehicle_type_id":"4","last_reported":1758722965,"current_range_meters":3600,"station_id":"ce4bha12rcd13ifvqef0","pricing_plan_id":"cebpf4jnsgd1na2vs0mg"},{"bike_id":"d1ad01a4-f61d-4638-b038-1236bdcf538d","system_id":"levelo_inurba_marseille","lat":43.31172,"lon":5.38712,"is_reserved":false,"is_disabled":false,"rental_uris":{"android":"levelo://app?vid=d1ad01a4-f61d-4638-b038-1236bdcf538d","ios":"levelo://app?vid=d1ad01a4-f61d-4638-b038-1236bdcf538d"},"vehicle_type_id":"4","last_reported":1758722965,"current_range_meters":3600,"station_id":"ce4bgv12rcd13ifvqcp0","pricing_plan_id":"cebpf4jnsgd1na2vs0mg"},{"bike_id":"8cf107b7-2ac4-4c7f-83cb-634d5aff4893","system_id":"levelo_inurba_marseille","lat":43.30534,"lon":5.36521,"is_reserved":false,"is_disabled":false,"rental_uris":{"android":"levelo://app?vid=8cf107b7-2ac4-4c7f-83cb-634d5aff4893","ios":"levelo://app?vid=8cf107b7-2ac4-4c7f-83cb-634d5aff4893"},"vehicle_type_id":"4","last_reported":1758722965,"current_range_meters":4000,"station_id":"ce4bgs12rcd13ifvqcag","pricing_plan_id":"cebpf4jnsgd1na2vs0mg"},{"bike_id":"046fd061-428d-403a-ba98-fa0b98315a2d","system_id":"levelo_inurba_marseille","lat":43.21195,"lon":5.35073,"is_reserved":false,"is_disabled":false,"rental_uris":{"android":"levelo://app?vid=046fd061-428d-403a-ba98-fa0b98315a2d","ios":"levelo://app?vid=046fd061-428d-403a-ba98-fa0b98315a2d"},"vehicle_type_id":"4","last_reported":1758722965,"current_range_meters":4000,"station_id":"st_cvj6sg6p6f1abm77japg","pricing_plan_id":"cebpf4jnsgd1na2vs0mg"},{"bike_id":"5c4ea657-6c4f-4f4a-9053-fc8c19f54eb4","system_id":"levelo_inurba_marseille","lat":43.30145,"lon":5.38074,"is_reserved":false,"is_disabled":false,"rental_uris":{"android":"levelo://app?vid=5c4ea657-6c4f-4f4a-9053-fc8c19f54eb4","ios":"levelo://app?vid=5c4ea657-6c4f-4f4a-9053-fc8c19f54eb4"},"vehicle_type_id":"4","last_reported":1758722965,"current_range_meters":4800,"station_id":"ce4bgjp2rcd13ifvqbh0","pricing_plan_id":"cebpf4jnsgd1na2vs0mg"},{"bike_id":"1efddf8d-578f-4e4c-8c3f-e3a8bd592ba4","system_id":"levelo_inurba_marseille","lat":43.29969,"lon":5.37387,"is_reserved":false,"is_disabled":false,"rental_uris":{"android":"levelo://app?vid=1efddf8d-578f-4e4c-8c3f-e3a8bd592ba4","ios":"levelo://app?vid=1efddf8d-578f-4e4c-8c3f-e3a8bd592ba4"},"vehicle_type_id":"4","last_reported":1758722965,"current_range_meters":4400,"station_id":"","pricing_plan_id":"cebpf4jnsgd1na2vs0mg"},{"bike_id":"f269ef69-ae88-4420-8103-075eafce7687","system_id":"levelo_inurba_marseille","lat":43.30888,"lon":5.39657,"is_reserved":false,"is_disabled":false,"rental_uris":{"android":"levelo://app?vid=f269ef69-ae88-4420-8103-075eafce7687","ios":"levelo://app?vid=f269ef69-ae88-4420-8103-075eafce7687"},"vehicle_type_id":"4","last_reported":1758722965,"current_range_meters":4800,"station_id":"ce4bh012rcd13ifvqcv0","pricing_plan_id":"cebpf4jnsgd1na2vs0mg"},{"bike_id":"bbc6a377-e5e2-4a66-b9d6-9cf0e1519aee","system_id":"levelo_inurba_marseille","lat":43.301014,"lon":5.390661,"is_reserved":false,"is_disabled":false,"rental_uris":{"android":"levelo://app?vid=bbc6a377-e5e2-4a66-b9d6-9cf0e1519aee","ios":"levelo://app?vid=bbc6a377-e5e2-4a66-b9d6-9cf0e1519aee"},"vehicle_type_id":"4","last_reported":1758722965,"current_range_meters":4400,"station_id":"ce4bh192rcd13ifvqdb0","pricing_plan_id":"cebpf4jnsgd1na2vs0mg"},{"bike_id":"82304ba4-71d4-444b-a52b-5e234edb762c","system_id":"levelo_inurba_marseille","lat":43.22945,"lon":5.35374,"is_reserved":false,"is_disabled":false,"rental_uris":{"android":"levelo://app?vid=82304ba4-71d4-444b-a52b-5e234edb762c","ios":"levelo://app?vid=82304ba4-71d4-444b-a52b-5e234edb762c"},"vehicle_type_id":"4","last_reported":1758722965,"current_range_meters":4400,"station_id":"","pricing_plan_id":"cebpf4jnsgd1na2vs0mg"},{"bike_id":"cb6bf7d2-2ed1-47c4-b0a7-9c935f0ebf1a","system_id":"levelo_inurba_marseille","lat":43.26844,"lon":5.40662,"is_reserved":false,"is_disabled":false,"rental_uris":{"android":"levelo://app?vid=cb6bf7d2-2ed1-47c4-b0a7-9c935f0ebf1a","ios":"levelo://app?vid=cb6bf7d2-2ed1-47c4-b0a7-9c935f0ebf1a"},"vehicle_type_id":"4","last_reported":1758722965,"current_range_meters":4800,"station_id":"","pricing_plan_id":"cebpf4jnsgd1na2vs0mg"},{"bike_id":"962b15bf-a341-4469-9450-c0428eb337e2","system_id":"levelo_inurba_marseille","lat":43.23162,"lon":5.43716,"is_reserved":false,"is_disabled":true,"rental_uris":{"android":"levelo://app?vid=962b15bf-a341-4469-9450-c0428eb337e2","ios":"levelo://app?vid=962b15bf-a341-4469-9450-c0428eb337e2"},"vehicle_type_id":"4","last_reported":1758722965,"current_range_meters":5600,"station_id":"ce4bhmp2rcd13ifvqgog","pricing_plan_id":"cebpf4jnsgd1na2vs0mg"},{"bike_id":"1c640a90-0d8d-4b13-a60e-0501de6a7c32","system_id":"levelo_inurba_marseille","lat":43.29627,"lon":5.37146,"is_reserved":false,"is_disabled":false,"rental_uris":{"android":"levelo://app?vid=1c640a90-0d8d-4b13-a60e-0501de6a7c32","ios":"levelo://app?vid=1c640a90-0d8d-4b13-a60e-0501de6a7c32"},"vehicle_type_id":"4","last_reported":1758722965,"current_range_meters":5600,"station_id":"ce4bgnh2rcd13ifvqc0g","pricing_plan_id":"cebpf4jnsgd1na2vs0mg"},{"bike_id":"58db902b-14c1-4168-8bb0-49941b4f9b4c","system_id":"levelo_inurba_marseille","lat":43.33023,"lon":5.39046,"is_reserved":false,"is_disabled":false,"rental_uris":{"android":"levelo://app?vid=58db902b-14c1-4168-8bb0-49941b4f9b4c","ios":"levelo://app?vid=58db902b-14c1-4168-8bb0-49941b4f9b4c"},"vehicle_type_id":"4","last_reported":1758722965,"current_range_meters":5600,"station_id":"ce4bhr92rcd13ifvqhrg","pricing_plan_id":"cebpf4jnsgd1na2vs0mg"},{"bike_id":"642c0d83-6a95-4f87-86b9-a4d2853229d9","system_id":"levelo_inurba_marseille","lat":43.29353,"lon":5.4062,"is_reserved":false,"is_disabled":false,"rental_uris":{"android":"levelo://app?vid=642c0d83-6a95-4f87-86b9-a4d2853229d9","ios":"levelo://app?vid=642c0d83-6a95-4f87-86b9-a4d2853229d9"},"vehicle_type_id":"4","last_reported":1758722965,"current_range_meters":5600,"station_id":"","pricing_plan_id":"cebpf4jnsgd1na2vs0mg"},{"bike_id":"cfe671f1-8fb8-4a55-af29-0c740eae02eb","system_id":"levelo_inurba_marseille","lat":43.24946,"lon":5.40492,"is_reserved":false,"is_disabled":false,"rental_uris":{"android":"levelo://app?vid=cfe671f1-8fb8-4a55-af29-0c740eae02eb","ios":"levelo://app?vid=cfe671f1-8fb8-4a55-af29-0c740eae02eb"},"vehicle_type_id":"4","last_reported":1758722965,"current_range_meters":6000,"station_id":"st_d2ngiaodas8pm72gd1h0","pricing_plan_id":"cebpf4jnsgd1na2vs0mg"},{"bike_id":"33ae8a44-5efc-47ea-8014-a2e07b0e0be2","system_id":"levelo_inurba_marseille","lat":43.27915,"lon":5.39578,"is_reserved":false,"is_disabled":false,"rental_uris":{"android":"levelo://app?vid=33ae8a44-5efc-47ea-8014-a2e07b0e0be2","ios":"levelo://app?vid=33ae8a44-5efc-47ea-8014-a2e07b0e0be2"},"vehicle_type_id":"4","last_reported":1758722965,"current_range_meters":6000,"station_id":"ce4bhf92rcd13ifvqf40","pricing_plan_id":"cebpf4jnsgd1na2vs0mg"},{"bike_id":"56a57693-b2ec-4391-95b9-e71011014a73","system_id":"levelo_inurba_marseille","lat":43.28664,"lon":5.38647,"is_reserved":false,"is_disabled":false,"rental_uris":{"android":"levelo://app?vid=56a57693-b2ec-4391-95b9-e71011014a73","ios":"levelo://app?vid=56a57693-b2ec-4391-95b9-e71011014a73"},"vehicle_type_id":"4","last_reported":1758722965,"current_range_meters":5600,"station_id":"ce4bh492rcd13ifvqdug","pricing_plan_id":"cebpf4jnsgd1na2vs0mg"},{"bike_id":"0f125a88-ebe1-48c3-a44c-40bc2c777c17","system_id":"levelo_inurba_marseille","lat":43.30886,"lon":5.39643,"is_reserved":false,"is_disabled":false,"rental_uris":{"android":"levelo://app?vid=0f125a88-ebe1-48c3-a44c-40bc2c777c17","ios":"levelo://app?vid=0f125a88-ebe1-48c3-a44c-40bc2c777c17"},"vehicle_type_id":"4","last_reported":1758722965,"current_range_meters":6000,"station_id":"ce4bh012rcd13ifvqcv0","pricing_plan_id":"cebpf4jnsgd1na2vs0mg"},{"bike_id":"519cac12-1f51-4326-9769-c2f1797af1aa","system_id":"levelo_inurba_marseille","lat":43.309113,"lon":5.36842,"is_reserved":false,"is_disabled":false,"rental_uris":{"android":"levelo://app?vid=519cac12-1f51-4326-9769-c2f1797af1aa","ios":"levelo://app?vid=519cac12-1f51-4326-9769-c2f1797af1aa"},"vehicle_type_id":"4","last_reported":1758722965,"current_range_meters":6000,"station_id":"ce4bgn92rcd13ifvqbvg","pricing_plan_id":"cebpf4jnsgd1na2vs0mg"},{"bike_id":"cea30fe1-4e3f-40b0-b169-3e98f81a6b51","system_id":"levelo_inurba_marseille","lat":43.30788,"lon":5.37644,"is_reserved":false,"is_disabled":false,"rental_uris":{"android":"levelo://app?vid=cea30fe1-4e3f-40b0-b169-3e98f81a6b51","ios":"levelo://app?vid=cea30fe1-4e3f-40b0-b169-3e98f81a6b51"},"vehicle_type_id":"4","last_reported":1758722965,"current_range_meters":6000,"station_id":"ce4bgv92rcd13ifvqcq0","pricing_plan_id":"cebpf4jnsgd1na2vs0mg"},{"bike_id":"939538dc-20bd-4d94-8a10-8e1e0a179bc7","system_id":"levelo_inurba_marseille","lat":43.33605,"lon":5.41024,"is_reserved":false,"is_disabled":false,"rental_uris":{"android":"levelo://app?vid=939538dc-20bd-4d94-8a10-8e1e0a179bc7","ios":"levelo://app?vid=939538dc-20bd-4d94-8a10-8e1e0a179bc7"},"vehicle_type_id":"4","last_reported":1758722965,"current_range_meters":6400,"station_id":"ce4bhqh2rcd13ifvqhmg","pricing_plan_id":"cebpf4jnsgd1na2vs0mg"},{"bike_id":"86030fc6-f631-419d-9145-a2f7561b5f6f","system_id":"levelo_inurba_marseille","lat":43.31484,"lon":5.37305,"is_reserved":false,"is_disabled":false,"rental_uris":{"android":"levelo://app?vid=86030fc6-f631-419d-9145-a2f7561b5f6f","ios":"levelo://app?vid=86030fc6-f631-419d-9145-a2f7561b5f6f"},"vehicle_type_id":"4","last_reported":1758722965,"current_range_meters":6400,"station_id":"ce4bgt12rcd13ifvqcd0","pricing_plan_id":"cebpf4jnsgd1na2vs0mg"},{"bike_id":"b8b4fbe1-3e43-4507-978f-e8f0f46b28b1","system_id":"levelo_inurba_marseille","lat":43.24951,"lon":5.40483,"is_reserved":false,"is_disabled":false,"rental_uris":{"android":"levelo://app?vid=b8b4fbe1-3e43-4507-978f-e8f0f46b28b1","ios":"levelo://app?vid=b8b4fbe1-3e43-4507-978f-e8f0f46b28b1"},"vehicle_type_id":"4","last_reported":1758722965,"current_range_meters":6400,"station_id":"st_d2ngiaodas8pm72gd1h0","pricing_plan_id":"cebpf4jnsgd1na2vs0mg"},{"bike_id":"355e741c-878f-4775-9222-3a4d87cf17a7","system_id":"levelo_inurba_marseille","lat":43.24664,"lon":5.38162,"is_reserved":false,"is_disabled":true,"rental_uris":{"android":"levelo://app?vid=355e741c-878f-4775-9222-3a4d87cf17a7","ios":"levelo://app?vid=355e741c-878f-4775-9222-3a4d87cf17a7"},"vehicle_type_id":"4","last_reported":1758722965,"current_range_meters":6400,"station_id":"ce4bhih2rcd13ifvqfr0","pricing_plan_id":"cebpf4jnsgd1na2vs0mg"},{"bike_id":"dfafe0da-cf06-4361-b075-2ef632c8e601","system_id":"levelo_inurba_marseille","lat":43.26781,"lon":5.39415,"is_reserved":false,"is_disabled":false,"rental_uris":{"android":"levelo://app?vid=dfafe0da-cf06-4361-b075-2ef632c8e601","ios":"levelo://app?vid=dfafe0da-cf06-4361-b075-2ef632c8e601"},"vehicle_type_id":"4","last_reported":1758722965,"current_range_meters":6800,"station_id":"ce4bhh12rcd13ifvqfg0","pricing_plan_id":"cebpf4jnsgd1na2vs0mg"},{"bike_id":"c95e0c05-dd94-491f-8092-9c7978400114","system_id":"levelo_inurba_marseille","lat":43.335018,"lon":5.362374,"is_reserved":false,"is_disabled":false,"rental_uris":{"android":"levelo://app?vid=c95e0c05-dd94-491f-8092-9c7978400114","ios":"levelo://app?vid=c95e0c05-dd94-491f-8092-9c7978400114"},"vehicle_type_id":"4","last_reported":1758722965,"current_range_meters":6800,"station_id":"ce4bhs12rcd13ifvqhvg","pricing_plan_id":"cebpf4jnsgd1na2vs0mg"},{"bike_id":"553eddfb-fb32-4adb-95be-c7674cdf895c","system_id":"levelo_inurba_marseille","lat":43.29536,"lon":5.38529,"is_reserved":false,"is_disabled":false,"rental_uris":{"android":"levelo://app?vid=553eddfb-fb32-4adb-95be-c7674cdf895c","ios":"levelo://app?vid=553eddfb-fb32-4adb-95be-c7674cdf895c"},"vehicle_type_id":"4","last_reported":1758722965,"current_range_meters":6800,"station_id":"ce4bgih2rcd13ifvqba0","pricing_plan_id":"cebpf4jnsgd1na2vs0mg"},{"bike_id":"d777b695-fbfb-4cb9-b322-38dc46b6c431","system_id":"levelo_inurba_marseille","lat":43.30363,"lon":5.42495,"is_reserved":false,"is_disabled":false,"rental_uris":{"android":"levelo://app?vid=d777b695-fbfb-4cb9-b322-38dc46b6c431","ios":"levelo://app?vid=d777b695-fbfb-4cb9-b322-38dc46b6c431"},"vehicle_type_id":"4","last_reported":1758722965,"current_range_meters":6800,"station_id":"ce4bhoh2rcd13ifvqh6g","pricing_plan_id":"cebpf4jnsgd1na2vs0mg"},{"bike_id":"28fe443f-7a9f-4e7a-b1e2-1fdc28d5f5f3","system_id":"levelo_inurba_marseille","lat":43.23142,"lon":5.43726,"is_reserved":false,"is_disabled":false,"rental_uris":{"android":"levelo://app?vid=28fe443f-7a9f-4e7a-b1e2-1fdc28d5f5f3","ios":"levelo://app?vid=28fe443f-7a9f-4e7a-b1e2-1fdc28d5f5f3"},"vehicle_type_id":"4","last_reported":1758722965,"current_range_meters":7200,"station_id":"ce4bhmp2rcd13ifvqgog","pricing_plan_id":"cebpf4jnsgd1na2vs0mg"},{"bike_id":"314600e1-8c06-48d8-93b2-0e07b118a015","system_id":"levelo_inurba_marseille","lat":43.21189,"lon":5.35073,"is_reserved":false,"is_disabled":false,"rental_uris":{"android":"levelo://app?vid=314600e1-8c06-48d8-93b2-0e07b118a015","ios":"levelo://app?vid=314600e1-8c06-48d8-93b2-0e07b118a015"},"vehicle_type_id":"4","last_reported":1758722965,"current_range_meters":7200,"station_id":"st_cvj6sg6p6f1abm77japg","pricing_plan_id":"cebpf4jnsgd1na2vs0mg"},{"bike_id":"3ed2fe6e-9e56-4ade-8296-6d0802e35e2d","system_id":"levelo_inurba_marseille","lat":43.29975,"lon":5.37171,"is_reserved":false,"is_disabled":false,"rental_uris":{"android":"levelo://app?vid=3ed2fe6e-9e56-4ade-8296-6d0802e35e2d","ios":"levelo://app?vid=3ed2fe6e-9e56-4ade-8296-6d0802e35e2d"},"vehicle_type_id":"4","last_reported":1758722965,"current_range_meters":7200,"station_id":"ce4bgr92rcd13ifvqc7g","pricing_plan_id":"cebpf4jnsgd1na2vs0mg"},{"bike_id":"ff9d0c25-9a3e-4468-b242-a0cc7a3917c6","system_id":"levelo_inurba_marseille","lat":43.27214,"lon":5.39182,"is_reserved":false,"is_disabled":false,"rental_uris":{"android":"levelo://app?vid=ff9d0c25-9a3e-4468-b242-a0cc7a3917c6","ios":"levelo://app?vid=ff9d0c25-9a3e-4468-b242-a0cc7a3917c6"},"vehicle_type_id":"4","last_reported":1758722965,"current_range_meters":7200,"station_id":"ce4bhhp2rcd13ifvqfm0","pricing_plan_id":"cebpf4jnsgd1na2vs0mg"},{"bike_id":"b4055b55-53d3-4095-a761-662abeba53c8","system_id":"levelo_inurba_marseille","lat":43.31755,"lon":5.39013,"is_reserved":false,"is_disabled":false,"rental_uris":{"android":"levelo://app?vid=b4055b55-53d3-4095-a761-662abeba53c8","ios":"levelo://app?vid=b4055b55-53d3-4095-a761-662abeba53c8"},"vehicle_type_id":"4","last_reported":1758722965,"current_range_meters":6800,"station_id":"ce4bhqp2rcd13ifvqhng","pricing_plan_id":"cebpf4jnsgd1na2vs0mg"},{"bike_id":"54d6d2f3-159a-4fbb-bf2f-e20425533dca","system_id":"levelo_inurba_marseille","lat":43.29267,"lon":5.37615,"is_reserved":false,"is_disabled":false,"rental_uris":{"android":"levelo://app?vid=54d6d2f3-159a-4fbb-bf2f-e20425533dca","ios":"levelo://app?vid=54d6d2f3-159a-4fbb-bf2f-e20425533dca"},"vehicle_type_id":"4","last_reported":1758722965,"current_range_meters":8000,"station_id":"ce4bgi12rcd13ifvqb80","pricing_plan_id":"cebpf4jnsgd1na2vs0mg"},{"bike_id":"c751f644-89b5-4e3e-a82f-817080064615","system_id":"levelo_inurba_marseille","lat":43.30443,"lon":5.39756,"is_reserved":false,"is_disabled":false,"rental_uris":{"android":"levelo://app?vid=c751f644-89b5-4e3e-a82f-817080064615","ios":"levelo://app?vid=c751f644-89b5-4e3e-a82f-817080064615"},"vehicle_type_id":"4","last_reported":1758722965,"current_range_meters":8000,"station_id":"ce4bh092rcd13ifvqd20","pricing_plan_id":"cebpf4jnsgd1na2vs0mg"},{"bike_id":"fafe8095-73b1-429a-a137-fc141f69757d","system_id":"levelo_inurba_marseille","lat":43.28464,"lon":5.35893,"is_reserved":false,"is_disabled":false,"rental_uris":{"android":"levelo://app?vid=fafe8095-73b1-429a-a137-fc141f69757d","ios":"levelo://app?vid=fafe8095-73b1-429a-a137-fc141f69757d"},"vehicle_type_id":"4","last_reported":1758722965,"current_range_meters":7200,"station_id":"ce4bhah2rcd13ifvqei0","pricing_plan_id":"cebpf4jnsgd1na2vs0mg"},{"bike_id":"329f2229-357a-4191-a649-4a948a175b88","system_id":"levelo_inurba_marseille","lat":43.29256,"lon":5.38428,"is_reserved":false,"is_disabled":true,"rental_uris":{"android":"levelo://app?vid=329f2229-357a-4191-a649-4a948a175b88","ios":"levelo://app?vid=329f2229-357a-4191-a649-4a948a175b88"},"vehicle_type_id":"4","last_reported":1758722965,"current_range_meters":8000,"station_id":"ce4bh692rcd13ifvqea0","pricing_plan_id":"cebpf4jnsgd1na2vs0mg"},{"bike_id":"6f340c1b-ef55-49a7-be3d-93df20afb31d","system_id":"levelo_inurba_marseille","lat":43.303053,"lon":5.368791,"is_reserved":false,"is_disabled":false,"rental_uris":{"android":"levelo://app?vid=6f340c1b-ef55-49a7-be3d-93df20afb31d","ios":"levelo://app?vid=6f340c1b-ef55-49a7-be3d-93df20afb31d"},"vehicle_type_id":"4","last_reported":1758722965,"current_range_meters":8000,"station_id":"ce4bgqh2rcd13ifvqc5g","pricing_plan_id":"cebpf4jnsgd1na2vs0mg"},{"bike_id":"8de84388-1a8a-4f7c-b72e-8c698e34d1e3","system_id":"levelo_inurba_marseille","lat":43.27207,"lon":5.39181,"is_reserved":false,"is_disabled":false,"rental_uris":{"android":"levelo://app?vid=8de84388-1a8a-4f7c-b72e-8c698e34d1e3","ios":"levelo://app?vid=8de84388-1a8a-4f7c-b72e-8c698e34d1e3"},"vehicle_type_id":"4","last_reported":1758722965,"current_range_meters":8000,"station_id":"ce4bhhp2rcd13ifvqfm0","pricing_plan_id":"cebpf4jnsgd1na2vs0mg"},{"bike_id":"731e0a58-db16-4bb5-9fbc-a034f21caff2","system_id":"levelo_inurba_marseille","lat":43.27916,"lon":5.39579,"is_reserved":false,"is_disabled":false,"rental_uris":{"android":"levelo://app?vid=731e0a58-db16-4bb5-9fbc-a034f21caff2","ios":"levelo://app?vid=731e0a58-db16-4bb5-9fbc-a034f21caff2"},"vehicle_type_id":"4","last_reported":1758722965,"current_range_meters":8000,"station_id":"ce4bhf92rcd13ifvqf40","pricing_plan_id":"cebpf4jnsgd1na2vs0mg"},{"bike_id":"59332951-160a-4458-8b5a-46d3821ad3d6","system_id":"levelo_inurba_marseille","lat":43.29847,"lon":5.36269,"is_reserved":false,"is_disabled":false,"rental_uris":{"android":"levelo://app?vid=59332951-160a-4458-8b5a-46d3821ad3d6","ios":"levelo://app?vid=59332951-160a-4458-8b5a-46d3821ad3d6"},"vehicle_type_id":"4","last_reported":1758722965,"current_range_meters":8400,"station_id":"ce4bgpp2rcd13ifvqc3g","pricing_plan_id":"cebpf4jnsgd1na2vs0mg"},{"bike_id":"56ea1ec7-493b-4831-9aa4-75c634a3d1b4","system_id":"levelo_inurba_marseille","lat":43.31124,"lon":5.37755,"is_reserved":false,"is_disabled":false,"rental_uris":{"android":"levelo://app?vid=56ea1ec7-493b-4831-9aa4-75c634a3d1b4","ios":"levelo://app?vid=56ea1ec7-493b-4831-9aa4-75c634a3d1b4"},"vehicle_type_id":"4","last_reported":1758722965,"current_range_meters":8400,"station_id":"ce4bgt92rcd13ifvqcg0","pricing_plan_id":"cebpf4jnsgd1na2vs0mg"},{"bike_id":"f5496493-89ec-4070-8102-fb58a4ff037e","system_id":"levelo_inurba_marseille","lat":43.27192,"lon":5.39178,"is_reserved":false,"is_disabled":false,"rental_uris":{"android":"levelo://app?vid=f5496493-89ec-4070-8102-fb58a4ff037e","ios":"levelo://app?vid=f5496493-89ec-4070-8102-fb58a4ff037e"},"vehicle_type_id":"4","last_reported":1758722965,"current_range_meters":8400,"station_id":"ce4bhhp2rcd13ifvqfm0","pricing_plan_id":"cebpf4jnsgd1na2vs0mg"},{"bike_id":"5f7a5080-e77c-4892-a096-c578510b27d0","system_id":"levelo_inurba_marseille","lat":43.27946,"lon":5.41026,"is_reserved":false,"is_disabled":false,"rental_uris":{"android":"levelo://app?vid=5f7a5080-e77c-4892-a096-c578510b27d0","ios":"levelo://app?vid=5f7a5080-e77c-4892-a096-c578510b27d0"},"vehicle_type_id":"4","last_reported":1758722965,"current_range_meters":8800,"station_id":"ce4bhnp2rcd13ifvqh0g","pricing_plan_id":"cebpf4jnsgd1na2vs0mg"},{"bike_id":"62f021fc-8ca6-41e3-ae50-b6472d3cf132","system_id":"levelo_inurba_marseille","lat":43.2994,"lon":5.36526,"is_reserved":false,"is_disabled":false,"rental_uris":{"android":"levelo://app?vid=62f021fc-8ca6-41e3-ae50-b6472d3cf132","ios":"levelo://app?vid=62f021fc-8ca6-41e3-ae50-b6472d3cf132"},"vehicle_type_id":"4","last_reported":1758722965,"current_range_meters":8800,"station_id":"ce4bgm92rcd13ifvqbr0","pricing_plan_id":"cebpf4jnsgd1na2vs0mg"},{"bike_id":"e42e0c58-ec89-425e-bfab-dfb3d1cccc83","system_id":"levelo_inurba_marseille","lat":43.2937,"lon":5.37849,"is_reserved":false,"is_disabled":false,"rental_uris":{"android":"levelo://app?vid=e42e0c58-ec89-425e-bfab-dfb3d1cccc83","ios":"levelo://app?vid=e42e0c58-ec89-425e-bfab-dfb3d1cccc83"},"vehicle_type_id":"4","last_reported":1758722965,"current_range_meters":8400,"station_id":"ce4bgjh2rcd13ifvqbf0","pricing_plan_id":"cebpf4jnsgd1na2vs0mg"},{"bike_id":"cb983742-8aa8-4d03-b563-030ca1771cb7","system_id":"levelo_inurba_marseille","lat":43.257809,"lon":5.394424,"is_reserved":false,"is_disabled":false,"rental_uris":{"android":"levelo://app?vid=cb983742-8aa8-4d03-b563-030ca1771cb7","ios":"levelo://app?vid=cb983742-8aa8-4d03-b563-030ca1771cb7"},"vehicle_type_id":"4","last_reported":1758722965,"current_range_meters":8800,"station_id":"ce4bhip2rcd13ifvqft0","pricing_plan_id":"cebpf4jnsgd1na2vs0mg"},{"bike_id":"c32a7dbb-34e5-4a6c-b79d-d41e27dfdd47","system_id":"levelo_inurba_marseille","lat":43.290488,"lon":5.375417,"is_reserved":false,"is_disabled":false,"rental_uris":{"android":"levelo://app?vid=c32a7dbb-34e5-4a6c-b79d-d41e27dfdd47","ios":"levelo://app?vid=c32a7dbb-34e5-4a6c-b79d-d41e27dfdd47"},"vehicle_type_id":"4","last_reported":1758722965,"current_range_meters":8800,"station_id":"ce4bh5p2rcd13ifvqe4g","pricing_plan_id":"cebpf4jnsgd1na2vs0mg"},{"bike_id":"cfc23815-fde0-4d00-8509-125558a0c152","system_id":"levelo_inurba_marseille","lat":43.274311,"lon":5.394182,"is_reserved":false,"is_disabled":false,"rental_uris":{"android":"levelo://app?vid=cfc23815-fde0-4d00-8509-125558a0c152","ios":"levelo://app?vid=cfc23815-fde0-4d00-8509-125558a0c152"},"vehicle_type_id":"4","last_reported":1758722965,"current_range_meters":9200,"station_id":"ce4bhdp2rcd13ifvqf20","pricing_plan_id":"cebpf4jnsgd1na2vs0mg"},{"bike_id":"71bea496-a76a-4d41-a5ec-9d52018fc0e3","system_id":"levelo_inurba_marseille","lat":43.32047,"lon":5.41498,"is_reserved":false,"is_disabled":false,"rental_uris":{"android":"levelo://app?vid=71bea496-a76a-4d41-a5ec-9d52018fc0e3","ios":"levelo://app?vid=71bea496-a76a-4d41-a5ec-9d52018fc0e3"},"vehicle_type_id":"4","last_reported":1758722965,"current_range_meters":9200,"station_id":"ce4bhq92rcd13ifvqhkg","pricing_plan_id":"cebpf4jnsgd1na2vs0mg"},{"bike_id":"9c4a7bdb-c552-4dfd-8efb-40b9e0b0b147","system_id":"levelo_inurba_marseille","lat":43.30911,"lon":5.36715,"is_reserved":false,"is_disabled":false,"rental_uris":{"android":"levelo://app?vid=9c4a7bdb-c552-4dfd-8efb-40b9e0b0b147","ios":"levelo://app?vid=9c4a7bdb-c552-4dfd-8efb-40b9e0b0b147"},"vehicle_type_id":"4","last_reported":1758722965,"current_range_meters":9200,"station_id":"","pricing_plan_id":"cebpf4jnsgd1na2vs0mg"},{"bike_id":"cf37f4dd-bd18-4e4f-93e6-9de65884c65d","system_id":"levelo_inurba_marseille","lat":43.29272,"lon":5.40118,"is_reserved":false,"is_disabled":false,"rental_uris":{"android":"levelo://app?vid=cf37f4dd-bd18-4e4f-93e6-9de65884c65d","ios":"levelo://app?vid=cf37f4dd-bd18-4e4f-93e6-9de65884c65d"},"vehicle_type_id":"4","last_reported":1758722965,"current_range_meters":9600,"station_id":"ce4bh312rcd13ifvqdk0","pricing_plan_id":"cebpf4jnsgd1na2vs0mg"},{"bike_id":"7c0482c3-9253-4d1b-b4f3-be55cdb7721d","system_id":"levelo_inurba_marseille","lat":43.33757,"lon":5.37466,"is_reserved":false,"is_disabled":false,"rental_uris":{"android":"levelo://app?vid=7c0482c3-9253-4d1b-b4f3-be55cdb7721d","ios":"levelo://app?vid=7c0482c3-9253-4d1b-b4f3-be55cdb7721d"},"vehicle_type_id":"4","last_reported":1758722965,"current_range_meters":9600,"station_id":"","pricing_plan_id":"cebpf4jnsgd1na2vs0mg"},{"bike_id":"575aa5b7-2e53-4e47-ace4-62b2995bbe69","system_id":"levelo_inurba_marseille","lat":43.27373,"lon":5.393001,"is_reserved":false,"is_disabled":false,"rental_uris":{"android":"levelo://app?vid=575aa5b7-2e53-4e47-ace4-62b2995bbe69","ios":"levelo://app?vid=575aa5b7-2e53-4e47-ace4-62b2995bbe69"},"vehicle_type_id":"4","last_reported":1758722965,"current_range_meters":9600,"station_id":"ce4bhdp2rcd13ifvqf20","pricing_plan_id":"cebpf4jnsgd1na2vs0mg"},{"bike_id":"4ce67155-9f15-4130-9400-f86685d8ecda","system_id":"levelo_inurba_marseille","lat":43.29788,"lon":5.36534,"is_reserved":false,"is_disabled":false,"rental_uris":{"android":"levelo://app?vid=4ce67155-9f15-4130-9400-f86685d8ecda","ios":"levelo://app?vid=4ce67155-9f15-4130-9400-f86685d8ecda"},"vehicle_type_id":"4","last_reported":1758722965,"current_range_meters":9600,"station_id":"","pricing_plan_id":"cebpf4jnsgd1na2vs0mg"},{"bike_id":"5513a85c-3a27-451f-bd4a-d0819a45d863","system_id":"levelo_inurba_marseille","lat":43.21749,"lon":5.34591,"is_reserved":false,"is_disabled":false,"rental_uris":{"android":"levelo://app?vid=5513a85c-3a27-451f-bd4a-d0819a45d863","ios":"levelo://app?vid=5513a85c-3a27-451f-bd4a-d0819a45d863"},"vehicle_type_id":"4","last_reported":1758722965,"current_range_meters":9600,"station_id":"st_cvj6r9ubvosntc0bgbag","pricing_plan_id":"cebpf4jnsgd1na2vs0mg"},{"bike_id":"7e2a7183-4ada-4b6e-af8a-6fb5dd7ab243","system_id":"levelo_inurba_marseille","lat":43.29098,"lon":5.38115,"is_reserved":false,"is_disabled":false,"rental_uris":{"android":"levelo://app?vid=7e2a7183-4ada-4b6e-af8a-6fb5dd7ab243","ios":"levelo://app?vid=7e2a7183-4ada-4b6e-af8a-6fb5dd7ab243"},"vehicle_type_id":"4","last_reported":1758722965,"current_range_meters":9600,"station_id":"ce4bh512rcd13ifvqe2g","pricing_plan_id":"cebpf4jnsgd1na2vs0mg"},{"bike_id":"a069d3a2-de65-4d0f-8bac-106276120994","system_id":"levelo_inurba_marseille","lat":43.26494,"lon":5.39544,"is_reserved":false,"is_disabled":false,"rental_uris":{"android":"levelo://app?vid=a069d3a2-de65-4d0f-8bac-106276120994","ios":"levelo://app?vid=a069d3a2-de65-4d0f-8bac-106276120994"},"vehicle_type_id":"4","last_reported":1758722965,"current_range_meters":9600,"station_id":"ce4bhi12rcd13ifvqfq0","pricing_plan_id":"cebpf4jnsgd1na2vs0mg"},{"bike_id":"a69e64c8-7eb1-414d-8a7c-74d73223d8df","system_id":"levelo_inurba_marseille","lat":43.30147,"lon":5.37423,"is_reserved":false,"is_disabled":false,"rental_uris":{"android":"levelo://app?vid=a69e64c8-7eb1-414d-8a7c-74d73223d8df","ios":"levelo://app?vid=a69e64c8-7eb1-414d-8a7c-74d73223d8df"},"vehicle_type_id":"4","last_reported":1758722965,"current_range_meters":9600,"station_id":"ce4bgs92rcd13ifvqcc0","pricing_plan_id":"cebpf4jnsgd1na2vs0mg"},{"bike_id":"7f74007b-a8b2-4387-94dd-22ac5767bf51","system_id":"levelo_inurba_marseille","lat":43.22563,"lon":5.41621,"is_reserved":false,"is_disabled":false,"rental_uris":{"android":"levelo://app?vid=7f74007b-a8b2-4387-94dd-22ac5767bf51","ios":"levelo://app?vid=7f74007b-a8b2-4387-94dd-22ac5767bf51"},"vehicle_type_id":"4","last_reported":1758722965,"current_range_meters":9600,"station_id":"st_d2o4gvlbi1j2169b742g","pricing_plan_id":"cebpf4jnsgd1na2vs0mg"},{"bike_id":"43d57fd4-047e-4ac8-97e5-ec9b96239472","system_id":"levelo_inurba_marseille","lat":43.33231,"lon":5.39821,"is_reserved":false,"is_disabled":false,"rental_uris":{"android":"levelo://app?vid=43d57fd4-047e-4ac8-97e5-ec9b96239472","ios":"levelo://app?vid=43d57fd4-047e-4ac8-97e5-ec9b96239472"},"vehicle_type_id":"4","last_reported":1758722965,"current_range_meters":9600,"station_id":"","pricing_plan_id":"cebpf4jnsgd1na2vs0mg"},{"bike_id":"e35dc3d8-0dfe-4bd4-87f7-5d3ca8bee4e5","system_id":"levelo_inurba_marseille","lat":43.25078,"lon":5.426203,"is_reserved":false,"is_disabled":false,"rental_uris":{"android":"levelo://app?vid=e35dc3d8-0dfe-4bd4-87f7-5d3ca8bee4e5","ios":"levelo://app?vid=e35dc3d8-0dfe-4bd4-87f7-5d3ca8bee4e5"},"vehicle_type_id":"4","last_reported":1758722965,"current_range_meters":10000,"station_id":"","pricing_plan_id":"cebpf4jnsgd1na2vs0mg"},{"bike_id":"4505c390-b64e-4a1d-ac9e-a8d071a95fd7","system_id":"levelo_inurba_marseille","lat":43.30786,"lon":5.37651,"is_reserved":false,"is_disabled":false,"rental_uris":{"android":"levelo://app?vid=4505c390-b64e-4a1d-ac9e-a8d071a95fd7","ios":"levelo://app?vid=4505c390-b64e-4a1d-ac9e-a8d071a95fd7"},"vehicle_type_id":"4","last_reported":1758722965,"current_range_meters":10000,"station_id":"ce4bgv92rcd13ifvqcq0","pricing_plan_id":"cebpf4jnsgd1na2vs0mg"},{"bike_id":"a7894b22-77b0-4dee-88e2-34efb2ac60cd","system_id":"levelo_inurba_marseille","lat":43.29268,"lon":5.37617,"is_reserved":false,"is_disabled":true,"rental_uris":{"android":"levelo://app?vid=a7894b22-77b0-4dee-88e2-34efb2ac60cd","ios":"levelo://app?vid=a7894b22-77b0-4dee-88e2-34efb2ac60cd"},"vehicle_type_id":"4","last_reported":1758722965,"current_range_meters":10800,"station_id":"ce4bgi12rcd13ifvqb80","pricing_plan_id":"cebpf4jnsgd1na2vs0mg"},{"bike_id":"952ee192-a3b8-45ab-8500-8f2bd0ec787c","system_id":"levelo_inurba_marseille","lat":43.28616,"lon":5.3511,"is_reserved":false,"is_disabled":false,"rental_uris":{"android":"levelo://app?vid=952ee192-a3b8-45ab-8500-8f2bd0ec787c","ios":"levelo://app?vid=952ee192-a3b8-45ab-8500-8f2bd0ec787c"},"vehicle_type_id":"4","last_reported":1758722965,"current_range_meters":10800,"station_id":"ce4bhch2rcd13ifvqeug","pricing_plan_id":"cebpf4jnsgd1na2vs0mg"},{"bike_id":"147cb10d-de7e-4c23-8c61-60e3d194d777","system_id":"levelo_inurba_marseille","lat":43.2827,"lon":5.35065,"is_reserved":false,"is_disabled":false,"rental_uris":{"android":"levelo://app?vid=147cb10d-de7e-4c23-8c61-60e3d194d777","ios":"levelo://app?vid=147cb10d-de7e-4c23-8c61-60e3d194d777"},"vehicle_type_id":"4","last_reported":1758722965,"current_range_meters":10800,"station_id":"ce4bhbp2rcd13ifvqerg","pricing_plan_id":"cebpf4jnsgd1na2vs0mg"},{"bike_id":"90273900-1ed7-426f-b60c-73c59ba4ec75","system_id":"levelo_inurba_marseille","lat":43.25579,"lon":5.38228,"is_reserved":false,"is_disabled":false,"rental_uris":{"android":"levelo://app?vid=90273900-1ed7-426f-b60c-73c59ba4ec75","ios":"levelo://app?vid=90273900-1ed7-426f-b60c-73c59ba4ec75"},"vehicle_type_id":"4","last_reported":1758722965,"current_range_meters":10800,"station_id":"ce4bhih2rcd13ifvqfs0","pricing_plan_id":"cebpf4jnsgd1na2vs0mg"},{"bike_id":"beb10948-b9d7-4a00-ac6a-ae9f8176e893","system_id":"levelo_inurba_marseille","lat":43.25334,"lon":5.42176,"is_reserved":false,"is_disabled":false,"rental_uris":{"android":"levelo://app?vid=beb10948-b9d7-4a00-ac6a-ae9f8176e893","ios":"levelo://app?vid=beb10948-b9d7-4a00-ac6a-ae9f8176e893"},"vehicle_type_id":"4","last_reported":1758722965,"current_range_meters":10800,"station_id":"st_d2m65c5bi1j21697t3ng","pricing_plan_id":"cebpf4jnsgd1na2vs0mg"},{"bike_id":"e92dd605-5039-432d-8739-2562f9154e8c","system_id":"levelo_inurba_marseille","lat":43.3112,"lon":5.37777,"is_reserved":false,"is_disabled":true,"rental_uris":{"android":"levelo://app?vid=e92dd605-5039-432d-8739-2562f9154e8c","ios":"levelo://app?vid=e92dd605-5039-432d-8739-2562f9154e8c"},"vehicle_type_id":"4","last_reported":1758722965,"current_range_meters":10800,"station_id":"ce4bgt92rcd13ifvqcg0","pricing_plan_id":"cebpf4jnsgd1na2vs0mg"},{"bike_id":"7981bd57-1a91-436b-8601-50130d20e8be","system_id":"levelo_inurba_marseille","lat":43.21196,"lon":5.35068,"is_reserved":false,"is_disabled":false,"rental_uris":{"android":"levelo://app?vid=7981bd57-1a91-436b-8601-50130d20e8be","ios":"levelo://app?vid=7981bd57-1a91-436b-8601-50130d20e8be"},"vehicle_type_id":"4","last_reported":1758722965,"current_range_meters":11200,"station_id":"st_cvj6sg6p6f1abm77japg","pricing_plan_id":"cebpf4jnsgd1na2vs0mg"},{"bike_id":"44647f99-86f0-450e-8737-c038a5bfd4dd","system_id":"levelo_inurba_marseille","lat":43.28618,"lon":5.35098,"is_reserved":false,"is_disabled":false,"rental_uris":{"android":"levelo://app?vid=44647f99-86f0-450e-8737-c038a5bfd4dd","ios":"levelo://app?vid=44647f99-86f0-450e-8737-c038a5bfd4dd"},"vehicle_type_id":"4","last_reported":1758722965,"current_range_meters":11200,"station_id":"ce4bhch2rcd13ifvqeug","pricing_plan_id":"cebpf4jnsgd1na2vs0mg"},{"bike_id":"343c7549-bf08-44ce-9fe4-94fec5c5103f","system_id":"levelo_inurba_marseille","lat":43.29935,"lon":5.36516,"is_reserved":false,"is_disabled":false,"rental_uris":{"android":"levelo://app?vid=343c7549-bf08-44ce-9fe4-94fec5c5103f","ios":"levelo://app?vid=343c7549-bf08-44ce-9fe4-94fec5c5103f"},"vehicle_type_id":"4","last_reported":1758722965,"current_range_meters":11200,"station_id":"ce4bgm92rcd13ifvqbr0","pricing_plan_id":"cebpf4jnsgd1na2vs0mg"},{"bike_id":"c5570e1e-2bc3-4923-8813-75e3cd68ada9","system_id":"levelo_inurba_marseille","lat":43.30134,"lon":5.39876,"is_reserved":false,"is_disabled":false,"rental_uris":{"android":"levelo://app?vid=c5570e1e-2bc3-4923-8813-75e3cd68ada9","ios":"levelo://app?vid=c5570e1e-2bc3-4923-8813-75e3cd68ada9"},"vehicle_type_id":"4","last_reported":1758722965,"current_range_meters":11200,"station_id":"ce4bh0h2rcd13ifvqd40","pricing_plan_id":"cebpf4jnsgd1na2vs0mg"},{"bike_id":"7ae01851-c6ba-4c98-8163-76a168cc55c5","system_id":"levelo_inurba_marseille","lat":43.29528,"lon":5.38541,"is_reserved":false,"is_disabled":false,"rental_uris":{"android":"levelo://app?vid=7ae01851-c6ba-4c98-8163-76a168cc55c5","ios":"levelo://app?vid=7ae01851-c6ba-4c98-8163-76a168cc55c5"},"vehicle_type_id":"4","last_reported":1758722965,"current_range_meters":10800,"station_id":"ce4bgih2rcd13ifvqba0","pricing_plan_id":"cebpf4jnsgd1na2vs0mg"},{"bike_id":"92a316bc-24e6-4732-8557-e5f8dc8d6cb2","system_id":"levelo_inurba_marseille","lat":43.30096,"lon":5.39096,"is_reserved":false,"is_disabled":false,"rental_uris":{"android":"levelo://app?vid=92a316bc-24e6-4732-8557-e5f8dc8d6cb2","ios":"levelo://app?vid=92a316bc-24e6-4732-8557-e5f8dc8d6cb2"},"vehicle_type_id":"4","last_reported":1758722965,"current_range_meters":11600,"station_id":"ce4bh192rcd13ifvqdb0","pricing_plan_id":"cebpf4jnsgd1na2vs0mg"},{"bike_id":"4e3ba1cc-8038-45ae-9768-ee6d0e4bbd6c","system_id":"levelo_inurba_marseille","lat":43.27916,"lon":5.39581,"is_reserved":false,"is_disabled":false,"rental_uris":{"android":"levelo://app?vid=4e3ba1cc-8038-45ae-9768-ee6d0e4bbd6c","ios":"levelo://app?vid=4e3ba1cc-8038-45ae-9768-ee6d0e4bbd6c"},"vehicle_type_id":"4","last_reported":1758722965,"current_range_meters":11600,"station_id":"ce4bhf92rcd13ifvqf40","pricing_plan_id":"cebpf4jnsgd1na2vs0mg"},{"bike_id":"a60abba9-f9b8-477b-8786-175fc2b6218b","system_id":"levelo_inurba_marseille","lat":43.30901,"lon":5.37259,"is_reserved":false,"is_disabled":false,"rental_uris":{"android":"levelo://app?vid=a60abba9-f9b8-477b-8786-175fc2b6218b","ios":"levelo://app?vid=a60abba9-f9b8-477b-8786-175fc2b6218b"},"vehicle_type_id":"4","last_reported":1758722965,"current_range_meters":11600,"station_id":"","pricing_plan_id":"cebpf4jnsgd1na2vs0mg"},{"bike_id":"8c99232c-2f1a-4b50-a54b-27af2c99fbbe","system_id":"levelo_inurba_marseille","lat":43.284636,"lon":5.384148,"is_reserved":false,"is_disabled":false,"rental_uris":{"android":"levelo://app?vid=8c99232c-2f1a-4b50-a54b-27af2c99fbbe","ios":"levelo://app?vid=8c99232c-2f1a-4b50-a54b-27af2c99fbbe"},"vehicle_type_id":"4","last_reported":1758722965,"current_range_meters":11600,"station_id":"ce4bh512rcd13ifvqe3g","pricing_plan_id":"cebpf4jnsgd1na2vs0mg"},{"bike_id":"4a2ff28d-a9b2-4676-859c-d157faf6900e","system_id":"levelo_inurba_marseille","lat":43.29577,"lon":5.37519,"is_reserved":false,"is_disabled":false,"rental_uris":{"android":"levelo://app?vid=4a2ff28d-a9b2-4676-859c-d157faf6900e","ios":"levelo://app?vid=4a2ff28d-a9b2-4676-859c-d157faf6900e"},"vehicle_type_id":"4","last_reported":1758722965,"current_range_meters":11600,"station_id":"ce4bgh92rcd13ifvqb50","pricing_plan_id":"cebpf4jnsgd1na2vs0mg"},{"bike_id":"3182c21b-5ff3-4a5d-8dee-190db4c6277f","system_id":"levelo_inurba_marseille","lat":43.28857,"lon":5.35855,"is_reserved":false,"is_disabled":false,"rental_uris":{"android":"levelo://app?vid=3182c21b-5ff3-4a5d-8dee-190db4c6277f","ios":"levelo://app?vid=3182c21b-5ff3-4a5d-8dee-190db4c6277f"},"vehicle_type_id":"4","last_reported":1758722965,"current_range_meters":11600,"station_id":"ce4bhb12rcd13ifvqem0","pricing_plan_id":"cebpf4jnsgd1na2vs0mg"},{"bike_id":"85b8ce04-0087-4d7f-a365-d3a50897cf51","system_id":"levelo_inurba_marseille","lat":43.29504,"lon":5.37513,"is_reserved":false,"is_disabled":false,"rental_uris":{"android":"levelo://app?vid=85b8ce04-0087-4d7f-a365-d3a50897cf51","ios":"levelo://app?vid=85b8ce04-0087-4d7f-a365-d3a50897cf51"},"vehicle_type_id":"4","last_reported":1758722965,"current_range_meters":12400,"station_id":"ce4bgkp2rcd13ifvqbmg","pricing_plan_id":"cebpf4jnsgd1na2vs0mg"},{"bike_id":"69de9079-d6dc-471d-ac03-72140e1ba18c","system_id":"levelo_inurba_marseille","lat":43.29842,"lon":5.36266,"is_reserved":false,"is_disabled":false,"rental_uris":{"android":"levelo://app?vid=69de9079-d6dc-471d-ac03-72140e1ba18c","ios":"levelo://app?vid=69de9079-d6dc-471d-ac03-72140e1ba18c"},"vehicle_type_id":"4","last_reported":1758722965,"current_range_meters":12000,"station_id":"ce4bgpp2rcd13ifvqc3g","pricing_plan_id":"cebpf4jnsgd1na2vs0mg"},{"bike_id":"0daeadc2-69c9-4dc4-9e21-a1caaff38add","system_id":"levelo_inurba_marseille","lat":43.27672,"lon":5.38873,"is_reserved":false,"is_disabled":false,"rental_uris":{"android":"levelo://app?vid=0daeadc2-69c9-4dc4-9e21-a1caaff38add","ios":"levelo://app?vid=0daeadc2-69c9-4dc4-9e21-a1caaff38add"},"vehicle_type_id":"4","last_reported":1758722965,"current_range_meters":12000,"station_id":"ce4bhi12rcd13ifvqfo0","pricing_plan_id":"cebpf4jnsgd1na2vs0mg"},{"bike_id":"f051bd67-fe2f-4456-8da3-b16238fe7802","system_id":"levelo_inurba_marseille","lat":43.23189,"lon":5.39989,"is_reserved":false,"is_disabled":false,"rental_uris":{"android":"levelo://app?vid=f051bd67-fe2f-4456-8da3-b16238fe7802","ios":"levelo://app?vid=f051bd67-fe2f-4456-8da3-b16238fe7802"},"vehicle_type_id":"4","last_reported":1758722965,"current_range_meters":12000,"station_id":"ce4bhn12rcd13ifvqgqg","pricing_plan_id":"cebpf4jnsgd1na2vs0mg"},{"bike_id":"fec29174-587c-4398-98e6-4311d9258ee2","system_id":"levelo_inurba_marseille","lat":43.29872,"lon":5.38908,"is_reserved":false,"is_disabled":false,"rental_uris":{"android":"levelo://app?vid=fec29174-587c-4398-98e6-4311d9258ee2","ios":"levelo://app?vid=fec29174-587c-4398-98e6-4311d9258ee2"},"vehicle_type_id":"4","last_reported":1758722965,"current_range_meters":11600,"station_id":"ce4bh392rcd13ifvqdl0","pricing_plan_id":"cebpf4jnsgd1na2vs0mg"},{"bike_id":"0f1650fe-7e07-4db9-9c9e-440f7f5b47d4","system_id":"levelo_inurba_marseille","lat":43.21195,"lon":5.35059,"is_reserved":false,"is_disabled":false,"rental_uris":{"android":"levelo://app?vid=0f1650fe-7e07-4db9-9c9e-440f7f5b47d4","ios":"levelo://app?vid=0f1650fe-7e07-4db9-9c9e-440f7f5b47d4"},"vehicle_type_id":"4","last_reported":1758722965,"current_range_meters":12000,"station_id":"st_cvj6sg6p6f1abm77japg","pricing_plan_id":"cebpf4jnsgd1na2vs0mg"},{"bike_id":"9feb0e0f-24fa-4463-b0f3-30472830c043","system_id":"levelo_inurba_marseille","lat":43.31757,"lon":5.39002,"is_reserved":false,"is_disabled":false,"rental_uris":{"android":"levelo://app?vid=9feb0e0f-24fa-4463-b0f3-30472830c043","ios":"levelo://app?vid=9feb0e0f-24fa-4463-b0f3-30472830c043"},"vehicle_type_id":"4","last_reported":1758722965,"current_range_meters":12400,"station_id":"ce4bhqp2rcd13ifvqhng","pricing_plan_id":"cebpf4jnsgd1na2vs0mg"},{"bike_id":"4ea71d83-c74b-45e0-95a5-e4c77af55e88","system_id":"levelo_inurba_marseille","lat":43.32116,"lon":5.36759,"is_reserved":false,"is_disabled":false,"rental_uris":{"android":"levelo://app?vid=4ea71d83-c74b-45e0-95a5-e4c77af55e88","ios":"levelo://app?vid=4ea71d83-c74b-45e0-95a5-e4c77af55e88"},"vehicle_type_id":"4","last_reported":1758722965,"current_range_meters":12400,"station_id":"ce4bhrh2rcd13ifvqhug","pricing_plan_id":"cebpf4jnsgd1na2vs0mg"},{"bike_id":"18ec5363-8a88-4e9d-b3ab-475cacde9be5","system_id":"levelo_inurba_marseille","lat":43.28154,"lon":5.42638,"is_reserved":false,"is_disabled":false,"rental_uris":{"android":"levelo://app?vid=18ec5363-8a88-4e9d-b3ab-475cacde9be5","ios":"levelo://app?vid=18ec5363-8a88-4e9d-b3ab-475cacde9be5"},"vehicle_type_id":"4","last_reported":1758722965,"current_range_meters":12400,"station_id":"ce4bhnh2rcd13ifvqgug","pricing_plan_id":"cebpf4jnsgd1na2vs0mg"},{"bike_id":"b5097eea-9912-4be2-9cf9-14c224c5fab6","system_id":"levelo_inurba_marseille","lat":43.23205,"lon":5.35549,"is_reserved":false,"is_disabled":false,"rental_uris":{"android":"levelo://app?vid=b5097eea-9912-4be2-9cf9-14c224c5fab6","ios":"levelo://app?vid=b5097eea-9912-4be2-9cf9-14c224c5fab6"},"vehicle_type_id":"4","last_reported":1758722965,"current_range_meters":12400,"station_id":"ce4bhu92rcd13ifvqi70","pricing_plan_id":"cebpf4jnsgd1na2vs0mg"},{"bike_id":"c37fa226-a388-4e8c-8468-99ee65bf2e65","system_id":"levelo_inurba_marseille","lat":43.29902,"lon":5.37488,"is_reserved":false,"is_disabled":false,"rental_uris":{"android":"levelo://app?vid=c37fa226-a388-4e8c-8468-99ee65bf2e65","ios":"levelo://app?vid=c37fa226-a388-4e8c-8468-99ee65bf2e65"},"vehicle_type_id":"4","last_reported":1758722965,"current_range_meters":12400,"station_id":"ce4bgjh2rcd13ifvqbg0","pricing_plan_id":"cebpf4jnsgd1na2vs0mg"},{"bike_id":"438ead59-de14-4fa0-a61d-03a70a4122ae","system_id":"levelo_inurba_marseille","lat":43.97269,"lon":4.89111,"is_reserved":false,"is_disabled":true,"rental_uris":{"android":"levelo://app?vid=438ead59-de14-4fa0-a61d-03a70a4122ae","ios":"levelo://app?vid=438ead59-de14-4fa0-a61d-03a70a4122ae"},"vehicle_type_id":"4","last_reported":1758722965,"current_range_meters":12400,"station_id":"","pricing_plan_id":"cebpf4jnsgd1na2vs0mg"},{"bike_id":"55e99175-9ac2-4b1d-bfc1-d397957375d0","system_id":"levelo_inurba_marseille","lat":43.335997,"lon":5.409945,"is_reserved":false,"is_disabled":false,"rental_uris":{"android":"levelo://app?vid=55e99175-9ac2-4b1d-bfc1-d397957375d0","ios":"levelo://app?vid=55e99175-9ac2-4b1d-bfc1-d397957375d0"},"vehicle_type_id":"4","last_reported":1758722965,"current_range_meters":12400,"station_id":"ce4bhqh2rcd13ifvqhmg","pricing_plan_id":"cebpf4jnsgd1na2vs0mg"},{"bike_id":"1375a7a5-e0e8-48b1-bf1d-2bd5231e5d69","system_id":"levelo_inurba_marseille","lat":43.31173,"lon":5.38693,"is_reserved":false,"is_disabled":false,"rental_uris":{"android":"levelo://app?vid=1375a7a5-e0e8-48b1-bf1d-2bd5231e5d69","ios":"levelo://app?vid=1375a7a5-e0e8-48b1-bf1d-2bd5231e5d69"},"vehicle_type_id":"4","last_reported":1758722965,"current_range_meters":12400,"station_id":"ce4bgv12rcd13ifvqcp0","pricing_plan_id":"cebpf4jnsgd1na2vs0mg"},{"bike_id":"8c0227e3-55e8-4994-aa0c-9b6ee99b7e26","system_id":"levelo_inurba_marseille","lat":43.23048,"lon":5.3549,"is_reserved":false,"is_disabled":false,"rental_uris":{"android":"levelo://app?vid=8c0227e3-55e8-4994-aa0c-9b6ee99b7e26","ios":"levelo://app?vid=8c0227e3-55e8-4994-aa0c-9b6ee99b7e26"},"vehicle_type_id":"4","last_reported":1758722965,"current_range_meters":12800,"station_id":"cpo3342slgdg3j2ifvpg","pricing_plan_id":"cebpf4jnsgd1na2vs0mg"},{"bike_id":"775d2ad5-89ec-4ca2-aad6-292d6d92b011","system_id":"levelo_inurba_marseille","lat":43.32489,"lon":5.36552,"is_reserved":false,"is_disabled":false,"rental_uris":{"android":"levelo://app?vid=775d2ad5-89ec-4ca2-aad6-292d6d92b011","ios":"levelo://app?vid=775d2ad5-89ec-4ca2-aad6-292d6d92b011"},"vehicle_type_id":"4","last_reported":1758722965,"current_range_meters":12800,"station_id":"ce4bhs12rcd13ifvqhvg","pricing_plan_id":"cebpf4jnsgd1na2vs0mg"},{"bike_id":"8c7fb638-aa89-4dc5-b652-77ceb015b905","system_id":"levelo_inurba_marseille","lat":43.24953,"lon":5.40492,"is_reserved":false,"is_disabled":false,"rental_uris":{"android":"levelo://app?vid=8c7fb638-aa89-4dc5-b652-77ceb015b905","ios":"levelo://app?vid=8c7fb638-aa89-4dc5-b652-77ceb015b905"},"vehicle_type_id":"4","last_reported":1758722965,"current_range_meters":12800,"station_id":"st_d2ngiaodas8pm72gd1h0","pricing_plan_id":"cebpf4jnsgd1na2vs0mg"},{"bike_id":"06c10839-75c7-457b-804b-f341157fb4f3","system_id":"levelo_inurba_marseille","lat":43.25056,"lon":5.40442,"is_reserved":false,"is_disabled":false,"rental_uris":{"android":"levelo://app?vid=06c10839-75c7-457b-804b-f341157fb4f3","ios":"levelo://app?vid=06c10839-75c7-457b-804b-f341157fb4f3"},"vehicle_type_id":"4","last_reported":1758722965,"current_range_meters":12800,"station_id":"","pricing_plan_id":"cebpf4jnsgd1na2vs0mg"},{"bike_id":"0aa1d1d8-e4de-4095-ab27-a229d724fd7d","system_id":"levelo_inurba_marseille","lat":43.24545,"lon":5.39532,"is_reserved":false,"is_disabled":false,"rental_uris":{"android":"levelo://app?vid=0aa1d1d8-e4de-4095-ab27-a229d724fd7d","ios":"levelo://app?vid=0aa1d1d8-e4de-4095-ab27-a229d724fd7d"},"vehicle_type_id":"4","last_reported":1758722965,"current_range_meters":12800,"station_id":"ce4bhlp2rcd13ifvqgjg","pricing_plan_id":"cebpf4jnsgd1na2vs0mg"},{"bike_id":"2b142924-375d-48cb-93a3-16a1b9bf5e94","system_id":"levelo_inurba_marseille","lat":43.28612,"lon":5.35096,"is_reserved":false,"is_disabled":false,"rental_uris":{"android":"levelo://app?vid=2b142924-375d-48cb-93a3-16a1b9bf5e94","ios":"levelo://app?vid=2b142924-375d-48cb-93a3-16a1b9bf5e94"},"vehicle_type_id":"4","last_reported":1758722965,"current_range_meters":12800,"station_id":"ce4bhch2rcd13ifvqeug","pricing_plan_id":"cebpf4jnsgd1na2vs0mg"},{"bike_id":"032f2b05-5a4d-4317-93a1-71c5e7749657","system_id":"levelo_inurba_marseille","lat":43.29286,"lon":5.40121,"is_reserved":false,"is_disabled":false,"rental_uris":{"android":"levelo://app?vid=032f2b05-5a4d-4317-93a1-71c5e7749657","ios":"levelo://app?vid=032f2b05-5a4d-4317-93a1-71c5e7749657"},"vehicle_type_id":"4","last_reported":1758722965,"current_range_meters":12800,"station_id":"ce4bh312rcd13ifvqdk0","pricing_plan_id":"cebpf4jnsgd1na2vs0mg"},{"bike_id":"0f13dbc4-5dee-425e-a490-aa2b2d77d767","system_id":"levelo_inurba_marseille","lat":43.24646,"lon":5.38887,"is_reserved":false,"is_disabled":false,"rental_uris":{"android":"levelo://app?vid=0f13dbc4-5dee-425e-a490-aa2b2d77d767","ios":"levelo://app?vid=0f13dbc4-5dee-425e-a490-aa2b2d77d767"},"vehicle_type_id":"4","last_reported":1758722965,"current_range_meters":12800,"station_id":"ce4bhg12rcd13ifvqf60","pricing_plan_id":"cebpf4jnsgd1na2vs0mg"},{"bike_id":"619ae9e4-3d2b-4eef-af76-d2f7a4e4d100","system_id":"levelo_inurba_marseille","lat":43.28147,"lon":5.42611,"is_reserved":false,"is_disabled":false,"rental_uris":{"android":"levelo://app?vid=619ae9e4-3d2b-4eef-af76-d2f7a4e4d100","ios":"levelo://app?vid=619ae9e4-3d2b-4eef-af76-d2f7a4e4d100"},"vehicle_type_id":"4","last_reported":1758722965,"current_range_meters":12800,"station_id":"ce4bhnh2rcd13ifvqgug","pricing_plan_id":"cebpf4jnsgd1na2vs0mg"},{"bike_id":"3214a185-f62b-49a3-81fa-660de3796ee3","system_id":"levelo_inurba_marseille","lat":43.289783,"lon":5.378363,"is_reserved":false,"is_disabled":false,"rental_uris":{"android":"levelo://app?vid=3214a185-f62b-49a3-81fa-660de3796ee3","ios":"levelo://app?vid=3214a185-f62b-49a3-81fa-660de3796ee3"},"vehicle_type_id":"4","last_reported":1758722965,"current_range_meters":13600,"station_id":"ce4bh9p2rcd13ifvqed0","pricing_plan_id":"cebpf4jnsgd1na2vs0mg"},{"bike_id":"528c3ca2-6e69-4088-b13a-99bd3c7e415f","system_id":"levelo_inurba_marseille","lat":43.23185,"lon":5.3998,"is_reserved":false,"is_disabled":false,"rental_uris":{"android":"levelo://app?vid=528c3ca2-6e69-4088-b13a-99bd3c7e415f","ios":"levelo://app?vid=528c3ca2-6e69-4088-b13a-99bd3c7e415f"},"vehicle_type_id":"4","last_reported":1758722965,"current_range_meters":13600,"station_id":"ce4bhn12rcd13ifvqgqg","pricing_plan_id":"cebpf4jnsgd1na2vs0mg"},{"bike_id":"b503e9c2-7eb4-4710-83fd-7398560938c3","system_id":"levelo_inurba_marseille","lat":43.30215,"lon":5.39484,"is_reserved":false,"is_disabled":false,"rental_uris":{"android":"levelo://app?vid=b503e9c2-7eb4-4710-83fd-7398560938c3","ios":"levelo://app?vid=b503e9c2-7eb4-4710-83fd-7398560938c3"},"vehicle_type_id":"4","last_reported":1758722965,"current_range_meters":13600,"station_id":"ce4bh0p2rcd13ifvqd70","pricing_plan_id":"cebpf4jnsgd1na2vs0mg"},{"bike_id":"d5748f11-c747-445a-ba16-03e2bc50ef5f","system_id":"levelo_inurba_marseille","lat":43.23184,"lon":5.40001,"is_reserved":false,"is_disabled":false,"rental_uris":{"android":"levelo://app?vid=d5748f11-c747-445a-ba16-03e2bc50ef5f","ios":"levelo://app?vid=d5748f11-c747-445a-ba16-03e2bc50ef5f"},"vehicle_type_id":"4","last_reported":1758722965,"current_range_meters":14000,"station_id":"ce4bhn12rcd13ifvqgqg","pricing_plan_id":"cebpf4jnsgd1na2vs0mg"},{"bike_id":"a851cae0-b395-441e-9dd1-21300baf3396","system_id":"levelo_inurba_marseille","lat":43.31521,"lon":5.3869,"is_reserved":false,"is_disabled":false,"rental_uris":{"android":"levelo://app?vid=a851cae0-b395-441e-9dd1-21300baf3396","ios":"levelo://app?vid=a851cae0-b395-441e-9dd1-21300baf3396"},"vehicle_type_id":"4","last_reported":1758722965,"current_range_meters":14000,"station_id":"","pricing_plan_id":"cebpf4jnsgd1na2vs0mg"},{"bike_id":"566931d0-93ab-40f1-93fa-52171bbf5a22","system_id":"levelo_inurba_marseille","lat":43.25867,"lon":5.39905,"is_reserved":false,"is_disabled":false,"rental_uris":{"android":"levelo://app?vid=566931d0-93ab-40f1-93fa-52171bbf5a22","ios":"levelo://app?vid=566931d0-93ab-40f1-93fa-52171bbf5a22"},"vehicle_type_id":"4","last_reported":1758722965,"current_range_meters":13600,"station_id":"ce4bhl92rcd13ifvqghg","pricing_plan_id":"cebpf4jnsgd1na2vs0mg"},{"bike_id":"b48e70b2-53f1-4641-819c-a53cac59b8ed","system_id":"levelo_inurba_marseille","lat":43.258241,"lon":5.39439,"is_reserved":false,"is_disabled":false,"rental_uris":{"android":"levelo://app?vid=b48e70b2-53f1-4641-819c-a53cac59b8ed","ios":"levelo://app?vid=b48e70b2-53f1-4641-819c-a53cac59b8ed"},"vehicle_type_id":"4","last_reported":1758722965,"current_range_meters":14000,"station_id":"ce4bhip2rcd13ifvqft0","pricing_plan_id":"cebpf4jnsgd1na2vs0mg"},{"bike_id":"398fef7f-c52c-464b-b837-db7db0e2602a","system_id":"levelo_inurba_marseille","lat":43.25341,"lon":5.42182,"is_reserved":false,"is_disabled":false,"rental_uris":{"android":"levelo://app?vid=398fef7f-c52c-464b-b837-db7db0e2602a","ios":"levelo://app?vid=398fef7f-c52c-464b-b837-db7db0e2602a"},"vehicle_type_id":"4","last_reported":1758722965,"current_range_meters":14000,"station_id":"st_d2m65c5bi1j21697t3ng","pricing_plan_id":"cebpf4jnsgd1na2vs0mg"},{"bike_id":"36b070bb-df09-4433-b99c-aab79ada22d5","system_id":"levelo_inurba_marseille","lat":43.29287,"lon":5.3744,"is_reserved":false,"is_disabled":false,"rental_uris":{"android":"levelo://app?vid=36b070bb-df09-4433-b99c-aab79ada22d5","ios":"levelo://app?vid=36b070bb-df09-4433-b99c-aab79ada22d5"},"vehicle_type_id":"4","last_reported":1758722965,"current_range_meters":14000,"station_id":"","pricing_plan_id":"cebpf4jnsgd1na2vs0mg"},{"bike_id":"0b5e7d5e-4f7e-49ee-947f-fe60c70c4f00","system_id":"levelo_inurba_marseille","lat":43.27993,"lon":5.4002,"is_reserved":false,"is_disabled":false,"rental_uris":{"android":"levelo://app?vid=0b5e7d5e-4f7e-49ee-947f-fe60c70c4f00","ios":"levelo://app?vid=0b5e7d5e-4f7e-49ee-947f-fe60c70c4f00"},"vehicle_type_id":"4","last_reported":1758722965,"current_range_meters":13600,"station_id":"ce4bho92rcd13ifvqh4g","pricing_plan_id":"cebpf4jnsgd1na2vs0mg"},{"bike_id":"ef00c611-56e3-4d87-83a8-6fad9627913a","system_id":"levelo_inurba_marseille","lat":43.308894,"lon":5.371943,"is_reserved":false,"is_disabled":false,"rental_uris":{"android":"levelo://app?vid=ef00c611-56e3-4d87-83a8-6fad9627913a","ios":"levelo://app?vid=ef00c611-56e3-4d87-83a8-6fad9627913a"},"vehicle_type_id":"4","last_reported":1758722965,"current_range_meters":14400,"station_id":"ce4bguh2rcd13ifvqckg","pricing_plan_id":"cebpf4jnsgd1na2vs0mg"},{"bike_id":"52094713-4280-421b-b417-fe5c844f4daa","system_id":"levelo_inurba_marseille","lat":43.25115,"lon":5.40304,"is_reserved":false,"is_disabled":false,"rental_uris":{"android":"levelo://app?vid=52094713-4280-421b-b417-fe5c844f4daa","ios":"levelo://app?vid=52094713-4280-421b-b417-fe5c844f4daa"},"vehicle_type_id":"4","last_reported":1758722965,"current_range_meters":14400,"station_id":"ce4bhlh2rcd13ifvqgig","pricing_plan_id":"cebpf4jnsgd1na2vs0mg"},{"bike_id":"9c9806e6-278c-42f4-9ebb-f9b0e56008c6","system_id":"levelo_inurba_marseille","lat":43.25086,"lon":5.39526,"is_reserved":false,"is_disabled":false,"rental_uris":{"android":"levelo://app?vid=9c9806e6-278c-42f4-9ebb-f9b0e56008c6","ios":"levelo://app?vid=9c9806e6-278c-42f4-9ebb-f9b0e56008c6"},"vehicle_type_id":"4","last_reported":1758722965,"current_range_meters":14000,"station_id":"ce4bhm12rcd13ifvqgkg","pricing_plan_id":"cebpf4jnsgd1na2vs0mg"},{"bike_id":"0220a805-aee9-409e-95ea-3a0d559cfe9f","system_id":"levelo_inurba_marseille","lat":43.24644,"lon":5.38883,"is_reserved":false,"is_disabled":false,"rental_uris":{"android":"levelo://app?vid=0220a805-aee9-409e-95ea-3a0d559cfe9f","ios":"levelo://app?vid=0220a805-aee9-409e-95ea-3a0d559cfe9f"},"vehicle_type_id":"4","last_reported":1758722965,"current_range_meters":14400,"station_id":"ce4bhg12rcd13ifvqf60","pricing_plan_id":"cebpf4jnsgd1na2vs0mg"},{"bike_id":"d4a4d554-6777-440b-8727-2ae1e0cb159e","system_id":"levelo_inurba_marseille","lat":43.29969,"lon":5.38485,"is_reserved":false,"is_disabled":false,"rental_uris":{"android":"levelo://app?vid=d4a4d554-6777-440b-8727-2ae1e0cb159e","ios":"levelo://app?vid=d4a4d554-6777-440b-8727-2ae1e0cb159e"},"vehicle_type_id":"4","last_reported":1758722965,"current_range_meters":14800,"station_id":"ce4bgj92rcd13ifvqbd0","pricing_plan_id":"cebpf4jnsgd1na2vs0mg"},{"bike_id":"45da2f63-fcbe-4329-abbb-56a1a825057c","system_id":"levelo_inurba_marseille","lat":43.29935,"lon":5.36533,"is_reserved":false,"is_disabled":false,"rental_uris":{"android":"levelo://app?vid=45da2f63-fcbe-4329-abbb-56a1a825057c","ios":"levelo://app?vid=45da2f63-fcbe-4329-abbb-56a1a825057c"},"vehicle_type_id":"4","last_reported":1758722965,"current_range_meters":14800,"station_id":"ce4bgm92rcd13ifvqbr0","pricing_plan_id":"cebpf4jnsgd1na2vs0mg"},{"bike_id":"3cb1dae7-6bcd-41e5-b1b7-c1d25c751a99","system_id":"levelo_inurba_marseille","lat":43.337594,"lon":5.374419,"is_reserved":false,"is_disabled":false,"rental_uris":{"android":"levelo://app?vid=3cb1dae7-6bcd-41e5-b1b7-c1d25c751a99","ios":"levelo://app?vid=3cb1dae7-6bcd-41e5-b1b7-c1d25c751a99"},"vehicle_type_id":"4","last_reported":1758722965,"current_range_meters":15200,"station_id":"","pricing_plan_id":"cebpf4jnsgd1na2vs0mg"},{"bike_id":"57b14c92-2a17-45b3-beb1-cbb460ef441b","system_id":"levelo_inurba_marseille","lat":43.23197,"lon":5.39981,"is_reserved":false,"is_disabled":false,"rental_uris":{"android":"levelo://app?vid=57b14c92-2a17-45b3-beb1-cbb460ef441b","ios":"levelo://app?vid=57b14c92-2a17-45b3-beb1-cbb460ef441b"},"vehicle_type_id":"4","last_reported":1758722965,"current_range_meters":15200,"station_id":"ce4bhn12rcd13ifvqgqg","pricing_plan_id":"cebpf4jnsgd1na2vs0mg"},{"bike_id":"0c8b27c2-cd1c-476e-8dda-67b9d7117446","system_id":"levelo_inurba_marseille","lat":43.2984,"lon":5.36259,"is_reserved":false,"is_disabled":false,"rental_uris":{"android":"levelo://app?vid=0c8b27c2-cd1c-476e-8dda-67b9d7117446","ios":"levelo://app?vid=0c8b27c2-cd1c-476e-8dda-67b9d7117446"},"vehicle_type_id":"4","last_reported":1758722965,"current_range_meters":15200,"station_id":"ce4bgpp2rcd13ifvqc3g","pricing_plan_id":"cebpf4jnsgd1na2vs0mg"},{"bike_id":"cb7a3257-13a8-4267-9457-f324f058487c","system_id":"levelo_inurba_marseille","lat":43.311195,"lon":5.377821,"is_reserved":false,"is_disabled":false,"rental_uris":{"android":"levelo://app?vid=cb7a3257-13a8-4267-9457-f324f058487c","ios":"levelo://app?vid=cb7a3257-13a8-4267-9457-f324f058487c"},"vehicle_type_id":"4","last_reported":1758722965,"current_range_meters":16400,"station_id":"ce4bgt92rcd13ifvqcg0","pricing_plan_id":"cebpf4jnsgd1na2vs0mg"},{"bike_id":"d9e1888b-5c06-4823-924b-a03611151086","system_id":"levelo_inurba_marseille","lat":43.28618,"lon":5.35106,"is_reserved":false,"is_disabled":false,"rental_uris":{"android":"levelo://app?vid=d9e1888b-5c06-4823-924b-a03611151086","ios":"levelo://app?vid=d9e1888b-5c06-4823-924b-a03611151086"},"vehicle_type_id":"4","last_reported":1758722965,"current_range_meters":16000,"station_id":"ce4bhch2rcd13ifvqeug","pricing_plan_id":"cebpf4jnsgd1na2vs0mg"},{"bike_id":"bf1244d3-d7e7-45bd-8580-d0cbc34b36e3","system_id":"levelo_inurba_marseille","lat":43.22559,"lon":5.41608,"is_reserved":false,"is_disabled":false,"rental_uris":{"android":"levelo://app?vid=bf1244d3-d7e7-45bd-8580-d0cbc34b36e3","ios":"levelo://app?vid=bf1244d3-d7e7-45bd-8580-d0cbc34b36e3"},"vehicle_type_id":"4","last_reported":1758722965,"current_range_meters":16000,"station_id":"st_d2o4gvlbi1j2169b742g","pricing_plan_id":"cebpf4jnsgd1na2vs0mg"},{"bike_id":"912213eb-7bd3-4176-bc2b-1ad97af81e61","system_id":"levelo_inurba_marseille","lat":43.29006,"lon":5.35607,"is_reserved":false,"is_disabled":false,"rental_uris":{"android":"levelo://app?vid=912213eb-7bd3-4176-bc2b-1ad97af81e61","ios":"levelo://app?vid=912213eb-7bd3-4176-bc2b-1ad97af81e61"},"vehicle_type_id":"4","last_reported":1758722965,"current_range_meters":16000,"station_id":"ce4bhb92rcd13ifvqen0","pricing_plan_id":"cebpf4jnsgd1na2vs0mg"},{"bike_id":"ffc2dfaf-3813-4800-83d0-eccca5fd5c8a","system_id":"levelo_inurba_marseille","lat":43.30912,"lon":5.36817,"is_reserved":false,"is_disabled":false,"rental_uris":{"android":"levelo://app?vid=ffc2dfaf-3813-4800-83d0-eccca5fd5c8a","ios":"levelo://app?vid=ffc2dfaf-3813-4800-83d0-eccca5fd5c8a"},"vehicle_type_id":"4","last_reported":1758722965,"current_range_meters":16000,"station_id":"ce4bgn92rcd13ifvqbvg","pricing_plan_id":"cebpf4jnsgd1na2vs0mg"},{"bike_id":"178af37d-dd54-4cf7-b80a-b996e0f2a163","system_id":"levelo_inurba_marseille","lat":43.21195,"lon":5.35072,"is_reserved":false,"is_disabled":false,"rental_uris":{"android":"levelo://app?vid=178af37d-dd54-4cf7-b80a-b996e0f2a163","ios":"levelo://app?vid=178af37d-dd54-4cf7-b80a-b996e0f2a163"},"vehicle_type_id":"4","last_reported":1758722965,"current_range_meters":16000,"station_id":"st_cvj6sg6p6f1abm77japg","pricing_plan_id":"cebpf4jnsgd1na2vs0mg"},{"bike_id":"50c03ce7-6089-4ca2-9f23-f4c8c568a597","system_id":"levelo_inurba_marseille","lat":43.33799,"lon":5.37422,"is_reserved":false,"is_disabled":false,"rental_uris":{"android":"levelo://app?vid=50c03ce7-6089-4ca2-9f23-f4c8c568a597","ios":"levelo://app?vid=50c03ce7-6089-4ca2-9f23-f4c8c568a597"},"vehicle_type_id":"4","last_reported":1758722965,"current_range_meters":16000,"station_id":"","pricing_plan_id":"cebpf4jnsgd1na2vs0mg"},{"bike_id":"1f245d0b-a243-4473-a434-d74cae53f5e3","system_id":"levelo_inurba_marseille","lat":43.32111,"lon":5.36759,"is_reserved":false,"is_disabled":false,"rental_uris":{"android":"levelo://app?vid=1f245d0b-a243-4473-a434-d74cae53f5e3","ios":"levelo://app?vid=1f245d0b-a243-4473-a434-d74cae53f5e3"},"vehicle_type_id":"4","last_reported":1758722965,"current_range_meters":16000,"station_id":"ce4bhrh2rcd13ifvqhug","pricing_plan_id":"cebpf4jnsgd1na2vs0mg"},{"bike_id":"c7f6a08b-c655-4213-b2ba-7d02e7f382fe","system_id":"levelo_inurba_marseille","lat":43.27988,"lon":5.39483,"is_reserved":false,"is_disabled":false,"rental_uris":{"android":"levelo://app?vid=c7f6a08b-c655-4213-b2ba-7d02e7f382fe","ios":"levelo://app?vid=c7f6a08b-c655-4213-b2ba-7d02e7f382fe"},"vehicle_type_id":"4","last_reported":1758722965,"current_range_meters":16000,"station_id":"","pricing_plan_id":"cebpf4jnsgd1na2vs0mg"},{"bike_id":"e19472f1-87e0-4943-97f3-e785d2a10054","system_id":"levelo_inurba_marseille","lat":43.28879,"lon":5.42505,"is_reserved":false,"is_disabled":false,"rental_uris":{"android":"levelo://app?vid=e19472f1-87e0-4943-97f3-e785d2a10054","ios":"levelo://app?vid=e19472f1-87e0-4943-97f3-e785d2a10054"},"vehicle_type_id":"4","last_reported":1758722965,"current_range_meters":16000,"station_id":"","pricing_plan_id":"cebpf4jnsgd1na2vs0mg"},{"bike_id":"16cee2f9-0604-4f00-85ee-c5690b0410f0","system_id":"levelo_inurba_marseille","lat":43.2862,"lon":5.35104,"is_reserved":false,"is_disabled":false,"rental_uris":{"android":"levelo://app?vid=16cee2f9-0604-4f00-85ee-c5690b0410f0","ios":"levelo://app?vid=16cee2f9-0604-4f00-85ee-c5690b0410f0"},"vehicle_type_id":"4","last_reported":1758722965,"current_range_meters":16000,"station_id":"ce4bhch2rcd13ifvqeug","pricing_plan_id":"cebpf4jnsgd1na2vs0mg"},{"bike_id":"38700831-23d8-4235-a846-295ef3fb5d0b","system_id":"levelo_inurba_marseille","lat":43.241808,"lon":5.397313,"is_reserved":false,"is_disabled":false,"rental_uris":{"android":"levelo://app?vid=38700831-23d8-4235-a846-295ef3fb5d0b","ios":"levelo://app?vid=38700831-23d8-4235-a846-295ef3fb5d0b"},"vehicle_type_id":"4","last_reported":1758722965,"current_range_meters":15200,"station_id":"ce4bhn12rcd13ifvqgpg","pricing_plan_id":"cebpf4jnsgd1na2vs0mg"},{"bike_id":"8eae954c-dab6-4303-94f5-569e1c483f62","system_id":"levelo_inurba_marseille","lat":43.29444,"lon":5.40745,"is_reserved":false,"is_disabled":false,"rental_uris":{"android":"levelo://app?vid=8eae954c-dab6-4303-94f5-569e1c483f62","ios":"levelo://app?vid=8eae954c-dab6-4303-94f5-569e1c483f62"},"vehicle_type_id":"4","last_reported":1758722965,"current_range_meters":16400,"station_id":"","pricing_plan_id":"cebpf4jnsgd1na2vs0mg"},{"bike_id":"e8e0a80f-25dc-47ab-ae8b-3cbce8fbad61","system_id":"levelo_inurba_marseille","lat":43.24174,"lon":5.39708,"is_reserved":false,"is_disabled":false,"rental_uris":{"android":"levelo://app?vid=e8e0a80f-25dc-47ab-ae8b-3cbce8fbad61","ios":"levelo://app?vid=e8e0a80f-25dc-47ab-ae8b-3cbce8fbad61"},"vehicle_type_id":"4","last_reported":1758722965,"current_range_meters":16400,"station_id":"ce4bhn12rcd13ifvqgpg","pricing_plan_id":"cebpf4jnsgd1na2vs0mg"},{"bike_id":"0e9ca394-4351-4bf8-a641-f4e5215baf20","system_id":"levelo_inurba_marseille","lat":43.2827,"lon":5.3506,"is_reserved":false,"is_disabled":false,"rental_uris":{"android":"levelo://app?vid=0e9ca394-4351-4bf8-a641-f4e5215baf20","ios":"levelo://app?vid=0e9ca394-4351-4bf8-a641-f4e5215baf20"},"vehicle_type_id":"4","last_reported":1758722965,"current_range_meters":16400,"station_id":"ce4bhbp2rcd13ifvqerg","pricing_plan_id":"cebpf4jnsgd1na2vs0mg"},{"bike_id":"002673c7-e49b-40c2-82da-6cf2f4393eb8","system_id":"levelo_inurba_marseille","lat":43.30473,"lon":5.3788,"is_reserved":false,"is_disabled":true,"rental_uris":{"android":"levelo://app?vid=002673c7-e49b-40c2-82da-6cf2f4393eb8","ios":"levelo://app?vid=002673c7-e49b-40c2-82da-6cf2f4393eb8"},"vehicle_type_id":"4","last_reported":1758722965,"current_range_meters":16400,"station_id":"ce4bgup2rcd13ifvqcn0","pricing_plan_id":"cebpf4jnsgd1na2vs0mg"},{"bike_id":"129c8450-4cca-4e9f-b9f6-538b0080ad49","system_id":"levelo_inurba_marseille","lat":43.32556,"lon":5.38899,"is_reserved":false,"is_disabled":false,"rental_uris":{"android":"levelo://app?vid=129c8450-4cca-4e9f-b9f6-538b0080ad49","ios":"levelo://app?vid=129c8450-4cca-4e9f-b9f6-538b0080ad49"},"vehicle_type_id":"4","last_reported":1758722965,"current_range_meters":16400,"station_id":"","pricing_plan_id":"cebpf4jnsgd1na2vs0mg"},{"bike_id":"d2be082e-bd73-4203-addb-18871b3a9587","system_id":"levelo_inurba_marseille","lat":43.29428,"lon":5.37475,"is_reserved":false,"is_disabled":false,"rental_uris":{"android":"levelo://app?vid=d2be082e-bd73-4203-addb-18871b3a9587","ios":"levelo://app?vid=d2be082e-bd73-4203-addb-18871b3a9587"},"vehicle_type_id":"4","last_reported":1758722965,"current_range_meters":16400,"station_id":"","pricing_plan_id":"cebpf4jnsgd1na2vs0mg"},{"bike_id":"64331bf9-f763-49ab-bafc-1428b2bfa299","system_id":"levelo_inurba_marseille","lat":43.301297,"lon":5.391337,"is_reserved":false,"is_disabled":false,"rental_uris":{"android":"levelo://app?vid=64331bf9-f763-49ab-bafc-1428b2bfa299","ios":"levelo://app?vid=64331bf9-f763-49ab-bafc-1428b2bfa299"},"vehicle_type_id":"4","last_reported":1758722965,"current_range_meters":16400,"station_id":"ce4bh192rcd13ifvqdb0","pricing_plan_id":"cebpf4jnsgd1na2vs0mg"},{"bike_id":"bbb49639-e251-480f-bce2-5c33fbf6220e","system_id":"levelo_inurba_marseille","lat":43.29596,"lon":5.38098,"is_reserved":false,"is_disabled":false,"rental_uris":{"android":"levelo://app?vid=bbb49639-e251-480f-bce2-5c33fbf6220e","ios":"levelo://app?vid=bbb49639-e251-480f-bce2-5c33fbf6220e"},"vehicle_type_id":"4","last_reported":1758722965,"current_range_meters":16400,"station_id":"ce4bgl12rcd13ifvqbo0","pricing_plan_id":"cebpf4jnsgd1na2vs0mg"},{"bike_id":"8a7b03e9-9644-45a5-b46a-f80190d1f100","system_id":"levelo_inurba_marseille","lat":43.32106,"lon":5.36769,"is_reserved":false,"is_disabled":false,"rental_uris":{"android":"levelo://app?vid=8a7b03e9-9644-45a5-b46a-f80190d1f100","ios":"levelo://app?vid=8a7b03e9-9644-45a5-b46a-f80190d1f100"},"vehicle_type_id":"4","last_reported":1758722965,"current_range_meters":16400,"station_id":"ce4bhrh2rcd13ifvqhug","pricing_plan_id":"cebpf4jnsgd1na2vs0mg"},{"bike_id":"f683f261-d33c-485f-98c4-e08609dada7e","system_id":"levelo_inurba_marseille","lat":43.25867,"lon":5.39906,"is_reserved":false,"is_disabled":false,"rental_uris":{"android":"levelo://app?vid=f683f261-d33c-485f-98c4-e08609dada7e","ios":"levelo://app?vid=f683f261-d33c-485f-98c4-e08609dada7e"},"vehicle_type_id":"4","last_reported":1758722965,"current_range_meters":16400,"station_id":"ce4bhl92rcd13ifvqghg","pricing_plan_id":"cebpf4jnsgd1na2vs0mg"},{"bike_id":"314d8272-0758-4eac-bb7f-300f535c69c4","system_id":"levelo_inurba_marseille","lat":43.3081,"lon":5.38157,"is_reserved":false,"is_disabled":false,"rental_uris":{"android":"levelo://app?vid=314d8272-0758-4eac-bb7f-300f535c69c4","ios":"levelo://app?vid=314d8272-0758-4eac-bb7f-300f535c69c4"},"vehicle_type_id":"4","last_reported":1758722965,"current_range_meters":16400,"station_id":"ce4bgt12rcd13ifvqce0","pricing_plan_id":"cebpf4jnsgd1na2vs0mg"},{"bike_id":"2055dcc1-c5bf-4596-a92c-c21273d06b14","system_id":"levelo_inurba_marseille","lat":43.24547,"lon":5.39526,"is_reserved":false,"is_disabled":false,"rental_uris":{"android":"levelo://app?vid=2055dcc1-c5bf-4596-a92c-c21273d06b14","ios":"levelo://app?vid=2055dcc1-c5bf-4596-a92c-c21273d06b14"},"vehicle_type_id":"4","last_reported":1758722965,"current_range_meters":16400,"station_id":"ce4bhlp2rcd13ifvqgjg","pricing_plan_id":"cebpf4jnsgd1na2vs0mg"},{"bike_id":"26b728fd-43c1-4dfb-b634-d26c92fb6a60","system_id":"levelo_inurba_marseille","lat":43.302696,"lon":5.376452,"is_reserved":false,"is_disabled":false,"rental_uris":{"android":"levelo://app?vid=26b728fd-43c1-4dfb-b634-d26c92fb6a60","ios":"levelo://app?vid=26b728fd-43c1-4dfb-b634-d26c92fb6a60"},"vehicle_type_id":"4","last_reported":1758722965,"current_range_meters":16800,"station_id":"ce4bgkh2rcd13ifvqbl0","pricing_plan_id":"cebpf4jnsgd1na2vs0mg"},{"bike_id":"8a828295-28e2-4f47-bc01-1374c80f32a1","system_id":"levelo_inurba_marseille","lat":43.26211,"lon":5.37447,"is_reserved":false,"is_disabled":false,"rental_uris":{"android":"levelo://app?vid=8a828295-28e2-4f47-bc01-1374c80f32a1","ios":"levelo://app?vid=8a828295-28e2-4f47-bc01-1374c80f32a1"},"vehicle_type_id":"4","last_reported":1758722965,"current_range_meters":16800,"station_id":"ce4bhgp2rcd13ifvqfc0","pricing_plan_id":"cebpf4jnsgd1na2vs0mg"},{"bike_id":"ca0d7743-3068-48da-a577-af49d3d71560","system_id":"levelo_inurba_marseille","lat":43.30544,"lon":5.36704,"is_reserved":false,"is_disabled":false,"rental_uris":{"android":"levelo://app?vid=ca0d7743-3068-48da-a577-af49d3d71560","ios":"levelo://app?vid=ca0d7743-3068-48da-a577-af49d3d71560"},"vehicle_type_id":"4","last_reported":1758722965,"current_range_meters":16800,"station_id":"ce4bgrp2rcd13ifvqc9g","pricing_plan_id":"cebpf4jnsgd1na2vs0mg"},{"bike_id":"cdd9250b-20c0-48e2-b45b-56204b8135aa","system_id":"levelo_inurba_marseille","lat":43.30298,"lon":5.37646,"is_reserved":false,"is_disabled":false,"rental_uris":{"android":"levelo://app?vid=cdd9250b-20c0-48e2-b45b-56204b8135aa","ios":"levelo://app?vid=cdd9250b-20c0-48e2-b45b-56204b8135aa"},"vehicle_type_id":"4","last_reported":1758722965,"current_range_meters":16800,"station_id":"","pricing_plan_id":"cebpf4jnsgd1na2vs0mg"},{"bike_id":"ad9a6248-1b43-4fc5-bfba-44f7d3067aab","system_id":"levelo_inurba_marseille","lat":43.21192,"lon":5.35072,"is_reserved":false,"is_disabled":false,"rental_uris":{"android":"levelo://app?vid=ad9a6248-1b43-4fc5-bfba-44f7d3067aab","ios":"levelo://app?vid=ad9a6248-1b43-4fc5-bfba-44f7d3067aab"},"vehicle_type_id":"4","last_reported":1758722965,"current_range_meters":16800,"station_id":"st_cvj6sg6p6f1abm77japg","pricing_plan_id":"cebpf4jnsgd1na2vs0mg"},{"bike_id":"3a319be7-fef3-40df-96fe-6bdc37dc7081","system_id":"levelo_inurba_marseille","lat":43.28102,"lon":5.37845,"is_reserved":false,"is_disabled":false,"rental_uris":{"android":"levelo://app?vid=3a319be7-fef3-40df-96fe-6bdc37dc7081","ios":"levelo://app?vid=3a319be7-fef3-40df-96fe-6bdc37dc7081"},"vehicle_type_id":"4","last_reported":1758722965,"current_range_meters":16800,"station_id":"ce4bha12rcd13ifvqee0","pricing_plan_id":"cebpf4jnsgd1na2vs0mg"},{"bike_id":"c5e35d50-1334-4251-9e23-b568a1a449ad","system_id":"levelo_inurba_marseille","lat":43.30283,"lon":5.37695,"is_reserved":false,"is_disabled":false,"rental_uris":{"android":"levelo://app?vid=c5e35d50-1334-4251-9e23-b568a1a449ad","ios":"levelo://app?vid=c5e35d50-1334-4251-9e23-b568a1a449ad"},"vehicle_type_id":"4","last_reported":1758722965,"current_range_meters":16800,"station_id":"ce4bguh2rcd13ifvqcj0","pricing_plan_id":"cebpf4jnsgd1na2vs0mg"},{"bike_id":"76ec35b6-3989-46e3-8bfc-4ad3e1c0686a","system_id":"levelo_inurba_marseille","lat":43.26802,"lon":5.40268,"is_reserved":false,"is_disabled":false,"rental_uris":{"android":"levelo://app?vid=76ec35b6-3989-46e3-8bfc-4ad3e1c0686a","ios":"levelo://app?vid=76ec35b6-3989-46e3-8bfc-4ad3e1c0686a"},"vehicle_type_id":"4","last_reported":1758722965,"current_range_meters":16800,"station_id":"ce501612rcd8frsf0b60","pricing_plan_id":"cebpf4jnsgd1na2vs0mg"},{"bike_id":"9ace8b35-9d9b-46ac-8c4e-8fcce01b21af","system_id":"levelo_inurba_marseille","lat":43.24823,"lon":5.37466,"is_reserved":false,"is_disabled":false,"rental_uris":{"android":"levelo://app?vid=9ace8b35-9d9b-46ac-8c4e-8fcce01b21af","ios":"levelo://app?vid=9ace8b35-9d9b-46ac-8c4e-8fcce01b21af"},"vehicle_type_id":"4","last_reported":1758722965,"current_range_meters":16800,"station_id":"ce4bhgh2rcd13ifvqfb0","pricing_plan_id":"cebpf4jnsgd1na2vs0mg"},{"bike_id":"5b2e4301-8a04-44b6-bb74-5f97ee4e1633","system_id":"levelo_inurba_marseille","lat":43.27368,"lon":5.3625,"is_reserved":false,"is_disabled":false,"rental_uris":{"android":"levelo://app?vid=5b2e4301-8a04-44b6-bb74-5f97ee4e1633","ios":"levelo://app?vid=5b2e4301-8a04-44b6-bb74-5f97ee4e1633"},"vehicle_type_id":"4","last_reported":1758722965,"current_range_meters":17200,"station_id":"ce4bhbh2rcd13ifvqeo0","pricing_plan_id":"cebpf4jnsgd1na2vs0mg"},{"bike_id":"2bd2a176-8590-4e06-8b8c-a96b49b7b36a","system_id":"levelo_inurba_marseille","lat":43.262237,"lon":5.404538,"is_reserved":false,"is_disabled":false,"rental_uris":{"android":"levelo://app?vid=2bd2a176-8590-4e06-8b8c-a96b49b7b36a","ios":"levelo://app?vid=2bd2a176-8590-4e06-8b8c-a96b49b7b36a"},"vehicle_type_id":"4","last_reported":1758722965,"current_range_meters":17200,"station_id":"","pricing_plan_id":"cebpf4jnsgd1na2vs0mg"},{"bike_id":"6ce97256-6e29-4ee4-b817-ac92bdd5aea1","system_id":"levelo_inurba_marseille","lat":43.22534,"lon":5.34835,"is_reserved":false,"is_disabled":false,"rental_uris":{"android":"levelo://app?vid=6ce97256-6e29-4ee4-b817-ac92bdd5aea1","ios":"levelo://app?vid=6ce97256-6e29-4ee4-b817-ac92bdd5aea1"},"vehicle_type_id":"4","last_reported":1758722965,"current_range_meters":17200,"station_id":"","pricing_plan_id":"cebpf4jnsgd1na2vs0mg"},{"bike_id":"a6ad0c6c-868d-42f3-ba54-573e1a175a36","system_id":"levelo_inurba_marseille","lat":43.26278,"lon":5.41266,"is_reserved":false,"is_disabled":false,"rental_uris":{"android":"levelo://app?vid=a6ad0c6c-868d-42f3-ba54-573e1a175a36","ios":"levelo://app?vid=a6ad0c6c-868d-42f3-ba54-573e1a175a36"},"vehicle_type_id":"4","last_reported":1758722965,"current_range_meters":17200,"station_id":"","pricing_plan_id":"cebpf4jnsgd1na2vs0mg"},{"bike_id":"30c14c35-964e-4541-95d2-76560461908c","system_id":"levelo_inurba_marseille","lat":43.26211,"lon":5.37431,"is_reserved":false,"is_disabled":false,"rental_uris":{"android":"levelo://app?vid=30c14c35-964e-4541-95d2-76560461908c","ios":"levelo://app?vid=30c14c35-964e-4541-95d2-76560461908c"},"vehicle_type_id":"4","last_reported":1758722965,"current_range_meters":17200,"station_id":"ce4bhgp2rcd13ifvqfc0","pricing_plan_id":"cebpf4jnsgd1na2vs0mg"},{"bike_id":"e57b9920-a24e-4c74-a0ad-0e4f80344c9e","system_id":"levelo_inurba_marseille","lat":43.30095,"lon":5.39081,"is_reserved":false,"is_disabled":false,"rental_uris":{"android":"levelo://app?vid=e57b9920-a24e-4c74-a0ad-0e4f80344c9e","ios":"levelo://app?vid=e57b9920-a24e-4c74-a0ad-0e4f80344c9e"},"vehicle_type_id":"4","last_reported":1758722965,"current_range_meters":17200,"station_id":"ce4bh192rcd13ifvqdb0","pricing_plan_id":"cebpf4jnsgd1na2vs0mg"},{"bike_id":"01e07cf5-8211-444c-b3c6-74aa7d15ada5","system_id":"levelo_inurba_marseille","lat":43.26552,"lon":5.39009,"is_reserved":false,"is_disabled":false,"rental_uris":{"android":"levelo://app?vid=01e07cf5-8211-444c-b3c6-74aa7d15ada5","ios":"levelo://app?vid=01e07cf5-8211-444c-b3c6-74aa7d15ada5"},"vehicle_type_id":"4","last_reported":1758722965,"current_range_meters":17200,"station_id":"ce4bhe12rcd13ifvqf30","pricing_plan_id":"cebpf4jnsgd1na2vs0mg"},{"bike_id":"003515e8-8117-44bb-979d-5f47e8d50fda","system_id":"levelo_inurba_marseille","lat":43.30627,"lon":5.37566,"is_reserved":false,"is_disabled":false,"rental_uris":{"android":"levelo://app?vid=003515e8-8117-44bb-979d-5f47e8d50fda","ios":"levelo://app?vid=003515e8-8117-44bb-979d-5f47e8d50fda"},"vehicle_type_id":"4","last_reported":1758722965,"current_range_meters":17600,"station_id":"","pricing_plan_id":"cebpf4jnsgd1na2vs0mg"},{"bike_id":"429b97eb-f7cc-4d35-b219-e8e26e3f47e0","system_id":"levelo_inurba_marseille","lat":43.27376,"lon":5.36254,"is_reserved":false,"is_disabled":false,"rental_uris":{"android":"levelo://app?vid=429b97eb-f7cc-4d35-b219-e8e26e3f47e0","ios":"levelo://app?vid=429b97eb-f7cc-4d35-b219-e8e26e3f47e0"},"vehicle_type_id":"4","last_reported":1758722965,"current_range_meters":17600,"station_id":"ce4bhbh2rcd13ifvqeo0","pricing_plan_id":"cebpf4jnsgd1na2vs0mg"},{"bike_id":"7f26efef-5bca-4964-9649-a135cb9baf4f","system_id":"levelo_inurba_marseille","lat":43.25086,"lon":5.39518,"is_reserved":false,"is_disabled":false,"rental_uris":{"android":"levelo://app?vid=7f26efef-5bca-4964-9649-a135cb9baf4f","ios":"levelo://app?vid=7f26efef-5bca-4964-9649-a135cb9baf4f"},"vehicle_type_id":"4","last_reported":1758722965,"current_range_meters":17600,"station_id":"ce4bhm12rcd13ifvqgkg","pricing_plan_id":"cebpf4jnsgd1na2vs0mg"},{"bike_id":"c3901b76-7e89-4227-8270-3218f68b67d5","system_id":"levelo_inurba_marseille","lat":43.27069,"lon":5.4228,"is_reserved":false,"is_disabled":false,"rental_uris":{"android":"levelo://app?vid=c3901b76-7e89-4227-8270-3218f68b67d5","ios":"levelo://app?vid=c3901b76-7e89-4227-8270-3218f68b67d5"},"vehicle_type_id":"4","last_reported":1758722965,"current_range_meters":17600,"station_id":"ce4bhk92rcd13ifvqgb0","pricing_plan_id":"cebpf4jnsgd1na2vs0mg"},{"bike_id":"2865e8a9-e6fd-47b8-8029-33c3420fdb82","system_id":"levelo_inurba_marseille","lat":43.29942,"lon":5.36542,"is_reserved":false,"is_disabled":false,"rental_uris":{"android":"levelo://app?vid=2865e8a9-e6fd-47b8-8029-33c3420fdb82","ios":"levelo://app?vid=2865e8a9-e6fd-47b8-8029-33c3420fdb82"},"vehicle_type_id":"4","last_reported":1758722965,"current_range_meters":17600,"station_id":"ce4bgm92rcd13ifvqbr0","pricing_plan_id":"cebpf4jnsgd1na2vs0mg"},{"bike_id":"e1864d3e-b11d-4ddc-8504-46d411ba79ba","system_id":"levelo_inurba_marseille","lat":43.25122,"lon":5.40331,"is_reserved":false,"is_disabled":false,"rental_uris":{"android":"levelo://app?vid=e1864d3e-b11d-4ddc-8504-46d411ba79ba","ios":"levelo://app?vid=e1864d3e-b11d-4ddc-8504-46d411ba79ba"},"vehicle_type_id":"4","last_reported":1758722965,"current_range_meters":17600,"station_id":"ce4bhlh2rcd13ifvqgig","pricing_plan_id":"cebpf4jnsgd1na2vs0mg"},{"bike_id":"212de2eb-8bbc-413c-b204-9fe1facd76e8","system_id":"levelo_inurba_marseille","lat":43.31308,"lon":5.37819,"is_reserved":false,"is_disabled":false,"rental_uris":{"android":"levelo://app?vid=212de2eb-8bbc-413c-b204-9fe1facd76e8","ios":"levelo://app?vid=212de2eb-8bbc-413c-b204-9fe1facd76e8"},"vehicle_type_id":"4","last_reported":1758722965,"current_range_meters":17600,"station_id":"","pricing_plan_id":"cebpf4jnsgd1na2vs0mg"},{"bike_id":"790d283e-3a4b-4d46-9367-7cf5e85cd476","system_id":"levelo_inurba_marseille","lat":43.28607,"lon":5.37069,"is_reserved":false,"is_disabled":false,"rental_uris":{"android":"levelo://app?vid=790d283e-3a4b-4d46-9367-7cf5e85cd476","ios":"levelo://app?vid=790d283e-3a4b-4d46-9367-7cf5e85cd476"},"vehicle_type_id":"4","last_reported":1758722965,"current_range_meters":17600,"station_id":"ce4bht12rcd13ifvqi60","pricing_plan_id":"cebpf4jnsgd1na2vs0mg"},{"bike_id":"8beb3c3c-ac9d-4ab4-9b1c-f2c93b4c1bcf","system_id":"levelo_inurba_marseille","lat":43.26562,"lon":5.40336,"is_reserved":false,"is_disabled":false,"rental_uris":{"android":"levelo://app?vid=8beb3c3c-ac9d-4ab4-9b1c-f2c93b4c1bcf","ios":"levelo://app?vid=8beb3c3c-ac9d-4ab4-9b1c-f2c93b4c1bcf"},"vehicle_type_id":"4","last_reported":1758722965,"current_range_meters":17600,"station_id":"ce4bhmp2rcd13ifvqgng","pricing_plan_id":"cebpf4jnsgd1na2vs0mg"},{"bike_id":"71b530dc-16dd-4ef7-b73c-63c1d69cb1d4","system_id":"levelo_inurba_marseille","lat":43.25719,"lon":5.41115,"is_reserved":false,"is_disabled":false,"rental_uris":{"android":"levelo://app?vid=71b530dc-16dd-4ef7-b73c-63c1d69cb1d4","ios":"levelo://app?vid=71b530dc-16dd-4ef7-b73c-63c1d69cb1d4"},"vehicle_type_id":"4","last_reported":1758722965,"current_range_meters":18000,"station_id":"ce4bhkp2rcd13ifvqgd0","pricing_plan_id":"cebpf4jnsgd1na2vs0mg"},{"bike_id":"03edc37a-804c-4800-afe6-8ba3f0a005cf","system_id":"levelo_inurba_marseille","lat":43.30273,"lon":5.37694,"is_reserved":false,"is_disabled":false,"rental_uris":{"android":"levelo://app?vid=03edc37a-804c-4800-afe6-8ba3f0a005cf","ios":"levelo://app?vid=03edc37a-804c-4800-afe6-8ba3f0a005cf"},"vehicle_type_id":"4","last_reported":1758722965,"current_range_meters":17600,"station_id":"ce4bguh2rcd13ifvqcj0","pricing_plan_id":"cebpf4jnsgd1na2vs0mg"},{"bike_id":"b33afcb9-323b-4b25-b34a-d7ff770bee10","system_id":"levelo_inurba_marseille","lat":43.27367,"lon":5.36263,"is_reserved":false,"is_disabled":false,"rental_uris":{"android":"levelo://app?vid=b33afcb9-323b-4b25-b34a-d7ff770bee10","ios":"levelo://app?vid=b33afcb9-323b-4b25-b34a-d7ff770bee10"},"vehicle_type_id":"4","last_reported":1758722965,"current_range_meters":18000,"station_id":"ce4bhbh2rcd13ifvqeo0","pricing_plan_id":"cebpf4jnsgd1na2vs0mg"},{"bike_id":"50573c44-2ac7-4362-836c-b45482c5299f","system_id":"levelo_inurba_marseille","lat":43.24631,"lon":5.43143,"is_reserved":false,"is_disabled":false,"rental_uris":{"android":"levelo://app?vid=50573c44-2ac7-4362-836c-b45482c5299f","ios":"levelo://app?vid=50573c44-2ac7-4362-836c-b45482c5299f"},"vehicle_type_id":"4","last_reported":1758722965,"current_range_meters":18000,"station_id":"st_d2m6c4gdas8pm72e190g","pricing_plan_id":"cebpf4jnsgd1na2vs0mg"},{"bike_id":"7f57effa-33de-4b13-b1a9-92ae0044b1d0","system_id":"levelo_inurba_marseille","lat":43.26029,"lon":5.37536,"is_reserved":false,"is_disabled":false,"rental_uris":{"android":"levelo://app?vid=7f57effa-33de-4b13-b1a9-92ae0044b1d0","ios":"levelo://app?vid=7f57effa-33de-4b13-b1a9-92ae0044b1d0"},"vehicle_type_id":"4","last_reported":1758722965,"current_range_meters":18000,"station_id":"ce4bhgh2rcd13ifvqfa0","pricing_plan_id":"cebpf4jnsgd1na2vs0mg"},{"bike_id":"46923300-e0d3-40c1-8c76-7dadc761100f","system_id":"levelo_inurba_marseille","lat":43.29006,"lon":5.35615,"is_reserved":false,"is_disabled":false,"rental_uris":{"android":"levelo://app?vid=46923300-e0d3-40c1-8c76-7dadc761100f","ios":"levelo://app?vid=46923300-e0d3-40c1-8c76-7dadc761100f"},"vehicle_type_id":"4","last_reported":1758722965,"current_range_meters":18000,"station_id":"ce4bhb92rcd13ifvqen0","pricing_plan_id":"cebpf4jnsgd1na2vs0mg"},{"bike_id":"c3fc2c56-8946-4650-8440-7460dd1f0882","system_id":"levelo_inurba_marseille","lat":43.23183,"lon":5.39987,"is_reserved":false,"is_disabled":false,"rental_uris":{"android":"levelo://app?vid=c3fc2c56-8946-4650-8440-7460dd1f0882","ios":"levelo://app?vid=c3fc2c56-8946-4650-8440-7460dd1f0882"},"vehicle_type_id":"4","last_reported":1758722965,"current_range_meters":18000,"station_id":"ce4bhn12rcd13ifvqgqg","pricing_plan_id":"cebpf4jnsgd1na2vs0mg"},{"bike_id":"327c041e-5c9e-4b0d-a97c-a2dbaab036ae","system_id":"levelo_inurba_marseille","lat":43.328014,"lon":5.410806,"is_reserved":false,"is_disabled":false,"rental_uris":{"android":"levelo://app?vid=327c041e-5c9e-4b0d-a97c-a2dbaab036ae","ios":"levelo://app?vid=327c041e-5c9e-4b0d-a97c-a2dbaab036ae"},"vehicle_type_id":"4","last_reported":1758722965,"current_range_meters":18800,"station_id":"","pricing_plan_id":"cebpf4jnsgd1na2vs0mg"},{"bike_id":"c2d0608a-9dcc-4d44-aa49-1bc3c09ad030","system_id":"levelo_inurba_marseille","lat":43.26557,"lon":5.37279,"is_reserved":false,"is_disabled":false,"rental_uris":{"android":"levelo://app?vid=c2d0608a-9dcc-4d44-aa49-1bc3c09ad030","ios":"levelo://app?vid=c2d0608a-9dcc-4d44-aa49-1bc3c09ad030"},"vehicle_type_id":"4","last_reported":1758722965,"current_range_meters":18800,"station_id":"ce4bhg12rcd13ifvqf70","pricing_plan_id":"cebpf4jnsgd1na2vs0mg"},{"bike_id":"41ae190c-df30-4c47-8ccb-497b96aefa71","system_id":"levelo_inurba_marseille","lat":43.24181,"lon":5.39723,"is_reserved":false,"is_disabled":false,"rental_uris":{"android":"levelo://app?vid=41ae190c-df30-4c47-8ccb-497b96aefa71","ios":"levelo://app?vid=41ae190c-df30-4c47-8ccb-497b96aefa71"},"vehicle_type_id":"4","last_reported":1758722965,"current_range_meters":18800,"station_id":"ce4bhn12rcd13ifvqgpg","pricing_plan_id":"cebpf4jnsgd1na2vs0mg"},{"bike_id":"1e81f510-9dc6-41c9-b14a-f8af082fa515","system_id":"levelo_inurba_marseille","lat":43.32335,"lon":5.40621,"is_reserved":false,"is_disabled":false,"rental_uris":{"android":"levelo://app?vid=1e81f510-9dc6-41c9-b14a-f8af082fa515","ios":"levelo://app?vid=1e81f510-9dc6-41c9-b14a-f8af082fa515"},"vehicle_type_id":"4","last_reported":1758722965,"current_range_meters":18800,"station_id":"ce4bhq92rcd13ifvqhjg","pricing_plan_id":"cebpf4jnsgd1na2vs0mg"},{"bike_id":"11182eaf-a16d-40cb-8c86-c6ea8bb58cc5","system_id":"levelo_inurba_marseille","lat":43.28442,"lon":5.39206,"is_reserved":false,"is_disabled":false,"rental_uris":{"android":"levelo://app?vid=11182eaf-a16d-40cb-8c86-c6ea8bb58cc5","ios":"levelo://app?vid=11182eaf-a16d-40cb-8c86-c6ea8bb58cc5"},"vehicle_type_id":"4","last_reported":1758722965,"current_range_meters":18800,"station_id":"ce4bhoh2rcd13ifvqh5g","pricing_plan_id":"cebpf4jnsgd1na2vs0mg"},{"bike_id":"b15170a6-7d67-41e7-ae17-21693ff080a3","system_id":"levelo_inurba_marseille","lat":43.25873,"lon":5.39904,"is_reserved":false,"is_disabled":false,"rental_uris":{"android":"levelo://app?vid=b15170a6-7d67-41e7-ae17-21693ff080a3","ios":"levelo://app?vid=b15170a6-7d67-41e7-ae17-21693ff080a3"},"vehicle_type_id":"4","last_reported":1758722965,"current_range_meters":18800,"station_id":"ce4bhl92rcd13ifvqghg","pricing_plan_id":"cebpf4jnsgd1na2vs0mg"},{"bike_id":"4a5298b6-43e5-4711-b716-d7a5eccec3ad","system_id":"levelo_inurba_marseille","lat":43.297048,"lon":5.366203,"is_reserved":false,"is_disabled":false,"rental_uris":{"android":"levelo://app?vid=4a5298b6-43e5-4711-b716-d7a5eccec3ad","ios":"levelo://app?vid=4a5298b6-43e5-4711-b716-d7a5eccec3ad"},"vehicle_type_id":"4","last_reported":1758722965,"current_range_meters":18800,"station_id":"ce4bgn12rcd13ifvqbt0","pricing_plan_id":"cebpf4jnsgd1na2vs0mg"},{"bike_id":"77d598a6-bfa8-4645-81e0-09e93145a394","system_id":"levelo_inurba_marseille","lat":43.31319,"lon":5.39701,"is_reserved":false,"is_disabled":false,"rental_uris":{"android":"levelo://app?vid=77d598a6-bfa8-4645-81e0-09e93145a394","ios":"levelo://app?vid=77d598a6-bfa8-4645-81e0-09e93145a394"},"vehicle_type_id":"4","last_reported":1758722965,"current_range_meters":18800,"station_id":"ce4bgvp2rcd13ifvqcu0","pricing_plan_id":"cebpf4jnsgd1na2vs0mg"},{"bike_id":"f28ef631-b7b8-4ec4-8d1e-0419bfa21e37","system_id":"levelo_inurba_marseille","lat":43.26495,"lon":5.39537,"is_reserved":false,"is_disabled":false,"rental_uris":{"android":"levelo://app?vid=f28ef631-b7b8-4ec4-8d1e-0419bfa21e37","ios":"levelo://app?vid=f28ef631-b7b8-4ec4-8d1e-0419bfa21e37"},"vehicle_type_id":"4","last_reported":1758722965,"current_range_meters":18800,"station_id":"ce4bhi12rcd13ifvqfq0","pricing_plan_id":"cebpf4jnsgd1na2vs0mg"},{"bike_id":"f3a22335-c495-4497-8be8-4f3154b59bd2","system_id":"levelo_inurba_marseille","lat":43.28099,"lon":5.37836,"is_reserved":false,"is_disabled":false,"rental_uris":{"android":"levelo://app?vid=f3a22335-c495-4497-8be8-4f3154b59bd2","ios":"levelo://app?vid=f3a22335-c495-4497-8be8-4f3154b59bd2"},"vehicle_type_id":"4","last_reported":1758722965,"current_range_meters":18000,"station_id":"ce4bha12rcd13ifvqee0","pricing_plan_id":"cebpf4jnsgd1na2vs0mg"},{"bike_id":"a34f5652-c2ea-483e-aab1-ad5cb453ed77","system_id":"levelo_inurba_marseille","lat":43.29796,"lon":5.40393,"is_reserved":false,"is_disabled":false,"rental_uris":{"android":"levelo://app?vid=a34f5652-c2ea-483e-aab1-ad5cb453ed77","ios":"levelo://app?vid=a34f5652-c2ea-483e-aab1-ad5cb453ed77"},"vehicle_type_id":"4","last_reported":1758722965,"current_range_meters":18800,"station_id":"ce4bh112rcd13ifvqd90","pricing_plan_id":"cebpf4jnsgd1na2vs0mg"},{"bike_id":"fa0257ae-60fe-44c2-b296-146368fccbd5","system_id":"levelo_inurba_marseille","lat":43.30558,"lon":5.36701,"is_reserved":false,"is_disabled":false,"rental_uris":{"android":"levelo://app?vid=fa0257ae-60fe-44c2-b296-146368fccbd5","ios":"levelo://app?vid=fa0257ae-60fe-44c2-b296-146368fccbd5"},"vehicle_type_id":"4","last_reported":1758722965,"current_range_meters":18800,"station_id":"ce4bgrp2rcd13ifvqc9g","pricing_plan_id":"cebpf4jnsgd1na2vs0mg"},{"bike_id":"5322b043-8e04-43f8-8f1a-42a251b03c72","system_id":"levelo_inurba_marseille","lat":43.31169,"lon":5.38722,"is_reserved":false,"is_disabled":false,"rental_uris":{"android":"levelo://app?vid=5322b043-8e04-43f8-8f1a-42a251b03c72","ios":"levelo://app?vid=5322b043-8e04-43f8-8f1a-42a251b03c72"},"vehicle_type_id":"4","last_reported":1758722965,"current_range_meters":18800,"station_id":"ce4bgv12rcd13ifvqcp0","pricing_plan_id":"cebpf4jnsgd1na2vs0mg"},{"bike_id":"e36db1cf-e24d-4169-9bb9-2be9d199371d","system_id":"levelo_inurba_marseille","lat":43.24545,"lon":5.39502,"is_reserved":false,"is_disabled":false,"rental_uris":{"android":"levelo://app?vid=e36db1cf-e24d-4169-9bb9-2be9d199371d","ios":"levelo://app?vid=e36db1cf-e24d-4169-9bb9-2be9d199371d"},"vehicle_type_id":"4","last_reported":1758722965,"current_range_meters":18800,"station_id":"ce4bhlp2rcd13ifvqgjg","pricing_plan_id":"cebpf4jnsgd1na2vs0mg"},{"bike_id":"8f7d6830-a893-4944-880b-b3f683de5c0e","system_id":"levelo_inurba_marseille","lat":43.30572,"lon":5.37167,"is_reserved":false,"is_disabled":false,"rental_uris":{"android":"levelo://app?vid=8f7d6830-a893-4944-880b-b3f683de5c0e","ios":"levelo://app?vid=8f7d6830-a893-4944-880b-b3f683de5c0e"},"vehicle_type_id":"4","last_reported":1758722965,"current_range_meters":19200,"station_id":"","pricing_plan_id":"cebpf4jnsgd1na2vs0mg"},{"bike_id":"699adbfa-d5ba-44cd-ad2b-5f7b4cf9dfde","system_id":"levelo_inurba_marseille","lat":43.27686,"lon":5.38906,"is_reserved":false,"is_disabled":false,"rental_uris":{"android":"levelo://app?vid=699adbfa-d5ba-44cd-ad2b-5f7b4cf9dfde","ios":"levelo://app?vid=699adbfa-d5ba-44cd-ad2b-5f7b4cf9dfde"},"vehicle_type_id":"4","last_reported":1758722965,"current_range_meters":19200,"station_id":"ce4bhi12rcd13ifvqfo0","pricing_plan_id":"cebpf4jnsgd1na2vs0mg"},{"bike_id":"f897d300-643c-4c7a-951b-f56d70ef23ca","system_id":"levelo_inurba_marseille","lat":43.30319,"lon":5.39079,"is_reserved":false,"is_disabled":false,"rental_uris":{"android":"levelo://app?vid=f897d300-643c-4c7a-951b-f56d70ef23ca","ios":"levelo://app?vid=f897d300-643c-4c7a-951b-f56d70ef23ca"},"vehicle_type_id":"4","last_reported":1758722965,"current_range_meters":19200,"station_id":"","pricing_plan_id":"cebpf4jnsgd1na2vs0mg"},{"bike_id":"b5775aa0-5576-4774-b89d-e7e9b76567e4","system_id":"levelo_inurba_marseille","lat":43.29049,"lon":5.35908,"is_reserved":false,"is_disabled":false,"rental_uris":{"android":"levelo://app?vid=b5775aa0-5576-4774-b89d-e7e9b76567e4","ios":"levelo://app?vid=b5775aa0-5576-4774-b89d-e7e9b76567e4"},"vehicle_type_id":"4","last_reported":1758722965,"current_range_meters":19200,"station_id":"ce4bha92rcd13ifvqeg0","pricing_plan_id":"cebpf4jnsgd1na2vs0mg"},{"bike_id":"725b1ff1-3894-44f1-a38e-91bc39cbab7e","system_id":"levelo_inurba_marseille","lat":43.24655,"lon":5.43112,"is_reserved":false,"is_disabled":false,"rental_uris":{"android":"levelo://app?vid=725b1ff1-3894-44f1-a38e-91bc39cbab7e","ios":"levelo://app?vid=725b1ff1-3894-44f1-a38e-91bc39cbab7e"},"vehicle_type_id":"4","last_reported":1758722965,"current_range_meters":19200,"station_id":"st_d2m6c4gdas8pm72e190g","pricing_plan_id":"cebpf4jnsgd1na2vs0mg"},{"bike_id":"175760d5-253d-4692-91bd-1ac0c3f225e0","system_id":"levelo_inurba_marseille","lat":43.30888,"lon":5.39638,"is_reserved":false,"is_disabled":false,"rental_uris":{"android":"levelo://app?vid=175760d5-253d-4692-91bd-1ac0c3f225e0","ios":"levelo://app?vid=175760d5-253d-4692-91bd-1ac0c3f225e0"},"vehicle_type_id":"4","last_reported":1758722965,"current_range_meters":19200,"station_id":"ce4bh012rcd13ifvqcv0","pricing_plan_id":"cebpf4jnsgd1na2vs0mg"},{"bike_id":"0c16ac8a-a536-4d89-a0b4-2803631fd83e","system_id":"levelo_inurba_marseille","lat":43.249946,"lon":5.389446,"is_reserved":false,"is_disabled":false,"rental_uris":{"android":"levelo://app?vid=0c16ac8a-a536-4d89-a0b4-2803631fd83e","ios":"levelo://app?vid=0c16ac8a-a536-4d89-a0b4-2803631fd83e"},"vehicle_type_id":"4","last_reported":1758722965,"current_range_meters":19200,"station_id":"ce4bhgp2rcd13ifvqfd0","pricing_plan_id":"cebpf4jnsgd1na2vs0mg"},{"bike_id":"f799cfee-8db6-47d0-9211-1dd04a3e1a27","system_id":"levelo_inurba_marseille","lat":43.2418,"lon":5.3972,"is_reserved":false,"is_disabled":true,"rental_uris":{"android":"levelo://app?vid=f799cfee-8db6-47d0-9211-1dd04a3e1a27","ios":"levelo://app?vid=f799cfee-8db6-47d0-9211-1dd04a3e1a27"},"vehicle_type_id":"4","last_reported":1758722965,"current_range_meters":19200,"station_id":"ce4bhn12rcd13ifvqgpg","pricing_plan_id":"cebpf4jnsgd1na2vs0mg"},{"bike_id":"9731c5f2-c83c-4784-ba48-09e4718a2188","system_id":"levelo_inurba_marseille","lat":43.21191,"lon":5.3507,"is_reserved":false,"is_disabled":false,"rental_uris":{"android":"levelo://app?vid=9731c5f2-c83c-4784-ba48-09e4718a2188","ios":"levelo://app?vid=9731c5f2-c83c-4784-ba48-09e4718a2188"},"vehicle_type_id":"4","last_reported":1758722965,"current_range_meters":19200,"station_id":"st_cvj6sg6p6f1abm77japg","pricing_plan_id":"cebpf4jnsgd1na2vs0mg"},{"bike_id":"21bec37d-c496-4274-b764-adc4cae019ab","system_id":"levelo_inurba_marseille","lat":43.30124,"lon":5.37472,"is_reserved":false,"is_disabled":false,"rental_uris":{"android":"levelo://app?vid=21bec37d-c496-4274-b764-adc4cae019ab","ios":"levelo://app?vid=21bec37d-c496-4274-b764-adc4cae019ab"},"vehicle_type_id":"4","last_reported":1758722965,"current_range_meters":19200,"station_id":"","pricing_plan_id":"cebpf4jnsgd1na2vs0mg"},{"bike_id":"d31d856a-933d-49cf-948f-ce03657dfc74","system_id":"levelo_inurba_marseille","lat":43.28411,"lon":5.34959,"is_reserved":false,"is_disabled":false,"rental_uris":{"android":"levelo://app?vid=d31d856a-933d-49cf-948f-ce03657dfc74","ios":"levelo://app?vid=d31d856a-933d-49cf-948f-ce03657dfc74"},"vehicle_type_id":"4","last_reported":1758722965,"current_range_meters":19200,"station_id":"ce4bhbh2rcd13ifvqepg","pricing_plan_id":"cebpf4jnsgd1na2vs0mg"},{"bike_id":"70209913-e287-4d0e-9ea3-4351633deb67","system_id":"levelo_inurba_marseille","lat":43.25493,"lon":5.37656,"is_reserved":false,"is_disabled":false,"rental_uris":{"android":"levelo://app?vid=70209913-e287-4d0e-9ea3-4351633deb67","ios":"levelo://app?vid=70209913-e287-4d0e-9ea3-4351633deb67"},"vehicle_type_id":"4","last_reported":1758722965,"current_range_meters":18800,"station_id":"ce4bhh12rcd13ifvqff0","pricing_plan_id":"cebpf4jnsgd1na2vs0mg"},{"bike_id":"c4f0d918-cd79-4a37-8a0c-f22ee4bf7661","system_id":"levelo_inurba_marseille","lat":43.30093,"lon":5.39081,"is_reserved":false,"is_disabled":false,"rental_uris":{"android":"levelo://app?vid=c4f0d918-cd79-4a37-8a0c-f22ee4bf7661","ios":"levelo://app?vid=c4f0d918-cd79-4a37-8a0c-f22ee4bf7661"},"vehicle_type_id":"4","last_reported":1758722965,"current_range_meters":19200,"station_id":"ce4bh192rcd13ifvqdb0","pricing_plan_id":"cebpf4jnsgd1na2vs0mg"},{"bike_id":"cc66689e-c1ab-4557-9bbb-3c7c6f0f0e7d","system_id":"levelo_inurba_marseille","lat":43.28661,"lon":5.36363,"is_reserved":false,"is_disabled":false,"rental_uris":{"android":"levelo://app?vid=cc66689e-c1ab-4557-9bbb-3c7c6f0f0e7d","ios":"levelo://app?vid=cc66689e-c1ab-4557-9bbb-3c7c6f0f0e7d"},"vehicle_type_id":"4","last_reported":1758722965,"current_range_meters":19200,"station_id":"ce4bhah2rcd13ifvqej0","pricing_plan_id":"cebpf4jnsgd1na2vs0mg"},{"bike_id":"6de6856e-896d-4ec5-960f-771b49a61ee1","system_id":"levelo_inurba_marseille","lat":43.27315,"lon":5.39071,"is_reserved":false,"is_disabled":false,"rental_uris":{"android":"levelo://app?vid=6de6856e-896d-4ec5-960f-771b49a61ee1","ios":"levelo://app?vid=6de6856e-896d-4ec5-960f-771b49a61ee1"},"vehicle_type_id":"4","last_reported":1758722965,"current_range_meters":19600,"station_id":"ce4bhgp2rcd13ifvqfe0","pricing_plan_id":"cebpf4jnsgd1na2vs0mg"},{"bike_id":"d55f7cff-ce18-4107-992e-8cb8fb12b05f","system_id":"levelo_inurba_marseille","lat":43.23191,"lon":5.35546,"is_reserved":false,"is_disabled":false,"rental_uris":{"android":"levelo://app?vid=d55f7cff-ce18-4107-992e-8cb8fb12b05f","ios":"levelo://app?vid=d55f7cff-ce18-4107-992e-8cb8fb12b05f"},"vehicle_type_id":"4","last_reported":1758722965,"current_range_meters":19600,"station_id":"ce4bhu92rcd13ifvqi70","pricing_plan_id":"cebpf4jnsgd1na2vs0mg"},{"bike_id":"f89b10aa-da6e-4e16-b986-0f4efc57cde4","system_id":"levelo_inurba_marseille","lat":43.29275,"lon":5.36859,"is_reserved":false,"is_disabled":false,"rental_uris":{"android":"levelo://app?vid=f89b10aa-da6e-4e16-b986-0f4efc57cde4","ios":"levelo://app?vid=f89b10aa-da6e-4e16-b986-0f4efc57cde4"},"vehicle_type_id":"4","last_reported":1758722965,"current_range_meters":19600,"station_id":"ce4bhbp2rcd13ifvqesg","pricing_plan_id":"cebpf4jnsgd1na2vs0mg"},