{"last_updated":1737619955,"ttl":60,"version":"2.2","data":{"bikes":[{"bike_id":"bc87ebb9-79d8-48ae-98f1-73024abdc038","system_id":"levelo_inurba_marseille","lat":43.29207,"lon":5.36058,"is_reserved":false,"is_disabled":true,"rental_uris":{"android":"levelo://app?vid=bc87ebb9-79d8-48ae-98f1-73024abdc038","ios":"levelo://app?vid=bc87ebb9-79d8-48ae-98f1-73024abdc038"},"vehicle_type_id":"4","last_reported":1737619955,"current_range_meters":0,"station_id":"ce4bhbh2rcd13ifvqeqg","pricing_plan_id":"cebpf4jnsgd1na2vs0mg"},{"bike_id":"ec1f4643-15ab-4265-9664-42af5b0f443e","system_id":"levelo_inurba_marseille","lat":43.3059,"lon":5.39327,"is_reserved":false,"is_disabled":false,"rental_uris":{"android":"levelo://app?vid=ec1f4643-15ab-4265-9664-42af5b0f443e","ios":"levelo://app?vid=ec1f4643-15ab-4265-9664-42af5b0f443e"},"vehicle_type_id":"4","last_reported":1737619955,"current_range_meters":24000,"station_id":"ce4bh0p2rcd13ifvqd80","pricing_plan_id":"cebpf4jnsgd1na2vs0mg"},{"bike_id":"e7a9d219-cbd7-47d5-a273-74e1a09eebd1","system_id":"levelo_inurba_marseille","lat":43.32448,"lon":5.36588,"is_reserved":false,"is_disabled":false,"rental_uris":{"android":"levelo://app?vid=e7a9d219-cbd7-47d5-a273-74e1a09eebd1","ios":"levelo://app?vid=e7a9d219-cbd7-47d5-a273-74e1a09eebd1"},"vehicle_type_id":"4","last_reported":1737619955,"current_range_meters":16400,"station_id":"ce4bhs12rcd13ifvqhvg","pricing_plan_id":"cebpf4jnsgd1na2vs0mg"},{"bike_id":"70314a71-0fd0-4233-9ca2-a1a82654f85f","system_id":"levelo_inurba_marseille","lat":43.280029,"lon":5.400042,"is_reserved":false,"is_disabled":false,"rental_uris":{"android":"levelo://app?vid=70314a71-0fd0-4233-9ca2-a1a82654f85f","ios":"levelo://app?vid=70314a71-0fd0-4233-9ca2-a1a82654f85f"},"vehicle_type_id":"4","last_reported":1737619955,"current_range_meters":35200,"station_id":"ce4bho92rcd13ifvqh4g","pricing_plan_id":"cebpf4jnsgd1na2vs0mg"},{"bike_id":"5b74ddfe-8892-46b5-8064-fcc9f1188889","system_id":"levelo_inurba_marseille","lat":43.30448,"lon":5.37907,"is_reserved":false,"is_disabled":false,"rental_uris":{"android":"levelo://app?vid=5b74ddfe-8892-46b5-8064-fcc9f1188889","ios":"levelo://app?vid=5b74ddfe-8892-46b5-8064-fcc9f1188889"},"vehicle_type_id":"4","last_reported":1737619955,"current_range_meters":25200,"station_id":"ce4bgup2rcd13ifvqcn0","pricing_plan_id":"cebpf4jnsgd1na2vs0mg"},{"bike_id":"cc01a69d-a58e-43ce-8178-1c56f048940e","system_id":"levelo_inurba_marseille","lat":43.23153,"lon":5.43715,"is_reserved":false,"is_disabled":false,"rental_uris":{"android":"levelo://app?vid=cc01a69d-a58e-43ce-8178-1c56f048940e","ios":"levelo://app?vid=cc01a69d-a58e-43ce-8178-1c56f048940e"},"vehicle_type_id":"4","last_reported":1737619955,"current_range_meters":6800,"station_id":"ce4bhmp2rcd13ifvqgog","pricing_plan_id":"cebpf4jnsgd1na2vs0mg"},{"bike_id":"9d3a46e0-8be9-4564-b938-0cf12747b06b","system_id":"levelo_inurba_marseille","lat":43.30554,"lon":5.39334,"is_reserved":false,"is_disabled":false,"rental_uris":{"android":"levelo://app?vid=9d3a46e0-8be9-4564-b938-0cf12747b06b","ios":"levelo://app?vid=9d3a46e0-8be9-4564-b938-0cf12747b06b"},"vehicle_type_id":"4","last_reported":1737619955,"current_range_meters":34800,"station_id":"","pricing_plan_id":"cebpf4jnsgd1na2vs0mg"},{"bike_id":"52bfe84c-e6b2-45c9-a02c-0a086a3b4c79","system_id":"levelo_inurba_marseille","lat":43.32459,"lon":5.36591,"is_reserved":false,"is_disabled":false,"rental_uris":{"android":"levelo://app?vid=52bfe84c-e6b2-45c9-a02c-0a086a3b4c79","ios":"levelo://app?vid=52bfe84c-e6b2-45c9-a02c-0a086a3b4c79"},"vehicle_type_id":"4","last_reported":1737619955,"current_range_meters":10000,"station_id":"ce4bhs12rcd13ifvqhvg","pricing_plan_id":"cebpf4jnsgd1na2vs0mg"},{"bike_id":"f9509cf3-61c9-4e98-a3dc-ab6e052fedb5","system_id":"levelo_inurba_marseille","lat":43.24071,"lon":5.37745,"is_reserved":false,"is_disabled":false,"rental_uris":{"android":"levelo://app?vid=f9509cf3-61c9-4e98-a3dc-ab6e052fedb5","ios":"levelo://app?vid=f9509cf3-61c9-4e98-a3dc-ab6e052fedb5"},"vehicle_type_id":"4","last_reported":1737619955,"current_range_meters":39200,"station_id":"ce4bhnp2rcd13ifvqgvg","pricing_plan_id":"cebpf4jnsgd1na2vs0mg"},{"bike_id":"024ac1b6-7c92-4f9f-8832-c59077a33f31","system_id":"levelo_inurba_marseille","lat":43.31303,"lon":5.36712,"is_reserved":false,"is_disabled":false,"rental_uris":{"android":"levelo://app?vid=024ac1b6-7c92-4f9f-8832-c59077a33f31","ios":"levelo://app?vid=024ac1b6-7c92-4f9f-8832-c59077a33f31"},"vehicle_type_id":"4","last_reported":1737619955,"current_range_meters":38800,"station_id":"ce4bgr92rcd13ifvqc6g","pricing_plan_id":"cebpf4jnsgd1na2vs0mg"},{"bike_id":"60cbe3d7-e4b4-4986-afa1-ce2c48a0013d","system_id":"levelo_inurba_marseille","lat":43.30143,"lon":5.38086,"is_reserved":false,"is_disabled":false,"rental_uris":{"android":"levelo://app?vid=60cbe3d7-e4b4-4986-afa1-ce2c48a0013d","ios":"levelo://app?vid=60cbe3d7-e4b4-4986-afa1-ce2c48a0013d"},"vehicle_type_id":"4","last_reported":1737619955,"current_range_meters":31200,"station_id":"ce4bgjp2rcd13ifvqbh0","pricing_plan_id":"cebpf4jnsgd1na2vs0mg"},{"bike_id":"c4506175-ea91-45a6-b284-80102913496f","system_id":"levelo_inurba_marseille","lat":43.33023,"lon":5.39049,"is_reserved":false,"is_disabled":false,"rental_uris":{"android":"levelo://app?vid=c4506175-ea91-45a6-b284-80102913496f","ios":"levelo://app?vid=c4506175-ea91-45a6-b284-80102913496f"},"vehicle_type_id":"4","last_reported":1737619955,"current_range_meters":38400,"station_id":"ce4bhr92rcd13ifvqhrg","pricing_plan_id":"cebpf4jnsgd1na2vs0mg"},{"bike_id":"b126104c-e6d4-4c5a-a16e-65b5434afcb0","system_id":"levelo_inurba_marseille","lat":43.27965,"lon":5.38727,"is_reserved":false,"is_disabled":false,"rental_uris":{"android":"levelo://app?vid=b126104c-e6d4-4c5a-a16e-65b5434afcb0","ios":"levelo://app?vid=b126104c-e6d4-4c5a-a16e-65b5434afcb0"},"vehicle_type_id":"4","last_reported":1737619955,"current_range_meters":36000,"station_id":"ce4bhg12rcd13ifvqf80","pricing_plan_id":"cebpf4jnsgd1na2vs0mg"},{"bike_id":"47a5c903-d960-4eec-b908-6451b150f9f7","system_id":"levelo_inurba_marseille","lat":43.24073,"lon":5.37801,"is_reserved":false,"is_disabled":false,"rental_uris":{"android":"levelo://app?vid=47a5c903-d960-4eec-b908-6451b150f9f7","ios":"levelo://app?vid=47a5c903-d960-4eec-b908-6451b150f9f7"},"vehicle_type_id":"4","last_reported":1737619955,"current_range_meters":39200,"station_id":"ce4bhnp2rcd13ifvqgvg","pricing_plan_id":"cebpf4jnsgd1na2vs0mg"},{"bike_id":"94943d0b-fa0d-4580-bbbe-efd5ef7302e8","system_id":"levelo_inurba_marseille","lat":43.30448,"lon":5.38892,"is_reserved":false,"is_disabled":false,"rental_uris":{"android":"levelo://app?vid=94943d0b-fa0d-4580-bbbe-efd5ef7302e8","ios":"levelo://app?vid=94943d0b-fa0d-4580-bbbe-efd5ef7302e8"},"vehicle_type_id":"4","last_reported":1737619955,"current_range_meters":38400,"station_id":"","pricing_plan_id":"cebpf4jnsgd1na2vs0mg"},{"bike_id":"7804b929-ed00-42ff-895a-3c80f1a7e999","system_id":"levelo_inurba_marseille","lat":43.26562,"lon":5.39005,"is_reserved":false,"is_disabled":false,"rental_uris":{"android":"levelo://app?vid=7804b929-ed00-42ff-895a-3c80f1a7e999","ios":"levelo://app?vid=7804b929-ed00-42ff-895a-3c80f1a7e999"},"vehicle_type_id":"4","last_reported":1737619955,"current_range_meters":29600,"station_id":"ce4bhe12rcd13ifvqf30","pricing_plan_id":"cebpf4jnsgd1na2vs0mg"},{"bike_id":"30ed2cc6-f71f-42ec-a788-fecd9edec9ce","system_id":"levelo_inurba_marseille","lat":43.30946,"lon":5.3903,"is_reserved":false,"is_disabled":false,"rental_uris":{"android":"levelo://app?vid=30ed2cc6-f71f-42ec-a788-fecd9edec9ce","ios":"levelo://app?vid=30ed2cc6-f71f-42ec-a788-fecd9edec9ce"},"vehicle_type_id":"4","last_reported":1737619955,"current_range_meters":8400,"station_id":"ce4bgup2rcd13ifvqco0","pricing_plan_id":"cebpf4jnsgd1na2vs0mg"},{"bike_id":"c8b7aed7-c47b-4197-99ca-6b34bfddf40f","system_id":"levelo_inurba_marseille","lat":43.24075,"lon":5.37756,"is_reserved":false,"is_disabled":false,"rental_uris":{"android":"levelo://app?vid=c8b7aed7-c47b-4197-99ca-6b34bfddf40f","ios":"levelo://app?vid=c8b7aed7-c47b-4197-99ca-6b34bfddf40f"},"vehicle_type_id":"4","last_reported":1737619955,"current_range_meters":34000,"station_id":"ce4bhnp2rcd13ifvqgvg","pricing_plan_id":"cebpf4jnsgd1na2vs0mg"},{"bike_id":"b8f625b4-c025-49b7-be32-8fa0a50c8883","system_id":"levelo_inurba_marseille","lat":43.30131,"lon":5.38777,"is_reserved":false,"is_disabled":true,"rental_uris":{"android":"levelo://app?vid=b8f625b4-c025-49b7-be32-8fa0a50c8883","ios":"levelo://app?vid=b8f625b4-c025-49b7-be32-8fa0a50c8883"},"vehicle_type_id":"4","last_reported":1737619955,"current_range_meters":0,"station_id":"ce4bghh2rcd13ifvqb60","pricing_plan_id":"cebpf4jnsgd1na2vs0mg"},{"bike_id":"2a80df51-a758-43ec-8377-7504eaafab77","system_id":"levelo_inurba_marseille","lat":43.2594,"lon":5.40908,"is_reserved":false,"is_disabled":false,"rental_uris":{"android":"levelo://app?vid=2a80df51-a758-43ec-8377-7504eaafab77","ios":"levelo://app?vid=2a80df51-a758-43ec-8377-7504eaafab77"},"vehicle_type_id":"4","last_reported":1737619955,"current_range_meters":12000,"station_id":"ce4bhm92rcd13ifvqglg","pricing_plan_id":"cebpf4jnsgd1na2vs0mg"},{"bike_id":"4300813b-143b-441a-abfa-d51d92e6780f","system_id":"levelo_inurba_marseille","lat":43.30144,"lon":5.37431,"is_reserved":false,"is_disabled":false,"rental_uris":{"android":"levelo://app?vid=4300813b-143b-441a-abfa-d51d92e6780f","ios":"levelo://app?vid=4300813b-143b-441a-abfa-d51d92e6780f"},"vehicle_type_id":"4","last_reported":1737619955,"current_range_meters":34800,"station_id":"ce4bgs92rcd13ifvqcc0","pricing_plan_id":"cebpf4jnsgd1na2vs0mg"},{"bike_id":"9352dfd8-df55-4db8-9310-9f3e42635e3a","system_id":"levelo_inurba_marseille","lat":43.3091,"lon":5.36862,"is_reserved":false,"is_disabled":false,"rental_uris":{"android":"levelo://app?vid=9352dfd8-df55-4db8-9310-9f3e42635e3a","ios":"levelo://app?vid=9352dfd8-df55-4db8-9310-9f3e42635e3a"},"vehicle_type_id":"4","last_reported":1737619955,"current_range_meters":37600,"station_id":"ce4bgn92rcd13ifvqbvg","pricing_plan_id":"cebpf4jnsgd1na2vs0mg"},{"bike_id":"4b99948f-ea48-4383-875e-b58ed823d600","system_id":"levelo_inurba_marseille","lat":43.30529,"lon":5.367113,"is_reserved":false,"is_disabled":false,"rental_uris":{"android":"levelo://app?vid=4b99948f-ea48-4383-875e-b58ed823d600","ios":"levelo://app?vid=4b99948f-ea48-4383-875e-b58ed823d600"},"vehicle_type_id":"4","last_reported":1737619955,"current_range_meters":38800,"station_id":"ce4bgrp2rcd13ifvqc9g","pricing_plan_id":"cebpf4jnsgd1na2vs0mg"},{"bike_id":"200411d3-16a5-4fb8-b9aa-3ea0d5c182ed","system_id":"levelo_inurba_marseille","lat":43.28927,"lon":5.36647,"is_reserved":false,"is_disabled":true,"rental_uris":{"android":"levelo://app?vid=200411d3-16a5-4fb8-b9aa-3ea0d5c182ed","ios":"levelo://app?vid=200411d3-16a5-4fb8-b9aa-3ea0d5c182ed"},"vehicle_type_id":"4","last_reported":1737619955,"current_range_meters":2800,"station_id":"ce4bhap2rcd13ifvqek0","pricing_plan_id":"cebpf4jnsgd1na2vs0mg"},{"bike_id":"d558efa3-0468-430b-a0f1-01100ffa09d3","system_id":"levelo_inurba_marseille","lat":43.28925,"lon":5.363895,"is_reserved":false,"is_disabled":false,"rental_uris":{"android":"levelo://app?vid=d558efa3-0468-430b-a0f1-01100ffa09d3","ios":"levelo://app?vid=d558efa3-0468-430b-a0f1-01100ffa09d3"},"vehicle_type_id":"4","last_reported":1737619955,"current_range_meters":25200,"station_id":"ce4bhc92rcd13ifvqetg","pricing_plan_id":"cebpf4jnsgd1na2vs0mg"},{"bike_id":"e38da209-d8d9-4680-be99-11d1954272ef","system_id":"levelo_inurba_marseille","lat":43.26199,"lon":5.37928,"is_reserved":false,"is_disabled":false,"rental_uris":{"android":"levelo://app?vid=e38da209-d8d9-4680-be99-11d1954272ef","ios":"levelo://app?vid=e38da209-d8d9-4680-be99-11d1954272ef"},"vehicle_type_id":"4","last_reported":1737619955,"current_range_meters":37600,"station_id":"ce4bhjp2rcd13ifvqg90","pricing_plan_id":"cebpf4jnsgd1na2vs0mg"},{"bike_id":"6ad47dbb-1db8-4940-b519-8440eb04d249","system_id":"levelo_inurba_marseille","lat":43.31066,"lon":5.38348,"is_reserved":false,"is_disabled":true,"rental_uris":{"android":"levelo://app?vid=6ad47dbb-1db8-4940-b519-8440eb04d249","ios":"levelo://app?vid=6ad47dbb-1db8-4940-b519-8440eb04d249"},"vehicle_type_id":"4","last_reported":1737619955,"current_range_meters":21600,"station_id":"ce4bgv92rcd13ifvqcr0","pricing_plan_id":"cebpf4jnsgd1na2vs0mg"},{"bike_id":"26c0cbe0-3213-434e-8381-2a4462d46fa1","system_id":"levelo_inurba_marseille","lat":43.24995,"lon":5.38932,"is_reserved":false,"is_disabled":false,"rental_uris":{"android":"levelo://app?vid=26c0cbe0-3213-434e-8381-2a4462d46fa1","ios":"levelo://app?vid=26c0cbe0-3213-434e-8381-2a4462d46fa1"},"vehicle_type_id":"4","last_reported":1737619955,"current_range_meters":24400,"station_id":"ce4bhgp2rcd13ifvqfd0","pricing_plan_id":"cebpf4jnsgd1na2vs0mg"},{"bike_id":"5d4fa761-e480-4599-a18e-55917918b6b9","system_id":"levelo_inurba_marseille","lat":43.23151,"lon":5.43716,"is_reserved":false,"is_disabled":false,"rental_uris":{"android":"levelo://app?vid=5d4fa761-e480-4599-a18e-55917918b6b9","ios":"levelo://app?vid=5d4fa761-e480-4599-a18e-55917918b6b9"},"vehicle_type_id":"4","last_reported":1737619955,"current_range_meters":18800,"station_id":"ce4bhmp2rcd13ifvqgog","pricing_plan_id":"cebpf4jnsgd1na2vs0mg"},{"bike_id":"143be6c7-efad-4491-92ee-bf3f01173a41","system_id":"levelo_inurba_marseille","lat":43.30466,"lon":5.37903,"is_reserved":false,"is_disabled":false,"rental_uris":{"android":"levelo://app?vid=143be6c7-efad-4491-92ee-bf3f01173a41","ios":"levelo://app?vid=143be6c7-efad-4491-92ee-bf3f01173a41"},"vehicle_type_id":"4","last_reported":1737619955,"current_range_meters":39200,"station_id":"ce4bgup2rcd13ifvqcn0","pricing_plan_id":"cebpf4jnsgd1na2vs0mg"},{"bike_id":"0e0ec743-12a7-4dc0-a341-3033ac879545","system_id":"levelo_inurba_marseille","lat":43.30932,"lon":5.40145,"is_reserved":false,"is_disabled":false,"rental_uris":{"android":"levelo://app?vid=0e0ec743-12a7-4dc0-a341-3033ac879545","ios":"levelo://app?vid=0e0ec743-12a7-4dc0-a341-3033ac879545"},"vehicle_type_id":"4","last_reported":1737619955,"current_range_meters":31200,"station_id":"ce4bgvp2rcd13ifvqct0","pricing_plan_id":"cebpf4jnsgd1na2vs0mg"},{"bike_id":"7cb5b496-b8e3-4b2c-8f57-0429e4aad202","system_id":"levelo_inurba_marseille","lat":43.30931,"lon":5.40153,"is_reserved":false,"is_disabled":false,"rental_uris":{"android":"levelo://app?vid=7cb5b496-b8e3-4b2c-8f57-0429e4aad202","ios":"levelo://app?vid=7cb5b496-b8e3-4b2c-8f57-0429e4aad202"},"vehicle_type_id":"4","last_reported":1737619955,"current_range_meters":30400,"station_id":"ce4bgvp2rcd13ifvqct0","pricing_plan_id":"cebpf4jnsgd1na2vs0mg"},{"bike_id":"c65b8e5d-a676-4874-8587-2742df870329","system_id":"levelo_inurba_marseille","lat":43.30907,"lon":5.36841,"is_reserved":false,"is_disabled":false,"rental_uris":{"android":"levelo://app?vid=c65b8e5d-a676-4874-8587-2742df870329","ios":"levelo://app?vid=c65b8e5d-a676-4874-8587-2742df870329"},"vehicle_type_id":"4","last_reported":1737619955,"current_range_meters":23200,"station_id":"ce4bgn92rcd13ifvqbvg","pricing_plan_id":"cebpf4jnsgd1na2vs0mg"},{"bike_id":"f8933603-da2b-4b96-b41d-26a1185026e6","system_id":"levelo_inurba_marseille","lat":43.30463,"lon":5.379096,"is_reserved":false,"is_disabled":false,"rental_uris":{"android":"levelo://app?vid=f8933603-da2b-4b96-b41d-26a1185026e6","ios":"levelo://app?vid=f8933603-da2b-4b96-b41d-26a1185026e6"},"vehicle_type_id":"4","last_reported":1737619955,"current_range_meters":36400,"station_id":"ce4bgup2rcd13ifvqcn0","pricing_plan_id":"cebpf4jnsgd1na2vs0mg"},{"bike_id":"64256b04-b789-4708-9332-ac1125bd3a09","system_id":"levelo_inurba_marseille","lat":43.27632,"lon":5.3607,"is_reserved":false,"is_disabled":false,"rental_uris":{"android":"levelo://app?vid=64256b04-b789-4708-9332-ac1125bd3a09","ios":"levelo://app?vid=64256b04-b789-4708-9332-ac1125bd3a09"},"vehicle_type_id":"4","last_reported":1737619955,"current_range_meters":38000,"station_id":"ce4bgj92rcd13ifvqbe0","pricing_plan_id":"cebpf4jnsgd1na2vs0mg"},{"bike_id":"9885c3b6-bcd1-4482-97df-d738948a9fd6","system_id":"levelo_inurba_marseille","lat":43.33605,"lon":5.41029,"is_reserved":false,"is_disabled":false,"rental_uris":{"android":"levelo://app?vid=9885c3b6-bcd1-4482-97df-d738948a9fd6","ios":"levelo://app?vid=9885c3b6-bcd1-4482-97df-d738948a9fd6"},"vehicle_type_id":"4","last_reported":1737619955,"current_range_meters":26000,"station_id":"ce4bhqh2rcd13ifvqhmg","pricing_plan_id":"cebpf4jnsgd1na2vs0mg"},{"bike_id":"ef495d23-376b-4ac9-96c9-7108858003ef","system_id":"levelo_inurba_marseille","lat":43.3089,"lon":5.37208,"is_reserved":false,"is_disabled":false,"rental_uris":{"android":"levelo://app?vid=ef495d23-376b-4ac9-96c9-7108858003ef","ios":"levelo://app?vid=ef495d23-376b-4ac9-96c9-7108858003ef"},"vehicle_type_id":"4","last_reported":1737619955,"current_range_meters":33200,"station_id":"ce4bguh2rcd13ifvqckg","pricing_plan_id":"cebpf4jnsgd1na2vs0mg"},{"bike_id":"4a1877ac-0eba-4d1d-a5b6-5c57a0d326b7","system_id":"levelo_inurba_marseille","lat":43.31075,"lon":5.42439,"is_reserved":false,"is_disabled":false,"rental_uris":{"android":"levelo://app?vid=4a1877ac-0eba-4d1d-a5b6-5c57a0d326b7","ios":"levelo://app?vid=4a1877ac-0eba-4d1d-a5b6-5c57a0d326b7"},"vehicle_type_id":"4","last_reported":1737619955,"current_range_meters":13600,"station_id":"ce4bhp92rcd13ifvqhag","pricing_plan_id":"cebpf4jnsgd1na2vs0mg"},{"bike_id":"4c3fd064-567c-4c07-aded-62366cae8c14","system_id":"levelo_inurba_marseille","lat":43.30269,"lon":5.37717,"is_reserved":false,"is_disabled":true,"rental_uris":{"android":"levelo://app?vid=4c3fd064-567c-4c07-aded-62366cae8c14","ios":"levelo://app?vid=4c3fd064-567c-4c07-aded-62366cae8c14"},"vehicle_type_id":"4","last_reported":1737619955,"current_range_meters":2000,"station_id":"ce4bguh2rcd13ifvqcj0","pricing_plan_id":"cebpf4jnsgd1na2vs0mg"},{"bike_id":"4c1d4395-6419-47a8-91b4-52df02329e29","system_id":"levelo_inurba_marseille","lat":43.30472,"lon":5.37912,"is_reserved":false,"is_disabled":false,"rental_uris":{"android":"levelo://app?vid=4c1d4395-6419-47a8-91b4-52df02329e29","ios":"levelo://app?vid=4c1d4395-6419-47a8-91b4-52df02329e29"},"vehicle_type_id":"4","last_reported":1737619955,"current_range_meters":16800,"station_id":"ce4bgup2rcd13ifvqcn0","pricing_plan_id":"cebpf4jnsgd1na2vs0mg"},{"bike_id":"4d5ba07b-b7d4-4489-ad8d-161a9ff3edf9","system_id":"levelo_inurba_marseille","lat":43.27941,"lon":5.4105,"is_reserved":false,"is_disabled":false,"rental_uris":{"android":"levelo://app?vid=4d5ba07b-b7d4-4489-ad8d-161a9ff3edf9","ios":"levelo://app?vid=4d5ba07b-b7d4-4489-ad8d-161a9ff3edf9"},"vehicle_type_id":"4","last_reported":1737619955,"current_range_meters":16800,"station_id":"ce4bhnp2rcd13ifvqh0g","pricing_plan_id":"cebpf4jnsgd1na2vs0mg"},{"bike_id":"5ce8d3d4-62b3-41d0-97e9-13af78c041a9","system_id":"levelo_inurba_marseille","lat":43.31356,"lon":5.38488,"is_reserved":false,"is_disabled":false,"rental_uris":{"android":"levelo://app?vid=5ce8d3d4-62b3-41d0-97e9-13af78c041a9","ios":"levelo://app?vid=5ce8d3d4-62b3-41d0-97e9-13af78c041a9"},"vehicle_type_id":"4","last_reported":1737619955,"current_range_meters":12400,"station_id":"ce4bgt92rcd13ifvqcf0","pricing_plan_id":"cebpf4jnsgd1na2vs0mg"},{"bike_id":"fdfb30ec-02df-40fb-830a-663416f3f3f2","system_id":"levelo_inurba_marseille","lat":43.3093,"lon":5.40142,"is_reserved":false,"is_disabled":false,"rental_uris":{"android":"levelo://app?vid=fdfb30ec-02df-40fb-830a-663416f3f3f2","ios":"levelo://app?vid=fdfb30ec-02df-40fb-830a-663416f3f3f2"},"vehicle_type_id":"4","last_reported":1737619955,"current_range_meters":34800,"station_id":"ce4bgvp2rcd13ifvqct0","pricing_plan_id":"cebpf4jnsgd1na2vs0mg"},{"bike_id":"7ace546e-9c67-4124-8420-9ed07a575e5a","system_id":"levelo_inurba_marseille","lat":43.31578,"lon":5.40539,"is_reserved":false,"is_disabled":true,"rental_uris":{"android":"levelo://app?vid=7ace546e-9c67-4124-8420-9ed07a575e5a","ios":"levelo://app?vid=7ace546e-9c67-4124-8420-9ed07a575e5a"},"vehicle_type_id":"4","last_reported":1737619955,"current_range_meters":0,"station_id":"","pricing_plan_id":"cebpf4jnsgd1na2vs0mg"},{"bike_id":"f4064b91-d50f-4faa-b80a-c4b38df2d08b","system_id":"levelo_inurba_marseille","lat":43.22941,"lon":5.3538,"is_reserved":false,"is_disabled":false,"rental_uris":{"android":"levelo://app?vid=f4064b91-d50f-4faa-b80a-c4b38df2d08b","ios":"levelo://app?vid=f4064b91-d50f-4faa-b80a-c4b38df2d08b"},"vehicle_type_id":"4","last_reported":1737619955,"current_range_meters":38800,"station_id":"cpo3532slgdg3j2ikp40","pricing_plan_id":"cebpf4jnsgd1na2vs0mg"},{"bike_id":"79fbb389-20e4-4ca1-95d0-d5c308573137","system_id":"levelo_inurba_marseille","lat":43.24071,"lon":5.37764,"is_reserved":false,"is_disabled":false,"rental_uris":{"android":"levelo://app?vid=79fbb389-20e4-4ca1-95d0-d5c308573137","ios":"levelo://app?vid=79fbb389-20e4-4ca1-95d0-d5c308573137"},"vehicle_type_id":"4","last_reported":1737619955,"current_range_meters":22800,"station_id":"ce4bhnp2rcd13ifvqgvg","pricing_plan_id":"cebpf4jnsgd1na2vs0mg"},{"bike_id":"010d7af0-1cdd-4754-9cac-a1dc0f27c72d","system_id":"levelo_inurba_marseille","lat":43.33103,"lon":5.38216,"is_reserved":false,"is_disabled":false,"rental_uris":{"android":"levelo://app?vid=010d7af0-1cdd-4754-9cac-a1dc0f27c72d","ios":"levelo://app?vid=010d7af0-1cdd-4754-9cac-a1dc0f27c72d"},"vehicle_type_id":"4","last_reported":1737619955,"current_range_meters":27200,"station_id":"","pricing_plan_id":"cebpf4jnsgd1na2vs0mg"},{"bike_id":"5e75dd30-ab3b-44d3-8dcb-cb5fd4a0eb65","system_id":"levelo_inurba_marseille","lat":43.24636,"lon":5.38897,"is_reserved":false,"is_disabled":false,"rental_uris":{"android":"levelo://app?vid=5e75dd30-ab3b-44d3-8dcb-cb5fd4a0eb65","ios":"levelo://app?vid=5e75dd30-ab3b-44d3-8dcb-cb5fd4a0eb65"},"vehicle_type_id":"4","last_reported":1737619955,"current_range_meters":38400,"station_id":"ce4bhg12rcd13ifvqf60","pricing_plan_id":"cebpf4jnsgd1na2vs0mg"},{"bike_id":"8b06e84e-f468-4284-a0d0-1b1662ecaabc","system_id":"levelo_inurba_marseille","lat":43.2936,"lon":5.3783,"is_reserved":false,"is_disabled":false,"rental_uris":{"android":"levelo://app?vid=8b06e84e-f468-4284-a0d0-1b1662ecaabc","ios":"levelo://app?vid=8b06e84e-f468-4284-a0d0-1b1662ecaabc"},"vehicle_type_id":"4","last_reported":1737619955,"current_range_meters":22000,"station_id":"ce4bgjh2rcd13ifvqbf0","pricing_plan_id":"cebpf4jnsgd1na2vs0mg"},{"bike_id":"6d736148-0838-4827-bf70-745978854c80","system_id":"levelo_inurba_marseille","lat":43.337444,"lon":5.374475,"is_reserved":false,"is_disabled":false,"rental_uris":{"android":"levelo://app?vid=6d736148-0838-4827-bf70-745978854c80","ios":"levelo://app?vid=6d736148-0838-4827-bf70-745978854c80"},"vehicle_type_id":"4","last_reported":1737619955,"current_range_meters":38400,"station_id":"ce4bhjp2rcd13ifvqg90","pricing_plan_id":"cebpf4jnsgd1na2vs0mg"},{"bike_id":"4c74b5cd-ca18-46b6-9ca8-3f73986a7d28","system_id":"levelo_inurba_marseille","lat":43.29268,"lon":5.40117,"is_reserved":false,"is_disabled":true,"rental_uris":{"android":"levelo://app?vid=4c74b5cd-ca18-46b6-9ca8-3f73986a7d28","ios":"levelo://app?vid=4c74b5cd-ca18-46b6-9ca8-3f73986a7d28"},"vehicle_type_id":"4","last_reported":1737619955,"current_range_meters":6400,"station_id":"ce4bh312rcd13ifvqdk0","pricing_plan_id":"cebpf4jnsgd1na2vs0mg"},{"bike_id":"6c2e2f41-9c52-4308-86ab-09129b1176ab","system_id":"levelo_inurba_marseille","lat":43.30534,"lon":5.36557,"is_reserved":false,"is_disabled":false,"rental_uris":{"android":"levelo://app?vid=6c2e2f41-9c52-4308-86ab-09129b1176ab","ios":"levelo://app?vid=6c2e2f41-9c52-4308-86ab-09129b1176ab"},"vehicle_type_id":"4","last_reported":1737619955,"current_range_meters":33200,"station_id":"ce4bgs12rcd13ifvqcag","pricing_plan_id":"cebpf4jnsgd1na2vs0mg"},{"bike_id":"179fa8bb-3669-4737-81fe-0d374301b101","system_id":"levelo_inurba_marseille","lat":43.3008,"lon":5.39072,"is_reserved":false,"is_disabled":false,"rental_uris":{"android":"levelo://app?vid=179fa8bb-3669-4737-81fe-0d374301b101","ios":"levelo://app?vid=179fa8bb-3669-4737-81fe-0d374301b101"},"vehicle_type_id":"4","last_reported":1737619955,"current_range_meters":8800,"station_id":"ce4bh192rcd13ifvqdb0","pricing_plan_id":"cebpf4jnsgd1na2vs0mg"},{"bike_id":"69de389c-1fa0-4684-882e-b5d424149d2a","system_id":"levelo_inurba_marseille","lat":43.28981,"lon":5.37837,"is_reserved":false,"is_disabled":false,"rental_uris":{"android":"levelo://app?vid=69de389c-1fa0-4684-882e-b5d424149d2a","ios":"levelo://app?vid=69de389c-1fa0-4684-882e-b5d424149d2a"},"vehicle_type_id":"4","last_reported":1737619955,"current_range_meters":22400,"station_id":"ce4bh9p2rcd13ifvqed0","pricing_plan_id":"cebpf4jnsgd1na2vs0mg"},{"bike_id":"65094a7f-b962-43c6-b0af-b51087b9f16f","system_id":"levelo_inurba_marseille","lat":43.28934,"lon":5.36624,"is_reserved":false,"is_disabled":false,"rental_uris":{"android":"levelo://app?vid=65094a7f-b962-43c6-b0af-b51087b9f16f","ios":"levelo://app?vid=65094a7f-b962-43c6-b0af-b51087b9f16f"},"vehicle_type_id":"4","last_reported":1737619955,"current_range_meters":30000,"station_id":"ce4bhap2rcd13ifvqek0","pricing_plan_id":"cebpf4jnsgd1na2vs0mg"},{"bike_id":"9838cc78-2b53-49d3-ae13-82df62c4fd64","system_id":"levelo_inurba_marseille","lat":43.28432,"lon":5.40927,"is_reserved":false,"is_disabled":false,"rental_uris":{"android":"levelo://app?vid=9838cc78-2b53-49d3-ae13-82df62c4fd64","ios":"levelo://app?vid=9838cc78-2b53-49d3-ae13-82df62c4fd64"},"vehicle_type_id":"4","last_reported":1737619955,"current_range_meters":6800,"station_id":"","pricing_plan_id":"cebpf4jnsgd1na2vs0mg"},{"bike_id":"12632103-2c3a-4f83-a759-1344b383e499","system_id":"levelo_inurba_marseille","lat":43.31347,"lon":5.36716,"is_reserved":false,"is_disabled":false,"rental_uris":{"android":"levelo://app?vid=12632103-2c3a-4f83-a759-1344b383e499","ios":"levelo://app?vid=12632103-2c3a-4f83-a759-1344b383e499"},"vehicle_type_id":"4","last_reported":1737619955,"current_range_meters":16400,"station_id":"ce4bgr92rcd13ifvqc6g","pricing_plan_id":"cebpf4jnsgd1na2vs0mg"},{"bike_id":"119214ee-6b87-4f01-9e11-980178b3273a","system_id":"levelo_inurba_marseille","lat":43.29578,"lon":5.39963,"is_reserved":false,"is_disabled":true,"rental_uris":{"android":"levelo://app?vid=119214ee-6b87-4f01-9e11-980178b3273a","ios":"levelo://app?vid=119214ee-6b87-4f01-9e11-980178b3273a"},"vehicle_type_id":"4","last_reported":1737619955,"current_range_meters":6800,"station_id":"ce4bh312rcd13ifvqdj0","pricing_plan_id":"cebpf4jnsgd1na2vs0mg"},{"bike_id":"de1032c0-e641-4b45-b761-7240a2c9f7fe","system_id":"levelo_inurba_marseille","lat":43.25717,"lon":5.41114,"is_reserved":false,"is_disabled":false,"rental_uris":{"android":"levelo://app?vid=de1032c0-e641-4b45-b761-7240a2c9f7fe","ios":"levelo://app?vid=de1032c0-e641-4b45-b761-7240a2c9f7fe"},"vehicle_type_id":"4","last_reported":1737619955,"current_range_meters":30800,"station_id":"ce4bhkp2rcd13ifvqgd0","pricing_plan_id":"cebpf4jnsgd1na2vs0mg"},{"bike_id":"19b8198b-0b8b-41c2-8c4a-a703ec5c010b","system_id":"levelo_inurba_marseille","lat":43.30157,"lon":5.38094,"is_reserved":false,"is_disabled":false,"rental_uris":{"android":"levelo://app?vid=19b8198b-0b8b-41c2-8c4a-a703ec5c010b","ios":"levelo://app?vid=19b8198b-0b8b-41c2-8c4a-a703ec5c010b"},"vehicle_type_id":"4","last_reported":1737619955,"current_range_meters":38800,"station_id":"ce4bgjp2rcd13ifvqbh0","pricing_plan_id":"cebpf4jnsgd1na2vs0mg"},{"bike_id":"b15a91c0-7c93-4278-9be2-c5e0789ac33f","system_id":"levelo_inurba_marseille","lat":43.318845,"lon":5.407267,"is_reserved":false,"is_disabled":false,"rental_uris":{"android":"levelo://app?vid=b15a91c0-7c93-4278-9be2-c5e0789ac33f","ios":"levelo://app?vid=b15a91c0-7c93-4278-9be2-c5e0789ac33f"},"vehicle_type_id":"4","last_reported":1737619955,"current_range_meters":38400,"station_id":"ce4bhq12rcd13ifvqhig","pricing_plan_id":"cebpf4jnsgd1na2vs0mg"},{"bike_id":"9f96de60-ba44-4c93-9707-a282028a4274","system_id":"levelo_inurba_marseille","lat":43.24167,"lon":5.39751,"is_reserved":false,"is_disabled":false,"rental_uris":{"android":"levelo://app?vid=9f96de60-ba44-4c93-9707-a282028a4274","ios":"levelo://app?vid=9f96de60-ba44-4c93-9707-a282028a4274"},"vehicle_type_id":"4","last_reported":1737619955,"current_range_meters":38000,"station_id":"ce4bhn12rcd13ifvqgpg","pricing_plan_id":"cebpf4jnsgd1na2vs0mg"},{"bike_id":"19591d98-701d-420d-9752-47fe7e378acc","system_id":"levelo_inurba_marseille","lat":43.28107,"lon":5.3784,"is_reserved":false,"is_disabled":false,"rental_uris":{"android":"levelo://app?vid=19591d98-701d-420d-9752-47fe7e378acc","ios":"levelo://app?vid=19591d98-701d-420d-9752-47fe7e378acc"},"vehicle_type_id":"4","last_reported":1737619955,"current_range_meters":16000,"station_id":"ce4bha12rcd13ifvqee0","pricing_plan_id":"cebpf4jnsgd1na2vs0mg"},{"bike_id":"d08c37a7-7fe0-4179-ac80-eb214b053de8","system_id":"levelo_inurba_marseille","lat":43.32536,"lon":5.41431,"is_reserved":false,"is_disabled":false,"rental_uris":{"android":"levelo://app?vid=d08c37a7-7fe0-4179-ac80-eb214b053de8","ios":"levelo://app?vid=d08c37a7-7fe0-4179-ac80-eb214b053de8"},"vehicle_type_id":"4","last_reported":1737619955,"current_range_meters":38400,"station_id":"ce4bhq12rcd13ifvqhhg","pricing_plan_id":"cebpf4jnsgd1na2vs0mg"},{"bike_id":"c03062f9-d63f-4161-9ea5-2909f71989c1","system_id":"levelo_inurba_marseille","lat":43.32031,"lon":5.41557,"is_reserved":false,"is_disabled":false,"rental_uris":{"android":"levelo://app?vid=c03062f9-d63f-4161-9ea5-2909f71989c1","ios":"levelo://app?vid=c03062f9-d63f-4161-9ea5-2909f71989c1"},"vehicle_type_id":"4","last_reported":1737619955,"current_range_meters":27600,"station_id":"ce4bhq92rcd13ifvqhkg","pricing_plan_id":"cebpf4jnsgd1na2vs0mg"},{"bike_id":"b6a17ddb-9bbb-49ff-bd70-8900a4bca0f7","system_id":"levelo_inurba_marseille","lat":43.30943,"lon":5.39039,"is_reserved":false,"is_disabled":false,"rental_uris":{"android":"levelo://app?vid=b6a17ddb-9bbb-49ff-bd70-8900a4bca0f7","ios":"levelo://app?vid=b6a17ddb-9bbb-49ff-bd70-8900a4bca0f7"},"vehicle_type_id":"4","last_reported":1737619955,"current_range_meters":32000,"station_id":"ce4bgup2rcd13ifvqco0","pricing_plan_id":"cebpf4jnsgd1na2vs0mg"},{"bike_id":"68b608b1-4b2e-42e4-afbb-5cdcf5bc15cf","system_id":"levelo_inurba_marseille","lat":43.26682,"lon":5.38268,"is_reserved":false,"is_disabled":false,"rental_uris":{"android":"levelo://app?vid=68b608b1-4b2e-42e4-afbb-5cdcf5bc15cf","ios":"levelo://app?vid=68b608b1-4b2e-42e4-afbb-5cdcf5bc15cf"},"vehicle_type_id":"4","last_reported":1737619955,"current_range_meters":24800,"station_id":"ce4bhg92rcd13ifvqf90","pricing_plan_id":"cebpf4jnsgd1na2vs0mg"},{"bike_id":"e6e8646a-47fe-42a2-b78a-21530b7ebe2d","system_id":"levelo_inurba_marseille","lat":43.31693,"lon":5.40463,"is_reserved":false,"is_disabled":false,"rental_uris":{"android":"levelo://app?vid=e6e8646a-47fe-42a2-b78a-21530b7ebe2d","ios":"levelo://app?vid=e6e8646a-47fe-42a2-b78a-21530b7ebe2d"},"vehicle_type_id":"4","last_reported":1737619955,"current_range_meters":28800,"station_id":"ce4bh012rcd13ifvqd00","pricing_plan_id":"cebpf4jnsgd1na2vs0mg"},{"bike_id":"110f4d36-27c9-49b8-86bf-d85558408b80","system_id":"levelo_inurba_marseille","lat":43.32361,"lon":5.38884,"is_reserved":false,"is_disabled":false,"rental_uris":{"android":"levelo://app?vid=110f4d36-27c9-49b8-86bf-d85558408b80","ios":"levelo://app?vid=110f4d36-27c9-49b8-86bf-d85558408b80"},"vehicle_type_id":"4","last_reported":1737619955,"current_range_meters":20000,"station_id":"ce4bhqp2rcd13ifvqhog","pricing_plan_id":"cebpf4jnsgd1na2vs0mg"},{"bike_id":"e2151eb3-314b-404c-b259-cf12a3a3e0c6","system_id":"levelo_inurba_marseille","lat":43.31555,"lon":5.40273,"is_reserved":false,"is_disabled":false,"rental_uris":{"android":"levelo://app?vid=e2151eb3-314b-404c-b259-cf12a3a3e0c6","ios":"levelo://app?vid=e2151eb3-314b-404c-b259-cf12a3a3e0c6"},"vehicle_type_id":"4","last_reported":1737619955,"current_range_meters":24000,"station_id":"","pricing_plan_id":"cebpf4jnsgd1na2vs0mg"},{"bike_id":"5bc66414-50af-4cae-89c3-2cba4062827e","system_id":"levelo_inurba_marseille","lat":43.29936,"lon":5.37521,"is_reserved":false,"is_disabled":false,"rental_uris":{"android":"levelo://app?vid=5bc66414-50af-4cae-89c3-2cba4062827e","ios":"levelo://app?vid=5bc66414-50af-4cae-89c3-2cba4062827e"},"vehicle_type_id":"4","last_reported":1737619955,"current_range_meters":36000,"station_id":"ce4bgjh2rcd13ifvqbg0","pricing_plan_id":"cebpf4jnsgd1na2vs0mg"},{"bike_id":"34e8f10e-28dd-45b6-99eb-32e32c3f0a1d","system_id":"levelo_inurba_marseille","lat":43.27313,"lon":5.39068,"is_reserved":false,"is_disabled":false,"rental_uris":{"android":"levelo://app?vid=34e8f10e-28dd-45b6-99eb-32e32c3f0a1d","ios":"levelo://app?vid=34e8f10e-28dd-45b6-99eb-32e32c3f0a1d"},"vehicle_type_id":"4","last_reported":1737619955,"current_range_meters":28800,"station_id":"ce4bhgp2rcd13ifvqfe0","pricing_plan_id":"cebpf4jnsgd1na2vs0mg"},{"bike_id":"246bb44c-fb45-4ea6-9ac9-8611908ba943","system_id":"levelo_inurba_marseille","lat":43.31269,"lon":5.40167,"is_reserved":false,"is_disabled":false,"rental_uris":{"android":"levelo://app?vid=246bb44c-fb45-4ea6-9ac9-8611908ba943","ios":"levelo://app?vid=246bb44c-fb45-4ea6-9ac9-8611908ba943"},"vehicle_type_id":"4","last_reported":1737619955,"current_range_meters":28000,"station_id":"ce4bh092rcd13ifvqd30","pricing_plan_id":"cebpf4jnsgd1na2vs0mg"},{"bike_id":"bdbabe86-9e93-4a2e-b18c-e58ab5285655","system_id":"levelo_inurba_marseille","lat":43.29267,"lon":5.40134,"is_reserved":false,"is_disabled":false,"rental_uris":{"android":"levelo://app?vid=bdbabe86-9e93-4a2e-b18c-e58ab5285655","ios":"levelo://app?vid=bdbabe86-9e93-4a2e-b18c-e58ab5285655"},"vehicle_type_id":"4","last_reported":1737619955,"current_range_meters":36800,"station_id":"ce4bh312rcd13ifvqdk0","pricing_plan_id":"cebpf4jnsgd1na2vs0mg"},{"bike_id":"d638ea61-cc2a-43e4-8b93-65a05a164b9f","system_id":"levelo_inurba_marseille","lat":43.29529,"lon":5.38539,"is_reserved":false,"is_disabled":false,"rental_uris":{"android":"levelo://app?vid=d638ea61-cc2a-43e4-8b93-65a05a164b9f","ios":"levelo://app?vid=d638ea61-cc2a-43e4-8b93-65a05a164b9f"},"vehicle_type_id":"4","last_reported":1737619955,"current_range_meters":35600,"station_id":"ce4bgih2rcd13ifvqba0","pricing_plan_id":"cebpf4jnsgd1na2vs0mg"},{"bike_id":"f5bbc258-0b6f-4ff5-b1ec-433413a495bd","system_id":"levelo_inurba_marseille","lat":43.29374,"lon":5.37882,"is_reserved":false,"is_disabled":false,"rental_uris":{"android":"levelo://app?vid=f5bbc258-0b6f-4ff5-b1ec-433413a495bd","ios":"levelo://app?vid=f5bbc258-0b6f-4ff5-b1ec-433413a495bd"},"vehicle_type_id":"4","last_reported":1737619955,"current_range_meters":32000,"station_id":"ce4bgjh2rcd13ifvqbf0","pricing_plan_id":"cebpf4jnsgd1na2vs0mg"},{"bike_id":"35ba0dfc-6951-499d-b497-45ecff53ae7e","system_id":"levelo_inurba_marseille","lat":43.24388,"lon":5.37059,"is_reserved":false,"is_disabled":false,"rental_uris":{"android":"levelo://app?vid=35ba0dfc-6951-499d-b497-45ecff53ae7e","ios":"levelo://app?vid=35ba0dfc-6951-499d-b497-45ecff53ae7e"},"vehicle_type_id":"4","last_reported":1737619955,"current_range_meters":24000,"station_id":"ce4bhhh2rcd13ifvqfk0","pricing_plan_id":"cebpf4jnsgd1na2vs0mg"},{"bike_id":"9999a319-4fe3-4fb4-a91e-417112ebc396","system_id":"levelo_inurba_marseille","lat":43.30317,"lon":5.36898,"is_reserved":false,"is_disabled":false,"rental_uris":{"android":"levelo://app?vid=9999a319-4fe3-4fb4-a91e-417112ebc396","ios":"levelo://app?vid=9999a319-4fe3-4fb4-a91e-417112ebc396"},"vehicle_type_id":"4","last_reported":1737619955,"current_range_meters":13600,"station_id":"ce4bgqh2rcd13ifvqc5g","pricing_plan_id":"cebpf4jnsgd1na2vs0mg"},{"bike_id":"1ac06258-ad9a-434b-839f-fd5f6c847dd6","system_id":"levelo_inurba_marseille","lat":43.30531,"lon":5.36721,"is_reserved":false,"is_disabled":false,"rental_uris":{"android":"levelo://app?vid=1ac06258-ad9a-434b-839f-fd5f6c847dd6","ios":"levelo://app?vid=1ac06258-ad9a-434b-839f-fd5f6c847dd6"},"vehicle_type_id":"4","last_reported":1737619955,"current_range_meters":27600,"station_id":"ce4bgrp2rcd13ifvqc9g","pricing_plan_id":"cebpf4jnsgd1na2vs0mg"},{"bike_id":"6440f376-b0ac-4979-8b74-813c76d7599b","system_id":"levelo_inurba_marseille","lat":43.24169,"lon":5.39739,"is_reserved":false,"is_disabled":false,"rental_uris":{"android":"levelo://app?vid=6440f376-b0ac-4979-8b74-813c76d7599b","ios":"levelo://app?vid=6440f376-b0ac-4979-8b74-813c76d7599b"},"vehicle_type_id":"4","last_reported":1737619955,"current_range_meters":26000,"station_id":"ce4bhn12rcd13ifvqgpg","pricing_plan_id":"cebpf4jnsgd1na2vs0mg"},{"bike_id":"45d47ec1-43df-4a0d-a4c7-34016aa65c3d","system_id":"levelo_inurba_marseille","lat":43.31681,"lon":5.40465,"is_reserved":false,"is_disabled":false,"rental_uris":{"android":"levelo://app?vid=45d47ec1-43df-4a0d-a4c7-34016aa65c3d","ios":"levelo://app?vid=45d47ec1-43df-4a0d-a4c7-34016aa65c3d"},"vehicle_type_id":"4","last_reported":1737619955,"current_range_meters":38400,"station_id":"ce4bh012rcd13ifvqd00","pricing_plan_id":"cebpf4jnsgd1na2vs0mg"},{"bike_id":"53608539-8cd0-47e7-9cfb-d1161556d6fb","system_id":"levelo_inurba_marseille","lat":43.255081,"lon":5.376679,"is_reserved":false,"is_disabled":false,"rental_uris":{"android":"levelo://app?vid=53608539-8cd0-47e7-9cfb-d1161556d6fb","ios":"levelo://app?vid=53608539-8cd0-47e7-9cfb-d1161556d6fb"},"vehicle_type_id":"4","last_reported":1737619955,"current_range_meters":22800,"station_id":"ce4bhh12rcd13ifvqff0","pricing_plan_id":"cebpf4jnsgd1na2vs0mg"},{"bike_id":"f98a7ee0-f9fe-4556-933e-ecf6827038e5","system_id":"levelo_inurba_marseille","lat":43.29176,"lon":5.35751,"is_reserved":false,"is_disabled":false,"rental_uris":{"android":"levelo://app?vid=f98a7ee0-f9fe-4556-933e-ecf6827038e5","ios":"levelo://app?vid=f98a7ee0-f9fe-4556-933e-ecf6827038e5"},"vehicle_type_id":"4","last_reported":1737619955,"current_range_meters":15200,"station_id":"ce4bhb12rcd13ifvqel0","pricing_plan_id":"cebpf4jnsgd1na2vs0mg"},{"bike_id":"46e55038-fbd6-4771-893c-ab44f3c1642a","system_id":"levelo_inurba_marseille","lat":43.3169,"lon":5.40451,"is_reserved":false,"is_disabled":true,"rental_uris":{"android":"levelo://app?vid=46e55038-fbd6-4771-893c-ab44f3c1642a","ios":"levelo://app?vid=46e55038-fbd6-4771-893c-ab44f3c1642a"},"vehicle_type_id":"4","last_reported":1737619955,"current_range_meters":0,"station_id":"ce4bh012rcd13ifvqd00","pricing_plan_id":"cebpf4jnsgd1na2vs0mg"},{"bike_id":"5bcaa165-3855-4961-b7f5-0a96e04dc71c","system_id":"levelo_inurba_marseille","lat":43.24072,"lon":5.37759,"is_reserved":false,"is_disabled":false,"rental_uris":{"android":"levelo://app?vid=5bcaa165-3855-4961-b7f5-0a96e04dc71c","ios":"levelo://app?vid=5bcaa165-3855-4961-b7f5-0a96e04dc71c"},"vehicle_type_id":"4","last_reported":1737619955,"current_range_meters":25600,"station_id":"ce4bhnp2rcd13ifvqgvg","pricing_plan_id":"cebpf4jnsgd1na2vs0mg"},{"bike_id":"582e8754-15b7-4502-adec-5b8a77d5b5e9","system_id":"levelo_inurba_marseille","lat":43.31697,"lon":5.40472,"is_reserved":false,"is_disabled":true,"rental_uris":{"android":"levelo://app?vid=582e8754-15b7-4502-adec-5b8a77d5b5e9","ios":"levelo://app?vid=582e8754-15b7-4502-adec-5b8a77d5b5e9"},"vehicle_type_id":"4","last_reported":1737619955,"current_range_meters":5600,"station_id":"ce4bh012rcd13ifvqd00","pricing_plan_id":"cebpf4jnsgd1na2vs0mg"},{"bike_id":"7fb3b8f4-f4f9-423a-850f-655d66a4b7b6","system_id":"levelo_inurba_marseille","lat":43.29717,"lon":5.37697,"is_reserved":false,"is_disabled":true,"rental_uris":{"android":"levelo://app?vid=7fb3b8f4-f4f9-423a-850f-655d66a4b7b6","ios":"levelo://app?vid=7fb3b8f4-f4f9-423a-850f-655d66a4b7b6"},"vehicle_type_id":"4","last_reported":1737619955,"current_range_meters":6800,"station_id":"ce4bgkh2rcd13ifvqbl0","pricing_plan_id":"cebpf4jnsgd1na2vs0mg"},{"bike_id":"91f957bd-7ae6-4841-8ac4-1ecdcd0c697e","system_id":"levelo_inurba_marseille","lat":43.31548,"lon":5.40179,"is_reserved":false,"is_disabled":false,"rental_uris":{"android":"levelo://app?vid=91f957bd-7ae6-4841-8ac4-1ecdcd0c697e","ios":"levelo://app?vid=91f957bd-7ae6-4841-8ac4-1ecdcd0c697e"},"vehicle_type_id":"4","last_reported":1737619955,"current_range_meters":26800,"station_id":"","pricing_plan_id":"cebpf4jnsgd1na2vs0mg"},{"bike_id":"8ad21346-033e-4290-b02b-da7123547d8d","system_id":"levelo_inurba_marseille","lat":43.2731,"lon":5.39087,"is_reserved":false,"is_disabled":false,"rental_uris":{"android":"levelo://app?vid=8ad21346-033e-4290-b02b-da7123547d8d","ios":"levelo://app?vid=8ad21346-033e-4290-b02b-da7123547d8d"},"vehicle_type_id":"4","last_reported":1737619955,"current_range_meters":14800,"station_id":"ce4bhgp2rcd13ifvqfe0","pricing_plan_id":"cebpf4jnsgd1na2vs0mg"},{"bike_id":"96663138-92b9-4343-9a11-314ee4531fc0","system_id":"levelo_inurba_marseille","lat":43.30805,"lon":5.37627,"is_reserved":false,"is_disabled":true,"rental_uris":{"android":"levelo://app?vid=96663138-92b9-4343-9a11-314ee4531fc0","ios":"levelo://app?vid=96663138-92b9-4343-9a11-314ee4531fc0"},"vehicle_type_id":"4","last_reported":1737619955,"current_range_meters":15200,"station_id":"ce4bgv92rcd13ifvqcq0","pricing_plan_id":"cebpf4jnsgd1na2vs0mg"},{"bike_id":"0ce0d80e-e969-4c5f-a6de-63a9d791e995","system_id":"levelo_inurba_marseille","lat":43.30319,"lon":5.36902,"is_reserved":false,"is_disabled":false,"rental_uris":{"android":"levelo://app?vid=0ce0d80e-e969-4c5f-a6de-63a9d791e995","ios":"levelo://app?vid=0ce0d80e-e969-4c5f-a6de-63a9d791e995"},"vehicle_type_id":"4","last_reported":1737619955,"current_range_meters":35600,"station_id":"ce4bgqh2rcd13ifvqc5g","pricing_plan_id":"cebpf4jnsgd1na2vs0mg"},{"bike_id":"2e2e8490-b92e-4c4b-8457-33e124143e07","system_id":"levelo_inurba_marseille","lat":43.33606,"lon":5.41021,"is_reserved":false,"is_disabled":false,"rental_uris":{"android":"levelo://app?vid=2e2e8490-b92e-4c4b-8457-33e124143e07","ios":"levelo://app?vid=2e2e8490-b92e-4c4b-8457-33e124143e07"},"vehicle_type_id":"4","last_reported":1737619955,"current_range_meters":4400,"station_id":"ce4bhqh2rcd13ifvqhmg","pricing_plan_id":"cebpf4jnsgd1na2vs0mg"},{"bike_id":"6a54c5b1-be36-4ae2-bc29-177bd38ec82c","system_id":"levelo_inurba_marseille","lat":43.2893,"lon":5.3639,"is_reserved":false,"is_disabled":false,"rental_uris":{"android":"levelo://app?vid=6a54c5b1-be36-4ae2-bc29-177bd38ec82c","ios":"levelo://app?vid=6a54c5b1-be36-4ae2-bc29-177bd38ec82c"},"vehicle_type_id":"4","last_reported":1737619955,"current_range_meters":28800,"station_id":"ce4bhc92rcd13ifvqetg","pricing_plan_id":"cebpf4jnsgd1na2vs0mg"},{"bike_id":"ce90fea6-ff2a-4d0b-bd4f-45ced0acf4c0","system_id":"levelo_inurba_marseille","lat":43.32335,"lon":5.36749,"is_reserved":false,"is_disabled":false,"rental_uris":{"android":"levelo://app?vid=ce90fea6-ff2a-4d0b-bd4f-45ced0acf4c0","ios":"levelo://app?vid=ce90fea6-ff2a-4d0b-bd4f-45ced0acf4c0"},"vehicle_type_id":"4","last_reported":1737619955,"current_range_meters":12400,"station_id":"ce4bhsh2rcd13ifvqi2g","pricing_plan_id":"cebpf4jnsgd1na2vs0mg"},{"bike_id":"ab13439f-1c4b-4b83-ac72-9f4e6d1f64cb","system_id":"levelo_inurba_marseille","lat":43.31249,"lon":5.37965,"is_reserved":false,"is_disabled":true,"rental_uris":{"android":"levelo://app?vid=ab13439f-1c4b-4b83-ac72-9f4e6d1f64cb","ios":"levelo://app?vid=ab13439f-1c4b-4b83-ac72-9f4e6d1f64cb"},"vehicle_type_id":"4","last_reported":1737619955,"current_range_meters":11200,"station_id":"","pricing_plan_id":"cebpf4jnsgd1na2vs0mg"},{"bike_id":"d36470d5-a7db-4e78-9869-b88f93fd7f4d","system_id":"levelo_inurba_marseille","lat":43.30477,"lon":5.37912,"is_reserved":false,"is_disabled":false,"rental_uris":{"android":"levelo://app?vid=d36470d5-a7db-4e78-9869-b88f93fd7f4d","ios":"levelo://app?vid=d36470d5-a7db-4e78-9869-b88f93fd7f4d"},"vehicle_type_id":"4","last_reported":1737619955,"current_range_meters":38800,"station_id":"ce4bgup2rcd13ifvqcn0","pricing_plan_id":"cebpf4jnsgd1na2vs0mg"},{"bike_id":"eb89a3cb-04d6-4306-852e-63d2c6e87ea8","system_id":"levelo_inurba_marseille","lat":43.28835,"lon":5.35832,"is_reserved":false,"is_disabled":false,"rental_uris":{"android":"levelo://app?vid=eb89a3cb-04d6-4306-852e-63d2c6e87ea8","ios":"levelo://app?vid=eb89a3cb-04d6-4306-852e-63d2c6e87ea8"},"vehicle_type_id":"4","last_reported":1737619955,"current_range_meters":38400,"station_id":"ce4bhb12rcd13ifvqem0","pricing_plan_id":"cebpf4jnsgd1na2vs0mg"},{"bike_id":"535d20b6-a7af-4a53-901d-54bdbd201c81","system_id":"levelo_inurba_marseille","lat":43.28431,"lon":5.39195,"is_reserved":false,"is_disabled":false,"rental_uris":{"android":"levelo://app?vid=535d20b6-a7af-4a53-901d-54bdbd201c81","ios":"levelo://app?vid=535d20b6-a7af-4a53-901d-54bdbd201c81"},"vehicle_type_id":"4","last_reported":1737619955,"current_range_meters":27600,"station_id":"ce4bhoh2rcd13ifvqh5g","pricing_plan_id":"cebpf4jnsgd1na2vs0mg"},{"bike_id":"c50849c8-c3ac-4431-a7eb-c9cdc1db403c","system_id":"levelo_inurba_marseille","lat":43.310273,"lon":5.380472,"is_reserved":false,"is_disabled":false,"rental_uris":{"android":"levelo://app?vid=c50849c8-c3ac-4431-a7eb-c9cdc1db403c","ios":"levelo://app?vid=c50849c8-c3ac-4431-a7eb-c9cdc1db403c"},"vehicle_type_id":"4","last_reported":1737619955,"current_range_meters":6800,"station_id":"ce4bgn92rcd13ifvqbvg","pricing_plan_id":"cebpf4jnsgd1na2vs0mg"},{"bike_id":"6d1eb87e-1a5a-4cbe-81e7-73c8f260d911","system_id":"levelo_inurba_marseille","lat":43.3133,"lon":5.39692,"is_reserved":false,"is_disabled":false,"rental_uris":{"android":"levelo://app?vid=6d1eb87e-1a5a-4cbe-81e7-73c8f260d911","ios":"levelo://app?vid=6d1eb87e-1a5a-4cbe-81e7-73c8f260d911"},"vehicle_type_id":"4","last_reported":1737619955,"current_range_meters":32800,"station_id":"ce4bgvp2rcd13ifvqcu0","pricing_plan_id":"cebpf4jnsgd1na2vs0mg"},{"bike_id":"dc25515f-2516-4d8e-8ff7-eaa9f571f705","system_id":"levelo_inurba_marseille","lat":43.30099,"lon":5.39081,"is_reserved":false,"is_disabled":true,"rental_uris":{"android":"levelo://app?vid=dc25515f-2516-4d8e-8ff7-eaa9f571f705","ios":"levelo://app?vid=dc25515f-2516-4d8e-8ff7-eaa9f571f705"},"vehicle_type_id":"4","last_reported":1737619955,"current_range_meters":0,"station_id":"ce4bh192rcd13ifvqdb0","pricing_plan_id":"cebpf4jnsgd1na2vs0mg"},{"bike_id":"cb89451d-fcbc-47ab-bfa4-263d9c5e103c","system_id":"levelo_inurba_marseille","lat":43.24994,"lon":5.38932,"is_reserved":false,"is_disabled":false,"rental_uris":{"android":"levelo://app?vid=cb89451d-fcbc-47ab-bfa4-263d9c5e103c","ios":"levelo://app?vid=cb89451d-fcbc-47ab-bfa4-263d9c5e103c"},"vehicle_type_id":"4","last_reported":1737619955,"current_range_meters":29600,"station_id":"ce4bhgp2rcd13ifvqfd0","pricing_plan_id":"cebpf4jnsgd1na2vs0mg"},{"bike_id":"c4db15ea-eb22-409d-a92c-518ac96d96dd","system_id":"levelo_inurba_marseille","lat":43.29567,"lon":5.42281,"is_reserved":false,"is_disabled":false,"rental_uris":{"android":"levelo://app?vid=c4db15ea-eb22-409d-a92c-518ac96d96dd","ios":"levelo://app?vid=c4db15ea-eb22-409d-a92c-518ac96d96dd"},"vehicle_type_id":"4","last_reported":1737619955,"current_range_meters":38000,"station_id":"ce4bhph2rcd13ifvqhdg","pricing_plan_id":"cebpf4jnsgd1na2vs0mg"},{"bike_id":"e1946048-020d-470f-9b77-ffaa6ef35ac1","system_id":"levelo_inurba_marseille","lat":43.30942,"lon":5.3903,"is_reserved":false,"is_disabled":false,"rental_uris":{"android":"levelo://app?vid=e1946048-020d-470f-9b77-ffaa6ef35ac1","ios":"levelo://app?vid=e1946048-020d-470f-9b77-ffaa6ef35ac1"},"vehicle_type_id":"4","last_reported":1737619955,"current_range_meters":24000,"station_id":"ce4bgup2rcd13ifvqco0","pricing_plan_id":"cebpf4jnsgd1na2vs0mg"},{"bike_id":"b00406c7-3559-49d3-8ded-96629dbcc7ba","system_id":"levelo_inurba_marseille","lat":43.30892,"lon":5.3719,"is_reserved":false,"is_disabled":false,"rental_uris":{"android":"levelo://app?vid=b00406c7-3559-49d3-8ded-96629dbcc7ba","ios":"levelo://app?vid=b00406c7-3559-49d3-8ded-96629dbcc7ba"},"vehicle_type_id":"4","last_reported":1737619955,"current_range_meters":13600,"station_id":"ce4bguh2rcd13ifvqckg","pricing_plan_id":"cebpf4jnsgd1na2vs0mg"},{"bike_id":"682dc4ba-1771-434e-a109-1dcef5dddeb4","system_id":"levelo_inurba_marseille","lat":43.31336,"lon":5.367,"is_reserved":false,"is_disabled":false,"rental_uris":{"android":"levelo://app?vid=682dc4ba-1771-434e-a109-1dcef5dddeb4","ios":"levelo://app?vid=682dc4ba-1771-434e-a109-1dcef5dddeb4"},"vehicle_type_id":"4","last_reported":1737619955,"current_range_meters":38800,"station_id":"ce4bgr92rcd13ifvqc6g","pricing_plan_id":"cebpf4jnsgd1na2vs0mg"},{"bike_id":"dbcd9953-74e7-43ae-8d29-dcca7214827f","system_id":"levelo_inurba_marseille","lat":43.27491,"lon":5.42468,"is_reserved":false,"is_disabled":false,"rental_uris":{"android":"levelo://app?vid=dbcd9953-74e7-43ae-8d29-dcca7214827f","ios":"levelo://app?vid=dbcd9953-74e7-43ae-8d29-dcca7214827f"},"vehicle_type_id":"4","last_reported":1737619955,"current_range_meters":12000,"station_id":"ce4bhn92rcd13ifvqgrg","pricing_plan_id":"cebpf4jnsgd1na2vs0mg"},{"bike_id":"f2c81127-eb63-4c1f-8e2f-9a2254fbb814","system_id":"levelo_inurba_marseille","lat":43.24071,"lon":5.37769,"is_reserved":false,"is_disabled":false,"rental_uris":{"android":"levelo://app?vid=f2c81127-eb63-4c1f-8e2f-9a2254fbb814","ios":"levelo://app?vid=f2c81127-eb63-4c1f-8e2f-9a2254fbb814"},"vehicle_type_id":"4","last_reported":1737619955,"current_range_meters":6000,"station_id":"ce4bhnp2rcd13ifvqgvg","pricing_plan_id":"cebpf4jnsgd1na2vs0mg"},{"bike_id":"9bfdf7cb-91d1-44ae-89e3-489d8a73d8f7","system_id":"levelo_inurba_marseille","lat":43.32487,"lon":5.36546,"is_reserved":false,"is_disabled":false,"rental_uris":{"android":"levelo://app?vid=9bfdf7cb-91d1-44ae-89e3-489d8a73d8f7","ios":"levelo://app?vid=9bfdf7cb-91d1-44ae-89e3-489d8a73d8f7"},"vehicle_type_id":"4","last_reported":1737619955,"current_range_meters":38800,"station_id":"ce4bhs12rcd13ifvqhvg","pricing_plan_id":"cebpf4jnsgd1na2vs0mg"},{"bike_id":"b5062cad-2028-4365-9036-ec1aaf0b4d9d","system_id":"levelo_inurba_marseille","lat":43.30881,"lon":5.37188,"is_reserved":false,"is_disabled":false,"rental_uris":{"android":"levelo://app?vid=b5062cad-2028-4365-9036-ec1aaf0b4d9d","ios":"levelo://app?vid=b5062cad-2028-4365-9036-ec1aaf0b4d9d"},"vehicle_type_id":"4","last_reported":1737619955,"current_range_meters":23200,"station_id":"ce4bguh2rcd13ifvqckg","pricing_plan_id":"cebpf4jnsgd1na2vs0mg"},{"bike_id":"093df64a-8571-43cb-b3e7-2c22d1d6e828","system_id":"levelo_inurba_marseille","lat":43.25924,"lon":5.40917,"is_reserved":false,"is_disabled":false,"rental_uris":{"android":"levelo://app?vid=093df64a-8571-43cb-b3e7-2c22d1d6e828","ios":"levelo://app?vid=093df64a-8571-43cb-b3e7-2c22d1d6e828"},"vehicle_type_id":"4","last_reported":1737619955,"current_range_meters":7200,"station_id":"ce4bhm92rcd13ifvqglg","pricing_plan_id":"cebpf4jnsgd1na2vs0mg"},{"bike_id":"6af01551-9900-4546-99a1-d63a6c9402e6","system_id":"levelo_inurba_marseille","lat":43.30127,"lon":5.37411,"is_reserved":false,"is_disabled":false,"rental_uris":{"android":"levelo://app?vid=6af01551-9900-4546-99a1-d63a6c9402e6","ios":"levelo://app?vid=6af01551-9900-4546-99a1-d63a6c9402e6"},"vehicle_type_id":"4","last_reported":1737619955,"current_range_meters":14000,"station_id":"ce4bgs92rcd13ifvqcc0","pricing_plan_id":"cebpf4jnsgd1na2vs0mg"},{"bike_id":"62a4859e-3ecc-4714-869d-bc3060ae3156","system_id":"levelo_inurba_marseille","lat":43.25937,"lon":5.409,"is_reserved":false,"is_disabled":false,"rental_uris":{"android":"levelo://app?vid=62a4859e-3ecc-4714-869d-bc3060ae3156","ios":"levelo://app?vid=62a4859e-3ecc-4714-869d-bc3060ae3156"},"vehicle_type_id":"4","last_reported":1737619955,"current_range_meters":36800,"station_id":"ce4bhm92rcd13ifvqglg","pricing_plan_id":"cebpf4jnsgd1na2vs0mg"},{"bike_id":"036ef21a-cd0f-4d78-a9a9-bcbf43217439","system_id":"levelo_inurba_marseille","lat":43.27495,"lon":5.42462,"is_reserved":false,"is_disabled":false,"rental_uris":{"android":"levelo://app?vid=036ef21a-cd0f-4d78-a9a9-bcbf43217439","ios":"levelo://app?vid=036ef21a-cd0f-4d78-a9a9-bcbf43217439"},"vehicle_type_id":"4","last_reported":1737619955,"current_range_meters":33200,"station_id":"ce4bhn92rcd13ifvqgrg","pricing_plan_id":"cebpf4jnsgd1na2vs0mg"},{"bike_id":"a0ea94d5-d4ca-4b99-8b33-7876b74517b4","system_id":"levelo_inurba_marseille","lat":43.303,"lon":5.36893,"is_reserved":false,"is_disabled":false,"rental_uris":{"android":"levelo://app?vid=a0ea94d5-d4ca-4b99-8b33-7876b74517b4","ios":"levelo://app?vid=a0ea94d5-d4ca-4b99-8b33-7876b74517b4"},"vehicle_type_id":"4","last_reported":1737619955,"current_range_meters":24400,"station_id":"ce4bgqh2rcd13ifvqc5g","pricing_plan_id":"cebpf4jnsgd1na2vs0mg"},{"bike_id":"95289c82-6911-43c4-a49c-6e7f2290b672","system_id":"levelo_inurba_marseille","lat":43.30398,"lon":5.41317,"is_reserved":false,"is_disabled":false,"rental_uris":{"android":"levelo://app?vid=95289c82-6911-43c4-a49c-6e7f2290b672","ios":"levelo://app?vid=95289c82-6911-43c4-a49c-6e7f2290b672"},"vehicle_type_id":"4","last_reported":1737619955,"current_range_meters":38800,"station_id":"ce4bhop2rcd13ifvqh8g","pricing_plan_id":"cebpf4jnsgd1na2vs0mg"},{"bike_id":"730360b3-6cae-433e-8ca5-b899dcef2905","system_id":"levelo_inurba_marseille","lat":43.26561,"lon":5.3901,"is_reserved":false,"is_disabled":false,"rental_uris":{"android":"levelo://app?vid=730360b3-6cae-433e-8ca5-b899dcef2905","ios":"levelo://app?vid=730360b3-6cae-433e-8ca5-b899dcef2905"},"vehicle_type_id":"4","last_reported":1737619955,"current_range_meters":12000,"station_id":"ce4bhe12rcd13ifvqf30","pricing_plan_id":"cebpf4jnsgd1na2vs0mg"},{"bike_id":"ccfb2536-57fe-454d-858f-d7397a4801d9","system_id":"levelo_inurba_marseille","lat":43.324642,"lon":5.365368,"is_reserved":false,"is_disabled":true,"rental_uris":{"android":"levelo://app?vid=ccfb2536-57fe-454d-858f-d7397a4801d9","ios":"levelo://app?vid=ccfb2536-57fe-454d-858f-d7397a4801d9"},"vehicle_type_id":"4","last_reported":1737619955,"current_range_meters":0,"station_id":"ce4bhs12rcd13ifvqhvg","pricing_plan_id":"cebpf4jnsgd1na2vs0mg"},{"bike_id":"dcb048dc-cdc9-4384-89c0-8b2fb6c6a910","system_id":"levelo_inurba_marseille","lat":43.28933,"lon":5.36443,"is_reserved":false,"is_disabled":false,"rental_uris":{"android":"levelo://app?vid=dcb048dc-cdc9-4384-89c0-8b2fb6c6a910","ios":"levelo://app?vid=dcb048dc-cdc9-4384-89c0-8b2fb6c6a910"},"vehicle_type_id":"4","last_reported":1737619955,"current_range_meters":14800,"station_id":"","pricing_plan_id":"cebpf4jnsgd1na2vs0mg"},{"bike_id":"fabc21c4-2648-4ec0-bc38-5cb78cb9d334","system_id":"levelo_inurba_marseille","lat":43.33612,"lon":5.41038,"is_reserved":false,"is_disabled":false,"rental_uris":{"android":"levelo://app?vid=fabc21c4-2648-4ec0-bc38-5cb78cb9d334","ios":"levelo://app?vid=fabc21c4-2648-4ec0-bc38-5cb78cb9d334"},"vehicle_type_id":"4","last_reported":1737619955,"current_range_meters":9200,"station_id":"ce4bhqh2rcd13ifvqhmg","pricing_plan_id":"cebpf4jnsgd1na2vs0mg"},{"bike_id":"96e0558c-cec8-47c4-89d3-1aa21c4b0119","system_id":"levelo_inurba_marseille","lat":43.25701,"lon":5.41835,"is_reserved":false,"is_disabled":false,"rental_uris":{"android":"levelo://app?vid=96e0558c-cec8-47c4-89d3-1aa21c4b0119","ios":"levelo://app?vid=96e0558c-cec8-47c4-89d3-1aa21c4b0119"},"vehicle_type_id":"4","last_reported":1737619955,"current_range_meters":16800,"station_id":"","pricing_plan_id":"cebpf4jnsgd1na2vs0mg"},{"bike_id":"f214401a-dba5-4f6f-8c9a-9bc928023425","system_id":"levelo_inurba_marseille","lat":43.29027,"lon":5.39972,"is_reserved":false,"is_disabled":false,"rental_uris":{"android":"levelo://app?vid=f214401a-dba5-4f6f-8c9a-9bc928023425","ios":"levelo://app?vid=f214401a-dba5-4f6f-8c9a-9bc928023425"},"vehicle_type_id":"4","last_reported":1737619955,"current_range_meters":38800,"station_id":"ce4bh392rcd13ifvqdm0","pricing_plan_id":"cebpf4jnsgd1na2vs0mg"},{"bike_id":"786ab3bb-a9ac-4a2d-bf55-fddd19de2837","system_id":"levelo_inurba_marseille","lat":43.31353,"lon":5.36714,"is_reserved":false,"is_disabled":false,"rental_uris":{"android":"levelo://app?vid=786ab3bb-a9ac-4a2d-bf55-fddd19de2837","ios":"levelo://app?vid=786ab3bb-a9ac-4a2d-bf55-fddd19de2837"},"vehicle_type_id":"4","last_reported":1737619955,"current_range_meters":32000,"station_id":"ce4bgr92rcd13ifvqc6g","pricing_plan_id":"cebpf4jnsgd1na2vs0mg"},{"bike_id":"755fbef0-a8d1-445d-a38a-9354fdc36d67","system_id":"levelo_inurba_marseille","lat":43.24079,"lon":5.37745,"is_reserved":false,"is_disabled":false,"rental_uris":{"android":"levelo://app?vid=755fbef0-a8d1-445d-a38a-9354fdc36d67","ios":"levelo://app?vid=755fbef0-a8d1-445d-a38a-9354fdc36d67"},"vehicle_type_id":"4","last_reported":1737619955,"current_range_meters":17600,"station_id":"ce4bhnp2rcd13ifvqgvg","pricing_plan_id":"cebpf4jnsgd1na2vs0mg"},{"bike_id":"12d017e0-e288-48c2-8175-718910374375","system_id":"levelo_inurba_marseille","lat":43.29435,"lon":5.39753,"is_reserved":false,"is_disabled":false,"rental_uris":{"android":"levelo://app?vid=12d017e0-e288-48c2-8175-718910374375","ios":"levelo://app?vid=12d017e0-e288-48c2-8175-718910374375"},"vehicle_type_id":"4","last_reported":1737619955,"current_range_meters":36400,"station_id":"ce4bh3h2rcd13ifvqdo0","pricing_plan_id":"cebpf4jnsgd1na2vs0mg"},{"bike_id":"bdc9df5b-15df-4da6-8498-c1412c4f1ee3","system_id":"levelo_inurba_marseille","lat":43.269372,"lon":5.386253,"is_reserved":false,"is_disabled":false,"rental_uris":{"android":"levelo://app?vid=bdc9df5b-15df-4da6-8498-c1412c4f1ee3","ios":"levelo://app?vid=bdc9df5b-15df-4da6-8498-c1412c4f1ee3"},"vehicle_type_id":"4","last_reported":1737619955,"current_range_meters":36400,"station_id":"ce4bhh92rcd13ifvqfh0","pricing_plan_id":"cebpf4jnsgd1na2vs0mg"},{"bike_id":"13a64475-e4c7-493c-900a-0bcfe86942ca","system_id":"levelo_inurba_marseille","lat":43.30815,"lon":5.43586,"is_reserved":false,"is_disabled":false,"rental_uris":{"android":"levelo://app?vid=13a64475-e4c7-493c-900a-0bcfe86942ca","ios":"levelo://app?vid=13a64475-e4c7-493c-900a-0bcfe86942ca"},"vehicle_type_id":"4","last_reported":1737619955,"current_range_meters":12000,"station_id":"ce4bhph2rcd13ifvqheg","pricing_plan_id":"cebpf4jnsgd1na2vs0mg"},{"bike_id":"4428246e-58ae-423c-aba6-7ecbba3dd456","system_id":"levelo_inurba_marseille","lat":43.30552,"lon":5.38426,"is_reserved":false,"is_disabled":false,"rental_uris":{"android":"levelo://app?vid=4428246e-58ae-423c-aba6-7ecbba3dd456","ios":"levelo://app?vid=4428246e-58ae-423c-aba6-7ecbba3dd456"},"vehicle_type_id":"4","last_reported":1737619955,"current_range_meters":19600,"station_id":"ce4bgg92rcd13ifvqb30","pricing_plan_id":"cebpf4jnsgd1na2vs0mg"},{"bike_id":"b3c7e343-9176-4867-bc26-c3507b139497","system_id":"levelo_inurba_marseille","lat":43.274388,"lon":5.394266,"is_reserved":false,"is_disabled":false,"rental_uris":{"android":"levelo://app?vid=b3c7e343-9176-4867-bc26-c3507b139497","ios":"levelo://app?vid=b3c7e343-9176-4867-bc26-c3507b139497"},"vehicle_type_id":"4","last_reported":1737619955,"current_range_meters":14800,"station_id":"ce4bhdp2rcd13ifvqf20","pricing_plan_id":"cebpf4jnsgd1na2vs0mg"},{"bike_id":"366618e5-58e4-49a2-b359-c5654fbadc2c","system_id":"levelo_inurba_marseille","lat":43.24059,"lon":5.37759,"is_reserved":false,"is_disabled":false,"rental_uris":{"android":"levelo://app?vid=366618e5-58e4-49a2-b359-c5654fbadc2c","ios":"levelo://app?vid=366618e5-58e4-49a2-b359-c5654fbadc2c"},"vehicle_type_id":"4","last_reported":1737619955,"current_range_meters":18800,"station_id":"ce4bhnp2rcd13ifvqgvg","pricing_plan_id":"cebpf4jnsgd1na2vs0mg"},{"bike_id":"e364c586-4430-4e2f-b241-454b1d22511b","system_id":"levelo_inurba_marseille","lat":43.32506,"lon":5.38199,"is_reserved":false,"is_disabled":false,"rental_uris":{"android":"levelo://app?vid=e364c586-4430-4e2f-b241-454b1d22511b","ios":"levelo://app?vid=e364c586-4430-4e2f-b241-454b1d22511b"},"vehicle_type_id":"4","last_reported":1737619955,"current_range_meters":18000,"station_id":"ce4bhr12rcd13ifvqhqg","pricing_plan_id":"cebpf4jnsgd1na2vs0mg"},{"bike_id":"aaa0c41b-3b4f-4f38-bba2-425d19b5f467","system_id":"levelo_inurba_marseille","lat":43.25699,"lon":5.41813,"is_reserved":false,"is_disabled":false,"rental_uris":{"android":"levelo://app?vid=aaa0c41b-3b4f-4f38-bba2-425d19b5f467","ios":"levelo://app?vid=aaa0c41b-3b4f-4f38-bba2-425d19b5f467"},"vehicle_type_id":"4","last_reported":1737619955,"current_range_meters":29600,"station_id":"","pricing_plan_id":"cebpf4jnsgd1na2vs0mg"},{"bike_id":"8b5b2ad9-2aec-4c41-a14f-2627ba9e143b","system_id":"levelo_inurba_marseille","lat":43.24077,"lon":5.37757,"is_reserved":false,"is_disabled":false,"rental_uris":{"android":"levelo://app?vid=8b5b2ad9-2aec-4c41-a14f-2627ba9e143b","ios":"levelo://app?vid=8b5b2ad9-2aec-4c41-a14f-2627ba9e143b"},"vehicle_type_id":"4","last_reported":1737619955,"current_range_meters":11600,"station_id":"ce4bhnp2rcd13ifvqgvg","pricing_plan_id":"cebpf4jnsgd1na2vs0mg"},{"bike_id":"96260513-3235-425b-b454-db083e6fc601","system_id":"levelo_inurba_marseille","lat":43.25466,"lon":5.3766,"is_reserved":false,"is_disabled":false,"rental_uris":{"android":"levelo://app?vid=96260513-3235-425b-b454-db083e6fc601","ios":"levelo://app?vid=96260513-3235-425b-b454-db083e6fc601"},"vehicle_type_id":"4","last_reported":1737619955,"current_range_meters":38800,"station_id":"ce4bhh12rcd13ifvqff0","pricing_plan_id":"cebpf4jnsgd1na2vs0mg"},{"bike_id":"58bd67b2-eea0-4ad2-8092-8cb589d6733b","system_id":"levelo_inurba_marseille","lat":43.30802,"lon":5.43509,"is_reserved":false,"is_disabled":false,"rental_uris":{"android":"levelo://app?vid=58bd67b2-eea0-4ad2-8092-8cb589d6733b","ios":"levelo://app?vid=58bd67b2-eea0-4ad2-8092-8cb589d6733b"},"vehicle_type_id":"4","last_reported":1737619955,"current_range_meters":6400,"station_id":"ce4bhph2rcd13ifvqheg","pricing_plan_id":"cebpf4jnsgd1na2vs0mg"},{"bike_id":"f8216a2b-e7c5-4eea-8c3d-912daef0d729","system_id":"levelo_inurba_marseille","lat":43.29899,"lon":5.4367,"is_reserved":false,"is_disabled":false,"rental_uris":{"android":"levelo://app?vid=f8216a2b-e7c5-4eea-8c3d-912daef0d729","ios":"levelo://app?vid=f8216a2b-e7c5-4eea-8c3d-912daef0d729"},"vehicle_type_id":"4","last_reported":1737619955,"current_range_meters":20000,"station_id":"ce4bhpp2rcd13ifvqhfg","pricing_plan_id":"cebpf4jnsgd1na2vs0mg"},{"bike_id":"7d5ee0d3-f7ee-4687-8817-481cc53d3596","system_id":"levelo_inurba_marseille","lat":43.27072,"lon":5.42277,"is_reserved":false,"is_disabled":false,"rental_uris":{"android":"levelo://app?vid=7d5ee0d3-f7ee-4687-8817-481cc53d3596","ios":"levelo://app?vid=7d5ee0d3-f7ee-4687-8817-481cc53d3596"},"vehicle_type_id":"4","last_reported":1737619955,"current_range_meters":17600,"station_id":"ce4bhk92rcd13ifvqgb0","pricing_plan_id":"cebpf4jnsgd1na2vs0mg"},{"bike_id":"d2778c1c-2773-492c-aa43-452e72c91e7c","system_id":"levelo_inurba_marseille","lat":43.3059,"lon":5.37225,"is_reserved":false,"is_disabled":false,"rental_uris":{"android":"levelo://app?vid=d2778c1c-2773-492c-aa43-452e72c91e7c","ios":"levelo://app?vid=d2778c1c-2773-492c-aa43-452e72c91e7c"},"vehicle_type_id":"4","last_reported":1737619955,"current_range_meters":38800,"station_id":"ce4bgqh2rcd13ifvqc4g","pricing_plan_id":"cebpf4jnsgd1na2vs0mg"},{"bike_id":"549b1928-e1cf-4e8f-979d-82ddd1e2f667","system_id":"levelo_inurba_marseille","lat":43.31873,"lon":5.40733,"is_reserved":false,"is_disabled":false,"rental_uris":{"android":"levelo://app?vid=549b1928-e1cf-4e8f-979d-82ddd1e2f667","ios":"levelo://app?vid=549b1928-e1cf-4e8f-979d-82ddd1e2f667"},"vehicle_type_id":"4","last_reported":1737619955,"current_range_meters":38000,"station_id":"ce4bhq12rcd13ifvqhig","pricing_plan_id":"cebpf4jnsgd1na2vs0mg"},{"bike_id":"c9b59356-4a07-4507-ba94-9e7752baf636","system_id":"levelo_inurba_marseille","lat":43.30904,"lon":5.36843,"is_reserved":false,"is_disabled":false,"rental_uris":{"android":"levelo://app?vid=c9b59356-4a07-4507-ba94-9e7752baf636","ios":"levelo://app?vid=c9b59356-4a07-4507-ba94-9e7752baf636"},"vehicle_type_id":"4","last_reported":1737619955,"current_range_meters":23200,"station_id":"ce4bgn92rcd13ifvqbvg","pricing_plan_id":"cebpf4jnsgd1na2vs0mg"},{"bike_id":"8e0ddf17-f172-49fd-aa4a-5802e9bc1eb4","system_id":"levelo_inurba_marseille","lat":43.34132,"lon":5.40916,"is_reserved":false,"is_disabled":false,"rental_uris":{"android":"levelo://app?vid=8e0ddf17-f172-49fd-aa4a-5802e9bc1eb4","ios":"levelo://app?vid=8e0ddf17-f172-49fd-aa4a-5802e9bc1eb4"},"vehicle_type_id":"4","last_reported":1737619955,"current_range_meters":39200,"station_id":"ce4bhqh2rcd13ifvqhlg","pricing_plan_id":"cebpf4jnsgd1na2vs0mg"},{"bike_id":"104d2b0a-20ef-4b97-96c3-5231651d9405","system_id":"levelo_inurba_marseille","lat":43.30419,"lon":5.37882,"is_reserved":false,"is_disabled":false,"rental_uris":{"android":"levelo://app?vid=104d2b0a-20ef-4b97-96c3-5231651d9405","ios":"levelo://app?vid=104d2b0a-20ef-4b97-96c3-5231651d9405"},"vehicle_type_id":"4","last_reported":1737619955,"current_range_meters":38800,"station_id":"ce4bgup2rcd13ifvqcn0","pricing_plan_id":"cebpf4jnsgd1na2vs0mg"},{"bike_id":"9863b7f9-4316-4322-9f6c-3cc66b0448e2","system_id":"levelo_inurba_marseille","lat":43.279439,"lon":5.389008,"is_reserved":false,"is_disabled":true,"rental_uris":{"android":"levelo://app?vid=9863b7f9-4316-4322-9f6c-3cc66b0448e2","ios":"levelo://app?vid=9863b7f9-4316-4322-9f6c-3cc66b0448e2"},"vehicle_type_id":"4","last_reported":1737619955,"current_range_meters":25600,"station_id":"","pricing_plan_id":"cebpf4jnsgd1na2vs0mg"},{"bike_id":"8741379d-312c-4f8a-874b-6f14433f6a99","system_id":"levelo_inurba_marseille","lat":43.30523,"lon":5.36542,"is_reserved":false,"is_disabled":false,"rental_uris":{"android":"levelo://app?vid=8741379d-312c-4f8a-874b-6f14433f6a99","ios":"levelo://app?vid=8741379d-312c-4f8a-874b-6f14433f6a99"},"vehicle_type_id":"4","last_reported":1737619955,"current_range_meters":36400,"station_id":"ce4bgs12rcd13ifvqcag","pricing_plan_id":"cebpf4jnsgd1na2vs0mg"},{"bike_id":"8321d96b-90be-4414-a696-09a6390b760d","system_id":"levelo_inurba_marseille","lat":43.30464,"lon":5.37895,"is_reserved":false,"is_disabled":true,"rental_uris":{"android":"levelo://app?vid=8321d96b-90be-4414-a696-09a6390b760d","ios":"levelo://app?vid=8321d96b-90be-4414-a696-09a6390b760d"},"vehicle_type_id":"4","last_reported":1737619955,"current_range_meters":34800,"station_id":"ce4bgup2rcd13ifvqcn0","pricing_plan_id":"cebpf4jnsgd1na2vs0mg"},{"bike_id":"eddb6b89-082b-479c-b34f-44c352a03897","system_id":"levelo_inurba_marseille","lat":43.25493,"lon":5.37671,"is_reserved":false,"is_disabled":false,"rental_uris":{"android":"levelo://app?vid=eddb6b89-082b-479c-b34f-44c352a03897","ios":"levelo://app?vid=eddb6b89-082b-479c-b34f-44c352a03897"},"vehicle_type_id":"4","last_reported":1737619955,"current_range_meters":38400,"station_id":"ce4bhh12rcd13ifvqff0","pricing_plan_id":"cebpf4jnsgd1na2vs0mg"},{"bike_id":"795016d8-3d99-4697-be28-e44e10ed86a8","system_id":"levelo_inurba_marseille","lat":43.27899,"lon":5.38018,"is_reserved":false,"is_disabled":false,"rental_uris":{"android":"levelo://app?vid=795016d8-3d99-4697-be28-e44e10ed86a8","ios":"levelo://app?vid=795016d8-3d99-4697-be28-e44e10ed86a8"},"vehicle_type_id":"4","last_reported":1737619955,"current_range_meters":37600,"station_id":"ce4bhf92rcd13ifvqf50","pricing_plan_id":"cebpf4jnsgd1na2vs0mg"},{"bike_id":"25c36321-41c3-4870-902a-14f872f1b934","system_id":"levelo_inurba_marseille","lat":43.29624,"lon":5.37724,"is_reserved":false,"is_disabled":false,"rental_uris":{"android":"levelo://app?vid=25c36321-41c3-4870-902a-14f872f1b934","ios":"levelo://app?vid=25c36321-41c3-4870-902a-14f872f1b934"},"vehicle_type_id":"4","last_reported":1737619955,"current_range_meters":24000,"station_id":"ce4bgi92rcd13ifvqb90","pricing_plan_id":"cebpf4jnsgd1na2vs0mg"},{"bike_id":"4cbc6001-4859-491c-8f7b-7c4cb757c724","system_id":"levelo_inurba_marseille","lat":43.30282,"lon":5.37683,"is_reserved":false,"is_disabled":false,"rental_uris":{"android":"levelo://app?vid=4cbc6001-4859-491c-8f7b-7c4cb757c724","ios":"levelo://app?vid=4cbc6001-4859-491c-8f7b-7c4cb757c724"},"vehicle_type_id":"4","last_reported":1737619955,"current_range_meters":35200,"station_id":"ce4bguh2rcd13ifvqcj0","pricing_plan_id":"cebpf4jnsgd1na2vs0mg"},{"bike_id":"66298199-3847-478a-aaf4-8eeb6eae21ba","system_id":"levelo_inurba_marseille","lat":43.29038,"lon":5.39989,"is_reserved":false,"is_disabled":false,"rental_uris":{"android":"levelo://app?vid=66298199-3847-478a-aaf4-8eeb6eae21ba","ios":"levelo://app?vid=66298199-3847-478a-aaf4-8eeb6eae21ba"},"vehicle_type_id":"4","last_reported":1737619955,"current_range_meters":38800,"station_id":"ce4bh392rcd13ifvqdm0","pricing_plan_id":"cebpf4jnsgd1na2vs0mg"},{"bike_id":"2b8eb6aa-82c8-45b2-80a5-e15fd8b8ca3a","system_id":"levelo_inurba_marseille","lat":43.3046,"lon":5.37908,"is_reserved":false,"is_disabled":false,"rental_uris":{"android":"levelo://app?vid=2b8eb6aa-82c8-45b2-80a5-e15fd8b8ca3a","ios":"levelo://app?vid=2b8eb6aa-82c8-45b2-80a5-e15fd8b8ca3a"},"vehicle_type_id":"4","last_reported":1737619955,"current_range_meters":24800,"station_id":"ce4bgup2rcd13ifvqcn0","pricing_plan_id":"cebpf4jnsgd1na2vs0mg"},{"bike_id":"dfbd27e7-12bf-4812-80d1-488dbaf230dc","system_id":"levelo_inurba_marseille","lat":43.32498,"lon":5.36553,"is_reserved":false,"is_disabled":false,"rental_uris":{"android":"levelo://app?vid=dfbd27e7-12bf-4812-80d1-488dbaf230dc","ios":"levelo://app?vid=dfbd27e7-12bf-4812-80d1-488dbaf230dc"},"vehicle_type_id":"4","last_reported":1737619955,"current_range_meters":23200,"station_id":"ce4bhs12rcd13ifvqhvg","pricing_plan_id":"cebpf4jnsgd1na2vs0mg"},{"bike_id":"28f51610-2ace-4ef5-8acd-b95cf52e90cb","system_id":"levelo_inurba_marseille","lat":43.30605,"lon":5.39351,"is_reserved":false,"is_disabled":false,"rental_uris":{"android":"levelo://app?vid=28f51610-2ace-4ef5-8acd-b95cf52e90cb","ios":"levelo://app?vid=28f51610-2ace-4ef5-8acd-b95cf52e90cb"},"vehicle_type_id":"4","last_reported":1737619955,"current_range_meters":10000,"station_id":"ce4bh0p2rcd13ifvqd80","pricing_plan_id":"cebpf4jnsgd1na2vs0mg"},{"bike_id":"a79167a2-513d-41d5-ba29-18e7a8b845c1","system_id":"levelo_inurba_marseille","lat":43.2953,"lon":5.37498,"is_reserved":false,"is_disabled":false,"rental_uris":{"android":"levelo://app?vid=a79167a2-513d-41d5-ba29-18e7a8b845c1","ios":"levelo://app?vid=a79167a2-513d-41d5-ba29-18e7a8b845c1"},"vehicle_type_id":"4","last_reported":1737619955,"current_range_meters":27600,"station_id":"ce4bgkp2rcd13ifvqbmg","pricing_plan_id":"cebpf4jnsgd1na2vs0mg"},{"bike_id":"f21ebbc6-e78f-47d0-b65c-47bcf53b1b62","system_id":"levelo_inurba_marseille","lat":43.30938,"lon":5.40143,"is_reserved":false,"is_disabled":false,"rental_uris":{"android":"levelo://app?vid=f21ebbc6-e78f-47d0-b65c-47bcf53b1b62","ios":"levelo://app?vid=f21ebbc6-e78f-47d0-b65c-47bcf53b1b62"},"vehicle_type_id":"4","last_reported":1737619955,"current_range_meters":30800,"station_id":"ce4bgvp2rcd13ifvqct0","pricing_plan_id":"cebpf4jnsgd1na2vs0mg"},{"bike_id":"1bf356b9-0346-48ea-82cf-8e5f9ce64345","system_id":"levelo_inurba_marseille","lat":43.3372,"lon":5.39181,"is_reserved":false,"is_disabled":true,"rental_uris":{"android":"levelo://app?vid=1bf356b9-0346-48ea-82cf-8e5f9ce64345","ios":"levelo://app?vid=1bf356b9-0346-48ea-82cf-8e5f9ce64345"},"vehicle_type_id":"4","last_reported":1737619955,"current_range_meters":0,"station_id":"ce4bhr92rcd13ifvqhsg","pricing_plan_id":"cebpf4jnsgd1na2vs0mg"},{"bike_id":"a353073b-3453-490f-bdfe-01f1c076898b","system_id":"levelo_inurba_marseille","lat":43.3134,"lon":5.36711,"is_reserved":false,"is_disabled":false,"rental_uris":{"android":"levelo://app?vid=a353073b-3453-490f-bdfe-01f1c076898b","ios":"levelo://app?vid=a353073b-3453-490f-bdfe-01f1c076898b"},"vehicle_type_id":"4","last_reported":1737619955,"current_range_meters":27200,"station_id":"ce4bgr92rcd13ifvqc6g","pricing_plan_id":"cebpf4jnsgd1na2vs0mg"},{"bike_id":"49052dc3-4d8a-4007-89e4-6a2b13d47195","system_id":"levelo_inurba_marseille","lat":43.24396,"lon":5.37062,"is_reserved":false,"is_disabled":true,"rental_uris":{"android":"levelo://app?vid=49052dc3-4d8a-4007-89e4-6a2b13d47195","ios":"levelo://app?vid=49052dc3-4d8a-4007-89e4-6a2b13d47195"},"vehicle_type_id":"4","last_reported":1737619955,"current_range_meters":10800,"station_id":"ce4bhhh2rcd13ifvqfk0","pricing_plan_id":"cebpf4jnsgd1na2vs0mg"},{"bike_id":"822a291d-a22f-4b8c-b69f-9054c94a6d57","system_id":"levelo_inurba_marseille","lat":43.32362,"lon":5.38889,"is_reserved":false,"is_disabled":false,"rental_uris":{"android":"levelo://app?vid=822a291d-a22f-4b8c-b69f-9054c94a6d57","ios":"levelo://app?vid=822a291d-a22f-4b8c-b69f-9054c94a6d57"},"vehicle_type_id":"4","last_reported":1737619955,"current_range_meters":37600,"station_id":"ce4bhqp2rcd13ifvqhog","pricing_plan_id":"cebpf4jnsgd1na2vs0mg"},{"bike_id":"e6d69e77-2426-40e6-8b56-caff4d581c0e","system_id":"levelo_inurba_marseille","lat":43.29574,"lon":5.42292,"is_reserved":false,"is_disabled":false,"rental_uris":{"android":"levelo://app?vid=e6d69e77-2426-40e6-8b56-caff4d581c0e","ios":"levelo://app?vid=e6d69e77-2426-40e6-8b56-caff4d581c0e"},"vehicle_type_id":"4","last_reported":1737619955,"current_range_meters":38800,"station_id":"ce4bhph2rcd13ifvqhdg","pricing_plan_id":"cebpf4jnsgd1na2vs0mg"},{"bike_id":"fcd4837f-6e09-4786-bcf5-c3a686cbcfef","system_id":"levelo_inurba_marseille","lat":43.29877,"lon":5.4367,"is_reserved":false,"is_disabled":false,"rental_uris":{"android":"levelo://app?vid=fcd4837f-6e09-4786-bcf5-c3a686cbcfef","ios":"levelo://app?vid=fcd4837f-6e09-4786-bcf5-c3a686cbcfef"},"vehicle_type_id":"4","last_reported":1737619955,"current_range_meters":28800,"station_id":"ce4bhpp2rcd13ifvqhfg","pricing_plan_id":"cebpf4jnsgd1na2vs0mg"},{"bike_id":"4ddcf32b-48a9-4e94-a823-76f5b33beae8","system_id":"levelo_inurba_marseille","lat":43.2749,"lon":5.42454,"is_reserved":false,"is_disabled":false,"rental_uris":{"android":"levelo://app?vid=4ddcf32b-48a9-4e94-a823-76f5b33beae8","ios":"levelo://app?vid=4ddcf32b-48a9-4e94-a823-76f5b33beae8"},"vehicle_type_id":"4","last_reported":1737619955,"current_range_meters":27600,"station_id":"ce4bhn92rcd13ifvqgrg","pricing_plan_id":"cebpf4jnsgd1na2vs0mg"},{"bike_id":"d46a74b4-d575-4284-b10d-520ab1619e29","system_id":"levelo_inurba_marseille","lat":43.24686,"lon":5.38158,"is_reserved":false,"is_disabled":false,"rental_uris":{"android":"levelo://app?vid=d46a74b4-d575-4284-b10d-520ab1619e29","ios":"levelo://app?vid=d46a74b4-d575-4284-b10d-520ab1619e29"},"vehicle_type_id":"4","last_reported":1737619955,"current_range_meters":9600,"station_id":"ce4bhih2rcd13ifvqfr0","pricing_plan_id":"cebpf4jnsgd1na2vs0mg"},{"bike_id":"be03f043-40b5-4dd7-931d-bea229e80d48","system_id":"levelo_inurba_marseille","lat":43.30314,"lon":5.36896,"is_reserved":false,"is_disabled":false,"rental_uris":{"android":"levelo://app?vid=be03f043-40b5-4dd7-931d-bea229e80d48","ios":"levelo://app?vid=be03f043-40b5-4dd7-931d-bea229e80d48"},"vehicle_type_id":"4","last_reported":1737619955,"current_range_meters":33600,"station_id":"ce4bgqh2rcd13ifvqc5g","pricing_plan_id":"cebpf4jnsgd1na2vs0mg"},{"bike_id":"f7923ad2-f1c4-4f5c-a5e5-189abf850b05","system_id":"levelo_inurba_marseille","lat":43.29039,"lon":5.39945,"is_reserved":false,"is_disabled":false,"rental_uris":{"android":"levelo://app?vid=f7923ad2-f1c4-4f5c-a5e5-189abf850b05","ios":"levelo://app?vid=f7923ad2-f1c4-4f5c-a5e5-189abf850b05"},"vehicle_type_id":"4","last_reported":1737619955,"current_range_meters":16000,"station_id":"ce4bh392rcd13ifvqdm0","pricing_plan_id":"cebpf4jnsgd1na2vs0mg"},{"bike_id":"16f0e6b5-d946-47d2-a97c-ad19d0c1e9a1","system_id":"levelo_inurba_marseille","lat":43.309005,"lon":5.36846,"is_reserved":false,"is_disabled":false,"rental_uris":{"android":"levelo://app?vid=16f0e6b5-d946-47d2-a97c-ad19d0c1e9a1","ios":"levelo://app?vid=16f0e6b5-d946-47d2-a97c-ad19d0c1e9a1"},"vehicle_type_id":"4","last_reported":1737619955,"current_range_meters":31200,"station_id":"ce4bgn92rcd13ifvqbvg","pricing_plan_id":"cebpf4jnsgd1na2vs0mg"},{"bike_id":"23cbf68b-004a-4a92-9108-cf5e88d72d1d","system_id":"levelo_inurba_marseille","lat":43.2732,"lon":5.39092,"is_reserved":false,"is_disabled":false,"rental_uris":{"android":"levelo://app?vid=23cbf68b-004a-4a92-9108-cf5e88d72d1d","ios":"levelo://app?vid=23cbf68b-004a-4a92-9108-cf5e88d72d1d"},"vehicle_type_id":"4","last_reported":1737619955,"current_range_meters":33200,"station_id":"ce4bhgp2rcd13ifvqfe0","pricing_plan_id":"cebpf4jnsgd1na2vs0mg"},{"bike_id":"43925b94-4e0a-426a-bcb4-33ea7b4e9df8","system_id":"levelo_inurba_marseille","lat":43.25103,"lon":5.40329,"is_reserved":false,"is_disabled":false,"rental_uris":{"android":"levelo://app?vid=43925b94-4e0a-426a-bcb4-33ea7b4e9df8","ios":"levelo://app?vid=43925b94-4e0a-426a-bcb4-33ea7b4e9df8"},"vehicle_type_id":"4","last_reported":1737619955,"current_range_meters":8400,"station_id":"ce4bhlh2rcd13ifvqgig","pricing_plan_id":"cebpf4jnsgd1na2vs0mg"},{"bike_id":"6ad3127b-9f04-4c09-8c11-29b3be8571b8","system_id":"levelo_inurba_marseille","lat":43.26684,"lon":5.38276,"is_reserved":false,"is_disabled":false,"rental_uris":{"android":"levelo://app?vid=6ad3127b-9f04-4c09-8c11-29b3be8571b8","ios":"levelo://app?vid=6ad3127b-9f04-4c09-8c11-29b3be8571b8"},"vehicle_type_id":"4","last_reported":1737619955,"current_range_meters":30400,"station_id":"ce4bhg92rcd13ifvqf90","pricing_plan_id":"cebpf4jnsgd1na2vs0mg"},{"bike_id":"e4758cb0-0367-4c65-b523-571a72650646","system_id":"levelo_inurba_marseille","lat":43.30513,"lon":5.36558,"is_reserved":false,"is_disabled":false,"rental_uris":{"android":"levelo://app?vid=e4758cb0-0367-4c65-b523-571a72650646","ios":"levelo://app?vid=e4758cb0-0367-4c65-b523-571a72650646"},"vehicle_type_id":"4","last_reported":1737619955,"current_range_meters":38800,"station_id":"ce4bgs12rcd13ifvqcag","pricing_plan_id":"cebpf4jnsgd1na2vs0mg"},{"bike_id":"4073ffe7-39d3-437b-91da-450e41fb252c","system_id":"levelo_inurba_marseille","lat":43.31343,"lon":5.36735,"is_reserved":false,"is_disabled":false,"rental_uris":{"android":"levelo://app?vid=4073ffe7-39d3-437b-91da-450e41fb252c","ios":"levelo://app?vid=4073ffe7-39d3-437b-91da-450e41fb252c"},"vehicle_type_id":"4","last_reported":1737619955,"current_range_meters":17600,"station_id":"ce4bgr92rcd13ifvqc6g","pricing_plan_id":"cebpf4jnsgd1na2vs0mg"},{"bike_id":"be9a4d12-764a-4e37-9588-380f5b93f1cc","system_id":"levelo_inurba_marseille","lat":43.2732,"lon":5.39079,"is_reserved":false,"is_disabled":false,"rental_uris":{"android":"levelo://app?vid=be9a4d12-764a-4e37-9588-380f5b93f1cc","ios":"levelo://app?vid=be9a4d12-764a-4e37-9588-380f5b93f1cc"},"vehicle_type_id":"4","last_reported":1737619955,"current_range_meters":34000,"station_id":"ce4bhgp2rcd13ifvqfe0","pricing_plan_id":"cebpf4jnsgd1na2vs0mg"},{"bike_id":"b524f7ce-d7cc-4a82-bec9-b6a9ae03e567","system_id":"levelo_inurba_marseille","lat":43.29562,"lon":5.37517,"is_reserved":false,"is_disabled":false,"rental_uris":{"android":"levelo://app?vid=b524f7ce-d7cc-4a82-bec9-b6a9ae03e567","ios":"levelo://app?vid=b524f7ce-d7cc-4a82-bec9-b6a9ae03e567"},"vehicle_type_id":"4","last_reported":1737619955,"current_range_meters":8000,"station_id":"ce4bgh92rcd13ifvqb50","pricing_plan_id":"cebpf4jnsgd1na2vs0mg"},{"bike_id":"740ca7dc-7fcb-49cd-8b20-28b6f7632f45","system_id":"levelo_inurba_marseille","lat":43.30213,"lon":5.39463,"is_reserved":false,"is_disabled":true,"rental_uris":{"android":"levelo://app?vid=740ca7dc-7fcb-49cd-8b20-28b6f7632f45","ios":"levelo://app?vid=740ca7dc-7fcb-49cd-8b20-28b6f7632f45"},"vehicle_type_id":"4","last_reported":1737619955,"current_range_meters":800,"station_id":"ce4bh0p2rcd13ifvqd70","pricing_plan_id":"cebpf4jnsgd1na2vs0mg"},{"bike_id":"406d93ef-ccd2-46a3-8473-4911b99f22a8","system_id":"levelo_inurba_marseille","lat":43.29561,"lon":5.37517,"is_reserved":false,"is_disabled":false,"rental_uris":{"android":"levelo://app?vid=406d93ef-ccd2-46a3-8473-4911b99f22a8","ios":"levelo://app?vid=406d93ef-ccd2-46a3-8473-4911b99f22a8"},"vehicle_type_id":"4","last_reported":1737619955,"current_range_meters":27600,"station_id":"ce4bgh92rcd13ifvqb50","pricing_plan_id":"cebpf4jnsgd1na2vs0mg"},{"bike_id":"83166b0a-899b-4693-98c4-ffc2b5705e20","system_id":"levelo_inurba_marseille","lat":43.24999,"lon":5.38917,"is_reserved":false,"is_disabled":false,"rental_uris":{"android":"levelo://app?vid=83166b0a-899b-4693-98c4-ffc2b5705e20","ios":"levelo://app?vid=83166b0a-899b-4693-98c4-ffc2b5705e20"},"vehicle_type_id":"4","last_reported":1737619955,"current_range_meters":29600,"station_id":"ce4bhgp2rcd13ifvqfd0","pricing_plan_id":"cebpf4jnsgd1na2vs0mg"},{"bike_id":"adf123f7-dac3-486c-9428-0fa9f3449c81","system_id":"levelo_inurba_marseille","lat":43.26787,"lon":5.39417,"is_reserved":false,"is_disabled":false,"rental_uris":{"android":"levelo://app?vid=adf123f7-dac3-486c-9428-0fa9f3449c81","ios":"levelo://app?vid=adf123f7-dac3-486c-9428-0fa9f3449c81"},"vehicle_type_id":"4","last_reported":1737619955,"current_range_meters":33600,"station_id":"ce4bhh12rcd13ifvqfg0","pricing_plan_id":"cebpf4jnsgd1na2vs0mg"},{"bike_id":"13ff516e-16cf-4543-8540-9030b8b296b4","system_id":"levelo_inurba_marseille","lat":43.231891,"lon":5.355535,"is_reserved":false,"is_disabled":false,"rental_uris":{"android":"levelo://app?vid=13ff516e-16cf-4543-8540-9030b8b296b4","ios":"levelo://app?vid=13ff516e-16cf-4543-8540-9030b8b296b4"},"vehicle_type_id":"4","last_reported":1737619955,"current_range_meters":30000,"station_id":"ce4bhu92rcd13ifvqi70","pricing_plan_id":"cebpf4jnsgd1na2vs0mg"},{"bike_id":"a256bffb-9dbb-4017-a5f0-659980004adb","system_id":"levelo_inurba_marseille","lat":43.26955,"lon":5.38901,"is_reserved":false,"is_disabled":false,"rental_uris":{"android":"levelo://app?vid=a256bffb-9dbb-4017-a5f0-659980004adb","ios":"levelo://app?vid=a256bffb-9dbb-4017-a5f0-659980004adb"},"vehicle_type_id":"4","last_reported":1737619955,"current_range_meters":38800,"station_id":"ce4bhhh2rcd13ifvqfl0","pricing_plan_id":"cebpf4jnsgd1na2vs0mg"},{"bike_id":"6b412e3f-934e-4407-858b-fad865be8605","system_id":"levelo_inurba_marseille","lat":43.30473,"lon":5.37924,"is_reserved":false,"is_disabled":true,"rental_uris":{"android":"levelo://app?vid=6b412e3f-934e-4407-858b-fad865be8605","ios":"levelo://app?vid=6b412e3f-934e-4407-858b-fad865be8605"},"vehicle_type_id":"4","last_reported":1737619955,"current_range_meters":36800,"station_id":"ce4bgup2rcd13ifvqcn0","pricing_plan_id":"cebpf4jnsgd1na2vs0mg"},{"bike_id":"dc9afc0d-d533-431b-a32f-6f6423d7880b","system_id":"levelo_inurba_marseille","lat":43.31727,"lon":5.42388,"is_reserved":false,"is_disabled":true,"rental_uris":{"android":"levelo://app?vid=dc9afc0d-d533-431b-a32f-6f6423d7880b","ios":"levelo://app?vid=dc9afc0d-d533-431b-a32f-6f6423d7880b"},"vehicle_type_id":"4","last_reported":1737619955,"current_range_meters":32000,"station_id":"ce4bhp92rcd13ifvqhbg","pricing_plan_id":"cebpf4jnsgd1na2vs0mg"},{"bike_id":"af78eefb-cdfb-4b91-89fc-38a73448dac1","system_id":"levelo_inurba_marseille","lat":43.29274,"lon":5.40169,"is_reserved":false,"is_disabled":false,"rental_uris":{"android":"levelo://app?vid=af78eefb-cdfb-4b91-89fc-38a73448dac1","ios":"levelo://app?vid=af78eefb-cdfb-4b91-89fc-38a73448dac1"},"vehicle_type_id":"4","last_reported":1737619955,"current_range_meters":5600,"station_id":"ce4bh312rcd13ifvqdk0","pricing_plan_id":"cebpf4jnsgd1na2vs0mg"},{"bike_id":"888038f9-044f-4ded-824f-b22d803d5b12","system_id":"levelo_inurba_marseille","lat":43.29567,"lon":5.3751,"is_reserved":false,"is_disabled":true,"rental_uris":{"android":"levelo://app?vid=888038f9-044f-4ded-824f-b22d803d5b12","ios":"levelo://app?vid=888038f9-044f-4ded-824f-b22d803d5b12"},"vehicle_type_id":"4","last_reported":1737619955,"current_range_meters":16400,"station_id":"","pricing_plan_id":"cebpf4jnsgd1na2vs0mg"},{"bike_id":"2efe9e39-8249-4782-be46-093a8b218e44","system_id":"levelo_inurba_marseille","lat":43.31724,"lon":5.42394,"is_reserved":false,"is_disabled":false,"rental_uris":{"android":"levelo://app?vid=2efe9e39-8249-4782-be46-093a8b218e44","ios":"levelo://app?vid=2efe9e39-8249-4782-be46-093a8b218e44"},"vehicle_type_id":"4","last_reported":1737619955,"current_range_meters":38800,"station_id":"ce4bhp92rcd13ifvqhbg","pricing_plan_id":"cebpf4jnsgd1na2vs0mg"},{"bike_id":"1876537c-c9d8-4160-b31c-e17d644f44c6","system_id":"levelo_inurba_marseille","lat":43.32474,"lon":5.36553,"is_reserved":false,"is_disabled":false,"rental_uris":{"android":"levelo://app?vid=1876537c-c9d8-4160-b31c-e17d644f44c6","ios":"levelo://app?vid=1876537c-c9d8-4160-b31c-e17d644f44c6"},"vehicle_type_id":"4","last_reported":1737619955,"current_range_meters":33600,"station_id":"ce4bhs12rcd13ifvqhvg","pricing_plan_id":"cebpf4jnsgd1na2vs0mg"},{"bike_id":"97f1625a-4af3-4405-b2ed-13eaea235e64","system_id":"levelo_inurba_marseille","lat":43.29307,"lon":5.37472,"is_reserved":false,"is_disabled":false,"rental_uris":{"android":"levelo://app?vid=97f1625a-4af3-4405-b2ed-13eaea235e64","ios":"levelo://app?vid=97f1625a-4af3-4405-b2ed-13eaea235e64"},"vehicle_type_id":"4","last_reported":1737619955,"current_range_meters":24800,"station_id":"ce4bgi12rcd13ifvqb70","pricing_plan_id":"cebpf4jnsgd1na2vs0mg"},{"bike_id":"c39beb18-b568-4699-95c1-ddaef8c27d01","system_id":"levelo_inurba_marseille","lat":43.30943,"lon":5.39033,"is_reserved":false,"is_disabled":true,"rental_uris":{"android":"levelo://app?vid=c39beb18-b568-4699-95c1-ddaef8c27d01","ios":"levelo://app?vid=c39beb18-b568-4699-95c1-ddaef8c27d01"},"vehicle_type_id":"4","last_reported":1737619955,"current_range_meters":0,"station_id":"ce4bgup2rcd13ifvqco0","pricing_plan_id":"cebpf4jnsgd1na2vs0mg"},{"bike_id":"a4990aa9-5817-4db3-b27e-b46aa302df30","system_id":"levelo_inurba_marseille","lat":43.24075,"lon":5.3776,"is_reserved":false,"is_disabled":false,"rental_uris":{"android":"levelo://app?vid=a4990aa9-5817-4db3-b27e-b46aa302df30","ios":"levelo://app?vid=a4990aa9-5817-4db3-b27e-b46aa302df30"},"vehicle_type_id":"4","last_reported":1737619955,"current_range_meters":26000,"station_id":"ce4bhnp2rcd13ifvqgvg","pricing_plan_id":"cebpf4jnsgd1na2vs0mg"},{"bike_id":"3abe7e97-50d3-4bcc-a457-89a744ac80d0","system_id":"levelo_inurba_marseille","lat":43.3046,"lon":5.37903,"is_reserved":false,"is_disabled":false,"rental_uris":{"android":"levelo://app?vid=3abe7e97-50d3-4bcc-a457-89a744ac80d0","ios":"levelo://app?vid=3abe7e97-50d3-4bcc-a457-89a744ac80d0"},"vehicle_type_id":"4","last_reported":1737619955,"current_range_meters":24400,"station_id":"ce4bgup2rcd13ifvqcn0","pricing_plan_id":"cebpf4jnsgd1na2vs0mg"},{"bike_id":"02a6b0b4-402d-4137-8c19-2255a9d33595","system_id":"levelo_inurba_marseille","lat":43.3014,"lon":5.38086,"is_reserved":false,"is_disabled":false,"rental_uris":{"android":"levelo://app?vid=02a6b0b4-402d-4137-8c19-2255a9d33595","ios":"levelo://app?vid=02a6b0b4-402d-4137-8c19-2255a9d33595"},"vehicle_type_id":"4","last_reported":1737619955,"current_range_meters":39200,"station_id":"ce4bgjp2rcd13ifvqbh0","pricing_plan_id":"cebpf4jnsgd1na2vs0mg"},{"bike_id":"427ec049-7bdc-415e-93a1-e025c8b36d89","system_id":"levelo_inurba_marseille","lat":43.27998,"lon":5.39998,"is_reserved":false,"is_disabled":false,"rental_uris":{"android":"levelo://app?vid=427ec049-7bdc-415e-93a1-e025c8b36d89","ios":"levelo://app?vid=427ec049-7bdc-415e-93a1-e025c8b36d89"},"vehicle_type_id":"4","last_reported":1737619955,"current_range_meters":38000,"station_id":"ce4bho92rcd13ifvqh4g","pricing_plan_id":"cebpf4jnsgd1na2vs0mg"},{"bike_id":"2acd47f4-c469-4337-9bf8-15f7df3a4cc9","system_id":"levelo_inurba_marseille","lat":43.28693,"lon":5.37416,"is_reserved":false,"is_disabled":false,"rental_uris":{"android":"levelo://app?vid=2acd47f4-c469-4337-9bf8-15f7df3a4cc9","ios":"levelo://app?vid=2acd47f4-c469-4337-9bf8-15f7df3a4cc9"},"vehicle_type_id":"4","last_reported":1737619955,"current_range_meters":24400,"station_id":"ce4bh3p2rcd13ifvqdq0","pricing_plan_id":"cebpf4jnsgd1na2vs0mg"},{"bike_id":"5b5d4d96-8df1-499e-a530-eead026d912a","system_id":"levelo_inurba_marseille","lat":43.27377,"lon":5.36263,"is_reserved":false,"is_disabled":false,"rental_uris":{"android":"levelo://app?vid=5b5d4d96-8df1-499e-a530-eead026d912a","ios":"levelo://app?vid=5b5d4d96-8df1-499e-a530-eead026d912a"},"vehicle_type_id":"4","last_reported":1737619955,"current_range_meters":37600,"station_id":"ce4bhbh2rcd13ifvqeo0","pricing_plan_id":"cebpf4jnsgd1na2vs0mg"},{"bike_id":"60ca936a-be9e-4d1e-a3a4-fe36454ec398","system_id":"levelo_inurba_marseille","lat":43.29554,"lon":5.42266,"is_reserved":false,"is_disabled":false,"rental_uris":{"android":"levelo://app?vid=60ca936a-be9e-4d1e-a3a4-fe36454ec398","ios":"levelo://app?vid=60ca936a-be9e-4d1e-a3a4-fe36454ec398"},"vehicle_type_id":"4","last_reported":1737619955,"current_range_meters":38400,"station_id":"ce4bhph2rcd13ifvqhdg","pricing_plan_id":"cebpf4jnsgd1na2vs0mg"},{"bike_id":"d5e580bb-31f1-420b-8967-4ef30e3f9e43","system_id":"levelo_inurba_marseille","lat":43.31071,"lon":5.42435,"is_reserved":false,"is_disabled":false,"rental_uris":{"android":"levelo://app?vid=d5e580bb-31f1-420b-8967-4ef30e3f9e43","ios":"levelo://app?vid=d5e580bb-31f1-420b-8967-4ef30e3f9e43"},"vehicle_type_id":"4","last_reported":1737619955,"current_range_meters":26000,"station_id":"ce4bhp92rcd13ifvqhag","pricing_plan_id":"cebpf4jnsgd1na2vs0mg"},{"bike_id":"68e9c31c-ad3e-43bf-9dd6-a2db62b95ef7","system_id":"levelo_inurba_marseille","lat":43.32465,"lon":5.36572,"is_reserved":false,"is_disabled":false,"rental_uris":{"android":"levelo://app?vid=68e9c31c-ad3e-43bf-9dd6-a2db62b95ef7","ios":"levelo://app?vid=68e9c31c-ad3e-43bf-9dd6-a2db62b95ef7"},"vehicle_type_id":"4","last_reported":1737619955,"current_range_meters":24000,"station_id":"ce4bhs12rcd13ifvqhvg","pricing_plan_id":"cebpf4jnsgd1na2vs0mg"},{"bike_id":"c57a4656-9914-4691-8920-de942ac8d52d","system_id":"levelo_inurba_marseille","lat":43.24984,"lon":5.38953,"is_reserved":false,"is_disabled":false,"rental_uris":{"android":"levelo://app?vid=c57a4656-9914-4691-8920-de942ac8d52d","ios":"levelo://app?vid=c57a4656-9914-4691-8920-de942ac8d52d"},"vehicle_type_id":"4","last_reported":1737619955,"current_range_meters":27200,"station_id":"ce4bhgp2rcd13ifvqfd0","pricing_plan_id":"cebpf4jnsgd1na2vs0mg"},{"bike_id":"667e0b87-f667-44a5-b316-b671737d342f","system_id":"levelo_inurba_marseille","lat":43.29301,"lon":5.37461,"is_reserved":false,"is_disabled":false,"rental_uris":{"android":"levelo://app?vid=667e0b87-f667-44a5-b316-b671737d342f","ios":"levelo://app?vid=667e0b87-f667-44a5-b316-b671737d342f"},"vehicle_type_id":"4","last_reported":1737619955,"current_range_meters":17600,"station_id":"ce4bgi12rcd13ifvqb70","pricing_plan_id":"cebpf4jnsgd1na2vs0mg"},{"bike_id":"b8338bfe-1284-4232-9a51-15bb8e974f1c","system_id":"levelo_inurba_marseille","lat":43.29841,"lon":5.36271,"is_reserved":false,"is_disabled":true,"rental_uris":{"android":"levelo://app?vid=b8338bfe-1284-4232-9a51-15bb8e974f1c","ios":"levelo://app?vid=b8338bfe-1284-4232-9a51-15bb8e974f1c"},"vehicle_type_id":"4","last_reported":1737619955,"current_range_meters":0,"station_id":"ce4bgpp2rcd13ifvqc3g","pricing_plan_id":"cebpf4jnsgd1na2vs0mg"},{"bike_id":"d44e0181-8fda-48f6-8535-2fda924ce2fd","system_id":"levelo_inurba_marseille","lat":43.29879,"lon":5.43657,"is_reserved":false,"is_disabled":false,"rental_uris":{"android":"levelo://app?vid=d44e0181-8fda-48f6-8535-2fda924ce2fd","ios":"levelo://app?vid=d44e0181-8fda-48f6-8535-2fda924ce2fd"},"vehicle_type_id":"4","last_reported":1737619955,"current_range_meters":4800,"station_id":"ce4bhpp2rcd13ifvqhfg","pricing_plan_id":"cebpf4jnsgd1na2vs0mg"},{"bike_id":"bd771a8e-666c-4f89-bb31-e000a937060f","system_id":"levelo_inurba_marseille","lat":43.28408,"lon":5.37523,"is_reserved":false,"is_disabled":true,"rental_uris":{"android":"levelo://app?vid=bd771a8e-666c-4f89-bb31-e000a937060f","ios":"levelo://app?vid=bd771a8e-666c-4f89-bb31-e000a937060f"},"vehicle_type_id":"4","last_reported":1737619955,"current_range_meters":6000,"station_id":"ce4bh412rcd13ifvqds0","pricing_plan_id":"cebpf4jnsgd1na2vs0mg"},{"bike_id":"d8ce4ac7-3548-4c99-80c2-54448a2f2a6a","system_id":"levelo_inurba_marseille","lat":43.29265,"lon":5.36845,"is_reserved":false,"is_disabled":true,"rental_uris":{"android":"levelo://app?vid=d8ce4ac7-3548-4c99-80c2-54448a2f2a6a","ios":"levelo://app?vid=d8ce4ac7-3548-4c99-80c2-54448a2f2a6a"},"vehicle_type_id":"4","last_reported":1737619955,"current_range_meters":28000,"station_id":"ce4bhbp2rcd13ifvqesg","pricing_plan_id":"cebpf4jnsgd1na2vs0mg"},{"bike_id":"03ba7d4a-0d2a-45a4-b38b-69522f68c3d2","system_id":"levelo_inurba_marseille","lat":43.30159,"lon":5.38083,"is_reserved":false,"is_disabled":false,"rental_uris":{"android":"levelo://app?vid=03ba7d4a-0d2a-45a4-b38b-69522f68c3d2","ios":"levelo://app?vid=03ba7d4a-0d2a-45a4-b38b-69522f68c3d2"},"vehicle_type_id":"4","last_reported":1737619955,"current_range_meters":38800,"station_id":"ce4bgjp2rcd13ifvqbh0","pricing_plan_id":"cebpf4jnsgd1na2vs0mg"},{"bike_id":"f15a3926-03ea-4c4b-9f1b-6e7324acfe94","system_id":"levelo_inurba_marseille","lat":43.30911,"lon":5.36863,"is_reserved":false,"is_disabled":false,"rental_uris":{"android":"levelo://app?vid=f15a3926-03ea-4c4b-9f1b-6e7324acfe94","ios":"levelo://app?vid=f15a3926-03ea-4c4b-9f1b-6e7324acfe94"},"vehicle_type_id":"4","last_reported":1737619955,"current_range_meters":14800,"station_id":"ce4bgn92rcd13ifvqbvg","pricing_plan_id":"cebpf4jnsgd1na2vs0mg"},{"bike_id":"237bfae5-b378-4006-9b1f-9167127922c4","system_id":"levelo_inurba_marseille","lat":43.30932,"lon":5.40144,"is_reserved":false,"is_disabled":false,"rental_uris":{"android":"levelo://app?vid=237bfae5-b378-4006-9b1f-9167127922c4","ios":"levelo://app?vid=237bfae5-b378-4006-9b1f-9167127922c4"},"vehicle_type_id":"4","last_reported":1737619955,"current_range_meters":26000,"station_id":"ce4bgvp2rcd13ifvqct0","pricing_plan_id":"cebpf4jnsgd1na2vs0mg"},{"bike_id":"79806346-ef00-40e4-a531-9c56ff9a9c76","system_id":"levelo_inurba_marseille","lat":43.30453,"lon":5.37886,"is_reserved":false,"is_disabled":false,"rental_uris":{"android":"levelo://app?vid=79806346-ef00-40e4-a531-9c56ff9a9c76","ios":"levelo://app?vid=79806346-ef00-40e4-a531-9c56ff9a9c76"},"vehicle_type_id":"4","last_reported":1737619955,"current_range_meters":36800,"station_id":"ce4bgup2rcd13ifvqcn0","pricing_plan_id":"cebpf4jnsgd1na2vs0mg"},{"bike_id":"79c49610-b1db-4f80-b70f-d282a39244ce","system_id":"levelo_inurba_marseille","lat":43.2407,"lon":5.37762,"is_reserved":false,"is_disabled":false,"rental_uris":{"android":"levelo://app?vid=79c49610-b1db-4f80-b70f-d282a39244ce","ios":"levelo://app?vid=79c49610-b1db-4f80-b70f-d282a39244ce"},"vehicle_type_id":"4","last_reported":1737619955,"current_range_meters":36800,"station_id":"ce4bhnp2rcd13ifvqgvg","pricing_plan_id":"cebpf4jnsgd1na2vs0mg"},{"bike_id":"ff525654-da70-4f30-9f4b-7720845385ef","system_id":"levelo_inurba_marseille","lat":43.30462,"lon":5.37909,"is_reserved":false,"is_disabled":false,"rental_uris":{"android":"levelo://app?vid=ff525654-da70-4f30-9f4b-7720845385ef","ios":"levelo://app?vid=ff525654-da70-4f30-9f4b-7720845385ef"},"vehicle_type_id":"4","last_reported":1737619955,"current_range_meters":39200,"station_id":"ce4bgup2rcd13ifvqcn0","pricing_plan_id":"cebpf4jnsgd1na2vs0mg"},{"bike_id":"4c43a9c4-bfa7-45b0-9298-d49c582c365e","system_id":"levelo_inurba_marseille","lat":43.26956,"lon":5.3862,"is_reserved":false,"is_disabled":false,"rental_uris":{"android":"levelo://app?vid=4c43a9c4-bfa7-45b0-9298-d49c582c365e","ios":"levelo://app?vid=4c43a9c4-bfa7-45b0-9298-d49c582c365e"},"vehicle_type_id":"4","last_reported":1737619955,"current_range_meters":38800,"station_id":"ce4bhh92rcd13ifvqfh0","pricing_plan_id":"cebpf4jnsgd1na2vs0mg"},{"bike_id":"73437ec1-c49c-4c1d-87bb-5c89656ded36","system_id":"levelo_inurba_marseille","lat":43.30534,"lon":5.36698,"is_reserved":false,"is_disabled":false,"rental_uris":{"android":"levelo://app?vid=73437ec1-c49c-4c1d-87bb-5c89656ded36","ios":"levelo://app?vid=73437ec1-c49c-4c1d-87bb-5c89656ded36"},"vehicle_type_id":"4","last_reported":1737619955,"current_range_meters":39200,"station_id":"ce4bgrp2rcd13ifvqc9g","pricing_plan_id":"cebpf4jnsgd1na2vs0mg"},{"bike_id":"22194593-f787-46d9-8429-b9675a290fcf","system_id":"levelo_inurba_marseille","lat":43.33603,"lon":5.41044,"is_reserved":false,"is_disabled":false,"rental_uris":{"android":"levelo://app?vid=22194593-f787-46d9-8429-b9675a290fcf","ios":"levelo://app?vid=22194593-f787-46d9-8429-b9675a290fcf"},"vehicle_type_id":"4","last_reported":1737619955,"current_range_meters":37600,"station_id":"ce4bhqh2rcd13ifvqhmg","pricing_plan_id":"cebpf4jnsgd1na2vs0mg"},{"bike_id":"1714e45e-7747-4d49-a740-f2b4f1a907bf","system_id":"levelo_inurba_marseille","lat":43.32473,"lon":5.3658,"is_reserved":false,"is_disabled":false,"rental_uris":{"android":"levelo://app?vid=1714e45e-7747-4d49-a740-f2b4f1a907bf","ios":"levelo://app?vid=1714e45e-7747-4d49-a740-f2b4f1a907bf"},"vehicle_type_id":"4","last_reported":1737619955,"current_range_meters":26000,"station_id":"ce4bhs12rcd13ifvqhvg","pricing_plan_id":"cebpf4jnsgd1na2vs0mg"},{"bike_id":"f58cd98e-c8ac-4d70-a0cd-6920169c646f","system_id":"levelo_inurba_marseille","lat":43.23963,"lon":5.36633,"is_reserved":false,"is_disabled":false,"rental_uris":{"android":"levelo://app?vid=f58cd98e-c8ac-4d70-a0cd-6920169c646f","ios":"levelo://app?vid=f58cd98e-c8ac-4d70-a0cd-6920169c646f"},"vehicle_type_id":"4","last_reported":1737619955,"current_range_meters":25200,"station_id":"ce4bhi12rcd13ifvqfp0","pricing_plan_id":"cebpf4jnsgd1na2vs0mg"},{"bike_id":"46f660c8-af06-40e4-8405-1de8488f3c4e","system_id":"levelo_inurba_marseille","lat":43.26677,"lon":5.38265,"is_reserved":false,"is_disabled":false,"rental_uris":{"android":"levelo://app?vid=46f660c8-af06-40e4-8405-1de8488f3c4e","ios":"levelo://app?vid=46f660c8-af06-40e4-8405-1de8488f3c4e"},"vehicle_type_id":"4","last_reported":1737619955,"current_range_meters":35600,"station_id":"ce4bhg92rcd13ifvqf90","pricing_plan_id":"cebpf4jnsgd1na2vs0mg"},{"bike_id":"46e084fc-b128-4ee2-8264-0f3675d7fb6d","system_id":"levelo_inurba_marseille","lat":43.29209,"lon":5.36057,"is_reserved":false,"is_disabled":false,"rental_uris":{"android":"levelo://app?vid=46e084fc-b128-4ee2-8264-0f3675d7fb6d","ios":"levelo://app?vid=46e084fc-b128-4ee2-8264-0f3675d7fb6d"},"vehicle_type_id":"4","last_reported":1737619955,"current_range_meters":19600,"station_id":"ce4bhbh2rcd13ifvqeqg","pricing_plan_id":"cebpf4jnsgd1na2vs0mg"},{"bike_id":"e62c9fbd-98b1-4153-893b-26d0c142443a","system_id":"levelo_inurba_marseille","lat":43.30126,"lon":5.38822,"is_reserved":false,"is_disabled":false,"rental_uris":{"android":"levelo://app?vid=e62c9fbd-98b1-4153-893b-26d0c142443a","ios":"levelo://app?vid=e62c9fbd-98b1-4153-893b-26d0c142443a"},"vehicle_type_id":"4","last_reported":1737619955,"current_range_meters":30800,"station_id":"ce4bh0h2rcd13ifvqd60","pricing_plan_id":"cebpf4jnsgd1na2vs0mg"},{"bike_id":"1ed025e5-092a-4cd1-97b6-b0f5fc6191bc","system_id":"levelo_inurba_marseille","lat":43.29043,"lon":5.3995,"is_reserved":false,"is_disabled":false,"rental_uris":{"android":"levelo://app?vid=1ed025e5-092a-4cd1-97b6-b0f5fc6191bc","ios":"levelo://app?vid=1ed025e5-092a-4cd1-97b6-b0f5fc6191bc"},"vehicle_type_id":"4","last_reported":1737619955,"current_range_meters":38800,"station_id":"ce4bh392rcd13ifvqdm0","pricing_plan_id":"cebpf4jnsgd1na2vs0mg"},{"bike_id":"b245832f-bfc3-4c8f-8c4d-9c0e394b1af5","system_id":"levelo_inurba_marseille","lat":43.24674,"lon":5.38158,"is_reserved":false,"is_disabled":false,"rental_uris":{"android":"levelo://app?vid=b245832f-bfc3-4c8f-8c4d-9c0e394b1af5","ios":"levelo://app?vid=b245832f-bfc3-4c8f-8c4d-9c0e394b1af5"},"vehicle_type_id":"4","last_reported":1737619955,"current_range_meters":6400,"station_id":"ce4bhih2rcd13ifvqfr0","pricing_plan_id":"cebpf4jnsgd1na2vs0mg"},{"bike_id":"bbc643c8-6ad0-4e92-9c95-fe929c5eba3c","system_id":"levelo_inurba_marseille","lat":43.28971,"lon":5.37828,"is_reserved":false,"is_disabled":false,"rental_uris":{"android":"levelo://app?vid=bbc643c8-6ad0-4e92-9c95-fe929c5eba3c","ios":"levelo://app?vid=bbc643c8-6ad0-4e92-9c95-fe929c5eba3c"},"vehicle_type_id":"4","last_reported":1737619955,"current_range_meters":16400,"station_id":"ce4bh9p2rcd13ifvqed0","pricing_plan_id":"cebpf4jnsgd1na2vs0mg"},