{"last_updated":1753450165,"ttl":60,"version":"2.2","data":{"bikes":[{"bike_id":"e6e91096-a528-4da6-98bc-3f215b1bf849","system_id":"levelo_inurba_marseille","lat":43.2984,"lon":5.36265,"is_reserved":false,"is_disabled":false,"rental_uris":{"android":"levelo://app?vid=e6e91096-a528-4da6-98bc-3f215b1bf849","ios":"levelo://app?vid=e6e91096-a528-4da6-98bc-3f215b1bf849"},"vehicle_type_id":"4","last_reported":1753450165,"current_range_meters":2800,"station_id":"ce4bgpp2rcd13ifvqc3g","pricing_plan_id":"cebpf4jnsgd1na2vs0mg"},{"bike_id":"44168810-6be7-466b-8eb0-56c888cc7160","system_id":"levelo_inurba_marseille","lat":43.30617,"lon":5.37384,"is_reserved":false,"is_disabled":false,"rental_uris":{"android":"levelo://app?vid=44168810-6be7-466b-8eb0-56c888cc7160","ios":"levelo://app?vid=44168810-6be7-466b-8eb0-56c888cc7160"},"vehicle_type_id":"4","last_reported":1753450165,"current_range_meters":2800,"station_id":"","pricing_plan_id":"cebpf4jnsgd1na2vs0mg"},{"bike_id":"2522a2b1-6c3d-47b7-ac19-de3cc538eb74","system_id":"levelo_inurba_marseille","lat":43.254984,"lon":5.376513,"is_reserved":false,"is_disabled":false,"rental_uris":{"android":"levelo://app?vid=2522a2b1-6c3d-47b7-ac19-de3cc538eb74","ios":"levelo://app?vid=2522a2b1-6c3d-47b7-ac19-de3cc538eb74"},"vehicle_type_id":"4","last_reported":1753450165,"current_range_meters":2800,"station_id":"ce4bhh12rcd13ifvqff0","pricing_plan_id":"cebpf4jnsgd1na2vs0mg"},{"bike_id":"b8452933-a34b-4ab5-a975-51c01fc90adb","system_id":"levelo_inurba_marseille","lat":43.30884,"lon":5.39649,"is_reserved":false,"is_disabled":false,"rental_uris":{"android":"levelo://app?vid=b8452933-a34b-4ab5-a975-51c01fc90adb","ios":"levelo://app?vid=b8452933-a34b-4ab5-a975-51c01fc90adb"},"vehicle_type_id":"4","last_reported":1753450165,"current_range_meters":2800,"station_id":"ce4bh012rcd13ifvqcv0","pricing_plan_id":"cebpf4jnsgd1na2vs0mg"},{"bike_id":"18cf60ea-6c73-46d9-8f82-7665124dbb0a","system_id":"levelo_inurba_marseille","lat":43.30634,"lon":5.40088,"is_reserved":false,"is_disabled":false,"rental_uris":{"android":"levelo://app?vid=18cf60ea-6c73-46d9-8f82-7665124dbb0a","ios":"levelo://app?vid=18cf60ea-6c73-46d9-8f82-7665124dbb0a"},"vehicle_type_id":"4","last_reported":1753450165,"current_range_meters":2800,"station_id":"ce4bh112rcd13ifvqda0","pricing_plan_id":"cebpf4jnsgd1na2vs0mg"},{"bike_id":"2bf6bffe-b207-4557-83a8-5416ffb85e3b","system_id":"levelo_inurba_marseille","lat":43.297752,"lon":5.371104,"is_reserved":false,"is_disabled":false,"rental_uris":{"android":"levelo://app?vid=2bf6bffe-b207-4557-83a8-5416ffb85e3b","ios":"levelo://app?vid=2bf6bffe-b207-4557-83a8-5416ffb85e3b"},"vehicle_type_id":"4","last_reported":1753450165,"current_range_meters":3200,"station_id":"","pricing_plan_id":"cebpf4jnsgd1na2vs0mg"},{"bike_id":"51c630bd-a0bd-4c33-8d8b-574c765ff60b","system_id":"levelo_inurba_marseille","lat":43.22929,"lon":5.35381,"is_reserved":false,"is_disabled":false,"rental_uris":{"android":"levelo://app?vid=51c630bd-a0bd-4c33-8d8b-574c765ff60b","ios":"levelo://app?vid=51c630bd-a0bd-4c33-8d8b-574c765ff60b"},"vehicle_type_id":"4","last_reported":1753450165,"current_range_meters":3200,"station_id":"cpo3532slgdg3j2ikp40","pricing_plan_id":"cebpf4jnsgd1na2vs0mg"},{"bike_id":"1bde7c28-9775-479f-9eb3-9b3ec618a4c5","system_id":"levelo_inurba_marseille","lat":43.28934,"lon":5.36641,"is_reserved":false,"is_disabled":false,"rental_uris":{"android":"levelo://app?vid=1bde7c28-9775-479f-9eb3-9b3ec618a4c5","ios":"levelo://app?vid=1bde7c28-9775-479f-9eb3-9b3ec618a4c5"},"vehicle_type_id":"4","last_reported":1753450165,"current_range_meters":4000,"station_id":"ce4bhap2rcd13ifvqek0","pricing_plan_id":"cebpf4jnsgd1na2vs0mg"},{"bike_id":"fe65d7d6-638d-40a5-bccf-533e7cf482a6","system_id":"levelo_inurba_marseille","lat":43.28369,"lon":5.4326,"is_reserved":false,"is_disabled":false,"rental_uris":{"android":"levelo://app?vid=fe65d7d6-638d-40a5-bccf-533e7cf482a6","ios":"levelo://app?vid=fe65d7d6-638d-40a5-bccf-533e7cf482a6"},"vehicle_type_id":"4","last_reported":1753450165,"current_range_meters":4400,"station_id":"","pricing_plan_id":"cebpf4jnsgd1na2vs0mg"},{"bike_id":"726f446b-becd-4c80-9db9-eeeff2dde71d","system_id":"levelo_inurba_marseille","lat":43.27238,"lon":5.39128,"is_reserved":false,"is_disabled":false,"rental_uris":{"android":"levelo://app?vid=726f446b-becd-4c80-9db9-eeeff2dde71d","ios":"levelo://app?vid=726f446b-becd-4c80-9db9-eeeff2dde71d"},"vehicle_type_id":"4","last_reported":1753450165,"current_range_meters":4400,"station_id":"ce4bhhp2rcd13ifvqfm0","pricing_plan_id":"cebpf4jnsgd1na2vs0mg"},{"bike_id":"e9d3743a-3688-4789-b659-4e98edad8b72","system_id":"levelo_inurba_marseille","lat":43.2605,"lon":5.39414,"is_reserved":false,"is_disabled":false,"rental_uris":{"android":"levelo://app?vid=e9d3743a-3688-4789-b659-4e98edad8b72","ios":"levelo://app?vid=e9d3743a-3688-4789-b659-4e98edad8b72"},"vehicle_type_id":"4","last_reported":1753450165,"current_range_meters":4800,"station_id":"ce4bhh92rcd13ifvqfj0","pricing_plan_id":"cebpf4jnsgd1na2vs0mg"},{"bike_id":"5003fb5f-a727-4046-9539-ba2892b7803c","system_id":"levelo_inurba_marseille","lat":43.30641,"lon":5.40096,"is_reserved":false,"is_disabled":false,"rental_uris":{"android":"levelo://app?vid=5003fb5f-a727-4046-9539-ba2892b7803c","ios":"levelo://app?vid=5003fb5f-a727-4046-9539-ba2892b7803c"},"vehicle_type_id":"4","last_reported":1753450165,"current_range_meters":6000,"station_id":"ce4bh112rcd13ifvqda0","pricing_plan_id":"cebpf4jnsgd1na2vs0mg"},{"bike_id":"2cbb0ca7-ae5f-409b-92c5-d6cf9303f405","system_id":"levelo_inurba_marseille","lat":43.29185,"lon":5.35789,"is_reserved":false,"is_disabled":false,"rental_uris":{"android":"levelo://app?vid=2cbb0ca7-ae5f-409b-92c5-d6cf9303f405","ios":"levelo://app?vid=2cbb0ca7-ae5f-409b-92c5-d6cf9303f405"},"vehicle_type_id":"4","last_reported":1753450165,"current_range_meters":6400,"station_id":"","pricing_plan_id":"cebpf4jnsgd1na2vs0mg"},{"bike_id":"d62fa972-cf10-438d-898e-a03e121f6ffa","system_id":"levelo_inurba_marseille","lat":43.29372,"lon":5.40884,"is_reserved":false,"is_disabled":false,"rental_uris":{"android":"levelo://app?vid=d62fa972-cf10-438d-898e-a03e121f6ffa","ios":"levelo://app?vid=d62fa972-cf10-438d-898e-a03e121f6ffa"},"vehicle_type_id":"4","last_reported":1753450165,"current_range_meters":6400,"station_id":"","pricing_plan_id":"cebpf4jnsgd1na2vs0mg"},{"bike_id":"6c9af1e9-db18-4e14-af07-523e29b04760","system_id":"levelo_inurba_marseille","lat":43.3031,"lon":5.40443,"is_reserved":false,"is_disabled":false,"rental_uris":{"android":"levelo://app?vid=6c9af1e9-db18-4e14-af07-523e29b04760","ios":"levelo://app?vid=6c9af1e9-db18-4e14-af07-523e29b04760"},"vehicle_type_id":"4","last_reported":1753450165,"current_range_meters":6400,"station_id":"ce4bh012rcd13ifvqd10","pricing_plan_id":"cebpf4jnsgd1na2vs0mg"},{"bike_id":"2937f6cf-27e3-444b-80a2-fa5fde1689d0","system_id":"levelo_inurba_marseille","lat":43.287545,"lon":5.38489,"is_reserved":false,"is_disabled":false,"rental_uris":{"android":"levelo://app?vid=2937f6cf-27e3-444b-80a2-fa5fde1689d0","ios":"levelo://app?vid=2937f6cf-27e3-444b-80a2-fa5fde1689d0"},"vehicle_type_id":"4","last_reported":1753450165,"current_range_meters":6400,"station_id":"","pricing_plan_id":"cebpf4jnsgd1na2vs0mg"},{"bike_id":"3b098f18-a1f4-4594-b70b-33670d0ab3a9","system_id":"levelo_inurba_marseille","lat":43.21186,"lon":5.35067,"is_reserved":false,"is_disabled":false,"rental_uris":{"android":"levelo://app?vid=3b098f18-a1f4-4594-b70b-33670d0ab3a9","ios":"levelo://app?vid=3b098f18-a1f4-4594-b70b-33670d0ab3a9"},"vehicle_type_id":"4","last_reported":1753450165,"current_range_meters":6800,"station_id":"st_cvj6sg6p6f1abm77japg","pricing_plan_id":"cebpf4jnsgd1na2vs0mg"},{"bike_id":"3498b73e-8d87-4f73-bff5-b4d26438e364","system_id":"levelo_inurba_marseille","lat":43.27611,"lon":5.36109,"is_reserved":false,"is_disabled":false,"rental_uris":{"android":"levelo://app?vid=3498b73e-8d87-4f73-bff5-b4d26438e364","ios":"levelo://app?vid=3498b73e-8d87-4f73-bff5-b4d26438e364"},"vehicle_type_id":"4","last_reported":1753450165,"current_range_meters":6800,"station_id":"","pricing_plan_id":"cebpf4jnsgd1na2vs0mg"},{"bike_id":"d87b56f9-aec8-4c18-8340-d7aba9319bde","system_id":"levelo_inurba_marseille","lat":43.27502,"lon":5.39656,"is_reserved":false,"is_disabled":false,"rental_uris":{"android":"levelo://app?vid=d87b56f9-aec8-4c18-8340-d7aba9319bde","ios":"levelo://app?vid=d87b56f9-aec8-4c18-8340-d7aba9319bde"},"vehicle_type_id":"4","last_reported":1753450165,"current_range_meters":7200,"station_id":"","pricing_plan_id":"cebpf4jnsgd1na2vs0mg"},{"bike_id":"67a93391-d932-4602-bb91-271d6f70164f","system_id":"levelo_inurba_marseille","lat":43.225085,"lon":5.347838,"is_reserved":false,"is_disabled":false,"rental_uris":{"android":"levelo://app?vid=67a93391-d932-4602-bb91-271d6f70164f","ios":"levelo://app?vid=67a93391-d932-4602-bb91-271d6f70164f"},"vehicle_type_id":"4","last_reported":1753450165,"current_range_meters":7200,"station_id":"st_cvj5dfep6f1abm77gieg","pricing_plan_id":"cebpf4jnsgd1na2vs0mg"},{"bike_id":"5c9d65b1-c5b6-48e3-b838-bd11e54a9a38","system_id":"levelo_inurba_marseille","lat":43.24811,"lon":5.37459,"is_reserved":false,"is_disabled":false,"rental_uris":{"android":"levelo://app?vid=5c9d65b1-c5b6-48e3-b838-bd11e54a9a38","ios":"levelo://app?vid=5c9d65b1-c5b6-48e3-b838-bd11e54a9a38"},"vehicle_type_id":"4","last_reported":1753450165,"current_range_meters":8000,"station_id":"ce4bhgh2rcd13ifvqfb0","pricing_plan_id":"cebpf4jnsgd1na2vs0mg"},{"bike_id":"a5661dc1-9ed1-425a-9d4b-d82f0a8f531a","system_id":"levelo_inurba_marseille","lat":43.29523,"lon":5.39055,"is_reserved":false,"is_disabled":false,"rental_uris":{"android":"levelo://app?vid=a5661dc1-9ed1-425a-9d4b-d82f0a8f531a","ios":"levelo://app?vid=a5661dc1-9ed1-425a-9d4b-d82f0a8f531a"},"vehicle_type_id":"4","last_reported":1753450165,"current_range_meters":7200,"station_id":"ce4bh3p2rcd13ifvqdp0","pricing_plan_id":"cebpf4jnsgd1na2vs0mg"},{"bike_id":"e19cd9bd-8f1f-4909-a624-5af678243303","system_id":"levelo_inurba_marseille","lat":43.290475,"lon":5.399086,"is_reserved":false,"is_disabled":false,"rental_uris":{"android":"levelo://app?vid=e19cd9bd-8f1f-4909-a624-5af678243303","ios":"levelo://app?vid=e19cd9bd-8f1f-4909-a624-5af678243303"},"vehicle_type_id":"4","last_reported":1753450165,"current_range_meters":8000,"station_id":"ce4bh392rcd13ifvqdm0","pricing_plan_id":"cebpf4jnsgd1na2vs0mg"},{"bike_id":"8aca7720-8871-48d8-8bb9-85a31c42f8a8","system_id":"levelo_inurba_marseille","lat":43.24086,"lon":5.3775,"is_reserved":false,"is_disabled":false,"rental_uris":{"android":"levelo://app?vid=8aca7720-8871-48d8-8bb9-85a31c42f8a8","ios":"levelo://app?vid=8aca7720-8871-48d8-8bb9-85a31c42f8a8"},"vehicle_type_id":"4","last_reported":1753450165,"current_range_meters":8000,"station_id":"ce4bhnp2rcd13ifvqgvg","pricing_plan_id":"cebpf4jnsgd1na2vs0mg"},{"bike_id":"3843a00f-81d8-45fd-a52a-64868b9c8532","system_id":"levelo_inurba_marseille","lat":43.29776,"lon":5.37732,"is_reserved":false,"is_disabled":false,"rental_uris":{"android":"levelo://app?vid=3843a00f-81d8-45fd-a52a-64868b9c8532","ios":"levelo://app?vid=3843a00f-81d8-45fd-a52a-64868b9c8532"},"vehicle_type_id":"4","last_reported":1753450165,"current_range_meters":8000,"station_id":"","pricing_plan_id":"cebpf4jnsgd1na2vs0mg"},{"bike_id":"abecaf0c-e031-4a9b-a6b6-69d67d74c125","system_id":"levelo_inurba_marseille","lat":43.28568,"lon":5.37754,"is_reserved":false,"is_disabled":false,"rental_uris":{"android":"levelo://app?vid=abecaf0c-e031-4a9b-a6b6-69d67d74c125","ios":"levelo://app?vid=abecaf0c-e031-4a9b-a6b6-69d67d74c125"},"vehicle_type_id":"4","last_reported":1753450165,"current_range_meters":8000,"station_id":"","pricing_plan_id":"cebpf4jnsgd1na2vs0mg"},{"bike_id":"2db9dfcd-571d-42a0-8e13-a3ebb7e941b0","system_id":"levelo_inurba_marseille","lat":43.266819,"lon":5.382664,"is_reserved":false,"is_disabled":false,"rental_uris":{"android":"levelo://app?vid=2db9dfcd-571d-42a0-8e13-a3ebb7e941b0","ios":"levelo://app?vid=2db9dfcd-571d-42a0-8e13-a3ebb7e941b0"},"vehicle_type_id":"4","last_reported":1753450165,"current_range_meters":8400,"station_id":"ce4bhg92rcd13ifvqf90","pricing_plan_id":"cebpf4jnsgd1na2vs0mg"},{"bike_id":"d361cb07-ac85-4fe4-ab34-a37be2d6226c","system_id":"levelo_inurba_marseille","lat":43.29259,"lon":5.36654,"is_reserved":false,"is_disabled":false,"rental_uris":{"android":"levelo://app?vid=d361cb07-ac85-4fe4-ab34-a37be2d6226c","ios":"levelo://app?vid=d361cb07-ac85-4fe4-ab34-a37be2d6226c"},"vehicle_type_id":"4","last_reported":1753450165,"current_range_meters":8400,"station_id":"","pricing_plan_id":"cebpf4jnsgd1na2vs0mg"},{"bike_id":"2e8e7fa4-47bc-4567-b903-96abfb4fdf66","system_id":"levelo_inurba_marseille","lat":43.29275,"lon":5.4458,"is_reserved":false,"is_disabled":false,"rental_uris":{"android":"levelo://app?vid=2e8e7fa4-47bc-4567-b903-96abfb4fdf66","ios":"levelo://app?vid=2e8e7fa4-47bc-4567-b903-96abfb4fdf66"},"vehicle_type_id":"4","last_reported":1753450165,"current_range_meters":8400,"station_id":"","pricing_plan_id":"cebpf4jnsgd1na2vs0mg"},{"bike_id":"bcfeb788-eed8-4a22-9566-78b3af0fa09b","system_id":"levelo_inurba_marseille","lat":43.299059,"lon":5.375773,"is_reserved":false,"is_disabled":false,"rental_uris":{"android":"levelo://app?vid=bcfeb788-eed8-4a22-9566-78b3af0fa09b","ios":"levelo://app?vid=bcfeb788-eed8-4a22-9566-78b3af0fa09b"},"vehicle_type_id":"4","last_reported":1753450165,"current_range_meters":8400,"station_id":"","pricing_plan_id":"cebpf4jnsgd1na2vs0mg"},{"bike_id":"b93c0803-f824-4cb7-a4ed-57da1403b68e","system_id":"levelo_inurba_marseille","lat":43.325583,"lon":5.379059,"is_reserved":false,"is_disabled":true,"rental_uris":{"android":"levelo://app?vid=b93c0803-f824-4cb7-a4ed-57da1403b68e","ios":"levelo://app?vid=b93c0803-f824-4cb7-a4ed-57da1403b68e"},"vehicle_type_id":"4","last_reported":1753450165,"current_range_meters":8400,"station_id":"","pricing_plan_id":"cebpf4jnsgd1na2vs0mg"},{"bike_id":"fd4ba70a-7bfa-434e-8564-04bf25cc9f63","system_id":"levelo_inurba_marseille","lat":43.281088,"lon":5.441114,"is_reserved":false,"is_disabled":false,"rental_uris":{"android":"levelo://app?vid=fd4ba70a-7bfa-434e-8564-04bf25cc9f63","ios":"levelo://app?vid=fd4ba70a-7bfa-434e-8564-04bf25cc9f63"},"vehicle_type_id":"4","last_reported":1753450165,"current_range_meters":8400,"station_id":"","pricing_plan_id":"cebpf4jnsgd1na2vs0mg"},{"bike_id":"51979a68-a8cc-400e-b7b9-cd8004031e65","system_id":"levelo_inurba_marseille","lat":43.22494,"lon":5.34787,"is_reserved":false,"is_disabled":false,"rental_uris":{"android":"levelo://app?vid=51979a68-a8cc-400e-b7b9-cd8004031e65","ios":"levelo://app?vid=51979a68-a8cc-400e-b7b9-cd8004031e65"},"vehicle_type_id":"4","last_reported":1753450165,"current_range_meters":8400,"station_id":"st_cvj5dfep6f1abm77gieg","pricing_plan_id":"cebpf4jnsgd1na2vs0mg"},{"bike_id":"caaa2ce3-32c8-4819-a98d-8b9b2ed04cae","system_id":"levelo_inurba_marseille","lat":43.27216,"lon":5.39214,"is_reserved":false,"is_disabled":false,"rental_uris":{"android":"levelo://app?vid=caaa2ce3-32c8-4819-a98d-8b9b2ed04cae","ios":"levelo://app?vid=caaa2ce3-32c8-4819-a98d-8b9b2ed04cae"},"vehicle_type_id":"4","last_reported":1753450165,"current_range_meters":8800,"station_id":"ce4bhhp2rcd13ifvqfm0","pricing_plan_id":"cebpf4jnsgd1na2vs0mg"},{"bike_id":"4fa661dd-c801-48fd-8584-522d28f4220c","system_id":"levelo_inurba_marseille","lat":43.28043,"lon":5.36952,"is_reserved":false,"is_disabled":false,"rental_uris":{"android":"levelo://app?vid=4fa661dd-c801-48fd-8584-522d28f4220c","ios":"levelo://app?vid=4fa661dd-c801-48fd-8584-522d28f4220c"},"vehicle_type_id":"4","last_reported":1753450165,"current_range_meters":8800,"station_id":"ce4bha12rcd13ifvqef0","pricing_plan_id":"cebpf4jnsgd1na2vs0mg"},{"bike_id":"f28d2bb9-4217-4196-a573-ba6f4c172497","system_id":"levelo_inurba_marseille","lat":43.28172,"lon":5.36133,"is_reserved":false,"is_disabled":false,"rental_uris":{"android":"levelo://app?vid=f28d2bb9-4217-4196-a573-ba6f4c172497","ios":"levelo://app?vid=f28d2bb9-4217-4196-a573-ba6f4c172497"},"vehicle_type_id":"4","last_reported":1753450165,"current_range_meters":8800,"station_id":"","pricing_plan_id":"cebpf4jnsgd1na2vs0mg"},{"bike_id":"96455758-9a81-4a1d-8df0-4507f4847efb","system_id":"levelo_inurba_marseille","lat":43.27176,"lon":5.40991,"is_reserved":false,"is_disabled":false,"rental_uris":{"android":"levelo://app?vid=96455758-9a81-4a1d-8df0-4507f4847efb","ios":"levelo://app?vid=96455758-9a81-4a1d-8df0-4507f4847efb"},"vehicle_type_id":"4","last_reported":1753450165,"current_range_meters":8800,"station_id":"ce4bhl12rcd13ifvqgf0","pricing_plan_id":"cebpf4jnsgd1na2vs0mg"},{"bike_id":"f89b23fa-64d7-4b58-b401-adb86b04f9e1","system_id":"levelo_inurba_marseille","lat":43.283622,"lon":5.386372,"is_reserved":false,"is_disabled":false,"rental_uris":{"android":"levelo://app?vid=f89b23fa-64d7-4b58-b401-adb86b04f9e1","ios":"levelo://app?vid=f89b23fa-64d7-4b58-b401-adb86b04f9e1"},"vehicle_type_id":"4","last_reported":1753450165,"current_range_meters":8400,"station_id":"ce4bh492rcd13ifvqdvg","pricing_plan_id":"cebpf4jnsgd1na2vs0mg"},{"bike_id":"cdf0ae98-5df8-4ce1-853b-00d5c46b3ba0","system_id":"levelo_inurba_marseille","lat":43.23203,"lon":5.35544,"is_reserved":false,"is_disabled":false,"rental_uris":{"android":"levelo://app?vid=cdf0ae98-5df8-4ce1-853b-00d5c46b3ba0","ios":"levelo://app?vid=cdf0ae98-5df8-4ce1-853b-00d5c46b3ba0"},"vehicle_type_id":"4","last_reported":1753450165,"current_range_meters":9200,"station_id":"ce4bhu92rcd13ifvqi70","pricing_plan_id":"cebpf4jnsgd1na2vs0mg"},{"bike_id":"41b8e729-1dc8-4c83-9d14-2d9c2212307f","system_id":"levelo_inurba_marseille","lat":43.23193,"lon":5.35554,"is_reserved":false,"is_disabled":false,"rental_uris":{"android":"levelo://app?vid=41b8e729-1dc8-4c83-9d14-2d9c2212307f","ios":"levelo://app?vid=41b8e729-1dc8-4c83-9d14-2d9c2212307f"},"vehicle_type_id":"4","last_reported":1753450165,"current_range_meters":9600,"station_id":"ce4bhu92rcd13ifvqi70","pricing_plan_id":"cebpf4jnsgd1na2vs0mg"},{"bike_id":"9f9cd973-a0c3-40b0-bcd1-f084d4dd59de","system_id":"levelo_inurba_marseille","lat":43.29239,"lon":5.36064,"is_reserved":false,"is_disabled":false,"rental_uris":{"android":"levelo://app?vid=9f9cd973-a0c3-40b0-bcd1-f084d4dd59de","ios":"levelo://app?vid=9f9cd973-a0c3-40b0-bcd1-f084d4dd59de"},"vehicle_type_id":"4","last_reported":1753450165,"current_range_meters":9600,"station_id":"ce4bhbh2rcd13ifvqeqg","pricing_plan_id":"cebpf4jnsgd1na2vs0mg"},{"bike_id":"32dce35c-7995-4965-ab2a-b2a21e7a45ce","system_id":"levelo_inurba_marseille","lat":43.23975,"lon":5.3662,"is_reserved":false,"is_disabled":false,"rental_uris":{"android":"levelo://app?vid=32dce35c-7995-4965-ab2a-b2a21e7a45ce","ios":"levelo://app?vid=32dce35c-7995-4965-ab2a-b2a21e7a45ce"},"vehicle_type_id":"4","last_reported":1753450165,"current_range_meters":9600,"station_id":"ce4bhi12rcd13ifvqfp0","pricing_plan_id":"cebpf4jnsgd1na2vs0mg"},{"bike_id":"35a42db7-64ff-4e76-b3ae-5ddaea472b82","system_id":"levelo_inurba_marseille","lat":43.25825,"lon":5.39433,"is_reserved":false,"is_disabled":false,"rental_uris":{"android":"levelo://app?vid=35a42db7-64ff-4e76-b3ae-5ddaea472b82","ios":"levelo://app?vid=35a42db7-64ff-4e76-b3ae-5ddaea472b82"},"vehicle_type_id":"4","last_reported":1753450165,"current_range_meters":10000,"station_id":"ce4bhip2rcd13ifvqft0","pricing_plan_id":"cebpf4jnsgd1na2vs0mg"},{"bike_id":"a1676a90-aeae-4e28-8472-3e88e730a66f","system_id":"levelo_inurba_marseille","lat":43.2906,"lon":5.43977,"is_reserved":false,"is_disabled":false,"rental_uris":{"android":"levelo://app?vid=a1676a90-aeae-4e28-8472-3e88e730a66f","ios":"levelo://app?vid=a1676a90-aeae-4e28-8472-3e88e730a66f"},"vehicle_type_id":"4","last_reported":1753450165,"current_range_meters":10800,"station_id":"","pricing_plan_id":"cebpf4jnsgd1na2vs0mg"},{"bike_id":"d68f3124-e473-42d9-93d7-0d6c6613e4e0","system_id":"levelo_inurba_marseille","lat":43.28875,"lon":5.35833,"is_reserved":false,"is_disabled":false,"rental_uris":{"android":"levelo://app?vid=d68f3124-e473-42d9-93d7-0d6c6613e4e0","ios":"levelo://app?vid=d68f3124-e473-42d9-93d7-0d6c6613e4e0"},"vehicle_type_id":"4","last_reported":1753450165,"current_range_meters":10800,"station_id":"ce4bhb12rcd13ifvqem0","pricing_plan_id":"cebpf4jnsgd1na2vs0mg"},{"bike_id":"8992dfe1-fa81-41cb-854b-8fa069594b80","system_id":"levelo_inurba_marseille","lat":43.30208,"lon":5.39471,"is_reserved":false,"is_disabled":false,"rental_uris":{"android":"levelo://app?vid=8992dfe1-fa81-41cb-854b-8fa069594b80","ios":"levelo://app?vid=8992dfe1-fa81-41cb-854b-8fa069594b80"},"vehicle_type_id":"4","last_reported":1753450165,"current_range_meters":8800,"station_id":"ce4bh0p2rcd13ifvqd70","pricing_plan_id":"cebpf4jnsgd1na2vs0mg"},{"bike_id":"e4a253ac-8c9d-4da1-b5c8-60915a4c7673","system_id":"levelo_inurba_marseille","lat":43.28032,"lon":5.36952,"is_reserved":false,"is_disabled":false,"rental_uris":{"android":"levelo://app?vid=e4a253ac-8c9d-4da1-b5c8-60915a4c7673","ios":"levelo://app?vid=e4a253ac-8c9d-4da1-b5c8-60915a4c7673"},"vehicle_type_id":"4","last_reported":1753450165,"current_range_meters":10800,"station_id":"ce4bha12rcd13ifvqef0","pricing_plan_id":"cebpf4jnsgd1na2vs0mg"},{"bike_id":"5b94eff9-2e0f-4c0e-b3f6-ab7ca2eca31a","system_id":"levelo_inurba_marseille","lat":43.27373,"lon":5.36245,"is_reserved":false,"is_disabled":true,"rental_uris":{"android":"levelo://app?vid=5b94eff9-2e0f-4c0e-b3f6-ab7ca2eca31a","ios":"levelo://app?vid=5b94eff9-2e0f-4c0e-b3f6-ab7ca2eca31a"},"vehicle_type_id":"4","last_reported":1753450165,"current_range_meters":10800,"station_id":"ce4bhbh2rcd13ifvqeo0","pricing_plan_id":"cebpf4jnsgd1na2vs0mg"},{"bike_id":"28e5a7fa-c4d0-4c66-ba05-7df0dae33eff","system_id":"levelo_inurba_marseille","lat":43.32012,"lon":5.38143,"is_reserved":false,"is_disabled":false,"rental_uris":{"android":"levelo://app?vid=28e5a7fa-c4d0-4c66-ba05-7df0dae33eff","ios":"levelo://app?vid=28e5a7fa-c4d0-4c66-ba05-7df0dae33eff"},"vehicle_type_id":"4","last_reported":1753450165,"current_range_meters":10800,"station_id":"ce4bhr12rcd13ifvqhpg","pricing_plan_id":"cebpf4jnsgd1na2vs0mg"},{"bike_id":"86e5547e-84c6-4e9b-a522-d7084fd931d5","system_id":"levelo_inurba_marseille","lat":43.260265,"lon":5.375499,"is_reserved":false,"is_disabled":false,"rental_uris":{"android":"levelo://app?vid=86e5547e-84c6-4e9b-a522-d7084fd931d5","ios":"levelo://app?vid=86e5547e-84c6-4e9b-a522-d7084fd931d5"},"vehicle_type_id":"4","last_reported":1753450165,"current_range_meters":10800,"station_id":"ce4bhgh2rcd13ifvqfa0","pricing_plan_id":"cebpf4jnsgd1na2vs0mg"},{"bike_id":"cbbda54f-92d8-40bd-a1b1-b5942fdbaee8","system_id":"levelo_inurba_marseille","lat":43.308057,"lon":5.381498,"is_reserved":false,"is_disabled":false,"rental_uris":{"android":"levelo://app?vid=cbbda54f-92d8-40bd-a1b1-b5942fdbaee8","ios":"levelo://app?vid=cbbda54f-92d8-40bd-a1b1-b5942fdbaee8"},"vehicle_type_id":"4","last_reported":1753450165,"current_range_meters":10800,"station_id":"ce4bgt12rcd13ifvqce0","pricing_plan_id":"cebpf4jnsgd1na2vs0mg"},{"bike_id":"dd4bfc3b-3608-4679-ad50-fdb088f7ffc4","system_id":"levelo_inurba_marseille","lat":43.27543,"lon":5.38451,"is_reserved":false,"is_disabled":false,"rental_uris":{"android":"levelo://app?vid=dd4bfc3b-3608-4679-ad50-fdb088f7ffc4","ios":"levelo://app?vid=dd4bfc3b-3608-4679-ad50-fdb088f7ffc4"},"vehicle_type_id":"4","last_reported":1753450165,"current_range_meters":10800,"station_id":"ce4bhh92rcd13ifvqfi0","pricing_plan_id":"cebpf4jnsgd1na2vs0mg"},{"bike_id":"f6562279-080e-47ce-9d70-f430234ec7da","system_id":"levelo_inurba_marseille","lat":43.28038,"lon":5.36949,"is_reserved":false,"is_disabled":false,"rental_uris":{"android":"levelo://app?vid=f6562279-080e-47ce-9d70-f430234ec7da","ios":"levelo://app?vid=f6562279-080e-47ce-9d70-f430234ec7da"},"vehicle_type_id":"4","last_reported":1753450165,"current_range_meters":11200,"station_id":"ce4bha12rcd13ifvqef0","pricing_plan_id":"cebpf4jnsgd1na2vs0mg"},{"bike_id":"740d1c13-3c05-480d-921d-94096a061796","system_id":"levelo_inurba_marseille","lat":43.3036,"lon":5.42472,"is_reserved":false,"is_disabled":false,"rental_uris":{"android":"levelo://app?vid=740d1c13-3c05-480d-921d-94096a061796","ios":"levelo://app?vid=740d1c13-3c05-480d-921d-94096a061796"},"vehicle_type_id":"4","last_reported":1753450165,"current_range_meters":11200,"station_id":"ce4bhoh2rcd13ifvqh6g","pricing_plan_id":"cebpf4jnsgd1na2vs0mg"},{"bike_id":"2db8c08c-b04a-40b4-8ab3-d95066a1d03d","system_id":"levelo_inurba_marseille","lat":43.27994,"lon":5.40007,"is_reserved":false,"is_disabled":false,"rental_uris":{"android":"levelo://app?vid=2db8c08c-b04a-40b4-8ab3-d95066a1d03d","ios":"levelo://app?vid=2db8c08c-b04a-40b4-8ab3-d95066a1d03d"},"vehicle_type_id":"4","last_reported":1753450165,"current_range_meters":11200,"station_id":"ce4bho92rcd13ifvqh4g","pricing_plan_id":"cebpf4jnsgd1na2vs0mg"},{"bike_id":"2e51888f-b65f-4dea-aef3-361588ce5fc0","system_id":"levelo_inurba_marseille","lat":43.26957,"lon":5.38633,"is_reserved":false,"is_disabled":false,"rental_uris":{"android":"levelo://app?vid=2e51888f-b65f-4dea-aef3-361588ce5fc0","ios":"levelo://app?vid=2e51888f-b65f-4dea-aef3-361588ce5fc0"},"vehicle_type_id":"4","last_reported":1753450165,"current_range_meters":11200,"station_id":"ce4bhh92rcd13ifvqfh0","pricing_plan_id":"cebpf4jnsgd1na2vs0mg"},{"bike_id":"ff30a5ee-0e9d-4bfa-a593-c7beaf9df463","system_id":"levelo_inurba_marseille","lat":43.33526,"lon":5.36208,"is_reserved":false,"is_disabled":false,"rental_uris":{"android":"levelo://app?vid=ff30a5ee-0e9d-4bfa-a593-c7beaf9df463","ios":"levelo://app?vid=ff30a5ee-0e9d-4bfa-a593-c7beaf9df463"},"vehicle_type_id":"4","last_reported":1753450165,"current_range_meters":11200,"station_id":"","pricing_plan_id":"cebpf4jnsgd1na2vs0mg"},{"bike_id":"c7c85d55-4608-45bc-afb8-19b0ccb8f1e0","system_id":"levelo_inurba_marseille","lat":43.26833,"lon":5.3937,"is_reserved":false,"is_disabled":false,"rental_uris":{"android":"levelo://app?vid=c7c85d55-4608-45bc-afb8-19b0ccb8f1e0","ios":"levelo://app?vid=c7c85d55-4608-45bc-afb8-19b0ccb8f1e0"},"vehicle_type_id":"4","last_reported":1753450165,"current_range_meters":11200,"station_id":"ce4bhh12rcd13ifvqfg0","pricing_plan_id":"cebpf4jnsgd1na2vs0mg"},{"bike_id":"66f93616-db55-4481-b54a-1903587ff119","system_id":"levelo_inurba_marseille","lat":43.27202,"lon":5.39191,"is_reserved":false,"is_disabled":false,"rental_uris":{"android":"levelo://app?vid=66f93616-db55-4481-b54a-1903587ff119","ios":"levelo://app?vid=66f93616-db55-4481-b54a-1903587ff119"},"vehicle_type_id":"4","last_reported":1753450165,"current_range_meters":11200,"station_id":"ce4bhhp2rcd13ifvqfm0","pricing_plan_id":"cebpf4jnsgd1na2vs0mg"},{"bike_id":"79079a9a-8322-4f6c-a9e6-9aba90ee17ba","system_id":"levelo_inurba_marseille","lat":43.33782,"lon":5.3743,"is_reserved":false,"is_disabled":false,"rental_uris":{"android":"levelo://app?vid=79079a9a-8322-4f6c-a9e6-9aba90ee17ba","ios":"levelo://app?vid=79079a9a-8322-4f6c-a9e6-9aba90ee17ba"},"vehicle_type_id":"4","last_reported":1753450165,"current_range_meters":11200,"station_id":"","pricing_plan_id":"cebpf4jnsgd1na2vs0mg"},{"bike_id":"35ee41ab-1155-4c5d-a3ff-d1e05b86be8c","system_id":"levelo_inurba_marseille","lat":43.313013,"lon":5.431483,"is_reserved":false,"is_disabled":false,"rental_uris":{"android":"levelo://app?vid=35ee41ab-1155-4c5d-a3ff-d1e05b86be8c","ios":"levelo://app?vid=35ee41ab-1155-4c5d-a3ff-d1e05b86be8c"},"vehicle_type_id":"4","last_reported":1753450165,"current_range_meters":11600,"station_id":"","pricing_plan_id":"cebpf4jnsgd1na2vs0mg"},{"bike_id":"6f025ee8-3ce4-48ff-afbb-05d349b1be40","system_id":"levelo_inurba_marseille","lat":43.313687,"lon":5.367071,"is_reserved":false,"is_disabled":false,"rental_uris":{"android":"levelo://app?vid=6f025ee8-3ce4-48ff-afbb-05d349b1be40","ios":"levelo://app?vid=6f025ee8-3ce4-48ff-afbb-05d349b1be40"},"vehicle_type_id":"4","last_reported":1753450165,"current_range_meters":11600,"station_id":"ce4bgr92rcd13ifvqc6g","pricing_plan_id":"cebpf4jnsgd1na2vs0mg"},{"bike_id":"554f3a30-25c7-4007-a3d5-e4f3c49c7beb","system_id":"levelo_inurba_marseille","lat":43.32369,"lon":5.36756,"is_reserved":false,"is_disabled":false,"rental_uris":{"android":"levelo://app?vid=554f3a30-25c7-4007-a3d5-e4f3c49c7beb","ios":"levelo://app?vid=554f3a30-25c7-4007-a3d5-e4f3c49c7beb"},"vehicle_type_id":"4","last_reported":1753450165,"current_range_meters":11600,"station_id":"ce4bhsh2rcd13ifvqi2g","pricing_plan_id":"cebpf4jnsgd1na2vs0mg"},{"bike_id":"f7623b57-5f88-4ef7-8535-1d8b44f90d27","system_id":"levelo_inurba_marseille","lat":43.22493,"lon":5.34781,"is_reserved":false,"is_disabled":false,"rental_uris":{"android":"levelo://app?vid=f7623b57-5f88-4ef7-8535-1d8b44f90d27","ios":"levelo://app?vid=f7623b57-5f88-4ef7-8535-1d8b44f90d27"},"vehicle_type_id":"4","last_reported":1753450165,"current_range_meters":11600,"station_id":"","pricing_plan_id":"cebpf4jnsgd1na2vs0mg"},{"bike_id":"96ca669b-f8e3-4450-94d6-fc09b5cd963e","system_id":"levelo_inurba_marseille","lat":43.2885,"lon":5.393082,"is_reserved":false,"is_disabled":false,"rental_uris":{"android":"levelo://app?vid=96ca669b-f8e3-4450-94d6-fc09b5cd963e","ios":"levelo://app?vid=96ca669b-f8e3-4450-94d6-fc09b5cd963e"},"vehicle_type_id":"4","last_reported":1753450165,"current_range_meters":11600,"station_id":"ce4bh2p2rcd13ifvqdi0","pricing_plan_id":"cebpf4jnsgd1na2vs0mg"},{"bike_id":"ac7f3c2f-452c-4620-beb4-96f9c8da3434","system_id":"levelo_inurba_marseille","lat":43.30599,"lon":5.38529,"is_reserved":false,"is_disabled":false,"rental_uris":{"android":"levelo://app?vid=ac7f3c2f-452c-4620-beb4-96f9c8da3434","ios":"levelo://app?vid=ac7f3c2f-452c-4620-beb4-96f9c8da3434"},"vehicle_type_id":"4","last_reported":1753450165,"current_range_meters":11600,"station_id":"","pricing_plan_id":"cebpf4jnsgd1na2vs0mg"},{"bike_id":"7ba3237c-3040-438a-9300-6e5939b5ad82","system_id":"levelo_inurba_marseille","lat":43.2894,"lon":5.36633,"is_reserved":false,"is_disabled":false,"rental_uris":{"android":"levelo://app?vid=7ba3237c-3040-438a-9300-6e5939b5ad82","ios":"levelo://app?vid=7ba3237c-3040-438a-9300-6e5939b5ad82"},"vehicle_type_id":"4","last_reported":1753450165,"current_range_meters":11600,"station_id":"ce4bhap2rcd13ifvqek0","pricing_plan_id":"cebpf4jnsgd1na2vs0mg"},{"bike_id":"7a9a67f3-53a6-463d-917a-1ed239819759","system_id":"levelo_inurba_marseille","lat":43.27999,"lon":5.41667,"is_reserved":false,"is_disabled":false,"rental_uris":{"android":"levelo://app?vid=7a9a67f3-53a6-463d-917a-1ed239819759","ios":"levelo://app?vid=7a9a67f3-53a6-463d-917a-1ed239819759"},"vehicle_type_id":"4","last_reported":1753450165,"current_range_meters":11600,"station_id":"ce4bho12rcd13ifvqh1g","pricing_plan_id":"cebpf4jnsgd1na2vs0mg"},{"bike_id":"b0642f06-95ff-41f6-9f4a-0722c8309d1c","system_id":"levelo_inurba_marseille","lat":43.26886,"lon":5.36871,"is_reserved":false,"is_disabled":false,"rental_uris":{"android":"levelo://app?vid=b0642f06-95ff-41f6-9f4a-0722c8309d1c","ios":"levelo://app?vid=b0642f06-95ff-41f6-9f4a-0722c8309d1c"},"vehicle_type_id":"4","last_reported":1753450165,"current_range_meters":12000,"station_id":"","pricing_plan_id":"cebpf4jnsgd1na2vs0mg"},{"bike_id":"2fe871f2-92ed-44ca-9ba1-33133eb9f0fd","system_id":"levelo_inurba_marseille","lat":43.29671,"lon":5.37327,"is_reserved":false,"is_disabled":false,"rental_uris":{"android":"levelo://app?vid=2fe871f2-92ed-44ca-9ba1-33133eb9f0fd","ios":"levelo://app?vid=2fe871f2-92ed-44ca-9ba1-33133eb9f0fd"},"vehicle_type_id":"4","last_reported":1753450165,"current_range_meters":12000,"station_id":"ce4bgk12rcd13ifvqbj0","pricing_plan_id":"cebpf4jnsgd1na2vs0mg"},{"bike_id":"1c31f24b-2b9e-48c3-b103-bffd32b92420","system_id":"levelo_inurba_marseille","lat":43.33516,"lon":5.40838,"is_reserved":false,"is_disabled":false,"rental_uris":{"android":"levelo://app?vid=1c31f24b-2b9e-48c3-b103-bffd32b92420","ios":"levelo://app?vid=1c31f24b-2b9e-48c3-b103-bffd32b92420"},"vehicle_type_id":"4","last_reported":1753450165,"current_range_meters":12000,"station_id":"","pricing_plan_id":"cebpf4jnsgd1na2vs0mg"},{"bike_id":"f8675083-8ec4-4d15-b87e-bb22cb12616f","system_id":"levelo_inurba_marseille","lat":43.32107,"lon":5.36766,"is_reserved":false,"is_disabled":false,"rental_uris":{"android":"levelo://app?vid=f8675083-8ec4-4d15-b87e-bb22cb12616f","ios":"levelo://app?vid=f8675083-8ec4-4d15-b87e-bb22cb12616f"},"vehicle_type_id":"4","last_reported":1753450165,"current_range_meters":12000,"station_id":"ce4bhrh2rcd13ifvqhug","pricing_plan_id":"cebpf4jnsgd1na2vs0mg"},{"bike_id":"43cf4049-15dd-4e8c-88a8-61cd8dc10bf5","system_id":"levelo_inurba_marseille","lat":43.33036,"lon":5.39041,"is_reserved":false,"is_disabled":false,"rental_uris":{"android":"levelo://app?vid=43cf4049-15dd-4e8c-88a8-61cd8dc10bf5","ios":"levelo://app?vid=43cf4049-15dd-4e8c-88a8-61cd8dc10bf5"},"vehicle_type_id":"4","last_reported":1753450165,"current_range_meters":12000,"station_id":"ce4bhr92rcd13ifvqhrg","pricing_plan_id":"cebpf4jnsgd1na2vs0mg"},{"bike_id":"1790205d-b9f4-473c-badc-b1a1357d06f3","system_id":"levelo_inurba_marseille","lat":43.29632,"lon":5.40602,"is_reserved":false,"is_disabled":false,"rental_uris":{"android":"levelo://app?vid=1790205d-b9f4-473c-badc-b1a1357d06f3","ios":"levelo://app?vid=1790205d-b9f4-473c-badc-b1a1357d06f3"},"vehicle_type_id":"4","last_reported":1753450165,"current_range_meters":12000,"station_id":"ce4bh0h2rcd13ifvqd60","pricing_plan_id":"cebpf4jnsgd1na2vs0mg"},{"bike_id":"f5fb5520-8d96-4be1-9813-23c3270b7671","system_id":"levelo_inurba_marseille","lat":43.27566,"lon":5.38418,"is_reserved":false,"is_disabled":false,"rental_uris":{"android":"levelo://app?vid=f5fb5520-8d96-4be1-9813-23c3270b7671","ios":"levelo://app?vid=f5fb5520-8d96-4be1-9813-23c3270b7671"},"vehicle_type_id":"4","last_reported":1753450165,"current_range_meters":12000,"station_id":"ce4bhh92rcd13ifvqfi0","pricing_plan_id":"cebpf4jnsgd1na2vs0mg"},{"bike_id":"4d63f320-133b-4d6a-a351-94063e36dd6a","system_id":"levelo_inurba_marseille","lat":43.30539,"lon":5.36694,"is_reserved":false,"is_disabled":false,"rental_uris":{"android":"levelo://app?vid=4d63f320-133b-4d6a-a351-94063e36dd6a","ios":"levelo://app?vid=4d63f320-133b-4d6a-a351-94063e36dd6a"},"vehicle_type_id":"4","last_reported":1753450165,"current_range_meters":12000,"station_id":"ce4bgrp2rcd13ifvqc9g","pricing_plan_id":"cebpf4jnsgd1na2vs0mg"},{"bike_id":"68de30a0-a58f-4ba8-bcad-a85f618aa434","system_id":"levelo_inurba_marseille","lat":43.28462,"lon":5.35888,"is_reserved":false,"is_disabled":false,"rental_uris":{"android":"levelo://app?vid=68de30a0-a58f-4ba8-bcad-a85f618aa434","ios":"levelo://app?vid=68de30a0-a58f-4ba8-bcad-a85f618aa434"},"vehicle_type_id":"4","last_reported":1753450165,"current_range_meters":12400,"station_id":"ce4bhah2rcd13ifvqei0","pricing_plan_id":"cebpf4jnsgd1na2vs0mg"},{"bike_id":"8872b46c-76b1-4305-b62f-2a88635c489b","system_id":"levelo_inurba_marseille","lat":43.24798,"lon":5.37465,"is_reserved":false,"is_disabled":false,"rental_uris":{"android":"levelo://app?vid=8872b46c-76b1-4305-b62f-2a88635c489b","ios":"levelo://app?vid=8872b46c-76b1-4305-b62f-2a88635c489b"},"vehicle_type_id":"4","last_reported":1753450165,"current_range_meters":12400,"station_id":"ce4bhgh2rcd13ifvqfb0","pricing_plan_id":"cebpf4jnsgd1na2vs0mg"},{"bike_id":"09378550-4d9e-40a9-a0e6-feb342f6c6ba","system_id":"levelo_inurba_marseille","lat":43.30301,"lon":5.39212,"is_reserved":false,"is_disabled":false,"rental_uris":{"android":"levelo://app?vid=09378550-4d9e-40a9-a0e6-feb342f6c6ba","ios":"levelo://app?vid=09378550-4d9e-40a9-a0e6-feb342f6c6ba"},"vehicle_type_id":"4","last_reported":1753450165,"current_range_meters":12400,"station_id":"ce4bgkh2rcd13ifvqbk0","pricing_plan_id":"cebpf4jnsgd1na2vs0mg"},{"bike_id":"a12459fb-772e-4b74-9514-784297907c96","system_id":"levelo_inurba_marseille","lat":43.27078,"lon":5.42276,"is_reserved":false,"is_disabled":false,"rental_uris":{"android":"levelo://app?vid=a12459fb-772e-4b74-9514-784297907c96","ios":"levelo://app?vid=a12459fb-772e-4b74-9514-784297907c96"},"vehicle_type_id":"4","last_reported":1753450165,"current_range_meters":12400,"station_id":"ce4bhk92rcd13ifvqgb0","pricing_plan_id":"cebpf4jnsgd1na2vs0mg"},{"bike_id":"14290dc3-0ecb-4c09-bf2e-6db4a8e35188","system_id":"levelo_inurba_marseille","lat":43.24387,"lon":5.37066,"is_reserved":false,"is_disabled":false,"rental_uris":{"android":"levelo://app?vid=14290dc3-0ecb-4c09-bf2e-6db4a8e35188","ios":"levelo://app?vid=14290dc3-0ecb-4c09-bf2e-6db4a8e35188"},"vehicle_type_id":"4","last_reported":1753450165,"current_range_meters":12400,"station_id":"ce4bhhh2rcd13ifvqfk0","pricing_plan_id":"cebpf4jnsgd1na2vs0mg"},{"bike_id":"34a2e458-d2d9-4dd2-8286-a0218386a409","system_id":"levelo_inurba_marseille","lat":43.27373,"lon":5.36254,"is_reserved":false,"is_disabled":false,"rental_uris":{"android":"levelo://app?vid=34a2e458-d2d9-4dd2-8286-a0218386a409","ios":"levelo://app?vid=34a2e458-d2d9-4dd2-8286-a0218386a409"},"vehicle_type_id":"4","last_reported":1753450165,"current_range_meters":11600,"station_id":"ce4bhbh2rcd13ifvqeo0","pricing_plan_id":"cebpf4jnsgd1na2vs0mg"},{"bike_id":"5350bded-bb5a-4c16-acb6-280b1327877f","system_id":"levelo_inurba_marseille","lat":43.309279,"lon":5.401328,"is_reserved":false,"is_disabled":false,"rental_uris":{"android":"levelo://app?vid=5350bded-bb5a-4c16-acb6-280b1327877f","ios":"levelo://app?vid=5350bded-bb5a-4c16-acb6-280b1327877f"},"vehicle_type_id":"4","last_reported":1753450165,"current_range_meters":12800,"station_id":"ce4bgvp2rcd13ifvqct0","pricing_plan_id":"cebpf4jnsgd1na2vs0mg"},{"bike_id":"9067c7cd-2e8a-4ff2-b9ba-128ce3753ddc","system_id":"levelo_inurba_marseille","lat":43.28411,"lon":5.35008,"is_reserved":false,"is_disabled":false,"rental_uris":{"android":"levelo://app?vid=9067c7cd-2e8a-4ff2-b9ba-128ce3753ddc","ios":"levelo://app?vid=9067c7cd-2e8a-4ff2-b9ba-128ce3753ddc"},"vehicle_type_id":"4","last_reported":1753450165,"current_range_meters":12800,"station_id":"ce4bhbh2rcd13ifvqepg","pricing_plan_id":"cebpf4jnsgd1na2vs0mg"},{"bike_id":"d9ebf6b0-2761-438b-a25f-b2ff4acbf5f4","system_id":"levelo_inurba_marseille","lat":43.28864,"lon":5.35849,"is_reserved":false,"is_disabled":false,"rental_uris":{"android":"levelo://app?vid=d9ebf6b0-2761-438b-a25f-b2ff4acbf5f4","ios":"levelo://app?vid=d9ebf6b0-2761-438b-a25f-b2ff4acbf5f4"},"vehicle_type_id":"4","last_reported":1753450165,"current_range_meters":12800,"station_id":"ce4bhb12rcd13ifvqem0","pricing_plan_id":"cebpf4jnsgd1na2vs0mg"},{"bike_id":"7bed6bfa-b1f2-468a-9991-e180537cbadb","system_id":"levelo_inurba_marseille","lat":43.29011,"lon":5.35919,"is_reserved":false,"is_disabled":false,"rental_uris":{"android":"levelo://app?vid=7bed6bfa-b1f2-468a-9991-e180537cbadb","ios":"levelo://app?vid=7bed6bfa-b1f2-468a-9991-e180537cbadb"},"vehicle_type_id":"4","last_reported":1753450165,"current_range_meters":13600,"station_id":"","pricing_plan_id":"cebpf4jnsgd1na2vs0mg"},{"bike_id":"08fd9145-524b-48a3-82dd-db42dec4587b","system_id":"levelo_inurba_marseille","lat":43.26475,"lon":5.3958,"is_reserved":false,"is_disabled":false,"rental_uris":{"android":"levelo://app?vid=08fd9145-524b-48a3-82dd-db42dec4587b","ios":"levelo://app?vid=08fd9145-524b-48a3-82dd-db42dec4587b"},"vehicle_type_id":"4","last_reported":1753450165,"current_range_meters":13600,"station_id":"ce4bhi12rcd13ifvqfq0","pricing_plan_id":"cebpf4jnsgd1na2vs0mg"},{"bike_id":"e0560aa9-402a-4590-9282-5ad613cb2fde","system_id":"levelo_inurba_marseille","lat":43.29391,"lon":5.37407,"is_reserved":false,"is_disabled":false,"rental_uris":{"android":"levelo://app?vid=e0560aa9-402a-4590-9282-5ad613cb2fde","ios":"levelo://app?vid=e0560aa9-402a-4590-9282-5ad613cb2fde"},"vehicle_type_id":"4","last_reported":1753450165,"current_range_meters":13600,"station_id":"","pricing_plan_id":"cebpf4jnsgd1na2vs0mg"},{"bike_id":"71258c65-3dee-4a65-a037-dcda1783505a","system_id":"levelo_inurba_marseille","lat":43.31494,"lon":5.36884,"is_reserved":false,"is_disabled":false,"rental_uris":{"android":"levelo://app?vid=71258c65-3dee-4a65-a037-dcda1783505a","ios":"levelo://app?vid=71258c65-3dee-4a65-a037-dcda1783505a"},"vehicle_type_id":"4","last_reported":1753450165,"current_range_meters":13600,"station_id":"","pricing_plan_id":"cebpf4jnsgd1na2vs0mg"},{"bike_id":"490fd0a3-3ae2-4135-acff-5c94025f5f04","system_id":"levelo_inurba_marseille","lat":43.27935,"lon":5.39581,"is_reserved":false,"is_disabled":true,"rental_uris":{"android":"levelo://app?vid=490fd0a3-3ae2-4135-acff-5c94025f5f04","ios":"levelo://app?vid=490fd0a3-3ae2-4135-acff-5c94025f5f04"},"vehicle_type_id":"4","last_reported":1753450165,"current_range_meters":13600,"station_id":"ce4bhf92rcd13ifvqf40","pricing_plan_id":"cebpf4jnsgd1na2vs0mg"},{"bike_id":"c017b4de-074c-46ed-bc0a-5b7912813135","system_id":"levelo_inurba_marseille","lat":43.2608,"lon":5.37306,"is_reserved":false,"is_disabled":false,"rental_uris":{"android":"levelo://app?vid=c017b4de-074c-46ed-bc0a-5b7912813135","ios":"levelo://app?vid=c017b4de-074c-46ed-bc0a-5b7912813135"},"vehicle_type_id":"4","last_reported":1753450165,"current_range_meters":13600,"station_id":"","pricing_plan_id":"cebpf4jnsgd1na2vs0mg"},{"bike_id":"078febbd-6d49-4abf-8b46-d33f87f8da46","system_id":"levelo_inurba_marseille","lat":43.25443,"lon":5.37985,"is_reserved":false,"is_disabled":false,"rental_uris":{"android":"levelo://app?vid=078febbd-6d49-4abf-8b46-d33f87f8da46","ios":"levelo://app?vid=078febbd-6d49-4abf-8b46-d33f87f8da46"},"vehicle_type_id":"4","last_reported":1753450165,"current_range_meters":14000,"station_id":"","pricing_plan_id":"cebpf4jnsgd1na2vs0mg"},{"bike_id":"591fb768-7e78-4b54-88b5-e73a5af76b19","system_id":"levelo_inurba_marseille","lat":43.22922,"lon":5.353668,"is_reserved":false,"is_disabled":false,"rental_uris":{"android":"levelo://app?vid=591fb768-7e78-4b54-88b5-e73a5af76b19","ios":"levelo://app?vid=591fb768-7e78-4b54-88b5-e73a5af76b19"},"vehicle_type_id":"4","last_reported":1753450165,"current_range_meters":14000,"station_id":"cpo3532slgdg3j2ikp40","pricing_plan_id":"cebpf4jnsgd1na2vs0mg"},{"bike_id":"594ef68b-ef00-47e7-b6dc-93883350da68","system_id":"levelo_inurba_marseille","lat":43.29965,"lon":5.385,"is_reserved":false,"is_disabled":false,"rental_uris":{"android":"levelo://app?vid=594ef68b-ef00-47e7-b6dc-93883350da68","ios":"levelo://app?vid=594ef68b-ef00-47e7-b6dc-93883350da68"},"vehicle_type_id":"4","last_reported":1753450165,"current_range_meters":14000,"station_id":"ce4bgj92rcd13ifvqbd0","pricing_plan_id":"cebpf4jnsgd1na2vs0mg"},{"bike_id":"3185ef6d-2ce7-45e8-9b8b-b88f53239af4","system_id":"levelo_inurba_marseille","lat":43.30944,"lon":5.36821,"is_reserved":false,"is_disabled":false,"rental_uris":{"android":"levelo://app?vid=3185ef6d-2ce7-45e8-9b8b-b88f53239af4","ios":"levelo://app?vid=3185ef6d-2ce7-45e8-9b8b-b88f53239af4"},"vehicle_type_id":"4","last_reported":1753450165,"current_range_meters":14000,"station_id":"ce4bgn92rcd13ifvqbvg","pricing_plan_id":"cebpf4jnsgd1na2vs0mg"},{"bike_id":"12f1ccbe-caad-447a-81e6-68f78b4f48b3","system_id":"levelo_inurba_marseille","lat":43.286242,"lon":5.351138,"is_reserved":false,"is_disabled":false,"rental_uris":{"android":"levelo://app?vid=12f1ccbe-caad-447a-81e6-68f78b4f48b3","ios":"levelo://app?vid=12f1ccbe-caad-447a-81e6-68f78b4f48b3"},"vehicle_type_id":"4","last_reported":1753450165,"current_range_meters":14400,"station_id":"ce4bhch2rcd13ifvqeug","pricing_plan_id":"cebpf4jnsgd1na2vs0mg"},{"bike_id":"3905a451-3ca5-4c8d-992c-e76d7da42101","system_id":"levelo_inurba_marseille","lat":43.28265,"lon":5.35065,"is_reserved":false,"is_disabled":false,"rental_uris":{"android":"levelo://app?vid=3905a451-3ca5-4c8d-992c-e76d7da42101","ios":"levelo://app?vid=3905a451-3ca5-4c8d-992c-e76d7da42101"},"vehicle_type_id":"4","last_reported":1753450165,"current_range_meters":14400,"station_id":"ce4bhbp2rcd13ifvqerg","pricing_plan_id":"cebpf4jnsgd1na2vs0mg"},{"bike_id":"23f76d78-e2ab-4830-acb8-17d78b6ac85c","system_id":"levelo_inurba_marseille","lat":43.30801,"lon":5.43526,"is_reserved":false,"is_disabled":false,"rental_uris":{"android":"levelo://app?vid=23f76d78-e2ab-4830-acb8-17d78b6ac85c","ios":"levelo://app?vid=23f76d78-e2ab-4830-acb8-17d78b6ac85c"},"vehicle_type_id":"4","last_reported":1753450165,"current_range_meters":14000,"station_id":"ce4bhph2rcd13ifvqheg","pricing_plan_id":"cebpf4jnsgd1na2vs0mg"},{"bike_id":"cc31eff4-f25d-4db9-b461-2f7f00485b63","system_id":"levelo_inurba_marseille","lat":43.28267,"lon":5.35062,"is_reserved":false,"is_disabled":false,"rental_uris":{"android":"levelo://app?vid=cc31eff4-f25d-4db9-b461-2f7f00485b63","ios":"levelo://app?vid=cc31eff4-f25d-4db9-b461-2f7f00485b63"},"vehicle_type_id":"4","last_reported":1753450165,"current_range_meters":14400,"station_id":"ce4bhbp2rcd13ifvqerg","pricing_plan_id":"cebpf4jnsgd1na2vs0mg"},{"bike_id":"ca466800-a510-4e0d-8e24-12298a4484fa","system_id":"levelo_inurba_marseille","lat":43.305084,"lon":5.39347,"is_reserved":false,"is_disabled":false,"rental_uris":{"android":"levelo://app?vid=ca466800-a510-4e0d-8e24-12298a4484fa","ios":"levelo://app?vid=ca466800-a510-4e0d-8e24-12298a4484fa"},"vehicle_type_id":"4","last_reported":1753450165,"current_range_meters":14800,"station_id":"ce4bh0p2rcd13ifvqd80","pricing_plan_id":"cebpf4jnsgd1na2vs0mg"},{"bike_id":"4a3ebd42-8b08-4c63-a261-0a4cf2d4ed0e","system_id":"levelo_inurba_marseille","lat":43.28939,"lon":5.36643,"is_reserved":false,"is_disabled":false,"rental_uris":{"android":"levelo://app?vid=4a3ebd42-8b08-4c63-a261-0a4cf2d4ed0e","ios":"levelo://app?vid=4a3ebd42-8b08-4c63-a261-0a4cf2d4ed0e"},"vehicle_type_id":"4","last_reported":1753450165,"current_range_meters":14800,"station_id":"ce4bhap2rcd13ifvqek0","pricing_plan_id":"cebpf4jnsgd1na2vs0mg"},{"bike_id":"106b550f-d233-4c19-855a-7f4afb57e88b","system_id":"levelo_inurba_marseille","lat":43.29189,"lon":5.35811,"is_reserved":false,"is_disabled":false,"rental_uris":{"android":"levelo://app?vid=106b550f-d233-4c19-855a-7f4afb57e88b","ios":"levelo://app?vid=106b550f-d233-4c19-855a-7f4afb57e88b"},"vehicle_type_id":"4","last_reported":1753450165,"current_range_meters":14400,"station_id":"ce4bhb12rcd13ifvqel0","pricing_plan_id":"cebpf4jnsgd1na2vs0mg"},{"bike_id":"43bdad3a-2e0b-440a-9036-7643b0df05d8","system_id":"levelo_inurba_marseille","lat":43.29569,"lon":5.39969,"is_reserved":false,"is_disabled":false,"rental_uris":{"android":"levelo://app?vid=43bdad3a-2e0b-440a-9036-7643b0df05d8","ios":"levelo://app?vid=43bdad3a-2e0b-440a-9036-7643b0df05d8"},"vehicle_type_id":"4","last_reported":1753450165,"current_range_meters":14400,"station_id":"ce4bh312rcd13ifvqdj0","pricing_plan_id":"cebpf4jnsgd1na2vs0mg"},{"bike_id":"ccca3042-9358-40fc-ac03-e327e01c225f","system_id":"levelo_inurba_marseille","lat":43.23286,"lon":5.3608,"is_reserved":false,"is_disabled":false,"rental_uris":{"android":"levelo://app?vid=ccca3042-9358-40fc-ac03-e327e01c225f","ios":"levelo://app?vid=ccca3042-9358-40fc-ac03-e327e01c225f"},"vehicle_type_id":"4","last_reported":1753450165,"current_range_meters":14800,"station_id":"","pricing_plan_id":"cebpf4jnsgd1na2vs0mg"},{"bike_id":"009b38c8-ed51-4ec4-af7d-bf6a18f09dbb","system_id":"levelo_inurba_marseille","lat":43.29028,"lon":5.38644,"is_reserved":false,"is_disabled":false,"rental_uris":{"android":"levelo://app?vid=009b38c8-ed51-4ec4-af7d-bf6a18f09dbb","ios":"levelo://app?vid=009b38c8-ed51-4ec4-af7d-bf6a18f09dbb"},"vehicle_type_id":"4","last_reported":1753450165,"current_range_meters":14400,"station_id":"ce4bh4p2rcd13ifvqe0g","pricing_plan_id":"cebpf4jnsgd1na2vs0mg"},{"bike_id":"a1584ae3-328e-458d-b97e-13dff079f54f","system_id":"levelo_inurba_marseille","lat":43.286927,"lon":5.373826,"is_reserved":false,"is_disabled":false,"rental_uris":{"android":"levelo://app?vid=a1584ae3-328e-458d-b97e-13dff079f54f","ios":"levelo://app?vid=a1584ae3-328e-458d-b97e-13dff079f54f"},"vehicle_type_id":"4","last_reported":1753450165,"current_range_meters":15200,"station_id":"ce4bh3p2rcd13ifvqdq0","pricing_plan_id":"cebpf4jnsgd1na2vs0mg"},{"bike_id":"d3bb5d54-6833-4c8e-ace3-4750d7184099","system_id":"levelo_inurba_marseille","lat":43.26555,"lon":5.37283,"is_reserved":false,"is_disabled":false,"rental_uris":{"android":"levelo://app?vid=d3bb5d54-6833-4c8e-ace3-4750d7184099","ios":"levelo://app?vid=d3bb5d54-6833-4c8e-ace3-4750d7184099"},"vehicle_type_id":"4","last_reported":1753450165,"current_range_meters":15200,"station_id":"ce4bhg12rcd13ifvqf70","pricing_plan_id":"cebpf4jnsgd1na2vs0mg"},{"bike_id":"3eca17e3-dd0e-41cc-9faa-99da2d2049e3","system_id":"levelo_inurba_marseille","lat":43.33595,"lon":5.41022,"is_reserved":false,"is_disabled":false,"rental_uris":{"android":"levelo://app?vid=3eca17e3-dd0e-41cc-9faa-99da2d2049e3","ios":"levelo://app?vid=3eca17e3-dd0e-41cc-9faa-99da2d2049e3"},"vehicle_type_id":"4","last_reported":1753450165,"current_range_meters":15200,"station_id":"ce4bhqh2rcd13ifvqhmg","pricing_plan_id":"cebpf4jnsgd1na2vs0mg"},{"bike_id":"22abd279-ac3d-4b7c-8221-b68bbacaab0e","system_id":"levelo_inurba_marseille","lat":43.26219,"lon":5.37442,"is_reserved":false,"is_disabled":false,"rental_uris":{"android":"levelo://app?vid=22abd279-ac3d-4b7c-8221-b68bbacaab0e","ios":"levelo://app?vid=22abd279-ac3d-4b7c-8221-b68bbacaab0e"},"vehicle_type_id":"4","last_reported":1753450165,"current_range_meters":16000,"station_id":"ce4bhgp2rcd13ifvqfc0","pricing_plan_id":"cebpf4jnsgd1na2vs0mg"},{"bike_id":"8d0256de-b2ca-483c-b543-191f45ce9d39","system_id":"levelo_inurba_marseille","lat":43.26514,"lon":5.39524,"is_reserved":false,"is_disabled":false,"rental_uris":{"android":"levelo://app?vid=8d0256de-b2ca-483c-b543-191f45ce9d39","ios":"levelo://app?vid=8d0256de-b2ca-483c-b543-191f45ce9d39"},"vehicle_type_id":"4","last_reported":1753450165,"current_range_meters":16000,"station_id":"ce4bhi12rcd13ifvqfq0","pricing_plan_id":"cebpf4jnsgd1na2vs0mg"},{"bike_id":"998111db-eeca-4c77-9e0c-e081b470aa34","system_id":"levelo_inurba_marseille","lat":43.27798,"lon":5.4073,"is_reserved":false,"is_disabled":false,"rental_uris":{"android":"levelo://app?vid=998111db-eeca-4c77-9e0c-e081b470aa34","ios":"levelo://app?vid=998111db-eeca-4c77-9e0c-e081b470aa34"},"vehicle_type_id":"4","last_reported":1753450165,"current_range_meters":16000,"station_id":"ce4bhnh2rcd13ifvqgtg","pricing_plan_id":"cebpf4jnsgd1na2vs0mg"},{"bike_id":"6dd68c4d-6a0d-4209-a3af-a888e6b87c99","system_id":"levelo_inurba_marseille","lat":43.28745,"lon":5.39998,"is_reserved":false,"is_disabled":false,"rental_uris":{"android":"levelo://app?vid=6dd68c4d-6a0d-4209-a3af-a888e6b87c99","ios":"levelo://app?vid=6dd68c4d-6a0d-4209-a3af-a888e6b87c99"},"vehicle_type_id":"4","last_reported":1753450165,"current_range_meters":16000,"station_id":"","pricing_plan_id":"cebpf4jnsgd1na2vs0mg"},{"bike_id":"d6b834d9-5f4f-445c-9a8d-5ea38c349287","system_id":"levelo_inurba_marseille","lat":43.22945,"lon":5.35366,"is_reserved":false,"is_disabled":false,"rental_uris":{"android":"levelo://app?vid=d6b834d9-5f4f-445c-9a8d-5ea38c349287","ios":"levelo://app?vid=d6b834d9-5f4f-445c-9a8d-5ea38c349287"},"vehicle_type_id":"4","last_reported":1753450165,"current_range_meters":16000,"station_id":"cpo3532slgdg3j2ikp40","pricing_plan_id":"cebpf4jnsgd1na2vs0mg"},{"bike_id":"0b4b290e-2949-484e-b41d-75f24d1c9cc3","system_id":"levelo_inurba_marseille","lat":43.29524,"lon":5.39403,"is_reserved":false,"is_disabled":false,"rental_uris":{"android":"levelo://app?vid=0b4b290e-2949-484e-b41d-75f24d1c9cc3","ios":"levelo://app?vid=0b4b290e-2949-484e-b41d-75f24d1c9cc3"},"vehicle_type_id":"4","last_reported":1753450165,"current_range_meters":15200,"station_id":"ce4bh292rcd13ifvqdf0","pricing_plan_id":"cebpf4jnsgd1na2vs0mg"},{"bike_id":"297bde0b-39d0-4678-bc6c-7f012dd57e25","system_id":"levelo_inurba_marseille","lat":43.30458,"lon":5.37905,"is_reserved":false,"is_disabled":false,"rental_uris":{"android":"levelo://app?vid=297bde0b-39d0-4678-bc6c-7f012dd57e25","ios":"levelo://app?vid=297bde0b-39d0-4678-bc6c-7f012dd57e25"},"vehicle_type_id":"4","last_reported":1753450165,"current_range_meters":16000,"station_id":"ce4bgup2rcd13ifvqcn0","pricing_plan_id":"cebpf4jnsgd1na2vs0mg"},{"bike_id":"58075a71-8a2b-4f59-abd3-9202ce214e8a","system_id":"levelo_inurba_marseille","lat":43.26939,"lon":5.40249,"is_reserved":false,"is_disabled":false,"rental_uris":{"android":"levelo://app?vid=58075a71-8a2b-4f59-abd3-9202ce214e8a","ios":"levelo://app?vid=58075a71-8a2b-4f59-abd3-9202ce214e8a"},"vehicle_type_id":"4","last_reported":1753450165,"current_range_meters":16000,"station_id":"cjm6bp8fraef2m0cb0m0","pricing_plan_id":"cebpf4jnsgd1na2vs0mg"},{"bike_id":"c54ff59d-c443-4efe-88ce-ec43b99b22b7","system_id":"levelo_inurba_marseille","lat":43.22928,"lon":5.35388,"is_reserved":false,"is_disabled":false,"rental_uris":{"android":"levelo://app?vid=c54ff59d-c443-4efe-88ce-ec43b99b22b7","ios":"levelo://app?vid=c54ff59d-c443-4efe-88ce-ec43b99b22b7"},"vehicle_type_id":"4","last_reported":1753450165,"current_range_meters":16000,"station_id":"cpo3532slgdg3j2ikp40","pricing_plan_id":"cebpf4jnsgd1na2vs0mg"},{"bike_id":"cc0974e3-8fcc-49c8-bc90-c91f05fa04e6","system_id":"levelo_inurba_marseille","lat":43.31161,"lon":5.3872,"is_reserved":false,"is_disabled":false,"rental_uris":{"android":"levelo://app?vid=cc0974e3-8fcc-49c8-bc90-c91f05fa04e6","ios":"levelo://app?vid=cc0974e3-8fcc-49c8-bc90-c91f05fa04e6"},"vehicle_type_id":"4","last_reported":1753450165,"current_range_meters":16000,"station_id":"ce4bgv12rcd13ifvqcp0","pricing_plan_id":"cebpf4jnsgd1na2vs0mg"},{"bike_id":"7e6cbf23-0744-43af-8253-8c672c5274d7","system_id":"levelo_inurba_marseille","lat":43.28604,"lon":5.37063,"is_reserved":false,"is_disabled":false,"rental_uris":{"android":"levelo://app?vid=7e6cbf23-0744-43af-8253-8c672c5274d7","ios":"levelo://app?vid=7e6cbf23-0744-43af-8253-8c672c5274d7"},"vehicle_type_id":"4","last_reported":1753450165,"current_range_meters":16400,"station_id":"ce4bht12rcd13ifvqi60","pricing_plan_id":"cebpf4jnsgd1na2vs0mg"},{"bike_id":"f3874552-67ae-42b2-8118-9593cfbe8355","system_id":"levelo_inurba_marseille","lat":43.24167,"lon":5.36395,"is_reserved":false,"is_disabled":false,"rental_uris":{"android":"levelo://app?vid=f3874552-67ae-42b2-8118-9593cfbe8355","ios":"levelo://app?vid=f3874552-67ae-42b2-8118-9593cfbe8355"},"vehicle_type_id":"4","last_reported":1753450165,"current_range_meters":16400,"station_id":"cpo36qri1sfpv3e86is0","pricing_plan_id":"cebpf4jnsgd1na2vs0mg"},{"bike_id":"22dca147-1260-44d8-822d-d9d1d50cce31","system_id":"levelo_inurba_marseille","lat":43.27473,"lon":5.396,"is_reserved":false,"is_disabled":false,"rental_uris":{"android":"levelo://app?vid=22dca147-1260-44d8-822d-d9d1d50cce31","ios":"levelo://app?vid=22dca147-1260-44d8-822d-d9d1d50cce31"},"vehicle_type_id":"4","last_reported":1753450165,"current_range_meters":16400,"station_id":"","pricing_plan_id":"cebpf4jnsgd1na2vs0mg"},{"bike_id":"44b406b4-2cb6-4c28-bd48-185bd835f4e2","system_id":"levelo_inurba_marseille","lat":43.22925,"lon":5.35368,"is_reserved":false,"is_disabled":false,"rental_uris":{"android":"levelo://app?vid=44b406b4-2cb6-4c28-bd48-185bd835f4e2","ios":"levelo://app?vid=44b406b4-2cb6-4c28-bd48-185bd835f4e2"},"vehicle_type_id":"4","last_reported":1753450165,"current_range_meters":16400,"station_id":"cpo3532slgdg3j2ikp40","pricing_plan_id":"cebpf4jnsgd1na2vs0mg"},{"bike_id":"9575837e-b363-4708-9b96-c153c5fc2eb1","system_id":"levelo_inurba_marseille","lat":43.32367,"lon":5.36747,"is_reserved":false,"is_disabled":false,"rental_uris":{"android":"levelo://app?vid=9575837e-b363-4708-9b96-c153c5fc2eb1","ios":"levelo://app?vid=9575837e-b363-4708-9b96-c153c5fc2eb1"},"vehicle_type_id":"4","last_reported":1753450165,"current_range_meters":16400,"station_id":"ce4bhsh2rcd13ifvqi2g","pricing_plan_id":"cebpf4jnsgd1na2vs0mg"},{"bike_id":"21a22bc7-65fe-4b97-a005-517b211a0b98","system_id":"levelo_inurba_marseille","lat":43.230527,"lon":5.354942,"is_reserved":false,"is_disabled":false,"rental_uris":{"android":"levelo://app?vid=21a22bc7-65fe-4b97-a005-517b211a0b98","ios":"levelo://app?vid=21a22bc7-65fe-4b97-a005-517b211a0b98"},"vehicle_type_id":"4","last_reported":1753450165,"current_range_meters":16400,"station_id":"cpo3342slgdg3j2ifvpg","pricing_plan_id":"cebpf4jnsgd1na2vs0mg"},{"bike_id":"605a26a7-be30-47d9-81e5-e981767b1778","system_id":"levelo_inurba_marseille","lat":43.26907,"lon":5.3866,"is_reserved":false,"is_disabled":false,"rental_uris":{"android":"levelo://app?vid=605a26a7-be30-47d9-81e5-e981767b1778","ios":"levelo://app?vid=605a26a7-be30-47d9-81e5-e981767b1778"},"vehicle_type_id":"4","last_reported":1753450165,"current_range_meters":16400,"station_id":"ce4bhh92rcd13ifvqfh0","pricing_plan_id":"cebpf4jnsgd1na2vs0mg"},{"bike_id":"36f324cb-a9ad-46b7-afb0-26f814934e1f","system_id":"levelo_inurba_marseille","lat":43.262175,"lon":5.374395,"is_reserved":false,"is_disabled":false,"rental_uris":{"android":"levelo://app?vid=36f324cb-a9ad-46b7-afb0-26f814934e1f","ios":"levelo://app?vid=36f324cb-a9ad-46b7-afb0-26f814934e1f"},"vehicle_type_id":"4","last_reported":1753450165,"current_range_meters":16400,"station_id":"ce4bhgp2rcd13ifvqfc0","pricing_plan_id":"cebpf4jnsgd1na2vs0mg"},{"bike_id":"4150f367-c77b-49d6-9460-8034f7438f5c","system_id":"levelo_inurba_marseille","lat":43.262054,"lon":5.374491,"is_reserved":false,"is_disabled":false,"rental_uris":{"android":"levelo://app?vid=4150f367-c77b-49d6-9460-8034f7438f5c","ios":"levelo://app?vid=4150f367-c77b-49d6-9460-8034f7438f5c"},"vehicle_type_id":"4","last_reported":1753450165,"current_range_meters":16400,"station_id":"","pricing_plan_id":"cebpf4jnsgd1na2vs0mg"},{"bike_id":"4d72a855-a15c-4b80-87db-d5d3b8786584","system_id":"levelo_inurba_marseille","lat":43.286238,"lon":5.350948,"is_reserved":false,"is_disabled":false,"rental_uris":{"android":"levelo://app?vid=4d72a855-a15c-4b80-87db-d5d3b8786584","ios":"levelo://app?vid=4d72a855-a15c-4b80-87db-d5d3b8786584"},"vehicle_type_id":"4","last_reported":1753450165,"current_range_meters":16800,"station_id":"ce4bhch2rcd13ifvqeug","pricing_plan_id":"cebpf4jnsgd1na2vs0mg"},{"bike_id":"351557f1-0566-4a9d-ac25-ad86ec7490b5","system_id":"levelo_inurba_marseille","lat":43.337622,"lon":5.37431,"is_reserved":false,"is_disabled":false,"rental_uris":{"android":"levelo://app?vid=351557f1-0566-4a9d-ac25-ad86ec7490b5","ios":"levelo://app?vid=351557f1-0566-4a9d-ac25-ad86ec7490b5"},"vehicle_type_id":"4","last_reported":1753450165,"current_range_meters":16800,"station_id":"","pricing_plan_id":"cebpf4jnsgd1na2vs0mg"},{"bike_id":"de99b14c-9afd-4bdd-bc56-50354c110c3d","system_id":"levelo_inurba_marseille","lat":43.25467,"lon":5.37687,"is_reserved":false,"is_disabled":false,"rental_uris":{"android":"levelo://app?vid=de99b14c-9afd-4bdd-bc56-50354c110c3d","ios":"levelo://app?vid=de99b14c-9afd-4bdd-bc56-50354c110c3d"},"vehicle_type_id":"4","last_reported":1753450165,"current_range_meters":16800,"station_id":"","pricing_plan_id":"cebpf4jnsgd1na2vs0mg"},{"bike_id":"32f32696-c591-4b38-afad-6701be788bd2","system_id":"levelo_inurba_marseille","lat":43.29279,"lon":5.36835,"is_reserved":false,"is_disabled":false,"rental_uris":{"android":"levelo://app?vid=32f32696-c591-4b38-afad-6701be788bd2","ios":"levelo://app?vid=32f32696-c591-4b38-afad-6701be788bd2"},"vehicle_type_id":"4","last_reported":1753450165,"current_range_meters":16800,"station_id":"ce4bhbp2rcd13ifvqesg","pricing_plan_id":"cebpf4jnsgd1na2vs0mg"},{"bike_id":"c26f1b4d-11e7-4aaa-8fd1-0c8a6e22bd7c","system_id":"levelo_inurba_marseille","lat":43.30135,"lon":5.38781,"is_reserved":false,"is_disabled":true,"rental_uris":{"android":"levelo://app?vid=c26f1b4d-11e7-4aaa-8fd1-0c8a6e22bd7c","ios":"levelo://app?vid=c26f1b4d-11e7-4aaa-8fd1-0c8a6e22bd7c"},"vehicle_type_id":"4","last_reported":1753450165,"current_range_meters":16800,"station_id":"ce4bghh2rcd13ifvqb60","pricing_plan_id":"cebpf4jnsgd1na2vs0mg"},{"bike_id":"e4758bdf-cf42-4efa-b967-d2d8f06662b0","system_id":"levelo_inurba_marseille","lat":43.299207,"lon":5.374321,"is_reserved":false,"is_disabled":false,"rental_uris":{"android":"levelo://app?vid=e4758bdf-cf42-4efa-b967-d2d8f06662b0","ios":"levelo://app?vid=e4758bdf-cf42-4efa-b967-d2d8f06662b0"},"vehicle_type_id":"4","last_reported":1753450165,"current_range_meters":16800,"station_id":"ce4bgjh2rcd13ifvqbg0","pricing_plan_id":"cebpf4jnsgd1na2vs0mg"},{"bike_id":"d42fd1d9-8599-4423-8a25-1889aaf7e28d","system_id":"levelo_inurba_marseille","lat":43.22929,"lon":5.35387,"is_reserved":false,"is_disabled":false,"rental_uris":{"android":"levelo://app?vid=d42fd1d9-8599-4423-8a25-1889aaf7e28d","ios":"levelo://app?vid=d42fd1d9-8599-4423-8a25-1889aaf7e28d"},"vehicle_type_id":"4","last_reported":1753450165,"current_range_meters":16800,"station_id":"cpo3532slgdg3j2ikp40","pricing_plan_id":"cebpf4jnsgd1na2vs0mg"},{"bike_id":"dc0d9aab-1707-4952-a31b-208fdb5ca985","system_id":"levelo_inurba_marseille","lat":43.26224,"lon":5.40446,"is_reserved":false,"is_disabled":false,"rental_uris":{"android":"levelo://app?vid=dc0d9aab-1707-4952-a31b-208fdb5ca985","ios":"levelo://app?vid=dc0d9aab-1707-4952-a31b-208fdb5ca985"},"vehicle_type_id":"4","last_reported":1753450165,"current_range_meters":16000,"station_id":"ce4bhmh2rcd13ifvqgmg","pricing_plan_id":"cebpf4jnsgd1na2vs0mg"},{"bike_id":"8f62dcd6-535c-4ee5-933a-a80ecb1138ab","system_id":"levelo_inurba_marseille","lat":43.27564,"lon":5.38426,"is_reserved":false,"is_disabled":false,"rental_uris":{"android":"levelo://app?vid=8f62dcd6-535c-4ee5-933a-a80ecb1138ab","ios":"levelo://app?vid=8f62dcd6-535c-4ee5-933a-a80ecb1138ab"},"vehicle_type_id":"4","last_reported":1753450165,"current_range_meters":16800,"station_id":"ce4bhh92rcd13ifvqfi0","pricing_plan_id":"cebpf4jnsgd1na2vs0mg"},{"bike_id":"2f7aa8ee-b17f-447e-ac1c-06bff5e89da8","system_id":"levelo_inurba_marseille","lat":43.299,"lon":5.43674,"is_reserved":false,"is_disabled":false,"rental_uris":{"android":"levelo://app?vid=2f7aa8ee-b17f-447e-ac1c-06bff5e89da8","ios":"levelo://app?vid=2f7aa8ee-b17f-447e-ac1c-06bff5e89da8"},"vehicle_type_id":"4","last_reported":1753450165,"current_range_meters":16800,"station_id":"ce4bhpp2rcd13ifvqhfg","pricing_plan_id":"cebpf4jnsgd1na2vs0mg"},{"bike_id":"dd4669b8-7a1e-455c-921c-cef6ea4213f0","system_id":"levelo_inurba_marseille","lat":43.29744,"lon":5.37678,"is_reserved":false,"is_disabled":false,"rental_uris":{"android":"levelo://app?vid=dd4669b8-7a1e-455c-921c-cef6ea4213f0","ios":"levelo://app?vid=dd4669b8-7a1e-455c-921c-cef6ea4213f0"},"vehicle_type_id":"4","last_reported":1753450165,"current_range_meters":16800,"station_id":"ce4bgkh2rcd13ifvqbl0","pricing_plan_id":"cebpf4jnsgd1na2vs0mg"},{"bike_id":"57755280-973c-4ff3-9c25-8f15e2c5b510","system_id":"levelo_inurba_marseille","lat":43.31872,"lon":5.37373,"is_reserved":false,"is_disabled":false,"rental_uris":{"android":"levelo://app?vid=57755280-973c-4ff3-9c25-8f15e2c5b510","ios":"levelo://app?vid=57755280-973c-4ff3-9c25-8f15e2c5b510"},"vehicle_type_id":"4","last_reported":1753450165,"current_range_meters":16800,"station_id":"","pricing_plan_id":"cebpf4jnsgd1na2vs0mg"},{"bike_id":"09b7f600-cb1e-4ea0-adc2-9c3dcb778794","system_id":"levelo_inurba_marseille","lat":43.22495,"lon":5.34802,"is_reserved":false,"is_disabled":false,"rental_uris":{"android":"levelo://app?vid=09b7f600-cb1e-4ea0-adc2-9c3dcb778794","ios":"levelo://app?vid=09b7f600-cb1e-4ea0-adc2-9c3dcb778794"},"vehicle_type_id":"4","last_reported":1753450165,"current_range_meters":17200,"station_id":"st_cvj5dfep6f1abm77gieg","pricing_plan_id":"cebpf4jnsgd1na2vs0mg"},{"bike_id":"7f7a4770-cb44-4cbe-afee-f7531a238fa9","system_id":"levelo_inurba_marseille","lat":43.225059,"lon":5.347842,"is_reserved":false,"is_disabled":false,"rental_uris":{"android":"levelo://app?vid=7f7a4770-cb44-4cbe-afee-f7531a238fa9","ios":"levelo://app?vid=7f7a4770-cb44-4cbe-afee-f7531a238fa9"},"vehicle_type_id":"4","last_reported":1753450165,"current_range_meters":17200,"station_id":"st_cvj5dfep6f1abm77gieg","pricing_plan_id":"cebpf4jnsgd1na2vs0mg"},{"bike_id":"c2f86042-7285-4d54-9cf3-f1492c447be7","system_id":"levelo_inurba_marseille","lat":43.30601,"lon":5.37221,"is_reserved":false,"is_disabled":false,"rental_uris":{"android":"levelo://app?vid=c2f86042-7285-4d54-9cf3-f1492c447be7","ios":"levelo://app?vid=c2f86042-7285-4d54-9cf3-f1492c447be7"},"vehicle_type_id":"4","last_reported":1753450165,"current_range_meters":17200,"station_id":"ce4bgqh2rcd13ifvqc4g","pricing_plan_id":"cebpf4jnsgd1na2vs0mg"},{"bike_id":"7528e0ee-3254-4380-8007-ffef61e356ca","system_id":"levelo_inurba_marseille","lat":43.265591,"lon":5.372965,"is_reserved":false,"is_disabled":false,"rental_uris":{"android":"levelo://app?vid=7528e0ee-3254-4380-8007-ffef61e356ca","ios":"levelo://app?vid=7528e0ee-3254-4380-8007-ffef61e356ca"},"vehicle_type_id":"4","last_reported":1753450165,"current_range_meters":17200,"station_id":"ce4bhg12rcd13ifvqf70","pricing_plan_id":"cebpf4jnsgd1na2vs0mg"},{"bike_id":"cac06d43-e574-48c5-a655-7c350a2cbdb6","system_id":"levelo_inurba_marseille","lat":43.26212,"lon":5.37438,"is_reserved":false,"is_disabled":false,"rental_uris":{"android":"levelo://app?vid=cac06d43-e574-48c5-a655-7c350a2cbdb6","ios":"levelo://app?vid=cac06d43-e574-48c5-a655-7c350a2cbdb6"},"vehicle_type_id":"4","last_reported":1753450165,"current_range_meters":17200,"station_id":"ce4bhgp2rcd13ifvqfc0","pricing_plan_id":"cebpf4jnsgd1na2vs0mg"},{"bike_id":"e5478593-5e9a-45d3-ad29-6619da6651d3","system_id":"levelo_inurba_marseille","lat":43.29575,"lon":5.37507,"is_reserved":false,"is_disabled":false,"rental_uris":{"android":"levelo://app?vid=e5478593-5e9a-45d3-ad29-6619da6651d3","ios":"levelo://app?vid=e5478593-5e9a-45d3-ad29-6619da6651d3"},"vehicle_type_id":"4","last_reported":1753450165,"current_range_meters":17200,"station_id":"ce4bgh92rcd13ifvqb50","pricing_plan_id":"cebpf4jnsgd1na2vs0mg"},{"bike_id":"d18d01de-e212-4547-af35-26ab3c53d565","system_id":"levelo_inurba_marseille","lat":43.29966,"lon":5.38499,"is_reserved":false,"is_disabled":false,"rental_uris":{"android":"levelo://app?vid=d18d01de-e212-4547-af35-26ab3c53d565","ios":"levelo://app?vid=d18d01de-e212-4547-af35-26ab3c53d565"},"vehicle_type_id":"4","last_reported":1753450165,"current_range_meters":17200,"station_id":"ce4bgj92rcd13ifvqbd0","pricing_plan_id":"cebpf4jnsgd1na2vs0mg"},{"bike_id":"830ac2da-3449-4c4f-88c4-7edd782ac2a3","system_id":"levelo_inurba_marseille","lat":43.22928,"lon":5.35387,"is_reserved":false,"is_disabled":false,"rental_uris":{"android":"levelo://app?vid=830ac2da-3449-4c4f-88c4-7edd782ac2a3","ios":"levelo://app?vid=830ac2da-3449-4c4f-88c4-7edd782ac2a3"},"vehicle_type_id":"4","last_reported":1753450165,"current_range_meters":17200,"station_id":"cpo3532slgdg3j2ikp40","pricing_plan_id":"cebpf4jnsgd1na2vs0mg"},{"bike_id":"0a75ad1d-5bc3-45c3-aa70-b42e14357a3f","system_id":"levelo_inurba_marseille","lat":43.26219,"lon":5.37445,"is_reserved":false,"is_disabled":false,"rental_uris":{"android":"levelo://app?vid=0a75ad1d-5bc3-45c3-aa70-b42e14357a3f","ios":"levelo://app?vid=0a75ad1d-5bc3-45c3-aa70-b42e14357a3f"},"vehicle_type_id":"4","last_reported":1753450165,"current_range_meters":17200,"station_id":"ce4bhgp2rcd13ifvqfc0","pricing_plan_id":"cebpf4jnsgd1na2vs0mg"},{"bike_id":"5ec0c64f-b3b2-4d4f-bba1-8753a83f96a8","system_id":"levelo_inurba_marseille","lat":43.217532,"lon":5.34602,"is_reserved":false,"is_disabled":false,"rental_uris":{"android":"levelo://app?vid=5ec0c64f-b3b2-4d4f-bba1-8753a83f96a8","ios":"levelo://app?vid=5ec0c64f-b3b2-4d4f-bba1-8753a83f96a8"},"vehicle_type_id":"4","last_reported":1753450165,"current_range_meters":17600,"station_id":"st_cvj6r9ubvosntc0bgbag","pricing_plan_id":"cebpf4jnsgd1na2vs0mg"},{"bike_id":"562d93b4-ae9d-4a5a-87a5-c4e54f9d915a","system_id":"levelo_inurba_marseille","lat":43.30708,"lon":5.400914,"is_reserved":false,"is_disabled":false,"rental_uris":{"android":"levelo://app?vid=562d93b4-ae9d-4a5a-87a5-c4e54f9d915a","ios":"levelo://app?vid=562d93b4-ae9d-4a5a-87a5-c4e54f9d915a"},"vehicle_type_id":"4","last_reported":1753450165,"current_range_meters":17600,"station_id":"ce4bh112rcd13ifvqda0","pricing_plan_id":"cebpf4jnsgd1na2vs0mg"},{"bike_id":"f8a5258a-c32a-4c32-9d50-8d119f529a04","system_id":"levelo_inurba_marseille","lat":43.22942,"lon":5.35382,"is_reserved":false,"is_disabled":false,"rental_uris":{"android":"levelo://app?vid=f8a5258a-c32a-4c32-9d50-8d119f529a04","ios":"levelo://app?vid=f8a5258a-c32a-4c32-9d50-8d119f529a04"},"vehicle_type_id":"4","last_reported":1753450165,"current_range_meters":17600,"station_id":"cpo3532slgdg3j2ikp40","pricing_plan_id":"cebpf4jnsgd1na2vs0mg"},{"bike_id":"801a46e1-b7d5-4e78-8be9-08d0266948fd","system_id":"levelo_inurba_marseille","lat":43.32664,"lon":5.40983,"is_reserved":false,"is_disabled":false,"rental_uris":{"android":"levelo://app?vid=801a46e1-b7d5-4e78-8be9-08d0266948fd","ios":"levelo://app?vid=801a46e1-b7d5-4e78-8be9-08d0266948fd"},"vehicle_type_id":"4","last_reported":1753450165,"current_range_meters":17600,"station_id":"ce4bhpp2rcd13ifvqhgg","pricing_plan_id":"cebpf4jnsgd1na2vs0mg"},{"bike_id":"173c7979-3321-47ea-8a86-a6cd190511a5","system_id":"levelo_inurba_marseille","lat":43.239619,"lon":5.366289,"is_reserved":false,"is_disabled":false,"rental_uris":{"android":"levelo://app?vid=173c7979-3321-47ea-8a86-a6cd190511a5","ios":"levelo://app?vid=173c7979-3321-47ea-8a86-a6cd190511a5"},"vehicle_type_id":"4","last_reported":1753450165,"current_range_meters":17600,"station_id":"ce4bhi12rcd13ifvqfp0","pricing_plan_id":"cebpf4jnsgd1na2vs0mg"},{"bike_id":"b5faf0f0-8a73-4fc4-b6fc-daffce16b582","system_id":"levelo_inurba_marseille","lat":43.3015,"lon":5.38087,"is_reserved":false,"is_disabled":false,"rental_uris":{"android":"levelo://app?vid=b5faf0f0-8a73-4fc4-b6fc-daffce16b582","ios":"levelo://app?vid=b5faf0f0-8a73-4fc4-b6fc-daffce16b582"},"vehicle_type_id":"4","last_reported":1753450165,"current_range_meters":17600,"station_id":"ce4bgjp2rcd13ifvqbh0","pricing_plan_id":"cebpf4jnsgd1na2vs0mg"},{"bike_id":"329c8f00-9fb0-47d7-84ef-1bc64e291f9c","system_id":"levelo_inurba_marseille","lat":43.292789,"lon":5.36837,"is_reserved":false,"is_disabled":false,"rental_uris":{"android":"levelo://app?vid=329c8f00-9fb0-47d7-84ef-1bc64e291f9c","ios":"levelo://app?vid=329c8f00-9fb0-47d7-84ef-1bc64e291f9c"},"vehicle_type_id":"4","last_reported":1753450165,"current_range_meters":17600,"station_id":"","pricing_plan_id":"cebpf4jnsgd1na2vs0mg"},{"bike_id":"fa44ce83-799a-45fc-8ee5-afab9105ec1e","system_id":"levelo_inurba_marseille","lat":43.29595,"lon":5.38102,"is_reserved":false,"is_disabled":false,"rental_uris":{"android":"levelo://app?vid=fa44ce83-799a-45fc-8ee5-afab9105ec1e","ios":"levelo://app?vid=fa44ce83-799a-45fc-8ee5-afab9105ec1e"},"vehicle_type_id":"4","last_reported":1753450165,"current_range_meters":18000,"station_id":"ce4bgl12rcd13ifvqbo0","pricing_plan_id":"cebpf4jnsgd1na2vs0mg"},{"bike_id":"561b0bf9-6477-4626-9653-7891d1d67413","system_id":"levelo_inurba_marseille","lat":43.27943,"lon":5.41045,"is_reserved":false,"is_disabled":false,"rental_uris":{"android":"levelo://app?vid=561b0bf9-6477-4626-9653-7891d1d67413","ios":"levelo://app?vid=561b0bf9-6477-4626-9653-7891d1d67413"},"vehicle_type_id":"4","last_reported":1753450165,"current_range_meters":18000,"station_id":"ce4bhnp2rcd13ifvqh0g","pricing_plan_id":"cebpf4jnsgd1na2vs0mg"},{"bike_id":"fe36632c-7cce-410c-9f09-ef3baab6960e","system_id":"levelo_inurba_marseille","lat":43.29845,"lon":5.36269,"is_reserved":false,"is_disabled":false,"rental_uris":{"android":"levelo://app?vid=fe36632c-7cce-410c-9f09-ef3baab6960e","ios":"levelo://app?vid=fe36632c-7cce-410c-9f09-ef3baab6960e"},"vehicle_type_id":"4","last_reported":1753450165,"current_range_meters":17600,"station_id":"ce4bgpp2rcd13ifvqc3g","pricing_plan_id":"cebpf4jnsgd1na2vs0mg"},{"bike_id":"16971f4c-ccac-4993-ad28-795396f2377f","system_id":"levelo_inurba_marseille","lat":43.24171,"lon":5.36391,"is_reserved":false,"is_disabled":false,"rental_uris":{"android":"levelo://app?vid=16971f4c-ccac-4993-ad28-795396f2377f","ios":"levelo://app?vid=16971f4c-ccac-4993-ad28-795396f2377f"},"vehicle_type_id":"4","last_reported":1753450165,"current_range_meters":18000,"station_id":"cpo36qri1sfpv3e86is0","pricing_plan_id":"cebpf4jnsgd1na2vs0mg"},{"bike_id":"c54c7470-7323-445b-86e5-5b5ce2f05a24","system_id":"levelo_inurba_marseille","lat":43.21756,"lon":5.34597,"is_reserved":false,"is_disabled":false,"rental_uris":{"android":"levelo://app?vid=c54c7470-7323-445b-86e5-5b5ce2f05a24","ios":"levelo://app?vid=c54c7470-7323-445b-86e5-5b5ce2f05a24"},"vehicle_type_id":"4","last_reported":1753450165,"current_range_meters":18000,"station_id":"st_cvj6r9ubvosntc0bgbag","pricing_plan_id":"cebpf4jnsgd1na2vs0mg"},{"bike_id":"152247a2-6f09-485f-acf9-4f6bd27a046c","system_id":"levelo_inurba_marseille","lat":43.28148,"lon":5.42636,"is_reserved":false,"is_disabled":false,"rental_uris":{"android":"levelo://app?vid=152247a2-6f09-485f-acf9-4f6bd27a046c","ios":"levelo://app?vid=152247a2-6f09-485f-acf9-4f6bd27a046c"},"vehicle_type_id":"4","last_reported":1753450165,"current_range_meters":18000,"station_id":"ce4bhnh2rcd13ifvqgug","pricing_plan_id":"cebpf4jnsgd1na2vs0mg"},{"bike_id":"31a32938-b418-45fa-9c30-8136f684dd43","system_id":"levelo_inurba_marseille","lat":43.2549,"lon":5.37649,"is_reserved":false,"is_disabled":false,"rental_uris":{"android":"levelo://app?vid=31a32938-b418-45fa-9c30-8136f684dd43","ios":"levelo://app?vid=31a32938-b418-45fa-9c30-8136f684dd43"},"vehicle_type_id":"4","last_reported":1753450165,"current_range_meters":18000,"station_id":"ce4bhh12rcd13ifvqff0","pricing_plan_id":"cebpf4jnsgd1na2vs0mg"},{"bike_id":"2de6df84-4a65-421c-a610-eefd67edb8aa","system_id":"levelo_inurba_marseille","lat":43.32461,"lon":5.36582,"is_reserved":false,"is_disabled":false,"rental_uris":{"android":"levelo://app?vid=2de6df84-4a65-421c-a610-eefd67edb8aa","ios":"levelo://app?vid=2de6df84-4a65-421c-a610-eefd67edb8aa"},"vehicle_type_id":"4","last_reported":1753450165,"current_range_meters":18000,"station_id":"ce4bhs12rcd13ifvqhvg","pricing_plan_id":"cebpf4jnsgd1na2vs0mg"},{"bike_id":"f60ac0b4-f7c9-4a68-b03a-019a9b3eb0fe","system_id":"levelo_inurba_marseille","lat":43.29152,"lon":5.37757,"is_reserved":false,"is_disabled":false,"rental_uris":{"android":"levelo://app?vid=f60ac0b4-f7c9-4a68-b03a-019a9b3eb0fe","ios":"levelo://app?vid=f60ac0b4-f7c9-4a68-b03a-019a9b3eb0fe"},"vehicle_type_id":"4","last_reported":1753450165,"current_range_meters":18000,"station_id":"","pricing_plan_id":"cebpf4jnsgd1na2vs0mg"},{"bike_id":"36b472ed-f48e-45c2-a438-6130c1ef99b6","system_id":"levelo_inurba_marseille","lat":43.30421,"lon":5.41281,"is_reserved":false,"is_disabled":false,"rental_uris":{"android":"levelo://app?vid=36b472ed-f48e-45c2-a438-6130c1ef99b6","ios":"levelo://app?vid=36b472ed-f48e-45c2-a438-6130c1ef99b6"},"vehicle_type_id":"4","last_reported":1753450165,"current_range_meters":17600,"station_id":"ce4bhop2rcd13ifvqh8g","pricing_plan_id":"cebpf4jnsgd1na2vs0mg"},{"bike_id":"46229b3f-09bc-46a0-bae5-126a7c5f784f","system_id":"levelo_inurba_marseille","lat":43.25116,"lon":5.40321,"is_reserved":false,"is_disabled":false,"rental_uris":{"android":"levelo://app?vid=46229b3f-09bc-46a0-bae5-126a7c5f784f","ios":"levelo://app?vid=46229b3f-09bc-46a0-bae5-126a7c5f784f"},"vehicle_type_id":"4","last_reported":1753450165,"current_range_meters":18000,"station_id":"ce4bhlh2rcd13ifvqgig","pricing_plan_id":"cebpf4jnsgd1na2vs0mg"},{"bike_id":"7d1d9b60-3dc8-4c23-95e2-067a5b72f8af","system_id":"levelo_inurba_marseille","lat":43.24802,"lon":5.37453,"is_reserved":false,"is_disabled":false,"rental_uris":{"android":"levelo://app?vid=7d1d9b60-3dc8-4c23-95e2-067a5b72f8af","ios":"levelo://app?vid=7d1d9b60-3dc8-4c23-95e2-067a5b72f8af"},"vehicle_type_id":"4","last_reported":1753450165,"current_range_meters":18000,"station_id":"ce4bhgh2rcd13ifvqfb0","pricing_plan_id":"cebpf4jnsgd1na2vs0mg"},{"bike_id":"80acebb2-0350-48ac-b0aa-274664838171","system_id":"levelo_inurba_marseille","lat":43.24177,"lon":5.36395,"is_reserved":false,"is_disabled":false,"rental_uris":{"android":"levelo://app?vid=80acebb2-0350-48ac-b0aa-274664838171","ios":"levelo://app?vid=80acebb2-0350-48ac-b0aa-274664838171"},"vehicle_type_id":"4","last_reported":1753450165,"current_range_meters":18000,"station_id":"cpo36qri1sfpv3e86is0","pricing_plan_id":"cebpf4jnsgd1na2vs0mg"},{"bike_id":"af5d66e4-f0e5-4e79-aea3-313cacc90bb9","system_id":"levelo_inurba_marseille","lat":43.25004,"lon":5.38931,"is_reserved":false,"is_disabled":false,"rental_uris":{"android":"levelo://app?vid=af5d66e4-f0e5-4e79-aea3-313cacc90bb9","ios":"levelo://app?vid=af5d66e4-f0e5-4e79-aea3-313cacc90bb9"},"vehicle_type_id":"4","last_reported":1753450165,"current_range_meters":18800,"station_id":"ce4bhgp2rcd13ifvqfd0","pricing_plan_id":"cebpf4jnsgd1na2vs0mg"},{"bike_id":"59638338-e5d3-411f-a92f-e4693aca91b1","system_id":"levelo_inurba_marseille","lat":43.308901,"lon":5.396445,"is_reserved":false,"is_disabled":false,"rental_uris":{"android":"levelo://app?vid=59638338-e5d3-411f-a92f-e4693aca91b1","ios":"levelo://app?vid=59638338-e5d3-411f-a92f-e4693aca91b1"},"vehicle_type_id":"4","last_reported":1753450165,"current_range_meters":18800,"station_id":"ce4bh012rcd13ifvqcv0","pricing_plan_id":"cebpf4jnsgd1na2vs0mg"},{"bike_id":"8f4ca69e-9621-4ffd-91af-41f939f5f71e","system_id":"levelo_inurba_marseille","lat":43.23969,"lon":5.36628,"is_reserved":false,"is_disabled":false,"rental_uris":{"android":"levelo://app?vid=8f4ca69e-9621-4ffd-91af-41f939f5f71e","ios":"levelo://app?vid=8f4ca69e-9621-4ffd-91af-41f939f5f71e"},"vehicle_type_id":"4","last_reported":1753450165,"current_range_meters":18800,"station_id":"ce4bhi12rcd13ifvqfp0","pricing_plan_id":"cebpf4jnsgd1na2vs0mg"},{"bike_id":"d9a0b282-af5e-4ddf-8bb5-6f7f3359602e","system_id":"levelo_inurba_marseille","lat":43.29589,"lon":5.38097,"is_reserved":false,"is_disabled":false,"rental_uris":{"android":"levelo://app?vid=d9a0b282-af5e-4ddf-8bb5-6f7f3359602e","ios":"levelo://app?vid=d9a0b282-af5e-4ddf-8bb5-6f7f3359602e"},"vehicle_type_id":"4","last_reported":1753450165,"current_range_meters":18800,"station_id":"ce4bgl12rcd13ifvqbo0","pricing_plan_id":"cebpf4jnsgd1na2vs0mg"},{"bike_id":"c3c2652b-f2d7-4ed4-89ec-9559feb01451","system_id":"levelo_inurba_marseille","lat":43.292236,"lon":5.360521,"is_reserved":false,"is_disabled":true,"rental_uris":{"android":"levelo://app?vid=c3c2652b-f2d7-4ed4-89ec-9559feb01451","ios":"levelo://app?vid=c3c2652b-f2d7-4ed4-89ec-9559feb01451"},"vehicle_type_id":"4","last_reported":1753450165,"current_range_meters":18800,"station_id":"ce4bhbh2rcd13ifvqeqg","pricing_plan_id":"cebpf4jnsgd1na2vs0mg"},{"bike_id":"ec74f06a-40dc-4c39-a0cb-57d6f568a4e5","system_id":"levelo_inurba_marseille","lat":43.229183,"lon":5.353766,"is_reserved":false,"is_disabled":false,"rental_uris":{"android":"levelo://app?vid=ec74f06a-40dc-4c39-a0cb-57d6f568a4e5","ios":"levelo://app?vid=ec74f06a-40dc-4c39-a0cb-57d6f568a4e5"},"vehicle_type_id":"4","last_reported":1753450165,"current_range_meters":18800,"station_id":"cpo3532slgdg3j2ikp40","pricing_plan_id":"cebpf4jnsgd1na2vs0mg"},{"bike_id":"54c9f5ed-1f47-4abf-808b-8dc6d15dd9f7","system_id":"levelo_inurba_marseille","lat":43.30536,"lon":5.36719,"is_reserved":false,"is_disabled":false,"rental_uris":{"android":"levelo://app?vid=54c9f5ed-1f47-4abf-808b-8dc6d15dd9f7","ios":"levelo://app?vid=54c9f5ed-1f47-4abf-808b-8dc6d15dd9f7"},"vehicle_type_id":"4","last_reported":1753450165,"current_range_meters":18000,"station_id":"ce4bgrp2rcd13ifvqc9g","pricing_plan_id":"cebpf4jnsgd1na2vs0mg"},{"bike_id":"be4bd258-669b-4fab-b2a0-b19162d3f474","system_id":"levelo_inurba_marseille","lat":43.23068,"lon":5.35486,"is_reserved":false,"is_disabled":false,"rental_uris":{"android":"levelo://app?vid=be4bd258-669b-4fab-b2a0-b19162d3f474","ios":"levelo://app?vid=be4bd258-669b-4fab-b2a0-b19162d3f474"},"vehicle_type_id":"4","last_reported":1753450165,"current_range_meters":18800,"station_id":"cpo3342slgdg3j2ifvpg","pricing_plan_id":"cebpf4jnsgd1na2vs0mg"},{"bike_id":"990d5d3f-1fdb-4957-84b4-dc0cf06b4618","system_id":"levelo_inurba_marseille","lat":43.24647,"lon":5.38889,"is_reserved":false,"is_disabled":false,"rental_uris":{"android":"levelo://app?vid=990d5d3f-1fdb-4957-84b4-dc0cf06b4618","ios":"levelo://app?vid=990d5d3f-1fdb-4957-84b4-dc0cf06b4618"},"vehicle_type_id":"4","last_reported":1753450165,"current_range_meters":18000,"station_id":"ce4bhg12rcd13ifvqf60","pricing_plan_id":"cebpf4jnsgd1na2vs0mg"},{"bike_id":"802ff1ab-3262-43a6-ae06-271375b6cfd7","system_id":"levelo_inurba_marseille","lat":43.26686,"lon":5.38268,"is_reserved":false,"is_disabled":false,"rental_uris":{"android":"levelo://app?vid=802ff1ab-3262-43a6-ae06-271375b6cfd7","ios":"levelo://app?vid=802ff1ab-3262-43a6-ae06-271375b6cfd7"},"vehicle_type_id":"4","last_reported":1753450165,"current_range_meters":18800,"station_id":"ce4bhg92rcd13ifvqf90","pricing_plan_id":"cebpf4jnsgd1na2vs0mg"},{"bike_id":"ac8ce396-3dab-4f02-af68-0ee9b6d1d3cb","system_id":"levelo_inurba_marseille","lat":43.31223,"lon":5.36899,"is_reserved":false,"is_disabled":false,"rental_uris":{"android":"levelo://app?vid=ac8ce396-3dab-4f02-af68-0ee9b6d1d3cb","ios":"levelo://app?vid=ac8ce396-3dab-4f02-af68-0ee9b6d1d3cb"},"vehicle_type_id":"4","last_reported":1753450165,"current_range_meters":18800,"station_id":"ce4bgl92rcd13ifvqbq0","pricing_plan_id":"cebpf4jnsgd1na2vs0mg"},{"bike_id":"6ab0b13c-2ff1-417a-acfd-489d6800d4c9","system_id":"levelo_inurba_marseille","lat":43.27379,"lon":5.36255,"is_reserved":false,"is_disabled":true,"rental_uris":{"android":"levelo://app?vid=6ab0b13c-2ff1-417a-acfd-489d6800d4c9","ios":"levelo://app?vid=6ab0b13c-2ff1-417a-acfd-489d6800d4c9"},"vehicle_type_id":"4","last_reported":1753450165,"current_range_meters":18800,"station_id":"","pricing_plan_id":"cebpf4jnsgd1na2vs0mg"},{"bike_id":"d515671f-3764-4619-a876-4333868173a5","system_id":"levelo_inurba_marseille","lat":43.30539,"lon":5.38413,"is_reserved":false,"is_disabled":false,"rental_uris":{"android":"levelo://app?vid=d515671f-3764-4619-a876-4333868173a5","ios":"levelo://app?vid=d515671f-3764-4619-a876-4333868173a5"},"vehicle_type_id":"4","last_reported":1753450165,"current_range_meters":18800,"station_id":"ce4bgg92rcd13ifvqb30","pricing_plan_id":"cebpf4jnsgd1na2vs0mg"},{"bike_id":"e50d923d-b934-4ddf-89f8-26a87289f284","system_id":"levelo_inurba_marseille","lat":43.26563,"lon":5.37284,"is_reserved":false,"is_disabled":false,"rental_uris":{"android":"levelo://app?vid=e50d923d-b934-4ddf-89f8-26a87289f284","ios":"levelo://app?vid=e50d923d-b934-4ddf-89f8-26a87289f284"},"vehicle_type_id":"4","last_reported":1753450165,"current_range_meters":19200,"station_id":"ce4bhg12rcd13ifvqf70","pricing_plan_id":"cebpf4jnsgd1na2vs0mg"},{"bike_id":"b0ab26ed-6d98-4d8d-9fc2-b57924d0bcb8","system_id":"levelo_inurba_marseille","lat":43.21752,"lon":5.34595,"is_reserved":false,"is_disabled":false,"rental_uris":{"android":"levelo://app?vid=b0ab26ed-6d98-4d8d-9fc2-b57924d0bcb8","ios":"levelo://app?vid=b0ab26ed-6d98-4d8d-9fc2-b57924d0bcb8"},"vehicle_type_id":"4","last_reported":1753450165,"current_range_meters":19200,"station_id":"","pricing_plan_id":"cebpf4jnsgd1na2vs0mg"},{"bike_id":"07889d7f-750d-4c2a-9f82-d7fdd37d056c","system_id":"levelo_inurba_marseille","lat":43.28606,"lon":5.37059,"is_reserved":false,"is_disabled":false,"rental_uris":{"android":"levelo://app?vid=07889d7f-750d-4c2a-9f82-d7fdd37d056c","ios":"levelo://app?vid=07889d7f-750d-4c2a-9f82-d7fdd37d056c"},"vehicle_type_id":"4","last_reported":1753450165,"current_range_meters":19200,"station_id":"ce4bht12rcd13ifvqi60","pricing_plan_id":"cebpf4jnsgd1na2vs0mg"},{"bike_id":"55f97efc-c950-4951-8ddd-2ccde70b140e","system_id":"levelo_inurba_marseille","lat":43.22503,"lon":5.34784,"is_reserved":false,"is_disabled":false,"rental_uris":{"android":"levelo://app?vid=55f97efc-c950-4951-8ddd-2ccde70b140e","ios":"levelo://app?vid=55f97efc-c950-4951-8ddd-2ccde70b140e"},"vehicle_type_id":"4","last_reported":1753450165,"current_range_meters":19200,"station_id":"st_cvj5dfep6f1abm77gieg","pricing_plan_id":"cebpf4jnsgd1na2vs0mg"},{"bike_id":"f772a45d-02b5-45f4-b97d-2e9324a02bec","system_id":"levelo_inurba_marseille","lat":43.21181,"lon":5.35081,"is_reserved":false,"is_disabled":false,"rental_uris":{"android":"levelo://app?vid=f772a45d-02b5-45f4-b97d-2e9324a02bec","ios":"levelo://app?vid=f772a45d-02b5-45f4-b97d-2e9324a02bec"},"vehicle_type_id":"4","last_reported":1753450165,"current_range_meters":19200,"station_id":"st_cvj6sg6p6f1abm77japg","pricing_plan_id":"cebpf4jnsgd1na2vs0mg"},{"bike_id":"c07e9ec5-990c-491f-86d0-b74eba628779","system_id":"levelo_inurba_marseille","lat":43.31365,"lon":5.36691,"is_reserved":false,"is_disabled":false,"rental_uris":{"android":"levelo://app?vid=c07e9ec5-990c-491f-86d0-b74eba628779","ios":"levelo://app?vid=c07e9ec5-990c-491f-86d0-b74eba628779"},"vehicle_type_id":"4","last_reported":1753450165,"current_range_meters":19200,"station_id":"ce4bgr92rcd13ifvqc6g","pricing_plan_id":"cebpf4jnsgd1na2vs0mg"},{"bike_id":"e7652c6c-2402-49f7-a93f-025650a12a4e","system_id":"levelo_inurba_marseille","lat":43.28616,"lon":5.35097,"is_reserved":false,"is_disabled":false,"rental_uris":{"android":"levelo://app?vid=e7652c6c-2402-49f7-a93f-025650a12a4e","ios":"levelo://app?vid=e7652c6c-2402-49f7-a93f-025650a12a4e"},"vehicle_type_id":"4","last_reported":1753450165,"current_range_meters":19200,"station_id":"ce4bhch2rcd13ifvqeug","pricing_plan_id":"cebpf4jnsgd1na2vs0mg"},{"bike_id":"0554f829-fff1-43ff-b6e0-826df53f8314","system_id":"levelo_inurba_marseille","lat":43.29882,"lon":5.43668,"is_reserved":false,"is_disabled":false,"rental_uris":{"android":"levelo://app?vid=0554f829-fff1-43ff-b6e0-826df53f8314","ios":"levelo://app?vid=0554f829-fff1-43ff-b6e0-826df53f8314"},"vehicle_type_id":"4","last_reported":1753450165,"current_range_meters":19200,"station_id":"ce4bhpp2rcd13ifvqhfg","pricing_plan_id":"cebpf4jnsgd1na2vs0mg"},{"bike_id":"d1118ba2-7ab0-47ff-a120-ca2f2f1b3dfe","system_id":"levelo_inurba_marseille","lat":43.28629,"lon":5.35094,"is_reserved":false,"is_disabled":false,"rental_uris":{"android":"levelo://app?vid=d1118ba2-7ab0-47ff-a120-ca2f2f1b3dfe","ios":"levelo://app?vid=d1118ba2-7ab0-47ff-a120-ca2f2f1b3dfe"},"vehicle_type_id":"4","last_reported":1753450165,"current_range_meters":19200,"station_id":"ce4bhch2rcd13ifvqeug","pricing_plan_id":"cebpf4jnsgd1na2vs0mg"},{"bike_id":"1e5c96a6-9d0f-4d5f-85ef-5a5f8ac0317a","system_id":"levelo_inurba_marseille","lat":43.33479,"lon":5.39152,"is_reserved":false,"is_disabled":false,"rental_uris":{"android":"levelo://app?vid=1e5c96a6-9d0f-4d5f-85ef-5a5f8ac0317a","ios":"levelo://app?vid=1e5c96a6-9d0f-4d5f-85ef-5a5f8ac0317a"},"vehicle_type_id":"4","last_reported":1753450165,"current_range_meters":19200,"station_id":"","pricing_plan_id":"cebpf4jnsgd1na2vs0mg"},{"bike_id":"7254aad9-4b7a-44b4-89bb-4f6b7cb10520","system_id":"levelo_inurba_marseille","lat":43.260813,"lon":5.39381,"is_reserved":false,"is_disabled":false,"rental_uris":{"android":"levelo://app?vid=7254aad9-4b7a-44b4-89bb-4f6b7cb10520","ios":"levelo://app?vid=7254aad9-4b7a-44b4-89bb-4f6b7cb10520"},"vehicle_type_id":"4","last_reported":1753450165,"current_range_meters":19200,"station_id":"ce4bhh92rcd13ifvqfj0","pricing_plan_id":"cebpf4jnsgd1na2vs0mg"},{"bike_id":"c401ed2e-c90d-4420-918b-63814d52a5e4","system_id":"levelo_inurba_marseille","lat":43.287026,"lon":5.373731,"is_reserved":false,"is_disabled":false,"rental_uris":{"android":"levelo://app?vid=c401ed2e-c90d-4420-918b-63814d52a5e4","ios":"levelo://app?vid=c401ed2e-c90d-4420-918b-63814d52a5e4"},"vehicle_type_id":"4","last_reported":1753450165,"current_range_meters":19200,"station_id":"ce4bh3p2rcd13ifvqdq0","pricing_plan_id":"cebpf4jnsgd1na2vs0mg"},{"bike_id":"a1d5115b-997f-44a5-8b4b-21cb29757407","system_id":"levelo_inurba_marseille","lat":43.312109,"lon":5.373258,"is_reserved":false,"is_disabled":false,"rental_uris":{"android":"levelo://app?vid=a1d5115b-997f-44a5-8b4b-21cb29757407","ios":"levelo://app?vid=a1d5115b-997f-44a5-8b4b-21cb29757407"},"vehicle_type_id":"4","last_reported":1753450165,"current_range_meters":19200,"station_id":"","pricing_plan_id":"cebpf4jnsgd1na2vs0mg"},{"bike_id":"7f3d01a4-bbcc-49dc-ae18-3ad8444dbf20","system_id":"levelo_inurba_marseille","lat":43.29262,"lon":5.40899,"is_reserved":false,"is_disabled":false,"rental_uris":{"android":"levelo://app?vid=7f3d01a4-bbcc-49dc-ae18-3ad8444dbf20","ios":"levelo://app?vid=7f3d01a4-bbcc-49dc-ae18-3ad8444dbf20"},"vehicle_type_id":"4","last_reported":1753450165,"current_range_meters":18800,"station_id":"ce4bh192rcd13ifvqdc0","pricing_plan_id":"cebpf4jnsgd1na2vs0mg"},{"bike_id":"f4fd8122-3542-41c9-a204-ae963e556aa2","system_id":"levelo_inurba_marseille","lat":43.23047,"lon":5.35508,"is_reserved":false,"is_disabled":false,"rental_uris":{"android":"levelo://app?vid=f4fd8122-3542-41c9-a204-ae963e556aa2","ios":"levelo://app?vid=f4fd8122-3542-41c9-a204-ae963e556aa2"},"vehicle_type_id":"4","last_reported":1753450165,"current_range_meters":19600,"station_id":"cpo3342slgdg3j2ifvpg","pricing_plan_id":"cebpf4jnsgd1na2vs0mg"},{"bike_id":"34ae4f91-c9c6-4495-b20e-fb69e2a44005","system_id":"levelo_inurba_marseille","lat":43.28154,"lon":5.42642,"is_reserved":false,"is_disabled":false,"rental_uris":{"android":"levelo://app?vid=34ae4f91-c9c6-4495-b20e-fb69e2a44005","ios":"levelo://app?vid=34ae4f91-c9c6-4495-b20e-fb69e2a44005"},"vehicle_type_id":"4","last_reported":1753450165,"current_range_meters":19600,"station_id":"ce4bhnh2rcd13ifvqgug","pricing_plan_id":"cebpf4jnsgd1na2vs0mg"},{"bike_id":"3c5c829d-f8d2-4754-8adb-4f267933a19e","system_id":"levelo_inurba_marseille","lat":43.25483,"lon":5.3767,"is_reserved":false,"is_disabled":false,"rental_uris":{"android":"levelo://app?vid=3c5c829d-f8d2-4754-8adb-4f267933a19e","ios":"levelo://app?vid=3c5c829d-f8d2-4754-8adb-4f267933a19e"},"vehicle_type_id":"4","last_reported":1753450165,"current_range_meters":19600,"station_id":"ce4bhh12rcd13ifvqff0","pricing_plan_id":"cebpf4jnsgd1na2vs0mg"},{"bike_id":"80d2e131-5c07-401f-9bac-a9bc68da0fb3","system_id":"levelo_inurba_marseille","lat":43.30157,"lon":5.3809,"is_reserved":false,"is_disabled":false,"rental_uris":{"android":"levelo://app?vid=80d2e131-5c07-401f-9bac-a9bc68da0fb3","ios":"levelo://app?vid=80d2e131-5c07-401f-9bac-a9bc68da0fb3"},"vehicle_type_id":"4","last_reported":1753450165,"current_range_meters":19200,"station_id":"ce4bgjp2rcd13ifvqbh0","pricing_plan_id":"cebpf4jnsgd1na2vs0mg"},{"bike_id":"adbcf5bd-4d53-47e6-820f-e31f9e813310","system_id":"levelo_inurba_marseille","lat":43.30937,"lon":5.40137,"is_reserved":false,"is_disabled":false,"rental_uris":{"android":"levelo://app?vid=adbcf5bd-4d53-47e6-820f-e31f9e813310","ios":"levelo://app?vid=adbcf5bd-4d53-47e6-820f-e31f9e813310"},"vehicle_type_id":"4","last_reported":1753450165,"current_range_meters":19600,"station_id":"ce4bgvp2rcd13ifvqct0","pricing_plan_id":"cebpf4jnsgd1na2vs0mg"},{"bike_id":"dc56ab71-6bdc-402c-a22f-b662f96088eb","system_id":"levelo_inurba_marseille","lat":43.29027,"lon":5.35874,"is_reserved":false,"is_disabled":false,"rental_uris":{"android":"levelo://app?vid=dc56ab71-6bdc-402c-a22f-b662f96088eb","ios":"levelo://app?vid=dc56ab71-6bdc-402c-a22f-b662f96088eb"},"vehicle_type_id":"4","last_reported":1753450165,"current_range_meters":19600,"station_id":"","pricing_plan_id":"cebpf4jnsgd1na2vs0mg"},{"bike_id":"85333a3b-9be8-4a22-af2c-50f33eb8750c","system_id":"levelo_inurba_marseille","lat":43.24166,"lon":5.36397,"is_reserved":false,"is_disabled":false,"rental_uris":{"android":"levelo://app?vid=85333a3b-9be8-4a22-af2c-50f33eb8750c","ios":"levelo://app?vid=85333a3b-9be8-4a22-af2c-50f33eb8750c"},"vehicle_type_id":"4","last_reported":1753450165,"current_range_meters":19600,"station_id":"cpo36qri1sfpv3e86is0","pricing_plan_id":"cebpf4jnsgd1na2vs0mg"},{"bike_id":"4301aced-4843-46c7-a687-5376be6def77","system_id":"levelo_inurba_marseille","lat":43.280011,"lon":5.400106,"is_reserved":false,"is_disabled":false,"rental_uris":{"android":"levelo://app?vid=4301aced-4843-46c7-a687-5376be6def77","ios":"levelo://app?vid=4301aced-4843-46c7-a687-5376be6def77"},"vehicle_type_id":"4","last_reported":1753450165,"current_range_meters":19600,"station_id":"ce4bho92rcd13ifvqh4g","pricing_plan_id":"cebpf4jnsgd1na2vs0mg"},{"bike_id":"a3e4f936-e7da-42bf-94b4-ad22bb68b9c3","system_id":"levelo_inurba_marseille","lat":43.22239,"lon":5.34571,"is_reserved":false,"is_disabled":false,"rental_uris":{"android":"levelo://app?vid=a3e4f936-e7da-42bf-94b4-ad22bb68b9c3","ios":"levelo://app?vid=a3e4f936-e7da-42bf-94b4-ad22bb68b9c3"},"vehicle_type_id":"4","last_reported":1753450165,"current_range_meters":19600,"station_id":"","pricing_plan_id":"cebpf4jnsgd1na2vs0mg"},{"bike_id":"43dbc09e-d0e4-4ddb-bafe-4f55874d23a9","system_id":"levelo_inurba_marseille","lat":43.30231,"lon":5.38228,"is_reserved":false,"is_disabled":false,"rental_uris":{"android":"levelo://app?vid=43dbc09e-d0e4-4ddb-bafe-4f55874d23a9","ios":"levelo://app?vid=43dbc09e-d0e4-4ddb-bafe-4f55874d23a9"},"vehicle_type_id":"4","last_reported":1753450165,"current_range_meters":19600,"station_id":"","pricing_plan_id":"cebpf4jnsgd1na2vs0mg"},{"bike_id":"c3b53303-9018-4d5a-91fe-ce0c3b3be56d","system_id":"levelo_inurba_marseille","lat":43.28619,"lon":5.37054,"is_reserved":false,"is_disabled":false,"rental_uris":{"android":"levelo://app?vid=c3b53303-9018-4d5a-91fe-ce0c3b3be56d","ios":"levelo://app?vid=c3b53303-9018-4d5a-91fe-ce0c3b3be56d"},"vehicle_type_id":"4","last_reported":1753450165,"current_range_meters":19600,"station_id":"ce4bht12rcd13ifvqi60","pricing_plan_id":"cebpf4jnsgd1na2vs0mg"},{"bike_id":"725317c6-351b-43e5-b68d-45c3db010ac3","system_id":"levelo_inurba_marseille","lat":43.28151,"lon":5.42676,"is_reserved":false,"is_disabled":false,"rental_uris":{"android":"levelo://app?vid=725317c6-351b-43e5-b68d-45c3db010ac3","ios":"levelo://app?vid=725317c6-351b-43e5-b68d-45c3db010ac3"},"vehicle_type_id":"4","last_reported":1753450165,"current_range_meters":20000,"station_id":"ce4bhnh2rcd13ifvqgug","pricing_plan_id":"cebpf4jnsgd1na2vs0mg"},{"bike_id":"2703e0a4-7218-4353-b33c-9609c06a5516","system_id":"levelo_inurba_marseille","lat":43.27507,"lon":5.42416,"is_reserved":false,"is_disabled":false,"rental_uris":{"android":"levelo://app?vid=2703e0a4-7218-4353-b33c-9609c06a5516","ios":"levelo://app?vid=2703e0a4-7218-4353-b33c-9609c06a5516"},"vehicle_type_id":"4","last_reported":1753450165,"current_range_meters":20000,"station_id":"ce4bhn92rcd13ifvqgrg","pricing_plan_id":"cebpf4jnsgd1na2vs0mg"},{"bike_id":"a05343f6-5345-451e-92c9-8d14b4ec04eb","system_id":"levelo_inurba_marseille","lat":43.314919,"lon":5.373082,"is_reserved":false,"is_disabled":true,"rental_uris":{"android":"levelo://app?vid=a05343f6-5345-451e-92c9-8d14b4ec04eb","ios":"levelo://app?vid=a05343f6-5345-451e-92c9-8d14b4ec04eb"},"vehicle_type_id":"4","last_reported":1753450165,"current_range_meters":20000,"station_id":"","pricing_plan_id":"cebpf4jnsgd1na2vs0mg"},{"bike_id":"852cd8e7-2a75-4b67-b5a7-95ce50abb18d","system_id":"levelo_inurba_marseille","lat":43.274292,"lon":5.394148,"is_reserved":false,"is_disabled":false,"rental_uris":{"android":"levelo://app?vid=852cd8e7-2a75-4b67-b5a7-95ce50abb18d","ios":"levelo://app?vid=852cd8e7-2a75-4b67-b5a7-95ce50abb18d"},"vehicle_type_id":"4","last_reported":1753450165,"current_range_meters":19600,"station_id":"ce4bhdp2rcd13ifvqf20","pricing_plan_id":"cebpf4jnsgd1na2vs0mg"},{"bike_id":"febfb0dd-62aa-4333-8aa6-5a2dfd2c5e17","system_id":"levelo_inurba_marseille","lat":43.33156,"lon":5.35975,"is_reserved":false,"is_disabled":false,"rental_uris":{"android":"levelo://app?vid=febfb0dd-62aa-4333-8aa6-5a2dfd2c5e17","ios":"levelo://app?vid=febfb0dd-62aa-4333-8aa6-5a2dfd2c5e17"},"vehicle_type_id":"4","last_reported":1753450165,"current_range_meters":20000,"station_id":"","pricing_plan_id":"cebpf4jnsgd1na2vs0mg"},{"bike_id":"fbb2460d-5ad8-4e5e-b87b-d049af083a8c","system_id":"levelo_inurba_marseille","lat":43.28628,"lon":5.37046,"is_reserved":false,"is_disabled":false,"rental_uris":{"android":"levelo://app?vid=fbb2460d-5ad8-4e5e-b87b-d049af083a8c","ios":"levelo://app?vid=fbb2460d-5ad8-4e5e-b87b-d049af083a8c"},"vehicle_type_id":"4","last_reported":1753450165,"current_range_meters":20000,"station_id":"ce4bht12rcd13ifvqi60","pricing_plan_id":"cebpf4jnsgd1na2vs0mg"},{"bike_id":"61cd7fe3-237f-4708-afc7-dd8a81b4454c","system_id":"levelo_inurba_marseille","lat":43.22935,"lon":5.35381,"is_reserved":false,"is_disabled":false,"rental_uris":{"android":"levelo://app?vid=61cd7fe3-237f-4708-afc7-dd8a81b4454c","ios":"levelo://app?vid=61cd7fe3-237f-4708-afc7-dd8a81b4454c"},"vehicle_type_id":"4","last_reported":1753450165,"current_range_meters":20000,"station_id":"cpo3532slgdg3j2ikp40","pricing_plan_id":"cebpf4jnsgd1na2vs0mg"},{"bike_id":"88713064-73b6-47c5-8baf-21f8c90f1d38","system_id":"levelo_inurba_marseille","lat":43.30153,"lon":5.38076,"is_reserved":false,"is_disabled":false,"rental_uris":{"android":"levelo://app?vid=88713064-73b6-47c5-8baf-21f8c90f1d38","ios":"levelo://app?vid=88713064-73b6-47c5-8baf-21f8c90f1d38"},"vehicle_type_id":"4","last_reported":1753450165,"current_range_meters":20000,"station_id":"ce4bgjp2rcd13ifvqbh0","pricing_plan_id":"cebpf4jnsgd1na2vs0mg"},{"bike_id":"ebd6304a-a706-4f12-bd1f-08a88635748f","system_id":"levelo_inurba_marseille","lat":43.31531,"lon":5.3722,"is_reserved":false,"is_disabled":false,"rental_uris":{"android":"levelo://app?vid=ebd6304a-a706-4f12-bd1f-08a88635748f","ios":"levelo://app?vid=ebd6304a-a706-4f12-bd1f-08a88635748f"},"vehicle_type_id":"4","last_reported":1753450165,"current_range_meters":20000,"station_id":"ce4bgt12rcd13ifvqcd0","pricing_plan_id":"cebpf4jnsgd1na2vs0mg"},{"bike_id":"59a1c4d8-6d5d-4a16-a0ef-906bb376e810","system_id":"levelo_inurba_marseille","lat":43.26569,"lon":5.3902,"is_reserved":false,"is_disabled":false,"rental_uris":{"android":"levelo://app?vid=59a1c4d8-6d5d-4a16-a0ef-906bb376e810","ios":"levelo://app?vid=59a1c4d8-6d5d-4a16-a0ef-906bb376e810"},"vehicle_type_id":"4","last_reported":1753450165,"current_range_meters":20000,"station_id":"ce4bhe12rcd13ifvqf30","pricing_plan_id":"cebpf4jnsgd1na2vs0mg"},{"bike_id":"b6cd1d0d-9fa9-43c6-971b-9fe98760946d","system_id":"levelo_inurba_marseille","lat":43.32365,"lon":5.36762,"is_reserved":false,"is_disabled":false,"rental_uris":{"android":"levelo://app?vid=b6cd1d0d-9fa9-43c6-971b-9fe98760946d","ios":"levelo://app?vid=b6cd1d0d-9fa9-43c6-971b-9fe98760946d"},"vehicle_type_id":"4","last_reported":1753450165,"current_range_meters":20000,"station_id":"ce4bhsh2rcd13ifvqi2g","pricing_plan_id":"cebpf4jnsgd1na2vs0mg"},{"bike_id":"90194df4-0dd8-4419-870e-02694312b506","system_id":"levelo_inurba_marseille","lat":43.25006,"lon":5.38931,"is_reserved":false,"is_disabled":false,"rental_uris":{"android":"levelo://app?vid=90194df4-0dd8-4419-870e-02694312b506","ios":"levelo://app?vid=90194df4-0dd8-4419-870e-02694312b506"},"vehicle_type_id":"4","last_reported":1753450165,"current_range_meters":20000,"station_id":"ce4bhgp2rcd13ifvqfd0","pricing_plan_id":"cebpf4jnsgd1na2vs0mg"},{"bike_id":"7e65c5ea-0429-45f5-a396-bd32e67f0744","system_id":"levelo_inurba_marseille","lat":43.334617,"lon":5.400429,"is_reserved":false,"is_disabled":false,"rental_uris":{"android":"levelo://app?vid=7e65c5ea-0429-45f5-a396-bd32e67f0744","ios":"levelo://app?vid=7e65c5ea-0429-45f5-a396-bd32e67f0744"},"vehicle_type_id":"4","last_reported":1753450165,"current_range_meters":20000,"station_id":"","pricing_plan_id":"cebpf4jnsgd1na2vs0mg"},{"bike_id":"6a629378-802b-4d6e-bab8-4df690213be6","system_id":"levelo_inurba_marseille","lat":43.30131,"lon":5.39862,"is_reserved":false,"is_disabled":false,"rental_uris":{"android":"levelo://app?vid=6a629378-802b-4d6e-bab8-4df690213be6","ios":"levelo://app?vid=6a629378-802b-4d6e-bab8-4df690213be6"},"vehicle_type_id":"4","last_reported":1753450165,"current_range_meters":20000,"station_id":"ce4bh0h2rcd13ifvqd40","pricing_plan_id":"cebpf4jnsgd1na2vs0mg"},{"bike_id":"8c765953-4146-48fd-9279-00486716e8cc","system_id":"levelo_inurba_marseille","lat":43.29935,"lon":5.3656,"is_reserved":false,"is_disabled":false,"rental_uris":{"android":"levelo://app?vid=8c765953-4146-48fd-9279-00486716e8cc","ios":"levelo://app?vid=8c765953-4146-48fd-9279-00486716e8cc"},