{"last_updated":1725703681,"ttl":30,"version":"2.2","data":{"bikes":[{"bike_id":"507ab147-fedf-4659-a9bb-19573813425b","system_id":"levelo_inurba_marseille","lat":43.312239,"lon":5.368562,"is_reserved":false,"is_disabled":false,"rental_uris":{"android":"levelo://app?vid=507ab147-fedf-4659-a9bb-19573813425b","ios":"levelo://app?vid=507ab147-fedf-4659-a9bb-19573813425b"},"vehicle_type_id":"4","last_reported":1725703681,"current_range_meters":25600,"station_id":"ce4bgl92rcd13ifvqbq0","pricing_plan_id":"cebpf4jnsgd1na2vs0mg"},{"bike_id":"ec35892c-4970-4125-b5a7-26c1d6da6629","system_id":"levelo_inurba_marseille","lat":43.312239,"lon":5.368562,"is_reserved":false,"is_disabled":false,"rental_uris":{"android":"levelo://app?vid=ec35892c-4970-4125-b5a7-26c1d6da6629","ios":"levelo://app?vid=ec35892c-4970-4125-b5a7-26c1d6da6629"},"vehicle_type_id":"4","last_reported":1725703681,"current_range_meters":23600,"station_id":"ce4bgl92rcd13ifvqbq0","pricing_plan_id":"cebpf4jnsgd1na2vs0mg"},{"bike_id":"78efbcfa-38f4-4334-9e7a-d0fa3fa5b7fd","system_id":"levelo_inurba_marseille","lat":43.312239,"lon":5.368562,"is_reserved":false,"is_disabled":false,"rental_uris":{"android":"levelo://app?vid=78efbcfa-38f4-4334-9e7a-d0fa3fa5b7fd","ios":"levelo://app?vid=78efbcfa-38f4-4334-9e7a-d0fa3fa5b7fd"},"vehicle_type_id":"4","last_reported":1725703681,"current_range_meters":31600,"station_id":"ce4bgl92rcd13ifvqbq0","pricing_plan_id":"cebpf4jnsgd1na2vs0mg"},{"bike_id":"83e47383-cea6-449a-a899-f1d131d2b21e","system_id":"levelo_inurba_marseille","lat":43.312239,"lon":5.368562,"is_reserved":false,"is_disabled":false,"rental_uris":{"android":"levelo://app?vid=83e47383-cea6-449a-a899-f1d131d2b21e","ios":"levelo://app?vid=83e47383-cea6-449a-a899-f1d131d2b21e"},"vehicle_type_id":"4","last_reported":1725703681,"current_range_meters":31200,"station_id":"ce4bgl92rcd13ifvqbq0","pricing_plan_id":"cebpf4jnsgd1na2vs0mg"},{"bike_id":"fbc72817-ef25-4fb3-af17-d3a6c02d5cff","system_id":"levelo_inurba_marseille","lat":43.312239,"lon":5.368562,"is_reserved":false,"is_disabled":false,"rental_uris":{"android":"levelo://app?vid=fbc72817-ef25-4fb3-af17-d3a6c02d5cff","ios":"levelo://app?vid=fbc72817-ef25-4fb3-af17-d3a6c02d5cff"},"vehicle_type_id":"4","last_reported":1725703681,"current_range_meters":9600,"station_id":"ce4bgl92rcd13ifvqbq0","pricing_plan_id":"cebpf4jnsgd1na2vs0mg"},{"bike_id":"8678102e-c31c-4b9d-ba87-c120c09881b2","system_id":"levelo_inurba_marseille","lat":43.312239,"lon":5.368562,"is_reserved":false,"is_disabled":false,"rental_uris":{"android":"levelo://app?vid=8678102e-c31c-4b9d-ba87-c120c09881b2","ios":"levelo://app?vid=8678102e-c31c-4b9d-ba87-c120c09881b2"},"vehicle_type_id":"4","last_reported":1725703681,"current_range_meters":30800,"station_id":"ce4bgl92rcd13ifvqbq0","pricing_plan_id":"cebpf4jnsgd1na2vs0mg"},{"bike_id":"743ab9a1-f6fd-4527-85f5-e8b7e9663f76","system_id":"levelo_inurba_marseille","lat":43.309076,"lon":5.368465,"is_reserved":false,"is_disabled":false,"rental_uris":{"android":"levelo://app?vid=743ab9a1-f6fd-4527-85f5-e8b7e9663f76","ios":"levelo://app?vid=743ab9a1-f6fd-4527-85f5-e8b7e9663f76"},"vehicle_type_id":"4","last_reported":1725703681,"current_range_meters":29200,"station_id":"ce4bgn92rcd13ifvqbvg","pricing_plan_id":"cebpf4jnsgd1na2vs0mg"},{"bike_id":"9894b28c-8602-469b-9545-3ffca4aaf291","system_id":"levelo_inurba_marseille","lat":43.309076,"lon":5.368465,"is_reserved":false,"is_disabled":false,"rental_uris":{"android":"levelo://app?vid=9894b28c-8602-469b-9545-3ffca4aaf291","ios":"levelo://app?vid=9894b28c-8602-469b-9545-3ffca4aaf291"},"vehicle_type_id":"4","last_reported":1725703681,"current_range_meters":12400,"station_id":"ce4bgn92rcd13ifvqbvg","pricing_plan_id":"cebpf4jnsgd1na2vs0mg"},{"bike_id":"8f8965db-49d6-4158-b068-af256f4f83f5","system_id":"levelo_inurba_marseille","lat":43.314811,"lon":5.373103,"is_reserved":false,"is_disabled":false,"rental_uris":{"android":"levelo://app?vid=8f8965db-49d6-4158-b068-af256f4f83f5","ios":"levelo://app?vid=8f8965db-49d6-4158-b068-af256f4f83f5"},"vehicle_type_id":"4","last_reported":1725703681,"current_range_meters":24000,"station_id":"ce4bgt12rcd13ifvqcd0","pricing_plan_id":"cebpf4jnsgd1na2vs0mg"},{"bike_id":"c90bb453-5ac1-47ed-879f-135f3b0ec7bf","system_id":"levelo_inurba_marseille","lat":43.309039,"lon":5.371797,"is_reserved":false,"is_disabled":false,"rental_uris":{"android":"levelo://app?vid=c90bb453-5ac1-47ed-879f-135f3b0ec7bf","ios":"levelo://app?vid=c90bb453-5ac1-47ed-879f-135f3b0ec7bf"},"vehicle_type_id":"4","last_reported":1725703681,"current_range_meters":28400,"station_id":"ce4bguh2rcd13ifvqckg","pricing_plan_id":"cebpf4jnsgd1na2vs0mg"},{"bike_id":"f8b02606-cd7f-4f2d-82fb-82a5a60b6c27","system_id":"levelo_inurba_marseille","lat":43.309034,"lon":5.371783,"is_reserved":false,"is_disabled":false,"rental_uris":{"android":"levelo://app?vid=f8b02606-cd7f-4f2d-82fb-82a5a60b6c27","ios":"levelo://app?vid=f8b02606-cd7f-4f2d-82fb-82a5a60b6c27"},"vehicle_type_id":"4","last_reported":1725703681,"current_range_meters":29600,"station_id":"ce4bguh2rcd13ifvqckg","pricing_plan_id":"cebpf4jnsgd1na2vs0mg"},{"bike_id":"9b942b8e-68f7-4d76-8e4a-2222591967b2","system_id":"levelo_inurba_marseille","lat":43.30547,"lon":5.367163,"is_reserved":false,"is_disabled":false,"rental_uris":{"android":"levelo://app?vid=9b942b8e-68f7-4d76-8e4a-2222591967b2","ios":"levelo://app?vid=9b942b8e-68f7-4d76-8e4a-2222591967b2"},"vehicle_type_id":"4","last_reported":1725703681,"current_range_meters":25600,"station_id":"ce4bgrp2rcd13ifvqc9g","pricing_plan_id":"cebpf4jnsgd1na2vs0mg"},{"bike_id":"97b2ef35-3785-41c9-b03a-9ad2cd4097d6","system_id":"levelo_inurba_marseille","lat":43.305706,"lon":5.365654,"is_reserved":false,"is_disabled":false,"rental_uris":{"android":"levelo://app?vid=97b2ef35-3785-41c9-b03a-9ad2cd4097d6","ios":"levelo://app?vid=97b2ef35-3785-41c9-b03a-9ad2cd4097d6"},"vehicle_type_id":"4","last_reported":1725703681,"current_range_meters":23600,"station_id":"ce4bgs12rcd13ifvqcag","pricing_plan_id":"cebpf4jnsgd1na2vs0mg"},{"bike_id":"16e90e9f-26a8-471c-8ec9-f520dbc8421d","system_id":"levelo_inurba_marseille","lat":43.30537,"lon":5.367345,"is_reserved":false,"is_disabled":false,"rental_uris":{"android":"levelo://app?vid=16e90e9f-26a8-471c-8ec9-f520dbc8421d","ios":"levelo://app?vid=16e90e9f-26a8-471c-8ec9-f520dbc8421d"},"vehicle_type_id":"4","last_reported":1725703681,"current_range_meters":31200,"station_id":"ce4bgrp2rcd13ifvqc9g","pricing_plan_id":"cebpf4jnsgd1na2vs0mg"},{"bike_id":"9b3e0cff-c5dc-4423-b23b-239f8041fa23","system_id":"levelo_inurba_marseille","lat":43.30537,"lon":5.367345,"is_reserved":false,"is_disabled":false,"rental_uris":{"android":"levelo://app?vid=9b3e0cff-c5dc-4423-b23b-239f8041fa23","ios":"levelo://app?vid=9b3e0cff-c5dc-4423-b23b-239f8041fa23"},"vehicle_type_id":"4","last_reported":1725703681,"current_range_meters":26800,"station_id":"ce4bgrp2rcd13ifvqc9g","pricing_plan_id":"cebpf4jnsgd1na2vs0mg"},{"bike_id":"f583acac-aaa3-4f7f-b29e-bfa62efcb61e","system_id":"levelo_inurba_marseille","lat":43.305706,"lon":5.365654,"is_reserved":false,"is_disabled":false,"rental_uris":{"android":"levelo://app?vid=f583acac-aaa3-4f7f-b29e-bfa62efcb61e","ios":"levelo://app?vid=f583acac-aaa3-4f7f-b29e-bfa62efcb61e"},"vehicle_type_id":"4","last_reported":1725703681,"current_range_meters":25200,"station_id":"ce4bgs12rcd13ifvqcag","pricing_plan_id":"cebpf4jnsgd1na2vs0mg"},{"bike_id":"1a70c729-3e9f-4457-afb8-e1f2e0e3c6ea","system_id":"levelo_inurba_marseille","lat":43.305706,"lon":5.365654,"is_reserved":false,"is_disabled":false,"rental_uris":{"android":"levelo://app?vid=1a70c729-3e9f-4457-afb8-e1f2e0e3c6ea","ios":"levelo://app?vid=1a70c729-3e9f-4457-afb8-e1f2e0e3c6ea"},"vehicle_type_id":"4","last_reported":1725703681,"current_range_meters":2800,"station_id":"ce4bgs12rcd13ifvqcag","pricing_plan_id":"cebpf4jnsgd1na2vs0mg"},{"bike_id":"1d1a84a3-ee2c-4333-8550-e86d72d6c742","system_id":"levelo_inurba_marseille","lat":43.305706,"lon":5.365654,"is_reserved":false,"is_disabled":false,"rental_uris":{"android":"levelo://app?vid=1d1a84a3-ee2c-4333-8550-e86d72d6c742","ios":"levelo://app?vid=1d1a84a3-ee2c-4333-8550-e86d72d6c742"},"vehicle_type_id":"4","last_reported":1725703681,"current_range_meters":14000,"station_id":"ce4bgs12rcd13ifvqcag","pricing_plan_id":"cebpf4jnsgd1na2vs0mg"},{"bike_id":"79c0a146-901c-4c6b-9003-2bf1f426a171","system_id":"levelo_inurba_marseille","lat":43.305706,"lon":5.365654,"is_reserved":false,"is_disabled":false,"rental_uris":{"android":"levelo://app?vid=79c0a146-901c-4c6b-9003-2bf1f426a171","ios":"levelo://app?vid=79c0a146-901c-4c6b-9003-2bf1f426a171"},"vehicle_type_id":"4","last_reported":1725703681,"current_range_meters":20400,"station_id":"ce4bgs12rcd13ifvqcag","pricing_plan_id":"cebpf4jnsgd1na2vs0mg"},{"bike_id":"887fb71a-aadf-4714-ac1d-fc4a6197b3cc","system_id":"levelo_inurba_marseille","lat":43.305706,"lon":5.365654,"is_reserved":false,"is_disabled":false,"rental_uris":{"android":"levelo://app?vid=887fb71a-aadf-4714-ac1d-fc4a6197b3cc","ios":"levelo://app?vid=887fb71a-aadf-4714-ac1d-fc4a6197b3cc"},"vehicle_type_id":"4","last_reported":1725703681,"current_range_meters":3200,"station_id":"ce4bgs12rcd13ifvqcag","pricing_plan_id":"cebpf4jnsgd1na2vs0mg"},{"bike_id":"05b5357d-3f3e-4d1b-a888-927bf7a96ede","system_id":"levelo_inurba_marseille","lat":43.305706,"lon":5.365654,"is_reserved":false,"is_disabled":false,"rental_uris":{"android":"levelo://app?vid=05b5357d-3f3e-4d1b-a888-927bf7a96ede","ios":"levelo://app?vid=05b5357d-3f3e-4d1b-a888-927bf7a96ede"},"vehicle_type_id":"4","last_reported":1725703681,"current_range_meters":19200,"station_id":"ce4bgs12rcd13ifvqcag","pricing_plan_id":"cebpf4jnsgd1na2vs0mg"},{"bike_id":"d58d8bc3-d8b6-4adb-9085-8f75e8ae9df9","system_id":"levelo_inurba_marseille","lat":43.305706,"lon":5.365654,"is_reserved":false,"is_disabled":false,"rental_uris":{"android":"levelo://app?vid=d58d8bc3-d8b6-4adb-9085-8f75e8ae9df9","ios":"levelo://app?vid=d58d8bc3-d8b6-4adb-9085-8f75e8ae9df9"},"vehicle_type_id":"4","last_reported":1725703681,"current_range_meters":14800,"station_id":"ce4bgs12rcd13ifvqcag","pricing_plan_id":"cebpf4jnsgd1na2vs0mg"},{"bike_id":"c7f54f4b-0506-4a00-92b5-8ba62bc50d36","system_id":"levelo_inurba_marseille","lat":43.305706,"lon":5.365654,"is_reserved":false,"is_disabled":false,"rental_uris":{"android":"levelo://app?vid=c7f54f4b-0506-4a00-92b5-8ba62bc50d36","ios":"levelo://app?vid=c7f54f4b-0506-4a00-92b5-8ba62bc50d36"},"vehicle_type_id":"4","last_reported":1725703681,"current_range_meters":14400,"station_id":"ce4bgs12rcd13ifvqcag","pricing_plan_id":"cebpf4jnsgd1na2vs0mg"},{"bike_id":"ca2dc0d9-479c-484d-99df-16e90a8531b8","system_id":"levelo_inurba_marseille","lat":43.305706,"lon":5.365654,"is_reserved":false,"is_disabled":false,"rental_uris":{"android":"levelo://app?vid=ca2dc0d9-479c-484d-99df-16e90a8531b8","ios":"levelo://app?vid=ca2dc0d9-479c-484d-99df-16e90a8531b8"},"vehicle_type_id":"4","last_reported":1725703681,"current_range_meters":32000,"station_id":"ce4bgs12rcd13ifvqcag","pricing_plan_id":"cebpf4jnsgd1na2vs0mg"},{"bike_id":"ef99cd7a-4d5f-497e-b6fb-cf9f68ce81fd","system_id":"levelo_inurba_marseille","lat":43.305706,"lon":5.365654,"is_reserved":false,"is_disabled":false,"rental_uris":{"android":"levelo://app?vid=ef99cd7a-4d5f-497e-b6fb-cf9f68ce81fd","ios":"levelo://app?vid=ef99cd7a-4d5f-497e-b6fb-cf9f68ce81fd"},"vehicle_type_id":"4","last_reported":1725703681,"current_range_meters":27600,"station_id":"ce4bgs12rcd13ifvqcag","pricing_plan_id":"cebpf4jnsgd1na2vs0mg"},{"bike_id":"7d0f6b93-f7af-4163-9897-fa2f82d17f77","system_id":"levelo_inurba_marseille","lat":43.30616,"lon":5.372137,"is_reserved":false,"is_disabled":false,"rental_uris":{"android":"levelo://app?vid=7d0f6b93-f7af-4163-9897-fa2f82d17f77","ios":"levelo://app?vid=7d0f6b93-f7af-4163-9897-fa2f82d17f77"},"vehicle_type_id":"4","last_reported":1725703681,"current_range_meters":22000,"station_id":"ce4bgqh2rcd13ifvqc4g","pricing_plan_id":"cebpf4jnsgd1na2vs0mg"},{"bike_id":"63691e82-395e-45e4-ae86-99380bd890a4","system_id":"levelo_inurba_marseille","lat":43.302008,"lon":5.394694,"is_reserved":false,"is_disabled":false,"rental_uris":{"android":"levelo://app?vid=63691e82-395e-45e4-ae86-99380bd890a4","ios":"levelo://app?vid=63691e82-395e-45e4-ae86-99380bd890a4"},"vehicle_type_id":"4","last_reported":1725703681,"current_range_meters":29200,"station_id":"ce4bh0p2rcd13ifvqd70","pricing_plan_id":"cebpf4jnsgd1na2vs0mg"},{"bike_id":"1f01df08-c949-44ba-9477-b53740e0d17d","system_id":"levelo_inurba_marseille","lat":43.303046,"lon":5.368981,"is_reserved":false,"is_disabled":false,"rental_uris":{"android":"levelo://app?vid=1f01df08-c949-44ba-9477-b53740e0d17d","ios":"levelo://app?vid=1f01df08-c949-44ba-9477-b53740e0d17d"},"vehicle_type_id":"4","last_reported":1725703681,"current_range_meters":12000,"station_id":"ce4bgqh2rcd13ifvqc5g","pricing_plan_id":"cebpf4jnsgd1na2vs0mg"},{"bike_id":"b58bbec2-337c-466d-b432-5373f1c601e7","system_id":"levelo_inurba_marseille","lat":43.302873,"lon":5.37038,"is_reserved":false,"is_disabled":false,"rental_uris":{"android":"levelo://app?vid=b58bbec2-337c-466d-b432-5373f1c601e7","ios":"levelo://app?vid=b58bbec2-337c-466d-b432-5373f1c601e7"},"vehicle_type_id":"4","last_reported":1725703681,"current_range_meters":7200,"station_id":"","pricing_plan_id":"cebpf4jnsgd1na2vs0mg"},{"bike_id":"5c7e602c-f961-461f-96ab-799dea8e8115","system_id":"levelo_inurba_marseille","lat":43.32315,"lon":5.36737,"is_reserved":false,"is_disabled":false,"rental_uris":{"android":"levelo://app?vid=5c7e602c-f961-461f-96ab-799dea8e8115","ios":"levelo://app?vid=5c7e602c-f961-461f-96ab-799dea8e8115"},"vehicle_type_id":"4","last_reported":1725703681,"current_range_meters":15200,"station_id":"","pricing_plan_id":"cebpf4jnsgd1na2vs0mg"},{"bike_id":"e6240958-5766-4e43-be3c-5414d3e93fa9","system_id":"levelo_inurba_marseille","lat":43.3127,"lon":5.38195,"is_reserved":false,"is_disabled":false,"rental_uris":{"android":"levelo://app?vid=e6240958-5766-4e43-be3c-5414d3e93fa9","ios":"levelo://app?vid=e6240958-5766-4e43-be3c-5414d3e93fa9"},"vehicle_type_id":"4","last_reported":1725703681,"current_range_meters":8800,"station_id":"","pricing_plan_id":"cebpf4jnsgd1na2vs0mg"},{"bike_id":"8ac6dc10-ec05-4e95-8f73-d330e244416d","system_id":"levelo_inurba_marseille","lat":43.301939,"lon":5.366286,"is_reserved":false,"is_disabled":false,"rental_uris":{"android":"levelo://app?vid=8ac6dc10-ec05-4e95-8f73-d330e244416d","ios":"levelo://app?vid=8ac6dc10-ec05-4e95-8f73-d330e244416d"},"vehicle_type_id":"4","last_reported":1725703681,"current_range_meters":8800,"station_id":"ce4bgrh2rcd13ifvqc8g","pricing_plan_id":"cebpf4jnsgd1na2vs0mg"},{"bike_id":"7d52a283-7045-4f2f-b210-281c3684ae9b","system_id":"levelo_inurba_marseille","lat":43.301939,"lon":5.366286,"is_reserved":false,"is_disabled":false,"rental_uris":{"android":"levelo://app?vid=7d52a283-7045-4f2f-b210-281c3684ae9b","ios":"levelo://app?vid=7d52a283-7045-4f2f-b210-281c3684ae9b"},"vehicle_type_id":"4","last_reported":1725703681,"current_range_meters":21200,"station_id":"ce4bgrh2rcd13ifvqc8g","pricing_plan_id":"cebpf4jnsgd1na2vs0mg"},{"bike_id":"b252e0d8-1d00-409b-bece-7f9155a8e8c3","system_id":"levelo_inurba_marseille","lat":43.302713,"lon":5.374444,"is_reserved":false,"is_disabled":false,"rental_uris":{"android":"levelo://app?vid=b252e0d8-1d00-409b-bece-7f9155a8e8c3","ios":"levelo://app?vid=b252e0d8-1d00-409b-bece-7f9155a8e8c3"},"vehicle_type_id":"4","last_reported":1725703681,"current_range_meters":16800,"station_id":"ce4bgs92rcd13ifvqcc0","pricing_plan_id":"cebpf4jnsgd1na2vs0mg"},{"bike_id":"71a2b978-2aae-430e-a568-213dff1a1752","system_id":"levelo_inurba_marseille","lat":43.308012,"lon":5.381511,"is_reserved":false,"is_disabled":false,"rental_uris":{"android":"levelo://app?vid=71a2b978-2aae-430e-a568-213dff1a1752","ios":"levelo://app?vid=71a2b978-2aae-430e-a568-213dff1a1752"},"vehicle_type_id":"4","last_reported":1725703681,"current_range_meters":12400,"station_id":"ce4bgt12rcd13ifvqce0","pricing_plan_id":"cebpf4jnsgd1na2vs0mg"},{"bike_id":"434c2fbe-7f36-43bb-8b50-cf8dc7279d78","system_id":"levelo_inurba_marseille","lat":43.30483,"lon":5.37893,"is_reserved":false,"is_disabled":false,"rental_uris":{"android":"levelo://app?vid=434c2fbe-7f36-43bb-8b50-cf8dc7279d78","ios":"levelo://app?vid=434c2fbe-7f36-43bb-8b50-cf8dc7279d78"},"vehicle_type_id":"4","last_reported":1725703681,"current_range_meters":23200,"station_id":"ce4bgup2rcd13ifvqcn0","pricing_plan_id":"cebpf4jnsgd1na2vs0mg"},{"bike_id":"7c113b38-be66-4d42-b375-0a08aa34e55a","system_id":"levelo_inurba_marseille","lat":43.304606,"lon":5.379026,"is_reserved":false,"is_disabled":false,"rental_uris":{"android":"levelo://app?vid=7c113b38-be66-4d42-b375-0a08aa34e55a","ios":"levelo://app?vid=7c113b38-be66-4d42-b375-0a08aa34e55a"},"vehicle_type_id":"4","last_reported":1725703681,"current_range_meters":13200,"station_id":"ce4bgup2rcd13ifvqcn0","pricing_plan_id":"cebpf4jnsgd1na2vs0mg"},{"bike_id":"487b4d21-2988-4ddb-87cb-54b1475da679","system_id":"levelo_inurba_marseille","lat":43.31686,"lon":5.38218,"is_reserved":false,"is_disabled":false,"rental_uris":{"android":"levelo://app?vid=487b4d21-2988-4ddb-87cb-54b1475da679","ios":"levelo://app?vid=487b4d21-2988-4ddb-87cb-54b1475da679"},"vehicle_type_id":"4","last_reported":1725703681,"current_range_meters":800,"station_id":"","pricing_plan_id":"cebpf4jnsgd1na2vs0mg"},{"bike_id":"dd936932-2142-4c24-9b0a-fa4eb35a8eba","system_id":"levelo_inurba_marseille","lat":43.30474,"lon":5.37897,"is_reserved":false,"is_disabled":false,"rental_uris":{"android":"levelo://app?vid=dd936932-2142-4c24-9b0a-fa4eb35a8eba","ios":"levelo://app?vid=dd936932-2142-4c24-9b0a-fa4eb35a8eba"},"vehicle_type_id":"4","last_reported":1725703681,"current_range_meters":31200,"station_id":"ce4bgup2rcd13ifvqcn0","pricing_plan_id":"cebpf4jnsgd1na2vs0mg"},{"bike_id":"f941bc6d-64ae-400d-970b-0065f758d122","system_id":"levelo_inurba_marseille","lat":43.304606,"lon":5.379026,"is_reserved":false,"is_disabled":false,"rental_uris":{"android":"levelo://app?vid=f941bc6d-64ae-400d-970b-0065f758d122","ios":"levelo://app?vid=f941bc6d-64ae-400d-970b-0065f758d122"},"vehicle_type_id":"4","last_reported":1725703681,"current_range_meters":14400,"station_id":"ce4bgup2rcd13ifvqcn0","pricing_plan_id":"cebpf4jnsgd1na2vs0mg"},{"bike_id":"f55ddaa5-9ace-40bb-b10d-7c51d96ea2da","system_id":"levelo_inurba_marseille","lat":43.304606,"lon":5.379026,"is_reserved":false,"is_disabled":false,"rental_uris":{"android":"levelo://app?vid=f55ddaa5-9ace-40bb-b10d-7c51d96ea2da","ios":"levelo://app?vid=f55ddaa5-9ace-40bb-b10d-7c51d96ea2da"},"vehicle_type_id":"4","last_reported":1725703681,"current_range_meters":31200,"station_id":"ce4bgup2rcd13ifvqcn0","pricing_plan_id":"cebpf4jnsgd1na2vs0mg"},{"bike_id":"1f5409ab-ebed-444b-bdbc-4e04c3355d30","system_id":"levelo_inurba_marseille","lat":43.30465,"lon":5.37889,"is_reserved":false,"is_disabled":false,"rental_uris":{"android":"levelo://app?vid=1f5409ab-ebed-444b-bdbc-4e04c3355d30","ios":"levelo://app?vid=1f5409ab-ebed-444b-bdbc-4e04c3355d30"},"vehicle_type_id":"4","last_reported":1725703681,"current_range_meters":25600,"station_id":"ce4bgup2rcd13ifvqcn0","pricing_plan_id":"cebpf4jnsgd1na2vs0mg"},{"bike_id":"acd5cc14-e01e-49f2-bb1f-bd1e0e2eceac","system_id":"levelo_inurba_marseille","lat":43.304606,"lon":5.379026,"is_reserved":false,"is_disabled":false,"rental_uris":{"android":"levelo://app?vid=acd5cc14-e01e-49f2-bb1f-bd1e0e2eceac","ios":"levelo://app?vid=acd5cc14-e01e-49f2-bb1f-bd1e0e2eceac"},"vehicle_type_id":"4","last_reported":1725703681,"current_range_meters":7600,"station_id":"ce4bgup2rcd13ifvqcn0","pricing_plan_id":"cebpf4jnsgd1na2vs0mg"},{"bike_id":"d4631e32-4c76-44dc-a220-06a6df794606","system_id":"levelo_inurba_marseille","lat":43.304606,"lon":5.379026,"is_reserved":false,"is_disabled":false,"rental_uris":{"android":"levelo://app?vid=d4631e32-4c76-44dc-a220-06a6df794606","ios":"levelo://app?vid=d4631e32-4c76-44dc-a220-06a6df794606"},"vehicle_type_id":"4","last_reported":1725703681,"current_range_meters":14400,"station_id":"ce4bgup2rcd13ifvqcn0","pricing_plan_id":"cebpf4jnsgd1na2vs0mg"},{"bike_id":"8796e1e2-9d27-4409-9c2f-b0f5956d465c","system_id":"levelo_inurba_marseille","lat":43.304606,"lon":5.379026,"is_reserved":false,"is_disabled":false,"rental_uris":{"android":"levelo://app?vid=8796e1e2-9d27-4409-9c2f-b0f5956d465c","ios":"levelo://app?vid=8796e1e2-9d27-4409-9c2f-b0f5956d465c"},"vehicle_type_id":"4","last_reported":1725703681,"current_range_meters":29200,"station_id":"ce4bgup2rcd13ifvqcn0","pricing_plan_id":"cebpf4jnsgd1na2vs0mg"},{"bike_id":"0462afc5-0b87-4bc3-9f95-a3538e96c735","system_id":"levelo_inurba_marseille","lat":43.304606,"lon":5.379026,"is_reserved":false,"is_disabled":false,"rental_uris":{"android":"levelo://app?vid=0462afc5-0b87-4bc3-9f95-a3538e96c735","ios":"levelo://app?vid=0462afc5-0b87-4bc3-9f95-a3538e96c735"},"vehicle_type_id":"4","last_reported":1725703681,"current_range_meters":23200,"station_id":"ce4bgup2rcd13ifvqcn0","pricing_plan_id":"cebpf4jnsgd1na2vs0mg"},{"bike_id":"e334ab48-51eb-4a1c-8acf-3e1a810d18ec","system_id":"levelo_inurba_marseille","lat":43.304606,"lon":5.379026,"is_reserved":false,"is_disabled":false,"rental_uris":{"android":"levelo://app?vid=e334ab48-51eb-4a1c-8acf-3e1a810d18ec","ios":"levelo://app?vid=e334ab48-51eb-4a1c-8acf-3e1a810d18ec"},"vehicle_type_id":"4","last_reported":1725703681,"current_range_meters":14000,"station_id":"ce4bgup2rcd13ifvqcn0","pricing_plan_id":"cebpf4jnsgd1na2vs0mg"},{"bike_id":"b8a42ecb-7922-4177-9655-3e5d9aa73c96","system_id":"levelo_inurba_marseille","lat":43.304606,"lon":5.379026,"is_reserved":false,"is_disabled":false,"rental_uris":{"android":"levelo://app?vid=b8a42ecb-7922-4177-9655-3e5d9aa73c96","ios":"levelo://app?vid=b8a42ecb-7922-4177-9655-3e5d9aa73c96"},"vehicle_type_id":"4","last_reported":1725703681,"current_range_meters":20800,"station_id":"ce4bgup2rcd13ifvqcn0","pricing_plan_id":"cebpf4jnsgd1na2vs0mg"},{"bike_id":"618e6755-33ce-434e-bfec-b0aed08a9588","system_id":"levelo_inurba_marseille","lat":43.304606,"lon":5.379026,"is_reserved":false,"is_disabled":false,"rental_uris":{"android":"levelo://app?vid=618e6755-33ce-434e-bfec-b0aed08a9588","ios":"levelo://app?vid=618e6755-33ce-434e-bfec-b0aed08a9588"},"vehicle_type_id":"4","last_reported":1725703681,"current_range_meters":15600,"station_id":"ce4bgup2rcd13ifvqcn0","pricing_plan_id":"cebpf4jnsgd1na2vs0mg"},{"bike_id":"cd214e77-4ebe-4266-9f46-fdcec1d16b4e","system_id":"levelo_inurba_marseille","lat":43.304606,"lon":5.379026,"is_reserved":false,"is_disabled":false,"rental_uris":{"android":"levelo://app?vid=cd214e77-4ebe-4266-9f46-fdcec1d16b4e","ios":"levelo://app?vid=cd214e77-4ebe-4266-9f46-fdcec1d16b4e"},"vehicle_type_id":"4","last_reported":1725703681,"current_range_meters":20800,"station_id":"ce4bgup2rcd13ifvqcn0","pricing_plan_id":"cebpf4jnsgd1na2vs0mg"},{"bike_id":"14d9b81d-8cc4-41b4-a066-4cf546ec6267","system_id":"levelo_inurba_marseille","lat":43.304606,"lon":5.379026,"is_reserved":false,"is_disabled":false,"rental_uris":{"android":"levelo://app?vid=14d9b81d-8cc4-41b4-a066-4cf546ec6267","ios":"levelo://app?vid=14d9b81d-8cc4-41b4-a066-4cf546ec6267"},"vehicle_type_id":"4","last_reported":1725703681,"current_range_meters":27200,"station_id":"ce4bgup2rcd13ifvqcn0","pricing_plan_id":"cebpf4jnsgd1na2vs0mg"},{"bike_id":"90d7aa96-558b-4d67-a64e-31fb90e544f7","system_id":"levelo_inurba_marseille","lat":43.304606,"lon":5.379026,"is_reserved":false,"is_disabled":false,"rental_uris":{"android":"levelo://app?vid=90d7aa96-558b-4d67-a64e-31fb90e544f7","ios":"levelo://app?vid=90d7aa96-558b-4d67-a64e-31fb90e544f7"},"vehicle_type_id":"4","last_reported":1725703681,"current_range_meters":31200,"station_id":"ce4bgup2rcd13ifvqcn0","pricing_plan_id":"cebpf4jnsgd1na2vs0mg"},{"bike_id":"34257289-76ca-4a91-b880-1bb2885870b6","system_id":"levelo_inurba_marseille","lat":43.304606,"lon":5.379026,"is_reserved":false,"is_disabled":false,"rental_uris":{"android":"levelo://app?vid=34257289-76ca-4a91-b880-1bb2885870b6","ios":"levelo://app?vid=34257289-76ca-4a91-b880-1bb2885870b6"},"vehicle_type_id":"4","last_reported":1725703681,"current_range_meters":31600,"station_id":"ce4bgup2rcd13ifvqcn0","pricing_plan_id":"cebpf4jnsgd1na2vs0mg"},{"bike_id":"5059a847-d414-4a85-9b6c-bdfd30520957","system_id":"levelo_inurba_marseille","lat":43.304606,"lon":5.379026,"is_reserved":false,"is_disabled":false,"rental_uris":{"android":"levelo://app?vid=5059a847-d414-4a85-9b6c-bdfd30520957","ios":"levelo://app?vid=5059a847-d414-4a85-9b6c-bdfd30520957"},"vehicle_type_id":"4","last_reported":1725703681,"current_range_meters":22800,"station_id":"ce4bgup2rcd13ifvqcn0","pricing_plan_id":"cebpf4jnsgd1na2vs0mg"},{"bike_id":"24179d3a-70a9-4d36-9854-e4dab1872c2b","system_id":"levelo_inurba_marseille","lat":43.304606,"lon":5.379026,"is_reserved":false,"is_disabled":false,"rental_uris":{"android":"levelo://app?vid=24179d3a-70a9-4d36-9854-e4dab1872c2b","ios":"levelo://app?vid=24179d3a-70a9-4d36-9854-e4dab1872c2b"},"vehicle_type_id":"4","last_reported":1725703681,"current_range_meters":26800,"station_id":"ce4bgup2rcd13ifvqcn0","pricing_plan_id":"cebpf4jnsgd1na2vs0mg"},{"bike_id":"c55c864e-4cb9-4300-a1f3-9b5e75975a56","system_id":"levelo_inurba_marseille","lat":43.304606,"lon":5.379026,"is_reserved":false,"is_disabled":false,"rental_uris":{"android":"levelo://app?vid=c55c864e-4cb9-4300-a1f3-9b5e75975a56","ios":"levelo://app?vid=c55c864e-4cb9-4300-a1f3-9b5e75975a56"},"vehicle_type_id":"4","last_reported":1725703681,"current_range_meters":27600,"station_id":"ce4bgup2rcd13ifvqcn0","pricing_plan_id":"cebpf4jnsgd1na2vs0mg"},{"bike_id":"d86ed5ee-d42c-4bb8-b5a6-fec555e4f680","system_id":"levelo_inurba_marseille","lat":43.304606,"lon":5.379026,"is_reserved":false,"is_disabled":false,"rental_uris":{"android":"levelo://app?vid=d86ed5ee-d42c-4bb8-b5a6-fec555e4f680","ios":"levelo://app?vid=d86ed5ee-d42c-4bb8-b5a6-fec555e4f680"},"vehicle_type_id":"4","last_reported":1725703681,"current_range_meters":2400,"station_id":"ce4bgup2rcd13ifvqcn0","pricing_plan_id":"cebpf4jnsgd1na2vs0mg"},{"bike_id":"ed6742d1-4cec-455c-bbc7-f5a0651a802c","system_id":"levelo_inurba_marseille","lat":43.32474,"lon":5.36579,"is_reserved":false,"is_disabled":false,"rental_uris":{"android":"levelo://app?vid=ed6742d1-4cec-455c-bbc7-f5a0651a802c","ios":"levelo://app?vid=ed6742d1-4cec-455c-bbc7-f5a0651a802c"},"vehicle_type_id":"4","last_reported":1725703681,"current_range_meters":27600,"station_id":"ce4bhs12rcd13ifvqhvg","pricing_plan_id":"cebpf4jnsgd1na2vs0mg"},{"bike_id":"33a5524d-9e06-48a0-b030-c181cf3ce0c9","system_id":"levelo_inurba_marseille","lat":43.324771,"lon":5.36557,"is_reserved":false,"is_disabled":false,"rental_uris":{"android":"levelo://app?vid=33a5524d-9e06-48a0-b030-c181cf3ce0c9","ios":"levelo://app?vid=33a5524d-9e06-48a0-b030-c181cf3ce0c9"},"vehicle_type_id":"4","last_reported":1725703681,"current_range_meters":12800,"station_id":"ce4bhs12rcd13ifvqhvg","pricing_plan_id":"cebpf4jnsgd1na2vs0mg"},{"bike_id":"2742cc32-796a-407c-bb4c-5c3d21aeb72e","system_id":"levelo_inurba_marseille","lat":43.324771,"lon":5.36557,"is_reserved":false,"is_disabled":false,"rental_uris":{"android":"levelo://app?vid=2742cc32-796a-407c-bb4c-5c3d21aeb72e","ios":"levelo://app?vid=2742cc32-796a-407c-bb4c-5c3d21aeb72e"},"vehicle_type_id":"4","last_reported":1725703681,"current_range_meters":13600,"station_id":"ce4bhs12rcd13ifvqhvg","pricing_plan_id":"cebpf4jnsgd1na2vs0mg"},{"bike_id":"e5a6d15c-df69-4b59-9545-2793b7d2c850","system_id":"levelo_inurba_marseille","lat":43.324771,"lon":5.36557,"is_reserved":false,"is_disabled":false,"rental_uris":{"android":"levelo://app?vid=e5a6d15c-df69-4b59-9545-2793b7d2c850","ios":"levelo://app?vid=e5a6d15c-df69-4b59-9545-2793b7d2c850"},"vehicle_type_id":"4","last_reported":1725703681,"current_range_meters":2800,"station_id":"ce4bhs12rcd13ifvqhvg","pricing_plan_id":"cebpf4jnsgd1na2vs0mg"},{"bike_id":"8e8b7298-bda1-42f1-9283-662fa4189aca","system_id":"levelo_inurba_marseille","lat":43.324771,"lon":5.36557,"is_reserved":false,"is_disabled":false,"rental_uris":{"android":"levelo://app?vid=8e8b7298-bda1-42f1-9283-662fa4189aca","ios":"levelo://app?vid=8e8b7298-bda1-42f1-9283-662fa4189aca"},"vehicle_type_id":"4","last_reported":1725703681,"current_range_meters":31200,"station_id":"ce4bhs12rcd13ifvqhvg","pricing_plan_id":"cebpf4jnsgd1na2vs0mg"},{"bike_id":"c30bb852-e35e-45ef-b5b6-a933a90c8e44","system_id":"levelo_inurba_marseille","lat":43.324771,"lon":5.36557,"is_reserved":false,"is_disabled":false,"rental_uris":{"android":"levelo://app?vid=c30bb852-e35e-45ef-b5b6-a933a90c8e44","ios":"levelo://app?vid=c30bb852-e35e-45ef-b5b6-a933a90c8e44"},"vehicle_type_id":"4","last_reported":1725703681,"current_range_meters":31200,"station_id":"ce4bhs12rcd13ifvqhvg","pricing_plan_id":"cebpf4jnsgd1na2vs0mg"},{"bike_id":"0984b71c-6f69-448e-8521-2cb8a14f6e06","system_id":"levelo_inurba_marseille","lat":43.324771,"lon":5.36557,"is_reserved":false,"is_disabled":false,"rental_uris":{"android":"levelo://app?vid=0984b71c-6f69-448e-8521-2cb8a14f6e06","ios":"levelo://app?vid=0984b71c-6f69-448e-8521-2cb8a14f6e06"},"vehicle_type_id":"4","last_reported":1725703681,"current_range_meters":31200,"station_id":"ce4bhs12rcd13ifvqhvg","pricing_plan_id":"cebpf4jnsgd1na2vs0mg"},{"bike_id":"3a618ed2-011c-4ff3-8036-f13ba2160145","system_id":"levelo_inurba_marseille","lat":43.32479,"lon":5.36562,"is_reserved":false,"is_disabled":false,"rental_uris":{"android":"levelo://app?vid=3a618ed2-011c-4ff3-8036-f13ba2160145","ios":"levelo://app?vid=3a618ed2-011c-4ff3-8036-f13ba2160145"},"vehicle_type_id":"4","last_reported":1725703681,"current_range_meters":27600,"station_id":"ce4bhs12rcd13ifvqhvg","pricing_plan_id":"cebpf4jnsgd1na2vs0mg"},{"bike_id":"d5959fbd-009b-4440-810f-601f3cb302d3","system_id":"levelo_inurba_marseille","lat":43.324771,"lon":5.36557,"is_reserved":false,"is_disabled":false,"rental_uris":{"android":"levelo://app?vid=d5959fbd-009b-4440-810f-601f3cb302d3","ios":"levelo://app?vid=d5959fbd-009b-4440-810f-601f3cb302d3"},"vehicle_type_id":"4","last_reported":1725703681,"current_range_meters":7200,"station_id":"ce4bhs12rcd13ifvqhvg","pricing_plan_id":"cebpf4jnsgd1na2vs0mg"},{"bike_id":"80a1871b-dc30-4011-bc38-3ce10a81ce22","system_id":"levelo_inurba_marseille","lat":43.324771,"lon":5.36557,"is_reserved":false,"is_disabled":false,"rental_uris":{"android":"levelo://app?vid=80a1871b-dc30-4011-bc38-3ce10a81ce22","ios":"levelo://app?vid=80a1871b-dc30-4011-bc38-3ce10a81ce22"},"vehicle_type_id":"4","last_reported":1725703681,"current_range_meters":22400,"station_id":"ce4bhs12rcd13ifvqhvg","pricing_plan_id":"cebpf4jnsgd1na2vs0mg"},{"bike_id":"0258a2ec-3943-45a3-a38c-2d3a4a922e3b","system_id":"levelo_inurba_marseille","lat":43.301567,"lon":5.374133,"is_reserved":false,"is_disabled":false,"rental_uris":{"android":"levelo://app?vid=0258a2ec-3943-45a3-a38c-2d3a4a922e3b","ios":"levelo://app?vid=0258a2ec-3943-45a3-a38c-2d3a4a922e3b"},"vehicle_type_id":"4","last_reported":1725703681,"current_range_meters":25200,"station_id":"ce4bgs92rcd13ifvqcc0","pricing_plan_id":"cebpf4jnsgd1na2vs0mg"},{"bike_id":"eec4b531-de3f-4dc5-8dcd-0dfe4ac81ae5","system_id":"levelo_inurba_marseille","lat":43.302784,"lon":5.377158,"is_reserved":false,"is_disabled":false,"rental_uris":{"android":"levelo://app?vid=eec4b531-de3f-4dc5-8dcd-0dfe4ac81ae5","ios":"levelo://app?vid=eec4b531-de3f-4dc5-8dcd-0dfe4ac81ae5"},"vehicle_type_id":"4","last_reported":1725703681,"current_range_meters":31600,"station_id":"ce4bguh2rcd13ifvqcj0","pricing_plan_id":"cebpf4jnsgd1na2vs0mg"},{"bike_id":"0eabfd12-9804-4325-8d4f-5b373fd912bb","system_id":"levelo_inurba_marseille","lat":43.30155,"lon":5.37417,"is_reserved":false,"is_disabled":false,"rental_uris":{"android":"levelo://app?vid=0eabfd12-9804-4325-8d4f-5b373fd912bb","ios":"levelo://app?vid=0eabfd12-9804-4325-8d4f-5b373fd912bb"},"vehicle_type_id":"4","last_reported":1725703681,"current_range_meters":29200,"station_id":"ce4bgs92rcd13ifvqcc0","pricing_plan_id":"cebpf4jnsgd1na2vs0mg"},{"bike_id":"d461d325-9126-4d23-a444-261681005737","system_id":"levelo_inurba_marseille","lat":43.301429,"lon":5.37413,"is_reserved":false,"is_disabled":false,"rental_uris":{"android":"levelo://app?vid=d461d325-9126-4d23-a444-261681005737","ios":"levelo://app?vid=d461d325-9126-4d23-a444-261681005737"},"vehicle_type_id":"4","last_reported":1725703681,"current_range_meters":30000,"station_id":"ce4bgs92rcd13ifvqcc0","pricing_plan_id":"cebpf4jnsgd1na2vs0mg"},{"bike_id":"ddc980b3-c2e7-4ccb-b8e4-f8494abce111","system_id":"levelo_inurba_marseille","lat":43.302784,"lon":5.377158,"is_reserved":false,"is_disabled":false,"rental_uris":{"android":"levelo://app?vid=ddc980b3-c2e7-4ccb-b8e4-f8494abce111","ios":"levelo://app?vid=ddc980b3-c2e7-4ccb-b8e4-f8494abce111"},"vehicle_type_id":"4","last_reported":1725703681,"current_range_meters":23600,"station_id":"ce4bguh2rcd13ifvqcj0","pricing_plan_id":"cebpf4jnsgd1na2vs0mg"},{"bike_id":"8cd81d3b-f09d-457a-9ff2-887f0a0039ea","system_id":"levelo_inurba_marseille","lat":43.301429,"lon":5.37413,"is_reserved":false,"is_disabled":false,"rental_uris":{"android":"levelo://app?vid=8cd81d3b-f09d-457a-9ff2-887f0a0039ea","ios":"levelo://app?vid=8cd81d3b-f09d-457a-9ff2-887f0a0039ea"},"vehicle_type_id":"4","last_reported":1725703681,"current_range_meters":24800,"station_id":"ce4bgs92rcd13ifvqcc0","pricing_plan_id":"cebpf4jnsgd1na2vs0mg"},{"bike_id":"6817788a-f785-4828-aafa-774df2c8a165","system_id":"levelo_inurba_marseille","lat":43.302784,"lon":5.377158,"is_reserved":false,"is_disabled":false,"rental_uris":{"android":"levelo://app?vid=6817788a-f785-4828-aafa-774df2c8a165","ios":"levelo://app?vid=6817788a-f785-4828-aafa-774df2c8a165"},"vehicle_type_id":"4","last_reported":1725703681,"current_range_meters":27600,"station_id":"ce4bguh2rcd13ifvqcj0","pricing_plan_id":"cebpf4jnsgd1na2vs0mg"},{"bike_id":"24280478-5500-4ad6-aa72-6f23ba2050c3","system_id":"levelo_inurba_marseille","lat":43.30148,"lon":5.37418,"is_reserved":false,"is_disabled":false,"rental_uris":{"android":"levelo://app?vid=24280478-5500-4ad6-aa72-6f23ba2050c3","ios":"levelo://app?vid=24280478-5500-4ad6-aa72-6f23ba2050c3"},"vehicle_type_id":"4","last_reported":1725703681,"current_range_meters":30000,"station_id":"ce4bgs92rcd13ifvqcc0","pricing_plan_id":"cebpf4jnsgd1na2vs0mg"},{"bike_id":"eb79e8b1-9162-44f1-87e3-72e9f841f814","system_id":"levelo_inurba_marseille","lat":43.302784,"lon":5.377158,"is_reserved":false,"is_disabled":false,"rental_uris":{"android":"levelo://app?vid=eb79e8b1-9162-44f1-87e3-72e9f841f814","ios":"levelo://app?vid=eb79e8b1-9162-44f1-87e3-72e9f841f814"},"vehicle_type_id":"4","last_reported":1725703681,"current_range_meters":8400,"station_id":"ce4bguh2rcd13ifvqcj0","pricing_plan_id":"cebpf4jnsgd1na2vs0mg"},{"bike_id":"2f8ba309-042f-4257-8377-0acfefa26ca7","system_id":"levelo_inurba_marseille","lat":43.302784,"lon":5.377158,"is_reserved":false,"is_disabled":false,"rental_uris":{"android":"levelo://app?vid=2f8ba309-042f-4257-8377-0acfefa26ca7","ios":"levelo://app?vid=2f8ba309-042f-4257-8377-0acfefa26ca7"},"vehicle_type_id":"4","last_reported":1725703681,"current_range_meters":29200,"station_id":"ce4bguh2rcd13ifvqcj0","pricing_plan_id":"cebpf4jnsgd1na2vs0mg"},{"bike_id":"335a41ee-02a2-4192-80ab-487a3fd79907","system_id":"levelo_inurba_marseille","lat":43.301429,"lon":5.37413,"is_reserved":false,"is_disabled":false,"rental_uris":{"android":"levelo://app?vid=335a41ee-02a2-4192-80ab-487a3fd79907","ios":"levelo://app?vid=335a41ee-02a2-4192-80ab-487a3fd79907"},"vehicle_type_id":"4","last_reported":1725703681,"current_range_meters":23200,"station_id":"ce4bgs92rcd13ifvqcc0","pricing_plan_id":"cebpf4jnsgd1na2vs0mg"},{"bike_id":"96d96382-26a2-4469-96b3-9f966a1d052d","system_id":"levelo_inurba_marseille","lat":43.301429,"lon":5.37413,"is_reserved":false,"is_disabled":false,"rental_uris":{"android":"levelo://app?vid=96d96382-26a2-4469-96b3-9f966a1d052d","ios":"levelo://app?vid=96d96382-26a2-4469-96b3-9f966a1d052d"},"vehicle_type_id":"4","last_reported":1725703681,"current_range_meters":12800,"station_id":"ce4bgs92rcd13ifvqcc0","pricing_plan_id":"cebpf4jnsgd1na2vs0mg"},{"bike_id":"a97fef87-a49e-4358-bd1a-5df483f35d95","system_id":"levelo_inurba_marseille","lat":43.302784,"lon":5.377158,"is_reserved":false,"is_disabled":false,"rental_uris":{"android":"levelo://app?vid=a97fef87-a49e-4358-bd1a-5df483f35d95","ios":"levelo://app?vid=a97fef87-a49e-4358-bd1a-5df483f35d95"},"vehicle_type_id":"4","last_reported":1725703681,"current_range_meters":30000,"station_id":"ce4bguh2rcd13ifvqcj0","pricing_plan_id":"cebpf4jnsgd1na2vs0mg"},{"bike_id":"d5b9273b-79fc-4b7a-8c92-15e728acdf43","system_id":"levelo_inurba_marseille","lat":43.319935,"lon":5.381699,"is_reserved":false,"is_disabled":false,"rental_uris":{"android":"levelo://app?vid=d5b9273b-79fc-4b7a-8c92-15e728acdf43","ios":"levelo://app?vid=d5b9273b-79fc-4b7a-8c92-15e728acdf43"},"vehicle_type_id":"4","last_reported":1725703681,"current_range_meters":29600,"station_id":"ce4bhr12rcd13ifvqhpg","pricing_plan_id":"cebpf4jnsgd1na2vs0mg"},{"bike_id":"06852b40-aed6-443e-bda8-c01324df1e90","system_id":"levelo_inurba_marseille","lat":43.299724,"lon":5.371829,"is_reserved":false,"is_disabled":false,"rental_uris":{"android":"levelo://app?vid=06852b40-aed6-443e-bda8-c01324df1e90","ios":"levelo://app?vid=06852b40-aed6-443e-bda8-c01324df1e90"},"vehicle_type_id":"4","last_reported":1725703681,"current_range_meters":20800,"station_id":"ce4bgr92rcd13ifvqc7g","pricing_plan_id":"cebpf4jnsgd1na2vs0mg"},{"bike_id":"71c68fc9-1c0a-45f6-bc88-4ddee2fce070","system_id":"levelo_inurba_marseille","lat":43.299222,"lon":5.365554,"is_reserved":false,"is_disabled":false,"rental_uris":{"android":"levelo://app?vid=71c68fc9-1c0a-45f6-bc88-4ddee2fce070","ios":"levelo://app?vid=71c68fc9-1c0a-45f6-bc88-4ddee2fce070"},"vehicle_type_id":"4","last_reported":1725703681,"current_range_meters":1200,"station_id":"ce4bgm92rcd13ifvqbr0","pricing_plan_id":"cebpf4jnsgd1na2vs0mg"},{"bike_id":"91c06e63-f054-45fc-9c98-1b7a4127406c","system_id":"levelo_inurba_marseille","lat":43.299724,"lon":5.371829,"is_reserved":false,"is_disabled":false,"rental_uris":{"android":"levelo://app?vid=91c06e63-f054-45fc-9c98-1b7a4127406c","ios":"levelo://app?vid=91c06e63-f054-45fc-9c98-1b7a4127406c"},"vehicle_type_id":"4","last_reported":1725703681,"current_range_meters":23600,"station_id":"ce4bgr92rcd13ifvqc7g","pricing_plan_id":"cebpf4jnsgd1na2vs0mg"},{"bike_id":"f3a61ac4-0219-40b8-b5a0-b9c7dea91da5","system_id":"levelo_inurba_marseille","lat":43.299222,"lon":5.365554,"is_reserved":false,"is_disabled":false,"rental_uris":{"android":"levelo://app?vid=f3a61ac4-0219-40b8-b5a0-b9c7dea91da5","ios":"levelo://app?vid=f3a61ac4-0219-40b8-b5a0-b9c7dea91da5"},"vehicle_type_id":"4","last_reported":1725703681,"current_range_meters":16400,"station_id":"ce4bgm92rcd13ifvqbr0","pricing_plan_id":"cebpf4jnsgd1na2vs0mg"},{"bike_id":"f4ce07e5-24c7-462d-a897-dab750e0abc0","system_id":"levelo_inurba_marseille","lat":43.299222,"lon":5.365554,"is_reserved":false,"is_disabled":false,"rental_uris":{"android":"levelo://app?vid=f4ce07e5-24c7-462d-a897-dab750e0abc0","ios":"levelo://app?vid=f4ce07e5-24c7-462d-a897-dab750e0abc0"},"vehicle_type_id":"4","last_reported":1725703681,"current_range_meters":0,"station_id":"ce4bgm92rcd13ifvqbr0","pricing_plan_id":"cebpf4jnsgd1na2vs0mg"},{"bike_id":"7a4ffba5-93b4-45a7-b240-7b90a203339a","system_id":"levelo_inurba_marseille","lat":43.299724,"lon":5.371829,"is_reserved":false,"is_disabled":false,"rental_uris":{"android":"levelo://app?vid=7a4ffba5-93b4-45a7-b240-7b90a203339a","ios":"levelo://app?vid=7a4ffba5-93b4-45a7-b240-7b90a203339a"},"vehicle_type_id":"4","last_reported":1725703681,"current_range_meters":30000,"station_id":"ce4bgr92rcd13ifvqc7g","pricing_plan_id":"cebpf4jnsgd1na2vs0mg"},{"bike_id":"552face6-1dc4-4f49-aaa2-336e31bada23","system_id":"levelo_inurba_marseille","lat":43.299222,"lon":5.365554,"is_reserved":false,"is_disabled":false,"rental_uris":{"android":"levelo://app?vid=552face6-1dc4-4f49-aaa2-336e31bada23","ios":"levelo://app?vid=552face6-1dc4-4f49-aaa2-336e31bada23"},"vehicle_type_id":"4","last_reported":1725703681,"current_range_meters":18000,"station_id":"ce4bgm92rcd13ifvqbr0","pricing_plan_id":"cebpf4jnsgd1na2vs0mg"},{"bike_id":"a437049d-2891-494d-806e-26a22b5ec370","system_id":"levelo_inurba_marseille","lat":43.299724,"lon":5.371829,"is_reserved":false,"is_disabled":false,"rental_uris":{"android":"levelo://app?vid=a437049d-2891-494d-806e-26a22b5ec370","ios":"levelo://app?vid=a437049d-2891-494d-806e-26a22b5ec370"},"vehicle_type_id":"4","last_reported":1725703681,"current_range_meters":27600,"station_id":"ce4bgr92rcd13ifvqc7g","pricing_plan_id":"cebpf4jnsgd1na2vs0mg"},{"bike_id":"1792bc52-0e13-43a8-993a-38821d127353","system_id":"levelo_inurba_marseille","lat":43.29927,"lon":5.36553,"is_reserved":false,"is_disabled":false,"rental_uris":{"android":"levelo://app?vid=1792bc52-0e13-43a8-993a-38821d127353","ios":"levelo://app?vid=1792bc52-0e13-43a8-993a-38821d127353"},"vehicle_type_id":"4","last_reported":1725703681,"current_range_meters":11200,"station_id":"ce4bgm92rcd13ifvqbr0","pricing_plan_id":"cebpf4jnsgd1na2vs0mg"},{"bike_id":"3d97a05b-344c-4f08-a077-95754f174e2b","system_id":"levelo_inurba_marseille","lat":43.298433,"lon":5.362774,"is_reserved":false,"is_disabled":false,"rental_uris":{"android":"levelo://app?vid=3d97a05b-344c-4f08-a077-95754f174e2b","ios":"levelo://app?vid=3d97a05b-344c-4f08-a077-95754f174e2b"},"vehicle_type_id":"4","last_reported":1725703681,"current_range_meters":21600,"station_id":"ce4bgpp2rcd13ifvqc3g","pricing_plan_id":"cebpf4jnsgd1na2vs0mg"},{"bike_id":"626741fc-308c-4e81-b25a-cf07b3163b6b","system_id":"levelo_inurba_marseille","lat":43.298433,"lon":5.362774,"is_reserved":false,"is_disabled":false,"rental_uris":{"android":"levelo://app?vid=626741fc-308c-4e81-b25a-cf07b3163b6b","ios":"levelo://app?vid=626741fc-308c-4e81-b25a-cf07b3163b6b"},"vehicle_type_id":"4","last_reported":1725703681,"current_range_meters":12800,"station_id":"ce4bgpp2rcd13ifvqc3g","pricing_plan_id":"cebpf4jnsgd1na2vs0mg"},{"bike_id":"764ed5dc-2a96-4123-8e6f-580ff0b1378f","system_id":"levelo_inurba_marseille","lat":43.298433,"lon":5.362774,"is_reserved":false,"is_disabled":false,"rental_uris":{"android":"levelo://app?vid=764ed5dc-2a96-4123-8e6f-580ff0b1378f","ios":"levelo://app?vid=764ed5dc-2a96-4123-8e6f-580ff0b1378f"},"vehicle_type_id":"4","last_reported":1725703681,"current_range_meters":18800,"station_id":"ce4bgpp2rcd13ifvqc3g","pricing_plan_id":"cebpf4jnsgd1na2vs0mg"},{"bike_id":"08f056dd-c44d-4409-ac6d-5a8d7d5ae81e","system_id":"levelo_inurba_marseille","lat":43.298433,"lon":5.362774,"is_reserved":false,"is_disabled":false,"rental_uris":{"android":"levelo://app?vid=08f056dd-c44d-4409-ac6d-5a8d7d5ae81e","ios":"levelo://app?vid=08f056dd-c44d-4409-ac6d-5a8d7d5ae81e"},"vehicle_type_id":"4","last_reported":1725703681,"current_range_meters":2400,"station_id":"ce4bgpp2rcd13ifvqc3g","pricing_plan_id":"cebpf4jnsgd1na2vs0mg"},{"bike_id":"135365ab-bb3e-45e6-abb0-e55a6f0c80b8","system_id":"levelo_inurba_marseille","lat":43.298433,"lon":5.362774,"is_reserved":false,"is_disabled":false,"rental_uris":{"android":"levelo://app?vid=135365ab-bb3e-45e6-abb0-e55a6f0c80b8","ios":"levelo://app?vid=135365ab-bb3e-45e6-abb0-e55a6f0c80b8"},"vehicle_type_id":"4","last_reported":1725703681,"current_range_meters":24400,"station_id":"ce4bgpp2rcd13ifvqc3g","pricing_plan_id":"cebpf4jnsgd1na2vs0mg"},{"bike_id":"4435e4b4-4c47-4678-8030-633cf6392adc","system_id":"levelo_inurba_marseille","lat":43.298433,"lon":5.362774,"is_reserved":false,"is_disabled":false,"rental_uris":{"android":"levelo://app?vid=4435e4b4-4c47-4678-8030-633cf6392adc","ios":"levelo://app?vid=4435e4b4-4c47-4678-8030-633cf6392adc"},"vehicle_type_id":"4","last_reported":1725703681,"current_range_meters":25200,"station_id":"ce4bgpp2rcd13ifvqc3g","pricing_plan_id":"cebpf4jnsgd1na2vs0mg"},{"bike_id":"17003fcb-f0f6-473e-bdbe-62582a1c5a7a","system_id":"levelo_inurba_marseille","lat":43.298433,"lon":5.362774,"is_reserved":false,"is_disabled":false,"rental_uris":{"android":"levelo://app?vid=17003fcb-f0f6-473e-bdbe-62582a1c5a7a","ios":"levelo://app?vid=17003fcb-f0f6-473e-bdbe-62582a1c5a7a"},"vehicle_type_id":"4","last_reported":1725703681,"current_range_meters":25200,"station_id":"ce4bgpp2rcd13ifvqc3g","pricing_plan_id":"cebpf4jnsgd1na2vs0mg"},{"bike_id":"63ff1004-a80b-49ac-a9f7-9d7abcd66768","system_id":"levelo_inurba_marseille","lat":43.299243,"lon":5.374807,"is_reserved":false,"is_disabled":false,"rental_uris":{"android":"levelo://app?vid=63ff1004-a80b-49ac-a9f7-9d7abcd66768","ios":"levelo://app?vid=63ff1004-a80b-49ac-a9f7-9d7abcd66768"},"vehicle_type_id":"4","last_reported":1725703681,"current_range_meters":0,"station_id":"ce4bgjh2rcd13ifvqbg0","pricing_plan_id":"cebpf4jnsgd1na2vs0mg"},{"bike_id":"366f791b-0da6-46a6-b594-b67946dafde8","system_id":"levelo_inurba_marseille","lat":43.298433,"lon":5.362774,"is_reserved":false,"is_disabled":false,"rental_uris":{"android":"levelo://app?vid=366f791b-0da6-46a6-b594-b67946dafde8","ios":"levelo://app?vid=366f791b-0da6-46a6-b594-b67946dafde8"},"vehicle_type_id":"4","last_reported":1725703681,"current_range_meters":32000,"station_id":"ce4bgpp2rcd13ifvqc3g","pricing_plan_id":"cebpf4jnsgd1na2vs0mg"},{"bike_id":"ec50db43-d25c-4879-9794-ef3d5888572b","system_id":"levelo_inurba_marseille","lat":43.301743,"lon":5.38016,"is_reserved":false,"is_disabled":false,"rental_uris":{"android":"levelo://app?vid=ec50db43-d25c-4879-9794-ef3d5888572b","ios":"levelo://app?vid=ec50db43-d25c-4879-9794-ef3d5888572b"},"vehicle_type_id":"4","last_reported":1725703681,"current_range_meters":31200,"station_id":"","pricing_plan_id":"cebpf4jnsgd1na2vs0mg"},{"bike_id":"a8a30847-9cd8-4e85-b4b7-c9b5a8546b69","system_id":"levelo_inurba_marseille","lat":43.298433,"lon":5.362774,"is_reserved":false,"is_disabled":false,"rental_uris":{"android":"levelo://app?vid=a8a30847-9cd8-4e85-b4b7-c9b5a8546b69","ios":"levelo://app?vid=a8a30847-9cd8-4e85-b4b7-c9b5a8546b69"},"vehicle_type_id":"4","last_reported":1725703681,"current_range_meters":10400,"station_id":"ce4bgpp2rcd13ifvqc3g","pricing_plan_id":"cebpf4jnsgd1na2vs0mg"},{"bike_id":"18325962-3329-4692-b886-7278496fc331","system_id":"levelo_inurba_marseille","lat":43.298433,"lon":5.362774,"is_reserved":false,"is_disabled":false,"rental_uris":{"android":"levelo://app?vid=18325962-3329-4692-b886-7278496fc331","ios":"levelo://app?vid=18325962-3329-4692-b886-7278496fc331"},"vehicle_type_id":"4","last_reported":1725703681,"current_range_meters":31200,"station_id":"ce4bgpp2rcd13ifvqc3g","pricing_plan_id":"cebpf4jnsgd1na2vs0mg"},{"bike_id":"e4430309-3f26-4acc-b75b-0f191fb72c24","system_id":"levelo_inurba_marseille","lat":43.299243,"lon":5.37481,"is_reserved":false,"is_disabled":false,"rental_uris":{"android":"levelo://app?vid=e4430309-3f26-4acc-b75b-0f191fb72c24","ios":"levelo://app?vid=e4430309-3f26-4acc-b75b-0f191fb72c24"},"vehicle_type_id":"4","last_reported":1725703681,"current_range_meters":20000,"station_id":"ce4bgjh2rcd13ifvqbg0","pricing_plan_id":"cebpf4jnsgd1na2vs0mg"},{"bike_id":"4ca8560f-fc2c-46f4-a1c3-79fac0303d76","system_id":"levelo_inurba_marseille","lat":43.305364,"lon":5.384119,"is_reserved":false,"is_disabled":false,"rental_uris":{"android":"levelo://app?vid=4ca8560f-fc2c-46f4-a1c3-79fac0303d76","ios":"levelo://app?vid=4ca8560f-fc2c-46f4-a1c3-79fac0303d76"},"vehicle_type_id":"4","last_reported":1725703681,"current_range_meters":12000,"station_id":"ce4bgg92rcd13ifvqb30","pricing_plan_id":"cebpf4jnsgd1na2vs0mg"},{"bike_id":"5462bb7e-1684-4c2b-90c3-e0086694a4b0","system_id":"levelo_inurba_marseille","lat":43.298433,"lon":5.362774,"is_reserved":false,"is_disabled":false,"rental_uris":{"android":"levelo://app?vid=5462bb7e-1684-4c2b-90c3-e0086694a4b0","ios":"levelo://app?vid=5462bb7e-1684-4c2b-90c3-e0086694a4b0"},"vehicle_type_id":"4","last_reported":1725703681,"current_range_meters":26800,"station_id":"ce4bgpp2rcd13ifvqc3g","pricing_plan_id":"cebpf4jnsgd1na2vs0mg"},{"bike_id":"f9728f0a-a9bd-4af4-a45e-e63f54d96d17","system_id":"levelo_inurba_marseille","lat":43.298433,"lon":5.362774,"is_reserved":false,"is_disabled":false,"rental_uris":{"android":"levelo://app?vid=f9728f0a-a9bd-4af4-a45e-e63f54d96d17","ios":"levelo://app?vid=f9728f0a-a9bd-4af4-a45e-e63f54d96d17"},"vehicle_type_id":"4","last_reported":1725703681,"current_range_meters":30000,"station_id":"ce4bgpp2rcd13ifvqc3g","pricing_plan_id":"cebpf4jnsgd1na2vs0mg"},{"bike_id":"26e14042-2794-4e40-b1d4-c31295ade603","system_id":"levelo_inurba_marseille","lat":43.298433,"lon":5.362774,"is_reserved":false,"is_disabled":false,"rental_uris":{"android":"levelo://app?vid=26e14042-2794-4e40-b1d4-c31295ade603","ios":"levelo://app?vid=26e14042-2794-4e40-b1d4-c31295ade603"},"vehicle_type_id":"4","last_reported":1725703681,"current_range_meters":28000,"station_id":"ce4bgpp2rcd13ifvqc3g","pricing_plan_id":"cebpf4jnsgd1na2vs0mg"},{"bike_id":"9aa92f75-8b5d-4e78-afb1-f68cebb6cd72","system_id":"levelo_inurba_marseille","lat":43.299243,"lon":5.37481,"is_reserved":false,"is_disabled":false,"rental_uris":{"android":"levelo://app?vid=9aa92f75-8b5d-4e78-afb1-f68cebb6cd72","ios":"levelo://app?vid=9aa92f75-8b5d-4e78-afb1-f68cebb6cd72"},"vehicle_type_id":"4","last_reported":1725703681,"current_range_meters":30400,"station_id":"ce4bgjh2rcd13ifvqbg0","pricing_plan_id":"cebpf4jnsgd1na2vs0mg"},{"bike_id":"c074d969-cd93-40fe-bc40-a97a2eb78652","system_id":"levelo_inurba_marseille","lat":43.298433,"lon":5.362774,"is_reserved":false,"is_disabled":false,"rental_uris":{"android":"levelo://app?vid=c074d969-cd93-40fe-bc40-a97a2eb78652","ios":"levelo://app?vid=c074d969-cd93-40fe-bc40-a97a2eb78652"},"vehicle_type_id":"4","last_reported":1725703681,"current_range_meters":25200,"station_id":"ce4bgpp2rcd13ifvqc3g","pricing_plan_id":"cebpf4jnsgd1na2vs0mg"},{"bike_id":"9e4f7660-8550-4941-ada1-2588de853502","system_id":"levelo_inurba_marseille","lat":43.29914,"lon":5.37489,"is_reserved":false,"is_disabled":false,"rental_uris":{"android":"levelo://app?vid=9e4f7660-8550-4941-ada1-2588de853502","ios":"levelo://app?vid=9e4f7660-8550-4941-ada1-2588de853502"},"vehicle_type_id":"4","last_reported":1725703681,"current_range_meters":27600,"station_id":"ce4bgjh2rcd13ifvqbg0","pricing_plan_id":"cebpf4jnsgd1na2vs0mg"},{"bike_id":"a999ea92-0e84-47c5-a463-b1cbc7d9959d","system_id":"levelo_inurba_marseille","lat":43.3016,"lon":5.38068,"is_reserved":false,"is_disabled":false,"rental_uris":{"android":"levelo://app?vid=a999ea92-0e84-47c5-a463-b1cbc7d9959d","ios":"levelo://app?vid=a999ea92-0e84-47c5-a463-b1cbc7d9959d"},"vehicle_type_id":"4","last_reported":1725703681,"current_range_meters":13200,"station_id":"ce4bgjp2rcd13ifvqbh0","pricing_plan_id":"cebpf4jnsgd1na2vs0mg"},{"bike_id":"579f20c0-59e5-48f8-b3d6-b0639943fa5f","system_id":"levelo_inurba_marseille","lat":43.301417,"lon":5.3809,"is_reserved":false,"is_disabled":false,"rental_uris":{"android":"levelo://app?vid=579f20c0-59e5-48f8-b3d6-b0639943fa5f","ios":"levelo://app?vid=579f20c0-59e5-48f8-b3d6-b0639943fa5f"},"vehicle_type_id":"4","last_reported":1725703681,"current_range_meters":14400,"station_id":"ce4bgjp2rcd13ifvqbh0","pricing_plan_id":"cebpf4jnsgd1na2vs0mg"},{"bike_id":"0dede0cc-187a-4588-a6d4-fe62782db3ed","system_id":"levelo_inurba_marseille","lat":43.301572,"lon":5.380758,"is_reserved":false,"is_disabled":false,"rental_uris":{"android":"levelo://app?vid=0dede0cc-187a-4588-a6d4-fe62782db3ed","ios":"levelo://app?vid=0dede0cc-187a-4588-a6d4-fe62782db3ed"},"vehicle_type_id":"4","last_reported":1725703681,"current_range_meters":20000,"station_id":"ce4bgjp2rcd13ifvqbh0","pricing_plan_id":"cebpf4jnsgd1na2vs0mg"},{"bike_id":"46668101-a5ac-4c41-809d-b84709bb9a61","system_id":"levelo_inurba_marseille","lat":43.301417,"lon":5.3809,"is_reserved":false,"is_disabled":false,"rental_uris":{"android":"levelo://app?vid=46668101-a5ac-4c41-809d-b84709bb9a61","ios":"levelo://app?vid=46668101-a5ac-4c41-809d-b84709bb9a61"},"vehicle_type_id":"4","last_reported":1725703681,"current_range_meters":24400,"station_id":"ce4bgjp2rcd13ifvqbh0","pricing_plan_id":"cebpf4jnsgd1na2vs0mg"},{"bike_id":"4ae51d6b-aaaf-442a-873d-f8eca9a3e7b5","system_id":"levelo_inurba_marseille","lat":43.32068,"lon":5.384486,"is_reserved":false,"is_disabled":false,"rental_uris":{"android":"levelo://app?vid=4ae51d6b-aaaf-442a-873d-f8eca9a3e7b5","ios":"levelo://app?vid=4ae51d6b-aaaf-442a-873d-f8eca9a3e7b5"},"vehicle_type_id":"4","last_reported":1725703681,"current_range_meters":7200,"station_id":"","pricing_plan_id":"cebpf4jnsgd1na2vs0mg"},{"bike_id":"48907a71-78a0-49a7-ba5b-f2a968f4e020","system_id":"levelo_inurba_marseille","lat":43.30147,"lon":5.38066,"is_reserved":false,"is_disabled":false,"rental_uris":{"android":"levelo://app?vid=48907a71-78a0-49a7-ba5b-f2a968f4e020","ios":"levelo://app?vid=48907a71-78a0-49a7-ba5b-f2a968f4e020"},"vehicle_type_id":"4","last_reported":1725703681,"current_range_meters":22800,"station_id":"ce4bgjp2rcd13ifvqbh0","pricing_plan_id":"cebpf4jnsgd1na2vs0mg"},{"bike_id":"1a62bfdc-3053-4b89-b0e5-63b30a06c965","system_id":"levelo_inurba_marseille","lat":43.301507,"lon":5.380743,"is_reserved":false,"is_disabled":false,"rental_uris":{"android":"levelo://app?vid=1a62bfdc-3053-4b89-b0e5-63b30a06c965","ios":"levelo://app?vid=1a62bfdc-3053-4b89-b0e5-63b30a06c965"},"vehicle_type_id":"4","last_reported":1725703681,"current_range_meters":20800,"station_id":"ce4bgjp2rcd13ifvqbh0","pricing_plan_id":"cebpf4jnsgd1na2vs0mg"},{"bike_id":"aafff9e4-90ba-4c38-8a9f-ba1bbfceedc1","system_id":"levelo_inurba_marseille","lat":43.297774,"lon":5.370875,"is_reserved":false,"is_disabled":false,"rental_uris":{"android":"levelo://app?vid=aafff9e4-90ba-4c38-8a9f-ba1bbfceedc1","ios":"levelo://app?vid=aafff9e4-90ba-4c38-8a9f-ba1bbfceedc1"},"vehicle_type_id":"4","last_reported":1725703681,"current_range_meters":13600,"station_id":"ce4bgop2rcd13ifvqc1g","pricing_plan_id":"cebpf4jnsgd1na2vs0mg"},{"bike_id":"8c05342a-5b37-469f-9edb-6768555da030","system_id":"levelo_inurba_marseille","lat":43.301417,"lon":5.3809,"is_reserved":false,"is_disabled":false,"rental_uris":{"android":"levelo://app?vid=8c05342a-5b37-469f-9edb-6768555da030","ios":"levelo://app?vid=8c05342a-5b37-469f-9edb-6768555da030"},"vehicle_type_id":"4","last_reported":1725703681,"current_range_meters":7200,"station_id":"ce4bgjp2rcd13ifvqbh0","pricing_plan_id":"cebpf4jnsgd1na2vs0mg"},{"bike_id":"6aebb149-37b7-496b-9fe1-4580e760886c","system_id":"levelo_inurba_marseille","lat":43.301417,"lon":5.3809,"is_reserved":false,"is_disabled":false,"rental_uris":{"android":"levelo://app?vid=6aebb149-37b7-496b-9fe1-4580e760886c","ios":"levelo://app?vid=6aebb149-37b7-496b-9fe1-4580e760886c"},"vehicle_type_id":"4","last_reported":1725703681,"current_range_meters":31200,"station_id":"ce4bgjp2rcd13ifvqbh0","pricing_plan_id":"cebpf4jnsgd1na2vs0mg"},{"bike_id":"9c4b5b3e-ce56-49d6-8fe1-6a379eead949","system_id":"levelo_inurba_marseille","lat":43.30158,"lon":5.380903,"is_reserved":false,"is_disabled":false,"rental_uris":{"android":"levelo://app?vid=9c4b5b3e-ce56-49d6-8fe1-6a379eead949","ios":"levelo://app?vid=9c4b5b3e-ce56-49d6-8fe1-6a379eead949"},"vehicle_type_id":"4","last_reported":1725703681,"current_range_meters":12800,"station_id":"ce4bgjp2rcd13ifvqbh0","pricing_plan_id":"cebpf4jnsgd1na2vs0mg"},{"bike_id":"9d4d4ad3-9fa4-4394-8995-8a5887e80cc8","system_id":"levelo_inurba_marseille","lat":43.3228,"lon":5.382713,"is_reserved":false,"is_disabled":false,"rental_uris":{"android":"levelo://app?vid=9d4d4ad3-9fa4-4394-8995-8a5887e80cc8","ios":"levelo://app?vid=9d4d4ad3-9fa4-4394-8995-8a5887e80cc8"},"vehicle_type_id":"4","last_reported":1725703681,"current_range_meters":14400,"station_id":"ce4bhr12rcd13ifvqhqg","pricing_plan_id":"cebpf4jnsgd1na2vs0mg"},{"bike_id":"83f7e5b1-e2ed-4339-a5a6-94d3d94b3a41","system_id":"levelo_inurba_marseille","lat":43.31586,"lon":5.3887,"is_reserved":false,"is_disabled":false,"rental_uris":{"android":"levelo://app?vid=83f7e5b1-e2ed-4339-a5a6-94d3d94b3a41","ios":"levelo://app?vid=83f7e5b1-e2ed-4339-a5a6-94d3d94b3a41"},"vehicle_type_id":"4","last_reported":1725703681,"current_range_meters":14800,"station_id":"","pricing_plan_id":"cebpf4jnsgd1na2vs0mg"},{"bike_id":"5f29f7e8-f57f-4bda-be63-fa489e41ebb8","system_id":"levelo_inurba_marseille","lat":43.30159,"lon":5.383295,"is_reserved":false,"is_disabled":false,"rental_uris":{"android":"levelo://app?vid=5f29f7e8-f57f-4bda-be63-fa489e41ebb8","ios":"levelo://app?vid=5f29f7e8-f57f-4bda-be63-fa489e41ebb8"},"vehicle_type_id":"4","last_reported":1725703681,"current_range_meters":19200,"station_id":"","pricing_plan_id":"cebpf4jnsgd1na2vs0mg"},{"bike_id":"3428a03f-2e25-46fa-bcf4-159a6a1a3c99","system_id":"levelo_inurba_marseille","lat":43.2968,"lon":5.37291,"is_reserved":false,"is_disabled":false,"rental_uris":{"android":"levelo://app?vid=3428a03f-2e25-46fa-bcf4-159a6a1a3c99","ios":"levelo://app?vid=3428a03f-2e25-46fa-bcf4-159a6a1a3c99"},"vehicle_type_id":"4","last_reported":1725703681,"current_range_meters":26000,"station_id":"ce4bgk12rcd13ifvqbj0","pricing_plan_id":"cebpf4jnsgd1na2vs0mg"},{"bike_id":"8a8887de-5c7d-4b1c-91b2-78e9c920b48d","system_id":"levelo_inurba_marseille","lat":43.2968,"lon":5.37291,"is_reserved":false,"is_disabled":false,"rental_uris":{"android":"levelo://app?vid=8a8887de-5c7d-4b1c-91b2-78e9c920b48d","ios":"levelo://app?vid=8a8887de-5c7d-4b1c-91b2-78e9c920b48d"},"vehicle_type_id":"4","last_reported":1725703681,"current_range_meters":28000,"station_id":"ce4bgk12rcd13ifvqbj0","pricing_plan_id":"cebpf4jnsgd1na2vs0mg"},{"bike_id":"9d1afc4f-89d8-445b-a69b-b339dcbe83d3","system_id":"levelo_inurba_marseille","lat":43.29628,"lon":5.37156,"is_reserved":false,"is_disabled":false,"rental_uris":{"android":"levelo://app?vid=9d1afc4f-89d8-445b-a69b-b339dcbe83d3","ios":"levelo://app?vid=9d1afc4f-89d8-445b-a69b-b339dcbe83d3"},"vehicle_type_id":"4","last_reported":1725703681,"current_range_meters":28800,"station_id":"ce4bgnh2rcd13ifvqc0g","pricing_plan_id":"cebpf4jnsgd1na2vs0mg"},{"bike_id":"7bcfe98f-2a9a-4add-989a-0fca8271799b","system_id":"levelo_inurba_marseille","lat":43.296131,"lon":5.370791,"is_reserved":false,"is_disabled":false,"rental_uris":{"android":"levelo://app?vid=7bcfe98f-2a9a-4add-989a-0fca8271799b","ios":"levelo://app?vid=7bcfe98f-2a9a-4add-989a-0fca8271799b"},"vehicle_type_id":"4","last_reported":1725703681,"current_range_meters":25200,"station_id":"ce4bgnh2rcd13ifvqc0g","pricing_plan_id":"cebpf4jnsgd1na2vs0mg"},{"bike_id":"c716f777-c206-4b6f-90ef-3d15b2f35c76","system_id":"levelo_inurba_marseille","lat":43.296131,"lon":5.370791,"is_reserved":false,"is_disabled":false,"rental_uris":{"android":"levelo://app?vid=c716f777-c206-4b6f-90ef-3d15b2f35c76","ios":"levelo://app?vid=c716f777-c206-4b6f-90ef-3d15b2f35c76"},"vehicle_type_id":"4","last_reported":1725703681,"current_range_meters":30800,"station_id":"ce4bgnh2rcd13ifvqc0g","pricing_plan_id":"cebpf4jnsgd1na2vs0mg"},{"bike_id":"bcd710b3-d104-4012-8cd8-aa29fac309ad","system_id":"levelo_inurba_marseille","lat":43.296131,"lon":5.370773,"is_reserved":false,"is_disabled":false,"rental_uris":{"android":"levelo://app?vid=bcd710b3-d104-4012-8cd8-aa29fac309ad","ios":"levelo://app?vid=bcd710b3-d104-4012-8cd8-aa29fac309ad"},"vehicle_type_id":"4","last_reported":1725703681,"current_range_meters":20800,"station_id":"ce4bgnh2rcd13ifvqc0g","pricing_plan_id":"cebpf4jnsgd1na2vs0mg"},{"bike_id":"d390c53c-b710-4d9a-b05d-79417db9b034","system_id":"levelo_inurba_marseille","lat":43.296131,"lon":5.370773,"is_reserved":false,"is_disabled":false,"rental_uris":{"android":"levelo://app?vid=d390c53c-b710-4d9a-b05d-79417db9b034","ios":"levelo://app?vid=d390c53c-b710-4d9a-b05d-79417db9b034"},"vehicle_type_id":"4","last_reported":1725703681,"current_range_meters":14400,"station_id":"ce4bgnh2rcd13ifvqc0g","pricing_plan_id":"cebpf4jnsgd1na2vs0mg"},{"bike_id":"2f7586f0-acc0-4701-ba9e-da64f773602d","system_id":"levelo_inurba_marseille","lat":43.296131,"lon":5.370791,"is_reserved":false,"is_disabled":false,"rental_uris":{"android":"levelo://app?vid=2f7586f0-acc0-4701-ba9e-da64f773602d","ios":"levelo://app?vid=2f7586f0-acc0-4701-ba9e-da64f773602d"},"vehicle_type_id":"4","last_reported":1725703681,"current_range_meters":24000,"station_id":"ce4bgnh2rcd13ifvqc0g","pricing_plan_id":"cebpf4jnsgd1na2vs0mg"},{"bike_id":"9f1dc5a6-1ebb-4da5-9fba-f7b24230c0e0","system_id":"levelo_inurba_marseille","lat":43.296131,"lon":5.370791,"is_reserved":false,"is_disabled":false,"rental_uris":{"android":"levelo://app?vid=9f1dc5a6-1ebb-4da5-9fba-f7b24230c0e0","ios":"levelo://app?vid=9f1dc5a6-1ebb-4da5-9fba-f7b24230c0e0"},"vehicle_type_id":"4","last_reported":1725703681,"current_range_meters":20400,"station_id":"ce4bgnh2rcd13ifvqc0g","pricing_plan_id":"cebpf4jnsgd1na2vs0mg"},{"bike_id":"98a7b479-66b1-4588-99cc-026d37b7f914","system_id":"levelo_inurba_marseille","lat":43.29583,"lon":5.367458,"is_reserved":false,"is_disabled":false,"rental_uris":{"android":"levelo://app?vid=98a7b479-66b1-4588-99cc-026d37b7f914","ios":"levelo://app?vid=98a7b479-66b1-4588-99cc-026d37b7f914"},"vehicle_type_id":"4","last_reported":1725703681,"current_range_meters":2800,"station_id":"ce4bgph2rcd13ifvqc2g","pricing_plan_id":"cebpf4jnsgd1na2vs0mg"},{"bike_id":"a2645d96-71f6-4fb7-b7f2-f3fe5ce8a9c6","system_id":"levelo_inurba_marseille","lat":43.296131,"lon":5.370773,"is_reserved":false,"is_disabled":false,"rental_uris":{"android":"levelo://app?vid=a2645d96-71f6-4fb7-b7f2-f3fe5ce8a9c6","ios":"levelo://app?vid=a2645d96-71f6-4fb7-b7f2-f3fe5ce8a9c6"},"vehicle_type_id":"4","last_reported":1725703681,"current_range_meters":26400,"station_id":"ce4bgnh2rcd13ifvqc0g","pricing_plan_id":"cebpf4jnsgd1na2vs0mg"},{"bike_id":"7e2a9981-304b-427f-9c45-fdaba7c305e1","system_id":"levelo_inurba_marseille","lat":43.295665,"lon":5.365275,"is_reserved":false,"is_disabled":false,"rental_uris":{"android":"levelo://app?vid=7e2a9981-304b-427f-9c45-fdaba7c305e1","ios":"levelo://app?vid=7e2a9981-304b-427f-9c45-fdaba7c305e1"},"vehicle_type_id":"4","last_reported":1725703681,"current_range_meters":21200,"station_id":"","pricing_plan_id":"cebpf4jnsgd1na2vs0mg"},{"bike_id":"882ee54b-3051-4401-97dd-3209db7a4e92","system_id":"levelo_inurba_marseille","lat":43.299028,"lon":5.381509,"is_reserved":false,"is_disabled":false,"rental_uris":{"android":"levelo://app?vid=882ee54b-3051-4401-97dd-3209db7a4e92","ios":"levelo://app?vid=882ee54b-3051-4401-97dd-3209db7a4e92"},"vehicle_type_id":"4","last_reported":1725703681,"current_range_meters":29600,"station_id":"ce4bgj12rcd13ifvqbc0","pricing_plan_id":"cebpf4jnsgd1na2vs0mg"},{"bike_id":"e4330a65-06e6-4a7d-a64a-0ba990fa5774","system_id":"levelo_inurba_marseille","lat":43.299259,"lon":5.381608,"is_reserved":false,"is_disabled":false,"rental_uris":{"android":"levelo://app?vid=e4330a65-06e6-4a7d-a64a-0ba990fa5774","ios":"levelo://app?vid=e4330a65-06e6-4a7d-a64a-0ba990fa5774"},"vehicle_type_id":"4","last_reported":1725703681,"current_range_meters":18800,"station_id":"ce4bgj12rcd13ifvqbc0","pricing_plan_id":"cebpf4jnsgd1na2vs0mg"},{"bike_id":"57709f27-207e-48fa-b4a6-a15111593717","system_id":"levelo_inurba_marseille","lat":43.309589,"lon":5.390258,"is_reserved":false,"is_disabled":false,"rental_uris":{"android":"levelo://app?vid=57709f27-207e-48fa-b4a6-a15111593717","ios":"levelo://app?vid=57709f27-207e-48fa-b4a6-a15111593717"},"vehicle_type_id":"4","last_reported":1725703681,"current_range_meters":10800,"station_id":"ce4bgup2rcd13ifvqco0","pricing_plan_id":"cebpf4jnsgd1na2vs0mg"},{"bike_id":"d039875f-4703-4ae2-a6f9-5df71150b246","system_id":"levelo_inurba_marseille","lat":43.309589,"lon":5.390258,"is_reserved":false,"is_disabled":false,"rental_uris":{"android":"levelo://app?vid=d039875f-4703-4ae2-a6f9-5df71150b246","ios":"levelo://app?vid=d039875f-4703-4ae2-a6f9-5df71150b246"},"vehicle_type_id":"4","last_reported":1725703681,"current_range_meters":20000,"station_id":"ce4bgup2rcd13ifvqco0","pricing_plan_id":"cebpf4jnsgd1na2vs0mg"},{"bike_id":"e328eaba-ad57-42dd-a998-da094091a78f","system_id":"levelo_inurba_marseille","lat":43.309589,"lon":5.390258,"is_reserved":false,"is_disabled":false,"rental_uris":{"android":"levelo://app?vid=e328eaba-ad57-42dd-a998-da094091a78f","ios":"levelo://app?vid=e328eaba-ad57-42dd-a998-da094091a78f"},"vehicle_type_id":"4","last_reported":1725703681,"current_range_meters":27200,"station_id":"ce4bgup2rcd13ifvqco0","pricing_plan_id":"cebpf4jnsgd1na2vs0mg"},{"bike_id":"9f5a887e-99b1-4866-8b69-f23064318474","system_id":"levelo_inurba_marseille","lat":43.299243,"lon":5.374807,"is_reserved":false,"is_disabled":false,"rental_uris":{"android":"levelo://app?vid=9f5a887e-99b1-4866-8b69-f23064318474","ios":"levelo://app?vid=9f5a887e-99b1-4866-8b69-f23064318474"},"vehicle_type_id":"4","last_reported":1725703681,"current_range_meters":17200,"station_id":"ce4bgjh2rcd13ifvqbg0","pricing_plan_id":"cebpf4jnsgd1na2vs0mg"},{"bike_id":"c0387abf-b428-49ed-a96b-aeefec5f00c7","system_id":"levelo_inurba_marseille","lat":43.317557,"lon":5.390173,"is_reserved":false,"is_disabled":false,"rental_uris":{"android":"levelo://app?vid=c0387abf-b428-49ed-a96b-aeefec5f00c7","ios":"levelo://app?vid=c0387abf-b428-49ed-a96b-aeefec5f00c7"},"vehicle_type_id":"4","last_reported":1725703681,"current_range_meters":31600,"station_id":"ce4bhqp2rcd13ifvqhng","pricing_plan_id":"cebpf4jnsgd1na2vs0mg"},{"bike_id":"5f4ebdc2-f7e1-47ff-80dd-d61dddd5efc5","system_id":"levelo_inurba_marseille","lat":43.317557,"lon":5.390173,"is_reserved":false,"is_disabled":false,"rental_uris":{"android":"levelo://app?vid=5f4ebdc2-f7e1-47ff-80dd-d61dddd5efc5","ios":"levelo://app?vid=5f4ebdc2-f7e1-47ff-80dd-d61dddd5efc5"},"vehicle_type_id":"4","last_reported":1725703681,"current_range_meters":15200,"station_id":"ce4bhqp2rcd13ifvqhng","pricing_plan_id":"cebpf4jnsgd1na2vs0mg"},{"bike_id":"10f69fe8-7773-460f-8cbc-84d5043d302b","system_id":"levelo_inurba_marseille","lat":43.32253,"lon":5.387034,"is_reserved":false,"is_disabled":false,"rental_uris":{"android":"levelo://app?vid=10f69fe8-7773-460f-8cbc-84d5043d302b","ios":"levelo://app?vid=10f69fe8-7773-460f-8cbc-84d5043d302b"},"vehicle_type_id":"4","last_reported":1725703681,"current_range_meters":23600,"station_id":"","pricing_plan_id":"cebpf4jnsgd1na2vs0mg"},{"bike_id":"f9a353a7-ec16-4176-baab-3b1b5a4691b6","system_id":"levelo_inurba_marseille","lat":43.317557,"lon":5.390173,"is_reserved":false,"is_disabled":false,"rental_uris":{"android":"levelo://app?vid=f9a353a7-ec16-4176-baab-3b1b5a4691b6","ios":"levelo://app?vid=f9a353a7-ec16-4176-baab-3b1b5a4691b6"},"vehicle_type_id":"4","last_reported":1725703681,"current_range_meters":30800,"station_id":"ce4bhqp2rcd13ifvqhng","pricing_plan_id":"cebpf4jnsgd1na2vs0mg"},{"bike_id":"8d82f581-725d-4f46-9820-6dc8826058f5","system_id":"levelo_inurba_marseille","lat":43.31752,"lon":5.39026,"is_reserved":false,"is_disabled":false,"rental_uris":{"android":"levelo://app?vid=8d82f581-725d-4f46-9820-6dc8826058f5","ios":"levelo://app?vid=8d82f581-725d-4f46-9820-6dc8826058f5"},"vehicle_type_id":"4","last_reported":1725703681,"current_range_meters":30000,"station_id":"ce4bhqp2rcd13ifvqhng","pricing_plan_id":"cebpf4jnsgd1na2vs0mg"},{"bike_id":"2f14874d-58e9-49bc-8c17-5a8ff5132007","system_id":"levelo_inurba_marseille","lat":43.317557,"lon":5.390173,"is_reserved":false,"is_disabled":false,"rental_uris":{"android":"levelo://app?vid=2f14874d-58e9-49bc-8c17-5a8ff5132007","ios":"levelo://app?vid=2f14874d-58e9-49bc-8c17-5a8ff5132007"},"vehicle_type_id":"4","last_reported":1725703681,"current_range_meters":19600,"station_id":"ce4bhqp2rcd13ifvqhng","pricing_plan_id":"cebpf4jnsgd1na2vs0mg"},{"bike_id":"3aa25bc0-a2c6-42cf-80e8-c7ff68d2ac7e","system_id":"levelo_inurba_marseille","lat":43.298037,"lon":5.381066,"is_reserved":false,"is_disabled":false,"rental_uris":{"android":"levelo://app?vid=3aa25bc0-a2c6-42cf-80e8-c7ff68d2ac7e","ios":"levelo://app?vid=3aa25bc0-a2c6-42cf-80e8-c7ff68d2ac7e"},"vehicle_type_id":"4","last_reported":1725703681,"current_range_meters":23200,"station_id":"ce4bgip2rcd13ifvqbb0","pricing_plan_id":"cebpf4jnsgd1na2vs0mg"},{"bike_id":"b36c6e43-7a80-4378-ac09-3ffa1bb0e3f3","system_id":"levelo_inurba_marseille","lat":43.298037,"lon":5.381066,"is_reserved":false,"is_disabled":false,"rental_uris":{"android":"levelo://app?vid=b36c6e43-7a80-4378-ac09-3ffa1bb0e3f3","ios":"levelo://app?vid=b36c6e43-7a80-4378-ac09-3ffa1bb0e3f3"},"vehicle_type_id":"4","last_reported":1725703681,"current_range_meters":7200,"station_id":"ce4bgip2rcd13ifvqbb0","pricing_plan_id":"cebpf4jnsgd1na2vs0mg"},{"bike_id":"541c2641-7a80-48fe-896f-81972b36045c","system_id":"levelo_inurba_marseille","lat":43.295748,"lon":5.37522,"is_reserved":false,"is_disabled":false,"rental_uris":{"android":"levelo://app?vid=541c2641-7a80-48fe-896f-81972b36045c","ios":"levelo://app?vid=541c2641-7a80-48fe-896f-81972b36045c"},"vehicle_type_id":"4","last_reported":1725703681,"current_range_meters":7200,"station_id":"ce4bgh92rcd13ifvqb50","pricing_plan_id":"cebpf4jnsgd1na2vs0mg"},{"bike_id":"ef4f759b-1d1e-40fd-a515-10069ae8c6a5","system_id":"levelo_inurba_marseille","lat":43.298037,"lon":5.381066,"is_reserved":false,"is_disabled":false,"rental_uris":{"android":"levelo://app?vid=ef4f759b-1d1e-40fd-a515-10069ae8c6a5","ios":"levelo://app?vid=ef4f759b-1d1e-40fd-a515-10069ae8c6a5"},"vehicle_type_id":"4","last_reported":1725703681,"current_range_meters":31200,"station_id":"ce4bgip2rcd13ifvqbb0","pricing_plan_id":"cebpf4jnsgd1na2vs0mg"},{"bike_id":"bd7da55e-34ff-44df-a9f4-ae8ce383705e","system_id":"levelo_inurba_marseille","lat":43.29581,"lon":5.37521,"is_reserved":false,"is_disabled":false,"rental_uris":{"android":"levelo://app?vid=bd7da55e-34ff-44df-a9f4-ae8ce383705e","ios":"levelo://app?vid=bd7da55e-34ff-44df-a9f4-ae8ce383705e"},"vehicle_type_id":"4","last_reported":1725703681,"current_range_meters":10400,"station_id":"ce4bgh92rcd13ifvqb50","pricing_plan_id":"cebpf4jnsgd1na2vs0mg"},{"bike_id":"6d873b5d-d9e1-47d0-942e-7c1c1ba0f795","system_id":"levelo_inurba_marseille","lat":43.298037,"lon":5.381066,"is_reserved":false,"is_disabled":false,"rental_uris":{"android":"levelo://app?vid=6d873b5d-d9e1-47d0-942e-7c1c1ba0f795","ios":"levelo://app?vid=6d873b5d-d9e1-47d0-942e-7c1c1ba0f795"},"vehicle_type_id":"4","last_reported":1725703681,"current_range_meters":31600,"station_id":"ce4bgip2rcd13ifvqbb0","pricing_plan_id":"cebpf4jnsgd1na2vs0mg"},{"bike_id":"5b289a66-79d7-4c72-99c1-19f731c2dc6f","system_id":"levelo_inurba_marseille","lat":43.295748,"lon":5.37522,"is_reserved":false,"is_disabled":false,"rental_uris":{"android":"levelo://app?vid=5b289a66-79d7-4c72-99c1-19f731c2dc6f","ios":"levelo://app?vid=5b289a66-79d7-4c72-99c1-19f731c2dc6f"},"vehicle_type_id":"4","last_reported":1725703681,"current_range_meters":26400,"station_id":"ce4bgh92rcd13ifvqb50","pricing_plan_id":"cebpf4jnsgd1na2vs0mg"},{"bike_id":"68815aee-913b-4a8c-9fd0-9c849e8cbc57","system_id":"levelo_inurba_marseille","lat":43.295748,"lon":5.37522,"is_reserved":false,"is_disabled":false,"rental_uris":{"android":"levelo://app?vid=68815aee-913b-4a8c-9fd0-9c849e8cbc57","ios":"levelo://app?vid=68815aee-913b-4a8c-9fd0-9c849e8cbc57"},"vehicle_type_id":"4","last_reported":1725703681,"current_range_meters":20800,"station_id":"ce4bgh92rcd13ifvqb50","pricing_plan_id":"cebpf4jnsgd1na2vs0mg"},{"bike_id":"9468cd9d-81aa-46d5-a88c-85330cdf7f9b","system_id":"levelo_inurba_marseille","lat":43.295748,"lon":5.37522,"is_reserved":false,"is_disabled":false,"rental_uris":{"android":"levelo://app?vid=9468cd9d-81aa-46d5-a88c-85330cdf7f9b","ios":"levelo://app?vid=9468cd9d-81aa-46d5-a88c-85330cdf7f9b"},"vehicle_type_id":"4","last_reported":1725703681,"current_range_meters":6800,"station_id":"ce4bgh92rcd13ifvqb50","pricing_plan_id":"cebpf4jnsgd1na2vs0mg"},{"bike_id":"c360eb54-c043-4a2b-a5de-0562dc853784","system_id":"levelo_inurba_marseille","lat":43.29793,"lon":5.380987,"is_reserved":false,"is_disabled":false,"rental_uris":{"android":"levelo://app?vid=c360eb54-c043-4a2b-a5de-0562dc853784","ios":"levelo://app?vid=c360eb54-c043-4a2b-a5de-0562dc853784"},"vehicle_type_id":"4","last_reported":1725703681,"current_range_meters":6400,"station_id":"ce4bgip2rcd13ifvqbb0","pricing_plan_id":"cebpf4jnsgd1na2vs0mg"},{"bike_id":"7e6c980a-dea4-42b8-a264-1640a9862344","system_id":"levelo_inurba_marseille","lat":43.304274,"lon":5.388873,"is_reserved":false,"is_disabled":false,"rental_uris":{"android":"levelo://app?vid=7e6c980a-dea4-42b8-a264-1640a9862344","ios":"levelo://app?vid=7e6c980a-dea4-42b8-a264-1640a9862344"},"vehicle_type_id":"4","last_reported":1725703681,"current_range_meters":10000,"station_id":"ce4bgk12rcd13ifvqbi0","pricing_plan_id":"cebpf4jnsgd1na2vs0mg"},{"bike_id":"46dff643-1afa-4c94-bf35-80a5aa2ada46","system_id":"levelo_inurba_marseille","lat":43.295748,"lon":5.37522,"is_reserved":false,"is_disabled":false,"rental_uris":{"android":"levelo://app?vid=46dff643-1afa-4c94-bf35-80a5aa2ada46","ios":"levelo://app?vid=46dff643-1afa-4c94-bf35-80a5aa2ada46"},"vehicle_type_id":"4","last_reported":1725703681,"current_range_meters":31600,"station_id":"ce4bgh92rcd13ifvqb50","pricing_plan_id":"cebpf4jnsgd1na2vs0mg"},{"bike_id":"33a13210-98d2-4686-bc87-fb2e568add25","system_id":"levelo_inurba_marseille","lat":43.295748,"lon":5.37522,"is_reserved":false,"is_disabled":false,"rental_uris":{"android":"levelo://app?vid=33a13210-98d2-4686-bc87-fb2e568add25","ios":"levelo://app?vid=33a13210-98d2-4686-bc87-fb2e568add25"},"vehicle_type_id":"4","last_reported":1725703681,"current_range_meters":28800,"station_id":"ce4bgh92rcd13ifvqb50","pricing_plan_id":"cebpf4jnsgd1na2vs0mg"},{"bike_id":"728e8465-21b6-4106-8649-8003e6acd4b4","system_id":"levelo_inurba_marseille","lat":43.295748,"lon":5.37522,"is_reserved":false,"is_disabled":false,"rental_uris":{"android":"levelo://app?vid=728e8465-21b6-4106-8649-8003e6acd4b4","ios":"levelo://app?vid=728e8465-21b6-4106-8649-8003e6acd4b4"},"vehicle_type_id":"4","last_reported":1725703681,"current_range_meters":14800,"station_id":"ce4bgh92rcd13ifvqb50","pricing_plan_id":"cebpf4jnsgd1na2vs0mg"},{"bike_id":"2d9cb345-3447-492e-bba2-aaa21265c911","system_id":"levelo_inurba_marseille","lat":43.295748,"lon":5.37522,"is_reserved":false,"is_disabled":false,"rental_uris":{"android":"levelo://app?vid=2d9cb345-3447-492e-bba2-aaa21265c911","ios":"levelo://app?vid=2d9cb345-3447-492e-bba2-aaa21265c911"},"vehicle_type_id":"4","last_reported":1725703681,"current_range_meters":31200,"station_id":"ce4bgh92rcd13ifvqb50","pricing_plan_id":"cebpf4jnsgd1na2vs0mg"},{"bike_id":"7bae5f6d-ecff-4791-b647-8ea08cd31294","system_id":"levelo_inurba_marseille","lat":43.295748,"lon":5.37522,"is_reserved":false,"is_disabled":false,"rental_uris":{"android":"levelo://app?vid=7bae5f6d-ecff-4791-b647-8ea08cd31294","ios":"levelo://app?vid=7bae5f6d-ecff-4791-b647-8ea08cd31294"},"vehicle_type_id":"4","last_reported":1725703681,"current_range_meters":14800,"station_id":"ce4bgh92rcd13ifvqb50","pricing_plan_id":"cebpf4jnsgd1na2vs0mg"},{"bike_id":"af200fd2-8c49-4d08-bf03-e84aebfdbc88","system_id":"levelo_inurba_marseille","lat":43.29574,"lon":5.37521,"is_reserved":false,"is_disabled":false,"rental_uris":{"android":"levelo://app?vid=af200fd2-8c49-4d08-bf03-e84aebfdbc88","ios":"levelo://app?vid=af200fd2-8c49-4d08-bf03-e84aebfdbc88"},"vehicle_type_id":"4","last_reported":1725703681,"current_range_meters":18400,"station_id":"ce4bgh92rcd13ifvqb50","pricing_plan_id":"cebpf4jnsgd1na2vs0mg"},{"bike_id":"3c0557e5-ab2d-4013-974f-de90c5018997","system_id":"levelo_inurba_marseille","lat":43.29569,"lon":5.37507,"is_reserved":false,"is_disabled":false,"rental_uris":{"android":"levelo://app?vid=3c0557e5-ab2d-4013-974f-de90c5018997","ios":"levelo://app?vid=3c0557e5-ab2d-4013-974f-de90c5018997"},"vehicle_type_id":"4","last_reported":1725703681,"current_range_meters":11200,"station_id":"ce4bgh92rcd13ifvqb50","pricing_plan_id":"cebpf4jnsgd1na2vs0mg"},{"bike_id":"4c3808fe-da49-405d-aae7-247b3fbda2b6","system_id":"levelo_inurba_marseille","lat":43.29654,"lon":5.37787,"is_reserved":false,"is_disabled":false,"rental_uris":{"android":"levelo://app?vid=4c3808fe-da49-405d-aae7-247b3fbda2b6","ios":"levelo://app?vid=4c3808fe-da49-405d-aae7-247b3fbda2b6"},"vehicle_type_id":"4","last_reported":1725703681,"current_range_meters":14800,"station_id":"","pricing_plan_id":"cebpf4jnsgd1na2vs0mg"},{"bike_id":"065d6cce-0c9d-4563-a7ff-b4ab29da5e63","system_id":"levelo_inurba_marseille","lat":43.304278,"lon":5.388868,"is_reserved":false,"is_disabled":false,"rental_uris":{"android":"levelo://app?vid=065d6cce-0c9d-4563-a7ff-b4ab29da5e63","ios":"levelo://app?vid=065d6cce-0c9d-4563-a7ff-b4ab29da5e63"},"vehicle_type_id":"4","last_reported":1725703681,"current_range_meters":11600,"station_id":"ce4bgk12rcd13ifvqbi0","pricing_plan_id":"cebpf4jnsgd1na2vs0mg"},{"bike_id":"3f25224d-6602-4ad8-b90b-f4c654bfe2e3","system_id":"levelo_inurba_marseille","lat":43.29572,"lon":5.3752,"is_reserved":false,"is_disabled":false,"rental_uris":{"android":"levelo://app?vid=3f25224d-6602-4ad8-b90b-f4c654bfe2e3","ios":"levelo://app?vid=3f25224d-6602-4ad8-b90b-f4c654bfe2e3"},"vehicle_type_id":"4","last_reported":1725703681,"current_range_meters":31200,"station_id":"ce4bgh92rcd13ifvqb50","pricing_plan_id":"cebpf4jnsgd1na2vs0mg"},{"bike_id":"49d9d55a-e6e5-46ab-8bcd-0e2689991c27","system_id":"levelo_inurba_marseille","lat":43.29573,"lon":5.37525,"is_reserved":false,"is_disabled":false,"rental_uris":{"android":"levelo://app?vid=49d9d55a-e6e5-46ab-8bcd-0e2689991c27","ios":"levelo://app?vid=49d9d55a-e6e5-46ab-8bcd-0e2689991c27"},"vehicle_type_id":"4","last_reported":1725703681,"current_range_meters":8800,"station_id":"ce4bgh92rcd13ifvqb50","pricing_plan_id":"cebpf4jnsgd1na2vs0mg"},{"bike_id":"a48cebd5-3af0-4dc2-9f3c-62c8f2b62e7d","system_id":"levelo_inurba_marseille","lat":43.29634,"lon":5.37732,"is_reserved":false,"is_disabled":false,"rental_uris":{"android":"levelo://app?vid=a48cebd5-3af0-4dc2-9f3c-62c8f2b62e7d","ios":"levelo://app?vid=a48cebd5-3af0-4dc2-9f3c-62c8f2b62e7d"},"vehicle_type_id":"4","last_reported":1725703681,"current_range_meters":8400,"station_id":"ce4bgi92rcd13ifvqb90","pricing_plan_id":"cebpf4jnsgd1na2vs0mg"},{"bike_id":"913419af-7918-494d-89d0-4f895024369d","system_id":"levelo_inurba_marseille","lat":43.295748,"lon":5.37522,"is_reserved":false,"is_disabled":false,"rental_uris":{"android":"levelo://app?vid=913419af-7918-494d-89d0-4f895024369d","ios":"levelo://app?vid=913419af-7918-494d-89d0-4f895024369d"},"vehicle_type_id":"4","last_reported":1725703681,"current_range_meters":400,"station_id":"ce4bgh92rcd13ifvqb50","pricing_plan_id":"cebpf4jnsgd1na2vs0mg"},{"bike_id":"a06ae1a6-54e4-443f-8d22-b79c6b3b5d9b","system_id":"levelo_inurba_marseille","lat":43.304278,"lon":5.388868,"is_reserved":false,"is_disabled":false,"rental_uris":{"android":"levelo://app?vid=a06ae1a6-54e4-443f-8d22-b79c6b3b5d9b","ios":"levelo://app?vid=a06ae1a6-54e4-443f-8d22-b79c6b3b5d9b"},"vehicle_type_id":"4","last_reported":1725703681,"current_range_meters":16000,"station_id":"ce4bgk12rcd13ifvqbi0","pricing_plan_id":"cebpf4jnsgd1na2vs0mg"},{"bike_id":"d9f9983c-1511-4e6a-b34e-a7afc8352505","system_id":"levelo_inurba_marseille","lat":43.295697,"lon":5.375191,"is_reserved":false,"is_disabled":false,"rental_uris":{"android":"levelo://app?vid=d9f9983c-1511-4e6a-b34e-a7afc8352505","ios":"levelo://app?vid=d9f9983c-1511-4e6a-b34e-a7afc8352505"},"vehicle_type_id":"4","last_reported":1725703681,"current_range_meters":26000,"station_id":"ce4bgh92rcd13ifvqb50","pricing_plan_id":"cebpf4jnsgd1na2vs0mg"},{"bike_id":"bea130b1-37c0-4b96-9329-6cb7e4caf1e2","system_id":"levelo_inurba_marseille","lat":43.298037,"lon":5.381066,"is_reserved":false,"is_disabled":false,"rental_uris":{"android":"levelo://app?vid=bea130b1-37c0-4b96-9329-6cb7e4caf1e2","ios":"levelo://app?vid=bea130b1-37c0-4b96-9329-6cb7e4caf1e2"},"vehicle_type_id":"4","last_reported":1725703681,"current_range_meters":24400,"station_id":"ce4bgip2rcd13ifvqbb0","pricing_plan_id":"cebpf4jnsgd1na2vs0mg"},{"bike_id":"b0a0f4ac-5fa4-41f6-bc9a-61308e48c125","system_id":"levelo_inurba_marseille","lat":43.29567,"lon":5.37512,"is_reserved":false,"is_disabled":false,"rental_uris":{"android":"levelo://app?vid=b0a0f4ac-5fa4-41f6-bc9a-61308e48c125","ios":"levelo://app?vid=b0a0f4ac-5fa4-41f6-bc9a-61308e48c125"},"vehicle_type_id":"4","last_reported":1725703681,"current_range_meters":23200,"station_id":"ce4bgh92rcd13ifvqb50","pricing_plan_id":"cebpf4jnsgd1na2vs0mg"},{"bike_id":"940f1a52-e53b-48d9-bb73-5fcff586c21a","system_id":"levelo_inurba_marseille","lat":43.298037,"lon":5.381066,"is_reserved":false,"is_disabled":false,"rental_uris":{"android":"levelo://app?vid=940f1a52-e53b-48d9-bb73-5fcff586c21a","ios":"levelo://app?vid=940f1a52-e53b-48d9-bb73-5fcff586c21a"},"vehicle_type_id":"4","last_reported":1725703681,"current_range_meters":22800,"station_id":"ce4bgip2rcd13ifvqbb0","pricing_plan_id":"cebpf4jnsgd1na2vs0mg"},{"bike_id":"b4ea4254-ec19-46f6-b931-c92216e117bf","system_id":"levelo_inurba_marseille","lat":43.29568,"lon":5.37527,"is_reserved":false,"is_disabled":false,"rental_uris":{"android":"levelo://app?vid=b4ea4254-ec19-46f6-b931-c92216e117bf","ios":"levelo://app?vid=b4ea4254-ec19-46f6-b931-c92216e117bf"},"vehicle_type_id":"4","last_reported":1725703681,"current_range_meters":25600,"station_id":"ce4bgh92rcd13ifvqb50","pricing_plan_id":"cebpf4jnsgd1na2vs0mg"},{"bike_id":"9a329ac9-5253-4487-9604-811780de81ca","system_id":"levelo_inurba_marseille","lat":43.295627,"lon":5.37514,"is_reserved":false,"is_disabled":false,"rental_uris":{"android":"levelo://app?vid=9a329ac9-5253-4487-9604-811780de81ca","ios":"levelo://app?vid=9a329ac9-5253-4487-9604-811780de81ca"},"vehicle_type_id":"4","last_reported":1725703681,"current_range_meters":8800,"station_id":"ce4bgh92rcd13ifvqb50","pricing_plan_id":"cebpf4jnsgd1na2vs0mg"},{"bike_id":"c11473f3-058e-4145-ba2e-3779a93f6cc2","system_id":"levelo_inurba_marseille","lat":43.296263,"lon":5.377094,"is_reserved":false,"is_disabled":false,"rental_uris":{"android":"levelo://app?vid=c11473f3-058e-4145-ba2e-3779a93f6cc2","ios":"levelo://app?vid=c11473f3-058e-4145-ba2e-3779a93f6cc2"},"vehicle_type_id":"4","last_reported":1725703681,"current_range_meters":24800,"station_id":"ce4bgi92rcd13ifvqb90","pricing_plan_id":"cebpf4jnsgd1na2vs0mg"},{"bike_id":"b8caa5cb-1259-452d-ad34-064ac02aebbe","system_id":"levelo_inurba_marseille","lat":43.29624,"lon":5.37727,"is_reserved":false,"is_disabled":false,"rental_uris":{"android":"levelo://app?vid=b8caa5cb-1259-452d-ad34-064ac02aebbe","ios":"levelo://app?vid=b8caa5cb-1259-452d-ad34-064ac02aebbe"},"vehicle_type_id":"4","last_reported":1725703681,"current_range_meters":26400,"station_id":"ce4bgi92rcd13ifvqb90","pricing_plan_id":"cebpf4jnsgd1na2vs0mg"},{"bike_id":"2ef807b3-13f3-4bbe-9c80-e2bb98f6a363","system_id":"levelo_inurba_marseille","lat":43.296263,"lon":5.377094,"is_reserved":false,"is_disabled":false,"rental_uris":{"android":"levelo://app?vid=2ef807b3-13f3-4bbe-9c80-e2bb98f6a363","ios":"levelo://app?vid=2ef807b3-13f3-4bbe-9c80-e2bb98f6a363"},"vehicle_type_id":"4","last_reported":1725703681,"current_range_meters":26000,"station_id":"ce4bgi92rcd13ifvqb90","pricing_plan_id":"cebpf4jnsgd1na2vs0mg"},{"bike_id":"11bdd935-f6c5-4337-b6ea-3a73969dee1d","system_id":"levelo_inurba_marseille","lat":43.29616,"lon":5.3772,"is_reserved":false,"is_disabled":false,"rental_uris":{"android":"levelo://app?vid=11bdd935-f6c5-4337-b6ea-3a73969dee1d","ios":"levelo://app?vid=11bdd935-f6c5-4337-b6ea-3a73969dee1d"},"vehicle_type_id":"4","last_reported":1725703681,"current_range_meters":29200,"station_id":"ce4bgi92rcd13ifvqb90","pricing_plan_id":"cebpf4jnsgd1na2vs0mg"},{"bike_id":"d209718c-c346-41d5-87f0-75be6ad2a89d","system_id":"levelo_inurba_marseille","lat":43.29614,"lon":5.37714,"is_reserved":false,"is_disabled":false,"rental_uris":{"android":"levelo://app?vid=d209718c-c346-41d5-87f0-75be6ad2a89d","ios":"levelo://app?vid=d209718c-c346-41d5-87f0-75be6ad2a89d"},"vehicle_type_id":"4","last_reported":1725703681,"current_range_meters":14400,"station_id":"ce4bgi92rcd13ifvqb90","pricing_plan_id":"cebpf4jnsgd1na2vs0mg"},{"bike_id":"39f102e8-abab-4d94-b489-122169fe4749","system_id":"levelo_inurba_marseille","lat":43.29611,"lon":5.377063,"is_reserved":false,"is_disabled":false,"rental_uris":{"android":"levelo://app?vid=39f102e8-abab-4d94-b489-122169fe4749","ios":"levelo://app?vid=39f102e8-abab-4d94-b489-122169fe4749"},"vehicle_type_id":"4","last_reported":1725703681,"current_range_meters":6400,"station_id":"ce4bgi92rcd13ifvqb90","pricing_plan_id":"cebpf4jnsgd1na2vs0mg"},{"bike_id":"122139dc-d24f-4bf0-b9e6-7253efac9e25","system_id":"levelo_inurba_marseille","lat":43.29616,"lon":5.37724,"is_reserved":false,"is_disabled":false,"rental_uris":{"android":"levelo://app?vid=122139dc-d24f-4bf0-b9e6-7253efac9e25","ios":"levelo://app?vid=122139dc-d24f-4bf0-b9e6-7253efac9e25"},"vehicle_type_id":"4","last_reported":1725703681,"current_range_meters":17600,"station_id":"ce4bgi92rcd13ifvqb90","pricing_plan_id":"cebpf4jnsgd1na2vs0mg"},{"bike_id":"3c877c20-f003-46c9-925a-2a839f614a15","system_id":"levelo_inurba_marseille","lat":43.295279,"lon":5.375048,"is_reserved":false,"is_disabled":false,"rental_uris":{"android":"levelo://app?vid=3c877c20-f003-46c9-925a-2a839f614a15","ios":"levelo://app?vid=3c877c20-f003-46c9-925a-2a839f614a15"},"vehicle_type_id":"4","last_reported":1725703681,"current_range_meters":3600,"station_id":"ce4bgkp2rcd13ifvqbmg","pricing_plan_id":"cebpf4jnsgd1na2vs0mg"},{"bike_id":"fece4a65-eb64-48fc-9068-25756f84ad2a","system_id":"levelo_inurba_marseille","lat":43.296263,"lon":5.377094,"is_reserved":false,"is_disabled":false,"rental_uris":{"android":"levelo://app?vid=fece4a65-eb64-48fc-9068-25756f84ad2a","ios":"levelo://app?vid=fece4a65-eb64-48fc-9068-25756f84ad2a"},"vehicle_type_id":"4","last_reported":1725703681,"current_range_meters":20400,"station_id":"ce4bgi92rcd13ifvqb90","pricing_plan_id":"cebpf4jnsgd1na2vs0mg"},{"bike_id":"8d193f7e-c7af-4fba-a4c3-2483327edb82","system_id":"levelo_inurba_marseille","lat":43.296263,"lon":5.377094,"is_reserved":false,"is_disabled":false,"rental_uris":{"android":"levelo://app?vid=8d193f7e-c7af-4fba-a4c3-2483327edb82","ios":"levelo://app?vid=8d193f7e-c7af-4fba-a4c3-2483327edb82"},"vehicle_type_id":"4","last_reported":1725703681,"current_range_meters":14000,"station_id":"ce4bgi92rcd13ifvqb90","pricing_plan_id":"cebpf4jnsgd1na2vs0mg"},{"bike_id":"380bfb31-106e-4f1f-a95d-2373870d9faf","system_id":"levelo_inurba_marseille","lat":43.296277,"lon":5.377108,"is_reserved":false,"is_disabled":false,"rental_uris":{"android":"levelo://app?vid=380bfb31-106e-4f1f-a95d-2373870d9faf","ios":"levelo://app?vid=380bfb31-106e-4f1f-a95d-2373870d9faf"},"vehicle_type_id":"4","last_reported":1725703681,"current_range_meters":14000,"station_id":"ce4bgi92rcd13ifvqb90","pricing_plan_id":"cebpf4jnsgd1na2vs0mg"},{"bike_id":"7a3070cb-1b56-4920-baba-a1c8077a677d","system_id":"levelo_inurba_marseille","lat":43.295279,"lon":5.375048,"is_reserved":false,"is_disabled":false,"rental_uris":{"android":"levelo://app?vid=7a3070cb-1b56-4920-baba-a1c8077a677d","ios":"levelo://app?vid=7a3070cb-1b56-4920-baba-a1c8077a677d"},"vehicle_type_id":"4","last_reported":1725703681,"current_range_meters":23200,"station_id":"ce4bgkp2rcd13ifvqbmg","pricing_plan_id":"cebpf4jnsgd1na2vs0mg"},{"bike_id":"fdebefa6-052a-4bde-b333-fb04d0f6dbf5","system_id":"levelo_inurba_marseille","lat":43.299707,"lon":5.384859,"is_reserved":false,"is_disabled":false,"rental_uris":{"android":"levelo://app?vid=fdebefa6-052a-4bde-b333-fb04d0f6dbf5","ios":"levelo://app?vid=fdebefa6-052a-4bde-b333-fb04d0f6dbf5"},"vehicle_type_id":"4","last_reported":1725703681,"current_range_meters":28400,"station_id":"ce4bgj92rcd13ifvqbd0","pricing_plan_id":"cebpf4jnsgd1na2vs0mg"},{"bike_id":"df822c16-0b69-4e2c-9159-9d7b13276abf","system_id":"levelo_inurba_marseille","lat":43.296277,"lon":5.377108,"is_reserved":false,"is_disabled":false,"rental_uris":{"android":"levelo://app?vid=df822c16-0b69-4e2c-9159-9d7b13276abf","ios":"levelo://app?vid=df822c16-0b69-4e2c-9159-9d7b13276abf"},"vehicle_type_id":"4","last_reported":1725703681,"current_range_meters":15200,"station_id":"ce4bgi92rcd13ifvqb90","pricing_plan_id":"cebpf4jnsgd1na2vs0mg"},{"bike_id":"eed70830-c1f7-4007-8eb9-d271fddbecb6","system_id":"levelo_inurba_marseille","lat":43.295279,"lon":5.375048,"is_reserved":false,"is_disabled":false,"rental_uris":{"android":"levelo://app?vid=eed70830-c1f7-4007-8eb9-d271fddbecb6","ios":"levelo://app?vid=eed70830-c1f7-4007-8eb9-d271fddbecb6"},"vehicle_type_id":"4","last_reported":1725703681,"current_range_meters":14800,"station_id":"ce4bgkp2rcd13ifvqbmg","pricing_plan_id":"cebpf4jnsgd1na2vs0mg"},{"bike_id":"4b4d65bb-334f-47eb-8c6f-b22eb47d531b","system_id":"levelo_inurba_marseille","lat":43.295279,"lon":5.375048,"is_reserved":false,"is_disabled":false,"rental_uris":{"android":"levelo://app?vid=4b4d65bb-334f-47eb-8c6f-b22eb47d531b","ios":"levelo://app?vid=4b4d65bb-334f-47eb-8c6f-b22eb47d531b"},"vehicle_type_id":"4","last_reported":1725703681,"current_range_meters":12400,"station_id":"ce4bgkp2rcd13ifvqbmg","pricing_plan_id":"cebpf4jnsgd1na2vs0mg"},{"bike_id":"5343f520-6158-4efb-b9bc-75d83adc9eeb","system_id":"levelo_inurba_marseille","lat":43.295279,"lon":5.375048,"is_reserved":false,"is_disabled":false,"rental_uris":{"android":"levelo://app?vid=5343f520-6158-4efb-b9bc-75d83adc9eeb","ios":"levelo://app?vid=5343f520-6158-4efb-b9bc-75d83adc9eeb"},"vehicle_type_id":"4","last_reported":1725703681,"current_range_meters":31200,"station_id":"ce4bgkp2rcd13ifvqbmg","pricing_plan_id":"cebpf4jnsgd1na2vs0mg"},{"bike_id":"e15cc650-1c9c-41c8-ab63-fe4af26311ba","system_id":"levelo_inurba_marseille","lat":43.295279,"lon":5.375048,"is_reserved":false,"is_disabled":false,"rental_uris":{"android":"levelo://app?vid=e15cc650-1c9c-41c8-ab63-fe4af26311ba","ios":"levelo://app?vid=e15cc650-1c9c-41c8-ab63-fe4af26311ba"},"vehicle_type_id":"4","last_reported":1725703681,"current_range_meters":8800,"station_id":"ce4bgkp2rcd13ifvqbmg","pricing_plan_id":"cebpf4jnsgd1na2vs0mg"},{"bike_id":"f4e104e0-c70e-4f69-8b87-f35765016f57","system_id":"levelo_inurba_marseille","lat":43.295279,"lon":5.375048,"is_reserved":false,"is_disabled":false,"rental_uris":{"android":"levelo://app?vid=f4e104e0-c70e-4f69-8b87-f35765016f57","ios":"levelo://app?vid=f4e104e0-c70e-4f69-8b87-f35765016f57"},"vehicle_type_id":"4","last_reported":1725703681,"current_range_meters":10800,"station_id":"ce4bgkp2rcd13ifvqbmg","pricing_plan_id":"cebpf4jnsgd1na2vs0mg"},{"bike_id":"f50245ac-3ca8-4b51-9708-afa52179a8f2","system_id":"levelo_inurba_marseille","lat":43.299707,"lon":5.384859,"is_reserved":false,"is_disabled":false,"rental_uris":{"android":"levelo://app?vid=f50245ac-3ca8-4b51-9708-afa52179a8f2","ios":"levelo://app?vid=f50245ac-3ca8-4b51-9708-afa52179a8f2"},"vehicle_type_id":"4","last_reported":1725703681,"current_range_meters":26800,"station_id":"ce4bgj92rcd13ifvqbd0","pricing_plan_id":"cebpf4jnsgd1na2vs0mg"},{"bike_id":"0fa1230b-9855-4ef7-b338-1dcdee6e1a07","system_id":"levelo_inurba_marseille","lat":43.299707,"lon":5.384859,"is_reserved":false,"is_disabled":false,"rental_uris":{"android":"levelo://app?vid=0fa1230b-9855-4ef7-b338-1dcdee6e1a07","ios":"levelo://app?vid=0fa1230b-9855-4ef7-b338-1dcdee6e1a07"},"vehicle_type_id":"4","last_reported":1725703681,"current_range_meters":18000,"station_id":"ce4bgj92rcd13ifvqbd0","pricing_plan_id":"cebpf4jnsgd1na2vs0mg"},{"bike_id":"395e0c69-d064-4613-9816-6a4404c01e96","system_id":"levelo_inurba_marseille","lat":43.299707,"lon":5.384859,"is_reserved":false,"is_disabled":false,"rental_uris":{"android":"levelo://app?vid=395e0c69-d064-4613-9816-6a4404c01e96","ios":"levelo://app?vid=395e0c69-d064-4613-9816-6a4404c01e96"},"vehicle_type_id":"4","last_reported":1725703681,"current_range_meters":22000,"station_id":"ce4bgj92rcd13ifvqbd0","pricing_plan_id":"cebpf4jnsgd1na2vs0mg"},{"bike_id":"b1f24ea6-2fd2-40d6-be13-36b416e717ef","system_id":"levelo_inurba_marseille","lat":43.299707,"lon":5.384859,"is_reserved":false,"is_disabled":false,"rental_uris":{"android":"levelo://app?vid=b1f24ea6-2fd2-40d6-be13-36b416e717ef","ios":"levelo://app?vid=b1f24ea6-2fd2-40d6-be13-36b416e717ef"},"vehicle_type_id":"4","last_reported":1725703681,"current_range_meters":24400,"station_id":"ce4bgj92rcd13ifvqbd0","pricing_plan_id":"cebpf4jnsgd1na2vs0mg"},{"bike_id":"9911d343-a704-4639-bf13-d5056b9a7467","system_id":"levelo_inurba_marseille","lat":43.299707,"lon":5.384859,"is_reserved":false,"is_disabled":false,"rental_uris":{"android":"levelo://app?vid=9911d343-a704-4639-bf13-d5056b9a7467","ios":"levelo://app?vid=9911d343-a704-4639-bf13-d5056b9a7467"},"vehicle_type_id":"4","last_reported":1725703681,"current_range_meters":3200,"station_id":"ce4bgj92rcd13ifvqbd0","pricing_plan_id":"cebpf4jnsgd1na2vs0mg"},{"bike_id":"1195f5e8-583f-494f-bd20-9da2e471ecb5","system_id":"levelo_inurba_marseille","lat":43.295279,"lon":5.375048,"is_reserved":false,"is_disabled":false,"rental_uris":{"android":"levelo://app?vid=1195f5e8-583f-494f-bd20-9da2e471ecb5","ios":"levelo://app?vid=1195f5e8-583f-494f-bd20-9da2e471ecb5"},"vehicle_type_id":"4","last_reported":1725703681,"current_range_meters":30800,"station_id":"ce4bgkp2rcd13ifvqbmg","pricing_plan_id":"cebpf4jnsgd1na2vs0mg"},{"bike_id":"48f9ec54-b5a3-496a-9f93-fe497f6c8f0e","system_id":"levelo_inurba_marseille","lat":43.295279,"lon":5.375048,"is_reserved":false,"is_disabled":false,"rental_uris":{"android":"levelo://app?vid=48f9ec54-b5a3-496a-9f93-fe497f6c8f0e","ios":"levelo://app?vid=48f9ec54-b5a3-496a-9f93-fe497f6c8f0e"},"vehicle_type_id":"4","last_reported":1725703681,"current_range_meters":31200,"station_id":"ce4bgkp2rcd13ifvqbmg","pricing_plan_id":"cebpf4jnsgd1na2vs0mg"},{"bike_id":"f141b27e-1001-4818-900e-8f26c35e171e","system_id":"levelo_inurba_marseille","lat":43.299707,"lon":5.384859,"is_reserved":false,"is_disabled":false,"rental_uris":{"android":"levelo://app?vid=f141b27e-1001-4818-900e-8f26c35e171e","ios":"levelo://app?vid=f141b27e-1001-4818-900e-8f26c35e171e"},"vehicle_type_id":"4","last_reported":1725703681,"current_range_meters":28400,"station_id":"ce4bgj92rcd13ifvqbd0","pricing_plan_id":"cebpf4jnsgd1na2vs0mg"},{"bike_id":"60522d62-6f94-4b74-9fd8-473dcbba907d","system_id":"levelo_inurba_marseille","lat":43.29967,"lon":5.38488,"is_reserved":false,"is_disabled":false,"rental_uris":{"android":"levelo://app?vid=60522d62-6f94-4b74-9fd8-473dcbba907d","ios":"levelo://app?vid=60522d62-6f94-4b74-9fd8-473dcbba907d"},"vehicle_type_id":"4","last_reported":1725703681,"current_range_meters":5600,"station_id":"ce4bgj92rcd13ifvqbd0","pricing_plan_id":"cebpf4jnsgd1na2vs0mg"},{"bike_id":"9ea4ef09-af13-44d1-b1cb-bc2c589aa1b4","system_id":"levelo_inurba_marseille","lat":43.29968,"lon":5.3849,"is_reserved":false,"is_disabled":false,"rental_uris":{"android":"levelo://app?vid=9ea4ef09-af13-44d1-b1cb-bc2c589aa1b4","ios":"levelo://app?vid=9ea4ef09-af13-44d1-b1cb-bc2c589aa1b4"},"vehicle_type_id":"4","last_reported":1725703681,"current_range_meters":15200,"station_id":"ce4bgj92rcd13ifvqbd0","pricing_plan_id":"cebpf4jnsgd1na2vs0mg"},{"bike_id":"60236bff-d406-4d45-a4ba-cacfe1989154","system_id":"levelo_inurba_marseille","lat":43.295279,"lon":5.375048,"is_reserved":false,"is_disabled":false,"rental_uris":{"android":"levelo://app?vid=60236bff-d406-4d45-a4ba-cacfe1989154","ios":"levelo://app?vid=60236bff-d406-4d45-a4ba-cacfe1989154"},"vehicle_type_id":"4","last_reported":1725703681,"current_range_meters":28800,"station_id":"ce4bgkp2rcd13ifvqbmg","pricing_plan_id":"cebpf4jnsgd1na2vs0mg"},{"bike_id":"3e815fb5-6875-45b6-95ab-2cc32170d295","system_id":"levelo_inurba_marseille","lat":43.299717,"lon":5.384845,"is_reserved":false,"is_disabled":false,"rental_uris":{"android":"levelo://app?vid=3e815fb5-6875-45b6-95ab-2cc32170d295","ios":"levelo://app?vid=3e815fb5-6875-45b6-95ab-2cc32170d295"},"vehicle_type_id":"4","last_reported":1725703681,"current_range_meters":400,"station_id":"ce4bgj92rcd13ifvqbd0","pricing_plan_id":"cebpf4jnsgd1na2vs0mg"},{"bike_id":"64557734-6997-4e9f-b9ae-c922c679d98b","system_id":"levelo_inurba_marseille","lat":43.299724,"lon":5.384848,"is_reserved":false,"is_disabled":false,"rental_uris":{"android":"levelo://app?vid=64557734-6997-4e9f-b9ae-c922c679d98b","ios":"levelo://app?vid=64557734-6997-4e9f-b9ae-c922c679d98b"},"vehicle_type_id":"4","last_reported":1725703681,"current_range_meters":27200,"station_id":"ce4bgj92rcd13ifvqbd0","pricing_plan_id":"cebpf4jnsgd1na2vs0mg"},{"bike_id":"bdc7ea44-28ef-4d71-b765-4864936316f4","system_id":"levelo_inurba_marseille","lat":43.299717,"lon":5.384845,"is_reserved":false,"is_disabled":false,"rental_uris":{"android":"levelo://app?vid=bdc7ea44-28ef-4d71-b765-4864936316f4","ios":"levelo://app?vid=bdc7ea44-28ef-4d71-b765-4864936316f4"},"vehicle_type_id":"4","last_reported":1725703681,"current_range_meters":0,"station_id":"ce4bgj92rcd13ifvqbd0","pricing_plan_id":"cebpf4jnsgd1na2vs0mg"},{"bike_id":"5802110a-af9b-4e32-9589-b728397f53d6","system_id":"levelo_inurba_marseille","lat":43.299665,"lon":5.38495,"is_reserved":false,"is_disabled":false,"rental_uris":{"android":"levelo://app?vid=5802110a-af9b-4e32-9589-b728397f53d6","ios":"levelo://app?vid=5802110a-af9b-4e32-9589-b728397f53d6"},"vehicle_type_id":"4","last_reported":1725703681,"current_range_meters":0,"station_id":"ce4bgj92rcd13ifvqbd0","pricing_plan_id":"cebpf4jnsgd1na2vs0mg"},{"bike_id":"3584554e-730b-4563-9d68-85a3923ee1c1","system_id":"levelo_inurba_marseille","lat":43.29966,"lon":5.38495,"is_reserved":false,"is_disabled":false,"rental_uris":{"android":"levelo://app?vid=3584554e-730b-4563-9d68-85a3923ee1c1","ios":"levelo://app?vid=3584554e-730b-4563-9d68-85a3923ee1c1"},"vehicle_type_id":"4","last_reported":1725703681,"current_range_meters":12400,"station_id":"ce4bgj92rcd13ifvqbd0","pricing_plan_id":"cebpf4jnsgd1na2vs0mg"},{"bike_id":"0cfdbbe1-d965-48d0-a999-136782bda742","system_id":"levelo_inurba_marseille","lat":43.295279,"lon":5.375048,"is_reserved":false,"is_disabled":false,"rental_uris":{"android":"levelo://app?vid=0cfdbbe1-d965-48d0-a999-136782bda742","ios":"levelo://app?vid=0cfdbbe1-d965-48d0-a999-136782bda742"},"vehicle_type_id":"4","last_reported":1725703681,"current_range_meters":24400,"station_id":"ce4bgkp2rcd13ifvqbmg","pricing_plan_id":"cebpf4jnsgd1na2vs0mg"},{"bike_id":"42035716-5dea-4945-9426-c3338b6af6bc","system_id":"levelo_inurba_marseille","lat":43.29967,"lon":5.385,"is_reserved":false,"is_disabled":false,"rental_uris":{"android":"levelo://app?vid=42035716-5dea-4945-9426-c3338b6af6bc","ios":"levelo://app?vid=42035716-5dea-4945-9426-c3338b6af6bc"},"vehicle_type_id":"4","last_reported":1725703681,"current_range_meters":6000,"station_id":"ce4bgj92rcd13ifvqbd0","pricing_plan_id":"cebpf4jnsgd1na2vs0mg"},{"bike_id":"f152956c-3d42-433c-afdd-196145a15c1a","system_id":"levelo_inurba_marseille","lat":43.29516,"lon":5.37505,"is_reserved":false,"is_disabled":false,"rental_uris":{"android":"levelo://app?vid=f152956c-3d42-433c-afdd-196145a15c1a","ios":"levelo://app?vid=f152956c-3d42-433c-afdd-196145a15c1a"},"vehicle_type_id":"4","last_reported":1725703681,"current_range_meters":22000,"station_id":"ce4bgkp2rcd13ifvqbmg","pricing_plan_id":"cebpf4jnsgd1na2vs0mg"},{"bike_id":"075ac727-0297-4f86-9e2a-f6e18487b4c3","system_id":"levelo_inurba_marseille","lat":43.295279,"lon":5.375048,"is_reserved":false,"is_disabled":false,"rental_uris":{"android":"levelo://app?vid=075ac727-0297-4f86-9e2a-f6e18487b4c3","ios":"levelo://app?vid=075ac727-0297-4f86-9e2a-f6e18487b4c3"},"vehicle_type_id":"4","last_reported":1725703681,"current_range_meters":22800,"station_id":"ce4bgkp2rcd13ifvqbmg","pricing_plan_id":"cebpf4jnsgd1na2vs0mg"},