{"last_updated":1752959405,"ttl":60,"version":"2.2","data":{"bikes":[{"bike_id":"53b742a7-31ae-4272-9bba-7740339e2a2f","system_id":"levelo_inurba_marseille","lat":43.33747,"lon":5.37463,"is_reserved":false,"is_disabled":false,"rental_uris":{"android":"levelo://app?vid=53b742a7-31ae-4272-9bba-7740339e2a2f","ios":"levelo://app?vid=53b742a7-31ae-4272-9bba-7740339e2a2f"},"vehicle_type_id":"1","last_reported":1752959405,"current_range_meters":14000,"station_id":"","pricing_plan_id":"cebpf4jnsgd1na2vs0mg"},{"bike_id":"4ea96b02-7922-4ef5-9d90-dd70d4e4d298","system_id":"levelo_inurba_marseille","lat":43.25116,"lon":5.40332,"is_reserved":false,"is_disabled":false,"rental_uris":{"android":"levelo://app?vid=4ea96b02-7922-4ef5-9d90-dd70d4e4d298","ios":"levelo://app?vid=4ea96b02-7922-4ef5-9d90-dd70d4e4d298"},"vehicle_type_id":"4","last_reported":1752959405,"current_range_meters":2800,"station_id":"ce4bhlh2rcd13ifvqgig","pricing_plan_id":"cebpf4jnsgd1na2vs0mg"},{"bike_id":"9cfbdda5-a7ba-49c0-9629-68ba6535ba8f","system_id":"levelo_inurba_marseille","lat":43.26948,"lon":5.3863,"is_reserved":false,"is_disabled":false,"rental_uris":{"android":"levelo://app?vid=9cfbdda5-a7ba-49c0-9629-68ba6535ba8f","ios":"levelo://app?vid=9cfbdda5-a7ba-49c0-9629-68ba6535ba8f"},"vehicle_type_id":"4","last_reported":1752959405,"current_range_meters":2800,"station_id":"ce4bhh92rcd13ifvqfh0","pricing_plan_id":"cebpf4jnsgd1na2vs0mg"},{"bike_id":"04cea8b2-5b04-4926-9c8b-b081c67bfe3e","system_id":"levelo_inurba_marseille","lat":43.28842,"lon":5.39306,"is_reserved":false,"is_disabled":false,"rental_uris":{"android":"levelo://app?vid=04cea8b2-5b04-4926-9c8b-b081c67bfe3e","ios":"levelo://app?vid=04cea8b2-5b04-4926-9c8b-b081c67bfe3e"},"vehicle_type_id":"4","last_reported":1752959405,"current_range_meters":2800,"station_id":"ce4bh2p2rcd13ifvqdi0","pricing_plan_id":"cebpf4jnsgd1na2vs0mg"},{"bike_id":"388ef3fa-edf1-4a4f-bb6a-236abc146871","system_id":"levelo_inurba_marseille","lat":43.33199,"lon":5.39848,"is_reserved":false,"is_disabled":false,"rental_uris":{"android":"levelo://app?vid=388ef3fa-edf1-4a4f-bb6a-236abc146871","ios":"levelo://app?vid=388ef3fa-edf1-4a4f-bb6a-236abc146871"},"vehicle_type_id":"4","last_reported":1752959405,"current_range_meters":3200,"station_id":"","pricing_plan_id":"cebpf4jnsgd1na2vs0mg"},{"bike_id":"57bf6570-ff1a-4d36-a914-38a00de3af53","system_id":"levelo_inurba_marseille","lat":43.23961,"lon":5.36618,"is_reserved":false,"is_disabled":true,"rental_uris":{"android":"levelo://app?vid=57bf6570-ff1a-4d36-a914-38a00de3af53","ios":"levelo://app?vid=57bf6570-ff1a-4d36-a914-38a00de3af53"},"vehicle_type_id":"4","last_reported":1752959405,"current_range_meters":3200,"station_id":"ce4bhi12rcd13ifvqfp0","pricing_plan_id":"cebpf4jnsgd1na2vs0mg"},{"bike_id":"04374b9d-b440-4306-b61e-c21ae967d3f8","system_id":"levelo_inurba_marseille","lat":43.2174,"lon":5.34611,"is_reserved":false,"is_disabled":false,"rental_uris":{"android":"levelo://app?vid=04374b9d-b440-4306-b61e-c21ae967d3f8","ios":"levelo://app?vid=04374b9d-b440-4306-b61e-c21ae967d3f8"},"vehicle_type_id":"4","last_reported":1752959405,"current_range_meters":3200,"station_id":"st_cvj6r9ubvosntc0bgbag","pricing_plan_id":"cebpf4jnsgd1na2vs0mg"},{"bike_id":"46c75306-7a2d-4af7-ba48-29648a861820","system_id":"levelo_inurba_marseille","lat":43.26184,"lon":5.3745,"is_reserved":false,"is_disabled":false,"rental_uris":{"android":"levelo://app?vid=46c75306-7a2d-4af7-ba48-29648a861820","ios":"levelo://app?vid=46c75306-7a2d-4af7-ba48-29648a861820"},"vehicle_type_id":"4","last_reported":1752959405,"current_range_meters":3200,"station_id":"ce4bhgp2rcd13ifvqfc0","pricing_plan_id":"cebpf4jnsgd1na2vs0mg"},{"bike_id":"558da596-97d3-476e-be4d-933b20150e6a","system_id":"levelo_inurba_marseille","lat":43.30931,"lon":5.40147,"is_reserved":false,"is_disabled":false,"rental_uris":{"android":"levelo://app?vid=558da596-97d3-476e-be4d-933b20150e6a","ios":"levelo://app?vid=558da596-97d3-476e-be4d-933b20150e6a"},"vehicle_type_id":"4","last_reported":1752959405,"current_range_meters":3200,"station_id":"ce4bgvp2rcd13ifvqct0","pricing_plan_id":"cebpf4jnsgd1na2vs0mg"},{"bike_id":"26db52b4-c04b-4f6c-8f17-4178b6460348","system_id":"levelo_inurba_marseille","lat":43.22494,"lon":5.34792,"is_reserved":false,"is_disabled":false,"rental_uris":{"android":"levelo://app?vid=26db52b4-c04b-4f6c-8f17-4178b6460348","ios":"levelo://app?vid=26db52b4-c04b-4f6c-8f17-4178b6460348"},"vehicle_type_id":"4","last_reported":1752959405,"current_range_meters":3600,"station_id":"st_cvj5dfep6f1abm77gieg","pricing_plan_id":"cebpf4jnsgd1na2vs0mg"},{"bike_id":"38fd2d4c-9c91-4cbf-b007-8fe8ad90b52f","system_id":"levelo_inurba_marseille","lat":43.29265,"lon":5.37617,"is_reserved":false,"is_disabled":false,"rental_uris":{"android":"levelo://app?vid=38fd2d4c-9c91-4cbf-b007-8fe8ad90b52f","ios":"levelo://app?vid=38fd2d4c-9c91-4cbf-b007-8fe8ad90b52f"},"vehicle_type_id":"4","last_reported":1752959405,"current_range_meters":3600,"station_id":"ce4bgi12rcd13ifvqb80","pricing_plan_id":"cebpf4jnsgd1na2vs0mg"},{"bike_id":"1067d046-e862-412c-b048-ecea340bb071","system_id":"levelo_inurba_marseille","lat":43.30241,"lon":5.39825,"is_reserved":false,"is_disabled":false,"rental_uris":{"android":"levelo://app?vid=1067d046-e862-412c-b048-ecea340bb071","ios":"levelo://app?vid=1067d046-e862-412c-b048-ecea340bb071"},"vehicle_type_id":"4","last_reported":1752959405,"current_range_meters":3600,"station_id":"","pricing_plan_id":"cebpf4jnsgd1na2vs0mg"},{"bike_id":"19c70c7c-0889-4f65-becf-027a1e68a979","system_id":"levelo_inurba_marseille","lat":43.29593,"lon":5.381,"is_reserved":false,"is_disabled":false,"rental_uris":{"android":"levelo://app?vid=19c70c7c-0889-4f65-becf-027a1e68a979","ios":"levelo://app?vid=19c70c7c-0889-4f65-becf-027a1e68a979"},"vehicle_type_id":"4","last_reported":1752959405,"current_range_meters":4000,"station_id":"ce4bgl12rcd13ifvqbo0","pricing_plan_id":"cebpf4jnsgd1na2vs0mg"},{"bike_id":"9bdcfb5e-ac16-41d0-a4c2-388bc36976bb","system_id":"levelo_inurba_marseille","lat":43.29554,"lon":5.42301,"is_reserved":false,"is_disabled":false,"rental_uris":{"android":"levelo://app?vid=9bdcfb5e-ac16-41d0-a4c2-388bc36976bb","ios":"levelo://app?vid=9bdcfb5e-ac16-41d0-a4c2-388bc36976bb"},"vehicle_type_id":"4","last_reported":1752959405,"current_range_meters":4800,"station_id":"ce4bhph2rcd13ifvqhdg","pricing_plan_id":"cebpf4jnsgd1na2vs0mg"},{"bike_id":"b3c20171-789b-4f2e-a78c-f182493a896f","system_id":"levelo_inurba_marseille","lat":43.28167,"lon":5.42643,"is_reserved":false,"is_disabled":true,"rental_uris":{"android":"levelo://app?vid=b3c20171-789b-4f2e-a78c-f182493a896f","ios":"levelo://app?vid=b3c20171-789b-4f2e-a78c-f182493a896f"},"vehicle_type_id":"4","last_reported":1752959405,"current_range_meters":4800,"station_id":"ce4bhnh2rcd13ifvqgug","pricing_plan_id":"cebpf4jnsgd1na2vs0mg"},{"bike_id":"da891840-0cec-4ccc-961c-48903736c6fa","system_id":"levelo_inurba_marseille","lat":43.31139,"lon":5.37692,"is_reserved":false,"is_disabled":false,"rental_uris":{"android":"levelo://app?vid=da891840-0cec-4ccc-961c-48903736c6fa","ios":"levelo://app?vid=da891840-0cec-4ccc-961c-48903736c6fa"},"vehicle_type_id":"4","last_reported":1752959405,"current_range_meters":4800,"station_id":"","pricing_plan_id":"cebpf4jnsgd1na2vs0mg"},{"bike_id":"085e62c2-d59f-47d1-bf99-3b2a6228b54b","system_id":"levelo_inurba_marseille","lat":43.284856,"lon":5.384281,"is_reserved":false,"is_disabled":false,"rental_uris":{"android":"levelo://app?vid=085e62c2-d59f-47d1-bf99-3b2a6228b54b","ios":"levelo://app?vid=085e62c2-d59f-47d1-bf99-3b2a6228b54b"},"vehicle_type_id":"4","last_reported":1752959405,"current_range_meters":4800,"station_id":"","pricing_plan_id":"cebpf4jnsgd1na2vs0mg"},{"bike_id":"c084ed78-5abb-4f9d-9ee7-52039d5ae7df","system_id":"levelo_inurba_marseille","lat":43.304,"lon":5.41259,"is_reserved":false,"is_disabled":true,"rental_uris":{"android":"levelo://app?vid=c084ed78-5abb-4f9d-9ee7-52039d5ae7df","ios":"levelo://app?vid=c084ed78-5abb-4f9d-9ee7-52039d5ae7df"},"vehicle_type_id":"4","last_reported":1752959405,"current_range_meters":4800,"station_id":"ce4bhop2rcd13ifvqh8g","pricing_plan_id":"cebpf4jnsgd1na2vs0mg"},{"bike_id":"2d95b47d-d06f-40a4-bb6e-c13e954e3c8f","system_id":"levelo_inurba_marseille","lat":43.27711,"lon":5.41407,"is_reserved":false,"is_disabled":false,"rental_uris":{"android":"levelo://app?vid=2d95b47d-d06f-40a4-bb6e-c13e954e3c8f","ios":"levelo://app?vid=2d95b47d-d06f-40a4-bb6e-c13e954e3c8f"},"vehicle_type_id":"4","last_reported":1752959405,"current_range_meters":5600,"station_id":"","pricing_plan_id":"cebpf4jnsgd1na2vs0mg"},{"bike_id":"4108938b-6cb1-49cf-9b34-f5aba76f8c8e","system_id":"levelo_inurba_marseille","lat":43.258733,"lon":5.399055,"is_reserved":false,"is_disabled":true,"rental_uris":{"android":"levelo://app?vid=4108938b-6cb1-49cf-9b34-f5aba76f8c8e","ios":"levelo://app?vid=4108938b-6cb1-49cf-9b34-f5aba76f8c8e"},"vehicle_type_id":"4","last_reported":1752959405,"current_range_meters":5600,"station_id":"ce4bhl92rcd13ifvqghg","pricing_plan_id":"cebpf4jnsgd1na2vs0mg"},{"bike_id":"9f72297c-c1e6-4442-bd81-1493bfe5093d","system_id":"levelo_inurba_marseille","lat":43.28849,"lon":5.35851,"is_reserved":false,"is_disabled":false,"rental_uris":{"android":"levelo://app?vid=9f72297c-c1e6-4442-bd81-1493bfe5093d","ios":"levelo://app?vid=9f72297c-c1e6-4442-bd81-1493bfe5093d"},"vehicle_type_id":"4","last_reported":1752959405,"current_range_meters":5600,"station_id":"ce4bhb12rcd13ifvqem0","pricing_plan_id":"cebpf4jnsgd1na2vs0mg"},{"bike_id":"5818b7bc-da86-4398-a7da-374e8dbd0f96","system_id":"levelo_inurba_marseille","lat":43.289754,"lon":5.366521,"is_reserved":false,"is_disabled":false,"rental_uris":{"android":"levelo://app?vid=5818b7bc-da86-4398-a7da-374e8dbd0f96","ios":"levelo://app?vid=5818b7bc-da86-4398-a7da-374e8dbd0f96"},"vehicle_type_id":"4","last_reported":1752959405,"current_range_meters":5600,"station_id":"","pricing_plan_id":"cebpf4jnsgd1na2vs0mg"},{"bike_id":"dd26fa45-583c-44d1-9a9e-4f63984f70a3","system_id":"levelo_inurba_marseille","lat":43.29907,"lon":5.4367,"is_reserved":false,"is_disabled":false,"rental_uris":{"android":"levelo://app?vid=dd26fa45-583c-44d1-9a9e-4f63984f70a3","ios":"levelo://app?vid=dd26fa45-583c-44d1-9a9e-4f63984f70a3"},"vehicle_type_id":"4","last_reported":1752959405,"current_range_meters":6000,"station_id":"ce4bhpp2rcd13ifvqhfg","pricing_plan_id":"cebpf4jnsgd1na2vs0mg"},{"bike_id":"44b73254-6d5b-42ec-9e3a-52236fbf71fc","system_id":"levelo_inurba_marseille","lat":43.33348,"lon":5.39844,"is_reserved":false,"is_disabled":false,"rental_uris":{"android":"levelo://app?vid=44b73254-6d5b-42ec-9e3a-52236fbf71fc","ios":"levelo://app?vid=44b73254-6d5b-42ec-9e3a-52236fbf71fc"},"vehicle_type_id":"4","last_reported":1752959405,"current_range_meters":6000,"station_id":"","pricing_plan_id":"cebpf4jnsgd1na2vs0mg"},{"bike_id":"5afe6132-ab80-4495-ba86-13c5291b4159","system_id":"levelo_inurba_marseille","lat":43.30315,"lon":5.40446,"is_reserved":false,"is_disabled":false,"rental_uris":{"android":"levelo://app?vid=5afe6132-ab80-4495-ba86-13c5291b4159","ios":"levelo://app?vid=5afe6132-ab80-4495-ba86-13c5291b4159"},"vehicle_type_id":"4","last_reported":1752959405,"current_range_meters":6400,"station_id":"ce4bh012rcd13ifvqd10","pricing_plan_id":"cebpf4jnsgd1na2vs0mg"},{"bike_id":"f9cb8d75-2c72-4a0f-b636-7446f74c7141","system_id":"levelo_inurba_marseille","lat":43.26188,"lon":5.37452,"is_reserved":false,"is_disabled":false,"rental_uris":{"android":"levelo://app?vid=f9cb8d75-2c72-4a0f-b636-7446f74c7141","ios":"levelo://app?vid=f9cb8d75-2c72-4a0f-b636-7446f74c7141"},"vehicle_type_id":"4","last_reported":1752959405,"current_range_meters":6400,"station_id":"ce4bhgp2rcd13ifvqfc0","pricing_plan_id":"cebpf4jnsgd1na2vs0mg"},{"bike_id":"a168d389-ea1d-4756-ad9b-cf73a31ab442","system_id":"levelo_inurba_marseille","lat":43.28566,"lon":5.38374,"is_reserved":false,"is_disabled":true,"rental_uris":{"android":"levelo://app?vid=a168d389-ea1d-4756-ad9b-cf73a31ab442","ios":"levelo://app?vid=a168d389-ea1d-4756-ad9b-cf73a31ab442"},"vehicle_type_id":"4","last_reported":1752959405,"current_range_meters":6400,"station_id":"","pricing_plan_id":"cebpf4jnsgd1na2vs0mg"},{"bike_id":"6883df58-6737-4f53-a438-d17fca741ba6","system_id":"levelo_inurba_marseille","lat":43.33027,"lon":5.39387,"is_reserved":false,"is_disabled":false,"rental_uris":{"android":"levelo://app?vid=6883df58-6737-4f53-a438-d17fca741ba6","ios":"levelo://app?vid=6883df58-6737-4f53-a438-d17fca741ba6"},"vehicle_type_id":"4","last_reported":1752959405,"current_range_meters":6400,"station_id":"","pricing_plan_id":"cebpf4jnsgd1na2vs0mg"},{"bike_id":"9fa0aa1a-ca58-4618-96c1-d3bbd0aad5cb","system_id":"levelo_inurba_marseille","lat":43.265467,"lon":5.372907,"is_reserved":false,"is_disabled":true,"rental_uris":{"android":"levelo://app?vid=9fa0aa1a-ca58-4618-96c1-d3bbd0aad5cb","ios":"levelo://app?vid=9fa0aa1a-ca58-4618-96c1-d3bbd0aad5cb"},"vehicle_type_id":"4","last_reported":1752959405,"current_range_meters":6400,"station_id":"ce4bhg12rcd13ifvqf70","pricing_plan_id":"cebpf4jnsgd1na2vs0mg"},{"bike_id":"72acce2b-2249-45a2-be91-c8268f8a11e8","system_id":"levelo_inurba_marseille","lat":43.225067,"lon":5.347838,"is_reserved":false,"is_disabled":false,"rental_uris":{"android":"levelo://app?vid=72acce2b-2249-45a2-be91-c8268f8a11e8","ios":"levelo://app?vid=72acce2b-2249-45a2-be91-c8268f8a11e8"},"vehicle_type_id":"4","last_reported":1752959405,"current_range_meters":6800,"station_id":"st_cvj5dfep6f1abm77gieg","pricing_plan_id":"cebpf4jnsgd1na2vs0mg"},{"bike_id":"c3929c12-1ea4-4b47-ae50-ae8ca483cb72","system_id":"levelo_inurba_marseille","lat":43.26243,"lon":5.37855,"is_reserved":false,"is_disabled":false,"rental_uris":{"android":"levelo://app?vid=c3929c12-1ea4-4b47-ae50-ae8ca483cb72","ios":"levelo://app?vid=c3929c12-1ea4-4b47-ae50-ae8ca483cb72"},"vehicle_type_id":"4","last_reported":1752959405,"current_range_meters":6800,"station_id":"ce4bhjp2rcd13ifvqg90","pricing_plan_id":"cebpf4jnsgd1na2vs0mg"},{"bike_id":"5e54678d-e550-42d3-ac1e-cca36edba7c3","system_id":"levelo_inurba_marseille","lat":43.25107,"lon":5.40322,"is_reserved":false,"is_disabled":false,"rental_uris":{"android":"levelo://app?vid=5e54678d-e550-42d3-ac1e-cca36edba7c3","ios":"levelo://app?vid=5e54678d-e550-42d3-ac1e-cca36edba7c3"},"vehicle_type_id":"4","last_reported":1752959405,"current_range_meters":6400,"station_id":"ce4bhlh2rcd13ifvqgig","pricing_plan_id":"cebpf4jnsgd1na2vs0mg"},{"bike_id":"ce7bd25b-5213-4881-a28b-f582e6a1d712","system_id":"levelo_inurba_marseille","lat":43.31369,"lon":5.3669,"is_reserved":false,"is_disabled":true,"rental_uris":{"android":"levelo://app?vid=ce7bd25b-5213-4881-a28b-f582e6a1d712","ios":"levelo://app?vid=ce7bd25b-5213-4881-a28b-f582e6a1d712"},"vehicle_type_id":"4","last_reported":1752959405,"current_range_meters":6800,"station_id":"ce4bgr92rcd13ifvqc6g","pricing_plan_id":"cebpf4jnsgd1na2vs0mg"},{"bike_id":"7ba80774-b11e-4526-b36d-edd358abb392","system_id":"levelo_inurba_marseille","lat":43.22515,"lon":5.34819,"is_reserved":false,"is_disabled":false,"rental_uris":{"android":"levelo://app?vid=7ba80774-b11e-4526-b36d-edd358abb392","ios":"levelo://app?vid=7ba80774-b11e-4526-b36d-edd358abb392"},"vehicle_type_id":"4","last_reported":1752959405,"current_range_meters":7200,"station_id":"st_cvj5dfep6f1abm77gieg","pricing_plan_id":"cebpf4jnsgd1na2vs0mg"},{"bike_id":"639fd095-55b2-47bd-b944-1fea70fd1003","system_id":"levelo_inurba_marseille","lat":43.26208,"lon":5.37457,"is_reserved":false,"is_disabled":false,"rental_uris":{"android":"levelo://app?vid=639fd095-55b2-47bd-b944-1fea70fd1003","ios":"levelo://app?vid=639fd095-55b2-47bd-b944-1fea70fd1003"},"vehicle_type_id":"4","last_reported":1752959405,"current_range_meters":7200,"station_id":"ce4bhgp2rcd13ifvqfc0","pricing_plan_id":"cebpf4jnsgd1na2vs0mg"},{"bike_id":"2ac56475-cc12-42f9-a4aa-789e7b88205d","system_id":"levelo_inurba_marseille","lat":43.26028,"lon":5.375474,"is_reserved":false,"is_disabled":false,"rental_uris":{"android":"levelo://app?vid=2ac56475-cc12-42f9-a4aa-789e7b88205d","ios":"levelo://app?vid=2ac56475-cc12-42f9-a4aa-789e7b88205d"},"vehicle_type_id":"4","last_reported":1752959405,"current_range_meters":7200,"station_id":"ce4bhgh2rcd13ifvqfa0","pricing_plan_id":"cebpf4jnsgd1na2vs0mg"},{"bike_id":"6ea6c30c-b21a-4a6b-b195-606da0f1d70b","system_id":"levelo_inurba_marseille","lat":43.30725,"lon":5.42451,"is_reserved":false,"is_disabled":false,"rental_uris":{"android":"levelo://app?vid=6ea6c30c-b21a-4a6b-b195-606da0f1d70b","ios":"levelo://app?vid=6ea6c30c-b21a-4a6b-b195-606da0f1d70b"},"vehicle_type_id":"4","last_reported":1752959405,"current_range_meters":7200,"station_id":"st_cvj6ca6bvosntc0bfgr0","pricing_plan_id":"cebpf4jnsgd1na2vs0mg"},{"bike_id":"1d27d005-809d-4247-b8cc-ac28dbb9f240","system_id":"levelo_inurba_marseille","lat":43.26027,"lon":5.37547,"is_reserved":false,"is_disabled":false,"rental_uris":{"android":"levelo://app?vid=1d27d005-809d-4247-b8cc-ac28dbb9f240","ios":"levelo://app?vid=1d27d005-809d-4247-b8cc-ac28dbb9f240"},"vehicle_type_id":"4","last_reported":1752959405,"current_range_meters":7200,"station_id":"ce4bhgh2rcd13ifvqfa0","pricing_plan_id":"cebpf4jnsgd1na2vs0mg"},{"bike_id":"c6db0f6a-96fe-4e1d-8ded-c2ef38c9bab4","system_id":"levelo_inurba_marseille","lat":43.305688,"lon":5.418387,"is_reserved":false,"is_disabled":true,"rental_uris":{"android":"levelo://app?vid=c6db0f6a-96fe-4e1d-8ded-c2ef38c9bab4","ios":"levelo://app?vid=c6db0f6a-96fe-4e1d-8ded-c2ef38c9bab4"},"vehicle_type_id":"4","last_reported":1752959405,"current_range_meters":8000,"station_id":"ce4bht12rcd13ifvqi60","pricing_plan_id":"cebpf4jnsgd1na2vs0mg"},{"bike_id":"569e8d08-f402-4dfd-84e6-6ee124433d31","system_id":"levelo_inurba_marseille","lat":43.28937,"lon":5.36641,"is_reserved":false,"is_disabled":false,"rental_uris":{"android":"levelo://app?vid=569e8d08-f402-4dfd-84e6-6ee124433d31","ios":"levelo://app?vid=569e8d08-f402-4dfd-84e6-6ee124433d31"},"vehicle_type_id":"4","last_reported":1752959405,"current_range_meters":8000,"station_id":"ce4bhap2rcd13ifvqek0","pricing_plan_id":"cebpf4jnsgd1na2vs0mg"},{"bike_id":"2e532954-91d6-45d0-820d-bd93ef877e83","system_id":"levelo_inurba_marseille","lat":43.303243,"lon":5.394574,"is_reserved":false,"is_disabled":true,"rental_uris":{"android":"levelo://app?vid=2e532954-91d6-45d0-820d-bd93ef877e83","ios":"levelo://app?vid=2e532954-91d6-45d0-820d-bd93ef877e83"},"vehicle_type_id":"4","last_reported":1752959405,"current_range_meters":8000,"station_id":"","pricing_plan_id":"cebpf4jnsgd1na2vs0mg"},{"bike_id":"9af71b5c-5087-4a4c-9e09-1be75b8a246b","system_id":"levelo_inurba_marseille","lat":43.26567,"lon":5.39013,"is_reserved":false,"is_disabled":false,"rental_uris":{"android":"levelo://app?vid=9af71b5c-5087-4a4c-9e09-1be75b8a246b","ios":"levelo://app?vid=9af71b5c-5087-4a4c-9e09-1be75b8a246b"},"vehicle_type_id":"4","last_reported":1752959405,"current_range_meters":8400,"station_id":"ce4bhe12rcd13ifvqf30","pricing_plan_id":"cebpf4jnsgd1na2vs0mg"},{"bike_id":"905e7e0b-8cc4-4ec3-8421-97574d13bcfe","system_id":"levelo_inurba_marseille","lat":43.312732,"lon":5.401705,"is_reserved":false,"is_disabled":false,"rental_uris":{"android":"levelo://app?vid=905e7e0b-8cc4-4ec3-8421-97574d13bcfe","ios":"levelo://app?vid=905e7e0b-8cc4-4ec3-8421-97574d13bcfe"},"vehicle_type_id":"4","last_reported":1752959405,"current_range_meters":8400,"station_id":"ce4bh092rcd13ifvqd30","pricing_plan_id":"cebpf4jnsgd1na2vs0mg"},{"bike_id":"6606ef32-1c2c-4f86-a444-ef64dd22f578","system_id":"levelo_inurba_marseille","lat":43.29092,"lon":5.38127,"is_reserved":false,"is_disabled":false,"rental_uris":{"android":"levelo://app?vid=6606ef32-1c2c-4f86-a444-ef64dd22f578","ios":"levelo://app?vid=6606ef32-1c2c-4f86-a444-ef64dd22f578"},"vehicle_type_id":"4","last_reported":1752959405,"current_range_meters":8400,"station_id":"ce4bh512rcd13ifvqe2g","pricing_plan_id":"cebpf4jnsgd1na2vs0mg"},{"bike_id":"07aeb5da-15b1-4b73-9d17-70e8acd75061","system_id":"levelo_inurba_marseille","lat":43.225098,"lon":5.3478,"is_reserved":false,"is_disabled":false,"rental_uris":{"android":"levelo://app?vid=07aeb5da-15b1-4b73-9d17-70e8acd75061","ios":"levelo://app?vid=07aeb5da-15b1-4b73-9d17-70e8acd75061"},"vehicle_type_id":"4","last_reported":1752959405,"current_range_meters":8400,"station_id":"st_cvj5dfep6f1abm77gieg","pricing_plan_id":"cebpf4jnsgd1na2vs0mg"},{"bike_id":"57a30f0b-84eb-4b98-8989-8d3c02b43bf0","system_id":"levelo_inurba_marseille","lat":43.28649,"lon":5.37021,"is_reserved":false,"is_disabled":false,"rental_uris":{"android":"levelo://app?vid=57a30f0b-84eb-4b98-8989-8d3c02b43bf0","ios":"levelo://app?vid=57a30f0b-84eb-4b98-8989-8d3c02b43bf0"},"vehicle_type_id":"4","last_reported":1752959405,"current_range_meters":8800,"station_id":"","pricing_plan_id":"cebpf4jnsgd1na2vs0mg"},{"bike_id":"5c9378bd-d2c0-431d-8d10-b2d3cf2b8dda","system_id":"levelo_inurba_marseille","lat":43.29252,"lon":5.40129,"is_reserved":false,"is_disabled":false,"rental_uris":{"android":"levelo://app?vid=5c9378bd-d2c0-431d-8d10-b2d3cf2b8dda","ios":"levelo://app?vid=5c9378bd-d2c0-431d-8d10-b2d3cf2b8dda"},"vehicle_type_id":"4","last_reported":1752959405,"current_range_meters":8800,"station_id":"ce4bh312rcd13ifvqdk0","pricing_plan_id":"cebpf4jnsgd1na2vs0mg"},{"bike_id":"360aadfd-f1da-453f-94e7-fff18a3ea15c","system_id":"levelo_inurba_marseille","lat":43.2953,"lon":5.38538,"is_reserved":false,"is_disabled":false,"rental_uris":{"android":"levelo://app?vid=360aadfd-f1da-453f-94e7-fff18a3ea15c","ios":"levelo://app?vid=360aadfd-f1da-453f-94e7-fff18a3ea15c"},"vehicle_type_id":"4","last_reported":1752959405,"current_range_meters":9200,"station_id":"ce4bgih2rcd13ifvqba0","pricing_plan_id":"cebpf4jnsgd1na2vs0mg"},{"bike_id":"29a3889b-f3c5-4140-8a0d-9ed944ebd70f","system_id":"levelo_inurba_marseille","lat":43.29702,"lon":5.36625,"is_reserved":false,"is_disabled":false,"rental_uris":{"android":"levelo://app?vid=29a3889b-f3c5-4140-8a0d-9ed944ebd70f","ios":"levelo://app?vid=29a3889b-f3c5-4140-8a0d-9ed944ebd70f"},"vehicle_type_id":"4","last_reported":1752959405,"current_range_meters":9200,"station_id":"ce4bgn12rcd13ifvqbt0","pricing_plan_id":"cebpf4jnsgd1na2vs0mg"},{"bike_id":"263346ca-daa9-458b-8313-74bcb979ba16","system_id":"levelo_inurba_marseille","lat":43.33599,"lon":5.41033,"is_reserved":false,"is_disabled":false,"rental_uris":{"android":"levelo://app?vid=263346ca-daa9-458b-8313-74bcb979ba16","ios":"levelo://app?vid=263346ca-daa9-458b-8313-74bcb979ba16"},"vehicle_type_id":"4","last_reported":1752959405,"current_range_meters":9200,"station_id":"ce4bhqh2rcd13ifvqhmg","pricing_plan_id":"cebpf4jnsgd1na2vs0mg"},{"bike_id":"2960e8f5-291f-425f-955a-9ddf3fdf8532","system_id":"levelo_inurba_marseille","lat":43.27051,"lon":5.4027,"is_reserved":false,"is_disabled":false,"rental_uris":{"android":"levelo://app?vid=2960e8f5-291f-425f-955a-9ddf3fdf8532","ios":"levelo://app?vid=2960e8f5-291f-425f-955a-9ddf3fdf8532"},"vehicle_type_id":"4","last_reported":1752959405,"current_range_meters":9200,"station_id":"ce4bhk92rcd13ifvqgc0","pricing_plan_id":"cebpf4jnsgd1na2vs0mg"},{"bike_id":"e3c9e951-4b19-4139-8740-fd31adb7a280","system_id":"levelo_inurba_marseille","lat":43.290049,"lon":5.356107,"is_reserved":false,"is_disabled":false,"rental_uris":{"android":"levelo://app?vid=e3c9e951-4b19-4139-8740-fd31adb7a280","ios":"levelo://app?vid=e3c9e951-4b19-4139-8740-fd31adb7a280"},"vehicle_type_id":"4","last_reported":1752959405,"current_range_meters":8800,"station_id":"ce4bhb92rcd13ifvqen0","pricing_plan_id":"cebpf4jnsgd1na2vs0mg"},{"bike_id":"acc84358-e2fa-4924-917d-b21d750d7831","system_id":"levelo_inurba_marseille","lat":43.27492,"lon":5.42457,"is_reserved":false,"is_disabled":false,"rental_uris":{"android":"levelo://app?vid=acc84358-e2fa-4924-917d-b21d750d7831","ios":"levelo://app?vid=acc84358-e2fa-4924-917d-b21d750d7831"},"vehicle_type_id":"4","last_reported":1752959405,"current_range_meters":8800,"station_id":"ce4bhn92rcd13ifvqgrg","pricing_plan_id":"cebpf4jnsgd1na2vs0mg"},{"bike_id":"6f18ab1b-0c74-47b1-bed8-837677176207","system_id":"levelo_inurba_marseille","lat":43.32039,"lon":5.40945,"is_reserved":false,"is_disabled":false,"rental_uris":{"android":"levelo://app?vid=6f18ab1b-0c74-47b1-bed8-837677176207","ios":"levelo://app?vid=6f18ab1b-0c74-47b1-bed8-837677176207"},"vehicle_type_id":"4","last_reported":1752959405,"current_range_meters":9200,"station_id":"","pricing_plan_id":"cebpf4jnsgd1na2vs0mg"},{"bike_id":"75b10dd0-4f8a-4405-b3b8-74bd76719e96","system_id":"levelo_inurba_marseille","lat":43.30144,"lon":5.37404,"is_reserved":false,"is_disabled":true,"rental_uris":{"android":"levelo://app?vid=75b10dd0-4f8a-4405-b3b8-74bd76719e96","ios":"levelo://app?vid=75b10dd0-4f8a-4405-b3b8-74bd76719e96"},"vehicle_type_id":"4","last_reported":1752959405,"current_range_meters":9600,"station_id":"ce4bgs92rcd13ifvqcc0","pricing_plan_id":"cebpf4jnsgd1na2vs0mg"},{"bike_id":"1fe2acb9-841b-43fd-9b3d-36bf6cb2f1ce","system_id":"levelo_inurba_marseille","lat":43.28441,"lon":5.35915,"is_reserved":false,"is_disabled":false,"rental_uris":{"android":"levelo://app?vid=1fe2acb9-841b-43fd-9b3d-36bf6cb2f1ce","ios":"levelo://app?vid=1fe2acb9-841b-43fd-9b3d-36bf6cb2f1ce"},"vehicle_type_id":"4","last_reported":1752959405,"current_range_meters":9600,"station_id":"ce4bhah2rcd13ifvqei0","pricing_plan_id":"cebpf4jnsgd1na2vs0mg"},{"bike_id":"35808219-5db5-4b9e-951b-af9db1301e12","system_id":"levelo_inurba_marseille","lat":43.22502,"lon":5.34787,"is_reserved":false,"is_disabled":false,"rental_uris":{"android":"levelo://app?vid=35808219-5db5-4b9e-951b-af9db1301e12","ios":"levelo://app?vid=35808219-5db5-4b9e-951b-af9db1301e12"},"vehicle_type_id":"4","last_reported":1752959405,"current_range_meters":9600,"station_id":"st_cvj5dfep6f1abm77gieg","pricing_plan_id":"cebpf4jnsgd1na2vs0mg"},{"bike_id":"73e71729-0cab-48e4-970a-83d425e960db","system_id":"levelo_inurba_marseille","lat":43.29021,"lon":5.38141,"is_reserved":false,"is_disabled":false,"rental_uris":{"android":"levelo://app?vid=73e71729-0cab-48e4-970a-83d425e960db","ios":"levelo://app?vid=73e71729-0cab-48e4-970a-83d425e960db"},"vehicle_type_id":"4","last_reported":1752959405,"current_range_meters":9200,"station_id":"ce4bh4p2rcd13ifvqe1g","pricing_plan_id":"cebpf4jnsgd1na2vs0mg"},{"bike_id":"ec32d022-e872-49b5-bd4f-54d6f32b82ae","system_id":"levelo_inurba_marseille","lat":43.311174,"lon":5.377747,"is_reserved":false,"is_disabled":false,"rental_uris":{"android":"levelo://app?vid=ec32d022-e872-49b5-bd4f-54d6f32b82ae","ios":"levelo://app?vid=ec32d022-e872-49b5-bd4f-54d6f32b82ae"},"vehicle_type_id":"4","last_reported":1752959405,"current_range_meters":9600,"station_id":"","pricing_plan_id":"cebpf4jnsgd1na2vs0mg"},{"bike_id":"6acf6616-5bc2-413d-b8a9-de0cef45b2d4","system_id":"levelo_inurba_marseille","lat":43.24808,"lon":5.37484,"is_reserved":false,"is_disabled":true,"rental_uris":{"android":"levelo://app?vid=6acf6616-5bc2-413d-b8a9-de0cef45b2d4","ios":"levelo://app?vid=6acf6616-5bc2-413d-b8a9-de0cef45b2d4"},"vehicle_type_id":"4","last_reported":1752959405,"current_range_meters":9600,"station_id":"ce4bhgh2rcd13ifvqfb0","pricing_plan_id":"cebpf4jnsgd1na2vs0mg"},{"bike_id":"8ea8f88e-f0bd-4acb-ba54-a3e93db8134f","system_id":"levelo_inurba_marseille","lat":43.28248,"lon":5.35077,"is_reserved":false,"is_disabled":false,"rental_uris":{"android":"levelo://app?vid=8ea8f88e-f0bd-4acb-ba54-a3e93db8134f","ios":"levelo://app?vid=8ea8f88e-f0bd-4acb-ba54-a3e93db8134f"},"vehicle_type_id":"4","last_reported":1752959405,"current_range_meters":10000,"station_id":"ce4bhbp2rcd13ifvqerg","pricing_plan_id":"cebpf4jnsgd1na2vs0mg"},{"bike_id":"6d6bd2d6-4f3c-4395-a99f-695a7daec74a","system_id":"levelo_inurba_marseille","lat":43.29918,"lon":5.37478,"is_reserved":false,"is_disabled":false,"rental_uris":{"android":"levelo://app?vid=6d6bd2d6-4f3c-4395-a99f-695a7daec74a","ios":"levelo://app?vid=6d6bd2d6-4f3c-4395-a99f-695a7daec74a"},"vehicle_type_id":"4","last_reported":1752959405,"current_range_meters":9600,"station_id":"ce4bgjh2rcd13ifvqbg0","pricing_plan_id":"cebpf4jnsgd1na2vs0mg"},{"bike_id":"2d5426b7-c5ef-4761-9a4a-28e19dac621a","system_id":"levelo_inurba_marseille","lat":43.30411,"lon":5.41291,"is_reserved":false,"is_disabled":true,"rental_uris":{"android":"levelo://app?vid=2d5426b7-c5ef-4761-9a4a-28e19dac621a","ios":"levelo://app?vid=2d5426b7-c5ef-4761-9a4a-28e19dac621a"},"vehicle_type_id":"4","last_reported":1752959405,"current_range_meters":10000,"station_id":"ce4bhop2rcd13ifvqh8g","pricing_plan_id":"cebpf4jnsgd1na2vs0mg"},{"bike_id":"4b0ce299-727c-48ce-b95a-b67cdf638733","system_id":"levelo_inurba_marseille","lat":43.22508,"lon":5.34775,"is_reserved":false,"is_disabled":false,"rental_uris":{"android":"levelo://app?vid=4b0ce299-727c-48ce-b95a-b67cdf638733","ios":"levelo://app?vid=4b0ce299-727c-48ce-b95a-b67cdf638733"},"vehicle_type_id":"4","last_reported":1752959405,"current_range_meters":10800,"station_id":"st_cvj5dfep6f1abm77gieg","pricing_plan_id":"cebpf4jnsgd1na2vs0mg"},{"bike_id":"475b9799-8c28-49d7-a2bd-b989a871d401","system_id":"levelo_inurba_marseille","lat":43.240742,"lon":5.377536,"is_reserved":false,"is_disabled":true,"rental_uris":{"android":"levelo://app?vid=475b9799-8c28-49d7-a2bd-b989a871d401","ios":"levelo://app?vid=475b9799-8c28-49d7-a2bd-b989a871d401"},"vehicle_type_id":"4","last_reported":1752959405,"current_range_meters":10800,"station_id":"ce4bhnp2rcd13ifvqgvg","pricing_plan_id":"cebpf4jnsgd1na2vs0mg"},{"bike_id":"a42ba634-8313-4ee2-8853-222fb0117afc","system_id":"levelo_inurba_marseille","lat":43.29901,"lon":5.36664,"is_reserved":false,"is_disabled":false,"rental_uris":{"android":"levelo://app?vid=a42ba634-8313-4ee2-8853-222fb0117afc","ios":"levelo://app?vid=a42ba634-8313-4ee2-8853-222fb0117afc"},"vehicle_type_id":"4","last_reported":1752959405,"current_range_meters":10800,"station_id":"","pricing_plan_id":"cebpf4jnsgd1na2vs0mg"},{"bike_id":"57c22758-1bf7-4858-a1e2-e0b6a852d12f","system_id":"levelo_inurba_marseille","lat":43.29487,"lon":5.38608,"is_reserved":false,"is_disabled":false,"rental_uris":{"android":"levelo://app?vid=57c22758-1bf7-4858-a1e2-e0b6a852d12f","ios":"levelo://app?vid=57c22758-1bf7-4858-a1e2-e0b6a852d12f"},"vehicle_type_id":"4","last_reported":1752959405,"current_range_meters":11200,"station_id":"","pricing_plan_id":"cebpf4jnsgd1na2vs0mg"},{"bike_id":"d9a5ddb8-1a88-42e9-a4f2-440e2bdc40a8","system_id":"levelo_inurba_marseille","lat":43.30299,"lon":5.39216,"is_reserved":false,"is_disabled":false,"rental_uris":{"android":"levelo://app?vid=d9a5ddb8-1a88-42e9-a4f2-440e2bdc40a8","ios":"levelo://app?vid=d9a5ddb8-1a88-42e9-a4f2-440e2bdc40a8"},"vehicle_type_id":"4","last_reported":1752959405,"current_range_meters":11200,"station_id":"ce4bgkh2rcd13ifvqbk0","pricing_plan_id":"cebpf4jnsgd1na2vs0mg"},{"bike_id":"3a4aed34-5fc4-4600-a584-03248d90bf16","system_id":"levelo_inurba_marseille","lat":43.28692,"lon":5.37401,"is_reserved":false,"is_disabled":false,"rental_uris":{"android":"levelo://app?vid=3a4aed34-5fc4-4600-a584-03248d90bf16","ios":"levelo://app?vid=3a4aed34-5fc4-4600-a584-03248d90bf16"},"vehicle_type_id":"4","last_reported":1752959405,"current_range_meters":11200,"station_id":"ce4bh3p2rcd13ifvqdq0","pricing_plan_id":"cebpf4jnsgd1na2vs0mg"},{"bike_id":"647a87b3-bd99-49a7-ad48-3b6a1c0d420a","system_id":"levelo_inurba_marseille","lat":43.31896,"lon":5.40758,"is_reserved":false,"is_disabled":false,"rental_uris":{"android":"levelo://app?vid=647a87b3-bd99-49a7-ad48-3b6a1c0d420a","ios":"levelo://app?vid=647a87b3-bd99-49a7-ad48-3b6a1c0d420a"},"vehicle_type_id":"4","last_reported":1752959405,"current_range_meters":10800,"station_id":"ce4bhq12rcd13ifvqhig","pricing_plan_id":"cebpf4jnsgd1na2vs0mg"},{"bike_id":"1547a228-ae60-4a9a-b171-806fcf0e527a","system_id":"levelo_inurba_marseille","lat":43.316803,"lon":5.404719,"is_reserved":false,"is_disabled":false,"rental_uris":{"android":"levelo://app?vid=1547a228-ae60-4a9a-b171-806fcf0e527a","ios":"levelo://app?vid=1547a228-ae60-4a9a-b171-806fcf0e527a"},"vehicle_type_id":"4","last_reported":1752959405,"current_range_meters":11200,"station_id":"ce4bh012rcd13ifvqd00","pricing_plan_id":"cebpf4jnsgd1na2vs0mg"},{"bike_id":"3f4074a0-9e4d-4b47-86c3-18b7b1df1c72","system_id":"levelo_inurba_marseille","lat":43.28068,"lon":5.39645,"is_reserved":false,"is_disabled":false,"rental_uris":{"android":"levelo://app?vid=3f4074a0-9e4d-4b47-86c3-18b7b1df1c72","ios":"levelo://app?vid=3f4074a0-9e4d-4b47-86c3-18b7b1df1c72"},"vehicle_type_id":"4","last_reported":1752959405,"current_range_meters":10800,"station_id":"ce4bho12rcd13ifvqh2g","pricing_plan_id":"cebpf4jnsgd1na2vs0mg"},{"bike_id":"d9749d8f-7121-4a45-ac25-8f48b28876d4","system_id":"levelo_inurba_marseille","lat":43.28468,"lon":5.35907,"is_reserved":false,"is_disabled":false,"rental_uris":{"android":"levelo://app?vid=d9749d8f-7121-4a45-ac25-8f48b28876d4","ios":"levelo://app?vid=d9749d8f-7121-4a45-ac25-8f48b28876d4"},"vehicle_type_id":"4","last_reported":1752959405,"current_range_meters":11200,"station_id":"ce4bhah2rcd13ifvqei0","pricing_plan_id":"cebpf4jnsgd1na2vs0mg"},{"bike_id":"d7149a46-fb39-4935-aa6a-50600ec45c29","system_id":"levelo_inurba_marseille","lat":43.21753,"lon":5.34633,"is_reserved":false,"is_disabled":true,"rental_uris":{"android":"levelo://app?vid=d7149a46-fb39-4935-aa6a-50600ec45c29","ios":"levelo://app?vid=d7149a46-fb39-4935-aa6a-50600ec45c29"},"vehicle_type_id":"4","last_reported":1752959405,"current_range_meters":11200,"station_id":"st_cvj6r9ubvosntc0bgbag","pricing_plan_id":"cebpf4jnsgd1na2vs0mg"},{"bike_id":"479db0cc-a67c-45d0-9582-3b357098ff90","system_id":"levelo_inurba_marseille","lat":43.27821,"lon":5.39213,"is_reserved":false,"is_disabled":false,"rental_uris":{"android":"levelo://app?vid=479db0cc-a67c-45d0-9582-3b357098ff90","ios":"levelo://app?vid=479db0cc-a67c-45d0-9582-3b357098ff90"},"vehicle_type_id":"4","last_reported":1752959405,"current_range_meters":11200,"station_id":"ce4bhjp2rcd13ifvqga0","pricing_plan_id":"cebpf4jnsgd1na2vs0mg"},{"bike_id":"192b474f-9821-47f1-8711-7fa1ab49cf28","system_id":"levelo_inurba_marseille","lat":43.30092,"lon":5.3909,"is_reserved":false,"is_disabled":false,"rental_uris":{"android":"levelo://app?vid=192b474f-9821-47f1-8711-7fa1ab49cf28","ios":"levelo://app?vid=192b474f-9821-47f1-8711-7fa1ab49cf28"},"vehicle_type_id":"4","last_reported":1752959405,"current_range_meters":11200,"station_id":"ce4bh192rcd13ifvqdb0","pricing_plan_id":"cebpf4jnsgd1na2vs0mg"},{"bike_id":"ac141403-2eff-454e-8bd1-3d400d40ed2b","system_id":"levelo_inurba_marseille","lat":43.3312,"lon":5.4003,"is_reserved":false,"is_disabled":false,"rental_uris":{"android":"levelo://app?vid=ac141403-2eff-454e-8bd1-3d400d40ed2b","ios":"levelo://app?vid=ac141403-2eff-454e-8bd1-3d400d40ed2b"},"vehicle_type_id":"4","last_reported":1752959405,"current_range_meters":11600,"station_id":"","pricing_plan_id":"cebpf4jnsgd1na2vs0mg"},{"bike_id":"79769393-2bea-4ab5-a558-af7a5b88b9fd","system_id":"levelo_inurba_marseille","lat":43.28934,"lon":5.36647,"is_reserved":false,"is_disabled":false,"rental_uris":{"android":"levelo://app?vid=79769393-2bea-4ab5-a558-af7a5b88b9fd","ios":"levelo://app?vid=79769393-2bea-4ab5-a558-af7a5b88b9fd"},"vehicle_type_id":"4","last_reported":1752959405,"current_range_meters":11200,"station_id":"ce4bhap2rcd13ifvqek0","pricing_plan_id":"cebpf4jnsgd1na2vs0mg"},{"bike_id":"9eee562f-c74b-4c1a-8fa0-1792764207de","system_id":"levelo_inurba_marseille","lat":43.25506,"lon":5.37656,"is_reserved":false,"is_disabled":false,"rental_uris":{"android":"levelo://app?vid=9eee562f-c74b-4c1a-8fa0-1792764207de","ios":"levelo://app?vid=9eee562f-c74b-4c1a-8fa0-1792764207de"},"vehicle_type_id":"4","last_reported":1752959405,"current_range_meters":12000,"station_id":"ce4bhh12rcd13ifvqff0","pricing_plan_id":"cebpf4jnsgd1na2vs0mg"},{"bike_id":"4b8dc513-60f0-49ad-b282-0ce57025de3b","system_id":"levelo_inurba_marseille","lat":43.26212,"lon":5.37448,"is_reserved":false,"is_disabled":false,"rental_uris":{"android":"levelo://app?vid=4b8dc513-60f0-49ad-b282-0ce57025de3b","ios":"levelo://app?vid=4b8dc513-60f0-49ad-b282-0ce57025de3b"},"vehicle_type_id":"4","last_reported":1752959405,"current_range_meters":12000,"station_id":"ce4bhgp2rcd13ifvqfc0","pricing_plan_id":"cebpf4jnsgd1na2vs0mg"},{"bike_id":"b970126c-c1c3-439a-8880-44ad88bd90cf","system_id":"levelo_inurba_marseille","lat":43.32098,"lon":5.36805,"is_reserved":false,"is_disabled":false,"rental_uris":{"android":"levelo://app?vid=b970126c-c1c3-439a-8880-44ad88bd90cf","ios":"levelo://app?vid=b970126c-c1c3-439a-8880-44ad88bd90cf"},"vehicle_type_id":"4","last_reported":1752959405,"current_range_meters":12400,"station_id":"ce4bhrh2rcd13ifvqhug","pricing_plan_id":"cebpf4jnsgd1na2vs0mg"},{"bike_id":"889736c4-725d-4e18-8447-285e3556b022","system_id":"levelo_inurba_marseille","lat":43.29256,"lon":5.40903,"is_reserved":false,"is_disabled":false,"rental_uris":{"android":"levelo://app?vid=889736c4-725d-4e18-8447-285e3556b022","ios":"levelo://app?vid=889736c4-725d-4e18-8447-285e3556b022"},"vehicle_type_id":"4","last_reported":1752959405,"current_range_meters":12000,"station_id":"ce4bh192rcd13ifvqdc0","pricing_plan_id":"cebpf4jnsgd1na2vs0mg"},{"bike_id":"347a9c5e-efff-40ba-bf5d-1b904fa9ad79","system_id":"levelo_inurba_marseille","lat":43.24383,"lon":5.37058,"is_reserved":false,"is_disabled":false,"rental_uris":{"android":"levelo://app?vid=347a9c5e-efff-40ba-bf5d-1b904fa9ad79","ios":"levelo://app?vid=347a9c5e-efff-40ba-bf5d-1b904fa9ad79"},"vehicle_type_id":"4","last_reported":1752959405,"current_range_meters":12000,"station_id":"ce4bhhh2rcd13ifvqfk0","pricing_plan_id":"cebpf4jnsgd1na2vs0mg"},{"bike_id":"199fede4-c1bf-429f-97cf-513d782778e9","system_id":"levelo_inurba_marseille","lat":43.26954,"lon":5.38628,"is_reserved":false,"is_disabled":false,"rental_uris":{"android":"levelo://app?vid=199fede4-c1bf-429f-97cf-513d782778e9","ios":"levelo://app?vid=199fede4-c1bf-429f-97cf-513d782778e9"},"vehicle_type_id":"4","last_reported":1752959405,"current_range_meters":11600,"station_id":"ce4bhh92rcd13ifvqfh0","pricing_plan_id":"cebpf4jnsgd1na2vs0mg"},{"bike_id":"94c07cb2-0943-4d24-99f2-97bdab47aa3f","system_id":"levelo_inurba_marseille","lat":43.337444,"lon":5.374475,"is_reserved":false,"is_disabled":false,"rental_uris":{"android":"levelo://app?vid=94c07cb2-0943-4d24-99f2-97bdab47aa3f","ios":"levelo://app?vid=94c07cb2-0943-4d24-99f2-97bdab47aa3f"},"vehicle_type_id":"4","last_reported":1752959405,"current_range_meters":12000,"station_id":"","pricing_plan_id":"cebpf4jnsgd1na2vs0mg"},{"bike_id":"9f96b854-e027-4c40-b573-f426a572ccbf","system_id":"levelo_inurba_marseille","lat":43.32969,"lon":5.39828,"is_reserved":false,"is_disabled":false,"rental_uris":{"android":"levelo://app?vid=9f96b854-e027-4c40-b573-f426a572ccbf","ios":"levelo://app?vid=9f96b854-e027-4c40-b573-f426a572ccbf"},"vehicle_type_id":"4","last_reported":1752959405,"current_range_meters":12400,"station_id":"","pricing_plan_id":"cebpf4jnsgd1na2vs0mg"},{"bike_id":"b9fced18-9d1a-4197-85f4-d3fcdf201017","system_id":"levelo_inurba_marseille","lat":43.29868,"lon":5.39734,"is_reserved":false,"is_disabled":false,"rental_uris":{"android":"levelo://app?vid=b9fced18-9d1a-4197-85f4-d3fcdf201017","ios":"levelo://app?vid=b9fced18-9d1a-4197-85f4-d3fcdf201017"},"vehicle_type_id":"4","last_reported":1752959405,"current_range_meters":12400,"station_id":"","pricing_plan_id":"cebpf4jnsgd1na2vs0mg"},{"bike_id":"2497a801-b6ae-4d7f-8b18-d20f7075e057","system_id":"levelo_inurba_marseille","lat":43.299377,"lon":5.365544,"is_reserved":false,"is_disabled":false,"rental_uris":{"android":"levelo://app?vid=2497a801-b6ae-4d7f-8b18-d20f7075e057","ios":"levelo://app?vid=2497a801-b6ae-4d7f-8b18-d20f7075e057"},"vehicle_type_id":"4","last_reported":1752959405,"current_range_meters":12400,"station_id":"ce4bgm92rcd13ifvqbr0","pricing_plan_id":"cebpf4jnsgd1na2vs0mg"},{"bike_id":"f9d8db9c-e2b5-49b3-a065-ecbddb17acfb","system_id":"levelo_inurba_marseille","lat":43.30942,"lon":5.39032,"is_reserved":false,"is_disabled":false,"rental_uris":{"android":"levelo://app?vid=f9d8db9c-e2b5-49b3-a065-ecbddb17acfb","ios":"levelo://app?vid=f9d8db9c-e2b5-49b3-a065-ecbddb17acfb"},"vehicle_type_id":"4","last_reported":1752959405,"current_range_meters":12400,"station_id":"ce4bgup2rcd13ifvqco0","pricing_plan_id":"cebpf4jnsgd1na2vs0mg"},{"bike_id":"78e7ae38-f610-4faf-ab90-6e5738403c6d","system_id":"levelo_inurba_marseille","lat":43.29062,"lon":5.3717,"is_reserved":false,"is_disabled":false,"rental_uris":{"android":"levelo://app?vid=78e7ae38-f610-4faf-ab90-6e5738403c6d","ios":"levelo://app?vid=78e7ae38-f610-4faf-ab90-6e5738403c6d"},"vehicle_type_id":"4","last_reported":1752959405,"current_range_meters":12400,"station_id":"ce4bh5p2rcd13ifvqe4g","pricing_plan_id":"cebpf4jnsgd1na2vs0mg"},{"bike_id":"a8f038fc-7f42-4a0e-afaa-b26e58804467","system_id":"levelo_inurba_marseille","lat":43.26952,"lon":5.39342,"is_reserved":false,"is_disabled":false,"rental_uris":{"android":"levelo://app?vid=a8f038fc-7f42-4a0e-afaa-b26e58804467","ios":"levelo://app?vid=a8f038fc-7f42-4a0e-afaa-b26e58804467"},"vehicle_type_id":"4","last_reported":1752959405,"current_range_meters":12400,"station_id":"","pricing_plan_id":"cebpf4jnsgd1na2vs0mg"},{"bike_id":"64bf626d-1de1-4e5c-8e0f-82b845ef5341","system_id":"levelo_inurba_marseille","lat":43.27509,"lon":5.39538,"is_reserved":false,"is_disabled":false,"rental_uris":{"android":"levelo://app?vid=64bf626d-1de1-4e5c-8e0f-82b845ef5341","ios":"levelo://app?vid=64bf626d-1de1-4e5c-8e0f-82b845ef5341"},"vehicle_type_id":"4","last_reported":1752959405,"current_range_meters":12400,"station_id":"","pricing_plan_id":"cebpf4jnsgd1na2vs0mg"},{"bike_id":"91a7286c-a7a6-4801-8ed2-79965c5f0471","system_id":"levelo_inurba_marseille","lat":43.30783,"lon":5.37662,"is_reserved":false,"is_disabled":false,"rental_uris":{"android":"levelo://app?vid=91a7286c-a7a6-4801-8ed2-79965c5f0471","ios":"levelo://app?vid=91a7286c-a7a6-4801-8ed2-79965c5f0471"},"vehicle_type_id":"4","last_reported":1752959405,"current_range_meters":12400,"station_id":"ce4bgv92rcd13ifvqcq0","pricing_plan_id":"cebpf4jnsgd1na2vs0mg"},{"bike_id":"dbe3f53f-5cf1-428e-b135-1e976ecdd9e1","system_id":"levelo_inurba_marseille","lat":43.229295,"lon":5.353761,"is_reserved":false,"is_disabled":false,"rental_uris":{"android":"levelo://app?vid=dbe3f53f-5cf1-428e-b135-1e976ecdd9e1","ios":"levelo://app?vid=dbe3f53f-5cf1-428e-b135-1e976ecdd9e1"},"vehicle_type_id":"4","last_reported":1752959405,"current_range_meters":12400,"station_id":"","pricing_plan_id":"cebpf4jnsgd1na2vs0mg"},{"bike_id":"d1e9c72e-7489-4052-b944-813b64bc55b4","system_id":"levelo_inurba_marseille","lat":43.31589,"lon":5.38943,"is_reserved":false,"is_disabled":false,"rental_uris":{"android":"levelo://app?vid=d1e9c72e-7489-4052-b944-813b64bc55b4","ios":"levelo://app?vid=d1e9c72e-7489-4052-b944-813b64bc55b4"},"vehicle_type_id":"4","last_reported":1752959405,"current_range_meters":12400,"station_id":"","pricing_plan_id":"cebpf4jnsgd1na2vs0mg"},{"bike_id":"3ad37f1b-5c1c-42bb-8c8a-36228b5bd575","system_id":"levelo_inurba_marseille","lat":43.24696,"lon":5.38157,"is_reserved":false,"is_disabled":false,"rental_uris":{"android":"levelo://app?vid=3ad37f1b-5c1c-42bb-8c8a-36228b5bd575","ios":"levelo://app?vid=3ad37f1b-5c1c-42bb-8c8a-36228b5bd575"},"vehicle_type_id":"4","last_reported":1752959405,"current_range_meters":12400,"station_id":"ce4bhih2rcd13ifvqfr0","pricing_plan_id":"cebpf4jnsgd1na2vs0mg"},{"bike_id":"3f900ef3-78e6-4217-a655-c869a65bb448","system_id":"levelo_inurba_marseille","lat":43.2655,"lon":5.37292,"is_reserved":false,"is_disabled":false,"rental_uris":{"android":"levelo://app?vid=3f900ef3-78e6-4217-a655-c869a65bb448","ios":"levelo://app?vid=3f900ef3-78e6-4217-a655-c869a65bb448"},"vehicle_type_id":"4","last_reported":1752959405,"current_range_meters":10000,"station_id":"ce4bhg12rcd13ifvqf70","pricing_plan_id":"cebpf4jnsgd1na2vs0mg"},{"bike_id":"59b69987-96b3-4153-86bc-44d38d1cc5e5","system_id":"levelo_inurba_marseille","lat":43.30948,"lon":5.3905,"is_reserved":false,"is_disabled":false,"rental_uris":{"android":"levelo://app?vid=59b69987-96b3-4153-86bc-44d38d1cc5e5","ios":"levelo://app?vid=59b69987-96b3-4153-86bc-44d38d1cc5e5"},"vehicle_type_id":"4","last_reported":1752959405,"current_range_meters":12800,"station_id":"ce4bgup2rcd13ifvqco0","pricing_plan_id":"cebpf4jnsgd1na2vs0mg"},{"bike_id":"b894af70-1151-41a6-bc5f-4ee3eff68f87","system_id":"levelo_inurba_marseille","lat":43.3145,"lon":5.37381,"is_reserved":false,"is_disabled":false,"rental_uris":{"android":"levelo://app?vid=b894af70-1151-41a6-bc5f-4ee3eff68f87","ios":"levelo://app?vid=b894af70-1151-41a6-bc5f-4ee3eff68f87"},"vehicle_type_id":"4","last_reported":1752959405,"current_range_meters":12800,"station_id":"","pricing_plan_id":"cebpf4jnsgd1na2vs0mg"},{"bike_id":"fe38f3ff-b26b-4b42-9f52-b85dfa30169c","system_id":"levelo_inurba_marseille","lat":43.29227,"lon":5.38496,"is_reserved":false,"is_disabled":false,"rental_uris":{"android":"levelo://app?vid=fe38f3ff-b26b-4b42-9f52-b85dfa30169c","ios":"levelo://app?vid=fe38f3ff-b26b-4b42-9f52-b85dfa30169c"},"vehicle_type_id":"4","last_reported":1752959405,"current_range_meters":12800,"station_id":"","pricing_plan_id":"cebpf4jnsgd1na2vs0mg"},{"bike_id":"d6bee7ec-76b7-4336-b944-dba92ca169f1","system_id":"levelo_inurba_marseille","lat":43.28252,"lon":5.35075,"is_reserved":false,"is_disabled":false,"rental_uris":{"android":"levelo://app?vid=d6bee7ec-76b7-4336-b944-dba92ca169f1","ios":"levelo://app?vid=d6bee7ec-76b7-4336-b944-dba92ca169f1"},"vehicle_type_id":"4","last_reported":1752959405,"current_range_meters":12800,"station_id":"ce4bhbp2rcd13ifvqerg","pricing_plan_id":"cebpf4jnsgd1na2vs0mg"},{"bike_id":"0925b2e3-4311-4d4b-82d3-a954d61acca7","system_id":"levelo_inurba_marseille","lat":43.28411,"lon":5.34978,"is_reserved":false,"is_disabled":false,"rental_uris":{"android":"levelo://app?vid=0925b2e3-4311-4d4b-82d3-a954d61acca7","ios":"levelo://app?vid=0925b2e3-4311-4d4b-82d3-a954d61acca7"},"vehicle_type_id":"4","last_reported":1752959405,"current_range_meters":13600,"station_id":"ce4bhbh2rcd13ifvqepg","pricing_plan_id":"cebpf4jnsgd1na2vs0mg"},{"bike_id":"ab799f7c-9735-4658-8411-ad577f2ebabe","system_id":"levelo_inurba_marseille","lat":43.27492,"lon":5.42462,"is_reserved":false,"is_disabled":false,"rental_uris":{"android":"levelo://app?vid=ab799f7c-9735-4658-8411-ad577f2ebabe","ios":"levelo://app?vid=ab799f7c-9735-4658-8411-ad577f2ebabe"},"vehicle_type_id":"4","last_reported":1752959405,"current_range_meters":13600,"station_id":"ce4bhn92rcd13ifvqgrg","pricing_plan_id":"cebpf4jnsgd1na2vs0mg"},{"bike_id":"054156fa-6687-41c7-b4e9-29d92f5bfc09","system_id":"levelo_inurba_marseille","lat":43.29006,"lon":5.38648,"is_reserved":false,"is_disabled":false,"rental_uris":{"android":"levelo://app?vid=054156fa-6687-41c7-b4e9-29d92f5bfc09","ios":"levelo://app?vid=054156fa-6687-41c7-b4e9-29d92f5bfc09"},"vehicle_type_id":"4","last_reported":1752959405,"current_range_meters":13600,"station_id":"ce4bh4p2rcd13ifvqe0g","pricing_plan_id":"cebpf4jnsgd1na2vs0mg"},{"bike_id":"8b5f30be-ee7f-4bb2-93f9-6fb3a0dee756","system_id":"levelo_inurba_marseille","lat":43.26193,"lon":5.37448,"is_reserved":false,"is_disabled":false,"rental_uris":{"android":"levelo://app?vid=8b5f30be-ee7f-4bb2-93f9-6fb3a0dee756","ios":"levelo://app?vid=8b5f30be-ee7f-4bb2-93f9-6fb3a0dee756"},"vehicle_type_id":"4","last_reported":1752959405,"current_range_meters":13600,"station_id":"ce4bhgp2rcd13ifvqfc0","pricing_plan_id":"cebpf4jnsgd1na2vs0mg"},{"bike_id":"779179fb-89f0-4f19-a8e1-bcf9140d6a02","system_id":"levelo_inurba_marseille","lat":43.294244,"lon":5.385819,"is_reserved":false,"is_disabled":false,"rental_uris":{"android":"levelo://app?vid=779179fb-89f0-4f19-a8e1-bcf9140d6a02","ios":"levelo://app?vid=779179fb-89f0-4f19-a8e1-bcf9140d6a02"},"vehicle_type_id":"4","last_reported":1752959405,"current_range_meters":13600,"station_id":"ce4bh2h2rcd13ifvqdh0","pricing_plan_id":"cebpf4jnsgd1na2vs0mg"},{"bike_id":"c9ffd04b-c3a5-49bc-9896-054acbb108c7","system_id":"levelo_inurba_marseille","lat":43.22505,"lon":5.34773,"is_reserved":false,"is_disabled":false,"rental_uris":{"android":"levelo://app?vid=c9ffd04b-c3a5-49bc-9896-054acbb108c7","ios":"levelo://app?vid=c9ffd04b-c3a5-49bc-9896-054acbb108c7"},"vehicle_type_id":"4","last_reported":1752959405,"current_range_meters":13600,"station_id":"st_cvj5dfep6f1abm77gieg","pricing_plan_id":"cebpf4jnsgd1na2vs0mg"},{"bike_id":"5afb5397-5627-4d1d-8618-c19fb5fd41fe","system_id":"levelo_inurba_marseille","lat":43.31109,"lon":5.37762,"is_reserved":false,"is_disabled":false,"rental_uris":{"android":"levelo://app?vid=5afb5397-5627-4d1d-8618-c19fb5fd41fe","ios":"levelo://app?vid=5afb5397-5627-4d1d-8618-c19fb5fd41fe"},"vehicle_type_id":"4","last_reported":1752959405,"current_range_meters":14000,"station_id":"ce4bgt92rcd13ifvqcg0","pricing_plan_id":"cebpf4jnsgd1na2vs0mg"},{"bike_id":"0fd02cf6-67fb-4589-807f-241dd50b7e1a","system_id":"levelo_inurba_marseille","lat":43.29902,"lon":5.43675,"is_reserved":false,"is_disabled":true,"rental_uris":{"android":"levelo://app?vid=0fd02cf6-67fb-4589-807f-241dd50b7e1a","ios":"levelo://app?vid=0fd02cf6-67fb-4589-807f-241dd50b7e1a"},"vehicle_type_id":"4","last_reported":1752959405,"current_range_meters":14000,"station_id":"ce4bhpp2rcd13ifvqhfg","pricing_plan_id":"cebpf4jnsgd1na2vs0mg"},{"bike_id":"646bd144-4ffa-49b8-a08d-6b47ca08200f","system_id":"levelo_inurba_marseille","lat":43.254906,"lon":5.376378,"is_reserved":false,"is_disabled":true,"rental_uris":{"android":"levelo://app?vid=646bd144-4ffa-49b8-a08d-6b47ca08200f","ios":"levelo://app?vid=646bd144-4ffa-49b8-a08d-6b47ca08200f"},"vehicle_type_id":"4","last_reported":1752959405,"current_range_meters":14000,"station_id":"ce4bhh12rcd13ifvqff0","pricing_plan_id":"cebpf4jnsgd1na2vs0mg"},{"bike_id":"6a193f41-f336-48d3-a5d0-a6fca3bf067e","system_id":"levelo_inurba_marseille","lat":43.24659,"lon":5.38163,"is_reserved":false,"is_disabled":false,"rental_uris":{"android":"levelo://app?vid=6a193f41-f336-48d3-a5d0-a6fca3bf067e","ios":"levelo://app?vid=6a193f41-f336-48d3-a5d0-a6fca3bf067e"},"vehicle_type_id":"4","last_reported":1752959405,"current_range_meters":14000,"station_id":"ce4bhih2rcd13ifvqfr0","pricing_plan_id":"cebpf4jnsgd1na2vs0mg"},{"bike_id":"f6eb61fb-fbe3-459b-99e5-607feb8a2161","system_id":"levelo_inurba_marseille","lat":43.29009,"lon":5.38134,"is_reserved":false,"is_disabled":false,"rental_uris":{"android":"levelo://app?vid=f6eb61fb-fbe3-459b-99e5-607feb8a2161","ios":"levelo://app?vid=f6eb61fb-fbe3-459b-99e5-607feb8a2161"},"vehicle_type_id":"4","last_reported":1752959405,"current_range_meters":14000,"station_id":"ce4bh4p2rcd13ifvqe1g","pricing_plan_id":"cebpf4jnsgd1na2vs0mg"},{"bike_id":"359b4882-ccb1-4513-a860-01a495a5514f","system_id":"levelo_inurba_marseille","lat":43.29431,"lon":5.38595,"is_reserved":false,"is_disabled":false,"rental_uris":{"android":"levelo://app?vid=359b4882-ccb1-4513-a860-01a495a5514f","ios":"levelo://app?vid=359b4882-ccb1-4513-a860-01a495a5514f"},"vehicle_type_id":"4","last_reported":1752959405,"current_range_meters":14000,"station_id":"ce4bh2h2rcd13ifvqdh0","pricing_plan_id":"cebpf4jnsgd1na2vs0mg"},{"bike_id":"4e1a74ce-8b42-4cf2-b555-5bd359d84ac3","system_id":"levelo_inurba_marseille","lat":43.29864,"lon":5.39735,"is_reserved":false,"is_disabled":false,"rental_uris":{"android":"levelo://app?vid=4e1a74ce-8b42-4cf2-b555-5bd359d84ac3","ios":"levelo://app?vid=4e1a74ce-8b42-4cf2-b555-5bd359d84ac3"},"vehicle_type_id":"4","last_reported":1752959405,"current_range_meters":14000,"station_id":"ce4bh0h2rcd13ifvqd50","pricing_plan_id":"cebpf4jnsgd1na2vs0mg"},{"bike_id":"d421927e-7ddd-40a0-904f-5b4ff0266a72","system_id":"levelo_inurba_marseille","lat":43.31912,"lon":5.40183,"is_reserved":false,"is_disabled":false,"rental_uris":{"android":"levelo://app?vid=d421927e-7ddd-40a0-904f-5b4ff0266a72","ios":"levelo://app?vid=d421927e-7ddd-40a0-904f-5b4ff0266a72"},"vehicle_type_id":"4","last_reported":1752959405,"current_range_meters":14400,"station_id":"","pricing_plan_id":"cebpf4jnsgd1na2vs0mg"},{"bike_id":"fbd9a3d1-b647-4525-9df7-6e974a638ddb","system_id":"levelo_inurba_marseille","lat":43.26209,"lon":5.37461,"is_reserved":false,"is_disabled":false,"rental_uris":{"android":"levelo://app?vid=fbd9a3d1-b647-4525-9df7-6e974a638ddb","ios":"levelo://app?vid=fbd9a3d1-b647-4525-9df7-6e974a638ddb"},"vehicle_type_id":"4","last_reported":1752959405,"current_range_meters":14400,"station_id":"ce4bhgp2rcd13ifvqfc0","pricing_plan_id":"cebpf4jnsgd1na2vs0mg"},{"bike_id":"46acccef-b10e-425f-913a-d36865f4eac4","system_id":"levelo_inurba_marseille","lat":43.26191,"lon":5.37473,"is_reserved":false,"is_disabled":false,"rental_uris":{"android":"levelo://app?vid=46acccef-b10e-425f-913a-d36865f4eac4","ios":"levelo://app?vid=46acccef-b10e-425f-913a-d36865f4eac4"},"vehicle_type_id":"4","last_reported":1752959405,"current_range_meters":14400,"station_id":"ce4bhgp2rcd13ifvqfc0","pricing_plan_id":"cebpf4jnsgd1na2vs0mg"},{"bike_id":"2bf001c3-3738-4bec-8230-494bfc8c58ce","system_id":"levelo_inurba_marseille","lat":43.31116,"lon":5.37768,"is_reserved":false,"is_disabled":false,"rental_uris":{"android":"levelo://app?vid=2bf001c3-3738-4bec-8230-494bfc8c58ce","ios":"levelo://app?vid=2bf001c3-3738-4bec-8230-494bfc8c58ce"},"vehicle_type_id":"4","last_reported":1752959405,"current_range_meters":14800,"station_id":"ce4bgt92rcd13ifvqcg0","pricing_plan_id":"cebpf4jnsgd1na2vs0mg"},{"bike_id":"f64d4495-c6c3-4047-b421-2e9c29951567","system_id":"levelo_inurba_marseille","lat":43.22472,"lon":5.34801,"is_reserved":false,"is_disabled":false,"rental_uris":{"android":"levelo://app?vid=f64d4495-c6c3-4047-b421-2e9c29951567","ios":"levelo://app?vid=f64d4495-c6c3-4047-b421-2e9c29951567"},"vehicle_type_id":"4","last_reported":1752959405,"current_range_meters":14800,"station_id":"st_cvj5dfep6f1abm77gieg","pricing_plan_id":"cebpf4jnsgd1na2vs0mg"},{"bike_id":"45dea0eb-918d-49f1-8341-001e35c226f0","system_id":"levelo_inurba_marseille","lat":43.21198,"lon":5.35056,"is_reserved":false,"is_disabled":false,"rental_uris":{"android":"levelo://app?vid=45dea0eb-918d-49f1-8341-001e35c226f0","ios":"levelo://app?vid=45dea0eb-918d-49f1-8341-001e35c226f0"},"vehicle_type_id":"4","last_reported":1752959405,"current_range_meters":14800,"station_id":"st_cvj6sg6p6f1abm77japg","pricing_plan_id":"cebpf4jnsgd1na2vs0mg"},{"bike_id":"cf9f7b6f-b252-45aa-bd41-e7b8a5947e88","system_id":"levelo_inurba_marseille","lat":43.26945,"lon":5.40273,"is_reserved":false,"is_disabled":true,"rental_uris":{"android":"levelo://app?vid=cf9f7b6f-b252-45aa-bd41-e7b8a5947e88","ios":"levelo://app?vid=cf9f7b6f-b252-45aa-bd41-e7b8a5947e88"},"vehicle_type_id":"4","last_reported":1752959405,"current_range_meters":14800,"station_id":"cjm6bp8fraef2m0cb0m0","pricing_plan_id":"cebpf4jnsgd1na2vs0mg"},{"bike_id":"e0e86a53-f6ec-4bc0-acd3-26ab0fd57264","system_id":"levelo_inurba_marseille","lat":43.30427,"lon":5.38894,"is_reserved":false,"is_disabled":false,"rental_uris":{"android":"levelo://app?vid=e0e86a53-f6ec-4bc0-acd3-26ab0fd57264","ios":"levelo://app?vid=e0e86a53-f6ec-4bc0-acd3-26ab0fd57264"},"vehicle_type_id":"4","last_reported":1752959405,"current_range_meters":14800,"station_id":"ce4bgk12rcd13ifvqbi0","pricing_plan_id":"cebpf4jnsgd1na2vs0mg"},{"bike_id":"a6de290b-5c15-427b-bc37-8301607e1735","system_id":"levelo_inurba_marseille","lat":43.337444,"lon":5.374475,"is_reserved":false,"is_disabled":false,"rental_uris":{"android":"levelo://app?vid=a6de290b-5c15-427b-bc37-8301607e1735","ios":"levelo://app?vid=a6de290b-5c15-427b-bc37-8301607e1735"},"vehicle_type_id":"4","last_reported":1752959405,"current_range_meters":14800,"station_id":"","pricing_plan_id":"cebpf4jnsgd1na2vs0mg"},{"bike_id":"1e7b6067-ac1d-4675-a894-761751c04ee1","system_id":"levelo_inurba_marseille","lat":43.30936,"lon":5.39056,"is_reserved":false,"is_disabled":false,"rental_uris":{"android":"levelo://app?vid=1e7b6067-ac1d-4675-a894-761751c04ee1","ios":"levelo://app?vid=1e7b6067-ac1d-4675-a894-761751c04ee1"},"vehicle_type_id":"4","last_reported":1752959405,"current_range_meters":14800,"station_id":"ce4bgup2rcd13ifvqco0","pricing_plan_id":"cebpf4jnsgd1na2vs0mg"},{"bike_id":"37a30332-43cd-4f13-9482-6e44bd94e523","system_id":"levelo_inurba_marseille","lat":43.28662,"lon":5.3635,"is_reserved":false,"is_disabled":false,"rental_uris":{"android":"levelo://app?vid=37a30332-43cd-4f13-9482-6e44bd94e523","ios":"levelo://app?vid=37a30332-43cd-4f13-9482-6e44bd94e523"},"vehicle_type_id":"4","last_reported":1752959405,"current_range_meters":14800,"station_id":"ce4bhah2rcd13ifvqej0","pricing_plan_id":"cebpf4jnsgd1na2vs0mg"},{"bike_id":"416f7c2d-e4f8-4c8a-81e8-74deeb90738b","system_id":"levelo_inurba_marseille","lat":43.29522,"lon":5.39415,"is_reserved":false,"is_disabled":false,"rental_uris":{"android":"levelo://app?vid=416f7c2d-e4f8-4c8a-81e8-74deeb90738b","ios":"levelo://app?vid=416f7c2d-e4f8-4c8a-81e8-74deeb90738b"},"vehicle_type_id":"4","last_reported":1752959405,"current_range_meters":14800,"station_id":"ce4bh292rcd13ifvqdf0","pricing_plan_id":"cebpf4jnsgd1na2vs0mg"},{"bike_id":"892e06aa-05f6-415f-96f6-13455b0802de","system_id":"levelo_inurba_marseille","lat":43.29567,"lon":5.37493,"is_reserved":false,"is_disabled":true,"rental_uris":{"android":"levelo://app?vid=892e06aa-05f6-415f-96f6-13455b0802de","ios":"levelo://app?vid=892e06aa-05f6-415f-96f6-13455b0802de"},"vehicle_type_id":"4","last_reported":1752959405,"current_range_meters":14800,"station_id":"ce4bgh92rcd13ifvqb50","pricing_plan_id":"cebpf4jnsgd1na2vs0mg"},{"bike_id":"c37b5c86-3e55-4f4b-870f-cbb09c385e03","system_id":"levelo_inurba_marseille","lat":43.30949,"lon":5.39057,"is_reserved":false,"is_disabled":false,"rental_uris":{"android":"levelo://app?vid=c37b5c86-3e55-4f4b-870f-cbb09c385e03","ios":"levelo://app?vid=c37b5c86-3e55-4f4b-870f-cbb09c385e03"},"vehicle_type_id":"4","last_reported":1752959405,"current_range_meters":14800,"station_id":"ce4bgup2rcd13ifvqco0","pricing_plan_id":"cebpf4jnsgd1na2vs0mg"},{"bike_id":"98d7abd1-ec5c-4068-b49d-0382d29c2eb4","system_id":"levelo_inurba_marseille","lat":43.29266,"lon":5.38458,"is_reserved":false,"is_disabled":false,"rental_uris":{"android":"levelo://app?vid=98d7abd1-ec5c-4068-b49d-0382d29c2eb4","ios":"levelo://app?vid=98d7abd1-ec5c-4068-b49d-0382d29c2eb4"},"vehicle_type_id":"4","last_reported":1752959405,"current_range_meters":14800,"station_id":"ce4bh692rcd13ifvqea0","pricing_plan_id":"cebpf4jnsgd1na2vs0mg"},{"bike_id":"5a570911-22d0-41b1-a776-0fe138c4bdc4","system_id":"levelo_inurba_marseille","lat":43.21195,"lon":5.35077,"is_reserved":false,"is_disabled":false,"rental_uris":{"android":"levelo://app?vid=5a570911-22d0-41b1-a776-0fe138c4bdc4","ios":"levelo://app?vid=5a570911-22d0-41b1-a776-0fe138c4bdc4"},"vehicle_type_id":"4","last_reported":1752959405,"current_range_meters":14800,"station_id":"st_cvj6sg6p6f1abm77japg","pricing_plan_id":"cebpf4jnsgd1na2vs0mg"},{"bike_id":"7388491b-7f26-41de-b012-11bf683b569c","system_id":"levelo_inurba_marseille","lat":43.27834,"lon":5.39217,"is_reserved":false,"is_disabled":false,"rental_uris":{"android":"levelo://app?vid=7388491b-7f26-41de-b012-11bf683b569c","ios":"levelo://app?vid=7388491b-7f26-41de-b012-11bf683b569c"},"vehicle_type_id":"4","last_reported":1752959405,"current_range_meters":14800,"station_id":"ce4bhjp2rcd13ifvqga0","pricing_plan_id":"cebpf4jnsgd1na2vs0mg"},{"bike_id":"7592d3b0-727d-4107-ba81-a2966cdc2b34","system_id":"levelo_inurba_marseille","lat":43.262236,"lon":5.404408,"is_reserved":false,"is_disabled":false,"rental_uris":{"android":"levelo://app?vid=7592d3b0-727d-4107-ba81-a2966cdc2b34","ios":"levelo://app?vid=7592d3b0-727d-4107-ba81-a2966cdc2b34"},"vehicle_type_id":"4","last_reported":1752959405,"current_range_meters":14800,"station_id":"ce4bhmh2rcd13ifvqgmg","pricing_plan_id":"cebpf4jnsgd1na2vs0mg"},{"bike_id":"06f1256f-7dc4-40ec-9a27-0298c72c387e","system_id":"levelo_inurba_marseille","lat":43.29576,"lon":5.39985,"is_reserved":false,"is_disabled":false,"rental_uris":{"android":"levelo://app?vid=06f1256f-7dc4-40ec-9a27-0298c72c387e","ios":"levelo://app?vid=06f1256f-7dc4-40ec-9a27-0298c72c387e"},"vehicle_type_id":"4","last_reported":1752959405,"current_range_meters":15200,"station_id":"ce4bh312rcd13ifvqdj0","pricing_plan_id":"cebpf4jnsgd1na2vs0mg"},{"bike_id":"6c4ed7fb-a359-4544-8b96-d8e3ed65cfad","system_id":"levelo_inurba_marseille","lat":43.259866,"lon":5.375724,"is_reserved":false,"is_disabled":false,"rental_uris":{"android":"levelo://app?vid=6c4ed7fb-a359-4544-8b96-d8e3ed65cfad","ios":"levelo://app?vid=6c4ed7fb-a359-4544-8b96-d8e3ed65cfad"},"vehicle_type_id":"4","last_reported":1752959405,"current_range_meters":15200,"station_id":"ce4bhgh2rcd13ifvqfa0","pricing_plan_id":"cebpf4jnsgd1na2vs0mg"},{"bike_id":"6e6dbff9-8bc5-462e-8d10-bb649bebc93e","system_id":"levelo_inurba_marseille","lat":43.29892,"lon":5.43665,"is_reserved":false,"is_disabled":false,"rental_uris":{"android":"levelo://app?vid=6e6dbff9-8bc5-462e-8d10-bb649bebc93e","ios":"levelo://app?vid=6e6dbff9-8bc5-462e-8d10-bb649bebc93e"},"vehicle_type_id":"4","last_reported":1752959405,"current_range_meters":15200,"station_id":"ce4bhpp2rcd13ifvqhfg","pricing_plan_id":"cebpf4jnsgd1na2vs0mg"},{"bike_id":"b2f08a3e-4d6f-4895-a279-1cf924443fae","system_id":"levelo_inurba_marseille","lat":43.24547,"lon":5.39529,"is_reserved":false,"is_disabled":false,"rental_uris":{"android":"levelo://app?vid=b2f08a3e-4d6f-4895-a279-1cf924443fae","ios":"levelo://app?vid=b2f08a3e-4d6f-4895-a279-1cf924443fae"},"vehicle_type_id":"4","last_reported":1752959405,"current_range_meters":15200,"station_id":"ce4bhlp2rcd13ifvqgjg","pricing_plan_id":"cebpf4jnsgd1na2vs0mg"},{"bike_id":"7eb0825e-58fb-4abc-b7c8-8973a0081fa9","system_id":"levelo_inurba_marseille","lat":43.32489,"lon":5.36584,"is_reserved":false,"is_disabled":false,"rental_uris":{"android":"levelo://app?vid=7eb0825e-58fb-4abc-b7c8-8973a0081fa9","ios":"levelo://app?vid=7eb0825e-58fb-4abc-b7c8-8973a0081fa9"},"vehicle_type_id":"4","last_reported":1752959405,"current_range_meters":15200,"station_id":"ce4bhs12rcd13ifvqhvg","pricing_plan_id":"cebpf4jnsgd1na2vs0mg"},{"bike_id":"7d91d34c-95ba-419a-8d0b-21d2aeaa83ad","system_id":"levelo_inurba_marseille","lat":43.25552,"lon":5.37686,"is_reserved":false,"is_disabled":true,"rental_uris":{"android":"levelo://app?vid=7d91d34c-95ba-419a-8d0b-21d2aeaa83ad","ios":"levelo://app?vid=7d91d34c-95ba-419a-8d0b-21d2aeaa83ad"},"vehicle_type_id":"4","last_reported":1752959405,"current_range_meters":15200,"station_id":"","pricing_plan_id":"cebpf4jnsgd1na2vs0mg"},{"bike_id":"5f4631ed-a536-45d7-960b-7b6403f7c94c","system_id":"levelo_inurba_marseille","lat":43.28156,"lon":5.42632,"is_reserved":false,"is_disabled":false,"rental_uris":{"android":"levelo://app?vid=5f4631ed-a536-45d7-960b-7b6403f7c94c","ios":"levelo://app?vid=5f4631ed-a536-45d7-960b-7b6403f7c94c"},"vehicle_type_id":"4","last_reported":1752959405,"current_range_meters":15200,"station_id":"ce4bhnh2rcd13ifvqgug","pricing_plan_id":"cebpf4jnsgd1na2vs0mg"},{"bike_id":"dd12eefc-9090-488f-8382-d877f7eeafe4","system_id":"levelo_inurba_marseille","lat":43.2539,"lon":5.41904,"is_reserved":false,"is_disabled":false,"rental_uris":{"android":"levelo://app?vid=dd12eefc-9090-488f-8382-d877f7eeafe4","ios":"levelo://app?vid=dd12eefc-9090-488f-8382-d877f7eeafe4"},"vehicle_type_id":"4","last_reported":1752959405,"current_range_meters":16000,"station_id":"","pricing_plan_id":"cebpf4jnsgd1na2vs0mg"},{"bike_id":"35e8a946-928b-4d2b-8560-82f4c1ec8014","system_id":"levelo_inurba_marseille","lat":43.262873,"lon":5.371463,"is_reserved":false,"is_disabled":false,"rental_uris":{"android":"levelo://app?vid=35e8a946-928b-4d2b-8560-82f4c1ec8014","ios":"levelo://app?vid=35e8a946-928b-4d2b-8560-82f4c1ec8014"},"vehicle_type_id":"4","last_reported":1752959405,"current_range_meters":16000,"station_id":"","pricing_plan_id":"cebpf4jnsgd1na2vs0mg"},{"bike_id":"2749dec6-4189-49b3-be5e-3848ee1435ec","system_id":"levelo_inurba_marseille","lat":43.28398,"lon":5.375337,"is_reserved":false,"is_disabled":false,"rental_uris":{"android":"levelo://app?vid=2749dec6-4189-49b3-be5e-3848ee1435ec","ios":"levelo://app?vid=2749dec6-4189-49b3-be5e-3848ee1435ec"},"vehicle_type_id":"4","last_reported":1752959405,"current_range_meters":16000,"station_id":"ce4bh412rcd13ifvqds0","pricing_plan_id":"cebpf4jnsgd1na2vs0mg"},{"bike_id":"cbd7089c-9d2d-42db-a268-faaaa69d7343","system_id":"levelo_inurba_marseille","lat":43.26201,"lon":5.37445,"is_reserved":false,"is_disabled":true,"rental_uris":{"android":"levelo://app?vid=cbd7089c-9d2d-42db-a268-faaaa69d7343","ios":"levelo://app?vid=cbd7089c-9d2d-42db-a268-faaaa69d7343"},"vehicle_type_id":"4","last_reported":1752959405,"current_range_meters":16000,"station_id":"ce4bhgp2rcd13ifvqfc0","pricing_plan_id":"cebpf4jnsgd1na2vs0mg"},{"bike_id":"4ac321cc-c2b7-4f94-b874-d86f82964b52","system_id":"levelo_inurba_marseille","lat":43.30646,"lon":5.40101,"is_reserved":false,"is_disabled":false,"rental_uris":{"android":"levelo://app?vid=4ac321cc-c2b7-4f94-b874-d86f82964b52","ios":"levelo://app?vid=4ac321cc-c2b7-4f94-b874-d86f82964b52"},"vehicle_type_id":"4","last_reported":1752959405,"current_range_meters":16000,"station_id":"ce4bh112rcd13ifvqda0","pricing_plan_id":"cebpf4jnsgd1na2vs0mg"},{"bike_id":"77e5d396-9f38-43c2-ae33-ac1f85df337d","system_id":"levelo_inurba_marseille","lat":43.295528,"lon":5.422782,"is_reserved":false,"is_disabled":false,"rental_uris":{"android":"levelo://app?vid=77e5d396-9f38-43c2-ae33-ac1f85df337d","ios":"levelo://app?vid=77e5d396-9f38-43c2-ae33-ac1f85df337d"},"vehicle_type_id":"4","last_reported":1752959405,"current_range_meters":16000,"station_id":"ce4bhph2rcd13ifvqhdg","pricing_plan_id":"cebpf4jnsgd1na2vs0mg"},{"bike_id":"e8e25126-382c-4fcd-8f03-13d75a291119","system_id":"levelo_inurba_marseille","lat":43.26208,"lon":5.40457,"is_reserved":false,"is_disabled":false,"rental_uris":{"android":"levelo://app?vid=e8e25126-382c-4fcd-8f03-13d75a291119","ios":"levelo://app?vid=e8e25126-382c-4fcd-8f03-13d75a291119"},"vehicle_type_id":"4","last_reported":1752959405,"current_range_meters":16000,"station_id":"ce4bhmh2rcd13ifvqgmg","pricing_plan_id":"cebpf4jnsgd1na2vs0mg"},{"bike_id":"f208154e-7fb1-49ac-b4d0-a132f84239c9","system_id":"levelo_inurba_marseille","lat":43.30938,"lon":5.39039,"is_reserved":false,"is_disabled":false,"rental_uris":{"android":"levelo://app?vid=f208154e-7fb1-49ac-b4d0-a132f84239c9","ios":"levelo://app?vid=f208154e-7fb1-49ac-b4d0-a132f84239c9"},"vehicle_type_id":"4","last_reported":1752959405,"current_range_meters":16000,"station_id":"ce4bgup2rcd13ifvqco0","pricing_plan_id":"cebpf4jnsgd1na2vs0mg"},{"bike_id":"50817c71-c433-41db-8588-f3f5b56e9306","system_id":"levelo_inurba_marseille","lat":43.225,"lon":5.34779,"is_reserved":false,"is_disabled":false,"rental_uris":{"android":"levelo://app?vid=50817c71-c433-41db-8588-f3f5b56e9306","ios":"levelo://app?vid=50817c71-c433-41db-8588-f3f5b56e9306"},"vehicle_type_id":"4","last_reported":1752959405,"current_range_meters":16000,"station_id":"st_cvj5dfep6f1abm77gieg","pricing_plan_id":"cebpf4jnsgd1na2vs0mg"},{"bike_id":"7a2e1cf8-de90-4b24-ade1-9d8b3a17f052","system_id":"levelo_inurba_marseille","lat":43.25189,"lon":5.37588,"is_reserved":false,"is_disabled":false,"rental_uris":{"android":"levelo://app?vid=7a2e1cf8-de90-4b24-ade1-9d8b3a17f052","ios":"levelo://app?vid=7a2e1cf8-de90-4b24-ade1-9d8b3a17f052"},"vehicle_type_id":"4","last_reported":1752959405,"current_range_meters":16000,"station_id":"","pricing_plan_id":"cebpf4jnsgd1na2vs0mg"},{"bike_id":"b8ca8b67-feec-4d87-ba51-8cc2f9cfe299","system_id":"levelo_inurba_marseille","lat":43.29179,"lon":5.39323,"is_reserved":false,"is_disabled":false,"rental_uris":{"android":"levelo://app?vid=b8ca8b67-feec-4d87-ba51-8cc2f9cfe299","ios":"levelo://app?vid=b8ca8b67-feec-4d87-ba51-8cc2f9cfe299"},"vehicle_type_id":"4","last_reported":1752959405,"current_range_meters":15200,"station_id":"ce4bh192rcd13ifvqdd0","pricing_plan_id":"cebpf4jnsgd1na2vs0mg"},{"bike_id":"9fba4dda-d600-48b3-bc22-da267c002a99","system_id":"levelo_inurba_marseille","lat":43.28942,"lon":5.3664,"is_reserved":false,"is_disabled":false,"rental_uris":{"android":"levelo://app?vid=9fba4dda-d600-48b3-bc22-da267c002a99","ios":"levelo://app?vid=9fba4dda-d600-48b3-bc22-da267c002a99"},"vehicle_type_id":"4","last_reported":1752959405,"current_range_meters":16000,"station_id":"ce4bhap2rcd13ifvqek0","pricing_plan_id":"cebpf4jnsgd1na2vs0mg"},{"bike_id":"31e03422-9f41-44e0-b6f2-4b75d31219ea","system_id":"levelo_inurba_marseille","lat":43.29793,"lon":5.40401,"is_reserved":false,"is_disabled":false,"rental_uris":{"android":"levelo://app?vid=31e03422-9f41-44e0-b6f2-4b75d31219ea","ios":"levelo://app?vid=31e03422-9f41-44e0-b6f2-4b75d31219ea"},"vehicle_type_id":"4","last_reported":1752959405,"current_range_meters":16000,"station_id":"ce4bh112rcd13ifvqd90","pricing_plan_id":"cebpf4jnsgd1na2vs0mg"},{"bike_id":"c1ba2fe1-2f37-45f8-adc9-63b0793f39a8","system_id":"levelo_inurba_marseille","lat":43.29428,"lon":5.38598,"is_reserved":false,"is_disabled":false,"rental_uris":{"android":"levelo://app?vid=c1ba2fe1-2f37-45f8-adc9-63b0793f39a8","ios":"levelo://app?vid=c1ba2fe1-2f37-45f8-adc9-63b0793f39a8"},"vehicle_type_id":"4","last_reported":1752959405,"current_range_meters":16400,"station_id":"ce4bh2h2rcd13ifvqdh0","pricing_plan_id":"cebpf4jnsgd1na2vs0mg"},{"bike_id":"6fb131dd-8bae-4bc0-b0c0-17992306572f","system_id":"levelo_inurba_marseille","lat":43.29539,"lon":5.42324,"is_reserved":false,"is_disabled":false,"rental_uris":{"android":"levelo://app?vid=6fb131dd-8bae-4bc0-b0c0-17992306572f","ios":"levelo://app?vid=6fb131dd-8bae-4bc0-b0c0-17992306572f"},"vehicle_type_id":"4","last_reported":1752959405,"current_range_meters":16400,"station_id":"ce4bhph2rcd13ifvqhdg","pricing_plan_id":"cebpf4jnsgd1na2vs0mg"},{"bike_id":"a962be8c-ed66-41f0-a857-69eb262a8d71","system_id":"levelo_inurba_marseille","lat":43.29026,"lon":5.38642,"is_reserved":false,"is_disabled":false,"rental_uris":{"android":"levelo://app?vid=a962be8c-ed66-41f0-a857-69eb262a8d71","ios":"levelo://app?vid=a962be8c-ed66-41f0-a857-69eb262a8d71"},"vehicle_type_id":"4","last_reported":1752959405,"current_range_meters":16400,"station_id":"ce4bh4p2rcd13ifvqe0g","pricing_plan_id":"cebpf4jnsgd1na2vs0mg"},{"bike_id":"83f87386-9e7f-4913-af4c-3b180d8bc1f9","system_id":"levelo_inurba_marseille","lat":43.29591,"lon":5.38102,"is_reserved":false,"is_disabled":false,"rental_uris":{"android":"levelo://app?vid=83f87386-9e7f-4913-af4c-3b180d8bc1f9","ios":"levelo://app?vid=83f87386-9e7f-4913-af4c-3b180d8bc1f9"},"vehicle_type_id":"4","last_reported":1752959405,"current_range_meters":16400,"station_id":"ce4bgl12rcd13ifvqbo0","pricing_plan_id":"cebpf4jnsgd1na2vs0mg"},{"bike_id":"89e3abdc-3b4c-4deb-b63c-95fc380e337b","system_id":"levelo_inurba_marseille","lat":43.28341,"lon":5.38104,"is_reserved":false,"is_disabled":false,"rental_uris":{"android":"levelo://app?vid=89e3abdc-3b4c-4deb-b63c-95fc380e337b","ios":"levelo://app?vid=89e3abdc-3b4c-4deb-b63c-95fc380e337b"},"vehicle_type_id":"4","last_reported":1752959405,"current_range_meters":16400,"station_id":"ce4bh412rcd13ifvqdr0","pricing_plan_id":"cebpf4jnsgd1na2vs0mg"},{"bike_id":"7b9140d7-6df8-4ef2-a625-a6bcb7fa79bd","system_id":"levelo_inurba_marseille","lat":43.2927,"lon":5.38444,"is_reserved":false,"is_disabled":false,"rental_uris":{"android":"levelo://app?vid=7b9140d7-6df8-4ef2-a625-a6bcb7fa79bd","ios":"levelo://app?vid=7b9140d7-6df8-4ef2-a625-a6bcb7fa79bd"},"vehicle_type_id":"4","last_reported":1752959405,"current_range_meters":16400,"station_id":"ce4bh692rcd13ifvqea0","pricing_plan_id":"cebpf4jnsgd1na2vs0mg"},{"bike_id":"56d9a8ff-7cd7-40bd-9c56-7ace19e5c43d","system_id":"levelo_inurba_marseille","lat":43.295793,"lon":5.367395,"is_reserved":false,"is_disabled":false,"rental_uris":{"android":"levelo://app?vid=56d9a8ff-7cd7-40bd-9c56-7ace19e5c43d","ios":"levelo://app?vid=56d9a8ff-7cd7-40bd-9c56-7ace19e5c43d"},"vehicle_type_id":"4","last_reported":1752959405,"current_range_meters":16400,"station_id":"","pricing_plan_id":"cebpf4jnsgd1na2vs0mg"},{"bike_id":"8eecb308-4ad0-4b20-8e2b-f6aac4784ac9","system_id":"levelo_inurba_marseille","lat":43.27901,"lon":5.3537,"is_reserved":false,"is_disabled":false,"rental_uris":{"android":"levelo://app?vid=8eecb308-4ad0-4b20-8e2b-f6aac4784ac9","ios":"levelo://app?vid=8eecb308-4ad0-4b20-8e2b-f6aac4784ac9"},"vehicle_type_id":"4","last_reported":1752959405,"current_range_meters":16400,"station_id":"","pricing_plan_id":"cebpf4jnsgd1na2vs0mg"},{"bike_id":"95b5bcfa-54af-48c0-bd18-8f73f959ce2b","system_id":"levelo_inurba_marseille","lat":43.31935,"lon":5.37313,"is_reserved":false,"is_disabled":false,"rental_uris":{"android":"levelo://app?vid=95b5bcfa-54af-48c0-bd18-8f73f959ce2b","ios":"levelo://app?vid=95b5bcfa-54af-48c0-bd18-8f73f959ce2b"},"vehicle_type_id":"4","last_reported":1752959405,"current_range_meters":16400,"station_id":"","pricing_plan_id":"cebpf4jnsgd1na2vs0mg"},{"bike_id":"19652963-69c4-451c-8680-cf207155ece0","system_id":"levelo_inurba_marseille","lat":43.24995,"lon":5.38932,"is_reserved":false,"is_disabled":false,"rental_uris":{"android":"levelo://app?vid=19652963-69c4-451c-8680-cf207155ece0","ios":"levelo://app?vid=19652963-69c4-451c-8680-cf207155ece0"},"vehicle_type_id":"4","last_reported":1752959405,"current_range_meters":16400,"station_id":"ce4bhgp2rcd13ifvqfd0","pricing_plan_id":"cebpf4jnsgd1na2vs0mg"},{"bike_id":"4756c3e0-fc87-4647-b159-7725acd8ef8b","system_id":"levelo_inurba_marseille","lat":43.21696,"lon":5.34599,"is_reserved":false,"is_disabled":false,"rental_uris":{"android":"levelo://app?vid=4756c3e0-fc87-4647-b159-7725acd8ef8b","ios":"levelo://app?vid=4756c3e0-fc87-4647-b159-7725acd8ef8b"},"vehicle_type_id":"4","last_reported":1752959405,"current_range_meters":16800,"station_id":"st_cvj6r9ubvosntc0bgbag","pricing_plan_id":"cebpf4jnsgd1na2vs0mg"},{"bike_id":"920d521b-627a-4156-9d85-f42e44a38fc8","system_id":"levelo_inurba_marseille","lat":43.28344,"lon":5.38111,"is_reserved":false,"is_disabled":false,"rental_uris":{"android":"levelo://app?vid=920d521b-627a-4156-9d85-f42e44a38fc8","ios":"levelo://app?vid=920d521b-627a-4156-9d85-f42e44a38fc8"},"vehicle_type_id":"4","last_reported":1752959405,"current_range_meters":16800,"station_id":"ce4bh412rcd13ifvqdr0","pricing_plan_id":"cebpf4jnsgd1na2vs0mg"},{"bike_id":"b9246e48-e9f8-4924-bbb9-8c633997abe7","system_id":"levelo_inurba_marseille","lat":43.225055,"lon":5.347808,"is_reserved":false,"is_disabled":false,"rental_uris":{"android":"levelo://app?vid=b9246e48-e9f8-4924-bbb9-8c633997abe7","ios":"levelo://app?vid=b9246e48-e9f8-4924-bbb9-8c633997abe7"},"vehicle_type_id":"4","last_reported":1752959405,"current_range_meters":16800,"station_id":"st_cvj5dfep6f1abm77gieg","pricing_plan_id":"cebpf4jnsgd1na2vs0mg"},{"bike_id":"3d5116bb-dac6-42ec-978e-43db8e2f95f9","system_id":"levelo_inurba_marseille","lat":43.28265,"lon":5.35088,"is_reserved":false,"is_disabled":true,"rental_uris":{"android":"levelo://app?vid=3d5116bb-dac6-42ec-978e-43db8e2f95f9","ios":"levelo://app?vid=3d5116bb-dac6-42ec-978e-43db8e2f95f9"},"vehicle_type_id":"4","last_reported":1752959405,"current_range_meters":16800,"station_id":"ce4bhbp2rcd13ifvqerg","pricing_plan_id":"cebpf4jnsgd1na2vs0mg"},{"bike_id":"12afebbc-048f-4360-99c5-cb8dcc9e6440","system_id":"levelo_inurba_marseille","lat":43.29025,"lon":5.38633,"is_reserved":false,"is_disabled":false,"rental_uris":{"android":"levelo://app?vid=12afebbc-048f-4360-99c5-cb8dcc9e6440","ios":"levelo://app?vid=12afebbc-048f-4360-99c5-cb8dcc9e6440"},"vehicle_type_id":"4","last_reported":1752959405,"current_range_meters":16800,"station_id":"ce4bh4p2rcd13ifvqe0g","pricing_plan_id":"cebpf4jnsgd1na2vs0mg"},{"bike_id":"c9e13ae8-81d2-45a5-adef-f1b61a66153b","system_id":"levelo_inurba_marseille","lat":43.2394,"lon":5.36643,"is_reserved":false,"is_disabled":false,"rental_uris":{"android":"levelo://app?vid=c9e13ae8-81d2-45a5-adef-f1b61a66153b","ios":"levelo://app?vid=c9e13ae8-81d2-45a5-adef-f1b61a66153b"},"vehicle_type_id":"4","last_reported":1752959405,"current_range_meters":16800,"station_id":"ce4bhi12rcd13ifvqfp0","pricing_plan_id":"cebpf4jnsgd1na2vs0mg"},{"bike_id":"7eaefe95-a918-4dff-a447-29114f8d3c22","system_id":"levelo_inurba_marseille","lat":43.28733,"lon":5.40021,"is_reserved":false,"is_disabled":true,"rental_uris":{"android":"levelo://app?vid=7eaefe95-a918-4dff-a447-29114f8d3c22","ios":"levelo://app?vid=7eaefe95-a918-4dff-a447-29114f8d3c22"},"vehicle_type_id":"4","last_reported":1752959405,"current_range_meters":16800,"station_id":"ce4bho92rcd13ifvqh3g","pricing_plan_id":"cebpf4jnsgd1na2vs0mg"},{"bike_id":"beb14892-a851-4f8e-b873-cbd3d15ad0a9","system_id":"levelo_inurba_marseille","lat":43.23755,"lon":5.36204,"is_reserved":false,"is_disabled":false,"rental_uris":{"android":"levelo://app?vid=beb14892-a851-4f8e-b873-cbd3d15ad0a9","ios":"levelo://app?vid=beb14892-a851-4f8e-b873-cbd3d15ad0a9"},"vehicle_type_id":"4","last_reported":1752959405,"current_range_meters":16800,"station_id":"","pricing_plan_id":"cebpf4jnsgd1na2vs0mg"},{"bike_id":"62f83da4-e01d-4173-88c9-345bbecf56ee","system_id":"levelo_inurba_marseille","lat":43.31353,"lon":5.38493,"is_reserved":false,"is_disabled":false,"rental_uris":{"android":"levelo://app?vid=62f83da4-e01d-4173-88c9-345bbecf56ee","ios":"levelo://app?vid=62f83da4-e01d-4173-88c9-345bbecf56ee"},"vehicle_type_id":"4","last_reported":1752959405,"current_range_meters":16800,"station_id":"ce4bgt92rcd13ifvqcf0","pricing_plan_id":"cebpf4jnsgd1na2vs0mg"},{"bike_id":"39abf049-3891-4481-9c25-7fb7a413c85a","system_id":"levelo_inurba_marseille","lat":43.25488,"lon":5.37657,"is_reserved":false,"is_disabled":false,"rental_uris":{"android":"levelo://app?vid=39abf049-3891-4481-9c25-7fb7a413c85a","ios":"levelo://app?vid=39abf049-3891-4481-9c25-7fb7a413c85a"},"vehicle_type_id":"4","last_reported":1752959405,"current_range_meters":16800,"station_id":"ce4bhh12rcd13ifvqff0","pricing_plan_id":"cebpf4jnsgd1na2vs0mg"},{"bike_id":"b7e22b98-0110-4aa8-b3b1-1219bc881c41","system_id":"levelo_inurba_marseille","lat":43.28709,"lon":5.3738,"is_reserved":false,"is_disabled":false,"rental_uris":{"android":"levelo://app?vid=b7e22b98-0110-4aa8-b3b1-1219bc881c41","ios":"levelo://app?vid=b7e22b98-0110-4aa8-b3b1-1219bc881c41"},"vehicle_type_id":"4","last_reported":1752959405,"current_range_meters":16800,"station_id":"ce4bh3p2rcd13ifvqdq0","pricing_plan_id":"cebpf4jnsgd1na2vs0mg"},{"bike_id":"62ee53de-dec1-4002-9b14-4a00bcd3066e","system_id":"levelo_inurba_marseille","lat":43.292631,"lon":5.384419,"is_reserved":false,"is_disabled":false,"rental_uris":{"android":"levelo://app?vid=62ee53de-dec1-4002-9b14-4a00bcd3066e","ios":"levelo://app?vid=62ee53de-dec1-4002-9b14-4a00bcd3066e"},"vehicle_type_id":"4","last_reported":1752959405,"current_range_meters":16800,"station_id":"ce4bh692rcd13ifvqea0","pricing_plan_id":"cebpf4jnsgd1na2vs0mg"},{"bike_id":"4e76405e-58c3-4577-8fe7-20bdffd1e39d","system_id":"levelo_inurba_marseille","lat":43.26215,"lon":5.37453,"is_reserved":false,"is_disabled":false,"rental_uris":{"android":"levelo://app?vid=4e76405e-58c3-4577-8fe7-20bdffd1e39d","ios":"levelo://app?vid=4e76405e-58c3-4577-8fe7-20bdffd1e39d"},"vehicle_type_id":"4","last_reported":1752959405,"current_range_meters":16800,"station_id":"ce4bhgp2rcd13ifvqfc0","pricing_plan_id":"cebpf4jnsgd1na2vs0mg"},{"bike_id":"ce15b79a-09d0-4a54-9c5d-f4e2fb90d2b8","system_id":"levelo_inurba_marseille","lat":43.260148,"lon":5.375479,"is_reserved":false,"is_disabled":false,"rental_uris":{"android":"levelo://app?vid=ce15b79a-09d0-4a54-9c5d-f4e2fb90d2b8","ios":"levelo://app?vid=ce15b79a-09d0-4a54-9c5d-f4e2fb90d2b8"},"vehicle_type_id":"4","last_reported":1752959405,"current_range_meters":16800,"station_id":"ce4bhgh2rcd13ifvqfa0","pricing_plan_id":"cebpf4jnsgd1na2vs0mg"},{"bike_id":"e65cf50a-82bc-4eb1-ad8f-381570c285a9","system_id":"levelo_inurba_marseille","lat":43.23961,"lon":5.36626,"is_reserved":false,"is_disabled":false,"rental_uris":{"android":"levelo://app?vid=e65cf50a-82bc-4eb1-ad8f-381570c285a9","ios":"levelo://app?vid=e65cf50a-82bc-4eb1-ad8f-381570c285a9"},"vehicle_type_id":"4","last_reported":1752959405,"current_range_meters":16800,"station_id":"ce4bhi12rcd13ifvqfp0","pricing_plan_id":"cebpf4jnsgd1na2vs0mg"},{"bike_id":"53457f41-5a7a-48bf-9ac8-5d0b153c75cd","system_id":"levelo_inurba_marseille","lat":43.24823,"lon":5.37472,"is_reserved":false,"is_disabled":false,"rental_uris":{"android":"levelo://app?vid=53457f41-5a7a-48bf-9ac8-5d0b153c75cd","ios":"levelo://app?vid=53457f41-5a7a-48bf-9ac8-5d0b153c75cd"},"vehicle_type_id":"4","last_reported":1752959405,"current_range_meters":16800,"station_id":"ce4bhgh2rcd13ifvqfb0","pricing_plan_id":"cebpf4jnsgd1na2vs0mg"},{"bike_id":"16777848-674a-4540-a09d-e35f310b6a85","system_id":"levelo_inurba_marseille","lat":43.29267,"lon":5.36843,"is_reserved":false,"is_disabled":false,"rental_uris":{"android":"levelo://app?vid=16777848-674a-4540-a09d-e35f310b6a85","ios":"levelo://app?vid=16777848-674a-4540-a09d-e35f310b6a85"},"vehicle_type_id":"4","last_reported":1752959405,"current_range_meters":16800,"station_id":"ce4bhbp2rcd13ifvqesg","pricing_plan_id":"cebpf4jnsgd1na2vs0mg"},{"bike_id":"c9695da4-3048-4cfc-83f0-62c3fac1ccbe","system_id":"levelo_inurba_marseille","lat":43.2305,"lon":5.35491,"is_reserved":false,"is_disabled":true,"rental_uris":{"android":"levelo://app?vid=c9695da4-3048-4cfc-83f0-62c3fac1ccbe","ios":"levelo://app?vid=c9695da4-3048-4cfc-83f0-62c3fac1ccbe"},"vehicle_type_id":"4","last_reported":1752959405,"current_range_meters":17200,"station_id":"cpo3342slgdg3j2ifvpg","pricing_plan_id":"cebpf4jnsgd1na2vs0mg"},{"bike_id":"e12c49d5-67c6-4433-baa4-3ec99f33d714","system_id":"levelo_inurba_marseille","lat":43.29521,"lon":5.37507,"is_reserved":false,"is_disabled":false,"rental_uris":{"android":"levelo://app?vid=e12c49d5-67c6-4433-baa4-3ec99f33d714","ios":"levelo://app?vid=e12c49d5-67c6-4433-baa4-3ec99f33d714"},"vehicle_type_id":"4","last_reported":1752959405,"current_range_meters":17200,"station_id":"ce4bgkp2rcd13ifvqbmg","pricing_plan_id":"cebpf4jnsgd1na2vs0mg"},{"bike_id":"707af16a-3189-4d92-b010-ef53c9012e98","system_id":"levelo_inurba_marseille","lat":43.2174,"lon":5.3461,"is_reserved":false,"is_disabled":false,"rental_uris":{"android":"levelo://app?vid=707af16a-3189-4d92-b010-ef53c9012e98","ios":"levelo://app?vid=707af16a-3189-4d92-b010-ef53c9012e98"},"vehicle_type_id":"4","last_reported":1752959405,"current_range_meters":17200,"station_id":"","pricing_plan_id":"cebpf4jnsgd1na2vs0mg"},{"bike_id":"4268961c-8e3c-4bac-891f-a8846cba533f","system_id":"levelo_inurba_marseille","lat":43.32467,"lon":5.3658,"is_reserved":false,"is_disabled":false,"rental_uris":{"android":"levelo://app?vid=4268961c-8e3c-4bac-891f-a8846cba533f","ios":"levelo://app?vid=4268961c-8e3c-4bac-891f-a8846cba533f"},"vehicle_type_id":"4","last_reported":1752959405,"current_range_meters":17200,"station_id":"ce4bhs12rcd13ifvqhvg","pricing_plan_id":"cebpf4jnsgd1na2vs0mg"},{"bike_id":"103177c7-9427-4a58-acdb-975a8bac7022","system_id":"levelo_inurba_marseille","lat":43.30961,"lon":5.39046,"is_reserved":false,"is_disabled":false,"rental_uris":{"android":"levelo://app?vid=103177c7-9427-4a58-acdb-975a8bac7022","ios":"levelo://app?vid=103177c7-9427-4a58-acdb-975a8bac7022"},"vehicle_type_id":"4","last_reported":1752959405,"current_range_meters":17200,"station_id":"ce4bgup2rcd13ifvqco0","pricing_plan_id":"cebpf4jnsgd1na2vs0mg"},{"bike_id":"31a3e0d3-9340-4ba1-bee1-7596c0335d90","system_id":"levelo_inurba_marseille","lat":43.296563,"lon":5.379437,"is_reserved":false,"is_disabled":false,"rental_uris":{"android":"levelo://app?vid=31a3e0d3-9340-4ba1-bee1-7596c0335d90","ios":"levelo://app?vid=31a3e0d3-9340-4ba1-bee1-7596c0335d90"},"vehicle_type_id":"4","last_reported":1752959405,"current_range_meters":17200,"station_id":"","pricing_plan_id":"cebpf4jnsgd1na2vs0mg"},{"bike_id":"aaa60820-80fd-4afd-9d4a-de02de98b358","system_id":"levelo_inurba_marseille","lat":43.21185,"lon":5.35086,"is_reserved":false,"is_disabled":false,"rental_uris":{"android":"levelo://app?vid=aaa60820-80fd-4afd-9d4a-de02de98b358","ios":"levelo://app?vid=aaa60820-80fd-4afd-9d4a-de02de98b358"},"vehicle_type_id":"4","last_reported":1752959405,"current_range_meters":17200,"station_id":"","pricing_plan_id":"cebpf4jnsgd1na2vs0mg"},{"bike_id":"157990d3-b9c3-4f5c-8a17-d78382994a2f","system_id":"levelo_inurba_marseille","lat":43.262055,"lon":5.379183,"is_reserved":false,"is_disabled":false,"rental_uris":{"android":"levelo://app?vid=157990d3-b9c3-4f5c-8a17-d78382994a2f","ios":"levelo://app?vid=157990d3-b9c3-4f5c-8a17-d78382994a2f"},"vehicle_type_id":"4","last_reported":1752959405,"current_range_meters":17200,"station_id":"ce4bhjp2rcd13ifvqg90","pricing_plan_id":"cebpf4jnsgd1na2vs0mg"},{"bike_id":"00ae673a-146d-46b9-8980-89945525eb1c","system_id":"levelo_inurba_marseille","lat":43.29243,"lon":5.38452,"is_reserved":false,"is_disabled":false,"rental_uris":{"android":"levelo://app?vid=00ae673a-146d-46b9-8980-89945525eb1c","ios":"levelo://app?vid=00ae673a-146d-46b9-8980-89945525eb1c"},"vehicle_type_id":"4","last_reported":1752959405,"current_range_meters":17600,"station_id":"ce4bh692rcd13ifvqea0","pricing_plan_id":"cebpf4jnsgd1na2vs0mg"},{"bike_id":"ec948aa4-a29a-45ff-98dc-6f5cfc12602b","system_id":"levelo_inurba_marseille","lat":43.29527,"lon":5.38554,"is_reserved":false,"is_disabled":false,"rental_uris":{"android":"levelo://app?vid=ec948aa4-a29a-45ff-98dc-6f5cfc12602b","ios":"levelo://app?vid=ec948aa4-a29a-45ff-98dc-6f5cfc12602b"},"vehicle_type_id":"4","last_reported":1752959405,"current_range_meters":17600,"station_id":"ce4bgih2rcd13ifvqba0","pricing_plan_id":"cebpf4jnsgd1na2vs0mg"},{"bike_id":"ce7d66a2-6244-49e3-a9f6-7d5eb372182b","system_id":"levelo_inurba_marseille","lat":43.30944,"lon":5.39023,"is_reserved":false,"is_disabled":false,"rental_uris":{"android":"levelo://app?vid=ce7d66a2-6244-49e3-a9f6-7d5eb372182b","ios":"levelo://app?vid=ce7d66a2-6244-49e3-a9f6-7d5eb372182b"},"vehicle_type_id":"4","last_reported":1752959405,"current_range_meters":17600,"station_id":"ce4bgup2rcd13ifvqco0","pricing_plan_id":"cebpf4jnsgd1na2vs0mg"},{"bike_id":"379f4567-56b1-44b8-abb4-81a6d96a4ea3","system_id":"levelo_inurba_marseille","lat":43.30118,"lon":5.3986,"is_reserved":false,"is_disabled":false,"rental_uris":{"android":"levelo://app?vid=379f4567-56b1-44b8-abb4-81a6d96a4ea3","ios":"levelo://app?vid=379f4567-56b1-44b8-abb4-81a6d96a4ea3"},"vehicle_type_id":"4","last_reported":1752959405,"current_range_meters":17600,"station_id":"ce4bh0h2rcd13ifvqd40","pricing_plan_id":"cebpf4jnsgd1na2vs0mg"},{"bike_id":"d3aca52a-4e64-461a-8fd1-e9a035bafbdf","system_id":"levelo_inurba_marseille","lat":43.257213,"lon":5.411019,"is_reserved":false,"is_disabled":false,"rental_uris":{"android":"levelo://app?vid=d3aca52a-4e64-461a-8fd1-e9a035bafbdf","ios":"levelo://app?vid=d3aca52a-4e64-461a-8fd1-e9a035bafbdf"},"vehicle_type_id":"4","last_reported":1752959405,"current_range_meters":17600,"station_id":"","pricing_plan_id":"cebpf4jnsgd1na2vs0mg"},{"bike_id":"3d36c590-bfb3-4f3d-a821-3b0275041fa7","system_id":"levelo_inurba_marseille","lat":43.30412,"lon":5.41317,"is_reserved":false,"is_disabled":false,"rental_uris":{"android":"levelo://app?vid=3d36c590-bfb3-4f3d-a821-3b0275041fa7","ios":"levelo://app?vid=3d36c590-bfb3-4f3d-a821-3b0275041fa7"},"vehicle_type_id":"4","last_reported":1752959405,"current_range_meters":17600,"station_id":"ce4bhop2rcd13ifvqh8g","pricing_plan_id":"cebpf4jnsgd1na2vs0mg"},{"bike_id":"08b4c02c-7610-4767-8a1d-d8c402d1b7ac","system_id":"levelo_inurba_marseille","lat":43.29253,"lon":5.38429,"is_reserved":false,"is_disabled":false,"rental_uris":{"android":"levelo://app?vid=08b4c02c-7610-4767-8a1d-d8c402d1b7ac","ios":"levelo://app?vid=08b4c02c-7610-4767-8a1d-d8c402d1b7ac"},"vehicle_type_id":"4","last_reported":1752959405,"current_range_meters":17600,"station_id":"ce4bh692rcd13ifvqea0","pricing_plan_id":"cebpf4jnsgd1na2vs0mg"},{"bike_id":"5231ec6c-4280-42b9-91c9-ff62f935b206","system_id":"levelo_inurba_marseille","lat":43.29585,"lon":5.38116,"is_reserved":false,"is_disabled":false,"rental_uris":{"android":"levelo://app?vid=5231ec6c-4280-42b9-91c9-ff62f935b206","ios":"levelo://app?vid=5231ec6c-4280-42b9-91c9-ff62f935b206"},"vehicle_type_id":"4","last_reported":1752959405,"current_range_meters":17600,"station_id":"ce4bgl12rcd13ifvqbo0","pricing_plan_id":"cebpf4jnsgd1na2vs0mg"},{"bike_id":"6520b234-cbf2-46e4-8db1-28f0b9af7987","system_id":"levelo_inurba_marseille","lat":43.28705,"lon":5.39999,"is_reserved":false,"is_disabled":false,"rental_uris":{"android":"levelo://app?vid=6520b234-cbf2-46e4-8db1-28f0b9af7987","ios":"levelo://app?vid=6520b234-cbf2-46e4-8db1-28f0b9af7987"},"vehicle_type_id":"4","last_reported":1752959405,"current_range_meters":17600,"station_id":"ce4bho92rcd13ifvqh3g","pricing_plan_id":"cebpf4jnsgd1na2vs0mg"},{"bike_id":"6c39563b-7215-4d52-9199-a892198d9aaa","system_id":"levelo_inurba_marseille","lat":43.29593,"lon":5.3811,"is_reserved":false,"is_disabled":false,"rental_uris":{"android":"levelo://app?vid=6c39563b-7215-4d52-9199-a892198d9aaa","ios":"levelo://app?vid=6c39563b-7215-4d52-9199-a892198d9aaa"},"vehicle_type_id":"4","last_reported":1752959405,"current_range_meters":17600,"station_id":"ce4bgl12rcd13ifvqbo0","pricing_plan_id":"cebpf4jnsgd1na2vs0mg"},{"bike_id":"830da5e6-4207-4e24-af1d-163aa8ed580f","system_id":"levelo_inurba_marseille","lat":43.28939,"lon":5.36637,"is_reserved":false,"is_disabled":false,"rental_uris":{"android":"levelo://app?vid=830da5e6-4207-4e24-af1d-163aa8ed580f","ios":"levelo://app?vid=830da5e6-4207-4e24-af1d-163aa8ed580f"},"vehicle_type_id":"4","last_reported":1752959405,"current_range_meters":18000,"station_id":"ce4bhap2rcd13ifvqek0","pricing_plan_id":"cebpf4jnsgd1na2vs0mg"},{"bike_id":"f29e346a-d268-4ef9-8fcb-5174a6622dd6","system_id":"levelo_inurba_marseille","lat":43.28703,"lon":5.37417,"is_reserved":false,"is_disabled":false,"rental_uris":{"android":"levelo://app?vid=f29e346a-d268-4ef9-8fcb-5174a6622dd6","ios":"levelo://app?vid=f29e346a-d268-4ef9-8fcb-5174a6622dd6"},"vehicle_type_id":"4","last_reported":1752959405,"current_range_meters":18000,"station_id":"ce4bh3p2rcd13ifvqdq0","pricing_plan_id":"cebpf4jnsgd1na2vs0mg"},{"bike_id":"9f850f09-15c1-42a7-ac11-cd77c8ce2ff9","system_id":"levelo_inurba_marseille","lat":43.26569,"lon":5.3732,"is_reserved":false,"is_disabled":false,"rental_uris":{"android":"levelo://app?vid=9f850f09-15c1-42a7-ac11-cd77c8ce2ff9","ios":"levelo://app?vid=9f850f09-15c1-42a7-ac11-cd77c8ce2ff9"},"vehicle_type_id":"4","last_reported":1752959405,"current_range_meters":18000,"station_id":"ce4bhg12rcd13ifvqf70","pricing_plan_id":"cebpf4jnsgd1na2vs0mg"},{"bike_id":"5c88e239-9110-4fdc-b2c3-cb8f6aca3026","system_id":"levelo_inurba_marseille","lat":43.28439,"lon":5.39217,"is_reserved":false,"is_disabled":false,"rental_uris":{"android":"levelo://app?vid=5c88e239-9110-4fdc-b2c3-cb8f6aca3026","ios":"levelo://app?vid=5c88e239-9110-4fdc-b2c3-cb8f6aca3026"},"vehicle_type_id":"4","last_reported":1752959405,"current_range_meters":18000,"station_id":"ce4bhoh2rcd13ifvqh5g","pricing_plan_id":"cebpf4jnsgd1na2vs0mg"},{"bike_id":"03c06480-1eaf-4ccf-96ff-18423cbc8b58","system_id":"levelo_inurba_marseille","lat":43.22514,"lon":5.34758,"is_reserved":false,"is_disabled":false,"rental_uris":{"android":"levelo://app?vid=03c06480-1eaf-4ccf-96ff-18423cbc8b58","ios":"levelo://app?vid=03c06480-1eaf-4ccf-96ff-18423cbc8b58"},"vehicle_type_id":"4","last_reported":1752959405,"current_range_meters":18000,"station_id":"st_cvj5dfep6f1abm77gieg","pricing_plan_id":"cebpf4jnsgd1na2vs0mg"},{"bike_id":"b59696df-9f30-4c33-bec9-6106e9d2535b","system_id":"levelo_inurba_marseille","lat":43.29601,"lon":5.38118,"is_reserved":false,"is_disabled":false,"rental_uris":{"android":"levelo://app?vid=b59696df-9f30-4c33-bec9-6106e9d2535b","ios":"levelo://app?vid=b59696df-9f30-4c33-bec9-6106e9d2535b"},"vehicle_type_id":"4","last_reported":1752959405,"current_range_meters":18000,"station_id":"ce4bgl12rcd13ifvqbo0","pricing_plan_id":"cebpf4jnsgd1na2vs0mg"},{"bike_id":"7f98c65c-6593-4352-858e-be8fe24c31fc","system_id":"levelo_inurba_marseille","lat":43.22506,"lon":5.34782,"is_reserved":false,"is_disabled":false,"rental_uris":{"android":"levelo://app?vid=7f98c65c-6593-4352-858e-be8fe24c31fc","ios":"levelo://app?vid=7f98c65c-6593-4352-858e-be8fe24c31fc"},"vehicle_type_id":"4","last_reported":1752959405,"current_range_meters":18000,"station_id":"st_cvj5dfep6f1abm77gieg","pricing_plan_id":"cebpf4jnsgd1na2vs0mg"},{"bike_id":"2d204ae1-a432-454a-839c-4d383ae2825d","system_id":"levelo_inurba_marseille","lat":43.31059,"lon":5.40086,"is_reserved":false,"is_disabled":false,"rental_uris":{"android":"levelo://app?vid=2d204ae1-a432-454a-839c-4d383ae2825d","ios":"levelo://app?vid=2d204ae1-a432-454a-839c-4d383ae2825d"},"vehicle_type_id":"4","last_reported":1752959405,"current_range_meters":18000,"station_id":"","pricing_plan_id":"cebpf4jnsgd1na2vs0mg"},{"bike_id":"7e068429-857e-4127-95cb-863a5bfafe3c","system_id":"levelo_inurba_marseille","lat":43.26216,"lon":5.37439,"is_reserved":false,"is_disabled":false,"rental_uris":{"android":"levelo://app?vid=7e068429-857e-4127-95cb-863a5bfafe3c","ios":"levelo://app?vid=7e068429-857e-4127-95cb-863a5bfafe3c"},"vehicle_type_id":"4","last_reported":1752959405,"current_range_meters":18000,"station_id":"ce4bhgp2rcd13ifvqfc0","pricing_plan_id":"cebpf4jnsgd1na2vs0mg"},{"bike_id":"96793585-b370-4499-97b5-55297e845c8f","system_id":"levelo_inurba_marseille","lat":43.21745,"lon":5.34598,"is_reserved":false,"is_disabled":false,"rental_uris":{"android":"levelo://app?vid=96793585-b370-4499-97b5-55297e845c8f","ios":"levelo://app?vid=96793585-b370-4499-97b5-55297e845c8f"},"vehicle_type_id":"4","last_reported":1752959405,"current_range_meters":18000,"station_id":"st_cvj6r9ubvosntc0bgbag","pricing_plan_id":"cebpf4jnsgd1na2vs0mg"},{"bike_id":"74581f48-10a9-46e9-a804-f167eb84e07f","system_id":"levelo_inurba_marseille","lat":43.3096,"lon":5.3904,"is_reserved":false,"is_disabled":false,"rental_uris":{"android":"levelo://app?vid=74581f48-10a9-46e9-a804-f167eb84e07f","ios":"levelo://app?vid=74581f48-10a9-46e9-a804-f167eb84e07f"},"vehicle_type_id":"4","last_reported":1752959405,"current_range_meters":18000,"station_id":"ce4bgup2rcd13ifvqco0","pricing_plan_id":"cebpf4jnsgd1na2vs0mg"},{"bike_id":"f89a829e-8700-40e2-8b96-6bc69f28cd2c","system_id":"levelo_inurba_marseille","lat":43.30949,"lon":5.39038,"is_reserved":false,"is_disabled":false,"rental_uris":{"android":"levelo://app?vid=f89a829e-8700-40e2-8b96-6bc69f28cd2c","ios":"levelo://app?vid=f89a829e-8700-40e2-8b96-6bc69f28cd2c"},"vehicle_type_id":"4","last_reported":1752959405,"current_range_meters":18000,"station_id":"ce4bgup2rcd13ifvqco0","pricing_plan_id":"cebpf4jnsgd1na2vs0mg"},{"bike_id":"7cb87117-19f1-4d48-84b2-bec6ac38464c","system_id":"levelo_inurba_marseille","lat":43.29532,"lon":5.4227,"is_reserved":false,"is_disabled":false,"rental_uris":{"android":"levelo://app?vid=7cb87117-19f1-4d48-84b2-bec6ac38464c","ios":"levelo://app?vid=7cb87117-19f1-4d48-84b2-bec6ac38464c"},"vehicle_type_id":"4","last_reported":1752959405,"current_range_meters":18000,"station_id":"ce4bhph2rcd13ifvqhdg","pricing_plan_id":"cebpf4jnsgd1na2vs0mg"},{"bike_id":"8eddbc16-4366-4e84-910f-0fd8f33ea639","system_id":"levelo_inurba_marseille","lat":43.26554,"lon":5.37288,"is_reserved":false,"is_disabled":false,"rental_uris":{"android":"levelo://app?vid=8eddbc16-4366-4e84-910f-0fd8f33ea639","ios":"levelo://app?vid=8eddbc16-4366-4e84-910f-0fd8f33ea639"},"vehicle_type_id":"4","last_reported":1752959405,"current_range_meters":18000,"station_id":"ce4bhg12rcd13ifvqf70","pricing_plan_id":"cebpf4jnsgd1na2vs0mg"},{"bike_id":"af6dc479-ce09-4a01-9bc6-b2373c57f01e","system_id":"levelo_inurba_marseille","lat":43.29534,"lon":5.38543,"is_reserved":false,"is_disabled":false,"rental_uris":{"android":"levelo://app?vid=af6dc479-ce09-4a01-9bc6-b2373c57f01e","ios":"levelo://app?vid=af6dc479-ce09-4a01-9bc6-b2373c57f01e"},"vehicle_type_id":"4","last_reported":1752959405,"current_range_meters":18000,"station_id":"ce4bgih2rcd13ifvqba0","pricing_plan_id":"cebpf4jnsgd1na2vs0mg"},{"bike_id":"ddcaad28-59f0-4ff2-9a07-4e458247e903","system_id":"levelo_inurba_marseille","lat":43.28702,"lon":5.37395,"is_reserved":false,"is_disabled":false,"rental_uris":{"android":"levelo://app?vid=ddcaad28-59f0-4ff2-9a07-4e458247e903","ios":"levelo://app?vid=ddcaad28-59f0-4ff2-9a07-4e458247e903"},"vehicle_type_id":"4","last_reported":1752959405,"current_range_meters":18000,"station_id":"ce4bh3p2rcd13ifvqdq0","pricing_plan_id":"cebpf4jnsgd1na2vs0mg"},{"bike_id":"4143516a-7f21-44e2-be6f-95a65de2e21b","system_id":"levelo_inurba_marseille","lat":43.253518,"lon":5.40197,"is_reserved":false,"is_disabled":false,"rental_uris":{"android":"levelo://app?vid=4143516a-7f21-44e2-be6f-95a65de2e21b","ios":"levelo://app?vid=4143516a-7f21-44e2-be6f-95a65de2e21b"},"vehicle_type_id":"4","last_reported":1752959405,"current_range_meters":18800,"station_id":"ce4bhlh2rcd13ifvqgig","pricing_plan_id":"cebpf4jnsgd1na2vs0mg"},{"bike_id":"0f9840d0-2786-40a0-aae8-2a9505ee35cc","system_id":"levelo_inurba_marseille","lat":43.29259,"lon":5.38445,"is_reserved":false,"is_disabled":false,"rental_uris":{"android":"levelo://app?vid=0f9840d0-2786-40a0-aae8-2a9505ee35cc","ios":"levelo://app?vid=0f9840d0-2786-40a0-aae8-2a9505ee35cc"},"vehicle_type_id":"4","last_reported":1752959405,"current_range_meters":18800,"station_id":"ce4bh692rcd13ifvqea0","pricing_plan_id":"cebpf4jnsgd1na2vs0mg"},{"bike_id":"f335eb8b-f2b0-48df-963c-2425602f9038","system_id":"levelo_inurba_marseille","lat":43.27011,"lon":5.40126,"is_reserved":false,"is_disabled":true,"rental_uris":{"android":"levelo://app?vid=f335eb8b-f2b0-48df-963c-2425602f9038","ios":"levelo://app?vid=f335eb8b-f2b0-48df-963c-2425602f9038"},"vehicle_type_id":"4","last_reported":1752959405,"current_range_meters":18800,"station_id":"","pricing_plan_id":"cebpf4jnsgd1na2vs0mg"},{"bike_id":"6f530211-2d31-4918-b78d-6fbc7b6302a4","system_id":"levelo_inurba_marseille","lat":43.23578,"lon":5.36136,"is_reserved":false,"is_disabled":false,"rental_uris":{"android":"levelo://app?vid=6f530211-2d31-4918-b78d-6fbc7b6302a4","ios":"levelo://app?vid=6f530211-2d31-4918-b78d-6fbc7b6302a4"},"vehicle_type_id":"4","last_reported":1752959405,"current_range_meters":18800,"station_id":"","pricing_plan_id":"cebpf4jnsgd1na2vs0mg"},{"bike_id":"3d486543-603b-4999-883e-79b019ca2ee1","system_id":"levelo_inurba_marseille","lat":43.30944,"lon":5.39049,"is_reserved":false,"is_disabled":false,"rental_uris":{"android":"levelo://app?vid=3d486543-603b-4999-883e-79b019ca2ee1","ios":"levelo://app?vid=3d486543-603b-4999-883e-79b019ca2ee1"},"vehicle_type_id":"4","last_reported":1752959405,"current_range_meters":18800,"station_id":"ce4bgup2rcd13ifvqco0","pricing_plan_id":"cebpf4jnsgd1na2vs0mg"},{"bike_id":"cb331a89-56a6-4651-9865-7241cd4ca587","system_id":"levelo_inurba_marseille","lat":43.32472,"lon":5.36574,"is_reserved":false,"is_disabled":false,"rental_uris":{"android":"levelo://app?vid=cb331a89-56a6-4651-9865-7241cd4ca587","ios":"levelo://app?vid=cb331a89-56a6-4651-9865-7241cd4ca587"},"vehicle_type_id":"4","last_reported":1752959405,"current_range_meters":18800,"station_id":"ce4bhs12rcd13ifvqhvg","pricing_plan_id":"cebpf4jnsgd1na2vs0mg"},{"bike_id":"92ef1c6c-cbe6-4c33-8f5c-15685f5b6493","system_id":"levelo_inurba_marseille","lat":43.30629,"lon":5.40084,"is_reserved":false,"is_disabled":false,"rental_uris":{"android":"levelo://app?vid=92ef1c6c-cbe6-4c33-8f5c-15685f5b6493","ios":"levelo://app?vid=92ef1c6c-cbe6-4c33-8f5c-15685f5b6493"},"vehicle_type_id":"4","last_reported":1752959405,"current_range_meters":18800,"station_id":"ce4bh112rcd13ifvqda0","pricing_plan_id":"cebpf4jnsgd1na2vs0mg"},