{"last_updated":1728731196,"ttl":60,"version":"2.2","data":{"bikes":[{"bike_id":"a88cc3d5-4214-4799-a463-c01d33dbb23e","system_id":"levelo_inurba_marseille","lat":43.25008,"lon":5.38912,"is_reserved":false,"is_disabled":false,"rental_uris":{"android":"levelo://app?vid=a88cc3d5-4214-4799-a463-c01d33dbb23e","ios":"levelo://app?vid=a88cc3d5-4214-4799-a463-c01d33dbb23e"},"vehicle_type_id":"4","last_reported":1728731196,"current_range_meters":23200,"station_id":"ce4bhgp2rcd13ifvqfd0","pricing_plan_id":"cebpf4jnsgd1na2vs0mg"},{"bike_id":"90252a86-9168-4e7e-8cdb-55f691622b28","system_id":"levelo_inurba_marseille","lat":43.27618,"lon":5.36114,"is_reserved":false,"is_disabled":false,"rental_uris":{"android":"levelo://app?vid=90252a86-9168-4e7e-8cdb-55f691622b28","ios":"levelo://app?vid=90252a86-9168-4e7e-8cdb-55f691622b28"},"vehicle_type_id":"4","last_reported":1728731196,"current_range_meters":9200,"station_id":"ce4bgj92rcd13ifvqbe0","pricing_plan_id":"cebpf4jnsgd1na2vs0mg"},{"bike_id":"6e6feba3-9901-4196-a51e-44cf3ee3562e","system_id":"levelo_inurba_marseille","lat":43.290052,"lon":5.356186,"is_reserved":false,"is_disabled":false,"rental_uris":{"android":"levelo://app?vid=6e6feba3-9901-4196-a51e-44cf3ee3562e","ios":"levelo://app?vid=6e6feba3-9901-4196-a51e-44cf3ee3562e"},"vehicle_type_id":"4","last_reported":1728731196,"current_range_meters":3200,"station_id":"ce4bhb92rcd13ifvqen0","pricing_plan_id":"cebpf4jnsgd1na2vs0mg"},{"bike_id":"3a648cbc-09c9-4db2-b91f-ac8882cbebc0","system_id":"levelo_inurba_marseille","lat":43.261785,"lon":5.37451,"is_reserved":false,"is_disabled":false,"rental_uris":{"android":"levelo://app?vid=3a648cbc-09c9-4db2-b91f-ac8882cbebc0","ios":"levelo://app?vid=3a648cbc-09c9-4db2-b91f-ac8882cbebc0"},"vehicle_type_id":"4","last_reported":1728731196,"current_range_meters":30400,"station_id":"ce4bhgp2rcd13ifvqfc0","pricing_plan_id":"cebpf4jnsgd1na2vs0mg"},{"bike_id":"38eda0d1-5ce6-4010-9d58-af0c4b4806fc","system_id":"levelo_inurba_marseille","lat":43.27181,"lon":5.4099,"is_reserved":false,"is_disabled":false,"rental_uris":{"android":"levelo://app?vid=38eda0d1-5ce6-4010-9d58-af0c4b4806fc","ios":"levelo://app?vid=38eda0d1-5ce6-4010-9d58-af0c4b4806fc"},"vehicle_type_id":"4","last_reported":1728731196,"current_range_meters":38400,"station_id":"ce4bhl12rcd13ifvqgf0","pricing_plan_id":"cebpf4jnsgd1na2vs0mg"},{"bike_id":"51dd5005-a195-4642-bd5f-8cbea71cb3b3","system_id":"levelo_inurba_marseille","lat":43.22929,"lon":5.35376,"is_reserved":false,"is_disabled":false,"rental_uris":{"android":"levelo://app?vid=51dd5005-a195-4642-bd5f-8cbea71cb3b3","ios":"levelo://app?vid=51dd5005-a195-4642-bd5f-8cbea71cb3b3"},"vehicle_type_id":"4","last_reported":1728731196,"current_range_meters":36800,"station_id":"cpo3532slgdg3j2ikp40","pricing_plan_id":"cebpf4jnsgd1na2vs0mg"},{"bike_id":"d4148055-1c76-4019-a6f3-02cb9d8cb424","system_id":"levelo_inurba_marseille","lat":43.32113,"lon":5.36777,"is_reserved":false,"is_disabled":false,"rental_uris":{"android":"levelo://app?vid=d4148055-1c76-4019-a6f3-02cb9d8cb424","ios":"levelo://app?vid=d4148055-1c76-4019-a6f3-02cb9d8cb424"},"vehicle_type_id":"4","last_reported":1728731196,"current_range_meters":2800,"station_id":"ce4bhrh2rcd13ifvqhug","pricing_plan_id":"cebpf4jnsgd1na2vs0mg"},{"bike_id":"b474cc28-429d-4bf6-a453-cfd8e447da8a","system_id":"levelo_inurba_marseille","lat":43.33725,"lon":5.39173,"is_reserved":false,"is_disabled":false,"rental_uris":{"android":"levelo://app?vid=b474cc28-429d-4bf6-a453-cfd8e447da8a","ios":"levelo://app?vid=b474cc28-429d-4bf6-a453-cfd8e447da8a"},"vehicle_type_id":"4","last_reported":1728731196,"current_range_meters":36800,"station_id":"ce4bhr92rcd13ifvqhsg","pricing_plan_id":"cebpf4jnsgd1na2vs0mg"},{"bike_id":"8a3ea5a6-b0cd-48da-acf8-ccf7be6f48c6","system_id":"levelo_inurba_marseille","lat":43.34225,"lon":5.40084,"is_reserved":false,"is_disabled":false,"rental_uris":{"android":"levelo://app?vid=8a3ea5a6-b0cd-48da-acf8-ccf7be6f48c6","ios":"levelo://app?vid=8a3ea5a6-b0cd-48da-acf8-ccf7be6f48c6"},"vehicle_type_id":"4","last_reported":1728731196,"current_range_meters":7200,"station_id":"","pricing_plan_id":"cebpf4jnsgd1na2vs0mg"},{"bike_id":"4f1ac9db-36fd-4126-b3cc-b859636a6a29","system_id":"levelo_inurba_marseille","lat":43.22929,"lon":5.35377,"is_reserved":false,"is_disabled":false,"rental_uris":{"android":"levelo://app?vid=4f1ac9db-36fd-4126-b3cc-b859636a6a29","ios":"levelo://app?vid=4f1ac9db-36fd-4126-b3cc-b859636a6a29"},"vehicle_type_id":"4","last_reported":1728731196,"current_range_meters":37600,"station_id":"cpo3532slgdg3j2ikp40","pricing_plan_id":"cebpf4jnsgd1na2vs0mg"},{"bike_id":"bbb57612-a7f5-4836-8495-7777d656ec7a","system_id":"levelo_inurba_marseille","lat":43.29257,"lon":5.40907,"is_reserved":false,"is_disabled":false,"rental_uris":{"android":"levelo://app?vid=bbb57612-a7f5-4836-8495-7777d656ec7a","ios":"levelo://app?vid=bbb57612-a7f5-4836-8495-7777d656ec7a"},"vehicle_type_id":"4","last_reported":1728731196,"current_range_meters":38400,"station_id":"ce4bh192rcd13ifvqdc0","pricing_plan_id":"cebpf4jnsgd1na2vs0mg"},{"bike_id":"76a7aa55-6b43-4db3-be1d-f34667277aab","system_id":"levelo_inurba_marseille","lat":43.31994,"lon":5.38152,"is_reserved":false,"is_disabled":false,"rental_uris":{"android":"levelo://app?vid=76a7aa55-6b43-4db3-be1d-f34667277aab","ios":"levelo://app?vid=76a7aa55-6b43-4db3-be1d-f34667277aab"},"vehicle_type_id":"4","last_reported":1728731196,"current_range_meters":25200,"station_id":"ce4bhr12rcd13ifvqhpg","pricing_plan_id":"cebpf4jnsgd1na2vs0mg"},{"bike_id":"39297f3c-f2c5-4487-a6dc-8718a72edb83","system_id":"levelo_inurba_marseille","lat":43.31171,"lon":5.38723,"is_reserved":false,"is_disabled":false,"rental_uris":{"android":"levelo://app?vid=39297f3c-f2c5-4487-a6dc-8718a72edb83","ios":"levelo://app?vid=39297f3c-f2c5-4487-a6dc-8718a72edb83"},"vehicle_type_id":"4","last_reported":1728731196,"current_range_meters":30800,"station_id":"ce4bgv12rcd13ifvqcp0","pricing_plan_id":"cebpf4jnsgd1na2vs0mg"},{"bike_id":"5478a3d2-c2ee-4a89-aa83-e762ee9240f8","system_id":"levelo_inurba_marseille","lat":43.26953,"lon":5.40242,"is_reserved":false,"is_disabled":false,"rental_uris":{"android":"levelo://app?vid=5478a3d2-c2ee-4a89-aa83-e762ee9240f8","ios":"levelo://app?vid=5478a3d2-c2ee-4a89-aa83-e762ee9240f8"},"vehicle_type_id":"4","last_reported":1728731196,"current_range_meters":33200,"station_id":"cjm6bp8fraef2m0cb0m0","pricing_plan_id":"cebpf4jnsgd1na2vs0mg"},{"bike_id":"4f48289b-17e5-4365-b497-c3ee37f8ed6a","system_id":"levelo_inurba_marseille","lat":43.30328,"lon":5.40443,"is_reserved":false,"is_disabled":false,"rental_uris":{"android":"levelo://app?vid=4f48289b-17e5-4365-b497-c3ee37f8ed6a","ios":"levelo://app?vid=4f48289b-17e5-4365-b497-c3ee37f8ed6a"},"vehicle_type_id":"4","last_reported":1728731196,"current_range_meters":38800,"station_id":"ce4bh012rcd13ifvqd10","pricing_plan_id":"cebpf4jnsgd1na2vs0mg"},{"bike_id":"eb700b04-efb6-4599-9d8d-f15bf71e8c48","system_id":"levelo_inurba_marseille","lat":43.2417,"lon":5.36399,"is_reserved":false,"is_disabled":false,"rental_uris":{"android":"levelo://app?vid=eb700b04-efb6-4599-9d8d-f15bf71e8c48","ios":"levelo://app?vid=eb700b04-efb6-4599-9d8d-f15bf71e8c48"},"vehicle_type_id":"4","last_reported":1728731196,"current_range_meters":26000,"station_id":"cpo36qri1sfpv3e86is0","pricing_plan_id":"cebpf4jnsgd1na2vs0mg"},{"bike_id":"d522a82d-5638-4ca1-910b-2d42b991ee72","system_id":"levelo_inurba_marseille","lat":43.3014,"lon":5.37427,"is_reserved":false,"is_disabled":false,"rental_uris":{"android":"levelo://app?vid=d522a82d-5638-4ca1-910b-2d42b991ee72","ios":"levelo://app?vid=d522a82d-5638-4ca1-910b-2d42b991ee72"},"vehicle_type_id":"4","last_reported":1728731196,"current_range_meters":39200,"station_id":"ce4bgs92rcd13ifvqcc0","pricing_plan_id":"cebpf4jnsgd1na2vs0mg"},{"bike_id":"931d1f9c-4cb2-40a2-a856-914a1c55fcf3","system_id":"levelo_inurba_marseille","lat":43.24569,"lon":5.41659,"is_reserved":false,"is_disabled":false,"rental_uris":{"android":"levelo://app?vid=931d1f9c-4cb2-40a2-a856-914a1c55fcf3","ios":"levelo://app?vid=931d1f9c-4cb2-40a2-a856-914a1c55fcf3"},"vehicle_type_id":"4","last_reported":1728731196,"current_range_meters":12000,"station_id":"","pricing_plan_id":"cebpf4jnsgd1na2vs0mg"},{"bike_id":"59169465-c142-40a4-baaa-224bbca5179e","system_id":"levelo_inurba_marseille","lat":43.29612,"lon":5.37724,"is_reserved":false,"is_disabled":false,"rental_uris":{"android":"levelo://app?vid=59169465-c142-40a4-baaa-224bbca5179e","ios":"levelo://app?vid=59169465-c142-40a4-baaa-224bbca5179e"},"vehicle_type_id":"4","last_reported":1728731196,"current_range_meters":34800,"station_id":"ce4bgi92rcd13ifvqb90","pricing_plan_id":"cebpf4jnsgd1na2vs0mg"},{"bike_id":"3b1ab9ae-3690-40e4-a3a2-602fc98f9260","system_id":"levelo_inurba_marseille","lat":43.29273,"lon":5.40118,"is_reserved":false,"is_disabled":false,"rental_uris":{"android":"levelo://app?vid=3b1ab9ae-3690-40e4-a3a2-602fc98f9260","ios":"levelo://app?vid=3b1ab9ae-3690-40e4-a3a2-602fc98f9260"},"vehicle_type_id":"4","last_reported":1728731196,"current_range_meters":39200,"station_id":"ce4bh312rcd13ifvqdk0","pricing_plan_id":"cebpf4jnsgd1na2vs0mg"},{"bike_id":"5a0daead-4b27-4455-ab06-a7ed457983e1","system_id":"levelo_inurba_marseille","lat":43.28104,"lon":5.37845,"is_reserved":false,"is_disabled":false,"rental_uris":{"android":"levelo://app?vid=5a0daead-4b27-4455-ab06-a7ed457983e1","ios":"levelo://app?vid=5a0daead-4b27-4455-ab06-a7ed457983e1"},"vehicle_type_id":"4","last_reported":1728731196,"current_range_meters":22800,"station_id":"ce4bha12rcd13ifvqee0","pricing_plan_id":"cebpf4jnsgd1na2vs0mg"},{"bike_id":"16451e5d-97d1-468f-b8f8-9f1bdd7b01c1","system_id":"levelo_inurba_marseille","lat":43.29847,"lon":5.36282,"is_reserved":false,"is_disabled":false,"rental_uris":{"android":"levelo://app?vid=16451e5d-97d1-468f-b8f8-9f1bdd7b01c1","ios":"levelo://app?vid=16451e5d-97d1-468f-b8f8-9f1bdd7b01c1"},"vehicle_type_id":"4","last_reported":1728731196,"current_range_meters":39200,"station_id":"ce4bgpp2rcd13ifvqc3g","pricing_plan_id":"cebpf4jnsgd1na2vs0mg"},{"bike_id":"07216142-0313-4ecf-b48a-d76c221caa89","system_id":"levelo_inurba_marseille","lat":43.29843,"lon":5.36279,"is_reserved":false,"is_disabled":false,"rental_uris":{"android":"levelo://app?vid=07216142-0313-4ecf-b48a-d76c221caa89","ios":"levelo://app?vid=07216142-0313-4ecf-b48a-d76c221caa89"},"vehicle_type_id":"4","last_reported":1728731196,"current_range_meters":14800,"station_id":"ce4bgpp2rcd13ifvqc3g","pricing_plan_id":"cebpf4jnsgd1na2vs0mg"},{"bike_id":"631afeb3-ff24-4869-b570-0bf0c9ce47b0","system_id":"levelo_inurba_marseille","lat":43.3129,"lon":5.38698,"is_reserved":false,"is_disabled":false,"rental_uris":{"android":"levelo://app?vid=631afeb3-ff24-4869-b570-0bf0c9ce47b0","ios":"levelo://app?vid=631afeb3-ff24-4869-b570-0bf0c9ce47b0"},"vehicle_type_id":"4","last_reported":1728731196,"current_range_meters":18800,"station_id":"","pricing_plan_id":"cebpf4jnsgd1na2vs0mg"},{"bike_id":"a343ef2a-9dab-4dfa-aae7-81033db70aac","system_id":"levelo_inurba_marseille","lat":43.2318,"lon":5.39987,"is_reserved":false,"is_disabled":false,"rental_uris":{"android":"levelo://app?vid=a343ef2a-9dab-4dfa-aae7-81033db70aac","ios":"levelo://app?vid=a343ef2a-9dab-4dfa-aae7-81033db70aac"},"vehicle_type_id":"4","last_reported":1728731196,"current_range_meters":16000,"station_id":"ce4bhn12rcd13ifvqgqg","pricing_plan_id":"cebpf4jnsgd1na2vs0mg"},{"bike_id":"d1f5c453-2431-4bf0-9748-0b6ef84a122d","system_id":"levelo_inurba_marseille","lat":43.31226,"lon":5.36849,"is_reserved":false,"is_disabled":false,"rental_uris":{"android":"levelo://app?vid=d1f5c453-2431-4bf0-9748-0b6ef84a122d","ios":"levelo://app?vid=d1f5c453-2431-4bf0-9748-0b6ef84a122d"},"vehicle_type_id":"4","last_reported":1728731196,"current_range_meters":22000,"station_id":"ce4bgl92rcd13ifvqbq0","pricing_plan_id":"cebpf4jnsgd1na2vs0mg"},{"bike_id":"ff583779-fcdf-45e3-bbaf-ab60d631edd3","system_id":"levelo_inurba_marseille","lat":43.28415,"lon":5.37505,"is_reserved":false,"is_disabled":false,"rental_uris":{"android":"levelo://app?vid=ff583779-fcdf-45e3-bbaf-ab60d631edd3","ios":"levelo://app?vid=ff583779-fcdf-45e3-bbaf-ab60d631edd3"},"vehicle_type_id":"4","last_reported":1728731196,"current_range_meters":38800,"station_id":"ce4bh412rcd13ifvqds0","pricing_plan_id":"cebpf4jnsgd1na2vs0mg"},{"bike_id":"d9787943-12da-42fc-891f-0b247c20c2d5","system_id":"levelo_inurba_marseille","lat":43.26495,"lon":5.39545,"is_reserved":false,"is_disabled":false,"rental_uris":{"android":"levelo://app?vid=d9787943-12da-42fc-891f-0b247c20c2d5","ios":"levelo://app?vid=d9787943-12da-42fc-891f-0b247c20c2d5"},"vehicle_type_id":"4","last_reported":1728731196,"current_range_meters":36400,"station_id":"ce4bhi12rcd13ifvqfq0","pricing_plan_id":"cebpf4jnsgd1na2vs0mg"},{"bike_id":"851d29bb-dfef-4b3b-b9e6-d79f9e5b9fc1","system_id":"levelo_inurba_marseille","lat":43.25583,"lon":5.38228,"is_reserved":false,"is_disabled":false,"rental_uris":{"android":"levelo://app?vid=851d29bb-dfef-4b3b-b9e6-d79f9e5b9fc1","ios":"levelo://app?vid=851d29bb-dfef-4b3b-b9e6-d79f9e5b9fc1"},"vehicle_type_id":"4","last_reported":1728731196,"current_range_meters":38400,"station_id":"ce4bhih2rcd13ifvqfs0","pricing_plan_id":"cebpf4jnsgd1na2vs0mg"},{"bike_id":"89fdb2a0-14e1-4fc2-b616-a3a7696099e4","system_id":"levelo_inurba_marseille","lat":43.30455,"lon":5.37901,"is_reserved":false,"is_disabled":false,"rental_uris":{"android":"levelo://app?vid=89fdb2a0-14e1-4fc2-b616-a3a7696099e4","ios":"levelo://app?vid=89fdb2a0-14e1-4fc2-b616-a3a7696099e4"},"vehicle_type_id":"4","last_reported":1728731196,"current_range_meters":38400,"station_id":"ce4bgup2rcd13ifvqcn0","pricing_plan_id":"cebpf4jnsgd1na2vs0mg"},{"bike_id":"35eb4c1c-05f0-4eb0-8f1c-9272d14abf2f","system_id":"levelo_inurba_marseille","lat":43.3054,"lon":5.3653,"is_reserved":false,"is_disabled":false,"rental_uris":{"android":"levelo://app?vid=35eb4c1c-05f0-4eb0-8f1c-9272d14abf2f","ios":"levelo://app?vid=35eb4c1c-05f0-4eb0-8f1c-9272d14abf2f"},"vehicle_type_id":"4","last_reported":1728731196,"current_range_meters":19600,"station_id":"ce4bgs12rcd13ifvqcag","pricing_plan_id":"cebpf4jnsgd1na2vs0mg"},{"bike_id":"7f0c5f58-8fd2-4557-87ca-5b9a5785ad82","system_id":"levelo_inurba_marseille","lat":43.28096,"lon":5.37844,"is_reserved":false,"is_disabled":false,"rental_uris":{"android":"levelo://app?vid=7f0c5f58-8fd2-4557-87ca-5b9a5785ad82","ios":"levelo://app?vid=7f0c5f58-8fd2-4557-87ca-5b9a5785ad82"},"vehicle_type_id":"4","last_reported":1728731196,"current_range_meters":38800,"station_id":"ce4bha12rcd13ifvqee0","pricing_plan_id":"cebpf4jnsgd1na2vs0mg"},{"bike_id":"86851483-6460-4f2a-8d92-b3b47e5c55aa","system_id":"levelo_inurba_marseille","lat":43.23963,"lon":5.36622,"is_reserved":false,"is_disabled":false,"rental_uris":{"android":"levelo://app?vid=86851483-6460-4f2a-8d92-b3b47e5c55aa","ios":"levelo://app?vid=86851483-6460-4f2a-8d92-b3b47e5c55aa"},"vehicle_type_id":"4","last_reported":1728731196,"current_range_meters":40000,"station_id":"ce4bhi12rcd13ifvqfp0","pricing_plan_id":"cebpf4jnsgd1na2vs0mg"},{"bike_id":"d8b9f558-c4d7-499b-bc45-36d29cdc51c8","system_id":"levelo_inurba_marseille","lat":43.26779,"lon":5.39421,"is_reserved":false,"is_disabled":false,"rental_uris":{"android":"levelo://app?vid=d8b9f558-c4d7-499b-bc45-36d29cdc51c8","ios":"levelo://app?vid=d8b9f558-c4d7-499b-bc45-36d29cdc51c8"},"vehicle_type_id":"4","last_reported":1728731196,"current_range_meters":30000,"station_id":"ce4bhh12rcd13ifvqfg0","pricing_plan_id":"cebpf4jnsgd1na2vs0mg"},{"bike_id":"900d410e-a263-4441-80a1-af67345a66d2","system_id":"levelo_inurba_marseille","lat":43.24389,"lon":5.37062,"is_reserved":false,"is_disabled":false,"rental_uris":{"android":"levelo://app?vid=900d410e-a263-4441-80a1-af67345a66d2","ios":"levelo://app?vid=900d410e-a263-4441-80a1-af67345a66d2"},"vehicle_type_id":"4","last_reported":1728731196,"current_range_meters":25200,"station_id":"ce4bhhh2rcd13ifvqfk0","pricing_plan_id":"cebpf4jnsgd1na2vs0mg"},{"bike_id":"18e50b7c-f98f-46f1-90ae-1ebf8e17e6aa","system_id":"levelo_inurba_marseille","lat":43.27182,"lon":5.40983,"is_reserved":false,"is_disabled":false,"rental_uris":{"android":"levelo://app?vid=18e50b7c-f98f-46f1-90ae-1ebf8e17e6aa","ios":"levelo://app?vid=18e50b7c-f98f-46f1-90ae-1ebf8e17e6aa"},"vehicle_type_id":"4","last_reported":1728731196,"current_range_meters":25600,"station_id":"ce4bhl12rcd13ifvqgf0","pricing_plan_id":"cebpf4jnsgd1na2vs0mg"},{"bike_id":"93cf6e6a-b59b-4d63-9a00-c25bf3ea1f05","system_id":"levelo_inurba_marseille","lat":43.29894,"lon":5.43656,"is_reserved":false,"is_disabled":false,"rental_uris":{"android":"levelo://app?vid=93cf6e6a-b59b-4d63-9a00-c25bf3ea1f05","ios":"levelo://app?vid=93cf6e6a-b59b-4d63-9a00-c25bf3ea1f05"},"vehicle_type_id":"4","last_reported":1728731196,"current_range_meters":39200,"station_id":"ce4bhpp2rcd13ifvqhfg","pricing_plan_id":"cebpf4jnsgd1na2vs0mg"},{"bike_id":"fcc1fc7b-96cb-4035-bb69-454469699b06","system_id":"levelo_inurba_marseille","lat":43.28567,"lon":5.39501,"is_reserved":false,"is_disabled":false,"rental_uris":{"android":"levelo://app?vid=fcc1fc7b-96cb-4035-bb69-454469699b06","ios":"levelo://app?vid=fcc1fc7b-96cb-4035-bb69-454469699b06"},"vehicle_type_id":"4","last_reported":1728731196,"current_range_meters":23200,"station_id":"ce4bh292rcd13ifvqdg0","pricing_plan_id":"cebpf4jnsgd1na2vs0mg"},{"bike_id":"98dca0ce-e9cb-4a6a-82ee-19798b468f41","system_id":"levelo_inurba_marseille","lat":43.29035,"lon":5.37547,"is_reserved":false,"is_disabled":false,"rental_uris":{"android":"levelo://app?vid=98dca0ce-e9cb-4a6a-82ee-19798b468f41","ios":"levelo://app?vid=98dca0ce-e9cb-4a6a-82ee-19798b468f41"},"vehicle_type_id":"4","last_reported":1728731196,"current_range_meters":26000,"station_id":"ce4bh692rcd13ifvqe90","pricing_plan_id":"cebpf4jnsgd1na2vs0mg"},{"bike_id":"9d914793-7779-46ba-b2b2-8e880b065d9f","system_id":"levelo_inurba_marseille","lat":43.29723,"lon":5.37689,"is_reserved":false,"is_disabled":false,"rental_uris":{"android":"levelo://app?vid=9d914793-7779-46ba-b2b2-8e880b065d9f","ios":"levelo://app?vid=9d914793-7779-46ba-b2b2-8e880b065d9f"},"vehicle_type_id":"4","last_reported":1728731196,"current_range_meters":38800,"station_id":"ce4bgkh2rcd13ifvqbl0","pricing_plan_id":"cebpf4jnsgd1na2vs0mg"},{"bike_id":"b27220ce-643c-4cda-b1cf-ddebfd37a8aa","system_id":"levelo_inurba_marseille","lat":43.23181,"lon":5.39988,"is_reserved":false,"is_disabled":false,"rental_uris":{"android":"levelo://app?vid=b27220ce-643c-4cda-b1cf-ddebfd37a8aa","ios":"levelo://app?vid=b27220ce-643c-4cda-b1cf-ddebfd37a8aa"},"vehicle_type_id":"4","last_reported":1728731196,"current_range_meters":40000,"station_id":"ce4bhn12rcd13ifvqgqg","pricing_plan_id":"cebpf4jnsgd1na2vs0mg"},{"bike_id":"ba68b8e2-1c01-4a12-9979-c13d182ac775","system_id":"levelo_inurba_marseille","lat":43.29103,"lon":5.38123,"is_reserved":false,"is_disabled":false,"rental_uris":{"android":"levelo://app?vid=ba68b8e2-1c01-4a12-9979-c13d182ac775","ios":"levelo://app?vid=ba68b8e2-1c01-4a12-9979-c13d182ac775"},"vehicle_type_id":"4","last_reported":1728731196,"current_range_meters":30400,"station_id":"ce4bh512rcd13ifvqe2g","pricing_plan_id":"cebpf4jnsgd1na2vs0mg"},{"bike_id":"37ae701b-e4bf-4ea1-bc03-42756c7225e5","system_id":"levelo_inurba_marseille","lat":43.33026,"lon":5.39038,"is_reserved":false,"is_disabled":false,"rental_uris":{"android":"levelo://app?vid=37ae701b-e4bf-4ea1-bc03-42756c7225e5","ios":"levelo://app?vid=37ae701b-e4bf-4ea1-bc03-42756c7225e5"},"vehicle_type_id":"4","last_reported":1728731196,"current_range_meters":24800,"station_id":"ce4bhr92rcd13ifvqhrg","pricing_plan_id":"cebpf4jnsgd1na2vs0mg"},{"bike_id":"faeef220-4bf3-4eee-a3c1-b6ab7d7a9417","system_id":"levelo_inurba_marseille","lat":43.27623,"lon":5.36104,"is_reserved":false,"is_disabled":false,"rental_uris":{"android":"levelo://app?vid=faeef220-4bf3-4eee-a3c1-b6ab7d7a9417","ios":"levelo://app?vid=faeef220-4bf3-4eee-a3c1-b6ab7d7a9417"},"vehicle_type_id":"4","last_reported":1728731196,"current_range_meters":40000,"station_id":"ce4bgj92rcd13ifvqbe0","pricing_plan_id":"cebpf4jnsgd1na2vs0mg"},{"bike_id":"c4a4baf8-e465-4f75-84a3-178cbd57a164","system_id":"levelo_inurba_marseille","lat":43.30936,"lon":5.40142,"is_reserved":false,"is_disabled":false,"rental_uris":{"android":"levelo://app?vid=c4a4baf8-e465-4f75-84a3-178cbd57a164","ios":"levelo://app?vid=c4a4baf8-e465-4f75-84a3-178cbd57a164"},"vehicle_type_id":"4","last_reported":1728731196,"current_range_meters":4800,"station_id":"ce4bgvp2rcd13ifvqct0","pricing_plan_id":"cebpf4jnsgd1na2vs0mg"},{"bike_id":"04f9561f-7f5e-420a-98c9-5ba87158e0f1","system_id":"levelo_inurba_marseille","lat":43.286133,"lon":5.351054,"is_reserved":false,"is_disabled":false,"rental_uris":{"android":"levelo://app?vid=04f9561f-7f5e-420a-98c9-5ba87158e0f1","ios":"levelo://app?vid=04f9561f-7f5e-420a-98c9-5ba87158e0f1"},"vehicle_type_id":"4","last_reported":1728731196,"current_range_meters":10000,"station_id":"ce4bhch2rcd13ifvqeug","pricing_plan_id":"cebpf4jnsgd1na2vs0mg"},{"bike_id":"aed2777a-4f8a-4d24-802a-93026f052e7d","system_id":"levelo_inurba_marseille","lat":43.25578,"lon":5.38229,"is_reserved":false,"is_disabled":false,"rental_uris":{"android":"levelo://app?vid=aed2777a-4f8a-4d24-802a-93026f052e7d","ios":"levelo://app?vid=aed2777a-4f8a-4d24-802a-93026f052e7d"},"vehicle_type_id":"4","last_reported":1728731196,"current_range_meters":29600,"station_id":"ce4bhih2rcd13ifvqfs0","pricing_plan_id":"cebpf4jnsgd1na2vs0mg"},{"bike_id":"b19c512a-85f5-4452-9868-2b5c2ef67b31","system_id":"levelo_inurba_marseille","lat":43.27372,"lon":5.36242,"is_reserved":false,"is_disabled":false,"rental_uris":{"android":"levelo://app?vid=b19c512a-85f5-4452-9868-2b5c2ef67b31","ios":"levelo://app?vid=b19c512a-85f5-4452-9868-2b5c2ef67b31"},"vehicle_type_id":"4","last_reported":1728731196,"current_range_meters":38800,"station_id":"ce4bhbh2rcd13ifvqeo0","pricing_plan_id":"cebpf4jnsgd1na2vs0mg"},{"bike_id":"c2709d8c-182c-4c66-9678-32143d413767","system_id":"levelo_inurba_marseille","lat":43.22934,"lon":5.35381,"is_reserved":false,"is_disabled":false,"rental_uris":{"android":"levelo://app?vid=c2709d8c-182c-4c66-9678-32143d413767","ios":"levelo://app?vid=c2709d8c-182c-4c66-9678-32143d413767"},"vehicle_type_id":"4","last_reported":1728731196,"current_range_meters":26800,"station_id":"cpo3532slgdg3j2ikp40","pricing_plan_id":"cebpf4jnsgd1na2vs0mg"},{"bike_id":"0c40a5a6-192c-49d9-b82b-34b1c02de47d","system_id":"levelo_inurba_marseille","lat":43.29029,"lon":5.3756,"is_reserved":false,"is_disabled":false,"rental_uris":{"android":"levelo://app?vid=0c40a5a6-192c-49d9-b82b-34b1c02de47d","ios":"levelo://app?vid=0c40a5a6-192c-49d9-b82b-34b1c02de47d"},"vehicle_type_id":"4","last_reported":1728731196,"current_range_meters":33600,"station_id":"ce4bh692rcd13ifvqe90","pricing_plan_id":"cebpf4jnsgd1na2vs0mg"},{"bike_id":"e3b446d4-b8e8-4687-92df-41a69588abe1","system_id":"levelo_inurba_marseille","lat":43.30189,"lon":5.36605,"is_reserved":false,"is_disabled":false,"rental_uris":{"android":"levelo://app?vid=e3b446d4-b8e8-4687-92df-41a69588abe1","ios":"levelo://app?vid=e3b446d4-b8e8-4687-92df-41a69588abe1"},"vehicle_type_id":"4","last_reported":1728731196,"current_range_meters":20000,"station_id":"ce4bgrh2rcd13ifvqc8g","pricing_plan_id":"cebpf4jnsgd1na2vs0mg"},{"bike_id":"dfd24492-a151-4efb-a51a-223cd42b2d56","system_id":"levelo_inurba_marseille","lat":43.34141,"lon":5.40903,"is_reserved":false,"is_disabled":false,"rental_uris":{"android":"levelo://app?vid=dfd24492-a151-4efb-a51a-223cd42b2d56","ios":"levelo://app?vid=dfd24492-a151-4efb-a51a-223cd42b2d56"},"vehicle_type_id":"4","last_reported":1728731196,"current_range_meters":18000,"station_id":"ce4bhqh2rcd13ifvqhlg","pricing_plan_id":"cebpf4jnsgd1na2vs0mg"},{"bike_id":"4cc4e90f-2fbc-42da-a386-02b30a3334f2","system_id":"levelo_inurba_marseille","lat":43.28426,"lon":5.37512,"is_reserved":false,"is_disabled":false,"rental_uris":{"android":"levelo://app?vid=4cc4e90f-2fbc-42da-a386-02b30a3334f2","ios":"levelo://app?vid=4cc4e90f-2fbc-42da-a386-02b30a3334f2"},"vehicle_type_id":"4","last_reported":1728731196,"current_range_meters":24000,"station_id":"ce4bh412rcd13ifvqds0","pricing_plan_id":"cebpf4jnsgd1na2vs0mg"},{"bike_id":"dde29c55-45f3-43ae-a796-1e7056c9a7fa","system_id":"levelo_inurba_marseille","lat":43.29575,"lon":5.36747,"is_reserved":false,"is_disabled":false,"rental_uris":{"android":"levelo://app?vid=dde29c55-45f3-43ae-a796-1e7056c9a7fa","ios":"levelo://app?vid=dde29c55-45f3-43ae-a796-1e7056c9a7fa"},"vehicle_type_id":"4","last_reported":1728731196,"current_range_meters":20000,"station_id":"ce4bgph2rcd13ifvqc2g","pricing_plan_id":"cebpf4jnsgd1na2vs0mg"},{"bike_id":"e737a905-8f20-42fc-93e7-b45ecb95c043","system_id":"levelo_inurba_marseille","lat":43.26686,"lon":5.38275,"is_reserved":false,"is_disabled":false,"rental_uris":{"android":"levelo://app?vid=e737a905-8f20-42fc-93e7-b45ecb95c043","ios":"levelo://app?vid=e737a905-8f20-42fc-93e7-b45ecb95c043"},"vehicle_type_id":"4","last_reported":1728731196,"current_range_meters":39200,"station_id":"ce4bhg92rcd13ifvqf90","pricing_plan_id":"cebpf4jnsgd1na2vs0mg"},{"bike_id":"65ecdb47-6ce1-4b03-b02a-17a7a77482b1","system_id":"levelo_inurba_marseille","lat":43.23192,"lon":5.35552,"is_reserved":false,"is_disabled":false,"rental_uris":{"android":"levelo://app?vid=65ecdb47-6ce1-4b03-b02a-17a7a77482b1","ios":"levelo://app?vid=65ecdb47-6ce1-4b03-b02a-17a7a77482b1"},"vehicle_type_id":"4","last_reported":1728731196,"current_range_meters":19200,"station_id":"ce4bhu92rcd13ifvqi70","pricing_plan_id":"cebpf4jnsgd1na2vs0mg"},{"bike_id":"86cb0d5d-7925-4cb9-91e4-c191b014a883","system_id":"levelo_inurba_marseille","lat":43.26568,"lon":5.39002,"is_reserved":false,"is_disabled":false,"rental_uris":{"android":"levelo://app?vid=86cb0d5d-7925-4cb9-91e4-c191b014a883","ios":"levelo://app?vid=86cb0d5d-7925-4cb9-91e4-c191b014a883"},"vehicle_type_id":"4","last_reported":1728731196,"current_range_meters":35200,"station_id":"ce4bhe12rcd13ifvqf30","pricing_plan_id":"cebpf4jnsgd1na2vs0mg"},{"bike_id":"eef6467a-e6e6-4f0d-aa0e-72ead835d5e4","system_id":"levelo_inurba_marseille","lat":43.270721,"lon":5.388784,"is_reserved":false,"is_disabled":false,"rental_uris":{"android":"levelo://app?vid=eef6467a-e6e6-4f0d-aa0e-72ead835d5e4","ios":"levelo://app?vid=eef6467a-e6e6-4f0d-aa0e-72ead835d5e4"},"vehicle_type_id":"4","last_reported":1728731196,"current_range_meters":16800,"station_id":"ce4bhg12rcd13ifvqf80","pricing_plan_id":"cebpf4jnsgd1na2vs0mg"},{"bike_id":"fe499ee7-6375-4ecd-b57e-a932fe0f65cf","system_id":"levelo_inurba_marseille","lat":43.33723,"lon":5.39184,"is_reserved":false,"is_disabled":false,"rental_uris":{"android":"levelo://app?vid=fe499ee7-6375-4ecd-b57e-a932fe0f65cf","ios":"levelo://app?vid=fe499ee7-6375-4ecd-b57e-a932fe0f65cf"},"vehicle_type_id":"4","last_reported":1728731196,"current_range_meters":8800,"station_id":"ce4bhr92rcd13ifvqhsg","pricing_plan_id":"cebpf4jnsgd1na2vs0mg"},{"bike_id":"090fe697-b3a9-46de-b700-441280991818","system_id":"levelo_inurba_marseille","lat":43.33602,"lon":5.41035,"is_reserved":false,"is_disabled":false,"rental_uris":{"android":"levelo://app?vid=090fe697-b3a9-46de-b700-441280991818","ios":"levelo://app?vid=090fe697-b3a9-46de-b700-441280991818"},"vehicle_type_id":"4","last_reported":1728731196,"current_range_meters":4800,"station_id":"ce4bhqh2rcd13ifvqhmg","pricing_plan_id":"cebpf4jnsgd1na2vs0mg"},{"bike_id":"864f82ea-ea90-451b-bdec-3a09898c1c10","system_id":"levelo_inurba_marseille","lat":43.28405,"lon":5.37517,"is_reserved":false,"is_disabled":false,"rental_uris":{"android":"levelo://app?vid=864f82ea-ea90-451b-bdec-3a09898c1c10","ios":"levelo://app?vid=864f82ea-ea90-451b-bdec-3a09898c1c10"},"vehicle_type_id":"4","last_reported":1728731196,"current_range_meters":38000,"station_id":"ce4bh412rcd13ifvqds0","pricing_plan_id":"cebpf4jnsgd1na2vs0mg"},{"bike_id":"cb093848-e3a4-44ad-824c-364745426e62","system_id":"levelo_inurba_marseille","lat":43.29961,"lon":5.385,"is_reserved":false,"is_disabled":false,"rental_uris":{"android":"levelo://app?vid=cb093848-e3a4-44ad-824c-364745426e62","ios":"levelo://app?vid=cb093848-e3a4-44ad-824c-364745426e62"},"vehicle_type_id":"4","last_reported":1728731196,"current_range_meters":26000,"station_id":"ce4bgj92rcd13ifvqbd0","pricing_plan_id":"cebpf4jnsgd1na2vs0mg"},{"bike_id":"6c1d1668-cec7-409e-a18d-b56cff4cdb19","system_id":"levelo_inurba_marseille","lat":43.30142,"lon":5.3987,"is_reserved":false,"is_disabled":false,"rental_uris":{"android":"levelo://app?vid=6c1d1668-cec7-409e-a18d-b56cff4cdb19","ios":"levelo://app?vid=6c1d1668-cec7-409e-a18d-b56cff4cdb19"},"vehicle_type_id":"4","last_reported":1728731196,"current_range_meters":3600,"station_id":"ce4bh0h2rcd13ifvqd40","pricing_plan_id":"cebpf4jnsgd1na2vs0mg"},{"bike_id":"66edde37-eed2-4a91-bd6e-93c82a22ea34","system_id":"levelo_inurba_marseille","lat":43.29533,"lon":5.37501,"is_reserved":false,"is_disabled":false,"rental_uris":{"android":"levelo://app?vid=66edde37-eed2-4a91-bd6e-93c82a22ea34","ios":"levelo://app?vid=66edde37-eed2-4a91-bd6e-93c82a22ea34"},"vehicle_type_id":"4","last_reported":1728731196,"current_range_meters":39200,"station_id":"ce4bgkp2rcd13ifvqbmg","pricing_plan_id":"cebpf4jnsgd1na2vs0mg"},{"bike_id":"26ad2f98-28e7-4ba6-817b-53c0d1cfc4da","system_id":"levelo_inurba_marseille","lat":43.25716,"lon":5.41113,"is_reserved":false,"is_disabled":false,"rental_uris":{"android":"levelo://app?vid=26ad2f98-28e7-4ba6-817b-53c0d1cfc4da","ios":"levelo://app?vid=26ad2f98-28e7-4ba6-817b-53c0d1cfc4da"},"vehicle_type_id":"4","last_reported":1728731196,"current_range_meters":40000,"station_id":"ce4bhkp2rcd13ifvqgd0","pricing_plan_id":"cebpf4jnsgd1na2vs0mg"},{"bike_id":"ad9508a3-6339-4b15-ad7f-7867f29affe1","system_id":"levelo_inurba_marseille","lat":43.23966,"lon":5.36626,"is_reserved":false,"is_disabled":false,"rental_uris":{"android":"levelo://app?vid=ad9508a3-6339-4b15-ad7f-7867f29affe1","ios":"levelo://app?vid=ad9508a3-6339-4b15-ad7f-7867f29affe1"},"vehicle_type_id":"4","last_reported":1728731196,"current_range_meters":30000,"station_id":"ce4bhi12rcd13ifvqfp0","pricing_plan_id":"cebpf4jnsgd1na2vs0mg"},{"bike_id":"759ce870-3bc5-4a2e-a8c9-bec4e8008e45","system_id":"levelo_inurba_marseille","lat":43.337444,"lon":5.374475,"is_reserved":false,"is_disabled":false,"rental_uris":{"android":"levelo://app?vid=759ce870-3bc5-4a2e-a8c9-bec4e8008e45","ios":"levelo://app?vid=759ce870-3bc5-4a2e-a8c9-bec4e8008e45"},"vehicle_type_id":"4","last_reported":1728731196,"current_range_meters":28000,"station_id":"","pricing_plan_id":"cebpf4jnsgd1na2vs0mg"},{"bike_id":"85a6762e-f262-429f-badd-3ed486cc3ab0","system_id":"levelo_inurba_marseille","lat":43.27616,"lon":5.36106,"is_reserved":false,"is_disabled":false,"rental_uris":{"android":"levelo://app?vid=85a6762e-f262-429f-badd-3ed486cc3ab0","ios":"levelo://app?vid=85a6762e-f262-429f-badd-3ed486cc3ab0"},"vehicle_type_id":"4","last_reported":1728731196,"current_range_meters":38000,"station_id":"ce4bgj92rcd13ifvqbe0","pricing_plan_id":"cebpf4jnsgd1na2vs0mg"},{"bike_id":"81116487-809d-4f42-a9f3-27b11eea1ba5","system_id":"levelo_inurba_marseille","lat":43.24068,"lon":5.37759,"is_reserved":false,"is_disabled":false,"rental_uris":{"android":"levelo://app?vid=81116487-809d-4f42-a9f3-27b11eea1ba5","ios":"levelo://app?vid=81116487-809d-4f42-a9f3-27b11eea1ba5"},"vehicle_type_id":"4","last_reported":1728731196,"current_range_meters":20800,"station_id":"ce4bhnp2rcd13ifvqgvg","pricing_plan_id":"cebpf4jnsgd1na2vs0mg"},{"bike_id":"f9f3b746-ca93-4320-b5d5-8f07d245a12a","system_id":"levelo_inurba_marseille","lat":43.2407,"lon":5.37762,"is_reserved":false,"is_disabled":false,"rental_uris":{"android":"levelo://app?vid=f9f3b746-ca93-4320-b5d5-8f07d245a12a","ios":"levelo://app?vid=f9f3b746-ca93-4320-b5d5-8f07d245a12a"},"vehicle_type_id":"4","last_reported":1728731196,"current_range_meters":3200,"station_id":"ce4bhnp2rcd13ifvqgvg","pricing_plan_id":"cebpf4jnsgd1na2vs0mg"},{"bike_id":"e2b853a5-8b42-4ffe-8220-a2d85a881e19","system_id":"levelo_inurba_marseille","lat":43.27052,"lon":5.40254,"is_reserved":false,"is_disabled":false,"rental_uris":{"android":"levelo://app?vid=e2b853a5-8b42-4ffe-8220-a2d85a881e19","ios":"levelo://app?vid=e2b853a5-8b42-4ffe-8220-a2d85a881e19"},"vehicle_type_id":"4","last_reported":1728731196,"current_range_meters":34000,"station_id":"ce4bhk92rcd13ifvqgc0","pricing_plan_id":"cebpf4jnsgd1na2vs0mg"},{"bike_id":"5bc82fca-43af-4201-891c-b197527e32ad","system_id":"levelo_inurba_marseille","lat":43.23182,"lon":5.39984,"is_reserved":false,"is_disabled":false,"rental_uris":{"android":"levelo://app?vid=5bc82fca-43af-4201-891c-b197527e32ad","ios":"levelo://app?vid=5bc82fca-43af-4201-891c-b197527e32ad"},"vehicle_type_id":"4","last_reported":1728731196,"current_range_meters":8400,"station_id":"ce4bhn12rcd13ifvqgqg","pricing_plan_id":"cebpf4jnsgd1na2vs0mg"},{"bike_id":"cdb484d8-926b-4c0e-9709-acfa23230e4a","system_id":"levelo_inurba_marseille","lat":43.30151,"lon":5.38082,"is_reserved":false,"is_disabled":false,"rental_uris":{"android":"levelo://app?vid=cdb484d8-926b-4c0e-9709-acfa23230e4a","ios":"levelo://app?vid=cdb484d8-926b-4c0e-9709-acfa23230e4a"},"vehicle_type_id":"4","last_reported":1728731196,"current_range_meters":37600,"station_id":"ce4bgjp2rcd13ifvqbh0","pricing_plan_id":"cebpf4jnsgd1na2vs0mg"},{"bike_id":"628b70e0-70d2-4a50-bd81-f02589a5a65c","system_id":"levelo_inurba_marseille","lat":43.29217,"lon":5.37169,"is_reserved":false,"is_disabled":false,"rental_uris":{"android":"levelo://app?vid=628b70e0-70d2-4a50-bd81-f02589a5a65c","ios":"levelo://app?vid=628b70e0-70d2-4a50-bd81-f02589a5a65c"},"vehicle_type_id":"4","last_reported":1728731196,"current_range_meters":8800,"station_id":"ce4bha92rcd13ifvqeh0","pricing_plan_id":"cebpf4jnsgd1na2vs0mg"},{"bike_id":"14db6b72-5ed0-47e9-b01e-2ce3924290da","system_id":"levelo_inurba_marseille","lat":43.25,"lon":5.38925,"is_reserved":false,"is_disabled":false,"rental_uris":{"android":"levelo://app?vid=14db6b72-5ed0-47e9-b01e-2ce3924290da","ios":"levelo://app?vid=14db6b72-5ed0-47e9-b01e-2ce3924290da"},"vehicle_type_id":"4","last_reported":1728731196,"current_range_meters":9600,"station_id":"ce4bhgp2rcd13ifvqfd0","pricing_plan_id":"cebpf4jnsgd1na2vs0mg"},{"bike_id":"a49f0919-36fa-4eb4-8b1e-4f56526b00f7","system_id":"levelo_inurba_marseille","lat":43.27177,"lon":5.40995,"is_reserved":false,"is_disabled":false,"rental_uris":{"android":"levelo://app?vid=a49f0919-36fa-4eb4-8b1e-4f56526b00f7","ios":"levelo://app?vid=a49f0919-36fa-4eb4-8b1e-4f56526b00f7"},"vehicle_type_id":"4","last_reported":1728731196,"current_range_meters":40000,"station_id":"ce4bhl12rcd13ifvqgf0","pricing_plan_id":"cebpf4jnsgd1na2vs0mg"},{"bike_id":"37260897-2869-4b67-b68b-17af335d61b4","system_id":"levelo_inurba_marseille","lat":43.31708,"lon":5.43709,"is_reserved":false,"is_disabled":false,"rental_uris":{"android":"levelo://app?vid=37260897-2869-4b67-b68b-17af335d61b4","ios":"levelo://app?vid=37260897-2869-4b67-b68b-17af335d61b4"},"vehicle_type_id":"4","last_reported":1728731196,"current_range_meters":24400,"station_id":"ce4bhp92rcd13ifvqhcg","pricing_plan_id":"cebpf4jnsgd1na2vs0mg"},{"bike_id":"95d042b4-a096-4d78-a317-08d2406c89b0","system_id":"levelo_inurba_marseille","lat":43.25863,"lon":5.39894,"is_reserved":false,"is_disabled":false,"rental_uris":{"android":"levelo://app?vid=95d042b4-a096-4d78-a317-08d2406c89b0","ios":"levelo://app?vid=95d042b4-a096-4d78-a317-08d2406c89b0"},"vehicle_type_id":"4","last_reported":1728731196,"current_range_meters":36800,"station_id":"ce4bhl92rcd13ifvqghg","pricing_plan_id":"cebpf4jnsgd1na2vs0mg"},{"bike_id":"d89a2ac9-d3f2-4375-b541-356a86235e43","system_id":"levelo_inurba_marseille","lat":43.29572,"lon":5.3752,"is_reserved":false,"is_disabled":false,"rental_uris":{"android":"levelo://app?vid=d89a2ac9-d3f2-4375-b541-356a86235e43","ios":"levelo://app?vid=d89a2ac9-d3f2-4375-b541-356a86235e43"},"vehicle_type_id":"4","last_reported":1728731196,"current_range_meters":39200,"station_id":"ce4bgh92rcd13ifvqb50","pricing_plan_id":"cebpf4jnsgd1na2vs0mg"},{"bike_id":"bd04a1c8-20de-43c9-b01d-e836a9b5e1a3","system_id":"levelo_inurba_marseille","lat":43.2997,"lon":5.37172,"is_reserved":false,"is_disabled":false,"rental_uris":{"android":"levelo://app?vid=bd04a1c8-20de-43c9-b01d-e836a9b5e1a3","ios":"levelo://app?vid=bd04a1c8-20de-43c9-b01d-e836a9b5e1a3"},"vehicle_type_id":"4","last_reported":1728731196,"current_range_meters":20000,"station_id":"ce4bgr92rcd13ifvqc7g","pricing_plan_id":"cebpf4jnsgd1na2vs0mg"},{"bike_id":"82de1d58-db4a-4dc1-9fdf-8477c2a655ef","system_id":"levelo_inurba_marseille","lat":43.28039,"lon":5.36939,"is_reserved":false,"is_disabled":false,"rental_uris":{"android":"levelo://app?vid=82de1d58-db4a-4dc1-9fdf-8477c2a655ef","ios":"levelo://app?vid=82de1d58-db4a-4dc1-9fdf-8477c2a655ef"},"vehicle_type_id":"4","last_reported":1728731196,"current_range_meters":36800,"station_id":"ce4bha12rcd13ifvqef0","pricing_plan_id":"cebpf4jnsgd1na2vs0mg"},{"bike_id":"5fca2804-1a1c-486a-a729-494bab116f7e","system_id":"levelo_inurba_marseille","lat":43.29925,"lon":5.3748,"is_reserved":false,"is_disabled":false,"rental_uris":{"android":"levelo://app?vid=5fca2804-1a1c-486a-a729-494bab116f7e","ios":"levelo://app?vid=5fca2804-1a1c-486a-a729-494bab116f7e"},"vehicle_type_id":"4","last_reported":1728731196,"current_range_meters":9200,"station_id":"ce4bgjh2rcd13ifvqbg0","pricing_plan_id":"cebpf4jnsgd1na2vs0mg"},{"bike_id":"a39f88e5-6ed5-4d3e-8bf2-26e84c9278fe","system_id":"levelo_inurba_marseille","lat":43.28857,"lon":5.35851,"is_reserved":false,"is_disabled":false,"rental_uris":{"android":"levelo://app?vid=a39f88e5-6ed5-4d3e-8bf2-26e84c9278fe","ios":"levelo://app?vid=a39f88e5-6ed5-4d3e-8bf2-26e84c9278fe"},"vehicle_type_id":"4","last_reported":1728731196,"current_range_meters":36400,"station_id":"ce4bhb12rcd13ifvqem0","pricing_plan_id":"cebpf4jnsgd1na2vs0mg"},{"bike_id":"5c483790-257f-48e3-898d-85ded0cb6385","system_id":"levelo_inurba_marseille","lat":43.30165,"lon":5.3808,"is_reserved":false,"is_disabled":false,"rental_uris":{"android":"levelo://app?vid=5c483790-257f-48e3-898d-85ded0cb6385","ios":"levelo://app?vid=5c483790-257f-48e3-898d-85ded0cb6385"},"vehicle_type_id":"4","last_reported":1728731196,"current_range_meters":28800,"station_id":"ce4bgjp2rcd13ifvqbh0","pricing_plan_id":"cebpf4jnsgd1na2vs0mg"},{"bike_id":"b06ce030-e9cd-499c-afd0-d38cb36a2e69","system_id":"levelo_inurba_marseille","lat":43.27622,"lon":5.36105,"is_reserved":false,"is_disabled":false,"rental_uris":{"android":"levelo://app?vid=b06ce030-e9cd-499c-afd0-d38cb36a2e69","ios":"levelo://app?vid=b06ce030-e9cd-499c-afd0-d38cb36a2e69"},"vehicle_type_id":"4","last_reported":1728731196,"current_range_meters":30800,"station_id":"ce4bgj92rcd13ifvqbe0","pricing_plan_id":"cebpf4jnsgd1na2vs0mg"},{"bike_id":"b071f6fe-9729-4ca8-957c-98e99bf0523b","system_id":"levelo_inurba_marseille","lat":43.2953,"lon":5.38541,"is_reserved":false,"is_disabled":false,"rental_uris":{"android":"levelo://app?vid=b071f6fe-9729-4ca8-957c-98e99bf0523b","ios":"levelo://app?vid=b071f6fe-9729-4ca8-957c-98e99bf0523b"},"vehicle_type_id":"4","last_reported":1728731196,"current_range_meters":32400,"station_id":"ce4bgih2rcd13ifvqba0","pricing_plan_id":"cebpf4jnsgd1na2vs0mg"},{"bike_id":"fd301c4f-88d0-470b-8444-02e732c4a052","system_id":"levelo_inurba_marseille","lat":43.24972,"lon":5.38099,"is_reserved":false,"is_disabled":false,"rental_uris":{"android":"levelo://app?vid=fd301c4f-88d0-470b-8444-02e732c4a052","ios":"levelo://app?vid=fd301c4f-88d0-470b-8444-02e732c4a052"},"vehicle_type_id":"4","last_reported":1728731196,"current_range_meters":28400,"station_id":"","pricing_plan_id":"cebpf4jnsgd1na2vs0mg"},{"bike_id":"edcc5898-35ae-4973-84c0-afbc9f6819b9","system_id":"levelo_inurba_marseille","lat":43.24803,"lon":5.37453,"is_reserved":false,"is_disabled":false,"rental_uris":{"android":"levelo://app?vid=edcc5898-35ae-4973-84c0-afbc9f6819b9","ios":"levelo://app?vid=edcc5898-35ae-4973-84c0-afbc9f6819b9"},"vehicle_type_id":"4","last_reported":1728731196,"current_range_meters":30800,"station_id":"ce4bhgh2rcd13ifvqfb0","pricing_plan_id":"cebpf4jnsgd1na2vs0mg"},{"bike_id":"6a8f794a-5328-4903-bad1-138b515e058e","system_id":"levelo_inurba_marseille","lat":43.30598,"lon":5.39357,"is_reserved":false,"is_disabled":false,"rental_uris":{"android":"levelo://app?vid=6a8f794a-5328-4903-bad1-138b515e058e","ios":"levelo://app?vid=6a8f794a-5328-4903-bad1-138b515e058e"},"vehicle_type_id":"4","last_reported":1728731196,"current_range_meters":33600,"station_id":"ce4bh0p2rcd13ifvqd80","pricing_plan_id":"cebpf4jnsgd1na2vs0mg"},{"bike_id":"ff68b789-7173-415f-860f-fb58c1b9d01d","system_id":"levelo_inurba_marseille","lat":43.22928,"lon":5.35375,"is_reserved":false,"is_disabled":false,"rental_uris":{"android":"levelo://app?vid=ff68b789-7173-415f-860f-fb58c1b9d01d","ios":"levelo://app?vid=ff68b789-7173-415f-860f-fb58c1b9d01d"},"vehicle_type_id":"4","last_reported":1728731196,"current_range_meters":26800,"station_id":"cpo3532slgdg3j2ikp40","pricing_plan_id":"cebpf4jnsgd1na2vs0mg"},{"bike_id":"f2ec553b-f583-4634-bf60-a39b93078fc1","system_id":"levelo_inurba_marseille","lat":43.24389,"lon":5.37063,"is_reserved":false,"is_disabled":false,"rental_uris":{"android":"levelo://app?vid=f2ec553b-f583-4634-bf60-a39b93078fc1","ios":"levelo://app?vid=f2ec553b-f583-4634-bf60-a39b93078fc1"},"vehicle_type_id":"4","last_reported":1728731196,"current_range_meters":28400,"station_id":"ce4bhhh2rcd13ifvqfk0","pricing_plan_id":"cebpf4jnsgd1na2vs0mg"},{"bike_id":"a08a0676-a6d8-42ec-ae8b-f534b4fd06ff","system_id":"levelo_inurba_marseille","lat":43.2997,"lon":5.38495,"is_reserved":false,"is_disabled":false,"rental_uris":{"android":"levelo://app?vid=a08a0676-a6d8-42ec-ae8b-f534b4fd06ff","ios":"levelo://app?vid=a08a0676-a6d8-42ec-ae8b-f534b4fd06ff"},"vehicle_type_id":"4","last_reported":1728731196,"current_range_meters":38400,"station_id":"ce4bgj92rcd13ifvqbd0","pricing_plan_id":"cebpf4jnsgd1na2vs0mg"},{"bike_id":"27214a3f-e250-465b-9eae-52b52eef5e45","system_id":"levelo_inurba_marseille","lat":43.23152,"lon":5.43703,"is_reserved":false,"is_disabled":false,"rental_uris":{"android":"levelo://app?vid=27214a3f-e250-465b-9eae-52b52eef5e45","ios":"levelo://app?vid=27214a3f-e250-465b-9eae-52b52eef5e45"},"vehicle_type_id":"4","last_reported":1728731196,"current_range_meters":17600,"station_id":"ce4bhmp2rcd13ifvqgog","pricing_plan_id":"cebpf4jnsgd1na2vs0mg"},{"bike_id":"92c1af36-5649-40f5-84ed-a7b062884571","system_id":"levelo_inurba_marseille","lat":43.239645,"lon":5.366342,"is_reserved":false,"is_disabled":false,"rental_uris":{"android":"levelo://app?vid=92c1af36-5649-40f5-84ed-a7b062884571","ios":"levelo://app?vid=92c1af36-5649-40f5-84ed-a7b062884571"},"vehicle_type_id":"4","last_reported":1728731196,"current_range_meters":35200,"station_id":"ce4bhi12rcd13ifvqfp0","pricing_plan_id":"cebpf4jnsgd1na2vs0mg"},{"bike_id":"6cb5b02c-2401-484a-8b7d-b4d2106d6b08","system_id":"levelo_inurba_marseille","lat":43.23193,"lon":5.35554,"is_reserved":false,"is_disabled":false,"rental_uris":{"android":"levelo://app?vid=6cb5b02c-2401-484a-8b7d-b4d2106d6b08","ios":"levelo://app?vid=6cb5b02c-2401-484a-8b7d-b4d2106d6b08"},"vehicle_type_id":"4","last_reported":1728731196,"current_range_meters":31200,"station_id":"ce4bhu92rcd13ifvqi70","pricing_plan_id":"cebpf4jnsgd1na2vs0mg"},{"bike_id":"40abeca1-b8c7-4a22-a937-4dfcad5b2967","system_id":"levelo_inurba_marseille","lat":43.31763,"lon":5.3901,"is_reserved":false,"is_disabled":false,"rental_uris":{"android":"levelo://app?vid=40abeca1-b8c7-4a22-a937-4dfcad5b2967","ios":"levelo://app?vid=40abeca1-b8c7-4a22-a937-4dfcad5b2967"},"vehicle_type_id":"4","last_reported":1728731196,"current_range_meters":38800,"station_id":"ce4bhqp2rcd13ifvqhng","pricing_plan_id":"cebpf4jnsgd1na2vs0mg"},{"bike_id":"c88cdfb0-4bf9-4a8c-8ce2-b63c2598193b","system_id":"levelo_inurba_marseille","lat":43.29586,"lon":5.36737,"is_reserved":false,"is_disabled":false,"rental_uris":{"android":"levelo://app?vid=c88cdfb0-4bf9-4a8c-8ce2-b63c2598193b","ios":"levelo://app?vid=c88cdfb0-4bf9-4a8c-8ce2-b63c2598193b"},"vehicle_type_id":"4","last_reported":1728731196,"current_range_meters":37600,"station_id":"ce4bgph2rcd13ifvqc2g","pricing_plan_id":"cebpf4jnsgd1na2vs0mg"},{"bike_id":"282fb7e8-3643-4337-9b69-77b17cb2de08","system_id":"levelo_inurba_marseille","lat":43.2958,"lon":5.37503,"is_reserved":false,"is_disabled":false,"rental_uris":{"android":"levelo://app?vid=282fb7e8-3643-4337-9b69-77b17cb2de08","ios":"levelo://app?vid=282fb7e8-3643-4337-9b69-77b17cb2de08"},"vehicle_type_id":"4","last_reported":1728731196,"current_range_meters":26000,"station_id":"ce4bgh92rcd13ifvqb50","pricing_plan_id":"cebpf4jnsgd1na2vs0mg"},{"bike_id":"59a43cf5-baec-44ec-b689-a2505df2c15d","system_id":"levelo_inurba_marseille","lat":43.30091,"lon":5.39098,"is_reserved":false,"is_disabled":false,"rental_uris":{"android":"levelo://app?vid=59a43cf5-baec-44ec-b689-a2505df2c15d","ios":"levelo://app?vid=59a43cf5-baec-44ec-b689-a2505df2c15d"},"vehicle_type_id":"4","last_reported":1728731196,"current_range_meters":4400,"station_id":"ce4bh192rcd13ifvqdb0","pricing_plan_id":"cebpf4jnsgd1na2vs0mg"},{"bike_id":"eac4e8f1-ac84-4048-ad4c-5213afa836f2","system_id":"levelo_inurba_marseille","lat":43.27139,"lon":5.4002,"is_reserved":false,"is_disabled":false,"rental_uris":{"android":"levelo://app?vid=eac4e8f1-ac84-4048-ad4c-5213afa836f2","ios":"levelo://app?vid=eac4e8f1-ac84-4048-ad4c-5213afa836f2"},"vehicle_type_id":"4","last_reported":1728731196,"current_range_meters":25600,"station_id":"","pricing_plan_id":"cebpf4jnsgd1na2vs0mg"},{"bike_id":"accb871e-a6d6-4416-b0e7-cca548384eeb","system_id":"levelo_inurba_marseille","lat":43.26552,"lon":5.37282,"is_reserved":false,"is_disabled":false,"rental_uris":{"android":"levelo://app?vid=accb871e-a6d6-4416-b0e7-cca548384eeb","ios":"levelo://app?vid=accb871e-a6d6-4416-b0e7-cca548384eeb"},"vehicle_type_id":"4","last_reported":1728731196,"current_range_meters":36800,"station_id":"ce4bhg12rcd13ifvqf70","pricing_plan_id":"cebpf4jnsgd1na2vs0mg"},{"bike_id":"879cd59e-1496-4f24-9795-9c8ccd07d4c6","system_id":"levelo_inurba_marseille","lat":43.30145,"lon":5.38073,"is_reserved":false,"is_disabled":false,"rental_uris":{"android":"levelo://app?vid=879cd59e-1496-4f24-9795-9c8ccd07d4c6","ios":"levelo://app?vid=879cd59e-1496-4f24-9795-9c8ccd07d4c6"},"vehicle_type_id":"4","last_reported":1728731196,"current_range_meters":38800,"station_id":"ce4bgjp2rcd13ifvqbh0","pricing_plan_id":"cebpf4jnsgd1na2vs0mg"},{"bike_id":"b7a0265e-c8cb-4b30-8055-a863fc5c0b84","system_id":"levelo_inurba_marseille","lat":43.3169,"lon":5.40475,"is_reserved":false,"is_disabled":false,"rental_uris":{"android":"levelo://app?vid=b7a0265e-c8cb-4b30-8055-a863fc5c0b84","ios":"levelo://app?vid=b7a0265e-c8cb-4b30-8055-a863fc5c0b84"},"vehicle_type_id":"4","last_reported":1728731196,"current_range_meters":30000,"station_id":"ce4bh012rcd13ifvqd00","pricing_plan_id":"cebpf4jnsgd1na2vs0mg"},{"bike_id":"799e5cec-8dfd-4686-9d11-74741159abe6","system_id":"levelo_inurba_marseille","lat":43.31228,"lon":5.36851,"is_reserved":false,"is_disabled":false,"rental_uris":{"android":"levelo://app?vid=799e5cec-8dfd-4686-9d11-74741159abe6","ios":"levelo://app?vid=799e5cec-8dfd-4686-9d11-74741159abe6"},"vehicle_type_id":"4","last_reported":1728731196,"current_range_meters":14000,"station_id":"ce4bgl92rcd13ifvqbq0","pricing_plan_id":"cebpf4jnsgd1na2vs0mg"},{"bike_id":"d0a0666a-c101-4027-b608-4fa8efe45227","system_id":"levelo_inurba_marseille","lat":43.30155,"lon":5.38079,"is_reserved":false,"is_disabled":false,"rental_uris":{"android":"levelo://app?vid=d0a0666a-c101-4027-b608-4fa8efe45227","ios":"levelo://app?vid=d0a0666a-c101-4027-b608-4fa8efe45227"},"vehicle_type_id":"4","last_reported":1728731196,"current_range_meters":28800,"station_id":"ce4bgjp2rcd13ifvqbh0","pricing_plan_id":"cebpf4jnsgd1na2vs0mg"},{"bike_id":"4d504d2f-5bbb-4a19-9262-4821cd97d986","system_id":"levelo_inurba_marseille","lat":43.27814,"lon":5.40715,"is_reserved":false,"is_disabled":false,"rental_uris":{"android":"levelo://app?vid=4d504d2f-5bbb-4a19-9262-4821cd97d986","ios":"levelo://app?vid=4d504d2f-5bbb-4a19-9262-4821cd97d986"},"vehicle_type_id":"4","last_reported":1728731196,"current_range_meters":18000,"station_id":"ce4bhnh2rcd13ifvqgtg","pricing_plan_id":"cebpf4jnsgd1na2vs0mg"},{"bike_id":"34e44a7a-fd2a-4085-8bee-9dbd9e17a3d0","system_id":"levelo_inurba_marseille","lat":43.29438,"lon":5.39743,"is_reserved":false,"is_disabled":false,"rental_uris":{"android":"levelo://app?vid=34e44a7a-fd2a-4085-8bee-9dbd9e17a3d0","ios":"levelo://app?vid=34e44a7a-fd2a-4085-8bee-9dbd9e17a3d0"},"vehicle_type_id":"4","last_reported":1728731196,"current_range_meters":19600,"station_id":"ce4bh3h2rcd13ifvqdo0","pricing_plan_id":"cebpf4jnsgd1na2vs0mg"},{"bike_id":"e86ab103-d88d-423d-bf85-29f28bc0b001","system_id":"levelo_inurba_marseille","lat":43.29007,"lon":5.35613,"is_reserved":false,"is_disabled":false,"rental_uris":{"android":"levelo://app?vid=e86ab103-d88d-423d-bf85-29f28bc0b001","ios":"levelo://app?vid=e86ab103-d88d-423d-bf85-29f28bc0b001"},"vehicle_type_id":"4","last_reported":1728731196,"current_range_meters":4800,"station_id":"ce4bhb92rcd13ifvqen0","pricing_plan_id":"cebpf4jnsgd1na2vs0mg"},{"bike_id":"51a405b6-b17e-4d49-abcb-c2fd26ff72eb","system_id":"levelo_inurba_marseille","lat":43.25003,"lon":5.38927,"is_reserved":false,"is_disabled":false,"rental_uris":{"android":"levelo://app?vid=51a405b6-b17e-4d49-abcb-c2fd26ff72eb","ios":"levelo://app?vid=51a405b6-b17e-4d49-abcb-c2fd26ff72eb"},"vehicle_type_id":"4","last_reported":1728731196,"current_range_meters":32000,"station_id":"ce4bhgp2rcd13ifvqfd0","pricing_plan_id":"cebpf4jnsgd1na2vs0mg"},{"bike_id":"b933402b-d1ca-49a8-bbf7-fb19281d941c","system_id":"levelo_inurba_marseille","lat":43.23193,"lon":5.35543,"is_reserved":false,"is_disabled":false,"rental_uris":{"android":"levelo://app?vid=b933402b-d1ca-49a8-bbf7-fb19281d941c","ios":"levelo://app?vid=b933402b-d1ca-49a8-bbf7-fb19281d941c"},"vehicle_type_id":"4","last_reported":1728731196,"current_range_meters":21600,"station_id":"ce4bhu92rcd13ifvqi70","pricing_plan_id":"cebpf4jnsgd1na2vs0mg"},{"bike_id":"68a48546-28ec-4218-a008-021a1ba46359","system_id":"levelo_inurba_marseille","lat":43.25585,"lon":5.38222,"is_reserved":false,"is_disabled":false,"rental_uris":{"android":"levelo://app?vid=68a48546-28ec-4218-a008-021a1ba46359","ios":"levelo://app?vid=68a48546-28ec-4218-a008-021a1ba46359"},"vehicle_type_id":"4","last_reported":1728731196,"current_range_meters":38000,"station_id":"ce4bhih2rcd13ifvqfs0","pricing_plan_id":"cebpf4jnsgd1na2vs0mg"},{"bike_id":"75776d99-e2bb-4d4a-950e-9a8d4766dfa9","system_id":"levelo_inurba_marseille","lat":43.305602,"lon":5.365599,"is_reserved":false,"is_disabled":false,"rental_uris":{"android":"levelo://app?vid=75776d99-e2bb-4d4a-950e-9a8d4766dfa9","ios":"levelo://app?vid=75776d99-e2bb-4d4a-950e-9a8d4766dfa9"},"vehicle_type_id":"4","last_reported":1728731196,"current_range_meters":2000,"station_id":"ce4bgs12rcd13ifvqcag","pricing_plan_id":"cebpf4jnsgd1na2vs0mg"},{"bike_id":"daa582e8-f8a6-4725-9e8e-b028c155d827","system_id":"levelo_inurba_marseille","lat":43.28445,"lon":5.39201,"is_reserved":false,"is_disabled":false,"rental_uris":{"android":"levelo://app?vid=daa582e8-f8a6-4725-9e8e-b028c155d827","ios":"levelo://app?vid=daa582e8-f8a6-4725-9e8e-b028c155d827"},"vehicle_type_id":"4","last_reported":1728731196,"current_range_meters":37600,"station_id":"ce4bhoh2rcd13ifvqh5g","pricing_plan_id":"cebpf4jnsgd1na2vs0mg"},{"bike_id":"0db66df0-a352-45a7-b97a-79c2d6b8bb1d","system_id":"levelo_inurba_marseille","lat":43.27186,"lon":5.40988,"is_reserved":false,"is_disabled":false,"rental_uris":{"android":"levelo://app?vid=0db66df0-a352-45a7-b97a-79c2d6b8bb1d","ios":"levelo://app?vid=0db66df0-a352-45a7-b97a-79c2d6b8bb1d"},"vehicle_type_id":"4","last_reported":1728731196,"current_range_meters":39200,"station_id":"ce4bhl12rcd13ifvqgf0","pricing_plan_id":"cebpf4jnsgd1na2vs0mg"},{"bike_id":"deb5b84f-b7ea-4a3b-98eb-503b72a798ab","system_id":"levelo_inurba_marseille","lat":43.32288,"lon":5.38276,"is_reserved":false,"is_disabled":false,"rental_uris":{"android":"levelo://app?vid=deb5b84f-b7ea-4a3b-98eb-503b72a798ab","ios":"levelo://app?vid=deb5b84f-b7ea-4a3b-98eb-503b72a798ab"},"vehicle_type_id":"4","last_reported":1728731196,"current_range_meters":22000,"station_id":"ce4bhr12rcd13ifvqhqg","pricing_plan_id":"cebpf4jnsgd1na2vs0mg"},{"bike_id":"f41f2bec-cd23-47ee-8d19-d81e0b3cd853","system_id":"levelo_inurba_marseille","lat":43.29774,"lon":5.38446,"is_reserved":false,"is_disabled":false,"rental_uris":{"android":"levelo://app?vid=f41f2bec-cd23-47ee-8d19-d81e0b3cd853","ios":"levelo://app?vid=f41f2bec-cd23-47ee-8d19-d81e0b3cd853"},"vehicle_type_id":"4","last_reported":1728731196,"current_range_meters":35200,"station_id":"","pricing_plan_id":"cebpf4jnsgd1na2vs0mg"},{"bike_id":"83b389f7-d8a2-4783-b9b3-f93ae8e3107d","system_id":"levelo_inurba_marseille","lat":43.30544,"lon":5.38441,"is_reserved":false,"is_disabled":false,"rental_uris":{"android":"levelo://app?vid=83b389f7-d8a2-4783-b9b3-f93ae8e3107d","ios":"levelo://app?vid=83b389f7-d8a2-4783-b9b3-f93ae8e3107d"},"vehicle_type_id":"4","last_reported":1728731196,"current_range_meters":38800,"station_id":"ce4bgg92rcd13ifvqb30","pricing_plan_id":"cebpf4jnsgd1na2vs0mg"},{"bike_id":"2e375b05-672b-4112-8ad1-0ac81460d1f1","system_id":"levelo_inurba_marseille","lat":43.29968,"lon":5.37172,"is_reserved":false,"is_disabled":false,"rental_uris":{"android":"levelo://app?vid=2e375b05-672b-4112-8ad1-0ac81460d1f1","ios":"levelo://app?vid=2e375b05-672b-4112-8ad1-0ac81460d1f1"},"vehicle_type_id":"4","last_reported":1728731196,"current_range_meters":32000,"station_id":"ce4bgr92rcd13ifvqc7g","pricing_plan_id":"cebpf4jnsgd1na2vs0mg"},{"bike_id":"75b2715b-0ea5-471c-9cb7-feb38ee478dc","system_id":"levelo_inurba_marseille","lat":43.23185,"lon":5.39991,"is_reserved":false,"is_disabled":false,"rental_uris":{"android":"levelo://app?vid=75b2715b-0ea5-471c-9cb7-feb38ee478dc","ios":"levelo://app?vid=75b2715b-0ea5-471c-9cb7-feb38ee478dc"},"vehicle_type_id":"4","last_reported":1728731196,"current_range_meters":23200,"station_id":"ce4bhn12rcd13ifvqgqg","pricing_plan_id":"cebpf4jnsgd1na2vs0mg"},{"bike_id":"acb286ac-aacd-4e2f-954e-578f023e2a58","system_id":"levelo_inurba_marseille","lat":43.29615,"lon":5.3773,"is_reserved":false,"is_disabled":false,"rental_uris":{"android":"levelo://app?vid=acb286ac-aacd-4e2f-954e-578f023e2a58","ios":"levelo://app?vid=acb286ac-aacd-4e2f-954e-578f023e2a58"},"vehicle_type_id":"4","last_reported":1728731196,"current_range_meters":38800,"station_id":"ce4bgi92rcd13ifvqb90","pricing_plan_id":"cebpf4jnsgd1na2vs0mg"},{"bike_id":"dfbb0702-d9a4-4a92-9c19-407be331cee8","system_id":"levelo_inurba_marseille","lat":43.28703,"lon":5.37389,"is_reserved":false,"is_disabled":false,"rental_uris":{"android":"levelo://app?vid=dfbb0702-d9a4-4a92-9c19-407be331cee8","ios":"levelo://app?vid=dfbb0702-d9a4-4a92-9c19-407be331cee8"},"vehicle_type_id":"4","last_reported":1728731196,"current_range_meters":36400,"station_id":"ce4bh3p2rcd13ifvqdq0","pricing_plan_id":"cebpf4jnsgd1na2vs0mg"},{"bike_id":"2feab4c1-ed43-479e-b53a-0f81029838b6","system_id":"levelo_inurba_marseille","lat":43.27995,"lon":5.40007,"is_reserved":false,"is_disabled":false,"rental_uris":{"android":"levelo://app?vid=2feab4c1-ed43-479e-b53a-0f81029838b6","ios":"levelo://app?vid=2feab4c1-ed43-479e-b53a-0f81029838b6"},"vehicle_type_id":"4","last_reported":1728731196,"current_range_meters":38800,"station_id":"ce4bho92rcd13ifvqh4g","pricing_plan_id":"cebpf4jnsgd1na2vs0mg"},{"bike_id":"f694f3d6-ce3c-4ab0-9a30-408801367201","system_id":"levelo_inurba_marseille","lat":43.29624,"lon":5.37167,"is_reserved":false,"is_disabled":false,"rental_uris":{"android":"levelo://app?vid=f694f3d6-ce3c-4ab0-9a30-408801367201","ios":"levelo://app?vid=f694f3d6-ce3c-4ab0-9a30-408801367201"},"vehicle_type_id":"4","last_reported":1728731196,"current_range_meters":20400,"station_id":"ce4bgnh2rcd13ifvqc0g","pricing_plan_id":"cebpf4jnsgd1na2vs0mg"},{"bike_id":"aeeef2c6-028b-47df-85a7-9b089f1db95c","system_id":"levelo_inurba_marseille","lat":43.29895,"lon":5.43672,"is_reserved":false,"is_disabled":false,"rental_uris":{"android":"levelo://app?vid=aeeef2c6-028b-47df-85a7-9b089f1db95c","ios":"levelo://app?vid=aeeef2c6-028b-47df-85a7-9b089f1db95c"},"vehicle_type_id":"4","last_reported":1728731196,"current_range_meters":17600,"station_id":"ce4bhpp2rcd13ifvqhfg","pricing_plan_id":"cebpf4jnsgd1na2vs0mg"},{"bike_id":"286baabf-b45b-4acd-805a-a7938257d24b","system_id":"levelo_inurba_marseille","lat":43.26488,"lon":5.39547,"is_reserved":false,"is_disabled":false,"rental_uris":{"android":"levelo://app?vid=286baabf-b45b-4acd-805a-a7938257d24b","ios":"levelo://app?vid=286baabf-b45b-4acd-805a-a7938257d24b"},"vehicle_type_id":"4","last_reported":1728731196,"current_range_meters":19600,"station_id":"ce4bhi12rcd13ifvqfq0","pricing_plan_id":"cebpf4jnsgd1na2vs0mg"},{"bike_id":"484a4c63-4ef1-4433-b27a-9a9ca5ad2f9a","system_id":"levelo_inurba_marseille","lat":43.22929,"lon":5.35378,"is_reserved":false,"is_disabled":false,"rental_uris":{"android":"levelo://app?vid=484a4c63-4ef1-4433-b27a-9a9ca5ad2f9a","ios":"levelo://app?vid=484a4c63-4ef1-4433-b27a-9a9ca5ad2f9a"},"vehicle_type_id":"4","last_reported":1728731196,"current_range_meters":10000,"station_id":"cpo3532slgdg3j2ikp40","pricing_plan_id":"cebpf4jnsgd1na2vs0mg"},{"bike_id":"d8644448-7698-4ba5-ba37-f6083176f920","system_id":"levelo_inurba_marseille","lat":43.25584,"lon":5.38228,"is_reserved":false,"is_disabled":false,"rental_uris":{"android":"levelo://app?vid=d8644448-7698-4ba5-ba37-f6083176f920","ios":"levelo://app?vid=d8644448-7698-4ba5-ba37-f6083176f920"},"vehicle_type_id":"4","last_reported":1728731196,"current_range_meters":26800,"station_id":"ce4bhih2rcd13ifvqfs0","pricing_plan_id":"cebpf4jnsgd1na2vs0mg"},{"bike_id":"b43a37ee-db0c-4e2e-bf8d-f18619c472c1","system_id":"levelo_inurba_marseille","lat":43.30276,"lon":5.37696,"is_reserved":false,"is_disabled":false,"rental_uris":{"android":"levelo://app?vid=b43a37ee-db0c-4e2e-bf8d-f18619c472c1","ios":"levelo://app?vid=b43a37ee-db0c-4e2e-bf8d-f18619c472c1"},"vehicle_type_id":"4","last_reported":1728731196,"current_range_meters":24400,"station_id":"ce4bguh2rcd13ifvqcj0","pricing_plan_id":"cebpf4jnsgd1na2vs0mg"},{"bike_id":"e6336660-e5d0-4336-aab6-9e2081b4b551","system_id":"levelo_inurba_marseille","lat":43.33724,"lon":5.39198,"is_reserved":false,"is_disabled":false,"rental_uris":{"android":"levelo://app?vid=e6336660-e5d0-4336-aab6-9e2081b4b551","ios":"levelo://app?vid=e6336660-e5d0-4336-aab6-9e2081b4b551"},"vehicle_type_id":"4","last_reported":1728731196,"current_range_meters":24400,"station_id":"ce4bhr92rcd13ifvqhsg","pricing_plan_id":"cebpf4jnsgd1na2vs0mg"},{"bike_id":"ab47664c-0450-4138-b005-9b8e1b8810bd","system_id":"levelo_inurba_marseille","lat":43.29578,"lon":5.36739,"is_reserved":false,"is_disabled":false,"rental_uris":{"android":"levelo://app?vid=ab47664c-0450-4138-b005-9b8e1b8810bd","ios":"levelo://app?vid=ab47664c-0450-4138-b005-9b8e1b8810bd"},"vehicle_type_id":"4","last_reported":1728731196,"current_range_meters":38400,"station_id":"ce4bgph2rcd13ifvqc2g","pricing_plan_id":"cebpf4jnsgd1na2vs0mg"},{"bike_id":"efe82192-bd85-47ef-8a17-25dad9ec5e82","system_id":"levelo_inurba_marseille","lat":43.26208,"lon":5.37926,"is_reserved":false,"is_disabled":false,"rental_uris":{"android":"levelo://app?vid=efe82192-bd85-47ef-8a17-25dad9ec5e82","ios":"levelo://app?vid=efe82192-bd85-47ef-8a17-25dad9ec5e82"},"vehicle_type_id":"4","last_reported":1728731196,"current_range_meters":40000,"station_id":"ce4bhjp2rcd13ifvqg90","pricing_plan_id":"cebpf4jnsgd1na2vs0mg"},{"bike_id":"24aff4c5-95fe-4e09-b4d4-b1f4a455af76","system_id":"levelo_inurba_marseille","lat":43.25002,"lon":5.38936,"is_reserved":false,"is_disabled":false,"rental_uris":{"android":"levelo://app?vid=24aff4c5-95fe-4e09-b4d4-b1f4a455af76","ios":"levelo://app?vid=24aff4c5-95fe-4e09-b4d4-b1f4a455af76"},"vehicle_type_id":"4","last_reported":1728731196,"current_range_meters":10000,"station_id":"ce4bhgp2rcd13ifvqfd0","pricing_plan_id":"cebpf4jnsgd1na2vs0mg"},{"bike_id":"c7932ebc-40c2-41af-92e1-9d5f28b5738a","system_id":"levelo_inurba_marseille","lat":43.23179,"lon":5.3999,"is_reserved":false,"is_disabled":false,"rental_uris":{"android":"levelo://app?vid=c7932ebc-40c2-41af-92e1-9d5f28b5738a","ios":"levelo://app?vid=c7932ebc-40c2-41af-92e1-9d5f28b5738a"},"vehicle_type_id":"4","last_reported":1728731196,"current_range_meters":6800,"station_id":"ce4bhn12rcd13ifvqgqg","pricing_plan_id":"cebpf4jnsgd1na2vs0mg"},{"bike_id":"8cbf6e3b-d42a-42d6-b81c-60d8a234a5c1","system_id":"levelo_inurba_marseille","lat":43.27813,"lon":5.39199,"is_reserved":false,"is_disabled":false,"rental_uris":{"android":"levelo://app?vid=8cbf6e3b-d42a-42d6-b81c-60d8a234a5c1","ios":"levelo://app?vid=8cbf6e3b-d42a-42d6-b81c-60d8a234a5c1"},"vehicle_type_id":"4","last_reported":1728731196,"current_range_meters":5600,"station_id":"ce4bhjp2rcd13ifvqga0","pricing_plan_id":"cebpf4jnsgd1na2vs0mg"},{"bike_id":"4ca6a04b-1764-4479-98dc-8209a7a1a4a6","system_id":"levelo_inurba_marseille","lat":43.29534,"lon":5.37503,"is_reserved":false,"is_disabled":false,"rental_uris":{"android":"levelo://app?vid=4ca6a04b-1764-4479-98dc-8209a7a1a4a6","ios":"levelo://app?vid=4ca6a04b-1764-4479-98dc-8209a7a1a4a6"},"vehicle_type_id":"4","last_reported":1728731196,"current_range_meters":19200,"station_id":"ce4bgkp2rcd13ifvqbmg","pricing_plan_id":"cebpf4jnsgd1na2vs0mg"},{"bike_id":"55582e1e-1cd8-4e96-933c-025471d1c473","system_id":"levelo_inurba_marseille","lat":43.26938,"lon":5.38928,"is_reserved":false,"is_disabled":false,"rental_uris":{"android":"levelo://app?vid=55582e1e-1cd8-4e96-933c-025471d1c473","ios":"levelo://app?vid=55582e1e-1cd8-4e96-933c-025471d1c473"},"vehicle_type_id":"4","last_reported":1728731196,"current_range_meters":11600,"station_id":"ce4bhhh2rcd13ifvqfl0","pricing_plan_id":"cebpf4jnsgd1na2vs0mg"},{"bike_id":"f85e9a25-0304-4d70-aa8e-bff81f4c378b","system_id":"levelo_inurba_marseille","lat":43.264873,"lon":5.39541,"is_reserved":false,"is_disabled":false,"rental_uris":{"android":"levelo://app?vid=f85e9a25-0304-4d70-aa8e-bff81f4c378b","ios":"levelo://app?vid=f85e9a25-0304-4d70-aa8e-bff81f4c378b"},"vehicle_type_id":"4","last_reported":1728731196,"current_range_meters":20000,"station_id":"ce4bhc92rcd13ifvqetg","pricing_plan_id":"cebpf4jnsgd1na2vs0mg"},{"bike_id":"5b9f2409-af94-4530-bdcb-ef3b7e257a37","system_id":"levelo_inurba_marseille","lat":43.31996,"lon":5.38155,"is_reserved":false,"is_disabled":false,"rental_uris":{"android":"levelo://app?vid=5b9f2409-af94-4530-bdcb-ef3b7e257a37","ios":"levelo://app?vid=5b9f2409-af94-4530-bdcb-ef3b7e257a37"},"vehicle_type_id":"4","last_reported":1728731196,"current_range_meters":37600,"station_id":"ce4bhr12rcd13ifvqhpg","pricing_plan_id":"cebpf4jnsgd1na2vs0mg"},{"bike_id":"b9673350-718c-453b-aa01-08b797151e2b","system_id":"levelo_inurba_marseille","lat":43.29617,"lon":5.37725,"is_reserved":false,"is_disabled":false,"rental_uris":{"android":"levelo://app?vid=b9673350-718c-453b-aa01-08b797151e2b","ios":"levelo://app?vid=b9673350-718c-453b-aa01-08b797151e2b"},"vehicle_type_id":"4","last_reported":1728731196,"current_range_meters":37600,"station_id":"ce4bgi92rcd13ifvqb90","pricing_plan_id":"cebpf4jnsgd1na2vs0mg"},{"bike_id":"f19a5fee-f766-4993-b26d-df98939d7c73","system_id":"levelo_inurba_marseille","lat":43.29875,"lon":5.39737,"is_reserved":false,"is_disabled":false,"rental_uris":{"android":"levelo://app?vid=f19a5fee-f766-4993-b26d-df98939d7c73","ios":"levelo://app?vid=f19a5fee-f766-4993-b26d-df98939d7c73"},"vehicle_type_id":"4","last_reported":1728731196,"current_range_meters":37600,"station_id":"ce4bh0h2rcd13ifvqd50","pricing_plan_id":"cebpf4jnsgd1na2vs0mg"},{"bike_id":"9420c6dc-b19d-4421-8c0c-72e39b809c6b","system_id":"levelo_inurba_marseille","lat":43.22931,"lon":5.35369,"is_reserved":false,"is_disabled":false,"rental_uris":{"android":"levelo://app?vid=9420c6dc-b19d-4421-8c0c-72e39b809c6b","ios":"levelo://app?vid=9420c6dc-b19d-4421-8c0c-72e39b809c6b"},"vehicle_type_id":"4","last_reported":1728731196,"current_range_meters":36800,"station_id":"cpo3532slgdg3j2ikp40","pricing_plan_id":"cebpf4jnsgd1na2vs0mg"},{"bike_id":"5a5649e8-a9bc-4d0f-be41-ed6fc56a9baf","system_id":"levelo_inurba_marseille","lat":43.22928,"lon":5.35374,"is_reserved":false,"is_disabled":false,"rental_uris":{"android":"levelo://app?vid=5a5649e8-a9bc-4d0f-be41-ed6fc56a9baf","ios":"levelo://app?vid=5a5649e8-a9bc-4d0f-be41-ed6fc56a9baf"},"vehicle_type_id":"4","last_reported":1728731196,"current_range_meters":32000,"station_id":"cpo3532slgdg3j2ikp40","pricing_plan_id":"cebpf4jnsgd1na2vs0mg"},{"bike_id":"b4f0e86f-2ef3-4da7-b76f-04024ea93eeb","system_id":"levelo_inurba_marseille","lat":43.30471,"lon":5.37906,"is_reserved":false,"is_disabled":false,"rental_uris":{"android":"levelo://app?vid=b4f0e86f-2ef3-4da7-b76f-04024ea93eeb","ios":"levelo://app?vid=b4f0e86f-2ef3-4da7-b76f-04024ea93eeb"},"vehicle_type_id":"4","last_reported":1728731196,"current_range_meters":35600,"station_id":"ce4bgup2rcd13ifvqcn0","pricing_plan_id":"cebpf4jnsgd1na2vs0mg"},{"bike_id":"03729347-9985-43d5-81ca-7bb9e103c5ae","system_id":"levelo_inurba_marseille","lat":43.29573,"lon":5.37504,"is_reserved":false,"is_disabled":false,"rental_uris":{"android":"levelo://app?vid=03729347-9985-43d5-81ca-7bb9e103c5ae","ios":"levelo://app?vid=03729347-9985-43d5-81ca-7bb9e103c5ae"},"vehicle_type_id":"4","last_reported":1728731196,"current_range_meters":32000,"station_id":"ce4bgh92rcd13ifvqb50","pricing_plan_id":"cebpf4jnsgd1na2vs0mg"},{"bike_id":"3e5a3962-c6be-4850-9d7f-9b5a4d5455ec","system_id":"levelo_inurba_marseille","lat":43.31996,"lon":5.38154,"is_reserved":false,"is_disabled":false,"rental_uris":{"android":"levelo://app?vid=3e5a3962-c6be-4850-9d7f-9b5a4d5455ec","ios":"levelo://app?vid=3e5a3962-c6be-4850-9d7f-9b5a4d5455ec"},"vehicle_type_id":"4","last_reported":1728731196,"current_range_meters":30000,"station_id":"ce4bhr12rcd13ifvqhpg","pricing_plan_id":"cebpf4jnsgd1na2vs0mg"},{"bike_id":"165b0b57-ee98-428e-8528-03c4e7f8e057","system_id":"levelo_inurba_marseille","lat":43.29614,"lon":5.37731,"is_reserved":false,"is_disabled":false,"rental_uris":{"android":"levelo://app?vid=165b0b57-ee98-428e-8528-03c4e7f8e057","ios":"levelo://app?vid=165b0b57-ee98-428e-8528-03c4e7f8e057"},"vehicle_type_id":"4","last_reported":1728731196,"current_range_meters":27200,"station_id":"ce4bgi92rcd13ifvqb90","pricing_plan_id":"cebpf4jnsgd1na2vs0mg"},{"bike_id":"4194d76e-8c20-415d-8ddf-fdf8836b5099","system_id":"levelo_inurba_marseille","lat":43.27985,"lon":5.41654,"is_reserved":false,"is_disabled":false,"rental_uris":{"android":"levelo://app?vid=4194d76e-8c20-415d-8ddf-fdf8836b5099","ios":"levelo://app?vid=4194d76e-8c20-415d-8ddf-fdf8836b5099"},"vehicle_type_id":"4","last_reported":1728731196,"current_range_meters":4800,"station_id":"ce4bho12rcd13ifvqh1g","pricing_plan_id":"cebpf4jnsgd1na2vs0mg"},{"bike_id":"cf8dbc0c-2aef-46cf-b588-658ce5da8877","system_id":"levelo_inurba_marseille","lat":43.29563,"lon":5.38644,"is_reserved":false,"is_disabled":false,"rental_uris":{"android":"levelo://app?vid=cf8dbc0c-2aef-46cf-b588-658ce5da8877","ios":"levelo://app?vid=cf8dbc0c-2aef-46cf-b588-658ce5da8877"},"vehicle_type_id":"4","last_reported":1728731196,"current_range_meters":17600,"station_id":"ce4bh092rcd13ifvqd20","pricing_plan_id":"cebpf4jnsgd1na2vs0mg"},{"bike_id":"00344fee-269e-4971-be5b-1241219eba1d","system_id":"levelo_inurba_marseille","lat":43.26026,"lon":5.37547,"is_reserved":false,"is_disabled":false,"rental_uris":{"android":"levelo://app?vid=00344fee-269e-4971-be5b-1241219eba1d","ios":"levelo://app?vid=00344fee-269e-4971-be5b-1241219eba1d"},"vehicle_type_id":"4","last_reported":1728731196,"current_range_meters":38800,"station_id":"ce4bhgh2rcd13ifvqfa0","pricing_plan_id":"cebpf4jnsgd1na2vs0mg"},{"bike_id":"379d6363-9152-4e84-bd42-6ec02dd02b54","system_id":"levelo_inurba_marseille","lat":43.32,"lon":5.38153,"is_reserved":false,"is_disabled":false,"rental_uris":{"android":"levelo://app?vid=379d6363-9152-4e84-bd42-6ec02dd02b54","ios":"levelo://app?vid=379d6363-9152-4e84-bd42-6ec02dd02b54"},"vehicle_type_id":"4","last_reported":1728731196,"current_range_meters":37600,"station_id":"ce4bhr12rcd13ifvqhpg","pricing_plan_id":"cebpf4jnsgd1na2vs0mg"},{"bike_id":"8fb2b431-bcb9-46ba-80fb-e26e84592fc5","system_id":"levelo_inurba_marseille","lat":43.2319,"lon":5.35544,"is_reserved":false,"is_disabled":false,"rental_uris":{"android":"levelo://app?vid=8fb2b431-bcb9-46ba-80fb-e26e84592fc5","ios":"levelo://app?vid=8fb2b431-bcb9-46ba-80fb-e26e84592fc5"},"vehicle_type_id":"4","last_reported":1728731196,"current_range_meters":32000,"station_id":"ce4bhu92rcd13ifvqi70","pricing_plan_id":"cebpf4jnsgd1na2vs0mg"},{"bike_id":"285f7587-7f76-4179-953d-08e0bd330894","system_id":"levelo_inurba_marseille","lat":43.29804,"lon":5.40412,"is_reserved":false,"is_disabled":false,"rental_uris":{"android":"levelo://app?vid=285f7587-7f76-4179-953d-08e0bd330894","ios":"levelo://app?vid=285f7587-7f76-4179-953d-08e0bd330894"},"vehicle_type_id":"4","last_reported":1728731196,"current_range_meters":8000,"station_id":"ce4bh112rcd13ifvqd90","pricing_plan_id":"cebpf4jnsgd1na2vs0mg"},{"bike_id":"fa2a3aac-54f6-4821-a272-44d9b44dc0eb","system_id":"levelo_inurba_marseille","lat":43.23152,"lon":5.43714,"is_reserved":false,"is_disabled":false,"rental_uris":{"android":"levelo://app?vid=fa2a3aac-54f6-4821-a272-44d9b44dc0eb","ios":"levelo://app?vid=fa2a3aac-54f6-4821-a272-44d9b44dc0eb"},"vehicle_type_id":"4","last_reported":1728731196,"current_range_meters":26000,"station_id":"ce4bhmp2rcd13ifvqgog","pricing_plan_id":"cebpf4jnsgd1na2vs0mg"},{"bike_id":"6b096793-6c2c-4b18-90c4-6ee52c67b243","system_id":"levelo_inurba_marseille","lat":43.29792,"lon":5.40407,"is_reserved":false,"is_disabled":false,"rental_uris":{"android":"levelo://app?vid=6b096793-6c2c-4b18-90c4-6ee52c67b243","ios":"levelo://app?vid=6b096793-6c2c-4b18-90c4-6ee52c67b243"},"vehicle_type_id":"4","last_reported":1728731196,"current_range_meters":30000,"station_id":"ce4bh112rcd13ifvqd90","pricing_plan_id":"cebpf4jnsgd1na2vs0mg"},{"bike_id":"e2f25126-29b7-4581-a4fe-9e458716fb1d","system_id":"levelo_inurba_marseille","lat":43.2396,"lon":5.36626,"is_reserved":false,"is_disabled":false,"rental_uris":{"android":"levelo://app?vid=e2f25126-29b7-4581-a4fe-9e458716fb1d","ios":"levelo://app?vid=e2f25126-29b7-4581-a4fe-9e458716fb1d"},"vehicle_type_id":"4","last_reported":1728731196,"current_range_meters":28400,"station_id":"ce4bhi12rcd13ifvqfp0","pricing_plan_id":"cebpf4jnsgd1na2vs0mg"},{"bike_id":"386afdab-5ca5-4bd2-984e-31a0a109f099","system_id":"levelo_inurba_marseille","lat":43.3014,"lon":5.37419,"is_reserved":false,"is_disabled":false,"rental_uris":{"android":"levelo://app?vid=386afdab-5ca5-4bd2-984e-31a0a109f099","ios":"levelo://app?vid=386afdab-5ca5-4bd2-984e-31a0a109f099"},"vehicle_type_id":"4","last_reported":1728731196,"current_range_meters":39200,"station_id":"ce4bgs92rcd13ifvqcc0","pricing_plan_id":"cebpf4jnsgd1na2vs0mg"},{"bike_id":"8dc8b5c8-f938-440d-b2c2-9a921dbd5488","system_id":"levelo_inurba_marseille","lat":43.26933,"lon":5.38911,"is_reserved":false,"is_disabled":false,"rental_uris":{"android":"levelo://app?vid=8dc8b5c8-f938-440d-b2c2-9a921dbd5488","ios":"levelo://app?vid=8dc8b5c8-f938-440d-b2c2-9a921dbd5488"},"vehicle_type_id":"4","last_reported":1728731196,"current_range_meters":27600,"station_id":"ce4bhhh2rcd13ifvqfl0","pricing_plan_id":"cebpf4jnsgd1na2vs0mg"},{"bike_id":"a2151e8a-f146-4711-96eb-5d40d1aa7d3c","system_id":"levelo_inurba_marseille","lat":43.274109,"lon":5.394163,"is_reserved":false,"is_disabled":false,"rental_uris":{"android":"levelo://app?vid=a2151e8a-f146-4711-96eb-5d40d1aa7d3c","ios":"levelo://app?vid=a2151e8a-f146-4711-96eb-5d40d1aa7d3c"},"vehicle_type_id":"4","last_reported":1728731196,"current_range_meters":37600,"station_id":"ce4bhdp2rcd13ifvqf20","pricing_plan_id":"cebpf4jnsgd1na2vs0mg"},{"bike_id":"5557475d-2522-4324-9278-8680c1c6334a","system_id":"levelo_inurba_marseille","lat":43.22927,"lon":5.35371,"is_reserved":false,"is_disabled":false,"rental_uris":{"android":"levelo://app?vid=5557475d-2522-4324-9278-8680c1c6334a","ios":"levelo://app?vid=5557475d-2522-4324-9278-8680c1c6334a"},"vehicle_type_id":"4","last_reported":1728731196,"current_range_meters":10000,"station_id":"cpo3532slgdg3j2ikp40","pricing_plan_id":"cebpf4jnsgd1na2vs0mg"},{"bike_id":"212023d1-fc7c-44f4-baf0-ec17ee91abdc","system_id":"levelo_inurba_marseille","lat":43.29616,"lon":5.3773,"is_reserved":false,"is_disabled":false,"rental_uris":{"android":"levelo://app?vid=212023d1-fc7c-44f4-baf0-ec17ee91abdc","ios":"levelo://app?vid=212023d1-fc7c-44f4-baf0-ec17ee91abdc"},"vehicle_type_id":"4","last_reported":1728731196,"current_range_meters":38000,"station_id":"ce4bgi92rcd13ifvqb90","pricing_plan_id":"cebpf4jnsgd1na2vs0mg"},{"bike_id":"dc9f9cea-ad2f-4298-9e59-4f4eac07ed0d","system_id":"levelo_inurba_marseille","lat":43.28696,"lon":5.37391,"is_reserved":false,"is_disabled":false,"rental_uris":{"android":"levelo://app?vid=dc9f9cea-ad2f-4298-9e59-4f4eac07ed0d","ios":"levelo://app?vid=dc9f9cea-ad2f-4298-9e59-4f4eac07ed0d"},"vehicle_type_id":"4","last_reported":1728731196,"current_range_meters":38800,"station_id":"ce4bh3p2rcd13ifvqdq0","pricing_plan_id":"cebpf4jnsgd1na2vs0mg"},{"bike_id":"b3b2de45-6e13-4551-8667-b0149c47447a","system_id":"levelo_inurba_marseille","lat":43.23156,"lon":5.437,"is_reserved":false,"is_disabled":false,"rental_uris":{"android":"levelo://app?vid=b3b2de45-6e13-4551-8667-b0149c47447a","ios":"levelo://app?vid=b3b2de45-6e13-4551-8667-b0149c47447a"},"vehicle_type_id":"4","last_reported":1728731196,"current_range_meters":21600,"station_id":"ce4bhmp2rcd13ifvqgog","pricing_plan_id":"cebpf4jnsgd1na2vs0mg"},{"bike_id":"a0f620eb-755f-4173-b338-60798bb2a524","system_id":"levelo_inurba_marseille","lat":43.303284,"lon":5.404405,"is_reserved":false,"is_disabled":false,"rental_uris":{"android":"levelo://app?vid=a0f620eb-755f-4173-b338-60798bb2a524","ios":"levelo://app?vid=a0f620eb-755f-4173-b338-60798bb2a524"},"vehicle_type_id":"4","last_reported":1728731196,"current_range_meters":39200,"station_id":"ce4bh012rcd13ifvqd10","pricing_plan_id":"cebpf4jnsgd1na2vs0mg"},{"bike_id":"24429578-6d59-4121-b04a-d362099fc904","system_id":"levelo_inurba_marseille","lat":43.29436,"lon":5.39758,"is_reserved":false,"is_disabled":false,"rental_uris":{"android":"levelo://app?vid=24429578-6d59-4121-b04a-d362099fc904","ios":"levelo://app?vid=24429578-6d59-4121-b04a-d362099fc904"},"vehicle_type_id":"4","last_reported":1728731196,"current_range_meters":17200,"station_id":"ce4bh3h2rcd13ifvqdo0","pricing_plan_id":"cebpf4jnsgd1na2vs0mg"},{"bike_id":"0599a095-2fbd-430e-b53a-a263b66154ec","system_id":"levelo_inurba_marseille","lat":43.25125,"lon":5.4033,"is_reserved":false,"is_disabled":false,"rental_uris":{"android":"levelo://app?vid=0599a095-2fbd-430e-b53a-a263b66154ec","ios":"levelo://app?vid=0599a095-2fbd-430e-b53a-a263b66154ec"},"vehicle_type_id":"4","last_reported":1728731196,"current_range_meters":6000,"station_id":"ce4bhlh2rcd13ifvqgig","pricing_plan_id":"cebpf4jnsgd1na2vs0mg"},{"bike_id":"7e5dff7c-5c8d-4cf6-b259-8b15591f4207","system_id":"levelo_inurba_marseille","lat":43.29625,"lon":5.37722,"is_reserved":false,"is_disabled":false,"rental_uris":{"android":"levelo://app?vid=7e5dff7c-5c8d-4cf6-b259-8b15591f4207","ios":"levelo://app?vid=7e5dff7c-5c8d-4cf6-b259-8b15591f4207"},"vehicle_type_id":"4","last_reported":1728731196,"current_range_meters":28000,"station_id":"ce4bgi92rcd13ifvqb90","pricing_plan_id":"cebpf4jnsgd1na2vs0mg"},{"bike_id":"b4634a3d-3f1f-41ab-873c-29a100288b7c","system_id":"levelo_inurba_marseille","lat":43.29523,"lon":5.37508,"is_reserved":false,"is_disabled":false,"rental_uris":{"android":"levelo://app?vid=b4634a3d-3f1f-41ab-873c-29a100288b7c","ios":"levelo://app?vid=b4634a3d-3f1f-41ab-873c-29a100288b7c"},"vehicle_type_id":"4","last_reported":1728731196,"current_range_meters":32400,"station_id":"ce4bgkp2rcd13ifvqbmg","pricing_plan_id":"cebpf4jnsgd1na2vs0mg"},{"bike_id":"19e0e40e-63be-4804-b3b8-2787230e9bca","system_id":"levelo_inurba_marseille","lat":43.29626,"lon":5.37174,"is_reserved":false,"is_disabled":false,"rental_uris":{"android":"levelo://app?vid=19e0e40e-63be-4804-b3b8-2787230e9bca","ios":"levelo://app?vid=19e0e40e-63be-4804-b3b8-2787230e9bca"},"vehicle_type_id":"4","last_reported":1728731196,"current_range_meters":30800,"station_id":"ce4bgnh2rcd13ifvqc0g","pricing_plan_id":"cebpf4jnsgd1na2vs0mg"},{"bike_id":"32f38e17-8f39-4a4a-80bd-feac0bc7b127","system_id":"levelo_inurba_marseille","lat":43.26948,"lon":5.3863,"is_reserved":false,"is_disabled":false,"rental_uris":{"android":"levelo://app?vid=32f38e17-8f39-4a4a-80bd-feac0bc7b127","ios":"levelo://app?vid=32f38e17-8f39-4a4a-80bd-feac0bc7b127"},"vehicle_type_id":"4","last_reported":1728731196,"current_range_meters":38800,"station_id":"ce4bhh92rcd13ifvqfh0","pricing_plan_id":"cebpf4jnsgd1na2vs0mg"},{"bike_id":"a3b990e1-d55b-440c-9480-31946d2d9e8e","system_id":"levelo_inurba_marseille","lat":43.29782,"lon":5.37094,"is_reserved":false,"is_disabled":false,"rental_uris":{"android":"levelo://app?vid=a3b990e1-d55b-440c-9480-31946d2d9e8e","ios":"levelo://app?vid=a3b990e1-d55b-440c-9480-31946d2d9e8e"},"vehicle_type_id":"4","last_reported":1728731196,"current_range_meters":38800,"station_id":"ce4bgop2rcd13ifvqc1g","pricing_plan_id":"cebpf4jnsgd1na2vs0mg"},{"bike_id":"b11dbc87-a0d1-47f5-868f-128359437642","system_id":"levelo_inurba_marseille","lat":43.28224,"lon":5.40317,"is_reserved":false,"is_disabled":false,"rental_uris":{"android":"levelo://app?vid=b11dbc87-a0d1-47f5-868f-128359437642","ios":"levelo://app?vid=b11dbc87-a0d1-47f5-868f-128359437642"},"vehicle_type_id":"4","last_reported":1728731196,"current_range_meters":24400,"station_id":"","pricing_plan_id":"cebpf4jnsgd1na2vs0mg"},{"bike_id":"8d4fa04b-4062-460e-b516-8963625f5487","system_id":"levelo_inurba_marseille","lat":43.31086,"lon":5.42428,"is_reserved":false,"is_disabled":false,"rental_uris":{"android":"levelo://app?vid=8d4fa04b-4062-460e-b516-8963625f5487","ios":"levelo://app?vid=8d4fa04b-4062-460e-b516-8963625f5487"},"vehicle_type_id":"4","last_reported":1728731196,"current_range_meters":38800,"station_id":"ce4bhp92rcd13ifvqhag","pricing_plan_id":"cebpf4jnsgd1na2vs0mg"},{"bike_id":"71a59c21-a265-4f65-a81d-74a082fbf0a5","system_id":"levelo_inurba_marseille","lat":43.33739,"lon":5.37454,"is_reserved":false,"is_disabled":false,"rental_uris":{"android":"levelo://app?vid=71a59c21-a265-4f65-a81d-74a082fbf0a5","ios":"levelo://app?vid=71a59c21-a265-4f65-a81d-74a082fbf0a5"},"vehicle_type_id":"4","last_reported":1728731196,"current_range_meters":27600,"station_id":"","pricing_plan_id":"cebpf4jnsgd1na2vs0mg"},{"bike_id":"c200c17d-7c78-4d6c-b25f-f691e2bd33c2","system_id":"levelo_inurba_marseille","lat":43.27813,"lon":5.40713,"is_reserved":false,"is_disabled":false,"rental_uris":{"android":"levelo://app?vid=c200c17d-7c78-4d6c-b25f-f691e2bd33c2","ios":"levelo://app?vid=c200c17d-7c78-4d6c-b25f-f691e2bd33c2"},"vehicle_type_id":"4","last_reported":1728731196,"current_range_meters":30000,"station_id":"ce4bhnh2rcd13ifvqgtg","pricing_plan_id":"cebpf4jnsgd1na2vs0mg"},{"bike_id":"de368da8-cc67-41de-bf98-14855e4e33c8","system_id":"levelo_inurba_marseille","lat":43.25494,"lon":5.37646,"is_reserved":false,"is_disabled":false,"rental_uris":{"android":"levelo://app?vid=de368da8-cc67-41de-bf98-14855e4e33c8","ios":"levelo://app?vid=de368da8-cc67-41de-bf98-14855e4e33c8"},"vehicle_type_id":"4","last_reported":1728731196,"current_range_meters":26800,"station_id":"ce4bhh12rcd13ifvqff0","pricing_plan_id":"cebpf4jnsgd1na2vs0mg"},{"bike_id":"c5161752-a4e2-454f-8fb8-26d44c035df3","system_id":"levelo_inurba_marseille","lat":43.26197,"lon":5.37928,"is_reserved":false,"is_disabled":false,"rental_uris":{"android":"levelo://app?vid=c5161752-a4e2-454f-8fb8-26d44c035df3","ios":"levelo://app?vid=c5161752-a4e2-454f-8fb8-26d44c035df3"},"vehicle_type_id":"4","last_reported":1728731196,"current_range_meters":28400,"station_id":"ce4bhjp2rcd13ifvqg90","pricing_plan_id":"cebpf4jnsgd1na2vs0mg"},{"bike_id":"e3339a0c-7cb6-4117-8107-e889981594bf","system_id":"levelo_inurba_marseille","lat":43.29807,"lon":5.38101,"is_reserved":false,"is_disabled":false,"rental_uris":{"android":"levelo://app?vid=e3339a0c-7cb6-4117-8107-e889981594bf","ios":"levelo://app?vid=e3339a0c-7cb6-4117-8107-e889981594bf"},"vehicle_type_id":"4","last_reported":1728731196,"current_range_meters":25600,"station_id":"ce4bgip2rcd13ifvqbb0","pricing_plan_id":"cebpf4jnsgd1na2vs0mg"},{"bike_id":"092b0836-7fc6-4398-a8ce-013142346652","system_id":"levelo_inurba_marseille","lat":43.29549,"lon":5.42283,"is_reserved":false,"is_disabled":false,"rental_uris":{"android":"levelo://app?vid=092b0836-7fc6-4398-a8ce-013142346652","ios":"levelo://app?vid=092b0836-7fc6-4398-a8ce-013142346652"},"vehicle_type_id":"4","last_reported":1728731196,"current_range_meters":17200,"station_id":"ce4bhph2rcd13ifvqhdg","pricing_plan_id":"cebpf4jnsgd1na2vs0mg"},{"bike_id":"bb8afb7b-2fb2-4f59-80e1-dd72ab288b00","system_id":"levelo_inurba_marseille","lat":43.30326,"lon":5.4044,"is_reserved":false,"is_disabled":false,"rental_uris":{"android":"levelo://app?vid=bb8afb7b-2fb2-4f59-80e1-dd72ab288b00","ios":"levelo://app?vid=bb8afb7b-2fb2-4f59-80e1-dd72ab288b00"},"vehicle_type_id":"4","last_reported":1728731196,"current_range_meters":33200,"station_id":"ce4bh012rcd13ifvqd10","pricing_plan_id":"cebpf4jnsgd1na2vs0mg"},{"bike_id":"df5fdba9-521a-4fd3-8e79-b0ea11c297f6","system_id":"levelo_inurba_marseille","lat":43.25724,"lon":5.41115,"is_reserved":false,"is_disabled":false,"rental_uris":{"android":"levelo://app?vid=df5fdba9-521a-4fd3-8e79-b0ea11c297f6","ios":"levelo://app?vid=df5fdba9-521a-4fd3-8e79-b0ea11c297f6"},"vehicle_type_id":"4","last_reported":1728731196,"current_range_meters":30400,"station_id":"ce4bhkp2rcd13ifvqgd0","pricing_plan_id":"cebpf4jnsgd1na2vs0mg"},{"bike_id":"15c00409-bcd9-43f7-9b76-7b93c0b7046a","system_id":"levelo_inurba_marseille","lat":43.30311,"lon":5.36894,"is_reserved":false,"is_disabled":false,"rental_uris":{"android":"levelo://app?vid=15c00409-bcd9-43f7-9b76-7b93c0b7046a","ios":"levelo://app?vid=15c00409-bcd9-43f7-9b76-7b93c0b7046a"},"vehicle_type_id":"4","last_reported":1728731196,"current_range_meters":24800,"station_id":"ce4bgqh2rcd13ifvqc5g","pricing_plan_id":"cebpf4jnsgd1na2vs0mg"},{"bike_id":"54d4d5d0-276a-4b85-accd-db86db604253","system_id":"levelo_inurba_marseille","lat":43.31997,"lon":5.38164,"is_reserved":false,"is_disabled":false,"rental_uris":{"android":"levelo://app?vid=54d4d5d0-276a-4b85-accd-db86db604253","ios":"levelo://app?vid=54d4d5d0-276a-4b85-accd-db86db604253"},"vehicle_type_id":"4","last_reported":1728731196,"current_range_meters":21600,"station_id":"ce4bhr12rcd13ifvqhpg","pricing_plan_id":"cebpf4jnsgd1na2vs0mg"},{"bike_id":"8f5ac828-8925-4526-9cfa-f8205da27bb2","system_id":"levelo_inurba_marseille","lat":43.23197,"lon":5.35544,"is_reserved":false,"is_disabled":false,"rental_uris":{"android":"levelo://app?vid=8f5ac828-8925-4526-9cfa-f8205da27bb2","ios":"levelo://app?vid=8f5ac828-8925-4526-9cfa-f8205da27bb2"},"vehicle_type_id":"4","last_reported":1728731196,"current_range_meters":34000,"station_id":"ce4bhu92rcd13ifvqi70","pricing_plan_id":"cebpf4jnsgd1na2vs0mg"},{"bike_id":"c9ac7238-0b2c-40e0-a106-260f91f01c7e","system_id":"levelo_inurba_marseille","lat":43.30273,"lon":5.37693,"is_reserved":false,"is_disabled":false,"rental_uris":{"android":"levelo://app?vid=c9ac7238-0b2c-40e0-a106-260f91f01c7e","ios":"levelo://app?vid=c9ac7238-0b2c-40e0-a106-260f91f01c7e"},"vehicle_type_id":"4","last_reported":1728731196,"current_range_meters":19600,"station_id":"ce4bguh2rcd13ifvqcj0","pricing_plan_id":"cebpf4jnsgd1na2vs0mg"},{"bike_id":"ee83ab85-770e-4f6b-96e6-9bf35d9dac4a","system_id":"levelo_inurba_marseille","lat":43.30151,"lon":5.38079,"is_reserved":false,"is_disabled":false,"rental_uris":{"android":"levelo://app?vid=ee83ab85-770e-4f6b-96e6-9bf35d9dac4a","ios":"levelo://app?vid=ee83ab85-770e-4f6b-96e6-9bf35d9dac4a"},"vehicle_type_id":"4","last_reported":1728731196,"current_range_meters":31200,"station_id":"ce4bgjp2rcd13ifvqbh0","pricing_plan_id":"cebpf4jnsgd1na2vs0mg"},{"bike_id":"ba683a66-bc5f-42b6-85bb-0f00dad8b260","system_id":"levelo_inurba_marseille","lat":43.26927,"lon":5.38914,"is_reserved":false,"is_disabled":false,"rental_uris":{"android":"levelo://app?vid=ba683a66-bc5f-42b6-85bb-0f00dad8b260","ios":"levelo://app?vid=ba683a66-bc5f-42b6-85bb-0f00dad8b260"},"vehicle_type_id":"4","last_reported":1728731196,"current_range_meters":38400,"station_id":"ce4bhhh2rcd13ifvqfl0","pricing_plan_id":"cebpf4jnsgd1na2vs0mg"},{"bike_id":"247429e2-e54a-4e87-97f9-657267224371","system_id":"levelo_inurba_marseille","lat":43.25506,"lon":5.37651,"is_reserved":false,"is_disabled":false,"rental_uris":{"android":"levelo://app?vid=247429e2-e54a-4e87-97f9-657267224371","ios":"levelo://app?vid=247429e2-e54a-4e87-97f9-657267224371"},"vehicle_type_id":"4","last_reported":1728731196,"current_range_meters":36400,"station_id":"ce4bhh12rcd13ifvqff0","pricing_plan_id":"cebpf4jnsgd1na2vs0mg"},{"bike_id":"dc4ed48c-9948-411b-a552-5449f72726e1","system_id":"levelo_inurba_marseille","lat":43.27813,"lon":5.40711,"is_reserved":false,"is_disabled":false,"rental_uris":{"android":"levelo://app?vid=dc4ed48c-9948-411b-a552-5449f72726e1","ios":"levelo://app?vid=dc4ed48c-9948-411b-a552-5449f72726e1"},"vehicle_type_id":"4","last_reported":1728731196,"current_range_meters":24800,"station_id":"ce4bhnh2rcd13ifvqgtg","pricing_plan_id":"cebpf4jnsgd1na2vs0mg"},{"bike_id":"5aa308dc-64e8-4103-a6f8-775a1f8bdf35","system_id":"levelo_inurba_marseille","lat":43.2737,"lon":5.36259,"is_reserved":false,"is_disabled":false,"rental_uris":{"android":"levelo://app?vid=5aa308dc-64e8-4103-a6f8-775a1f8bdf35","ios":"levelo://app?vid=5aa308dc-64e8-4103-a6f8-775a1f8bdf35"},"vehicle_type_id":"4","last_reported":1728731196,"current_range_meters":7200,"station_id":"ce4bhbh2rcd13ifvqeo0","pricing_plan_id":"cebpf4jnsgd1na2vs0mg"},{"bike_id":"54eae126-1c9c-4889-acf3-2f9037a285df","system_id":"levelo_inurba_marseille","lat":43.29007,"lon":5.35612,"is_reserved":false,"is_disabled":false,"rental_uris":{"android":"levelo://app?vid=54eae126-1c9c-4889-acf3-2f9037a285df","ios":"levelo://app?vid=54eae126-1c9c-4889-acf3-2f9037a285df"},"vehicle_type_id":"4","last_reported":1728731196,"current_range_meters":39200,"station_id":"ce4bhb92rcd13ifvqen0","pricing_plan_id":"cebpf4jnsgd1na2vs0mg"},{"bike_id":"aad69708-28ac-43e6-945e-619f5a7c6bfd","system_id":"levelo_inurba_marseille","lat":43.33726,"lon":5.37468,"is_reserved":false,"is_disabled":false,"rental_uris":{"android":"levelo://app?vid=aad69708-28ac-43e6-945e-619f5a7c6bfd","ios":"levelo://app?vid=aad69708-28ac-43e6-945e-619f5a7c6bfd"},"vehicle_type_id":"4","last_reported":1728731196,"current_range_meters":38400,"station_id":"","pricing_plan_id":"cebpf4jnsgd1na2vs0mg"},{"bike_id":"c22c383b-7426-43f9-b18f-689390eef42c","system_id":"levelo_inurba_marseille","lat":43.29622,"lon":5.37721,"is_reserved":false,"is_disabled":false,"rental_uris":{"android":"levelo://app?vid=c22c383b-7426-43f9-b18f-689390eef42c","ios":"levelo://app?vid=c22c383b-7426-43f9-b18f-689390eef42c"},"vehicle_type_id":"4","last_reported":1728731196,"current_range_meters":36800,"station_id":"ce4bgi92rcd13ifvqb90","pricing_plan_id":"cebpf4jnsgd1na2vs0mg"},{"bike_id":"59a8e36f-f21a-4107-b3c2-20cd32abc71c","system_id":"levelo_inurba_marseille","lat":43.30146,"lon":5.39867,"is_reserved":false,"is_disabled":false,"rental_uris":{"android":"levelo://app?vid=59a8e36f-f21a-4107-b3c2-20cd32abc71c","ios":"levelo://app?vid=59a8e36f-f21a-4107-b3c2-20cd32abc71c"},"vehicle_type_id":"4","last_reported":1728731196,"current_range_meters":13600,"station_id":"ce4bh0h2rcd13ifvqd40","pricing_plan_id":"cebpf4jnsgd1na2vs0mg"},{"bike_id":"fa788d65-ef44-407c-8d29-e3cbbca2e385","system_id":"levelo_inurba_marseille","lat":43.342352,"lon":5.400938,"is_reserved":false,"is_disabled":false,"rental_uris":{"android":"levelo://app?vid=fa788d65-ef44-407c-8d29-e3cbbca2e385","ios":"levelo://app?vid=fa788d65-ef44-407c-8d29-e3cbbca2e385"},"vehicle_type_id":"4","last_reported":1728731196,"current_range_meters":4000,"station_id":"","pricing_plan_id":"cebpf4jnsgd1na2vs0mg"},{"bike_id":"b900cea8-7585-4b8b-ac35-5a5195c1c4d1","system_id":"levelo_inurba_marseille","lat":43.292,"lon":5.35803,"is_reserved":false,"is_disabled":false,"rental_uris":{"android":"levelo://app?vid=b900cea8-7585-4b8b-ac35-5a5195c1c4d1","ios":"levelo://app?vid=b900cea8-7585-4b8b-ac35-5a5195c1c4d1"},"vehicle_type_id":"4","last_reported":1728731196,"current_range_meters":2800,"station_id":"ce4bhb12rcd13ifvqel0","pricing_plan_id":"cebpf4jnsgd1na2vs0mg"},{"bike_id":"359ee567-b1f0-464e-875c-9275ec51e6ec","system_id":"levelo_inurba_marseille","lat":43.29031,"lon":5.37572,"is_reserved":false,"is_disabled":false,"rental_uris":{"android":"levelo://app?vid=359ee567-b1f0-464e-875c-9275ec51e6ec","ios":"levelo://app?vid=359ee567-b1f0-464e-875c-9275ec51e6ec"},"vehicle_type_id":"4","last_reported":1728731196,"current_range_meters":34000,"station_id":"ce4bh692rcd13ifvqe90","pricing_plan_id":"cebpf4jnsgd1na2vs0mg"},{"bike_id":"8509fa5d-c6d9-4cb2-b4b1-4f2065b2666e","system_id":"levelo_inurba_marseille","lat":43.2834,"lon":5.41056,"is_reserved":false,"is_disabled":false,"rental_uris":{"android":"levelo://app?vid=8509fa5d-c6d9-4cb2-b4b1-4f2065b2666e","ios":"levelo://app?vid=8509fa5d-c6d9-4cb2-b4b1-4f2065b2666e"},"vehicle_type_id":"4","last_reported":1728731196,"current_range_meters":4400,"station_id":"","pricing_plan_id":"cebpf4jnsgd1na2vs0mg"},{"bike_id":"c81fe518-cf00-4b26-a3a2-c118bd055894","system_id":"levelo_inurba_marseille","lat":43.24389,"lon":5.37055,"is_reserved":false,"is_disabled":false,"rental_uris":{"android":"levelo://app?vid=c81fe518-cf00-4b26-a3a2-c118bd055894","ios":"levelo://app?vid=c81fe518-cf00-4b26-a3a2-c118bd055894"},"vehicle_type_id":"4","last_reported":1728731196,"current_range_meters":21600,"station_id":"ce4bhhh2rcd13ifvqfk0","pricing_plan_id":"cebpf4jnsgd1na2vs0mg"},{"bike_id":"dc68c98a-9d29-4a3a-9cf4-aae30c9d2903","system_id":"levelo_inurba_marseille","lat":43.29935,"lon":5.36541,"is_reserved":false,"is_disabled":false,"rental_uris":{"android":"levelo://app?vid=dc68c98a-9d29-4a3a-9cf4-aae30c9d2903","ios":"levelo://app?vid=dc68c98a-9d29-4a3a-9cf4-aae30c9d2903"},"vehicle_type_id":"4","last_reported":1728731196,"current_range_meters":26800,"station_id":"ce4bgm92rcd13ifvqbr0","pricing_plan_id":"cebpf4jnsgd1na2vs0mg"},{"bike_id":"11822c02-fbff-4857-9d4f-26ab83b19bd7","system_id":"levelo_inurba_marseille","lat":43.28417,"lon":5.37504,"is_reserved":false,"is_disabled":false,"rental_uris":{"android":"levelo://app?vid=11822c02-fbff-4857-9d4f-26ab83b19bd7","ios":"levelo://app?vid=11822c02-fbff-4857-9d4f-26ab83b19bd7"},"vehicle_type_id":"4","last_reported":1728731196,"current_range_meters":11600,"station_id":"ce4bh412rcd13ifvqds0","pricing_plan_id":"cebpf4jnsgd1na2vs0mg"},{"bike_id":"f89807a8-bd78-49a3-a8f5-17e0a5ae0f24","system_id":"levelo_inurba_marseille","lat":43.2861,"lon":5.37064,"is_reserved":false,"is_disabled":false,"rental_uris":{"android":"levelo://app?vid=f89807a8-bd78-49a3-a8f5-17e0a5ae0f24","ios":"levelo://app?vid=f89807a8-bd78-49a3-a8f5-17e0a5ae0f24"},"vehicle_type_id":"4","last_reported":1728731196,"current_range_meters":32400,"station_id":"ce4bht12rcd13ifvqi60","pricing_plan_id":"cebpf4jnsgd1na2vs0mg"},{"bike_id":"f2e978cc-5a1c-484d-9be7-2df866ba645d","system_id":"levelo_inurba_marseille","lat":43.2808,"lon":5.39661,"is_reserved":false,"is_disabled":false,"rental_uris":{"android":"levelo://app?vid=f2e978cc-5a1c-484d-9be7-2df866ba645d","ios":"levelo://app?vid=f2e978cc-5a1c-484d-9be7-2df866ba645d"},"vehicle_type_id":"4","last_reported":1728731196,"current_range_meters":25600,"station_id":"ce4bho12rcd13ifvqh2g","pricing_plan_id":"cebpf4jnsgd1na2vs0mg"},{"bike_id":"087f0942-c4f9-4849-84d2-f966e863446b","system_id":"levelo_inurba_marseille","lat":43.26802,"lon":5.40265,"is_reserved":false,"is_disabled":false,"rental_uris":{"android":"levelo://app?vid=087f0942-c4f9-4849-84d2-f966e863446b","ios":"levelo://app?vid=087f0942-c4f9-4849-84d2-f966e863446b"},"vehicle_type_id":"4","last_reported":1728731196,"current_range_meters":38800,"station_id":"ce501612rcd8frsf0b60","pricing_plan_id":"cebpf4jnsgd1na2vs0mg"},{"bike_id":"27311a75-ebb6-43d6-9fb5-f3ba72a10e0e","system_id":"levelo_inurba_marseille","lat":43.299,"lon":5.43662,"is_reserved":false,"is_disabled":false,"rental_uris":{"android":"levelo://app?vid=27311a75-ebb6-43d6-9fb5-f3ba72a10e0e","ios":"levelo://app?vid=27311a75-ebb6-43d6-9fb5-f3ba72a10e0e"},"vehicle_type_id":"4","last_reported":1728731196,"current_range_meters":24400,"station_id":"ce4bhpp2rcd13ifvqhfg","pricing_plan_id":"cebpf4jnsgd1na2vs0mg"},{"bike_id":"8fe94535-80ca-42ec-8911-7775dd5face5","system_id":"levelo_inurba_marseille","lat":43.29785,"lon":5.37102,"is_reserved":false,"is_disabled":false,"rental_uris":{"android":"levelo://app?vid=8fe94535-80ca-42ec-8911-7775dd5face5","ios":"levelo://app?vid=8fe94535-80ca-42ec-8911-7775dd5face5"},"vehicle_type_id":"4","last_reported":1728731196,"current_range_meters":20800,"station_id":"ce4bgop2rcd13ifvqc1g","pricing_plan_id":"cebpf4jnsgd1na2vs0mg"},{"bike_id":"6d9df09d-d75b-4bd5-95b7-d1ac21001917","system_id":"levelo_inurba_marseille","lat":43.27813,"lon":5.4071,"is_reserved":false,"is_disabled":false,"rental_uris":{"android":"levelo://app?vid=6d9df09d-d75b-4bd5-95b7-d1ac21001917","ios":"levelo://app?vid=6d9df09d-d75b-4bd5-95b7-d1ac21001917"},"vehicle_type_id":"4","last_reported":1728731196,"current_range_meters":39200,"station_id":"ce4bhnh2rcd13ifvqgtg","pricing_plan_id":"cebpf4jnsgd1na2vs0mg"},{"bike_id":"d55e0411-48d1-48d6-93eb-8ea1e87a965b","system_id":"levelo_inurba_marseille","lat":43.29528,"lon":5.37501,"is_reserved":false,"is_disabled":false,"rental_uris":{"android":"levelo://app?vid=d55e0411-48d1-48d6-93eb-8ea1e87a965b","ios":"levelo://app?vid=d55e0411-48d1-48d6-93eb-8ea1e87a965b"},"vehicle_type_id":"4","last_reported":1728731196,"current_range_meters":21600,"station_id":"ce4bgkp2rcd13ifvqbmg","pricing_plan_id":"cebpf4jnsgd1na2vs0mg"},{"bike_id":"a741055a-0e44-4cc1-b4da-217c66175e14","system_id":"levelo_inurba_marseille","lat":43.33025,"lon":5.39034,"is_reserved":false,"is_disabled":false,"rental_uris":{"android":"levelo://app?vid=a741055a-0e44-4cc1-b4da-217c66175e14","ios":"levelo://app?vid=a741055a-0e44-4cc1-b4da-217c66175e14"},"vehicle_type_id":"4","last_reported":1728731196,"current_range_meters":36400,"station_id":"ce4bhr92rcd13ifvqhrg","pricing_plan_id":"cebpf4jnsgd1na2vs0mg"},{"bike_id":"2c2c7f4c-6cc5-446c-bafa-50b1779065e9","system_id":"levelo_inurba_marseille","lat":43.29034,"lon":5.3757,"is_reserved":false,"is_disabled":false,"rental_uris":{"android":"levelo://app?vid=2c2c7f4c-6cc5-446c-bafa-50b1779065e9","ios":"levelo://app?vid=2c2c7f4c-6cc5-446c-bafa-50b1779065e9"},"vehicle_type_id":"4","last_reported":1728731196,"current_range_meters":5600,"station_id":"ce4bh692rcd13ifvqe90","pricing_plan_id":"cebpf4jnsgd1na2vs0mg"},{"bike_id":"d7e5ea11-d467-4788-8c0a-2e41d5e9fa99","system_id":"levelo_inurba_marseille","lat":43.26496,"lon":5.39542,"is_reserved":false,"is_disabled":false,"rental_uris":{"android":"levelo://app?vid=d7e5ea11-d467-4788-8c0a-2e41d5e9fa99","ios":"levelo://app?vid=d7e5ea11-d467-4788-8c0a-2e41d5e9fa99"},"vehicle_type_id":"4","last_reported":1728731196,"current_range_meters":25600,"station_id":"ce4bhi12rcd13ifvqfq0","pricing_plan_id":"cebpf4jnsgd1na2vs0mg"},{"bike_id":"7e0e608e-5acc-4107-bebf-6c98d3419027","system_id":"levelo_inurba_marseille","lat":43.29272,"lon":5.40107,"is_reserved":false,"is_disabled":false,"rental_uris":{"android":"levelo://app?vid=7e0e608e-5acc-4107-bebf-6c98d3419027","ios":"levelo://app?vid=7e0e608e-5acc-4107-bebf-6c98d3419027"},"vehicle_type_id":"4","last_reported":1728731196,"current_range_meters":38800,"station_id":"ce4bh312rcd13ifvqdk0","pricing_plan_id":"cebpf4jnsgd1na2vs0mg"},{"bike_id":"09e28976-4858-47dc-b230-bbb81f2affa0","system_id":"levelo_inurba_marseille","lat":43.25816,"lon":5.3943,"is_reserved":false,"is_disabled":false,"rental_uris":{"android":"levelo://app?vid=09e28976-4858-47dc-b230-bbb81f2affa0","ios":"levelo://app?vid=09e28976-4858-47dc-b230-bbb81f2affa0"},"vehicle_type_id":"4","last_reported":1728731196,"current_range_meters":24400,"station_id":"ce4bhip2rcd13ifvqft0","pricing_plan_id":"cebpf4jnsgd1na2vs0mg"},{"bike_id":"f00bfc39-d189-4ce7-8e81-7d5d64c17b97","system_id":"levelo_inurba_marseille","lat":43.29349,"lon":5.37687,"is_reserved":false,"is_disabled":false,"rental_uris":{"android":"levelo://app?vid=f00bfc39-d189-4ce7-8e81-7d5d64c17b97","ios":"levelo://app?vid=f00bfc39-d189-4ce7-8e81-7d5d64c17b97"},"vehicle_type_id":"4","last_reported":1728731196,"current_range_meters":33200,"station_id":"","pricing_plan_id":"cebpf4jnsgd1na2vs0mg"},{"bike_id":"10a2b00b-9574-4900-86f2-45dd274dde5c","system_id":"levelo_inurba_marseille","lat":43.28939,"lon":5.3962,"is_reserved":false,"is_disabled":false,"rental_uris":{"android":"levelo://app?vid=10a2b00b-9574-4900-86f2-45dd274dde5c","ios":"levelo://app?vid=10a2b00b-9574-4900-86f2-45dd274dde5c"},"vehicle_type_id":"4","last_reported":1728731196,"current_range_meters":14800,"station_id":"ce4bh3h2rcd13ifvqdn0","pricing_plan_id":"cebpf4jnsgd1na2vs0mg"},{"bike_id":"d4778b15-7841-4ee2-ad7f-5ac131c61656","system_id":"levelo_inurba_marseille","lat":43.30213,"lon":5.39299,"is_reserved":false,"is_disabled":false,"rental_uris":{"android":"levelo://app?vid=d4778b15-7841-4ee2-ad7f-5ac131c61656","ios":"levelo://app?vid=d4778b15-7841-4ee2-ad7f-5ac131c61656"},"vehicle_type_id":"4","last_reported":1728731196,"current_range_meters":38400,"station_id":"ce4bgkh2rcd13ifvqbk0","pricing_plan_id":"cebpf4jnsgd1na2vs0mg"},{"bike_id":"5b735df5-90e3-4c61-81e7-799639fc8728","system_id":"levelo_inurba_marseille","lat":43.27072,"lon":5.4228,"is_reserved":false,"is_disabled":false,"rental_uris":{"android":"levelo://app?vid=5b735df5-90e3-4c61-81e7-799639fc8728","ios":"levelo://app?vid=5b735df5-90e3-4c61-81e7-799639fc8728"},"vehicle_type_id":"4","last_reported":1728731196,"current_range_meters":23200,"station_id":"ce4bhk92rcd13ifvqgb0","pricing_plan_id":"cebpf4jnsgd1na2vs0mg"},{"bike_id":"046b4021-8e5d-430a-a9ac-420e19eaab79","system_id":"levelo_inurba_marseille","lat":43.30538,"lon":5.36544,"is_reserved":false,"is_disabled":false,"rental_uris":{"android":"levelo://app?vid=046b4021-8e5d-430a-a9ac-420e19eaab79","ios":"levelo://app?vid=046b4021-8e5d-430a-a9ac-420e19eaab79"},"vehicle_type_id":"4","last_reported":1728731196,"current_range_meters":38800,"station_id":"ce4bgs12rcd13ifvqcag","pricing_plan_id":"cebpf4jnsgd1na2vs0mg"},{"bike_id":"b5f1c919-7873-433f-a8d2-3d0eeb72b87f","system_id":"levelo_inurba_marseille","lat":43.31712,"lon":5.437,"is_reserved":false,"is_disabled":false,"rental_uris":{"android":"levelo://app?vid=b5f1c919-7873-433f-a8d2-3d0eeb72b87f","ios":"levelo://app?vid=b5f1c919-7873-433f-a8d2-3d0eeb72b87f"},"vehicle_type_id":"4","last_reported":1728731196,"current_range_meters":27200,"station_id":"ce4bhp92rcd13ifvqhcg","pricing_plan_id":"cebpf4jnsgd1na2vs0mg"},{"bike_id":"f0aa32d8-4ddd-496a-9571-e8bae9de7c44","system_id":"levelo_inurba_marseille","lat":43.27156,"lon":5.38602,"is_reserved":false,"is_disabled":false,"rental_uris":{"android":"levelo://app?vid=f0aa32d8-4ddd-496a-9571-e8bae9de7c44","ios":"levelo://app?vid=f0aa32d8-4ddd-496a-9571-e8bae9de7c44"},"vehicle_type_id":"4","last_reported":1728731196,"current_range_meters":16000,"station_id":"","pricing_plan_id":"cebpf4jnsgd1na2vs0mg"},