{"last_updated":1777049592,"ttl":60,"version":"2.2","data":{"bikes":[{"bike_id":"7db8e5f3-3982-4808-8fb4-746a2f23f4b1","system_id":"levelo_inurba_marseille","lat":43.29342,"lon":5.4389,"is_reserved":false,"is_disabled":false,"rental_uris":{"android":"levelo://app?vid=7db8e5f3-3982-4808-8fb4-746a2f23f4b1","ios":"levelo://app?vid=7db8e5f3-3982-4808-8fb4-746a2f23f4b1"},"vehicle_type_id":"4","last_reported":1777049593,"current_range_meters":2800,"station_id":"","pricing_plan_id":"cebpf4jnsgd1na2vs0mg"},{"bike_id":"b867ae37-2fc5-4c43-92c2-d9ee24c8ff41","system_id":"levelo_inurba_marseille","lat":43.24981,"lon":5.41759,"is_reserved":false,"is_disabled":false,"rental_uris":{"android":"levelo://app?vid=b867ae37-2fc5-4c43-92c2-d9ee24c8ff41","ios":"levelo://app?vid=b867ae37-2fc5-4c43-92c2-d9ee24c8ff41"},"vehicle_type_id":"4","last_reported":1777049593,"current_range_meters":2800,"station_id":"","pricing_plan_id":"cebpf4jnsgd1na2vs0mg"},{"bike_id":"e564ebc5-0a67-4d37-a79e-e7139a57762c","system_id":"levelo_inurba_marseille","lat":43.26559,"lon":5.373,"is_reserved":false,"is_disabled":false,"rental_uris":{"android":"levelo://app?vid=e564ebc5-0a67-4d37-a79e-e7139a57762c","ios":"levelo://app?vid=e564ebc5-0a67-4d37-a79e-e7139a57762c"},"vehicle_type_id":"4","last_reported":1777049593,"current_range_meters":2800,"station_id":"ce4bhg12rcd13ifvqf70","pricing_plan_id":"cebpf4jnsgd1na2vs0mg"},{"bike_id":"0923929c-d272-4fa1-a3d9-8f4c7a6f830d","system_id":"levelo_inurba_marseille","lat":43.30839,"lon":5.38192,"is_reserved":false,"is_disabled":false,"rental_uris":{"android":"levelo://app?vid=0923929c-d272-4fa1-a3d9-8f4c7a6f830d","ios":"levelo://app?vid=0923929c-d272-4fa1-a3d9-8f4c7a6f830d"},"vehicle_type_id":"4","last_reported":1777049593,"current_range_meters":2800,"station_id":"","pricing_plan_id":"cebpf4jnsgd1na2vs0mg"},{"bike_id":"045f2374-8086-4c79-9243-0ae4469eac27","system_id":"levelo_inurba_marseille","lat":43.29041,"lon":5.38649,"is_reserved":false,"is_disabled":false,"rental_uris":{"android":"levelo://app?vid=045f2374-8086-4c79-9243-0ae4469eac27","ios":"levelo://app?vid=045f2374-8086-4c79-9243-0ae4469eac27"},"vehicle_type_id":"4","last_reported":1777049593,"current_range_meters":2800,"station_id":"ce4bh4p2rcd13ifvqe0g","pricing_plan_id":"cebpf4jnsgd1na2vs0mg"},{"bike_id":"b14b8df7-9488-4810-abfe-41536c6529da","system_id":"levelo_inurba_marseille","lat":43.292,"lon":5.39319,"is_reserved":false,"is_disabled":false,"rental_uris":{"android":"levelo://app?vid=b14b8df7-9488-4810-abfe-41536c6529da","ios":"levelo://app?vid=b14b8df7-9488-4810-abfe-41536c6529da"},"vehicle_type_id":"4","last_reported":1777049593,"current_range_meters":2800,"station_id":"ce4bh192rcd13ifvqdd0","pricing_plan_id":"cebpf4jnsgd1na2vs0mg"},{"bike_id":"80c69ba0-a276-468c-b7be-65f3ba98d45f","system_id":"levelo_inurba_marseille","lat":43.29178,"lon":5.39326,"is_reserved":false,"is_disabled":false,"rental_uris":{"android":"levelo://app?vid=80c69ba0-a276-468c-b7be-65f3ba98d45f","ios":"levelo://app?vid=80c69ba0-a276-468c-b7be-65f3ba98d45f"},"vehicle_type_id":"4","last_reported":1777049593,"current_range_meters":2800,"station_id":"ce4bh192rcd13ifvqdd0","pricing_plan_id":"cebpf4jnsgd1na2vs0mg"},{"bike_id":"05e6323a-3748-439a-87b3-36867fb9c53b","system_id":"levelo_inurba_marseille","lat":43.28667,"lon":5.38658,"is_reserved":false,"is_disabled":false,"rental_uris":{"android":"levelo://app?vid=05e6323a-3748-439a-87b3-36867fb9c53b","ios":"levelo://app?vid=05e6323a-3748-439a-87b3-36867fb9c53b"},"vehicle_type_id":"4","last_reported":1777049593,"current_range_meters":2800,"station_id":"ce4bh492rcd13ifvqdug","pricing_plan_id":"cebpf4jnsgd1na2vs0mg"},{"bike_id":"7e726f3f-feee-40f4-90de-d0a0aef3a526","system_id":"levelo_inurba_marseille","lat":43.27057,"lon":5.42274,"is_reserved":false,"is_disabled":false,"rental_uris":{"android":"levelo://app?vid=7e726f3f-feee-40f4-90de-d0a0aef3a526","ios":"levelo://app?vid=7e726f3f-feee-40f4-90de-d0a0aef3a526"},"vehicle_type_id":"4","last_reported":1777049593,"current_range_meters":3200,"station_id":"ce4bhk92rcd13ifvqgb0","pricing_plan_id":"cebpf4jnsgd1na2vs0mg"},{"bike_id":"dc3d93ea-ae84-4a55-9dbf-fa49417dc298","system_id":"levelo_inurba_marseille","lat":43.25737,"lon":5.38662,"is_reserved":false,"is_disabled":false,"rental_uris":{"android":"levelo://app?vid=dc3d93ea-ae84-4a55-9dbf-fa49417dc298","ios":"levelo://app?vid=dc3d93ea-ae84-4a55-9dbf-fa49417dc298"},"vehicle_type_id":"4","last_reported":1777049593,"current_range_meters":3200,"station_id":"","pricing_plan_id":"cebpf4jnsgd1na2vs0mg"},{"bike_id":"fab422c3-3e71-460a-9231-398cabf4cd0f","system_id":"levelo_inurba_marseille","lat":43.23184,"lon":5.35556,"is_reserved":false,"is_disabled":true,"rental_uris":{"android":"levelo://app?vid=fab422c3-3e71-460a-9231-398cabf4cd0f","ios":"levelo://app?vid=fab422c3-3e71-460a-9231-398cabf4cd0f"},"vehicle_type_id":"4","last_reported":1777049593,"current_range_meters":3200,"station_id":"ce4bhu92rcd13ifvqi70","pricing_plan_id":"cebpf4jnsgd1na2vs0mg"},{"bike_id":"e6be4565-5f84-45f3-81c4-d4dc8b41b5bc","system_id":"levelo_inurba_marseille","lat":43.27064,"lon":5.40267,"is_reserved":false,"is_disabled":false,"rental_uris":{"android":"levelo://app?vid=e6be4565-5f84-45f3-81c4-d4dc8b41b5bc","ios":"levelo://app?vid=e6be4565-5f84-45f3-81c4-d4dc8b41b5bc"},"vehicle_type_id":"4","last_reported":1777049593,"current_range_meters":3200,"station_id":"ce4bhk92rcd13ifvqgc0","pricing_plan_id":"cebpf4jnsgd1na2vs0mg"},{"bike_id":"47645cb8-3276-4339-a10c-1b3212ad6fad","system_id":"levelo_inurba_marseille","lat":43.29264,"lon":5.38436,"is_reserved":false,"is_disabled":false,"rental_uris":{"android":"levelo://app?vid=47645cb8-3276-4339-a10c-1b3212ad6fad","ios":"levelo://app?vid=47645cb8-3276-4339-a10c-1b3212ad6fad"},"vehicle_type_id":"4","last_reported":1777049593,"current_range_meters":3200,"station_id":"ce4bh692rcd13ifvqea0","pricing_plan_id":"cebpf4jnsgd1na2vs0mg"},{"bike_id":"5b4c1bfa-a4bb-4dae-b02e-c6365b8a2a96","system_id":"levelo_inurba_marseille","lat":43.28689,"lon":5.46672,"is_reserved":false,"is_disabled":false,"rental_uris":{"android":"levelo://app?vid=5b4c1bfa-a4bb-4dae-b02e-c6365b8a2a96","ios":"levelo://app?vid=5b4c1bfa-a4bb-4dae-b02e-c6365b8a2a96"},"vehicle_type_id":"4","last_reported":1777049593,"current_range_meters":3200,"station_id":"st_d6tc3vkotcvc738tfjhg","pricing_plan_id":"cebpf4jnsgd1na2vs0mg"},{"bike_id":"8cb54a65-3488-4c61-90ac-0e59af285b33","system_id":"levelo_inurba_marseille","lat":43.28002,"lon":5.40012,"is_reserved":false,"is_disabled":false,"rental_uris":{"android":"levelo://app?vid=8cb54a65-3488-4c61-90ac-0e59af285b33","ios":"levelo://app?vid=8cb54a65-3488-4c61-90ac-0e59af285b33"},"vehicle_type_id":"4","last_reported":1777049593,"current_range_meters":3200,"station_id":"ce4bho92rcd13ifvqh4g","pricing_plan_id":"cebpf4jnsgd1na2vs0mg"},{"bike_id":"6af4f39e-837e-4025-97a5-3fa7efa09353","system_id":"levelo_inurba_marseille","lat":43.24073,"lon":5.37765,"is_reserved":false,"is_disabled":false,"rental_uris":{"android":"levelo://app?vid=6af4f39e-837e-4025-97a5-3fa7efa09353","ios":"levelo://app?vid=6af4f39e-837e-4025-97a5-3fa7efa09353"},"vehicle_type_id":"4","last_reported":1777049593,"current_range_meters":3200,"station_id":"ce4bhnp2rcd13ifvqgvg","pricing_plan_id":"cebpf4jnsgd1na2vs0mg"},{"bike_id":"9c3677d0-627f-49f8-bd9c-64ba96ef4fce","system_id":"levelo_inurba_marseille","lat":43.28469,"lon":5.48402,"is_reserved":false,"is_disabled":false,"rental_uris":{"android":"levelo://app?vid=9c3677d0-627f-49f8-bd9c-64ba96ef4fce","ios":"levelo://app?vid=9c3677d0-627f-49f8-bd9c-64ba96ef4fce"},"vehicle_type_id":"4","last_reported":1777049593,"current_range_meters":3200,"station_id":"","pricing_plan_id":"cebpf4jnsgd1na2vs0mg"},{"bike_id":"44f1911c-3b3a-4385-877c-0ce6c994907f","system_id":"levelo_inurba_marseille","lat":43.25583,"lon":5.38238,"is_reserved":false,"is_disabled":false,"rental_uris":{"android":"levelo://app?vid=44f1911c-3b3a-4385-877c-0ce6c994907f","ios":"levelo://app?vid=44f1911c-3b3a-4385-877c-0ce6c994907f"},"vehicle_type_id":"4","last_reported":1777049593,"current_range_meters":3200,"station_id":"ce4bhih2rcd13ifvqfs0","pricing_plan_id":"cebpf4jnsgd1na2vs0mg"},{"bike_id":"1752e3e3-69d4-4436-994b-a23f8af3943e","system_id":"levelo_inurba_marseille","lat":43.25333,"lon":5.4218,"is_reserved":false,"is_disabled":false,"rental_uris":{"android":"levelo://app?vid=1752e3e3-69d4-4436-994b-a23f8af3943e","ios":"levelo://app?vid=1752e3e3-69d4-4436-994b-a23f8af3943e"},"vehicle_type_id":"4","last_reported":1777049593,"current_range_meters":3200,"station_id":"st_d2m65c5bi1j21697t3ng","pricing_plan_id":"cebpf4jnsgd1na2vs0mg"},{"bike_id":"1fc0b45b-84fe-41d1-a57b-0e08c13850a2","system_id":"levelo_inurba_marseille","lat":43.30945,"lon":5.39033,"is_reserved":false,"is_disabled":false,"rental_uris":{"android":"levelo://app?vid=1fc0b45b-84fe-41d1-a57b-0e08c13850a2","ios":"levelo://app?vid=1fc0b45b-84fe-41d1-a57b-0e08c13850a2"},"vehicle_type_id":"4","last_reported":1777049593,"current_range_meters":3200,"station_id":"ce4bgup2rcd13ifvqco0","pricing_plan_id":"cebpf4jnsgd1na2vs0mg"},{"bike_id":"35d1fcd6-6081-4945-9b03-cc85549e0d4b","system_id":"levelo_inurba_marseille","lat":43.28721,"lon":5.36098,"is_reserved":false,"is_disabled":false,"rental_uris":{"android":"levelo://app?vid=35d1fcd6-6081-4945-9b03-cc85549e0d4b","ios":"levelo://app?vid=35d1fcd6-6081-4945-9b03-cc85549e0d4b"},"vehicle_type_id":"4","last_reported":1777049593,"current_range_meters":3200,"station_id":"cki0cbj6b192h4jlfktg","pricing_plan_id":"cebpf4jnsgd1na2vs0mg"},{"bike_id":"8f975cf4-69f4-4fd4-8c34-d7df8df21514","system_id":"levelo_inurba_marseille","lat":43.33768,"lon":5.3746,"is_reserved":false,"is_disabled":false,"rental_uris":{"android":"levelo://app?vid=8f975cf4-69f4-4fd4-8c34-d7df8df21514","ios":"levelo://app?vid=8f975cf4-69f4-4fd4-8c34-d7df8df21514"},"vehicle_type_id":"4","last_reported":1777049593,"current_range_meters":3600,"station_id":"st_d46cu089ee8s73dldbu0","pricing_plan_id":"cebpf4jnsgd1na2vs0mg"},{"bike_id":"a767dc6e-2f51-4d71-9e29-f318a1beff69","system_id":"levelo_inurba_marseille","lat":43.30057,"lon":5.36565,"is_reserved":false,"is_disabled":false,"rental_uris":{"android":"levelo://app?vid=a767dc6e-2f51-4d71-9e29-f318a1beff69","ios":"levelo://app?vid=a767dc6e-2f51-4d71-9e29-f318a1beff69"},"vehicle_type_id":"4","last_reported":1777049593,"current_range_meters":3600,"station_id":"","pricing_plan_id":"cebpf4jnsgd1na2vs0mg"},{"bike_id":"c1f93d99-337e-4f6a-91e4-8283cf14b9da","system_id":"levelo_inurba_marseille","lat":43.29264,"lon":5.38437,"is_reserved":false,"is_disabled":false,"rental_uris":{"android":"levelo://app?vid=c1f93d99-337e-4f6a-91e4-8283cf14b9da","ios":"levelo://app?vid=c1f93d99-337e-4f6a-91e4-8283cf14b9da"},"vehicle_type_id":"4","last_reported":1777049593,"current_range_meters":3600,"station_id":"ce4bh692rcd13ifvqea0","pricing_plan_id":"cebpf4jnsgd1na2vs0mg"},{"bike_id":"3a3954b1-ed0c-4688-afd2-9e1dd0e96ad1","system_id":"levelo_inurba_marseille","lat":43.31174,"lon":5.38709,"is_reserved":false,"is_disabled":false,"rental_uris":{"android":"levelo://app?vid=3a3954b1-ed0c-4688-afd2-9e1dd0e96ad1","ios":"levelo://app?vid=3a3954b1-ed0c-4688-afd2-9e1dd0e96ad1"},"vehicle_type_id":"4","last_reported":1777049593,"current_range_meters":3600,"station_id":"ce4bgv12rcd13ifvqcp0","pricing_plan_id":"cebpf4jnsgd1na2vs0mg"},{"bike_id":"a2b3cce2-afbc-4075-a09b-d518aa5ea503","system_id":"levelo_inurba_marseille","lat":43.27609,"lon":5.36123,"is_reserved":false,"is_disabled":false,"rental_uris":{"android":"levelo://app?vid=a2b3cce2-afbc-4075-a09b-d518aa5ea503","ios":"levelo://app?vid=a2b3cce2-afbc-4075-a09b-d518aa5ea503"},"vehicle_type_id":"4","last_reported":1777049593,"current_range_meters":3600,"station_id":"ce4bgj92rcd13ifvqbe0","pricing_plan_id":"cebpf4jnsgd1na2vs0mg"},{"bike_id":"7f7fc20c-7dd9-4544-8240-f27a3d75f927","system_id":"levelo_inurba_marseille","lat":43.276195,"lon":5.361041,"is_reserved":false,"is_disabled":false,"rental_uris":{"android":"levelo://app?vid=7f7fc20c-7dd9-4544-8240-f27a3d75f927","ios":"levelo://app?vid=7f7fc20c-7dd9-4544-8240-f27a3d75f927"},"vehicle_type_id":"4","last_reported":1777049593,"current_range_meters":3600,"station_id":"ce4bgj92rcd13ifvqbe0","pricing_plan_id":"cebpf4jnsgd1na2vs0mg"},{"bike_id":"77bae04d-b155-4a06-9049-fda6a4b9e974","system_id":"levelo_inurba_marseille","lat":43.29147,"lon":5.42616,"is_reserved":false,"is_disabled":false,"rental_uris":{"android":"levelo://app?vid=77bae04d-b155-4a06-9049-fda6a4b9e974","ios":"levelo://app?vid=77bae04d-b155-4a06-9049-fda6a4b9e974"},"vehicle_type_id":"4","last_reported":1777049593,"current_range_meters":4000,"station_id":"","pricing_plan_id":"cebpf4jnsgd1na2vs0mg"},{"bike_id":"63ee2532-e53e-4a3e-b6db-c56f0e63c607","system_id":"levelo_inurba_marseille","lat":43.295319,"lon":5.385448,"is_reserved":false,"is_disabled":false,"rental_uris":{"android":"levelo://app?vid=63ee2532-e53e-4a3e-b6db-c56f0e63c607","ios":"levelo://app?vid=63ee2532-e53e-4a3e-b6db-c56f0e63c607"},"vehicle_type_id":"4","last_reported":1777049593,"current_range_meters":4000,"station_id":"ce4bgih2rcd13ifvqba0","pricing_plan_id":"cebpf4jnsgd1na2vs0mg"},{"bike_id":"62b06300-78a6-4c05-afb7-b268071e1562","system_id":"levelo_inurba_marseille","lat":43.29897,"lon":5.3746,"is_reserved":false,"is_disabled":false,"rental_uris":{"android":"levelo://app?vid=62b06300-78a6-4c05-afb7-b268071e1562","ios":"levelo://app?vid=62b06300-78a6-4c05-afb7-b268071e1562"},"vehicle_type_id":"4","last_reported":1777049593,"current_range_meters":4000,"station_id":"ce4bgjh2rcd13ifvqbg0","pricing_plan_id":"cebpf4jnsgd1na2vs0mg"},{"bike_id":"fbebdfda-6ba0-4b4e-98ae-2b5ea9d02b6d","system_id":"levelo_inurba_marseille","lat":43.2696,"lon":5.38642,"is_reserved":false,"is_disabled":false,"rental_uris":{"android":"levelo://app?vid=fbebdfda-6ba0-4b4e-98ae-2b5ea9d02b6d","ios":"levelo://app?vid=fbebdfda-6ba0-4b4e-98ae-2b5ea9d02b6d"},"vehicle_type_id":"4","last_reported":1777049593,"current_range_meters":4000,"station_id":"ce4bhh92rcd13ifvqfh0","pricing_plan_id":"cebpf4jnsgd1na2vs0mg"},{"bike_id":"37f070e6-d097-4a42-b456-b85a8857f9d4","system_id":"levelo_inurba_marseille","lat":43.26217,"lon":5.37446,"is_reserved":false,"is_disabled":false,"rental_uris":{"android":"levelo://app?vid=37f070e6-d097-4a42-b456-b85a8857f9d4","ios":"levelo://app?vid=37f070e6-d097-4a42-b456-b85a8857f9d4"},"vehicle_type_id":"4","last_reported":1777049593,"current_range_meters":4000,"station_id":"ce4bhgp2rcd13ifvqfc0","pricing_plan_id":"cebpf4jnsgd1na2vs0mg"},{"bike_id":"5b6b783e-0d52-4bbd-b5a7-c33df0c76194","system_id":"levelo_inurba_marseille","lat":43.28232,"lon":5.37057,"is_reserved":false,"is_disabled":false,"rental_uris":{"android":"levelo://app?vid=5b6b783e-0d52-4bbd-b5a7-c33df0c76194","ios":"levelo://app?vid=5b6b783e-0d52-4bbd-b5a7-c33df0c76194"},"vehicle_type_id":"4","last_reported":1777049593,"current_range_meters":4000,"station_id":"","pricing_plan_id":"cebpf4jnsgd1na2vs0mg"},{"bike_id":"f0081e3d-b45c-40d4-b9f9-f49400998cb9","system_id":"levelo_inurba_marseille","lat":43.3203,"lon":5.41585,"is_reserved":false,"is_disabled":false,"rental_uris":{"android":"levelo://app?vid=f0081e3d-b45c-40d4-b9f9-f49400998cb9","ios":"levelo://app?vid=f0081e3d-b45c-40d4-b9f9-f49400998cb9"},"vehicle_type_id":"4","last_reported":1777049593,"current_range_meters":4000,"station_id":"ce4bhq92rcd13ifvqhkg","pricing_plan_id":"cebpf4jnsgd1na2vs0mg"},{"bike_id":"49bad0df-3e59-43c1-9310-9d5fd8de83fe","system_id":"levelo_inurba_marseille","lat":43.309955,"lon":5.388556,"is_reserved":false,"is_disabled":false,"rental_uris":{"android":"levelo://app?vid=49bad0df-3e59-43c1-9310-9d5fd8de83fe","ios":"levelo://app?vid=49bad0df-3e59-43c1-9310-9d5fd8de83fe"},"vehicle_type_id":"4","last_reported":1777049593,"current_range_meters":4000,"station_id":"ce4bgup2rcd13ifvqco0","pricing_plan_id":"cebpf4jnsgd1na2vs0mg"},{"bike_id":"94a4fee8-2a94-4856-aa19-19c619f6f294","system_id":"levelo_inurba_marseille","lat":43.2647,"lon":5.39558,"is_reserved":false,"is_disabled":false,"rental_uris":{"android":"levelo://app?vid=94a4fee8-2a94-4856-aa19-19c619f6f294","ios":"levelo://app?vid=94a4fee8-2a94-4856-aa19-19c619f6f294"},"vehicle_type_id":"4","last_reported":1777049593,"current_range_meters":4000,"station_id":"ce4bhi12rcd13ifvqfq0","pricing_plan_id":"cebpf4jnsgd1na2vs0mg"},{"bike_id":"36f8212c-34c3-4ad4-9d69-b2628b26e73b","system_id":"levelo_inurba_marseille","lat":43.30885,"lon":5.38905,"is_reserved":false,"is_disabled":false,"rental_uris":{"android":"levelo://app?vid=36f8212c-34c3-4ad4-9d69-b2628b26e73b","ios":"levelo://app?vid=36f8212c-34c3-4ad4-9d69-b2628b26e73b"},"vehicle_type_id":"4","last_reported":1777049593,"current_range_meters":4000,"station_id":"ce4bgup2rcd13ifvqco0","pricing_plan_id":"cebpf4jnsgd1na2vs0mg"},{"bike_id":"39b40a4c-d1b0-4c4d-a546-e18eaaa78098","system_id":"levelo_inurba_marseille","lat":43.298,"lon":5.381,"is_reserved":false,"is_disabled":false,"rental_uris":{"android":"levelo://app?vid=39b40a4c-d1b0-4c4d-a546-e18eaaa78098","ios":"levelo://app?vid=39b40a4c-d1b0-4c4d-a546-e18eaaa78098"},"vehicle_type_id":"4","last_reported":1777049593,"current_range_meters":4000,"station_id":"ce4bgip2rcd13ifvqbb0","pricing_plan_id":"cebpf4jnsgd1na2vs0mg"},{"bike_id":"80d34ee4-9695-41ba-bcd8-fb44ac5753a6","system_id":"levelo_inurba_marseille","lat":43.28536,"lon":5.44101,"is_reserved":false,"is_disabled":false,"rental_uris":{"android":"levelo://app?vid=80d34ee4-9695-41ba-bcd8-fb44ac5753a6","ios":"levelo://app?vid=80d34ee4-9695-41ba-bcd8-fb44ac5753a6"},"vehicle_type_id":"4","last_reported":1777049593,"current_range_meters":4000,"station_id":"st_d3j3df2ikq2c7380ej80","pricing_plan_id":"cebpf4jnsgd1na2vs0mg"},{"bike_id":"20c3670a-57f9-4aca-b674-acf22d26b0f8","system_id":"levelo_inurba_marseille","lat":43.23954,"lon":5.3663,"is_reserved":false,"is_disabled":true,"rental_uris":{"android":"levelo://app?vid=20c3670a-57f9-4aca-b674-acf22d26b0f8","ios":"levelo://app?vid=20c3670a-57f9-4aca-b674-acf22d26b0f8"},"vehicle_type_id":"4","last_reported":1777049593,"current_range_meters":4400,"station_id":"ce4bhi12rcd13ifvqfp0","pricing_plan_id":"cebpf4jnsgd1na2vs0mg"},{"bike_id":"0ccb9bd9-5564-41ae-8c3a-1edde6e9d529","system_id":"levelo_inurba_marseille","lat":43.26197,"lon":5.37442,"is_reserved":false,"is_disabled":false,"rental_uris":{"android":"levelo://app?vid=0ccb9bd9-5564-41ae-8c3a-1edde6e9d529","ios":"levelo://app?vid=0ccb9bd9-5564-41ae-8c3a-1edde6e9d529"},"vehicle_type_id":"4","last_reported":1777049593,"current_range_meters":4400,"station_id":"ce4bhgp2rcd13ifvqfc0","pricing_plan_id":"cebpf4jnsgd1na2vs0mg"},{"bike_id":"fd896b9f-b50c-4920-a794-7e68968d3f46","system_id":"levelo_inurba_marseille","lat":43.29253,"lon":5.36864,"is_reserved":false,"is_disabled":false,"rental_uris":{"android":"levelo://app?vid=fd896b9f-b50c-4920-a794-7e68968d3f46","ios":"levelo://app?vid=fd896b9f-b50c-4920-a794-7e68968d3f46"},"vehicle_type_id":"4","last_reported":1777049593,"current_range_meters":4400,"station_id":"ce4bhbp2rcd13ifvqesg","pricing_plan_id":"cebpf4jnsgd1na2vs0mg"},{"bike_id":"60be4b0d-4c83-4300-8220-7b23e159ba6b","system_id":"levelo_inurba_marseille","lat":43.24804,"lon":5.37455,"is_reserved":false,"is_disabled":false,"rental_uris":{"android":"levelo://app?vid=60be4b0d-4c83-4300-8220-7b23e159ba6b","ios":"levelo://app?vid=60be4b0d-4c83-4300-8220-7b23e159ba6b"},"vehicle_type_id":"4","last_reported":1777049593,"current_range_meters":4400,"station_id":"ce4bhgh2rcd13ifvqfb0","pricing_plan_id":"cebpf4jnsgd1na2vs0mg"},{"bike_id":"3e203c9b-30bd-44ff-a5e4-a4c2c21f28e5","system_id":"levelo_inurba_marseille","lat":43.28609,"lon":5.37071,"is_reserved":false,"is_disabled":false,"rental_uris":{"android":"levelo://app?vid=3e203c9b-30bd-44ff-a5e4-a4c2c21f28e5","ios":"levelo://app?vid=3e203c9b-30bd-44ff-a5e4-a4c2c21f28e5"},"vehicle_type_id":"4","last_reported":1777049593,"current_range_meters":4400,"station_id":"ce4bht12rcd13ifvqi60","pricing_plan_id":"cebpf4jnsgd1na2vs0mg"},{"bike_id":"b2690d37-293b-40be-acb1-b0ae7d3bbfe3","system_id":"levelo_inurba_marseille","lat":43.28407,"lon":5.34986,"is_reserved":false,"is_disabled":false,"rental_uris":{"android":"levelo://app?vid=b2690d37-293b-40be-acb1-b0ae7d3bbfe3","ios":"levelo://app?vid=b2690d37-293b-40be-acb1-b0ae7d3bbfe3"},"vehicle_type_id":"4","last_reported":1777049593,"current_range_meters":4400,"station_id":"ce4bhbh2rcd13ifvqepg","pricing_plan_id":"cebpf4jnsgd1na2vs0mg"},{"bike_id":"317213aa-694d-4877-9dcc-586bcc282c8c","system_id":"levelo_inurba_marseille","lat":43.28702,"lon":5.46688,"is_reserved":false,"is_disabled":false,"rental_uris":{"android":"levelo://app?vid=317213aa-694d-4877-9dcc-586bcc282c8c","ios":"levelo://app?vid=317213aa-694d-4877-9dcc-586bcc282c8c"},"vehicle_type_id":"4","last_reported":1777049593,"current_range_meters":4400,"station_id":"st_d6tc3vkotcvc738tfjhg","pricing_plan_id":"cebpf4jnsgd1na2vs0mg"},{"bike_id":"86c9ead0-ec5b-46b1-b8b3-a228a640df87","system_id":"levelo_inurba_marseille","lat":43.26546,"lon":5.37291,"is_reserved":false,"is_disabled":false,"rental_uris":{"android":"levelo://app?vid=86c9ead0-ec5b-46b1-b8b3-a228a640df87","ios":"levelo://app?vid=86c9ead0-ec5b-46b1-b8b3-a228a640df87"},"vehicle_type_id":"4","last_reported":1777049593,"current_range_meters":4800,"station_id":"ce4bhg12rcd13ifvqf70","pricing_plan_id":"cebpf4jnsgd1na2vs0mg"},{"bike_id":"e955befa-7f03-4ca8-983b-12a59736b946","system_id":"levelo_inurba_marseille","lat":43.30941,"lon":5.39035,"is_reserved":false,"is_disabled":false,"rental_uris":{"android":"levelo://app?vid=e955befa-7f03-4ca8-983b-12a59736b946","ios":"levelo://app?vid=e955befa-7f03-4ca8-983b-12a59736b946"},"vehicle_type_id":"4","last_reported":1777049593,"current_range_meters":4800,"station_id":"ce4bgup2rcd13ifvqco0","pricing_plan_id":"cebpf4jnsgd1na2vs0mg"},{"bike_id":"ecdd1e60-1fc1-490d-889b-d83c1e7933b8","system_id":"levelo_inurba_marseille","lat":43.23964,"lon":5.36668,"is_reserved":false,"is_disabled":false,"rental_uris":{"android":"levelo://app?vid=ecdd1e60-1fc1-490d-889b-d83c1e7933b8","ios":"levelo://app?vid=ecdd1e60-1fc1-490d-889b-d83c1e7933b8"},"vehicle_type_id":"4","last_reported":1777049593,"current_range_meters":4800,"station_id":"ce4bhi12rcd13ifvqfp0","pricing_plan_id":"cebpf4jnsgd1na2vs0mg"},{"bike_id":"6180becc-b7c0-4d8a-a9da-46c1cf2430b3","system_id":"levelo_inurba_marseille","lat":43.29243,"lon":5.36082,"is_reserved":false,"is_disabled":false,"rental_uris":{"android":"levelo://app?vid=6180becc-b7c0-4d8a-a9da-46c1cf2430b3","ios":"levelo://app?vid=6180becc-b7c0-4d8a-a9da-46c1cf2430b3"},"vehicle_type_id":"4","last_reported":1777049593,"current_range_meters":4800,"station_id":"ce4bhbh2rcd13ifvqeqg","pricing_plan_id":"cebpf4jnsgd1na2vs0mg"},{"bike_id":"d93acc60-54b6-4706-a1a9-bb07ee0a9561","system_id":"levelo_inurba_marseille","lat":43.28401,"lon":5.37534,"is_reserved":false,"is_disabled":false,"rental_uris":{"android":"levelo://app?vid=d93acc60-54b6-4706-a1a9-bb07ee0a9561","ios":"levelo://app?vid=d93acc60-54b6-4706-a1a9-bb07ee0a9561"},"vehicle_type_id":"4","last_reported":1777049593,"current_range_meters":4800,"station_id":"ce4bh412rcd13ifvqds0","pricing_plan_id":"cebpf4jnsgd1na2vs0mg"},{"bike_id":"ea3c1786-161a-49ba-9999-4db433e959c3","system_id":"levelo_inurba_marseille","lat":43.24472,"lon":5.40933,"is_reserved":false,"is_disabled":false,"rental_uris":{"android":"levelo://app?vid=ea3c1786-161a-49ba-9999-4db433e959c3","ios":"levelo://app?vid=ea3c1786-161a-49ba-9999-4db433e959c3"},"vehicle_type_id":"4","last_reported":1777049593,"current_range_meters":4800,"station_id":"","pricing_plan_id":"cebpf4jnsgd1na2vs0mg"},{"bike_id":"6f324911-5d64-4f3e-8d1e-8a1084307712","system_id":"levelo_inurba_marseille","lat":43.27376,"lon":5.36274,"is_reserved":false,"is_disabled":false,"rental_uris":{"android":"levelo://app?vid=6f324911-5d64-4f3e-8d1e-8a1084307712","ios":"levelo://app?vid=6f324911-5d64-4f3e-8d1e-8a1084307712"},"vehicle_type_id":"4","last_reported":1777049593,"current_range_meters":4800,"station_id":"ce4bhbh2rcd13ifvqeo0","pricing_plan_id":"cebpf4jnsgd1na2vs0mg"},{"bike_id":"718d33bd-f988-4321-abaf-6f25a3b6a05b","system_id":"levelo_inurba_marseille","lat":43.28713,"lon":5.37928,"is_reserved":false,"is_disabled":false,"rental_uris":{"android":"levelo://app?vid=718d33bd-f988-4321-abaf-6f25a3b6a05b","ios":"levelo://app?vid=718d33bd-f988-4321-abaf-6f25a3b6a05b"},"vehicle_type_id":"4","last_reported":1777049593,"current_range_meters":4800,"station_id":"ce4bh9p2rcd13ifvqec0","pricing_plan_id":"cebpf4jnsgd1na2vs0mg"},{"bike_id":"b8bb6e35-ee6f-439c-86eb-ed5c0de9be80","system_id":"levelo_inurba_marseille","lat":43.22572,"lon":5.41662,"is_reserved":false,"is_disabled":false,"rental_uris":{"android":"levelo://app?vid=b8bb6e35-ee6f-439c-86eb-ed5c0de9be80","ios":"levelo://app?vid=b8bb6e35-ee6f-439c-86eb-ed5c0de9be80"},"vehicle_type_id":"4","last_reported":1777049593,"current_range_meters":4800,"station_id":"st_d2o4gvlbi1j2169b742g","pricing_plan_id":"cebpf4jnsgd1na2vs0mg"},{"bike_id":"2dbf245d-a946-4204-a067-79005ddc189d","system_id":"levelo_inurba_marseille","lat":43.29889,"lon":5.38896,"is_reserved":false,"is_disabled":false,"rental_uris":{"android":"levelo://app?vid=2dbf245d-a946-4204-a067-79005ddc189d","ios":"levelo://app?vid=2dbf245d-a946-4204-a067-79005ddc189d"},"vehicle_type_id":"4","last_reported":1777049593,"current_range_meters":4800,"station_id":"ce4bh392rcd13ifvqdl0","pricing_plan_id":"cebpf4jnsgd1na2vs0mg"},{"bike_id":"1f677656-8c55-4fa3-8e9d-b77cfde4346a","system_id":"levelo_inurba_marseille","lat":43.26567,"lon":5.40327,"is_reserved":false,"is_disabled":false,"rental_uris":{"android":"levelo://app?vid=1f677656-8c55-4fa3-8e9d-b77cfde4346a","ios":"levelo://app?vid=1f677656-8c55-4fa3-8e9d-b77cfde4346a"},"vehicle_type_id":"4","last_reported":1777049593,"current_range_meters":4800,"station_id":"ce4bhmp2rcd13ifvqgng","pricing_plan_id":"cebpf4jnsgd1na2vs0mg"},{"bike_id":"956c58a7-4728-49d7-bbb2-87eba2039f4e","system_id":"levelo_inurba_marseille","lat":43.30887,"lon":5.39645,"is_reserved":false,"is_disabled":false,"rental_uris":{"android":"levelo://app?vid=956c58a7-4728-49d7-bbb2-87eba2039f4e","ios":"levelo://app?vid=956c58a7-4728-49d7-bbb2-87eba2039f4e"},"vehicle_type_id":"4","last_reported":1777049593,"current_range_meters":4800,"station_id":"ce4bh012rcd13ifvqcv0","pricing_plan_id":"cebpf4jnsgd1na2vs0mg"},{"bike_id":"11fc0a40-5809-4d74-9895-cb2a763352d4","system_id":"levelo_inurba_marseille","lat":43.26935,"lon":5.3892,"is_reserved":false,"is_disabled":false,"rental_uris":{"android":"levelo://app?vid=11fc0a40-5809-4d74-9895-cb2a763352d4","ios":"levelo://app?vid=11fc0a40-5809-4d74-9895-cb2a763352d4"},"vehicle_type_id":"4","last_reported":1777049593,"current_range_meters":4800,"station_id":"ce4bhhh2rcd13ifvqfl0","pricing_plan_id":"cebpf4jnsgd1na2vs0mg"},{"bike_id":"9aef7881-92dd-40a4-a93f-e08a37d75410","system_id":"levelo_inurba_marseille","lat":43.24072,"lon":5.37764,"is_reserved":false,"is_disabled":false,"rental_uris":{"android":"levelo://app?vid=9aef7881-92dd-40a4-a93f-e08a37d75410","ios":"levelo://app?vid=9aef7881-92dd-40a4-a93f-e08a37d75410"},"vehicle_type_id":"4","last_reported":1777049593,"current_range_meters":4800,"station_id":"ce4bhnp2rcd13ifvqgvg","pricing_plan_id":"cebpf4jnsgd1na2vs0mg"},{"bike_id":"ba404336-cb56-457b-a368-546d2d3fb404","system_id":"levelo_inurba_marseille","lat":43.23966,"lon":5.36634,"is_reserved":false,"is_disabled":false,"rental_uris":{"android":"levelo://app?vid=ba404336-cb56-457b-a368-546d2d3fb404","ios":"levelo://app?vid=ba404336-cb56-457b-a368-546d2d3fb404"},"vehicle_type_id":"4","last_reported":1777049593,"current_range_meters":5600,"station_id":"ce4bhi12rcd13ifvqfp0","pricing_plan_id":"cebpf4jnsgd1na2vs0mg"},{"bike_id":"53d0b464-9d84-4ebb-a788-233487c8451c","system_id":"levelo_inurba_marseille","lat":43.33261,"lon":5.37783,"is_reserved":false,"is_disabled":false,"rental_uris":{"android":"levelo://app?vid=53d0b464-9d84-4ebb-a788-233487c8451c","ios":"levelo://app?vid=53d0b464-9d84-4ebb-a788-233487c8451c"},"vehicle_type_id":"4","last_reported":1777049593,"current_range_meters":5600,"station_id":"","pricing_plan_id":"cebpf4jnsgd1na2vs0mg"},{"bike_id":"91889499-4844-46b1-ac07-db3a8bcdf22f","system_id":"levelo_inurba_marseille","lat":43.28615,"lon":5.35099,"is_reserved":false,"is_disabled":false,"rental_uris":{"android":"levelo://app?vid=91889499-4844-46b1-ac07-db3a8bcdf22f","ios":"levelo://app?vid=91889499-4844-46b1-ac07-db3a8bcdf22f"},"vehicle_type_id":"4","last_reported":1777049593,"current_range_meters":5600,"station_id":"ce4bhch2rcd13ifvqeug","pricing_plan_id":"cebpf4jnsgd1na2vs0mg"},{"bike_id":"b41c0e18-5c4a-4fbc-9482-5f11d115e1b4","system_id":"levelo_inurba_marseille","lat":43.25485,"lon":5.37663,"is_reserved":false,"is_disabled":false,"rental_uris":{"android":"levelo://app?vid=b41c0e18-5c4a-4fbc-9482-5f11d115e1b4","ios":"levelo://app?vid=b41c0e18-5c4a-4fbc-9482-5f11d115e1b4"},"vehicle_type_id":"4","last_reported":1777049593,"current_range_meters":5600,"station_id":"ce4bhh12rcd13ifvqff0","pricing_plan_id":"cebpf4jnsgd1na2vs0mg"},{"bike_id":"eb54d19c-192d-4b9f-8d7f-dd3accd1602e","system_id":"levelo_inurba_marseille","lat":43.24807,"lon":5.37457,"is_reserved":false,"is_disabled":false,"rental_uris":{"android":"levelo://app?vid=eb54d19c-192d-4b9f-8d7f-dd3accd1602e","ios":"levelo://app?vid=eb54d19c-192d-4b9f-8d7f-dd3accd1602e"},"vehicle_type_id":"4","last_reported":1777049593,"current_range_meters":5600,"station_id":"ce4bhgh2rcd13ifvqfb0","pricing_plan_id":"cebpf4jnsgd1na2vs0mg"},{"bike_id":"9ca0556f-f009-4db5-aec0-d1aed8070f7c","system_id":"levelo_inurba_marseille","lat":43.26791,"lon":5.39405,"is_reserved":false,"is_disabled":false,"rental_uris":{"android":"levelo://app?vid=9ca0556f-f009-4db5-aec0-d1aed8070f7c","ios":"levelo://app?vid=9ca0556f-f009-4db5-aec0-d1aed8070f7c"},"vehicle_type_id":"4","last_reported":1777049593,"current_range_meters":5600,"station_id":"ce4bhh12rcd13ifvqfg0","pricing_plan_id":"cebpf4jnsgd1na2vs0mg"},{"bike_id":"c05d70c7-b112-48d9-9143-4ff03e3673ef","system_id":"levelo_inurba_marseille","lat":43.26219,"lon":5.37444,"is_reserved":false,"is_disabled":false,"rental_uris":{"android":"levelo://app?vid=c05d70c7-b112-48d9-9143-4ff03e3673ef","ios":"levelo://app?vid=c05d70c7-b112-48d9-9143-4ff03e3673ef"},"vehicle_type_id":"4","last_reported":1777049593,"current_range_meters":5600,"station_id":"ce4bhgp2rcd13ifvqfc0","pricing_plan_id":"cebpf4jnsgd1na2vs0mg"},{"bike_id":"094e10b7-3d6d-4f88-95c6-228db1fb6472","system_id":"levelo_inurba_marseille","lat":43.28681,"lon":5.38666,"is_reserved":false,"is_disabled":false,"rental_uris":{"android":"levelo://app?vid=094e10b7-3d6d-4f88-95c6-228db1fb6472","ios":"levelo://app?vid=094e10b7-3d6d-4f88-95c6-228db1fb6472"},"vehicle_type_id":"4","last_reported":1777049593,"current_range_meters":5600,"station_id":"ce4bh492rcd13ifvqdug","pricing_plan_id":"cebpf4jnsgd1na2vs0mg"},{"bike_id":"e5b31a3e-a4be-4ad5-9610-205b354f02ad","system_id":"levelo_inurba_marseille","lat":43.30947,"lon":5.39039,"is_reserved":false,"is_disabled":false,"rental_uris":{"android":"levelo://app?vid=e5b31a3e-a4be-4ad5-9610-205b354f02ad","ios":"levelo://app?vid=e5b31a3e-a4be-4ad5-9610-205b354f02ad"},"vehicle_type_id":"4","last_reported":1777049593,"current_range_meters":5600,"station_id":"ce4bgup2rcd13ifvqco0","pricing_plan_id":"cebpf4jnsgd1na2vs0mg"},{"bike_id":"5d8db3c9-b88c-4ca9-88c4-303f3fd1f1ad","system_id":"levelo_inurba_marseille","lat":43.28949,"lon":5.36387,"is_reserved":false,"is_disabled":false,"rental_uris":{"android":"levelo://app?vid=5d8db3c9-b88c-4ca9-88c4-303f3fd1f1ad","ios":"levelo://app?vid=5d8db3c9-b88c-4ca9-88c4-303f3fd1f1ad"},"vehicle_type_id":"4","last_reported":1777049593,"current_range_meters":5600,"station_id":"ce4bhc92rcd13ifvqetg","pricing_plan_id":"cebpf4jnsgd1na2vs0mg"},{"bike_id":"87d155eb-12c3-49e9-a117-b4ed683d4be3","system_id":"levelo_inurba_marseille","lat":43.24168,"lon":5.39712,"is_reserved":false,"is_disabled":false,"rental_uris":{"android":"levelo://app?vid=87d155eb-12c3-49e9-a117-b4ed683d4be3","ios":"levelo://app?vid=87d155eb-12c3-49e9-a117-b4ed683d4be3"},"vehicle_type_id":"4","last_reported":1777049593,"current_range_meters":5600,"station_id":"ce4bhn12rcd13ifvqgpg","pricing_plan_id":"cebpf4jnsgd1na2vs0mg"},{"bike_id":"dc1080d8-bee5-481a-a5a2-6a723a1ce281","system_id":"levelo_inurba_marseille","lat":43.29026,"lon":5.38641,"is_reserved":false,"is_disabled":false,"rental_uris":{"android":"levelo://app?vid=dc1080d8-bee5-481a-a5a2-6a723a1ce281","ios":"levelo://app?vid=dc1080d8-bee5-481a-a5a2-6a723a1ce281"},"vehicle_type_id":"4","last_reported":1777049593,"current_range_meters":5600,"station_id":"ce4bh4p2rcd13ifvqe0g","pricing_plan_id":"cebpf4jnsgd1na2vs0mg"},{"bike_id":"78ae4cef-f11a-40d7-8587-894f0c2d08ee","system_id":"levelo_inurba_marseille","lat":43.29004,"lon":5.35614,"is_reserved":false,"is_disabled":false,"rental_uris":{"android":"levelo://app?vid=78ae4cef-f11a-40d7-8587-894f0c2d08ee","ios":"levelo://app?vid=78ae4cef-f11a-40d7-8587-894f0c2d08ee"},"vehicle_type_id":"4","last_reported":1777049593,"current_range_meters":5600,"station_id":"ce4bhb92rcd13ifvqen0","pricing_plan_id":"cebpf4jnsgd1na2vs0mg"},{"bike_id":"f4ca37fe-ab57-477d-ba83-3300d1c7a31d","system_id":"levelo_inurba_marseille","lat":43.32475,"lon":5.36567,"is_reserved":false,"is_disabled":false,"rental_uris":{"android":"levelo://app?vid=f4ca37fe-ab57-477d-ba83-3300d1c7a31d","ios":"levelo://app?vid=f4ca37fe-ab57-477d-ba83-3300d1c7a31d"},"vehicle_type_id":"4","last_reported":1777049593,"current_range_meters":5600,"station_id":"ce4bhs12rcd13ifvqhvg","pricing_plan_id":"cebpf4jnsgd1na2vs0mg"},{"bike_id":"eb0bc669-27ac-4a41-b200-c9414b34635e","system_id":"levelo_inurba_marseille","lat":43.29256,"lon":5.40914,"is_reserved":false,"is_disabled":true,"rental_uris":{"android":"levelo://app?vid=eb0bc669-27ac-4a41-b200-c9414b34635e","ios":"levelo://app?vid=eb0bc669-27ac-4a41-b200-c9414b34635e"},"vehicle_type_id":"4","last_reported":1777049593,"current_range_meters":6000,"station_id":"ce4bh192rcd13ifvqdc0","pricing_plan_id":"cebpf4jnsgd1na2vs0mg"},{"bike_id":"d23de3ba-9c10-4682-b0aa-6fa3e020d0af","system_id":"levelo_inurba_marseille","lat":43.30309,"lon":5.36875,"is_reserved":false,"is_disabled":false,"rental_uris":{"android":"levelo://app?vid=d23de3ba-9c10-4682-b0aa-6fa3e020d0af","ios":"levelo://app?vid=d23de3ba-9c10-4682-b0aa-6fa3e020d0af"},"vehicle_type_id":"4","last_reported":1777049593,"current_range_meters":6000,"station_id":"ce4bgqh2rcd13ifvqc5g","pricing_plan_id":"cebpf4jnsgd1na2vs0mg"},{"bike_id":"ced7e135-0df2-44f2-bc85-93ece9d2b00c","system_id":"levelo_inurba_marseille","lat":43.28942,"lon":5.3663,"is_reserved":false,"is_disabled":false,"rental_uris":{"android":"levelo://app?vid=ced7e135-0df2-44f2-bc85-93ece9d2b00c","ios":"levelo://app?vid=ced7e135-0df2-44f2-bc85-93ece9d2b00c"},"vehicle_type_id":"4","last_reported":1777049593,"current_range_meters":6000,"station_id":"ce4bhap2rcd13ifvqek0","pricing_plan_id":"cebpf4jnsgd1na2vs0mg"},{"bike_id":"0c22485a-a711-4725-8592-dab240ed7b73","system_id":"levelo_inurba_marseille","lat":43.23972,"lon":5.36677,"is_reserved":false,"is_disabled":false,"rental_uris":{"android":"levelo://app?vid=0c22485a-a711-4725-8592-dab240ed7b73","ios":"levelo://app?vid=0c22485a-a711-4725-8592-dab240ed7b73"},"vehicle_type_id":"4","last_reported":1777049593,"current_range_meters":6000,"station_id":"ce4bhi12rcd13ifvqfp0","pricing_plan_id":"cebpf4jnsgd1na2vs0mg"},{"bike_id":"a3dee876-3af2-46d4-9131-1dd0997e500a","system_id":"levelo_inurba_marseille","lat":43.24391,"lon":5.3707,"is_reserved":false,"is_disabled":true,"rental_uris":{"android":"levelo://app?vid=a3dee876-3af2-46d4-9131-1dd0997e500a","ios":"levelo://app?vid=a3dee876-3af2-46d4-9131-1dd0997e500a"},"vehicle_type_id":"4","last_reported":1777049593,"current_range_meters":6000,"station_id":"ce4bhhh2rcd13ifvqfk0","pricing_plan_id":"cebpf4jnsgd1na2vs0mg"},{"bike_id":"6efae23b-4853-4978-a046-e2118aa389db","system_id":"levelo_inurba_marseille","lat":43.29472,"lon":5.38231,"is_reserved":false,"is_disabled":false,"rental_uris":{"android":"levelo://app?vid=6efae23b-4853-4978-a046-e2118aa389db","ios":"levelo://app?vid=6efae23b-4853-4978-a046-e2118aa389db"},"vehicle_type_id":"4","last_reported":1777049593,"current_range_meters":6000,"station_id":"","pricing_plan_id":"cebpf4jnsgd1na2vs0mg"},{"bike_id":"89cb976b-df3a-46fc-a9ef-0025de561630","system_id":"levelo_inurba_marseille","lat":43.2947,"lon":5.4338,"is_reserved":false,"is_disabled":false,"rental_uris":{"android":"levelo://app?vid=89cb976b-df3a-46fc-a9ef-0025de561630","ios":"levelo://app?vid=89cb976b-df3a-46fc-a9ef-0025de561630"},"vehicle_type_id":"4","last_reported":1777049593,"current_range_meters":6000,"station_id":"","pricing_plan_id":"cebpf4jnsgd1na2vs0mg"},{"bike_id":"250b15a8-ae72-4a04-beeb-15324439784f","system_id":"levelo_inurba_marseille","lat":43.31493,"lon":5.37292,"is_reserved":false,"is_disabled":false,"rental_uris":{"android":"levelo://app?vid=250b15a8-ae72-4a04-beeb-15324439784f","ios":"levelo://app?vid=250b15a8-ae72-4a04-beeb-15324439784f"},"vehicle_type_id":"4","last_reported":1777049593,"current_range_meters":6000,"station_id":"ce4bgt12rcd13ifvqcd0","pricing_plan_id":"cebpf4jnsgd1na2vs0mg"},{"bike_id":"f1730d44-b2ba-4160-93f7-212af8fcf49a","system_id":"levelo_inurba_marseille","lat":43.26209,"lon":5.37465,"is_reserved":false,"is_disabled":false,"rental_uris":{"android":"levelo://app?vid=f1730d44-b2ba-4160-93f7-212af8fcf49a","ios":"levelo://app?vid=f1730d44-b2ba-4160-93f7-212af8fcf49a"},"vehicle_type_id":"4","last_reported":1777049593,"current_range_meters":6000,"station_id":"ce4bhgp2rcd13ifvqfc0","pricing_plan_id":"cebpf4jnsgd1na2vs0mg"},{"bike_id":"a8b7eaa1-6f34-431e-a84f-354312f1ae3a","system_id":"levelo_inurba_marseille","lat":43.240737,"lon":5.377603,"is_reserved":false,"is_disabled":false,"rental_uris":{"android":"levelo://app?vid=a8b7eaa1-6f34-431e-a84f-354312f1ae3a","ios":"levelo://app?vid=a8b7eaa1-6f34-431e-a84f-354312f1ae3a"},"vehicle_type_id":"4","last_reported":1777049593,"current_range_meters":6000,"station_id":"ce4bhnp2rcd13ifvqgvg","pricing_plan_id":"cebpf4jnsgd1na2vs0mg"},{"bike_id":"2f5837b5-417d-4465-9514-c2e400d5dd41","system_id":"levelo_inurba_marseille","lat":43.25328,"lon":5.42168,"is_reserved":false,"is_disabled":false,"rental_uris":{"android":"levelo://app?vid=2f5837b5-417d-4465-9514-c2e400d5dd41","ios":"levelo://app?vid=2f5837b5-417d-4465-9514-c2e400d5dd41"},"vehicle_type_id":"4","last_reported":1777049593,"current_range_meters":6000,"station_id":"st_d2m65c5bi1j21697t3ng","pricing_plan_id":"cebpf4jnsgd1na2vs0mg"},{"bike_id":"bc99bfa9-3520-427a-983a-ed257aae3ce0","system_id":"levelo_inurba_marseille","lat":43.28614,"lon":5.35087,"is_reserved":false,"is_disabled":false,"rental_uris":{"android":"levelo://app?vid=bc99bfa9-3520-427a-983a-ed257aae3ce0","ios":"levelo://app?vid=bc99bfa9-3520-427a-983a-ed257aae3ce0"},"vehicle_type_id":"4","last_reported":1777049593,"current_range_meters":6000,"station_id":"ce4bhch2rcd13ifvqeug","pricing_plan_id":"cebpf4jnsgd1na2vs0mg"},{"bike_id":"27cd71a7-0940-4415-a67f-21597fbf1cd9","system_id":"levelo_inurba_marseille","lat":43.32994,"lon":5.3902,"is_reserved":false,"is_disabled":false,"rental_uris":{"android":"levelo://app?vid=27cd71a7-0940-4415-a67f-21597fbf1cd9","ios":"levelo://app?vid=27cd71a7-0940-4415-a67f-21597fbf1cd9"},"vehicle_type_id":"4","last_reported":1777049593,"current_range_meters":6400,"station_id":"ce4bhr92rcd13ifvqhrg","pricing_plan_id":"cebpf4jnsgd1na2vs0mg"},{"bike_id":"146def8f-c25a-4a36-bb78-c0e04f65294e","system_id":"levelo_inurba_marseille","lat":43.28878,"lon":5.43038,"is_reserved":false,"is_disabled":false,"rental_uris":{"android":"levelo://app?vid=146def8f-c25a-4a36-bb78-c0e04f65294e","ios":"levelo://app?vid=146def8f-c25a-4a36-bb78-c0e04f65294e"},"vehicle_type_id":"4","last_reported":1777049593,"current_range_meters":6400,"station_id":"","pricing_plan_id":"cebpf4jnsgd1na2vs0mg"},{"bike_id":"0c5e6cf9-6b5b-463d-9e82-59e0880fd90a","system_id":"levelo_inurba_marseille","lat":43.30463,"lon":5.37899,"is_reserved":false,"is_disabled":false,"rental_uris":{"android":"levelo://app?vid=0c5e6cf9-6b5b-463d-9e82-59e0880fd90a","ios":"levelo://app?vid=0c5e6cf9-6b5b-463d-9e82-59e0880fd90a"},"vehicle_type_id":"4","last_reported":1777049593,"current_range_meters":6400,"station_id":"ce4bgup2rcd13ifvqcn0","pricing_plan_id":"cebpf4jnsgd1na2vs0mg"},{"bike_id":"2f64cd2b-244b-4255-8ecd-83fcf5765f64","system_id":"levelo_inurba_marseille","lat":43.27901,"lon":5.38011,"is_reserved":false,"is_disabled":false,"rental_uris":{"android":"levelo://app?vid=2f64cd2b-244b-4255-8ecd-83fcf5765f64","ios":"levelo://app?vid=2f64cd2b-244b-4255-8ecd-83fcf5765f64"},"vehicle_type_id":"4","last_reported":1777049593,"current_range_meters":6400,"station_id":"ce4bhf92rcd13ifvqf50","pricing_plan_id":"cebpf4jnsgd1na2vs0mg"},{"bike_id":"1271dd10-76a9-492a-8c22-c3d053d6c607","system_id":"levelo_inurba_marseille","lat":43.29719,"lon":5.37697,"is_reserved":false,"is_disabled":false,"rental_uris":{"android":"levelo://app?vid=1271dd10-76a9-492a-8c22-c3d053d6c607","ios":"levelo://app?vid=1271dd10-76a9-492a-8c22-c3d053d6c607"},"vehicle_type_id":"4","last_reported":1777049593,"current_range_meters":6400,"station_id":"ce4bgkh2rcd13ifvqbl0","pricing_plan_id":"cebpf4jnsgd1na2vs0mg"},{"bike_id":"c025fe4d-f167-4f80-bde7-0dfb9be7b37b","system_id":"levelo_inurba_marseille","lat":43.28471,"lon":5.48383,"is_reserved":false,"is_disabled":false,"rental_uris":{"android":"levelo://app?vid=c025fe4d-f167-4f80-bde7-0dfb9be7b37b","ios":"levelo://app?vid=c025fe4d-f167-4f80-bde7-0dfb9be7b37b"},"vehicle_type_id":"4","last_reported":1777049593,"current_range_meters":6400,"station_id":"","pricing_plan_id":"cebpf4jnsgd1na2vs0mg"},{"bike_id":"6a979988-2dd0-41f2-9c5f-0c6cc10fba5f","system_id":"levelo_inurba_marseille","lat":43.24201,"lon":5.36407,"is_reserved":false,"is_disabled":false,"rental_uris":{"android":"levelo://app?vid=6a979988-2dd0-41f2-9c5f-0c6cc10fba5f","ios":"levelo://app?vid=6a979988-2dd0-41f2-9c5f-0c6cc10fba5f"},"vehicle_type_id":"4","last_reported":1777049593,"current_range_meters":6400,"station_id":"cpo36qri1sfpv3e86is0","pricing_plan_id":"cebpf4jnsgd1na2vs0mg"},{"bike_id":"001ed0b6-f80d-40bc-93ea-a2f882ed6577","system_id":"levelo_inurba_marseille","lat":43.31116,"lon":5.37791,"is_reserved":false,"is_disabled":true,"rental_uris":{"android":"levelo://app?vid=001ed0b6-f80d-40bc-93ea-a2f882ed6577","ios":"levelo://app?vid=001ed0b6-f80d-40bc-93ea-a2f882ed6577"},"vehicle_type_id":"4","last_reported":1777049593,"current_range_meters":6400,"station_id":"ce4bgt92rcd13ifvqcg0","pricing_plan_id":"cebpf4jnsgd1na2vs0mg"},{"bike_id":"211d3832-a369-4847-951e-54a01ba86b5f","system_id":"levelo_inurba_marseille","lat":43.30323,"lon":5.40439,"is_reserved":false,"is_disabled":false,"rental_uris":{"android":"levelo://app?vid=211d3832-a369-4847-951e-54a01ba86b5f","ios":"levelo://app?vid=211d3832-a369-4847-951e-54a01ba86b5f"},"vehicle_type_id":"4","last_reported":1777049593,"current_range_meters":6400,"station_id":"ce4bh012rcd13ifvqd10","pricing_plan_id":"cebpf4jnsgd1na2vs0mg"},{"bike_id":"3c223a3d-782b-4421-83ce-5c01363f2de5","system_id":"levelo_inurba_marseille","lat":43.26194,"lon":5.37451,"is_reserved":false,"is_disabled":false,"rental_uris":{"android":"levelo://app?vid=3c223a3d-782b-4421-83ce-5c01363f2de5","ios":"levelo://app?vid=3c223a3d-782b-4421-83ce-5c01363f2de5"},"vehicle_type_id":"4","last_reported":1777049593,"current_range_meters":6400,"station_id":"ce4bhgp2rcd13ifvqfc0","pricing_plan_id":"cebpf4jnsgd1na2vs0mg"},{"bike_id":"a789dc48-2c32-433b-bbaa-653a6ecfb599","system_id":"levelo_inurba_marseille","lat":43.28411,"lon":5.37504,"is_reserved":false,"is_disabled":false,"rental_uris":{"android":"levelo://app?vid=a789dc48-2c32-433b-bbaa-653a6ecfb599","ios":"levelo://app?vid=a789dc48-2c32-433b-bbaa-653a6ecfb599"},"vehicle_type_id":"4","last_reported":1777049593,"current_range_meters":6400,"station_id":"ce4bh412rcd13ifvqds0","pricing_plan_id":"cebpf4jnsgd1na2vs0mg"},{"bike_id":"dd2047c2-bb91-49cf-b349-a50990a16979","system_id":"levelo_inurba_marseille","lat":43.29024,"lon":5.38119,"is_reserved":false,"is_disabled":true,"rental_uris":{"android":"levelo://app?vid=dd2047c2-bb91-49cf-b349-a50990a16979","ios":"levelo://app?vid=dd2047c2-bb91-49cf-b349-a50990a16979"},"vehicle_type_id":"4","last_reported":1777049593,"current_range_meters":6400,"station_id":"ce4bh4p2rcd13ifvqe1g","pricing_plan_id":"cebpf4jnsgd1na2vs0mg"},{"bike_id":"2c928ab0-5758-40e1-958a-36df62b693aa","system_id":"levelo_inurba_marseille","lat":43.27635,"lon":5.36113,"is_reserved":false,"is_disabled":false,"rental_uris":{"android":"levelo://app?vid=2c928ab0-5758-40e1-958a-36df62b693aa","ios":"levelo://app?vid=2c928ab0-5758-40e1-958a-36df62b693aa"},"vehicle_type_id":"4","last_reported":1777049593,"current_range_meters":6400,"station_id":"ce4bgj92rcd13ifvqbe0","pricing_plan_id":"cebpf4jnsgd1na2vs0mg"},{"bike_id":"810e993b-31dd-40e9-8c39-78f5f6903150","system_id":"levelo_inurba_marseille","lat":43.2755,"lon":5.38409,"is_reserved":false,"is_disabled":false,"rental_uris":{"android":"levelo://app?vid=810e993b-31dd-40e9-8c39-78f5f6903150","ios":"levelo://app?vid=810e993b-31dd-40e9-8c39-78f5f6903150"},"vehicle_type_id":"4","last_reported":1777049593,"current_range_meters":6400,"station_id":"ce4bhh92rcd13ifvqfi0","pricing_plan_id":"cebpf4jnsgd1na2vs0mg"},{"bike_id":"4f8fed25-7b13-4aa2-8e3d-78bb58d76aa1","system_id":"levelo_inurba_marseille","lat":43.28456,"lon":5.35878,"is_reserved":false,"is_disabled":false,"rental_uris":{"android":"levelo://app?vid=4f8fed25-7b13-4aa2-8e3d-78bb58d76aa1","ios":"levelo://app?vid=4f8fed25-7b13-4aa2-8e3d-78bb58d76aa1"},"vehicle_type_id":"4","last_reported":1777049593,"current_range_meters":6400,"station_id":"ce4bhah2rcd13ifvqei0","pricing_plan_id":"cebpf4jnsgd1na2vs0mg"},{"bike_id":"2a4e9472-0c14-4d1e-afb5-1fe71b50ba28","system_id":"levelo_inurba_marseille","lat":43.29298,"lon":5.3718,"is_reserved":false,"is_disabled":false,"rental_uris":{"android":"levelo://app?vid=2a4e9472-0c14-4d1e-afb5-1fe71b50ba28","ios":"levelo://app?vid=2a4e9472-0c14-4d1e-afb5-1fe71b50ba28"},"vehicle_type_id":"4","last_reported":1777049593,"current_range_meters":6400,"station_id":"ce4bgh92rcd13ifvqb40","pricing_plan_id":"cebpf4jnsgd1na2vs0mg"},{"bike_id":"743480d9-1285-42ae-a6c2-b3d8ae41ce11","system_id":"levelo_inurba_marseille","lat":43.26029,"lon":5.37548,"is_reserved":false,"is_disabled":false,"rental_uris":{"android":"levelo://app?vid=743480d9-1285-42ae-a6c2-b3d8ae41ce11","ios":"levelo://app?vid=743480d9-1285-42ae-a6c2-b3d8ae41ce11"},"vehicle_type_id":"4","last_reported":1777049593,"current_range_meters":6800,"station_id":"ce4bhgh2rcd13ifvqfa0","pricing_plan_id":"cebpf4jnsgd1na2vs0mg"},{"bike_id":"a9834bb9-8134-44a7-b21b-a290a21660cc","system_id":"levelo_inurba_marseille","lat":43.30457,"lon":5.38871,"is_reserved":false,"is_disabled":false,"rental_uris":{"android":"levelo://app?vid=a9834bb9-8134-44a7-b21b-a290a21660cc","ios":"levelo://app?vid=a9834bb9-8134-44a7-b21b-a290a21660cc"},"vehicle_type_id":"4","last_reported":1777049593,"current_range_meters":6800,"station_id":"ce4bgk12rcd13ifvqbi0","pricing_plan_id":"cebpf4jnsgd1na2vs0mg"},{"bike_id":"aa897415-67a0-4b07-b64e-cbc8da7d4792","system_id":"levelo_inurba_marseille","lat":43.24183,"lon":5.36389,"is_reserved":false,"is_disabled":false,"rental_uris":{"android":"levelo://app?vid=aa897415-67a0-4b07-b64e-cbc8da7d4792","ios":"levelo://app?vid=aa897415-67a0-4b07-b64e-cbc8da7d4792"},"vehicle_type_id":"4","last_reported":1777049593,"current_range_meters":6800,"station_id":"cpo36qri1sfpv3e86is0","pricing_plan_id":"cebpf4jnsgd1na2vs0mg"},{"bike_id":"03d50329-e768-413f-8f2a-24897a3a945b","system_id":"levelo_inurba_marseille","lat":43.24813,"lon":5.37458,"is_reserved":false,"is_disabled":false,"rental_uris":{"android":"levelo://app?vid=03d50329-e768-413f-8f2a-24897a3a945b","ios":"levelo://app?vid=03d50329-e768-413f-8f2a-24897a3a945b"},"vehicle_type_id":"4","last_reported":1777049593,"current_range_meters":6800,"station_id":"ce4bhgh2rcd13ifvqfb0","pricing_plan_id":"cebpf4jnsgd1na2vs0mg"},{"bike_id":"9f6018ab-1212-40be-bf4a-4f430cf78a2b","system_id":"levelo_inurba_marseille","lat":43.29531,"lon":5.37511,"is_reserved":false,"is_disabled":false,"rental_uris":{"android":"levelo://app?vid=9f6018ab-1212-40be-bf4a-4f430cf78a2b","ios":"levelo://app?vid=9f6018ab-1212-40be-bf4a-4f430cf78a2b"},"vehicle_type_id":"4","last_reported":1777049593,"current_range_meters":6800,"station_id":"ce4bgkp2rcd13ifvqbmg","pricing_plan_id":"cebpf4jnsgd1na2vs0mg"},{"bike_id":"50b3537d-0369-460e-8281-426df86e0856","system_id":"levelo_inurba_marseille","lat":43.30071,"lon":5.36431,"is_reserved":false,"is_disabled":false,"rental_uris":{"android":"levelo://app?vid=50b3537d-0369-460e-8281-426df86e0856","ios":"levelo://app?vid=50b3537d-0369-460e-8281-426df86e0856"},"vehicle_type_id":"4","last_reported":1777049593,"current_range_meters":6800,"station_id":"","pricing_plan_id":"cebpf4jnsgd1na2vs0mg"},{"bike_id":"a5e22f0a-7e4d-4b6a-b69c-8c6788d1d750","system_id":"levelo_inurba_marseille","lat":43.29292,"lon":5.37462,"is_reserved":false,"is_disabled":false,"rental_uris":{"android":"levelo://app?vid=a5e22f0a-7e4d-4b6a-b69c-8c6788d1d750","ios":"levelo://app?vid=a5e22f0a-7e4d-4b6a-b69c-8c6788d1d750"},"vehicle_type_id":"4","last_reported":1777049593,"current_range_meters":6800,"station_id":"ce4bgi12rcd13ifvqb70","pricing_plan_id":"cebpf4jnsgd1na2vs0mg"},{"bike_id":"e8d6ce3d-1aa9-47ef-9b48-93862ee5f7fd","system_id":"levelo_inurba_marseille","lat":43.21266,"lon":5.35405,"is_reserved":false,"is_disabled":false,"rental_uris":{"android":"levelo://app?vid=e8d6ce3d-1aa9-47ef-9b48-93862ee5f7fd","ios":"levelo://app?vid=e8d6ce3d-1aa9-47ef-9b48-93862ee5f7fd"},"vehicle_type_id":"4","last_reported":1777049593,"current_range_meters":6800,"station_id":"","pricing_plan_id":"cebpf4jnsgd1na2vs0mg"},{"bike_id":"cb035ff8-d2a1-4635-925d-e2af061ab0ff","system_id":"levelo_inurba_marseille","lat":43.26559,"lon":5.37276,"is_reserved":false,"is_disabled":false,"rental_uris":{"android":"levelo://app?vid=cb035ff8-d2a1-4635-925d-e2af061ab0ff","ios":"levelo://app?vid=cb035ff8-d2a1-4635-925d-e2af061ab0ff"},"vehicle_type_id":"4","last_reported":1777049593,"current_range_meters":6800,"station_id":"ce4bhg12rcd13ifvqf70","pricing_plan_id":"cebpf4jnsgd1na2vs0mg"},{"bike_id":"95a9a5b5-a006-4a3d-b08b-6ad4f00a6401","system_id":"levelo_inurba_marseille","lat":43.32033,"lon":5.41528,"is_reserved":false,"is_disabled":false,"rental_uris":{"android":"levelo://app?vid=95a9a5b5-a006-4a3d-b08b-6ad4f00a6401","ios":"levelo://app?vid=95a9a5b5-a006-4a3d-b08b-6ad4f00a6401"},"vehicle_type_id":"4","last_reported":1777049593,"current_range_meters":6800,"station_id":"ce4bhq92rcd13ifvqhkg","pricing_plan_id":"cebpf4jnsgd1na2vs0mg"},{"bike_id":"31807bc1-1629-4461-b62e-dc21ba26ef45","system_id":"levelo_inurba_marseille","lat":43.21754,"lon":5.34609,"is_reserved":false,"is_disabled":false,"rental_uris":{"android":"levelo://app?vid=31807bc1-1629-4461-b62e-dc21ba26ef45","ios":"levelo://app?vid=31807bc1-1629-4461-b62e-dc21ba26ef45"},"vehicle_type_id":"4","last_reported":1777049593,"current_range_meters":7200,"station_id":"st_cvj6r9ubvosntc0bgbag","pricing_plan_id":"cebpf4jnsgd1na2vs0mg"},{"bike_id":"fbad382b-d0e0-4b4d-b7e9-7eaeef0c00e6","system_id":"levelo_inurba_marseille","lat":43.25659,"lon":5.39003,"is_reserved":false,"is_disabled":false,"rental_uris":{"android":"levelo://app?vid=fbad382b-d0e0-4b4d-b7e9-7eaeef0c00e6","ios":"levelo://app?vid=fbad382b-d0e0-4b4d-b7e9-7eaeef0c00e6"},"vehicle_type_id":"4","last_reported":1777049593,"current_range_meters":7200,"station_id":"","pricing_plan_id":"cebpf4jnsgd1na2vs0mg"},{"bike_id":"c4a6cf3f-a5b9-43d7-91d0-4da564433a66","system_id":"levelo_inurba_marseille","lat":43.30137,"lon":5.3739,"is_reserved":false,"is_disabled":false,"rental_uris":{"android":"levelo://app?vid=c4a6cf3f-a5b9-43d7-91d0-4da564433a66","ios":"levelo://app?vid=c4a6cf3f-a5b9-43d7-91d0-4da564433a66"},"vehicle_type_id":"4","last_reported":1777049593,"current_range_meters":7200,"station_id":"ce4bgs92rcd13ifvqcc0","pricing_plan_id":"cebpf4jnsgd1na2vs0mg"},{"bike_id":"3762a15a-49a2-4fc6-b2e6-a79b5f91a12f","system_id":"levelo_inurba_marseille","lat":43.28466,"lon":5.48382,"is_reserved":false,"is_disabled":false,"rental_uris":{"android":"levelo://app?vid=3762a15a-49a2-4fc6-b2e6-a79b5f91a12f","ios":"levelo://app?vid=3762a15a-49a2-4fc6-b2e6-a79b5f91a12f"},"vehicle_type_id":"4","last_reported":1777049593,"current_range_meters":7200,"station_id":"","pricing_plan_id":"cebpf4jnsgd1na2vs0mg"},{"bike_id":"8a4d316b-7dfb-42df-8aea-4c7d58210d7a","system_id":"levelo_inurba_marseille","lat":43.31255,"lon":5.43074,"is_reserved":false,"is_disabled":false,"rental_uris":{"android":"levelo://app?vid=8a4d316b-7dfb-42df-8aea-4c7d58210d7a","ios":"levelo://app?vid=8a4d316b-7dfb-42df-8aea-4c7d58210d7a"},"vehicle_type_id":"4","last_reported":1777049593,"current_range_meters":7200,"station_id":"","pricing_plan_id":"cebpf4jnsgd1na2vs0mg"},{"bike_id":"cd21f6c1-a1f8-4978-8025-1d254a6bf514","system_id":"levelo_inurba_marseille","lat":43.28475,"lon":5.4839,"is_reserved":false,"is_disabled":false,"rental_uris":{"android":"levelo://app?vid=cd21f6c1-a1f8-4978-8025-1d254a6bf514","ios":"levelo://app?vid=cd21f6c1-a1f8-4978-8025-1d254a6bf514"},"vehicle_type_id":"4","last_reported":1777049593,"current_range_meters":7200,"station_id":"st_d3svhcjqgbts73a3dn0g","pricing_plan_id":"cebpf4jnsgd1na2vs0mg"},{"bike_id":"b38d89b8-c3c9-4fae-b6f2-09980d89f2e9","system_id":"levelo_inurba_marseille","lat":43.28472,"lon":5.48411,"is_reserved":false,"is_disabled":false,"rental_uris":{"android":"levelo://app?vid=b38d89b8-c3c9-4fae-b6f2-09980d89f2e9","ios":"levelo://app?vid=b38d89b8-c3c9-4fae-b6f2-09980d89f2e9"},"vehicle_type_id":"4","last_reported":1777049593,"current_range_meters":7200,"station_id":"","pricing_plan_id":"cebpf4jnsgd1na2vs0mg"},{"bike_id":"5a0255e7-1579-4072-83a0-d43df24a710e","system_id":"levelo_inurba_marseille","lat":43.29804,"lon":5.38087,"is_reserved":false,"is_disabled":false,"rental_uris":{"android":"levelo://app?vid=5a0255e7-1579-4072-83a0-d43df24a710e","ios":"levelo://app?vid=5a0255e7-1579-4072-83a0-d43df24a710e"},"vehicle_type_id":"4","last_reported":1777049593,"current_range_meters":7200,"station_id":"ce4bgip2rcd13ifvqbb0","pricing_plan_id":"cebpf4jnsgd1na2vs0mg"},{"bike_id":"5607da76-763a-4c03-abaa-325e4b0bd44e","system_id":"levelo_inurba_marseille","lat":43.30777,"lon":5.37651,"is_reserved":false,"is_disabled":false,"rental_uris":{"android":"levelo://app?vid=5607da76-763a-4c03-abaa-325e4b0bd44e","ios":"levelo://app?vid=5607da76-763a-4c03-abaa-325e4b0bd44e"},"vehicle_type_id":"4","last_reported":1777049593,"current_range_meters":7200,"station_id":"ce4bgv92rcd13ifvqcq0","pricing_plan_id":"cebpf4jnsgd1na2vs0mg"},{"bike_id":"21265bbe-9148-49b6-91aa-0c6d5abb958d","system_id":"levelo_inurba_marseille","lat":43.29002,"lon":5.35613,"is_reserved":false,"is_disabled":false,"rental_uris":{"android":"levelo://app?vid=21265bbe-9148-49b6-91aa-0c6d5abb958d","ios":"levelo://app?vid=21265bbe-9148-49b6-91aa-0c6d5abb958d"},"vehicle_type_id":"4","last_reported":1777049593,"current_range_meters":7200,"station_id":"ce4bhb92rcd13ifvqen0","pricing_plan_id":"cebpf4jnsgd1na2vs0mg"},{"bike_id":"b1c3d653-504f-4dac-8757-e904117e1a05","system_id":"levelo_inurba_marseille","lat":43.31719,"lon":5.40453,"is_reserved":false,"is_disabled":false,"rental_uris":{"android":"levelo://app?vid=b1c3d653-504f-4dac-8757-e904117e1a05","ios":"levelo://app?vid=b1c3d653-504f-4dac-8757-e904117e1a05"},"vehicle_type_id":"4","last_reported":1777049593,"current_range_meters":7200,"station_id":"ce4bh012rcd13ifvqd00","pricing_plan_id":"cebpf4jnsgd1na2vs0mg"},{"bike_id":"5ea45e0a-c93d-4bb5-b8a0-fe46ecf96849","system_id":"levelo_inurba_marseille","lat":43.28612,"lon":5.3705,"is_reserved":false,"is_disabled":false,"rental_uris":{"android":"levelo://app?vid=5ea45e0a-c93d-4bb5-b8a0-fe46ecf96849","ios":"levelo://app?vid=5ea45e0a-c93d-4bb5-b8a0-fe46ecf96849"},"vehicle_type_id":"4","last_reported":1777049593,"current_range_meters":7200,"station_id":"ce4bht12rcd13ifvqi60","pricing_plan_id":"cebpf4jnsgd1na2vs0mg"},{"bike_id":"511a07b4-6464-4c78-9aa6-e1013bbe91a1","system_id":"levelo_inurba_marseille","lat":43.32096,"lon":5.36769,"is_reserved":false,"is_disabled":false,"rental_uris":{"android":"levelo://app?vid=511a07b4-6464-4c78-9aa6-e1013bbe91a1","ios":"levelo://app?vid=511a07b4-6464-4c78-9aa6-e1013bbe91a1"},"vehicle_type_id":"4","last_reported":1777049593,"current_range_meters":7200,"station_id":"ce4bhrh2rcd13ifvqhug","pricing_plan_id":"cebpf4jnsgd1na2vs0mg"},{"bike_id":"90fac789-06e9-4c33-94b9-e82543e03c21","system_id":"levelo_inurba_marseille","lat":43.27377,"lon":5.36264,"is_reserved":false,"is_disabled":true,"rental_uris":{"android":"levelo://app?vid=90fac789-06e9-4c33-94b9-e82543e03c21","ios":"levelo://app?vid=90fac789-06e9-4c33-94b9-e82543e03c21"},"vehicle_type_id":"4","last_reported":1777049593,"current_range_meters":7200,"station_id":"ce4bhbh2rcd13ifvqeo0","pricing_plan_id":"cebpf4jnsgd1na2vs0mg"},{"bike_id":"1915812b-fad3-4b94-8ecf-10e9eb8eb06b","system_id":"levelo_inurba_marseille","lat":43.2803,"lon":5.36952,"is_reserved":false,"is_disabled":false,"rental_uris":{"android":"levelo://app?vid=1915812b-fad3-4b94-8ecf-10e9eb8eb06b","ios":"levelo://app?vid=1915812b-fad3-4b94-8ecf-10e9eb8eb06b"},"vehicle_type_id":"4","last_reported":1777049593,"current_range_meters":7200,"station_id":"ce4bha12rcd13ifvqef0","pricing_plan_id":"cebpf4jnsgd1na2vs0mg"},{"bike_id":"1f3906dd-948e-4d18-9bb2-b2fc350fa481","system_id":"levelo_inurba_marseille","lat":43.2742,"lon":5.39401,"is_reserved":false,"is_disabled":true,"rental_uris":{"android":"levelo://app?vid=1f3906dd-948e-4d18-9bb2-b2fc350fa481","ios":"levelo://app?vid=1f3906dd-948e-4d18-9bb2-b2fc350fa481"},"vehicle_type_id":"4","last_reported":1777049593,"current_range_meters":7200,"station_id":"ce4bhdp2rcd13ifvqf20","pricing_plan_id":"cebpf4jnsgd1na2vs0mg"},{"bike_id":"5091d3df-140a-4a96-ba1e-f44ab742c57b","system_id":"levelo_inurba_marseille","lat":43.231773,"lon":5.399958,"is_reserved":false,"is_disabled":true,"rental_uris":{"android":"levelo://app?vid=5091d3df-140a-4a96-ba1e-f44ab742c57b","ios":"levelo://app?vid=5091d3df-140a-4a96-ba1e-f44ab742c57b"},"vehicle_type_id":"4","last_reported":1777049593,"current_range_meters":7200,"station_id":"ce4bhn12rcd13ifvqgqg","pricing_plan_id":"cebpf4jnsgd1na2vs0mg"},{"bike_id":"72afde47-93a1-48ff-8f36-58308dc6379f","system_id":"levelo_inurba_marseille","lat":43.27067,"lon":5.42285,"is_reserved":false,"is_disabled":false,"rental_uris":{"android":"levelo://app?vid=72afde47-93a1-48ff-8f36-58308dc6379f","ios":"levelo://app?vid=72afde47-93a1-48ff-8f36-58308dc6379f"},"vehicle_type_id":"4","last_reported":1777049593,"current_range_meters":7200,"station_id":"ce4bhk92rcd13ifvqgb0","pricing_plan_id":"cebpf4jnsgd1na2vs0mg"},{"bike_id":"1f582608-2655-4ba4-b095-16566a7cd559","system_id":"levelo_inurba_marseille","lat":43.31786,"lon":5.44542,"is_reserved":false,"is_disabled":false,"rental_uris":{"android":"levelo://app?vid=1f582608-2655-4ba4-b095-16566a7cd559","ios":"levelo://app?vid=1f582608-2655-4ba4-b095-16566a7cd559"},"vehicle_type_id":"4","last_reported":1777049593,"current_range_meters":7200,"station_id":"","pricing_plan_id":"cebpf4jnsgd1na2vs0mg"},{"bike_id":"27c42ac1-b3ae-44d2-a7ac-ec95314cb289","system_id":"levelo_inurba_marseille","lat":43.28407,"lon":5.34989,"is_reserved":false,"is_disabled":false,"rental_uris":{"android":"levelo://app?vid=27c42ac1-b3ae-44d2-a7ac-ec95314cb289","ios":"levelo://app?vid=27c42ac1-b3ae-44d2-a7ac-ec95314cb289"},"vehicle_type_id":"4","last_reported":1777049593,"current_range_meters":8000,"station_id":"ce4bhbh2rcd13ifvqepg","pricing_plan_id":"cebpf4jnsgd1na2vs0mg"},{"bike_id":"ca5a4c50-07fb-4bf6-afa2-b0bf8e359ed9","system_id":"levelo_inurba_marseille","lat":43.26217,"lon":5.37441,"is_reserved":false,"is_disabled":false,"rental_uris":{"android":"levelo://app?vid=ca5a4c50-07fb-4bf6-afa2-b0bf8e359ed9","ios":"levelo://app?vid=ca5a4c50-07fb-4bf6-afa2-b0bf8e359ed9"},"vehicle_type_id":"4","last_reported":1777049593,"current_range_meters":8000,"station_id":"ce4bhgp2rcd13ifvqfc0","pricing_plan_id":"cebpf4jnsgd1na2vs0mg"},{"bike_id":"08b04c66-2aee-44d4-bed2-d61b5326e863","system_id":"levelo_inurba_marseille","lat":43.24806,"lon":5.3747,"is_reserved":false,"is_disabled":false,"rental_uris":{"android":"levelo://app?vid=08b04c66-2aee-44d4-bed2-d61b5326e863","ios":"levelo://app?vid=08b04c66-2aee-44d4-bed2-d61b5326e863"},"vehicle_type_id":"4","last_reported":1777049593,"current_range_meters":8000,"station_id":"ce4bhgh2rcd13ifvqfb0","pricing_plan_id":"cebpf4jnsgd1na2vs0mg"},{"bike_id":"b51ac87f-04a3-4bf1-9075-041179aa6f28","system_id":"levelo_inurba_marseille","lat":43.22571,"lon":5.4166,"is_reserved":false,"is_disabled":false,"rental_uris":{"android":"levelo://app?vid=b51ac87f-04a3-4bf1-9075-041179aa6f28","ios":"levelo://app?vid=b51ac87f-04a3-4bf1-9075-041179aa6f28"},"vehicle_type_id":"4","last_reported":1777049593,"current_range_meters":8000,"station_id":"st_d2o4gvlbi1j2169b742g","pricing_plan_id":"cebpf4jnsgd1na2vs0mg"},{"bike_id":"3c68d825-d007-4dc8-877a-8ca32f34be4a","system_id":"levelo_inurba_marseille","lat":43.28421,"lon":5.3501,"is_reserved":false,"is_disabled":false,"rental_uris":{"android":"levelo://app?vid=3c68d825-d007-4dc8-877a-8ca32f34be4a","ios":"levelo://app?vid=3c68d825-d007-4dc8-877a-8ca32f34be4a"},"vehicle_type_id":"4","last_reported":1777049593,"current_range_meters":8000,"station_id":"ce4bhbh2rcd13ifvqepg","pricing_plan_id":"cebpf4jnsgd1na2vs0mg"},{"bike_id":"e8d002b1-199e-4516-8ed6-821a0c98040c","system_id":"levelo_inurba_marseille","lat":43.33788,"lon":5.37482,"is_reserved":false,"is_disabled":false,"rental_uris":{"android":"levelo://app?vid=e8d002b1-199e-4516-8ed6-821a0c98040c","ios":"levelo://app?vid=e8d002b1-199e-4516-8ed6-821a0c98040c"},"vehicle_type_id":"4","last_reported":1777049593,"current_range_meters":8000,"station_id":"st_d46cu089ee8s73dldbu0","pricing_plan_id":"cebpf4jnsgd1na2vs0mg"},{"bike_id":"557f2543-04fd-4ffd-bb67-b3fad21057da","system_id":"levelo_inurba_marseille","lat":43.28412,"lon":5.34999,"is_reserved":false,"is_disabled":false,"rental_uris":{"android":"levelo://app?vid=557f2543-04fd-4ffd-bb67-b3fad21057da","ios":"levelo://app?vid=557f2543-04fd-4ffd-bb67-b3fad21057da"},"vehicle_type_id":"4","last_reported":1777049593,"current_range_meters":8000,"station_id":"ce4bhbh2rcd13ifvqepg","pricing_plan_id":"cebpf4jnsgd1na2vs0mg"},{"bike_id":"d4696f6f-3fe9-4259-b518-0ee598ec391a","system_id":"levelo_inurba_marseille","lat":43.28373,"lon":5.38636,"is_reserved":false,"is_disabled":true,"rental_uris":{"android":"levelo://app?vid=d4696f6f-3fe9-4259-b518-0ee598ec391a","ios":"levelo://app?vid=d4696f6f-3fe9-4259-b518-0ee598ec391a"},"vehicle_type_id":"4","last_reported":1777049593,"current_range_meters":8000,"station_id":"ce4bh492rcd13ifvqdvg","pricing_plan_id":"cebpf4jnsgd1na2vs0mg"},{"bike_id":"6cc883a0-a813-4ebd-aa9f-00c7a25510cb","system_id":"levelo_inurba_marseille","lat":43.2927,"lon":5.36841,"is_reserved":false,"is_disabled":false,"rental_uris":{"android":"levelo://app?vid=6cc883a0-a813-4ebd-aa9f-00c7a25510cb","ios":"levelo://app?vid=6cc883a0-a813-4ebd-aa9f-00c7a25510cb"},"vehicle_type_id":"4","last_reported":1777049593,"current_range_meters":8000,"station_id":"ce4bhbp2rcd13ifvqesg","pricing_plan_id":"cebpf4jnsgd1na2vs0mg"},{"bike_id":"b7923525-4126-4013-8a65-4a24d01d95f4","system_id":"levelo_inurba_marseille","lat":43.26241,"lon":5.40453,"is_reserved":false,"is_disabled":false,"rental_uris":{"android":"levelo://app?vid=b7923525-4126-4013-8a65-4a24d01d95f4","ios":"levelo://app?vid=b7923525-4126-4013-8a65-4a24d01d95f4"},"vehicle_type_id":"4","last_reported":1777049593,"current_range_meters":8000,"station_id":"ce4bhmh2rcd13ifvqgmg","pricing_plan_id":"cebpf4jnsgd1na2vs0mg"},{"bike_id":"e6be81da-81b8-4383-a276-cd00117d75af","system_id":"levelo_inurba_marseille","lat":43.24392,"lon":5.37065,"is_reserved":false,"is_disabled":false,"rental_uris":{"android":"levelo://app?vid=e6be81da-81b8-4383-a276-cd00117d75af","ios":"levelo://app?vid=e6be81da-81b8-4383-a276-cd00117d75af"},"vehicle_type_id":"4","last_reported":1777049593,"current_range_meters":8000,"station_id":"ce4bhhh2rcd13ifvqfk0","pricing_plan_id":"cebpf4jnsgd1na2vs0mg"},{"bike_id":"cf0b623c-dffb-407c-8ea6-ef28cf9071e8","system_id":"levelo_inurba_marseille","lat":43.29579,"lon":5.36737,"is_reserved":false,"is_disabled":false,"rental_uris":{"android":"levelo://app?vid=cf0b623c-dffb-407c-8ea6-ef28cf9071e8","ios":"levelo://app?vid=cf0b623c-dffb-407c-8ea6-ef28cf9071e8"},"vehicle_type_id":"4","last_reported":1777049593,"current_range_meters":8000,"station_id":"ce4bgph2rcd13ifvqc2g","pricing_plan_id":"cebpf4jnsgd1na2vs0mg"},{"bike_id":"ec19aaad-2410-439f-9123-e83fa1c535f8","system_id":"levelo_inurba_marseille","lat":43.28303,"lon":5.37867,"is_reserved":false,"is_disabled":false,"rental_uris":{"android":"levelo://app?vid=ec19aaad-2410-439f-9123-e83fa1c535f8","ios":"levelo://app?vid=ec19aaad-2410-439f-9123-e83fa1c535f8"},"vehicle_type_id":"4","last_reported":1777049593,"current_range_meters":8000,"station_id":"","pricing_plan_id":"cebpf4jnsgd1na2vs0mg"},{"bike_id":"75975f33-383a-4083-bffe-4bdd7aa78a43","system_id":"levelo_inurba_marseille","lat":43.28403,"lon":5.37518,"is_reserved":false,"is_disabled":false,"rental_uris":{"android":"levelo://app?vid=75975f33-383a-4083-bffe-4bdd7aa78a43","ios":"levelo://app?vid=75975f33-383a-4083-bffe-4bdd7aa78a43"},"vehicle_type_id":"4","last_reported":1777049593,"current_range_meters":8000,"station_id":"ce4bh412rcd13ifvqds0","pricing_plan_id":"cebpf4jnsgd1na2vs0mg"},{"bike_id":"525142eb-4707-4efd-a317-84c48314d0aa","system_id":"levelo_inurba_marseille","lat":43.2506,"lon":5.39324,"is_reserved":false,"is_disabled":false,"rental_uris":{"android":"levelo://app?vid=525142eb-4707-4efd-a317-84c48314d0aa","ios":"levelo://app?vid=525142eb-4707-4efd-a317-84c48314d0aa"},"vehicle_type_id":"4","last_reported":1777049593,"current_range_meters":8000,"station_id":"","pricing_plan_id":"cebpf4jnsgd1na2vs0mg"},{"bike_id":"3801a2cd-6605-42f2-9205-9b5f2a5c9709","system_id":"levelo_inurba_marseille","lat":43.287018,"lon":5.373679,"is_reserved":false,"is_disabled":false,"rental_uris":{"android":"levelo://app?vid=3801a2cd-6605-42f2-9205-9b5f2a5c9709","ios":"levelo://app?vid=3801a2cd-6605-42f2-9205-9b5f2a5c9709"},"vehicle_type_id":"4","last_reported":1777049593,"current_range_meters":8000,"station_id":"ce4bh3p2rcd13ifvqdq0","pricing_plan_id":"cebpf4jnsgd1na2vs0mg"},{"bike_id":"feb32492-c682-40ce-a486-b3128ef279f4","system_id":"levelo_inurba_marseille","lat":43.299675,"lon":5.384783,"is_reserved":false,"is_disabled":true,"rental_uris":{"android":"levelo://app?vid=feb32492-c682-40ce-a486-b3128ef279f4","ios":"levelo://app?vid=feb32492-c682-40ce-a486-b3128ef279f4"},"vehicle_type_id":"4","last_reported":1777049593,"current_range_meters":8400,"station_id":"ce4bho92rcd13ifvqh3g","pricing_plan_id":"cebpf4jnsgd1na2vs0mg"},{"bike_id":"3d157094-1633-4b6b-b41f-2648a50f3eee","system_id":"levelo_inurba_marseille","lat":43.314484,"lon":5.373659,"is_reserved":false,"is_disabled":false,"rental_uris":{"android":"levelo://app?vid=3d157094-1633-4b6b-b41f-2648a50f3eee","ios":"levelo://app?vid=3d157094-1633-4b6b-b41f-2648a50f3eee"},"vehicle_type_id":"4","last_reported":1777049593,"current_range_meters":8400,"station_id":"ce4bgt12rcd13ifvqcd0","pricing_plan_id":"cebpf4jnsgd1na2vs0mg"},{"bike_id":"18ee4449-686a-4257-a830-821bcc128ad8","system_id":"levelo_inurba_marseille","lat":43.29535,"lon":5.3854,"is_reserved":false,"is_disabled":false,"rental_uris":{"android":"levelo://app?vid=18ee4449-686a-4257-a830-821bcc128ad8","ios":"levelo://app?vid=18ee4449-686a-4257-a830-821bcc128ad8"},"vehicle_type_id":"4","last_reported":1777049593,"current_range_meters":8400,"station_id":"ce4bgih2rcd13ifvqba0","pricing_plan_id":"cebpf4jnsgd1na2vs0mg"},{"bike_id":"a1f49028-3caa-48e3-b69b-f7def8349e2c","system_id":"levelo_inurba_marseille","lat":43.28348,"lon":5.38087,"is_reserved":false,"is_disabled":false,"rental_uris":{"android":"levelo://app?vid=a1f49028-3caa-48e3-b69b-f7def8349e2c","ios":"levelo://app?vid=a1f49028-3caa-48e3-b69b-f7def8349e2c"},"vehicle_type_id":"4","last_reported":1777049593,"current_range_meters":8400,"station_id":"ce4bh412rcd13ifvqdr0","pricing_plan_id":"cebpf4jnsgd1na2vs0mg"},{"bike_id":"367995db-eb7d-466f-91eb-ef3631f03a2d","system_id":"levelo_inurba_marseille","lat":43.26208,"lon":5.37443,"is_reserved":false,"is_disabled":false,"rental_uris":{"android":"levelo://app?vid=367995db-eb7d-466f-91eb-ef3631f03a2d","ios":"levelo://app?vid=367995db-eb7d-466f-91eb-ef3631f03a2d"},"vehicle_type_id":"4","last_reported":1777049593,"current_range_meters":8400,"station_id":"ce4bhgp2rcd13ifvqfc0","pricing_plan_id":"cebpf4jnsgd1na2vs0mg"},{"bike_id":"6683f1c1-5438-4145-9f5d-8b7a78196c6b","system_id":"levelo_inurba_marseille","lat":43.28247,"lon":5.35088,"is_reserved":false,"is_disabled":false,"rental_uris":{"android":"levelo://app?vid=6683f1c1-5438-4145-9f5d-8b7a78196c6b","ios":"levelo://app?vid=6683f1c1-5438-4145-9f5d-8b7a78196c6b"},"vehicle_type_id":"4","last_reported":1777049593,"current_range_meters":8400,"station_id":"ce4bhbp2rcd13ifvqerg","pricing_plan_id":"cebpf4jnsgd1na2vs0mg"},{"bike_id":"66765219-3ba4-420f-a906-9bd311f58c2a","system_id":"levelo_inurba_marseille","lat":43.27998,"lon":5.40014,"is_reserved":false,"is_disabled":false,"rental_uris":{"android":"levelo://app?vid=66765219-3ba4-420f-a906-9bd311f58c2a","ios":"levelo://app?vid=66765219-3ba4-420f-a906-9bd311f58c2a"},"vehicle_type_id":"4","last_reported":1777049593,"current_range_meters":8400,"station_id":"ce4bho92rcd13ifvqh4g","pricing_plan_id":"cebpf4jnsgd1na2vs0mg"},{"bike_id":"90d76810-b241-40ea-b2a6-923faa430e25","system_id":"levelo_inurba_marseille","lat":43.29179,"lon":5.35776,"is_reserved":false,"is_disabled":false,"rental_uris":{"android":"levelo://app?vid=90d76810-b241-40ea-b2a6-923faa430e25","ios":"levelo://app?vid=90d76810-b241-40ea-b2a6-923faa430e25"},"vehicle_type_id":"4","last_reported":1777049593,"current_range_meters":8400,"station_id":"ce4bhb12rcd13ifvqel0","pricing_plan_id":"cebpf4jnsgd1na2vs0mg"},{"bike_id":"8b8b5db3-e95a-497f-b84a-b89a12682ca4","system_id":"levelo_inurba_marseille","lat":43.29828,"lon":5.44068,"is_reserved":false,"is_disabled":false,"rental_uris":{"android":"levelo://app?vid=8b8b5db3-e95a-497f-b84a-b89a12682ca4","ios":"levelo://app?vid=8b8b5db3-e95a-497f-b84a-b89a12682ca4"},"vehicle_type_id":"4","last_reported":1777049593,"current_range_meters":8400,"station_id":"st_d3jp68qikq2c7381ktn0","pricing_plan_id":"cebpf4jnsgd1na2vs0mg"},{"bike_id":"7ff8847a-1e2f-4ce4-b206-e7519f28a7a8","system_id":"levelo_inurba_marseille","lat":43.29265,"lon":5.3844,"is_reserved":false,"is_disabled":false,"rental_uris":{"android":"levelo://app?vid=7ff8847a-1e2f-4ce4-b206-e7519f28a7a8","ios":"levelo://app?vid=7ff8847a-1e2f-4ce4-b206-e7519f28a7a8"},"vehicle_type_id":"4","last_reported":1777049593,"current_range_meters":8400,"station_id":"ce4bh692rcd13ifvqea0","pricing_plan_id":"cebpf4jnsgd1na2vs0mg"},{"bike_id":"c7ac0306-6afc-4781-8692-f962ddfe1a23","system_id":"levelo_inurba_marseille","lat":43.32342,"lon":5.36747,"is_reserved":false,"is_disabled":false,"rental_uris":{"android":"levelo://app?vid=c7ac0306-6afc-4781-8692-f962ddfe1a23","ios":"levelo://app?vid=c7ac0306-6afc-4781-8692-f962ddfe1a23"},"vehicle_type_id":"4","last_reported":1777049593,"current_range_meters":8400,"station_id":"ce4bhsh2rcd13ifvqi2g","pricing_plan_id":"cebpf4jnsgd1na2vs0mg"},{"bike_id":"3f2180a9-c153-4994-8499-46760278ac09","system_id":"levelo_inurba_marseille","lat":43.295228,"lon":5.390444,"is_reserved":false,"is_disabled":false,"rental_uris":{"android":"levelo://app?vid=3f2180a9-c153-4994-8499-46760278ac09","ios":"levelo://app?vid=3f2180a9-c153-4994-8499-46760278ac09"},"vehicle_type_id":"4","last_reported":1777049593,"current_range_meters":8400,"station_id":"ce4bh3p2rcd13ifvqdp0","pricing_plan_id":"cebpf4jnsgd1na2vs0mg"},{"bike_id":"c79c194b-4c41-4567-87f5-50329ab623ca","system_id":"levelo_inurba_marseille","lat":43.28444,"lon":5.39192,"is_reserved":false,"is_disabled":false,"rental_uris":{"android":"levelo://app?vid=c79c194b-4c41-4567-87f5-50329ab623ca","ios":"levelo://app?vid=c79c194b-4c41-4567-87f5-50329ab623ca"},"vehicle_type_id":"4","last_reported":1777049593,"current_range_meters":8400,"station_id":"ce4bhoh2rcd13ifvqh5g","pricing_plan_id":"cebpf4jnsgd1na2vs0mg"},{"bike_id":"4ce71f71-1a28-4592-bd5c-1940ff667306","system_id":"levelo_inurba_marseille","lat":43.30904,"lon":5.36832,"is_reserved":false,"is_disabled":false,"rental_uris":{"android":"levelo://app?vid=4ce71f71-1a28-4592-bd5c-1940ff667306","ios":"levelo://app?vid=4ce71f71-1a28-4592-bd5c-1940ff667306"},"vehicle_type_id":"4","last_reported":1777049593,"current_range_meters":8800,"station_id":"ce4bgn92rcd13ifvqbvg","pricing_plan_id":"cebpf4jnsgd1na2vs0mg"},{"bike_id":"7737013f-cd41-488a-9471-c1ab29d55eb5","system_id":"levelo_inurba_marseille","lat":43.29287,"lon":5.37456,"is_reserved":false,"is_disabled":false,"rental_uris":{"android":"levelo://app?vid=7737013f-cd41-488a-9471-c1ab29d55eb5","ios":"levelo://app?vid=7737013f-cd41-488a-9471-c1ab29d55eb5"},"vehicle_type_id":"4","last_reported":1777049593,"current_range_meters":8800,"station_id":"ce4bgi12rcd13ifvqb70","pricing_plan_id":"cebpf4jnsgd1na2vs0mg"},{"bike_id":"ef1780af-1aea-4e08-82c2-da4d0be385bf","system_id":"levelo_inurba_marseille","lat":43.28995,"lon":5.36053,"is_reserved":false,"is_disabled":false,"rental_uris":{"android":"levelo://app?vid=ef1780af-1aea-4e08-82c2-da4d0be385bf","ios":"levelo://app?vid=ef1780af-1aea-4e08-82c2-da4d0be385bf"},"vehicle_type_id":"4","last_reported":1777049593,"current_range_meters":8800,"station_id":"","pricing_plan_id":"cebpf4jnsgd1na2vs0mg"},{"bike_id":"5d62d4f6-dc51-4076-ad75-ca00f82cda4d","system_id":"levelo_inurba_marseille","lat":43.29531,"lon":5.38543,"is_reserved":false,"is_disabled":false,"rental_uris":{"android":"levelo://app?vid=5d62d4f6-dc51-4076-ad75-ca00f82cda4d","ios":"levelo://app?vid=5d62d4f6-dc51-4076-ad75-ca00f82cda4d"},"vehicle_type_id":"4","last_reported":1777049593,"current_range_meters":8800,"station_id":"ce4bgih2rcd13ifvqba0","pricing_plan_id":"cebpf4jnsgd1na2vs0mg"},{"bike_id":"c27c14c5-d60c-48fb-84ce-ac2a5ae3f6eb","system_id":"levelo_inurba_marseille","lat":43.28623,"lon":5.35152,"is_reserved":false,"is_disabled":false,"rental_uris":{"android":"levelo://app?vid=c27c14c5-d60c-48fb-84ce-ac2a5ae3f6eb","ios":"levelo://app?vid=c27c14c5-d60c-48fb-84ce-ac2a5ae3f6eb"},"vehicle_type_id":"4","last_reported":1777049593,"current_range_meters":8800,"station_id":"ce4bhch2rcd13ifvqeug","pricing_plan_id":"cebpf4jnsgd1na2vs0mg"},{"bike_id":"4af5f932-71ad-4954-ac3b-fecb2a352994","system_id":"levelo_inurba_marseille","lat":43.32347,"lon":5.36727,"is_reserved":false,"is_disabled":false,"rental_uris":{"android":"levelo://app?vid=4af5f932-71ad-4954-ac3b-fecb2a352994","ios":"levelo://app?vid=4af5f932-71ad-4954-ac3b-fecb2a352994"},"vehicle_type_id":"4","last_reported":1777049593,"current_range_meters":8800,"station_id":"ce4bhsh2rcd13ifvqi2g","pricing_plan_id":"cebpf4jnsgd1na2vs0mg"},{"bike_id":"b82fd145-7b8f-4055-ab35-00d91bbc750c","system_id":"levelo_inurba_marseille","lat":43.30143,"lon":5.37422,"is_reserved":false,"is_disabled":false,"rental_uris":{"android":"levelo://app?vid=b82fd145-7b8f-4055-ab35-00d91bbc750c","ios":"levelo://app?vid=b82fd145-7b8f-4055-ab35-00d91bbc750c"},"vehicle_type_id":"4","last_reported":1777049593,"current_range_meters":8800,"station_id":"ce4bgs92rcd13ifvqcc0","pricing_plan_id":"cebpf4jnsgd1na2vs0mg"},{"bike_id":"1370c3f0-6074-43de-a93b-f7f87c829b3b","system_id":"levelo_inurba_marseille","lat":43.2912,"lon":5.39985,"is_reserved":false,"is_disabled":false,"rental_uris":{"android":"levelo://app?vid=1370c3f0-6074-43de-a93b-f7f87c829b3b","ios":"levelo://app?vid=1370c3f0-6074-43de-a93b-f7f87c829b3b"},"vehicle_type_id":"4","last_reported":1777049593,"current_range_meters":8800,"station_id":"","pricing_plan_id":"cebpf4jnsgd1na2vs0mg"},{"bike_id":"a30cdfcf-b7b0-4734-b81f-560abdd610f4","system_id":"levelo_inurba_marseille","lat":43.30248,"lon":5.40059,"is_reserved":false,"is_disabled":false,"rental_uris":{"android":"levelo://app?vid=a30cdfcf-b7b0-4734-b81f-560abdd610f4","ios":"levelo://app?vid=a30cdfcf-b7b0-4734-b81f-560abdd610f4"},"vehicle_type_id":"4","last_reported":1777049593,"current_range_meters":8800,"station_id":"ce4bgvh2rcd13ifvqcs0","pricing_plan_id":"cebpf4jnsgd1na2vs0mg"},{"bike_id":"e411edeb-95ac-449b-becf-3d0106fde0cc","system_id":"levelo_inurba_marseille","lat":43.27052,"lon":5.40265,"is_reserved":false,"is_disabled":false,"rental_uris":{"android":"levelo://app?vid=e411edeb-95ac-449b-becf-3d0106fde0cc","ios":"levelo://app?vid=e411edeb-95ac-449b-becf-3d0106fde0cc"},"vehicle_type_id":"4","last_reported":1777049593,"current_range_meters":8800,"station_id":"ce4bhk92rcd13ifvqgc0","pricing_plan_id":"cebpf4jnsgd1na2vs0mg"},{"bike_id":"e1a53269-14f6-4872-8ac0-32cd29df4136","system_id":"levelo_inurba_marseille","lat":43.27626,"lon":5.36117,"is_reserved":false,"is_disabled":false,"rental_uris":{"android":"levelo://app?vid=e1a53269-14f6-4872-8ac0-32cd29df4136","ios":"levelo://app?vid=e1a53269-14f6-4872-8ac0-32cd29df4136"},"vehicle_type_id":"4","last_reported":1777049593,"current_range_meters":8800,"station_id":"ce4bgj92rcd13ifvqbe0","pricing_plan_id":"cebpf4jnsgd1na2vs0mg"},{"bike_id":"909cae9d-5222-473b-aef5-d47a9de17fb2","system_id":"levelo_inurba_marseille","lat":43.28225,"lon":5.35086,"is_reserved":false,"is_disabled":false,"rental_uris":{"android":"levelo://app?vid=909cae9d-5222-473b-aef5-d47a9de17fb2","ios":"levelo://app?vid=909cae9d-5222-473b-aef5-d47a9de17fb2"},"vehicle_type_id":"4","last_reported":1777049593,"current_range_meters":8800,"station_id":"","pricing_plan_id":"cebpf4jnsgd1na2vs0mg"},{"bike_id":"ae94d870-56d2-4daa-ae60-5a79743c3ff3","system_id":"levelo_inurba_marseille","lat":43.29769,"lon":5.37106,"is_reserved":false,"is_disabled":false,"rental_uris":{"android":"levelo://app?vid=ae94d870-56d2-4daa-ae60-5a79743c3ff3","ios":"levelo://app?vid=ae94d870-56d2-4daa-ae60-5a79743c3ff3"},"vehicle_type_id":"4","last_reported":1777049593,"current_range_meters":8800,"station_id":"ce4bgop2rcd13ifvqc1g","pricing_plan_id":"cebpf4jnsgd1na2vs0mg"},{"bike_id":"bfe68b09-6ff3-4cb9-8d69-2f05cbcd9be5","system_id":"levelo_inurba_marseille","lat":43.29588,"lon":5.36735,"is_reserved":false,"is_disabled":false,"rental_uris":{"android":"levelo://app?vid=bfe68b09-6ff3-4cb9-8d69-2f05cbcd9be5","ios":"levelo://app?vid=bfe68b09-6ff3-4cb9-8d69-2f05cbcd9be5"},"vehicle_type_id":"4","last_reported":1777049593,"current_range_meters":8800,"station_id":"ce4bgph2rcd13ifvqc2g","pricing_plan_id":"cebpf4jnsgd1na2vs0mg"},{"bike_id":"5943059b-232d-4deb-8b3a-c65352f04f61","system_id":"levelo_inurba_marseille","lat":43.27382,"lon":5.36251,"is_reserved":false,"is_disabled":false,"rental_uris":{"android":"levelo://app?vid=5943059b-232d-4deb-8b3a-c65352f04f61","ios":"levelo://app?vid=5943059b-232d-4deb-8b3a-c65352f04f61"},"vehicle_type_id":"4","last_reported":1777049593,"current_range_meters":8800,"station_id":"ce4bhbh2rcd13ifvqeo0","pricing_plan_id":"cebpf4jnsgd1na2vs0mg"},{"bike_id":"cede9b0a-2040-4bc5-8608-e1ffa32b0031","system_id":"levelo_inurba_marseille","lat":43.2655,"lon":5.37289,"is_reserved":false,"is_disabled":false,"rental_uris":{"android":"levelo://app?vid=cede9b0a-2040-4bc5-8608-e1ffa32b0031","ios":"levelo://app?vid=cede9b0a-2040-4bc5-8608-e1ffa32b0031"},"vehicle_type_id":"4","last_reported":1777049593,"current_range_meters":8800,"station_id":"ce4bhg12rcd13ifvqf70","pricing_plan_id":"cebpf4jnsgd1na2vs0mg"},{"bike_id":"973940ce-e545-4d71-9396-486542a3f8e7","system_id":"levelo_inurba_marseille","lat":43.28629,"lon":5.35093,"is_reserved":false,"is_disabled":false,"rental_uris":{"android":"levelo://app?vid=973940ce-e545-4d71-9396-486542a3f8e7","ios":"levelo://app?vid=973940ce-e545-4d71-9396-486542a3f8e7"},"vehicle_type_id":"4","last_reported":1777049593,"current_range_meters":8800,"station_id":"ce4bhch2rcd13ifvqeug","pricing_plan_id":"cebpf4jnsgd1na2vs0mg"},{"bike_id":"261b4d20-3fce-4a9a-b1df-f7d9447249df","system_id":"levelo_inurba_marseille","lat":43.28481,"lon":5.48384,"is_reserved":false,"is_disabled":false,"rental_uris":{"android":"levelo://app?vid=261b4d20-3fce-4a9a-b1df-f7d9447249df","ios":"levelo://app?vid=261b4d20-3fce-4a9a-b1df-f7d9447249df"},"vehicle_type_id":"4","last_reported":1777049593,"current_range_meters":8800,"station_id":"st_d3svhcjqgbts73a3dn0g","pricing_plan_id":"cebpf4jnsgd1na2vs0mg"},{"bike_id":"d0841837-a117-423b-a675-d2da44d86fb3","system_id":"levelo_inurba_marseille","lat":43.26581,"lon":5.39051,"is_reserved":false,"is_disabled":false,"rental_uris":{"android":"levelo://app?vid=d0841837-a117-423b-a675-d2da44d86fb3","ios":"levelo://app?vid=d0841837-a117-423b-a675-d2da44d86fb3"},"vehicle_type_id":"4","last_reported":1777049593,"current_range_meters":8800,"station_id":"ce4bhe12rcd13ifvqf30","pricing_plan_id":"cebpf4jnsgd1na2vs0mg"},{"bike_id":"d3a68e03-8d06-4e0e-8f25-aa851f768646","system_id":"levelo_inurba_marseille","lat":43.28269,"lon":5.35064,"is_reserved":false,"is_disabled":false,"rental_uris":{"android":"levelo://app?vid=d3a68e03-8d06-4e0e-8f25-aa851f768646","ios":"levelo://app?vid=d3a68e03-8d06-4e0e-8f25-aa851f768646"},"vehicle_type_id":"4","last_reported":1777049593,"current_range_meters":8800,"station_id":"ce4bhbp2rcd13ifvqerg","pricing_plan_id":"cebpf4jnsgd1na2vs0mg"},{"bike_id":"1fca75f8-441b-4688-b894-ff3c362d408b","system_id":"levelo_inurba_marseille","lat":43.25886,"lon":5.39912,"is_reserved":false,"is_disabled":false,"rental_uris":{"android":"levelo://app?vid=1fca75f8-441b-4688-b894-ff3c362d408b","ios":"levelo://app?vid=1fca75f8-441b-4688-b894-ff3c362d408b"},"vehicle_type_id":"4","last_reported":1777049593,"current_range_meters":8800,"station_id":"ce4bhl92rcd13ifvqghg","pricing_plan_id":"cebpf4jnsgd1na2vs0mg"},{"bike_id":"31464ef9-09f4-4a4b-b9e7-69ca04b0e940","system_id":"levelo_inurba_marseille","lat":43.29278,"lon":5.40119,"is_reserved":false,"is_disabled":false,"rental_uris":{"android":"levelo://app?vid=31464ef9-09f4-4a4b-b9e7-69ca04b0e940","ios":"levelo://app?vid=31464ef9-09f4-4a4b-b9e7-69ca04b0e940"},"vehicle_type_id":"4","last_reported":1777049593,"current_range_meters":8800,"station_id":"ce4bh312rcd13ifvqdk0","pricing_plan_id":"cebpf4jnsgd1na2vs0mg"},{"bike_id":"d4228963-b3dc-41d2-8d8a-98ee7f6180ab","system_id":"levelo_inurba_marseille","lat":43.29972,"lon":5.38485,"is_reserved":false,"is_disabled":false,"rental_uris":{"android":"levelo://app?vid=d4228963-b3dc-41d2-8d8a-98ee7f6180ab","ios":"levelo://app?vid=d4228963-b3dc-41d2-8d8a-98ee7f6180ab"},"vehicle_type_id":"4","last_reported":1777049593,"current_range_meters":9200,"station_id":"ce4bgj92rcd13ifvqbd0","pricing_plan_id":"cebpf4jnsgd1na2vs0mg"},{"bike_id":"6a382a26-93df-4b4f-99b6-0161544321ed","system_id":"levelo_inurba_marseille","lat":43.28278,"lon":5.35084,"is_reserved":false,"is_disabled":true,"rental_uris":{"android":"levelo://app?vid=6a382a26-93df-4b4f-99b6-0161544321ed","ios":"levelo://app?vid=6a382a26-93df-4b4f-99b6-0161544321ed"},"vehicle_type_id":"4","last_reported":1777049593,"current_range_meters":9200,"station_id":"ce4bhbp2rcd13ifvqerg","pricing_plan_id":"cebpf4jnsgd1na2vs0mg"},{"bike_id":"0ce641a1-ca62-4f05-b894-4a72f77b98f2","system_id":"levelo_inurba_marseille","lat":43.32405,"lon":5.36702,"is_reserved":false,"is_disabled":false,"rental_uris":{"android":"levelo://app?vid=0ce641a1-ca62-4f05-b894-4a72f77b98f2","ios":"levelo://app?vid=0ce641a1-ca62-4f05-b894-4a72f77b98f2"},"vehicle_type_id":"4","last_reported":1777049593,"current_range_meters":9200,"station_id":"","pricing_plan_id":"cebpf4jnsgd1na2vs0mg"},{"bike_id":"86cf98f1-79b2-455f-be1a-53ecde8650e6","system_id":"levelo_inurba_marseille","lat":43.25051,"lon":5.39524,"is_reserved":false,"is_disabled":false,"rental_uris":{"android":"levelo://app?vid=86cf98f1-79b2-455f-be1a-53ecde8650e6","ios":"levelo://app?vid=86cf98f1-79b2-455f-be1a-53ecde8650e6"},"vehicle_type_id":"4","last_reported":1777049593,"current_range_meters":9200,"station_id":"ce4bhm12rcd13ifvqgkg","pricing_plan_id":"cebpf4jnsgd1na2vs0mg"},{"bike_id":"4e7f60dc-2079-4f51-9d09-01d31cdd2f9b","system_id":"levelo_inurba_marseille","lat":43.24642,"lon":5.43176,"is_reserved":false,"is_disabled":false,"rental_uris":{"android":"levelo://app?vid=4e7f60dc-2079-4f51-9d09-01d31cdd2f9b","ios":"levelo://app?vid=4e7f60dc-2079-4f51-9d09-01d31cdd2f9b"},"vehicle_type_id":"4","last_reported":1777049593,"current_range_meters":9200,"station_id":"st_d2m6c4gdas8pm72e190g","pricing_plan_id":"cebpf4jnsgd1na2vs0mg"},{"bike_id":"1d368fe1-0c8f-4a40-864c-b54082c58fa1","system_id":"levelo_inurba_marseille","lat":43.33545,"lon":5.37469,"is_reserved":false,"is_disabled":false,"rental_uris":{"android":"levelo://app?vid=1d368fe1-0c8f-4a40-864c-b54082c58fa1","ios":"levelo://app?vid=1d368fe1-0c8f-4a40-864c-b54082c58fa1"},"vehicle_type_id":"4","last_reported":1777049593,"current_range_meters":9200,"station_id":"st_d46tts09ee8s73dlu43g","pricing_plan_id":"cebpf4jnsgd1na2vs0mg"},{"bike_id":"92691c13-c847-4c13-9bbd-54f3b23b602d","system_id":"levelo_inurba_marseille","lat":43.26548,"lon":5.37309,"is_reserved":false,"is_disabled":false,"rental_uris":{"android":"levelo://app?vid=92691c13-c847-4c13-9bbd-54f3b23b602d","ios":"levelo://app?vid=92691c13-c847-4c13-9bbd-54f3b23b602d"},"vehicle_type_id":"4","last_reported":1777049593,"current_range_meters":9200,"station_id":"ce4bhg12rcd13ifvqf70","pricing_plan_id":"cebpf4jnsgd1na2vs0mg"},{"bike_id":"8abebcd0-d20e-46c1-a951-0f2cd38e2c84","system_id":"levelo_inurba_marseille","lat":43.26191,"lon":5.37452,"is_reserved":false,"is_disabled":false,"rental_uris":{"android":"levelo://app?vid=8abebcd0-d20e-46c1-a951-0f2cd38e2c84","ios":"levelo://app?vid=8abebcd0-d20e-46c1-a951-0f2cd38e2c84"},"vehicle_type_id":"4","last_reported":1777049593,"current_range_meters":9200,"station_id":"ce4bhgp2rcd13ifvqfc0","pricing_plan_id":"cebpf4jnsgd1na2vs0mg"},{"bike_id":"851295c3-468d-4148-95d8-ad52f26696d5","system_id":"levelo_inurba_marseille","lat":43.24168,"lon":5.36398,"is_reserved":false,"is_disabled":false,"rental_uris":{"android":"levelo://app?vid=851295c3-468d-4148-95d8-ad52f26696d5","ios":"levelo://app?vid=851295c3-468d-4148-95d8-ad52f26696d5"},"vehicle_type_id":"4","last_reported":1777049593,"current_range_meters":9200,"station_id":"cpo36qri1sfpv3e86is0","pricing_plan_id":"cebpf4jnsgd1na2vs0mg"},{"bike_id":"4d5b4915-5fc0-4782-a3a4-e445cc2cf470","system_id":"levelo_inurba_marseille","lat":43.29871,"lon":5.42101,"is_reserved":false,"is_disabled":false,"rental_uris":{"android":"levelo://app?vid=4d5b4915-5fc0-4782-a3a4-e445cc2cf470","ios":"levelo://app?vid=4d5b4915-5fc0-4782-a3a4-e445cc2cf470"},"vehicle_type_id":"4","last_reported":1777049593,"current_range_meters":9200,"station_id":"st_d6tc004otcvc738tfe70","pricing_plan_id":"cebpf4jnsgd1na2vs0mg"},{"bike_id":"49b7c574-cc22-4468-b233-d66d360fda6f","system_id":"levelo_inurba_marseille","lat":43.25846,"lon":5.39893,"is_reserved":false,"is_disabled":false,"rental_uris":{"android":"levelo://app?vid=49b7c574-cc22-4468-b233-d66d360fda6f","ios":"levelo://app?vid=49b7c574-cc22-4468-b233-d66d360fda6f"},"vehicle_type_id":"4","last_reported":1777049593,"current_range_meters":9200,"station_id":"ce4bhl92rcd13ifvqghg","pricing_plan_id":"cebpf4jnsgd1na2vs0mg"},{"bike_id":"bcb97b3c-be20-4201-8d45-caa8f81d64e7","system_id":"levelo_inurba_marseille","lat":43.2846,"lon":5.3589,"is_reserved":false,"is_disabled":false,"rental_uris":{"android":"levelo://app?vid=bcb97b3c-be20-4201-8d45-caa8f81d64e7","ios":"levelo://app?vid=bcb97b3c-be20-4201-8d45-caa8f81d64e7"},"vehicle_type_id":"4","last_reported":1777049593,"current_range_meters":9200,"station_id":"ce4bhah2rcd13ifvqei0","pricing_plan_id":"cebpf4jnsgd1na2vs0mg"},{"bike_id":"f1f3ac03-477c-4f74-9608-c71abaabeceb","system_id":"levelo_inurba_marseille","lat":43.30423,"lon":5.38889,"is_reserved":false,"is_disabled":false,"rental_uris":{"android":"levelo://app?vid=f1f3ac03-477c-4f74-9608-c71abaabeceb","ios":"levelo://app?vid=f1f3ac03-477c-4f74-9608-c71abaabeceb"},"vehicle_type_id":"4","last_reported":1777049593,"current_range_meters":9200,"station_id":"ce4bgk12rcd13ifvqbi0","pricing_plan_id":"cebpf4jnsgd1na2vs0mg"},{"bike_id":"151e9a47-0634-464d-9821-c66bd0ba4370","system_id":"levelo_inurba_marseille","lat":43.28354,"lon":5.38095,"is_reserved":false,"is_disabled":false,"rental_uris":{"android":"levelo://app?vid=151e9a47-0634-464d-9821-c66bd0ba4370","ios":"levelo://app?vid=151e9a47-0634-464d-9821-c66bd0ba4370"},"vehicle_type_id":"4","last_reported":1777049593,"current_range_meters":9200,"station_id":"ce4bh412rcd13ifvqdr0","pricing_plan_id":"cebpf4jnsgd1na2vs0mg"},{"bike_id":"ebf4bd81-18d0-4300-ba98-4ecb924642b0","system_id":"levelo_inurba_marseille","lat":43.26762,"lon":5.38424,"is_reserved":false,"is_disabled":false,"rental_uris":{"android":"levelo://app?vid=ebf4bd81-18d0-4300-ba98-4ecb924642b0","ios":"levelo://app?vid=ebf4bd81-18d0-4300-ba98-4ecb924642b0"},"vehicle_type_id":"4","last_reported":1777049593,"current_range_meters":9200,"station_id":"","pricing_plan_id":"cebpf4jnsgd1na2vs0mg"},{"bike_id":"f9c20f80-af9b-4a43-9704-f9047f6b00ea","system_id":"levelo_inurba_marseille","lat":43.27367,"lon":5.36249,"is_reserved":false,"is_disabled":false,"rental_uris":{"android":"levelo://app?vid=f9c20f80-af9b-4a43-9704-f9047f6b00ea","ios":"levelo://app?vid=f9c20f80-af9b-4a43-9704-f9047f6b00ea"},"vehicle_type_id":"4","last_reported":1777049593,"current_range_meters":9600,"station_id":"ce4bhbh2rcd13ifvqeo0","pricing_plan_id":"cebpf4jnsgd1na2vs0mg"},{"bike_id":"9e42963c-f00c-4ee2-aa99-f9961a5a96e2","system_id":"levelo_inurba_marseille","lat":43.29783,"lon":5.3711,"is_reserved":false,"is_disabled":false,"rental_uris":{"android":"levelo://app?vid=9e42963c-f00c-4ee2-aa99-f9961a5a96e2","ios":"levelo://app?vid=9e42963c-f00c-4ee2-aa99-f9961a5a96e2"},"vehicle_type_id":"4","last_reported":1777049593,"current_range_meters":9600,"station_id":"ce4bgop2rcd13ifvqc1g","pricing_plan_id":"cebpf4jnsgd1na2vs0mg"},{"bike_id":"daef2939-4502-44d9-af46-c8b9e1e8c429","system_id":"levelo_inurba_marseille","lat":43.29087,"lon":5.35937,"is_reserved":false,"is_disabled":false,"rental_uris":{"android":"levelo://app?vid=daef2939-4502-44d9-af46-c8b9e1e8c429","ios":"levelo://app?vid=daef2939-4502-44d9-af46-c8b9e1e8c429"},"vehicle_type_id":"4","last_reported":1777049593,"current_range_meters":9600,"station_id":"ce4bha92rcd13ifvqeg0","pricing_plan_id":"cebpf4jnsgd1na2vs0mg"},{"bike_id":"e823ebc2-0ba4-4a28-8e44-b1a52b2626ca","system_id":"levelo_inurba_marseille","lat":43.28866,"lon":5.37658,"is_reserved":false,"is_disabled":false,"rental_uris":{"android":"levelo://app?vid=e823ebc2-0ba4-4a28-8e44-b1a52b2626ca","ios":"levelo://app?vid=e823ebc2-0ba4-4a28-8e44-b1a52b2626ca"},"vehicle_type_id":"4","last_reported":1777049593,"current_range_meters":9600,"station_id":"","pricing_plan_id":"cebpf4jnsgd1na2vs0mg"},{"bike_id":"438ef943-6365-44b4-889f-44915622d8c6","system_id":"levelo_inurba_marseille","lat":43.31117,"lon":5.37768,"is_reserved":false,"is_disabled":false,"rental_uris":{"android":"levelo://app?vid=438ef943-6365-44b4-889f-44915622d8c6","ios":"levelo://app?vid=438ef943-6365-44b4-889f-44915622d8c6"},"vehicle_type_id":"4","last_reported":1777049593,"current_range_meters":9600,"station_id":"ce4bgt92rcd13ifvqcg0","pricing_plan_id":"cebpf4jnsgd1na2vs0mg"},{"bike_id":"517b465b-1cbe-47c0-8062-1f1f68f9139f","system_id":"levelo_inurba_marseille","lat":43.23202,"lon":5.3555,"is_reserved":false,"is_disabled":false,"rental_uris":{"android":"levelo://app?vid=517b465b-1cbe-47c0-8062-1f1f68f9139f","ios":"levelo://app?vid=517b465b-1cbe-47c0-8062-1f1f68f9139f"},"vehicle_type_id":"4","last_reported":1777049593,"current_range_meters":9600,"station_id":"ce4bhu92rcd13ifvqi70","pricing_plan_id":"cebpf4jnsgd1na2vs0mg"},{"bike_id":"f01b33b4-d615-44f3-8c41-5a4c243a6920","system_id":"levelo_inurba_marseille","lat":43.35189,"lon":5.43953,"is_reserved":false,"is_disabled":false,"rental_uris":{"android":"levelo://app?vid=f01b33b4-d615-44f3-8c41-5a4c243a6920","ios":"levelo://app?vid=f01b33b4-d615-44f3-8c41-5a4c243a6920"},"vehicle_type_id":"4","last_reported":1777049593,"current_range_meters":9600,"station_id":"","pricing_plan_id":"cebpf4jnsgd1na2vs0mg"},{"bike_id":"3aeed729-48ba-4476-87f0-b41c7096393e","system_id":"levelo_inurba_marseille","lat":43.28359,"lon":5.38109,"is_reserved":false,"is_disabled":false,"rental_uris":{"android":"levelo://app?vid=3aeed729-48ba-4476-87f0-b41c7096393e","ios":"levelo://app?vid=3aeed729-48ba-4476-87f0-b41c7096393e"},"vehicle_type_id":"4","last_reported":1777049593,"current_range_meters":9600,"station_id":"ce4bh412rcd13ifvqdr0","pricing_plan_id":"cebpf4jnsgd1na2vs0mg"},{"bike_id":"ce1c7b72-7d8f-4e3a-9653-f2440a839a82","system_id":"levelo_inurba_marseille","lat":43.26572,"lon":5.3904,"is_reserved":false,"is_disabled":false,"rental_uris":{"android":"levelo://app?vid=ce1c7b72-7d8f-4e3a-9653-f2440a839a82","ios":"levelo://app?vid=ce1c7b72-7d8f-4e3a-9653-f2440a839a82"},"vehicle_type_id":"4","last_reported":1777049593,"current_range_meters":9600,"station_id":"ce4bhe12rcd13ifvqf30","pricing_plan_id":"cebpf4jnsgd1na2vs0mg"},{"bike_id":"da7e4629-4059-4617-bcd1-f00f08c55fc0","system_id":"levelo_inurba_marseille","lat":43.24372,"lon":5.37065,"is_reserved":false,"is_disabled":false,"rental_uris":{"android":"levelo://app?vid=da7e4629-4059-4617-bcd1-f00f08c55fc0","ios":"levelo://app?vid=da7e4629-4059-4617-bcd1-f00f08c55fc0"},"vehicle_type_id":"4","last_reported":1777049593,"current_range_meters":9600,"station_id":"ce4bhhh2rcd13ifvqfk0","pricing_plan_id":"cebpf4jnsgd1na2vs0mg"},{"bike_id":"1595f098-2f14-44a5-a0b3-53ccfa73c287","system_id":"levelo_inurba_marseille","lat":43.30591,"lon":5.39372,"is_reserved":false,"is_disabled":false,"rental_uris":{"android":"levelo://app?vid=1595f098-2f14-44a5-a0b3-53ccfa73c287","ios":"levelo://app?vid=1595f098-2f14-44a5-a0b3-53ccfa73c287"},"vehicle_type_id":"4","last_reported":1777049593,"current_range_meters":9600,"station_id":"ce4bh0p2rcd13ifvqd80","pricing_plan_id":"cebpf4jnsgd1na2vs0mg"},{"bike_id":"2150e900-bc36-4714-8063-0320eae925a9","system_id":"levelo_inurba_marseille","lat":43.23961,"lon":5.36636,"is_reserved":false,"is_disabled":false,"rental_uris":{"android":"levelo://app?vid=2150e900-bc36-4714-8063-0320eae925a9","ios":"levelo://app?vid=2150e900-bc36-4714-8063-0320eae925a9"},"vehicle_type_id":"4","last_reported":1777049593,"current_range_meters":9600,"station_id":"ce4bhi12rcd13ifvqfp0","pricing_plan_id":"cebpf4jnsgd1na2vs0mg"},{"bike_id":"f9fc9bbb-9a0c-4ccd-999f-88ac996e3654","system_id":"levelo_inurba_marseille","lat":43.27977,"lon":5.39003,"is_reserved":false,"is_disabled":false,"rental_uris":{"android":"levelo://app?vid=f9fc9bbb-9a0c-4ccd-999f-88ac996e3654","ios":"levelo://app?vid=f9fc9bbb-9a0c-4ccd-999f-88ac996e3654"},"vehicle_type_id":"4","last_reported":1777049593,"current_range_meters":9600,"station_id":"","pricing_plan_id":"cebpf4jnsgd1na2vs0mg"},{"bike_id":"749b1e50-ea7d-406d-b32c-ba03cae603a8","system_id":"levelo_inurba_marseille","lat":43.24169,"lon":5.364,"is_reserved":false,"is_disabled":false,"rental_uris":{"android":"levelo://app?vid=749b1e50-ea7d-406d-b32c-ba03cae603a8","ios":"levelo://app?vid=749b1e50-ea7d-406d-b32c-ba03cae603a8"},"vehicle_type_id":"4","last_reported":1777049593,"current_range_meters":9600,"station_id":"cpo36qri1sfpv3e86is0","pricing_plan_id":"cebpf4jnsgd1na2vs0mg"},{"bike_id":"89b4dec0-82be-4d44-8bf9-961143360cc0","system_id":"levelo_inurba_marseille","lat":43.21758,"lon":5.34606,"is_reserved":false,"is_disabled":false,"rental_uris":{"android":"levelo://app?vid=89b4dec0-82be-4d44-8bf9-961143360cc0","ios":"levelo://app?vid=89b4dec0-82be-4d44-8bf9-961143360cc0"},"vehicle_type_id":"4","last_reported":1777049593,"current_range_meters":9600,"station_id":"st_cvj6r9ubvosntc0bgbag","pricing_plan_id":"cebpf4jnsgd1na2vs0mg"},{"bike_id":"541dbded-315f-4ca8-ac49-47fcb4294bb7","system_id":"levelo_inurba_marseille","lat":43.33506,"lon":5.37471,"is_reserved":false,"is_disabled":false,"rental_uris":{"android":"levelo://app?vid=541dbded-315f-4ca8-ac49-47fcb4294bb7","ios":"levelo://app?vid=541dbded-315f-4ca8-ac49-47fcb4294bb7"},"vehicle_type_id":"4","last_reported":1777049593,"current_range_meters":9600,"station_id":"st_d46tts09ee8s73dlu43g","pricing_plan_id":"cebpf4jnsgd1na2vs0mg"},{"bike_id":"7c1cc9a8-5dd5-46f2-b543-2e2a28cd5cc7","system_id":"levelo_inurba_marseille","lat":43.27373,"lon":5.36266,"is_reserved":false,"is_disabled":false,"rental_uris":{"android":"levelo://app?vid=7c1cc9a8-5dd5-46f2-b543-2e2a28cd5cc7","ios":"levelo://app?vid=7c1cc9a8-5dd5-46f2-b543-2e2a28cd5cc7"},"vehicle_type_id":"4","last_reported":1777049593,"current_range_meters":9600,"station_id":"ce4bhbh2rcd13ifvqeo0","pricing_plan_id":"cebpf4jnsgd1na2vs0mg"},{"bike_id":"09b601cc-6a08-4c5c-89d6-ed4018268485","system_id":"levelo_inurba_marseille","lat":43.2894,"lon":5.36634,"is_reserved":false,"is_disabled":false,"rental_uris":{"android":"levelo://app?vid=09b601cc-6a08-4c5c-89d6-ed4018268485","ios":"levelo://app?vid=09b601cc-6a08-4c5c-89d6-ed4018268485"},"vehicle_type_id":"4","last_reported":1777049593,"current_range_meters":9600,"station_id":"ce4bhap2rcd13ifvqek0","pricing_plan_id":"cebpf4jnsgd1na2vs0mg"},{"bike_id":"2daeca26-1b87-4497-b581-ab2345620fc2","system_id":"levelo_inurba_marseille","lat":43.29324,"lon":5.37197,"is_reserved":false,"is_disabled":false,"rental_uris":{"android":"levelo://app?vid=2daeca26-1b87-4497-b581-ab2345620fc2","ios":"levelo://app?vid=2daeca26-1b87-4497-b581-ab2345620fc2"},"vehicle_type_id":"4","last_reported":1777049593,"current_range_meters":10000,"station_id":"ce4bgh92rcd13ifvqb40","pricing_plan_id":"cebpf4jnsgd1na2vs0mg"},{"bike_id":"335d7250-451d-4620-bf87-cc5a457d5216","system_id":"levelo_inurba_marseille","lat":43.28598,"lon":5.38382,"is_reserved":false,"is_disabled":false,"rental_uris":{"android":"levelo://app?vid=335d7250-451d-4620-bf87-cc5a457d5216","ios":"levelo://app?vid=335d7250-451d-4620-bf87-cc5a457d5216"},"vehicle_type_id":"4","last_reported":1777049593,"current_range_meters":10000,"station_id":"","pricing_plan_id":"cebpf4jnsgd1na2vs0mg"},{"bike_id":"fdd6922c-b28a-4dc4-b4b6-3f16b5f24e89","system_id":"levelo_inurba_marseille","lat":43.27374,"lon":5.36249,"is_reserved":false,"is_disabled":false,"rental_uris":{"android":"levelo://app?vid=fdd6922c-b28a-4dc4-b4b6-3f16b5f24e89","ios":"levelo://app?vid=fdd6922c-b28a-4dc4-b4b6-3f16b5f24e89"},"vehicle_type_id":"4","last_reported":1777049593,"current_range_meters":10000,"station_id":"ce4bhbh2rcd13ifvqeo0","pricing_plan_id":"cebpf4jnsgd1na2vs0mg"},{"bike_id":"f645e30b-5616-45b3-a17d-faf4a49d971d","system_id":"levelo_inurba_marseille","lat":43.31,"lon":5.37533,"is_reserved":false,"is_disabled":false,"rental_uris":{"android":"levelo://app?vid=f645e30b-5616-45b3-a17d-faf4a49d971d","ios":"levelo://app?vid=f645e30b-5616-45b3-a17d-faf4a49d971d"},"vehicle_type_id":"4","last_reported":1777049593,"current_range_meters":10000,"station_id":"","pricing_plan_id":"cebpf4jnsgd1na2vs0mg"},{"bike_id":"358d20d4-fc9d-495a-af26-b64fd896b460","system_id":"levelo_inurba_marseille","lat":43.28338,"lon":5.38096,"is_reserved":false,"is_disabled":false,"rental_uris":{"android":"levelo://app?vid=358d20d4-fc9d-495a-af26-b64fd896b460","ios":"levelo://app?vid=358d20d4-fc9d-495a-af26-b64fd896b460"},"vehicle_type_id":"4","last_reported":1777049593,"current_range_meters":10000,"station_id":"ce4bh412rcd13ifvqdr0","pricing_plan_id":"cebpf4jnsgd1na2vs0mg"},