{"last_updated":1704246388,"ttl":30,"version":"2.2","data":{"bikes":[{"bike_id":"9728653f-2b81-49c0-9c34-1b267eef3a34","system_id":"levelo_inurba_marseille","lat":43.314811,"lon":5.373103,"is_reserved":false,"is_disabled":false,"rental_uris":{"android":"levelo://app?vid=9728653f-2b81-49c0-9c34-1b267eef3a34","ios":"levelo://app?vid=9728653f-2b81-49c0-9c34-1b267eef3a34"},"vehicle_type_id":"4","last_reported":1704246388,"current_range_meters":26800,"station_id":"ce4bgt12rcd13ifvqcd0","pricing_plan_id":"free"},{"bike_id":"20de4893-b994-4aff-8709-dd4becbad9ba","system_id":"levelo_inurba_marseille","lat":43.314811,"lon":5.373103,"is_reserved":false,"is_disabled":false,"rental_uris":{"android":"levelo://app?vid=20de4893-b994-4aff-8709-dd4becbad9ba","ios":"levelo://app?vid=20de4893-b994-4aff-8709-dd4becbad9ba"},"vehicle_type_id":"4","last_reported":1704246388,"current_range_meters":8800,"station_id":"ce4bgt12rcd13ifvqcd0","pricing_plan_id":"free"},{"bike_id":"09ca4c1b-df29-491e-826b-e00da85c6578","system_id":"levelo_inurba_marseille","lat":43.309039,"lon":5.371797,"is_reserved":false,"is_disabled":false,"rental_uris":{"android":"levelo://app?vid=09ca4c1b-df29-491e-826b-e00da85c6578","ios":"levelo://app?vid=09ca4c1b-df29-491e-826b-e00da85c6578"},"vehicle_type_id":"4","last_reported":1704246388,"current_range_meters":30400,"station_id":"ce4bguh2rcd13ifvqckg","pricing_plan_id":"free"},{"bike_id":"1f3e5c5e-7cd1-457d-8cc4-26c5c754281b","system_id":"levelo_inurba_marseille","lat":43.305368,"lon":5.367343,"is_reserved":false,"is_disabled":false,"rental_uris":{"android":"levelo://app?vid=1f3e5c5e-7cd1-457d-8cc4-26c5c754281b","ios":"levelo://app?vid=1f3e5c5e-7cd1-457d-8cc4-26c5c754281b"},"vehicle_type_id":"4","last_reported":1704246388,"current_range_meters":20400,"station_id":"ce4bgrp2rcd13ifvqc9g","pricing_plan_id":"free"},{"bike_id":"f01c0e26-b85f-4005-8fce-cca7c5eb38ff","system_id":"levelo_inurba_marseille","lat":43.305989,"lon":5.37225,"is_reserved":false,"is_disabled":false,"rental_uris":{"android":"levelo://app?vid=f01c0e26-b85f-4005-8fce-cca7c5eb38ff","ios":"levelo://app?vid=f01c0e26-b85f-4005-8fce-cca7c5eb38ff"},"vehicle_type_id":"4","last_reported":1704246388,"current_range_meters":26000,"station_id":"ce4bgqh2rcd13ifvqc4g","pricing_plan_id":"free"},{"bike_id":"be984103-ea98-4faf-b2d1-dfe440797b46","system_id":"levelo_inurba_marseille","lat":43.304278,"lon":5.388868,"is_reserved":false,"is_disabled":false,"rental_uris":{"android":"levelo://app?vid=be984103-ea98-4faf-b2d1-dfe440797b46","ios":"levelo://app?vid=be984103-ea98-4faf-b2d1-dfe440797b46"},"vehicle_type_id":"4","last_reported":1704246388,"current_range_meters":31600,"station_id":"ce4bgk12rcd13ifvqbi0","pricing_plan_id":"free"},{"bike_id":"22dac242-bdef-40d7-8c58-0934aa0ea87f","system_id":"levelo_inurba_marseille","lat":43.311131,"lon":5.377651,"is_reserved":false,"is_disabled":false,"rental_uris":{"android":"levelo://app?vid=22dac242-bdef-40d7-8c58-0934aa0ea87f","ios":"levelo://app?vid=22dac242-bdef-40d7-8c58-0934aa0ea87f"},"vehicle_type_id":"4","last_reported":1704246388,"current_range_meters":13600,"station_id":"ce4bgt92rcd13ifvqcg0","pricing_plan_id":"free"},{"bike_id":"3eba7ecc-f935-4c5b-b118-f1cbfb940304","system_id":"levelo_inurba_marseille","lat":43.311131,"lon":5.377651,"is_reserved":false,"is_disabled":false,"rental_uris":{"android":"levelo://app?vid=3eba7ecc-f935-4c5b-b118-f1cbfb940304","ios":"levelo://app?vid=3eba7ecc-f935-4c5b-b118-f1cbfb940304"},"vehicle_type_id":"4","last_reported":1704246388,"current_range_meters":21600,"station_id":"ce4bgt92rcd13ifvqcg0","pricing_plan_id":"free"},{"bike_id":"105fa009-c379-45ab-88e2-4fcd837cb773","system_id":"levelo_inurba_marseille","lat":43.311131,"lon":5.377651,"is_reserved":false,"is_disabled":false,"rental_uris":{"android":"levelo://app?vid=105fa009-c379-45ab-88e2-4fcd837cb773","ios":"levelo://app?vid=105fa009-c379-45ab-88e2-4fcd837cb773"},"vehicle_type_id":"4","last_reported":1704246388,"current_range_meters":22800,"station_id":"ce4bgt92rcd13ifvqcg0","pricing_plan_id":"free"},{"bike_id":"ae2b5f6d-2418-44f2-a47c-6c30176e6865","system_id":"levelo_inurba_marseille","lat":43.311125,"lon":5.377624,"is_reserved":false,"is_disabled":false,"rental_uris":{"android":"levelo://app?vid=ae2b5f6d-2418-44f2-a47c-6c30176e6865","ios":"levelo://app?vid=ae2b5f6d-2418-44f2-a47c-6c30176e6865"},"vehicle_type_id":"4","last_reported":1704246388,"current_range_meters":8000,"station_id":"ce4bgt92rcd13ifvqcg0","pricing_plan_id":"free"},{"bike_id":"36588b21-dbfd-456e-9949-8fd9c52d29b5","system_id":"levelo_inurba_marseille","lat":43.31722,"lon":5.37668,"is_reserved":false,"is_disabled":false,"rental_uris":{"android":"levelo://app?vid=36588b21-dbfd-456e-9949-8fd9c52d29b5","ios":"levelo://app?vid=36588b21-dbfd-456e-9949-8fd9c52d29b5"},"vehicle_type_id":"4","last_reported":1704246388,"current_range_meters":12400,"station_id":"","pricing_plan_id":"free"},{"bike_id":"ff633326-33cf-47ea-a14b-6fc757c2f549","system_id":"levelo_inurba_marseille","lat":43.307945,"lon":5.376487,"is_reserved":false,"is_disabled":false,"rental_uris":{"android":"levelo://app?vid=ff633326-33cf-47ea-a14b-6fc757c2f549","ios":"levelo://app?vid=ff633326-33cf-47ea-a14b-6fc757c2f549"},"vehicle_type_id":"4","last_reported":1704246388,"current_range_meters":28400,"station_id":"ce4bgv92rcd13ifvqcq0","pricing_plan_id":"free"},{"bike_id":"494cf91d-85f5-4037-b8c1-acbb6290c452","system_id":"levelo_inurba_marseille","lat":43.307945,"lon":5.376487,"is_reserved":false,"is_disabled":false,"rental_uris":{"android":"levelo://app?vid=494cf91d-85f5-4037-b8c1-acbb6290c452","ios":"levelo://app?vid=494cf91d-85f5-4037-b8c1-acbb6290c452"},"vehicle_type_id":"4","last_reported":1704246388,"current_range_meters":20000,"station_id":"ce4bgv92rcd13ifvqcq0","pricing_plan_id":"free"},{"bike_id":"4951b73f-8f1b-4a37-8d57-22ac948ca666","system_id":"levelo_inurba_marseille","lat":43.307945,"lon":5.376487,"is_reserved":false,"is_disabled":false,"rental_uris":{"android":"levelo://app?vid=4951b73f-8f1b-4a37-8d57-22ac948ca666","ios":"levelo://app?vid=4951b73f-8f1b-4a37-8d57-22ac948ca666"},"vehicle_type_id":"4","last_reported":1704246388,"current_range_meters":21200,"station_id":"ce4bgv92rcd13ifvqcq0","pricing_plan_id":"free"},{"bike_id":"f79f74eb-d6d1-44cf-bc5b-4bebecf35b4e","system_id":"levelo_inurba_marseille","lat":43.307945,"lon":5.376487,"is_reserved":false,"is_disabled":false,"rental_uris":{"android":"levelo://app?vid=f79f74eb-d6d1-44cf-bc5b-4bebecf35b4e","ios":"levelo://app?vid=f79f74eb-d6d1-44cf-bc5b-4bebecf35b4e"},"vehicle_type_id":"4","last_reported":1704246388,"current_range_meters":4000,"station_id":"ce4bgv92rcd13ifvqcq0","pricing_plan_id":"free"},{"bike_id":"377c8254-82f4-487c-b5e0-397493086885","system_id":"levelo_inurba_marseille","lat":43.307945,"lon":5.376487,"is_reserved":false,"is_disabled":false,"rental_uris":{"android":"levelo://app?vid=377c8254-82f4-487c-b5e0-397493086885","ios":"levelo://app?vid=377c8254-82f4-487c-b5e0-397493086885"},"vehicle_type_id":"4","last_reported":1704246388,"current_range_meters":30800,"station_id":"ce4bgv92rcd13ifvqcq0","pricing_plan_id":"free"},{"bike_id":"1ddd25bc-f049-47d9-97a9-c2423de75239","system_id":"levelo_inurba_marseille","lat":43.303046,"lon":5.368981,"is_reserved":false,"is_disabled":false,"rental_uris":{"android":"levelo://app?vid=1ddd25bc-f049-47d9-97a9-c2423de75239","ios":"levelo://app?vid=1ddd25bc-f049-47d9-97a9-c2423de75239"},"vehicle_type_id":"4","last_reported":1704246388,"current_range_meters":27200,"station_id":"ce4bgqh2rcd13ifvqc5g","pricing_plan_id":"free"},{"bike_id":"0f6bc925-3f6d-49ee-9d89-6c03e52f46af","system_id":"levelo_inurba_marseille","lat":43.315319,"lon":5.380288,"is_reserved":false,"is_disabled":false,"rental_uris":{"android":"levelo://app?vid=0f6bc925-3f6d-49ee-9d89-6c03e52f46af","ios":"levelo://app?vid=0f6bc925-3f6d-49ee-9d89-6c03e52f46af"},"vehicle_type_id":"4","last_reported":1704246388,"current_range_meters":23600,"station_id":"ce4bhsp2rcd13ifvqi50","pricing_plan_id":"free"},{"bike_id":"3f8aa690-0c73-437f-93d5-43cf476c40d2","system_id":"levelo_inurba_marseille","lat":43.301939,"lon":5.366286,"is_reserved":false,"is_disabled":false,"rental_uris":{"android":"levelo://app?vid=3f8aa690-0c73-437f-93d5-43cf476c40d2","ios":"levelo://app?vid=3f8aa690-0c73-437f-93d5-43cf476c40d2"},"vehicle_type_id":"4","last_reported":1704246388,"current_range_meters":28800,"station_id":"ce4bgrh2rcd13ifvqc8g","pricing_plan_id":"free"},{"bike_id":"7437da4f-60f9-4c4e-8610-7f28098550a8","system_id":"levelo_inurba_marseille","lat":43.301939,"lon":5.366286,"is_reserved":false,"is_disabled":false,"rental_uris":{"android":"levelo://app?vid=7437da4f-60f9-4c4e-8610-7f28098550a8","ios":"levelo://app?vid=7437da4f-60f9-4c4e-8610-7f28098550a8"},"vehicle_type_id":"4","last_reported":1704246388,"current_range_meters":30400,"station_id":"ce4bgrh2rcd13ifvqc8g","pricing_plan_id":"free"},{"bike_id":"1ea4e237-7cde-4bf8-9f74-fecf912886a4","system_id":"levelo_inurba_marseille","lat":43.308012,"lon":5.381511,"is_reserved":false,"is_disabled":false,"rental_uris":{"android":"levelo://app?vid=1ea4e237-7cde-4bf8-9f74-fecf912886a4","ios":"levelo://app?vid=1ea4e237-7cde-4bf8-9f74-fecf912886a4"},"vehicle_type_id":"4","last_reported":1704246388,"current_range_meters":19200,"station_id":"ce4bgt12rcd13ifvqce0","pricing_plan_id":"free"},{"bike_id":"db40e2cb-d0e6-4d60-b096-fbdf3c39fdc2","system_id":"levelo_inurba_marseille","lat":43.308012,"lon":5.381511,"is_reserved":false,"is_disabled":false,"rental_uris":{"android":"levelo://app?vid=db40e2cb-d0e6-4d60-b096-fbdf3c39fdc2","ios":"levelo://app?vid=db40e2cb-d0e6-4d60-b096-fbdf3c39fdc2"},"vehicle_type_id":"4","last_reported":1704246388,"current_range_meters":8800,"station_id":"ce4bgt12rcd13ifvqce0","pricing_plan_id":"free"},{"bike_id":"5377074b-30e2-4d67-825b-9deb3b1dbed3","system_id":"levelo_inurba_marseille","lat":43.304708,"lon":5.379039,"is_reserved":false,"is_disabled":false,"rental_uris":{"android":"levelo://app?vid=5377074b-30e2-4d67-825b-9deb3b1dbed3","ios":"levelo://app?vid=5377074b-30e2-4d67-825b-9deb3b1dbed3"},"vehicle_type_id":"4","last_reported":1704246388,"current_range_meters":8800,"station_id":"","pricing_plan_id":"free"},{"bike_id":"e85e9968-be1f-441d-a2ef-3c2f7828282a","system_id":"levelo_inurba_marseille","lat":43.301429,"lon":5.37413,"is_reserved":false,"is_disabled":false,"rental_uris":{"android":"levelo://app?vid=e85e9968-be1f-441d-a2ef-3c2f7828282a","ios":"levelo://app?vid=e85e9968-be1f-441d-a2ef-3c2f7828282a"},"vehicle_type_id":"4","last_reported":1704246388,"current_range_meters":22400,"station_id":"ce4bgs92rcd13ifvqcc0","pricing_plan_id":"free"},{"bike_id":"617d36a1-dfe7-4f34-9340-1ffc9442c545","system_id":"levelo_inurba_marseille","lat":43.302874,"lon":5.376969,"is_reserved":false,"is_disabled":false,"rental_uris":{"android":"levelo://app?vid=617d36a1-dfe7-4f34-9340-1ffc9442c545","ios":"levelo://app?vid=617d36a1-dfe7-4f34-9340-1ffc9442c545"},"vehicle_type_id":"4","last_reported":1704246388,"current_range_meters":21200,"station_id":"","pricing_plan_id":"free"},{"bike_id":"4fd61088-6c40-4a9a-be8f-a9eb5ec82138","system_id":"levelo_inurba_marseille","lat":43.319935,"lon":5.381699,"is_reserved":false,"is_disabled":false,"rental_uris":{"android":"levelo://app?vid=4fd61088-6c40-4a9a-be8f-a9eb5ec82138","ios":"levelo://app?vid=4fd61088-6c40-4a9a-be8f-a9eb5ec82138"},"vehicle_type_id":"4","last_reported":1704246388,"current_range_meters":12800,"station_id":"ce4bhr12rcd13ifvqhpg","pricing_plan_id":"free"},{"bike_id":"fac09546-635f-44ff-8bc6-dac2c43835ac","system_id":"levelo_inurba_marseille","lat":43.319935,"lon":5.381699,"is_reserved":false,"is_disabled":false,"rental_uris":{"android":"levelo://app?vid=fac09546-635f-44ff-8bc6-dac2c43835ac","ios":"levelo://app?vid=fac09546-635f-44ff-8bc6-dac2c43835ac"},"vehicle_type_id":"4","last_reported":1704246388,"current_range_meters":31200,"station_id":"ce4bhr12rcd13ifvqhpg","pricing_plan_id":"free"},{"bike_id":"d29cbdc2-1cdd-474a-8699-1e84a691899e","system_id":"levelo_inurba_marseille","lat":43.319935,"lon":5.381699,"is_reserved":false,"is_disabled":false,"rental_uris":{"android":"levelo://app?vid=d29cbdc2-1cdd-474a-8699-1e84a691899e","ios":"levelo://app?vid=d29cbdc2-1cdd-474a-8699-1e84a691899e"},"vehicle_type_id":"4","last_reported":1704246388,"current_range_meters":31200,"station_id":"ce4bhr12rcd13ifvqhpg","pricing_plan_id":"free"},{"bike_id":"d60c186d-8dd5-4367-932d-c10a72aed291","system_id":"levelo_inurba_marseille","lat":43.313571,"lon":5.384829,"is_reserved":false,"is_disabled":false,"rental_uris":{"android":"levelo://app?vid=d60c186d-8dd5-4367-932d-c10a72aed291","ios":"levelo://app?vid=d60c186d-8dd5-4367-932d-c10a72aed291"},"vehicle_type_id":"4","last_reported":1704246388,"current_range_meters":31600,"station_id":"ce4bgt92rcd13ifvqcf0","pricing_plan_id":"free"},{"bike_id":"9581834e-b3d6-461a-a43d-abcf254d485f","system_id":"levelo_inurba_marseille","lat":43.299639,"lon":5.365807,"is_reserved":false,"is_disabled":false,"rental_uris":{"android":"levelo://app?vid=9581834e-b3d6-461a-a43d-abcf254d485f","ios":"levelo://app?vid=9581834e-b3d6-461a-a43d-abcf254d485f"},"vehicle_type_id":"4","last_reported":1704246388,"current_range_meters":28400,"station_id":"","pricing_plan_id":"free"},{"bike_id":"700c2f96-48ba-4bf6-98ab-0d28df5cfec1","system_id":"levelo_inurba_marseille","lat":43.313571,"lon":5.384829,"is_reserved":false,"is_disabled":false,"rental_uris":{"android":"levelo://app?vid=700c2f96-48ba-4bf6-98ab-0d28df5cfec1","ios":"levelo://app?vid=700c2f96-48ba-4bf6-98ab-0d28df5cfec1"},"vehicle_type_id":"4","last_reported":1704246388,"current_range_meters":30400,"station_id":"ce4bgt92rcd13ifvqcf0","pricing_plan_id":"free"},{"bike_id":"918b0c4f-9f90-4a33-8454-b6b062a47494","system_id":"levelo_inurba_marseille","lat":43.313571,"lon":5.384829,"is_reserved":false,"is_disabled":false,"rental_uris":{"android":"levelo://app?vid=918b0c4f-9f90-4a33-8454-b6b062a47494","ios":"levelo://app?vid=918b0c4f-9f90-4a33-8454-b6b062a47494"},"vehicle_type_id":"4","last_reported":1704246388,"current_range_meters":30000,"station_id":"ce4bgt92rcd13ifvqcf0","pricing_plan_id":"free"},{"bike_id":"ea8dd7d5-08f4-413f-bff9-8f3c1a713d75","system_id":"levelo_inurba_marseille","lat":43.313571,"lon":5.384829,"is_reserved":false,"is_disabled":false,"rental_uris":{"android":"levelo://app?vid=ea8dd7d5-08f4-413f-bff9-8f3c1a713d75","ios":"levelo://app?vid=ea8dd7d5-08f4-413f-bff9-8f3c1a713d75"},"vehicle_type_id":"4","last_reported":1704246388,"current_range_meters":30800,"station_id":"ce4bgt92rcd13ifvqcf0","pricing_plan_id":"free"},{"bike_id":"46c55e44-38ac-4c19-9373-8a3342a01177","system_id":"levelo_inurba_marseille","lat":43.31312,"lon":5.38504,"is_reserved":false,"is_disabled":false,"rental_uris":{"android":"levelo://app?vid=46c55e44-38ac-4c19-9373-8a3342a01177","ios":"levelo://app?vid=46c55e44-38ac-4c19-9373-8a3342a01177"},"vehicle_type_id":"4","last_reported":1704246388,"current_range_meters":13600,"station_id":"","pricing_plan_id":"free"},{"bike_id":"549d8abe-bb09-47ec-80d6-02d212351059","system_id":"levelo_inurba_marseille","lat":43.313571,"lon":5.384829,"is_reserved":false,"is_disabled":false,"rental_uris":{"android":"levelo://app?vid=549d8abe-bb09-47ec-80d6-02d212351059","ios":"levelo://app?vid=549d8abe-bb09-47ec-80d6-02d212351059"},"vehicle_type_id":"4","last_reported":1704246388,"current_range_meters":12000,"station_id":"ce4bgt92rcd13ifvqcf0","pricing_plan_id":"free"},{"bike_id":"17504bde-947a-4cd6-98b3-9a4c66aca99b","system_id":"levelo_inurba_marseille","lat":43.313827,"lon":5.385007,"is_reserved":false,"is_disabled":false,"rental_uris":{"android":"levelo://app?vid=17504bde-947a-4cd6-98b3-9a4c66aca99b","ios":"levelo://app?vid=17504bde-947a-4cd6-98b3-9a4c66aca99b"},"vehicle_type_id":"4","last_reported":1704246388,"current_range_meters":19200,"station_id":"ce4bgt92rcd13ifvqcf0","pricing_plan_id":"free"},{"bike_id":"e5573ed6-a4d6-4737-8acc-e585b57e0427","system_id":"levelo_inurba_marseille","lat":43.313571,"lon":5.384829,"is_reserved":false,"is_disabled":false,"rental_uris":{"android":"levelo://app?vid=e5573ed6-a4d6-4737-8acc-e585b57e0427","ios":"levelo://app?vid=e5573ed6-a4d6-4737-8acc-e585b57e0427"},"vehicle_type_id":"4","last_reported":1704246388,"current_range_meters":27200,"station_id":"ce4bgt92rcd13ifvqcf0","pricing_plan_id":"free"},{"bike_id":"2db87c88-e576-4960-b756-94fdeffbbfdd","system_id":"levelo_inurba_marseille","lat":43.299222,"lon":5.365554,"is_reserved":false,"is_disabled":false,"rental_uris":{"android":"levelo://app?vid=2db87c88-e576-4960-b756-94fdeffbbfdd","ios":"levelo://app?vid=2db87c88-e576-4960-b756-94fdeffbbfdd"},"vehicle_type_id":"4","last_reported":1704246388,"current_range_meters":8400,"station_id":"ce4bgm92rcd13ifvqbr0","pricing_plan_id":"free"},{"bike_id":"d19eba51-6aea-4f36-915e-a1e02de5709c","system_id":"levelo_inurba_marseille","lat":43.311722,"lon":5.387247,"is_reserved":false,"is_disabled":false,"rental_uris":{"android":"levelo://app?vid=d19eba51-6aea-4f36-915e-a1e02de5709c","ios":"levelo://app?vid=d19eba51-6aea-4f36-915e-a1e02de5709c"},"vehicle_type_id":"4","last_reported":1704246388,"current_range_meters":12000,"station_id":"ce4bgv12rcd13ifvqcp0","pricing_plan_id":"free"},{"bike_id":"32017a6d-23ea-40ad-9cae-c15467ecc4b1","system_id":"levelo_inurba_marseille","lat":43.311722,"lon":5.387247,"is_reserved":false,"is_disabled":false,"rental_uris":{"android":"levelo://app?vid=32017a6d-23ea-40ad-9cae-c15467ecc4b1","ios":"levelo://app?vid=32017a6d-23ea-40ad-9cae-c15467ecc4b1"},"vehicle_type_id":"4","last_reported":1704246388,"current_range_meters":27600,"station_id":"ce4bgv12rcd13ifvqcp0","pricing_plan_id":"free"},{"bike_id":"55ef0d3a-76db-43f2-a8fc-7d1979f095e7","system_id":"levelo_inurba_marseille","lat":43.311722,"lon":5.387247,"is_reserved":false,"is_disabled":false,"rental_uris":{"android":"levelo://app?vid=55ef0d3a-76db-43f2-a8fc-7d1979f095e7","ios":"levelo://app?vid=55ef0d3a-76db-43f2-a8fc-7d1979f095e7"},"vehicle_type_id":"4","last_reported":1704246388,"current_range_meters":29600,"station_id":"ce4bgv12rcd13ifvqcp0","pricing_plan_id":"free"},{"bike_id":"38d45fe3-c81a-41b1-beb2-ac02bf76c25d","system_id":"levelo_inurba_marseille","lat":43.311722,"lon":5.387247,"is_reserved":false,"is_disabled":false,"rental_uris":{"android":"levelo://app?vid=38d45fe3-c81a-41b1-beb2-ac02bf76c25d","ios":"levelo://app?vid=38d45fe3-c81a-41b1-beb2-ac02bf76c25d"},"vehicle_type_id":"4","last_reported":1704246388,"current_range_meters":19600,"station_id":"ce4bgv12rcd13ifvqcp0","pricing_plan_id":"free"},{"bike_id":"309bd82c-59cf-4e46-88b1-ff9890441619","system_id":"levelo_inurba_marseille","lat":43.311722,"lon":5.387247,"is_reserved":false,"is_disabled":false,"rental_uris":{"android":"levelo://app?vid=309bd82c-59cf-4e46-88b1-ff9890441619","ios":"levelo://app?vid=309bd82c-59cf-4e46-88b1-ff9890441619"},"vehicle_type_id":"4","last_reported":1704246388,"current_range_meters":28000,"station_id":"ce4bgv12rcd13ifvqcp0","pricing_plan_id":"free"},{"bike_id":"3b379c4a-a87a-42b2-b7a1-deaf312adf2a","system_id":"levelo_inurba_marseille","lat":43.311722,"lon":5.387247,"is_reserved":false,"is_disabled":false,"rental_uris":{"android":"levelo://app?vid=3b379c4a-a87a-42b2-b7a1-deaf312adf2a","ios":"levelo://app?vid=3b379c4a-a87a-42b2-b7a1-deaf312adf2a"},"vehicle_type_id":"4","last_reported":1704246388,"current_range_meters":23600,"station_id":"ce4bgv12rcd13ifvqcp0","pricing_plan_id":"free"},{"bike_id":"9e316ee8-7f02-4c13-8183-4d9c57cafd93","system_id":"levelo_inurba_marseille","lat":43.311722,"lon":5.387247,"is_reserved":false,"is_disabled":false,"rental_uris":{"android":"levelo://app?vid=9e316ee8-7f02-4c13-8183-4d9c57cafd93","ios":"levelo://app?vid=9e316ee8-7f02-4c13-8183-4d9c57cafd93"},"vehicle_type_id":"4","last_reported":1704246388,"current_range_meters":21600,"station_id":"ce4bgv12rcd13ifvqcp0","pricing_plan_id":"free"},{"bike_id":"b0c1a9e7-56dc-4b8d-b008-70e58612174a","system_id":"levelo_inurba_marseille","lat":43.311722,"lon":5.387247,"is_reserved":false,"is_disabled":false,"rental_uris":{"android":"levelo://app?vid=b0c1a9e7-56dc-4b8d-b008-70e58612174a","ios":"levelo://app?vid=b0c1a9e7-56dc-4b8d-b008-70e58612174a"},"vehicle_type_id":"4","last_reported":1704246388,"current_range_meters":11200,"station_id":"ce4bgv12rcd13ifvqcp0","pricing_plan_id":"free"},{"bike_id":"c2e37c1a-0678-4f11-a1e2-2f3c1cf93638","system_id":"levelo_inurba_marseille","lat":43.311722,"lon":5.387247,"is_reserved":false,"is_disabled":false,"rental_uris":{"android":"levelo://app?vid=c2e37c1a-0678-4f11-a1e2-2f3c1cf93638","ios":"levelo://app?vid=c2e37c1a-0678-4f11-a1e2-2f3c1cf93638"},"vehicle_type_id":"4","last_reported":1704246388,"current_range_meters":27600,"station_id":"ce4bgv12rcd13ifvqcp0","pricing_plan_id":"free"},{"bike_id":"f629bdd7-11a7-4b7c-9182-6332f4076f6b","system_id":"levelo_inurba_marseille","lat":43.325524,"lon":5.377309,"is_reserved":false,"is_disabled":false,"rental_uris":{"android":"levelo://app?vid=f629bdd7-11a7-4b7c-9182-6332f4076f6b","ios":"levelo://app?vid=f629bdd7-11a7-4b7c-9182-6332f4076f6b"},"vehicle_type_id":"4","last_reported":1704246388,"current_range_meters":16800,"station_id":"","pricing_plan_id":"free"},{"bike_id":"8752a032-5a63-4551-8b69-590b5f45408e","system_id":"levelo_inurba_marseille","lat":43.322872,"lon":5.382756,"is_reserved":false,"is_disabled":false,"rental_uris":{"android":"levelo://app?vid=8752a032-5a63-4551-8b69-590b5f45408e","ios":"levelo://app?vid=8752a032-5a63-4551-8b69-590b5f45408e"},"vehicle_type_id":"4","last_reported":1704246388,"current_range_meters":24800,"station_id":"ce4bhr12rcd13ifvqhqg","pricing_plan_id":"free"},{"bike_id":"db9a3172-0444-44e1-98b7-ca7a2f84f3e8","system_id":"levelo_inurba_marseille","lat":43.328371,"lon":5.366912,"is_reserved":false,"is_disabled":false,"rental_uris":{"android":"levelo://app?vid=db9a3172-0444-44e1-98b7-ca7a2f84f3e8","ios":"levelo://app?vid=db9a3172-0444-44e1-98b7-ca7a2f84f3e8"},"vehicle_type_id":"4","last_reported":1704246388,"current_range_meters":21600,"station_id":"ce4bhs92rcd13ifvqi0g","pricing_plan_id":"free"},{"bike_id":"e25879d8-1688-47e8-8a17-f3fd5e5877cc","system_id":"levelo_inurba_marseille","lat":43.328371,"lon":5.366912,"is_reserved":false,"is_disabled":false,"rental_uris":{"android":"levelo://app?vid=e25879d8-1688-47e8-8a17-f3fd5e5877cc","ios":"levelo://app?vid=e25879d8-1688-47e8-8a17-f3fd5e5877cc"},"vehicle_type_id":"4","last_reported":1704246388,"current_range_meters":8000,"station_id":"ce4bhs92rcd13ifvqi0g","pricing_plan_id":"free"},{"bike_id":"2c34cac5-58a3-4ec6-a51a-0e680d5b2c4e","system_id":"levelo_inurba_marseille","lat":43.328371,"lon":5.366912,"is_reserved":false,"is_disabled":false,"rental_uris":{"android":"levelo://app?vid=2c34cac5-58a3-4ec6-a51a-0e680d5b2c4e","ios":"levelo://app?vid=2c34cac5-58a3-4ec6-a51a-0e680d5b2c4e"},"vehicle_type_id":"4","last_reported":1704246388,"current_range_meters":17600,"station_id":"ce4bhs92rcd13ifvqi0g","pricing_plan_id":"free"},{"bike_id":"2b06df78-a4c1-486a-a736-ddc81ebff8e0","system_id":"levelo_inurba_marseille","lat":43.328371,"lon":5.366912,"is_reserved":false,"is_disabled":false,"rental_uris":{"android":"levelo://app?vid=2b06df78-a4c1-486a-a736-ddc81ebff8e0","ios":"levelo://app?vid=2b06df78-a4c1-486a-a736-ddc81ebff8e0"},"vehicle_type_id":"4","last_reported":1704246388,"current_range_meters":9200,"station_id":"ce4bhs92rcd13ifvqi0g","pricing_plan_id":"free"},{"bike_id":"98fd740c-da1c-45aa-a4bb-91192fa701c6","system_id":"levelo_inurba_marseille","lat":43.328371,"lon":5.366912,"is_reserved":false,"is_disabled":false,"rental_uris":{"android":"levelo://app?vid=98fd740c-da1c-45aa-a4bb-91192fa701c6","ios":"levelo://app?vid=98fd740c-da1c-45aa-a4bb-91192fa701c6"},"vehicle_type_id":"4","last_reported":1704246388,"current_range_meters":9600,"station_id":"ce4bhs92rcd13ifvqi0g","pricing_plan_id":"free"},{"bike_id":"f206342c-38bc-4948-a4e1-517e8437b144","system_id":"levelo_inurba_marseille","lat":43.328371,"lon":5.366912,"is_reserved":false,"is_disabled":false,"rental_uris":{"android":"levelo://app?vid=f206342c-38bc-4948-a4e1-517e8437b144","ios":"levelo://app?vid=f206342c-38bc-4948-a4e1-517e8437b144"},"vehicle_type_id":"4","last_reported":1704246388,"current_range_meters":9600,"station_id":"ce4bhs92rcd13ifvqi0g","pricing_plan_id":"free"},{"bike_id":"e28561fb-12be-479c-b25b-76a2243fc1a3","system_id":"levelo_inurba_marseille","lat":43.297163,"lon":5.365866,"is_reserved":false,"is_disabled":false,"rental_uris":{"android":"levelo://app?vid=e28561fb-12be-479c-b25b-76a2243fc1a3","ios":"levelo://app?vid=e28561fb-12be-479c-b25b-76a2243fc1a3"},"vehicle_type_id":"4","last_reported":1704246388,"current_range_meters":29600,"station_id":"ce4bgn12rcd13ifvqbt0","pricing_plan_id":"free"},{"bike_id":"93040ec0-36dd-4720-acae-bbde2ea0a2a2","system_id":"levelo_inurba_marseille","lat":43.297163,"lon":5.365866,"is_reserved":false,"is_disabled":false,"rental_uris":{"android":"levelo://app?vid=93040ec0-36dd-4720-acae-bbde2ea0a2a2","ios":"levelo://app?vid=93040ec0-36dd-4720-acae-bbde2ea0a2a2"},"vehicle_type_id":"4","last_reported":1704246388,"current_range_meters":18400,"station_id":"ce4bgn12rcd13ifvqbt0","pricing_plan_id":"free"},{"bike_id":"370cccf7-c9ba-46c2-819b-c8e8cacc4c21","system_id":"levelo_inurba_marseille","lat":43.3277,"lon":5.37458,"is_reserved":false,"is_disabled":false,"rental_uris":{"android":"levelo://app?vid=370cccf7-c9ba-46c2-819b-c8e8cacc4c21","ios":"levelo://app?vid=370cccf7-c9ba-46c2-819b-c8e8cacc4c21"},"vehicle_type_id":"4","last_reported":1704246388,"current_range_meters":6800,"station_id":"","pricing_plan_id":"free"},{"bike_id":"dd084ed1-b531-44a0-a036-09967c1de61c","system_id":"levelo_inurba_marseille","lat":43.296935,"lon":5.376544,"is_reserved":false,"is_disabled":false,"rental_uris":{"android":"levelo://app?vid=dd084ed1-b531-44a0-a036-09967c1de61c","ios":"levelo://app?vid=dd084ed1-b531-44a0-a036-09967c1de61c"},"vehicle_type_id":"4","last_reported":1704246388,"current_range_meters":29600,"station_id":"ce4bgkh2rcd13ifvqbl0","pricing_plan_id":"free"},{"bike_id":"44b10b60-d8dc-4e9f-ac7c-734c1e72d449","system_id":"levelo_inurba_marseille","lat":43.309589,"lon":5.390258,"is_reserved":false,"is_disabled":false,"rental_uris":{"android":"levelo://app?vid=44b10b60-d8dc-4e9f-ac7c-734c1e72d449","ios":"levelo://app?vid=44b10b60-d8dc-4e9f-ac7c-734c1e72d449"},"vehicle_type_id":"4","last_reported":1704246388,"current_range_meters":26800,"station_id":"ce4bgup2rcd13ifvqco0","pricing_plan_id":"free"},{"bike_id":"2acdf301-fcaa-4097-8571-9b289f82400e","system_id":"levelo_inurba_marseille","lat":43.317557,"lon":5.390173,"is_reserved":false,"is_disabled":false,"rental_uris":{"android":"levelo://app?vid=2acdf301-fcaa-4097-8571-9b289f82400e","ios":"levelo://app?vid=2acdf301-fcaa-4097-8571-9b289f82400e"},"vehicle_type_id":"4","last_reported":1704246388,"current_range_meters":11600,"station_id":"ce4bhqp2rcd13ifvqhng","pricing_plan_id":"free"},{"bike_id":"0eb73cc6-5f0c-4ec4-a733-5a219c159f57","system_id":"levelo_inurba_marseille","lat":43.317557,"lon":5.390173,"is_reserved":false,"is_disabled":false,"rental_uris":{"android":"levelo://app?vid=0eb73cc6-5f0c-4ec4-a733-5a219c159f57","ios":"levelo://app?vid=0eb73cc6-5f0c-4ec4-a733-5a219c159f57"},"vehicle_type_id":"4","last_reported":1704246388,"current_range_meters":31200,"station_id":"ce4bhqp2rcd13ifvqhng","pricing_plan_id":"free"},{"bike_id":"e44fa06b-05a6-4cba-821c-24cadb7830e3","system_id":"levelo_inurba_marseille","lat":43.317557,"lon":5.390173,"is_reserved":false,"is_disabled":false,"rental_uris":{"android":"levelo://app?vid=e44fa06b-05a6-4cba-821c-24cadb7830e3","ios":"levelo://app?vid=e44fa06b-05a6-4cba-821c-24cadb7830e3"},"vehicle_type_id":"4","last_reported":1704246388,"current_range_meters":18800,"station_id":"ce4bhqp2rcd13ifvqhng","pricing_plan_id":"free"},{"bike_id":"098ff74a-980a-4707-b6b0-2dc5a4d73c7d","system_id":"levelo_inurba_marseille","lat":43.317557,"lon":5.390173,"is_reserved":false,"is_disabled":false,"rental_uris":{"android":"levelo://app?vid=098ff74a-980a-4707-b6b0-2dc5a4d73c7d","ios":"levelo://app?vid=098ff74a-980a-4707-b6b0-2dc5a4d73c7d"},"vehicle_type_id":"4","last_reported":1704246388,"current_range_meters":31200,"station_id":"ce4bhqp2rcd13ifvqhng","pricing_plan_id":"free"},{"bike_id":"aba2dea7-8749-4460-a621-73aa014d0f3f","system_id":"levelo_inurba_marseille","lat":43.317557,"lon":5.390173,"is_reserved":false,"is_disabled":false,"rental_uris":{"android":"levelo://app?vid=aba2dea7-8749-4460-a621-73aa014d0f3f","ios":"levelo://app?vid=aba2dea7-8749-4460-a621-73aa014d0f3f"},"vehicle_type_id":"4","last_reported":1704246388,"current_range_meters":28400,"station_id":"ce4bhqp2rcd13ifvqhng","pricing_plan_id":"free"},{"bike_id":"ddb8f620-eee6-447b-9f26-57a6d8a7834a","system_id":"levelo_inurba_marseille","lat":43.317643,"lon":5.390161,"is_reserved":false,"is_disabled":false,"rental_uris":{"android":"levelo://app?vid=ddb8f620-eee6-447b-9f26-57a6d8a7834a","ios":"levelo://app?vid=ddb8f620-eee6-447b-9f26-57a6d8a7834a"},"vehicle_type_id":"4","last_reported":1704246388,"current_range_meters":31200,"station_id":"ce4bhqp2rcd13ifvqhng","pricing_plan_id":"free"},{"bike_id":"d30892ed-fff9-452b-8e88-40c42bdd8755","system_id":"levelo_inurba_marseille","lat":43.317557,"lon":5.390173,"is_reserved":false,"is_disabled":false,"rental_uris":{"android":"levelo://app?vid=d30892ed-fff9-452b-8e88-40c42bdd8755","ios":"levelo://app?vid=d30892ed-fff9-452b-8e88-40c42bdd8755"},"vehicle_type_id":"4","last_reported":1704246388,"current_range_meters":10800,"station_id":"ce4bhqp2rcd13ifvqhng","pricing_plan_id":"free"},{"bike_id":"e9dfd98d-d24d-47aa-9523-919ae7c8a368","system_id":"levelo_inurba_marseille","lat":43.317557,"lon":5.390173,"is_reserved":false,"is_disabled":false,"rental_uris":{"android":"levelo://app?vid=e9dfd98d-d24d-47aa-9523-919ae7c8a368","ios":"levelo://app?vid=e9dfd98d-d24d-47aa-9523-919ae7c8a368"},"vehicle_type_id":"4","last_reported":1704246388,"current_range_meters":31200,"station_id":"ce4bhqp2rcd13ifvqhng","pricing_plan_id":"free"},{"bike_id":"ae431fd3-1a34-40ce-bc94-288a9442b313","system_id":"levelo_inurba_marseille","lat":43.304274,"lon":5.388873,"is_reserved":false,"is_disabled":false,"rental_uris":{"android":"levelo://app?vid=ae431fd3-1a34-40ce-bc94-288a9442b313","ios":"levelo://app?vid=ae431fd3-1a34-40ce-bc94-288a9442b313"},"vehicle_type_id":"4","last_reported":1704246388,"current_range_meters":25200,"station_id":"ce4bgk12rcd13ifvqbi0","pricing_plan_id":"free"},{"bike_id":"fa0a4291-4e53-4abd-8624-3c54c908fbef","system_id":"levelo_inurba_marseille","lat":43.304274,"lon":5.388873,"is_reserved":false,"is_disabled":false,"rental_uris":{"android":"levelo://app?vid=fa0a4291-4e53-4abd-8624-3c54c908fbef","ios":"levelo://app?vid=fa0a4291-4e53-4abd-8624-3c54c908fbef"},"vehicle_type_id":"4","last_reported":1704246388,"current_range_meters":21200,"station_id":"ce4bgk12rcd13ifvqbi0","pricing_plan_id":"free"},{"bike_id":"6a6d8e46-469a-497d-8537-9cc1cfae6169","system_id":"levelo_inurba_marseille","lat":43.304278,"lon":5.388868,"is_reserved":false,"is_disabled":false,"rental_uris":{"android":"levelo://app?vid=6a6d8e46-469a-497d-8537-9cc1cfae6169","ios":"levelo://app?vid=6a6d8e46-469a-497d-8537-9cc1cfae6169"},"vehicle_type_id":"4","last_reported":1704246388,"current_range_meters":22400,"station_id":"ce4bgk12rcd13ifvqbi0","pricing_plan_id":"free"},{"bike_id":"d60802d6-4f47-444a-b234-883690eec05b","system_id":"levelo_inurba_marseille","lat":43.33062,"lon":5.3627,"is_reserved":false,"is_disabled":false,"rental_uris":{"android":"levelo://app?vid=d60802d6-4f47-444a-b234-883690eec05b","ios":"levelo://app?vid=d60802d6-4f47-444a-b234-883690eec05b"},"vehicle_type_id":"4","last_reported":1704246388,"current_range_meters":13600,"station_id":"","pricing_plan_id":"free"},{"bike_id":"7c383581-c457-4e53-ba0c-6f40d6b4c59c","system_id":"levelo_inurba_marseille","lat":43.304274,"lon":5.388873,"is_reserved":false,"is_disabled":false,"rental_uris":{"android":"levelo://app?vid=7c383581-c457-4e53-ba0c-6f40d6b4c59c","ios":"levelo://app?vid=7c383581-c457-4e53-ba0c-6f40d6b4c59c"},"vehicle_type_id":"4","last_reported":1704246388,"current_range_meters":20800,"station_id":"ce4bgk12rcd13ifvqbi0","pricing_plan_id":"free"},{"bike_id":"23d62633-32bc-45ee-b645-dcb75be9be21","system_id":"levelo_inurba_marseille","lat":43.29538,"lon":5.375,"is_reserved":false,"is_disabled":false,"rental_uris":{"android":"levelo://app?vid=23d62633-32bc-45ee-b645-dcb75be9be21","ios":"levelo://app?vid=23d62633-32bc-45ee-b645-dcb75be9be21"},"vehicle_type_id":"4","last_reported":1704246388,"current_range_meters":20000,"station_id":"ce4bgi92rcd13ifvqb90","pricing_plan_id":"free"},{"bike_id":"7119845d-00aa-4d9f-be8c-fc97d41f1380","system_id":"levelo_inurba_marseille","lat":43.297594,"lon":5.381134,"is_reserved":false,"is_disabled":false,"rental_uris":{"android":"levelo://app?vid=7119845d-00aa-4d9f-be8c-fc97d41f1380","ios":"levelo://app?vid=7119845d-00aa-4d9f-be8c-fc97d41f1380"},"vehicle_type_id":"4","last_reported":1704246388,"current_range_meters":2000,"station_id":"ce4bgip2rcd13ifvqbb0","pricing_plan_id":"free"},{"bike_id":"74a229bc-114b-4c48-b891-39a55deb7a18","system_id":"levelo_inurba_marseille","lat":43.32367,"lon":5.388836,"is_reserved":false,"is_disabled":false,"rental_uris":{"android":"levelo://app?vid=74a229bc-114b-4c48-b891-39a55deb7a18","ios":"levelo://app?vid=74a229bc-114b-4c48-b891-39a55deb7a18"},"vehicle_type_id":"4","last_reported":1704246388,"current_range_meters":23600,"station_id":"ce4bhqp2rcd13ifvqhog","pricing_plan_id":"free"},{"bike_id":"6d1f2469-44b4-40c3-96a3-2a32c5c4f733","system_id":"levelo_inurba_marseille","lat":43.32367,"lon":5.388836,"is_reserved":false,"is_disabled":false,"rental_uris":{"android":"levelo://app?vid=6d1f2469-44b4-40c3-96a3-2a32c5c4f733","ios":"levelo://app?vid=6d1f2469-44b4-40c3-96a3-2a32c5c4f733"},"vehicle_type_id":"4","last_reported":1704246388,"current_range_meters":10800,"station_id":"ce4bhqp2rcd13ifvqhog","pricing_plan_id":"free"},{"bike_id":"2d929794-67ac-4d98-ab11-c381a1cb3a05","system_id":"levelo_inurba_marseille","lat":43.32367,"lon":5.388836,"is_reserved":false,"is_disabled":false,"rental_uris":{"android":"levelo://app?vid=2d929794-67ac-4d98-ab11-c381a1cb3a05","ios":"levelo://app?vid=2d929794-67ac-4d98-ab11-c381a1cb3a05"},"vehicle_type_id":"4","last_reported":1704246388,"current_range_meters":31200,"station_id":"ce4bhqp2rcd13ifvqhog","pricing_plan_id":"free"},{"bike_id":"6708a5b5-13c0-4d12-80c0-d3dd5e200e56","system_id":"levelo_inurba_marseille","lat":43.32367,"lon":5.388836,"is_reserved":false,"is_disabled":false,"rental_uris":{"android":"levelo://app?vid=6708a5b5-13c0-4d12-80c0-d3dd5e200e56","ios":"levelo://app?vid=6708a5b5-13c0-4d12-80c0-d3dd5e200e56"},"vehicle_type_id":"4","last_reported":1704246388,"current_range_meters":29600,"station_id":"ce4bhqp2rcd13ifvqhog","pricing_plan_id":"free"},{"bike_id":"2826100b-e30d-4c47-bda3-9b8cbf3e5cf7","system_id":"levelo_inurba_marseille","lat":43.32367,"lon":5.388836,"is_reserved":false,"is_disabled":false,"rental_uris":{"android":"levelo://app?vid=2826100b-e30d-4c47-bda3-9b8cbf3e5cf7","ios":"levelo://app?vid=2826100b-e30d-4c47-bda3-9b8cbf3e5cf7"},"vehicle_type_id":"4","last_reported":1704246388,"current_range_meters":31200,"station_id":"ce4bhqp2rcd13ifvqhog","pricing_plan_id":"free"},{"bike_id":"a2921e9e-44de-4cfc-a63d-9b4c73af52f3","system_id":"levelo_inurba_marseille","lat":43.32367,"lon":5.388836,"is_reserved":false,"is_disabled":false,"rental_uris":{"android":"levelo://app?vid=a2921e9e-44de-4cfc-a63d-9b4c73af52f3","ios":"levelo://app?vid=a2921e9e-44de-4cfc-a63d-9b4c73af52f3"},"vehicle_type_id":"4","last_reported":1704246388,"current_range_meters":31200,"station_id":"ce4bhqp2rcd13ifvqhog","pricing_plan_id":"free"},{"bike_id":"5c5d40ae-b903-4c32-9291-8ba7c221821a","system_id":"levelo_inurba_marseille","lat":43.293259,"lon":5.371586,"is_reserved":false,"is_disabled":false,"rental_uris":{"android":"levelo://app?vid=5c5d40ae-b903-4c32-9291-8ba7c221821a","ios":"levelo://app?vid=5c5d40ae-b903-4c32-9291-8ba7c221821a"},"vehicle_type_id":"4","last_reported":1704246388,"current_range_meters":28400,"station_id":"ce4bgh92rcd13ifvqb40","pricing_plan_id":"free"},{"bike_id":"1c617055-0152-4043-a4ae-c5427e71af90","system_id":"levelo_inurba_marseille","lat":43.292749,"lon":5.368402,"is_reserved":false,"is_disabled":false,"rental_uris":{"android":"levelo://app?vid=1c617055-0152-4043-a4ae-c5427e71af90","ios":"levelo://app?vid=1c617055-0152-4043-a4ae-c5427e71af90"},"vehicle_type_id":"4","last_reported":1704246388,"current_range_meters":30400,"station_id":"ce4bhbp2rcd13ifvqesg","pricing_plan_id":"free"},{"bike_id":"5f3c70bb-e9c7-4910-b82a-fa597cbf8b5b","system_id":"levelo_inurba_marseille","lat":43.305994,"lon":5.393687,"is_reserved":false,"is_disabled":false,"rental_uris":{"android":"levelo://app?vid=5f3c70bb-e9c7-4910-b82a-fa597cbf8b5b","ios":"levelo://app?vid=5f3c70bb-e9c7-4910-b82a-fa597cbf8b5b"},"vehicle_type_id":"4","last_reported":1704246388,"current_range_meters":15200,"station_id":"ce4bh0p2rcd13ifvqd80","pricing_plan_id":"free"},{"bike_id":"67e73829-b640-4570-9952-ba724eccf8a2","system_id":"levelo_inurba_marseille","lat":43.291675,"lon":5.371583,"is_reserved":false,"is_disabled":false,"rental_uris":{"android":"levelo://app?vid=67e73829-b640-4570-9952-ba724eccf8a2","ios":"levelo://app?vid=67e73829-b640-4570-9952-ba724eccf8a2"},"vehicle_type_id":"4","last_reported":1704246388,"current_range_meters":28400,"station_id":"ce4bha92rcd13ifvqeh0","pricing_plan_id":"free"},{"bike_id":"6a81b50f-ae4b-4c12-a481-44b003323491","system_id":"levelo_inurba_marseille","lat":43.312934,"lon":5.39672,"is_reserved":false,"is_disabled":false,"rental_uris":{"android":"levelo://app?vid=6a81b50f-ae4b-4c12-a481-44b003323491","ios":"levelo://app?vid=6a81b50f-ae4b-4c12-a481-44b003323491"},"vehicle_type_id":"4","last_reported":1704246388,"current_range_meters":16000,"station_id":"ce4bgvp2rcd13ifvqcu0","pricing_plan_id":"free"},{"bike_id":"964a1b41-bec8-450d-9a5a-3d73d47d159c","system_id":"levelo_inurba_marseille","lat":43.309038,"lon":5.396546,"is_reserved":false,"is_disabled":false,"rental_uris":{"android":"levelo://app?vid=964a1b41-bec8-450d-9a5a-3d73d47d159c","ios":"levelo://app?vid=964a1b41-bec8-450d-9a5a-3d73d47d159c"},"vehicle_type_id":"4","last_reported":1704246388,"current_range_meters":31200,"station_id":"ce4bh012rcd13ifvqcv0","pricing_plan_id":"free"},{"bike_id":"174e30ec-e5fc-4a40-bdda-c5ff39c64680","system_id":"levelo_inurba_marseille","lat":43.309047,"lon":5.396551,"is_reserved":false,"is_disabled":false,"rental_uris":{"android":"levelo://app?vid=174e30ec-e5fc-4a40-bdda-c5ff39c64680","ios":"levelo://app?vid=174e30ec-e5fc-4a40-bdda-c5ff39c64680"},"vehicle_type_id":"4","last_reported":1704246388,"current_range_meters":30800,"station_id":"ce4bh012rcd13ifvqcv0","pricing_plan_id":"free"},{"bike_id":"477a02a3-3aed-4c2b-a541-1f50fe18a7de","system_id":"levelo_inurba_marseille","lat":43.313291,"lon":5.396838,"is_reserved":false,"is_disabled":false,"rental_uris":{"android":"levelo://app?vid=477a02a3-3aed-4c2b-a541-1f50fe18a7de","ios":"levelo://app?vid=477a02a3-3aed-4c2b-a541-1f50fe18a7de"},"vehicle_type_id":"4","last_reported":1704246388,"current_range_meters":20000,"station_id":"ce4bgvp2rcd13ifvqcu0","pricing_plan_id":"free"},{"bike_id":"a034d94e-e5f9-4f3e-b8a5-6d24034f55da","system_id":"levelo_inurba_marseille","lat":43.309038,"lon":5.396546,"is_reserved":false,"is_disabled":false,"rental_uris":{"android":"levelo://app?vid=a034d94e-e5f9-4f3e-b8a5-6d24034f55da","ios":"levelo://app?vid=a034d94e-e5f9-4f3e-b8a5-6d24034f55da"},"vehicle_type_id":"4","last_reported":1704246388,"current_range_meters":30000,"station_id":"ce4bh012rcd13ifvqcv0","pricing_plan_id":"free"},{"bike_id":"ce653502-0266-4511-b2b6-55a9b5a10b8a","system_id":"levelo_inurba_marseille","lat":43.291925,"lon":5.357944,"is_reserved":false,"is_disabled":false,"rental_uris":{"android":"levelo://app?vid=ce653502-0266-4511-b2b6-55a9b5a10b8a","ios":"levelo://app?vid=ce653502-0266-4511-b2b6-55a9b5a10b8a"},"vehicle_type_id":"4","last_reported":1704246388,"current_range_meters":0,"station_id":"","pricing_plan_id":"free"},{"bike_id":"a92824ca-7a58-4209-8b12-011350bda458","system_id":"levelo_inurba_marseille","lat":43.313291,"lon":5.396838,"is_reserved":false,"is_disabled":false,"rental_uris":{"android":"levelo://app?vid=a92824ca-7a58-4209-8b12-011350bda458","ios":"levelo://app?vid=a92824ca-7a58-4209-8b12-011350bda458"},"vehicle_type_id":"4","last_reported":1704246388,"current_range_meters":27600,"station_id":"ce4bgvp2rcd13ifvqcu0","pricing_plan_id":"free"},{"bike_id":"fa48146b-b929-46bc-87fb-86a43b5b982d","system_id":"levelo_inurba_marseille","lat":43.313291,"lon":5.396838,"is_reserved":false,"is_disabled":false,"rental_uris":{"android":"levelo://app?vid=fa48146b-b929-46bc-87fb-86a43b5b982d","ios":"levelo://app?vid=fa48146b-b929-46bc-87fb-86a43b5b982d"},"vehicle_type_id":"4","last_reported":1704246388,"current_range_meters":31200,"station_id":"ce4bgvp2rcd13ifvqcu0","pricing_plan_id":"free"},{"bike_id":"8f9f23ae-9faa-4f3e-957f-19ba54f84b14","system_id":"levelo_inurba_marseille","lat":43.313291,"lon":5.396838,"is_reserved":false,"is_disabled":false,"rental_uris":{"android":"levelo://app?vid=8f9f23ae-9faa-4f3e-957f-19ba54f84b14","ios":"levelo://app?vid=8f9f23ae-9faa-4f3e-957f-19ba54f84b14"},"vehicle_type_id":"4","last_reported":1704246388,"current_range_meters":11600,"station_id":"ce4bgvp2rcd13ifvqcu0","pricing_plan_id":"free"},{"bike_id":"12e1c543-c007-4305-8f88-a3f0f025385b","system_id":"levelo_inurba_marseille","lat":43.313291,"lon":5.396838,"is_reserved":false,"is_disabled":false,"rental_uris":{"android":"levelo://app?vid=12e1c543-c007-4305-8f88-a3f0f025385b","ios":"levelo://app?vid=12e1c543-c007-4305-8f88-a3f0f025385b"},"vehicle_type_id":"4","last_reported":1704246388,"current_range_meters":11200,"station_id":"ce4bgvp2rcd13ifvqcu0","pricing_plan_id":"free"},{"bike_id":"d82dc90b-70b7-43ad-ac77-9ca3dfb98c90","system_id":"levelo_inurba_marseille","lat":43.313291,"lon":5.396838,"is_reserved":false,"is_disabled":false,"rental_uris":{"android":"levelo://app?vid=d82dc90b-70b7-43ad-ac77-9ca3dfb98c90","ios":"levelo://app?vid=d82dc90b-70b7-43ad-ac77-9ca3dfb98c90"},"vehicle_type_id":"4","last_reported":1704246388,"current_range_meters":29200,"station_id":"ce4bgvp2rcd13ifvqcu0","pricing_plan_id":"free"},{"bike_id":"84d99edf-61ce-4063-a125-2fe68fbdd025","system_id":"levelo_inurba_marseille","lat":43.309047,"lon":5.396551,"is_reserved":false,"is_disabled":false,"rental_uris":{"android":"levelo://app?vid=84d99edf-61ce-4063-a125-2fe68fbdd025","ios":"levelo://app?vid=84d99edf-61ce-4063-a125-2fe68fbdd025"},"vehicle_type_id":"4","last_reported":1704246388,"current_range_meters":28800,"station_id":"ce4bh012rcd13ifvqcv0","pricing_plan_id":"free"},{"bike_id":"2aa69697-0349-4ebe-8c1c-2cc80e98b834","system_id":"levelo_inurba_marseille","lat":43.290631,"lon":5.359244,"is_reserved":false,"is_disabled":false,"rental_uris":{"android":"levelo://app?vid=2aa69697-0349-4ebe-8c1c-2cc80e98b834","ios":"levelo://app?vid=2aa69697-0349-4ebe-8c1c-2cc80e98b834"},"vehicle_type_id":"4","last_reported":1704246388,"current_range_meters":31600,"station_id":"ce4bha92rcd13ifvqeg0","pricing_plan_id":"free"},{"bike_id":"66f6d5b1-352f-4c02-b3fb-03c8189b62d3","system_id":"levelo_inurba_marseille","lat":43.290631,"lon":5.359244,"is_reserved":false,"is_disabled":false,"rental_uris":{"android":"levelo://app?vid=66f6d5b1-352f-4c02-b3fb-03c8189b62d3","ios":"levelo://app?vid=66f6d5b1-352f-4c02-b3fb-03c8189b62d3"},"vehicle_type_id":"4","last_reported":1704246388,"current_range_meters":17200,"station_id":"ce4bha92rcd13ifvqeg0","pricing_plan_id":"free"},{"bike_id":"61f197c2-5a5b-464b-aae4-a2af08983537","system_id":"levelo_inurba_marseille","lat":43.294153,"lon":5.386305,"is_reserved":false,"is_disabled":false,"rental_uris":{"android":"levelo://app?vid=61f197c2-5a5b-464b-aae4-a2af08983537","ios":"levelo://app?vid=61f197c2-5a5b-464b-aae4-a2af08983537"},"vehicle_type_id":"4","last_reported":1704246388,"current_range_meters":26400,"station_id":"ce4bh2h2rcd13ifvqdh0","pricing_plan_id":"free"},{"bike_id":"eb4c9fd0-258f-4049-ae8d-f4283af448d5","system_id":"levelo_inurba_marseille","lat":43.304274,"lon":5.397513,"is_reserved":false,"is_disabled":false,"rental_uris":{"android":"levelo://app?vid=eb4c9fd0-258f-4049-ae8d-f4283af448d5","ios":"levelo://app?vid=eb4c9fd0-258f-4049-ae8d-f4283af448d5"},"vehicle_type_id":"4","last_reported":1704246388,"current_range_meters":23200,"station_id":"ce4bh092rcd13ifvqd20","pricing_plan_id":"free"},{"bike_id":"51617e5e-0c29-4616-ac46-b8d222d6bc85","system_id":"levelo_inurba_marseille","lat":43.304752,"lon":5.397972,"is_reserved":false,"is_disabled":false,"rental_uris":{"android":"levelo://app?vid=51617e5e-0c29-4616-ac46-b8d222d6bc85","ios":"levelo://app?vid=51617e5e-0c29-4616-ac46-b8d222d6bc85"},"vehicle_type_id":"4","last_reported":1704246388,"current_range_meters":21600,"station_id":"","pricing_plan_id":"free"},{"bike_id":"ce0269a9-146a-459a-b70c-691c8491d074","system_id":"levelo_inurba_marseille","lat":43.290103,"lon":5.356114,"is_reserved":false,"is_disabled":false,"rental_uris":{"android":"levelo://app?vid=ce0269a9-146a-459a-b70c-691c8491d074","ios":"levelo://app?vid=ce0269a9-146a-459a-b70c-691c8491d074"},"vehicle_type_id":"4","last_reported":1704246388,"current_range_meters":30400,"station_id":"ce4bhb92rcd13ifvqen0","pricing_plan_id":"free"},{"bike_id":"4e52013c-3413-4f38-b48c-b4debf6d2ab3","system_id":"levelo_inurba_marseille","lat":43.290104,"lon":5.356111,"is_reserved":false,"is_disabled":false,"rental_uris":{"android":"levelo://app?vid=4e52013c-3413-4f38-b48c-b4debf6d2ab3","ios":"levelo://app?vid=4e52013c-3413-4f38-b48c-b4debf6d2ab3"},"vehicle_type_id":"4","last_reported":1704246388,"current_range_meters":28800,"station_id":"ce4bhb92rcd13ifvqen0","pricing_plan_id":"free"},{"bike_id":"4bd15a95-38f6-4be7-957e-891b2f1d0adf","system_id":"levelo_inurba_marseille","lat":43.290103,"lon":5.356114,"is_reserved":false,"is_disabled":false,"rental_uris":{"android":"levelo://app?vid=4bd15a95-38f6-4be7-957e-891b2f1d0adf","ios":"levelo://app?vid=4bd15a95-38f6-4be7-957e-891b2f1d0adf"},"vehicle_type_id":"4","last_reported":1704246388,"current_range_meters":29600,"station_id":"ce4bhb92rcd13ifvqen0","pricing_plan_id":"free"},{"bike_id":"3f064c6d-d588-4edc-b113-0262458a3abd","system_id":"levelo_inurba_marseille","lat":43.289743,"lon":5.378304,"is_reserved":false,"is_disabled":false,"rental_uris":{"android":"levelo://app?vid=3f064c6d-d588-4edc-b113-0262458a3abd","ios":"levelo://app?vid=3f064c6d-d588-4edc-b113-0262458a3abd"},"vehicle_type_id":"4","last_reported":1704246388,"current_range_meters":0,"station_id":"ce4bh9p2rcd13ifvqed0","pricing_plan_id":"free"},{"bike_id":"a1ee3364-28ae-4153-943e-13e8db98a605","system_id":"levelo_inurba_marseille","lat":43.330442,"lon":5.389148,"is_reserved":false,"is_disabled":false,"rental_uris":{"android":"levelo://app?vid=a1ee3364-28ae-4153-943e-13e8db98a605","ios":"levelo://app?vid=a1ee3364-28ae-4153-943e-13e8db98a605"},"vehicle_type_id":"4","last_reported":1704246388,"current_range_meters":6000,"station_id":"ce4bhr92rcd13ifvqhrg","pricing_plan_id":"free"},{"bike_id":"a45508dc-3e20-4dc2-a3f2-c48092cac22d","system_id":"levelo_inurba_marseille","lat":43.330442,"lon":5.389148,"is_reserved":false,"is_disabled":false,"rental_uris":{"android":"levelo://app?vid=a45508dc-3e20-4dc2-a3f2-c48092cac22d","ios":"levelo://app?vid=a45508dc-3e20-4dc2-a3f2-c48092cac22d"},"vehicle_type_id":"4","last_reported":1704246388,"current_range_meters":9600,"station_id":"ce4bhr92rcd13ifvqhrg","pricing_plan_id":"free"},{"bike_id":"48bded61-f057-4faa-886b-176c8d00f4b2","system_id":"levelo_inurba_marseille","lat":43.309371,"lon":5.401449,"is_reserved":false,"is_disabled":false,"rental_uris":{"android":"levelo://app?vid=48bded61-f057-4faa-886b-176c8d00f4b2","ios":"levelo://app?vid=48bded61-f057-4faa-886b-176c8d00f4b2"},"vehicle_type_id":"4","last_reported":1704246388,"current_range_meters":30800,"station_id":"ce4bgvp2rcd13ifvqct0","pricing_plan_id":"free"},{"bike_id":"7cfbd1fe-a4f7-4953-88d6-d66b0bc7a349","system_id":"levelo_inurba_marseille","lat":43.30642,"lon":5.401031,"is_reserved":false,"is_disabled":false,"rental_uris":{"android":"levelo://app?vid=7cfbd1fe-a4f7-4953-88d6-d66b0bc7a349","ios":"levelo://app?vid=7cfbd1fe-a4f7-4953-88d6-d66b0bc7a349"},"vehicle_type_id":"4","last_reported":1704246388,"current_range_meters":20800,"station_id":"ce4bh112rcd13ifvqda0","pricing_plan_id":"free"},{"bike_id":"d78eb311-939b-4bbe-b6b5-c7816f1b4af5","system_id":"levelo_inurba_marseille","lat":43.30932,"lon":5.40149,"is_reserved":false,"is_disabled":false,"rental_uris":{"android":"levelo://app?vid=d78eb311-939b-4bbe-b6b5-c7816f1b4af5","ios":"levelo://app?vid=d78eb311-939b-4bbe-b6b5-c7816f1b4af5"},"vehicle_type_id":"4","last_reported":1704246388,"current_range_meters":30000,"station_id":"ce4bgvp2rcd13ifvqct0","pricing_plan_id":"free"},{"bike_id":"37c6b546-46f1-48fd-9861-6680b4ad152d","system_id":"levelo_inurba_marseille","lat":43.309371,"lon":5.401449,"is_reserved":false,"is_disabled":false,"rental_uris":{"android":"levelo://app?vid=37c6b546-46f1-48fd-9861-6680b4ad152d","ios":"levelo://app?vid=37c6b546-46f1-48fd-9861-6680b4ad152d"},"vehicle_type_id":"4","last_reported":1704246388,"current_range_meters":31200,"station_id":"ce4bgvp2rcd13ifvqct0","pricing_plan_id":"free"},{"bike_id":"206c227f-289c-4346-981e-ec38db7016f4","system_id":"levelo_inurba_marseille","lat":43.309371,"lon":5.401449,"is_reserved":false,"is_disabled":false,"rental_uris":{"android":"levelo://app?vid=206c227f-289c-4346-981e-ec38db7016f4","ios":"levelo://app?vid=206c227f-289c-4346-981e-ec38db7016f4"},"vehicle_type_id":"4","last_reported":1704246388,"current_range_meters":28800,"station_id":"ce4bgvp2rcd13ifvqct0","pricing_plan_id":"free"},{"bike_id":"e6c75395-75e4-46e1-8058-b1fe639f10da","system_id":"levelo_inurba_marseille","lat":43.309371,"lon":5.401449,"is_reserved":false,"is_disabled":false,"rental_uris":{"android":"levelo://app?vid=e6c75395-75e4-46e1-8058-b1fe639f10da","ios":"levelo://app?vid=e6c75395-75e4-46e1-8058-b1fe639f10da"},"vehicle_type_id":"4","last_reported":1704246388,"current_range_meters":31200,"station_id":"ce4bgvp2rcd13ifvqct0","pricing_plan_id":"free"},{"bike_id":"276a54b0-a061-4622-903f-d9a1f62221a3","system_id":"levelo_inurba_marseille","lat":43.309371,"lon":5.401449,"is_reserved":false,"is_disabled":false,"rental_uris":{"android":"levelo://app?vid=276a54b0-a061-4622-903f-d9a1f62221a3","ios":"levelo://app?vid=276a54b0-a061-4622-903f-d9a1f62221a3"},"vehicle_type_id":"4","last_reported":1704246388,"current_range_meters":30000,"station_id":"ce4bgvp2rcd13ifvqct0","pricing_plan_id":"free"},{"bike_id":"b57b4a9f-be20-4338-a99b-0f24a5e4032f","system_id":"levelo_inurba_marseille","lat":43.33752,"lon":5.37466,"is_reserved":false,"is_disabled":false,"rental_uris":{"android":"levelo://app?vid=b57b4a9f-be20-4338-a99b-0f24a5e4032f","ios":"levelo://app?vid=b57b4a9f-be20-4338-a99b-0f24a5e4032f"},"vehicle_type_id":"4","last_reported":1704246388,"current_range_meters":24800,"station_id":"","pricing_plan_id":"free"},{"bike_id":"e9b17cc2-ca5a-4161-9ff2-1c1d56a18a37","system_id":"levelo_inurba_marseille","lat":43.30642,"lon":5.401031,"is_reserved":false,"is_disabled":false,"rental_uris":{"android":"levelo://app?vid=e9b17cc2-ca5a-4161-9ff2-1c1d56a18a37","ios":"levelo://app?vid=e9b17cc2-ca5a-4161-9ff2-1c1d56a18a37"},"vehicle_type_id":"4","last_reported":1704246388,"current_range_meters":28000,"station_id":"ce4bh112rcd13ifvqda0","pricing_plan_id":"free"},{"bike_id":"7bff5d96-c9da-413f-9076-7fbeec946e12","system_id":"levelo_inurba_marseille","lat":43.337554,"lon":5.37462,"is_reserved":false,"is_disabled":false,"rental_uris":{"android":"levelo://app?vid=7bff5d96-c9da-413f-9076-7fbeec946e12","ios":"levelo://app?vid=7bff5d96-c9da-413f-9076-7fbeec946e12"},"vehicle_type_id":"4","last_reported":1704246388,"current_range_meters":23600,"station_id":"","pricing_plan_id":"free"},{"bike_id":"1c86c5a0-cffc-4faa-94a1-6cf5f93206ea","system_id":"levelo_inurba_marseille","lat":43.337605,"lon":5.374572,"is_reserved":false,"is_disabled":false,"rental_uris":{"android":"levelo://app?vid=1c86c5a0-cffc-4faa-94a1-6cf5f93206ea","ios":"levelo://app?vid=1c86c5a0-cffc-4faa-94a1-6cf5f93206ea"},"vehicle_type_id":"4","last_reported":1704246388,"current_range_meters":4400,"station_id":"","pricing_plan_id":"free"},{"bike_id":"f0343c8c-bb4e-4f5b-a52c-fcd0c07bda39","system_id":"levelo_inurba_marseille","lat":43.306412,"lon":5.401035,"is_reserved":false,"is_disabled":false,"rental_uris":{"android":"levelo://app?vid=f0343c8c-bb4e-4f5b-a52c-fcd0c07bda39","ios":"levelo://app?vid=f0343c8c-bb4e-4f5b-a52c-fcd0c07bda39"},"vehicle_type_id":"4","last_reported":1704246388,"current_range_meters":29200,"station_id":"ce4bh112rcd13ifvqda0","pricing_plan_id":"free"},{"bike_id":"1cd0bb52-8028-4428-a591-a4c2f48e0813","system_id":"levelo_inurba_marseille","lat":43.30642,"lon":5.401031,"is_reserved":false,"is_disabled":false,"rental_uris":{"android":"levelo://app?vid=1cd0bb52-8028-4428-a591-a4c2f48e0813","ios":"levelo://app?vid=1cd0bb52-8028-4428-a591-a4c2f48e0813"},"vehicle_type_id":"4","last_reported":1704246388,"current_range_meters":31200,"station_id":"ce4bh112rcd13ifvqda0","pricing_plan_id":"free"},{"bike_id":"46bcbd8a-0b5f-4b89-aac9-34812a85cd49","system_id":"levelo_inurba_marseille","lat":43.337681,"lon":5.374847,"is_reserved":false,"is_disabled":false,"rental_uris":{"android":"levelo://app?vid=46bcbd8a-0b5f-4b89-aac9-34812a85cd49","ios":"levelo://app?vid=46bcbd8a-0b5f-4b89-aac9-34812a85cd49"},"vehicle_type_id":"4","last_reported":1704246388,"current_range_meters":13200,"station_id":"","pricing_plan_id":"free"},{"bike_id":"2698b1cc-9d8f-4af1-9d41-a07e93bd5755","system_id":"levelo_inurba_marseille","lat":43.33767,"lon":5.37497,"is_reserved":false,"is_disabled":false,"rental_uris":{"android":"levelo://app?vid=2698b1cc-9d8f-4af1-9d41-a07e93bd5755","ios":"levelo://app?vid=2698b1cc-9d8f-4af1-9d41-a07e93bd5755"},"vehicle_type_id":"4","last_reported":1704246388,"current_range_meters":27200,"station_id":"","pricing_plan_id":"free"},{"bike_id":"8406b71f-bf51-41e9-b9bd-2fa4e128d13e","system_id":"levelo_inurba_marseille","lat":43.301117,"lon":5.398795,"is_reserved":false,"is_disabled":false,"rental_uris":{"android":"levelo://app?vid=8406b71f-bf51-41e9-b9bd-2fa4e128d13e","ios":"levelo://app?vid=8406b71f-bf51-41e9-b9bd-2fa4e128d13e"},"vehicle_type_id":"4","last_reported":1704246388,"current_range_meters":23200,"station_id":"ce4bh0h2rcd13ifvqd40","pricing_plan_id":"free"},{"bike_id":"71eb0c2d-c5f8-4f3a-b9ea-9db31874d35e","system_id":"levelo_inurba_marseille","lat":43.301117,"lon":5.398795,"is_reserved":false,"is_disabled":false,"rental_uris":{"android":"levelo://app?vid=71eb0c2d-c5f8-4f3a-b9ea-9db31874d35e","ios":"levelo://app?vid=71eb0c2d-c5f8-4f3a-b9ea-9db31874d35e"},"vehicle_type_id":"4","last_reported":1704246388,"current_range_meters":31200,"station_id":"ce4bh0h2rcd13ifvqd40","pricing_plan_id":"free"},{"bike_id":"25143700-3da5-46c3-8329-221bb4a7bc16","system_id":"levelo_inurba_marseille","lat":43.28727,"lon":5.36078,"is_reserved":false,"is_disabled":false,"rental_uris":{"android":"levelo://app?vid=25143700-3da5-46c3-8329-221bb4a7bc16","ios":"levelo://app?vid=25143700-3da5-46c3-8329-221bb4a7bc16"},"vehicle_type_id":"4","last_reported":1704246388,"current_range_meters":31200,"station_id":"cki0cbj6b192h4jlfktg","pricing_plan_id":"free"},{"bike_id":"dc26c059-f0e4-4f33-b1c8-bfaa062a79e6","system_id":"levelo_inurba_marseille","lat":43.28727,"lon":5.36078,"is_reserved":false,"is_disabled":false,"rental_uris":{"android":"levelo://app?vid=dc26c059-f0e4-4f33-b1c8-bfaa062a79e6","ios":"levelo://app?vid=dc26c059-f0e4-4f33-b1c8-bfaa062a79e6"},"vehicle_type_id":"4","last_reported":1704246388,"current_range_meters":400,"station_id":"cki0cbj6b192h4jlfktg","pricing_plan_id":"free"},{"bike_id":"43b50400-bf73-455a-a63e-2224febf021d","system_id":"levelo_inurba_marseille","lat":43.28727,"lon":5.36078,"is_reserved":false,"is_disabled":false,"rental_uris":{"android":"levelo://app?vid=43b50400-bf73-455a-a63e-2224febf021d","ios":"levelo://app?vid=43b50400-bf73-455a-a63e-2224febf021d"},"vehicle_type_id":"4","last_reported":1704246388,"current_range_meters":31200,"station_id":"cki0cbj6b192h4jlfktg","pricing_plan_id":"free"},{"bike_id":"dedf69a5-2d45-406d-aad1-b483a7e128d4","system_id":"levelo_inurba_marseille","lat":43.28727,"lon":5.36078,"is_reserved":false,"is_disabled":false,"rental_uris":{"android":"levelo://app?vid=dedf69a5-2d45-406d-aad1-b483a7e128d4","ios":"levelo://app?vid=dedf69a5-2d45-406d-aad1-b483a7e128d4"},"vehicle_type_id":"4","last_reported":1704246388,"current_range_meters":29200,"station_id":"cki0cbj6b192h4jlfktg","pricing_plan_id":"free"},{"bike_id":"f14dcb3e-9c50-4d44-8158-2f203969e590","system_id":"levelo_inurba_marseille","lat":43.298681,"lon":5.397225,"is_reserved":false,"is_disabled":false,"rental_uris":{"android":"levelo://app?vid=f14dcb3e-9c50-4d44-8158-2f203969e590","ios":"levelo://app?vid=f14dcb3e-9c50-4d44-8158-2f203969e590"},"vehicle_type_id":"4","last_reported":1704246388,"current_range_meters":30800,"station_id":"ce4bh0h2rcd13ifvqd50","pricing_plan_id":"free"},{"bike_id":"d59d9c80-8a01-4e4b-bab1-6e818f838adb","system_id":"levelo_inurba_marseille","lat":43.298681,"lon":5.397225,"is_reserved":false,"is_disabled":false,"rental_uris":{"android":"levelo://app?vid=d59d9c80-8a01-4e4b-bab1-6e818f838adb","ios":"levelo://app?vid=d59d9c80-8a01-4e4b-bab1-6e818f838adb"},"vehicle_type_id":"4","last_reported":1704246388,"current_range_meters":26000,"station_id":"ce4bh0h2rcd13ifvqd50","pricing_plan_id":"free"},{"bike_id":"6d84cf77-77eb-4984-a4c5-08938c55c7be","system_id":"levelo_inurba_marseille","lat":43.295323,"lon":5.394093,"is_reserved":false,"is_disabled":false,"rental_uris":{"android":"levelo://app?vid=6d84cf77-77eb-4984-a4c5-08938c55c7be","ios":"levelo://app?vid=6d84cf77-77eb-4984-a4c5-08938c55c7be"},"vehicle_type_id":"4","last_reported":1704246388,"current_range_meters":22000,"station_id":"","pricing_plan_id":"free"},{"bike_id":"e8b1ad9a-6a8a-4f70-a4b9-2b0d442510cd","system_id":"levelo_inurba_marseille","lat":43.295194,"lon":5.39397,"is_reserved":false,"is_disabled":false,"rental_uris":{"android":"levelo://app?vid=e8b1ad9a-6a8a-4f70-a4b9-2b0d442510cd","ios":"levelo://app?vid=e8b1ad9a-6a8a-4f70-a4b9-2b0d442510cd"},"vehicle_type_id":"4","last_reported":1704246388,"current_range_meters":26400,"station_id":"ce4bh292rcd13ifvqdf0","pricing_plan_id":"free"},{"bike_id":"b019edc9-d891-40ed-aa30-ee6f3e6757d2","system_id":"levelo_inurba_marseille","lat":43.290345,"lon":5.38646,"is_reserved":false,"is_disabled":false,"rental_uris":{"android":"levelo://app?vid=b019edc9-d891-40ed-aa30-ee6f3e6757d2","ios":"levelo://app?vid=b019edc9-d891-40ed-aa30-ee6f3e6757d2"},"vehicle_type_id":"4","last_reported":1704246388,"current_range_meters":0,"station_id":"ce4bh4p2rcd13ifvqe0g","pricing_plan_id":"free"},{"bike_id":"5a6d73a5-fe78-47e9-9109-b2f65cb00b8f","system_id":"levelo_inurba_marseille","lat":43.302759,"lon":5.400793,"is_reserved":false,"is_disabled":false,"rental_uris":{"android":"levelo://app?vid=5a6d73a5-fe78-47e9-9109-b2f65cb00b8f","ios":"levelo://app?vid=5a6d73a5-fe78-47e9-9109-b2f65cb00b8f"},"vehicle_type_id":"4","last_reported":1704246388,"current_range_meters":13600,"station_id":"ce4bgvh2rcd13ifvqcs0","pricing_plan_id":"free"},{"bike_id":"bcd69029-ee54-4337-aadd-825bfec1da50","system_id":"levelo_inurba_marseille","lat":43.290345,"lon":5.38646,"is_reserved":false,"is_disabled":false,"rental_uris":{"android":"levelo://app?vid=bcd69029-ee54-4337-aadd-825bfec1da50","ios":"levelo://app?vid=bcd69029-ee54-4337-aadd-825bfec1da50"},"vehicle_type_id":"4","last_reported":1704246388,"current_range_meters":30400,"station_id":"ce4bh4p2rcd13ifvqe0g","pricing_plan_id":"free"},{"bike_id":"ce5df05b-83e3-4982-b470-edf8c9ea067d","system_id":"levelo_inurba_marseille","lat":43.302759,"lon":5.400793,"is_reserved":false,"is_disabled":false,"rental_uris":{"android":"levelo://app?vid=ce5df05b-83e3-4982-b470-edf8c9ea067d","ios":"levelo://app?vid=ce5df05b-83e3-4982-b470-edf8c9ea067d"},"vehicle_type_id":"4","last_reported":1704246388,"current_range_meters":24800,"station_id":"ce4bgvh2rcd13ifvqcs0","pricing_plan_id":"free"},{"bike_id":"8c9f65c7-46cf-4ab8-a5b2-9edea8ac9ab0","system_id":"levelo_inurba_marseille","lat":43.302759,"lon":5.400793,"is_reserved":false,"is_disabled":false,"rental_uris":{"android":"levelo://app?vid=8c9f65c7-46cf-4ab8-a5b2-9edea8ac9ab0","ios":"levelo://app?vid=8c9f65c7-46cf-4ab8-a5b2-9edea8ac9ab0"},"vehicle_type_id":"4","last_reported":1704246388,"current_range_meters":31200,"station_id":"ce4bgvh2rcd13ifvqcs0","pricing_plan_id":"free"},{"bike_id":"cdaa3888-f67c-4e0c-aa8e-e0cd9f293335","system_id":"levelo_inurba_marseille","lat":43.302759,"lon":5.400793,"is_reserved":false,"is_disabled":false,"rental_uris":{"android":"levelo://app?vid=cdaa3888-f67c-4e0c-aa8e-e0cd9f293335","ios":"levelo://app?vid=cdaa3888-f67c-4e0c-aa8e-e0cd9f293335"},"vehicle_type_id":"4","last_reported":1704246388,"current_range_meters":29200,"station_id":"ce4bgvh2rcd13ifvqcs0","pricing_plan_id":"free"},{"bike_id":"2575e334-c007-4cfb-964e-f707d76e086b","system_id":"levelo_inurba_marseille","lat":43.302759,"lon":5.400793,"is_reserved":false,"is_disabled":false,"rental_uris":{"android":"levelo://app?vid=2575e334-c007-4cfb-964e-f707d76e086b","ios":"levelo://app?vid=2575e334-c007-4cfb-964e-f707d76e086b"},"vehicle_type_id":"4","last_reported":1704246388,"current_range_meters":29600,"station_id":"ce4bgvh2rcd13ifvqcs0","pricing_plan_id":"free"},{"bike_id":"6ab2e650-1132-411d-a4f9-afa79ae96bb3","system_id":"levelo_inurba_marseille","lat":43.316828,"lon":5.404723,"is_reserved":false,"is_disabled":false,"rental_uris":{"android":"levelo://app?vid=6ab2e650-1132-411d-a4f9-afa79ae96bb3","ios":"levelo://app?vid=6ab2e650-1132-411d-a4f9-afa79ae96bb3"},"vehicle_type_id":"4","last_reported":1704246388,"current_range_meters":22800,"station_id":"ce4bh012rcd13ifvqd00","pricing_plan_id":"free"},{"bike_id":"ea1673b7-eaab-432f-9c68-02e1b0af0dda","system_id":"levelo_inurba_marseille","lat":43.316828,"lon":5.404723,"is_reserved":false,"is_disabled":false,"rental_uris":{"android":"levelo://app?vid=ea1673b7-eaab-432f-9c68-02e1b0af0dda","ios":"levelo://app?vid=ea1673b7-eaab-432f-9c68-02e1b0af0dda"},"vehicle_type_id":"4","last_reported":1704246388,"current_range_meters":31200,"station_id":"ce4bh012rcd13ifvqd00","pricing_plan_id":"free"},{"bike_id":"8c23bd12-4206-4e37-a464-2bd87083e868","system_id":"levelo_inurba_marseille","lat":43.316828,"lon":5.404723,"is_reserved":false,"is_disabled":false,"rental_uris":{"android":"levelo://app?vid=8c23bd12-4206-4e37-a464-2bd87083e868","ios":"levelo://app?vid=8c23bd12-4206-4e37-a464-2bd87083e868"},"vehicle_type_id":"4","last_reported":1704246388,"current_range_meters":30400,"station_id":"ce4bh012rcd13ifvqd00","pricing_plan_id":"free"},{"bike_id":"4b0c18fd-1547-4f9e-9d73-a9d057735b7e","system_id":"levelo_inurba_marseille","lat":43.291994,"lon":5.392907,"is_reserved":false,"is_disabled":false,"rental_uris":{"android":"levelo://app?vid=4b0c18fd-1547-4f9e-9d73-a9d057735b7e","ios":"levelo://app?vid=4b0c18fd-1547-4f9e-9d73-a9d057735b7e"},"vehicle_type_id":"4","last_reported":1704246388,"current_range_meters":31200,"station_id":"ce4bh192rcd13ifvqdd0","pricing_plan_id":"free"},{"bike_id":"bac2d31f-e0c6-422d-b679-165ce9b847c4","system_id":"levelo_inurba_marseille","lat":43.284674,"lon":5.35888,"is_reserved":false,"is_disabled":false,"rental_uris":{"android":"levelo://app?vid=bac2d31f-e0c6-422d-b679-165ce9b847c4","ios":"levelo://app?vid=bac2d31f-e0c6-422d-b679-165ce9b847c4"},"vehicle_type_id":"4","last_reported":1704246388,"current_range_meters":21600,"station_id":"ce4bhah2rcd13ifvqei0","pricing_plan_id":"free"},{"bike_id":"a6ccff72-5e98-4033-9aca-8c5128e2c6a3","system_id":"levelo_inurba_marseille","lat":43.284605,"lon":5.358874,"is_reserved":false,"is_disabled":false,"rental_uris":{"android":"levelo://app?vid=a6ccff72-5e98-4033-9aca-8c5128e2c6a3","ios":"levelo://app?vid=a6ccff72-5e98-4033-9aca-8c5128e2c6a3"},"vehicle_type_id":"4","last_reported":1704246388,"current_range_meters":6000,"station_id":"ce4bhah2rcd13ifvqei0","pricing_plan_id":"free"},{"bike_id":"8ed8cba3-d13a-4d61-8441-034194402d7f","system_id":"levelo_inurba_marseille","lat":43.284605,"lon":5.358854,"is_reserved":false,"is_disabled":false,"rental_uris":{"android":"levelo://app?vid=8ed8cba3-d13a-4d61-8441-034194402d7f","ios":"levelo://app?vid=8ed8cba3-d13a-4d61-8441-034194402d7f"},"vehicle_type_id":"4","last_reported":1704246388,"current_range_meters":14400,"station_id":"ce4bhah2rcd13ifvqei0","pricing_plan_id":"free"},{"bike_id":"2538e493-5564-4c26-8e5d-8e70dfa83cd0","system_id":"levelo_inurba_marseille","lat":43.28453,"lon":5.35887,"is_reserved":false,"is_disabled":false,"rental_uris":{"android":"levelo://app?vid=2538e493-5564-4c26-8e5d-8e70dfa83cd0","ios":"levelo://app?vid=2538e493-5564-4c26-8e5d-8e70dfa83cd0"},"vehicle_type_id":"4","last_reported":1704246388,"current_range_meters":18800,"station_id":"ce4bhah2rcd13ifvqei0","pricing_plan_id":"free"},{"bike_id":"47264697-73ca-438c-b8e0-0372149d5a67","system_id":"levelo_inurba_marseille","lat":43.30963,"lon":5.40652,"is_reserved":false,"is_disabled":false,"rental_uris":{"android":"levelo://app?vid=47264697-73ca-438c-b8e0-0372149d5a67","ios":"levelo://app?vid=47264697-73ca-438c-b8e0-0372149d5a67"},"vehicle_type_id":"4","last_reported":1704246388,"current_range_meters":19200,"station_id":"","pricing_plan_id":"free"},{"bike_id":"20290e13-2243-407f-9871-8bd25c2968df","system_id":"levelo_inurba_marseille","lat":43.283998,"lon":5.375062,"is_reserved":false,"is_disabled":false,"rental_uris":{"android":"levelo://app?vid=20290e13-2243-407f-9871-8bd25c2968df","ios":"levelo://app?vid=20290e13-2243-407f-9871-8bd25c2968df"},"vehicle_type_id":"4","last_reported":1704246388,"current_range_meters":4400,"station_id":"ce4bh412rcd13ifvqds0","pricing_plan_id":"free"},{"bike_id":"6d1770cb-86cf-44ec-bfc9-920cdfcc5d0b","system_id":"levelo_inurba_marseille","lat":43.283998,"lon":5.375062,"is_reserved":false,"is_disabled":false,"rental_uris":{"android":"levelo://app?vid=6d1770cb-86cf-44ec-bfc9-920cdfcc5d0b","ios":"levelo://app?vid=6d1770cb-86cf-44ec-bfc9-920cdfcc5d0b"},"vehicle_type_id":"4","last_reported":1704246388,"current_range_meters":8000,"station_id":"ce4bh412rcd13ifvqds0","pricing_plan_id":"free"},{"bike_id":"168e5b13-134c-4c8a-b42a-40c79b77b1f2","system_id":"levelo_inurba_marseille","lat":43.283998,"lon":5.375062,"is_reserved":false,"is_disabled":false,"rental_uris":{"android":"levelo://app?vid=168e5b13-134c-4c8a-b42a-40c79b77b1f2","ios":"levelo://app?vid=168e5b13-134c-4c8a-b42a-40c79b77b1f2"},"vehicle_type_id":"4","last_reported":1704246388,"current_range_meters":22000,"station_id":"ce4bh412rcd13ifvqds0","pricing_plan_id":"free"},{"bike_id":"f7d079b0-dc95-46a1-9db7-26438438739f","system_id":"levelo_inurba_marseille","lat":43.295713,"lon":5.399639,"is_reserved":false,"is_disabled":false,"rental_uris":{"android":"levelo://app?vid=f7d079b0-dc95-46a1-9db7-26438438739f","ios":"levelo://app?vid=f7d079b0-dc95-46a1-9db7-26438438739f"},"vehicle_type_id":"4","last_reported":1704246388,"current_range_meters":30800,"station_id":"ce4bh312rcd13ifvqdj0","pricing_plan_id":"free"},{"bike_id":"cebf0525-3403-4b69-83c4-d057ca796b57","system_id":"levelo_inurba_marseille","lat":43.295713,"lon":5.399639,"is_reserved":false,"is_disabled":false,"rental_uris":{"android":"levelo://app?vid=cebf0525-3403-4b69-83c4-d057ca796b57","ios":"levelo://app?vid=cebf0525-3403-4b69-83c4-d057ca796b57"},"vehicle_type_id":"4","last_reported":1704246388,"current_range_meters":26400,"station_id":"ce4bh312rcd13ifvqdj0","pricing_plan_id":"free"},{"bike_id":"84c3f761-cd52-4386-9a15-882aecb3f835","system_id":"levelo_inurba_marseille","lat":43.295713,"lon":5.399639,"is_reserved":false,"is_disabled":false,"rental_uris":{"android":"levelo://app?vid=84c3f761-cd52-4386-9a15-882aecb3f835","ios":"levelo://app?vid=84c3f761-cd52-4386-9a15-882aecb3f835"},"vehicle_type_id":"4","last_reported":1704246388,"current_range_meters":10400,"station_id":"ce4bh312rcd13ifvqdj0","pricing_plan_id":"free"},{"bike_id":"eb0a7d6e-d090-4ade-92fd-8f9f28934e68","system_id":"levelo_inurba_marseille","lat":43.319179,"lon":5.407725,"is_reserved":false,"is_disabled":false,"rental_uris":{"android":"levelo://app?vid=eb0a7d6e-d090-4ade-92fd-8f9f28934e68","ios":"levelo://app?vid=eb0a7d6e-d090-4ade-92fd-8f9f28934e68"},"vehicle_type_id":"4","last_reported":1704246388,"current_range_meters":15200,"station_id":"ce4bhq12rcd13ifvqhig","pricing_plan_id":"free"},{"bike_id":"209f468f-0bca-41e7-8060-08687ac1ff8a","system_id":"levelo_inurba_marseille","lat":43.319179,"lon":5.407725,"is_reserved":false,"is_disabled":false,"rental_uris":{"android":"levelo://app?vid=209f468f-0bca-41e7-8060-08687ac1ff8a","ios":"levelo://app?vid=209f468f-0bca-41e7-8060-08687ac1ff8a"},"vehicle_type_id":"4","last_reported":1704246388,"current_range_meters":30000,"station_id":"ce4bhq12rcd13ifvqhig","pricing_plan_id":"free"},{"bike_id":"b318819b-4e1a-40ca-bdee-f143cd78945b","system_id":"levelo_inurba_marseille","lat":43.323464,"lon":5.406297,"is_reserved":false,"is_disabled":false,"rental_uris":{"android":"levelo://app?vid=b318819b-4e1a-40ca-bdee-f143cd78945b","ios":"levelo://app?vid=b318819b-4e1a-40ca-bdee-f143cd78945b"},"vehicle_type_id":"4","last_reported":1704246388,"current_range_meters":9200,"station_id":"ce4bhq92rcd13ifvqhjg","pricing_plan_id":"free"},{"bike_id":"cb22166f-f745-45c7-ba04-12949ca802b8","system_id":"levelo_inurba_marseille","lat":43.323464,"lon":5.406297,"is_reserved":false,"is_disabled":false,"rental_uris":{"android":"levelo://app?vid=cb22166f-f745-45c7-ba04-12949ca802b8","ios":"levelo://app?vid=cb22166f-f745-45c7-ba04-12949ca802b8"},"vehicle_type_id":"4","last_reported":1704246388,"current_range_meters":16400,"station_id":"ce4bhq92rcd13ifvqhjg","pricing_plan_id":"free"},{"bike_id":"541c20ee-763f-4697-b50a-7c17d2dbd70d","system_id":"levelo_inurba_marseille","lat":43.323464,"lon":5.406297,"is_reserved":false,"is_disabled":false,"rental_uris":{"android":"levelo://app?vid=541c20ee-763f-4697-b50a-7c17d2dbd70d","ios":"levelo://app?vid=541c20ee-763f-4697-b50a-7c17d2dbd70d"},"vehicle_type_id":"4","last_reported":1704246388,"current_range_meters":28000,"station_id":"ce4bhq92rcd13ifvqhjg","pricing_plan_id":"free"},{"bike_id":"c9e0daa2-bfdf-4234-8e02-0788f58a0dd9","system_id":"levelo_inurba_marseille","lat":43.323464,"lon":5.406297,"is_reserved":false,"is_disabled":false,"rental_uris":{"android":"levelo://app?vid=c9e0daa2-bfdf-4234-8e02-0788f58a0dd9","ios":"levelo://app?vid=c9e0daa2-bfdf-4234-8e02-0788f58a0dd9"},"vehicle_type_id":"4","last_reported":1704246388,"current_range_meters":13200,"station_id":"ce4bhq92rcd13ifvqhjg","pricing_plan_id":"free"},{"bike_id":"7d50b5d8-000b-43a6-9302-ceda1cfbb99a","system_id":"levelo_inurba_marseille","lat":43.323464,"lon":5.406297,"is_reserved":false,"is_disabled":false,"rental_uris":{"android":"levelo://app?vid=7d50b5d8-000b-43a6-9302-ceda1cfbb99a","ios":"levelo://app?vid=7d50b5d8-000b-43a6-9302-ceda1cfbb99a"},"vehicle_type_id":"4","last_reported":1704246388,"current_range_meters":29200,"station_id":"ce4bhq92rcd13ifvqhjg","pricing_plan_id":"free"},{"bike_id":"73dcf0f1-cdf8-4d38-ad18-f29bb3ab1578","system_id":"levelo_inurba_marseille","lat":43.323464,"lon":5.406297,"is_reserved":false,"is_disabled":false,"rental_uris":{"android":"levelo://app?vid=73dcf0f1-cdf8-4d38-ad18-f29bb3ab1578","ios":"levelo://app?vid=73dcf0f1-cdf8-4d38-ad18-f29bb3ab1578"},"vehicle_type_id":"4","last_reported":1704246388,"current_range_meters":14000,"station_id":"ce4bhq92rcd13ifvqhjg","pricing_plan_id":"free"},{"bike_id":"cceb7d57-b024-4cf4-a504-5b77f5db55c4","system_id":"levelo_inurba_marseille","lat":43.33717,"lon":5.391857,"is_reserved":false,"is_disabled":false,"rental_uris":{"android":"levelo://app?vid=cceb7d57-b024-4cf4-a504-5b77f5db55c4","ios":"levelo://app?vid=cceb7d57-b024-4cf4-a504-5b77f5db55c4"},"vehicle_type_id":"4","last_reported":1704246388,"current_range_meters":30400,"station_id":"ce4bhr92rcd13ifvqhsg","pricing_plan_id":"free"},{"bike_id":"4cc32faf-c266-4535-bdff-c42098dbefc9","system_id":"levelo_inurba_marseille","lat":43.323464,"lon":5.406297,"is_reserved":false,"is_disabled":false,"rental_uris":{"android":"levelo://app?vid=4cc32faf-c266-4535-bdff-c42098dbefc9","ios":"levelo://app?vid=4cc32faf-c266-4535-bdff-c42098dbefc9"},"vehicle_type_id":"4","last_reported":1704246388,"current_range_meters":22000,"station_id":"ce4bhq92rcd13ifvqhjg","pricing_plan_id":"free"},{"bike_id":"1e755e27-5bec-44f5-9bc5-07d1b1956aa6","system_id":"levelo_inurba_marseille","lat":43.297946,"lon":5.404063,"is_reserved":false,"is_disabled":false,"rental_uris":{"android":"levelo://app?vid=1e755e27-5bec-44f5-9bc5-07d1b1956aa6","ios":"levelo://app?vid=1e755e27-5bec-44f5-9bc5-07d1b1956aa6"},"vehicle_type_id":"4","last_reported":1704246388,"current_range_meters":29600,"station_id":"ce4bh112rcd13ifvqd90","pricing_plan_id":"free"},{"bike_id":"98625349-0cbe-473f-acc8-157ee4988fad","system_id":"levelo_inurba_marseille","lat":43.29795,"lon":5.404086,"is_reserved":false,"is_disabled":false,"rental_uris":{"android":"levelo://app?vid=98625349-0cbe-473f-acc8-157ee4988fad","ios":"levelo://app?vid=98625349-0cbe-473f-acc8-157ee4988fad"},"vehicle_type_id":"4","last_reported":1704246388,"current_range_meters":27600,"station_id":"ce4bh112rcd13ifvqd90","pricing_plan_id":"free"},{"bike_id":"5ac14087-94b2-4b9d-b3d8-630fe1c8a268","system_id":"levelo_inurba_marseille","lat":43.29795,"lon":5.404086,"is_reserved":false,"is_disabled":false,"rental_uris":{"android":"levelo://app?vid=5ac14087-94b2-4b9d-b3d8-630fe1c8a268","ios":"levelo://app?vid=5ac14087-94b2-4b9d-b3d8-630fe1c8a268"},"vehicle_type_id":"4","last_reported":1704246388,"current_range_meters":26400,"station_id":"ce4bh112rcd13ifvqd90","pricing_plan_id":"free"},{"bike_id":"39fec892-701f-477a-b42c-2c816703e7b4","system_id":"levelo_inurba_marseille","lat":43.288501,"lon":5.393087,"is_reserved":false,"is_disabled":false,"rental_uris":{"android":"levelo://app?vid=39fec892-701f-477a-b42c-2c816703e7b4","ios":"levelo://app?vid=39fec892-701f-477a-b42c-2c816703e7b4"},"vehicle_type_id":"4","last_reported":1704246388,"current_range_meters":25600,"station_id":"ce4bh2p2rcd13ifvqdi0","pricing_plan_id":"free"},{"bike_id":"e6cf61ae-85d9-42b8-a4f9-afbf289bc209","system_id":"levelo_inurba_marseille","lat":43.283494,"lon":5.380945,"is_reserved":false,"is_disabled":false,"rental_uris":{"android":"levelo://app?vid=e6cf61ae-85d9-42b8-a4f9-afbf289bc209","ios":"levelo://app?vid=e6cf61ae-85d9-42b8-a4f9-afbf289bc209"},"vehicle_type_id":"4","last_reported":1704246388,"current_range_meters":28000,"station_id":"ce4bh412rcd13ifvqdr0","pricing_plan_id":"free"},{"bike_id":"89ce508a-507f-4d06-89b2-8bf3b80a1018","system_id":"levelo_inurba_marseille","lat":43.289363,"lon":5.396322,"is_reserved":false,"is_disabled":false,"rental_uris":{"android":"levelo://app?vid=89ce508a-507f-4d06-89b2-8bf3b80a1018","ios":"levelo://app?vid=89ce508a-507f-4d06-89b2-8bf3b80a1018"},"vehicle_type_id":"4","last_reported":1704246388,"current_range_meters":30400,"station_id":"ce4bh3h2rcd13ifvqdn0","pricing_plan_id":"free"},{"bike_id":"b98ab3fe-1342-490f-bd4a-3df601268dad","system_id":"levelo_inurba_marseille","lat":43.289363,"lon":5.396322,"is_reserved":false,"is_disabled":false,"rental_uris":{"android":"levelo://app?vid=b98ab3fe-1342-490f-bd4a-3df601268dad","ios":"levelo://app?vid=b98ab3fe-1342-490f-bd4a-3df601268dad"},"vehicle_type_id":"4","last_reported":1704246388,"current_range_meters":24400,"station_id":"ce4bh3h2rcd13ifvqdn0","pricing_plan_id":"free"},{"bike_id":"14ec941f-3661-4284-bdf1-99101e6b6bd8","system_id":"levelo_inurba_marseille","lat":43.282744,"lon":5.350533,"is_reserved":false,"is_disabled":false,"rental_uris":{"android":"levelo://app?vid=14ec941f-3661-4284-bdf1-99101e6b6bd8","ios":"levelo://app?vid=14ec941f-3661-4284-bdf1-99101e6b6bd8"},"vehicle_type_id":"4","last_reported":1704246388,"current_range_meters":13600,"station_id":"ce4bhbp2rcd13ifvqerg","pricing_plan_id":"free"},{"bike_id":"65bb632b-2098-4999-8786-a1ac8c90d7ad","system_id":"levelo_inurba_marseille","lat":43.283502,"lon":5.386471,"is_reserved":false,"is_disabled":false,"rental_uris":{"android":"levelo://app?vid=65bb632b-2098-4999-8786-a1ac8c90d7ad","ios":"levelo://app?vid=65bb632b-2098-4999-8786-a1ac8c90d7ad"},"vehicle_type_id":"4","last_reported":1704246388,"current_range_meters":26400,"station_id":"ce4bh492rcd13ifvqdvg","pricing_plan_id":"free"},{"bike_id":"ab9d4a9c-efd8-4545-b839-5befeab3b777","system_id":"levelo_inurba_marseille","lat":43.282744,"lon":5.350533,"is_reserved":false,"is_disabled":false,"rental_uris":{"android":"levelo://app?vid=ab9d4a9c-efd8-4545-b839-5befeab3b777","ios":"levelo://app?vid=ab9d4a9c-efd8-4545-b839-5befeab3b777"},"vehicle_type_id":"4","last_reported":1704246388,"current_range_meters":26400,"station_id":"ce4bhbp2rcd13ifvqerg","pricing_plan_id":"free"},{"bike_id":"693ba94e-1482-4072-a6ab-3d5f90288879","system_id":"levelo_inurba_marseille","lat":43.282754,"lon":5.350519,"is_reserved":false,"is_disabled":false,"rental_uris":{"android":"levelo://app?vid=693ba94e-1482-4072-a6ab-3d5f90288879","ios":"levelo://app?vid=693ba94e-1482-4072-a6ab-3d5f90288879"},"vehicle_type_id":"4","last_reported":1704246388,"current_range_meters":28000,"station_id":"ce4bhbp2rcd13ifvqerg","pricing_plan_id":"free"},{"bike_id":"df0f14fb-edd3-4ab0-a4eb-d67c459288ef","system_id":"levelo_inurba_marseille","lat":43.282744,"lon":5.350533,"is_reserved":false,"is_disabled":false,"rental_uris":{"android":"levelo://app?vid=df0f14fb-edd3-4ab0-a4eb-d67c459288ef","ios":"levelo://app?vid=df0f14fb-edd3-4ab0-a4eb-d67c459288ef"},"vehicle_type_id":"4","last_reported":1704246388,"current_range_meters":28400,"station_id":"ce4bhbp2rcd13ifvqerg","pricing_plan_id":"free"},{"bike_id":"488113fb-1bbe-4a09-b2c2-26bc0753011d","system_id":"levelo_inurba_marseille","lat":43.280382,"lon":5.369291,"is_reserved":false,"is_disabled":false,"rental_uris":{"android":"levelo://app?vid=488113fb-1bbe-4a09-b2c2-26bc0753011d","ios":"levelo://app?vid=488113fb-1bbe-4a09-b2c2-26bc0753011d"},"vehicle_type_id":"4","last_reported":1704246388,"current_range_meters":19600,"station_id":"ce4bha12rcd13ifvqef0","pricing_plan_id":"free"},{"bike_id":"834bc26d-d583-4f83-857d-7797339d2887","system_id":"levelo_inurba_marseille","lat":43.280382,"lon":5.369291,"is_reserved":false,"is_disabled":false,"rental_uris":{"android":"levelo://app?vid=834bc26d-d583-4f83-857d-7797339d2887","ios":"levelo://app?vid=834bc26d-d583-4f83-857d-7797339d2887"},"vehicle_type_id":"4","last_reported":1704246388,"current_range_meters":6000,"station_id":"ce4bha12rcd13ifvqef0","pricing_plan_id":"free"},{"bike_id":"100be469-38fc-43c0-9f55-75ce2b71787b","system_id":"levelo_inurba_marseille","lat":43.280382,"lon":5.369291,"is_reserved":false,"is_disabled":false,"rental_uris":{"android":"levelo://app?vid=100be469-38fc-43c0-9f55-75ce2b71787b","ios":"levelo://app?vid=100be469-38fc-43c0-9f55-75ce2b71787b"},"vehicle_type_id":"4","last_reported":1704246388,"current_range_meters":11600,"station_id":"ce4bha12rcd13ifvqef0","pricing_plan_id":"free"},{"bike_id":"3cd281e8-c09d-42b5-b04c-ebae0a511cf2","system_id":"levelo_inurba_marseille","lat":43.29041,"lon":5.399634,"is_reserved":false,"is_disabled":false,"rental_uris":{"android":"levelo://app?vid=3cd281e8-c09d-42b5-b04c-ebae0a511cf2","ios":"levelo://app?vid=3cd281e8-c09d-42b5-b04c-ebae0a511cf2"},"vehicle_type_id":"4","last_reported":1704246388,"current_range_meters":27600,"station_id":"ce4bh392rcd13ifvqdm0","pricing_plan_id":"free"},{"bike_id":"5d940a0e-61f5-4684-9300-f4bd8065a5f6","system_id":"levelo_inurba_marseille","lat":43.29041,"lon":5.399634,"is_reserved":false,"is_disabled":false,"rental_uris":{"android":"levelo://app?vid=5d940a0e-61f5-4684-9300-f4bd8065a5f6","ios":"levelo://app?vid=5d940a0e-61f5-4684-9300-f4bd8065a5f6"},"vehicle_type_id":"4","last_reported":1704246388,"current_range_meters":18000,"station_id":"ce4bh392rcd13ifvqdm0","pricing_plan_id":"free"},{"bike_id":"522eb407-a343-4ce1-9c11-c94508f6265f","system_id":"levelo_inurba_marseille","lat":43.281044,"lon":5.378308,"is_reserved":false,"is_disabled":false,"rental_uris":{"android":"levelo://app?vid=522eb407-a343-4ce1-9c11-c94508f6265f","ios":"levelo://app?vid=522eb407-a343-4ce1-9c11-c94508f6265f"},"vehicle_type_id":"4","last_reported":1704246388,"current_range_meters":29600,"station_id":"ce4bha12rcd13ifvqee0","pricing_plan_id":"free"},{"bike_id":"722a262a-064e-4561-8274-63569dec5641","system_id":"levelo_inurba_marseille","lat":43.281044,"lon":5.378308,"is_reserved":false,"is_disabled":false,"rental_uris":{"android":"levelo://app?vid=722a262a-064e-4561-8274-63569dec5641","ios":"levelo://app?vid=722a262a-064e-4561-8274-63569dec5641"},"vehicle_type_id":"4","last_reported":1704246388,"current_range_meters":20400,"station_id":"ce4bha12rcd13ifvqee0","pricing_plan_id":"free"},{"bike_id":"ff4302bc-bddd-4271-9a68-889bbdf9733f","system_id":"levelo_inurba_marseille","lat":43.296263,"lon":5.40601,"is_reserved":false,"is_disabled":false,"rental_uris":{"android":"levelo://app?vid=ff4302bc-bddd-4271-9a68-889bbdf9733f","ios":"levelo://app?vid=ff4302bc-bddd-4271-9a68-889bbdf9733f"},"vehicle_type_id":"4","last_reported":1704246388,"current_range_meters":22000,"station_id":"ce4bh0h2rcd13ifvqd60","pricing_plan_id":"free"},{"bike_id":"b22ec816-d07d-473b-bbf0-4f0fd33811c8","system_id":"levelo_inurba_marseille","lat":43.296263,"lon":5.40601,"is_reserved":false,"is_disabled":false,"rental_uris":{"android":"levelo://app?vid=b22ec816-d07d-473b-bbf0-4f0fd33811c8","ios":"levelo://app?vid=b22ec816-d07d-473b-bbf0-4f0fd33811c8"},"vehicle_type_id":"4","last_reported":1704246388,"current_range_meters":29200,"station_id":"ce4bh0h2rcd13ifvqd60","pricing_plan_id":"free"},{"bike_id":"d824537f-0bb5-4e3b-9875-cf4972223680","system_id":"levelo_inurba_marseille","lat":43.296263,"lon":5.40601,"is_reserved":false,"is_disabled":false,"rental_uris":{"android":"levelo://app?vid=d824537f-0bb5-4e3b-9875-cf4972223680","ios":"levelo://app?vid=d824537f-0bb5-4e3b-9875-cf4972223680"},"vehicle_type_id":"4","last_reported":1704246388,"current_range_meters":29600,"station_id":"ce4bh0h2rcd13ifvqd60","pricing_plan_id":"free"},{"bike_id":"e7df4b96-71b7-480f-b1ea-d9cd759592bf","system_id":"levelo_inurba_marseille","lat":43.285688,"lon":5.394976,"is_reserved":false,"is_disabled":false,"rental_uris":{"android":"levelo://app?vid=e7df4b96-71b7-480f-b1ea-d9cd759592bf","ios":"levelo://app?vid=e7df4b96-71b7-480f-b1ea-d9cd759592bf"},"vehicle_type_id":"4","last_reported":1704246388,"current_range_meters":27600,"station_id":"ce4bh292rcd13ifvqdg0","pricing_plan_id":"free"},{"bike_id":"1b388849-2476-4bc8-a56d-7ce92d9a55b7","system_id":"levelo_inurba_marseille","lat":43.326605,"lon":5.409903,"is_reserved":false,"is_disabled":false,"rental_uris":{"android":"levelo://app?vid=1b388849-2476-4bc8-a56d-7ce92d9a55b7","ios":"levelo://app?vid=1b388849-2476-4bc8-a56d-7ce92d9a55b7"},"vehicle_type_id":"4","last_reported":1704246388,"current_range_meters":30000,"station_id":"ce4bhpp2rcd13ifvqhgg","pricing_plan_id":"free"},{"bike_id":"a4d23897-f53a-4d1b-a874-454212f50137","system_id":"levelo_inurba_marseille","lat":43.304188,"lon":5.412904,"is_reserved":false,"is_disabled":false,"rental_uris":{"android":"levelo://app?vid=a4d23897-f53a-4d1b-a874-454212f50137","ios":"levelo://app?vid=a4d23897-f53a-4d1b-a874-454212f50137"},"vehicle_type_id":"4","last_reported":1704246388,"current_range_meters":31200,"station_id":"ce4bhop2rcd13ifvqh8g","pricing_plan_id":"free"},{"bike_id":"ce388a99-2ab1-41b7-ae86-b40c471c3cbf","system_id":"levelo_inurba_marseille","lat":43.304188,"lon":5.412904,"is_reserved":false,"is_disabled":false,"rental_uris":{"android":"levelo://app?vid=ce388a99-2ab1-41b7-ae86-b40c471c3cbf","ios":"levelo://app?vid=ce388a99-2ab1-41b7-ae86-b40c471c3cbf"},"vehicle_type_id":"4","last_reported":1704246388,"current_range_meters":26000,"station_id":"ce4bhop2rcd13ifvqh8g","pricing_plan_id":"free"},{"bike_id":"bef92030-bb87-4763-a9b3-c14558d80792","system_id":"levelo_inurba_marseille","lat":43.279087,"lon":5.380114,"is_reserved":false,"is_disabled":false,"rental_uris":{"android":"levelo://app?vid=bef92030-bb87-4763-a9b3-c14558d80792","ios":"levelo://app?vid=bef92030-bb87-4763-a9b3-c14558d80792"},"vehicle_type_id":"4","last_reported":1704246388,"current_range_meters":30000,"station_id":"ce4bhf92rcd13ifvqf50","pricing_plan_id":"free"},{"bike_id":"11cc2c7f-b649-4474-86d9-28856e1d4850","system_id":"levelo_inurba_marseille","lat":43.287154,"lon":5.399979,"is_reserved":false,"is_disabled":false,"rental_uris":{"android":"levelo://app?vid=11cc2c7f-b649-4474-86d9-28856e1d4850","ios":"levelo://app?vid=11cc2c7f-b649-4474-86d9-28856e1d4850"},"vehicle_type_id":"4","last_reported":1704246388,"current_range_meters":28400,"station_id":"ce4bho92rcd13ifvqh3g","pricing_plan_id":"free"},{"bike_id":"afcc7953-c75a-46a7-96a4-719873eaad2c","system_id":"levelo_inurba_marseille","lat":43.287154,"lon":5.399979,"is_reserved":false,"is_disabled":false,"rental_uris":{"android":"levelo://app?vid=afcc7953-c75a-46a7-96a4-719873eaad2c","ios":"levelo://app?vid=afcc7953-c75a-46a7-96a4-719873eaad2c"},"vehicle_type_id":"4","last_reported":1704246388,"current_range_meters":27200,"station_id":"ce4bho92rcd13ifvqh3g","pricing_plan_id":"free"},{"bike_id":"1d7d0b44-395f-4e21-af9d-8af1ed86a5aa","system_id":"levelo_inurba_marseille","lat":43.299579,"lon":5.413255,"is_reserved":false,"is_disabled":false,"rental_uris":{"android":"levelo://app?vid=1d7d0b44-395f-4e21-af9d-8af1ed86a5aa","ios":"levelo://app?vid=1d7d0b44-395f-4e21-af9d-8af1ed86a5aa"},"vehicle_type_id":"4","last_reported":1704246388,"current_range_meters":24400,"station_id":"ce4bhp12rcd13ifvqh9g","pricing_plan_id":"free"},{"bike_id":"6e6658d0-c148-4e77-885a-818b2a313fca","system_id":"levelo_inurba_marseille","lat":43.320527,"lon":5.415477,"is_reserved":false,"is_disabled":false,"rental_uris":{"android":"levelo://app?vid=6e6658d0-c148-4e77-885a-818b2a313fca","ios":"levelo://app?vid=6e6658d0-c148-4e77-885a-818b2a313fca"},"vehicle_type_id":"4","last_reported":1704246388,"current_range_meters":28000,"station_id":"ce4bhq92rcd13ifvqhkg","pricing_plan_id":"free"},{"bike_id":"4bdc92d2-8ff8-4dfb-b0c0-9285e26b9c57","system_id":"levelo_inurba_marseille","lat":43.280784,"lon":5.396622,"is_reserved":false,"is_disabled":false,"rental_uris":{"android":"levelo://app?vid=4bdc92d2-8ff8-4dfb-b0c0-9285e26b9c57","ios":"levelo://app?vid=4bdc92d2-8ff8-4dfb-b0c0-9285e26b9c57"},"vehicle_type_id":"4","last_reported":1704246388,"current_range_meters":28800,"station_id":"ce4bho12rcd13ifvqh2g","pricing_plan_id":"free"},{"bike_id":"2f07b6ec-cb19-4393-848e-201add03b747","system_id":"levelo_inurba_marseille","lat":43.280784,"lon":5.396622,"is_reserved":false,"is_disabled":false,"rental_uris":{"android":"levelo://app?vid=2f07b6ec-cb19-4393-848e-201add03b747","ios":"levelo://app?vid=2f07b6ec-cb19-4393-848e-201add03b747"},"vehicle_type_id":"4","last_reported":1704246388,"current_range_meters":31600,"station_id":"ce4bho12rcd13ifvqh2g","pricing_plan_id":"free"},{"bike_id":"253db26a-7414-4b1e-91e7-c741ffa86ad4","system_id":"levelo_inurba_marseille","lat":43.280784,"lon":5.396622,"is_reserved":false,"is_disabled":false,"rental_uris":{"android":"levelo://app?vid=253db26a-7414-4b1e-91e7-c741ffa86ad4","ios":"levelo://app?vid=253db26a-7414-4b1e-91e7-c741ffa86ad4"},"vehicle_type_id":"4","last_reported":1704246388,"current_range_meters":19200,"station_id":"ce4bho12rcd13ifvqh2g","pricing_plan_id":"free"},{"bike_id":"024eb4f9-bc93-495e-9194-e6d67a1e04ce","system_id":"levelo_inurba_marseille","lat":43.280784,"lon":5.396622,"is_reserved":false,"is_disabled":false,"rental_uris":{"android":"levelo://app?vid=024eb4f9-bc93-495e-9194-e6d67a1e04ce","ios":"levelo://app?vid=024eb4f9-bc93-495e-9194-e6d67a1e04ce"},"vehicle_type_id":"4","last_reported":1704246388,"current_range_meters":30000,"station_id":"ce4bho12rcd13ifvqh2g","pricing_plan_id":"free"},{"bike_id":"51620169-9db8-498d-af57-2b374181dbd3","system_id":"levelo_inurba_marseille","lat":43.280784,"lon":5.396622,"is_reserved":false,"is_disabled":false,"rental_uris":{"android":"levelo://app?vid=51620169-9db8-498d-af57-2b374181dbd3","ios":"levelo://app?vid=51620169-9db8-498d-af57-2b374181dbd3"},"vehicle_type_id":"4","last_reported":1704246388,"current_range_meters":30400,"station_id":"ce4bho12rcd13ifvqh2g","pricing_plan_id":"free"},{"bike_id":"2a7aff35-34cf-41fb-8de1-96339215a68b","system_id":"levelo_inurba_marseille","lat":43.303837,"lon":5.418724,"is_reserved":false,"is_disabled":false,"rental_uris":{"android":"levelo://app?vid=2a7aff35-34cf-41fb-8de1-96339215a68b","ios":"levelo://app?vid=2a7aff35-34cf-41fb-8de1-96339215a68b"},"vehicle_type_id":"4","last_reported":1704246388,"current_range_meters":26800,"station_id":"ce4bhop2rcd13ifvqh7g","pricing_plan_id":"free"},{"bike_id":"a6cdb291-5056-42ff-a51a-03152fade9f9","system_id":"levelo_inurba_marseille","lat":43.278399,"lon":5.392139,"is_reserved":false,"is_disabled":false,"rental_uris":{"android":"levelo://app?vid=a6cdb291-5056-42ff-a51a-03152fade9f9","ios":"levelo://app?vid=a6cdb291-5056-42ff-a51a-03152fade9f9"},"vehicle_type_id":"4","last_reported":1704246388,"current_range_meters":28800,"station_id":"ce4bhjp2rcd13ifvqga0","pricing_plan_id":"free"},{"bike_id":"5e5344f6-3ae3-4e6d-9e4f-a1ef3b3ab7fa","system_id":"levelo_inurba_marseille","lat":43.273609,"lon":5.362708,"is_reserved":false,"is_disabled":false,"rental_uris":{"android":"levelo://app?vid=5e5344f6-3ae3-4e6d-9e4f-a1ef3b3ab7fa","ios":"levelo://app?vid=5e5344f6-3ae3-4e6d-9e4f-a1ef3b3ab7fa"},"vehicle_type_id":"4","last_reported":1704246388,"current_range_meters":27200,"station_id":"ce4bhbh2rcd13ifvqeo0","pricing_plan_id":"free"},{"bike_id":"cdfaa7fc-5fbf-4171-a12c-1770a578ba0f","system_id":"levelo_inurba_marseille","lat":43.273613,"lon":5.362705,"is_reserved":false,"is_disabled":false,"rental_uris":{"android":"levelo://app?vid=cdfaa7fc-5fbf-4171-a12c-1770a578ba0f","ios":"levelo://app?vid=cdfaa7fc-5fbf-4171-a12c-1770a578ba0f"},"vehicle_type_id":"4","last_reported":1704246388,"current_range_meters":10800,"station_id":"ce4bhbh2rcd13ifvqeo0","pricing_plan_id":"free"},{"bike_id":"e68a18f1-906f-4583-8e82-b12a1bf4c079","system_id":"levelo_inurba_marseille","lat":43.273609,"lon":5.362708,"is_reserved":false,"is_disabled":false,"rental_uris":{"android":"levelo://app?vid=e68a18f1-906f-4583-8e82-b12a1bf4c079","ios":"levelo://app?vid=e68a18f1-906f-4583-8e82-b12a1bf4c079"},"vehicle_type_id":"4","last_reported":1704246388,"current_range_meters":30000,"station_id":"ce4bhbh2rcd13ifvqeo0","pricing_plan_id":"free"},{"bike_id":"d406f23b-63aa-4cdb-a75f-92ad3f79ce89","system_id":"levelo_inurba_marseille","lat":43.273609,"lon":5.362708,"is_reserved":false,"is_disabled":false,"rental_uris":{"android":"levelo://app?vid=d406f23b-63aa-4cdb-a75f-92ad3f79ce89","ios":"levelo://app?vid=d406f23b-63aa-4cdb-a75f-92ad3f79ce89"},"vehicle_type_id":"4","last_reported":1704246388,"current_range_meters":24400,"station_id":"ce4bhbh2rcd13ifvqeo0","pricing_plan_id":"free"},{"bike_id":"135de8d1-b503-4df4-8fa5-bf7f66b0e23c","system_id":"levelo_inurba_marseille","lat":43.336134,"lon":5.410341,"is_reserved":false,"is_disabled":false,"rental_uris":{"android":"levelo://app?vid=135de8d1-b503-4df4-8fa5-bf7f66b0e23c","ios":"levelo://app?vid=135de8d1-b503-4df4-8fa5-bf7f66b0e23c"},"vehicle_type_id":"4","last_reported":1704246388,"current_range_meters":12800,"station_id":"ce4bhqh2rcd13ifvqhmg","pricing_plan_id":"free"},{"bike_id":"98e9bd3f-792b-4d01-8d47-cadd239070ce","system_id":"levelo_inurba_marseille","lat":43.336134,"lon":5.410341,"is_reserved":false,"is_disabled":false,"rental_uris":{"android":"levelo://app?vid=98e9bd3f-792b-4d01-8d47-cadd239070ce","ios":"levelo://app?vid=98e9bd3f-792b-4d01-8d47-cadd239070ce"},"vehicle_type_id":"4","last_reported":1704246388,"current_range_meters":14000,"station_id":"ce4bhqh2rcd13ifvqhmg","pricing_plan_id":"free"},{"bike_id":"76fabeb5-2ecb-43a1-9b81-453a72941551","system_id":"levelo_inurba_marseille","lat":43.336134,"lon":5.410341,"is_reserved":false,"is_disabled":false,"rental_uris":{"android":"levelo://app?vid=76fabeb5-2ecb-43a1-9b81-453a72941551","ios":"levelo://app?vid=76fabeb5-2ecb-43a1-9b81-453a72941551"},"vehicle_type_id":"4","last_reported":1704246388,"current_range_meters":12800,"station_id":"ce4bhqh2rcd13ifvqhmg","pricing_plan_id":"free"},{"bike_id":"ec91a2be-e408-4729-a46c-d7ce90169c2d","system_id":"levelo_inurba_marseille","lat":43.336134,"lon":5.410341,"is_reserved":false,"is_disabled":false,"rental_uris":{"android":"levelo://app?vid=ec91a2be-e408-4729-a46c-d7ce90169c2d","ios":"levelo://app?vid=ec91a2be-e408-4729-a46c-d7ce90169c2d"},"vehicle_type_id":"4","last_reported":1704246388,"current_range_meters":24000,"station_id":"ce4bhqh2rcd13ifvqhmg","pricing_plan_id":"free"},{"bike_id":"add0c299-5982-42dc-a830-e842d62b7481","system_id":"levelo_inurba_marseille","lat":43.336134,"lon":5.410341,"is_reserved":false,"is_disabled":false,"rental_uris":{"android":"levelo://app?vid=add0c299-5982-42dc-a830-e842d62b7481","ios":"levelo://app?vid=add0c299-5982-42dc-a830-e842d62b7481"},"vehicle_type_id":"4","last_reported":1704246388,"current_range_meters":25200,"station_id":"ce4bhqh2rcd13ifvqhmg","pricing_plan_id":"free"},{"bike_id":"575dab36-6090-4ba0-b893-e3f7e28cfb60","system_id":"levelo_inurba_marseille","lat":43.317121,"lon":5.423936,"is_reserved":false,"is_disabled":false,"rental_uris":{"android":"levelo://app?vid=575dab36-6090-4ba0-b893-e3f7e28cfb60","ios":"levelo://app?vid=575dab36-6090-4ba0-b893-e3f7e28cfb60"},"vehicle_type_id":"4","last_reported":1704246388,"current_range_meters":14000,"station_id":"ce4bhp92rcd13ifvqhbg","pricing_plan_id":"free"},{"bike_id":"5e3452d0-bbc8-463b-8852-ec98e809d5a0","system_id":"levelo_inurba_marseille","lat":43.317121,"lon":5.423936,"is_reserved":false,"is_disabled":false,"rental_uris":{"android":"levelo://app?vid=5e3452d0-bbc8-463b-8852-ec98e809d5a0","ios":"levelo://app?vid=5e3452d0-bbc8-463b-8852-ec98e809d5a0"},"vehicle_type_id":"4","last_reported":1704246388,"current_range_meters":31200,"station_id":"ce4bhp92rcd13ifvqhbg","pricing_plan_id":"free"},{"bike_id":"f3e351f0-7ca3-497e-a450-69da3118abd7","system_id":"levelo_inurba_marseille","lat":43.317121,"lon":5.423936,"is_reserved":false,"is_disabled":false,"rental_uris":{"android":"levelo://app?vid=f3e351f0-7ca3-497e-a450-69da3118abd7","ios":"levelo://app?vid=f3e351f0-7ca3-497e-a450-69da3118abd7"},"vehicle_type_id":"4","last_reported":1704246388,"current_range_meters":31200,"station_id":"ce4bhp92rcd13ifvqhbg","pricing_plan_id":"free"},{"bike_id":"9c4dd5ee-6757-4c29-98c5-ece56c7532c0","system_id":"levelo_inurba_marseille","lat":43.317121,"lon":5.423936,"is_reserved":false,"is_disabled":false,"rental_uris":{"android":"levelo://app?vid=9c4dd5ee-6757-4c29-98c5-ece56c7532c0","ios":"levelo://app?vid=9c4dd5ee-6757-4c29-98c5-ece56c7532c0"},"vehicle_type_id":"4","last_reported":1704246388,"current_range_meters":0,"station_id":"ce4bhp92rcd13ifvqhbg","pricing_plan_id":"free"},{"bike_id":"537de52f-fbf7-4ccb-979b-67cc22a43136","system_id":"levelo_inurba_marseille","lat":43.310785,"lon":5.424305,"is_reserved":false,"is_disabled":false,"rental_uris":{"android":"levelo://app?vid=537de52f-fbf7-4ccb-979b-67cc22a43136","ios":"levelo://app?vid=537de52f-fbf7-4ccb-979b-67cc22a43136"},"vehicle_type_id":"4","last_reported":1704246388,"current_range_meters":6800,"station_id":"ce4bhp92rcd13ifvqhag","pricing_plan_id":"free"},{"bike_id":"7bf62e9a-1ac7-4f26-b611-6326f83bffbf","system_id":"levelo_inurba_marseille","lat":43.274099,"lon":5.394019,"is_reserved":false,"is_disabled":false,"rental_uris":{"android":"levelo://app?vid=7bf62e9a-1ac7-4f26-b611-6326f83bffbf","ios":"levelo://app?vid=7bf62e9a-1ac7-4f26-b611-6326f83bffbf"},"vehicle_type_id":"4","last_reported":1704246388,"current_range_meters":8800,"station_id":"ce4bhdp2rcd13ifvqf20","pricing_plan_id":"free"},{"bike_id":"ed6ee5cf-fc8c-4f2c-bed9-20b3ad924777","system_id":"levelo_inurba_marseille","lat":43.304096,"lon":5.425385,"is_reserved":false,"is_disabled":false,"rental_uris":{"android":"levelo://app?vid=ed6ee5cf-fc8c-4f2c-bed9-20b3ad924777","ios":"levelo://app?vid=ed6ee5cf-fc8c-4f2c-bed9-20b3ad924777"},"vehicle_type_id":"4","last_reported":1704246388,"current_range_meters":3200,"station_id":"ce4bhoh2rcd13ifvqh6g","pricing_plan_id":"free"},{"bike_id":"f0489890-e96a-4deb-92e7-26f06d10b6d8","system_id":"levelo_inurba_marseille","lat":43.295523,"lon":5.422926,"is_reserved":false,"is_disabled":false,"rental_uris":{"android":"levelo://app?vid=f0489890-e96a-4deb-92e7-26f06d10b6d8","ios":"levelo://app?vid=f0489890-e96a-4deb-92e7-26f06d10b6d8"},"vehicle_type_id":"4","last_reported":1704246388,"current_range_meters":26400,"station_id":"ce4bhph2rcd13ifvqhdg","pricing_plan_id":"free"},{"bike_id":"8fde798f-1a53-4ae7-acbe-6359ff17d07e","system_id":"levelo_inurba_marseille","lat":43.295523,"lon":5.422926,"is_reserved":false,"is_disabled":false,"rental_uris":{"android":"levelo://app?vid=8fde798f-1a53-4ae7-acbe-6359ff17d07e","ios":"levelo://app?vid=8fde798f-1a53-4ae7-acbe-6359ff17d07e"},"vehicle_type_id":"4","last_reported":1704246388,"current_range_meters":9200,"station_id":"ce4bhph2rcd13ifvqhdg","pricing_plan_id":"free"},{"bike_id":"2ea63b5f-5611-4e23-a9e5-5bdc3150234e","system_id":"levelo_inurba_marseille","lat":43.295511,"lon":5.422926,"is_reserved":false,"is_disabled":false,"rental_uris":{"android":"levelo://app?vid=2ea63b5f-5611-4e23-a9e5-5bdc3150234e","ios":"levelo://app?vid=2ea63b5f-5611-4e23-a9e5-5bdc3150234e"},"vehicle_type_id":"4","last_reported":1704246388,"current_range_meters":31200,"station_id":"ce4bhph2rcd13ifvqhdg","pricing_plan_id":"free"},{"bike_id":"0981adf6-92c5-4e1b-820e-2802de113eaa","system_id":"levelo_inurba_marseille","lat":43.27207,"lon":5.39079,"is_reserved":false,"is_disabled":false,"rental_uris":{"android":"levelo://app?vid=0981adf6-92c5-4e1b-820e-2802de113eaa","ios":"levelo://app?vid=0981adf6-92c5-4e1b-820e-2802de113eaa"},"vehicle_type_id":"4","last_reported":1704246388,"current_range_meters":19600,"station_id":"","pricing_plan_id":"free"},{"bike_id":"64bbd684-6ef9-4cbd-aa0d-5e9e93cb12eb","system_id":"levelo_inurba_marseille","lat":43.295511,"lon":5.422926,"is_reserved":false,"is_disabled":false,"rental_uris":{"android":"levelo://app?vid=64bbd684-6ef9-4cbd-aa0d-5e9e93cb12eb","ios":"levelo://app?vid=64bbd684-6ef9-4cbd-aa0d-5e9e93cb12eb"},"vehicle_type_id":"4","last_reported":1704246388,"current_range_meters":27600,"station_id":"ce4bhph2rcd13ifvqhdg","pricing_plan_id":"free"},{"bike_id":"868a5021-88ca-44f6-8f89-869b18f51f44","system_id":"levelo_inurba_marseille","lat":43.278137,"lon":5.407137,"is_reserved":false,"is_disabled":false,"rental_uris":{"android":"levelo://app?vid=868a5021-88ca-44f6-8f89-869b18f51f44","ios":"levelo://app?vid=868a5021-88ca-44f6-8f89-869b18f51f44"},"vehicle_type_id":"4","last_reported":1704246388,"current_range_meters":1600,"station_id":"ce4bhnh2rcd13ifvqgtg","pricing_plan_id":"free"},{"bike_id":"9be9adce-df13-480e-bcc0-81fc5e296c42","system_id":"levelo_inurba_marseille","lat":43.278128,"lon":5.407195,"is_reserved":false,"is_disabled":false,"rental_uris":{"android":"levelo://app?vid=9be9adce-df13-480e-bcc0-81fc5e296c42","ios":"levelo://app?vid=9be9adce-df13-480e-bcc0-81fc5e296c42"},"vehicle_type_id":"4","last_reported":1704246388,"current_range_meters":30000,"station_id":"ce4bhnh2rcd13ifvqgtg","pricing_plan_id":"free"},