{"last_updated":1676956040,"ttl":30,"version":"2.2","data":{"bikes":[{"bike_id":"482424dd-f038-4f97-9dd7-ccf1bfa68f20","system_id":"levelo_inurba_marseille","lat":43.312239,"lon":5.368562,"is_reserved":false,"is_disabled":false,"rental_uris":{"android":"levelo://app?vid=482424dd-f038-4f97-9dd7-ccf1bfa68f20","ios":"levelo://app?vid=482424dd-f038-4f97-9dd7-ccf1bfa68f20"},"vehicle_type_id":"4","last_reported":1676956041,"current_range_meters":28800,"station_id":"ce4bgl92rcd13ifvqbq0","pricing_plan_id":"free"},{"bike_id":"5d5dcf9e-238e-4f17-bced-ae69e3740cb8","system_id":"levelo_inurba_marseille","lat":43.312239,"lon":5.368562,"is_reserved":false,"is_disabled":false,"rental_uris":{"android":"levelo://app?vid=5d5dcf9e-238e-4f17-bced-ae69e3740cb8","ios":"levelo://app?vid=5d5dcf9e-238e-4f17-bced-ae69e3740cb8"},"vehicle_type_id":"4","last_reported":1676956041,"current_range_meters":15200,"station_id":"ce4bgl92rcd13ifvqbq0","pricing_plan_id":"free"},{"bike_id":"bd10506c-ca3c-4201-85e1-f4ba2e8f835e","system_id":"levelo_inurba_marseille","lat":43.309076,"lon":5.368465,"is_reserved":false,"is_disabled":false,"rental_uris":{"android":"levelo://app?vid=bd10506c-ca3c-4201-85e1-f4ba2e8f835e","ios":"levelo://app?vid=bd10506c-ca3c-4201-85e1-f4ba2e8f835e"},"vehicle_type_id":"4","last_reported":1676956041,"current_range_meters":11200,"station_id":"ce4bgn92rcd13ifvqbvg","pricing_plan_id":"free"},{"bike_id":"a1bb9750-fad1-4807-9039-de7c4406d2ed","system_id":"levelo_inurba_marseille","lat":43.312433,"lon":5.37283,"is_reserved":false,"is_disabled":false,"rental_uris":{"android":"levelo://app?vid=a1bb9750-fad1-4807-9039-de7c4406d2ed","ios":"levelo://app?vid=a1bb9750-fad1-4807-9039-de7c4406d2ed"},"vehicle_type_id":"4","last_reported":1676956041,"current_range_meters":2800,"station_id":"","pricing_plan_id":"free"},{"bike_id":"29b87ad5-135b-437c-be9a-51378f77867d","system_id":"levelo_inurba_marseille","lat":43.31503,"lon":5.37293,"is_reserved":false,"is_disabled":false,"rental_uris":{"android":"levelo://app?vid=29b87ad5-135b-437c-be9a-51378f77867d","ios":"levelo://app?vid=29b87ad5-135b-437c-be9a-51378f77867d"},"vehicle_type_id":"4","last_reported":1676956041,"current_range_meters":0,"station_id":"","pricing_plan_id":"free"},{"bike_id":"11a24967-3c4c-4654-8abd-695d948f1024","system_id":"levelo_inurba_marseille","lat":43.315021,"lon":5.37302,"is_reserved":false,"is_disabled":false,"rental_uris":{"android":"levelo://app?vid=11a24967-3c4c-4654-8abd-695d948f1024","ios":"levelo://app?vid=11a24967-3c4c-4654-8abd-695d948f1024"},"vehicle_type_id":"4","last_reported":1676956041,"current_range_meters":19600,"station_id":"","pricing_plan_id":"free"},{"bike_id":"590fdb29-de61-4cae-b718-e7a199b9f47d","system_id":"levelo_inurba_marseille","lat":43.314993,"lon":5.373093,"is_reserved":false,"is_disabled":false,"rental_uris":{"android":"levelo://app?vid=590fdb29-de61-4cae-b718-e7a199b9f47d","ios":"levelo://app?vid=590fdb29-de61-4cae-b718-e7a199b9f47d"},"vehicle_type_id":"4","last_reported":1676956041,"current_range_meters":400,"station_id":"ce4bgt12rcd13ifvqcd0","pricing_plan_id":"free"},{"bike_id":"341fc87c-1ba6-483d-87ad-28f50b4f8c58","system_id":"levelo_inurba_marseille","lat":43.308614,"lon":5.372098,"is_reserved":false,"is_disabled":false,"rental_uris":{"android":"levelo://app?vid=341fc87c-1ba6-483d-87ad-28f50b4f8c58","ios":"levelo://app?vid=341fc87c-1ba6-483d-87ad-28f50b4f8c58"},"vehicle_type_id":"4","last_reported":1676956041,"current_range_meters":800,"station_id":"ce4bguh2rcd13ifvqckg","pricing_plan_id":"free"},{"bike_id":"8bbaa1a2-2b0c-4de0-871f-c107a967a8f9","system_id":"levelo_inurba_marseille","lat":43.308614,"lon":5.372098,"is_reserved":false,"is_disabled":false,"rental_uris":{"android":"levelo://app?vid=8bbaa1a2-2b0c-4de0-871f-c107a967a8f9","ios":"levelo://app?vid=8bbaa1a2-2b0c-4de0-871f-c107a967a8f9"},"vehicle_type_id":"4","last_reported":1676956041,"current_range_meters":2800,"station_id":"ce4bguh2rcd13ifvqckg","pricing_plan_id":"free"},{"bike_id":"23a8a145-65c1-46e1-bc44-24c4ad7b8149","system_id":"levelo_inurba_marseille","lat":43.306111,"lon":5.372242,"is_reserved":false,"is_disabled":false,"rental_uris":{"android":"levelo://app?vid=23a8a145-65c1-46e1-bc44-24c4ad7b8149","ios":"levelo://app?vid=23a8a145-65c1-46e1-bc44-24c4ad7b8149"},"vehicle_type_id":"4","last_reported":1676956041,"current_range_meters":1600,"station_id":"","pricing_plan_id":"free"},{"bike_id":"8c88aeb7-b014-432e-9916-248dbaa493fc","system_id":"levelo_inurba_marseille","lat":43.306068,"lon":5.372229,"is_reserved":false,"is_disabled":false,"rental_uris":{"android":"levelo://app?vid=8c88aeb7-b014-432e-9916-248dbaa493fc","ios":"levelo://app?vid=8c88aeb7-b014-432e-9916-248dbaa493fc"},"vehicle_type_id":"4","last_reported":1676956041,"current_range_meters":24000,"station_id":"","pricing_plan_id":"free"},{"bike_id":"9f829da5-f7aa-4875-9d2b-52d910d24830","system_id":"levelo_inurba_marseille","lat":43.306057,"lon":5.372304,"is_reserved":false,"is_disabled":false,"rental_uris":{"android":"levelo://app?vid=9f829da5-f7aa-4875-9d2b-52d910d24830","ios":"levelo://app?vid=9f829da5-f7aa-4875-9d2b-52d910d24830"},"vehicle_type_id":"4","last_reported":1676956041,"current_range_meters":11600,"station_id":"ce4bgqh2rcd13ifvqc4g","pricing_plan_id":"free"},{"bike_id":"c1413f9c-c124-4d80-aed8-e2196383c2e6","system_id":"levelo_inurba_marseille","lat":43.306021,"lon":5.372317,"is_reserved":false,"is_disabled":false,"rental_uris":{"android":"levelo://app?vid=c1413f9c-c124-4d80-aed8-e2196383c2e6","ios":"levelo://app?vid=c1413f9c-c124-4d80-aed8-e2196383c2e6"},"vehicle_type_id":"4","last_reported":1676956041,"current_range_meters":0,"station_id":"ce4bgqh2rcd13ifvqc4g","pricing_plan_id":"free"},{"bike_id":"fd95ebf9-bd64-436d-86d3-e79076dfd247","system_id":"levelo_inurba_marseille","lat":43.319194,"lon":5.373501,"is_reserved":false,"is_disabled":false,"rental_uris":{"android":"levelo://app?vid=fd95ebf9-bd64-436d-86d3-e79076dfd247","ios":"levelo://app?vid=fd95ebf9-bd64-436d-86d3-e79076dfd247"},"vehicle_type_id":"4","last_reported":1676956041,"current_range_meters":23600,"station_id":"","pricing_plan_id":"free"},{"bike_id":"b45a4770-5b04-4538-b777-8e6f24bd551f","system_id":"levelo_inurba_marseille","lat":43.317075,"lon":5.377367,"is_reserved":false,"is_disabled":false,"rental_uris":{"android":"levelo://app?vid=b45a4770-5b04-4538-b777-8e6f24bd551f","ios":"levelo://app?vid=b45a4770-5b04-4538-b777-8e6f24bd551f"},"vehicle_type_id":"4","last_reported":1676956041,"current_range_meters":28800,"station_id":"ce4bgth2rcd13ifvqch0","pricing_plan_id":"free"},{"bike_id":"01d2beb0-7c38-430a-b81a-4fda40652a9d","system_id":"levelo_inurba_marseille","lat":43.301939,"lon":5.366286,"is_reserved":false,"is_disabled":false,"rental_uris":{"android":"levelo://app?vid=01d2beb0-7c38-430a-b81a-4fda40652a9d","ios":"levelo://app?vid=01d2beb0-7c38-430a-b81a-4fda40652a9d"},"vehicle_type_id":"4","last_reported":1676956041,"current_range_meters":17600,"station_id":"ce4bgrh2rcd13ifvqc8g","pricing_plan_id":"free"},{"bike_id":"834bf70f-3114-47be-bc97-c118e07007b2","system_id":"levelo_inurba_marseille","lat":43.301939,"lon":5.366286,"is_reserved":false,"is_disabled":false,"rental_uris":{"android":"levelo://app?vid=834bf70f-3114-47be-bc97-c118e07007b2","ios":"levelo://app?vid=834bf70f-3114-47be-bc97-c118e07007b2"},"vehicle_type_id":"4","last_reported":1676956041,"current_range_meters":24800,"station_id":"ce4bgrh2rcd13ifvqc8g","pricing_plan_id":"free"},{"bike_id":"a8ed7106-fd96-414c-9a9b-05386eb824d4","system_id":"levelo_inurba_marseille","lat":43.301939,"lon":5.366286,"is_reserved":false,"is_disabled":false,"rental_uris":{"android":"levelo://app?vid=a8ed7106-fd96-414c-9a9b-05386eb824d4","ios":"levelo://app?vid=a8ed7106-fd96-414c-9a9b-05386eb824d4"},"vehicle_type_id":"4","last_reported":1676956041,"current_range_meters":5200,"station_id":"ce4bgrh2rcd13ifvqc8g","pricing_plan_id":"free"},{"bike_id":"941d7b9a-1f0e-4033-b8b8-1a9e114a6b4b","system_id":"levelo_inurba_marseille","lat":43.308047,"lon":5.38145,"is_reserved":false,"is_disabled":false,"rental_uris":{"android":"levelo://app?vid=941d7b9a-1f0e-4033-b8b8-1a9e114a6b4b","ios":"levelo://app?vid=941d7b9a-1f0e-4033-b8b8-1a9e114a6b4b"},"vehicle_type_id":"4","last_reported":1676956041,"current_range_meters":4400,"station_id":"ce4bgt12rcd13ifvqce0","pricing_plan_id":"free"},{"bike_id":"6bfc9aa6-aaac-4734-a309-3a925ba1fe31","system_id":"levelo_inurba_marseille","lat":43.308012,"lon":5.381511,"is_reserved":false,"is_disabled":false,"rental_uris":{"android":"levelo://app?vid=6bfc9aa6-aaac-4734-a309-3a925ba1fe31","ios":"levelo://app?vid=6bfc9aa6-aaac-4734-a309-3a925ba1fe31"},"vehicle_type_id":"4","last_reported":1676956041,"current_range_meters":5200,"station_id":"ce4bgt12rcd13ifvqce0","pricing_plan_id":"free"},{"bike_id":"7d6c0ccd-e2ac-4bf7-b3cc-2d92b7a7fc64","system_id":"levelo_inurba_marseille","lat":43.308012,"lon":5.381511,"is_reserved":false,"is_disabled":false,"rental_uris":{"android":"levelo://app?vid=7d6c0ccd-e2ac-4bf7-b3cc-2d92b7a7fc64","ios":"levelo://app?vid=7d6c0ccd-e2ac-4bf7-b3cc-2d92b7a7fc64"},"vehicle_type_id":"4","last_reported":1676956041,"current_range_meters":4000,"station_id":"ce4bgt12rcd13ifvqce0","pricing_plan_id":"free"},{"bike_id":"eb2ff6c1-f620-479b-ae86-b5410bb8d215","system_id":"levelo_inurba_marseille","lat":43.308012,"lon":5.381511,"is_reserved":false,"is_disabled":false,"rental_uris":{"android":"levelo://app?vid=eb2ff6c1-f620-479b-ae86-b5410bb8d215","ios":"levelo://app?vid=eb2ff6c1-f620-479b-ae86-b5410bb8d215"},"vehicle_type_id":"4","last_reported":1676956041,"current_range_meters":2000,"station_id":"ce4bgt12rcd13ifvqce0","pricing_plan_id":"free"},{"bike_id":"e5c9e5c8-3a60-460f-bbfc-7ecd37813c2c","system_id":"levelo_inurba_marseille","lat":43.30792,"lon":5.381508,"is_reserved":false,"is_disabled":false,"rental_uris":{"android":"levelo://app?vid=e5c9e5c8-3a60-460f-bbfc-7ecd37813c2c","ios":"levelo://app?vid=e5c9e5c8-3a60-460f-bbfc-7ecd37813c2c"},"vehicle_type_id":"4","last_reported":1676956041,"current_range_meters":15600,"station_id":"","pricing_plan_id":"free"},{"bike_id":"235425cf-e293-4adb-9b6d-1ad40baf613c","system_id":"levelo_inurba_marseille","lat":43.308016,"lon":5.381581,"is_reserved":false,"is_disabled":false,"rental_uris":{"android":"levelo://app?vid=235425cf-e293-4adb-9b6d-1ad40baf613c","ios":"levelo://app?vid=235425cf-e293-4adb-9b6d-1ad40baf613c"},"vehicle_type_id":"4","last_reported":1676956041,"current_range_meters":3200,"station_id":"","pricing_plan_id":"free"},{"bike_id":"586eb00e-ef9f-4f45-8bde-169331a971f6","system_id":"levelo_inurba_marseille","lat":43.304606,"lon":5.379026,"is_reserved":false,"is_disabled":false,"rental_uris":{"android":"levelo://app?vid=586eb00e-ef9f-4f45-8bde-169331a971f6","ios":"levelo://app?vid=586eb00e-ef9f-4f45-8bde-169331a971f6"},"vehicle_type_id":"4","last_reported":1676956041,"current_range_meters":27200,"station_id":"ce4bgup2rcd13ifvqcn0","pricing_plan_id":"free"},{"bike_id":"7f374040-e48c-4c6c-8bb4-0b6c060548f5","system_id":"levelo_inurba_marseille","lat":43.30143,"lon":5.37413,"is_reserved":false,"is_disabled":false,"rental_uris":{"android":"levelo://app?vid=7f374040-e48c-4c6c-8bb4-0b6c060548f5","ios":"levelo://app?vid=7f374040-e48c-4c6c-8bb4-0b6c060548f5"},"vehicle_type_id":"4","last_reported":1676956041,"current_range_meters":2400,"station_id":"ce4bgs92rcd13ifvqcc0","pricing_plan_id":"free"},{"bike_id":"19530891-5d85-4872-985a-a8759d5c0a97","system_id":"levelo_inurba_marseille","lat":43.313571,"lon":5.384829,"is_reserved":false,"is_disabled":false,"rental_uris":{"android":"levelo://app?vid=19530891-5d85-4872-985a-a8759d5c0a97","ios":"levelo://app?vid=19530891-5d85-4872-985a-a8759d5c0a97"},"vehicle_type_id":"4","last_reported":1676956041,"current_range_meters":2800,"station_id":"ce4bgt92rcd13ifvqcf0","pricing_plan_id":"free"},{"bike_id":"99922a25-b365-424f-899b-1d75320ce780","system_id":"levelo_inurba_marseille","lat":43.313571,"lon":5.384829,"is_reserved":false,"is_disabled":false,"rental_uris":{"android":"levelo://app?vid=99922a25-b365-424f-899b-1d75320ce780","ios":"levelo://app?vid=99922a25-b365-424f-899b-1d75320ce780"},"vehicle_type_id":"4","last_reported":1676956041,"current_range_meters":8800,"station_id":"ce4bgt92rcd13ifvqcf0","pricing_plan_id":"free"},{"bike_id":"a89fa856-2e1c-4eed-8f62-3c8ae9fa9d5b","system_id":"levelo_inurba_marseille","lat":43.313571,"lon":5.384829,"is_reserved":false,"is_disabled":false,"rental_uris":{"android":"levelo://app?vid=a89fa856-2e1c-4eed-8f62-3c8ae9fa9d5b","ios":"levelo://app?vid=a89fa856-2e1c-4eed-8f62-3c8ae9fa9d5b"},"vehicle_type_id":"4","last_reported":1676956041,"current_range_meters":14400,"station_id":"ce4bgt92rcd13ifvqcf0","pricing_plan_id":"free"},{"bike_id":"2ce25ff0-915e-4b83-84d9-91f52314e123","system_id":"levelo_inurba_marseille","lat":43.31369,"lon":5.38498,"is_reserved":false,"is_disabled":false,"rental_uris":{"android":"levelo://app?vid=2ce25ff0-915e-4b83-84d9-91f52314e123","ios":"levelo://app?vid=2ce25ff0-915e-4b83-84d9-91f52314e123"},"vehicle_type_id":"4","last_reported":1676956041,"current_range_meters":17200,"station_id":"ce4bgt92rcd13ifvqcf0","pricing_plan_id":"free"},{"bike_id":"e773b231-2867-4206-a30c-7235cd89351b","system_id":"levelo_inurba_marseille","lat":43.313571,"lon":5.384829,"is_reserved":false,"is_disabled":false,"rental_uris":{"android":"levelo://app?vid=e773b231-2867-4206-a30c-7235cd89351b","ios":"levelo://app?vid=e773b231-2867-4206-a30c-7235cd89351b"},"vehicle_type_id":"4","last_reported":1676956041,"current_range_meters":24000,"station_id":"ce4bgt92rcd13ifvqcf0","pricing_plan_id":"free"},{"bike_id":"80772166-f5c2-4e83-88ad-4e60ad1ee7e4","system_id":"levelo_inurba_marseille","lat":43.305364,"lon":5.384119,"is_reserved":false,"is_disabled":false,"rental_uris":{"android":"levelo://app?vid=80772166-f5c2-4e83-88ad-4e60ad1ee7e4","ios":"levelo://app?vid=80772166-f5c2-4e83-88ad-4e60ad1ee7e4"},"vehicle_type_id":"4","last_reported":1676956041,"current_range_meters":0,"station_id":"ce4bgg92rcd13ifvqb30","pricing_plan_id":"free"},{"bike_id":"a47539d7-8086-4e06-9ab3-ca4553026494","system_id":"levelo_inurba_marseille","lat":43.305364,"lon":5.384119,"is_reserved":false,"is_disabled":false,"rental_uris":{"android":"levelo://app?vid=a47539d7-8086-4e06-9ab3-ca4553026494","ios":"levelo://app?vid=a47539d7-8086-4e06-9ab3-ca4553026494"},"vehicle_type_id":"4","last_reported":1676956041,"current_range_meters":1600,"station_id":"ce4bgg92rcd13ifvqb30","pricing_plan_id":"free"},{"bike_id":"874022e4-0648-48b5-957e-36709c432d26","system_id":"levelo_inurba_marseille","lat":43.305364,"lon":5.384119,"is_reserved":false,"is_disabled":false,"rental_uris":{"android":"levelo://app?vid=874022e4-0648-48b5-957e-36709c432d26","ios":"levelo://app?vid=874022e4-0648-48b5-957e-36709c432d26"},"vehicle_type_id":"4","last_reported":1676956041,"current_range_meters":25600,"station_id":"ce4bgg92rcd13ifvqb30","pricing_plan_id":"free"},{"bike_id":"43c45271-1e75-4b3a-8350-7260054ee86c","system_id":"levelo_inurba_marseille","lat":43.311722,"lon":5.387247,"is_reserved":false,"is_disabled":false,"rental_uris":{"android":"levelo://app?vid=43c45271-1e75-4b3a-8350-7260054ee86c","ios":"levelo://app?vid=43c45271-1e75-4b3a-8350-7260054ee86c"},"vehicle_type_id":"4","last_reported":1676956041,"current_range_meters":25600,"station_id":"ce4bgv12rcd13ifvqcp0","pricing_plan_id":"free"},{"bike_id":"4143fe9c-4a11-4a7c-80a1-6eb14c69407b","system_id":"levelo_inurba_marseille","lat":43.311722,"lon":5.387247,"is_reserved":false,"is_disabled":false,"rental_uris":{"android":"levelo://app?vid=4143fe9c-4a11-4a7c-80a1-6eb14c69407b","ios":"levelo://app?vid=4143fe9c-4a11-4a7c-80a1-6eb14c69407b"},"vehicle_type_id":"4","last_reported":1676956041,"current_range_meters":30400,"station_id":"ce4bgv12rcd13ifvqcp0","pricing_plan_id":"free"},{"bike_id":"a73133b3-307d-488e-ab3b-b1560be029bf","system_id":"levelo_inurba_marseille","lat":43.311722,"lon":5.387247,"is_reserved":false,"is_disabled":false,"rental_uris":{"android":"levelo://app?vid=a73133b3-307d-488e-ab3b-b1560be029bf","ios":"levelo://app?vid=a73133b3-307d-488e-ab3b-b1560be029bf"},"vehicle_type_id":"4","last_reported":1676956041,"current_range_meters":28800,"station_id":"ce4bgv12rcd13ifvqcp0","pricing_plan_id":"free"},{"bike_id":"954caf89-2121-4e71-8080-cb4f10f0cdb6","system_id":"levelo_inurba_marseille","lat":43.311722,"lon":5.387247,"is_reserved":false,"is_disabled":false,"rental_uris":{"android":"levelo://app?vid=954caf89-2121-4e71-8080-cb4f10f0cdb6","ios":"levelo://app?vid=954caf89-2121-4e71-8080-cb4f10f0cdb6"},"vehicle_type_id":"4","last_reported":1676956041,"current_range_meters":31200,"station_id":"ce4bgv12rcd13ifvqcp0","pricing_plan_id":"free"},{"bike_id":"07781476-af44-4bc3-a0cc-0e03f26acc5f","system_id":"levelo_inurba_marseille","lat":43.32825,"lon":5.36686,"is_reserved":false,"is_disabled":false,"rental_uris":{"android":"levelo://app?vid=07781476-af44-4bc3-a0cc-0e03f26acc5f","ios":"levelo://app?vid=07781476-af44-4bc3-a0cc-0e03f26acc5f"},"vehicle_type_id":"4","last_reported":1676956041,"current_range_meters":0,"station_id":"","pricing_plan_id":"free"},{"bike_id":"e748b511-5a1a-4b68-850f-9771e83f9133","system_id":"levelo_inurba_marseille","lat":43.328371,"lon":5.366912,"is_reserved":false,"is_disabled":false,"rental_uris":{"android":"levelo://app?vid=e748b511-5a1a-4b68-850f-9771e83f9133","ios":"levelo://app?vid=e748b511-5a1a-4b68-850f-9771e83f9133"},"vehicle_type_id":"4","last_reported":1676956041,"current_range_meters":7600,"station_id":"ce4bhs92rcd13ifvqi0g","pricing_plan_id":"free"},{"bike_id":"a6c3ea20-313f-4ec0-aeaf-b9745d49ea23","system_id":"levelo_inurba_marseille","lat":43.328371,"lon":5.366912,"is_reserved":false,"is_disabled":false,"rental_uris":{"android":"levelo://app?vid=a6c3ea20-313f-4ec0-aeaf-b9745d49ea23","ios":"levelo://app?vid=a6c3ea20-313f-4ec0-aeaf-b9745d49ea23"},"vehicle_type_id":"4","last_reported":1676956041,"current_range_meters":800,"station_id":"ce4bhs92rcd13ifvqi0g","pricing_plan_id":"free"},{"bike_id":"15f7495e-8b1a-41cf-ad9c-2ae8536cd685","system_id":"levelo_inurba_marseille","lat":43.328371,"lon":5.366912,"is_reserved":false,"is_disabled":false,"rental_uris":{"android":"levelo://app?vid=15f7495e-8b1a-41cf-ad9c-2ae8536cd685","ios":"levelo://app?vid=15f7495e-8b1a-41cf-ad9c-2ae8536cd685"},"vehicle_type_id":"4","last_reported":1676956041,"current_range_meters":5600,"station_id":"ce4bhs92rcd13ifvqi0g","pricing_plan_id":"free"},{"bike_id":"8d15f7f9-c4b3-40c1-9b50-05f1d0fb7148","system_id":"levelo_inurba_marseille","lat":43.29573,"lon":5.367355,"is_reserved":false,"is_disabled":false,"rental_uris":{"android":"levelo://app?vid=8d15f7f9-c4b3-40c1-9b50-05f1d0fb7148","ios":"levelo://app?vid=8d15f7f9-c4b3-40c1-9b50-05f1d0fb7148"},"vehicle_type_id":"4","last_reported":1676956041,"current_range_meters":27600,"station_id":"ce4bgph2rcd13ifvqc2g","pricing_plan_id":"free"},{"bike_id":"e77bce35-85b5-4641-a807-69ed132d28d5","system_id":"levelo_inurba_marseille","lat":43.2991,"lon":5.3813,"is_reserved":false,"is_disabled":false,"rental_uris":{"android":"levelo://app?vid=e77bce35-85b5-4641-a807-69ed132d28d5","ios":"levelo://app?vid=e77bce35-85b5-4641-a807-69ed132d28d5"},"vehicle_type_id":"4","last_reported":1676956041,"current_range_meters":4800,"station_id":"ce4bgj12rcd13ifvqbc0","pricing_plan_id":"free"},{"bike_id":"85d989f1-1684-4368-a1be-528da6704a36","system_id":"levelo_inurba_marseille","lat":43.299028,"lon":5.381509,"is_reserved":false,"is_disabled":false,"rental_uris":{"android":"levelo://app?vid=85d989f1-1684-4368-a1be-528da6704a36","ios":"levelo://app?vid=85d989f1-1684-4368-a1be-528da6704a36"},"vehicle_type_id":"4","last_reported":1676956041,"current_range_meters":26800,"station_id":"ce4bgj12rcd13ifvqbc0","pricing_plan_id":"free"},{"bike_id":"f518b82d-75af-4278-bba2-7d4d79dd3a33","system_id":"levelo_inurba_marseille","lat":43.309589,"lon":5.390258,"is_reserved":false,"is_disabled":false,"rental_uris":{"android":"levelo://app?vid=f518b82d-75af-4278-bba2-7d4d79dd3a33","ios":"levelo://app?vid=f518b82d-75af-4278-bba2-7d4d79dd3a33"},"vehicle_type_id":"4","last_reported":1676956041,"current_range_meters":28000,"station_id":"ce4bgup2rcd13ifvqco0","pricing_plan_id":"free"},{"bike_id":"c50484f4-afb6-4497-be77-f2fb6ec6d7b2","system_id":"levelo_inurba_marseille","lat":43.309589,"lon":5.390258,"is_reserved":false,"is_disabled":false,"rental_uris":{"android":"levelo://app?vid=c50484f4-afb6-4497-be77-f2fb6ec6d7b2","ios":"levelo://app?vid=c50484f4-afb6-4497-be77-f2fb6ec6d7b2"},"vehicle_type_id":"4","last_reported":1676956041,"current_range_meters":29600,"station_id":"ce4bgup2rcd13ifvqco0","pricing_plan_id":"free"},{"bike_id":"207d04fe-6195-4cda-a58d-0ed64fdb89ce","system_id":"levelo_inurba_marseille","lat":43.309589,"lon":5.390258,"is_reserved":false,"is_disabled":false,"rental_uris":{"android":"levelo://app?vid=207d04fe-6195-4cda-a58d-0ed64fdb89ce","ios":"levelo://app?vid=207d04fe-6195-4cda-a58d-0ed64fdb89ce"},"vehicle_type_id":"4","last_reported":1676956041,"current_range_meters":29600,"station_id":"ce4bgup2rcd13ifvqco0","pricing_plan_id":"free"},{"bike_id":"52d01c43-5c96-4fa0-a606-3c440eac335f","system_id":"levelo_inurba_marseille","lat":43.317557,"lon":5.390173,"is_reserved":false,"is_disabled":false,"rental_uris":{"android":"levelo://app?vid=52d01c43-5c96-4fa0-a606-3c440eac335f","ios":"levelo://app?vid=52d01c43-5c96-4fa0-a606-3c440eac335f"},"vehicle_type_id":"4","last_reported":1676956041,"current_range_meters":21200,"station_id":"ce4bhqp2rcd13ifvqhng","pricing_plan_id":"free"},{"bike_id":"91d29548-91d5-42ba-baf2-1b4ad3ad945f","system_id":"levelo_inurba_marseille","lat":43.317557,"lon":5.390173,"is_reserved":false,"is_disabled":false,"rental_uris":{"android":"levelo://app?vid=91d29548-91d5-42ba-baf2-1b4ad3ad945f","ios":"levelo://app?vid=91d29548-91d5-42ba-baf2-1b4ad3ad945f"},"vehicle_type_id":"4","last_reported":1676956041,"current_range_meters":9200,"station_id":"ce4bhqp2rcd13ifvqhng","pricing_plan_id":"free"},{"bike_id":"e030ca9f-9482-4563-b901-597e9513cc88","system_id":"levelo_inurba_marseille","lat":43.317557,"lon":5.390173,"is_reserved":false,"is_disabled":false,"rental_uris":{"android":"levelo://app?vid=e030ca9f-9482-4563-b901-597e9513cc88","ios":"levelo://app?vid=e030ca9f-9482-4563-b901-597e9513cc88"},"vehicle_type_id":"4","last_reported":1676956041,"current_range_meters":29600,"station_id":"ce4bhqp2rcd13ifvqhng","pricing_plan_id":"free"},{"bike_id":"517c6a00-3f83-462c-b160-7d366cc3f0df","system_id":"levelo_inurba_marseille","lat":43.298037,"lon":5.381066,"is_reserved":false,"is_disabled":false,"rental_uris":{"android":"levelo://app?vid=517c6a00-3f83-462c-b160-7d366cc3f0df","ios":"levelo://app?vid=517c6a00-3f83-462c-b160-7d366cc3f0df"},"vehicle_type_id":"4","last_reported":1676956041,"current_range_meters":26800,"station_id":"ce4bgip2rcd13ifvqbb0","pricing_plan_id":"free"},{"bike_id":"fef5c152-58ed-4095-a267-751c86b3da0b","system_id":"levelo_inurba_marseille","lat":43.295748,"lon":5.37522,"is_reserved":false,"is_disabled":false,"rental_uris":{"android":"levelo://app?vid=fef5c152-58ed-4095-a267-751c86b3da0b","ios":"levelo://app?vid=fef5c152-58ed-4095-a267-751c86b3da0b"},"vehicle_type_id":"4","last_reported":1676956041,"current_range_meters":28400,"station_id":"ce4bgh92rcd13ifvqb50","pricing_plan_id":"free"},{"bike_id":"158bff59-7305-4fcc-8150-5c2966f8e491","system_id":"levelo_inurba_marseille","lat":43.32367,"lon":5.388836,"is_reserved":false,"is_disabled":false,"rental_uris":{"android":"levelo://app?vid=158bff59-7305-4fcc-8150-5c2966f8e491","ios":"levelo://app?vid=158bff59-7305-4fcc-8150-5c2966f8e491"},"vehicle_type_id":"4","last_reported":1676956041,"current_range_meters":28000,"station_id":"ce4bhqp2rcd13ifvqhog","pricing_plan_id":"free"},{"bike_id":"50ccab21-73de-4008-abdf-a2386dddaa23","system_id":"levelo_inurba_marseille","lat":43.32367,"lon":5.388836,"is_reserved":false,"is_disabled":false,"rental_uris":{"android":"levelo://app?vid=50ccab21-73de-4008-abdf-a2386dddaa23","ios":"levelo://app?vid=50ccab21-73de-4008-abdf-a2386dddaa23"},"vehicle_type_id":"4","last_reported":1676956041,"current_range_meters":30000,"station_id":"ce4bhqp2rcd13ifvqhog","pricing_plan_id":"free"},{"bike_id":"567ed783-643e-42a0-afc0-6ee05a6e0a09","system_id":"levelo_inurba_marseille","lat":43.32367,"lon":5.388836,"is_reserved":false,"is_disabled":false,"rental_uris":{"android":"levelo://app?vid=567ed783-643e-42a0-afc0-6ee05a6e0a09","ios":"levelo://app?vid=567ed783-643e-42a0-afc0-6ee05a6e0a09"},"vehicle_type_id":"4","last_reported":1676956041,"current_range_meters":13600,"station_id":"ce4bhqp2rcd13ifvqhog","pricing_plan_id":"free"},{"bike_id":"143caf39-2626-4ca4-8915-f24fdf59543f","system_id":"levelo_inurba_marseille","lat":43.32367,"lon":5.388836,"is_reserved":false,"is_disabled":false,"rental_uris":{"android":"levelo://app?vid=143caf39-2626-4ca4-8915-f24fdf59543f","ios":"levelo://app?vid=143caf39-2626-4ca4-8915-f24fdf59543f"},"vehicle_type_id":"4","last_reported":1676956041,"current_range_meters":12800,"station_id":"ce4bhqp2rcd13ifvqhog","pricing_plan_id":"free"},{"bike_id":"50747275-a479-4e62-b3ce-f9f81a476075","system_id":"levelo_inurba_marseille","lat":43.32367,"lon":5.388836,"is_reserved":false,"is_disabled":false,"rental_uris":{"android":"levelo://app?vid=50747275-a479-4e62-b3ce-f9f81a476075","ios":"levelo://app?vid=50747275-a479-4e62-b3ce-f9f81a476075"},"vehicle_type_id":"4","last_reported":1676956041,"current_range_meters":26400,"station_id":"ce4bhqp2rcd13ifvqhog","pricing_plan_id":"free"},{"bike_id":"f486bf01-fbb7-44d7-a232-d3225c195364","system_id":"levelo_inurba_marseille","lat":43.2607,"lon":5.393983,"is_reserved":false,"is_disabled":false,"rental_uris":{"android":"levelo://app?vid=f486bf01-fbb7-44d7-a232-d3225c195364","ios":"levelo://app?vid=f486bf01-fbb7-44d7-a232-d3225c195364"},"vehicle_type_id":"4","last_reported":1676956041,"current_range_meters":13200,"station_id":"ce4bhh92rcd13ifvqfj0","pricing_plan_id":"free"},{"bike_id":"fdb337d5-4a1a-4ae5-aeb1-968aec016ea0","system_id":"levelo_inurba_marseille","lat":43.32367,"lon":5.388836,"is_reserved":false,"is_disabled":false,"rental_uris":{"android":"levelo://app?vid=fdb337d5-4a1a-4ae5-aeb1-968aec016ea0","ios":"levelo://app?vid=fdb337d5-4a1a-4ae5-aeb1-968aec016ea0"},"vehicle_type_id":"4","last_reported":1676956041,"current_range_meters":22800,"station_id":"ce4bhqp2rcd13ifvqhog","pricing_plan_id":"free"},{"bike_id":"96d768b0-ff0b-44be-a14b-d4484e3897ac","system_id":"levelo_inurba_marseille","lat":43.322988,"lon":5.389835,"is_reserved":false,"is_disabled":false,"rental_uris":{"android":"levelo://app?vid=96d768b0-ff0b-44be-a14b-d4484e3897ac","ios":"levelo://app?vid=96d768b0-ff0b-44be-a14b-d4484e3897ac"},"vehicle_type_id":"4","last_reported":1676956041,"current_range_meters":24000,"station_id":"","pricing_plan_id":"free"},{"bike_id":"2edecbef-23ab-4477-a3bb-48532c09b9fc","system_id":"levelo_inurba_marseille","lat":43.305994,"lon":5.393687,"is_reserved":false,"is_disabled":false,"rental_uris":{"android":"levelo://app?vid=2edecbef-23ab-4477-a3bb-48532c09b9fc","ios":"levelo://app?vid=2edecbef-23ab-4477-a3bb-48532c09b9fc"},"vehicle_type_id":"4","last_reported":1676956041,"current_range_meters":31600,"station_id":"ce4bh0p2rcd13ifvqd80","pricing_plan_id":"free"},{"bike_id":"4a3d4c8a-b2cd-41b0-832e-6d6d0fbd57eb","system_id":"levelo_inurba_marseille","lat":43.305994,"lon":5.393687,"is_reserved":false,"is_disabled":false,"rental_uris":{"android":"levelo://app?vid=4a3d4c8a-b2cd-41b0-832e-6d6d0fbd57eb","ios":"levelo://app?vid=4a3d4c8a-b2cd-41b0-832e-6d6d0fbd57eb"},"vehicle_type_id":"4","last_reported":1676956041,"current_range_meters":32000,"station_id":"ce4bh0p2rcd13ifvqd80","pricing_plan_id":"free"},{"bike_id":"25bd3620-f418-434f-afe3-0f33c4ea360b","system_id":"levelo_inurba_marseille","lat":43.305994,"lon":5.393687,"is_reserved":false,"is_disabled":false,"rental_uris":{"android":"levelo://app?vid=25bd3620-f418-434f-afe3-0f33c4ea360b","ios":"levelo://app?vid=25bd3620-f418-434f-afe3-0f33c4ea360b"},"vehicle_type_id":"4","last_reported":1676956041,"current_range_meters":31600,"station_id":"ce4bh0p2rcd13ifvqd80","pricing_plan_id":"free"},{"bike_id":"1f6dbc6d-6042-4671-a170-7d7724bfb70b","system_id":"levelo_inurba_marseille","lat":43.305994,"lon":5.393687,"is_reserved":false,"is_disabled":false,"rental_uris":{"android":"levelo://app?vid=1f6dbc6d-6042-4671-a170-7d7724bfb70b","ios":"levelo://app?vid=1f6dbc6d-6042-4671-a170-7d7724bfb70b"},"vehicle_type_id":"4","last_reported":1676956041,"current_range_meters":17600,"station_id":"ce4bh0p2rcd13ifvqd80","pricing_plan_id":"free"},{"bike_id":"ba138492-0e5f-431b-9f8f-58a3d18c4d35","system_id":"levelo_inurba_marseille","lat":43.305994,"lon":5.393687,"is_reserved":false,"is_disabled":false,"rental_uris":{"android":"levelo://app?vid=ba138492-0e5f-431b-9f8f-58a3d18c4d35","ios":"levelo://app?vid=ba138492-0e5f-431b-9f8f-58a3d18c4d35"},"vehicle_type_id":"4","last_reported":1676956041,"current_range_meters":0,"station_id":"ce4bh0p2rcd13ifvqd80","pricing_plan_id":"free"},{"bike_id":"e4f7911c-3fae-4d50-bc33-bcf5cd423cc8","system_id":"levelo_inurba_marseille","lat":43.305994,"lon":5.393687,"is_reserved":false,"is_disabled":false,"rental_uris":{"android":"levelo://app?vid=e4f7911c-3fae-4d50-bc33-bcf5cd423cc8","ios":"levelo://app?vid=e4f7911c-3fae-4d50-bc33-bcf5cd423cc8"},"vehicle_type_id":"4","last_reported":1676956041,"current_range_meters":1600,"station_id":"ce4bh0p2rcd13ifvqd80","pricing_plan_id":"free"},{"bike_id":"00a32451-1a15-463e-a4cd-0a319f612d7f","system_id":"levelo_inurba_marseille","lat":43.305994,"lon":5.393687,"is_reserved":false,"is_disabled":false,"rental_uris":{"android":"levelo://app?vid=00a32451-1a15-463e-a4cd-0a319f612d7f","ios":"levelo://app?vid=00a32451-1a15-463e-a4cd-0a319f612d7f"},"vehicle_type_id":"4","last_reported":1676956041,"current_range_meters":28000,"station_id":"ce4bh0p2rcd13ifvqd80","pricing_plan_id":"free"},{"bike_id":"aaa74004-9341-4686-81b8-d271eba4467c","system_id":"levelo_inurba_marseille","lat":43.305994,"lon":5.393687,"is_reserved":false,"is_disabled":false,"rental_uris":{"android":"levelo://app?vid=aaa74004-9341-4686-81b8-d271eba4467c","ios":"levelo://app?vid=aaa74004-9341-4686-81b8-d271eba4467c"},"vehicle_type_id":"4","last_reported":1676956041,"current_range_meters":31600,"station_id":"ce4bh0p2rcd13ifvqd80","pricing_plan_id":"free"},{"bike_id":"83fe194d-d08b-42c8-bbb6-8678482a464a","system_id":"levelo_inurba_marseille","lat":43.305994,"lon":5.393687,"is_reserved":false,"is_disabled":false,"rental_uris":{"android":"levelo://app?vid=83fe194d-d08b-42c8-bbb6-8678482a464a","ios":"levelo://app?vid=83fe194d-d08b-42c8-bbb6-8678482a464a"},"vehicle_type_id":"4","last_reported":1676956041,"current_range_meters":27200,"station_id":"ce4bh0p2rcd13ifvqd80","pricing_plan_id":"free"},{"bike_id":"4fdab60d-32f9-4680-a14d-8f0e3185c68f","system_id":"levelo_inurba_marseille","lat":43.292655,"lon":5.359683,"is_reserved":false,"is_disabled":false,"rental_uris":{"android":"levelo://app?vid=4fdab60d-32f9-4680-a14d-8f0e3185c68f","ios":"levelo://app?vid=4fdab60d-32f9-4680-a14d-8f0e3185c68f"},"vehicle_type_id":"4","last_reported":1676956041,"current_range_meters":20400,"station_id":"","pricing_plan_id":"free"},{"bike_id":"5f169672-eb7c-419f-9280-053d4613d43c","system_id":"levelo_inurba_marseille","lat":43.2936,"lon":5.37835,"is_reserved":false,"is_disabled":false,"rental_uris":{"android":"levelo://app?vid=5f169672-eb7c-419f-9280-053d4613d43c","ios":"levelo://app?vid=5f169672-eb7c-419f-9280-053d4613d43c"},"vehicle_type_id":"4","last_reported":1676956041,"current_range_meters":0,"station_id":"ce4bgjh2rcd13ifvqbf0","pricing_plan_id":"free"},{"bike_id":"2fcfb8d6-f7de-4924-8f46-9b7f39d32e70","system_id":"levelo_inurba_marseille","lat":43.292311,"lon":5.360731,"is_reserved":false,"is_disabled":false,"rental_uris":{"android":"levelo://app?vid=2fcfb8d6-f7de-4924-8f46-9b7f39d32e70","ios":"levelo://app?vid=2fcfb8d6-f7de-4924-8f46-9b7f39d32e70"},"vehicle_type_id":"4","last_reported":1676956041,"current_range_meters":0,"station_id":"ce4bhbh2rcd13ifvqeqg","pricing_plan_id":"free"},{"bike_id":"c028593a-c0fc-44eb-80da-fc988c99388e","system_id":"levelo_inurba_marseille","lat":43.29222,"lon":5.36059,"is_reserved":false,"is_disabled":false,"rental_uris":{"android":"levelo://app?vid=c028593a-c0fc-44eb-80da-fc988c99388e","ios":"levelo://app?vid=c028593a-c0fc-44eb-80da-fc988c99388e"},"vehicle_type_id":"4","last_reported":1676956041,"current_range_meters":6800,"station_id":"ce4bhbh2rcd13ifvqeqg","pricing_plan_id":"free"},{"bike_id":"3bcf1f31-e113-44ed-ae79-90dec17f3099","system_id":"levelo_inurba_marseille","lat":43.3008,"lon":5.39075,"is_reserved":false,"is_disabled":false,"rental_uris":{"android":"levelo://app?vid=3bcf1f31-e113-44ed-ae79-90dec17f3099","ios":"levelo://app?vid=3bcf1f31-e113-44ed-ae79-90dec17f3099"},"vehicle_type_id":"4","last_reported":1676956041,"current_range_meters":7200,"station_id":"","pricing_plan_id":"free"},{"bike_id":"d6acda8c-393d-4196-9029-b973b514d189","system_id":"levelo_inurba_marseille","lat":43.29214,"lon":5.36061,"is_reserved":false,"is_disabled":false,"rental_uris":{"android":"levelo://app?vid=d6acda8c-393d-4196-9029-b973b514d189","ios":"levelo://app?vid=d6acda8c-393d-4196-9029-b973b514d189"},"vehicle_type_id":"4","last_reported":1676956041,"current_range_meters":15600,"station_id":"ce4bhbh2rcd13ifvqeqg","pricing_plan_id":"free"},{"bike_id":"580fc7eb-520b-4352-a197-23eb7d1d3ab2","system_id":"levelo_inurba_marseille","lat":43.298764,"lon":5.388973,"is_reserved":false,"is_disabled":false,"rental_uris":{"android":"levelo://app?vid=580fc7eb-520b-4352-a197-23eb7d1d3ab2","ios":"levelo://app?vid=580fc7eb-520b-4352-a197-23eb7d1d3ab2"},"vehicle_type_id":"4","last_reported":1676956041,"current_range_meters":15600,"station_id":"ce4bh392rcd13ifvqdl0","pricing_plan_id":"free"},{"bike_id":"28f18bbd-6541-4326-bfef-fbd3858b7db8","system_id":"levelo_inurba_marseille","lat":43.313303,"lon":5.396861,"is_reserved":false,"is_disabled":false,"rental_uris":{"android":"levelo://app?vid=28f18bbd-6541-4326-bfef-fbd3858b7db8","ios":"levelo://app?vid=28f18bbd-6541-4326-bfef-fbd3858b7db8"},"vehicle_type_id":"4","last_reported":1676956041,"current_range_meters":10000,"station_id":"ce4bgvp2rcd13ifvqcu0","pricing_plan_id":"free"},{"bike_id":"245ba2e4-a56c-4e97-b850-6a20e7c94579","system_id":"levelo_inurba_marseille","lat":43.313307,"lon":5.396872,"is_reserved":false,"is_disabled":false,"rental_uris":{"android":"levelo://app?vid=245ba2e4-a56c-4e97-b850-6a20e7c94579","ios":"levelo://app?vid=245ba2e4-a56c-4e97-b850-6a20e7c94579"},"vehicle_type_id":"4","last_reported":1676956041,"current_range_meters":18400,"station_id":"ce4bgvp2rcd13ifvqcu0","pricing_plan_id":"free"},{"bike_id":"d6081fde-300a-40ae-a489-95d3ae114b03","system_id":"levelo_inurba_marseille","lat":43.31322,"lon":5.39689,"is_reserved":false,"is_disabled":false,"rental_uris":{"android":"levelo://app?vid=d6081fde-300a-40ae-a489-95d3ae114b03","ios":"levelo://app?vid=d6081fde-300a-40ae-a489-95d3ae114b03"},"vehicle_type_id":"4","last_reported":1676956041,"current_range_meters":27200,"station_id":"ce4bgvp2rcd13ifvqcu0","pricing_plan_id":"free"},{"bike_id":"c817f547-e4bb-4ad8-9658-8c6d8043eb73","system_id":"levelo_inurba_marseille","lat":43.313264,"lon":5.39689,"is_reserved":false,"is_disabled":false,"rental_uris":{"android":"levelo://app?vid=c817f547-e4bb-4ad8-9658-8c6d8043eb73","ios":"levelo://app?vid=c817f547-e4bb-4ad8-9658-8c6d8043eb73"},"vehicle_type_id":"4","last_reported":1676956041,"current_range_meters":18000,"station_id":"ce4bgvp2rcd13ifvqcu0","pricing_plan_id":"free"},{"bike_id":"b3f6ba4b-828c-4cb4-b443-e474a89bb683","system_id":"levelo_inurba_marseille","lat":43.313291,"lon":5.396838,"is_reserved":false,"is_disabled":false,"rental_uris":{"android":"levelo://app?vid=b3f6ba4b-828c-4cb4-b443-e474a89bb683","ios":"levelo://app?vid=b3f6ba4b-828c-4cb4-b443-e474a89bb683"},"vehicle_type_id":"4","last_reported":1676956041,"current_range_meters":21200,"station_id":"ce4bgvp2rcd13ifvqcu0","pricing_plan_id":"free"},{"bike_id":"e1e580c9-9dbd-4cfa-a790-78ff53b41363","system_id":"levelo_inurba_marseille","lat":43.313241,"lon":5.396907,"is_reserved":false,"is_disabled":false,"rental_uris":{"android":"levelo://app?vid=e1e580c9-9dbd-4cfa-a790-78ff53b41363","ios":"levelo://app?vid=e1e580c9-9dbd-4cfa-a790-78ff53b41363"},"vehicle_type_id":"4","last_reported":1676956041,"current_range_meters":18000,"station_id":"ce4bgvp2rcd13ifvqcu0","pricing_plan_id":"free"},{"bike_id":"492b2301-fb69-4b92-ab85-9e10f9695a18","system_id":"levelo_inurba_marseille","lat":43.31321,"lon":5.39691,"is_reserved":false,"is_disabled":false,"rental_uris":{"android":"levelo://app?vid=492b2301-fb69-4b92-ab85-9e10f9695a18","ios":"levelo://app?vid=492b2301-fb69-4b92-ab85-9e10f9695a18"},"vehicle_type_id":"4","last_reported":1676956041,"current_range_meters":20800,"station_id":"ce4bgvp2rcd13ifvqcu0","pricing_plan_id":"free"},{"bike_id":"3b80926e-8e65-4514-a9de-41826b1f9ff3","system_id":"levelo_inurba_marseille","lat":43.313237,"lon":5.39691,"is_reserved":false,"is_disabled":false,"rental_uris":{"android":"levelo://app?vid=3b80926e-8e65-4514-a9de-41826b1f9ff3","ios":"levelo://app?vid=3b80926e-8e65-4514-a9de-41826b1f9ff3"},"vehicle_type_id":"4","last_reported":1676956041,"current_range_meters":23200,"station_id":"","pricing_plan_id":"free"},{"bike_id":"d4f01844-c870-4a82-a1fb-64214a56b96a","system_id":"levelo_inurba_marseille","lat":43.313256,"lon":5.396916,"is_reserved":false,"is_disabled":false,"rental_uris":{"android":"levelo://app?vid=d4f01844-c870-4a82-a1fb-64214a56b96a","ios":"levelo://app?vid=d4f01844-c870-4a82-a1fb-64214a56b96a"},"vehicle_type_id":"4","last_reported":1676956041,"current_range_meters":28800,"station_id":"ce4bgvp2rcd13ifvqcu0","pricing_plan_id":"free"},{"bike_id":"0120ac30-980a-4720-bad1-cc8c9ebf8d91","system_id":"levelo_inurba_marseille","lat":43.313221,"lon":5.396926,"is_reserved":false,"is_disabled":false,"rental_uris":{"android":"levelo://app?vid=0120ac30-980a-4720-bad1-cc8c9ebf8d91","ios":"levelo://app?vid=0120ac30-980a-4720-bad1-cc8c9ebf8d91"},"vehicle_type_id":"4","last_reported":1676956041,"current_range_meters":29600,"station_id":"","pricing_plan_id":"free"},{"bike_id":"ceb67649-cac7-4ef7-acfd-011feda4c619","system_id":"levelo_inurba_marseille","lat":43.313221,"lon":5.396928,"is_reserved":false,"is_disabled":false,"rental_uris":{"android":"levelo://app?vid=ceb67649-cac7-4ef7-acfd-011feda4c619","ios":"levelo://app?vid=ceb67649-cac7-4ef7-acfd-011feda4c619"},"vehicle_type_id":"4","last_reported":1676956041,"current_range_meters":22800,"station_id":"ce4bgvp2rcd13ifvqcu0","pricing_plan_id":"free"},{"bike_id":"53974275-d1e3-4a70-aeba-eb1833101e14","system_id":"levelo_inurba_marseille","lat":43.313285,"lon":5.396929,"is_reserved":false,"is_disabled":false,"rental_uris":{"android":"levelo://app?vid=53974275-d1e3-4a70-aeba-eb1833101e14","ios":"levelo://app?vid=53974275-d1e3-4a70-aeba-eb1833101e14"},"vehicle_type_id":"4","last_reported":1676956041,"current_range_meters":10800,"station_id":"","pricing_plan_id":"free"},{"bike_id":"e27742ed-5b36-4366-bdce-98b2c90ef441","system_id":"levelo_inurba_marseille","lat":43.313291,"lon":5.396838,"is_reserved":false,"is_disabled":false,"rental_uris":{"android":"levelo://app?vid=e27742ed-5b36-4366-bdce-98b2c90ef441","ios":"levelo://app?vid=e27742ed-5b36-4366-bdce-98b2c90ef441"},"vehicle_type_id":"4","last_reported":1676956041,"current_range_meters":24400,"station_id":"ce4bgvp2rcd13ifvqcu0","pricing_plan_id":"free"},{"bike_id":"c4d8b864-65a3-4dc2-b319-b5c39b6ca021","system_id":"levelo_inurba_marseille","lat":43.313291,"lon":5.396838,"is_reserved":false,"is_disabled":false,"rental_uris":{"android":"levelo://app?vid=c4d8b864-65a3-4dc2-b319-b5c39b6ca021","ios":"levelo://app?vid=c4d8b864-65a3-4dc2-b319-b5c39b6ca021"},"vehicle_type_id":"4","last_reported":1676956041,"current_range_meters":27600,"station_id":"ce4bgvp2rcd13ifvqcu0","pricing_plan_id":"free"},{"bike_id":"38ba4d43-62f7-4be9-bce2-d8fb897d32ec","system_id":"levelo_inurba_marseille","lat":43.313291,"lon":5.396838,"is_reserved":false,"is_disabled":false,"rental_uris":{"android":"levelo://app?vid=38ba4d43-62f7-4be9-bce2-d8fb897d32ec","ios":"levelo://app?vid=38ba4d43-62f7-4be9-bce2-d8fb897d32ec"},"vehicle_type_id":"4","last_reported":1676956041,"current_range_meters":24000,"station_id":"ce4bgvp2rcd13ifvqcu0","pricing_plan_id":"free"},{"bike_id":"2d37dd02-82f5-40c7-b1da-5c439d9756c5","system_id":"levelo_inurba_marseille","lat":43.313247,"lon":5.396939,"is_reserved":false,"is_disabled":false,"rental_uris":{"android":"levelo://app?vid=2d37dd02-82f5-40c7-b1da-5c439d9756c5","ios":"levelo://app?vid=2d37dd02-82f5-40c7-b1da-5c439d9756c5"},"vehicle_type_id":"4","last_reported":1676956041,"current_range_meters":16800,"station_id":"ce4bgvp2rcd13ifvqcu0","pricing_plan_id":"free"},{"bike_id":"53582b16-01ee-4e55-b5d9-223d34aaaf97","system_id":"levelo_inurba_marseille","lat":43.313299,"lon":5.396945,"is_reserved":false,"is_disabled":false,"rental_uris":{"android":"levelo://app?vid=53582b16-01ee-4e55-b5d9-223d34aaaf97","ios":"levelo://app?vid=53582b16-01ee-4e55-b5d9-223d34aaaf97"},"vehicle_type_id":"4","last_reported":1676956041,"current_range_meters":23600,"station_id":"ce4bgvp2rcd13ifvqcu0","pricing_plan_id":"free"},{"bike_id":"fa1c5cb4-eac0-4062-abed-7403b2d17c3c","system_id":"levelo_inurba_marseille","lat":43.313297,"lon":5.396949,"is_reserved":false,"is_disabled":false,"rental_uris":{"android":"levelo://app?vid=fa1c5cb4-eac0-4062-abed-7403b2d17c3c","ios":"levelo://app?vid=fa1c5cb4-eac0-4062-abed-7403b2d17c3c"},"vehicle_type_id":"4","last_reported":1676956041,"current_range_meters":30000,"station_id":"","pricing_plan_id":"free"},{"bike_id":"68064883-b777-4fc9-87de-35ea782349d3","system_id":"levelo_inurba_marseille","lat":43.31329,"lon":5.39695,"is_reserved":false,"is_disabled":false,"rental_uris":{"android":"levelo://app?vid=68064883-b777-4fc9-87de-35ea782349d3","ios":"levelo://app?vid=68064883-b777-4fc9-87de-35ea782349d3"},"vehicle_type_id":"4","last_reported":1676956041,"current_range_meters":27600,"station_id":"","pricing_plan_id":"free"},{"bike_id":"63c4dc4a-3999-4ae7-8add-5ce9514d28ba","system_id":"levelo_inurba_marseille","lat":43.313291,"lon":5.396838,"is_reserved":false,"is_disabled":false,"rental_uris":{"android":"levelo://app?vid=63c4dc4a-3999-4ae7-8add-5ce9514d28ba","ios":"levelo://app?vid=63c4dc4a-3999-4ae7-8add-5ce9514d28ba"},"vehicle_type_id":"4","last_reported":1676956041,"current_range_meters":24400,"station_id":"ce4bgvp2rcd13ifvqcu0","pricing_plan_id":"free"},{"bike_id":"ae43ef46-ede4-472b-90f6-ab0ee3f3299a","system_id":"levelo_inurba_marseille","lat":43.313291,"lon":5.396838,"is_reserved":false,"is_disabled":false,"rental_uris":{"android":"levelo://app?vid=ae43ef46-ede4-472b-90f6-ab0ee3f3299a","ios":"levelo://app?vid=ae43ef46-ede4-472b-90f6-ab0ee3f3299a"},"vehicle_type_id":"4","last_reported":1676956041,"current_range_meters":29600,"station_id":"ce4bgvp2rcd13ifvqcu0","pricing_plan_id":"free"},{"bike_id":"65580627-6d76-4bce-b134-49d7ffd88af2","system_id":"levelo_inurba_marseille","lat":43.313291,"lon":5.396838,"is_reserved":false,"is_disabled":false,"rental_uris":{"android":"levelo://app?vid=65580627-6d76-4bce-b134-49d7ffd88af2","ios":"levelo://app?vid=65580627-6d76-4bce-b134-49d7ffd88af2"},"vehicle_type_id":"4","last_reported":1676956041,"current_range_meters":25600,"station_id":"ce4bgvp2rcd13ifvqcu0","pricing_plan_id":"free"},{"bike_id":"c7e4c795-d30e-4595-9928-7a5a5679f8a0","system_id":"levelo_inurba_marseille","lat":43.29529,"lon":5.385581,"is_reserved":false,"is_disabled":false,"rental_uris":{"android":"levelo://app?vid=c7e4c795-d30e-4595-9928-7a5a5679f8a0","ios":"levelo://app?vid=c7e4c795-d30e-4595-9928-7a5a5679f8a0"},"vehicle_type_id":"4","last_reported":1676956041,"current_range_meters":22400,"station_id":"ce4bgih2rcd13ifvqba0","pricing_plan_id":"free"},{"bike_id":"e4494a0f-b107-4556-a212-25e246ca78ab","system_id":"levelo_inurba_marseille","lat":43.295344,"lon":5.385506,"is_reserved":false,"is_disabled":false,"rental_uris":{"android":"levelo://app?vid=e4494a0f-b107-4556-a212-25e246ca78ab","ios":"levelo://app?vid=e4494a0f-b107-4556-a212-25e246ca78ab"},"vehicle_type_id":"4","last_reported":1676956041,"current_range_meters":0,"station_id":"","pricing_plan_id":"free"},{"bike_id":"6f9e5391-e657-4d3e-a937-ae3ff95e73df","system_id":"levelo_inurba_marseille","lat":43.322616,"lon":5.394523,"is_reserved":false,"is_disabled":false,"rental_uris":{"android":"levelo://app?vid=6f9e5391-e657-4d3e-a937-ae3ff95e73df","ios":"levelo://app?vid=6f9e5391-e657-4d3e-a937-ae3ff95e73df"},"vehicle_type_id":"4","last_reported":1676956041,"current_range_meters":0,"station_id":"","pricing_plan_id":"free"},{"bike_id":"710e7d21-cc28-42dc-82f0-8fbbb3d37b96","system_id":"levelo_inurba_marseille","lat":43.302008,"lon":5.394694,"is_reserved":false,"is_disabled":false,"rental_uris":{"android":"levelo://app?vid=710e7d21-cc28-42dc-82f0-8fbbb3d37b96","ios":"levelo://app?vid=710e7d21-cc28-42dc-82f0-8fbbb3d37b96"},"vehicle_type_id":"4","last_reported":1676956041,"current_range_meters":22800,"station_id":"ce4bh0p2rcd13ifvqd70","pricing_plan_id":"free"},{"bike_id":"5840f1ec-f4d7-4397-82ac-749537c12498","system_id":"levelo_inurba_marseille","lat":43.290624,"lon":5.359245,"is_reserved":false,"is_disabled":false,"rental_uris":{"android":"levelo://app?vid=5840f1ec-f4d7-4397-82ac-749537c12498","ios":"levelo://app?vid=5840f1ec-f4d7-4397-82ac-749537c12498"},"vehicle_type_id":"4","last_reported":1676956041,"current_range_meters":800,"station_id":"ce4bha92rcd13ifvqeg0","pricing_plan_id":"free"},{"bike_id":"ef904c4c-5fcb-4e11-a783-d037df31fb14","system_id":"levelo_inurba_marseille","lat":43.290624,"lon":5.359245,"is_reserved":false,"is_disabled":false,"rental_uris":{"android":"levelo://app?vid=ef904c4c-5fcb-4e11-a783-d037df31fb14","ios":"levelo://app?vid=ef904c4c-5fcb-4e11-a783-d037df31fb14"},"vehicle_type_id":"4","last_reported":1676956041,"current_range_meters":7600,"station_id":"ce4bha92rcd13ifvqeg0","pricing_plan_id":"free"},{"bike_id":"c88b4510-8993-46bf-86ee-366817c87e3b","system_id":"levelo_inurba_marseille","lat":43.290624,"lon":5.359245,"is_reserved":false,"is_disabled":false,"rental_uris":{"android":"levelo://app?vid=c88b4510-8993-46bf-86ee-366817c87e3b","ios":"levelo://app?vid=c88b4510-8993-46bf-86ee-366817c87e3b"},"vehicle_type_id":"4","last_reported":1676956041,"current_range_meters":24000,"station_id":"ce4bha92rcd13ifvqeg0","pricing_plan_id":"free"},{"bike_id":"84f2703b-f24d-4385-806f-aed8495856de","system_id":"levelo_inurba_marseille","lat":43.290624,"lon":5.359245,"is_reserved":false,"is_disabled":false,"rental_uris":{"android":"levelo://app?vid=84f2703b-f24d-4385-806f-aed8495856de","ios":"levelo://app?vid=84f2703b-f24d-4385-806f-aed8495856de"},"vehicle_type_id":"4","last_reported":1676956041,"current_range_meters":2000,"station_id":"ce4bha92rcd13ifvqeg0","pricing_plan_id":"free"},{"bike_id":"e9a2688d-d42c-441c-87ef-7581b3474254","system_id":"levelo_inurba_marseille","lat":43.289397,"lon":5.366295,"is_reserved":false,"is_disabled":false,"rental_uris":{"android":"levelo://app?vid=e9a2688d-d42c-441c-87ef-7581b3474254","ios":"levelo://app?vid=e9a2688d-d42c-441c-87ef-7581b3474254"},"vehicle_type_id":"4","last_reported":1676956041,"current_range_meters":9200,"station_id":"ce4bhap2rcd13ifvqek0","pricing_plan_id":"free"},{"bike_id":"2f076477-18d1-4335-9a60-4263148215e6","system_id":"levelo_inurba_marseille","lat":43.289396,"lon":5.366343,"is_reserved":false,"is_disabled":false,"rental_uris":{"android":"levelo://app?vid=2f076477-18d1-4335-9a60-4263148215e6","ios":"levelo://app?vid=2f076477-18d1-4335-9a60-4263148215e6"},"vehicle_type_id":"4","last_reported":1676956041,"current_range_meters":0,"station_id":"","pricing_plan_id":"free"},{"bike_id":"8aef3b74-11e5-4346-bc3a-53a501d7c425","system_id":"levelo_inurba_marseille","lat":43.28938,"lon":5.3663,"is_reserved":false,"is_disabled":false,"rental_uris":{"android":"levelo://app?vid=8aef3b74-11e5-4346-bc3a-53a501d7c425","ios":"levelo://app?vid=8aef3b74-11e5-4346-bc3a-53a501d7c425"},"vehicle_type_id":"4","last_reported":1676956041,"current_range_meters":18800,"station_id":"","pricing_plan_id":"free"},{"bike_id":"3eddaa74-82a3-49ed-8293-e10407da6f20","system_id":"levelo_inurba_marseille","lat":43.289371,"lon":5.366257,"is_reserved":false,"is_disabled":false,"rental_uris":{"android":"levelo://app?vid=3eddaa74-82a3-49ed-8293-e10407da6f20","ios":"levelo://app?vid=3eddaa74-82a3-49ed-8293-e10407da6f20"},"vehicle_type_id":"4","last_reported":1676956041,"current_range_meters":4400,"station_id":"ce4bhap2rcd13ifvqek0","pricing_plan_id":"free"},{"bike_id":"585bcc12-1e5e-4429-8443-c3325e2d0268","system_id":"levelo_inurba_marseille","lat":43.28935,"lon":5.366336,"is_reserved":false,"is_disabled":false,"rental_uris":{"android":"levelo://app?vid=585bcc12-1e5e-4429-8443-c3325e2d0268","ios":"levelo://app?vid=585bcc12-1e5e-4429-8443-c3325e2d0268"},"vehicle_type_id":"4","last_reported":1676956041,"current_range_meters":5200,"station_id":"ce4bhap2rcd13ifvqek0","pricing_plan_id":"free"},{"bike_id":"12cc4130-52db-44fe-a541-b89a8319a76f","system_id":"levelo_inurba_marseille","lat":43.289184,"lon":5.366408,"is_reserved":false,"is_disabled":false,"rental_uris":{"android":"levelo://app?vid=12cc4130-52db-44fe-a541-b89a8319a76f","ios":"levelo://app?vid=12cc4130-52db-44fe-a541-b89a8319a76f"},"vehicle_type_id":"4","last_reported":1676956041,"current_range_meters":32000,"station_id":"ce4bhap2rcd13ifvqek0","pricing_plan_id":"free"},{"bike_id":"6943acb8-aa72-46d6-af3b-1d177dc42805","system_id":"levelo_inurba_marseille","lat":43.289184,"lon":5.366408,"is_reserved":false,"is_disabled":false,"rental_uris":{"android":"levelo://app?vid=6943acb8-aa72-46d6-af3b-1d177dc42805","ios":"levelo://app?vid=6943acb8-aa72-46d6-af3b-1d177dc42805"},"vehicle_type_id":"4","last_reported":1676956041,"current_range_meters":14000,"station_id":"ce4bhap2rcd13ifvqek0","pricing_plan_id":"free"},{"bike_id":"f0d9b89a-3466-435b-b2fc-3584a8ae5ec9","system_id":"levelo_inurba_marseille","lat":43.289468,"lon":5.363719,"is_reserved":false,"is_disabled":false,"rental_uris":{"android":"levelo://app?vid=f0d9b89a-3466-435b-b2fc-3584a8ae5ec9","ios":"levelo://app?vid=f0d9b89a-3466-435b-b2fc-3584a8ae5ec9"},"vehicle_type_id":"4","last_reported":1676956041,"current_range_meters":28800,"station_id":"ce4bhc92rcd13ifvqetg","pricing_plan_id":"free"},{"bike_id":"37479b13-9891-4107-b1b0-ef27756bb701","system_id":"levelo_inurba_marseille","lat":43.330442,"lon":5.389148,"is_reserved":false,"is_disabled":false,"rental_uris":{"android":"levelo://app?vid=37479b13-9891-4107-b1b0-ef27756bb701","ios":"levelo://app?vid=37479b13-9891-4107-b1b0-ef27756bb701"},"vehicle_type_id":"4","last_reported":1676956041,"current_range_meters":30000,"station_id":"ce4bhr92rcd13ifvqhrg","pricing_plan_id":"free"},{"bike_id":"30e64a77-47b2-4bcf-8fd6-547206590b4f","system_id":"levelo_inurba_marseille","lat":43.330442,"lon":5.389148,"is_reserved":false,"is_disabled":false,"rental_uris":{"android":"levelo://app?vid=30e64a77-47b2-4bcf-8fd6-547206590b4f","ios":"levelo://app?vid=30e64a77-47b2-4bcf-8fd6-547206590b4f"},"vehicle_type_id":"4","last_reported":1676956041,"current_range_meters":28800,"station_id":"ce4bhr92rcd13ifvqhrg","pricing_plan_id":"free"},{"bike_id":"2f57434c-886c-4573-9d55-ec6b247af0ae","system_id":"levelo_inurba_marseille","lat":43.33043,"lon":5.38916,"is_reserved":false,"is_disabled":false,"rental_uris":{"android":"levelo://app?vid=2f57434c-886c-4573-9d55-ec6b247af0ae","ios":"levelo://app?vid=2f57434c-886c-4573-9d55-ec6b247af0ae"},"vehicle_type_id":"4","last_reported":1676956041,"current_range_meters":24800,"station_id":"ce4bhr92rcd13ifvqhrg","pricing_plan_id":"free"},{"bike_id":"5b763896-9d0a-4a17-ade8-34bb6f0946c3","system_id":"levelo_inurba_marseille","lat":43.33042,"lon":5.38919,"is_reserved":false,"is_disabled":false,"rental_uris":{"android":"levelo://app?vid=5b763896-9d0a-4a17-ade8-34bb6f0946c3","ios":"levelo://app?vid=5b763896-9d0a-4a17-ade8-34bb6f0946c3"},"vehicle_type_id":"4","last_reported":1676956041,"current_range_meters":26000,"station_id":"ce4bhr92rcd13ifvqhrg","pricing_plan_id":"free"},{"bike_id":"a9a533e2-a694-46d6-97ca-e53bd461fb9a","system_id":"levelo_inurba_marseille","lat":43.330442,"lon":5.389148,"is_reserved":false,"is_disabled":false,"rental_uris":{"android":"levelo://app?vid=a9a533e2-a694-46d6-97ca-e53bd461fb9a","ios":"levelo://app?vid=a9a533e2-a694-46d6-97ca-e53bd461fb9a"},"vehicle_type_id":"4","last_reported":1676956041,"current_range_meters":23600,"station_id":"ce4bhr92rcd13ifvqhrg","pricing_plan_id":"free"},{"bike_id":"6bde3431-c3f8-420c-9e4c-0719be1e23cf","system_id":"levelo_inurba_marseille","lat":43.330422,"lon":5.389206,"is_reserved":false,"is_disabled":false,"rental_uris":{"android":"levelo://app?vid=6bde3431-c3f8-420c-9e4c-0719be1e23cf","ios":"levelo://app?vid=6bde3431-c3f8-420c-9e4c-0719be1e23cf"},"vehicle_type_id":"4","last_reported":1676956041,"current_range_meters":28400,"station_id":"ce4bhr92rcd13ifvqhrg","pricing_plan_id":"free"},{"bike_id":"20f7eda5-39d3-4afe-ae56-9a840a04cab1","system_id":"levelo_inurba_marseille","lat":43.330442,"lon":5.389148,"is_reserved":false,"is_disabled":false,"rental_uris":{"android":"levelo://app?vid=20f7eda5-39d3-4afe-ae56-9a840a04cab1","ios":"levelo://app?vid=20f7eda5-39d3-4afe-ae56-9a840a04cab1"},"vehicle_type_id":"4","last_reported":1676956041,"current_range_meters":29200,"station_id":"ce4bhr92rcd13ifvqhrg","pricing_plan_id":"free"},{"bike_id":"dfbc8af8-c178-43d3-87d9-4d5cb0762399","system_id":"levelo_inurba_marseille","lat":43.330442,"lon":5.389148,"is_reserved":false,"is_disabled":false,"rental_uris":{"android":"levelo://app?vid=dfbc8af8-c178-43d3-87d9-4d5cb0762399","ios":"levelo://app?vid=dfbc8af8-c178-43d3-87d9-4d5cb0762399"},"vehicle_type_id":"4","last_reported":1676956041,"current_range_meters":30800,"station_id":"ce4bhr92rcd13ifvqhrg","pricing_plan_id":"free"},{"bike_id":"4a9ff081-5f64-4a51-adbc-bc89785741d0","system_id":"levelo_inurba_marseille","lat":43.290104,"lon":5.356111,"is_reserved":false,"is_disabled":false,"rental_uris":{"android":"levelo://app?vid=4a9ff081-5f64-4a51-adbc-bc89785741d0","ios":"levelo://app?vid=4a9ff081-5f64-4a51-adbc-bc89785741d0"},"vehicle_type_id":"4","last_reported":1676956041,"current_range_meters":5200,"station_id":"ce4bhb92rcd13ifvqen0","pricing_plan_id":"free"},{"bike_id":"6c4bb5ad-bb60-46f6-afe2-03ea3ffd247c","system_id":"levelo_inurba_marseille","lat":43.330442,"lon":5.389148,"is_reserved":false,"is_disabled":false,"rental_uris":{"android":"levelo://app?vid=6c4bb5ad-bb60-46f6-afe2-03ea3ffd247c","ios":"levelo://app?vid=6c4bb5ad-bb60-46f6-afe2-03ea3ffd247c"},"vehicle_type_id":"4","last_reported":1676956041,"current_range_meters":26800,"station_id":"ce4bhr92rcd13ifvqhrg","pricing_plan_id":"free"},{"bike_id":"ef97761d-7708-4db6-b892-abd3b66682c3","system_id":"levelo_inurba_marseille","lat":43.330442,"lon":5.389148,"is_reserved":false,"is_disabled":false,"rental_uris":{"android":"levelo://app?vid=ef97761d-7708-4db6-b892-abd3b66682c3","ios":"levelo://app?vid=ef97761d-7708-4db6-b892-abd3b66682c3"},"vehicle_type_id":"4","last_reported":1676956041,"current_range_meters":24400,"station_id":"ce4bhr92rcd13ifvqhrg","pricing_plan_id":"free"},{"bike_id":"178c92ac-f595-45e7-b597-7d21405dc102","system_id":"levelo_inurba_marseille","lat":43.330442,"lon":5.389148,"is_reserved":false,"is_disabled":false,"rental_uris":{"android":"levelo://app?vid=178c92ac-f595-45e7-b597-7d21405dc102","ios":"levelo://app?vid=178c92ac-f595-45e7-b597-7d21405dc102"},"vehicle_type_id":"4","last_reported":1676956041,"current_range_meters":20400,"station_id":"ce4bhr92rcd13ifvqhrg","pricing_plan_id":"free"},{"bike_id":"898bd0e3-a7f4-4757-aa34-2e64b09c2c1a","system_id":"levelo_inurba_marseille","lat":43.290104,"lon":5.356111,"is_reserved":false,"is_disabled":false,"rental_uris":{"android":"levelo://app?vid=898bd0e3-a7f4-4757-aa34-2e64b09c2c1a","ios":"levelo://app?vid=898bd0e3-a7f4-4757-aa34-2e64b09c2c1a"},"vehicle_type_id":"4","last_reported":1676956041,"current_range_meters":25200,"station_id":"ce4bhb92rcd13ifvqen0","pricing_plan_id":"free"},{"bike_id":"7be3b782-eb74-43c4-8419-1cfd051c8d53","system_id":"levelo_inurba_marseille","lat":43.29098,"lon":5.381339,"is_reserved":false,"is_disabled":false,"rental_uris":{"android":"levelo://app?vid=7be3b782-eb74-43c4-8419-1cfd051c8d53","ios":"levelo://app?vid=7be3b782-eb74-43c4-8419-1cfd051c8d53"},"vehicle_type_id":"4","last_reported":1676956041,"current_range_meters":0,"station_id":"ce4bh512rcd13ifvqe2g","pricing_plan_id":"free"},{"bike_id":"e427ed3f-cdc8-4121-b2e1-3e133b9c4bca","system_id":"levelo_inurba_marseille","lat":43.290995,"lon":5.381361,"is_reserved":false,"is_disabled":false,"rental_uris":{"android":"levelo://app?vid=e427ed3f-cdc8-4121-b2e1-3e133b9c4bca","ios":"levelo://app?vid=e427ed3f-cdc8-4121-b2e1-3e133b9c4bca"},"vehicle_type_id":"4","last_reported":1676956041,"current_range_meters":16800,"station_id":"ce4bh512rcd13ifvqe2g","pricing_plan_id":"free"},{"bike_id":"2d0a5d48-2056-4135-8dc7-3935356072a8","system_id":"levelo_inurba_marseille","lat":43.290946,"lon":5.381317,"is_reserved":false,"is_disabled":false,"rental_uris":{"android":"levelo://app?vid=2d0a5d48-2056-4135-8dc7-3935356072a8","ios":"levelo://app?vid=2d0a5d48-2056-4135-8dc7-3935356072a8"},"vehicle_type_id":"4","last_reported":1676956041,"current_range_meters":0,"station_id":"ce4bh512rcd13ifvqe2g","pricing_plan_id":"free"},{"bike_id":"55e8688d-0067-4a68-8228-15117518a7ee","system_id":"levelo_inurba_marseille","lat":43.29085,"lon":5.3815,"is_reserved":false,"is_disabled":false,"rental_uris":{"android":"levelo://app?vid=55e8688d-0067-4a68-8228-15117518a7ee","ios":"levelo://app?vid=55e8688d-0067-4a68-8228-15117518a7ee"},"vehicle_type_id":"4","last_reported":1676956041,"current_range_meters":25600,"station_id":"","pricing_plan_id":"free"},{"bike_id":"8dedd6bb-0485-4d35-9b5b-02c85f6f46e8","system_id":"levelo_inurba_marseille","lat":43.295204,"lon":5.390237,"is_reserved":false,"is_disabled":false,"rental_uris":{"android":"levelo://app?vid=8dedd6bb-0485-4d35-9b5b-02c85f6f46e8","ios":"levelo://app?vid=8dedd6bb-0485-4d35-9b5b-02c85f6f46e8"},"vehicle_type_id":"4","last_reported":1676956041,"current_range_meters":0,"station_id":"ce4bh3p2rcd13ifvqdp0","pricing_plan_id":"free"},{"bike_id":"5ad3c0b7-363b-436f-bbae-86652cb64e94","system_id":"levelo_inurba_marseille","lat":43.28856,"lon":5.358371,"is_reserved":false,"is_disabled":false,"rental_uris":{"android":"levelo://app?vid=5ad3c0b7-363b-436f-bbae-86652cb64e94","ios":"levelo://app?vid=5ad3c0b7-363b-436f-bbae-86652cb64e94"},"vehicle_type_id":"4","last_reported":1676956041,"current_range_meters":28000,"station_id":"ce4bhb12rcd13ifvqem0","pricing_plan_id":"free"},{"bike_id":"3d7d5458-a0b6-43a6-b226-0c22167a477d","system_id":"levelo_inurba_marseille","lat":43.28856,"lon":5.358371,"is_reserved":false,"is_disabled":false,"rental_uris":{"android":"levelo://app?vid=3d7d5458-a0b6-43a6-b226-0c22167a477d","ios":"levelo://app?vid=3d7d5458-a0b6-43a6-b226-0c22167a477d"},"vehicle_type_id":"4","last_reported":1676956041,"current_range_meters":31200,"station_id":"ce4bhb12rcd13ifvqem0","pricing_plan_id":"free"},{"bike_id":"c3d70ced-b750-4bb4-bb4a-e22f6ca95137","system_id":"levelo_inurba_marseille","lat":43.28856,"lon":5.358371,"is_reserved":false,"is_disabled":false,"rental_uris":{"android":"levelo://app?vid=c3d70ced-b750-4bb4-bb4a-e22f6ca95137","ios":"levelo://app?vid=c3d70ced-b750-4bb4-bb4a-e22f6ca95137"},"vehicle_type_id":"4","last_reported":1676956041,"current_range_meters":31200,"station_id":"ce4bhb12rcd13ifvqem0","pricing_plan_id":"free"},{"bike_id":"6d9d8f1f-8441-468d-ada7-956495ee7ae4","system_id":"levelo_inurba_marseille","lat":43.28856,"lon":5.358371,"is_reserved":false,"is_disabled":false,"rental_uris":{"android":"levelo://app?vid=6d9d8f1f-8441-468d-ada7-956495ee7ae4","ios":"levelo://app?vid=6d9d8f1f-8441-468d-ada7-956495ee7ae4"},"vehicle_type_id":"4","last_reported":1676956041,"current_range_meters":30800,"station_id":"ce4bhb12rcd13ifvqem0","pricing_plan_id":"free"},{"bike_id":"1147b6c2-2202-4c65-be84-a7f59128bf80","system_id":"levelo_inurba_marseille","lat":43.28856,"lon":5.358371,"is_reserved":false,"is_disabled":false,"rental_uris":{"android":"levelo://app?vid=1147b6c2-2202-4c65-be84-a7f59128bf80","ios":"levelo://app?vid=1147b6c2-2202-4c65-be84-a7f59128bf80"},"vehicle_type_id":"4","last_reported":1676956041,"current_range_meters":29600,"station_id":"ce4bhb12rcd13ifvqem0","pricing_plan_id":"free"},{"bike_id":"df81ac38-54e4-4ad5-9849-060082647089","system_id":"levelo_inurba_marseille","lat":43.28856,"lon":5.358371,"is_reserved":false,"is_disabled":false,"rental_uris":{"android":"levelo://app?vid=df81ac38-54e4-4ad5-9849-060082647089","ios":"levelo://app?vid=df81ac38-54e4-4ad5-9849-060082647089"},"vehicle_type_id":"4","last_reported":1676956041,"current_range_meters":26800,"station_id":"ce4bhb12rcd13ifvqem0","pricing_plan_id":"free"},{"bike_id":"5ef29cf6-d8ea-4e9c-9fff-834b48643af0","system_id":"levelo_inurba_marseille","lat":43.28856,"lon":5.358371,"is_reserved":false,"is_disabled":false,"rental_uris":{"android":"levelo://app?vid=5ef29cf6-d8ea-4e9c-9fff-834b48643af0","ios":"levelo://app?vid=5ef29cf6-d8ea-4e9c-9fff-834b48643af0"},"vehicle_type_id":"4","last_reported":1676956041,"current_range_meters":24400,"station_id":"ce4bhb12rcd13ifvqem0","pricing_plan_id":"free"},{"bike_id":"249c47cb-5dcf-495a-b20c-20081b998dd9","system_id":"levelo_inurba_marseille","lat":43.30642,"lon":5.401031,"is_reserved":false,"is_disabled":false,"rental_uris":{"android":"levelo://app?vid=249c47cb-5dcf-495a-b20c-20081b998dd9","ios":"levelo://app?vid=249c47cb-5dcf-495a-b20c-20081b998dd9"},"vehicle_type_id":"4","last_reported":1676956041,"current_range_meters":11600,"station_id":"ce4bh112rcd13ifvqda0","pricing_plan_id":"free"},{"bike_id":"c1eb1b88-be4b-4548-a448-1f213d2be9ed","system_id":"levelo_inurba_marseille","lat":43.30642,"lon":5.401031,"is_reserved":false,"is_disabled":false,"rental_uris":{"android":"levelo://app?vid=c1eb1b88-be4b-4548-a448-1f213d2be9ed","ios":"levelo://app?vid=c1eb1b88-be4b-4548-a448-1f213d2be9ed"},"vehicle_type_id":"4","last_reported":1676956041,"current_range_meters":23600,"station_id":"ce4bh112rcd13ifvqda0","pricing_plan_id":"free"},{"bike_id":"07bbd3e9-8813-4080-b461-d771f82bd647","system_id":"levelo_inurba_marseille","lat":43.306509,"lon":5.40077,"is_reserved":false,"is_disabled":false,"rental_uris":{"android":"levelo://app?vid=07bbd3e9-8813-4080-b461-d771f82bd647","ios":"levelo://app?vid=07bbd3e9-8813-4080-b461-d771f82bd647"},"vehicle_type_id":"4","last_reported":1676956041,"current_range_meters":12000,"station_id":"","pricing_plan_id":"free"},{"bike_id":"a77fd495-dcc3-4ea1-96fc-01ff114b20f9","system_id":"levelo_inurba_marseille","lat":43.306412,"lon":5.401035,"is_reserved":false,"is_disabled":false,"rental_uris":{"android":"levelo://app?vid=a77fd495-dcc3-4ea1-96fc-01ff114b20f9","ios":"levelo://app?vid=a77fd495-dcc3-4ea1-96fc-01ff114b20f9"},"vehicle_type_id":"4","last_reported":1676956041,"current_range_meters":19200,"station_id":"ce4bh112rcd13ifvqda0","pricing_plan_id":"free"},{"bike_id":"32cf081f-68ff-443b-8aaf-7457c46559f1","system_id":"levelo_inurba_marseille","lat":43.306545,"lon":5.400786,"is_reserved":false,"is_disabled":false,"rental_uris":{"android":"levelo://app?vid=32cf081f-68ff-443b-8aaf-7457c46559f1","ios":"levelo://app?vid=32cf081f-68ff-443b-8aaf-7457c46559f1"},"vehicle_type_id":"4","last_reported":1676956041,"current_range_meters":18800,"station_id":"ce4bh112rcd13ifvqda0","pricing_plan_id":"free"},{"bike_id":"89b35039-6e5f-4b4d-93d2-59ec10d2d6e8","system_id":"levelo_inurba_marseille","lat":43.30652,"lon":5.400781,"is_reserved":false,"is_disabled":false,"rental_uris":{"android":"levelo://app?vid=89b35039-6e5f-4b4d-93d2-59ec10d2d6e8","ios":"levelo://app?vid=89b35039-6e5f-4b4d-93d2-59ec10d2d6e8"},"vehicle_type_id":"4","last_reported":1676956041,"current_range_meters":1600,"station_id":"","pricing_plan_id":"free"},{"bike_id":"7b69538c-e0b8-4a0f-ac72-1f2bf9b91168","system_id":"levelo_inurba_marseille","lat":43.30642,"lon":5.401031,"is_reserved":false,"is_disabled":false,"rental_uris":{"android":"levelo://app?vid=7b69538c-e0b8-4a0f-ac72-1f2bf9b91168","ios":"levelo://app?vid=7b69538c-e0b8-4a0f-ac72-1f2bf9b91168"},"vehicle_type_id":"4","last_reported":1676956041,"current_range_meters":24000,"station_id":"ce4bh112rcd13ifvqda0","pricing_plan_id":"free"},{"bike_id":"4078e38c-5190-4372-8447-a2aaba5f498b","system_id":"levelo_inurba_marseille","lat":43.306473,"lon":5.400773,"is_reserved":false,"is_disabled":false,"rental_uris":{"android":"levelo://app?vid=4078e38c-5190-4372-8447-a2aaba5f498b","ios":"levelo://app?vid=4078e38c-5190-4372-8447-a2aaba5f498b"},"vehicle_type_id":"4","last_reported":1676956041,"current_range_meters":17200,"station_id":"","pricing_plan_id":"free"},{"bike_id":"65ef0d4d-2589-4c0f-b708-5712e0726151","system_id":"levelo_inurba_marseille","lat":43.301117,"lon":5.398795,"is_reserved":false,"is_disabled":false,"rental_uris":{"android":"levelo://app?vid=65ef0d4d-2589-4c0f-b708-5712e0726151","ios":"levelo://app?vid=65ef0d4d-2589-4c0f-b708-5712e0726151"},"vehicle_type_id":"4","last_reported":1676956041,"current_range_meters":25600,"station_id":"ce4bh0h2rcd13ifvqd40","pricing_plan_id":"free"},{"bike_id":"247f058d-61a3-4b04-b9e7-c8b571f1cf5f","system_id":"levelo_inurba_marseille","lat":43.301117,"lon":5.398795,"is_reserved":false,"is_disabled":false,"rental_uris":{"android":"levelo://app?vid=247f058d-61a3-4b04-b9e7-c8b571f1cf5f","ios":"levelo://app?vid=247f058d-61a3-4b04-b9e7-c8b571f1cf5f"},"vehicle_type_id":"4","last_reported":1676956041,"current_range_meters":30000,"station_id":"ce4bh0h2rcd13ifvqd40","pricing_plan_id":"free"},{"bike_id":"91bb722d-245a-434c-bcca-3c909f93e532","system_id":"levelo_inurba_marseille","lat":43.301117,"lon":5.398795,"is_reserved":false,"is_disabled":false,"rental_uris":{"android":"levelo://app?vid=91bb722d-245a-434c-bcca-3c909f93e532","ios":"levelo://app?vid=91bb722d-245a-434c-bcca-3c909f93e532"},"vehicle_type_id":"4","last_reported":1676956041,"current_range_meters":29200,"station_id":"ce4bh0h2rcd13ifvqd40","pricing_plan_id":"free"},{"bike_id":"34a60612-4ee1-42aa-b98a-ca31d219cfa3","system_id":"levelo_inurba_marseille","lat":43.3013,"lon":5.39877,"is_reserved":false,"is_disabled":false,"rental_uris":{"android":"levelo://app?vid=34a60612-4ee1-42aa-b98a-ca31d219cfa3","ios":"levelo://app?vid=34a60612-4ee1-42aa-b98a-ca31d219cfa3"},"vehicle_type_id":"4","last_reported":1676956041,"current_range_meters":16800,"station_id":"","pricing_plan_id":"free"},{"bike_id":"9069b1ef-b106-4b4e-9659-6f972909013d","system_id":"levelo_inurba_marseille","lat":43.30133,"lon":5.3988,"is_reserved":false,"is_disabled":false,"rental_uris":{"android":"levelo://app?vid=9069b1ef-b106-4b4e-9659-6f972909013d","ios":"levelo://app?vid=9069b1ef-b106-4b4e-9659-6f972909013d"},"vehicle_type_id":"4","last_reported":1676956041,"current_range_meters":12800,"station_id":"","pricing_plan_id":"free"},{"bike_id":"861d6603-2c7d-42ca-81b0-b674f69aac86","system_id":"levelo_inurba_marseille","lat":43.30131,"lon":5.398868,"is_reserved":false,"is_disabled":false,"rental_uris":{"android":"levelo://app?vid=861d6603-2c7d-42ca-81b0-b674f69aac86","ios":"levelo://app?vid=861d6603-2c7d-42ca-81b0-b674f69aac86"},"vehicle_type_id":"4","last_reported":1676956041,"current_range_meters":22400,"station_id":"ce4bh0h2rcd13ifvqd40","pricing_plan_id":"free"},{"bike_id":"6a8d7ea9-619c-40c4-a73c-466346abd3c1","system_id":"levelo_inurba_marseille","lat":43.298681,"lon":5.397225,"is_reserved":false,"is_disabled":false,"rental_uris":{"android":"levelo://app?vid=6a8d7ea9-619c-40c4-a73c-466346abd3c1","ios":"levelo://app?vid=6a8d7ea9-619c-40c4-a73c-466346abd3c1"},"vehicle_type_id":"4","last_reported":1676956041,"current_range_meters":30400,"station_id":"ce4bh0h2rcd13ifvqd50","pricing_plan_id":"free"},{"bike_id":"f7a6c4a6-99e5-414b-a02b-3a68b708498a","system_id":"levelo_inurba_marseille","lat":43.298681,"lon":5.397225,"is_reserved":false,"is_disabled":false,"rental_uris":{"android":"levelo://app?vid=f7a6c4a6-99e5-414b-a02b-3a68b708498a","ios":"levelo://app?vid=f7a6c4a6-99e5-414b-a02b-3a68b708498a"},"vehicle_type_id":"4","last_reported":1676956041,"current_range_meters":26800,"station_id":"ce4bh0h2rcd13ifvqd50","pricing_plan_id":"free"},{"bike_id":"b31170ac-0a18-463a-a214-9a6b4eb35bae","system_id":"levelo_inurba_marseille","lat":43.298681,"lon":5.397225,"is_reserved":false,"is_disabled":false,"rental_uris":{"android":"levelo://app?vid=b31170ac-0a18-463a-a214-9a6b4eb35bae","ios":"levelo://app?vid=b31170ac-0a18-463a-a214-9a6b4eb35bae"},"vehicle_type_id":"4","last_reported":1676956041,"current_range_meters":26400,"station_id":"ce4bh0h2rcd13ifvqd50","pricing_plan_id":"free"},{"bike_id":"c49cacc3-0a92-41d5-a463-cc03da95ab62","system_id":"levelo_inurba_marseille","lat":43.298681,"lon":5.397225,"is_reserved":false,"is_disabled":false,"rental_uris":{"android":"levelo://app?vid=c49cacc3-0a92-41d5-a463-cc03da95ab62","ios":"levelo://app?vid=c49cacc3-0a92-41d5-a463-cc03da95ab62"},"vehicle_type_id":"4","last_reported":1676956041,"current_range_meters":27600,"station_id":"ce4bh0h2rcd13ifvqd50","pricing_plan_id":"free"},{"bike_id":"cc45650a-c8ac-40c2-9c24-29bddb0cd1dd","system_id":"levelo_inurba_marseille","lat":43.298681,"lon":5.397225,"is_reserved":false,"is_disabled":false,"rental_uris":{"android":"levelo://app?vid=cc45650a-c8ac-40c2-9c24-29bddb0cd1dd","ios":"levelo://app?vid=cc45650a-c8ac-40c2-9c24-29bddb0cd1dd"},"vehicle_type_id":"4","last_reported":1676956041,"current_range_meters":31600,"station_id":"ce4bh0h2rcd13ifvqd50","pricing_plan_id":"free"},{"bike_id":"f5106d28-afd5-44f0-b970-f70197a9d32f","system_id":"levelo_inurba_marseille","lat":43.295238,"lon":5.394015,"is_reserved":false,"is_disabled":false,"rental_uris":{"android":"levelo://app?vid=f5106d28-afd5-44f0-b970-f70197a9d32f","ios":"levelo://app?vid=f5106d28-afd5-44f0-b970-f70197a9d32f"},"vehicle_type_id":"4","last_reported":1676956041,"current_range_meters":31200,"station_id":"ce4bh212rcd13ifvqde0","pricing_plan_id":"free"},{"bike_id":"1cc2df88-35bc-4666-a9a5-c55964151e6b","system_id":"levelo_inurba_marseille","lat":43.295212,"lon":5.394008,"is_reserved":false,"is_disabled":false,"rental_uris":{"android":"levelo://app?vid=1cc2df88-35bc-4666-a9a5-c55964151e6b","ios":"levelo://app?vid=1cc2df88-35bc-4666-a9a5-c55964151e6b"},"vehicle_type_id":"4","last_reported":1676956041,"current_range_meters":8000,"station_id":"ce4bh212rcd13ifvqde0","pricing_plan_id":"free"},{"bike_id":"074adefd-8dac-47a4-8b4c-4f9c216dd63b","system_id":"levelo_inurba_marseille","lat":43.295198,"lon":5.394011,"is_reserved":false,"is_disabled":false,"rental_uris":{"android":"levelo://app?vid=074adefd-8dac-47a4-8b4c-4f9c216dd63b","ios":"levelo://app?vid=074adefd-8dac-47a4-8b4c-4f9c216dd63b"},"vehicle_type_id":"4","last_reported":1676956041,"current_range_meters":28400,"station_id":"ce4bh212rcd13ifvqde0","pricing_plan_id":"free"},{"bike_id":"5960e9b5-3310-4ea0-8967-35c2c8f75588","system_id":"levelo_inurba_marseille","lat":43.295208,"lon":5.394026,"is_reserved":false,"is_disabled":false,"rental_uris":{"android":"levelo://app?vid=5960e9b5-3310-4ea0-8967-35c2c8f75588","ios":"levelo://app?vid=5960e9b5-3310-4ea0-8967-35c2c8f75588"},"vehicle_type_id":"4","last_reported":1676956041,"current_range_meters":27200,"station_id":"ce4bh212rcd13ifvqde0","pricing_plan_id":"free"},{"bike_id":"b1e7d179-8289-409c-837c-54c8b32129a6","system_id":"levelo_inurba_marseille","lat":43.295228,"lon":5.394066,"is_reserved":false,"is_disabled":false,"rental_uris":{"android":"levelo://app?vid=b1e7d179-8289-409c-837c-54c8b32129a6","ios":"levelo://app?vid=b1e7d179-8289-409c-837c-54c8b32129a6"},"vehicle_type_id":"4","last_reported":1676956041,"current_range_meters":31600,"station_id":"ce4bh212rcd13ifvqde0","pricing_plan_id":"free"},{"bike_id":"7b924db6-e78c-423b-94d1-7ef47e00d6dc","system_id":"levelo_inurba_marseille","lat":43.295217,"lon":5.394055,"is_reserved":false,"is_disabled":false,"rental_uris":{"android":"levelo://app?vid=7b924db6-e78c-423b-94d1-7ef47e00d6dc","ios":"levelo://app?vid=7b924db6-e78c-423b-94d1-7ef47e00d6dc"},"vehicle_type_id":"4","last_reported":1676956041,"current_range_meters":30400,"station_id":"ce4bh212rcd13ifvqde0","pricing_plan_id":"free"},{"bike_id":"5ec5b13f-73d9-4a5c-8648-40df7a5078cf","system_id":"levelo_inurba_marseille","lat":43.295171,"lon":5.394034,"is_reserved":false,"is_disabled":false,"rental_uris":{"android":"levelo://app?vid=5ec5b13f-73d9-4a5c-8648-40df7a5078cf","ios":"levelo://app?vid=5ec5b13f-73d9-4a5c-8648-40df7a5078cf"},"vehicle_type_id":"4","last_reported":1676956041,"current_range_meters":5200,"station_id":"ce4bh212rcd13ifvqde0","pricing_plan_id":"free"},{"bike_id":"63d0b890-54ff-495d-93ac-ccaddd883704","system_id":"levelo_inurba_marseille","lat":43.295167,"lon":5.394041,"is_reserved":false,"is_disabled":false,"rental_uris":{"android":"levelo://app?vid=63d0b890-54ff-495d-93ac-ccaddd883704","ios":"levelo://app?vid=63d0b890-54ff-495d-93ac-ccaddd883704"},"vehicle_type_id":"4","last_reported":1676956041,"current_range_meters":11600,"station_id":"ce4bh212rcd13ifvqde0","pricing_plan_id":"free"},{"bike_id":"ab515a50-eeb7-47bc-bc0a-be3693fbf160","system_id":"levelo_inurba_marseille","lat":43.295189,"lon":5.394085,"is_reserved":false,"is_disabled":false,"rental_uris":{"android":"levelo://app?vid=ab515a50-eeb7-47bc-bc0a-be3693fbf160","ios":"levelo://app?vid=ab515a50-eeb7-47bc-bc0a-be3693fbf160"},"vehicle_type_id":"4","last_reported":1676956041,"current_range_meters":14800,"station_id":"ce4bh212rcd13ifvqde0","pricing_plan_id":"free"},{"bike_id":"64f782d3-fb40-4fbf-9b47-5fb233d6f492","system_id":"levelo_inurba_marseille","lat":43.295142,"lon":5.394038,"is_reserved":false,"is_disabled":false,"rental_uris":{"android":"levelo://app?vid=64f782d3-fb40-4fbf-9b47-5fb233d6f492","ios":"levelo://app?vid=64f782d3-fb40-4fbf-9b47-5fb233d6f492"},"vehicle_type_id":"4","last_reported":1676956041,"current_range_meters":0,"station_id":"ce4bh212rcd13ifvqde0","pricing_plan_id":"free"},{"bike_id":"8f5628ac-2e4f-4e29-a13d-8dc4adbf2a31","system_id":"levelo_inurba_marseille","lat":43.295132,"lon":5.394033,"is_reserved":false,"is_disabled":false,"rental_uris":{"android":"levelo://app?vid=8f5628ac-2e4f-4e29-a13d-8dc4adbf2a31","ios":"levelo://app?vid=8f5628ac-2e4f-4e29-a13d-8dc4adbf2a31"},"vehicle_type_id":"4","last_reported":1676956041,"current_range_meters":4400,"station_id":"ce4bh212rcd13ifvqde0","pricing_plan_id":"free"},{"bike_id":"a2dc91e3-bfd1-41cd-9b16-55fd1456ed69","system_id":"levelo_inurba_marseille","lat":43.29031,"lon":5.38644,"is_reserved":false,"is_disabled":false,"rental_uris":{"android":"levelo://app?vid=a2dc91e3-bfd1-41cd-9b16-55fd1456ed69","ios":"levelo://app?vid=a2dc91e3-bfd1-41cd-9b16-55fd1456ed69"},"vehicle_type_id":"4","last_reported":1676956041,"current_range_meters":10800,"station_id":"","pricing_plan_id":"free"},{"bike_id":"5945995e-2c90-44d0-9cc5-3b892cc647eb","system_id":"levelo_inurba_marseille","lat":43.302759,"lon":5.400793,"is_reserved":false,"is_disabled":false,"rental_uris":{"android":"levelo://app?vid=5945995e-2c90-44d0-9cc5-3b892cc647eb","ios":"levelo://app?vid=5945995e-2c90-44d0-9cc5-3b892cc647eb"},"vehicle_type_id":"4","last_reported":1676956041,"current_range_meters":10800,"station_id":"ce4bgvh2rcd13ifvqcs0","pricing_plan_id":"free"},{"bike_id":"a4ddb93c-23bb-4738-8a86-cd48adac6e1b","system_id":"levelo_inurba_marseille","lat":43.302459,"lon":5.400584,"is_reserved":false,"is_disabled":false,"rental_uris":{"android":"levelo://app?vid=a4ddb93c-23bb-4738-8a86-cd48adac6e1b","ios":"levelo://app?vid=a4ddb93c-23bb-4738-8a86-cd48adac6e1b"},"vehicle_type_id":"4","last_reported":1676956041,"current_range_meters":23200,"station_id":"","pricing_plan_id":"free"},{"bike_id":"ddb7d64b-b053-4d31-8f5b-72725e6cfaae","system_id":"levelo_inurba_marseille","lat":43.302436,"lon":5.400571,"is_reserved":false,"is_disabled":false,"rental_uris":{"android":"levelo://app?vid=ddb7d64b-b053-4d31-8f5b-72725e6cfaae","ios":"levelo://app?vid=ddb7d64b-b053-4d31-8f5b-72725e6cfaae"},"vehicle_type_id":"4","last_reported":1676956041,"current_range_meters":27200,"station_id":"ce4bgvh2rcd13ifvqcs0","pricing_plan_id":"free"},{"bike_id":"7cda6621-6da0-4ef2-82c1-d55e4f3c0747","system_id":"levelo_inurba_marseille","lat":43.302759,"lon":5.400793,"is_reserved":false,"is_disabled":false,"rental_uris":{"android":"levelo://app?vid=7cda6621-6da0-4ef2-82c1-d55e4f3c0747","ios":"levelo://app?vid=7cda6621-6da0-4ef2-82c1-d55e4f3c0747"},"vehicle_type_id":"4","last_reported":1676956041,"current_range_meters":10000,"station_id":"ce4bgvh2rcd13ifvqcs0","pricing_plan_id":"free"},{"bike_id":"9a50cd7d-3235-42c3-a6e4-699f17d73498","system_id":"levelo_inurba_marseille","lat":43.302759,"lon":5.400793,"is_reserved":false,"is_disabled":false,"rental_uris":{"android":"levelo://app?vid=9a50cd7d-3235-42c3-a6e4-699f17d73498","ios":"levelo://app?vid=9a50cd7d-3235-42c3-a6e4-699f17d73498"},"vehicle_type_id":"4","last_reported":1676956041,"current_range_meters":31600,"station_id":"ce4bgvh2rcd13ifvqcs0","pricing_plan_id":"free"},{"bike_id":"fbc898e2-216f-44b9-8a5d-3eff87131ac1","system_id":"levelo_inurba_marseille","lat":43.302759,"lon":5.400793,"is_reserved":false,"is_disabled":false,"rental_uris":{"android":"levelo://app?vid=fbc898e2-216f-44b9-8a5d-3eff87131ac1","ios":"levelo://app?vid=fbc898e2-216f-44b9-8a5d-3eff87131ac1"},"vehicle_type_id":"4","last_reported":1676956041,"current_range_meters":26800,"station_id":"ce4bgvh2rcd13ifvqcs0","pricing_plan_id":"free"},{"bike_id":"94b9b4a3-1492-4691-afb7-dc1c562eff11","system_id":"levelo_inurba_marseille","lat":43.286039,"lon":5.370679,"is_reserved":false,"is_disabled":false,"rental_uris":{"android":"levelo://app?vid=94b9b4a3-1492-4691-afb7-dc1c562eff11","ios":"levelo://app?vid=94b9b4a3-1492-4691-afb7-dc1c562eff11"},"vehicle_type_id":"4","last_reported":1676956041,"current_range_meters":17600,"station_id":"ce4bht12rcd13ifvqi60","pricing_plan_id":"free"},{"bike_id":"6cce9e5b-be48-4f71-9655-8f3c97b32138","system_id":"levelo_inurba_marseille","lat":43.286039,"lon":5.370679,"is_reserved":false,"is_disabled":false,"rental_uris":{"android":"levelo://app?vid=6cce9e5b-be48-4f71-9655-8f3c97b32138","ios":"levelo://app?vid=6cce9e5b-be48-4f71-9655-8f3c97b32138"},"vehicle_type_id":"4","last_reported":1676956041,"current_range_meters":6000,"station_id":"ce4bht12rcd13ifvqi60","pricing_plan_id":"free"},{"bike_id":"c22dacc1-6edd-44b9-b047-6194595f746b","system_id":"levelo_inurba_marseille","lat":43.286039,"lon":5.370679,"is_reserved":false,"is_disabled":false,"rental_uris":{"android":"levelo://app?vid=c22dacc1-6edd-44b9-b047-6194595f746b","ios":"levelo://app?vid=c22dacc1-6edd-44b9-b047-6194595f746b"},"vehicle_type_id":"4","last_reported":1676956041,"current_range_meters":3600,"station_id":"ce4bht12rcd13ifvqi60","pricing_plan_id":"free"},{"bike_id":"b41e6261-a7a5-45a5-9994-f80cf023833a","system_id":"levelo_inurba_marseille","lat":43.286039,"lon":5.370679,"is_reserved":false,"is_disabled":false,"rental_uris":{"android":"levelo://app?vid=b41e6261-a7a5-45a5-9994-f80cf023833a","ios":"levelo://app?vid=b41e6261-a7a5-45a5-9994-f80cf023833a"},"vehicle_type_id":"4","last_reported":1676956041,"current_range_meters":20000,"station_id":"ce4bht12rcd13ifvqi60","pricing_plan_id":"free"},{"bike_id":"a26d55e1-7d7c-4169-93ca-4d9dad65472c","system_id":"levelo_inurba_marseille","lat":43.286039,"lon":5.370679,"is_reserved":false,"is_disabled":false,"rental_uris":{"android":"levelo://app?vid=a26d55e1-7d7c-4169-93ca-4d9dad65472c","ios":"levelo://app?vid=a26d55e1-7d7c-4169-93ca-4d9dad65472c"},"vehicle_type_id":"4","last_reported":1676956041,"current_range_meters":10000,"station_id":"ce4bht12rcd13ifvqi60","pricing_plan_id":"free"},{"bike_id":"d430c747-56e6-4cad-9cfa-56ba1e75b526","system_id":"levelo_inurba_marseille","lat":43.287184,"lon":5.37937,"is_reserved":false,"is_disabled":false,"rental_uris":{"android":"levelo://app?vid=d430c747-56e6-4cad-9cfa-56ba1e75b526","ios":"levelo://app?vid=d430c747-56e6-4cad-9cfa-56ba1e75b526"},"vehicle_type_id":"4","last_reported":1676956041,"current_range_meters":18000,"station_id":"ce4bh9p2rcd13ifvqec0","pricing_plan_id":"free"},{"bike_id":"10f154f6-7b9f-4089-9467-b5dd466bba84","system_id":"levelo_inurba_marseille","lat":43.287185,"lon":5.379373,"is_reserved":false,"is_disabled":false,"rental_uris":{"android":"levelo://app?vid=10f154f6-7b9f-4089-9467-b5dd466bba84","ios":"levelo://app?vid=10f154f6-7b9f-4089-9467-b5dd466bba84"},"vehicle_type_id":"4","last_reported":1676956041,"current_range_meters":22800,"station_id":"ce4bh9p2rcd13ifvqec0","pricing_plan_id":"free"},{"bike_id":"fb5cffa4-21b5-4b2c-a42a-9f4121840f0e","system_id":"levelo_inurba_marseille","lat":43.287185,"lon":5.379373,"is_reserved":false,"is_disabled":false,"rental_uris":{"android":"levelo://app?vid=fb5cffa4-21b5-4b2c-a42a-9f4121840f0e","ios":"levelo://app?vid=fb5cffa4-21b5-4b2c-a42a-9f4121840f0e"},"vehicle_type_id":"4","last_reported":1676956041,"current_range_meters":14800,"station_id":"ce4bh9p2rcd13ifvqec0","pricing_plan_id":"free"},{"bike_id":"352f8d59-8e8b-4e0a-960d-4d2e9bad2881","system_id":"levelo_inurba_marseille","lat":43.287146,"lon":5.379362,"is_reserved":false,"is_disabled":false,"rental_uris":{"android":"levelo://app?vid=352f8d59-8e8b-4e0a-960d-4d2e9bad2881","ios":"levelo://app?vid=352f8d59-8e8b-4e0a-960d-4d2e9bad2881"},"vehicle_type_id":"4","last_reported":1676956041,"current_range_meters":0,"station_id":"","pricing_plan_id":"free"},{"bike_id":"f22f7c7d-3dc1-44c1-97f3-6cb2dc30112f","system_id":"levelo_inurba_marseille","lat":43.304575,"lon":5.402853,"is_reserved":false,"is_disabled":false,"rental_uris":{"android":"levelo://app?vid=f22f7c7d-3dc1-44c1-97f3-6cb2dc30112f","ios":"levelo://app?vid=f22f7c7d-3dc1-44c1-97f3-6cb2dc30112f"},"vehicle_type_id":"4","last_reported":1676956041,"current_range_meters":0,"station_id":"","pricing_plan_id":"free"},{"bike_id":"5f39494b-39ab-4c8b-be54-e0275b96752a","system_id":"levelo_inurba_marseille","lat":43.316517,"lon":5.404375,"is_reserved":false,"is_disabled":false,"rental_uris":{"android":"levelo://app?vid=5f39494b-39ab-4c8b-be54-e0275b96752a","ios":"levelo://app?vid=5f39494b-39ab-4c8b-be54-e0275b96752a"},"vehicle_type_id":"4","last_reported":1676956041,"current_range_meters":0,"station_id":"ce4bh012rcd13ifvqd00","pricing_plan_id":"free"},{"bike_id":"c2d3c2e5-e1b8-4b7b-aee3-de205598cf5f","system_id":"levelo_inurba_marseille","lat":43.31645,"lon":5.40437,"is_reserved":false,"is_disabled":false,"rental_uris":{"android":"levelo://app?vid=c2d3c2e5-e1b8-4b7b-aee3-de205598cf5f","ios":"levelo://app?vid=c2d3c2e5-e1b8-4b7b-aee3-de205598cf5f"},"vehicle_type_id":"4","last_reported":1676956041,"current_range_meters":22000,"station_id":"ce4bh012rcd13ifvqd00","pricing_plan_id":"free"},{"bike_id":"612e0587-4191-48b1-bbec-cecb5f3ccd48","system_id":"levelo_inurba_marseille","lat":43.316414,"lon":5.404382,"is_reserved":false,"is_disabled":false,"rental_uris":{"android":"levelo://app?vid=612e0587-4191-48b1-bbec-cecb5f3ccd48","ios":"levelo://app?vid=612e0587-4191-48b1-bbec-cecb5f3ccd48"},"vehicle_type_id":"4","last_reported":1676956041,"current_range_meters":17200,"station_id":"ce4bh012rcd13ifvqd00","pricing_plan_id":"free"},{"bike_id":"3430dee9-a277-497e-8c56-8610e1fdb028","system_id":"levelo_inurba_marseille","lat":43.316517,"lon":5.404375,"is_reserved":false,"is_disabled":false,"rental_uris":{"android":"levelo://app?vid=3430dee9-a277-497e-8c56-8610e1fdb028","ios":"levelo://app?vid=3430dee9-a277-497e-8c56-8610e1fdb028"},"vehicle_type_id":"4","last_reported":1676956041,"current_range_meters":5600,"station_id":"ce4bh012rcd13ifvqd00","pricing_plan_id":"free"},{"bike_id":"a9193429-9004-4ff7-a258-7a996465ec38","system_id":"levelo_inurba_marseille","lat":43.316517,"lon":5.404375,"is_reserved":false,"is_disabled":false,"rental_uris":{"android":"levelo://app?vid=a9193429-9004-4ff7-a258-7a996465ec38","ios":"levelo://app?vid=a9193429-9004-4ff7-a258-7a996465ec38"},"vehicle_type_id":"4","last_reported":1676956041,"current_range_meters":21200,"station_id":"ce4bh012rcd13ifvqd00","pricing_plan_id":"free"},{"bike_id":"a8f36528-ab5f-47cb-aeb9-4ab289aca4e6","system_id":"levelo_inurba_marseille","lat":43.316517,"lon":5.404375,"is_reserved":false,"is_disabled":false,"rental_uris":{"android":"levelo://app?vid=a8f36528-ab5f-47cb-aeb9-4ab289aca4e6","ios":"levelo://app?vid=a8f36528-ab5f-47cb-aeb9-4ab289aca4e6"},"vehicle_type_id":"4","last_reported":1676956041,"current_range_meters":12800,"station_id":"ce4bh012rcd13ifvqd00","pricing_plan_id":"free"},{"bike_id":"dcdc2109-8b23-4856-93d5-458865a8fe02","system_id":"levelo_inurba_marseille","lat":43.3164,"lon":5.40441,"is_reserved":false,"is_disabled":false,"rental_uris":{"android":"levelo://app?vid=dcdc2109-8b23-4856-93d5-458865a8fe02","ios":"levelo://app?vid=dcdc2109-8b23-4856-93d5-458865a8fe02"},"vehicle_type_id":"4","last_reported":1676956041,"current_range_meters":18000,"station_id":"ce4bh012rcd13ifvqd00","pricing_plan_id":"free"},{"bike_id":"cf4bcc7f-437f-44f7-84fa-3f9a8eabbf5d","system_id":"levelo_inurba_marseille","lat":43.316517,"lon":5.404375,"is_reserved":false,"is_disabled":false,"rental_uris":{"android":"levelo://app?vid=cf4bcc7f-437f-44f7-84fa-3f9a8eabbf5d","ios":"levelo://app?vid=cf4bcc7f-437f-44f7-84fa-3f9a8eabbf5d"},"vehicle_type_id":"4","last_reported":1676956041,"current_range_meters":26000,"station_id":"ce4bh012rcd13ifvqd00","pricing_plan_id":"free"},{"bike_id":"2c9ab700-f53a-4660-a1bc-9c0464d8b6a5","system_id":"levelo_inurba_marseille","lat":43.316449,"lon":5.40441,"is_reserved":false,"is_disabled":false,"rental_uris":{"android":"levelo://app?vid=2c9ab700-f53a-4660-a1bc-9c0464d8b6a5","ios":"levelo://app?vid=2c9ab700-f53a-4660-a1bc-9c0464d8b6a5"},"vehicle_type_id":"4","last_reported":1676956041,"current_range_meters":8800,"station_id":"ce4bh012rcd13ifvqd00","pricing_plan_id":"free"},{"bike_id":"3bd888f9-57f3-486a-8c81-1a23e083154d","system_id":"levelo_inurba_marseille","lat":43.316517,"lon":5.404375,"is_reserved":false,"is_disabled":false,"rental_uris":{"android":"levelo://app?vid=3bd888f9-57f3-486a-8c81-1a23e083154d","ios":"levelo://app?vid=3bd888f9-57f3-486a-8c81-1a23e083154d"},"vehicle_type_id":"4","last_reported":1676956041,"current_range_meters":26000,"station_id":"ce4bh012rcd13ifvqd00","pricing_plan_id":"free"},{"bike_id":"b253af5e-2f95-403b-8a1b-f9897ce2ffe5","system_id":"levelo_inurba_marseille","lat":43.316517,"lon":5.404375,"is_reserved":false,"is_disabled":false,"rental_uris":{"android":"levelo://app?vid=b253af5e-2f95-403b-8a1b-f9897ce2ffe5","ios":"levelo://app?vid=b253af5e-2f95-403b-8a1b-f9897ce2ffe5"},"vehicle_type_id":"4","last_reported":1676956041,"current_range_meters":25600,"station_id":"ce4bh012rcd13ifvqd00","pricing_plan_id":"free"},{"bike_id":"229bc382-e3f4-4dae-a981-0178b90974de","system_id":"levelo_inurba_marseille","lat":43.284645,"lon":5.3589,"is_reserved":false,"is_disabled":false,"rental_uris":{"android":"levelo://app?vid=229bc382-e3f4-4dae-a981-0178b90974de","ios":"levelo://app?vid=229bc382-e3f4-4dae-a981-0178b90974de"},"vehicle_type_id":"4","last_reported":1676956041,"current_range_meters":6800,"station_id":"ce4bhah2rcd13ifvqei0","pricing_plan_id":"free"},{"bike_id":"4de0e4f8-0a98-4876-8b88-0f0701f91fae","system_id":"levelo_inurba_marseille","lat":43.28463,"lon":5.3589,"is_reserved":false,"is_disabled":false,"rental_uris":{"android":"levelo://app?vid=4de0e4f8-0a98-4876-8b88-0f0701f91fae","ios":"levelo://app?vid=4de0e4f8-0a98-4876-8b88-0f0701f91fae"},"vehicle_type_id":"4","last_reported":1676956041,"current_range_meters":25200,"station_id":"ce4bhah2rcd13ifvqei0","pricing_plan_id":"free"},{"bike_id":"a8e6966c-93e5-4cb9-96a4-135c60dac56b","system_id":"levelo_inurba_marseille","lat":43.284621,"lon":5.35891,"is_reserved":false,"is_disabled":false,"rental_uris":{"android":"levelo://app?vid=a8e6966c-93e5-4cb9-96a4-135c60dac56b","ios":"levelo://app?vid=a8e6966c-93e5-4cb9-96a4-135c60dac56b"},"vehicle_type_id":"4","last_reported":1676956041,"current_range_meters":1600,"station_id":"ce4bhah2rcd13ifvqei0","pricing_plan_id":"free"},{"bike_id":"a54477e7-837f-4d93-845e-2a5adb39f2e1","system_id":"levelo_inurba_marseille","lat":43.284609,"lon":5.358914,"is_reserved":false,"is_disabled":false,"rental_uris":{"android":"levelo://app?vid=a54477e7-837f-4d93-845e-2a5adb39f2e1","ios":"levelo://app?vid=a54477e7-837f-4d93-845e-2a5adb39f2e1"},"vehicle_type_id":"4","last_reported":1676956041,"current_range_meters":16800,"station_id":"ce4bhah2rcd13ifvqei0","pricing_plan_id":"free"},{"bike_id":"c7b80cbc-ce89-409c-b223-8fd8dbfe08c9","system_id":"levelo_inurba_marseille","lat":43.284534,"lon":5.358662,"is_reserved":false,"is_disabled":false,"rental_uris":{"android":"levelo://app?vid=c7b80cbc-ce89-409c-b223-8fd8dbfe08c9","ios":"levelo://app?vid=c7b80cbc-ce89-409c-b223-8fd8dbfe08c9"},"vehicle_type_id":"4","last_reported":1676956041,"current_range_meters":0,"station_id":"ce4bhah2rcd13ifvqei0","pricing_plan_id":"free"},{"bike_id":"abcbecbb-b762-4988-86f0-1479137f2ffc","system_id":"levelo_inurba_marseille","lat":43.284594,"lon":5.358869,"is_reserved":false,"is_disabled":false,"rental_uris":{"android":"levelo://app?vid=abcbecbb-b762-4988-86f0-1479137f2ffc","ios":"levelo://app?vid=abcbecbb-b762-4988-86f0-1479137f2ffc"},"vehicle_type_id":"4","last_reported":1676956041,"current_range_meters":14400,"station_id":"ce4bhah2rcd13ifvqei0","pricing_plan_id":"free"},{"bike_id":"97b5a58b-ec12-497d-8628-e444d236278c","system_id":"levelo_inurba_marseille","lat":43.284572,"lon":5.358944,"is_reserved":false,"is_disabled":false,"rental_uris":{"android":"levelo://app?vid=97b5a58b-ec12-497d-8628-e444d236278c","ios":"levelo://app?vid=97b5a58b-ec12-497d-8628-e444d236278c"},"vehicle_type_id":"4","last_reported":1676956041,"current_range_meters":12000,"station_id":"","pricing_plan_id":"free"},{"bike_id":"a1a045f1-1a34-4151-978e-f317012ea1cf","system_id":"levelo_inurba_marseille","lat":43.284534,"lon":5.358662,"is_reserved":false,"is_disabled":false,"rental_uris":{"android":"levelo://app?vid=a1a045f1-1a34-4151-978e-f317012ea1cf","ios":"levelo://app?vid=a1a045f1-1a34-4151-978e-f317012ea1cf"},"vehicle_type_id":"4","last_reported":1676956041,"current_range_meters":2800,"station_id":"ce4bhah2rcd13ifvqei0","pricing_plan_id":"free"},{"bike_id":"af56310b-5fec-44c6-9e13-8135e99da67c","system_id":"levelo_inurba_marseille","lat":43.284571,"lon":5.358928,"is_reserved":false,"is_disabled":false,"rental_uris":{"android":"levelo://app?vid=af56310b-5fec-44c6-9e13-8135e99da67c","ios":"levelo://app?vid=af56310b-5fec-44c6-9e13-8135e99da67c"},"vehicle_type_id":"4","last_reported":1676956041,"current_range_meters":14000,"station_id":"ce4bhah2rcd13ifvqei0","pricing_plan_id":"free"},{"bike_id":"99446bbd-1330-4fda-a7c0-4d65a35b5829","system_id":"levelo_inurba_marseille","lat":43.284547,"lon":5.358863,"is_reserved":false,"is_disabled":false,"rental_uris":{"android":"levelo://app?vid=99446bbd-1330-4fda-a7c0-4d65a35b5829","ios":"levelo://app?vid=99446bbd-1330-4fda-a7c0-4d65a35b5829"},"vehicle_type_id":"4","last_reported":1676956041,"current_range_meters":16800,"station_id":"ce4bhah2rcd13ifvqei0","pricing_plan_id":"free"},{"bike_id":"7bcaaef7-05a7-40df-91b1-9b3caa8c1a29","system_id":"levelo_inurba_marseille","lat":43.284534,"lon":5.358662,"is_reserved":false,"is_disabled":false,"rental_uris":{"android":"levelo://app?vid=7bcaaef7-05a7-40df-91b1-9b3caa8c1a29","ios":"levelo://app?vid=7bcaaef7-05a7-40df-91b1-9b3caa8c1a29"},"vehicle_type_id":"4","last_reported":1676956041,"current_range_meters":17600,"station_id":"ce4bhah2rcd13ifvqei0","pricing_plan_id":"free"},{"bike_id":"24af8c49-6907-4bcc-8a51-90891ca23e96","system_id":"levelo_inurba_marseille","lat":43.284534,"lon":5.358662,"is_reserved":false,"is_disabled":false,"rental_uris":{"android":"levelo://app?vid=24af8c49-6907-4bcc-8a51-90891ca23e96","ios":"levelo://app?vid=24af8c49-6907-4bcc-8a51-90891ca23e96"},"vehicle_type_id":"4","last_reported":1676956041,"current_range_meters":10800,"station_id":"ce4bhah2rcd13ifvqei0","pricing_plan_id":"free"},{"bike_id":"5459b691-8c10-4cd3-a73f-9bd7bdff01ac","system_id":"levelo_inurba_marseille","lat":43.295713,"lon":5.399639,"is_reserved":false,"is_disabled":false,"rental_uris":{"android":"levelo://app?vid=5459b691-8c10-4cd3-a73f-9bd7bdff01ac","ios":"levelo://app?vid=5459b691-8c10-4cd3-a73f-9bd7bdff01ac"},"vehicle_type_id":"4","last_reported":1676956041,"current_range_meters":12000,"station_id":"ce4bh312rcd13ifvqdj0","pricing_plan_id":"free"},{"bike_id":"209cb6af-fe09-4655-b791-161840fc31a8","system_id":"levelo_inurba_marseille","lat":43.295713,"lon":5.399639,"is_reserved":false,"is_disabled":false,"rental_uris":{"android":"levelo://app?vid=209cb6af-fe09-4655-b791-161840fc31a8","ios":"levelo://app?vid=209cb6af-fe09-4655-b791-161840fc31a8"},"vehicle_type_id":"4","last_reported":1676956041,"current_range_meters":22800,"station_id":"ce4bh312rcd13ifvqdj0","pricing_plan_id":"free"},{"bike_id":"b071504a-a2a4-4f17-92e2-3d65a6fdcab7","system_id":"levelo_inurba_marseille","lat":43.296248,"lon":5.400348,"is_reserved":false,"is_disabled":false,"rental_uris":{"android":"levelo://app?vid=b071504a-a2a4-4f17-92e2-3d65a6fdcab7","ios":"levelo://app?vid=b071504a-a2a4-4f17-92e2-3d65a6fdcab7"},"vehicle_type_id":"4","last_reported":1676956041,"current_range_meters":0,"station_id":"","pricing_plan_id":"free"},{"bike_id":"b39d1f94-2a60-4c4e-95a1-c41cb2466249","system_id":"levelo_inurba_marseille","lat":43.286847,"lon":5.386479,"is_reserved":false,"is_disabled":false,"rental_uris":{"android":"levelo://app?vid=b39d1f94-2a60-4c4e-95a1-c41cb2466249","ios":"levelo://app?vid=b39d1f94-2a60-4c4e-95a1-c41cb2466249"},"vehicle_type_id":"4","last_reported":1676956041,"current_range_meters":800,"station_id":"","pricing_plan_id":"free"},{"bike_id":"7f05bf01-9d25-438d-9ac8-cf6f4b581712","system_id":"levelo_inurba_marseille","lat":43.286858,"lon":5.386632,"is_reserved":false,"is_disabled":false,"rental_uris":{"android":"levelo://app?vid=7f05bf01-9d25-438d-9ac8-cf6f4b581712","ios":"levelo://app?vid=7f05bf01-9d25-438d-9ac8-cf6f4b581712"},"vehicle_type_id":"4","last_reported":1676956041,"current_range_meters":24800,"station_id":"","pricing_plan_id":"free"},{"bike_id":"d02eead8-997c-473d-bc12-9319cc45ac2a","system_id":"levelo_inurba_marseille","lat":43.28682,"lon":5.38659,"is_reserved":false,"is_disabled":false,"rental_uris":{"android":"levelo://app?vid=d02eead8-997c-473d-bc12-9319cc45ac2a","ios":"levelo://app?vid=d02eead8-997c-473d-bc12-9319cc45ac2a"},"vehicle_type_id":"4","last_reported":1676956041,"current_range_meters":4000,"station_id":"ce4bh492rcd13ifvqdug","pricing_plan_id":"free"},{"bike_id":"24d197c3-b6dc-4851-999a-bb7e283608b2","system_id":"levelo_inurba_marseille","lat":43.286595,"lon":5.386795,"is_reserved":false,"is_disabled":false,"rental_uris":{"android":"levelo://app?vid=24d197c3-b6dc-4851-999a-bb7e283608b2","ios":"levelo://app?vid=24d197c3-b6dc-4851-999a-bb7e283608b2"},"vehicle_type_id":"4","last_reported":1676956041,"current_range_meters":11200,"station_id":"ce4bh492rcd13ifvqdug","pricing_plan_id":"free"},{"bike_id":"e7cb7af6-e8a9-47b3-bddd-e287e3e3dfce","system_id":"levelo_inurba_marseille","lat":43.286595,"lon":5.386795,"is_reserved":false,"is_disabled":false,"rental_uris":{"android":"levelo://app?vid=e7cb7af6-e8a9-47b3-bddd-e287e3e3dfce","ios":"levelo://app?vid=e7cb7af6-e8a9-47b3-bddd-e287e3e3dfce"},"vehicle_type_id":"4","last_reported":1676956041,"current_range_meters":22400,"station_id":"ce4bh492rcd13ifvqdug","pricing_plan_id":"free"},{"bike_id":"01ac8ed5-b1d8-4e1d-a2d5-63a1823b73aa","system_id":"levelo_inurba_marseille","lat":43.286795,"lon":5.386674,"is_reserved":false,"is_disabled":false,"rental_uris":{"android":"levelo://app?vid=01ac8ed5-b1d8-4e1d-a2d5-63a1823b73aa","ios":"levelo://app?vid=01ac8ed5-b1d8-4e1d-a2d5-63a1823b73aa"},"vehicle_type_id":"4","last_reported":1676956041,"current_range_meters":18800,"station_id":"ce4bh492rcd13ifvqdug","pricing_plan_id":"free"},{"bike_id":"466237a7-66a4-4a97-9c7e-d0ce0c8c2883","system_id":"levelo_inurba_marseille","lat":43.286794,"lon":5.386675,"is_reserved":false,"is_disabled":false,"rental_uris":{"android":"levelo://app?vid=466237a7-66a4-4a97-9c7e-d0ce0c8c2883","ios":"levelo://app?vid=466237a7-66a4-4a97-9c7e-d0ce0c8c2883"},"vehicle_type_id":"4","last_reported":1676956041,"current_range_meters":26000,"station_id":"ce4bh492rcd13ifvqdug","pricing_plan_id":"free"},{"bike_id":"99f36343-1428-4557-bc87-d993bd775de1","system_id":"levelo_inurba_marseille","lat":43.286595,"lon":5.386795,"is_reserved":false,"is_disabled":false,"rental_uris":{"android":"levelo://app?vid=99f36343-1428-4557-bc87-d993bd775de1","ios":"levelo://app?vid=99f36343-1428-4557-bc87-d993bd775de1"},"vehicle_type_id":"4","last_reported":1676956041,"current_range_meters":9200,"station_id":"ce4bh492rcd13ifvqdug","pricing_plan_id":"free"},{"bike_id":"035c051b-0a17-45fd-ba6a-c5dc1e86e9c0","system_id":"levelo_inurba_marseille","lat":43.286771,"lon":5.386724,"is_reserved":false,"is_disabled":false,"rental_uris":{"android":"levelo://app?vid=035c051b-0a17-45fd-ba6a-c5dc1e86e9c0","ios":"levelo://app?vid=035c051b-0a17-45fd-ba6a-c5dc1e86e9c0"},"vehicle_type_id":"4","last_reported":1676956041,"current_range_meters":6000,"station_id":"ce4bh492rcd13ifvqdug","pricing_plan_id":"free"},{"bike_id":"981cfbf9-12c8-4ca3-a080-ac76ab5f2d12","system_id":"levelo_inurba_marseille","lat":43.337168,"lon":5.391825,"is_reserved":false,"is_disabled":false,"rental_uris":{"android":"levelo://app?vid=981cfbf9-12c8-4ca3-a080-ac76ab5f2d12","ios":"levelo://app?vid=981cfbf9-12c8-4ca3-a080-ac76ab5f2d12"},"vehicle_type_id":"4","last_reported":1676956041,"current_range_meters":22800,"station_id":"ce4bhr92rcd13ifvqhsg","pricing_plan_id":"free"},{"bike_id":"9c103246-3f85-4be0-afdb-8eae2d89c481","system_id":"levelo_inurba_marseille","lat":43.337233,"lon":5.391813,"is_reserved":false,"is_disabled":false,"rental_uris":{"android":"levelo://app?vid=9c103246-3f85-4be0-afdb-8eae2d89c481","ios":"levelo://app?vid=9c103246-3f85-4be0-afdb-8eae2d89c481"},"vehicle_type_id":"4","last_reported":1676956041,"current_range_meters":15200,"station_id":"","pricing_plan_id":"free"},{"bike_id":"2377c0b4-c8a1-4b1f-b18b-68525abc404e","system_id":"levelo_inurba_marseille","lat":43.323412,"lon":5.40615,"is_reserved":false,"is_disabled":false,"rental_uris":{"android":"levelo://app?vid=2377c0b4-c8a1-4b1f-b18b-68525abc404e","ios":"levelo://app?vid=2377c0b4-c8a1-4b1f-b18b-68525abc404e"},"vehicle_type_id":"4","last_reported":1676956041,"current_range_meters":9600,"station_id":"ce4bhq92rcd13ifvqhjg","pricing_plan_id":"free"},{"bike_id":"d59b9e63-fea9-49ac-90ce-7c4a1d4104ff","system_id":"levelo_inurba_marseille","lat":43.323367,"lon":5.406177,"is_reserved":false,"is_disabled":false,"rental_uris":{"android":"levelo://app?vid=d59b9e63-fea9-49ac-90ce-7c4a1d4104ff","ios":"levelo://app?vid=d59b9e63-fea9-49ac-90ce-7c4a1d4104ff"},"vehicle_type_id":"4","last_reported":1676956041,"current_range_meters":3600,"station_id":"ce4bhq92rcd13ifvqhjg","pricing_plan_id":"free"},{"bike_id":"5aa74a7d-b0dc-4bcf-8db7-0dbc05feaa70","system_id":"levelo_inurba_marseille","lat":43.33725,"lon":5.39181,"is_reserved":false,"is_disabled":false,"rental_uris":{"android":"levelo://app?vid=5aa74a7d-b0dc-4bcf-8db7-0dbc05feaa70","ios":"levelo://app?vid=5aa74a7d-b0dc-4bcf-8db7-0dbc05feaa70"},"vehicle_type_id":"4","last_reported":1676956041,"current_range_meters":15600,"station_id":"ce4bhr92rcd13ifvqhsg","pricing_plan_id":"free"},{"bike_id":"5b23df89-6d8f-42d9-8b02-9cb60f555c95","system_id":"levelo_inurba_marseille","lat":43.337168,"lon":5.391825,"is_reserved":false,"is_disabled":false,"rental_uris":{"android":"levelo://app?vid=5b23df89-6d8f-42d9-8b02-9cb60f555c95","ios":"levelo://app?vid=5b23df89-6d8f-42d9-8b02-9cb60f555c95"},