{"last_updated":1752815858,"ttl":60,"version":"2.2","data":{"bikes":[{"bike_id":"53b742a7-31ae-4272-9bba-7740339e2a2f","system_id":"levelo_inurba_marseille","lat":43.33747,"lon":5.37463,"is_reserved":false,"is_disabled":false,"rental_uris":{"android":"levelo://app?vid=53b742a7-31ae-4272-9bba-7740339e2a2f","ios":"levelo://app?vid=53b742a7-31ae-4272-9bba-7740339e2a2f"},"vehicle_type_id":"1","last_reported":1752815858,"current_range_meters":21600,"station_id":"","pricing_plan_id":"cebpf4jnsgd1na2vs0mg"},{"bike_id":"b29b4439-b50e-4dd9-8839-d0b59179f1e7","system_id":"levelo_inurba_marseille","lat":43.26943,"lon":5.38654,"is_reserved":false,"is_disabled":true,"rental_uris":{"android":"levelo://app?vid=b29b4439-b50e-4dd9-8839-d0b59179f1e7","ios":"levelo://app?vid=b29b4439-b50e-4dd9-8839-d0b59179f1e7"},"vehicle_type_id":"4","last_reported":1752815858,"current_range_meters":2800,"station_id":"ce4bhh92rcd13ifvqfh0","pricing_plan_id":"cebpf4jnsgd1na2vs0mg"},{"bike_id":"72a07c68-59be-4361-81eb-06a641d67364","system_id":"levelo_inurba_marseille","lat":43.28711,"lon":5.39982,"is_reserved":false,"is_disabled":false,"rental_uris":{"android":"levelo://app?vid=72a07c68-59be-4361-81eb-06a641d67364","ios":"levelo://app?vid=72a07c68-59be-4361-81eb-06a641d67364"},"vehicle_type_id":"4","last_reported":1752815858,"current_range_meters":2800,"station_id":"ce4bho92rcd13ifvqh3g","pricing_plan_id":"cebpf4jnsgd1na2vs0mg"},{"bike_id":"9eb11d44-370d-464b-b78f-5461a3b04cc3","system_id":"levelo_inurba_marseille","lat":43.31082,"lon":5.38346,"is_reserved":false,"is_disabled":true,"rental_uris":{"android":"levelo://app?vid=9eb11d44-370d-464b-b78f-5461a3b04cc3","ios":"levelo://app?vid=9eb11d44-370d-464b-b78f-5461a3b04cc3"},"vehicle_type_id":"4","last_reported":1752815858,"current_range_meters":3600,"station_id":"ce4bgv92rcd13ifvqcr0","pricing_plan_id":"cebpf4jnsgd1na2vs0mg"},{"bike_id":"d7b66a69-6c98-4e2d-b675-1fae3aa944d5","system_id":"levelo_inurba_marseille","lat":43.301459,"lon":5.380758,"is_reserved":false,"is_disabled":false,"rental_uris":{"android":"levelo://app?vid=d7b66a69-6c98-4e2d-b675-1fae3aa944d5","ios":"levelo://app?vid=d7b66a69-6c98-4e2d-b675-1fae3aa944d5"},"vehicle_type_id":"4","last_reported":1752815858,"current_range_meters":4000,"station_id":"ce4bgjp2rcd13ifvqbh0","pricing_plan_id":"cebpf4jnsgd1na2vs0mg"},{"bike_id":"3051449b-679c-47d5-9495-432a16a18d79","system_id":"levelo_inurba_marseille","lat":43.28419,"lon":5.38474,"is_reserved":false,"is_disabled":false,"rental_uris":{"android":"levelo://app?vid=3051449b-679c-47d5-9495-432a16a18d79","ios":"levelo://app?vid=3051449b-679c-47d5-9495-432a16a18d79"},"vehicle_type_id":"4","last_reported":1752815858,"current_range_meters":4000,"station_id":"","pricing_plan_id":"cebpf4jnsgd1na2vs0mg"},{"bike_id":"cbb5315f-c89d-4216-bbe4-aa317c340e75","system_id":"levelo_inurba_marseille","lat":43.28599,"lon":5.3511,"is_reserved":false,"is_disabled":false,"rental_uris":{"android":"levelo://app?vid=cbb5315f-c89d-4216-bbe4-aa317c340e75","ios":"levelo://app?vid=cbb5315f-c89d-4216-bbe4-aa317c340e75"},"vehicle_type_id":"4","last_reported":1752815858,"current_range_meters":4000,"station_id":"ce4bhch2rcd13ifvqeug","pricing_plan_id":"cebpf4jnsgd1na2vs0mg"},{"bike_id":"9b983459-406f-4b32-ba08-0c5c5fc9d4ad","system_id":"levelo_inurba_marseille","lat":43.29572,"lon":5.387317,"is_reserved":false,"is_disabled":false,"rental_uris":{"android":"levelo://app?vid=9b983459-406f-4b32-ba08-0c5c5fc9d4ad","ios":"levelo://app?vid=9b983459-406f-4b32-ba08-0c5c5fc9d4ad"},"vehicle_type_id":"4","last_reported":1752815858,"current_range_meters":4400,"station_id":"","pricing_plan_id":"cebpf4jnsgd1na2vs0mg"},{"bike_id":"fda613f1-6e35-4013-9a50-57acf51f7ab0","system_id":"levelo_inurba_marseille","lat":43.317596,"lon":5.390115,"is_reserved":false,"is_disabled":false,"rental_uris":{"android":"levelo://app?vid=fda613f1-6e35-4013-9a50-57acf51f7ab0","ios":"levelo://app?vid=fda613f1-6e35-4013-9a50-57acf51f7ab0"},"vehicle_type_id":"4","last_reported":1752815858,"current_range_meters":4800,"station_id":"ce4bhqp2rcd13ifvqhng","pricing_plan_id":"cebpf4jnsgd1na2vs0mg"},{"bike_id":"292c6c89-c7f8-4da9-beff-c7501f46c646","system_id":"levelo_inurba_marseille","lat":43.302451,"lon":5.400507,"is_reserved":false,"is_disabled":false,"rental_uris":{"android":"levelo://app?vid=292c6c89-c7f8-4da9-beff-c7501f46c646","ios":"levelo://app?vid=292c6c89-c7f8-4da9-beff-c7501f46c646"},"vehicle_type_id":"4","last_reported":1752815858,"current_range_meters":5600,"station_id":"ce4bgvh2rcd13ifvqcs0","pricing_plan_id":"cebpf4jnsgd1na2vs0mg"},{"bike_id":"1beb9d84-0251-44ce-bff4-a10283a6b8c8","system_id":"levelo_inurba_marseille","lat":43.299,"lon":5.43649,"is_reserved":false,"is_disabled":false,"rental_uris":{"android":"levelo://app?vid=1beb9d84-0251-44ce-bff4-a10283a6b8c8","ios":"levelo://app?vid=1beb9d84-0251-44ce-bff4-a10283a6b8c8"},"vehicle_type_id":"4","last_reported":1752815858,"current_range_meters":5600,"station_id":"ce4bhpp2rcd13ifvqhfg","pricing_plan_id":"cebpf4jnsgd1na2vs0mg"},{"bike_id":"da581d50-8a7a-4fd1-b852-3e78907ad563","system_id":"levelo_inurba_marseille","lat":43.32469,"lon":5.40945,"is_reserved":false,"is_disabled":false,"rental_uris":{"android":"levelo://app?vid=da581d50-8a7a-4fd1-b852-3e78907ad563","ios":"levelo://app?vid=da581d50-8a7a-4fd1-b852-3e78907ad563"},"vehicle_type_id":"4","last_reported":1752815858,"current_range_meters":6000,"station_id":"","pricing_plan_id":"cebpf4jnsgd1na2vs0mg"},{"bike_id":"bc3a77fa-b25f-4304-b1ec-4828b80c5186","system_id":"levelo_inurba_marseille","lat":43.30653,"lon":5.40077,"is_reserved":false,"is_disabled":false,"rental_uris":{"android":"levelo://app?vid=bc3a77fa-b25f-4304-b1ec-4828b80c5186","ios":"levelo://app?vid=bc3a77fa-b25f-4304-b1ec-4828b80c5186"},"vehicle_type_id":"4","last_reported":1752815858,"current_range_meters":6000,"station_id":"ce4bh112rcd13ifvqda0","pricing_plan_id":"cebpf4jnsgd1na2vs0mg"},{"bike_id":"d623986c-dd17-438f-b4c2-e7aa7161013e","system_id":"levelo_inurba_marseille","lat":43.29638,"lon":5.40605,"is_reserved":false,"is_disabled":false,"rental_uris":{"android":"levelo://app?vid=d623986c-dd17-438f-b4c2-e7aa7161013e","ios":"levelo://app?vid=d623986c-dd17-438f-b4c2-e7aa7161013e"},"vehicle_type_id":"4","last_reported":1752815858,"current_range_meters":6400,"station_id":"ce4bh0h2rcd13ifvqd60","pricing_plan_id":"cebpf4jnsgd1na2vs0mg"},{"bike_id":"94b69e40-3760-41cd-8465-f1e4ad4bb7be","system_id":"levelo_inurba_marseille","lat":43.31495,"lon":5.36428,"is_reserved":false,"is_disabled":true,"rental_uris":{"android":"levelo://app?vid=94b69e40-3760-41cd-8465-f1e4ad4bb7be","ios":"levelo://app?vid=94b69e40-3760-41cd-8465-f1e4ad4bb7be"},"vehicle_type_id":"4","last_reported":1752815858,"current_range_meters":6800,"station_id":"","pricing_plan_id":"cebpf4jnsgd1na2vs0mg"},{"bike_id":"7e15bd0c-124a-4838-9659-201a01f3e407","system_id":"levelo_inurba_marseille","lat":43.28475,"lon":5.35862,"is_reserved":false,"is_disabled":true,"rental_uris":{"android":"levelo://app?vid=7e15bd0c-124a-4838-9659-201a01f3e407","ios":"levelo://app?vid=7e15bd0c-124a-4838-9659-201a01f3e407"},"vehicle_type_id":"4","last_reported":1752815858,"current_range_meters":6800,"station_id":"ce4bhah2rcd13ifvqei0","pricing_plan_id":"cebpf4jnsgd1na2vs0mg"},{"bike_id":"83b3c9b8-d66e-43ea-82d7-ef2eeaff7945","system_id":"levelo_inurba_marseille","lat":43.26781,"lon":5.39529,"is_reserved":false,"is_disabled":true,"rental_uris":{"android":"levelo://app?vid=83b3c9b8-d66e-43ea-82d7-ef2eeaff7945","ios":"levelo://app?vid=83b3c9b8-d66e-43ea-82d7-ef2eeaff7945"},"vehicle_type_id":"4","last_reported":1752815858,"current_range_meters":6800,"station_id":"ce4bhh12rcd13ifvqfg0","pricing_plan_id":"cebpf4jnsgd1na2vs0mg"},{"bike_id":"a4fd652b-34f8-4c68-a6e6-032a5cc5e418","system_id":"levelo_inurba_marseille","lat":43.31109,"lon":5.37026,"is_reserved":false,"is_disabled":true,"rental_uris":{"android":"levelo://app?vid=a4fd652b-34f8-4c68-a6e6-032a5cc5e418","ios":"levelo://app?vid=a4fd652b-34f8-4c68-a6e6-032a5cc5e418"},"vehicle_type_id":"4","last_reported":1752815858,"current_range_meters":7200,"station_id":"","pricing_plan_id":"cebpf4jnsgd1na2vs0mg"},{"bike_id":"01c68279-3f24-4460-940a-0ec99f4e4b9d","system_id":"levelo_inurba_marseille","lat":43.29982,"lon":5.38516,"is_reserved":false,"is_disabled":false,"rental_uris":{"android":"levelo://app?vid=01c68279-3f24-4460-940a-0ec99f4e4b9d","ios":"levelo://app?vid=01c68279-3f24-4460-940a-0ec99f4e4b9d"},"vehicle_type_id":"4","last_reported":1752815858,"current_range_meters":7200,"station_id":"ce4bgj92rcd13ifvqbd0","pricing_plan_id":"cebpf4jnsgd1na2vs0mg"},{"bike_id":"99731028-82d6-4e1b-90d4-958b19820d22","system_id":"levelo_inurba_marseille","lat":43.30476,"lon":5.37905,"is_reserved":false,"is_disabled":false,"rental_uris":{"android":"levelo://app?vid=99731028-82d6-4e1b-90d4-958b19820d22","ios":"levelo://app?vid=99731028-82d6-4e1b-90d4-958b19820d22"},"vehicle_type_id":"4","last_reported":1752815858,"current_range_meters":7200,"station_id":"ce4bgup2rcd13ifvqcn0","pricing_plan_id":"cebpf4jnsgd1na2vs0mg"},{"bike_id":"09c5b9c5-b5f7-40b8-b50b-8886dbc6f8de","system_id":"levelo_inurba_marseille","lat":43.25116,"lon":5.40331,"is_reserved":false,"is_disabled":true,"rental_uris":{"android":"levelo://app?vid=09c5b9c5-b5f7-40b8-b50b-8886dbc6f8de","ios":"levelo://app?vid=09c5b9c5-b5f7-40b8-b50b-8886dbc6f8de"},"vehicle_type_id":"4","last_reported":1752815858,"current_range_meters":7200,"station_id":"ce4bhlh2rcd13ifvqgig","pricing_plan_id":"cebpf4jnsgd1na2vs0mg"},{"bike_id":"f1a7f3b0-3bad-4ded-bc92-3fb1685f68ed","system_id":"levelo_inurba_marseille","lat":43.2965,"lon":5.37665,"is_reserved":false,"is_disabled":true,"rental_uris":{"android":"levelo://app?vid=f1a7f3b0-3bad-4ded-bc92-3fb1685f68ed","ios":"levelo://app?vid=f1a7f3b0-3bad-4ded-bc92-3fb1685f68ed"},"vehicle_type_id":"4","last_reported":1752815858,"current_range_meters":8000,"station_id":"ce4bgi92rcd13ifvqb90","pricing_plan_id":"cebpf4jnsgd1na2vs0mg"},{"bike_id":"a8828ca8-fdac-48cd-8e10-9e410175fdf5","system_id":"levelo_inurba_marseille","lat":43.28415,"lon":5.3758,"is_reserved":false,"is_disabled":false,"rental_uris":{"android":"levelo://app?vid=a8828ca8-fdac-48cd-8e10-9e410175fdf5","ios":"levelo://app?vid=a8828ca8-fdac-48cd-8e10-9e410175fdf5"},"vehicle_type_id":"4","last_reported":1752815858,"current_range_meters":8000,"station_id":"","pricing_plan_id":"cebpf4jnsgd1na2vs0mg"},{"bike_id":"77b38b76-983d-4937-a568-8c6878a4d23b","system_id":"levelo_inurba_marseille","lat":43.287038,"lon":5.399864,"is_reserved":false,"is_disabled":false,"rental_uris":{"android":"levelo://app?vid=77b38b76-983d-4937-a568-8c6878a4d23b","ios":"levelo://app?vid=77b38b76-983d-4937-a568-8c6878a4d23b"},"vehicle_type_id":"4","last_reported":1752815858,"current_range_meters":8400,"station_id":"ce4bho92rcd13ifvqh3g","pricing_plan_id":"cebpf4jnsgd1na2vs0mg"},{"bike_id":"a002e94e-c901-4f22-986a-6c372fdd7ab7","system_id":"levelo_inurba_marseille","lat":43.30474,"lon":5.37896,"is_reserved":false,"is_disabled":false,"rental_uris":{"android":"levelo://app?vid=a002e94e-c901-4f22-986a-6c372fdd7ab7","ios":"levelo://app?vid=a002e94e-c901-4f22-986a-6c372fdd7ab7"},"vehicle_type_id":"4","last_reported":1752815858,"current_range_meters":8400,"station_id":"ce4bgup2rcd13ifvqcn0","pricing_plan_id":"cebpf4jnsgd1na2vs0mg"},{"bike_id":"38b6737c-9670-4c35-bc0b-14976925247b","system_id":"levelo_inurba_marseille","lat":43.29884,"lon":5.39728,"is_reserved":false,"is_disabled":false,"rental_uris":{"android":"levelo://app?vid=38b6737c-9670-4c35-bc0b-14976925247b","ios":"levelo://app?vid=38b6737c-9670-4c35-bc0b-14976925247b"},"vehicle_type_id":"4","last_reported":1752815858,"current_range_meters":8400,"station_id":"ce4bh0h2rcd13ifvqd50","pricing_plan_id":"cebpf4jnsgd1na2vs0mg"},{"bike_id":"284e77d9-ff07-46f1-8f76-ffd17c0d0ea3","system_id":"levelo_inurba_marseille","lat":43.286716,"lon":5.363384,"is_reserved":false,"is_disabled":false,"rental_uris":{"android":"levelo://app?vid=284e77d9-ff07-46f1-8f76-ffd17c0d0ea3","ios":"levelo://app?vid=284e77d9-ff07-46f1-8f76-ffd17c0d0ea3"},"vehicle_type_id":"4","last_reported":1752815858,"current_range_meters":8400,"station_id":"ce4bhah2rcd13ifvqej0","pricing_plan_id":"cebpf4jnsgd1na2vs0mg"},{"bike_id":"492a419e-7fc3-43b7-b688-aee4d064f5a3","system_id":"levelo_inurba_marseille","lat":43.293113,"lon":5.371844,"is_reserved":false,"is_disabled":true,"rental_uris":{"android":"levelo://app?vid=492a419e-7fc3-43b7-b688-aee4d064f5a3","ios":"levelo://app?vid=492a419e-7fc3-43b7-b688-aee4d064f5a3"},"vehicle_type_id":"4","last_reported":1752815858,"current_range_meters":8400,"station_id":"ce4bgh92rcd13ifvqb40","pricing_plan_id":"cebpf4jnsgd1na2vs0mg"},{"bike_id":"4fcbc793-825f-4081-95c8-77b7c6037c8e","system_id":"levelo_inurba_marseille","lat":43.30309,"lon":5.40444,"is_reserved":false,"is_disabled":false,"rental_uris":{"android":"levelo://app?vid=4fcbc793-825f-4081-95c8-77b7c6037c8e","ios":"levelo://app?vid=4fcbc793-825f-4081-95c8-77b7c6037c8e"},"vehicle_type_id":"4","last_reported":1752815858,"current_range_meters":8400,"station_id":"ce4bh012rcd13ifvqd10","pricing_plan_id":"cebpf4jnsgd1na2vs0mg"},{"bike_id":"81f88721-00d0-431c-83bf-446e11578408","system_id":"levelo_inurba_marseille","lat":43.225044,"lon":5.347758,"is_reserved":false,"is_disabled":false,"rental_uris":{"android":"levelo://app?vid=81f88721-00d0-431c-83bf-446e11578408","ios":"levelo://app?vid=81f88721-00d0-431c-83bf-446e11578408"},"vehicle_type_id":"4","last_reported":1752815858,"current_range_meters":8400,"station_id":"st_cvj5dfep6f1abm77gieg","pricing_plan_id":"cebpf4jnsgd1na2vs0mg"},{"bike_id":"4d45f1e9-194f-47b9-b021-5eab9e1c0b12","system_id":"levelo_inurba_marseille","lat":43.312471,"lon":5.368556,"is_reserved":false,"is_disabled":true,"rental_uris":{"android":"levelo://app?vid=4d45f1e9-194f-47b9-b021-5eab9e1c0b12","ios":"levelo://app?vid=4d45f1e9-194f-47b9-b021-5eab9e1c0b12"},"vehicle_type_id":"4","last_reported":1752815858,"current_range_meters":8800,"station_id":"ce4bgl92rcd13ifvqbq0","pricing_plan_id":"cebpf4jnsgd1na2vs0mg"},{"bike_id":"0b4aeec2-26f8-4cc4-b7a9-87e25034d77d","system_id":"levelo_inurba_marseille","lat":43.30386,"lon":5.42479,"is_reserved":false,"is_disabled":true,"rental_uris":{"android":"levelo://app?vid=0b4aeec2-26f8-4cc4-b7a9-87e25034d77d","ios":"levelo://app?vid=0b4aeec2-26f8-4cc4-b7a9-87e25034d77d"},"vehicle_type_id":"4","last_reported":1752815858,"current_range_meters":8800,"station_id":"ce4bhoh2rcd13ifvqh6g","pricing_plan_id":"cebpf4jnsgd1na2vs0mg"},{"bike_id":"9a6f95cc-03ff-4bf2-90a5-8e63c80dfcbd","system_id":"levelo_inurba_marseille","lat":43.284415,"lon":5.391847,"is_reserved":false,"is_disabled":false,"rental_uris":{"android":"levelo://app?vid=9a6f95cc-03ff-4bf2-90a5-8e63c80dfcbd","ios":"levelo://app?vid=9a6f95cc-03ff-4bf2-90a5-8e63c80dfcbd"},"vehicle_type_id":"4","last_reported":1752815858,"current_range_meters":8800,"station_id":"ce4bhoh2rcd13ifvqh5g","pricing_plan_id":"cebpf4jnsgd1na2vs0mg"},{"bike_id":"90f54ea4-e306-4792-9966-1cc1bc24176c","system_id":"levelo_inurba_marseille","lat":43.264956,"lon":5.395506,"is_reserved":false,"is_disabled":true,"rental_uris":{"android":"levelo://app?vid=90f54ea4-e306-4792-9966-1cc1bc24176c","ios":"levelo://app?vid=90f54ea4-e306-4792-9966-1cc1bc24176c"},"vehicle_type_id":"4","last_reported":1752815858,"current_range_meters":8800,"station_id":"ce4bhi12rcd13ifvqfq0","pricing_plan_id":"cebpf4jnsgd1na2vs0mg"},{"bike_id":"f917674a-db6e-41d3-a9b6-f8499e0e194f","system_id":"levelo_inurba_marseille","lat":43.292486,"lon":5.384341,"is_reserved":false,"is_disabled":true,"rental_uris":{"android":"levelo://app?vid=f917674a-db6e-41d3-a9b6-f8499e0e194f","ios":"levelo://app?vid=f917674a-db6e-41d3-a9b6-f8499e0e194f"},"vehicle_type_id":"4","last_reported":1752815858,"current_range_meters":9200,"station_id":"ce4bh692rcd13ifvqea0","pricing_plan_id":"cebpf4jnsgd1na2vs0mg"},{"bike_id":"8e6e1ca6-9684-4865-bcc2-4f4c40c74eff","system_id":"levelo_inurba_marseille","lat":43.29665,"lon":5.38758,"is_reserved":false,"is_disabled":false,"rental_uris":{"android":"levelo://app?vid=8e6e1ca6-9684-4865-bcc2-4f4c40c74eff","ios":"levelo://app?vid=8e6e1ca6-9684-4865-bcc2-4f4c40c74eff"},"vehicle_type_id":"4","last_reported":1752815858,"current_range_meters":9200,"station_id":"","pricing_plan_id":"cebpf4jnsgd1na2vs0mg"},{"bike_id":"555bc53e-5286-4fb6-9154-af42b3fd9792","system_id":"levelo_inurba_marseille","lat":43.30081,"lon":5.37286,"is_reserved":false,"is_disabled":false,"rental_uris":{"android":"levelo://app?vid=555bc53e-5286-4fb6-9154-af42b3fd9792","ios":"levelo://app?vid=555bc53e-5286-4fb6-9154-af42b3fd9792"},"vehicle_type_id":"4","last_reported":1752815858,"current_range_meters":9200,"station_id":"","pricing_plan_id":"cebpf4jnsgd1na2vs0mg"},{"bike_id":"f14c1941-7787-425c-8a0a-cc7496c6fdd9","system_id":"levelo_inurba_marseille","lat":43.31359,"lon":5.3671,"is_reserved":false,"is_disabled":false,"rental_uris":{"android":"levelo://app?vid=f14c1941-7787-425c-8a0a-cc7496c6fdd9","ios":"levelo://app?vid=f14c1941-7787-425c-8a0a-cc7496c6fdd9"},"vehicle_type_id":"4","last_reported":1752815858,"current_range_meters":9600,"station_id":"ce4bgr92rcd13ifvqc6g","pricing_plan_id":"cebpf4jnsgd1na2vs0mg"},{"bike_id":"b2a298e9-19e9-4d30-9a09-a4722cdf6a7b","system_id":"levelo_inurba_marseille","lat":43.21204,"lon":5.35081,"is_reserved":false,"is_disabled":false,"rental_uris":{"android":"levelo://app?vid=b2a298e9-19e9-4d30-9a09-a4722cdf6a7b","ios":"levelo://app?vid=b2a298e9-19e9-4d30-9a09-a4722cdf6a7b"},"vehicle_type_id":"4","last_reported":1752815858,"current_range_meters":9600,"station_id":"st_cvj6sg6p6f1abm77japg","pricing_plan_id":"cebpf4jnsgd1na2vs0mg"},{"bike_id":"04d15a50-cb94-495c-969c-c09473f1fcda","system_id":"levelo_inurba_marseille","lat":43.296223,"lon":5.377025,"is_reserved":false,"is_disabled":false,"rental_uris":{"android":"levelo://app?vid=04d15a50-cb94-495c-969c-c09473f1fcda","ios":"levelo://app?vid=04d15a50-cb94-495c-969c-c09473f1fcda"},"vehicle_type_id":"4","last_reported":1752815858,"current_range_meters":9600,"station_id":"","pricing_plan_id":"cebpf4jnsgd1na2vs0mg"},{"bike_id":"28d27c17-e6ca-4cec-aec9-f1f6696b8a12","system_id":"levelo_inurba_marseille","lat":43.29901,"lon":5.43676,"is_reserved":false,"is_disabled":true,"rental_uris":{"android":"levelo://app?vid=28d27c17-e6ca-4cec-aec9-f1f6696b8a12","ios":"levelo://app?vid=28d27c17-e6ca-4cec-aec9-f1f6696b8a12"},"vehicle_type_id":"4","last_reported":1752815858,"current_range_meters":9600,"station_id":"ce4bhpp2rcd13ifvqhfg","pricing_plan_id":"cebpf4jnsgd1na2vs0mg"},{"bike_id":"f60ad352-b67b-45ab-b596-432efa0c9111","system_id":"levelo_inurba_marseille","lat":43.27072,"lon":5.42255,"is_reserved":false,"is_disabled":true,"rental_uris":{"android":"levelo://app?vid=f60ad352-b67b-45ab-b596-432efa0c9111","ios":"levelo://app?vid=f60ad352-b67b-45ab-b596-432efa0c9111"},"vehicle_type_id":"4","last_reported":1752815858,"current_range_meters":9600,"station_id":"ce4bhk92rcd13ifvqgb0","pricing_plan_id":"cebpf4jnsgd1na2vs0mg"},{"bike_id":"4aff3131-c2f0-49aa-9f71-6988eb132719","system_id":"levelo_inurba_marseille","lat":43.29443,"lon":5.38607,"is_reserved":false,"is_disabled":true,"rental_uris":{"android":"levelo://app?vid=4aff3131-c2f0-49aa-9f71-6988eb132719","ios":"levelo://app?vid=4aff3131-c2f0-49aa-9f71-6988eb132719"},"vehicle_type_id":"4","last_reported":1752815858,"current_range_meters":10000,"station_id":"ce4bh2h2rcd13ifvqdh0","pricing_plan_id":"cebpf4jnsgd1na2vs0mg"},{"bike_id":"3444bdc6-514a-4ba6-9650-f9073305e33d","system_id":"levelo_inurba_marseille","lat":43.29682,"lon":5.3698,"is_reserved":false,"is_disabled":false,"rental_uris":{"android":"levelo://app?vid=3444bdc6-514a-4ba6-9650-f9073305e33d","ios":"levelo://app?vid=3444bdc6-514a-4ba6-9650-f9073305e33d"},"vehicle_type_id":"4","last_reported":1752815858,"current_range_meters":10000,"station_id":"","pricing_plan_id":"cebpf4jnsgd1na2vs0mg"},{"bike_id":"2d789971-b5c1-40c6-a126-5395b51c4522","system_id":"levelo_inurba_marseille","lat":43.290353,"lon":5.375561,"is_reserved":false,"is_disabled":true,"rental_uris":{"android":"levelo://app?vid=2d789971-b5c1-40c6-a126-5395b51c4522","ios":"levelo://app?vid=2d789971-b5c1-40c6-a126-5395b51c4522"},"vehicle_type_id":"4","last_reported":1752815858,"current_range_meters":10000,"station_id":"ce4bh692rcd13ifvqe90","pricing_plan_id":"cebpf4jnsgd1na2vs0mg"},{"bike_id":"139acd6c-d496-466b-a201-601abf871911","system_id":"levelo_inurba_marseille","lat":43.28564,"lon":5.39508,"is_reserved":false,"is_disabled":false,"rental_uris":{"android":"levelo://app?vid=139acd6c-d496-466b-a201-601abf871911","ios":"levelo://app?vid=139acd6c-d496-466b-a201-601abf871911"},"vehicle_type_id":"4","last_reported":1752815858,"current_range_meters":10000,"station_id":"ce4bh292rcd13ifvqdg0","pricing_plan_id":"cebpf4jnsgd1na2vs0mg"},{"bike_id":"1a4f27e2-c3ba-4654-8a15-e29bfda37275","system_id":"levelo_inurba_marseille","lat":43.270718,"lon":5.422719,"is_reserved":false,"is_disabled":false,"rental_uris":{"android":"levelo://app?vid=1a4f27e2-c3ba-4654-8a15-e29bfda37275","ios":"levelo://app?vid=1a4f27e2-c3ba-4654-8a15-e29bfda37275"},"vehicle_type_id":"4","last_reported":1752815858,"current_range_meters":10000,"station_id":"ce4bhk92rcd13ifvqgb0","pricing_plan_id":"cebpf4jnsgd1na2vs0mg"},{"bike_id":"9ff813f5-7ffe-477a-a652-434a34f03c1a","system_id":"levelo_inurba_marseille","lat":43.29257,"lon":5.384332,"is_reserved":false,"is_disabled":true,"rental_uris":{"android":"levelo://app?vid=9ff813f5-7ffe-477a-a652-434a34f03c1a","ios":"levelo://app?vid=9ff813f5-7ffe-477a-a652-434a34f03c1a"},"vehicle_type_id":"4","last_reported":1752815858,"current_range_meters":10000,"station_id":"ce4bh692rcd13ifvqea0","pricing_plan_id":"cebpf4jnsgd1na2vs0mg"},{"bike_id":"57239988-9161-49ce-a0a2-4581baf1b159","system_id":"levelo_inurba_marseille","lat":43.337809,"lon":5.374411,"is_reserved":false,"is_disabled":false,"rental_uris":{"android":"levelo://app?vid=57239988-9161-49ce-a0a2-4581baf1b159","ios":"levelo://app?vid=57239988-9161-49ce-a0a2-4581baf1b159"},"vehicle_type_id":"4","last_reported":1752815858,"current_range_meters":10000,"station_id":"","pricing_plan_id":"cebpf4jnsgd1na2vs0mg"},{"bike_id":"07f5ae19-0925-43ef-aab4-48ec58bc62b9","system_id":"levelo_inurba_marseille","lat":43.31447,"lon":5.3744,"is_reserved":false,"is_disabled":false,"rental_uris":{"android":"levelo://app?vid=07f5ae19-0925-43ef-aab4-48ec58bc62b9","ios":"levelo://app?vid=07f5ae19-0925-43ef-aab4-48ec58bc62b9"},"vehicle_type_id":"4","last_reported":1752815858,"current_range_meters":10000,"station_id":"","pricing_plan_id":"cebpf4jnsgd1na2vs0mg"},{"bike_id":"d1e94785-07c9-4567-977b-a1d086ccac8d","system_id":"levelo_inurba_marseille","lat":43.298992,"lon":5.436769,"is_reserved":false,"is_disabled":false,"rental_uris":{"android":"levelo://app?vid=d1e94785-07c9-4567-977b-a1d086ccac8d","ios":"levelo://app?vid=d1e94785-07c9-4567-977b-a1d086ccac8d"},"vehicle_type_id":"4","last_reported":1752815858,"current_range_meters":10800,"station_id":"ce4bhpp2rcd13ifvqhfg","pricing_plan_id":"cebpf4jnsgd1na2vs0mg"},{"bike_id":"57c10aef-3375-4a77-9864-0c2a1301425c","system_id":"levelo_inurba_marseille","lat":43.26223,"lon":5.404581,"is_reserved":false,"is_disabled":false,"rental_uris":{"android":"levelo://app?vid=57c10aef-3375-4a77-9864-0c2a1301425c","ios":"levelo://app?vid=57c10aef-3375-4a77-9864-0c2a1301425c"},"vehicle_type_id":"4","last_reported":1752815858,"current_range_meters":10800,"station_id":"ce4bhmh2rcd13ifvqgmg","pricing_plan_id":"cebpf4jnsgd1na2vs0mg"},{"bike_id":"c8ba7c1f-49fa-4cf4-9d36-d90213a277e0","system_id":"levelo_inurba_marseille","lat":43.24083,"lon":5.37743,"is_reserved":false,"is_disabled":false,"rental_uris":{"android":"levelo://app?vid=c8ba7c1f-49fa-4cf4-9d36-d90213a277e0","ios":"levelo://app?vid=c8ba7c1f-49fa-4cf4-9d36-d90213a277e0"},"vehicle_type_id":"4","last_reported":1752815858,"current_range_meters":10800,"station_id":"ce4bhnp2rcd13ifvqgvg","pricing_plan_id":"cebpf4jnsgd1na2vs0mg"},{"bike_id":"fd82ca6c-71b1-4cdd-804d-14091e652fe0","system_id":"levelo_inurba_marseille","lat":43.31336,"lon":5.36707,"is_reserved":false,"is_disabled":false,"rental_uris":{"android":"levelo://app?vid=fd82ca6c-71b1-4cdd-804d-14091e652fe0","ios":"levelo://app?vid=fd82ca6c-71b1-4cdd-804d-14091e652fe0"},"vehicle_type_id":"4","last_reported":1752815858,"current_range_meters":10800,"station_id":"ce4bgr92rcd13ifvqc6g","pricing_plan_id":"cebpf4jnsgd1na2vs0mg"},{"bike_id":"3e2535f8-7d7e-418e-8d9a-1404dd8a8196","system_id":"levelo_inurba_marseille","lat":43.29321,"lon":5.37181,"is_reserved":false,"is_disabled":true,"rental_uris":{"android":"levelo://app?vid=3e2535f8-7d7e-418e-8d9a-1404dd8a8196","ios":"levelo://app?vid=3e2535f8-7d7e-418e-8d9a-1404dd8a8196"},"vehicle_type_id":"4","last_reported":1752815858,"current_range_meters":10800,"station_id":"ce4bgh92rcd13ifvqb40","pricing_plan_id":"cebpf4jnsgd1na2vs0mg"},{"bike_id":"46ba418d-29e7-40ac-845a-614c86e866b4","system_id":"levelo_inurba_marseille","lat":43.31235,"lon":5.36865,"is_reserved":false,"is_disabled":false,"rental_uris":{"android":"levelo://app?vid=46ba418d-29e7-40ac-845a-614c86e866b4","ios":"levelo://app?vid=46ba418d-29e7-40ac-845a-614c86e866b4"},"vehicle_type_id":"4","last_reported":1752815858,"current_range_meters":10800,"station_id":"ce4bgl92rcd13ifvqbq0","pricing_plan_id":"cebpf4jnsgd1na2vs0mg"},{"bike_id":"78274e74-ab73-4fa7-b1a3-d1a684863996","system_id":"levelo_inurba_marseille","lat":43.22518,"lon":5.34747,"is_reserved":false,"is_disabled":false,"rental_uris":{"android":"levelo://app?vid=78274e74-ab73-4fa7-b1a3-d1a684863996","ios":"levelo://app?vid=78274e74-ab73-4fa7-b1a3-d1a684863996"},"vehicle_type_id":"4","last_reported":1752815858,"current_range_meters":10800,"station_id":"st_cvj5dfep6f1abm77gieg","pricing_plan_id":"cebpf4jnsgd1na2vs0mg"},{"bike_id":"fffad06e-bed8-4e73-ab4a-c4c2e82208b9","system_id":"levelo_inurba_marseille","lat":43.241694,"lon":5.363924,"is_reserved":false,"is_disabled":false,"rental_uris":{"android":"levelo://app?vid=fffad06e-bed8-4e73-ab4a-c4c2e82208b9","ios":"levelo://app?vid=fffad06e-bed8-4e73-ab4a-c4c2e82208b9"},"vehicle_type_id":"4","last_reported":1752815858,"current_range_meters":10800,"station_id":"cpo36qri1sfpv3e86is0","pricing_plan_id":"cebpf4jnsgd1na2vs0mg"},{"bike_id":"6d70d6d4-7776-4d1e-a307-46e9e54de733","system_id":"levelo_inurba_marseille","lat":43.2958,"lon":5.39956,"is_reserved":false,"is_disabled":true,"rental_uris":{"android":"levelo://app?vid=6d70d6d4-7776-4d1e-a307-46e9e54de733","ios":"levelo://app?vid=6d70d6d4-7776-4d1e-a307-46e9e54de733"},"vehicle_type_id":"4","last_reported":1752815858,"current_range_meters":11200,"station_id":"ce4bh312rcd13ifvqdj0","pricing_plan_id":"cebpf4jnsgd1na2vs0mg"},{"bike_id":"6b3b8af8-50ca-406a-9303-eb2e95f3c093","system_id":"levelo_inurba_marseille","lat":43.279478,"lon":5.410389,"is_reserved":false,"is_disabled":false,"rental_uris":{"android":"levelo://app?vid=6b3b8af8-50ca-406a-9303-eb2e95f3c093","ios":"levelo://app?vid=6b3b8af8-50ca-406a-9303-eb2e95f3c093"},"vehicle_type_id":"4","last_reported":1752815858,"current_range_meters":11200,"station_id":"ce4bhnp2rcd13ifvqh0g","pricing_plan_id":"cebpf4jnsgd1na2vs0mg"},{"bike_id":"ca9604a0-cadd-4cb6-8ad0-59945ea42660","system_id":"levelo_inurba_marseille","lat":43.30248,"lon":5.400836,"is_reserved":false,"is_disabled":false,"rental_uris":{"android":"levelo://app?vid=ca9604a0-cadd-4cb6-8ad0-59945ea42660","ios":"levelo://app?vid=ca9604a0-cadd-4cb6-8ad0-59945ea42660"},"vehicle_type_id":"4","last_reported":1752815858,"current_range_meters":11600,"station_id":"ce4bgvh2rcd13ifvqcs0","pricing_plan_id":"cebpf4jnsgd1na2vs0mg"},{"bike_id":"b861e845-045e-4bb7-9260-06d3fafca4ef","system_id":"levelo_inurba_marseille","lat":43.298956,"lon":5.43673,"is_reserved":false,"is_disabled":false,"rental_uris":{"android":"levelo://app?vid=b861e845-045e-4bb7-9260-06d3fafca4ef","ios":"levelo://app?vid=b861e845-045e-4bb7-9260-06d3fafca4ef"},"vehicle_type_id":"4","last_reported":1752815858,"current_range_meters":11600,"station_id":"ce4bhpp2rcd13ifvqhfg","pricing_plan_id":"cebpf4jnsgd1na2vs0mg"},{"bike_id":"2c6e34ec-e4ad-4b55-908f-732bdcecdb2f","system_id":"levelo_inurba_marseille","lat":43.21189,"lon":5.35068,"is_reserved":false,"is_disabled":false,"rental_uris":{"android":"levelo://app?vid=2c6e34ec-e4ad-4b55-908f-732bdcecdb2f","ios":"levelo://app?vid=2c6e34ec-e4ad-4b55-908f-732bdcecdb2f"},"vehicle_type_id":"4","last_reported":1752815858,"current_range_meters":11600,"station_id":"st_cvj6sg6p6f1abm77japg","pricing_plan_id":"cebpf4jnsgd1na2vs0mg"},{"bike_id":"d688bfdb-1dcf-48f3-98f4-1c5765e6b7ae","system_id":"levelo_inurba_marseille","lat":43.24076,"lon":5.37747,"is_reserved":false,"is_disabled":false,"rental_uris":{"android":"levelo://app?vid=d688bfdb-1dcf-48f3-98f4-1c5765e6b7ae","ios":"levelo://app?vid=d688bfdb-1dcf-48f3-98f4-1c5765e6b7ae"},"vehicle_type_id":"4","last_reported":1752815858,"current_range_meters":11600,"station_id":"ce4bhnp2rcd13ifvqgvg","pricing_plan_id":"cebpf4jnsgd1na2vs0mg"},{"bike_id":"46a5eac9-8db6-42b0-9d80-484e8a91a868","system_id":"levelo_inurba_marseille","lat":43.28664,"lon":5.36342,"is_reserved":false,"is_disabled":false,"rental_uris":{"android":"levelo://app?vid=46a5eac9-8db6-42b0-9d80-484e8a91a868","ios":"levelo://app?vid=46a5eac9-8db6-42b0-9d80-484e8a91a868"},"vehicle_type_id":"4","last_reported":1752815858,"current_range_meters":11600,"station_id":"ce4bhah2rcd13ifvqej0","pricing_plan_id":"cebpf4jnsgd1na2vs0mg"},{"bike_id":"ba3823fb-c6a3-4066-b41a-411ec979f129","system_id":"levelo_inurba_marseille","lat":43.323353,"lon":5.406211,"is_reserved":false,"is_disabled":false,"rental_uris":{"android":"levelo://app?vid=ba3823fb-c6a3-4066-b41a-411ec979f129","ios":"levelo://app?vid=ba3823fb-c6a3-4066-b41a-411ec979f129"},"vehicle_type_id":"4","last_reported":1752815858,"current_range_meters":11600,"station_id":"ce4bhq92rcd13ifvqhjg","pricing_plan_id":"cebpf4jnsgd1na2vs0mg"},{"bike_id":"0eb328fc-7155-45df-a8a3-5fbcd6cf1b49","system_id":"levelo_inurba_marseille","lat":43.26227,"lon":5.40454,"is_reserved":false,"is_disabled":false,"rental_uris":{"android":"levelo://app?vid=0eb328fc-7155-45df-a8a3-5fbcd6cf1b49","ios":"levelo://app?vid=0eb328fc-7155-45df-a8a3-5fbcd6cf1b49"},"vehicle_type_id":"4","last_reported":1752815858,"current_range_meters":11600,"station_id":"ce4bhmh2rcd13ifvqgmg","pricing_plan_id":"cebpf4jnsgd1na2vs0mg"},{"bike_id":"4cc256b2-de2e-4409-a44f-3f57c4b4c5e1","system_id":"levelo_inurba_marseille","lat":43.298944,"lon":5.436706,"is_reserved":false,"is_disabled":false,"rental_uris":{"android":"levelo://app?vid=4cc256b2-de2e-4409-a44f-3f57c4b4c5e1","ios":"levelo://app?vid=4cc256b2-de2e-4409-a44f-3f57c4b4c5e1"},"vehicle_type_id":"4","last_reported":1752815858,"current_range_meters":12000,"station_id":"ce4bhpp2rcd13ifvqhfg","pricing_plan_id":"cebpf4jnsgd1na2vs0mg"},{"bike_id":"2ac93549-5c94-4228-8eea-782a21384d10","system_id":"levelo_inurba_marseille","lat":43.29634,"lon":5.37793,"is_reserved":false,"is_disabled":false,"rental_uris":{"android":"levelo://app?vid=2ac93549-5c94-4228-8eea-782a21384d10","ios":"levelo://app?vid=2ac93549-5c94-4228-8eea-782a21384d10"},"vehicle_type_id":"4","last_reported":1752815858,"current_range_meters":12000,"station_id":"","pricing_plan_id":"cebpf4jnsgd1na2vs0mg"},{"bike_id":"0698bc0a-1356-460f-8b6d-fca0137a6217","system_id":"levelo_inurba_marseille","lat":43.211914,"lon":5.350782,"is_reserved":false,"is_disabled":false,"rental_uris":{"android":"levelo://app?vid=0698bc0a-1356-460f-8b6d-fca0137a6217","ios":"levelo://app?vid=0698bc0a-1356-460f-8b6d-fca0137a6217"},"vehicle_type_id":"4","last_reported":1752815858,"current_range_meters":12000,"station_id":"st_cvj6sg6p6f1abm77japg","pricing_plan_id":"cebpf4jnsgd1na2vs0mg"},{"bike_id":"a317db79-8de3-4840-bb2f-bf20752c48a2","system_id":"levelo_inurba_marseille","lat":43.30348,"lon":5.4047,"is_reserved":false,"is_disabled":false,"rental_uris":{"android":"levelo://app?vid=a317db79-8de3-4840-bb2f-bf20752c48a2","ios":"levelo://app?vid=a317db79-8de3-4840-bb2f-bf20752c48a2"},"vehicle_type_id":"4","last_reported":1752815858,"current_range_meters":12400,"station_id":"ce4bh012rcd13ifvqd10","pricing_plan_id":"cebpf4jnsgd1na2vs0mg"},{"bike_id":"c4a884fa-f392-4687-844a-0b862b12dbc5","system_id":"levelo_inurba_marseille","lat":43.24646,"lon":5.38912,"is_reserved":false,"is_disabled":false,"rental_uris":{"android":"levelo://app?vid=c4a884fa-f392-4687-844a-0b862b12dbc5","ios":"levelo://app?vid=c4a884fa-f392-4687-844a-0b862b12dbc5"},"vehicle_type_id":"4","last_reported":1752815858,"current_range_meters":12400,"station_id":"ce4bhg12rcd13ifvqf60","pricing_plan_id":"cebpf4jnsgd1na2vs0mg"},{"bike_id":"9c837b99-081f-4caa-a8a3-7d6dc61e9d18","system_id":"levelo_inurba_marseille","lat":43.230707,"lon":5.35496,"is_reserved":false,"is_disabled":false,"rental_uris":{"android":"levelo://app?vid=9c837b99-081f-4caa-a8a3-7d6dc61e9d18","ios":"levelo://app?vid=9c837b99-081f-4caa-a8a3-7d6dc61e9d18"},"vehicle_type_id":"4","last_reported":1752815858,"current_range_meters":12400,"station_id":"cpo3342slgdg3j2ifvpg","pricing_plan_id":"cebpf4jnsgd1na2vs0mg"},{"bike_id":"da891840-0cec-4ccc-961c-48903736c6fa","system_id":"levelo_inurba_marseille","lat":43.31139,"lon":5.37692,"is_reserved":false,"is_disabled":false,"rental_uris":{"android":"levelo://app?vid=da891840-0cec-4ccc-961c-48903736c6fa","ios":"levelo://app?vid=da891840-0cec-4ccc-961c-48903736c6fa"},"vehicle_type_id":"4","last_reported":1752815858,"current_range_meters":12400,"station_id":"","pricing_plan_id":"cebpf4jnsgd1na2vs0mg"},{"bike_id":"d0573d96-ddb4-4622-bd15-49483cac3810","system_id":"levelo_inurba_marseille","lat":43.258619,"lon":5.399119,"is_reserved":false,"is_disabled":true,"rental_uris":{"android":"levelo://app?vid=d0573d96-ddb4-4622-bd15-49483cac3810","ios":"levelo://app?vid=d0573d96-ddb4-4622-bd15-49483cac3810"},"vehicle_type_id":"4","last_reported":1752815858,"current_range_meters":12400,"station_id":"ce4bhl92rcd13ifvqghg","pricing_plan_id":"cebpf4jnsgd1na2vs0mg"},{"bike_id":"8b7a97f8-d02c-44f3-9876-9ca62ee11cbb","system_id":"levelo_inurba_marseille","lat":43.271819,"lon":5.409943,"is_reserved":false,"is_disabled":false,"rental_uris":{"android":"levelo://app?vid=8b7a97f8-d02c-44f3-9876-9ca62ee11cbb","ios":"levelo://app?vid=8b7a97f8-d02c-44f3-9876-9ca62ee11cbb"},"vehicle_type_id":"4","last_reported":1752815858,"current_range_meters":12400,"station_id":"ce4bhl12rcd13ifvqgf0","pricing_plan_id":"cebpf4jnsgd1na2vs0mg"},{"bike_id":"c674aab0-0a86-4343-b6ed-b8d8892c6874","system_id":"levelo_inurba_marseille","lat":43.24166,"lon":5.3967,"is_reserved":false,"is_disabled":false,"rental_uris":{"android":"levelo://app?vid=c674aab0-0a86-4343-b6ed-b8d8892c6874","ios":"levelo://app?vid=c674aab0-0a86-4343-b6ed-b8d8892c6874"},"vehicle_type_id":"4","last_reported":1752815858,"current_range_meters":12400,"station_id":"ce4bhn12rcd13ifvqgpg","pricing_plan_id":"cebpf4jnsgd1na2vs0mg"},{"bike_id":"5c2c3db6-3940-44f5-b26f-2ea3c60b6226","system_id":"levelo_inurba_marseille","lat":43.294176,"lon":5.386128,"is_reserved":false,"is_disabled":true,"rental_uris":{"android":"levelo://app?vid=5c2c3db6-3940-44f5-b26f-2ea3c60b6226","ios":"levelo://app?vid=5c2c3db6-3940-44f5-b26f-2ea3c60b6226"},"vehicle_type_id":"4","last_reported":1752815858,"current_range_meters":12400,"station_id":"ce4bh2h2rcd13ifvqdh0","pricing_plan_id":"cebpf4jnsgd1na2vs0mg"},{"bike_id":"e555b545-304c-4dce-8496-1643c0f2600e","system_id":"levelo_inurba_marseille","lat":43.337444,"lon":5.374475,"is_reserved":false,"is_disabled":false,"rental_uris":{"android":"levelo://app?vid=e555b545-304c-4dce-8496-1643c0f2600e","ios":"levelo://app?vid=e555b545-304c-4dce-8496-1643c0f2600e"},"vehicle_type_id":"4","last_reported":1752815858,"current_range_meters":12400,"station_id":"","pricing_plan_id":"cebpf4jnsgd1na2vs0mg"},{"bike_id":"aae6b6c2-435c-44bc-92e8-386ba737ce76","system_id":"levelo_inurba_marseille","lat":43.31141,"lon":5.40409,"is_reserved":false,"is_disabled":false,"rental_uris":{"android":"levelo://app?vid=aae6b6c2-435c-44bc-92e8-386ba737ce76","ios":"levelo://app?vid=aae6b6c2-435c-44bc-92e8-386ba737ce76"},"vehicle_type_id":"4","last_reported":1752815858,"current_range_meters":12400,"station_id":"","pricing_plan_id":"cebpf4jnsgd1na2vs0mg"},{"bike_id":"c2335717-a71f-4bf5-b07e-82e31094f775","system_id":"levelo_inurba_marseille","lat":43.2842,"lon":5.37517,"is_reserved":false,"is_disabled":false,"rental_uris":{"android":"levelo://app?vid=c2335717-a71f-4bf5-b07e-82e31094f775","ios":"levelo://app?vid=c2335717-a71f-4bf5-b07e-82e31094f775"},"vehicle_type_id":"4","last_reported":1752815858,"current_range_meters":12400,"station_id":"ce4bh412rcd13ifvqds0","pricing_plan_id":"cebpf4jnsgd1na2vs0mg"},{"bike_id":"ae28ea44-06e0-468d-b104-f45ecdf62a40","system_id":"levelo_inurba_marseille","lat":43.231929,"lon":5.355596,"is_reserved":false,"is_disabled":false,"rental_uris":{"android":"levelo://app?vid=ae28ea44-06e0-468d-b104-f45ecdf62a40","ios":"levelo://app?vid=ae28ea44-06e0-468d-b104-f45ecdf62a40"},"vehicle_type_id":"4","last_reported":1752815858,"current_range_meters":12800,"station_id":"ce4bhu92rcd13ifvqi70","pricing_plan_id":"cebpf4jnsgd1na2vs0mg"},{"bike_id":"edcf1879-86c0-4e31-85c4-46b1b111b9ae","system_id":"levelo_inurba_marseille","lat":43.287069,"lon":5.399677,"is_reserved":false,"is_disabled":false,"rental_uris":{"android":"levelo://app?vid=edcf1879-86c0-4e31-85c4-46b1b111b9ae","ios":"levelo://app?vid=edcf1879-86c0-4e31-85c4-46b1b111b9ae"},"vehicle_type_id":"4","last_reported":1752815858,"current_range_meters":12800,"station_id":"ce4bho92rcd13ifvqh3g","pricing_plan_id":"cebpf4jnsgd1na2vs0mg"},{"bike_id":"b9c220fa-ce21-46e5-9c5b-52d91725030b","system_id":"levelo_inurba_marseille","lat":43.22937,"lon":5.35381,"is_reserved":false,"is_disabled":false,"rental_uris":{"android":"levelo://app?vid=b9c220fa-ce21-46e5-9c5b-52d91725030b","ios":"levelo://app?vid=b9c220fa-ce21-46e5-9c5b-52d91725030b"},"vehicle_type_id":"4","last_reported":1752815858,"current_range_meters":12800,"station_id":"cpo3532slgdg3j2ikp40","pricing_plan_id":"cebpf4jnsgd1na2vs0mg"},{"bike_id":"31695fe3-ba1a-451d-a7a2-e6e81aefdddc","system_id":"levelo_inurba_marseille","lat":43.28616,"lon":5.35096,"is_reserved":false,"is_disabled":true,"rental_uris":{"android":"levelo://app?vid=31695fe3-ba1a-451d-a7a2-e6e81aefdddc","ios":"levelo://app?vid=31695fe3-ba1a-451d-a7a2-e6e81aefdddc"},"vehicle_type_id":"4","last_reported":1752815858,"current_range_meters":12800,"station_id":"ce4bhch2rcd13ifvqeug","pricing_plan_id":"cebpf4jnsgd1na2vs0mg"},{"bike_id":"fd213dc5-468f-46fe-a48a-37ece95b9dec","system_id":"levelo_inurba_marseille","lat":43.29262,"lon":5.408988,"is_reserved":false,"is_disabled":false,"rental_uris":{"android":"levelo://app?vid=fd213dc5-468f-46fe-a48a-37ece95b9dec","ios":"levelo://app?vid=fd213dc5-468f-46fe-a48a-37ece95b9dec"},"vehicle_type_id":"4","last_reported":1752815858,"current_range_meters":12800,"station_id":"ce4bh192rcd13ifvqdc0","pricing_plan_id":"cebpf4jnsgd1na2vs0mg"},{"bike_id":"2272a1cb-30d4-47dd-bed5-39b01483f853","system_id":"levelo_inurba_marseille","lat":43.229331,"lon":5.353888,"is_reserved":false,"is_disabled":false,"rental_uris":{"android":"levelo://app?vid=2272a1cb-30d4-47dd-bed5-39b01483f853","ios":"levelo://app?vid=2272a1cb-30d4-47dd-bed5-39b01483f853"},"vehicle_type_id":"4","last_reported":1752815858,"current_range_meters":12800,"station_id":"cpo3532slgdg3j2ikp40","pricing_plan_id":"cebpf4jnsgd1na2vs0mg"},{"bike_id":"531dca68-8617-41b0-a6cd-abffc94e1d45","system_id":"levelo_inurba_marseille","lat":43.312058,"lon":5.373179,"is_reserved":false,"is_disabled":false,"rental_uris":{"android":"levelo://app?vid=531dca68-8617-41b0-a6cd-abffc94e1d45","ios":"levelo://app?vid=531dca68-8617-41b0-a6cd-abffc94e1d45"},"vehicle_type_id":"4","last_reported":1752815858,"current_range_meters":12800,"station_id":"","pricing_plan_id":"cebpf4jnsgd1na2vs0mg"},{"bike_id":"dfef3fa2-f761-4b92-8905-7e3cb4d78849","system_id":"levelo_inurba_marseille","lat":43.29254,"lon":5.40925,"is_reserved":false,"is_disabled":false,"rental_uris":{"android":"levelo://app?vid=dfef3fa2-f761-4b92-8905-7e3cb4d78849","ios":"levelo://app?vid=dfef3fa2-f761-4b92-8905-7e3cb4d78849"},"vehicle_type_id":"4","last_reported":1752815858,"current_range_meters":13600,"station_id":"ce4bh192rcd13ifvqdc0","pricing_plan_id":"cebpf4jnsgd1na2vs0mg"},{"bike_id":"2c1d66fe-09e0-4367-8c07-29aee11f2607","system_id":"levelo_inurba_marseille","lat":43.297104,"lon":5.376857,"is_reserved":false,"is_disabled":false,"rental_uris":{"android":"levelo://app?vid=2c1d66fe-09e0-4367-8c07-29aee11f2607","ios":"levelo://app?vid=2c1d66fe-09e0-4367-8c07-29aee11f2607"},"vehicle_type_id":"4","last_reported":1752815858,"current_range_meters":13600,"station_id":"ce4bgkh2rcd13ifvqbl0","pricing_plan_id":"cebpf4jnsgd1na2vs0mg"},{"bike_id":"e54582ed-ba92-4640-a97f-9e97144ce87f","system_id":"levelo_inurba_marseille","lat":43.32278,"lon":5.40671,"is_reserved":false,"is_disabled":false,"rental_uris":{"android":"levelo://app?vid=e54582ed-ba92-4640-a97f-9e97144ce87f","ios":"levelo://app?vid=e54582ed-ba92-4640-a97f-9e97144ce87f"},"vehicle_type_id":"4","last_reported":1752815858,"current_range_meters":13600,"station_id":"","pricing_plan_id":"cebpf4jnsgd1na2vs0mg"},{"bike_id":"7a6aca03-37b0-40ef-9d9a-27893d501471","system_id":"levelo_inurba_marseille","lat":43.250055,"lon":5.389325,"is_reserved":false,"is_disabled":false,"rental_uris":{"android":"levelo://app?vid=7a6aca03-37b0-40ef-9d9a-27893d501471","ios":"levelo://app?vid=7a6aca03-37b0-40ef-9d9a-27893d501471"},"vehicle_type_id":"4","last_reported":1752815858,"current_range_meters":13600,"station_id":"ce4bhgp2rcd13ifvqfd0","pricing_plan_id":"cebpf4jnsgd1na2vs0mg"},{"bike_id":"168a7671-aba6-4148-ba70-c792dfe2e642","system_id":"levelo_inurba_marseille","lat":43.21204,"lon":5.35082,"is_reserved":false,"is_disabled":false,"rental_uris":{"android":"levelo://app?vid=168a7671-aba6-4148-ba70-c792dfe2e642","ios":"levelo://app?vid=168a7671-aba6-4148-ba70-c792dfe2e642"},"vehicle_type_id":"4","last_reported":1752815858,"current_range_meters":13600,"station_id":"st_cvj6sg6p6f1abm77japg","pricing_plan_id":"cebpf4jnsgd1na2vs0mg"},{"bike_id":"6be86623-c65c-4a0d-b3a4-c58891bfa931","system_id":"levelo_inurba_marseille","lat":43.22505,"lon":5.34786,"is_reserved":false,"is_disabled":false,"rental_uris":{"android":"levelo://app?vid=6be86623-c65c-4a0d-b3a4-c58891bfa931","ios":"levelo://app?vid=6be86623-c65c-4a0d-b3a4-c58891bfa931"},"vehicle_type_id":"4","last_reported":1752815858,"current_range_meters":14000,"station_id":"st_cvj5dfep6f1abm77gieg","pricing_plan_id":"cebpf4jnsgd1na2vs0mg"},{"bike_id":"0d87ca24-976c-4967-995f-815e40a697aa","system_id":"levelo_inurba_marseille","lat":43.32147,"lon":5.36781,"is_reserved":false,"is_disabled":false,"rental_uris":{"android":"levelo://app?vid=0d87ca24-976c-4967-995f-815e40a697aa","ios":"levelo://app?vid=0d87ca24-976c-4967-995f-815e40a697aa"},"vehicle_type_id":"4","last_reported":1752815858,"current_range_meters":14000,"station_id":"ce4bhrh2rcd13ifvqhug","pricing_plan_id":"cebpf4jnsgd1na2vs0mg"},{"bike_id":"4c0ea010-fab1-4680-b798-1d8aad58bcd3","system_id":"levelo_inurba_marseille","lat":43.271914,"lon":5.410369,"is_reserved":false,"is_disabled":false,"rental_uris":{"android":"levelo://app?vid=4c0ea010-fab1-4680-b798-1d8aad58bcd3","ios":"levelo://app?vid=4c0ea010-fab1-4680-b798-1d8aad58bcd3"},"vehicle_type_id":"4","last_reported":1752815858,"current_range_meters":14000,"station_id":"ce4bhl12rcd13ifvqgf0","pricing_plan_id":"cebpf4jnsgd1na2vs0mg"},{"bike_id":"9e4abb97-e380-41ad-a9cd-7b2e7b64f3c5","system_id":"levelo_inurba_marseille","lat":43.29175,"lon":5.39835,"is_reserved":false,"is_disabled":false,"rental_uris":{"android":"levelo://app?vid=9e4abb97-e380-41ad-a9cd-7b2e7b64f3c5","ios":"levelo://app?vid=9e4abb97-e380-41ad-a9cd-7b2e7b64f3c5"},"vehicle_type_id":"4","last_reported":1752815858,"current_range_meters":14000,"station_id":"","pricing_plan_id":"cebpf4jnsgd1na2vs0mg"},{"bike_id":"d2cbdf47-9814-4bfd-a931-591ca5d5e665","system_id":"levelo_inurba_marseille","lat":43.287125,"lon":5.399802,"is_reserved":false,"is_disabled":false,"rental_uris":{"android":"levelo://app?vid=d2cbdf47-9814-4bfd-a931-591ca5d5e665","ios":"levelo://app?vid=d2cbdf47-9814-4bfd-a931-591ca5d5e665"},"vehicle_type_id":"4","last_reported":1752815858,"current_range_meters":14000,"station_id":"ce4bho92rcd13ifvqh3g","pricing_plan_id":"cebpf4jnsgd1na2vs0mg"},{"bike_id":"7ee5f984-9d13-4975-9de0-2f36900c25c3","system_id":"levelo_inurba_marseille","lat":43.28655,"lon":5.36345,"is_reserved":false,"is_disabled":false,"rental_uris":{"android":"levelo://app?vid=7ee5f984-9d13-4975-9de0-2f36900c25c3","ios":"levelo://app?vid=7ee5f984-9d13-4975-9de0-2f36900c25c3"},"vehicle_type_id":"4","last_reported":1752815858,"current_range_meters":14000,"station_id":"ce4bhah2rcd13ifvqej0","pricing_plan_id":"cebpf4jnsgd1na2vs0mg"},{"bike_id":"243d5e52-71ae-4400-a272-be2828048f58","system_id":"levelo_inurba_marseille","lat":43.29321,"lon":5.40171,"is_reserved":false,"is_disabled":false,"rental_uris":{"android":"levelo://app?vid=243d5e52-71ae-4400-a272-be2828048f58","ios":"levelo://app?vid=243d5e52-71ae-4400-a272-be2828048f58"},"vehicle_type_id":"4","last_reported":1752815858,"current_range_meters":14000,"station_id":"","pricing_plan_id":"cebpf4jnsgd1na2vs0mg"},{"bike_id":"93064a8f-6df9-4f93-85e3-ab80e6e91177","system_id":"levelo_inurba_marseille","lat":43.26221,"lon":5.40443,"is_reserved":false,"is_disabled":false,"rental_uris":{"android":"levelo://app?vid=93064a8f-6df9-4f93-85e3-ab80e6e91177","ios":"levelo://app?vid=93064a8f-6df9-4f93-85e3-ab80e6e91177"},"vehicle_type_id":"4","last_reported":1752815858,"current_range_meters":14400,"station_id":"ce4bhmh2rcd13ifvqgmg","pricing_plan_id":"cebpf4jnsgd1na2vs0mg"},{"bike_id":"084eace8-045f-4012-9455-c501cad7ce10","system_id":"levelo_inurba_marseille","lat":43.22505,"lon":5.34781,"is_reserved":false,"is_disabled":false,"rental_uris":{"android":"levelo://app?vid=084eace8-045f-4012-9455-c501cad7ce10","ios":"levelo://app?vid=084eace8-045f-4012-9455-c501cad7ce10"},"vehicle_type_id":"4","last_reported":1752815858,"current_range_meters":14400,"station_id":"st_cvj5dfep6f1abm77gieg","pricing_plan_id":"cebpf4jnsgd1na2vs0mg"},{"bike_id":"7d3c03a2-207b-4ac4-a008-29cefc053288","system_id":"levelo_inurba_marseille","lat":43.29985,"lon":5.38491,"is_reserved":false,"is_disabled":false,"rental_uris":{"android":"levelo://app?vid=7d3c03a2-207b-4ac4-a008-29cefc053288","ios":"levelo://app?vid=7d3c03a2-207b-4ac4-a008-29cefc053288"},"vehicle_type_id":"4","last_reported":1752815858,"current_range_meters":14400,"station_id":"ce4bgj92rcd13ifvqbd0","pricing_plan_id":"cebpf4jnsgd1na2vs0mg"},{"bike_id":"9b7a5c76-646b-47e4-9aaf-9e0ac1e776a5","system_id":"levelo_inurba_marseille","lat":43.26941,"lon":5.40226,"is_reserved":false,"is_disabled":false,"rental_uris":{"android":"levelo://app?vid=9b7a5c76-646b-47e4-9aaf-9e0ac1e776a5","ios":"levelo://app?vid=9b7a5c76-646b-47e4-9aaf-9e0ac1e776a5"},"vehicle_type_id":"4","last_reported":1752815858,"current_range_meters":14400,"station_id":"cjm6bp8fraef2m0cb0m0","pricing_plan_id":"cebpf4jnsgd1na2vs0mg"},{"bike_id":"ead09c4a-6226-4ee7-b4b0-321133093605","system_id":"levelo_inurba_marseille","lat":43.265717,"lon":5.390188,"is_reserved":false,"is_disabled":false,"rental_uris":{"android":"levelo://app?vid=ead09c4a-6226-4ee7-b4b0-321133093605","ios":"levelo://app?vid=ead09c4a-6226-4ee7-b4b0-321133093605"},"vehicle_type_id":"4","last_reported":1752815858,"current_range_meters":14400,"station_id":"ce4bhe12rcd13ifvqf30","pricing_plan_id":"cebpf4jnsgd1na2vs0mg"},{"bike_id":"409515f8-3415-426d-b0c7-61f840c7c187","system_id":"levelo_inurba_marseille","lat":43.2253,"lon":5.3477,"is_reserved":false,"is_disabled":false,"rental_uris":{"android":"levelo://app?vid=409515f8-3415-426d-b0c7-61f840c7c187","ios":"levelo://app?vid=409515f8-3415-426d-b0c7-61f840c7c187"},"vehicle_type_id":"4","last_reported":1752815858,"current_range_meters":14400,"station_id":"st_cvj5dfep6f1abm77gieg","pricing_plan_id":"cebpf4jnsgd1na2vs0mg"},{"bike_id":"d01966a7-5e23-40f7-8323-4d6534e79969","system_id":"levelo_inurba_marseille","lat":43.22942,"lon":5.35359,"is_reserved":false,"is_disabled":false,"rental_uris":{"android":"levelo://app?vid=d01966a7-5e23-40f7-8323-4d6534e79969","ios":"levelo://app?vid=d01966a7-5e23-40f7-8323-4d6534e79969"},"vehicle_type_id":"4","last_reported":1752815858,"current_range_meters":14800,"station_id":"cpo3532slgdg3j2ikp40","pricing_plan_id":"cebpf4jnsgd1na2vs0mg"},{"bike_id":"5b4e5f0f-cac3-450a-9463-e6a77e2c277e","system_id":"levelo_inurba_marseille","lat":43.246423,"lon":5.388921,"is_reserved":false,"is_disabled":true,"rental_uris":{"android":"levelo://app?vid=5b4e5f0f-cac3-450a-9463-e6a77e2c277e","ios":"levelo://app?vid=5b4e5f0f-cac3-450a-9463-e6a77e2c277e"},"vehicle_type_id":"4","last_reported":1752815858,"current_range_meters":14800,"station_id":"ce4bhg12rcd13ifvqf60","pricing_plan_id":"cebpf4jnsgd1na2vs0mg"},{"bike_id":"c6db0f6a-96fe-4e1d-8ded-c2ef38c9bab4","system_id":"levelo_inurba_marseille","lat":43.304183,"lon":5.412838,"is_reserved":false,"is_disabled":true,"rental_uris":{"android":"levelo://app?vid=c6db0f6a-96fe-4e1d-8ded-c2ef38c9bab4","ios":"levelo://app?vid=c6db0f6a-96fe-4e1d-8ded-c2ef38c9bab4"},"vehicle_type_id":"4","last_reported":1752815858,"current_range_meters":15200,"station_id":"ce4bhop2rcd13ifvqh8g","pricing_plan_id":"cebpf4jnsgd1na2vs0mg"},{"bike_id":"defbc65a-15d5-4b49-857f-4a84140a51ad","system_id":"levelo_inurba_marseille","lat":43.30381,"lon":5.4248,"is_reserved":false,"is_disabled":false,"rental_uris":{"android":"levelo://app?vid=defbc65a-15d5-4b49-857f-4a84140a51ad","ios":"levelo://app?vid=defbc65a-15d5-4b49-857f-4a84140a51ad"},"vehicle_type_id":"4","last_reported":1752815858,"current_range_meters":15200,"station_id":"ce4bhoh2rcd13ifvqh6g","pricing_plan_id":"cebpf4jnsgd1na2vs0mg"},{"bike_id":"1d94feba-c90e-4d75-9f8d-9ea4bb03490e","system_id":"levelo_inurba_marseille","lat":43.290999,"lon":5.381596,"is_reserved":false,"is_disabled":true,"rental_uris":{"android":"levelo://app?vid=1d94feba-c90e-4d75-9f8d-9ea4bb03490e","ios":"levelo://app?vid=1d94feba-c90e-4d75-9f8d-9ea4bb03490e"},"vehicle_type_id":"4","last_reported":1752815858,"current_range_meters":15200,"station_id":"ce4bh512rcd13ifvqe2g","pricing_plan_id":"cebpf4jnsgd1na2vs0mg"},{"bike_id":"b1411f20-9712-40f9-a9cc-407b4e40f865","system_id":"levelo_inurba_marseille","lat":43.268228,"lon":5.414907,"is_reserved":false,"is_disabled":false,"rental_uris":{"android":"levelo://app?vid=b1411f20-9712-40f9-a9cc-407b4e40f865","ios":"levelo://app?vid=b1411f20-9712-40f9-a9cc-407b4e40f865"},"vehicle_type_id":"4","last_reported":1752815858,"current_range_meters":15200,"station_id":"","pricing_plan_id":"cebpf4jnsgd1na2vs0mg"},{"bike_id":"6839c268-f7d5-4e20-8317-5e5a6bc104e8","system_id":"levelo_inurba_marseille","lat":43.30307,"lon":5.39208,"is_reserved":false,"is_disabled":false,"rental_uris":{"android":"levelo://app?vid=6839c268-f7d5-4e20-8317-5e5a6bc104e8","ios":"levelo://app?vid=6839c268-f7d5-4e20-8317-5e5a6bc104e8"},"vehicle_type_id":"4","last_reported":1752815858,"current_range_meters":15200,"station_id":"ce4bgkh2rcd13ifvqbk0","pricing_plan_id":"cebpf4jnsgd1na2vs0mg"},{"bike_id":"a092d05c-8017-44f5-ba8a-35792463d6a3","system_id":"levelo_inurba_marseille","lat":43.225101,"lon":5.347632,"is_reserved":false,"is_disabled":false,"rental_uris":{"android":"levelo://app?vid=a092d05c-8017-44f5-ba8a-35792463d6a3","ios":"levelo://app?vid=a092d05c-8017-44f5-ba8a-35792463d6a3"},"vehicle_type_id":"4","last_reported":1752815858,"current_range_meters":15200,"station_id":"st_cvj5dfep6f1abm77gieg","pricing_plan_id":"cebpf4jnsgd1na2vs0mg"},{"bike_id":"ed822664-f978-4865-b4d3-8b7323601ddf","system_id":"levelo_inurba_marseille","lat":43.297919,"lon":5.393501,"is_reserved":false,"is_disabled":true,"rental_uris":{"android":"levelo://app?vid=ed822664-f978-4865-b4d3-8b7323601ddf","ios":"levelo://app?vid=ed822664-f978-4865-b4d3-8b7323601ddf"},"vehicle_type_id":"4","last_reported":1752815858,"current_range_meters":15200,"station_id":"chh1huq6cuj3fo74tm60","pricing_plan_id":"cebpf4jnsgd1na2vs0mg"},{"bike_id":"649f8ba3-b75a-4b2f-b0ee-d99f6b13344a","system_id":"levelo_inurba_marseille","lat":43.313718,"lon":5.384996,"is_reserved":false,"is_disabled":false,"rental_uris":{"android":"levelo://app?vid=649f8ba3-b75a-4b2f-b0ee-d99f6b13344a","ios":"levelo://app?vid=649f8ba3-b75a-4b2f-b0ee-d99f6b13344a"},"vehicle_type_id":"4","last_reported":1752815858,"current_range_meters":15200,"station_id":"ce4bgt92rcd13ifvqcf0","pricing_plan_id":"cebpf4jnsgd1na2vs0mg"},{"bike_id":"dba9ad02-c391-4468-bc6b-ecee0a550373","system_id":"levelo_inurba_marseille","lat":43.271854,"lon":5.362776,"is_reserved":false,"is_disabled":false,"rental_uris":{"android":"levelo://app?vid=dba9ad02-c391-4468-bc6b-ecee0a550373","ios":"levelo://app?vid=dba9ad02-c391-4468-bc6b-ecee0a550373"},"vehicle_type_id":"4","last_reported":1752815858,"current_range_meters":15200,"station_id":"","pricing_plan_id":"cebpf4jnsgd1na2vs0mg"},{"bike_id":"3eac566f-c6dd-423b-9d08-aa3bd31d25e0","system_id":"levelo_inurba_marseille","lat":43.269395,"lon":5.402563,"is_reserved":false,"is_disabled":false,"rental_uris":{"android":"levelo://app?vid=3eac566f-c6dd-423b-9d08-aa3bd31d25e0","ios":"levelo://app?vid=3eac566f-c6dd-423b-9d08-aa3bd31d25e0"},"vehicle_type_id":"4","last_reported":1752815858,"current_range_meters":15200,"station_id":"cjm6bp8fraef2m0cb0m0","pricing_plan_id":"cebpf4jnsgd1na2vs0mg"},{"bike_id":"e5783369-539c-47aa-b107-b33b2e82fd3c","system_id":"levelo_inurba_marseille","lat":43.24686,"lon":5.38169,"is_reserved":false,"is_disabled":false,"rental_uris":{"android":"levelo://app?vid=e5783369-539c-47aa-b107-b33b2e82fd3c","ios":"levelo://app?vid=e5783369-539c-47aa-b107-b33b2e82fd3c"},"vehicle_type_id":"4","last_reported":1752815858,"current_range_meters":15200,"station_id":"ce4bhih2rcd13ifvqfr0","pricing_plan_id":"cebpf4jnsgd1na2vs0mg"},{"bike_id":"008d9fa4-24c0-40e3-afc2-6e09b4bdbf02","system_id":"levelo_inurba_marseille","lat":43.30642,"lon":5.40098,"is_reserved":false,"is_disabled":false,"rental_uris":{"android":"levelo://app?vid=008d9fa4-24c0-40e3-afc2-6e09b4bdbf02","ios":"levelo://app?vid=008d9fa4-24c0-40e3-afc2-6e09b4bdbf02"},"vehicle_type_id":"4","last_reported":1752815858,"current_range_meters":15200,"station_id":"ce4bh112rcd13ifvqda0","pricing_plan_id":"cebpf4jnsgd1na2vs0mg"},{"bike_id":"be60c88c-1453-4626-be80-200258f79626","system_id":"levelo_inurba_marseille","lat":43.23198,"lon":5.3554,"is_reserved":false,"is_disabled":false,"rental_uris":{"android":"levelo://app?vid=be60c88c-1453-4626-be80-200258f79626","ios":"levelo://app?vid=be60c88c-1453-4626-be80-200258f79626"},"vehicle_type_id":"4","last_reported":1752815858,"current_range_meters":15200,"station_id":"ce4bhu92rcd13ifvqi70","pricing_plan_id":"cebpf4jnsgd1na2vs0mg"},{"bike_id":"00cb9e03-8028-497f-8c29-77cd4bf2e8d6","system_id":"levelo_inurba_marseille","lat":43.28587,"lon":5.35137,"is_reserved":false,"is_disabled":true,"rental_uris":{"android":"levelo://app?vid=00cb9e03-8028-497f-8c29-77cd4bf2e8d6","ios":"levelo://app?vid=00cb9e03-8028-497f-8c29-77cd4bf2e8d6"},"vehicle_type_id":"4","last_reported":1752815858,"current_range_meters":15200,"station_id":"ce4bhch2rcd13ifvqeug","pricing_plan_id":"cebpf4jnsgd1na2vs0mg"},{"bike_id":"00ecada3-8577-4c51-98e2-f760bc2bb718","system_id":"levelo_inurba_marseille","lat":43.29427,"lon":5.432316,"is_reserved":false,"is_disabled":false,"rental_uris":{"android":"levelo://app?vid=00ecada3-8577-4c51-98e2-f760bc2bb718","ios":"levelo://app?vid=00ecada3-8577-4c51-98e2-f760bc2bb718"},"vehicle_type_id":"4","last_reported":1752815858,"current_range_meters":15200,"station_id":"","pricing_plan_id":"cebpf4jnsgd1na2vs0mg"},{"bike_id":"2ed1350f-0b6e-4182-a8b4-561741333858","system_id":"levelo_inurba_marseille","lat":43.279441,"lon":5.410403,"is_reserved":false,"is_disabled":false,"rental_uris":{"android":"levelo://app?vid=2ed1350f-0b6e-4182-a8b4-561741333858","ios":"levelo://app?vid=2ed1350f-0b6e-4182-a8b4-561741333858"},"vehicle_type_id":"4","last_reported":1752815858,"current_range_meters":16000,"station_id":"ce4bhnp2rcd13ifvqh0g","pricing_plan_id":"cebpf4jnsgd1na2vs0mg"},{"bike_id":"ce40837d-3edf-4cc2-a747-2f8d4ee2c7fb","system_id":"levelo_inurba_marseille","lat":43.22508,"lon":5.34774,"is_reserved":false,"is_disabled":false,"rental_uris":{"android":"levelo://app?vid=ce40837d-3edf-4cc2-a747-2f8d4ee2c7fb","ios":"levelo://app?vid=ce40837d-3edf-4cc2-a747-2f8d4ee2c7fb"},"vehicle_type_id":"4","last_reported":1752815858,"current_range_meters":16000,"station_id":"st_cvj5dfep6f1abm77gieg","pricing_plan_id":"cebpf4jnsgd1na2vs0mg"},{"bike_id":"e622471f-e223-45c0-979c-dbbcfdfe8946","system_id":"levelo_inurba_marseille","lat":43.32065,"lon":5.41518,"is_reserved":false,"is_disabled":false,"rental_uris":{"android":"levelo://app?vid=e622471f-e223-45c0-979c-dbbcfdfe8946","ios":"levelo://app?vid=e622471f-e223-45c0-979c-dbbcfdfe8946"},"vehicle_type_id":"4","last_reported":1752815858,"current_range_meters":16000,"station_id":"ce4bhq92rcd13ifvqhkg","pricing_plan_id":"cebpf4jnsgd1na2vs0mg"},{"bike_id":"4600b47a-0ab2-4d9a-b00a-1957f82b8f99","system_id":"levelo_inurba_marseille","lat":43.27561,"lon":5.38388,"is_reserved":false,"is_disabled":false,"rental_uris":{"android":"levelo://app?vid=4600b47a-0ab2-4d9a-b00a-1957f82b8f99","ios":"levelo://app?vid=4600b47a-0ab2-4d9a-b00a-1957f82b8f99"},"vehicle_type_id":"4","last_reported":1752815858,"current_range_meters":16000,"station_id":"ce4bhh92rcd13ifvqfi0","pricing_plan_id":"cebpf4jnsgd1na2vs0mg"},{"bike_id":"297914b4-f29d-4efa-a16f-6b7800ec2454","system_id":"levelo_inurba_marseille","lat":43.290255,"lon":5.371743,"is_reserved":false,"is_disabled":false,"rental_uris":{"android":"levelo://app?vid=297914b4-f29d-4efa-a16f-6b7800ec2454","ios":"levelo://app?vid=297914b4-f29d-4efa-a16f-6b7800ec2454"},"vehicle_type_id":"4","last_reported":1752815858,"current_range_meters":16000,"station_id":"","pricing_plan_id":"cebpf4jnsgd1na2vs0mg"},{"bike_id":"ae61525c-e54c-46d9-8f7e-09654e70b6d9","system_id":"levelo_inurba_marseille","lat":43.31221,"lon":5.36885,"is_reserved":false,"is_disabled":false,"rental_uris":{"android":"levelo://app?vid=ae61525c-e54c-46d9-8f7e-09654e70b6d9","ios":"levelo://app?vid=ae61525c-e54c-46d9-8f7e-09654e70b6d9"},"vehicle_type_id":"4","last_reported":1752815858,"current_range_meters":16000,"station_id":"ce4bgl92rcd13ifvqbq0","pricing_plan_id":"cebpf4jnsgd1na2vs0mg"},{"bike_id":"9e46aa88-7b19-47c3-b789-71b8902b53cb","system_id":"levelo_inurba_marseille","lat":43.281597,"lon":5.426337,"is_reserved":false,"is_disabled":false,"rental_uris":{"android":"levelo://app?vid=9e46aa88-7b19-47c3-b789-71b8902b53cb","ios":"levelo://app?vid=9e46aa88-7b19-47c3-b789-71b8902b53cb"},"vehicle_type_id":"4","last_reported":1752815858,"current_range_meters":16000,"station_id":"ce4bhnh2rcd13ifvqgug","pricing_plan_id":"cebpf4jnsgd1na2vs0mg"},{"bike_id":"e685af88-b5fd-497b-b88f-e95f2027255c","system_id":"levelo_inurba_marseille","lat":43.28352,"lon":5.38101,"is_reserved":false,"is_disabled":false,"rental_uris":{"android":"levelo://app?vid=e685af88-b5fd-497b-b88f-e95f2027255c","ios":"levelo://app?vid=e685af88-b5fd-497b-b88f-e95f2027255c"},"vehicle_type_id":"4","last_reported":1752815858,"current_range_meters":16000,"station_id":"ce4bh412rcd13ifvqdr0","pricing_plan_id":"cebpf4jnsgd1na2vs0mg"},{"bike_id":"ce7bd25b-5213-4881-a28b-f582e6a1d712","system_id":"levelo_inurba_marseille","lat":43.31406,"lon":5.36795,"is_reserved":false,"is_disabled":true,"rental_uris":{"android":"levelo://app?vid=ce7bd25b-5213-4881-a28b-f582e6a1d712","ios":"levelo://app?vid=ce7bd25b-5213-4881-a28b-f582e6a1d712"},"vehicle_type_id":"4","last_reported":1752815858,"current_range_meters":16000,"station_id":"ce4bgr92rcd13ifvqc6g","pricing_plan_id":"cebpf4jnsgd1na2vs0mg"},{"bike_id":"5dda7472-9949-46fe-b9fa-ab272459a5d6","system_id":"levelo_inurba_marseille","lat":43.3236,"lon":5.36763,"is_reserved":false,"is_disabled":false,"rental_uris":{"android":"levelo://app?vid=5dda7472-9949-46fe-b9fa-ab272459a5d6","ios":"levelo://app?vid=5dda7472-9949-46fe-b9fa-ab272459a5d6"},"vehicle_type_id":"4","last_reported":1752815858,"current_range_meters":16000,"station_id":"ce4bhsh2rcd13ifvqi2g","pricing_plan_id":"cebpf4jnsgd1na2vs0mg"},{"bike_id":"dae05621-e174-4ad1-ae88-3a8038512e1f","system_id":"levelo_inurba_marseille","lat":43.30811,"lon":5.38131,"is_reserved":false,"is_disabled":false,"rental_uris":{"android":"levelo://app?vid=dae05621-e174-4ad1-ae88-3a8038512e1f","ios":"levelo://app?vid=dae05621-e174-4ad1-ae88-3a8038512e1f"},"vehicle_type_id":"4","last_reported":1752815858,"current_range_meters":16000,"station_id":"ce4bgt12rcd13ifvqce0","pricing_plan_id":"cebpf4jnsgd1na2vs0mg"},{"bike_id":"88761124-1b21-4ab5-a7df-57a53f764661","system_id":"levelo_inurba_marseille","lat":43.312757,"lon":5.40162,"is_reserved":false,"is_disabled":false,"rental_uris":{"android":"levelo://app?vid=88761124-1b21-4ab5-a7df-57a53f764661","ios":"levelo://app?vid=88761124-1b21-4ab5-a7df-57a53f764661"},"vehicle_type_id":"4","last_reported":1752815858,"current_range_meters":16400,"station_id":"ce4bh092rcd13ifvqd30","pricing_plan_id":"cebpf4jnsgd1na2vs0mg"},{"bike_id":"8ca35254-0a78-41fe-ba14-d16c8017b384","system_id":"levelo_inurba_marseille","lat":43.28085,"lon":5.39655,"is_reserved":false,"is_disabled":false,"rental_uris":{"android":"levelo://app?vid=8ca35254-0a78-41fe-ba14-d16c8017b384","ios":"levelo://app?vid=8ca35254-0a78-41fe-ba14-d16c8017b384"},"vehicle_type_id":"4","last_reported":1752815858,"current_range_meters":16400,"station_id":"ce4bho12rcd13ifvqh2g","pricing_plan_id":"cebpf4jnsgd1na2vs0mg"},{"bike_id":"2d95b47d-d06f-40a4-bb6e-c13e954e3c8f","system_id":"levelo_inurba_marseille","lat":43.27743,"lon":5.41424,"is_reserved":false,"is_disabled":false,"rental_uris":{"android":"levelo://app?vid=2d95b47d-d06f-40a4-bb6e-c13e954e3c8f","ios":"levelo://app?vid=2d95b47d-d06f-40a4-bb6e-c13e954e3c8f"},"vehicle_type_id":"4","last_reported":1752815858,"current_range_meters":16400,"station_id":"","pricing_plan_id":"cebpf4jnsgd1na2vs0mg"},{"bike_id":"a3cbdb68-98f1-4153-a271-c25a6121bfcb","system_id":"levelo_inurba_marseille","lat":43.2928,"lon":5.40128,"is_reserved":false,"is_disabled":false,"rental_uris":{"android":"levelo://app?vid=a3cbdb68-98f1-4153-a271-c25a6121bfcb","ios":"levelo://app?vid=a3cbdb68-98f1-4153-a271-c25a6121bfcb"},"vehicle_type_id":"4","last_reported":1752815858,"current_range_meters":16400,"station_id":"ce4bh312rcd13ifvqdk0","pricing_plan_id":"cebpf4jnsgd1na2vs0mg"},{"bike_id":"8cf92f2c-8407-4cb4-951f-fa500b9dc5b7","system_id":"levelo_inurba_marseille","lat":43.30936,"lon":5.4015,"is_reserved":false,"is_disabled":false,"rental_uris":{"android":"levelo://app?vid=8cf92f2c-8407-4cb4-951f-fa500b9dc5b7","ios":"levelo://app?vid=8cf92f2c-8407-4cb4-951f-fa500b9dc5b7"},"vehicle_type_id":"4","last_reported":1752815858,"current_range_meters":16400,"station_id":"ce4bgvp2rcd13ifvqct0","pricing_plan_id":"cebpf4jnsgd1na2vs0mg"},{"bike_id":"3dd53699-95df-4ee3-81a9-ba42f3db478b","system_id":"levelo_inurba_marseille","lat":43.30331,"lon":5.40445,"is_reserved":false,"is_disabled":false,"rental_uris":{"android":"levelo://app?vid=3dd53699-95df-4ee3-81a9-ba42f3db478b","ios":"levelo://app?vid=3dd53699-95df-4ee3-81a9-ba42f3db478b"},"vehicle_type_id":"4","last_reported":1752815858,"current_range_meters":16800,"station_id":"ce4bh012rcd13ifvqd10","pricing_plan_id":"cebpf4jnsgd1na2vs0mg"},{"bike_id":"f91e82a8-2c1c-43f7-a129-fbfad7a1e99d","system_id":"levelo_inurba_marseille","lat":43.31123,"lon":5.37758,"is_reserved":false,"is_disabled":false,"rental_uris":{"android":"levelo://app?vid=f91e82a8-2c1c-43f7-a129-fbfad7a1e99d","ios":"levelo://app?vid=f91e82a8-2c1c-43f7-a129-fbfad7a1e99d"},"vehicle_type_id":"4","last_reported":1752815858,"current_range_meters":16800,"station_id":"ce4bgt92rcd13ifvqcg0","pricing_plan_id":"cebpf4jnsgd1na2vs0mg"},{"bike_id":"ac0ed4be-466c-4caa-b855-3c6bbe5a11b5","system_id":"levelo_inurba_marseille","lat":43.26769,"lon":5.37183,"is_reserved":false,"is_disabled":false,"rental_uris":{"android":"levelo://app?vid=ac0ed4be-466c-4caa-b855-3c6bbe5a11b5","ios":"levelo://app?vid=ac0ed4be-466c-4caa-b855-3c6bbe5a11b5"},"vehicle_type_id":"4","last_reported":1752815858,"current_range_meters":16800,"station_id":"","pricing_plan_id":"cebpf4jnsgd1na2vs0mg"},{"bike_id":"f310b61a-0922-4b58-99ec-3c007edcb4df","system_id":"levelo_inurba_marseille","lat":43.27922,"lon":5.39571,"is_reserved":false,"is_disabled":false,"rental_uris":{"android":"levelo://app?vid=f310b61a-0922-4b58-99ec-3c007edcb4df","ios":"levelo://app?vid=f310b61a-0922-4b58-99ec-3c007edcb4df"},"vehicle_type_id":"4","last_reported":1752815858,"current_range_meters":16800,"station_id":"ce4bhf92rcd13ifvqf40","pricing_plan_id":"cebpf4jnsgd1na2vs0mg"},{"bike_id":"6cd13d7f-1155-433a-bba2-9bb2be544c72","system_id":"levelo_inurba_marseille","lat":43.27068,"lon":5.4228,"is_reserved":false,"is_disabled":false,"rental_uris":{"android":"levelo://app?vid=6cd13d7f-1155-433a-bba2-9bb2be544c72","ios":"levelo://app?vid=6cd13d7f-1155-433a-bba2-9bb2be544c72"},"vehicle_type_id":"4","last_reported":1752815858,"current_range_meters":16800,"station_id":"ce4bhk92rcd13ifvqgb0","pricing_plan_id":"cebpf4jnsgd1na2vs0mg"},{"bike_id":"57bb565d-2136-465a-803d-648474c4a3a7","system_id":"levelo_inurba_marseille","lat":43.31802,"lon":5.36817,"is_reserved":false,"is_disabled":false,"rental_uris":{"android":"levelo://app?vid=57bb565d-2136-465a-803d-648474c4a3a7","ios":"levelo://app?vid=57bb565d-2136-465a-803d-648474c4a3a7"},"vehicle_type_id":"4","last_reported":1752815858,"current_range_meters":16800,"station_id":"","pricing_plan_id":"cebpf4jnsgd1na2vs0mg"},{"bike_id":"1fa6e47a-247c-43f3-a2d5-2457ee6c5d39","system_id":"levelo_inurba_marseille","lat":43.21191,"lon":5.35071,"is_reserved":false,"is_disabled":false,"rental_uris":{"android":"levelo://app?vid=1fa6e47a-247c-43f3-a2d5-2457ee6c5d39","ios":"levelo://app?vid=1fa6e47a-247c-43f3-a2d5-2457ee6c5d39"},"vehicle_type_id":"4","last_reported":1752815858,"current_range_meters":16800,"station_id":"st_cvj6sg6p6f1abm77japg","pricing_plan_id":"cebpf4jnsgd1na2vs0mg"},{"bike_id":"a67156ae-789e-45f5-ab3f-ed7d95b24540","system_id":"levelo_inurba_marseille","lat":43.211938,"lon":5.350748,"is_reserved":false,"is_disabled":false,"rental_uris":{"android":"levelo://app?vid=a67156ae-789e-45f5-ab3f-ed7d95b24540","ios":"levelo://app?vid=a67156ae-789e-45f5-ab3f-ed7d95b24540"},"vehicle_type_id":"4","last_reported":1752815858,"current_range_meters":16800,"station_id":"st_cvj6sg6p6f1abm77japg","pricing_plan_id":"cebpf4jnsgd1na2vs0mg"},{"bike_id":"03580a94-8da1-4cc8-a204-84801c736590","system_id":"levelo_inurba_marseille","lat":43.28658,"lon":5.36356,"is_reserved":false,"is_disabled":false,"rental_uris":{"android":"levelo://app?vid=03580a94-8da1-4cc8-a204-84801c736590","ios":"levelo://app?vid=03580a94-8da1-4cc8-a204-84801c736590"},"vehicle_type_id":"4","last_reported":1752815858,"current_range_meters":16800,"station_id":"ce4bhah2rcd13ifvqej0","pricing_plan_id":"cebpf4jnsgd1na2vs0mg"},{"bike_id":"ab40eab5-f236-4422-a5a5-b90da08304bc","system_id":"levelo_inurba_marseille","lat":43.30694,"lon":5.37183,"is_reserved":false,"is_disabled":false,"rental_uris":{"android":"levelo://app?vid=ab40eab5-f236-4422-a5a5-b90da08304bc","ios":"levelo://app?vid=ab40eab5-f236-4422-a5a5-b90da08304bc"},"vehicle_type_id":"4","last_reported":1752815858,"current_range_meters":16800,"station_id":"","pricing_plan_id":"cebpf4jnsgd1na2vs0mg"},{"bike_id":"5ac93e7c-286a-4c1e-b6c0-4e9963e5a9f8","system_id":"levelo_inurba_marseille","lat":43.2119,"lon":5.35069,"is_reserved":false,"is_disabled":false,"rental_uris":{"android":"levelo://app?vid=5ac93e7c-286a-4c1e-b6c0-4e9963e5a9f8","ios":"levelo://app?vid=5ac93e7c-286a-4c1e-b6c0-4e9963e5a9f8"},"vehicle_type_id":"4","last_reported":1752815858,"current_range_meters":16800,"station_id":"st_cvj6sg6p6f1abm77japg","pricing_plan_id":"cebpf4jnsgd1na2vs0mg"},{"bike_id":"12717973-3258-43e4-91e2-6d6cc1b5725a","system_id":"levelo_inurba_marseille","lat":43.28926,"lon":5.38394,"is_reserved":false,"is_disabled":true,"rental_uris":{"android":"levelo://app?vid=12717973-3258-43e4-91e2-6d6cc1b5725a","ios":"levelo://app?vid=12717973-3258-43e4-91e2-6d6cc1b5725a"},"vehicle_type_id":"4","last_reported":1752815858,"current_range_meters":16800,"station_id":"ce4bh612rcd13ifvqe6g","pricing_plan_id":"cebpf4jnsgd1na2vs0mg"},{"bike_id":"8ce9b80c-19c6-4985-81c6-50f285c26740","system_id":"levelo_inurba_marseille","lat":43.23952,"lon":5.36624,"is_reserved":false,"is_disabled":false,"rental_uris":{"android":"levelo://app?vid=8ce9b80c-19c6-4985-81c6-50f285c26740","ios":"levelo://app?vid=8ce9b80c-19c6-4985-81c6-50f285c26740"},"vehicle_type_id":"4","last_reported":1752815858,"current_range_meters":17200,"station_id":"ce4bhi12rcd13ifvqfp0","pricing_plan_id":"cebpf4jnsgd1na2vs0mg"},{"bike_id":"069e2087-a51d-416a-b9f7-0ef6a30f8082","system_id":"levelo_inurba_marseille","lat":43.211893,"lon":5.350768,"is_reserved":false,"is_disabled":false,"rental_uris":{"android":"levelo://app?vid=069e2087-a51d-416a-b9f7-0ef6a30f8082","ios":"levelo://app?vid=069e2087-a51d-416a-b9f7-0ef6a30f8082"},"vehicle_type_id":"4","last_reported":1752815858,"current_range_meters":17200,"station_id":"st_cvj6sg6p6f1abm77japg","pricing_plan_id":"cebpf4jnsgd1na2vs0mg"},{"bike_id":"db7bad39-17ec-4f0b-95ae-0ccbb39420e1","system_id":"levelo_inurba_marseille","lat":43.22495,"lon":5.34792,"is_reserved":false,"is_disabled":false,"rental_uris":{"android":"levelo://app?vid=db7bad39-17ec-4f0b-95ae-0ccbb39420e1","ios":"levelo://app?vid=db7bad39-17ec-4f0b-95ae-0ccbb39420e1"},"vehicle_type_id":"4","last_reported":1752815858,"current_range_meters":17200,"station_id":"st_cvj5dfep6f1abm77gieg","pricing_plan_id":"cebpf4jnsgd1na2vs0mg"},{"bike_id":"edd0079d-996b-4ae3-9a31-d781f3a059ec","system_id":"levelo_inurba_marseille","lat":43.33786,"lon":5.37426,"is_reserved":false,"is_disabled":false,"rental_uris":{"android":"levelo://app?vid=edd0079d-996b-4ae3-9a31-d781f3a059ec","ios":"levelo://app?vid=edd0079d-996b-4ae3-9a31-d781f3a059ec"},"vehicle_type_id":"4","last_reported":1752815858,"current_range_meters":17200,"station_id":"","pricing_plan_id":"cebpf4jnsgd1na2vs0mg"},{"bike_id":"b7fe52dd-f025-4212-9e78-19e7f6f09593","system_id":"levelo_inurba_marseille","lat":43.212056,"lon":5.350651,"is_reserved":false,"is_disabled":false,"rental_uris":{"android":"levelo://app?vid=b7fe52dd-f025-4212-9e78-19e7f6f09593","ios":"levelo://app?vid=b7fe52dd-f025-4212-9e78-19e7f6f09593"},"vehicle_type_id":"4","last_reported":1752815858,"current_range_meters":17200,"station_id":"st_cvj6sg6p6f1abm77japg","pricing_plan_id":"cebpf4jnsgd1na2vs0mg"},{"bike_id":"7f32b2a7-ab5c-4883-8d45-12fcd6164785","system_id":"levelo_inurba_marseille","lat":43.295075,"lon":5.393906,"is_reserved":false,"is_disabled":false,"rental_uris":{"android":"levelo://app?vid=7f32b2a7-ab5c-4883-8d45-12fcd6164785","ios":"levelo://app?vid=7f32b2a7-ab5c-4883-8d45-12fcd6164785"},"vehicle_type_id":"4","last_reported":1752815858,"current_range_meters":17200,"station_id":"ce4bh292rcd13ifvqdf0","pricing_plan_id":"cebpf4jnsgd1na2vs0mg"},{"bike_id":"cfb52d04-9134-4c86-8269-771716b20f27","system_id":"levelo_inurba_marseille","lat":43.211968,"lon":5.350718,"is_reserved":false,"is_disabled":false,"rental_uris":{"android":"levelo://app?vid=cfb52d04-9134-4c86-8269-771716b20f27","ios":"levelo://app?vid=cfb52d04-9134-4c86-8269-771716b20f27"},"vehicle_type_id":"4","last_reported":1752815858,"current_range_meters":17200,"station_id":"st_cvj6sg6p6f1abm77japg","pricing_plan_id":"cebpf4jnsgd1na2vs0mg"},{"bike_id":"68d3533b-4c6f-4fc8-bf0e-8f31e9e437ca","system_id":"levelo_inurba_marseille","lat":43.24391,"lon":5.37049,"is_reserved":false,"is_disabled":false,"rental_uris":{"android":"levelo://app?vid=68d3533b-4c6f-4fc8-bf0e-8f31e9e437ca","ios":"levelo://app?vid=68d3533b-4c6f-4fc8-bf0e-8f31e9e437ca"},"vehicle_type_id":"4","last_reported":1752815858,"current_range_meters":17200,"station_id":"ce4bhhh2rcd13ifvqfk0","pricing_plan_id":"cebpf4jnsgd1na2vs0mg"},{"bike_id":"fbd64516-72f4-4298-a351-2ea26d393f0a","system_id":"levelo_inurba_marseille","lat":43.30734,"lon":5.42433,"is_reserved":false,"is_disabled":false,"rental_uris":{"android":"levelo://app?vid=fbd64516-72f4-4298-a351-2ea26d393f0a","ios":"levelo://app?vid=fbd64516-72f4-4298-a351-2ea26d393f0a"},"vehicle_type_id":"4","last_reported":1752815858,"current_range_meters":17600,"station_id":"st_cvj6ca6bvosntc0bfgr0","pricing_plan_id":"cebpf4jnsgd1na2vs0mg"},{"bike_id":"a9931991-07f0-48f8-a3d2-6ad41207c5cb","system_id":"levelo_inurba_marseille","lat":43.309301,"lon":5.401419,"is_reserved":false,"is_disabled":false,"rental_uris":{"android":"levelo://app?vid=a9931991-07f0-48f8-a3d2-6ad41207c5cb","ios":"levelo://app?vid=a9931991-07f0-48f8-a3d2-6ad41207c5cb"},"vehicle_type_id":"4","last_reported":1752815858,"current_range_meters":17600,"station_id":"ce4bgvp2rcd13ifvqct0","pricing_plan_id":"cebpf4jnsgd1na2vs0mg"},{"bike_id":"c8f71e4f-86e8-4c13-a052-b668c5b486f6","system_id":"levelo_inurba_marseille","lat":43.295349,"lon":5.385476,"is_reserved":false,"is_disabled":true,"rental_uris":{"android":"levelo://app?vid=c8f71e4f-86e8-4c13-a052-b668c5b486f6","ios":"levelo://app?vid=c8f71e4f-86e8-4c13-a052-b668c5b486f6"},"vehicle_type_id":"4","last_reported":1752815858,"current_range_meters":17600,"station_id":"ce4bgih2rcd13ifvqba0","pricing_plan_id":"cebpf4jnsgd1na2vs0mg"},{"bike_id":"b5ecd6f5-ffe3-476b-9516-848976918979","system_id":"levelo_inurba_marseille","lat":43.29297,"lon":5.40104,"is_reserved":false,"is_disabled":false,"rental_uris":{"android":"levelo://app?vid=b5ecd6f5-ffe3-476b-9516-848976918979","ios":"levelo://app?vid=b5ecd6f5-ffe3-476b-9516-848976918979"},"vehicle_type_id":"4","last_reported":1752815858,"current_range_meters":17600,"station_id":"ce4bh312rcd13ifvqdk0","pricing_plan_id":"cebpf4jnsgd1na2vs0mg"},{"bike_id":"efad4d56-c499-4f8b-9b57-b58df3e794e2","system_id":"levelo_inurba_marseille","lat":43.23966,"lon":5.36632,"is_reserved":false,"is_disabled":false,"rental_uris":{"android":"levelo://app?vid=efad4d56-c499-4f8b-9b57-b58df3e794e2","ios":"levelo://app?vid=efad4d56-c499-4f8b-9b57-b58df3e794e2"},"vehicle_type_id":"4","last_reported":1752815858,"current_range_meters":17600,"station_id":"ce4bhi12rcd13ifvqfp0","pricing_plan_id":"cebpf4jnsgd1na2vs0mg"},{"bike_id":"ba9f3e38-527b-4abb-aed1-dabb2d5ce59f","system_id":"levelo_inurba_marseille","lat":43.26943,"lon":5.40242,"is_reserved":false,"is_disabled":false,"rental_uris":{"android":"levelo://app?vid=ba9f3e38-527b-4abb-aed1-dabb2d5ce59f","ios":"levelo://app?vid=ba9f3e38-527b-4abb-aed1-dabb2d5ce59f"},"vehicle_type_id":"4","last_reported":1752815858,"current_range_meters":17600,"station_id":"cjm6bp8fraef2m0cb0m0","pricing_plan_id":"cebpf4jnsgd1na2vs0mg"},{"bike_id":"50c911ae-f1ca-45ee-9ed7-9a227c3a6fc5","system_id":"levelo_inurba_marseille","lat":43.33121,"lon":5.37494,"is_reserved":false,"is_disabled":false,"rental_uris":{"android":"levelo://app?vid=50c911ae-f1ca-45ee-9ed7-9a227c3a6fc5","ios":"levelo://app?vid=50c911ae-f1ca-45ee-9ed7-9a227c3a6fc5"},"vehicle_type_id":"4","last_reported":1752815858,"current_range_meters":18000,"station_id":"","pricing_plan_id":"cebpf4jnsgd1na2vs0mg"},{"bike_id":"e12e0172-8a8f-433d-8168-acbe61a1a376","system_id":"levelo_inurba_marseille","lat":43.313809,"lon":5.385065,"is_reserved":false,"is_disabled":false,"rental_uris":{"android":"levelo://app?vid=e12e0172-8a8f-433d-8168-acbe61a1a376","ios":"levelo://app?vid=e12e0172-8a8f-433d-8168-acbe61a1a376"},"vehicle_type_id":"4","last_reported":1752815858,"current_range_meters":18000,"station_id":"ce4bgt92rcd13ifvqcf0","pricing_plan_id":"cebpf4jnsgd1na2vs0mg"},{"bike_id":"500542d6-86a5-41ea-ad3b-7ed3dfd2aada","system_id":"levelo_inurba_marseille","lat":43.30377,"lon":5.42484,"is_reserved":false,"is_disabled":false,"rental_uris":{"android":"levelo://app?vid=500542d6-86a5-41ea-ad3b-7ed3dfd2aada","ios":"levelo://app?vid=500542d6-86a5-41ea-ad3b-7ed3dfd2aada"},"vehicle_type_id":"4","last_reported":1752815858,"current_range_meters":18000,"station_id":"ce4bhoh2rcd13ifvqh6g","pricing_plan_id":"cebpf4jnsgd1na2vs0mg"},{"bike_id":"232c9261-18cd-4c2a-b767-82323c8c0ca7","system_id":"levelo_inurba_marseille","lat":43.30885,"lon":5.37189,"is_reserved":false,"is_disabled":false,"rental_uris":{"android":"levelo://app?vid=232c9261-18cd-4c2a-b767-82323c8c0ca7","ios":"levelo://app?vid=232c9261-18cd-4c2a-b767-82323c8c0ca7"},"vehicle_type_id":"4","last_reported":1752815858,"current_range_meters":18800,"station_id":"ce4bguh2rcd13ifvqckg","pricing_plan_id":"cebpf4jnsgd1na2vs0mg"},{"bike_id":"9a8280a9-1905-43b5-8539-0f2efd6be0e5","system_id":"levelo_inurba_marseille","lat":43.29878,"lon":5.39726,"is_reserved":false,"is_disabled":false,"rental_uris":{"android":"levelo://app?vid=9a8280a9-1905-43b5-8539-0f2efd6be0e5","ios":"levelo://app?vid=9a8280a9-1905-43b5-8539-0f2efd6be0e5"},"vehicle_type_id":"4","last_reported":1752815858,"current_range_meters":18800,"station_id":"ce4bh0h2rcd13ifvqd50","pricing_plan_id":"cebpf4jnsgd1na2vs0mg"},{"bike_id":"8c4c5486-e460-4243-aae1-16dbe7ff7e68","system_id":"levelo_inurba_marseille","lat":43.3015,"lon":5.38076,"is_reserved":false,"is_disabled":false,"rental_uris":{"android":"levelo://app?vid=8c4c5486-e460-4243-aae1-16dbe7ff7e68","ios":"levelo://app?vid=8c4c5486-e460-4243-aae1-16dbe7ff7e68"},"vehicle_type_id":"4","last_reported":1752815858,"current_range_meters":18800,"station_id":"ce4bgjp2rcd13ifvqbh0","pricing_plan_id":"cebpf4jnsgd1na2vs0mg"},{"bike_id":"1572dd02-0a2c-4561-887a-3e5a9f01fef3","system_id":"levelo_inurba_marseille","lat":43.30295,"lon":5.37685,"is_reserved":false,"is_disabled":false,"rental_uris":{"android":"levelo://app?vid=1572dd02-0a2c-4561-887a-3e5a9f01fef3","ios":"levelo://app?vid=1572dd02-0a2c-4561-887a-3e5a9f01fef3"},"vehicle_type_id":"4","last_reported":1752815858,"current_range_meters":18800,"station_id":"ce4bguh2rcd13ifvqcj0","pricing_plan_id":"cebpf4jnsgd1na2vs0mg"},{"bike_id":"a89cdf17-0dd4-4c32-bbf2-f6cc4a99dc3c","system_id":"levelo_inurba_marseille","lat":43.27939,"lon":5.38017,"is_reserved":false,"is_disabled":false,"rental_uris":{"android":"levelo://app?vid=a89cdf17-0dd4-4c32-bbf2-f6cc4a99dc3c","ios":"levelo://app?vid=a89cdf17-0dd4-4c32-bbf2-f6cc4a99dc3c"},"vehicle_type_id":"4","last_reported":1752815858,"current_range_meters":18800,"station_id":"ce4bhf92rcd13ifvqf50","pricing_plan_id":"cebpf4jnsgd1na2vs0mg"},{"bike_id":"4f3a0988-0550-491c-bf91-afee47b9458f","system_id":"levelo_inurba_marseille","lat":43.29311,"lon":5.37176,"is_reserved":false,"is_disabled":true,"rental_uris":{"android":"levelo://app?vid=4f3a0988-0550-491c-bf91-afee47b9458f","ios":"levelo://app?vid=4f3a0988-0550-491c-bf91-afee47b9458f"},"vehicle_type_id":"4","last_reported":1752815858,"current_range_meters":18800,"station_id":"ce4bgh92rcd13ifvqb40","pricing_plan_id":"cebpf4jnsgd1na2vs0mg"},{"bike_id":"ad1ebbcb-5d54-4242-a1b8-0475efd5d8ea","system_id":"levelo_inurba_marseille","lat":43.25118,"lon":5.40378,"is_reserved":false,"is_disabled":false,"rental_uris":{"android":"levelo://app?vid=ad1ebbcb-5d54-4242-a1b8-0475efd5d8ea","ios":"levelo://app?vid=ad1ebbcb-5d54-4242-a1b8-0475efd5d8ea"},"vehicle_type_id":"4","last_reported":1752815858,"current_range_meters":19200,"station_id":"ce4bhlh2rcd13ifvqgig","pricing_plan_id":"cebpf4jnsgd1na2vs0mg"},{"bike_id":"bd342ea2-41b1-42f8-91b4-e4696431ba1e","system_id":"levelo_inurba_marseille","lat":43.27971,"lon":5.38759,"is_reserved":false,"is_disabled":false,"rental_uris":{"android":"levelo://app?vid=bd342ea2-41b1-42f8-91b4-e4696431ba1e","ios":"levelo://app?vid=bd342ea2-41b1-42f8-91b4-e4696431ba1e"},"vehicle_type_id":"4","last_reported":1752815858,"current_range_meters":19200,"station_id":"ce4bhg12rcd13ifvqf80","pricing_plan_id":"cebpf4jnsgd1na2vs0mg"},{"bike_id":"1dabc333-36c5-41e5-9ed3-17b4c3c9fd9a","system_id":"levelo_inurba_marseille","lat":43.28419,"lon":5.34976,"is_reserved":false,"is_disabled":true,"rental_uris":{"android":"levelo://app?vid=1dabc333-36c5-41e5-9ed3-17b4c3c9fd9a","ios":"levelo://app?vid=1dabc333-36c5-41e5-9ed3-17b4c3c9fd9a"},"vehicle_type_id":"4","last_reported":1752815858,"current_range_meters":19200,"station_id":"ce4bhbh2rcd13ifvqepg","pricing_plan_id":"cebpf4jnsgd1na2vs0mg"},{"bike_id":"1465bbf8-e672-45b1-9984-578e5b1eaa8a","system_id":"levelo_inurba_marseille","lat":43.284069,"lon":5.37519,"is_reserved":false,"is_disabled":false,"rental_uris":{"android":"levelo://app?vid=1465bbf8-e672-45b1-9984-578e5b1eaa8a","ios":"levelo://app?vid=1465bbf8-e672-45b1-9984-578e5b1eaa8a"},"vehicle_type_id":"4","last_reported":1752815858,"current_range_meters":19200,"station_id":"ce4bh412rcd13ifvqds0","pricing_plan_id":"cebpf4jnsgd1na2vs0mg"},{"bike_id":"afc91c81-7042-4270-a28e-07e325ae83c9","system_id":"levelo_inurba_marseille","lat":43.21203,"lon":5.350686,"is_reserved":false,"is_disabled":false,"rental_uris":{"android":"levelo://app?vid=afc91c81-7042-4270-a28e-07e325ae83c9","ios":"levelo://app?vid=afc91c81-7042-4270-a28e-07e325ae83c9"},"vehicle_type_id":"4","last_reported":1752815858,"current_range_meters":19200,"station_id":"st_cvj6sg6p6f1abm77japg","pricing_plan_id":"cebpf4jnsgd1na2vs0mg"},{"bike_id":"d89dfe77-50a4-4c72-9050-42a52a3b9a57","system_id":"levelo_inurba_marseille","lat":43.298484,"lon":5.362853,"is_reserved":false,"is_disabled":false,"rental_uris":{"android":"levelo://app?vid=d89dfe77-50a4-4c72-9050-42a52a3b9a57","ios":"levelo://app?vid=d89dfe77-50a4-4c72-9050-42a52a3b9a57"},"vehicle_type_id":"4","last_reported":1752815858,"current_range_meters":19200,"station_id":"","pricing_plan_id":"cebpf4jnsgd1na2vs0mg"},{"bike_id":"2b2ee66a-f628-4f79-bbed-b1299bc7573d","system_id":"levelo_inurba_marseille","lat":43.30252,"lon":5.40103,"is_reserved":false,"is_disabled":true,"rental_uris":{"android":"levelo://app?vid=2b2ee66a-f628-4f79-bbed-b1299bc7573d","ios":"levelo://app?vid=2b2ee66a-f628-4f79-bbed-b1299bc7573d"},"vehicle_type_id":"4","last_reported":1752815858,"current_range_meters":19200,"station_id":"ce4bgvh2rcd13ifvqcs0","pricing_plan_id":"cebpf4jnsgd1na2vs0mg"},{"bike_id":"79d20d0d-5afa-4650-91fe-cb32f26ae19e","system_id":"levelo_inurba_marseille","lat":43.24083,"lon":5.37733,"is_reserved":false,"is_disabled":false,"rental_uris":{"android":"levelo://app?vid=79d20d0d-5afa-4650-91fe-cb32f26ae19e","ios":"levelo://app?vid=79d20d0d-5afa-4650-91fe-cb32f26ae19e"},"vehicle_type_id":"4","last_reported":1752815858,"current_range_meters":19200,"station_id":"ce4bhnp2rcd13ifvqgvg","pricing_plan_id":"cebpf4jnsgd1na2vs0mg"},{"bike_id":"a21e99a4-dfb2-477d-ab58-a75aaf0702df","system_id":"levelo_inurba_marseille","lat":43.240728,"lon":5.377614,"is_reserved":false,"is_disabled":false,"rental_uris":{"android":"levelo://app?vid=a21e99a4-dfb2-477d-ab58-a75aaf0702df","ios":"levelo://app?vid=a21e99a4-dfb2-477d-ab58-a75aaf0702df"},"vehicle_type_id":"4","last_reported":1752815858,"current_range_meters":19200,"station_id":"ce4bhnp2rcd13ifvqgvg","pricing_plan_id":"cebpf4jnsgd1na2vs0mg"},{"bike_id":"f0f5d048-f8e9-45fa-9ac6-4a0d2afb5381","system_id":"levelo_inurba_marseille","lat":43.26962,"lon":5.40251,"is_reserved":false,"is_disabled":false,"rental_uris":{"android":"levelo://app?vid=f0f5d048-f8e9-45fa-9ac6-4a0d2afb5381","ios":"levelo://app?vid=f0f5d048-f8e9-45fa-9ac6-4a0d2afb5381"},"vehicle_type_id":"4","last_reported":1752815858,"current_range_meters":19600,"station_id":"cjm6bp8fraef2m0cb0m0","pricing_plan_id":"cebpf4jnsgd1na2vs0mg"},{"bike_id":"f90f1efc-2add-4576-a300-db6e14a5c471","system_id":"levelo_inurba_marseille","lat":43.32102,"lon":5.36805,"is_reserved":false,"is_disabled":false,"rental_uris":{"android":"levelo://app?vid=f90f1efc-2add-4576-a300-db6e14a5c471","ios":"levelo://app?vid=f90f1efc-2add-4576-a300-db6e14a5c471"},"vehicle_type_id":"4","last_reported":1752815858,"current_range_meters":19600,"station_id":"ce4bhrh2rcd13ifvqhug","pricing_plan_id":"cebpf4jnsgd1na2vs0mg"},{"bike_id":"159de151-a4b9-4217-8ef3-76155c48291e","system_id":"levelo_inurba_marseille","lat":43.31081,"lon":5.42429,"is_reserved":false,"is_disabled":false,"rental_uris":{"android":"levelo://app?vid=159de151-a4b9-4217-8ef3-76155c48291e","ios":"levelo://app?vid=159de151-a4b9-4217-8ef3-76155c48291e"},"vehicle_type_id":"4","last_reported":1752815858,"current_range_meters":19600,"station_id":"ce4bhp92rcd13ifvqhag","pricing_plan_id":"cebpf4jnsgd1na2vs0mg"},{"bike_id":"d051c67d-4e08-4ef6-bdcc-e3d68cbdc31f","system_id":"levelo_inurba_marseille","lat":43.271828,"lon":5.409923,"is_reserved":false,"is_disabled":false,"rental_uris":{"android":"levelo://app?vid=d051c67d-4e08-4ef6-bdcc-e3d68cbdc31f","ios":"levelo://app?vid=d051c67d-4e08-4ef6-bdcc-e3d68cbdc31f"},"vehicle_type_id":"4","last_reported":1752815858,"current_range_meters":19600,"station_id":"ce4bhl12rcd13ifvqgf0","pricing_plan_id":"cebpf4jnsgd1na2vs0mg"},{"bike_id":"5ed7e33c-75eb-4f80-9ced-f5eee5190af4","system_id":"levelo_inurba_marseille","lat":43.295579,"lon":5.422898,"is_reserved":false,"is_disabled":false,"rental_uris":{"android":"levelo://app?vid=5ed7e33c-75eb-4f80-9ced-f5eee5190af4","ios":"levelo://app?vid=5ed7e33c-75eb-4f80-9ced-f5eee5190af4"},"vehicle_type_id":"4","last_reported":1752815858,"current_range_meters":19600,"station_id":"ce4bhph2rcd13ifvqhdg","pricing_plan_id":"cebpf4jnsgd1na2vs0mg"},{"bike_id":"dec53329-5861-4c11-ab29-460130664d54","system_id":"levelo_inurba_marseille","lat":43.30811,"lon":5.38149,"is_reserved":false,"is_disabled":false,"rental_uris":{"android":"levelo://app?vid=dec53329-5861-4c11-ab29-460130664d54","ios":"levelo://app?vid=dec53329-5861-4c11-ab29-460130664d54"},"vehicle_type_id":"4","last_reported":1752815858,"current_range_meters":19600,"station_id":"ce4bgt12rcd13ifvqce0","pricing_plan_id":"cebpf4jnsgd1na2vs0mg"},{"bike_id":"8677478c-f626-4d31-860d-d2b598a5cdb3","system_id":"levelo_inurba_marseille","lat":43.311192,"lon":5.377601,"is_reserved":false,"is_disabled":false,"rental_uris":{"android":"levelo://app?vid=8677478c-f626-4d31-860d-d2b598a5cdb3","ios":"levelo://app?vid=8677478c-f626-4d31-860d-d2b598a5cdb3"},"vehicle_type_id":"4","last_reported":1752815858,"current_range_meters":19600,"station_id":"ce4bgt92rcd13ifvqcg0","pricing_plan_id":"cebpf4jnsgd1na2vs0mg"},{"bike_id":"09ce2634-f19f-432a-bceb-c0c3e1769c16","system_id":"levelo_inurba_marseille","lat":43.303292,"lon":5.404339,"is_reserved":false,"is_disabled":false,"rental_uris":{"android":"levelo://app?vid=09ce2634-f19f-432a-bceb-c0c3e1769c16","ios":"levelo://app?vid=09ce2634-f19f-432a-bceb-c0c3e1769c16"},"vehicle_type_id":"4","last_reported":1752815858,"current_range_meters":19600,"station_id":"ce4bh012rcd13ifvqd10","pricing_plan_id":"cebpf4jnsgd1na2vs0mg"},{"bike_id":"df41e1d3-5b98-4940-b0e6-55f9c27d5951","system_id":"levelo_inurba_marseille","lat":43.234468,"lon":5.412504,"is_reserved":false,"is_disabled":false,"rental_uris":{"android":"levelo://app?vid=df41e1d3-5b98-4940-b0e6-55f9c27d5951","ios":"levelo://app?vid=df41e1d3-5b98-4940-b0e6-55f9c27d5951"},"vehicle_type_id":"4","last_reported":1752815858,"current_range_meters":19600,"station_id":"","pricing_plan_id":"cebpf4jnsgd1na2vs0mg"},{"bike_id":"c6da577b-9d43-433c-ba6c-e9d27d8ea9a7","system_id":"levelo_inurba_marseille","lat":43.30922,"lon":5.4015,"is_reserved":false,"is_disabled":false,"rental_uris":{"android":"levelo://app?vid=c6da577b-9d43-433c-ba6c-e9d27d8ea9a7","ios":"levelo://app?vid=c6da577b-9d43-433c-ba6c-e9d27d8ea9a7"},"vehicle_type_id":"4","last_reported":1752815858,"current_range_meters":19600,"station_id":"ce4bgvp2rcd13ifvqct0","pricing_plan_id":"cebpf4jnsgd1na2vs0mg"},{"bike_id":"94c07cb2-0943-4d24-99f2-97bdab47aa3f","system_id":"levelo_inurba_marseille","lat":43.337444,"lon":5.374475,"is_reserved":false,"is_disabled":false,"rental_uris":{"android":"levelo://app?vid=94c07cb2-0943-4d24-99f2-97bdab47aa3f","ios":"levelo://app?vid=94c07cb2-0943-4d24-99f2-97bdab47aa3f"},"vehicle_type_id":"4","last_reported":1752815858,"current_range_meters":19600,"station_id":"","pricing_plan_id":"cebpf4jnsgd1na2vs0mg"},{"bike_id":"52c5c06c-938f-4748-be82-bdf4ecb97f05","system_id":"levelo_inurba_marseille","lat":43.29249,"lon":5.40928,"is_reserved":false,"is_disabled":false,"rental_uris":{"android":"levelo://app?vid=52c5c06c-938f-4748-be82-bdf4ecb97f05","ios":"levelo://app?vid=52c5c06c-938f-4748-be82-bdf4ecb97f05"},"vehicle_type_id":"4","last_reported":1752815858,"current_range_meters":20000,"station_id":"ce4bh192rcd13ifvqdc0","pricing_plan_id":"cebpf4jnsgd1na2vs0mg"},{"bike_id":"b44a9763-a554-427c-b7f0-31e96b6464d6","system_id":"levelo_inurba_marseille","lat":43.28704,"lon":5.39988,"is_reserved":false,"is_disabled":false,"rental_uris":{"android":"levelo://app?vid=b44a9763-a554-427c-b7f0-31e96b6464d6","ios":"levelo://app?vid=b44a9763-a554-427c-b7f0-31e96b6464d6"},"vehicle_type_id":"4","last_reported":1752815858,"current_range_meters":20000,"station_id":"ce4bho92rcd13ifvqh3g","pricing_plan_id":"cebpf4jnsgd1na2vs0mg"},{"bike_id":"f28c1229-56d6-4a3f-9f72-05daaa2bd577","system_id":"levelo_inurba_marseille","lat":43.295736,"lon":5.399826,"is_reserved":false,"is_disabled":false,"rental_uris":{"android":"levelo://app?vid=f28c1229-56d6-4a3f-9f72-05daaa2bd577","ios":"levelo://app?vid=f28c1229-56d6-4a3f-9f72-05daaa2bd577"},"vehicle_type_id":"4","last_reported":1752815858,"current_range_meters":20000,"station_id":"ce4bh312rcd13ifvqdj0","pricing_plan_id":"cebpf4jnsgd1na2vs0mg"},{"bike_id":"1bea52eb-b99a-43e3-8fce-07ed497a87d3","system_id":"levelo_inurba_marseille","lat":43.323434,"lon":5.406089,"is_reserved":false,"is_disabled":false,"rental_uris":{"android":"levelo://app?vid=1bea52eb-b99a-43e3-8fce-07ed497a87d3","ios":"levelo://app?vid=1bea52eb-b99a-43e3-8fce-07ed497a87d3"},"vehicle_type_id":"4","last_reported":1752815858,"current_range_meters":20000,"station_id":"ce4bhq92rcd13ifvqhjg","pricing_plan_id":"cebpf4jnsgd1na2vs0mg"},{"bike_id":"35d7c238-1986-45e0-98e6-150f7b00844a","system_id":"levelo_inurba_marseille","lat":43.31725,"lon":5.424,"is_reserved":false,"is_disabled":false,"rental_uris":{"android":"levelo://app?vid=35d7c238-1986-45e0-98e6-150f7b00844a","ios":"levelo://app?vid=35d7c238-1986-45e0-98e6-150f7b00844a"},"vehicle_type_id":"4","last_reported":1752815858,"current_range_meters":20000,"station_id":"ce4bhp92rcd13ifvqhbg","pricing_plan_id":"cebpf4jnsgd1na2vs0mg"},{"bike_id":"6d1a5811-4117-41c5-a767-6b28cc4c80e0","system_id":"levelo_inurba_marseille","lat":43.279435,"lon":5.410394,"is_reserved":false,"is_disabled":false,"rental_uris":{"android":"levelo://app?vid=6d1a5811-4117-41c5-a767-6b28cc4c80e0","ios":"levelo://app?vid=6d1a5811-4117-41c5-a767-6b28cc4c80e0"},"vehicle_type_id":"4","last_reported":1752815858,"current_range_meters":20000,"station_id":"ce4bhnp2rcd13ifvqh0g","pricing_plan_id":"cebpf4jnsgd1na2vs0mg"},{"bike_id":"c8b433ff-5ece-4af4-b6b9-c347630f67f0","system_id":"levelo_inurba_marseille","lat":43.30477,"lon":5.37889,"is_reserved":false,"is_disabled":false,"rental_uris":{"android":"levelo://app?vid=c8b433ff-5ece-4af4-b6b9-c347630f67f0","ios":"levelo://app?vid=c8b433ff-5ece-4af4-b6b9-c347630f67f0"},"vehicle_type_id":"4","last_reported":1752815858,"current_range_meters":20000,"station_id":"ce4bgup2rcd13ifvqcn0","pricing_plan_id":"cebpf4jnsgd1na2vs0mg"},{"bike_id":"5990edc1-1f85-4ae3-bc9c-a4bd7429e4ba","system_id":"levelo_inurba_marseille","lat":43.303294,"lon":5.404225,"is_reserved":false,"is_disabled":false,"rental_uris":{"android":"levelo://app?vid=5990edc1-1f85-4ae3-bc9c-a4bd7429e4ba","ios":"levelo://app?vid=5990edc1-1f85-4ae3-bc9c-a4bd7429e4ba"},"vehicle_type_id":"4","last_reported":1752815858,"current_range_meters":20000,"station_id":"ce4bh012rcd13ifvqd10","pricing_plan_id":"cebpf4jnsgd1na2vs0mg"},{"bike_id":"96579d04-b9e9-484c-9b9a-af500e5e8552","system_id":"levelo_inurba_marseille","lat":43.32673,"lon":5.36409,"is_reserved":false,"is_disabled":false,"rental_uris":{"android":"levelo://app?vid=96579d04-b9e9-484c-9b9a-af500e5e8552","ios":"levelo://app?vid=96579d04-b9e9-484c-9b9a-af500e5e8552"},"vehicle_type_id":"4","last_reported":1752815858,"current_range_meters":20000,"station_id":"","pricing_plan_id":"cebpf4jnsgd1na2vs0mg"},{"bike_id":"2ffc5795-62f8-4b9c-9b98-d06aa5124be3","system_id":"levelo_inurba_marseille","lat":43.303259,"lon":5.404446,"is_reserved":false,"is_disabled":false,"rental_uris":{"android":"levelo://app?vid=2ffc5795-62f8-4b9c-9b98-d06aa5124be3","ios":"levelo://app?vid=2ffc5795-62f8-4b9c-9b98-d06aa5124be3"},"vehicle_type_id":"4","last_reported":1752815858,"current_range_meters":20400,"station_id":"ce4bh012rcd13ifvqd10","pricing_plan_id":"cebpf4jnsgd1na2vs0mg"},{"bike_id":"9e192f65-c2af-4e82-ac67-2d634a90a990","system_id":"levelo_inurba_marseille","lat":43.30311,"lon":5.39209,"is_reserved":false,"is_disabled":false,"rental_uris":{"android":"levelo://app?vid=9e192f65-c2af-4e82-ac67-2d634a90a990","ios":"levelo://app?vid=9e192f65-c2af-4e82-ac67-2d634a90a990"},"vehicle_type_id":"4","last_reported":1752815858,"current_range_meters":20400,"station_id":"ce4bgkh2rcd13ifvqbk0","pricing_plan_id":"cebpf4jnsgd1na2vs0mg"},{"bike_id":"2a52123a-1d25-4712-ac8b-dde042790f49","system_id":"levelo_inurba_marseille","lat":43.31316,"lon":5.39687,"is_reserved":false,"is_disabled":false,"rental_uris":{"android":"levelo://app?vid=2a52123a-1d25-4712-ac8b-dde042790f49","ios":"levelo://app?vid=2a52123a-1d25-4712-ac8b-dde042790f49"},"vehicle_type_id":"4","last_reported":1752815858,"current_range_meters":20400,"station_id":"ce4bgvp2rcd13ifvqcu0","pricing_plan_id":"cebpf4jnsgd1na2vs0mg"},{"bike_id":"dc72538a-58ac-48f6-9e6d-aedcae0f751b","system_id":"levelo_inurba_marseille","lat":43.288655,"lon":5.393173,"is_reserved":false,"is_disabled":false,"rental_uris":{"android":"levelo://app?vid=dc72538a-58ac-48f6-9e6d-aedcae0f751b","ios":"levelo://app?vid=dc72538a-58ac-48f6-9e6d-aedcae0f751b"},"vehicle_type_id":"4","last_reported":1752815858,"current_range_meters":20400,"station_id":"ce4bh2p2rcd13ifvqdi0","pricing_plan_id":"cebpf4jnsgd1na2vs0mg"},{"bike_id":"10d391b5-c179-4f9b-944d-e8c56b01a775","system_id":"levelo_inurba_marseille","lat":43.22518,"lon":5.34744,"is_reserved":false,"is_disabled":false,"rental_uris":{"android":"levelo://app?vid=10d391b5-c179-4f9b-944d-e8c56b01a775","ios":"levelo://app?vid=10d391b5-c179-4f9b-944d-e8c56b01a775"},"vehicle_type_id":"4","last_reported":1752815858,"current_range_meters":20400,"station_id":"st_cvj5dfep6f1abm77gieg","pricing_plan_id":"cebpf4jnsgd1na2vs0mg"},{"bike_id":"ea17f707-a93b-4469-942f-4292a90cb2ee","system_id":"levelo_inurba_marseille","lat":43.306481,"lon":5.400758,"is_reserved":false,"is_disabled":false,"rental_uris":{"android":"levelo://app?vid=ea17f707-a93b-4469-942f-4292a90cb2ee","ios":"levelo://app?vid=ea17f707-a93b-4469-942f-4292a90cb2ee"},"vehicle_type_id":"4","last_reported":1752815858,"current_range_meters":20800,"station_id":"ce4bh112rcd13ifvqda0","pricing_plan_id":"cebpf4jnsgd1na2vs0mg"},{"bike_id":"c0da53dd-da4e-4b16-b0f5-911512ec00b4","system_id":"levelo_inurba_marseille","lat":43.258685,"lon":5.399131,"is_reserved":false,"is_disabled":false,"rental_uris":{"android":"levelo://app?vid=c0da53dd-da4e-4b16-b0f5-911512ec00b4","ios":"levelo://app?vid=c0da53dd-da4e-4b16-b0f5-911512ec00b4"},"vehicle_type_id":"4","last_reported":1752815858,"current_range_meters":20800,"station_id":"ce4bhl92rcd13ifvqghg","pricing_plan_id":"cebpf4jnsgd1na2vs0mg"},{"bike_id":"447c3497-6ca3-4df4-9c3d-f28e9f7a8c64","system_id":"levelo_inurba_marseille","lat":43.31348,"lon":5.36724,"is_reserved":false,"is_disabled":false,"rental_uris":{"android":"levelo://app?vid=447c3497-6ca3-4df4-9c3d-f28e9f7a8c64","ios":"levelo://app?vid=447c3497-6ca3-4df4-9c3d-f28e9f7a8c64"},"vehicle_type_id":"4","last_reported":1752815858,"current_range_meters":20800,"station_id":"ce4bgr92rcd13ifvqc6g","pricing_plan_id":"cebpf4jnsgd1na2vs0mg"},{"bike_id":"75c386ec-2b11-4ceb-a42e-98a6dc1d6c01","system_id":"levelo_inurba_marseille","lat":43.21252,"lon":5.35084,"is_reserved":false,"is_disabled":false,"rental_uris":{"android":"levelo://app?vid=75c386ec-2b11-4ceb-a42e-98a6dc1d6c01","ios":"levelo://app?vid=75c386ec-2b11-4ceb-a42e-98a6dc1d6c01"},"vehicle_type_id":"4","last_reported":1752815858,"current_range_meters":20800,"station_id":"","pricing_plan_id":"cebpf4jnsgd1na2vs0mg"},{"bike_id":"a7b92e07-0d22-4b45-8ef1-b763127c437f","system_id":"levelo_inurba_marseille","lat":43.325168,"lon":5.375684,"is_reserved":false,"is_disabled":false,"rental_uris":{"android":"levelo://app?vid=a7b92e07-0d22-4b45-8ef1-b763127c437f","ios":"levelo://app?vid=a7b92e07-0d22-4b45-8ef1-b763127c437f"},"vehicle_type_id":"4","last_reported":1752815858,"current_range_meters":20800,"station_id":"","pricing_plan_id":"cebpf4jnsgd1na2vs0mg"},{"bike_id":"d49f7a33-07ca-4b2a-a6b6-09684ba2f163","system_id":"levelo_inurba_marseille","lat":43.303257,"lon":5.404392,"is_reserved":false,"is_disabled":false,"rental_uris":{"android":"levelo://app?vid=d49f7a33-07ca-4b2a-a6b6-09684ba2f163","ios":"levelo://app?vid=d49f7a33-07ca-4b2a-a6b6-09684ba2f163"},"vehicle_type_id":"4","last_reported":1752815858,"current_range_meters":20800,"station_id":"ce4bh012rcd13ifvqd10","pricing_plan_id":"cebpf4jnsgd1na2vs0mg"},{"bike_id":"aacce92b-4365-4bf0-ae27-3a02b5869286","system_id":"levelo_inurba_marseille","lat":43.3373,"lon":5.39193,"is_reserved":false,"is_disabled":false,"rental_uris":{"android":"levelo://app?vid=aacce92b-4365-4bf0-ae27-3a02b5869286","ios":"levelo://app?vid=aacce92b-4365-4bf0-ae27-3a02b5869286"},"vehicle_type_id":"4","last_reported":1752815858,"current_range_meters":21600,"station_id":"ce4bhr92rcd13ifvqhsg","pricing_plan_id":"cebpf4jnsgd1na2vs0mg"},{"bike_id":"c6648f1a-3351-4350-b2ae-40a2c430e1d3","system_id":"levelo_inurba_marseille","lat":43.25127,"lon":5.40328,"is_reserved":false,"is_disabled":false,"rental_uris":{"android":"levelo://app?vid=c6648f1a-3351-4350-b2ae-40a2c430e1d3","ios":"levelo://app?vid=c6648f1a-3351-4350-b2ae-40a2c430e1d3"},"vehicle_type_id":"4","last_reported":1752815858,"current_range_meters":21600,"station_id":"ce4bhlh2rcd13ifvqgig","pricing_plan_id":"cebpf4jnsgd1na2vs0mg"},{"bike_id":"e22f45d3-bb25-4706-9d25-a0863a4d13e3","system_id":"levelo_inurba_marseille","lat":43.29986,"lon":5.38495,"is_reserved":false,"is_disabled":false,"rental_uris":{"android":"levelo://app?vid=e22f45d3-bb25-4706-9d25-a0863a4d13e3","ios":"levelo://app?vid=e22f45d3-bb25-4706-9d25-a0863a4d13e3"},"vehicle_type_id":"4","last_reported":1752815858,"current_range_meters":21600,"station_id":"ce4bgj92rcd13ifvqbd0","pricing_plan_id":"cebpf4jnsgd1na2vs0mg"},{"bike_id":"ad34a1bd-fdcd-4321-9dac-a2eb7854a7f4","system_id":"levelo_inurba_marseille","lat":43.28705,"lon":5.37403,"is_reserved":false,"is_disabled":false,"rental_uris":{"android":"levelo://app?vid=ad34a1bd-fdcd-4321-9dac-a2eb7854a7f4","ios":"levelo://app?vid=ad34a1bd-fdcd-4321-9dac-a2eb7854a7f4"},"vehicle_type_id":"4","last_reported":1752815858,"current_range_meters":21600,"station_id":"ce4bh3p2rcd13ifvqdq0","pricing_plan_id":"cebpf4jnsgd1na2vs0mg"},{"bike_id":"aaad6c52-aeed-4ed1-9038-92866693d6e7","system_id":"levelo_inurba_marseille","lat":43.27056,"lon":5.4026,"is_reserved":false,"is_disabled":false,"rental_uris":{"android":"levelo://app?vid=aaad6c52-aeed-4ed1-9038-92866693d6e7","ios":"levelo://app?vid=aaad6c52-aeed-4ed1-9038-92866693d6e7"},"vehicle_type_id":"4","last_reported":1752815858,"current_range_meters":21600,"station_id":"ce4bhk92rcd13ifvqgc0","pricing_plan_id":"cebpf4jnsgd1na2vs0mg"},{"bike_id":"0e3bebef-ee68-4ed4-8bd8-d043ffdb3c3e","system_id":"levelo_inurba_marseille","lat":43.225056,"lon":5.347766,"is_reserved":false,"is_disabled":false,"rental_uris":{"android":"levelo://app?vid=0e3bebef-ee68-4ed4-8bd8-d043ffdb3c3e","ios":"levelo://app?vid=0e3bebef-ee68-4ed4-8bd8-d043ffdb3c3e"},"vehicle_type_id":"4","last_reported":1752815858,"current_range_meters":21600,"station_id":"st_cvj5dfep6f1abm77gieg","pricing_plan_id":"cebpf4jnsgd1na2vs0mg"},