{"last_updated":1731856082,"ttl":60,"version":"2.2","data":{"bikes":[{"bike_id":"73806b4b-3409-4fe7-9bac-cc9da7355bda","system_id":"levelo_inurba_marseille","lat":43.31046,"lon":5.39998,"is_reserved":false,"is_disabled":false,"rental_uris":{"android":"levelo://app?vid=73806b4b-3409-4fe7-9bac-cc9da7355bda","ios":"levelo://app?vid=73806b4b-3409-4fe7-9bac-cc9da7355bda"},"vehicle_type_id":"4","last_reported":1731856082,"current_range_meters":28800,"station_id":"","pricing_plan_id":"cebpf4jnsgd1na2vs0mg"},{"bike_id":"bb1ffe9a-878f-4453-b2d2-330e37c95544","system_id":"levelo_inurba_marseille","lat":43.31483,"lon":5.3731,"is_reserved":false,"is_disabled":false,"rental_uris":{"android":"levelo://app?vid=bb1ffe9a-878f-4453-b2d2-330e37c95544","ios":"levelo://app?vid=bb1ffe9a-878f-4453-b2d2-330e37c95544"},"vehicle_type_id":"4","last_reported":1731856082,"current_range_meters":30000,"station_id":"ce4bgt12rcd13ifvqcd0","pricing_plan_id":"cebpf4jnsgd1na2vs0mg"},{"bike_id":"8f64f783-a592-44e3-bbda-2c129afa1260","system_id":"levelo_inurba_marseille","lat":43.2465,"lon":5.38907,"is_reserved":false,"is_disabled":false,"rental_uris":{"android":"levelo://app?vid=8f64f783-a592-44e3-bbda-2c129afa1260","ios":"levelo://app?vid=8f64f783-a592-44e3-bbda-2c129afa1260"},"vehicle_type_id":"4","last_reported":1731856082,"current_range_meters":39200,"station_id":"ce4bhg12rcd13ifvqf60","pricing_plan_id":"cebpf4jnsgd1na2vs0mg"},{"bike_id":"2732417d-6f3b-4147-a48d-e80e3fa0017b","system_id":"levelo_inurba_marseille","lat":43.23181,"lon":5.39982,"is_reserved":false,"is_disabled":false,"rental_uris":{"android":"levelo://app?vid=2732417d-6f3b-4147-a48d-e80e3fa0017b","ios":"levelo://app?vid=2732417d-6f3b-4147-a48d-e80e3fa0017b"},"vehicle_type_id":"4","last_reported":1731856082,"current_range_meters":29600,"station_id":"ce4bhn12rcd13ifvqgqg","pricing_plan_id":"cebpf4jnsgd1na2vs0mg"},{"bike_id":"0b559113-fdc0-42e5-9d9f-b4f0fdb3ddca","system_id":"levelo_inurba_marseille","lat":43.25003,"lon":5.38918,"is_reserved":false,"is_disabled":false,"rental_uris":{"android":"levelo://app?vid=0b559113-fdc0-42e5-9d9f-b4f0fdb3ddca","ios":"levelo://app?vid=0b559113-fdc0-42e5-9d9f-b4f0fdb3ddca"},"vehicle_type_id":"4","last_reported":1731856082,"current_range_meters":3600,"station_id":"ce4bhgp2rcd13ifvqfd0","pricing_plan_id":"cebpf4jnsgd1na2vs0mg"},{"bike_id":"0672d165-d197-4474-bbec-2df95543fd2f","system_id":"levelo_inurba_marseille","lat":43.299,"lon":5.43662,"is_reserved":false,"is_disabled":false,"rental_uris":{"android":"levelo://app?vid=0672d165-d197-4474-bbec-2df95543fd2f","ios":"levelo://app?vid=0672d165-d197-4474-bbec-2df95543fd2f"},"vehicle_type_id":"4","last_reported":1731856082,"current_range_meters":8000,"station_id":"ce4bhpp2rcd13ifvqhfg","pricing_plan_id":"cebpf4jnsgd1na2vs0mg"},{"bike_id":"8fe39cc9-83c3-424c-a33e-22ca5f2aa318","system_id":"levelo_inurba_marseille","lat":43.22934,"lon":5.35389,"is_reserved":false,"is_disabled":false,"rental_uris":{"android":"levelo://app?vid=8fe39cc9-83c3-424c-a33e-22ca5f2aa318","ios":"levelo://app?vid=8fe39cc9-83c3-424c-a33e-22ca5f2aa318"},"vehicle_type_id":"4","last_reported":1731856082,"current_range_meters":38800,"station_id":"cpo3532slgdg3j2ikp40","pricing_plan_id":"cebpf4jnsgd1na2vs0mg"},{"bike_id":"7bdf9cd6-b1f4-4f74-a1e1-159f3ee999bc","system_id":"levelo_inurba_marseille","lat":43.27618,"lon":5.36106,"is_reserved":false,"is_disabled":false,"rental_uris":{"android":"levelo://app?vid=7bdf9cd6-b1f4-4f74-a1e1-159f3ee999bc","ios":"levelo://app?vid=7bdf9cd6-b1f4-4f74-a1e1-159f3ee999bc"},"vehicle_type_id":"4","last_reported":1731856082,"current_range_meters":28800,"station_id":"ce4bgj92rcd13ifvqbe0","pricing_plan_id":"cebpf4jnsgd1na2vs0mg"},{"bike_id":"313dfc76-e5ff-4fdb-a6ce-11cb6d4ff689","system_id":"levelo_inurba_marseille","lat":43.22928,"lon":5.35372,"is_reserved":false,"is_disabled":false,"rental_uris":{"android":"levelo://app?vid=313dfc76-e5ff-4fdb-a6ce-11cb6d4ff689","ios":"levelo://app?vid=313dfc76-e5ff-4fdb-a6ce-11cb6d4ff689"},"vehicle_type_id":"4","last_reported":1731856082,"current_range_meters":6000,"station_id":"cpo3532slgdg3j2ikp40","pricing_plan_id":"cebpf4jnsgd1na2vs0mg"},{"bike_id":"4c167bc3-2964-4625-adc0-c92e539ad80f","system_id":"levelo_inurba_marseille","lat":43.28288,"lon":5.40804,"is_reserved":false,"is_disabled":false,"rental_uris":{"android":"levelo://app?vid=4c167bc3-2964-4625-adc0-c92e539ad80f","ios":"levelo://app?vid=4c167bc3-2964-4625-adc0-c92e539ad80f"},"vehicle_type_id":"4","last_reported":1731856082,"current_range_meters":34000,"station_id":"","pricing_plan_id":"cebpf4jnsgd1na2vs0mg"},{"bike_id":"bb83ced5-abe3-4529-a684-1948759f30ed","system_id":"levelo_inurba_marseille","lat":43.3112,"lon":5.37765,"is_reserved":false,"is_disabled":false,"rental_uris":{"android":"levelo://app?vid=bb83ced5-abe3-4529-a684-1948759f30ed","ios":"levelo://app?vid=bb83ced5-abe3-4529-a684-1948759f30ed"},"vehicle_type_id":"4","last_reported":1731856082,"current_range_meters":33600,"station_id":"ce4bgt92rcd13ifvqcg0","pricing_plan_id":"cebpf4jnsgd1na2vs0mg"},{"bike_id":"44a253fe-0c31-4482-bf7d-eed3349505cd","system_id":"levelo_inurba_marseille","lat":43.27495,"lon":5.42459,"is_reserved":false,"is_disabled":false,"rental_uris":{"android":"levelo://app?vid=44a253fe-0c31-4482-bf7d-eed3349505cd","ios":"levelo://app?vid=44a253fe-0c31-4482-bf7d-eed3349505cd"},"vehicle_type_id":"4","last_reported":1731856082,"current_range_meters":17200,"station_id":"ce4bhn92rcd13ifvqgrg","pricing_plan_id":"cebpf4jnsgd1na2vs0mg"},{"bike_id":"6b0ea79e-cb12-4a50-9845-e4686b3cacc8","system_id":"levelo_inurba_marseille","lat":43.295751,"lon":5.399791,"is_reserved":false,"is_disabled":false,"rental_uris":{"android":"levelo://app?vid=6b0ea79e-cb12-4a50-9845-e4686b3cacc8","ios":"levelo://app?vid=6b0ea79e-cb12-4a50-9845-e4686b3cacc8"},"vehicle_type_id":"4","last_reported":1731856082,"current_range_meters":9200,"station_id":"","pricing_plan_id":"cebpf4jnsgd1na2vs0mg"},{"bike_id":"e4357d15-bd09-4c7a-858a-40147d977fd9","system_id":"levelo_inurba_marseille","lat":43.29704,"lon":5.377,"is_reserved":false,"is_disabled":false,"rental_uris":{"android":"levelo://app?vid=e4357d15-bd09-4c7a-858a-40147d977fd9","ios":"levelo://app?vid=e4357d15-bd09-4c7a-858a-40147d977fd9"},"vehicle_type_id":"4","last_reported":1731856082,"current_range_meters":8000,"station_id":"ce4bgkh2rcd13ifvqbl0","pricing_plan_id":"cebpf4jnsgd1na2vs0mg"},{"bike_id":"2c057140-8cc0-4bde-85bd-8029d7799c92","system_id":"levelo_inurba_marseille","lat":43.23807,"lon":5.36448,"is_reserved":false,"is_disabled":false,"rental_uris":{"android":"levelo://app?vid=2c057140-8cc0-4bde-85bd-8029d7799c92","ios":"levelo://app?vid=2c057140-8cc0-4bde-85bd-8029d7799c92"},"vehicle_type_id":"4","last_reported":1731856082,"current_range_meters":3600,"station_id":"ce4bhgp2rcd13ifvqfd0","pricing_plan_id":"cebpf4jnsgd1na2vs0mg"},{"bike_id":"0e1d2e7a-8318-45fe-af1b-31857eb1aac8","system_id":"levelo_inurba_marseille","lat":43.23952,"lon":5.36634,"is_reserved":false,"is_disabled":false,"rental_uris":{"android":"levelo://app?vid=0e1d2e7a-8318-45fe-af1b-31857eb1aac8","ios":"levelo://app?vid=0e1d2e7a-8318-45fe-af1b-31857eb1aac8"},"vehicle_type_id":"4","last_reported":1731856082,"current_range_meters":24000,"station_id":"ce4bhi12rcd13ifvqfp0","pricing_plan_id":"cebpf4jnsgd1na2vs0mg"},{"bike_id":"2bd3ae1c-22d2-4b0f-9fd7-42d6b84fc3a3","system_id":"levelo_inurba_marseille","lat":43.33598,"lon":5.4103,"is_reserved":false,"is_disabled":false,"rental_uris":{"android":"levelo://app?vid=2bd3ae1c-22d2-4b0f-9fd7-42d6b84fc3a3","ios":"levelo://app?vid=2bd3ae1c-22d2-4b0f-9fd7-42d6b84fc3a3"},"vehicle_type_id":"4","last_reported":1731856082,"current_range_meters":18000,"station_id":"ce4bhqh2rcd13ifvqhmg","pricing_plan_id":"cebpf4jnsgd1na2vs0mg"},{"bike_id":"79b76398-f4aa-422b-b325-2360d07a8784","system_id":"levelo_inurba_marseille","lat":43.3372,"lon":5.39189,"is_reserved":false,"is_disabled":false,"rental_uris":{"android":"levelo://app?vid=79b76398-f4aa-422b-b325-2360d07a8784","ios":"levelo://app?vid=79b76398-f4aa-422b-b325-2360d07a8784"},"vehicle_type_id":"4","last_reported":1731856082,"current_range_meters":39200,"station_id":"ce4bhr92rcd13ifvqhsg","pricing_plan_id":"cebpf4jnsgd1na2vs0mg"},{"bike_id":"a688e634-51e7-4c85-9c21-1f970cfc06fe","system_id":"levelo_inurba_marseille","lat":43.262012,"lon":5.379308,"is_reserved":false,"is_disabled":false,"rental_uris":{"android":"levelo://app?vid=a688e634-51e7-4c85-9c21-1f970cfc06fe","ios":"levelo://app?vid=a688e634-51e7-4c85-9c21-1f970cfc06fe"},"vehicle_type_id":"4","last_reported":1731856082,"current_range_meters":2000,"station_id":"ce4bhjp2rcd13ifvqg90","pricing_plan_id":"cebpf4jnsgd1na2vs0mg"},{"bike_id":"6f0c61be-2589-44fa-8cf6-b3b531f522c0","system_id":"levelo_inurba_marseille","lat":43.28039,"lon":5.3694,"is_reserved":false,"is_disabled":false,"rental_uris":{"android":"levelo://app?vid=6f0c61be-2589-44fa-8cf6-b3b531f522c0","ios":"levelo://app?vid=6f0c61be-2589-44fa-8cf6-b3b531f522c0"},"vehicle_type_id":"4","last_reported":1731856082,"current_range_meters":2000,"station_id":"ce4bha12rcd13ifvqef0","pricing_plan_id":"cebpf4jnsgd1na2vs0mg"},{"bike_id":"2c051cbd-bbe1-4b99-81c0-54de160680ec","system_id":"levelo_inurba_marseille","lat":43.31113,"lon":5.3779,"is_reserved":false,"is_disabled":false,"rental_uris":{"android":"levelo://app?vid=2c051cbd-bbe1-4b99-81c0-54de160680ec","ios":"levelo://app?vid=2c051cbd-bbe1-4b99-81c0-54de160680ec"},"vehicle_type_id":"4","last_reported":1731856082,"current_range_meters":38800,"station_id":"ce4bgt92rcd13ifvqcg0","pricing_plan_id":"cebpf4jnsgd1na2vs0mg"},{"bike_id":"cd7a46d4-9cd2-4964-a4f4-f19fd89cdeee","system_id":"levelo_inurba_marseille","lat":43.23955,"lon":5.36628,"is_reserved":false,"is_disabled":false,"rental_uris":{"android":"levelo://app?vid=cd7a46d4-9cd2-4964-a4f4-f19fd89cdeee","ios":"levelo://app?vid=cd7a46d4-9cd2-4964-a4f4-f19fd89cdeee"},"vehicle_type_id":"4","last_reported":1731856082,"current_range_meters":7200,"station_id":"ce4bhi12rcd13ifvqfp0","pricing_plan_id":"cebpf4jnsgd1na2vs0mg"},{"bike_id":"718099cb-ad0b-4221-8aaf-b3508531ada2","system_id":"levelo_inurba_marseille","lat":43.26677,"lon":5.3827,"is_reserved":false,"is_disabled":false,"rental_uris":{"android":"levelo://app?vid=718099cb-ad0b-4221-8aaf-b3508531ada2","ios":"levelo://app?vid=718099cb-ad0b-4221-8aaf-b3508531ada2"},"vehicle_type_id":"4","last_reported":1731856082,"current_range_meters":38000,"station_id":"ce4bhg92rcd13ifvqf90","pricing_plan_id":"cebpf4jnsgd1na2vs0mg"},{"bike_id":"0d29e689-4fff-4dfe-a49d-3e58cca7d777","system_id":"levelo_inurba_marseille","lat":43.2396,"lon":5.36617,"is_reserved":false,"is_disabled":false,"rental_uris":{"android":"levelo://app?vid=0d29e689-4fff-4dfe-a49d-3e58cca7d777","ios":"levelo://app?vid=0d29e689-4fff-4dfe-a49d-3e58cca7d777"},"vehicle_type_id":"4","last_reported":1731856082,"current_range_meters":32400,"station_id":"ce4bhi12rcd13ifvqfp0","pricing_plan_id":"cebpf4jnsgd1na2vs0mg"},{"bike_id":"721f6f6d-652b-4001-b577-a3109e37d1a2","system_id":"levelo_inurba_marseille","lat":43.30454,"lon":5.37911,"is_reserved":false,"is_disabled":false,"rental_uris":{"android":"levelo://app?vid=721f6f6d-652b-4001-b577-a3109e37d1a2","ios":"levelo://app?vid=721f6f6d-652b-4001-b577-a3109e37d1a2"},"vehicle_type_id":"4","last_reported":1731856082,"current_range_meters":27200,"station_id":"ce4bgup2rcd13ifvqcn0","pricing_plan_id":"cebpf4jnsgd1na2vs0mg"},{"bike_id":"3005affc-8398-413a-93e2-dfb51ba61cd2","system_id":"levelo_inurba_marseille","lat":43.2903,"lon":5.37549,"is_reserved":false,"is_disabled":false,"rental_uris":{"android":"levelo://app?vid=3005affc-8398-413a-93e2-dfb51ba61cd2","ios":"levelo://app?vid=3005affc-8398-413a-93e2-dfb51ba61cd2"},"vehicle_type_id":"4","last_reported":1731856082,"current_range_meters":22800,"station_id":"ce4bh692rcd13ifvqe90","pricing_plan_id":"cebpf4jnsgd1na2vs0mg"},{"bike_id":"b5e83ad3-2976-4377-b5ec-b6e2711ef4ba","system_id":"levelo_inurba_marseille","lat":43.272064,"lon":5.391854,"is_reserved":false,"is_disabled":false,"rental_uris":{"android":"levelo://app?vid=b5e83ad3-2976-4377-b5ec-b6e2711ef4ba","ios":"levelo://app?vid=b5e83ad3-2976-4377-b5ec-b6e2711ef4ba"},"vehicle_type_id":"4","last_reported":1731856082,"current_range_meters":8000,"station_id":"ce4bhhp2rcd13ifvqfm0","pricing_plan_id":"cebpf4jnsgd1na2vs0mg"},{"bike_id":"69dbc2c6-5434-4884-a919-090c7c5596ce","system_id":"levelo_inurba_marseille","lat":43.23957,"lon":5.36625,"is_reserved":false,"is_disabled":false,"rental_uris":{"android":"levelo://app?vid=69dbc2c6-5434-4884-a919-090c7c5596ce","ios":"levelo://app?vid=69dbc2c6-5434-4884-a919-090c7c5596ce"},"vehicle_type_id":"4","last_reported":1731856082,"current_range_meters":23200,"station_id":"ce4bhi12rcd13ifvqfp0","pricing_plan_id":"cebpf4jnsgd1na2vs0mg"},{"bike_id":"f99567ae-713e-4b9d-9675-5e2269bd5307","system_id":"levelo_inurba_marseille","lat":43.24177,"lon":5.39731,"is_reserved":false,"is_disabled":false,"rental_uris":{"android":"levelo://app?vid=f99567ae-713e-4b9d-9675-5e2269bd5307","ios":"levelo://app?vid=f99567ae-713e-4b9d-9675-5e2269bd5307"},"vehicle_type_id":"4","last_reported":1731856082,"current_range_meters":3600,"station_id":"ce4bhn12rcd13ifvqgpg","pricing_plan_id":"cebpf4jnsgd1na2vs0mg"},{"bike_id":"04e6defd-b997-41ff-bd57-32a90e2eabab","system_id":"levelo_inurba_marseille","lat":43.30879,"lon":5.39655,"is_reserved":false,"is_disabled":false,"rental_uris":{"android":"levelo://app?vid=04e6defd-b997-41ff-bd57-32a90e2eabab","ios":"levelo://app?vid=04e6defd-b997-41ff-bd57-32a90e2eabab"},"vehicle_type_id":"4","last_reported":1731856082,"current_range_meters":29600,"station_id":"ce4bhb92rcd13ifvqen0","pricing_plan_id":"cebpf4jnsgd1na2vs0mg"},{"bike_id":"1e9ab692-4f33-49f1-96e8-a36899a7dd68","system_id":"levelo_inurba_marseille","lat":43.26747,"lon":5.40762,"is_reserved":false,"is_disabled":false,"rental_uris":{"android":"levelo://app?vid=1e9ab692-4f33-49f1-96e8-a36899a7dd68","ios":"levelo://app?vid=1e9ab692-4f33-49f1-96e8-a36899a7dd68"},"vehicle_type_id":"4","last_reported":1731856082,"current_range_meters":16400,"station_id":"","pricing_plan_id":"cebpf4jnsgd1na2vs0mg"},{"bike_id":"ae561789-8e5a-4764-9b36-c75c203fe5ac","system_id":"levelo_inurba_marseille","lat":43.2929,"lon":5.37467,"is_reserved":false,"is_disabled":false,"rental_uris":{"android":"levelo://app?vid=ae561789-8e5a-4764-9b36-c75c203fe5ac","ios":"levelo://app?vid=ae561789-8e5a-4764-9b36-c75c203fe5ac"},"vehicle_type_id":"4","last_reported":1731856082,"current_range_meters":29600,"station_id":"ce4bgi12rcd13ifvqb70","pricing_plan_id":"cebpf4jnsgd1na2vs0mg"},{"bike_id":"4218e25f-b589-4585-9802-2be2a1418d47","system_id":"levelo_inurba_marseille","lat":43.34143,"lon":5.40909,"is_reserved":false,"is_disabled":false,"rental_uris":{"android":"levelo://app?vid=4218e25f-b589-4585-9802-2be2a1418d47","ios":"levelo://app?vid=4218e25f-b589-4585-9802-2be2a1418d47"},"vehicle_type_id":"4","last_reported":1731856082,"current_range_meters":38800,"station_id":"ce4bhqh2rcd13ifvqhlg","pricing_plan_id":"cebpf4jnsgd1na2vs0mg"},{"bike_id":"0c363429-7cb5-4eb2-bd2f-68d1cac7d35f","system_id":"levelo_inurba_marseille","lat":43.25084,"lon":5.39528,"is_reserved":false,"is_disabled":false,"rental_uris":{"android":"levelo://app?vid=0c363429-7cb5-4eb2-bd2f-68d1cac7d35f","ios":"levelo://app?vid=0c363429-7cb5-4eb2-bd2f-68d1cac7d35f"},"vehicle_type_id":"4","last_reported":1731856082,"current_range_meters":11600,"station_id":"ce4bhm12rcd13ifvqgkg","pricing_plan_id":"cebpf4jnsgd1na2vs0mg"},{"bike_id":"0b851bbd-8685-41d9-8457-6167f6235a79","system_id":"levelo_inurba_marseille","lat":43.265594,"lon":5.390407,"is_reserved":false,"is_disabled":false,"rental_uris":{"android":"levelo://app?vid=0b851bbd-8685-41d9-8457-6167f6235a79","ios":"levelo://app?vid=0b851bbd-8685-41d9-8457-6167f6235a79"},"vehicle_type_id":"4","last_reported":1731856082,"current_range_meters":4400,"station_id":"ce4bhe12rcd13ifvqf30","pricing_plan_id":"cebpf4jnsgd1na2vs0mg"},{"bike_id":"23e5e119-83f6-4211-ade1-a250a82ab7db","system_id":"levelo_inurba_marseille","lat":43.22928,"lon":5.3538,"is_reserved":false,"is_disabled":false,"rental_uris":{"android":"levelo://app?vid=23e5e119-83f6-4211-ade1-a250a82ab7db","ios":"levelo://app?vid=23e5e119-83f6-4211-ade1-a250a82ab7db"},"vehicle_type_id":"4","last_reported":1731856082,"current_range_meters":16000,"station_id":"cpo3532slgdg3j2ikp40","pricing_plan_id":"cebpf4jnsgd1na2vs0mg"},{"bike_id":"0b580216-b07f-4821-a19d-686462be0488","system_id":"levelo_inurba_marseille","lat":43.2293,"lon":5.35389,"is_reserved":false,"is_disabled":false,"rental_uris":{"android":"levelo://app?vid=0b580216-b07f-4821-a19d-686462be0488","ios":"levelo://app?vid=0b580216-b07f-4821-a19d-686462be0488"},"vehicle_type_id":"4","last_reported":1731856082,"current_range_meters":35600,"station_id":"cpo3532slgdg3j2ikp40","pricing_plan_id":"cebpf4jnsgd1na2vs0mg"},{"bike_id":"01272bd5-a2c0-44b6-b76e-87cd305d9451","system_id":"levelo_inurba_marseille","lat":43.33023,"lon":5.39047,"is_reserved":false,"is_disabled":false,"rental_uris":{"android":"levelo://app?vid=01272bd5-a2c0-44b6-b76e-87cd305d9451","ios":"levelo://app?vid=01272bd5-a2c0-44b6-b76e-87cd305d9451"},"vehicle_type_id":"4","last_reported":1731856082,"current_range_meters":15200,"station_id":"ce4bhr92rcd13ifvqhrg","pricing_plan_id":"cebpf4jnsgd1na2vs0mg"},{"bike_id":"4138345b-cc1d-40b0-8916-e8013770729a","system_id":"levelo_inurba_marseille","lat":43.24641,"lon":5.38902,"is_reserved":false,"is_disabled":false,"rental_uris":{"android":"levelo://app?vid=4138345b-cc1d-40b0-8916-e8013770729a","ios":"levelo://app?vid=4138345b-cc1d-40b0-8916-e8013770729a"},"vehicle_type_id":"4","last_reported":1731856082,"current_range_meters":36400,"station_id":"ce4bhg12rcd13ifvqf60","pricing_plan_id":"cebpf4jnsgd1na2vs0mg"},{"bike_id":"d753c74d-4fd7-4b0f-8e5d-7b63399c76ab","system_id":"levelo_inurba_marseille","lat":43.317217,"lon":5.389852,"is_reserved":false,"is_disabled":false,"rental_uris":{"android":"levelo://app?vid=d753c74d-4fd7-4b0f-8e5d-7b63399c76ab","ios":"levelo://app?vid=d753c74d-4fd7-4b0f-8e5d-7b63399c76ab"},"vehicle_type_id":"4","last_reported":1731856082,"current_range_meters":36800,"station_id":"ce4bhqp2rcd13ifvqhng","pricing_plan_id":"cebpf4jnsgd1na2vs0mg"},{"bike_id":"10473ae9-343a-42a2-916b-9f1475a0a3bc","system_id":"levelo_inurba_marseille","lat":43.23959,"lon":5.36638,"is_reserved":false,"is_disabled":false,"rental_uris":{"android":"levelo://app?vid=10473ae9-343a-42a2-916b-9f1475a0a3bc","ios":"levelo://app?vid=10473ae9-343a-42a2-916b-9f1475a0a3bc"},"vehicle_type_id":"4","last_reported":1731856082,"current_range_meters":28000,"station_id":"ce4bhi12rcd13ifvqfp0","pricing_plan_id":"cebpf4jnsgd1na2vs0mg"},{"bike_id":"7ca1bb05-1d87-4fb9-a0d8-730cdfd7dd7a","system_id":"levelo_inurba_marseille","lat":43.28079,"lon":5.39661,"is_reserved":false,"is_disabled":false,"rental_uris":{"android":"levelo://app?vid=7ca1bb05-1d87-4fb9-a0d8-730cdfd7dd7a","ios":"levelo://app?vid=7ca1bb05-1d87-4fb9-a0d8-730cdfd7dd7a"},"vehicle_type_id":"4","last_reported":1731856082,"current_range_meters":38000,"station_id":"ce4bho12rcd13ifvqh2g","pricing_plan_id":"cebpf4jnsgd1na2vs0mg"},{"bike_id":"5938f129-0be9-4612-acac-86791f6673ad","system_id":"levelo_inurba_marseille","lat":43.2822,"lon":5.44373,"is_reserved":false,"is_disabled":false,"rental_uris":{"android":"levelo://app?vid=5938f129-0be9-4612-acac-86791f6673ad","ios":"levelo://app?vid=5938f129-0be9-4612-acac-86791f6673ad"},"vehicle_type_id":"4","last_reported":1731856082,"current_range_meters":12400,"station_id":"","pricing_plan_id":"cebpf4jnsgd1na2vs0mg"},{"bike_id":"5ca43922-2d0c-4dfa-a5ae-308439f9d23e","system_id":"levelo_inurba_marseille","lat":43.28612,"lon":5.35109,"is_reserved":false,"is_disabled":false,"rental_uris":{"android":"levelo://app?vid=5ca43922-2d0c-4dfa-a5ae-308439f9d23e","ios":"levelo://app?vid=5ca43922-2d0c-4dfa-a5ae-308439f9d23e"},"vehicle_type_id":"4","last_reported":1731856082,"current_range_meters":25200,"station_id":"ce4bhch2rcd13ifvqeug","pricing_plan_id":"cebpf4jnsgd1na2vs0mg"},{"bike_id":"ba57f1ef-3fbb-4816-9e62-2e0737689f5e","system_id":"levelo_inurba_marseille","lat":43.33611,"lon":5.41039,"is_reserved":false,"is_disabled":false,"rental_uris":{"android":"levelo://app?vid=ba57f1ef-3fbb-4816-9e62-2e0737689f5e","ios":"levelo://app?vid=ba57f1ef-3fbb-4816-9e62-2e0737689f5e"},"vehicle_type_id":"4","last_reported":1731856082,"current_range_meters":39200,"station_id":"ce4bhqh2rcd13ifvqhmg","pricing_plan_id":"cebpf4jnsgd1na2vs0mg"},{"bike_id":"ec545ebf-0bfb-48a8-accf-1982d6f3e853","system_id":"levelo_inurba_marseille","lat":43.30545,"lon":5.38414,"is_reserved":false,"is_disabled":false,"rental_uris":{"android":"levelo://app?vid=ec545ebf-0bfb-48a8-accf-1982d6f3e853","ios":"levelo://app?vid=ec545ebf-0bfb-48a8-accf-1982d6f3e853"},"vehicle_type_id":"4","last_reported":1731856082,"current_range_meters":37600,"station_id":"ce4bgth2rcd13ifvqch0","pricing_plan_id":"cebpf4jnsgd1na2vs0mg"},{"bike_id":"be7fa3fd-7822-4345-9d15-e13b320d8970","system_id":"levelo_inurba_marseille","lat":43.29042,"lon":5.37562,"is_reserved":false,"is_disabled":false,"rental_uris":{"android":"levelo://app?vid=be7fa3fd-7822-4345-9d15-e13b320d8970","ios":"levelo://app?vid=be7fa3fd-7822-4345-9d15-e13b320d8970"},"vehicle_type_id":"4","last_reported":1731856082,"current_range_meters":2800,"station_id":"ce4bh692rcd13ifvqe90","pricing_plan_id":"cebpf4jnsgd1na2vs0mg"},{"bike_id":"f14cac10-ef6f-4569-ba69-34e16a32ccbf","system_id":"levelo_inurba_marseille","lat":43.231547,"lon":5.437062,"is_reserved":false,"is_disabled":false,"rental_uris":{"android":"levelo://app?vid=f14cac10-ef6f-4569-ba69-34e16a32ccbf","ios":"levelo://app?vid=f14cac10-ef6f-4569-ba69-34e16a32ccbf"},"vehicle_type_id":"4","last_reported":1731856082,"current_range_meters":23200,"station_id":"ce4bhmp2rcd13ifvqgog","pricing_plan_id":"cebpf4jnsgd1na2vs0mg"},{"bike_id":"e94e002d-b039-4c50-abae-927d738cddfd","system_id":"levelo_inurba_marseille","lat":43.25814,"lon":5.39453,"is_reserved":false,"is_disabled":false,"rental_uris":{"android":"levelo://app?vid=e94e002d-b039-4c50-abae-927d738cddfd","ios":"levelo://app?vid=e94e002d-b039-4c50-abae-927d738cddfd"},"vehicle_type_id":"4","last_reported":1731856082,"current_range_meters":11200,"station_id":"ce4bhip2rcd13ifvqft0","pricing_plan_id":"cebpf4jnsgd1na2vs0mg"},{"bike_id":"65f5fc28-b4d5-45b2-8d39-7757b215f8c8","system_id":"levelo_inurba_marseille","lat":43.23182,"lon":5.39988,"is_reserved":false,"is_disabled":false,"rental_uris":{"android":"levelo://app?vid=65f5fc28-b4d5-45b2-8d39-7757b215f8c8","ios":"levelo://app?vid=65f5fc28-b4d5-45b2-8d39-7757b215f8c8"},"vehicle_type_id":"4","last_reported":1731856082,"current_range_meters":20400,"station_id":"ce4bhn12rcd13ifvqgqg","pricing_plan_id":"cebpf4jnsgd1na2vs0mg"},{"bike_id":"12867844-fa2a-41b2-8d74-706d4ef15909","system_id":"levelo_inurba_marseille","lat":43.33761,"lon":5.3743,"is_reserved":false,"is_disabled":false,"rental_uris":{"android":"levelo://app?vid=12867844-fa2a-41b2-8d74-706d4ef15909","ios":"levelo://app?vid=12867844-fa2a-41b2-8d74-706d4ef15909"},"vehicle_type_id":"4","last_reported":1731856082,"current_range_meters":32800,"station_id":"","pricing_plan_id":"cebpf4jnsgd1na2vs0mg"},{"bike_id":"ed6ae534-af76-40fa-b815-e6d489c9a36e","system_id":"levelo_inurba_marseille","lat":43.32366,"lon":5.38888,"is_reserved":false,"is_disabled":false,"rental_uris":{"android":"levelo://app?vid=ed6ae534-af76-40fa-b815-e6d489c9a36e","ios":"levelo://app?vid=ed6ae534-af76-40fa-b815-e6d489c9a36e"},"vehicle_type_id":"4","last_reported":1731856082,"current_range_meters":32400,"station_id":"ce4bhqp2rcd13ifvqhog","pricing_plan_id":"cebpf4jnsgd1na2vs0mg"},{"bike_id":"28a9d6dd-cf4f-411c-b6d1-753396c78228","system_id":"levelo_inurba_marseille","lat":43.248108,"lon":5.374632,"is_reserved":false,"is_disabled":false,"rental_uris":{"android":"levelo://app?vid=28a9d6dd-cf4f-411c-b6d1-753396c78228","ios":"levelo://app?vid=28a9d6dd-cf4f-411c-b6d1-753396c78228"},"vehicle_type_id":"4","last_reported":1731856082,"current_range_meters":38400,"station_id":"ce4bhgh2rcd13ifvqfb0","pricing_plan_id":"cebpf4jnsgd1na2vs0mg"},{"bike_id":"10808265-c82e-4663-ad34-00454e769817","system_id":"levelo_inurba_marseille","lat":43.23187,"lon":5.39994,"is_reserved":false,"is_disabled":false,"rental_uris":{"android":"levelo://app?vid=10808265-c82e-4663-ad34-00454e769817","ios":"levelo://app?vid=10808265-c82e-4663-ad34-00454e769817"},"vehicle_type_id":"4","last_reported":1731856082,"current_range_meters":30400,"station_id":"ce4bhn12rcd13ifvqgqg","pricing_plan_id":"cebpf4jnsgd1na2vs0mg"},{"bike_id":"0eb2e35f-6fa4-417d-b235-9347ac873ab7","system_id":"levelo_inurba_marseille","lat":43.24394,"lon":5.3706,"is_reserved":false,"is_disabled":false,"rental_uris":{"android":"levelo://app?vid=0eb2e35f-6fa4-417d-b235-9347ac873ab7","ios":"levelo://app?vid=0eb2e35f-6fa4-417d-b235-9347ac873ab7"},"vehicle_type_id":"4","last_reported":1731856082,"current_range_meters":38400,"station_id":"ce4bhhh2rcd13ifvqfk0","pricing_plan_id":"cebpf4jnsgd1na2vs0mg"},{"bike_id":"68800380-8986-4e82-84bb-e4795ea3f3a8","system_id":"levelo_inurba_marseille","lat":43.31712,"lon":5.43707,"is_reserved":false,"is_disabled":false,"rental_uris":{"android":"levelo://app?vid=68800380-8986-4e82-84bb-e4795ea3f3a8","ios":"levelo://app?vid=68800380-8986-4e82-84bb-e4795ea3f3a8"},"vehicle_type_id":"4","last_reported":1731856082,"current_range_meters":29600,"station_id":"ce4bhp92rcd13ifvqhcg","pricing_plan_id":"cebpf4jnsgd1na2vs0mg"},{"bike_id":"eee6d287-7311-46bf-8848-4c357c33933f","system_id":"levelo_inurba_marseille","lat":43.30647,"lon":5.40111,"is_reserved":false,"is_disabled":false,"rental_uris":{"android":"levelo://app?vid=eee6d287-7311-46bf-8848-4c357c33933f","ios":"levelo://app?vid=eee6d287-7311-46bf-8848-4c357c33933f"},"vehicle_type_id":"4","last_reported":1731856082,"current_range_meters":9600,"station_id":"ce4bh112rcd13ifvqda0","pricing_plan_id":"cebpf4jnsgd1na2vs0mg"},{"bike_id":"f3c2c3fe-2caa-4c62-a831-2cfeca2e0124","system_id":"levelo_inurba_marseille","lat":43.22927,"lon":5.35381,"is_reserved":false,"is_disabled":false,"rental_uris":{"android":"levelo://app?vid=f3c2c3fe-2caa-4c62-a831-2cfeca2e0124","ios":"levelo://app?vid=f3c2c3fe-2caa-4c62-a831-2cfeca2e0124"},"vehicle_type_id":"4","last_reported":1731856082,"current_range_meters":14000,"station_id":"cpo3532slgdg3j2ikp40","pricing_plan_id":"cebpf4jnsgd1na2vs0mg"},{"bike_id":"38e33bd0-0e14-412a-a4d9-b42be319fb38","system_id":"levelo_inurba_marseille","lat":43.23956,"lon":5.36649,"is_reserved":false,"is_disabled":false,"rental_uris":{"android":"levelo://app?vid=38e33bd0-0e14-412a-a4d9-b42be319fb38","ios":"levelo://app?vid=38e33bd0-0e14-412a-a4d9-b42be319fb38"},"vehicle_type_id":"4","last_reported":1731856082,"current_range_meters":37600,"station_id":"ce4bhi12rcd13ifvqfp0","pricing_plan_id":"cebpf4jnsgd1na2vs0mg"},{"bike_id":"6ca65222-3f51-484b-a09f-6c8d98c9aa46","system_id":"levelo_inurba_marseille","lat":43.23964,"lon":5.3663,"is_reserved":false,"is_disabled":false,"rental_uris":{"android":"levelo://app?vid=6ca65222-3f51-484b-a09f-6c8d98c9aa46","ios":"levelo://app?vid=6ca65222-3f51-484b-a09f-6c8d98c9aa46"},"vehicle_type_id":"4","last_reported":1731856082,"current_range_meters":38400,"station_id":"ce4bhi12rcd13ifvqfp0","pricing_plan_id":"cebpf4jnsgd1na2vs0mg"},{"bike_id":"8d914a17-1405-4a49-acab-6e64f3a1330d","system_id":"levelo_inurba_marseille","lat":43.27612,"lon":5.36109,"is_reserved":false,"is_disabled":false,"rental_uris":{"android":"levelo://app?vid=8d914a17-1405-4a49-acab-6e64f3a1330d","ios":"levelo://app?vid=8d914a17-1405-4a49-acab-6e64f3a1330d"},"vehicle_type_id":"4","last_reported":1731856082,"current_range_meters":4000,"station_id":"ce4bgj92rcd13ifvqbe0","pricing_plan_id":"cebpf4jnsgd1na2vs0mg"},{"bike_id":"c2273092-4ad4-4483-8525-e6150ece5338","system_id":"levelo_inurba_marseille","lat":43.29893,"lon":5.43659,"is_reserved":false,"is_disabled":false,"rental_uris":{"android":"levelo://app?vid=c2273092-4ad4-4483-8525-e6150ece5338","ios":"levelo://app?vid=c2273092-4ad4-4483-8525-e6150ece5338"},"vehicle_type_id":"4","last_reported":1731856082,"current_range_meters":39200,"station_id":"ce4bhpp2rcd13ifvqhfg","pricing_plan_id":"cebpf4jnsgd1na2vs0mg"},{"bike_id":"ebe052b3-eb6d-4b86-b5f9-0c122349f859","system_id":"levelo_inurba_marseille","lat":43.274933,"lon":5.424562,"is_reserved":false,"is_disabled":false,"rental_uris":{"android":"levelo://app?vid=ebe052b3-eb6d-4b86-b5f9-0c122349f859","ios":"levelo://app?vid=ebe052b3-eb6d-4b86-b5f9-0c122349f859"},"vehicle_type_id":"4","last_reported":1731856082,"current_range_meters":8400,"station_id":"ce4bhn92rcd13ifvqgrg","pricing_plan_id":"cebpf4jnsgd1na2vs0mg"},{"bike_id":"4f01fa73-c9c0-4fc0-986b-b2a94d270e4a","system_id":"levelo_inurba_marseille","lat":43.302519,"lon":5.400883,"is_reserved":false,"is_disabled":false,"rental_uris":{"android":"levelo://app?vid=4f01fa73-c9c0-4fc0-986b-b2a94d270e4a","ios":"levelo://app?vid=4f01fa73-c9c0-4fc0-986b-b2a94d270e4a"},"vehicle_type_id":"4","last_reported":1731856082,"current_range_meters":9600,"station_id":"ce4bgvh2rcd13ifvqcs0","pricing_plan_id":"cebpf4jnsgd1na2vs0mg"},{"bike_id":"6d757fef-4f26-43f9-ac2c-ffab39bf7dae","system_id":"levelo_inurba_marseille","lat":43.32249,"lon":5.36901,"is_reserved":false,"is_disabled":false,"rental_uris":{"android":"levelo://app?vid=6d757fef-4f26-43f9-ac2c-ffab39bf7dae","ios":"levelo://app?vid=6d757fef-4f26-43f9-ac2c-ffab39bf7dae"},"vehicle_type_id":"4","last_reported":1731856082,"current_range_meters":14800,"station_id":"","pricing_plan_id":"cebpf4jnsgd1na2vs0mg"},{"bike_id":"ad4600b1-aca9-4af5-94bb-19a056b331c8","system_id":"levelo_inurba_marseille","lat":43.31372,"lon":5.38491,"is_reserved":false,"is_disabled":false,"rental_uris":{"android":"levelo://app?vid=ad4600b1-aca9-4af5-94bb-19a056b331c8","ios":"levelo://app?vid=ad4600b1-aca9-4af5-94bb-19a056b331c8"},"vehicle_type_id":"4","last_reported":1731856082,"current_range_meters":4400,"station_id":"ce4bgt92rcd13ifvqcf0","pricing_plan_id":"cebpf4jnsgd1na2vs0mg"},{"bike_id":"f279f4e8-9bcd-4174-ba92-badc1ea056c8","system_id":"levelo_inurba_marseille","lat":43.27068,"lon":5.4228,"is_reserved":false,"is_disabled":false,"rental_uris":{"android":"levelo://app?vid=f279f4e8-9bcd-4174-ba92-badc1ea056c8","ios":"levelo://app?vid=f279f4e8-9bcd-4174-ba92-badc1ea056c8"},"vehicle_type_id":"4","last_reported":1731856082,"current_range_meters":33200,"station_id":"ce4bhk92rcd13ifvqgb0","pricing_plan_id":"cebpf4jnsgd1na2vs0mg"},{"bike_id":"693b6089-04da-4900-b95c-ac9fa4cd9ee2","system_id":"levelo_inurba_marseille","lat":43.29255,"lon":5.3844,"is_reserved":false,"is_disabled":false,"rental_uris":{"android":"levelo://app?vid=693b6089-04da-4900-b95c-ac9fa4cd9ee2","ios":"levelo://app?vid=693b6089-04da-4900-b95c-ac9fa4cd9ee2"},"vehicle_type_id":"4","last_reported":1731856082,"current_range_meters":24800,"station_id":"ce4bh692rcd13ifvqea0","pricing_plan_id":"cebpf4jnsgd1na2vs0mg"},{"bike_id":"5a11ed0b-ebc1-48ef-89e3-228c612ebb9c","system_id":"levelo_inurba_marseille","lat":43.309509,"lon":5.390408,"is_reserved":false,"is_disabled":false,"rental_uris":{"android":"levelo://app?vid=5a11ed0b-ebc1-48ef-89e3-228c612ebb9c","ios":"levelo://app?vid=5a11ed0b-ebc1-48ef-89e3-228c612ebb9c"},"vehicle_type_id":"4","last_reported":1731856082,"current_range_meters":38800,"station_id":"ce4bgup2rcd13ifvqco0","pricing_plan_id":"cebpf4jnsgd1na2vs0mg"},{"bike_id":"176dfcf1-dbb1-46ba-bb5a-0e8c5c06d0fe","system_id":"levelo_inurba_marseille","lat":43.23961,"lon":5.36635,"is_reserved":false,"is_disabled":false,"rental_uris":{"android":"levelo://app?vid=176dfcf1-dbb1-46ba-bb5a-0e8c5c06d0fe","ios":"levelo://app?vid=176dfcf1-dbb1-46ba-bb5a-0e8c5c06d0fe"},"vehicle_type_id":"4","last_reported":1731856082,"current_range_meters":6000,"station_id":"ce4bhi12rcd13ifvqfp0","pricing_plan_id":"cebpf4jnsgd1na2vs0mg"},{"bike_id":"1ac7c186-9f8e-4c08-b69c-61862f770bf9","system_id":"levelo_inurba_marseille","lat":43.24805,"lon":5.37456,"is_reserved":false,"is_disabled":false,"rental_uris":{"android":"levelo://app?vid=1ac7c186-9f8e-4c08-b69c-61862f770bf9","ios":"levelo://app?vid=1ac7c186-9f8e-4c08-b69c-61862f770bf9"},"vehicle_type_id":"4","last_reported":1731856082,"current_range_meters":38800,"station_id":"ce4bhgh2rcd13ifvqfb0","pricing_plan_id":"cebpf4jnsgd1na2vs0mg"},{"bike_id":"4c0e4d7a-1302-46f6-a649-979ae8c19f66","system_id":"levelo_inurba_marseille","lat":43.26943,"lon":5.3863,"is_reserved":false,"is_disabled":false,"rental_uris":{"android":"levelo://app?vid=4c0e4d7a-1302-46f6-a649-979ae8c19f66","ios":"levelo://app?vid=4c0e4d7a-1302-46f6-a649-979ae8c19f66"},"vehicle_type_id":"4","last_reported":1731856082,"current_range_meters":14400,"station_id":"ce4bhh92rcd13ifvqfh0","pricing_plan_id":"cebpf4jnsgd1na2vs0mg"},{"bike_id":"1632bf92-3a8d-480c-a148-1b7b73278f4b","system_id":"levelo_inurba_marseille","lat":43.32366,"lon":5.38887,"is_reserved":false,"is_disabled":false,"rental_uris":{"android":"levelo://app?vid=1632bf92-3a8d-480c-a148-1b7b73278f4b","ios":"levelo://app?vid=1632bf92-3a8d-480c-a148-1b7b73278f4b"},"vehicle_type_id":"4","last_reported":1731856082,"current_range_meters":21600,"station_id":"ce4bhqp2rcd13ifvqhog","pricing_plan_id":"cebpf4jnsgd1na2vs0mg"},{"bike_id":"5e084120-ca27-4d24-9e09-2186bd0dbf85","system_id":"levelo_inurba_marseille","lat":43.23955,"lon":5.36627,"is_reserved":false,"is_disabled":false,"rental_uris":{"android":"levelo://app?vid=5e084120-ca27-4d24-9e09-2186bd0dbf85","ios":"levelo://app?vid=5e084120-ca27-4d24-9e09-2186bd0dbf85"},"vehicle_type_id":"4","last_reported":1731856082,"current_range_meters":38000,"station_id":"ce4bhi12rcd13ifvqfp0","pricing_plan_id":"cebpf4jnsgd1na2vs0mg"},{"bike_id":"ae335726-259a-4375-8971-887bdf305583","system_id":"levelo_inurba_marseille","lat":43.27496,"lon":5.42458,"is_reserved":false,"is_disabled":false,"rental_uris":{"android":"levelo://app?vid=ae335726-259a-4375-8971-887bdf305583","ios":"levelo://app?vid=ae335726-259a-4375-8971-887bdf305583"},"vehicle_type_id":"4","last_reported":1731856082,"current_range_meters":28400,"station_id":"ce4bhn92rcd13ifvqgrg","pricing_plan_id":"cebpf4jnsgd1na2vs0mg"},{"bike_id":"6f4185ba-0d14-49f4-aa40-36e0cbac687e","system_id":"levelo_inurba_marseille","lat":43.29892,"lon":5.43662,"is_reserved":false,"is_disabled":false,"rental_uris":{"android":"levelo://app?vid=6f4185ba-0d14-49f4-aa40-36e0cbac687e","ios":"levelo://app?vid=6f4185ba-0d14-49f4-aa40-36e0cbac687e"},"vehicle_type_id":"4","last_reported":1731856082,"current_range_meters":34000,"station_id":"ce4bhpp2rcd13ifvqhfg","pricing_plan_id":"cebpf4jnsgd1na2vs0mg"},{"bike_id":"55de28cf-e37c-4724-b81f-8a648780c5b9","system_id":"levelo_inurba_marseille","lat":43.23192,"lon":5.35555,"is_reserved":false,"is_disabled":false,"rental_uris":{"android":"levelo://app?vid=55de28cf-e37c-4724-b81f-8a648780c5b9","ios":"levelo://app?vid=55de28cf-e37c-4724-b81f-8a648780c5b9"},"vehicle_type_id":"4","last_reported":1731856082,"current_range_meters":36000,"station_id":"ce4bhu92rcd13ifvqi70","pricing_plan_id":"cebpf4jnsgd1na2vs0mg"},{"bike_id":"582346cd-43e6-489a-9ea8-2d503b7b5fe7","system_id":"levelo_inurba_marseille","lat":43.31722,"lon":5.42396,"is_reserved":false,"is_disabled":false,"rental_uris":{"android":"levelo://app?vid=582346cd-43e6-489a-9ea8-2d503b7b5fe7","ios":"levelo://app?vid=582346cd-43e6-489a-9ea8-2d503b7b5fe7"},"vehicle_type_id":"4","last_reported":1731856082,"current_range_meters":38800,"station_id":"ce4bhp92rcd13ifvqhbg","pricing_plan_id":"cebpf4jnsgd1na2vs0mg"},{"bike_id":"08b8cc7a-173f-45ff-a19d-373334d8568e","system_id":"levelo_inurba_marseille","lat":43.3253,"lon":5.41433,"is_reserved":false,"is_disabled":false,"rental_uris":{"android":"levelo://app?vid=08b8cc7a-173f-45ff-a19d-373334d8568e","ios":"levelo://app?vid=08b8cc7a-173f-45ff-a19d-373334d8568e"},"vehicle_type_id":"4","last_reported":1731856082,"current_range_meters":16400,"station_id":"ce4bhq12rcd13ifvqhhg","pricing_plan_id":"cebpf4jnsgd1na2vs0mg"},{"bike_id":"b316ccc8-0f54-469a-bc0a-bf473eca46ab","system_id":"levelo_inurba_marseille","lat":43.28274,"lon":5.35052,"is_reserved":false,"is_disabled":false,"rental_uris":{"android":"levelo://app?vid=b316ccc8-0f54-469a-bc0a-bf473eca46ab","ios":"levelo://app?vid=b316ccc8-0f54-469a-bc0a-bf473eca46ab"},"vehicle_type_id":"4","last_reported":1731856082,"current_range_meters":23200,"station_id":"ce4bhbp2rcd13ifvqerg","pricing_plan_id":"cebpf4jnsgd1na2vs0mg"},{"bike_id":"324397bd-2354-4064-be72-82c6a01b3afc","system_id":"levelo_inurba_marseille","lat":43.2962,"lon":5.37172,"is_reserved":false,"is_disabled":false,"rental_uris":{"android":"levelo://app?vid=324397bd-2354-4064-be72-82c6a01b3afc","ios":"levelo://app?vid=324397bd-2354-4064-be72-82c6a01b3afc"},"vehicle_type_id":"4","last_reported":1731856082,"current_range_meters":36800,"station_id":"ce4bgnh2rcd13ifvqc0g","pricing_plan_id":"cebpf4jnsgd1na2vs0mg"},{"bike_id":"eb9a84f5-6092-4dc4-a3c0-a07efb437c77","system_id":"levelo_inurba_marseille","lat":43.3376,"lon":5.37435,"is_reserved":false,"is_disabled":false,"rental_uris":{"android":"levelo://app?vid=eb9a84f5-6092-4dc4-a3c0-a07efb437c77","ios":"levelo://app?vid=eb9a84f5-6092-4dc4-a3c0-a07efb437c77"},"vehicle_type_id":"4","last_reported":1731856082,"current_range_meters":5600,"station_id":"","pricing_plan_id":"cebpf4jnsgd1na2vs0mg"},{"bike_id":"37fe1ad1-425f-4ba1-be91-ab2e05a52fed","system_id":"levelo_inurba_marseille","lat":43.23962,"lon":5.3663,"is_reserved":false,"is_disabled":false,"rental_uris":{"android":"levelo://app?vid=37fe1ad1-425f-4ba1-be91-ab2e05a52fed","ios":"levelo://app?vid=37fe1ad1-425f-4ba1-be91-ab2e05a52fed"},"vehicle_type_id":"4","last_reported":1731856082,"current_range_meters":9600,"station_id":"ce4bhi12rcd13ifvqfp0","pricing_plan_id":"cebpf4jnsgd1na2vs0mg"},{"bike_id":"22ea48db-755d-43c3-a7d2-0beff01815d8","system_id":"levelo_inurba_marseille","lat":43.33761,"lon":5.37446,"is_reserved":false,"is_disabled":false,"rental_uris":{"android":"levelo://app?vid=22ea48db-755d-43c3-a7d2-0beff01815d8","ios":"levelo://app?vid=22ea48db-755d-43c3-a7d2-0beff01815d8"},"vehicle_type_id":"4","last_reported":1731856082,"current_range_meters":8400,"station_id":"","pricing_plan_id":"cebpf4jnsgd1na2vs0mg"},{"bike_id":"e572c8c8-2c29-468a-9de9-47bf2d2e9b00","system_id":"levelo_inurba_marseille","lat":43.27489,"lon":5.42458,"is_reserved":false,"is_disabled":false,"rental_uris":{"android":"levelo://app?vid=e572c8c8-2c29-468a-9de9-47bf2d2e9b00","ios":"levelo://app?vid=e572c8c8-2c29-468a-9de9-47bf2d2e9b00"},"vehicle_type_id":"4","last_reported":1731856082,"current_range_meters":28000,"station_id":"ce4bhn92rcd13ifvqgrg","pricing_plan_id":"cebpf4jnsgd1na2vs0mg"},{"bike_id":"ec04fc27-7def-4630-88a8-b01adbbe9873","system_id":"levelo_inurba_marseille","lat":43.2407,"lon":5.37768,"is_reserved":false,"is_disabled":false,"rental_uris":{"android":"levelo://app?vid=ec04fc27-7def-4630-88a8-b01adbbe9873","ios":"levelo://app?vid=ec04fc27-7def-4630-88a8-b01adbbe9873"},"vehicle_type_id":"4","last_reported":1731856082,"current_range_meters":35600,"station_id":"ce4bhnp2rcd13ifvqgvg","pricing_plan_id":"cebpf4jnsgd1na2vs0mg"},{"bike_id":"e3e1ee77-0db4-4830-8bf9-9baffea56178","system_id":"levelo_inurba_marseille","lat":43.29573,"lon":5.37528,"is_reserved":false,"is_disabled":false,"rental_uris":{"android":"levelo://app?vid=e3e1ee77-0db4-4830-8bf9-9baffea56178","ios":"levelo://app?vid=e3e1ee77-0db4-4830-8bf9-9baffea56178"},"vehicle_type_id":"4","last_reported":1731856082,"current_range_meters":2800,"station_id":"ce4bgh92rcd13ifvqb50","pricing_plan_id":"cebpf4jnsgd1na2vs0mg"},{"bike_id":"a1862017-f597-4949-a306-4d7c53cc8b86","system_id":"levelo_inurba_marseille","lat":43.2417,"lon":5.364,"is_reserved":false,"is_disabled":false,"rental_uris":{"android":"levelo://app?vid=a1862017-f597-4949-a306-4d7c53cc8b86","ios":"levelo://app?vid=a1862017-f597-4949-a306-4d7c53cc8b86"},"vehicle_type_id":"4","last_reported":1731856082,"current_range_meters":8000,"station_id":"cpo36qri1sfpv3e86is0","pricing_plan_id":"cebpf4jnsgd1na2vs0mg"},{"bike_id":"33c11232-4a7d-4dcd-ab03-913ed4e80106","system_id":"levelo_inurba_marseille","lat":43.33022,"lon":5.39043,"is_reserved":false,"is_disabled":false,"rental_uris":{"android":"levelo://app?vid=33c11232-4a7d-4dcd-ab03-913ed4e80106","ios":"levelo://app?vid=33c11232-4a7d-4dcd-ab03-913ed4e80106"},"vehicle_type_id":"4","last_reported":1731856082,"current_range_meters":9200,"station_id":"ce4bhr92rcd13ifvqhrg","pricing_plan_id":"cebpf4jnsgd1na2vs0mg"},{"bike_id":"ca655f3b-8380-4045-b3f8-8acaa0e83ede","system_id":"levelo_inurba_marseille","lat":43.33739,"lon":5.37423,"is_reserved":false,"is_disabled":false,"rental_uris":{"android":"levelo://app?vid=ca655f3b-8380-4045-b3f8-8acaa0e83ede","ios":"levelo://app?vid=ca655f3b-8380-4045-b3f8-8acaa0e83ede"},"vehicle_type_id":"4","last_reported":1731856082,"current_range_meters":32800,"station_id":"","pricing_plan_id":"cebpf4jnsgd1na2vs0mg"},{"bike_id":"ce83bfc2-5697-44e9-a984-86875db0eaae","system_id":"levelo_inurba_marseille","lat":43.25496,"lon":5.37654,"is_reserved":false,"is_disabled":false,"rental_uris":{"android":"levelo://app?vid=ce83bfc2-5697-44e9-a984-86875db0eaae","ios":"levelo://app?vid=ce83bfc2-5697-44e9-a984-86875db0eaae"},"vehicle_type_id":"4","last_reported":1731856082,"current_range_meters":20400,"station_id":"ce4bhh12rcd13ifvqff0","pricing_plan_id":"cebpf4jnsgd1na2vs0mg"},{"bike_id":"a6b8c285-acc9-4039-9531-1aae39136a33","system_id":"levelo_inurba_marseille","lat":43.312042,"lon":5.367348,"is_reserved":false,"is_disabled":false,"rental_uris":{"android":"levelo://app?vid=a6b8c285-acc9-4039-9531-1aae39136a33","ios":"levelo://app?vid=a6b8c285-acc9-4039-9531-1aae39136a33"},"vehicle_type_id":"4","last_reported":1731856082,"current_range_meters":10000,"station_id":"","pricing_plan_id":"cebpf4jnsgd1na2vs0mg"},{"bike_id":"04e579be-d930-46e5-bb29-40fdc45896e1","system_id":"levelo_inurba_marseille","lat":43.32643,"lon":5.36209,"is_reserved":false,"is_disabled":false,"rental_uris":{"android":"levelo://app?vid=04e579be-d930-46e5-bb29-40fdc45896e1","ios":"levelo://app?vid=04e579be-d930-46e5-bb29-40fdc45896e1"},"vehicle_type_id":"4","last_reported":1731856082,"current_range_meters":6000,"station_id":"","pricing_plan_id":"cebpf4jnsgd1na2vs0mg"},{"bike_id":"37b940f2-53f1-40b3-bcdc-a092eab2c248","system_id":"levelo_inurba_marseille","lat":43.23955,"lon":5.36636,"is_reserved":false,"is_disabled":false,"rental_uris":{"android":"levelo://app?vid=37b940f2-53f1-40b3-bcdc-a092eab2c248","ios":"levelo://app?vid=37b940f2-53f1-40b3-bcdc-a092eab2c248"},"vehicle_type_id":"4","last_reported":1731856082,"current_range_meters":19600,"station_id":"ce4bhi12rcd13ifvqfp0","pricing_plan_id":"cebpf4jnsgd1na2vs0mg"},{"bike_id":"21e9619a-ee0e-48cf-9d55-2e8ee8f51b66","system_id":"levelo_inurba_marseille","lat":43.279006,"lon":5.380171,"is_reserved":false,"is_disabled":false,"rental_uris":{"android":"levelo://app?vid=21e9619a-ee0e-48cf-9d55-2e8ee8f51b66","ios":"levelo://app?vid=21e9619a-ee0e-48cf-9d55-2e8ee8f51b66"},"vehicle_type_id":"4","last_reported":1731856082,"current_range_meters":36400,"station_id":"ce4bhf92rcd13ifvqf50","pricing_plan_id":"cebpf4jnsgd1na2vs0mg"},{"bike_id":"d3e68360-9836-4cbf-b8bb-a7270f4fe79e","system_id":"levelo_inurba_marseille","lat":43.265686,"lon":5.390343,"is_reserved":false,"is_disabled":false,"rental_uris":{"android":"levelo://app?vid=d3e68360-9836-4cbf-b8bb-a7270f4fe79e","ios":"levelo://app?vid=d3e68360-9836-4cbf-b8bb-a7270f4fe79e"},"vehicle_type_id":"4","last_reported":1731856082,"current_range_meters":20400,"station_id":"ce4bhe12rcd13ifvqf30","pricing_plan_id":"cebpf4jnsgd1na2vs0mg"},{"bike_id":"776c19bb-9271-4d1b-b450-71b28ade05f5","system_id":"levelo_inurba_marseille","lat":43.23192,"lon":5.35558,"is_reserved":false,"is_disabled":false,"rental_uris":{"android":"levelo://app?vid=776c19bb-9271-4d1b-b450-71b28ade05f5","ios":"levelo://app?vid=776c19bb-9271-4d1b-b450-71b28ade05f5"},"vehicle_type_id":"4","last_reported":1731856082,"current_range_meters":35600,"station_id":"ce4bhu92rcd13ifvqi70","pricing_plan_id":"cebpf4jnsgd1na2vs0mg"},{"bike_id":"3731846e-2218-45f1-ac96-76a41185ff9d","system_id":"levelo_inurba_marseille","lat":43.24167,"lon":5.36396,"is_reserved":false,"is_disabled":false,"rental_uris":{"android":"levelo://app?vid=3731846e-2218-45f1-ac96-76a41185ff9d","ios":"levelo://app?vid=3731846e-2218-45f1-ac96-76a41185ff9d"},"vehicle_type_id":"4","last_reported":1731856082,"current_range_meters":36400,"station_id":"cpo36qri1sfpv3e86is0","pricing_plan_id":"cebpf4jnsgd1na2vs0mg"},{"bike_id":"a65ebba0-b6e5-49de-a27c-b6ce8a65702d","system_id":"levelo_inurba_marseille","lat":43.28613,"lon":5.35109,"is_reserved":false,"is_disabled":false,"rental_uris":{"android":"levelo://app?vid=a65ebba0-b6e5-49de-a27c-b6ce8a65702d","ios":"levelo://app?vid=a65ebba0-b6e5-49de-a27c-b6ce8a65702d"},"vehicle_type_id":"4","last_reported":1731856082,"current_range_meters":27200,"station_id":"ce4bhch2rcd13ifvqeug","pricing_plan_id":"cebpf4jnsgd1na2vs0mg"},{"bike_id":"92ac4858-87d6-4ceb-8f6e-004635a816a8","system_id":"levelo_inurba_marseille","lat":43.27787,"lon":5.40739,"is_reserved":false,"is_disabled":false,"rental_uris":{"android":"levelo://app?vid=92ac4858-87d6-4ceb-8f6e-004635a816a8","ios":"levelo://app?vid=92ac4858-87d6-4ceb-8f6e-004635a816a8"},"vehicle_type_id":"4","last_reported":1731856082,"current_range_meters":26800,"station_id":"ce4bhnh2rcd13ifvqgtg","pricing_plan_id":"cebpf4jnsgd1na2vs0mg"},{"bike_id":"6fec559a-2b3b-4f1a-9c20-1a2347d89940","system_id":"levelo_inurba_marseille","lat":43.28747,"lon":5.43316,"is_reserved":false,"is_disabled":false,"rental_uris":{"android":"levelo://app?vid=6fec559a-2b3b-4f1a-9c20-1a2347d89940","ios":"levelo://app?vid=6fec559a-2b3b-4f1a-9c20-1a2347d89940"},"vehicle_type_id":"4","last_reported":1731856082,"current_range_meters":6000,"station_id":"","pricing_plan_id":"cebpf4jnsgd1na2vs0mg"},{"bike_id":"1396ab55-0e44-4ee6-a17e-86cf36813da1","system_id":"levelo_inurba_marseille","lat":43.24178,"lon":5.39735,"is_reserved":false,"is_disabled":false,"rental_uris":{"android":"levelo://app?vid=1396ab55-0e44-4ee6-a17e-86cf36813da1","ios":"levelo://app?vid=1396ab55-0e44-4ee6-a17e-86cf36813da1"},"vehicle_type_id":"4","last_reported":1731856082,"current_range_meters":27600,"station_id":"ce4bhn12rcd13ifvqgpg","pricing_plan_id":"cebpf4jnsgd1na2vs0mg"},{"bike_id":"4b072b4a-ad22-4307-9bfe-1c24a189154d","system_id":"levelo_inurba_marseille","lat":43.29901,"lon":5.3747,"is_reserved":false,"is_disabled":false,"rental_uris":{"android":"levelo://app?vid=4b072b4a-ad22-4307-9bfe-1c24a189154d","ios":"levelo://app?vid=4b072b4a-ad22-4307-9bfe-1c24a189154d"},"vehicle_type_id":"4","last_reported":1731856082,"current_range_meters":38800,"station_id":"ce4bgjh2rcd13ifvqbg0","pricing_plan_id":"cebpf4jnsgd1na2vs0mg"},{"bike_id":"2412fd48-7071-4437-8fb4-820ded7fd014","system_id":"levelo_inurba_marseille","lat":43.22929,"lon":5.35374,"is_reserved":false,"is_disabled":false,"rental_uris":{"android":"levelo://app?vid=2412fd48-7071-4437-8fb4-820ded7fd014","ios":"levelo://app?vid=2412fd48-7071-4437-8fb4-820ded7fd014"},"vehicle_type_id":"4","last_reported":1731856082,"current_range_meters":17200,"station_id":"cpo3532slgdg3j2ikp40","pricing_plan_id":"cebpf4jnsgd1na2vs0mg"},{"bike_id":"58b880ee-ba7b-4c7c-a799-0696aaf6e3d9","system_id":"levelo_inurba_marseille","lat":43.23959,"lon":5.36641,"is_reserved":false,"is_disabled":false,"rental_uris":{"android":"levelo://app?vid=58b880ee-ba7b-4c7c-a799-0696aaf6e3d9","ios":"levelo://app?vid=58b880ee-ba7b-4c7c-a799-0696aaf6e3d9"},"vehicle_type_id":"4","last_reported":1731856082,"current_range_meters":32400,"station_id":"ce4bhi12rcd13ifvqfp0","pricing_plan_id":"cebpf4jnsgd1na2vs0mg"},{"bike_id":"a84f5389-258d-4508-9c0f-32ee5d326b43","system_id":"levelo_inurba_marseille","lat":43.33767,"lon":5.37475,"is_reserved":false,"is_disabled":false,"rental_uris":{"android":"levelo://app?vid=a84f5389-258d-4508-9c0f-32ee5d326b43","ios":"levelo://app?vid=a84f5389-258d-4508-9c0f-32ee5d326b43"},"vehicle_type_id":"4","last_reported":1731856082,"current_range_meters":29600,"station_id":"","pricing_plan_id":"cebpf4jnsgd1na2vs0mg"},{"bike_id":"0e8dab6f-b36e-4e69-99f6-f2ddd6978635","system_id":"levelo_inurba_marseille","lat":43.25079,"lon":5.39521,"is_reserved":false,"is_disabled":false,"rental_uris":{"android":"levelo://app?vid=0e8dab6f-b36e-4e69-99f6-f2ddd6978635","ios":"levelo://app?vid=0e8dab6f-b36e-4e69-99f6-f2ddd6978635"},"vehicle_type_id":"4","last_reported":1731856082,"current_range_meters":8000,"station_id":"ce4bhm12rcd13ifvqgkg","pricing_plan_id":"cebpf4jnsgd1na2vs0mg"},{"bike_id":"d6ea0d18-09c5-4a16-8d92-16497ecc1e85","system_id":"levelo_inurba_marseille","lat":43.27493,"lon":5.42454,"is_reserved":false,"is_disabled":false,"rental_uris":{"android":"levelo://app?vid=d6ea0d18-09c5-4a16-8d92-16497ecc1e85","ios":"levelo://app?vid=d6ea0d18-09c5-4a16-8d92-16497ecc1e85"},"vehicle_type_id":"4","last_reported":1731856082,"current_range_meters":8800,"station_id":"ce4bhn92rcd13ifvqgrg","pricing_plan_id":"cebpf4jnsgd1na2vs0mg"},{"bike_id":"50237c26-ee51-4d66-9731-4ff121963b5a","system_id":"levelo_inurba_marseille","lat":43.32479,"lon":5.36572,"is_reserved":false,"is_disabled":false,"rental_uris":{"android":"levelo://app?vid=50237c26-ee51-4d66-9731-4ff121963b5a","ios":"levelo://app?vid=50237c26-ee51-4d66-9731-4ff121963b5a"},"vehicle_type_id":"4","last_reported":1731856082,"current_range_meters":24400,"station_id":"ce4bhs12rcd13ifvqhvg","pricing_plan_id":"cebpf4jnsgd1na2vs0mg"},{"bike_id":"a0cb120e-dea2-4573-94b7-6dc8751aa957","system_id":"levelo_inurba_marseille","lat":43.27988,"lon":5.41663,"is_reserved":false,"is_disabled":false,"rental_uris":{"android":"levelo://app?vid=a0cb120e-dea2-4573-94b7-6dc8751aa957","ios":"levelo://app?vid=a0cb120e-dea2-4573-94b7-6dc8751aa957"},"vehicle_type_id":"4","last_reported":1731856082,"current_range_meters":2000,"station_id":"ce4bho12rcd13ifvqh1g","pricing_plan_id":"cebpf4jnsgd1na2vs0mg"},{"bike_id":"c40b4b1c-0529-4a6a-8631-6daf13aa6904","system_id":"levelo_inurba_marseille","lat":43.25005,"lon":5.38919,"is_reserved":false,"is_disabled":false,"rental_uris":{"android":"levelo://app?vid=c40b4b1c-0529-4a6a-8631-6daf13aa6904","ios":"levelo://app?vid=c40b4b1c-0529-4a6a-8631-6daf13aa6904"},"vehicle_type_id":"4","last_reported":1731856082,"current_range_meters":28000,"station_id":"ce4bhgp2rcd13ifvqfd0","pricing_plan_id":"cebpf4jnsgd1na2vs0mg"},{"bike_id":"a2e36d0e-7c50-4e40-8502-ebf3d1b8ffa2","system_id":"levelo_inurba_marseille","lat":43.28465,"lon":5.35897,"is_reserved":false,"is_disabled":false,"rental_uris":{"android":"levelo://app?vid=a2e36d0e-7c50-4e40-8502-ebf3d1b8ffa2","ios":"levelo://app?vid=a2e36d0e-7c50-4e40-8502-ebf3d1b8ffa2"},"vehicle_type_id":"4","last_reported":1731856082,"current_range_meters":2800,"station_id":"ce4bhah2rcd13ifvqei0","pricing_plan_id":"cebpf4jnsgd1na2vs0mg"},{"bike_id":"fca868f5-9fd0-45d8-90bd-4e6ce3d8eb68","system_id":"levelo_inurba_marseille","lat":43.23188,"lon":5.39987,"is_reserved":false,"is_disabled":false,"rental_uris":{"android":"levelo://app?vid=fca868f5-9fd0-45d8-90bd-4e6ce3d8eb68","ios":"levelo://app?vid=fca868f5-9fd0-45d8-90bd-4e6ce3d8eb68"},"vehicle_type_id":"4","last_reported":1731856082,"current_range_meters":16000,"station_id":"ce4bhn12rcd13ifvqgqg","pricing_plan_id":"cebpf4jnsgd1na2vs0mg"},{"bike_id":"f7a8f3e3-37f9-419e-9142-5cc8acf04052","system_id":"levelo_inurba_marseille","lat":43.29015,"lon":5.406623,"is_reserved":false,"is_disabled":false,"rental_uris":{"android":"levelo://app?vid=f7a8f3e3-37f9-419e-9142-5cc8acf04052","ios":"levelo://app?vid=f7a8f3e3-37f9-419e-9142-5cc8acf04052"},"vehicle_type_id":"4","last_reported":1731856082,"current_range_meters":16000,"station_id":"ce4bh312rcd13ifvqdk0","pricing_plan_id":"cebpf4jnsgd1na2vs0mg"},{"bike_id":"b086eb62-64ab-450c-9aee-ca3b06626853","system_id":"levelo_inurba_marseille","lat":43.33724,"lon":5.39188,"is_reserved":false,"is_disabled":false,"rental_uris":{"android":"levelo://app?vid=b086eb62-64ab-450c-9aee-ca3b06626853","ios":"levelo://app?vid=b086eb62-64ab-450c-9aee-ca3b06626853"},"vehicle_type_id":"4","last_reported":1731856082,"current_range_meters":38000,"station_id":"ce4bhr92rcd13ifvqhsg","pricing_plan_id":"cebpf4jnsgd1na2vs0mg"},{"bike_id":"4167443a-38f0-4e67-adfe-688772530ba0","system_id":"levelo_inurba_marseille","lat":43.273781,"lon":5.362615,"is_reserved":false,"is_disabled":false,"rental_uris":{"android":"levelo://app?vid=4167443a-38f0-4e67-adfe-688772530ba0","ios":"levelo://app?vid=4167443a-38f0-4e67-adfe-688772530ba0"},"vehicle_type_id":"4","last_reported":1731856082,"current_range_meters":8000,"station_id":"ce4bgop2rcd13ifvqc1g","pricing_plan_id":"cebpf4jnsgd1na2vs0mg"},{"bike_id":"adb22bff-dbe9-4528-a4fb-5e5045067b6e","system_id":"levelo_inurba_marseille","lat":43.32019,"lon":5.415127,"is_reserved":false,"is_disabled":false,"rental_uris":{"android":"levelo://app?vid=adb22bff-dbe9-4528-a4fb-5e5045067b6e","ios":"levelo://app?vid=adb22bff-dbe9-4528-a4fb-5e5045067b6e"},"vehicle_type_id":"4","last_reported":1731856082,"current_range_meters":36000,"station_id":"ce4bhq92rcd13ifvqhkg","pricing_plan_id":"cebpf4jnsgd1na2vs0mg"},{"bike_id":"1e730ee4-2d8d-4021-979d-8e8d2bbc3bcb","system_id":"levelo_inurba_marseille","lat":43.27059,"lon":5.42277,"is_reserved":false,"is_disabled":false,"rental_uris":{"android":"levelo://app?vid=1e730ee4-2d8d-4021-979d-8e8d2bbc3bcb","ios":"levelo://app?vid=1e730ee4-2d8d-4021-979d-8e8d2bbc3bcb"},"vehicle_type_id":"4","last_reported":1731856082,"current_range_meters":14800,"station_id":"ce4bhk92rcd13ifvqgb0","pricing_plan_id":"cebpf4jnsgd1na2vs0mg"},{"bike_id":"022f478e-da93-4eda-9d1b-2d0e36905c07","system_id":"levelo_inurba_marseille","lat":43.33763,"lon":5.37434,"is_reserved":false,"is_disabled":false,"rental_uris":{"android":"levelo://app?vid=022f478e-da93-4eda-9d1b-2d0e36905c07","ios":"levelo://app?vid=022f478e-da93-4eda-9d1b-2d0e36905c07"},"vehicle_type_id":"4","last_reported":1731856082,"current_range_meters":10000,"station_id":"","pricing_plan_id":"cebpf4jnsgd1na2vs0mg"},{"bike_id":"3c7108fb-85fe-43b6-95ce-e6a5e6d34b1a","system_id":"levelo_inurba_marseille","lat":43.33721,"lon":5.3918,"is_reserved":false,"is_disabled":false,"rental_uris":{"android":"levelo://app?vid=3c7108fb-85fe-43b6-95ce-e6a5e6d34b1a","ios":"levelo://app?vid=3c7108fb-85fe-43b6-95ce-e6a5e6d34b1a"},"vehicle_type_id":"4","last_reported":1731856082,"current_range_meters":27600,"station_id":"ce4bhr92rcd13ifvqhsg","pricing_plan_id":"cebpf4jnsgd1na2vs0mg"},{"bike_id":"fb1b0ce3-3589-43d1-ae52-fd2e359dceea","system_id":"levelo_inurba_marseille","lat":43.3205,"lon":5.41548,"is_reserved":false,"is_disabled":false,"rental_uris":{"android":"levelo://app?vid=fb1b0ce3-3589-43d1-ae52-fd2e359dceea","ios":"levelo://app?vid=fb1b0ce3-3589-43d1-ae52-fd2e359dceea"},"vehicle_type_id":"4","last_reported":1731856082,"current_range_meters":25200,"station_id":"ce4bhq92rcd13ifvqhkg","pricing_plan_id":"cebpf4jnsgd1na2vs0mg"},{"bike_id":"bb83ca96-b8e6-4d38-8da0-61243a06413f","system_id":"levelo_inurba_marseille","lat":43.23199,"lon":5.35551,"is_reserved":false,"is_disabled":false,"rental_uris":{"android":"levelo://app?vid=bb83ca96-b8e6-4d38-8da0-61243a06413f","ios":"levelo://app?vid=bb83ca96-b8e6-4d38-8da0-61243a06413f"},"vehicle_type_id":"4","last_reported":1731856082,"current_range_meters":28800,"station_id":"ce4bhu92rcd13ifvqi70","pricing_plan_id":"cebpf4jnsgd1na2vs0mg"},{"bike_id":"425fcc82-777d-41e4-b36c-99deef188da1","system_id":"levelo_inurba_marseille","lat":43.28475,"lon":5.38421,"is_reserved":false,"is_disabled":false,"rental_uris":{"android":"levelo://app?vid=425fcc82-777d-41e4-b36c-99deef188da1","ios":"levelo://app?vid=425fcc82-777d-41e4-b36c-99deef188da1"},"vehicle_type_id":"4","last_reported":1731856082,"current_range_meters":4000,"station_id":"ce4bh512rcd13ifvqe3g","pricing_plan_id":"cebpf4jnsgd1na2vs0mg"},{"bike_id":"e94fdce1-4481-4f15-b4ff-47960800e841","system_id":"levelo_inurba_marseille","lat":43.28041,"lon":5.36946,"is_reserved":false,"is_disabled":false,"rental_uris":{"android":"levelo://app?vid=e94fdce1-4481-4f15-b4ff-47960800e841","ios":"levelo://app?vid=e94fdce1-4481-4f15-b4ff-47960800e841"},"vehicle_type_id":"4","last_reported":1731856082,"current_range_meters":8000,"station_id":"ce4bha12rcd13ifvqef0","pricing_plan_id":"cebpf4jnsgd1na2vs0mg"},{"bike_id":"3531ab64-336e-4f5c-a264-444b074baac2","system_id":"levelo_inurba_marseille","lat":43.295709,"lon":5.366369,"is_reserved":false,"is_disabled":false,"rental_uris":{"android":"levelo://app?vid=3531ab64-336e-4f5c-a264-444b074baac2","ios":"levelo://app?vid=3531ab64-336e-4f5c-a264-444b074baac2"},"vehicle_type_id":"4","last_reported":1731856082,"current_range_meters":28400,"station_id":"ce4bhh92rcd13ifvqfh0","pricing_plan_id":"cebpf4jnsgd1na2vs0mg"},{"bike_id":"5e6eb84e-f977-40df-a989-5749f3b725fd","system_id":"levelo_inurba_marseille","lat":43.309552,"lon":5.390418,"is_reserved":false,"is_disabled":false,"rental_uris":{"android":"levelo://app?vid=5e6eb84e-f977-40df-a989-5749f3b725fd","ios":"levelo://app?vid=5e6eb84e-f977-40df-a989-5749f3b725fd"},"vehicle_type_id":"4","last_reported":1731856082,"current_range_meters":38800,"station_id":"ce4bgup2rcd13ifvqco0","pricing_plan_id":"cebpf4jnsgd1na2vs0mg"},{"bike_id":"442c0903-f40e-4bdf-be0d-6587cc076f59","system_id":"levelo_inurba_marseille","lat":43.23192,"lon":5.35563,"is_reserved":false,"is_disabled":false,"rental_uris":{"android":"levelo://app?vid=442c0903-f40e-4bdf-be0d-6587cc076f59","ios":"levelo://app?vid=442c0903-f40e-4bdf-be0d-6587cc076f59"},"vehicle_type_id":"4","last_reported":1731856082,"current_range_meters":35200,"station_id":"ce4bhu92rcd13ifvqi70","pricing_plan_id":"cebpf4jnsgd1na2vs0mg"},{"bike_id":"ca2f3cef-6f57-4273-89b0-3c9ae8b24bc0","system_id":"levelo_inurba_marseille","lat":43.29224,"lon":5.3606,"is_reserved":false,"is_disabled":false,"rental_uris":{"android":"levelo://app?vid=ca2f3cef-6f57-4273-89b0-3c9ae8b24bc0","ios":"levelo://app?vid=ca2f3cef-6f57-4273-89b0-3c9ae8b24bc0"},"vehicle_type_id":"4","last_reported":1731856082,"current_range_meters":24400,"station_id":"ce4bhbh2rcd13ifvqeqg","pricing_plan_id":"cebpf4jnsgd1na2vs0mg"},{"bike_id":"f09c08a0-9956-4be1-afa8-c8b9a1adfaa2","system_id":"levelo_inurba_marseille","lat":43.26815,"lon":5.402688,"is_reserved":false,"is_disabled":false,"rental_uris":{"android":"levelo://app?vid=f09c08a0-9956-4be1-afa8-c8b9a1adfaa2","ios":"levelo://app?vid=f09c08a0-9956-4be1-afa8-c8b9a1adfaa2"},"vehicle_type_id":"4","last_reported":1731856082,"current_range_meters":3200,"station_id":"ce501612rcd8frsf0b60","pricing_plan_id":"cebpf4jnsgd1na2vs0mg"},{"bike_id":"1e91bcfe-3e46-4f8f-92a1-27d1959763d4","system_id":"levelo_inurba_marseille","lat":43.27493,"lon":5.42448,"is_reserved":false,"is_disabled":false,"rental_uris":{"android":"levelo://app?vid=1e91bcfe-3e46-4f8f-92a1-27d1959763d4","ios":"levelo://app?vid=1e91bcfe-3e46-4f8f-92a1-27d1959763d4"},"vehicle_type_id":"4","last_reported":1731856082,"current_range_meters":10800,"station_id":"ce4bhn92rcd13ifvqgrg","pricing_plan_id":"cebpf4jnsgd1na2vs0mg"},{"bike_id":"46d73cb4-98d2-4361-9f76-3a12bddf157f","system_id":"levelo_inurba_marseille","lat":43.29192,"lon":5.35812,"is_reserved":false,"is_disabled":false,"rental_uris":{"android":"levelo://app?vid=46d73cb4-98d2-4361-9f76-3a12bddf157f","ios":"levelo://app?vid=46d73cb4-98d2-4361-9f76-3a12bddf157f"},"vehicle_type_id":"4","last_reported":1731856082,"current_range_meters":9600,"station_id":"","pricing_plan_id":"cebpf4jnsgd1na2vs0mg"},{"bike_id":"09f437b1-93f6-44ee-a17d-bac073b5aa1a","system_id":"levelo_inurba_marseille","lat":43.23963,"lon":5.36633,"is_reserved":false,"is_disabled":false,"rental_uris":{"android":"levelo://app?vid=09f437b1-93f6-44ee-a17d-bac073b5aa1a","ios":"levelo://app?vid=09f437b1-93f6-44ee-a17d-bac073b5aa1a"},"vehicle_type_id":"4","last_reported":1731856082,"current_range_meters":38000,"station_id":"ce4bhi12rcd13ifvqfp0","pricing_plan_id":"cebpf4jnsgd1na2vs0mg"},{"bike_id":"90bb2cae-4339-46de-973d-1d239b082c40","system_id":"levelo_inurba_marseille","lat":43.23185,"lon":5.39995,"is_reserved":false,"is_disabled":false,"rental_uris":{"android":"levelo://app?vid=90bb2cae-4339-46de-973d-1d239b082c40","ios":"levelo://app?vid=90bb2cae-4339-46de-973d-1d239b082c40"},"vehicle_type_id":"4","last_reported":1731856082,"current_range_meters":18000,"station_id":"ce4bhn12rcd13ifvqgqg","pricing_plan_id":"cebpf4jnsgd1na2vs0mg"},{"bike_id":"d37453dc-579c-4f2c-8202-d745f1e705a8","system_id":"levelo_inurba_marseille","lat":43.25932,"lon":5.40917,"is_reserved":false,"is_disabled":false,"rental_uris":{"android":"levelo://app?vid=d37453dc-579c-4f2c-8202-d745f1e705a8","ios":"levelo://app?vid=d37453dc-579c-4f2c-8202-d745f1e705a8"},"vehicle_type_id":"4","last_reported":1731856082,"current_range_meters":8800,"station_id":"ce4bhm92rcd13ifvqglg","pricing_plan_id":"cebpf4jnsgd1na2vs0mg"},{"bike_id":"b0e1c114-97fe-4734-ad5b-a38f70c0f3f3","system_id":"levelo_inurba_marseille","lat":43.27494,"lon":5.42455,"is_reserved":false,"is_disabled":false,"rental_uris":{"android":"levelo://app?vid=b0e1c114-97fe-4734-ad5b-a38f70c0f3f3","ios":"levelo://app?vid=b0e1c114-97fe-4734-ad5b-a38f70c0f3f3"},"vehicle_type_id":"4","last_reported":1731856082,"current_range_meters":7200,"station_id":"ce4bhn92rcd13ifvqgrg","pricing_plan_id":"cebpf4jnsgd1na2vs0mg"},{"bike_id":"9f9376b5-7a52-4020-8799-6ad682a12068","system_id":"levelo_inurba_marseille","lat":43.23179,"lon":5.39987,"is_reserved":false,"is_disabled":false,"rental_uris":{"android":"levelo://app?vid=9f9376b5-7a52-4020-8799-6ad682a12068","ios":"levelo://app?vid=9f9376b5-7a52-4020-8799-6ad682a12068"},"vehicle_type_id":"4","last_reported":1731856082,"current_range_meters":14400,"station_id":"ce4bhn12rcd13ifvqgqg","pricing_plan_id":"cebpf4jnsgd1na2vs0mg"},{"bike_id":"62012020-0bdb-4e2e-9987-a6dd714f8796","system_id":"levelo_inurba_marseille","lat":43.22928,"lon":5.35373,"is_reserved":false,"is_disabled":false,"rental_uris":{"android":"levelo://app?vid=62012020-0bdb-4e2e-9987-a6dd714f8796","ios":"levelo://app?vid=62012020-0bdb-4e2e-9987-a6dd714f8796"},"vehicle_type_id":"4","last_reported":1731856082,"current_range_meters":24400,"station_id":"cpo3532slgdg3j2ikp40","pricing_plan_id":"cebpf4jnsgd1na2vs0mg"},{"bike_id":"fce6f313-6c5d-4f24-bd79-938a228991fb","system_id":"levelo_inurba_marseille","lat":43.24174,"lon":5.39728,"is_reserved":false,"is_disabled":false,"rental_uris":{"android":"levelo://app?vid=fce6f313-6c5d-4f24-bd79-938a228991fb","ios":"levelo://app?vid=fce6f313-6c5d-4f24-bd79-938a228991fb"},"vehicle_type_id":"4","last_reported":1731856082,"current_range_meters":4000,"station_id":"ce4bhn12rcd13ifvqgpg","pricing_plan_id":"cebpf4jnsgd1na2vs0mg"},{"bike_id":"82d3cfbe-38aa-4175-bc5b-bd2a40d25cbe","system_id":"levelo_inurba_marseille","lat":43.32107,"lon":5.3677,"is_reserved":false,"is_disabled":false,"rental_uris":{"android":"levelo://app?vid=82d3cfbe-38aa-4175-bc5b-bd2a40d25cbe","ios":"levelo://app?vid=82d3cfbe-38aa-4175-bc5b-bd2a40d25cbe"},"vehicle_type_id":"4","last_reported":1731856082,"current_range_meters":16800,"station_id":"ce4bhrh2rcd13ifvqhug","pricing_plan_id":"cebpf4jnsgd1na2vs0mg"},{"bike_id":"7b76f7eb-5990-4745-bfda-68fbe5b47b7f","system_id":"levelo_inurba_marseille","lat":43.24175,"lon":5.3973,"is_reserved":false,"is_disabled":false,"rental_uris":{"android":"levelo://app?vid=7b76f7eb-5990-4745-bfda-68fbe5b47b7f","ios":"levelo://app?vid=7b76f7eb-5990-4745-bfda-68fbe5b47b7f"},"vehicle_type_id":"4","last_reported":1731856082,"current_range_meters":11600,"station_id":"ce4bhn12rcd13ifvqgpg","pricing_plan_id":"cebpf4jnsgd1na2vs0mg"},{"bike_id":"63cfe210-b1b7-4369-81a4-d305c4e3ae51","system_id":"levelo_inurba_marseille","lat":43.23194,"lon":5.39984,"is_reserved":false,"is_disabled":false,"rental_uris":{"android":"levelo://app?vid=63cfe210-b1b7-4369-81a4-d305c4e3ae51","ios":"levelo://app?vid=63cfe210-b1b7-4369-81a4-d305c4e3ae51"},"vehicle_type_id":"4","last_reported":1731856082,"current_range_meters":33200,"station_id":"ce4bhn12rcd13ifvqgqg","pricing_plan_id":"cebpf4jnsgd1na2vs0mg"},{"bike_id":"a91f23f7-f251-46d3-97a2-effb836fb255","system_id":"levelo_inurba_marseille","lat":43.24165,"lon":5.36395,"is_reserved":false,"is_disabled":false,"rental_uris":{"android":"levelo://app?vid=a91f23f7-f251-46d3-97a2-effb836fb255","ios":"levelo://app?vid=a91f23f7-f251-46d3-97a2-effb836fb255"},"vehicle_type_id":"4","last_reported":1731856082,"current_range_meters":14800,"station_id":"cpo36qri1sfpv3e86is0","pricing_plan_id":"cebpf4jnsgd1na2vs0mg"},{"bike_id":"952ede7a-2ff9-4a9b-9bbc-456dc8df9c18","system_id":"levelo_inurba_marseille","lat":43.325358,"lon":5.414303,"is_reserved":false,"is_disabled":false,"rental_uris":{"android":"levelo://app?vid=952ede7a-2ff9-4a9b-9bbc-456dc8df9c18","ios":"levelo://app?vid=952ede7a-2ff9-4a9b-9bbc-456dc8df9c18"},"vehicle_type_id":"4","last_reported":1731856082,"current_range_meters":36400,"station_id":"ce4bhq12rcd13ifvqhhg","pricing_plan_id":"cebpf4jnsgd1na2vs0mg"},{"bike_id":"d588b266-018e-404b-9ddd-9dfe162b6da5","system_id":"levelo_inurba_marseille","lat":43.27662,"lon":5.38895,"is_reserved":false,"is_disabled":false,"rental_uris":{"android":"levelo://app?vid=d588b266-018e-404b-9ddd-9dfe162b6da5","ios":"levelo://app?vid=d588b266-018e-404b-9ddd-9dfe162b6da5"},"vehicle_type_id":"4","last_reported":1731856082,"current_range_meters":15200,"station_id":"ce4bhi12rcd13ifvqfo0","pricing_plan_id":"cebpf4jnsgd1na2vs0mg"},{"bike_id":"2b437ea1-b5a7-4381-8ee5-c513097d2940","system_id":"levelo_inurba_marseille","lat":43.248077,"lon":5.374645,"is_reserved":false,"is_disabled":false,"rental_uris":{"android":"levelo://app?vid=2b437ea1-b5a7-4381-8ee5-c513097d2940","ios":"levelo://app?vid=2b437ea1-b5a7-4381-8ee5-c513097d2940"},"vehicle_type_id":"4","last_reported":1731856082,"current_range_meters":3600,"station_id":"ce4bhgh2rcd13ifvqfb0","pricing_plan_id":"cebpf4jnsgd1na2vs0mg"},{"bike_id":"ce576439-acad-42ff-9495-f6cc9f7b60cc","system_id":"levelo_inurba_marseille","lat":43.28709,"lon":5.37919,"is_reserved":false,"is_disabled":false,"rental_uris":{"android":"levelo://app?vid=ce576439-acad-42ff-9495-f6cc9f7b60cc","ios":"levelo://app?vid=ce576439-acad-42ff-9495-f6cc9f7b60cc"},"vehicle_type_id":"4","last_reported":1731856082,"current_range_meters":20000,"station_id":"ce4bh9p2rcd13ifvqec0","pricing_plan_id":"cebpf4jnsgd1na2vs0mg"},{"bike_id":"0d84feb5-1b95-49ab-bf91-c474041a34ca","system_id":"levelo_inurba_marseille","lat":43.33025,"lon":5.39034,"is_reserved":false,"is_disabled":false,"rental_uris":{"android":"levelo://app?vid=0d84feb5-1b95-49ab-bf91-c474041a34ca","ios":"levelo://app?vid=0d84feb5-1b95-49ab-bf91-c474041a34ca"},"vehicle_type_id":"4","last_reported":1731856082,"current_range_meters":24800,"station_id":"ce4bhr92rcd13ifvqhrg","pricing_plan_id":"cebpf4jnsgd1na2vs0mg"},{"bike_id":"e6e8b0e7-700d-4b3e-a86b-063ab589b5d6","system_id":"levelo_inurba_marseille","lat":43.22932,"lon":5.35378,"is_reserved":false,"is_disabled":false,"rental_uris":{"android":"levelo://app?vid=e6e8b0e7-700d-4b3e-a86b-063ab589b5d6","ios":"levelo://app?vid=e6e8b0e7-700d-4b3e-a86b-063ab589b5d6"},"vehicle_type_id":"4","last_reported":1731856082,"current_range_meters":32800,"station_id":"cpo3532slgdg3j2ikp40","pricing_plan_id":"cebpf4jnsgd1na2vs0mg"},{"bike_id":"211e51e8-dbf7-4d22-b6f1-8020f0c8fa6e","system_id":"levelo_inurba_marseille","lat":43.24174,"lon":5.36403,"is_reserved":false,"is_disabled":false,"rental_uris":{"android":"levelo://app?vid=211e51e8-dbf7-4d22-b6f1-8020f0c8fa6e","ios":"levelo://app?vid=211e51e8-dbf7-4d22-b6f1-8020f0c8fa6e"},"vehicle_type_id":"4","last_reported":1731856082,"current_range_meters":19200,"station_id":"cpo36qri1sfpv3e86is0","pricing_plan_id":"cebpf4jnsgd1na2vs0mg"},{"bike_id":"14b0dd5d-fb7f-4337-812d-2efd5b171e81","system_id":"levelo_inurba_marseille","lat":43.230598,"lon":5.354916,"is_reserved":false,"is_disabled":false,"rental_uris":{"android":"levelo://app?vid=14b0dd5d-fb7f-4337-812d-2efd5b171e81","ios":"levelo://app?vid=14b0dd5d-fb7f-4337-812d-2efd5b171e81"},"vehicle_type_id":"4","last_reported":1731856082,"current_range_meters":36800,"station_id":"cpo3342slgdg3j2ifvpg","pricing_plan_id":"cebpf4jnsgd1na2vs0mg"},{"bike_id":"01278896-bcc3-4115-9488-dd4acb3e5847","system_id":"levelo_inurba_marseille","lat":43.23196,"lon":5.35549,"is_reserved":false,"is_disabled":false,"rental_uris":{"android":"levelo://app?vid=01278896-bcc3-4115-9488-dd4acb3e5847","ios":"levelo://app?vid=01278896-bcc3-4115-9488-dd4acb3e5847"},"vehicle_type_id":"4","last_reported":1731856082,"current_range_meters":39200,"station_id":"ce4bhu92rcd13ifvqi70","pricing_plan_id":"cebpf4jnsgd1na2vs0mg"},{"bike_id":"2df1fc99-67d3-4962-a043-2d989720685b","system_id":"levelo_inurba_marseille","lat":43.24545,"lon":5.39527,"is_reserved":false,"is_disabled":false,"rental_uris":{"android":"levelo://app?vid=2df1fc99-67d3-4962-a043-2d989720685b","ios":"levelo://app?vid=2df1fc99-67d3-4962-a043-2d989720685b"},"vehicle_type_id":"4","last_reported":1731856082,"current_range_meters":12400,"station_id":"ce4bhlp2rcd13ifvqgjg","pricing_plan_id":"cebpf4jnsgd1na2vs0mg"},{"bike_id":"9230508f-33b1-4d19-82be-237fa6258a6a","system_id":"levelo_inurba_marseille","lat":43.3247,"lon":5.36578,"is_reserved":false,"is_disabled":false,"rental_uris":{"android":"levelo://app?vid=9230508f-33b1-4d19-82be-237fa6258a6a","ios":"levelo://app?vid=9230508f-33b1-4d19-82be-237fa6258a6a"},"vehicle_type_id":"4","last_reported":1731856082,"current_range_meters":16800,"station_id":"ce4bhs12rcd13ifvqhvg","pricing_plan_id":"cebpf4jnsgd1na2vs0mg"},{"bike_id":"c3090fc9-555b-4016-9bad-be797e221135","system_id":"levelo_inurba_marseille","lat":43.26953,"lon":5.38631,"is_reserved":false,"is_disabled":false,"rental_uris":{"android":"levelo://app?vid=c3090fc9-555b-4016-9bad-be797e221135","ios":"levelo://app?vid=c3090fc9-555b-4016-9bad-be797e221135"},"vehicle_type_id":"4","last_reported":1731856082,"current_range_meters":38000,"station_id":"ce4bhh92rcd13ifvqfh0","pricing_plan_id":"cebpf4jnsgd1na2vs0mg"},{"bike_id":"b3905255-23dc-444c-a75b-88b1daffbddc","system_id":"levelo_inurba_marseille","lat":43.31703,"lon":5.37736,"is_reserved":false,"is_disabled":false,"rental_uris":{"android":"levelo://app?vid=b3905255-23dc-444c-a75b-88b1daffbddc","ios":"levelo://app?vid=b3905255-23dc-444c-a75b-88b1daffbddc"},"vehicle_type_id":"4","last_reported":1731856082,"current_range_meters":12400,"station_id":"ce4bgth2rcd13ifvqch0","pricing_plan_id":"cebpf4jnsgd1na2vs0mg"},{"bike_id":"a9850f2d-6feb-4d31-b456-0b115c79e22d","system_id":"levelo_inurba_marseille","lat":43.28151,"lon":5.4265,"is_reserved":false,"is_disabled":false,"rental_uris":{"android":"levelo://app?vid=a9850f2d-6feb-4d31-b456-0b115c79e22d","ios":"levelo://app?vid=a9850f2d-6feb-4d31-b456-0b115c79e22d"},"vehicle_type_id":"4","last_reported":1731856082,"current_range_meters":32400,"station_id":"ce4bhnh2rcd13ifvqgug","pricing_plan_id":"cebpf4jnsgd1na2vs0mg"},{"bike_id":"6c8fa696-884c-401f-b9a7-6bfc79df1ee7","system_id":"levelo_inurba_marseille","lat":43.24167,"lon":5.36395,"is_reserved":false,"is_disabled":false,"rental_uris":{"android":"levelo://app?vid=6c8fa696-884c-401f-b9a7-6bfc79df1ee7","ios":"levelo://app?vid=6c8fa696-884c-401f-b9a7-6bfc79df1ee7"},"vehicle_type_id":"4","last_reported":1731856082,"current_range_meters":10800,"station_id":"cpo36qri1sfpv3e86is0","pricing_plan_id":"cebpf4jnsgd1na2vs0mg"},{"bike_id":"eb1e3dd4-44e1-447b-b6e5-227b1f23dd28","system_id":"levelo_inurba_marseille","lat":43.2749,"lon":5.42457,"is_reserved":false,"is_disabled":false,"rental_uris":{"android":"levelo://app?vid=eb1e3dd4-44e1-447b-b6e5-227b1f23dd28","ios":"levelo://app?vid=eb1e3dd4-44e1-447b-b6e5-227b1f23dd28"},"vehicle_type_id":"4","last_reported":1731856082,"current_range_meters":5600,"station_id":"ce4bhn92rcd13ifvqgrg","pricing_plan_id":"cebpf4jnsgd1na2vs0mg"},{"bike_id":"422a4208-e51b-41c9-a97d-db7e87e5032e","system_id":"levelo_inurba_marseille","lat":43.2919,"lon":5.3581,"is_reserved":false,"is_disabled":false,"rental_uris":{"android":"levelo://app?vid=422a4208-e51b-41c9-a97d-db7e87e5032e","ios":"levelo://app?vid=422a4208-e51b-41c9-a97d-db7e87e5032e"},"vehicle_type_id":"4","last_reported":1731856082,"current_range_meters":5600,"station_id":"ce4bhb12rcd13ifvqel0","pricing_plan_id":"cebpf4jnsgd1na2vs0mg"},{"bike_id":"ef3da61f-cf2f-4e7f-962f-a81fa6e6e1a4","system_id":"levelo_inurba_marseille","lat":43.26053,"lon":5.39399,"is_reserved":false,"is_disabled":false,"rental_uris":{"android":"levelo://app?vid=ef3da61f-cf2f-4e7f-962f-a81fa6e6e1a4","ios":"levelo://app?vid=ef3da61f-cf2f-4e7f-962f-a81fa6e6e1a4"},"vehicle_type_id":"4","last_reported":1731856082,"current_range_meters":9600,"station_id":"ce4bhh92rcd13ifvqfj0","pricing_plan_id":"cebpf4jnsgd1na2vs0mg"},{"bike_id":"904b8ebc-6b39-4ffa-9daf-f77e00a33524","system_id":"levelo_inurba_marseille","lat":43.28263,"lon":5.35061,"is_reserved":false,"is_disabled":false,"rental_uris":{"android":"levelo://app?vid=904b8ebc-6b39-4ffa-9daf-f77e00a33524","ios":"levelo://app?vid=904b8ebc-6b39-4ffa-9daf-f77e00a33524"},"vehicle_type_id":"4","last_reported":1731856082,"current_range_meters":38800,"station_id":"ce4bhbp2rcd13ifvqerg","pricing_plan_id":"cebpf4jnsgd1na2vs0mg"},{"bike_id":"d443f273-bea5-4668-a411-f784c4569724","system_id":"levelo_inurba_marseille","lat":43.27604,"lon":5.36122,"is_reserved":false,"is_disabled":false,"rental_uris":{"android":"levelo://app?vid=d443f273-bea5-4668-a411-f784c4569724","ios":"levelo://app?vid=d443f273-bea5-4668-a411-f784c4569724"},"vehicle_type_id":"4","last_reported":1731856082,"current_range_meters":2800,"station_id":"ce4bgj92rcd13ifvqbe0","pricing_plan_id":"cebpf4jnsgd1na2vs0mg"},{"bike_id":"7f795462-074d-4644-9f10-cbadc3da1d65","system_id":"levelo_inurba_marseille","lat":43.28441,"lon":5.39205,"is_reserved":false,"is_disabled":false,"rental_uris":{"android":"levelo://app?vid=7f795462-074d-4644-9f10-cbadc3da1d65","ios":"levelo://app?vid=7f795462-074d-4644-9f10-cbadc3da1d65"},"vehicle_type_id":"4","last_reported":1731856082,"current_range_meters":26800,"station_id":"ce4bhoh2rcd13ifvqh5g","pricing_plan_id":"cebpf4jnsgd1na2vs0mg"},{"bike_id":"99245f55-2b9c-4e0d-b31b-fbb6fff104cf","system_id":"levelo_inurba_marseille","lat":43.26025,"lon":5.37552,"is_reserved":false,"is_disabled":false,"rental_uris":{"android":"levelo://app?vid=99245f55-2b9c-4e0d-b31b-fbb6fff104cf","ios":"levelo://app?vid=99245f55-2b9c-4e0d-b31b-fbb6fff104cf"},"vehicle_type_id":"4","last_reported":1731856082,"current_range_meters":25600,"station_id":"ce4bhgh2rcd13ifvqfa0","pricing_plan_id":"cebpf4jnsgd1na2vs0mg"},{"bike_id":"562ba9a5-bc29-431f-8c48-91d95e9e48ba","system_id":"levelo_inurba_marseille","lat":43.32483,"lon":5.36567,"is_reserved":false,"is_disabled":false,"rental_uris":{"android":"levelo://app?vid=562ba9a5-bc29-431f-8c48-91d95e9e48ba","ios":"levelo://app?vid=562ba9a5-bc29-431f-8c48-91d95e9e48ba"},"vehicle_type_id":"4","last_reported":1731856082,"current_range_meters":25600,"station_id":"ce4bhs12rcd13ifvqhvg","pricing_plan_id":"cebpf4jnsgd1na2vs0mg"},{"bike_id":"a92a68f3-3c32-4ef9-95b9-3d1097075944","system_id":"levelo_inurba_marseille","lat":43.2922,"lon":5.36049,"is_reserved":false,"is_disabled":false,"rental_uris":{"android":"levelo://app?vid=a92a68f3-3c32-4ef9-95b9-3d1097075944","ios":"levelo://app?vid=a92a68f3-3c32-4ef9-95b9-3d1097075944"},"vehicle_type_id":"4","last_reported":1731856082,"current_range_meters":20800,"station_id":"ce4bhbh2rcd13ifvqeqg","pricing_plan_id":"cebpf4jnsgd1na2vs0mg"},{"bike_id":"22eaeb7f-d71a-4474-b02e-0c32da59511e","system_id":"levelo_inurba_marseille","lat":43.30552,"lon":5.38414,"is_reserved":false,"is_disabled":false,"rental_uris":{"android":"levelo://app?vid=22eaeb7f-d71a-4474-b02e-0c32da59511e","ios":"levelo://app?vid=22eaeb7f-d71a-4474-b02e-0c32da59511e"},"vehicle_type_id":"4","last_reported":1731856082,"current_range_meters":35200,"station_id":"ce4bgg92rcd13ifvqb30","pricing_plan_id":"cebpf4jnsgd1na2vs0mg"},{"bike_id":"452f676c-47d6-48f8-a43f-51f055bbd90f","system_id":"levelo_inurba_marseille","lat":43.22934,"lon":5.35378,"is_reserved":false,"is_disabled":false,"rental_uris":{"android":"levelo://app?vid=452f676c-47d6-48f8-a43f-51f055bbd90f","ios":"levelo://app?vid=452f676c-47d6-48f8-a43f-51f055bbd90f"},"vehicle_type_id":"4","last_reported":1731856082,"current_range_meters":36800,"station_id":"cpo3532slgdg3j2ikp40","pricing_plan_id":"cebpf4jnsgd1na2vs0mg"},{"bike_id":"dee2e67a-c84e-46e2-a8ef-e41cea3b6a54","system_id":"levelo_inurba_marseille","lat":43.29915,"lon":5.37442,"is_reserved":false,"is_disabled":false,"rental_uris":{"android":"levelo://app?vid=dee2e67a-c84e-46e2-a8ef-e41cea3b6a54","ios":"levelo://app?vid=dee2e67a-c84e-46e2-a8ef-e41cea3b6a54"},"vehicle_type_id":"4","last_reported":1731856082,"current_range_meters":34800,"station_id":"ce4bgjh2rcd13ifvqbg0","pricing_plan_id":"cebpf4jnsgd1na2vs0mg"},{"bike_id":"87890bb7-ca27-4c62-b255-94ea9f21f3b8","system_id":"levelo_inurba_marseille","lat":43.27134,"lon":5.39185,"is_reserved":false,"is_disabled":false,"rental_uris":{"android":"levelo://app?vid=87890bb7-ca27-4c62-b255-94ea9f21f3b8","ios":"levelo://app?vid=87890bb7-ca27-4c62-b255-94ea9f21f3b8"},"vehicle_type_id":"4","last_reported":1731856082,"current_range_meters":29600,"station_id":"","pricing_plan_id":"cebpf4jnsgd1na2vs0mg"},{"bike_id":"82b079aa-e6f7-457d-929e-b333d9f65e3f","system_id":"levelo_inurba_marseille","lat":43.27606,"lon":5.36107,"is_reserved":false,"is_disabled":false,"rental_uris":{"android":"levelo://app?vid=82b079aa-e6f7-457d-929e-b333d9f65e3f","ios":"levelo://app?vid=82b079aa-e6f7-457d-929e-b333d9f65e3f"},"vehicle_type_id":"4","last_reported":1731856082,"current_range_meters":2000,"station_id":"ce4bgj92rcd13ifvqbe0","pricing_plan_id":"cebpf4jnsgd1na2vs0mg"},{"bike_id":"aebb50a8-8ba0-4378-9e54-d98cf8ebd81e","system_id":"levelo_inurba_marseille","lat":43.25934,"lon":5.40898,"is_reserved":false,"is_disabled":false,"rental_uris":{"android":"levelo://app?vid=aebb50a8-8ba0-4378-9e54-d98cf8ebd81e","ios":"levelo://app?vid=aebb50a8-8ba0-4378-9e54-d98cf8ebd81e"},"vehicle_type_id":"4","last_reported":1731856082,"current_range_meters":28800,"station_id":"ce4bhm92rcd13ifvqglg","pricing_plan_id":"cebpf4jnsgd1na2vs0mg"},{"bike_id":"91938804-cd89-4ab2-ad98-8e5f6c692f2c","system_id":"levelo_inurba_marseille","lat":43.297,"lon":5.36619,"is_reserved":false,"is_disabled":false,"rental_uris":{"android":"levelo://app?vid=91938804-cd89-4ab2-ad98-8e5f6c692f2c","ios":"levelo://app?vid=91938804-cd89-4ab2-ad98-8e5f6c692f2c"},"vehicle_type_id":"4","last_reported":1731856082,"current_range_meters":14000,"station_id":"ce4bgn12rcd13ifvqbt0","pricing_plan_id":"cebpf4jnsgd1na2vs0mg"},{"bike_id":"b760699b-6a42-4978-90c4-dc9083b0ff7d","system_id":"levelo_inurba_marseille","lat":43.25575,"lon":5.38228,"is_reserved":false,"is_disabled":false,"rental_uris":{"android":"levelo://app?vid=b760699b-6a42-4978-90c4-dc9083b0ff7d","ios":"levelo://app?vid=b760699b-6a42-4978-90c4-dc9083b0ff7d"},"vehicle_type_id":"4","last_reported":1731856082,"current_range_meters":39200,"station_id":"ce4bhih2rcd13ifvqfs0","pricing_plan_id":"cebpf4jnsgd1na2vs0mg"},{"bike_id":"237796b0-bc4f-46c5-b489-bea556994603","system_id":"levelo_inurba_marseille","lat":43.26562,"lon":5.3901,"is_reserved":false,"is_disabled":false,"rental_uris":{"android":"levelo://app?vid=237796b0-bc4f-46c5-b489-bea556994603","ios":"levelo://app?vid=237796b0-bc4f-46c5-b489-bea556994603"},"vehicle_type_id":"4","last_reported":1731856082,"current_range_meters":6000,"station_id":"ce4bhe12rcd13ifvqf30","pricing_plan_id":"cebpf4jnsgd1na2vs0mg"},{"bike_id":"1e553b8e-7441-4d51-95ce-394cde35b040","system_id":"levelo_inurba_marseille","lat":43.2417,"lon":5.364,"is_reserved":false,"is_disabled":false,"rental_uris":{"android":"levelo://app?vid=1e553b8e-7441-4d51-95ce-394cde35b040","ios":"levelo://app?vid=1e553b8e-7441-4d51-95ce-394cde35b040"},"vehicle_type_id":"4","last_reported":1731856082,"current_range_meters":38000,"station_id":"cpo36qri1sfpv3e86is0","pricing_plan_id":"cebpf4jnsgd1na2vs0mg"},{"bike_id":"1790ac93-5525-4bd4-a7ed-139eaa60ba18","system_id":"levelo_inurba_marseille","lat":43.30336,"lon":5.43505,"is_reserved":false,"is_disabled":false,"rental_uris":{"android":"levelo://app?vid=1790ac93-5525-4bd4-a7ed-139eaa60ba18","ios":"levelo://app?vid=1790ac93-5525-4bd4-a7ed-139eaa60ba18"},"vehicle_type_id":"4","last_reported":1731856082,"current_range_meters":8800,"station_id":"ce4bhph2rcd13ifvqheg","pricing_plan_id":"cebpf4jnsgd1na2vs0mg"},{"bike_id":"0c8e27cf-3ef8-4ad3-add6-2bd6fc2ae3c2","system_id":"levelo_inurba_marseille","lat":43.23954,"lon":5.36638,"is_reserved":false,"is_disabled":false,"rental_uris":{"android":"levelo://app?vid=0c8e27cf-3ef8-4ad3-add6-2bd6fc2ae3c2","ios":"levelo://app?vid=0c8e27cf-3ef8-4ad3-add6-2bd6fc2ae3c2"},"vehicle_type_id":"4","last_reported":1731856082,"current_range_meters":17200,"station_id":"ce4bhi12rcd13ifvqfp0","pricing_plan_id":"cebpf4jnsgd1na2vs0mg"},{"bike_id":"77c542d5-e2fd-47db-bd25-971222c64cea","system_id":"levelo_inurba_marseille","lat":43.23963,"lon":5.36642,"is_reserved":false,"is_disabled":false,"rental_uris":{"android":"levelo://app?vid=77c542d5-e2fd-47db-bd25-971222c64cea","ios":"levelo://app?vid=77c542d5-e2fd-47db-bd25-971222c64cea"},"vehicle_type_id":"4","last_reported":1731856082,"current_range_meters":35200,"station_id":"ce4bhi12rcd13ifvqfp0","pricing_plan_id":"cebpf4jnsgd1na2vs0mg"},{"bike_id":"c96395f1-fa72-4059-94dc-ccabe30c87c1","system_id":"levelo_inurba_marseille","lat":43.25936,"lon":5.40897,"is_reserved":false,"is_disabled":false,"rental_uris":{"android":"levelo://app?vid=c96395f1-fa72-4059-94dc-ccabe30c87c1","ios":"levelo://app?vid=c96395f1-fa72-4059-94dc-ccabe30c87c1"},"vehicle_type_id":"4","last_reported":1731856082,"current_range_meters":10000,"station_id":"ce4bhm92rcd13ifvqglg","pricing_plan_id":"cebpf4jnsgd1na2vs0mg"},{"bike_id":"7a277ed5-4657-48b0-a5dd-460819e6cbff","system_id":"levelo_inurba_marseille","lat":43.292264,"lon":5.360568,"is_reserved":false,"is_disabled":false,"rental_uris":{"android":"levelo://app?vid=7a277ed5-4657-48b0-a5dd-460819e6cbff","ios":"levelo://app?vid=7a277ed5-4657-48b0-a5dd-460819e6cbff"},"vehicle_type_id":"4","last_reported":1731856082,"current_range_meters":35600,"station_id":"ce4bhbh2rcd13ifvqeqg","pricing_plan_id":"cebpf4jnsgd1na2vs0mg"},{"bike_id":"f4ed7504-f0dd-48e2-a209-1709ff351c12","system_id":"levelo_inurba_marseille","lat":43.24164,"lon":5.36399,"is_reserved":false,"is_disabled":false,"rental_uris":{"android":"levelo://app?vid=f4ed7504-f0dd-48e2-a209-1709ff351c12","ios":"levelo://app?vid=f4ed7504-f0dd-48e2-a209-1709ff351c12"},"vehicle_type_id":"4","last_reported":1731856082,"current_range_meters":33600,"station_id":"cpo36qri1sfpv3e86is0","pricing_plan_id":"cebpf4jnsgd1na2vs0mg"},{"bike_id":"c3fd793d-984b-4e7b-848e-79174a058ce6","system_id":"levelo_inurba_marseille","lat":43.22927,"lon":5.35387,"is_reserved":false,"is_disabled":false,"rental_uris":{"android":"levelo://app?vid=c3fd793d-984b-4e7b-848e-79174a058ce6","ios":"levelo://app?vid=c3fd793d-984b-4e7b-848e-79174a058ce6"},"vehicle_type_id":"4","last_reported":1731856082,"current_range_meters":38800,"station_id":"cpo3532slgdg3j2ikp40","pricing_plan_id":"cebpf4jnsgd1na2vs0mg"},{"bike_id":"ba0af21c-4c5b-47d9-bacb-ff79e7e750ab","system_id":"levelo_inurba_marseille","lat":43.24546,"lon":5.39527,"is_reserved":false,"is_disabled":false,"rental_uris":{"android":"levelo://app?vid=ba0af21c-4c5b-47d9-bacb-ff79e7e750ab","ios":"levelo://app?vid=ba0af21c-4c5b-47d9-bacb-ff79e7e750ab"},"vehicle_type_id":"4","last_reported":1731856082,"current_range_meters":35200,"station_id":"ce4bhlp2rcd13ifvqgjg","pricing_plan_id":"cebpf4jnsgd1na2vs0mg"},{"bike_id":"f614f4ad-22cf-46b7-a5c7-0422c3fee293","system_id":"levelo_inurba_marseille","lat":43.26938,"lon":5.4025,"is_reserved":false,"is_disabled":false,"rental_uris":{"android":"levelo://app?vid=f614f4ad-22cf-46b7-a5c7-0422c3fee293","ios":"levelo://app?vid=f614f4ad-22cf-46b7-a5c7-0422c3fee293"},"vehicle_type_id":"4","last_reported":1731856082,"current_range_meters":18000,"station_id":"cjm6bp8fraef2m0cb0m0","pricing_plan_id":"cebpf4jnsgd1na2vs0mg"},{"bike_id":"1b1c15f7-30c3-4ef7-aabc-f17040212832","system_id":"levelo_inurba_marseille","lat":43.29116,"lon":5.37273,"is_reserved":false,"is_disabled":false,"rental_uris":{"android":"levelo://app?vid=1b1c15f7-30c3-4ef7-aabc-f17040212832","ios":"levelo://app?vid=1b1c15f7-30c3-4ef7-aabc-f17040212832"},"vehicle_type_id":"4","last_reported":1731856082,"current_range_meters":30000,"station_id":"ce4bgr92rcd13ifvqc7g","pricing_plan_id":"cebpf4jnsgd1na2vs0mg"},{"bike_id":"1916f935-0ffb-41f3-8637-ebf70022070d","system_id":"levelo_inurba_marseille","lat":43.28616,"lon":5.3511,"is_reserved":false,"is_disabled":false,"rental_uris":{"android":"levelo://app?vid=1916f935-0ffb-41f3-8637-ebf70022070d","ios":"levelo://app?vid=1916f935-0ffb-41f3-8637-ebf70022070d"},"vehicle_type_id":"4","last_reported":1731856082,"current_range_meters":18000,"station_id":"ce4bhch2rcd13ifvqeug","pricing_plan_id":"cebpf4jnsgd1na2vs0mg"},{"bike_id":"7603414e-5a2d-4a87-8978-cf8f6d4e9145","system_id":"levelo_inurba_marseille","lat":43.295842,"lon":5.375115,"is_reserved":false,"is_disabled":false,"rental_uris":{"android":"levelo://app?vid=7603414e-5a2d-4a87-8978-cf8f6d4e9145","ios":"levelo://app?vid=7603414e-5a2d-4a87-8978-cf8f6d4e9145"},"vehicle_type_id":"4","last_reported":1731856082,"current_range_meters":19600,"station_id":"ce4bgh92rcd13ifvqb50","pricing_plan_id":"cebpf4jnsgd1na2vs0mg"},{"bike_id":"b3286841-8549-4fcd-bc26-97e178709c26","system_id":"levelo_inurba_marseille","lat":43.27494,"lon":5.4245,"is_reserved":false,"is_disabled":false,"rental_uris":{"android":"levelo://app?vid=b3286841-8549-4fcd-bc26-97e178709c26","ios":"levelo://app?vid=b3286841-8549-4fcd-bc26-97e178709c26"},"vehicle_type_id":"4","last_reported":1731856082,"current_range_meters":10000,"station_id":"ce4bhn92rcd13ifvqgrg","pricing_plan_id":"cebpf4jnsgd1na2vs0mg"},{"bike_id":"0abede36-a0e8-4ce1-85b2-e9b3ddfce058","system_id":"levelo_inurba_marseille","lat":43.33024,"lon":5.39027,"is_reserved":false,"is_disabled":false,"rental_uris":{"android":"levelo://app?vid=0abede36-a0e8-4ce1-85b2-e9b3ddfce058","ios":"levelo://app?vid=0abede36-a0e8-4ce1-85b2-e9b3ddfce058"},"vehicle_type_id":"4","last_reported":1731856082,"current_range_meters":10000,"station_id":"ce4bhr92rcd13ifvqhrg","pricing_plan_id":"cebpf4jnsgd1na2vs0mg"},{"bike_id":"7a988331-5db7-409c-90c8-76e1b9cced84","system_id":"levelo_inurba_marseille","lat":43.2318,"lon":5.39998,"is_reserved":false,"is_disabled":false,"rental_uris":{"android":"levelo://app?vid=7a988331-5db7-409c-90c8-76e1b9cced84","ios":"levelo://app?vid=7a988331-5db7-409c-90c8-76e1b9cced84"},"vehicle_type_id":"4","last_reported":1731856082,"current_range_meters":19600,"station_id":"ce4bhn12rcd13ifvqgqg","pricing_plan_id":"cebpf4jnsgd1na2vs0mg"},{"bike_id":"acbe15a9-7fbd-4361-84a0-ee882ea053ea","system_id":"levelo_inurba_marseille","lat":43.2466,"lon":5.38171,"is_reserved":false,"is_disabled":false,"rental_uris":{"android":"levelo://app?vid=acbe15a9-7fbd-4361-84a0-ee882ea053ea","ios":"levelo://app?vid=acbe15a9-7fbd-4361-84a0-ee882ea053ea"},"vehicle_type_id":"4","last_reported":1731856082,"current_range_meters":30000,"station_id":"ce4bhih2rcd13ifvqfr0","pricing_plan_id":"cebpf4jnsgd1na2vs0mg"},{"bike_id":"c1a8b3fe-89f1-480d-83ff-6a91c23e456c","system_id":"levelo_inurba_marseille","lat":43.2748,"lon":5.42472,"is_reserved":false,"is_disabled":false,"rental_uris":{"android":"levelo://app?vid=c1a8b3fe-89f1-480d-83ff-6a91c23e456c","ios":"levelo://app?vid=c1a8b3fe-89f1-480d-83ff-6a91c23e456c"},"vehicle_type_id":"4","last_reported":1731856082,"current_range_meters":4800,"station_id":"ce4bhn92rcd13ifvqgrg","pricing_plan_id":"cebpf4jnsgd1na2vs0mg"},{"bike_id":"e682bfa2-d88f-4ce8-b294-ec8a764d1ea8","system_id":"levelo_inurba_marseille","lat":43.27946,"lon":5.41061,"is_reserved":false,"is_disabled":false,"rental_uris":{"android":"levelo://app?vid=e682bfa2-d88f-4ce8-b294-ec8a764d1ea8","ios":"levelo://app?vid=e682bfa2-d88f-4ce8-b294-ec8a764d1ea8"},"vehicle_type_id":"4","last_reported":1731856082,"current_range_meters":10000,"station_id":"ce4bhnp2rcd13ifvqh0g","pricing_plan_id":"cebpf4jnsgd1na2vs0mg"},{"bike_id":"47e06a38-fada-43b8-8046-487dc8986f1d","system_id":"levelo_inurba_marseille","lat":43.23954,"lon":5.36632,"is_reserved":false,"is_disabled":false,"rental_uris":{"android":"levelo://app?vid=47e06a38-fada-43b8-8046-487dc8986f1d","ios":"levelo://app?vid=47e06a38-fada-43b8-8046-487dc8986f1d"},"vehicle_type_id":"4","last_reported":1731856082,"current_range_meters":27200,"station_id":"ce4bhi12rcd13ifvqfp0","pricing_plan_id":"cebpf4jnsgd1na2vs0mg"},{"bike_id":"5ca49efd-2378-45c0-95d9-13adcb9f66ba","system_id":"levelo_inurba_marseille","lat":43.337444,"lon":5.374475,"is_reserved":false,"is_disabled":false,"rental_uris":{"android":"levelo://app?vid=5ca49efd-2378-45c0-95d9-13adcb9f66ba","ios":"levelo://app?vid=5ca49efd-2378-45c0-95d9-13adcb9f66ba"},"vehicle_type_id":"4","last_reported":1731856082,"current_range_meters":12000,"station_id":"","pricing_plan_id":"cebpf4jnsgd1na2vs0mg"},{"bike_id":"1ea66cce-6a74-48b3-bf38-e52df3802384","system_id":"levelo_inurba_marseille","lat":43.29233,"lon":5.36053,"is_reserved":false,"is_disabled":false,"rental_uris":{"android":"levelo://app?vid=1ea66cce-6a74-48b3-bf38-e52df3802384","ios":"levelo://app?vid=1ea66cce-6a74-48b3-bf38-e52df3802384"},"vehicle_type_id":"4","last_reported":1731856082,"current_range_meters":20400,"station_id":"ce4bhbh2rcd13ifvqeqg","pricing_plan_id":"cebpf4jnsgd1na2vs0mg"},{"bike_id":"4e445748-29b1-413b-a063-4e4bff482a3e","system_id":"levelo_inurba_marseille","lat":43.23191,"lon":5.35551,"is_reserved":false,"is_disabled":false,"rental_uris":{"android":"levelo://app?vid=4e445748-29b1-413b-a063-4e4bff482a3e","ios":"levelo://app?vid=4e445748-29b1-413b-a063-4e4bff482a3e"},"vehicle_type_id":"4","last_reported":1731856082,"current_range_meters":39200,"station_id":"ce4bhu92rcd13ifvqi70","pricing_plan_id":"cebpf4jnsgd1na2vs0mg"},{"bike_id":"d35db3da-bf30-4a2c-8b8b-6855994188b7","system_id":"levelo_inurba_marseille","lat":43.27955,"lon":5.38722,"is_reserved":false,"is_disabled":false,"rental_uris":{"android":"levelo://app?vid=d35db3da-bf30-4a2c-8b8b-6855994188b7","ios":"levelo://app?vid=d35db3da-bf30-4a2c-8b8b-6855994188b7"},"vehicle_type_id":"4","last_reported":1731856082,"current_range_meters":17600,"station_id":"ce4bhg12rcd13ifvqf80","pricing_plan_id":"cebpf4jnsgd1na2vs0mg"},{"bike_id":"3ebdd426-276f-4619-988e-482e10094ff9","system_id":"levelo_inurba_marseille","lat":43.28566,"lon":5.39507,"is_reserved":false,"is_disabled":false,"rental_uris":{"android":"levelo://app?vid=3ebdd426-276f-4619-988e-482e10094ff9","ios":"levelo://app?vid=3ebdd426-276f-4619-988e-482e10094ff9"},"vehicle_type_id":"4","last_reported":1731856082,"current_range_meters":8000,"station_id":"ce4bh292rcd13ifvqdg0","pricing_plan_id":"cebpf4jnsgd1na2vs0mg"},{"bike_id":"d97c5465-c584-42d1-af1b-69288d208c68","system_id":"levelo_inurba_marseille","lat":43.30707,"lon":5.39555,"is_reserved":false,"is_disabled":false,"rental_uris":{"android":"levelo://app?vid=d97c5465-c584-42d1-af1b-69288d208c68","ios":"levelo://app?vid=d97c5465-c584-42d1-af1b-69288d208c68"},"vehicle_type_id":"4","last_reported":1731856082,"current_range_meters":36400,"station_id":"ce4bgt12rcd13ifvqce0","pricing_plan_id":"cebpf4jnsgd1na2vs0mg"},{"bike_id":"059a53b7-7470-4e98-af65-2aba864658c0","system_id":"levelo_inurba_marseille","lat":43.3247,"lon":5.3657,"is_reserved":false,"is_disabled":false,"rental_uris":{"android":"levelo://app?vid=059a53b7-7470-4e98-af65-2aba864658c0","ios":"levelo://app?vid=059a53b7-7470-4e98-af65-2aba864658c0"},"vehicle_type_id":"4","last_reported":1731856082,"current_range_meters":38800,"station_id":"ce4bhs12rcd13ifvqhvg","pricing_plan_id":"cebpf4jnsgd1na2vs0mg"},{"bike_id":"46be622a-1a3b-4c16-9a6c-b487fd0116b9","system_id":"levelo_inurba_marseille","lat":43.33022,"lon":5.39045,"is_reserved":false,"is_disabled":false,"rental_uris":{"android":"levelo://app?vid=46be622a-1a3b-4c16-9a6c-b487fd0116b9","ios":"levelo://app?vid=46be622a-1a3b-4c16-9a6c-b487fd0116b9"},"vehicle_type_id":"4","last_reported":1731856082,"current_range_meters":20000,"station_id":"ce4bhr92rcd13ifvqhrg","pricing_plan_id":"cebpf4jnsgd1na2vs0mg"},{"bike_id":"54212c68-b2a1-432c-b82e-68b59bad7fdb","system_id":"levelo_inurba_marseille","lat":43.33022,"lon":5.39042,"is_reserved":false,"is_disabled":false,"rental_uris":{"android":"levelo://app?vid=54212c68-b2a1-432c-b82e-68b59bad7fdb","ios":"levelo://app?vid=54212c68-b2a1-432c-b82e-68b59bad7fdb"},"vehicle_type_id":"4","last_reported":1731856082,"current_range_meters":13600,"station_id":"ce4bhr92rcd13ifvqhrg","pricing_plan_id":"cebpf4jnsgd1na2vs0mg"},{"bike_id":"d1591e25-3622-4f39-9e71-b532e2d46490","system_id":"levelo_inurba_marseille","lat":43.297211,"lon":5.366225,"is_reserved":false,"is_disabled":false,"rental_uris":{"android":"levelo://app?vid=d1591e25-3622-4f39-9e71-b532e2d46490","ios":"levelo://app?vid=d1591e25-3622-4f39-9e71-b532e2d46490"},"vehicle_type_id":"4","last_reported":1731856082,"current_range_meters":38000,"station_id":"ce4bgn12rcd13ifvqbt0","pricing_plan_id":"cebpf4jnsgd1na2vs0mg"},{"bike_id":"50a0bda1-b638-4085-b1a7-307491aff6e3","system_id":"levelo_inurba_marseille","lat":43.27614,"lon":5.36111,"is_reserved":false,"is_disabled":false,"rental_uris":{"android":"levelo://app?vid=50a0bda1-b638-4085-b1a7-307491aff6e3","ios":"levelo://app?vid=50a0bda1-b638-4085-b1a7-307491aff6e3"},"vehicle_type_id":"4","last_reported":1731856082,"current_range_meters":7200,"station_id":"ce4bgj92rcd13ifvqbe0","pricing_plan_id":"cebpf4jnsgd1na2vs0mg"},{"bike_id":"8b48507f-f45d-4be9-b408-eeb3880e58aa","system_id":"levelo_inurba_marseille","lat":43.26894,"lon":5.36971,"is_reserved":false,"is_disabled":false,"rental_uris":{"android":"levelo://app?vid=8b48507f-f45d-4be9-b408-eeb3880e58aa","ios":"levelo://app?vid=8b48507f-f45d-4be9-b408-eeb3880e58aa"},"vehicle_type_id":"4","last_reported":1731856082,"current_range_meters":38000,"station_id":"","pricing_plan_id":"cebpf4jnsgd1na2vs0mg"},{"bike_id":"05bbfd88-20b9-4e07-8ca3-dd63fa137515","system_id":"levelo_inurba_marseille","lat":43.29036,"lon":5.37563,"is_reserved":false,"is_disabled":false,"rental_uris":{"android":"levelo://app?vid=05bbfd88-20b9-4e07-8ca3-dd63fa137515","ios":"levelo://app?vid=05bbfd88-20b9-4e07-8ca3-dd63fa137515"},"vehicle_type_id":"4","last_reported":1731856082,"current_range_meters":19600,"station_id":"ce4bh692rcd13ifvqe90","pricing_plan_id":"cebpf4jnsgd1na2vs0mg"},{"bike_id":"2afa5e80-e30d-4374-a77d-b7abb852ffeb","system_id":"levelo_inurba_marseille","lat":43.33722,"lon":5.35595,"is_reserved":false,"is_disabled":false,"rental_uris":{"android":"levelo://app?vid=2afa5e80-e30d-4374-a77d-b7abb852ffeb","ios":"levelo://app?vid=2afa5e80-e30d-4374-a77d-b7abb852ffeb"},"vehicle_type_id":"4","last_reported":1731856082,"current_range_meters":8000,"station_id":"","pricing_plan_id":"cebpf4jnsgd1na2vs0mg"},{"bike_id":"2141c82e-4a19-41ee-a462-bde91b659251","system_id":"levelo_inurba_marseille","lat":43.2397,"lon":5.366248,"is_reserved":false,"is_disabled":false,"rental_uris":{"android":"levelo://app?vid=2141c82e-4a19-41ee-a462-bde91b659251","ios":"levelo://app?vid=2141c82e-4a19-41ee-a462-bde91b659251"},"vehicle_type_id":"4","last_reported":1731856082,"current_range_meters":38800,"station_id":"ce4bhi12rcd13ifvqfp0","pricing_plan_id":"cebpf4jnsgd1na2vs0mg"},{"bike_id":"01ff24f1-70d8-48ae-af4f-8195b65fcf6c","system_id":"levelo_inurba_marseille","lat":43.28614,"lon":5.3511,"is_reserved":false,"is_disabled":false,"rental_uris":{"android":"levelo://app?vid=01ff24f1-70d8-48ae-af4f-8195b65fcf6c","ios":"levelo://app?vid=01ff24f1-70d8-48ae-af4f-8195b65fcf6c"},"vehicle_type_id":"4","last_reported":1731856082,"current_range_meters":6400,"station_id":"ce4bhch2rcd13ifvqeug","pricing_plan_id":"cebpf4jnsgd1na2vs0mg"},{"bike_id":"8fb36b7c-fa61-4cd7-af3c-09ba7446abf0","system_id":"levelo_inurba_marseille","lat":43.33733,"lon":5.37491,"is_reserved":false,"is_disabled":false,"rental_uris":{"android":"levelo://app?vid=8fb36b7c-fa61-4cd7-af3c-09ba7446abf0","ios":"levelo://app?vid=8fb36b7c-fa61-4cd7-af3c-09ba7446abf0"},"vehicle_type_id":"4","last_reported":1731856082,"current_range_meters":33200,"station_id":"","pricing_plan_id":"cebpf4jnsgd1na2vs0mg"},{"bike_id":"2d8b574b-344c-429e-a2b3-9ade85291bc0","system_id":"levelo_inurba_marseille","lat":43.29901,"lon":5.43669,"is_reserved":false,"is_disabled":false,"rental_uris":{"android":"levelo://app?vid=2d8b574b-344c-429e-a2b3-9ade85291bc0","ios":"levelo://app?vid=2d8b574b-344c-429e-a2b3-9ade85291bc0"},"vehicle_type_id":"4","last_reported":1731856082,"current_range_meters":13600,"station_id":"ce4bhpp2rcd13ifvqhfg","pricing_plan_id":"cebpf4jnsgd1na2vs0mg"},{"bike_id":"9bd6f866-3b20-4e8c-9979-dd44f0a56f60","system_id":"levelo_inurba_marseille","lat":43.29007,"lon":5.35614,"is_reserved":false,"is_disabled":false,"rental_uris":{"android":"levelo://app?vid=9bd6f866-3b20-4e8c-9979-dd44f0a56f60","ios":"levelo://app?vid=9bd6f866-3b20-4e8c-9979-dd44f0a56f60"},"vehicle_type_id":"4","last_reported":1731856082,"current_range_meters":24000,"station_id":"ce4bhb92rcd13ifvqen0","pricing_plan_id":"cebpf4jnsgd1na2vs0mg"},{"bike_id":"0c39f3e0-fa8a-4f3d-8941-69c4a397aeba","system_id":"levelo_inurba_marseille","lat":43.27993,"lon":5.41666,"is_reserved":false,"is_disabled":false,"rental_uris":{"android":"levelo://app?vid=0c39f3e0-fa8a-4f3d-8941-69c4a397aeba","ios":"levelo://app?vid=0c39f3e0-fa8a-4f3d-8941-69c4a397aeba"},"vehicle_type_id":"4","last_reported":1731856082,"current_range_meters":8000,"station_id":"ce4bho12rcd13ifvqh1g","pricing_plan_id":"cebpf4jnsgd1na2vs0mg"},{"bike_id":"2c178825-4eba-415e-b62f-915807e94b1e","system_id":"levelo_inurba_marseille","lat":43.29037,"lon":5.35909,"is_reserved":false,"is_disabled":false,"rental_uris":{"android":"levelo://app?vid=2c178825-4eba-415e-b62f-915807e94b1e","ios":"levelo://app?vid=2c178825-4eba-415e-b62f-915807e94b1e"},"vehicle_type_id":"4","last_reported":1731856082,"current_range_meters":30400,"station_id":"ce4bha92rcd13ifvqeg0","pricing_plan_id":"cebpf4jnsgd1na2vs0mg"},{"bike_id":"78ee92dd-a647-43ac-b975-5badeef69ee2","system_id":"levelo_inurba_marseille","lat":43.23961,"lon":5.36646,"is_reserved":false,"is_disabled":false,"rental_uris":{"android":"levelo://app?vid=78ee92dd-a647-43ac-b975-5badeef69ee2","ios":"levelo://app?vid=78ee92dd-a647-43ac-b975-5badeef69ee2"},"vehicle_type_id":"4","last_reported":1731856082,"current_range_meters":38800,"station_id":"ce4bhi12rcd13ifvqfp0","pricing_plan_id":"cebpf4jnsgd1na2vs0mg"},{"bike_id":"40a26d71-2431-484e-8d51-2dad2f11e01e","system_id":"levelo_inurba_marseille","lat":43.34139,"lon":5.40899,"is_reserved":false,"is_disabled":false,"rental_uris":{"android":"levelo://app?vid=40a26d71-2431-484e-8d51-2dad2f11e01e","ios":"levelo://app?vid=40a26d71-2431-484e-8d51-2dad2f11e01e"},"vehicle_type_id":"4","last_reported":1731856082,"current_range_meters":27600,"station_id":"ce4bhqh2rcd13ifvqhlg","pricing_plan_id":"cebpf4jnsgd1na2vs0mg"},{"bike_id":"fe706531-6d3a-41b4-ba51-696d5a3c61e6","system_id":"levelo_inurba_marseille","lat":43.24076,"lon":5.37735,"is_reserved":false,"is_disabled":false,"rental_uris":{"android":"levelo://app?vid=fe706531-6d3a-41b4-ba51-696d5a3c61e6","ios":"levelo://app?vid=fe706531-6d3a-41b4-ba51-696d5a3c61e6"},"vehicle_type_id":"4","last_reported":1731856082,"current_range_meters":19200,"station_id":"ce4bhnp2rcd13ifvqgvg","pricing_plan_id":"cebpf4jnsgd1na2vs0mg"},{"bike_id":"db33eda4-926b-431b-a939-61fd644da2a9","system_id":"levelo_inurba_marseille","lat":43.29063,"lon":5.37571,"is_reserved":false,"is_disabled":false,"rental_uris":{"android":"levelo://app?vid=db33eda4-926b-431b-a939-61fd644da2a9","ios":"levelo://app?vid=db33eda4-926b-431b-a939-61fd644da2a9"},