{"last_updated":1769797671,"ttl":60,"version":"2.2","data":{"bikes":[{"bike_id":"fb7cc875-ef9c-4dbb-8113-6daf41d80e7e","system_id":"levelo_inurba_marseille","lat":43.25833,"lon":5.39908,"is_reserved":false,"is_disabled":false,"rental_uris":{"android":"levelo://app?vid=fb7cc875-ef9c-4dbb-8113-6daf41d80e7e","ios":"levelo://app?vid=fb7cc875-ef9c-4dbb-8113-6daf41d80e7e"},"vehicle_type_id":"4","last_reported":1769797672,"current_range_meters":1200,"station_id":"ce4bhl92rcd13ifvqghg","pricing_plan_id":"cebpf4jnsgd1na2vs0mg"},{"bike_id":"c3f3670e-d79d-4dbd-85a6-910a185ddd68","system_id":"levelo_inurba_marseille","lat":43.28155,"lon":5.42642,"is_reserved":false,"is_disabled":false,"rental_uris":{"android":"levelo://app?vid=c3f3670e-d79d-4dbd-85a6-910a185ddd68","ios":"levelo://app?vid=c3f3670e-d79d-4dbd-85a6-910a185ddd68"},"vehicle_type_id":"4","last_reported":1769797672,"current_range_meters":2000,"station_id":"ce4bhnh2rcd13ifvqgug","pricing_plan_id":"cebpf4jnsgd1na2vs0mg"},{"bike_id":"0424ec16-755f-41e7-bb89-85f220290839","system_id":"levelo_inurba_marseille","lat":43.22937,"lon":5.35378,"is_reserved":false,"is_disabled":false,"rental_uris":{"android":"levelo://app?vid=0424ec16-755f-41e7-bb89-85f220290839","ios":"levelo://app?vid=0424ec16-755f-41e7-bb89-85f220290839"},"vehicle_type_id":"4","last_reported":1769797672,"current_range_meters":2800,"station_id":"cpo3532slgdg3j2ikp40","pricing_plan_id":"cebpf4jnsgd1na2vs0mg"},{"bike_id":"8c0babb1-b421-4a58-a09a-817ab6ed4c2f","system_id":"levelo_inurba_marseille","lat":43.31699,"lon":5.37738,"is_reserved":false,"is_disabled":false,"rental_uris":{"android":"levelo://app?vid=8c0babb1-b421-4a58-a09a-817ab6ed4c2f","ios":"levelo://app?vid=8c0babb1-b421-4a58-a09a-817ab6ed4c2f"},"vehicle_type_id":"4","last_reported":1769797672,"current_range_meters":2800,"station_id":"ce4bgth2rcd13ifvqch0","pricing_plan_id":"cebpf4jnsgd1na2vs0mg"},{"bike_id":"14ad4359-d217-40c8-bc15-7989600afabe","system_id":"levelo_inurba_marseille","lat":43.28349,"lon":5.40738,"is_reserved":false,"is_disabled":false,"rental_uris":{"android":"levelo://app?vid=14ad4359-d217-40c8-bc15-7989600afabe","ios":"levelo://app?vid=14ad4359-d217-40c8-bc15-7989600afabe"},"vehicle_type_id":"4","last_reported":1769797672,"current_range_meters":2800,"station_id":"","pricing_plan_id":"cebpf4jnsgd1na2vs0mg"},{"bike_id":"947b3f41-400e-4a7b-9150-c4b106fc2b3b","system_id":"levelo_inurba_marseille","lat":43.255815,"lon":5.382261,"is_reserved":false,"is_disabled":false,"rental_uris":{"android":"levelo://app?vid=947b3f41-400e-4a7b-9150-c4b106fc2b3b","ios":"levelo://app?vid=947b3f41-400e-4a7b-9150-c4b106fc2b3b"},"vehicle_type_id":"4","last_reported":1769797672,"current_range_meters":2800,"station_id":"ce4bhih2rcd13ifvqfs0","pricing_plan_id":"cebpf4jnsgd1na2vs0mg"},{"bike_id":"e0bd6359-f7e9-41aa-9baa-b21a4571a987","system_id":"levelo_inurba_marseille","lat":43.30877,"lon":5.36838,"is_reserved":false,"is_disabled":false,"rental_uris":{"android":"levelo://app?vid=e0bd6359-f7e9-41aa-9baa-b21a4571a987","ios":"levelo://app?vid=e0bd6359-f7e9-41aa-9baa-b21a4571a987"},"vehicle_type_id":"4","last_reported":1769797672,"current_range_meters":2800,"station_id":"ce4bgn92rcd13ifvqbvg","pricing_plan_id":"cebpf4jnsgd1na2vs0mg"},{"bike_id":"71ea06b7-46c1-4fc9-a594-153d92364656","system_id":"levelo_inurba_marseille","lat":43.30724,"lon":5.40964,"is_reserved":false,"is_disabled":false,"rental_uris":{"android":"levelo://app?vid=71ea06b7-46c1-4fc9-a594-153d92364656","ios":"levelo://app?vid=71ea06b7-46c1-4fc9-a594-153d92364656"},"vehicle_type_id":"4","last_reported":1769797672,"current_range_meters":2800,"station_id":"","pricing_plan_id":"cebpf4jnsgd1na2vs0mg"},{"bike_id":"25a9226a-9193-4bb4-8ad1-0a617754bee3","system_id":"levelo_inurba_marseille","lat":43.28522,"lon":5.44088,"is_reserved":false,"is_disabled":false,"rental_uris":{"android":"levelo://app?vid=25a9226a-9193-4bb4-8ad1-0a617754bee3","ios":"levelo://app?vid=25a9226a-9193-4bb4-8ad1-0a617754bee3"},"vehicle_type_id":"4","last_reported":1769797672,"current_range_meters":2800,"station_id":"","pricing_plan_id":"cebpf4jnsgd1na2vs0mg"},{"bike_id":"578c68e9-cf77-4e67-b353-efe36971c834","system_id":"levelo_inurba_marseille","lat":43.32355,"lon":5.38503,"is_reserved":false,"is_disabled":false,"rental_uris":{"android":"levelo://app?vid=578c68e9-cf77-4e67-b353-efe36971c834","ios":"levelo://app?vid=578c68e9-cf77-4e67-b353-efe36971c834"},"vehicle_type_id":"4","last_reported":1769797672,"current_range_meters":2800,"station_id":"st_d45171o9ee8s73djdqug","pricing_plan_id":"cebpf4jnsgd1na2vs0mg"},{"bike_id":"a9848f24-0ff9-4a7e-98e7-baef5d4cd4ec","system_id":"levelo_inurba_marseille","lat":43.23797,"lon":5.36614,"is_reserved":false,"is_disabled":false,"rental_uris":{"android":"levelo://app?vid=a9848f24-0ff9-4a7e-98e7-baef5d4cd4ec","ios":"levelo://app?vid=a9848f24-0ff9-4a7e-98e7-baef5d4cd4ec"},"vehicle_type_id":"4","last_reported":1769797672,"current_range_meters":3200,"station_id":"st_d3nk18o9ro0c73en2l3g","pricing_plan_id":"cebpf4jnsgd1na2vs0mg"},{"bike_id":"d885cf2b-2614-4060-b897-b097126adc6c","system_id":"levelo_inurba_marseille","lat":43.27966,"lon":5.38746,"is_reserved":false,"is_disabled":false,"rental_uris":{"android":"levelo://app?vid=d885cf2b-2614-4060-b897-b097126adc6c","ios":"levelo://app?vid=d885cf2b-2614-4060-b897-b097126adc6c"},"vehicle_type_id":"4","last_reported":1769797672,"current_range_meters":3200,"station_id":"ce4bhg12rcd13ifvqf80","pricing_plan_id":"cebpf4jnsgd1na2vs0mg"},{"bike_id":"e92938fe-3286-44ad-971f-ab7b3f8fb93c","system_id":"levelo_inurba_marseille","lat":43.32372,"lon":5.36739,"is_reserved":false,"is_disabled":false,"rental_uris":{"android":"levelo://app?vid=e92938fe-3286-44ad-971f-ab7b3f8fb93c","ios":"levelo://app?vid=e92938fe-3286-44ad-971f-ab7b3f8fb93c"},"vehicle_type_id":"4","last_reported":1769797672,"current_range_meters":3200,"station_id":"ce4bhsh2rcd13ifvqi2g","pricing_plan_id":"cebpf4jnsgd1na2vs0mg"},{"bike_id":"3cbe38d2-d6ac-4281-97db-584aa42a7728","system_id":"levelo_inurba_marseille","lat":43.25891,"lon":5.39918,"is_reserved":false,"is_disabled":false,"rental_uris":{"android":"levelo://app?vid=3cbe38d2-d6ac-4281-97db-584aa42a7728","ios":"levelo://app?vid=3cbe38d2-d6ac-4281-97db-584aa42a7728"},"vehicle_type_id":"4","last_reported":1769797672,"current_range_meters":3200,"station_id":"ce4bhl92rcd13ifvqghg","pricing_plan_id":"cebpf4jnsgd1na2vs0mg"},{"bike_id":"4bd6cb39-f26e-431f-9c48-bc9838a79167","system_id":"levelo_inurba_marseille","lat":43.29811,"lon":5.44049,"is_reserved":false,"is_disabled":false,"rental_uris":{"android":"levelo://app?vid=4bd6cb39-f26e-431f-9c48-bc9838a79167","ios":"levelo://app?vid=4bd6cb39-f26e-431f-9c48-bc9838a79167"},"vehicle_type_id":"4","last_reported":1769797672,"current_range_meters":3200,"station_id":"st_d3jp68qikq2c7381ktn0","pricing_plan_id":"cebpf4jnsgd1na2vs0mg"},{"bike_id":"d6d817a7-3009-40a8-ad7e-a86d867e4d63","system_id":"levelo_inurba_marseille","lat":43.243943,"lon":5.37074,"is_reserved":false,"is_disabled":false,"rental_uris":{"android":"levelo://app?vid=d6d817a7-3009-40a8-ad7e-a86d867e4d63","ios":"levelo://app?vid=d6d817a7-3009-40a8-ad7e-a86d867e4d63"},"vehicle_type_id":"4","last_reported":1769797672,"current_range_meters":3600,"station_id":"ce4bhhh2rcd13ifvqfk0","pricing_plan_id":"cebpf4jnsgd1na2vs0mg"},{"bike_id":"fc91d402-8c91-4153-8c51-7e7d2510211c","system_id":"levelo_inurba_marseille","lat":43.28494,"lon":5.3858,"is_reserved":false,"is_disabled":false,"rental_uris":{"android":"levelo://app?vid=fc91d402-8c91-4153-8c51-7e7d2510211c","ios":"levelo://app?vid=fc91d402-8c91-4153-8c51-7e7d2510211c"},"vehicle_type_id":"4","last_reported":1769797672,"current_range_meters":3600,"station_id":"ce4bh8p2rcd13ifvqeb0","pricing_plan_id":"cebpf4jnsgd1na2vs0mg"},{"bike_id":"42beae56-7cba-4a17-b769-d10eb05158e8","system_id":"levelo_inurba_marseille","lat":43.27969,"lon":5.38703,"is_reserved":false,"is_disabled":true,"rental_uris":{"android":"levelo://app?vid=42beae56-7cba-4a17-b769-d10eb05158e8","ios":"levelo://app?vid=42beae56-7cba-4a17-b769-d10eb05158e8"},"vehicle_type_id":"4","last_reported":1769797672,"current_range_meters":3600,"station_id":"ce4bhg12rcd13ifvqf80","pricing_plan_id":"cebpf4jnsgd1na2vs0mg"},{"bike_id":"ddb9a93d-13fe-464c-859f-8e1bdc8d520b","system_id":"levelo_inurba_marseille","lat":43.2721,"lon":5.39181,"is_reserved":false,"is_disabled":false,"rental_uris":{"android":"levelo://app?vid=ddb9a93d-13fe-464c-859f-8e1bdc8d520b","ios":"levelo://app?vid=ddb9a93d-13fe-464c-859f-8e1bdc8d520b"},"vehicle_type_id":"4","last_reported":1769797672,"current_range_meters":3600,"station_id":"ce4bhhp2rcd13ifvqfm0","pricing_plan_id":"cebpf4jnsgd1na2vs0mg"},{"bike_id":"1a6b3329-cb1d-45a9-9f36-4843fc11d3c9","system_id":"levelo_inurba_marseille","lat":43.28857,"lon":5.3586,"is_reserved":false,"is_disabled":false,"rental_uris":{"android":"levelo://app?vid=1a6b3329-cb1d-45a9-9f36-4843fc11d3c9","ios":"levelo://app?vid=1a6b3329-cb1d-45a9-9f36-4843fc11d3c9"},"vehicle_type_id":"4","last_reported":1769797672,"current_range_meters":3600,"station_id":"ce4bhb12rcd13ifvqem0","pricing_plan_id":"cebpf4jnsgd1na2vs0mg"},{"bike_id":"ef3bc631-43aa-49d3-8b12-dc02ab6eeb7b","system_id":"levelo_inurba_marseille","lat":43.245381,"lon":5.39513,"is_reserved":false,"is_disabled":false,"rental_uris":{"android":"levelo://app?vid=ef3bc631-43aa-49d3-8b12-dc02ab6eeb7b","ios":"levelo://app?vid=ef3bc631-43aa-49d3-8b12-dc02ab6eeb7b"},"vehicle_type_id":"4","last_reported":1769797672,"current_range_meters":3600,"station_id":"ce4bhlp2rcd13ifvqgjg","pricing_plan_id":"cebpf4jnsgd1na2vs0mg"},{"bike_id":"844a7d3b-10ba-494b-b7a8-394e7dff36b7","system_id":"levelo_inurba_marseille","lat":43.23184,"lon":5.3998,"is_reserved":false,"is_disabled":false,"rental_uris":{"android":"levelo://app?vid=844a7d3b-10ba-494b-b7a8-394e7dff36b7","ios":"levelo://app?vid=844a7d3b-10ba-494b-b7a8-394e7dff36b7"},"vehicle_type_id":"4","last_reported":1769797672,"current_range_meters":3600,"station_id":"ce4bhn12rcd13ifvqgqg","pricing_plan_id":"cebpf4jnsgd1na2vs0mg"},{"bike_id":"17f31e2a-fe9d-47dd-bb73-f0ecfcb8b0ed","system_id":"levelo_inurba_marseille","lat":43.301181,"lon":5.398698,"is_reserved":false,"is_disabled":true,"rental_uris":{"android":"levelo://app?vid=17f31e2a-fe9d-47dd-bb73-f0ecfcb8b0ed","ios":"levelo://app?vid=17f31e2a-fe9d-47dd-bb73-f0ecfcb8b0ed"},"vehicle_type_id":"4","last_reported":1769797672,"current_range_meters":3600,"station_id":"","pricing_plan_id":"cebpf4jnsgd1na2vs0mg"},{"bike_id":"84464309-0ca3-4c2d-911c-85d8f1e41e7d","system_id":"levelo_inurba_marseille","lat":43.25862,"lon":5.39908,"is_reserved":false,"is_disabled":false,"rental_uris":{"android":"levelo://app?vid=84464309-0ca3-4c2d-911c-85d8f1e41e7d","ios":"levelo://app?vid=84464309-0ca3-4c2d-911c-85d8f1e41e7d"},"vehicle_type_id":"4","last_reported":1769797672,"current_range_meters":3600,"station_id":"ce4bhl92rcd13ifvqghg","pricing_plan_id":"cebpf4jnsgd1na2vs0mg"},{"bike_id":"bf66e96b-63f3-4fe9-a91f-7a1b0392f166","system_id":"levelo_inurba_marseille","lat":43.25513,"lon":5.37652,"is_reserved":false,"is_disabled":false,"rental_uris":{"android":"levelo://app?vid=bf66e96b-63f3-4fe9-a91f-7a1b0392f166","ios":"levelo://app?vid=bf66e96b-63f3-4fe9-a91f-7a1b0392f166"},"vehicle_type_id":"4","last_reported":1769797672,"current_range_meters":3600,"station_id":"ce4bhh12rcd13ifvqff0","pricing_plan_id":"cebpf4jnsgd1na2vs0mg"},{"bike_id":"66ad2891-d53f-4bd1-a831-9ff760d52e06","system_id":"levelo_inurba_marseille","lat":43.2784,"lon":5.42171,"is_reserved":false,"is_disabled":false,"rental_uris":{"android":"levelo://app?vid=66ad2891-d53f-4bd1-a831-9ff760d52e06","ios":"levelo://app?vid=66ad2891-d53f-4bd1-a831-9ff760d52e06"},"vehicle_type_id":"4","last_reported":1769797672,"current_range_meters":4000,"station_id":"","pricing_plan_id":"cebpf4jnsgd1na2vs0mg"},{"bike_id":"c0ba4c64-a9b7-442d-a476-a4a684422abb","system_id":"levelo_inurba_marseille","lat":43.29194,"lon":5.383083,"is_reserved":false,"is_disabled":false,"rental_uris":{"android":"levelo://app?vid=c0ba4c64-a9b7-442d-a476-a4a684422abb","ios":"levelo://app?vid=c0ba4c64-a9b7-442d-a476-a4a684422abb"},"vehicle_type_id":"4","last_reported":1769797672,"current_range_meters":4000,"station_id":"ce4bh692rcd13ifvqea0","pricing_plan_id":"cebpf4jnsgd1na2vs0mg"},{"bike_id":"f2142329-16a3-4be8-836b-495fb8ed17e0","system_id":"levelo_inurba_marseille","lat":43.28401,"lon":5.34986,"is_reserved":false,"is_disabled":false,"rental_uris":{"android":"levelo://app?vid=f2142329-16a3-4be8-836b-495fb8ed17e0","ios":"levelo://app?vid=f2142329-16a3-4be8-836b-495fb8ed17e0"},"vehicle_type_id":"4","last_reported":1769797672,"current_range_meters":4000,"station_id":"ce4bhbh2rcd13ifvqepg","pricing_plan_id":"cebpf4jnsgd1na2vs0mg"},{"bike_id":"83bbeac1-b4c2-4835-91cb-013728be84c8","system_id":"levelo_inurba_marseille","lat":43.29947,"lon":5.39087,"is_reserved":false,"is_disabled":true,"rental_uris":{"android":"levelo://app?vid=83bbeac1-b4c2-4835-91cb-013728be84c8","ios":"levelo://app?vid=83bbeac1-b4c2-4835-91cb-013728be84c8"},"vehicle_type_id":"4","last_reported":1769797672,"current_range_meters":4000,"station_id":"","pricing_plan_id":"cebpf4jnsgd1na2vs0mg"},{"bike_id":"08a554f2-e1ad-4290-bd14-813111f83d11","system_id":"levelo_inurba_marseille","lat":43.24179,"lon":5.39729,"is_reserved":false,"is_disabled":false,"rental_uris":{"android":"levelo://app?vid=08a554f2-e1ad-4290-bd14-813111f83d11","ios":"levelo://app?vid=08a554f2-e1ad-4290-bd14-813111f83d11"},"vehicle_type_id":"4","last_reported":1769797672,"current_range_meters":4000,"station_id":"ce4bhn12rcd13ifvqgpg","pricing_plan_id":"cebpf4jnsgd1na2vs0mg"},{"bike_id":"01be27bb-04c1-4257-961f-4af3e782a655","system_id":"levelo_inurba_marseille","lat":43.25579,"lon":5.38243,"is_reserved":false,"is_disabled":false,"rental_uris":{"android":"levelo://app?vid=01be27bb-04c1-4257-961f-4af3e782a655","ios":"levelo://app?vid=01be27bb-04c1-4257-961f-4af3e782a655"},"vehicle_type_id":"4","last_reported":1769797672,"current_range_meters":4000,"station_id":"ce4bhih2rcd13ifvqfs0","pricing_plan_id":"cebpf4jnsgd1na2vs0mg"},{"bike_id":"e42e5e4b-2394-43b0-9b9f-0fd17bf2cb70","system_id":"levelo_inurba_marseille","lat":43.24171,"lon":5.36394,"is_reserved":false,"is_disabled":false,"rental_uris":{"android":"levelo://app?vid=e42e5e4b-2394-43b0-9b9f-0fd17bf2cb70","ios":"levelo://app?vid=e42e5e4b-2394-43b0-9b9f-0fd17bf2cb70"},"vehicle_type_id":"4","last_reported":1769797672,"current_range_meters":4000,"station_id":"cpo36qri1sfpv3e86is0","pricing_plan_id":"cebpf4jnsgd1na2vs0mg"},{"bike_id":"86a29941-b088-43a0-8032-cfb1b006593e","system_id":"levelo_inurba_marseille","lat":43.25091,"lon":5.39519,"is_reserved":false,"is_disabled":false,"rental_uris":{"android":"levelo://app?vid=86a29941-b088-43a0-8032-cfb1b006593e","ios":"levelo://app?vid=86a29941-b088-43a0-8032-cfb1b006593e"},"vehicle_type_id":"4","last_reported":1769797672,"current_range_meters":4000,"station_id":"ce4bhm12rcd13ifvqgkg","pricing_plan_id":"cebpf4jnsgd1na2vs0mg"},{"bike_id":"e9a1f47b-7ade-438a-830a-0cf40d8e372f","system_id":"levelo_inurba_marseille","lat":43.31133,"lon":5.3776,"is_reserved":false,"is_disabled":false,"rental_uris":{"android":"levelo://app?vid=e9a1f47b-7ade-438a-830a-0cf40d8e372f","ios":"levelo://app?vid=e9a1f47b-7ade-438a-830a-0cf40d8e372f"},"vehicle_type_id":"4","last_reported":1769797672,"current_range_meters":4000,"station_id":"ce4bgt92rcd13ifvqcg0","pricing_plan_id":"cebpf4jnsgd1na2vs0mg"},{"bike_id":"4ae697cd-fb11-40c2-ab8f-53d4334f67ae","system_id":"levelo_inurba_marseille","lat":43.29882,"lon":5.38546,"is_reserved":false,"is_disabled":false,"rental_uris":{"android":"levelo://app?vid=4ae697cd-fb11-40c2-ab8f-53d4334f67ae","ios":"levelo://app?vid=4ae697cd-fb11-40c2-ab8f-53d4334f67ae"},"vehicle_type_id":"4","last_reported":1769797672,"current_range_meters":4000,"station_id":"","pricing_plan_id":"cebpf4jnsgd1na2vs0mg"},{"bike_id":"e04521ca-ce5b-4911-93eb-efa07b2cc503","system_id":"levelo_inurba_marseille","lat":43.29487,"lon":5.43309,"is_reserved":false,"is_disabled":false,"rental_uris":{"android":"levelo://app?vid=e04521ca-ce5b-4911-93eb-efa07b2cc503","ios":"levelo://app?vid=e04521ca-ce5b-4911-93eb-efa07b2cc503"},"vehicle_type_id":"4","last_reported":1769797672,"current_range_meters":4000,"station_id":"st_d3j5ugp08ojc73fj9d10","pricing_plan_id":"cebpf4jnsgd1na2vs0mg"},{"bike_id":"3dc504de-340a-4960-9295-e93227b46b5e","system_id":"levelo_inurba_marseille","lat":43.32107,"lon":5.36803,"is_reserved":false,"is_disabled":false,"rental_uris":{"android":"levelo://app?vid=3dc504de-340a-4960-9295-e93227b46b5e","ios":"levelo://app?vid=3dc504de-340a-4960-9295-e93227b46b5e"},"vehicle_type_id":"4","last_reported":1769797672,"current_range_meters":4000,"station_id":"ce4bhrh2rcd13ifvqhug","pricing_plan_id":"cebpf4jnsgd1na2vs0mg"},{"bike_id":"dba1cd34-42d0-43e1-97a1-acdccc4fc1cd","system_id":"levelo_inurba_marseille","lat":43.24122,"lon":5.37695,"is_reserved":false,"is_disabled":false,"rental_uris":{"android":"levelo://app?vid=dba1cd34-42d0-43e1-97a1-acdccc4fc1cd","ios":"levelo://app?vid=dba1cd34-42d0-43e1-97a1-acdccc4fc1cd"},"vehicle_type_id":"4","last_reported":1769797672,"current_range_meters":4000,"station_id":"","pricing_plan_id":"cebpf4jnsgd1na2vs0mg"},{"bike_id":"4b0b8592-2f1a-49e7-bd50-98ea28e65a36","system_id":"levelo_inurba_marseille","lat":43.27984,"lon":5.41639,"is_reserved":false,"is_disabled":false,"rental_uris":{"android":"levelo://app?vid=4b0b8592-2f1a-49e7-bd50-98ea28e65a36","ios":"levelo://app?vid=4b0b8592-2f1a-49e7-bd50-98ea28e65a36"},"vehicle_type_id":"4","last_reported":1769797672,"current_range_meters":4000,"station_id":"ce4bho12rcd13ifvqh1g","pricing_plan_id":"cebpf4jnsgd1na2vs0mg"},{"bike_id":"7529c937-77dc-4715-8a89-50b7457f4baa","system_id":"levelo_inurba_marseille","lat":43.259222,"lon":5.408905,"is_reserved":false,"is_disabled":true,"rental_uris":{"android":"levelo://app?vid=7529c937-77dc-4715-8a89-50b7457f4baa","ios":"levelo://app?vid=7529c937-77dc-4715-8a89-50b7457f4baa"},"vehicle_type_id":"4","last_reported":1769797672,"current_range_meters":4400,"station_id":"ce4bhm92rcd13ifvqglg","pricing_plan_id":"cebpf4jnsgd1na2vs0mg"},{"bike_id":"078b63c9-89a3-4623-a2e8-3fd53a065c68","system_id":"levelo_inurba_marseille","lat":43.24209,"lon":5.39362,"is_reserved":false,"is_disabled":false,"rental_uris":{"android":"levelo://app?vid=078b63c9-89a3-4623-a2e8-3fd53a065c68","ios":"levelo://app?vid=078b63c9-89a3-4623-a2e8-3fd53a065c68"},"vehicle_type_id":"4","last_reported":1769797672,"current_range_meters":4400,"station_id":"","pricing_plan_id":"cebpf4jnsgd1na2vs0mg"},{"bike_id":"6f2111dd-6b6a-402c-9729-62f7313dcc5e","system_id":"levelo_inurba_marseille","lat":43.323524,"lon":5.367517,"is_reserved":false,"is_disabled":false,"rental_uris":{"android":"levelo://app?vid=6f2111dd-6b6a-402c-9729-62f7313dcc5e","ios":"levelo://app?vid=6f2111dd-6b6a-402c-9729-62f7313dcc5e"},"vehicle_type_id":"4","last_reported":1769797672,"current_range_meters":4400,"station_id":"ce4bhsh2rcd13ifvqi2g","pricing_plan_id":"cebpf4jnsgd1na2vs0mg"},{"bike_id":"83fc5387-9bd8-4dec-804d-abfa877a86a6","system_id":"levelo_inurba_marseille","lat":43.29816,"lon":5.44066,"is_reserved":false,"is_disabled":false,"rental_uris":{"android":"levelo://app?vid=83fc5387-9bd8-4dec-804d-abfa877a86a6","ios":"levelo://app?vid=83fc5387-9bd8-4dec-804d-abfa877a86a6"},"vehicle_type_id":"4","last_reported":1769797672,"current_range_meters":4400,"station_id":"st_d3jp68qikq2c7381ktn0","pricing_plan_id":"cebpf4jnsgd1na2vs0mg"},{"bike_id":"bd889336-68ff-4f09-8c88-588306cf9fc6","system_id":"levelo_inurba_marseille","lat":43.27037,"lon":5.40329,"is_reserved":false,"is_disabled":false,"rental_uris":{"android":"levelo://app?vid=bd889336-68ff-4f09-8c88-588306cf9fc6","ios":"levelo://app?vid=bd889336-68ff-4f09-8c88-588306cf9fc6"},"vehicle_type_id":"4","last_reported":1769797672,"current_range_meters":4400,"station_id":"","pricing_plan_id":"cebpf4jnsgd1na2vs0mg"},{"bike_id":"32f147b7-2b1a-4f4d-941f-a55b7b632c7a","system_id":"levelo_inurba_marseille","lat":43.2783,"lon":5.40725,"is_reserved":false,"is_disabled":false,"rental_uris":{"android":"levelo://app?vid=32f147b7-2b1a-4f4d-941f-a55b7b632c7a","ios":"levelo://app?vid=32f147b7-2b1a-4f4d-941f-a55b7b632c7a"},"vehicle_type_id":"4","last_reported":1769797672,"current_range_meters":4400,"station_id":"ce4bhnh2rcd13ifvqgtg","pricing_plan_id":"cebpf4jnsgd1na2vs0mg"},{"bike_id":"7a4412cf-c498-4121-be46-049419c026d4","system_id":"levelo_inurba_marseille","lat":43.27945,"lon":5.41039,"is_reserved":false,"is_disabled":false,"rental_uris":{"android":"levelo://app?vid=7a4412cf-c498-4121-be46-049419c026d4","ios":"levelo://app?vid=7a4412cf-c498-4121-be46-049419c026d4"},"vehicle_type_id":"4","last_reported":1769797672,"current_range_meters":4400,"station_id":"ce4bhnp2rcd13ifvqh0g","pricing_plan_id":"cebpf4jnsgd1na2vs0mg"},{"bike_id":"140656d8-ba4f-4b08-a682-46569a2c5ed5","system_id":"levelo_inurba_marseille","lat":43.27535,"lon":5.38417,"is_reserved":false,"is_disabled":false,"rental_uris":{"android":"levelo://app?vid=140656d8-ba4f-4b08-a682-46569a2c5ed5","ios":"levelo://app?vid=140656d8-ba4f-4b08-a682-46569a2c5ed5"},"vehicle_type_id":"4","last_reported":1769797672,"current_range_meters":4400,"station_id":"ce4bhh92rcd13ifvqfi0","pricing_plan_id":"cebpf4jnsgd1na2vs0mg"},{"bike_id":"b93f36af-6012-4250-a69f-3de373ca3510","system_id":"levelo_inurba_marseille","lat":43.282739,"lon":5.350797,"is_reserved":false,"is_disabled":false,"rental_uris":{"android":"levelo://app?vid=b93f36af-6012-4250-a69f-3de373ca3510","ios":"levelo://app?vid=b93f36af-6012-4250-a69f-3de373ca3510"},"vehicle_type_id":"4","last_reported":1769797672,"current_range_meters":4400,"station_id":"ce4bhbp2rcd13ifvqerg","pricing_plan_id":"cebpf4jnsgd1na2vs0mg"},{"bike_id":"fb7a1d89-c796-43a1-b7bb-4a8bcfd14f5d","system_id":"levelo_inurba_marseille","lat":43.28581,"lon":5.39489,"is_reserved":false,"is_disabled":false,"rental_uris":{"android":"levelo://app?vid=fb7a1d89-c796-43a1-b7bb-4a8bcfd14f5d","ios":"levelo://app?vid=fb7a1d89-c796-43a1-b7bb-4a8bcfd14f5d"},"vehicle_type_id":"4","last_reported":1769797672,"current_range_meters":4400,"station_id":"ce4bh292rcd13ifvqdg0","pricing_plan_id":"cebpf4jnsgd1na2vs0mg"},{"bike_id":"d08ad747-e8dd-4a39-990c-56de807eb318","system_id":"levelo_inurba_marseille","lat":43.26567,"lon":5.4033,"is_reserved":false,"is_disabled":false,"rental_uris":{"android":"levelo://app?vid=d08ad747-e8dd-4a39-990c-56de807eb318","ios":"levelo://app?vid=d08ad747-e8dd-4a39-990c-56de807eb318"},"vehicle_type_id":"4","last_reported":1769797672,"current_range_meters":4400,"station_id":"ce4bhmp2rcd13ifvqgng","pricing_plan_id":"cebpf4jnsgd1na2vs0mg"},{"bike_id":"5c1bebe8-43bf-476b-a01e-98bad8762f0c","system_id":"levelo_inurba_marseille","lat":43.24626,"lon":5.43145,"is_reserved":false,"is_disabled":false,"rental_uris":{"android":"levelo://app?vid=5c1bebe8-43bf-476b-a01e-98bad8762f0c","ios":"levelo://app?vid=5c1bebe8-43bf-476b-a01e-98bad8762f0c"},"vehicle_type_id":"4","last_reported":1769797672,"current_range_meters":4400,"station_id":"st_d2m6c4gdas8pm72e190g","pricing_plan_id":"cebpf4jnsgd1na2vs0mg"},{"bike_id":"ad4dbb63-7fbe-44dc-846b-68f66ee1695c","system_id":"levelo_inurba_marseille","lat":43.29176,"lon":5.37148,"is_reserved":false,"is_disabled":false,"rental_uris":{"android":"levelo://app?vid=ad4dbb63-7fbe-44dc-846b-68f66ee1695c","ios":"levelo://app?vid=ad4dbb63-7fbe-44dc-846b-68f66ee1695c"},"vehicle_type_id":"4","last_reported":1769797672,"current_range_meters":4400,"station_id":"ce4bha92rcd13ifvqeh0","pricing_plan_id":"cebpf4jnsgd1na2vs0mg"},{"bike_id":"6d7f0c24-6dba-40df-9dcf-a0c2646cf995","system_id":"levelo_inurba_marseille","lat":43.26215,"lon":5.37432,"is_reserved":false,"is_disabled":false,"rental_uris":{"android":"levelo://app?vid=6d7f0c24-6dba-40df-9dcf-a0c2646cf995","ios":"levelo://app?vid=6d7f0c24-6dba-40df-9dcf-a0c2646cf995"},"vehicle_type_id":"4","last_reported":1769797672,"current_range_meters":4400,"station_id":"ce4bhgp2rcd13ifvqfc0","pricing_plan_id":"cebpf4jnsgd1na2vs0mg"},{"bike_id":"ad34f5db-9405-4cd9-af0a-7553a50addc3","system_id":"levelo_inurba_marseille","lat":43.245707,"lon":5.380503,"is_reserved":false,"is_disabled":false,"rental_uris":{"android":"levelo://app?vid=ad34f5db-9405-4cd9-af0a-7553a50addc3","ios":"levelo://app?vid=ad34f5db-9405-4cd9-af0a-7553a50addc3"},"vehicle_type_id":"4","last_reported":1769797672,"current_range_meters":4400,"station_id":"","pricing_plan_id":"cebpf4jnsgd1na2vs0mg"},{"bike_id":"fe96793b-7f48-4d0c-8e7e-ada6a02e2210","system_id":"levelo_inurba_marseille","lat":43.27804,"lon":5.40721,"is_reserved":false,"is_disabled":false,"rental_uris":{"android":"levelo://app?vid=fe96793b-7f48-4d0c-8e7e-ada6a02e2210","ios":"levelo://app?vid=fe96793b-7f48-4d0c-8e7e-ada6a02e2210"},"vehicle_type_id":"4","last_reported":1769797672,"current_range_meters":4800,"station_id":"ce4bhnh2rcd13ifvqgtg","pricing_plan_id":"cebpf4jnsgd1na2vs0mg"},{"bike_id":"7055778d-1250-47cd-9219-5827a9e3ecbc","system_id":"levelo_inurba_marseille","lat":43.29168,"lon":5.37153,"is_reserved":false,"is_disabled":false,"rental_uris":{"android":"levelo://app?vid=7055778d-1250-47cd-9219-5827a9e3ecbc","ios":"levelo://app?vid=7055778d-1250-47cd-9219-5827a9e3ecbc"},"vehicle_type_id":"4","last_reported":1769797672,"current_range_meters":4800,"station_id":"ce4bha92rcd13ifvqeh0","pricing_plan_id":"cebpf4jnsgd1na2vs0mg"},{"bike_id":"1b8a11ae-ff07-45ba-a44b-7af85c31226b","system_id":"levelo_inurba_marseille","lat":43.2292,"lon":5.35375,"is_reserved":false,"is_disabled":false,"rental_uris":{"android":"levelo://app?vid=1b8a11ae-ff07-45ba-a44b-7af85c31226b","ios":"levelo://app?vid=1b8a11ae-ff07-45ba-a44b-7af85c31226b"},"vehicle_type_id":"4","last_reported":1769797672,"current_range_meters":4800,"station_id":"cpo3532slgdg3j2ikp40","pricing_plan_id":"cebpf4jnsgd1na2vs0mg"},{"bike_id":"2626a307-09e6-4806-8747-64c64cf9b162","system_id":"levelo_inurba_marseille","lat":43.24467,"lon":5.42554,"is_reserved":false,"is_disabled":false,"rental_uris":{"android":"levelo://app?vid=2626a307-09e6-4806-8747-64c64cf9b162","ios":"levelo://app?vid=2626a307-09e6-4806-8747-64c64cf9b162"},"vehicle_type_id":"4","last_reported":1769797672,"current_range_meters":4800,"station_id":"st_d4a3vfp97mjs738cd8kg","pricing_plan_id":"cebpf4jnsgd1na2vs0mg"},{"bike_id":"a87b00a6-9d61-4271-ab54-d4b14b80bdd3","system_id":"levelo_inurba_marseille","lat":43.28116,"lon":5.37848,"is_reserved":false,"is_disabled":false,"rental_uris":{"android":"levelo://app?vid=a87b00a6-9d61-4271-ab54-d4b14b80bdd3","ios":"levelo://app?vid=a87b00a6-9d61-4271-ab54-d4b14b80bdd3"},"vehicle_type_id":"4","last_reported":1769797672,"current_range_meters":4800,"station_id":"ce4bha12rcd13ifvqee0","pricing_plan_id":"cebpf4jnsgd1na2vs0mg"},{"bike_id":"17e9fca2-5c6f-4fcd-a1d6-0050e38c4c0d","system_id":"levelo_inurba_marseille","lat":43.25089,"lon":5.39517,"is_reserved":false,"is_disabled":false,"rental_uris":{"android":"levelo://app?vid=17e9fca2-5c6f-4fcd-a1d6-0050e38c4c0d","ios":"levelo://app?vid=17e9fca2-5c6f-4fcd-a1d6-0050e38c4c0d"},"vehicle_type_id":"4","last_reported":1769797672,"current_range_meters":4800,"station_id":"ce4bhm12rcd13ifvqgkg","pricing_plan_id":"cebpf4jnsgd1na2vs0mg"},{"bike_id":"21069bed-3a7b-404b-bd0a-0a5132c6d50c","system_id":"levelo_inurba_marseille","lat":43.28701,"lon":5.37387,"is_reserved":false,"is_disabled":false,"rental_uris":{"android":"levelo://app?vid=21069bed-3a7b-404b-bd0a-0a5132c6d50c","ios":"levelo://app?vid=21069bed-3a7b-404b-bd0a-0a5132c6d50c"},"vehicle_type_id":"4","last_reported":1769797672,"current_range_meters":4800,"station_id":"ce4bh3p2rcd13ifvqdq0","pricing_plan_id":"cebpf4jnsgd1na2vs0mg"},{"bike_id":"59ae0900-c855-4741-b5cf-c53827ed9733","system_id":"levelo_inurba_marseille","lat":43.24166,"lon":5.36388,"is_reserved":false,"is_disabled":false,"rental_uris":{"android":"levelo://app?vid=59ae0900-c855-4741-b5cf-c53827ed9733","ios":"levelo://app?vid=59ae0900-c855-4741-b5cf-c53827ed9733"},"vehicle_type_id":"4","last_reported":1769797672,"current_range_meters":4800,"station_id":"cpo36qri1sfpv3e86is0","pricing_plan_id":"cebpf4jnsgd1na2vs0mg"},{"bike_id":"22e25749-1d5a-421e-83d4-4ebda8c771bb","system_id":"levelo_inurba_marseille","lat":43.28419,"lon":5.37509,"is_reserved":false,"is_disabled":false,"rental_uris":{"android":"levelo://app?vid=22e25749-1d5a-421e-83d4-4ebda8c771bb","ios":"levelo://app?vid=22e25749-1d5a-421e-83d4-4ebda8c771bb"},"vehicle_type_id":"4","last_reported":1769797672,"current_range_meters":4800,"station_id":"ce4bh412rcd13ifvqds0","pricing_plan_id":"cebpf4jnsgd1na2vs0mg"},{"bike_id":"b77ab413-67d6-4e03-afc3-fd871b05627c","system_id":"levelo_inurba_marseille","lat":43.28945,"lon":5.36642,"is_reserved":false,"is_disabled":false,"rental_uris":{"android":"levelo://app?vid=b77ab413-67d6-4e03-afc3-fd871b05627c","ios":"levelo://app?vid=b77ab413-67d6-4e03-afc3-fd871b05627c"},"vehicle_type_id":"4","last_reported":1769797672,"current_range_meters":4800,"station_id":"ce4bhap2rcd13ifvqek0","pricing_plan_id":"cebpf4jnsgd1na2vs0mg"},{"bike_id":"1df32dff-5611-415d-8fae-817c467a81ff","system_id":"levelo_inurba_marseille","lat":43.23058,"lon":5.35493,"is_reserved":false,"is_disabled":false,"rental_uris":{"android":"levelo://app?vid=1df32dff-5611-415d-8fae-817c467a81ff","ios":"levelo://app?vid=1df32dff-5611-415d-8fae-817c467a81ff"},"vehicle_type_id":"4","last_reported":1769797672,"current_range_meters":4800,"station_id":"cpo3342slgdg3j2ifvpg","pricing_plan_id":"cebpf4jnsgd1na2vs0mg"},{"bike_id":"ad33fcc2-676e-43f7-9deb-362f5bf684de","system_id":"levelo_inurba_marseille","lat":43.30955,"lon":5.3903,"is_reserved":false,"is_disabled":false,"rental_uris":{"android":"levelo://app?vid=ad33fcc2-676e-43f7-9deb-362f5bf684de","ios":"levelo://app?vid=ad33fcc2-676e-43f7-9deb-362f5bf684de"},"vehicle_type_id":"4","last_reported":1769797672,"current_range_meters":4800,"station_id":"ce4bgup2rcd13ifvqco0","pricing_plan_id":"cebpf4jnsgd1na2vs0mg"},{"bike_id":"025c345e-2940-4dfb-ab03-a97496585f70","system_id":"levelo_inurba_marseille","lat":43.25111,"lon":5.40317,"is_reserved":false,"is_disabled":false,"rental_uris":{"android":"levelo://app?vid=025c345e-2940-4dfb-ab03-a97496585f70","ios":"levelo://app?vid=025c345e-2940-4dfb-ab03-a97496585f70"},"vehicle_type_id":"4","last_reported":1769797672,"current_range_meters":5600,"station_id":"ce4bhlh2rcd13ifvqgig","pricing_plan_id":"cebpf4jnsgd1na2vs0mg"},{"bike_id":"ef68bdf9-fa71-483b-bc99-7f9581830aca","system_id":"levelo_inurba_marseille","lat":43.30538,"lon":5.36707,"is_reserved":false,"is_disabled":false,"rental_uris":{"android":"levelo://app?vid=ef68bdf9-fa71-483b-bc99-7f9581830aca","ios":"levelo://app?vid=ef68bdf9-fa71-483b-bc99-7f9581830aca"},"vehicle_type_id":"4","last_reported":1769797672,"current_range_meters":5600,"station_id":"ce4bgrp2rcd13ifvqc9g","pricing_plan_id":"cebpf4jnsgd1na2vs0mg"},{"bike_id":"82a6b099-0577-4798-9a60-21fb38c2bbb7","system_id":"levelo_inurba_marseille","lat":43.29815,"lon":5.44067,"is_reserved":false,"is_disabled":false,"rental_uris":{"android":"levelo://app?vid=82a6b099-0577-4798-9a60-21fb38c2bbb7","ios":"levelo://app?vid=82a6b099-0577-4798-9a60-21fb38c2bbb7"},"vehicle_type_id":"4","last_reported":1769797672,"current_range_meters":5600,"station_id":"st_d3jp68qikq2c7381ktn0","pricing_plan_id":"cebpf4jnsgd1na2vs0mg"},{"bike_id":"2985593a-0015-49dc-be38-d4223266a10b","system_id":"levelo_inurba_marseille","lat":43.29197,"lon":5.4,"is_reserved":false,"is_disabled":false,"rental_uris":{"android":"levelo://app?vid=2985593a-0015-49dc-be38-d4223266a10b","ios":"levelo://app?vid=2985593a-0015-49dc-be38-d4223266a10b"},"vehicle_type_id":"4","last_reported":1769797672,"current_range_meters":5600,"station_id":"","pricing_plan_id":"cebpf4jnsgd1na2vs0mg"},{"bike_id":"adfdc2ee-0218-459a-810f-190066abf062","system_id":"levelo_inurba_marseille","lat":43.3249,"lon":5.38292,"is_reserved":false,"is_disabled":false,"rental_uris":{"android":"levelo://app?vid=adfdc2ee-0218-459a-810f-190066abf062","ios":"levelo://app?vid=adfdc2ee-0218-459a-810f-190066abf062"},"vehicle_type_id":"4","last_reported":1769797672,"current_range_meters":5600,"station_id":"st_d4asgbiv49dc73anf9m0","pricing_plan_id":"cebpf4jnsgd1na2vs0mg"},{"bike_id":"35d51d67-b7cf-46a9-a9d9-ab2e64ed5a00","system_id":"levelo_inurba_marseille","lat":43.28156,"lon":5.42642,"is_reserved":false,"is_disabled":false,"rental_uris":{"android":"levelo://app?vid=35d51d67-b7cf-46a9-a9d9-ab2e64ed5a00","ios":"levelo://app?vid=35d51d67-b7cf-46a9-a9d9-ab2e64ed5a00"},"vehicle_type_id":"4","last_reported":1769797672,"current_range_meters":5600,"station_id":"ce4bhnh2rcd13ifvqgug","pricing_plan_id":"cebpf4jnsgd1na2vs0mg"},{"bike_id":"41bec50a-9c2d-4bbc-bf8f-a0fbc00397db","system_id":"levelo_inurba_marseille","lat":43.24168,"lon":5.39743,"is_reserved":false,"is_disabled":false,"rental_uris":{"android":"levelo://app?vid=41bec50a-9c2d-4bbc-bf8f-a0fbc00397db","ios":"levelo://app?vid=41bec50a-9c2d-4bbc-bf8f-a0fbc00397db"},"vehicle_type_id":"4","last_reported":1769797672,"current_range_meters":5600,"station_id":"ce4bhn12rcd13ifvqgpg","pricing_plan_id":"cebpf4jnsgd1na2vs0mg"},{"bike_id":"af654c71-a67d-46af-bf40-a020e2f3bf53","system_id":"levelo_inurba_marseille","lat":43.25025,"lon":5.38922,"is_reserved":false,"is_disabled":false,"rental_uris":{"android":"levelo://app?vid=af654c71-a67d-46af-bf40-a020e2f3bf53","ios":"levelo://app?vid=af654c71-a67d-46af-bf40-a020e2f3bf53"},"vehicle_type_id":"4","last_reported":1769797672,"current_range_meters":5600,"station_id":"ce4bhgp2rcd13ifvqfd0","pricing_plan_id":"cebpf4jnsgd1na2vs0mg"},{"bike_id":"07e1cd8b-d392-474e-a4f3-23671fe867c2","system_id":"levelo_inurba_marseille","lat":43.296089,"lon":5.377255,"is_reserved":false,"is_disabled":false,"rental_uris":{"android":"levelo://app?vid=07e1cd8b-d392-474e-a4f3-23671fe867c2","ios":"levelo://app?vid=07e1cd8b-d392-474e-a4f3-23671fe867c2"},"vehicle_type_id":"4","last_reported":1769797672,"current_range_meters":5600,"station_id":"ce4bgi92rcd13ifvqb90","pricing_plan_id":"cebpf4jnsgd1na2vs0mg"},{"bike_id":"fcb6a24a-52b1-488a-b1ff-28d7bd022f8d","system_id":"levelo_inurba_marseille","lat":43.282593,"lon":5.350554,"is_reserved":false,"is_disabled":false,"rental_uris":{"android":"levelo://app?vid=fcb6a24a-52b1-488a-b1ff-28d7bd022f8d","ios":"levelo://app?vid=fcb6a24a-52b1-488a-b1ff-28d7bd022f8d"},"vehicle_type_id":"4","last_reported":1769797672,"current_range_meters":5600,"station_id":"ce4bhch2rcd13ifvqeug","pricing_plan_id":"cebpf4jnsgd1na2vs0mg"},{"bike_id":"283526fc-ecdc-47e8-9ed9-a3688db271d7","system_id":"levelo_inurba_marseille","lat":43.24396,"lon":5.37039,"is_reserved":false,"is_disabled":false,"rental_uris":{"android":"levelo://app?vid=283526fc-ecdc-47e8-9ed9-a3688db271d7","ios":"levelo://app?vid=283526fc-ecdc-47e8-9ed9-a3688db271d7"},"vehicle_type_id":"4","last_reported":1769797672,"current_range_meters":5600,"station_id":"ce4bhhh2rcd13ifvqfk0","pricing_plan_id":"cebpf4jnsgd1na2vs0mg"},{"bike_id":"d103f2c1-7066-453c-bc7a-de1c9f1c94cc","system_id":"levelo_inurba_marseille","lat":43.31125,"lon":5.37765,"is_reserved":false,"is_disabled":false,"rental_uris":{"android":"levelo://app?vid=d103f2c1-7066-453c-bc7a-de1c9f1c94cc","ios":"levelo://app?vid=d103f2c1-7066-453c-bc7a-de1c9f1c94cc"},"vehicle_type_id":"4","last_reported":1769797672,"current_range_meters":5600,"station_id":"ce4bgt92rcd13ifvqcg0","pricing_plan_id":"cebpf4jnsgd1na2vs0mg"},{"bike_id":"2118e989-9bd5-4208-aef3-62860e5c21cf","system_id":"levelo_inurba_marseille","lat":43.297944,"lon":5.381053,"is_reserved":false,"is_disabled":false,"rental_uris":{"android":"levelo://app?vid=2118e989-9bd5-4208-aef3-62860e5c21cf","ios":"levelo://app?vid=2118e989-9bd5-4208-aef3-62860e5c21cf"},"vehicle_type_id":"4","last_reported":1769797672,"current_range_meters":5600,"station_id":"ce4bgip2rcd13ifvqbb0","pricing_plan_id":"cebpf4jnsgd1na2vs0mg"},{"bike_id":"a59d1c9b-6f36-4a3e-b757-ffcd29956bd2","system_id":"levelo_inurba_marseille","lat":43.26927,"lon":5.40251,"is_reserved":false,"is_disabled":false,"rental_uris":{"android":"levelo://app?vid=a59d1c9b-6f36-4a3e-b757-ffcd29956bd2","ios":"levelo://app?vid=a59d1c9b-6f36-4a3e-b757-ffcd29956bd2"},"vehicle_type_id":"4","last_reported":1769797672,"current_range_meters":5600,"station_id":"cjm6bp8fraef2m0cb0m0","pricing_plan_id":"cebpf4jnsgd1na2vs0mg"},{"bike_id":"d8c52549-b69a-4546-87c2-6c2e585ebd60","system_id":"levelo_inurba_marseille","lat":43.28707,"lon":5.37393,"is_reserved":false,"is_disabled":false,"rental_uris":{"android":"levelo://app?vid=d8c52549-b69a-4546-87c2-6c2e585ebd60","ios":"levelo://app?vid=d8c52549-b69a-4546-87c2-6c2e585ebd60"},"vehicle_type_id":"4","last_reported":1769797672,"current_range_meters":5600,"station_id":"ce4bh3p2rcd13ifvqdq0","pricing_plan_id":"cebpf4jnsgd1na2vs0mg"},{"bike_id":"456727bd-baa8-41bf-ae9f-158a99ff9411","system_id":"levelo_inurba_marseille","lat":43.22563,"lon":5.41635,"is_reserved":false,"is_disabled":false,"rental_uris":{"android":"levelo://app?vid=456727bd-baa8-41bf-ae9f-158a99ff9411","ios":"levelo://app?vid=456727bd-baa8-41bf-ae9f-158a99ff9411"},"vehicle_type_id":"4","last_reported":1769797672,"current_range_meters":6000,"station_id":"st_d2o4gvlbi1j2169b742g","pricing_plan_id":"cebpf4jnsgd1na2vs0mg"},{"bike_id":"ffdda927-e6da-4d6b-b63c-5f8f68ad9828","system_id":"levelo_inurba_marseille","lat":43.30883,"lon":5.41186,"is_reserved":false,"is_disabled":false,"rental_uris":{"android":"levelo://app?vid=ffdda927-e6da-4d6b-b63c-5f8f68ad9828","ios":"levelo://app?vid=ffdda927-e6da-4d6b-b63c-5f8f68ad9828"},"vehicle_type_id":"4","last_reported":1769797672,"current_range_meters":6000,"station_id":"","pricing_plan_id":"cebpf4jnsgd1na2vs0mg"},{"bike_id":"f77f11ea-c57f-4a1e-b998-1859acb2e91b","system_id":"levelo_inurba_marseille","lat":43.2862,"lon":5.35084,"is_reserved":false,"is_disabled":false,"rental_uris":{"android":"levelo://app?vid=f77f11ea-c57f-4a1e-b998-1859acb2e91b","ios":"levelo://app?vid=f77f11ea-c57f-4a1e-b998-1859acb2e91b"},"vehicle_type_id":"4","last_reported":1769797672,"current_range_meters":6000,"station_id":"ce4bhch2rcd13ifvqeug","pricing_plan_id":"cebpf4jnsgd1na2vs0mg"},{"bike_id":"3c07e8db-1d64-4b7a-879d-8b774c3d7e0c","system_id":"levelo_inurba_marseille","lat":43.273748,"lon":5.362532,"is_reserved":false,"is_disabled":false,"rental_uris":{"android":"levelo://app?vid=3c07e8db-1d64-4b7a-879d-8b774c3d7e0c","ios":"levelo://app?vid=3c07e8db-1d64-4b7a-879d-8b774c3d7e0c"},"vehicle_type_id":"4","last_reported":1769797672,"current_range_meters":6000,"station_id":"ce4bhbh2rcd13ifvqeo0","pricing_plan_id":"cebpf4jnsgd1na2vs0mg"},{"bike_id":"a924e65f-f7a5-4e7f-bfc8-aef9bd53424c","system_id":"levelo_inurba_marseille","lat":43.30101,"lon":5.3908,"is_reserved":false,"is_disabled":false,"rental_uris":{"android":"levelo://app?vid=a924e65f-f7a5-4e7f-bfc8-aef9bd53424c","ios":"levelo://app?vid=a924e65f-f7a5-4e7f-bfc8-aef9bd53424c"},"vehicle_type_id":"4","last_reported":1769797672,"current_range_meters":6000,"station_id":"ce4bh192rcd13ifvqdb0","pricing_plan_id":"cebpf4jnsgd1na2vs0mg"},{"bike_id":"ff6220a2-0ba2-4f2b-99d8-48d7fb65a584","system_id":"levelo_inurba_marseille","lat":43.30538,"lon":5.36533,"is_reserved":false,"is_disabled":false,"rental_uris":{"android":"levelo://app?vid=ff6220a2-0ba2-4f2b-99d8-48d7fb65a584","ios":"levelo://app?vid=ff6220a2-0ba2-4f2b-99d8-48d7fb65a584"},"vehicle_type_id":"4","last_reported":1769797672,"current_range_meters":6000,"station_id":"ce4bgs12rcd13ifvqcag","pricing_plan_id":"cebpf4jnsgd1na2vs0mg"},{"bike_id":"39fd3543-1b83-4b56-b05d-b4a1d34a93cb","system_id":"levelo_inurba_marseille","lat":43.29269,"lon":5.40148,"is_reserved":false,"is_disabled":false,"rental_uris":{"android":"levelo://app?vid=39fd3543-1b83-4b56-b05d-b4a1d34a93cb","ios":"levelo://app?vid=39fd3543-1b83-4b56-b05d-b4a1d34a93cb"},"vehicle_type_id":"4","last_reported":1769797672,"current_range_meters":6000,"station_id":"ce4bh312rcd13ifvqdk0","pricing_plan_id":"cebpf4jnsgd1na2vs0mg"},{"bike_id":"ceed1653-0aff-4dc0-b159-f8529a6c28c1","system_id":"levelo_inurba_marseille","lat":43.23195,"lon":5.3555,"is_reserved":false,"is_disabled":false,"rental_uris":{"android":"levelo://app?vid=ceed1653-0aff-4dc0-b159-f8529a6c28c1","ios":"levelo://app?vid=ceed1653-0aff-4dc0-b159-f8529a6c28c1"},"vehicle_type_id":"4","last_reported":1769797672,"current_range_meters":6000,"station_id":"ce4bhu92rcd13ifvqi70","pricing_plan_id":"cebpf4jnsgd1na2vs0mg"},{"bike_id":"ed49719e-ebdf-4e11-bee6-46418a0b21a1","system_id":"levelo_inurba_marseille","lat":43.25874,"lon":5.3989,"is_reserved":false,"is_disabled":false,"rental_uris":{"android":"levelo://app?vid=ed49719e-ebdf-4e11-bee6-46418a0b21a1","ios":"levelo://app?vid=ed49719e-ebdf-4e11-bee6-46418a0b21a1"},"vehicle_type_id":"4","last_reported":1769797672,"current_range_meters":6000,"station_id":"ce4bhl92rcd13ifvqghg","pricing_plan_id":"cebpf4jnsgd1na2vs0mg"},{"bike_id":"7aebfec7-3a5c-4f4a-afbe-e2d8ba975a3c","system_id":"levelo_inurba_marseille","lat":43.282297,"lon":5.390716,"is_reserved":false,"is_disabled":false,"rental_uris":{"android":"levelo://app?vid=7aebfec7-3a5c-4f4a-afbe-e2d8ba975a3c","ios":"levelo://app?vid=7aebfec7-3a5c-4f4a-afbe-e2d8ba975a3c"},"vehicle_type_id":"4","last_reported":1769797672,"current_range_meters":6000,"station_id":"ce4bhn92rcd13ifvqgsg","pricing_plan_id":"cebpf4jnsgd1na2vs0mg"},{"bike_id":"07c7d1ab-a776-4e16-af7a-76ec65e85109","system_id":"levelo_inurba_marseille","lat":43.29789,"lon":5.3709,"is_reserved":false,"is_disabled":false,"rental_uris":{"android":"levelo://app?vid=07c7d1ab-a776-4e16-af7a-76ec65e85109","ios":"levelo://app?vid=07c7d1ab-a776-4e16-af7a-76ec65e85109"},"vehicle_type_id":"4","last_reported":1769797672,"current_range_meters":6000,"station_id":"ce4bgop2rcd13ifvqc1g","pricing_plan_id":"cebpf4jnsgd1na2vs0mg"},{"bike_id":"7afa26f8-b048-4f0e-ab13-a62cf3766717","system_id":"levelo_inurba_marseille","lat":43.24071,"lon":5.37763,"is_reserved":false,"is_disabled":false,"rental_uris":{"android":"levelo://app?vid=7afa26f8-b048-4f0e-ab13-a62cf3766717","ios":"levelo://app?vid=7afa26f8-b048-4f0e-ab13-a62cf3766717"},"vehicle_type_id":"4","last_reported":1769797672,"current_range_meters":6000,"station_id":"ce4bhnp2rcd13ifvqgvg","pricing_plan_id":"cebpf4jnsgd1na2vs0mg"},{"bike_id":"e4ff084c-f3c4-431f-a828-15b71c44f0df","system_id":"levelo_inurba_marseille","lat":43.25116,"lon":5.40315,"is_reserved":false,"is_disabled":true,"rental_uris":{"android":"levelo://app?vid=e4ff084c-f3c4-431f-a828-15b71c44f0df","ios":"levelo://app?vid=e4ff084c-f3c4-431f-a828-15b71c44f0df"},"vehicle_type_id":"4","last_reported":1769797672,"current_range_meters":6000,"station_id":"ce4bhlh2rcd13ifvqgig","pricing_plan_id":"cebpf4jnsgd1na2vs0mg"},{"bike_id":"6e316437-9e53-4058-b852-370b67323663","system_id":"levelo_inurba_marseille","lat":43.24651,"lon":5.43141,"is_reserved":false,"is_disabled":false,"rental_uris":{"android":"levelo://app?vid=6e316437-9e53-4058-b852-370b67323663","ios":"levelo://app?vid=6e316437-9e53-4058-b852-370b67323663"},"vehicle_type_id":"4","last_reported":1769797672,"current_range_meters":6000,"station_id":"st_d2m6c4gdas8pm72e190g","pricing_plan_id":"cebpf4jnsgd1na2vs0mg"},{"bike_id":"c09fa857-f99c-43bb-bcdc-a25e7d8c0106","system_id":"levelo_inurba_marseille","lat":43.293016,"lon":5.374582,"is_reserved":false,"is_disabled":false,"rental_uris":{"android":"levelo://app?vid=c09fa857-f99c-43bb-bcdc-a25e7d8c0106","ios":"levelo://app?vid=c09fa857-f99c-43bb-bcdc-a25e7d8c0106"},"vehicle_type_id":"4","last_reported":1769797672,"current_range_meters":6000,"station_id":"ce4bgi12rcd13ifvqb70","pricing_plan_id":"cebpf4jnsgd1na2vs0mg"},{"bike_id":"c63d99e7-5518-4cca-a34f-987d59e6dfe6","system_id":"levelo_inurba_marseille","lat":43.291772,"lon":5.372006,"is_reserved":false,"is_disabled":false,"rental_uris":{"android":"levelo://app?vid=c63d99e7-5518-4cca-a34f-987d59e6dfe6","ios":"levelo://app?vid=c63d99e7-5518-4cca-a34f-987d59e6dfe6"},"vehicle_type_id":"4","last_reported":1769797672,"current_range_meters":6000,"station_id":"ce4bha92rcd13ifvqeh0","pricing_plan_id":"cebpf4jnsgd1na2vs0mg"},{"bike_id":"e0b3adb1-fa22-454b-9720-c4e5893c659b","system_id":"levelo_inurba_marseille","lat":43.28276,"lon":5.35076,"is_reserved":false,"is_disabled":false,"rental_uris":{"android":"levelo://app?vid=e0b3adb1-fa22-454b-9720-c4e5893c659b","ios":"levelo://app?vid=e0b3adb1-fa22-454b-9720-c4e5893c659b"},"vehicle_type_id":"4","last_reported":1769797672,"current_range_meters":6400,"station_id":"ce4bhbp2rcd13ifvqerg","pricing_plan_id":"cebpf4jnsgd1na2vs0mg"},{"bike_id":"a555bcf2-e53c-45e2-89ec-8608ddcd2a6e","system_id":"levelo_inurba_marseille","lat":43.309799,"lon":5.379626,"is_reserved":false,"is_disabled":false,"rental_uris":{"android":"levelo://app?vid=a555bcf2-e53c-45e2-89ec-8608ddcd2a6e","ios":"levelo://app?vid=a555bcf2-e53c-45e2-89ec-8608ddcd2a6e"},"vehicle_type_id":"4","last_reported":1769797672,"current_range_meters":6400,"station_id":"ce4bgt92rcd13ifvqcg0","pricing_plan_id":"cebpf4jnsgd1na2vs0mg"},{"bike_id":"d7b04403-7dfa-4d8a-bd81-cfc844f4e0b5","system_id":"levelo_inurba_marseille","lat":43.29841,"lon":5.44067,"is_reserved":false,"is_disabled":false,"rental_uris":{"android":"levelo://app?vid=d7b04403-7dfa-4d8a-bd81-cfc844f4e0b5","ios":"levelo://app?vid=d7b04403-7dfa-4d8a-bd81-cfc844f4e0b5"},"vehicle_type_id":"4","last_reported":1769797672,"current_range_meters":6400,"station_id":"","pricing_plan_id":"cebpf4jnsgd1na2vs0mg"},{"bike_id":"6b07e50c-03c8-4824-b0e1-e184b4975a06","system_id":"levelo_inurba_marseille","lat":43.25331,"lon":5.4217,"is_reserved":false,"is_disabled":true,"rental_uris":{"android":"levelo://app?vid=6b07e50c-03c8-4824-b0e1-e184b4975a06","ios":"levelo://app?vid=6b07e50c-03c8-4824-b0e1-e184b4975a06"},"vehicle_type_id":"4","last_reported":1769797672,"current_range_meters":6400,"station_id":"st_d2m65c5bi1j21697t3ng","pricing_plan_id":"cebpf4jnsgd1na2vs0mg"},{"bike_id":"5e3f0ec3-648c-4f6a-a210-57809b8fb522","system_id":"levelo_inurba_marseille","lat":43.284132,"lon":5.349809,"is_reserved":false,"is_disabled":false,"rental_uris":{"android":"levelo://app?vid=5e3f0ec3-648c-4f6a-a210-57809b8fb522","ios":"levelo://app?vid=5e3f0ec3-648c-4f6a-a210-57809b8fb522"},"vehicle_type_id":"4","last_reported":1769797672,"current_range_meters":6400,"station_id":"ce4bhbh2rcd13ifvqepg","pricing_plan_id":"cebpf4jnsgd1na2vs0mg"},{"bike_id":"32c2a5af-b5f9-416e-8e4c-96e2f8d06aad","system_id":"levelo_inurba_marseille","lat":43.28279,"lon":5.35062,"is_reserved":false,"is_disabled":false,"rental_uris":{"android":"levelo://app?vid=32c2a5af-b5f9-416e-8e4c-96e2f8d06aad","ios":"levelo://app?vid=32c2a5af-b5f9-416e-8e4c-96e2f8d06aad"},"vehicle_type_id":"4","last_reported":1769797672,"current_range_meters":6400,"station_id":"ce4bhbp2rcd13ifvqerg","pricing_plan_id":"cebpf4jnsgd1na2vs0mg"},{"bike_id":"382c481d-5cf2-4d38-9788-579a9f396d00","system_id":"levelo_inurba_marseille","lat":43.22928,"lon":5.35373,"is_reserved":false,"is_disabled":false,"rental_uris":{"android":"levelo://app?vid=382c481d-5cf2-4d38-9788-579a9f396d00","ios":"levelo://app?vid=382c481d-5cf2-4d38-9788-579a9f396d00"},"vehicle_type_id":"4","last_reported":1769797672,"current_range_meters":6400,"station_id":"cpo3532slgdg3j2ikp40","pricing_plan_id":"cebpf4jnsgd1na2vs0mg"},{"bike_id":"7243427c-7e1e-4875-b4d3-b3a9df2c737a","system_id":"levelo_inurba_marseille","lat":43.30127,"lon":5.387724,"is_reserved":false,"is_disabled":true,"rental_uris":{"android":"levelo://app?vid=7243427c-7e1e-4875-b4d3-b3a9df2c737a","ios":"levelo://app?vid=7243427c-7e1e-4875-b4d3-b3a9df2c737a"},"vehicle_type_id":"4","last_reported":1769797672,"current_range_meters":6400,"station_id":"ce4bghh2rcd13ifvqb60","pricing_plan_id":"cebpf4jnsgd1na2vs0mg"},{"bike_id":"4b5eb031-7397-4204-b8ec-553a81e6fa49","system_id":"levelo_inurba_marseille","lat":43.27533,"lon":5.38432,"is_reserved":false,"is_disabled":false,"rental_uris":{"android":"levelo://app?vid=4b5eb031-7397-4204-b8ec-553a81e6fa49","ios":"levelo://app?vid=4b5eb031-7397-4204-b8ec-553a81e6fa49"},"vehicle_type_id":"4","last_reported":1769797672,"current_range_meters":6400,"station_id":"ce4bhh92rcd13ifvqfi0","pricing_plan_id":"cebpf4jnsgd1na2vs0mg"},{"bike_id":"aa82b4c2-1ed4-4caa-967f-11f298ec4aaf","system_id":"levelo_inurba_marseille","lat":43.31366,"lon":5.38497,"is_reserved":false,"is_disabled":false,"rental_uris":{"android":"levelo://app?vid=aa82b4c2-1ed4-4caa-967f-11f298ec4aaf","ios":"levelo://app?vid=aa82b4c2-1ed4-4caa-967f-11f298ec4aaf"},"vehicle_type_id":"4","last_reported":1769797672,"current_range_meters":6400,"station_id":"ce4bgt92rcd13ifvqcf0","pricing_plan_id":"cebpf4jnsgd1na2vs0mg"},{"bike_id":"75e12ebc-bd2b-46ca-8731-fb764315b922","system_id":"levelo_inurba_marseille","lat":43.25089,"lon":5.39513,"is_reserved":false,"is_disabled":false,"rental_uris":{"android":"levelo://app?vid=75e12ebc-bd2b-46ca-8731-fb764315b922","ios":"levelo://app?vid=75e12ebc-bd2b-46ca-8731-fb764315b922"},"vehicle_type_id":"4","last_reported":1769797672,"current_range_meters":6400,"station_id":"ce4bhm12rcd13ifvqgkg","pricing_plan_id":"cebpf4jnsgd1na2vs0mg"},{"bike_id":"2f46d3ad-cf28-4642-96db-d406ad5984b5","system_id":"levelo_inurba_marseille","lat":43.31198,"lon":5.37001,"is_reserved":false,"is_disabled":false,"rental_uris":{"android":"levelo://app?vid=2f46d3ad-cf28-4642-96db-d406ad5984b5","ios":"levelo://app?vid=2f46d3ad-cf28-4642-96db-d406ad5984b5"},"vehicle_type_id":"4","last_reported":1769797672,"current_range_meters":6400,"station_id":"","pricing_plan_id":"cebpf4jnsgd1na2vs0mg"},{"bike_id":"23dad914-1de4-48fb-a770-cde7550d8b95","system_id":"levelo_inurba_marseille","lat":43.30358,"lon":5.41874,"is_reserved":false,"is_disabled":false,"rental_uris":{"android":"levelo://app?vid=23dad914-1de4-48fb-a770-cde7550d8b95","ios":"levelo://app?vid=23dad914-1de4-48fb-a770-cde7550d8b95"},"vehicle_type_id":"4","last_reported":1769797672,"current_range_meters":6400,"station_id":"ce4bhop2rcd13ifvqh7g","pricing_plan_id":"cebpf4jnsgd1na2vs0mg"},{"bike_id":"9e505e68-53a9-4cdf-8ac9-805a8738ad96","system_id":"levelo_inurba_marseille","lat":43.307953,"lon":5.38149,"is_reserved":false,"is_disabled":false,"rental_uris":{"android":"levelo://app?vid=9e505e68-53a9-4cdf-8ac9-805a8738ad96","ios":"levelo://app?vid=9e505e68-53a9-4cdf-8ac9-805a8738ad96"},"vehicle_type_id":"4","last_reported":1769797672,"current_range_meters":6400,"station_id":"ce4bgt12rcd13ifvqce0","pricing_plan_id":"cebpf4jnsgd1na2vs0mg"},{"bike_id":"90d8f47d-92dd-4327-94ea-1f7e7a2152b8","system_id":"levelo_inurba_marseille","lat":43.27804,"lon":5.40715,"is_reserved":false,"is_disabled":false,"rental_uris":{"android":"levelo://app?vid=90d8f47d-92dd-4327-94ea-1f7e7a2152b8","ios":"levelo://app?vid=90d8f47d-92dd-4327-94ea-1f7e7a2152b8"},"vehicle_type_id":"4","last_reported":1769797672,"current_range_meters":6400,"station_id":"ce4bhnh2rcd13ifvqgtg","pricing_plan_id":"cebpf4jnsgd1na2vs0mg"},{"bike_id":"842ae640-421f-4790-99f0-94bd0d50de25","system_id":"levelo_inurba_marseille","lat":43.30526,"lon":5.36532,"is_reserved":false,"is_disabled":false,"rental_uris":{"android":"levelo://app?vid=842ae640-421f-4790-99f0-94bd0d50de25","ios":"levelo://app?vid=842ae640-421f-4790-99f0-94bd0d50de25"},"vehicle_type_id":"4","last_reported":1769797672,"current_range_meters":6400,"station_id":"ce4bgs12rcd13ifvqcag","pricing_plan_id":"cebpf4jnsgd1na2vs0mg"},{"bike_id":"4e0e09af-dc1f-4b4c-a5e0-62c35307cb3b","system_id":"levelo_inurba_marseille","lat":43.27913,"lon":5.39577,"is_reserved":false,"is_disabled":false,"rental_uris":{"android":"levelo://app?vid=4e0e09af-dc1f-4b4c-a5e0-62c35307cb3b","ios":"levelo://app?vid=4e0e09af-dc1f-4b4c-a5e0-62c35307cb3b"},"vehicle_type_id":"4","last_reported":1769797672,"current_range_meters":6400,"station_id":"ce4bhf92rcd13ifvqf40","pricing_plan_id":"cebpf4jnsgd1na2vs0mg"},{"bike_id":"891291bf-2508-4614-98b9-c57a30a99b04","system_id":"levelo_inurba_marseille","lat":43.22936,"lon":5.35378,"is_reserved":false,"is_disabled":false,"rental_uris":{"android":"levelo://app?vid=891291bf-2508-4614-98b9-c57a30a99b04","ios":"levelo://app?vid=891291bf-2508-4614-98b9-c57a30a99b04"},"vehicle_type_id":"4","last_reported":1769797672,"current_range_meters":6400,"station_id":"cpo3532slgdg3j2ikp40","pricing_plan_id":"cebpf4jnsgd1na2vs0mg"},{"bike_id":"7272b7e5-dc3f-4a67-bdd0-317168495648","system_id":"levelo_inurba_marseille","lat":43.26798,"lon":5.40267,"is_reserved":false,"is_disabled":false,"rental_uris":{"android":"levelo://app?vid=7272b7e5-dc3f-4a67-bdd0-317168495648","ios":"levelo://app?vid=7272b7e5-dc3f-4a67-bdd0-317168495648"},"vehicle_type_id":"4","last_reported":1769797672,"current_range_meters":6400,"station_id":"ce501612rcd8frsf0b60","pricing_plan_id":"cebpf4jnsgd1na2vs0mg"},{"bike_id":"c36501a5-b15d-4754-b855-eaf047fce34d","system_id":"levelo_inurba_marseille","lat":43.28605,"lon":5.37061,"is_reserved":false,"is_disabled":false,"rental_uris":{"android":"levelo://app?vid=c36501a5-b15d-4754-b855-eaf047fce34d","ios":"levelo://app?vid=c36501a5-b15d-4754-b855-eaf047fce34d"},"vehicle_type_id":"4","last_reported":1769797672,"current_range_meters":6400,"station_id":"ce4bht12rcd13ifvqi60","pricing_plan_id":"cebpf4jnsgd1na2vs0mg"},{"bike_id":"84074a89-65fb-46cd-bc5b-4dc462fe9144","system_id":"levelo_inurba_marseille","lat":43.29263,"lon":5.38431,"is_reserved":false,"is_disabled":false,"rental_uris":{"android":"levelo://app?vid=84074a89-65fb-46cd-bc5b-4dc462fe9144","ios":"levelo://app?vid=84074a89-65fb-46cd-bc5b-4dc462fe9144"},"vehicle_type_id":"4","last_reported":1769797672,"current_range_meters":6400,"station_id":"ce4bh692rcd13ifvqea0","pricing_plan_id":"cebpf4jnsgd1na2vs0mg"},{"bike_id":"88aa03d2-39ff-496d-a5ff-56408cccea2c","system_id":"levelo_inurba_marseille","lat":43.255765,"lon":5.382286,"is_reserved":false,"is_disabled":false,"rental_uris":{"android":"levelo://app?vid=88aa03d2-39ff-496d-a5ff-56408cccea2c","ios":"levelo://app?vid=88aa03d2-39ff-496d-a5ff-56408cccea2c"},"vehicle_type_id":"4","last_reported":1769797672,"current_range_meters":6400,"station_id":"ce4bhih2rcd13ifvqfs0","pricing_plan_id":"cebpf4jnsgd1na2vs0mg"},{"bike_id":"b17cb260-4049-4abc-a308-15cf0b8ce0e6","system_id":"levelo_inurba_marseille","lat":43.24994,"lon":5.3893,"is_reserved":false,"is_disabled":false,"rental_uris":{"android":"levelo://app?vid=b17cb260-4049-4abc-a308-15cf0b8ce0e6","ios":"levelo://app?vid=b17cb260-4049-4abc-a308-15cf0b8ce0e6"},"vehicle_type_id":"4","last_reported":1769797672,"current_range_meters":6400,"station_id":"ce4bhgp2rcd13ifvqfd0","pricing_plan_id":"cebpf4jnsgd1na2vs0mg"},{"bike_id":"f24aaaa4-fbe6-4fcf-9f4b-bd64404925c7","system_id":"levelo_inurba_marseille","lat":43.25078,"lon":5.39522,"is_reserved":false,"is_disabled":false,"rental_uris":{"android":"levelo://app?vid=f24aaaa4-fbe6-4fcf-9f4b-bd64404925c7","ios":"levelo://app?vid=f24aaaa4-fbe6-4fcf-9f4b-bd64404925c7"},"vehicle_type_id":"4","last_reported":1769797672,"current_range_meters":6400,"station_id":"ce4bhm12rcd13ifvqgkg","pricing_plan_id":"cebpf4jnsgd1na2vs0mg"},{"bike_id":"3260d6da-2018-4dad-a5a2-1fcdb44b0cff","system_id":"levelo_inurba_marseille","lat":43.250873,"lon":5.39505,"is_reserved":false,"is_disabled":true,"rental_uris":{"android":"levelo://app?vid=3260d6da-2018-4dad-a5a2-1fcdb44b0cff","ios":"levelo://app?vid=3260d6da-2018-4dad-a5a2-1fcdb44b0cff"},"vehicle_type_id":"4","last_reported":1769797672,"current_range_meters":6800,"station_id":"ce4bhm12rcd13ifvqgkg","pricing_plan_id":"cebpf4jnsgd1na2vs0mg"},{"bike_id":"4b9c2949-48d9-47bd-87a5-474334cf4c2c","system_id":"levelo_inurba_marseille","lat":43.25014,"lon":5.38923,"is_reserved":false,"is_disabled":false,"rental_uris":{"android":"levelo://app?vid=4b9c2949-48d9-47bd-87a5-474334cf4c2c","ios":"levelo://app?vid=4b9c2949-48d9-47bd-87a5-474334cf4c2c"},"vehicle_type_id":"4","last_reported":1769797672,"current_range_meters":6800,"station_id":"ce4bhgp2rcd13ifvqfd0","pricing_plan_id":"cebpf4jnsgd1na2vs0mg"},{"bike_id":"1915d4ba-f4af-445d-a9d3-be106a370507","system_id":"levelo_inurba_marseille","lat":43.273822,"lon":5.362491,"is_reserved":false,"is_disabled":false,"rental_uris":{"android":"levelo://app?vid=1915d4ba-f4af-445d-a9d3-be106a370507","ios":"levelo://app?vid=1915d4ba-f4af-445d-a9d3-be106a370507"},"vehicle_type_id":"4","last_reported":1769797672,"current_range_meters":6800,"station_id":"ce4bhbh2rcd13ifvqeo0","pricing_plan_id":"cebpf4jnsgd1na2vs0mg"},{"bike_id":"c386e859-c47c-4176-b8dc-5d121dc2bc50","system_id":"levelo_inurba_marseille","lat":43.257161,"lon":5.410979,"is_reserved":false,"is_disabled":false,"rental_uris":{"android":"levelo://app?vid=c386e859-c47c-4176-b8dc-5d121dc2bc50","ios":"levelo://app?vid=c386e859-c47c-4176-b8dc-5d121dc2bc50"},"vehicle_type_id":"4","last_reported":1769797672,"current_range_meters":6800,"station_id":"","pricing_plan_id":"cebpf4jnsgd1na2vs0mg"},{"bike_id":"f837c673-8f99-41df-8e92-c39dc749cf7c","system_id":"levelo_inurba_marseille","lat":43.29564,"lon":5.37479,"is_reserved":false,"is_disabled":false,"rental_uris":{"android":"levelo://app?vid=f837c673-8f99-41df-8e92-c39dc749cf7c","ios":"levelo://app?vid=f837c673-8f99-41df-8e92-c39dc749cf7c"},"vehicle_type_id":"4","last_reported":1769797672,"current_range_meters":6800,"station_id":"ce4bgh92rcd13ifvqb50","pricing_plan_id":"cebpf4jnsgd1na2vs0mg"},{"bike_id":"e3b71405-5a4d-4392-a39c-498c953a18c9","system_id":"levelo_inurba_marseille","lat":43.3173,"lon":5.43707,"is_reserved":false,"is_disabled":false,"rental_uris":{"android":"levelo://app?vid=e3b71405-5a4d-4392-a39c-498c953a18c9","ios":"levelo://app?vid=e3b71405-5a4d-4392-a39c-498c953a18c9"},"vehicle_type_id":"4","last_reported":1769797672,"current_range_meters":6800,"station_id":"ce4bhp92rcd13ifvqhcg","pricing_plan_id":"cebpf4jnsgd1na2vs0mg"},{"bike_id":"9eaf0306-21b2-4866-bdb2-ecedb542506d","system_id":"levelo_inurba_marseille","lat":43.295281,"lon":5.385425,"is_reserved":false,"is_disabled":false,"rental_uris":{"android":"levelo://app?vid=9eaf0306-21b2-4866-bdb2-ecedb542506d","ios":"levelo://app?vid=9eaf0306-21b2-4866-bdb2-ecedb542506d"},"vehicle_type_id":"4","last_reported":1769797672,"current_range_meters":6800,"station_id":"ce4bgih2rcd13ifvqba0","pricing_plan_id":"cebpf4jnsgd1na2vs0mg"},{"bike_id":"8b03cb7d-1de6-4845-89c8-ef7b8942b746","system_id":"levelo_inurba_marseille","lat":43.28004,"lon":5.39994,"is_reserved":false,"is_disabled":false,"rental_uris":{"android":"levelo://app?vid=8b03cb7d-1de6-4845-89c8-ef7b8942b746","ios":"levelo://app?vid=8b03cb7d-1de6-4845-89c8-ef7b8942b746"},"vehicle_type_id":"4","last_reported":1769797672,"current_range_meters":6800,"station_id":"ce4bho92rcd13ifvqh4g","pricing_plan_id":"cebpf4jnsgd1na2vs0mg"},{"bike_id":"fc74d416-58fd-40e8-83da-909822985a20","system_id":"levelo_inurba_marseille","lat":43.30347,"lon":5.41874,"is_reserved":false,"is_disabled":false,"rental_uris":{"android":"levelo://app?vid=fc74d416-58fd-40e8-83da-909822985a20","ios":"levelo://app?vid=fc74d416-58fd-40e8-83da-909822985a20"},"vehicle_type_id":"4","last_reported":1769797672,"current_range_meters":6800,"station_id":"ce4bhop2rcd13ifvqh7g","pricing_plan_id":"cebpf4jnsgd1na2vs0mg"},{"bike_id":"e902ef9f-7cd4-4fe6-a82c-948b6d2fcf15","system_id":"levelo_inurba_marseille","lat":43.29912,"lon":5.43638,"is_reserved":false,"is_disabled":false,"rental_uris":{"android":"levelo://app?vid=e902ef9f-7cd4-4fe6-a82c-948b6d2fcf15","ios":"levelo://app?vid=e902ef9f-7cd4-4fe6-a82c-948b6d2fcf15"},"vehicle_type_id":"4","last_reported":1769797672,"current_range_meters":6800,"station_id":"ce4bhpp2rcd13ifvqhfg","pricing_plan_id":"cebpf4jnsgd1na2vs0mg"},{"bike_id":"04a462fc-1324-4a67-8042-7496053be6ae","system_id":"levelo_inurba_marseille","lat":43.26789,"lon":5.3942,"is_reserved":false,"is_disabled":false,"rental_uris":{"android":"levelo://app?vid=04a462fc-1324-4a67-8042-7496053be6ae","ios":"levelo://app?vid=04a462fc-1324-4a67-8042-7496053be6ae"},"vehicle_type_id":"4","last_reported":1769797672,"current_range_meters":6800,"station_id":"ce4bhh12rcd13ifvqfg0","pricing_plan_id":"cebpf4jnsgd1na2vs0mg"},{"bike_id":"5f8af22f-9203-4ec9-816f-1618d1060df6","system_id":"levelo_inurba_marseille","lat":43.32491,"lon":5.3831,"is_reserved":false,"is_disabled":false,"rental_uris":{"android":"levelo://app?vid=5f8af22f-9203-4ec9-816f-1618d1060df6","ios":"levelo://app?vid=5f8af22f-9203-4ec9-816f-1618d1060df6"},"vehicle_type_id":"4","last_reported":1769797672,"current_range_meters":6800,"station_id":"st_d4asgbiv49dc73anf9m0","pricing_plan_id":"cebpf4jnsgd1na2vs0mg"},{"bike_id":"1d321438-398a-4c27-a731-4b493b3f1405","system_id":"levelo_inurba_marseille","lat":43.28605,"lon":5.35145,"is_reserved":false,"is_disabled":false,"rental_uris":{"android":"levelo://app?vid=1d321438-398a-4c27-a731-4b493b3f1405","ios":"levelo://app?vid=1d321438-398a-4c27-a731-4b493b3f1405"},"vehicle_type_id":"4","last_reported":1769797672,"current_range_meters":6800,"station_id":"ce4bhch2rcd13ifvqeug","pricing_plan_id":"cebpf4jnsgd1na2vs0mg"},{"bike_id":"ad150f2a-29f5-456b-94c0-795879e342bd","system_id":"levelo_inurba_marseille","lat":43.32108,"lon":5.36785,"is_reserved":false,"is_disabled":false,"rental_uris":{"android":"levelo://app?vid=ad150f2a-29f5-456b-94c0-795879e342bd","ios":"levelo://app?vid=ad150f2a-29f5-456b-94c0-795879e342bd"},"vehicle_type_id":"4","last_reported":1769797672,"current_range_meters":6800,"station_id":"ce4bhrh2rcd13ifvqhug","pricing_plan_id":"cebpf4jnsgd1na2vs0mg"},{"bike_id":"4ed8b7c4-4959-4a76-8810-ca1bf04888b4","system_id":"levelo_inurba_marseille","lat":43.24469,"lon":5.42534,"is_reserved":false,"is_disabled":false,"rental_uris":{"android":"levelo://app?vid=4ed8b7c4-4959-4a76-8810-ca1bf04888b4","ios":"levelo://app?vid=4ed8b7c4-4959-4a76-8810-ca1bf04888b4"},"vehicle_type_id":"4","last_reported":1769797672,"current_range_meters":6800,"station_id":"st_d4a3vfp97mjs738cd8kg","pricing_plan_id":"cebpf4jnsgd1na2vs0mg"},{"bike_id":"339040ef-38c7-4f49-946c-88b541b3e175","system_id":"levelo_inurba_marseille","lat":43.2861,"lon":5.35127,"is_reserved":false,"is_disabled":false,"rental_uris":{"android":"levelo://app?vid=339040ef-38c7-4f49-946c-88b541b3e175","ios":"levelo://app?vid=339040ef-38c7-4f49-946c-88b541b3e175"},"vehicle_type_id":"4","last_reported":1769797672,"current_range_meters":6800,"station_id":"ce4bhch2rcd13ifvqeug","pricing_plan_id":"cebpf4jnsgd1na2vs0mg"},{"bike_id":"f56ee39d-a6b7-4a7e-89de-b9d7f0478322","system_id":"levelo_inurba_marseille","lat":43.32347,"lon":5.36747,"is_reserved":false,"is_disabled":false,"rental_uris":{"android":"levelo://app?vid=f56ee39d-a6b7-4a7e-89de-b9d7f0478322","ios":"levelo://app?vid=f56ee39d-a6b7-4a7e-89de-b9d7f0478322"},"vehicle_type_id":"4","last_reported":1769797672,"current_range_meters":6800,"station_id":"ce4bhsh2rcd13ifvqi2g","pricing_plan_id":"cebpf4jnsgd1na2vs0mg"},{"bike_id":"ec47994c-5e8f-4649-a18e-36c7d9eaf891","system_id":"levelo_inurba_marseille","lat":43.28674,"lon":5.38673,"is_reserved":false,"is_disabled":false,"rental_uris":{"android":"levelo://app?vid=ec47994c-5e8f-4649-a18e-36c7d9eaf891","ios":"levelo://app?vid=ec47994c-5e8f-4649-a18e-36c7d9eaf891"},"vehicle_type_id":"4","last_reported":1769797672,"current_range_meters":6800,"station_id":"ce4bh492rcd13ifvqdug","pricing_plan_id":"cebpf4jnsgd1na2vs0mg"},{"bike_id":"e2701745-5106-4d39-a3d2-5f47763fb929","system_id":"levelo_inurba_marseille","lat":43.24638,"lon":5.43143,"is_reserved":false,"is_disabled":false,"rental_uris":{"android":"levelo://app?vid=e2701745-5106-4d39-a3d2-5f47763fb929","ios":"levelo://app?vid=e2701745-5106-4d39-a3d2-5f47763fb929"},"vehicle_type_id":"4","last_reported":1769797672,"current_range_meters":6800,"station_id":"st_d2m6c4gdas8pm72e190g","pricing_plan_id":"cebpf4jnsgd1na2vs0mg"},{"bike_id":"712581c3-e847-4296-bda8-0ebea57b0fc2","system_id":"levelo_inurba_marseille","lat":43.28465,"lon":5.35891,"is_reserved":false,"is_disabled":false,"rental_uris":{"android":"levelo://app?vid=712581c3-e847-4296-bda8-0ebea57b0fc2","ios":"levelo://app?vid=712581c3-e847-4296-bda8-0ebea57b0fc2"},"vehicle_type_id":"4","last_reported":1769797672,"current_range_meters":6800,"station_id":"ce4bhah2rcd13ifvqei0","pricing_plan_id":"cebpf4jnsgd1na2vs0mg"},{"bike_id":"8244ccc0-ae97-4bc4-ab2e-d84ed0553ef8","system_id":"levelo_inurba_marseille","lat":43.2756,"lon":5.38394,"is_reserved":false,"is_disabled":false,"rental_uris":{"android":"levelo://app?vid=8244ccc0-ae97-4bc4-ab2e-d84ed0553ef8","ios":"levelo://app?vid=8244ccc0-ae97-4bc4-ab2e-d84ed0553ef8"},"vehicle_type_id":"4","last_reported":1769797672,"current_range_meters":6800,"station_id":"ce4bhh92rcd13ifvqfi0","pricing_plan_id":"cebpf4jnsgd1na2vs0mg"},{"bike_id":"c15bf6ee-369d-4dc7-89fc-91442ce5cab3","system_id":"levelo_inurba_marseille","lat":43.29904,"lon":5.43649,"is_reserved":false,"is_disabled":false,"rental_uris":{"android":"levelo://app?vid=c15bf6ee-369d-4dc7-89fc-91442ce5cab3","ios":"levelo://app?vid=c15bf6ee-369d-4dc7-89fc-91442ce5cab3"},"vehicle_type_id":"4","last_reported":1769797672,"current_range_meters":6800,"station_id":"ce4bhpp2rcd13ifvqhfg","pricing_plan_id":"cebpf4jnsgd1na2vs0mg"},{"bike_id":"592e1061-3bd0-4d15-97d1-1aca9a59771b","system_id":"levelo_inurba_marseille","lat":43.28864,"lon":5.42514,"is_reserved":false,"is_disabled":false,"rental_uris":{"android":"levelo://app?vid=592e1061-3bd0-4d15-97d1-1aca9a59771b","ios":"levelo://app?vid=592e1061-3bd0-4d15-97d1-1aca9a59771b"},"vehicle_type_id":"4","last_reported":1769797672,"current_range_meters":6800,"station_id":"st_d3b462108ojc7389ooeg","pricing_plan_id":"cebpf4jnsgd1na2vs0mg"},{"bike_id":"0d056f6d-cbf4-4be6-a8d0-d4113862156e","system_id":"levelo_inurba_marseille","lat":43.30299,"lon":5.39207,"is_reserved":false,"is_disabled":false,"rental_uris":{"android":"levelo://app?vid=0d056f6d-cbf4-4be6-a8d0-d4113862156e","ios":"levelo://app?vid=0d056f6d-cbf4-4be6-a8d0-d4113862156e"},"vehicle_type_id":"4","last_reported":1769797672,"current_range_meters":6800,"station_id":"ce4bgkh2rcd13ifvqbk0","pricing_plan_id":"cebpf4jnsgd1na2vs0mg"},{"bike_id":"b589a911-c752-40e2-a671-addd4ec13243","system_id":"levelo_inurba_marseille","lat":43.29075,"lon":5.37169,"is_reserved":false,"is_disabled":false,"rental_uris":{"android":"levelo://app?vid=b589a911-c752-40e2-a671-addd4ec13243","ios":"levelo://app?vid=b589a911-c752-40e2-a671-addd4ec13243"},"vehicle_type_id":"4","last_reported":1769797672,"current_range_meters":7200,"station_id":"ce4bh5p2rcd13ifvqe4g","pricing_plan_id":"cebpf4jnsgd1na2vs0mg"},{"bike_id":"e858244c-580e-4a5e-a86b-9fc7e954317c","system_id":"levelo_inurba_marseille","lat":43.31299,"lon":5.37876,"is_reserved":false,"is_disabled":true,"rental_uris":{"android":"levelo://app?vid=e858244c-580e-4a5e-a86b-9fc7e954317c","ios":"levelo://app?vid=e858244c-580e-4a5e-a86b-9fc7e954317c"},"vehicle_type_id":"4","last_reported":1769797672,"current_range_meters":7200,"station_id":"","pricing_plan_id":"cebpf4jnsgd1na2vs0mg"},{"bike_id":"453583ce-a44f-4913-831b-9b72ede325b7","system_id":"levelo_inurba_marseille","lat":43.29251,"lon":5.40902,"is_reserved":false,"is_disabled":false,"rental_uris":{"android":"levelo://app?vid=453583ce-a44f-4913-831b-9b72ede325b7","ios":"levelo://app?vid=453583ce-a44f-4913-831b-9b72ede325b7"},"vehicle_type_id":"4","last_reported":1769797672,"current_range_meters":7200,"station_id":"ce4bh192rcd13ifvqdc0","pricing_plan_id":"cebpf4jnsgd1na2vs0mg"},{"bike_id":"bf50180b-8060-4d90-8140-c69d9f9e75b4","system_id":"levelo_inurba_marseille","lat":43.29201,"lon":5.39317,"is_reserved":false,"is_disabled":false,"rental_uris":{"android":"levelo://app?vid=bf50180b-8060-4d90-8140-c69d9f9e75b4","ios":"levelo://app?vid=bf50180b-8060-4d90-8140-c69d9f9e75b4"},"vehicle_type_id":"4","last_reported":1769797672,"current_range_meters":7200,"station_id":"ce4bh192rcd13ifvqdd0","pricing_plan_id":"cebpf4jnsgd1na2vs0mg"},{"bike_id":"21335747-3add-49bb-95b9-081d777d30db","system_id":"levelo_inurba_marseille","lat":43.23177,"lon":5.4,"is_reserved":false,"is_disabled":false,"rental_uris":{"android":"levelo://app?vid=21335747-3add-49bb-95b9-081d777d30db","ios":"levelo://app?vid=21335747-3add-49bb-95b9-081d777d30db"},"vehicle_type_id":"4","last_reported":1769797672,"current_range_meters":7200,"station_id":"ce4bhn12rcd13ifvqgqg","pricing_plan_id":"cebpf4jnsgd1na2vs0mg"},{"bike_id":"29e4ce79-df32-4a16-836e-cd957aa9a131","system_id":"levelo_inurba_marseille","lat":43.24632,"lon":5.43146,"is_reserved":false,"is_disabled":false,"rental_uris":{"android":"levelo://app?vid=29e4ce79-df32-4a16-836e-cd957aa9a131","ios":"levelo://app?vid=29e4ce79-df32-4a16-836e-cd957aa9a131"},"vehicle_type_id":"4","last_reported":1769797672,"current_range_meters":7200,"station_id":"st_d2m6c4gdas8pm72e190g","pricing_plan_id":"cebpf4jnsgd1na2vs0mg"},{"bike_id":"0e79c48d-cdc7-44eb-ad7d-d24757dd50e7","system_id":"levelo_inurba_marseille","lat":43.32327,"lon":5.36785,"is_reserved":false,"is_disabled":false,"rental_uris":{"android":"levelo://app?vid=0e79c48d-cdc7-44eb-ad7d-d24757dd50e7","ios":"levelo://app?vid=0e79c48d-cdc7-44eb-ad7d-d24757dd50e7"},"vehicle_type_id":"4","last_reported":1769797672,"current_range_meters":7200,"station_id":"ce4bhsh2rcd13ifvqi2g","pricing_plan_id":"cebpf4jnsgd1na2vs0mg"},{"bike_id":"ca2c8296-777f-4e50-b78a-4389e6df49a8","system_id":"levelo_inurba_marseille","lat":43.29335,"lon":5.37439,"is_reserved":false,"is_disabled":false,"rental_uris":{"android":"levelo://app?vid=ca2c8296-777f-4e50-b78a-4389e6df49a8","ios":"levelo://app?vid=ca2c8296-777f-4e50-b78a-4389e6df49a8"},"vehicle_type_id":"4","last_reported":1769797672,"current_range_meters":7200,"station_id":"ce4bgi12rcd13ifvqb70","pricing_plan_id":"cebpf4jnsgd1na2vs0mg"},{"bike_id":"be59a1fa-fcbd-4f35-ac1f-ae4c97b5126c","system_id":"levelo_inurba_marseille","lat":43.21736,"lon":5.34615,"is_reserved":false,"is_disabled":false,"rental_uris":{"android":"levelo://app?vid=be59a1fa-fcbd-4f35-ac1f-ae4c97b5126c","ios":"levelo://app?vid=be59a1fa-fcbd-4f35-ac1f-ae4c97b5126c"},"vehicle_type_id":"4","last_reported":1769797672,"current_range_meters":7200,"station_id":"st_cvj6r9ubvosntc0bgbag","pricing_plan_id":"cebpf4jnsgd1na2vs0mg"},{"bike_id":"c710c196-2b3d-4517-8d92-fc77ee71bd9b","system_id":"levelo_inurba_marseille","lat":43.25328,"lon":5.42168,"is_reserved":false,"is_disabled":false,"rental_uris":{"android":"levelo://app?vid=c710c196-2b3d-4517-8d92-fc77ee71bd9b","ios":"levelo://app?vid=c710c196-2b3d-4517-8d92-fc77ee71bd9b"},"vehicle_type_id":"4","last_reported":1769797672,"current_range_meters":7200,"station_id":"st_d2m65c5bi1j21697t3ng","pricing_plan_id":"cebpf4jnsgd1na2vs0mg"},{"bike_id":"786b3866-fceb-4656-a864-e739f5e6b692","system_id":"levelo_inurba_marseille","lat":43.23219,"lon":5.39907,"is_reserved":false,"is_disabled":false,"rental_uris":{"android":"levelo://app?vid=786b3866-fceb-4656-a864-e739f5e6b692","ios":"levelo://app?vid=786b3866-fceb-4656-a864-e739f5e6b692"},"vehicle_type_id":"4","last_reported":1769797672,"current_range_meters":7200,"station_id":"","pricing_plan_id":"cebpf4jnsgd1na2vs0mg"},{"bike_id":"93b44eef-b245-49b5-9700-ec5e891cd774","system_id":"levelo_inurba_marseille","lat":43.24811,"lon":5.37448,"is_reserved":false,"is_disabled":false,"rental_uris":{"android":"levelo://app?vid=93b44eef-b245-49b5-9700-ec5e891cd774","ios":"levelo://app?vid=93b44eef-b245-49b5-9700-ec5e891cd774"},"vehicle_type_id":"4","last_reported":1769797672,"current_range_meters":7200,"station_id":"ce4bhgh2rcd13ifvqfb0","pricing_plan_id":"cebpf4jnsgd1na2vs0mg"},{"bike_id":"8e17889e-cea1-4c18-9b91-612a0ce4abcb","system_id":"levelo_inurba_marseille","lat":43.30892,"lon":5.37178,"is_reserved":false,"is_disabled":false,"rental_uris":{"android":"levelo://app?vid=8e17889e-cea1-4c18-9b91-612a0ce4abcb","ios":"levelo://app?vid=8e17889e-cea1-4c18-9b91-612a0ce4abcb"},"vehicle_type_id":"4","last_reported":1769797672,"current_range_meters":7200,"station_id":"ce4bguh2rcd13ifvqckg","pricing_plan_id":"cebpf4jnsgd1na2vs0mg"},{"bike_id":"87bbb8cb-19a1-48e9-aaf3-36c85975a6a5","system_id":"levelo_inurba_marseille","lat":43.28702,"lon":5.37387,"is_reserved":false,"is_disabled":false,"rental_uris":{"android":"levelo://app?vid=87bbb8cb-19a1-48e9-aaf3-36c85975a6a5","ios":"levelo://app?vid=87bbb8cb-19a1-48e9-aaf3-36c85975a6a5"},"vehicle_type_id":"4","last_reported":1769797672,"current_range_meters":7200,"station_id":"ce4bh3p2rcd13ifvqdq0","pricing_plan_id":"cebpf4jnsgd1na2vs0mg"},{"bike_id":"9f8aa463-16dd-4142-a32f-a202eab2030e","system_id":"levelo_inurba_marseille","lat":43.28035,"lon":5.36938,"is_reserved":false,"is_disabled":false,"rental_uris":{"android":"levelo://app?vid=9f8aa463-16dd-4142-a32f-a202eab2030e","ios":"levelo://app?vid=9f8aa463-16dd-4142-a32f-a202eab2030e"},"vehicle_type_id":"4","last_reported":1769797672,"current_range_meters":7200,"station_id":"ce4bha12rcd13ifvqef0","pricing_plan_id":"cebpf4jnsgd1na2vs0mg"},{"bike_id":"65b759d9-e66a-4cc0-915d-2e8ad0441e0c","system_id":"levelo_inurba_marseille","lat":43.31162,"lon":5.38658,"is_reserved":false,"is_disabled":false,"rental_uris":{"android":"levelo://app?vid=65b759d9-e66a-4cc0-915d-2e8ad0441e0c","ios":"levelo://app?vid=65b759d9-e66a-4cc0-915d-2e8ad0441e0c"},"vehicle_type_id":"4","last_reported":1769797672,"current_range_meters":7200,"station_id":"","pricing_plan_id":"cebpf4jnsgd1na2vs0mg"},{"bike_id":"70a13cc3-ad36-4953-ae52-4b4157055482","system_id":"levelo_inurba_marseille","lat":43.29528,"lon":5.38543,"is_reserved":false,"is_disabled":false,"rental_uris":{"android":"levelo://app?vid=70a13cc3-ad36-4953-ae52-4b4157055482","ios":"levelo://app?vid=70a13cc3-ad36-4953-ae52-4b4157055482"},"vehicle_type_id":"4","last_reported":1769797672,"current_range_meters":7200,"station_id":"ce4bgih2rcd13ifvqba0","pricing_plan_id":"cebpf4jnsgd1na2vs0mg"},{"bike_id":"b3808154-86af-47d0-966c-f1cc0984587d","system_id":"levelo_inurba_marseille","lat":43.337621,"lon":5.37478,"is_reserved":false,"is_disabled":false,"rental_uris":{"android":"levelo://app?vid=b3808154-86af-47d0-966c-f1cc0984587d","ios":"levelo://app?vid=b3808154-86af-47d0-966c-f1cc0984587d"},"vehicle_type_id":"4","last_reported":1769797672,"current_range_meters":7200,"station_id":"","pricing_plan_id":"cebpf4jnsgd1na2vs0mg"},{"bike_id":"01fe0d7b-7e8a-4cb4-9515-bf6d9c665797","system_id":"levelo_inurba_marseille","lat":43.31066,"lon":5.38352,"is_reserved":false,"is_disabled":false,"rental_uris":{"android":"levelo://app?vid=01fe0d7b-7e8a-4cb4-9515-bf6d9c665797","ios":"levelo://app?vid=01fe0d7b-7e8a-4cb4-9515-bf6d9c665797"},"vehicle_type_id":"4","last_reported":1769797672,"current_range_meters":8000,"station_id":"ce4bgv92rcd13ifvqcr0","pricing_plan_id":"cebpf4jnsgd1na2vs0mg"},{"bike_id":"c2029e8e-62e9-40bd-90c8-2d85b607b409","system_id":"levelo_inurba_marseille","lat":43.297608,"lon":5.427768,"is_reserved":false,"is_disabled":false,"rental_uris":{"android":"levelo://app?vid=c2029e8e-62e9-40bd-90c8-2d85b607b409","ios":"levelo://app?vid=c2029e8e-62e9-40bd-90c8-2d85b607b409"},"vehicle_type_id":"4","last_reported":1769797672,"current_range_meters":8000,"station_id":"st_d3md5207bmas73dh9klg","pricing_plan_id":"cebpf4jnsgd1na2vs0mg"},{"bike_id":"7212c134-0bb1-4307-8053-dc66b6b70a1e","system_id":"levelo_inurba_marseille","lat":43.29755,"lon":5.42772,"is_reserved":false,"is_disabled":false,"rental_uris":{"android":"levelo://app?vid=7212c134-0bb1-4307-8053-dc66b6b70a1e","ios":"levelo://app?vid=7212c134-0bb1-4307-8053-dc66b6b70a1e"},"vehicle_type_id":"4","last_reported":1769797672,"current_range_meters":8000,"station_id":"st_d3md5207bmas73dh9klg","pricing_plan_id":"cebpf4jnsgd1na2vs0mg"},{"bike_id":"7633f1d5-9b9f-4ced-a169-2e5f06b349d3","system_id":"levelo_inurba_marseille","lat":43.30311,"lon":5.39203,"is_reserved":false,"is_disabled":false,"rental_uris":{"android":"levelo://app?vid=7633f1d5-9b9f-4ced-a169-2e5f06b349d3","ios":"levelo://app?vid=7633f1d5-9b9f-4ced-a169-2e5f06b349d3"},"vehicle_type_id":"4","last_reported":1769797672,"current_range_meters":8000,"station_id":"ce4bgkh2rcd13ifvqbk0","pricing_plan_id":"cebpf4jnsgd1na2vs0mg"},{"bike_id":"cfe73c76-3bff-481c-a5ea-9a7beba7d096","system_id":"levelo_inurba_marseille","lat":43.29764,"lon":5.42777,"is_reserved":false,"is_disabled":false,"rental_uris":{"android":"levelo://app?vid=cfe73c76-3bff-481c-a5ea-9a7beba7d096","ios":"levelo://app?vid=cfe73c76-3bff-481c-a5ea-9a7beba7d096"},"vehicle_type_id":"4","last_reported":1769797672,"current_range_meters":8000,"station_id":"st_d3md5207bmas73dh9klg","pricing_plan_id":"cebpf4jnsgd1na2vs0mg"},{"bike_id":"a348b41d-ce0f-4115-b2b3-f88fa8dc97dd","system_id":"levelo_inurba_marseille","lat":43.2257,"lon":5.4163,"is_reserved":false,"is_disabled":false,"rental_uris":{"android":"levelo://app?vid=a348b41d-ce0f-4115-b2b3-f88fa8dc97dd","ios":"levelo://app?vid=a348b41d-ce0f-4115-b2b3-f88fa8dc97dd"},"vehicle_type_id":"4","last_reported":1769797672,"current_range_meters":8000,"station_id":"st_d2o4gvlbi1j2169b742g","pricing_plan_id":"cebpf4jnsgd1na2vs0mg"},{"bike_id":"ff3a2071-1488-436b-90c7-1f4e0a3ac416","system_id":"levelo_inurba_marseille","lat":43.29846,"lon":5.36269,"is_reserved":false,"is_disabled":false,"rental_uris":{"android":"levelo://app?vid=ff3a2071-1488-436b-90c7-1f4e0a3ac416","ios":"levelo://app?vid=ff3a2071-1488-436b-90c7-1f4e0a3ac416"},"vehicle_type_id":"4","last_reported":1769797672,"current_range_meters":8000,"station_id":"ce4bgpp2rcd13ifvqc3g","pricing_plan_id":"cebpf4jnsgd1na2vs0mg"},{"bike_id":"36a7df4c-1060-4aff-920b-c99569c178f3","system_id":"levelo_inurba_marseille","lat":43.25499,"lon":5.37636,"is_reserved":false,"is_disabled":false,"rental_uris":{"android":"levelo://app?vid=36a7df4c-1060-4aff-920b-c99569c178f3","ios":"levelo://app?vid=36a7df4c-1060-4aff-920b-c99569c178f3"},"vehicle_type_id":"4","last_reported":1769797672,"current_range_meters":8000,"station_id":"ce4bhh12rcd13ifvqff0","pricing_plan_id":"cebpf4jnsgd1na2vs0mg"},{"bike_id":"8a817f98-b304-4743-a3c3-fef726d1716b","system_id":"levelo_inurba_marseille","lat":43.29072,"lon":5.35866,"is_reserved":false,"is_disabled":false,"rental_uris":{"android":"levelo://app?vid=8a817f98-b304-4743-a3c3-fef726d1716b","ios":"levelo://app?vid=8a817f98-b304-4743-a3c3-fef726d1716b"},"vehicle_type_id":"4","last_reported":1769797672,"current_range_meters":8000,"station_id":"ce4bha92rcd13ifvqeg0","pricing_plan_id":"cebpf4jnsgd1na2vs0mg"},{"bike_id":"6f80a0c7-e6da-4e3f-a33d-84508ae903bc","system_id":"levelo_inurba_marseille","lat":43.24644,"lon":5.43135,"is_reserved":false,"is_disabled":false,"rental_uris":{"android":"levelo://app?vid=6f80a0c7-e6da-4e3f-a33d-84508ae903bc","ios":"levelo://app?vid=6f80a0c7-e6da-4e3f-a33d-84508ae903bc"},"vehicle_type_id":"4","last_reported":1769797672,"current_range_meters":8000,"station_id":"st_d2m6c4gdas8pm72e190g","pricing_plan_id":"cebpf4jnsgd1na2vs0mg"},{"bike_id":"b5d91fc7-30d8-4004-8e14-1ac91b3bffa6","system_id":"levelo_inurba_marseille","lat":43.2447,"lon":5.42554,"is_reserved":false,"is_disabled":false,"rental_uris":{"android":"levelo://app?vid=b5d91fc7-30d8-4004-8e14-1ac91b3bffa6","ios":"levelo://app?vid=b5d91fc7-30d8-4004-8e14-1ac91b3bffa6"},"vehicle_type_id":"4","last_reported":1769797672,"current_range_meters":8000,"station_id":"st_d4a3vfp97mjs738cd8kg","pricing_plan_id":"cebpf4jnsgd1na2vs0mg"},{"bike_id":"f54d91cc-02fb-42c8-8e78-476b293d5e51","system_id":"levelo_inurba_marseille","lat":43.31277,"lon":5.40164,"is_reserved":false,"is_disabled":false,"rental_uris":{"android":"levelo://app?vid=f54d91cc-02fb-42c8-8e78-476b293d5e51","ios":"levelo://app?vid=f54d91cc-02fb-42c8-8e78-476b293d5e51"},"vehicle_type_id":"4","last_reported":1769797672,"current_range_meters":8000,"station_id":"ce4bh092rcd13ifvqd30","pricing_plan_id":"cebpf4jnsgd1na2vs0mg"},{"bike_id":"b1e78ffd-83b0-42c8-9fec-477ac6fbc93c","system_id":"levelo_inurba_marseille","lat":43.29508,"lon":5.43302,"is_reserved":false,"is_disabled":false,"rental_uris":{"android":"levelo://app?vid=b1e78ffd-83b0-42c8-9fec-477ac6fbc93c","ios":"levelo://app?vid=b1e78ffd-83b0-42c8-9fec-477ac6fbc93c"},"vehicle_type_id":"4","last_reported":1769797672,"current_range_meters":8000,"station_id":"st_d3j5ugp08ojc73fj9d10","pricing_plan_id":"cebpf4jnsgd1na2vs0mg"},{"bike_id":"5f389a44-2a1c-4e21-94cd-35067fa54b78","system_id":"levelo_inurba_marseille","lat":43.33539,"lon":5.3746,"is_reserved":false,"is_disabled":false,"rental_uris":{"android":"levelo://app?vid=5f389a44-2a1c-4e21-94cd-35067fa54b78","ios":"levelo://app?vid=5f389a44-2a1c-4e21-94cd-35067fa54b78"},"vehicle_type_id":"4","last_reported":1769797672,"current_range_meters":8000,"station_id":"ce4bgt12rcd13ifvqcd0","pricing_plan_id":"cebpf4jnsgd1na2vs0mg"},{"bike_id":"bdcf5e54-fe53-45d1-a929-86e1c2cc77a3","system_id":"levelo_inurba_marseille","lat":43.2871,"lon":5.37387,"is_reserved":false,"is_disabled":false,"rental_uris":{"android":"levelo://app?vid=bdcf5e54-fe53-45d1-a929-86e1c2cc77a3","ios":"levelo://app?vid=bdcf5e54-fe53-45d1-a929-86e1c2cc77a3"},"vehicle_type_id":"4","last_reported":1769797672,"current_range_meters":8000,"station_id":"ce4bh3p2rcd13ifvqdq0","pricing_plan_id":"cebpf4jnsgd1na2vs0mg"},{"bike_id":"8d274694-ee72-445f-a77c-88f256531e59","system_id":"levelo_inurba_marseille","lat":43.31334,"lon":5.39686,"is_reserved":false,"is_disabled":false,"rental_uris":{"android":"levelo://app?vid=8d274694-ee72-445f-a77c-88f256531e59","ios":"levelo://app?vid=8d274694-ee72-445f-a77c-88f256531e59"},"vehicle_type_id":"4","last_reported":1769797672,"current_range_meters":8000,"station_id":"ce4bgvp2rcd13ifvqcu0","pricing_plan_id":"cebpf4jnsgd1na2vs0mg"},{"bike_id":"724540a8-2b51-4e35-aee1-3980ea59ab98","system_id":"levelo_inurba_marseille","lat":43.2923,"lon":5.36055,"is_reserved":false,"is_disabled":false,"rental_uris":{"android":"levelo://app?vid=724540a8-2b51-4e35-aee1-3980ea59ab98","ios":"levelo://app?vid=724540a8-2b51-4e35-aee1-3980ea59ab98"},"vehicle_type_id":"4","last_reported":1769797672,"current_range_meters":8000,"station_id":"ce4bhbh2rcd13ifvqeqg","pricing_plan_id":"cebpf4jnsgd1na2vs0mg"},{"bike_id":"e64ac1e6-7e83-4455-a8d3-e5b20b052a37","system_id":"levelo_inurba_marseille","lat":43.29308,"lon":5.37175,"is_reserved":false,"is_disabled":false,"rental_uris":{"android":"levelo://app?vid=e64ac1e6-7e83-4455-a8d3-e5b20b052a37","ios":"levelo://app?vid=e64ac1e6-7e83-4455-a8d3-e5b20b052a37"},"vehicle_type_id":"4","last_reported":1769797672,"current_range_meters":8000,"station_id":"ce4bgh92rcd13ifvqb40","pricing_plan_id":"cebpf4jnsgd1na2vs0mg"},{"bike_id":"94842764-1da0-47c3-981d-a8a494b1c082","system_id":"levelo_inurba_marseille","lat":43.2465,"lon":5.38889,"is_reserved":false,"is_disabled":false,"rental_uris":{"android":"levelo://app?vid=94842764-1da0-47c3-981d-a8a494b1c082","ios":"levelo://app?vid=94842764-1da0-47c3-981d-a8a494b1c082"},"vehicle_type_id":"4","last_reported":1769797672,"current_range_meters":8000,"station_id":"ce4bhg12rcd13ifvqf60","pricing_plan_id":"cebpf4jnsgd1na2vs0mg"},{"bike_id":"5919864f-763f-42e9-87c8-471efea96a25","system_id":"levelo_inurba_marseille","lat":43.2783,"lon":5.3921,"is_reserved":false,"is_disabled":false,"rental_uris":{"android":"levelo://app?vid=5919864f-763f-42e9-87c8-471efea96a25","ios":"levelo://app?vid=5919864f-763f-42e9-87c8-471efea96a25"},"vehicle_type_id":"4","last_reported":1769797672,"current_range_meters":8000,"station_id":"ce4bhjp2rcd13ifvqga0","pricing_plan_id":"cebpf4jnsgd1na2vs0mg"},{"bike_id":"d278f49b-79cb-49d4-9147-2a87ca70efd2","system_id":"levelo_inurba_marseille","lat":43.24649,"lon":5.38881,"is_reserved":false,"is_disabled":false,"rental_uris":{"android":"levelo://app?vid=d278f49b-79cb-49d4-9147-2a87ca70efd2","ios":"levelo://app?vid=d278f49b-79cb-49d4-9147-2a87ca70efd2"},"vehicle_type_id":"4","last_reported":1769797672,"current_range_meters":8000,"station_id":"ce4bhg12rcd13ifvqf60","pricing_plan_id":"cebpf4jnsgd1na2vs0mg"},{"bike_id":"c185cf38-df1b-4bb4-86d7-b251a2422e4d","system_id":"levelo_inurba_marseille","lat":43.32113,"lon":5.36797,"is_reserved":false,"is_disabled":false,"rental_uris":{"android":"levelo://app?vid=c185cf38-df1b-4bb4-86d7-b251a2422e4d","ios":"levelo://app?vid=c185cf38-df1b-4bb4-86d7-b251a2422e4d"},"vehicle_type_id":"4","last_reported":1769797672,"current_range_meters":8000,"station_id":"ce4bhrh2rcd13ifvqhug","pricing_plan_id":"cebpf4jnsgd1na2vs0mg"},{"bike_id":"43292815-879e-41c9-a3fd-49193a272645","system_id":"levelo_inurba_marseille","lat":43.28479,"lon":5.38407,"is_reserved":false,"is_disabled":false,"rental_uris":{"android":"levelo://app?vid=43292815-879e-41c9-a3fd-49193a272645","ios":"levelo://app?vid=43292815-879e-41c9-a3fd-49193a272645"},"vehicle_type_id":"4","last_reported":1769797672,"current_range_meters":8000,"station_id":"ce4bh512rcd13ifvqe3g","pricing_plan_id":"cebpf4jnsgd1na2vs0mg"},{"bike_id":"da1ac006-1b1f-4577-bc3c-f768b3515750","system_id":"levelo_inurba_marseille","lat":43.28419,"lon":5.34991,"is_reserved":false,"is_disabled":false,"rental_uris":{"android":"levelo://app?vid=da1ac006-1b1f-4577-bc3c-f768b3515750","ios":"levelo://app?vid=da1ac006-1b1f-4577-bc3c-f768b3515750"},"vehicle_type_id":"4","last_reported":1769797672,"current_range_meters":8000,"station_id":"ce4bhbh2rcd13ifvqepg","pricing_plan_id":"cebpf4jnsgd1na2vs0mg"},{"bike_id":"0b3202df-4d84-4329-af71-b14523edb6da","system_id":"levelo_inurba_marseille","lat":43.29084,"lon":5.37156,"is_reserved":false,"is_disabled":false,"rental_uris":{"android":"levelo://app?vid=0b3202df-4d84-4329-af71-b14523edb6da","ios":"levelo://app?vid=0b3202df-4d84-4329-af71-b14523edb6da"},"vehicle_type_id":"4","last_reported":1769797672,"current_range_meters":8000,"station_id":"ce4bh5p2rcd13ifvqe4g","pricing_plan_id":"cebpf4jnsgd1na2vs0mg"},{"bike_id":"afa087ba-2aaf-49d4-84ec-c61b91ffc4f3","system_id":"levelo_inurba_marseille","lat":43.25516,"lon":5.37655,"is_reserved":false,"is_disabled":false,"rental_uris":{"android":"levelo://app?vid=afa087ba-2aaf-49d4-84ec-c61b91ffc4f3","ios":"levelo://app?vid=afa087ba-2aaf-49d4-84ec-c61b91ffc4f3"},"vehicle_type_id":"4","last_reported":1769797672,"current_range_meters":8000,"station_id":"ce4bhh12rcd13ifvqff0","pricing_plan_id":"cebpf4jnsgd1na2vs0mg"},{"bike_id":"65c2d018-5db4-4b71-9059-ee26b3f148d1","system_id":"levelo_inurba_marseille","lat":43.24169,"lon":5.39715,"is_reserved":false,"is_disabled":false,"rental_uris":{"android":"levelo://app?vid=65c2d018-5db4-4b71-9059-ee26b3f148d1","ios":"levelo://app?vid=65c2d018-5db4-4b71-9059-ee26b3f148d1"},"vehicle_type_id":"4","last_reported":1769797672,"current_range_meters":8000,"station_id":"ce4bhn12rcd13ifvqgpg","pricing_plan_id":"cebpf4jnsgd1na2vs0mg"},{"bike_id":"1e6e9fcd-377f-4a83-a467-d5b81de873c8","system_id":"levelo_inurba_marseille","lat":43.282148,"lon":5.390516,"is_reserved":false,"is_disabled":false,"rental_uris":{"android":"levelo://app?vid=1e6e9fcd-377f-4a83-a467-d5b81de873c8","ios":"levelo://app?vid=1e6e9fcd-377f-4a83-a467-d5b81de873c8"},"vehicle_type_id":"4","last_reported":1769797672,"current_range_meters":8400,"station_id":"ce4bhn92rcd13ifvqgsg","pricing_plan_id":"cebpf4jnsgd1na2vs0mg"},{"bike_id":"d0c5e232-fb80-42d5-bee7-c693e3fe20fa","system_id":"levelo_inurba_marseille","lat":43.2762,"lon":5.36114,"is_reserved":false,"is_disabled":false,"rental_uris":{"android":"levelo://app?vid=d0c5e232-fb80-42d5-bee7-c693e3fe20fa","ios":"levelo://app?vid=d0c5e232-fb80-42d5-bee7-c693e3fe20fa"},"vehicle_type_id":"4","last_reported":1769797672,"current_range_meters":8400,"station_id":"ce4bgj92rcd13ifvqbe0","pricing_plan_id":"cebpf4jnsgd1na2vs0mg"},{"bike_id":"d6c0c260-1d77-47ce-9ca1-2efe8f514e43","system_id":"levelo_inurba_marseille","lat":43.28421,"lon":5.34977,"is_reserved":false,"is_disabled":false,"rental_uris":{"android":"levelo://app?vid=d6c0c260-1d77-47ce-9ca1-2efe8f514e43","ios":"levelo://app?vid=d6c0c260-1d77-47ce-9ca1-2efe8f514e43"},"vehicle_type_id":"4","last_reported":1769797672,"current_range_meters":8400,"station_id":"ce4bhbh2rcd13ifvqepg","pricing_plan_id":"cebpf4jnsgd1na2vs0mg"},{"bike_id":"6beb67bd-ccb8-458e-b1b8-0d493daceb85","system_id":"levelo_inurba_marseille","lat":43.29282,"lon":5.36833,"is_reserved":false,"is_disabled":false,"rental_uris":{"android":"levelo://app?vid=6beb67bd-ccb8-458e-b1b8-0d493daceb85","ios":"levelo://app?vid=6beb67bd-ccb8-458e-b1b8-0d493daceb85"},"vehicle_type_id":"4","last_reported":1769797672,"current_range_meters":8400,"station_id":"ce4bhbp2rcd13ifvqesg","pricing_plan_id":"cebpf4jnsgd1na2vs0mg"},{"bike_id":"da9f4472-0bb8-4458-affe-8b93192b64a6","system_id":"levelo_inurba_marseille","lat":43.23784,"lon":5.36638,"is_reserved":false,"is_disabled":false,"rental_uris":{"android":"levelo://app?vid=da9f4472-0bb8-4458-affe-8b93192b64a6","ios":"levelo://app?vid=da9f4472-0bb8-4458-affe-8b93192b64a6"},"vehicle_type_id":"4","last_reported":1769797672,"current_range_meters":8400,"station_id":"st_d3nk18o9ro0c73en2l3g","pricing_plan_id":"cebpf4jnsgd1na2vs0mg"},{"bike_id":"674d0755-bda6-44bd-8dd4-47ceec1f93de","system_id":"levelo_inurba_marseille","lat":43.2447,"lon":5.42532,"is_reserved":false,"is_disabled":false,"rental_uris":{"android":"levelo://app?vid=674d0755-bda6-44bd-8dd4-47ceec1f93de","ios":"levelo://app?vid=674d0755-bda6-44bd-8dd4-47ceec1f93de"},"vehicle_type_id":"4","last_reported":1769797672,"current_range_meters":8400,"station_id":"st_d4a3vfp97mjs738cd8kg","pricing_plan_id":"cebpf4jnsgd1na2vs0mg"},{"bike_id":"211e9f25-2d90-4b9b-a855-3b41a0e91060","system_id":"levelo_inurba_marseille","lat":43.27902,"lon":5.380154,"is_reserved":false,"is_disabled":false,"rental_uris":{"android":"levelo://app?vid=211e9f25-2d90-4b9b-a855-3b41a0e91060","ios":"levelo://app?vid=211e9f25-2d90-4b9b-a855-3b41a0e91060"},"vehicle_type_id":"4","last_reported":1769797672,"current_range_meters":8400,"station_id":"ce4bhf92rcd13ifvqf50","pricing_plan_id":"cebpf4jnsgd1na2vs0mg"},{"bike_id":"a633dcb8-69cc-416a-ac75-271c195c29ed","system_id":"levelo_inurba_marseille","lat":43.25497,"lon":5.37589,"is_reserved":false,"is_disabled":false,"rental_uris":{"android":"levelo://app?vid=a633dcb8-69cc-416a-ac75-271c195c29ed","ios":"levelo://app?vid=a633dcb8-69cc-416a-ac75-271c195c29ed"},"vehicle_type_id":"4","last_reported":1769797672,"current_range_meters":8400,"station_id":"ce4bhh12rcd13ifvqff0","pricing_plan_id":"cebpf4jnsgd1na2vs0mg"},{"bike_id":"bd8027b0-59d8-4c1f-9cec-f9a23532b5cd","system_id":"levelo_inurba_marseille","lat":43.30887,"lon":5.39639,"is_reserved":false,"is_disabled":false,"rental_uris":{"android":"levelo://app?vid=bd8027b0-59d8-4c1f-9cec-f9a23532b5cd","ios":"levelo://app?vid=bd8027b0-59d8-4c1f-9cec-f9a23532b5cd"},"vehicle_type_id":"4","last_reported":1769797672,"current_range_meters":8400,"station_id":"ce4bh012rcd13ifvqcv0","pricing_plan_id":"cebpf4jnsgd1na2vs0mg"},{"bike_id":"023578c0-e99e-47b6-945b-1dfe081f24eb","system_id":"levelo_inurba_marseille","lat":43.30278,"lon":5.37711,"is_reserved":false,"is_disabled":false,"rental_uris":{"android":"levelo://app?vid=023578c0-e99e-47b6-945b-1dfe081f24eb","ios":"levelo://app?vid=023578c0-e99e-47b6-945b-1dfe081f24eb"},"vehicle_type_id":"4","last_reported":1769797672,"current_range_meters":8400,"station_id":"ce4bguh2rcd13ifvqcj0","pricing_plan_id":"cebpf4jnsgd1na2vs0mg"},{"bike_id":"f7ba70bd-983c-4ad6-a72c-36380a2ff19c","system_id":"levelo_inurba_marseille","lat":43.23186,"lon":5.35537,"is_reserved":false,"is_disabled":false,"rental_uris":{"android":"levelo://app?vid=f7ba70bd-983c-4ad6-a72c-36380a2ff19c","ios":"levelo://app?vid=f7ba70bd-983c-4ad6-a72c-36380a2ff19c"},"vehicle_type_id":"4","last_reported":1769797672,"current_range_meters":8400,"station_id":"ce4bhu92rcd13ifvqi70","pricing_plan_id":"cebpf4jnsgd1na2vs0mg"},{"bike_id":"a2c11608-bcda-4348-a9c5-35a5f39f5244","system_id":"levelo_inurba_marseille","lat":43.29275,"lon":5.38435,"is_reserved":false,"is_disabled":false,"rental_uris":{"android":"levelo://app?vid=a2c11608-bcda-4348-a9c5-35a5f39f5244","ios":"levelo://app?vid=a2c11608-bcda-4348-a9c5-35a5f39f5244"},"vehicle_type_id":"4","last_reported":1769797672,"current_range_meters":8400,"station_id":"ce4bh692rcd13ifvqea0","pricing_plan_id":"cebpf4jnsgd1na2vs0mg"},{"bike_id":"e107e476-b4d6-48e9-aeca-4bfaec635a1e","system_id":"levelo_inurba_marseille","lat":43.30284,"lon":5.37709,"is_reserved":false,"is_disabled":false,"rental_uris":{"android":"levelo://app?vid=e107e476-b4d6-48e9-aeca-4bfaec635a1e","ios":"levelo://app?vid=e107e476-b4d6-48e9-aeca-4bfaec635a1e"},"vehicle_type_id":"4","last_reported":1769797672,"current_range_meters":8400,"station_id":"ce4bguh2rcd13ifvqcj0","pricing_plan_id":"cebpf4jnsgd1na2vs0mg"},{"bike_id":"4fed57e8-7b51-4b34-b0c6-dbd76f2bd0f8","system_id":"levelo_inurba_marseille","lat":43.27948,"lon":5.41046,"is_reserved":false,"is_disabled":false,"rental_uris":{"android":"levelo://app?vid=4fed57e8-7b51-4b34-b0c6-dbd76f2bd0f8","ios":"levelo://app?vid=4fed57e8-7b51-4b34-b0c6-dbd76f2bd0f8"},"vehicle_type_id":"4","last_reported":1769797672,"current_range_meters":8400,"station_id":"ce4bhnp2rcd13ifvqh0g","pricing_plan_id":"cebpf4jnsgd1na2vs0mg"},{"bike_id":"169e268b-5fcc-439a-85a8-5d0f835d65db","system_id":"levelo_inurba_marseille","lat":43.25495,"lon":5.376449,"is_reserved":false,"is_disabled":false,"rental_uris":{"android":"levelo://app?vid=169e268b-5fcc-439a-85a8-5d0f835d65db","ios":"levelo://app?vid=169e268b-5fcc-439a-85a8-5d0f835d65db"},"vehicle_type_id":"4","last_reported":1769797672,"current_range_meters":8800,"station_id":"ce4bhh12rcd13ifvqff0","pricing_plan_id":"cebpf4jnsgd1na2vs0mg"},{"bike_id":"6ec5aba6-c47f-45ab-9ee2-aa876a079b5d","system_id":"levelo_inurba_marseille","lat":43.28037,"lon":5.36941,"is_reserved":false,"is_disabled":false,"rental_uris":{"android":"levelo://app?vid=6ec5aba6-c47f-45ab-9ee2-aa876a079b5d","ios":"levelo://app?vid=6ec5aba6-c47f-45ab-9ee2-aa876a079b5d"},"vehicle_type_id":"4","last_reported":1769797672,"current_range_meters":8800,"station_id":"ce4bha12rcd13ifvqef0","pricing_plan_id":"cebpf4jnsgd1na2vs0mg"},{"bike_id":"67dde3a5-6719-400f-9754-ba07b063d126","system_id":"levelo_inurba_marseille","lat":43.22552,"lon":5.4163,"is_reserved":false,"is_disabled":false,"rental_uris":{"android":"levelo://app?vid=67dde3a5-6719-400f-9754-ba07b063d126","ios":"levelo://app?vid=67dde3a5-6719-400f-9754-ba07b063d126"},"vehicle_type_id":"4","last_reported":1769797672,"current_range_meters":8800,"station_id":"st_d2o4gvlbi1j2169b742g","pricing_plan_id":"cebpf4jnsgd1na2vs0mg"},{"bike_id":"b6c8c577-9513-4199-8339-eb3bd4f24ea0","system_id":"levelo_inurba_marseille","lat":43.23198,"lon":5.35541,"is_reserved":false,"is_disabled":false,"rental_uris":{"android":"levelo://app?vid=b6c8c577-9513-4199-8339-eb3bd4f24ea0","ios":"levelo://app?vid=b6c8c577-9513-4199-8339-eb3bd4f24ea0"},"vehicle_type_id":"4","last_reported":1769797672,"current_range_meters":8800,"station_id":"ce4bhu92rcd13ifvqi70","pricing_plan_id":"cebpf4jnsgd1na2vs0mg"},{"bike_id":"b8538ea1-5c66-4a72-881d-32abab5c79f9","system_id":"levelo_inurba_marseille","lat":43.24184,"lon":5.39717,"is_reserved":false,"is_disabled":false,"rental_uris":{"android":"levelo://app?vid=b8538ea1-5c66-4a72-881d-32abab5c79f9","ios":"levelo://app?vid=b8538ea1-5c66-4a72-881d-32abab5c79f9"},"vehicle_type_id":"4","last_reported":1769797672,"current_range_meters":8800,"station_id":"ce4bhn12rcd13ifvqgpg","pricing_plan_id":"cebpf4jnsgd1na2vs0mg"},{"bike_id":"b6bb507a-35ba-4aad-bf8d-d9ba28e136e6","system_id":"levelo_inurba_marseille","lat":43.28288,"lon":5.35071,"is_reserved":false,"is_disabled":false,"rental_uris":{"android":"levelo://app?vid=b6bb507a-35ba-4aad-bf8d-d9ba28e136e6","ios":"levelo://app?vid=b6bb507a-35ba-4aad-bf8d-d9ba28e136e6"},"vehicle_type_id":"4","last_reported":1769797672,"current_range_meters":8800,"station_id":"ce4bhbp2rcd13ifvqerg","pricing_plan_id":"cebpf4jnsgd1na2vs0mg"},{"bike_id":"229cd516-4771-4c0d-9ea8-2b95e2d4e103","system_id":"levelo_inurba_marseille","lat":43.28714,"lon":5.37377,"is_reserved":false,"is_disabled":false,"rental_uris":{"android":"levelo://app?vid=229cd516-4771-4c0d-9ea8-2b95e2d4e103","ios":"levelo://app?vid=229cd516-4771-4c0d-9ea8-2b95e2d4e103"},"vehicle_type_id":"4","last_reported":1769797672,"current_range_meters":8800,"station_id":"ce4bh3p2rcd13ifvqdq0","pricing_plan_id":"cebpf4jnsgd1na2vs0mg"},{"bike_id":"18bb4ec7-9939-4753-b9b4-9ef3164bd31b","system_id":"levelo_inurba_marseille","lat":43.275573,"lon":5.384169,"is_reserved":false,"is_disabled":false,"rental_uris":{"android":"levelo://app?vid=18bb4ec7-9939-4753-b9b4-9ef3164bd31b","ios":"levelo://app?vid=18bb4ec7-9939-4753-b9b4-9ef3164bd31b"},"vehicle_type_id":"4","last_reported":1769797672,"current_range_meters":8800,"station_id":"ce4bhh92rcd13ifvqfi0","pricing_plan_id":"cebpf4jnsgd1na2vs0mg"},{"bike_id":"3204c5b6-1dfb-4cc3-a887-23e54972fa05","system_id":"levelo_inurba_marseille","lat":43.29175,"lon":5.37224,"is_reserved":false,"is_disabled":false,"rental_uris":{"android":"levelo://app?vid=3204c5b6-1dfb-4cc3-a887-23e54972fa05","ios":"levelo://app?vid=3204c5b6-1dfb-4cc3-a887-23e54972fa05"},"vehicle_type_id":"4","last_reported":1769797672,"current_range_meters":8800,"station_id":"","pricing_plan_id":"cebpf4jnsgd1na2vs0mg"},{"bike_id":"d24e91b0-a758-4a56-ab72-40a3672561b0","system_id":"levelo_inurba_marseille","lat":43.23782,"lon":5.36633,"is_reserved":false,"is_disabled":false,"rental_uris":{"android":"levelo://app?vid=d24e91b0-a758-4a56-ab72-40a3672561b0","ios":"levelo://app?vid=d24e91b0-a758-4a56-ab72-40a3672561b0"},"vehicle_type_id":"4","last_reported":1769797672,"current_range_meters":8800,"station_id":"st_d3nk18o9ro0c73en2l3g","pricing_plan_id":"cebpf4jnsgd1na2vs0mg"},{"bike_id":"0bb81fd5-a597-41a1-8e61-93eab6748311","system_id":"levelo_inurba_marseille","lat":43.273075,"lon":5.407103,"is_reserved":false,"is_disabled":false,"rental_uris":{"android":"levelo://app?vid=0bb81fd5-a597-41a1-8e61-93eab6748311","ios":"levelo://app?vid=0bb81fd5-a597-41a1-8e61-93eab6748311"},"vehicle_type_id":"4","last_reported":1769797672,"current_range_meters":8800,"station_id":"","pricing_plan_id":"cebpf4jnsgd1na2vs0mg"},{"bike_id":"eb04defa-9c2c-4a46-a4da-2174d6dcd3f8","system_id":"levelo_inurba_marseille","lat":43.28476,"lon":5.4839,"is_reserved":false,"is_disabled":false,"rental_uris":{"android":"levelo://app?vid=eb04defa-9c2c-4a46-a4da-2174d6dcd3f8","ios":"levelo://app?vid=eb04defa-9c2c-4a46-a4da-2174d6dcd3f8"},"vehicle_type_id":"4","last_reported":1769797672,"current_range_meters":8800,"station_id":"","pricing_plan_id":"cebpf4jnsgd1na2vs0mg"},{"bike_id":"74bebc7d-9331-45a4-ae4c-8e5bb0e765ab","system_id":"levelo_inurba_marseille","lat":43.30568,"lon":5.39923,"is_reserved":false,"is_disabled":false,"rental_uris":{"android":"levelo://app?vid=74bebc7d-9331-45a4-ae4c-8e5bb0e765ab","ios":"levelo://app?vid=74bebc7d-9331-45a4-ae4c-8e5bb0e765ab"},"vehicle_type_id":"4","last_reported":1769797672,"current_range_meters":8800,"station_id":"","pricing_plan_id":"cebpf4jnsgd1na2vs0mg"},{"bike_id":"facf5c8d-7adf-4b26-81c3-f2dd54937001","system_id":"levelo_inurba_marseille","lat":43.22535,"lon":5.3483,"is_reserved":false,"is_disabled":false,"rental_uris":{"android":"levelo://app?vid=facf5c8d-7adf-4b26-81c3-f2dd54937001","ios":"levelo://app?vid=facf5c8d-7adf-4b26-81c3-f2dd54937001"},"vehicle_type_id":"4","last_reported":1769797672,"current_range_meters":8800,"station_id":"","pricing_plan_id":"cebpf4jnsgd1na2vs0mg"},{"bike_id":"8eeb4da1-5ffe-42ca-ae24-0fc13dd0c38e","system_id":"levelo_inurba_marseille","lat":43.29145,"lon":5.37433,"is_reserved":false,"is_disabled":false,"rental_uris":{"android":"levelo://app?vid=8eeb4da1-5ffe-42ca-ae24-0fc13dd0c38e","ios":"levelo://app?vid=8eeb4da1-5ffe-42ca-ae24-0fc13dd0c38e"},"vehicle_type_id":"4","last_reported":1769797672,"current_range_meters":8800,"station_id":"","pricing_plan_id":"cebpf4jnsgd1na2vs0mg"},{"bike_id":"da430813-1e4c-4d0a-b07d-976b86d0c6c6","system_id":"levelo_inurba_marseille","lat":43.25337,"lon":5.42172,"is_reserved":false,"is_disabled":false,"rental_uris":{"android":"levelo://app?vid=da430813-1e4c-4d0a-b07d-976b86d0c6c6","ios":"levelo://app?vid=da430813-1e4c-4d0a-b07d-976b86d0c6c6"},"vehicle_type_id":"4","last_reported":1769797672,"current_range_meters":8800,"station_id":"st_d2m65c5bi1j21697t3ng","pricing_plan_id":"cebpf4jnsgd1na2vs0mg"},