{"last_updated":1760191612,"ttl":60,"version":"2.2","data":{"bikes":[{"bike_id":"5516e87b-8441-4871-bd1c-dcd0126e113d","system_id":"levelo_inurba_marseille","lat":43.337444,"lon":5.374475,"is_reserved":false,"is_disabled":true,"rental_uris":{"android":"levelo://app?vid=5516e87b-8441-4871-bd1c-dcd0126e113d","ios":"levelo://app?vid=5516e87b-8441-4871-bd1c-dcd0126e113d"},"vehicle_type_id":"4","last_reported":1760191612,"current_range_meters":0,"station_id":"","pricing_plan_id":"cebpf4jnsgd1na2vs0mg"},{"bike_id":"f9ef6a8c-cc82-49e4-96c2-f46e0950a0fc","system_id":"levelo_inurba_marseille","lat":43.33771,"lon":5.37424,"is_reserved":false,"is_disabled":true,"rental_uris":{"android":"levelo://app?vid=f9ef6a8c-cc82-49e4-96c2-f46e0950a0fc","ios":"levelo://app?vid=f9ef6a8c-cc82-49e4-96c2-f46e0950a0fc"},"vehicle_type_id":"4","last_reported":1760191612,"current_range_meters":0,"station_id":"","pricing_plan_id":"cebpf4jnsgd1na2vs0mg"},{"bike_id":"f92995dc-d2e7-4f2e-bcaf-27995c98a1de","system_id":"levelo_inurba_marseille","lat":43.33751,"lon":5.37456,"is_reserved":false,"is_disabled":true,"rental_uris":{"android":"levelo://app?vid=f92995dc-d2e7-4f2e-bcaf-27995c98a1de","ios":"levelo://app?vid=f92995dc-d2e7-4f2e-bcaf-27995c98a1de"},"vehicle_type_id":"4","last_reported":1760191612,"current_range_meters":0,"station_id":"","pricing_plan_id":"cebpf4jnsgd1na2vs0mg"},{"bike_id":"092183e8-1e36-4ece-a29a-68743a5820f6","system_id":"levelo_inurba_marseille","lat":43.33747,"lon":5.37463,"is_reserved":false,"is_disabled":true,"rental_uris":{"android":"levelo://app?vid=092183e8-1e36-4ece-a29a-68743a5820f6","ios":"levelo://app?vid=092183e8-1e36-4ece-a29a-68743a5820f6"},"vehicle_type_id":"1","last_reported":1760191612,"current_range_meters":0,"station_id":"","pricing_plan_id":"cebpf4jnsgd1na2vs0mg"},{"bike_id":"268f0f13-c790-4518-9f6a-1fe45b445342","system_id":"levelo_inurba_marseille","lat":43.33737,"lon":5.37465,"is_reserved":false,"is_disabled":true,"rental_uris":{"android":"levelo://app?vid=268f0f13-c790-4518-9f6a-1fe45b445342","ios":"levelo://app?vid=268f0f13-c790-4518-9f6a-1fe45b445342"},"vehicle_type_id":"4","last_reported":1760191612,"current_range_meters":0,"station_id":"","pricing_plan_id":"cebpf4jnsgd1na2vs0mg"},{"bike_id":"844de8fa-b1ed-4b48-bbb0-8ea30f04e6fa","system_id":"levelo_inurba_marseille","lat":43.33755,"lon":5.37468,"is_reserved":false,"is_disabled":false,"rental_uris":{"android":"levelo://app?vid=844de8fa-b1ed-4b48-bbb0-8ea30f04e6fa","ios":"levelo://app?vid=844de8fa-b1ed-4b48-bbb0-8ea30f04e6fa"},"vehicle_type_id":"4","last_reported":1760191612,"current_range_meters":4800,"station_id":"","pricing_plan_id":"cebpf4jnsgd1na2vs0mg"},{"bike_id":"affea08d-2e61-49ad-9018-2db734fe38fb","system_id":"levelo_inurba_marseille","lat":43.337444,"lon":5.374475,"is_reserved":false,"is_disabled":true,"rental_uris":{"android":"levelo://app?vid=affea08d-2e61-49ad-9018-2db734fe38fb","ios":"levelo://app?vid=affea08d-2e61-49ad-9018-2db734fe38fb"},"vehicle_type_id":"4","last_reported":1760191612,"current_range_meters":0,"station_id":"","pricing_plan_id":"cebpf4jnsgd1na2vs0mg"},{"bike_id":"c80be3e3-26c1-4fd2-ab94-730bb8638bdc","system_id":"levelo_inurba_marseille","lat":43.337444,"lon":5.374475,"is_reserved":false,"is_disabled":true,"rental_uris":{"android":"levelo://app?vid=c80be3e3-26c1-4fd2-ab94-730bb8638bdc","ios":"levelo://app?vid=c80be3e3-26c1-4fd2-ab94-730bb8638bdc"},"vehicle_type_id":"4","last_reported":1760191612,"current_range_meters":0,"station_id":"","pricing_plan_id":"cebpf4jnsgd1na2vs0mg"},{"bike_id":"71137f1c-d804-4cac-b568-4fd10b3a0a17","system_id":"levelo_inurba_marseille","lat":43.3054,"lon":5.36504,"is_reserved":false,"is_disabled":true,"rental_uris":{"android":"levelo://app?vid=71137f1c-d804-4cac-b568-4fd10b3a0a17","ios":"levelo://app?vid=71137f1c-d804-4cac-b568-4fd10b3a0a17"},"vehicle_type_id":"4","last_reported":1760191612,"current_range_meters":0,"station_id":"","pricing_plan_id":"cebpf4jnsgd1na2vs0mg"},{"bike_id":"1c560a38-7ef3-4e44-b456-36993b5ca4af","system_id":"levelo_inurba_marseille","lat":43.337444,"lon":5.374475,"is_reserved":false,"is_disabled":true,"rental_uris":{"android":"levelo://app?vid=1c560a38-7ef3-4e44-b456-36993b5ca4af","ios":"levelo://app?vid=1c560a38-7ef3-4e44-b456-36993b5ca4af"},"vehicle_type_id":"4","last_reported":1760191612,"current_range_meters":0,"station_id":"","pricing_plan_id":"cebpf4jnsgd1na2vs0mg"},{"bike_id":"f8726700-64d6-4ff8-acc0-9adfce94dbe9","system_id":"levelo_inurba_marseille","lat":43.27845,"lon":5.38276,"is_reserved":false,"is_disabled":true,"rental_uris":{"android":"levelo://app?vid=f8726700-64d6-4ff8-acc0-9adfce94dbe9","ios":"levelo://app?vid=f8726700-64d6-4ff8-acc0-9adfce94dbe9"},"vehicle_type_id":"4","last_reported":1760191612,"current_range_meters":0,"station_id":"","pricing_plan_id":"cebpf4jnsgd1na2vs0mg"},{"bike_id":"b4e7ef10-af79-4cf8-a207-60ed0a922607","system_id":"levelo_inurba_marseille","lat":43.337444,"lon":5.374475,"is_reserved":false,"is_disabled":true,"rental_uris":{"android":"levelo://app?vid=b4e7ef10-af79-4cf8-a207-60ed0a922607","ios":"levelo://app?vid=b4e7ef10-af79-4cf8-a207-60ed0a922607"},"vehicle_type_id":"4","last_reported":1760191612,"current_range_meters":0,"station_id":"","pricing_plan_id":"cebpf4jnsgd1na2vs0mg"},{"bike_id":"4ccf7a59-029f-457f-b839-dc6f11286326","system_id":"levelo_inurba_marseille","lat":43.31769,"lon":5.42209,"is_reserved":false,"is_disabled":true,"rental_uris":{"android":"levelo://app?vid=4ccf7a59-029f-457f-b839-dc6f11286326","ios":"levelo://app?vid=4ccf7a59-029f-457f-b839-dc6f11286326"},"vehicle_type_id":"4","last_reported":1760191612,"current_range_meters":0,"station_id":"","pricing_plan_id":"cebpf4jnsgd1na2vs0mg"},{"bike_id":"c31f5b0e-d798-4f12-be52-283c24a28126","system_id":"levelo_inurba_marseille","lat":43.21179,"lon":5.35084,"is_reserved":false,"is_disabled":true,"rental_uris":{"android":"levelo://app?vid=c31f5b0e-d798-4f12-be52-283c24a28126","ios":"levelo://app?vid=c31f5b0e-d798-4f12-be52-283c24a28126"},"vehicle_type_id":"4","last_reported":1760191612,"current_range_meters":0,"station_id":"","pricing_plan_id":"cebpf4jnsgd1na2vs0mg"},{"bike_id":"bf0cd1f5-4a2b-4aae-9f11-cde060414574","system_id":"levelo_inurba_marseille","lat":43.2254,"lon":5.34825,"is_reserved":false,"is_disabled":true,"rental_uris":{"android":"levelo://app?vid=bf0cd1f5-4a2b-4aae-9f11-cde060414574","ios":"levelo://app?vid=bf0cd1f5-4a2b-4aae-9f11-cde060414574"},"vehicle_type_id":"4","last_reported":1760191612,"current_range_meters":0,"station_id":"","pricing_plan_id":"cebpf4jnsgd1na2vs0mg"},{"bike_id":"faf21e59-73fe-43ba-965b-23c7230d33c8","system_id":"levelo_inurba_marseille","lat":43.270557,"lon":5.392632,"is_reserved":false,"is_disabled":true,"rental_uris":{"android":"levelo://app?vid=faf21e59-73fe-43ba-965b-23c7230d33c8","ios":"levelo://app?vid=faf21e59-73fe-43ba-965b-23c7230d33c8"},"vehicle_type_id":"4","last_reported":1760191612,"current_range_meters":0,"station_id":"","pricing_plan_id":"cebpf4jnsgd1na2vs0mg"},{"bike_id":"ec39affe-5e48-4259-a225-7a0d248d923e","system_id":"levelo_inurba_marseille","lat":43.29673,"lon":5.38013,"is_reserved":false,"is_disabled":true,"rental_uris":{"android":"levelo://app?vid=ec39affe-5e48-4259-a225-7a0d248d923e","ios":"levelo://app?vid=ec39affe-5e48-4259-a225-7a0d248d923e"},"vehicle_type_id":"4","last_reported":1760191612,"current_range_meters":0,"station_id":"","pricing_plan_id":"cebpf4jnsgd1na2vs0mg"},{"bike_id":"fc87f29b-9c8d-4328-a892-37bcf1edda9b","system_id":"levelo_inurba_marseille","lat":43.22377,"lon":5.34667,"is_reserved":false,"is_disabled":true,"rental_uris":{"android":"levelo://app?vid=fc87f29b-9c8d-4328-a892-37bcf1edda9b","ios":"levelo://app?vid=fc87f29b-9c8d-4328-a892-37bcf1edda9b"},"vehicle_type_id":"4","last_reported":1760191612,"current_range_meters":0,"station_id":"","pricing_plan_id":"cebpf4jnsgd1na2vs0mg"},{"bike_id":"97f6854b-6ea2-48ed-b5b4-6a7e0ae78356","system_id":"levelo_inurba_marseille","lat":43.29612,"lon":5.37727,"is_reserved":false,"is_disabled":true,"rental_uris":{"android":"levelo://app?vid=97f6854b-6ea2-48ed-b5b4-6a7e0ae78356","ios":"levelo://app?vid=97f6854b-6ea2-48ed-b5b4-6a7e0ae78356"},"vehicle_type_id":"4","last_reported":1760191612,"current_range_meters":0,"station_id":"ce4bgi92rcd13ifvqb90","pricing_plan_id":"cebpf4jnsgd1na2vs0mg"},{"bike_id":"42d2a5e7-b5ff-453e-8a38-f0282a01ae83","system_id":"levelo_inurba_marseille","lat":43.29971,"lon":5.38504,"is_reserved":false,"is_disabled":true,"rental_uris":{"android":"levelo://app?vid=42d2a5e7-b5ff-453e-8a38-f0282a01ae83","ios":"levelo://app?vid=42d2a5e7-b5ff-453e-8a38-f0282a01ae83"},"vehicle_type_id":"4","last_reported":1760191612,"current_range_meters":0,"station_id":"ce4bgj92rcd13ifvqbd0","pricing_plan_id":"cebpf4jnsgd1na2vs0mg"},{"bike_id":"2250f4ea-7a85-4b48-9764-3bd6f4dcf5b1","system_id":"levelo_inurba_marseille","lat":43.29367,"lon":5.37858,"is_reserved":false,"is_disabled":true,"rental_uris":{"android":"levelo://app?vid=2250f4ea-7a85-4b48-9764-3bd6f4dcf5b1","ios":"levelo://app?vid=2250f4ea-7a85-4b48-9764-3bd6f4dcf5b1"},"vehicle_type_id":"4","last_reported":1760191612,"current_range_meters":0,"station_id":"ce4bgjh2rcd13ifvqbf0","pricing_plan_id":"cebpf4jnsgd1na2vs0mg"},{"bike_id":"90bee144-32cd-4cdf-922d-2257ff3b894f","system_id":"levelo_inurba_marseille","lat":43.31338,"lon":5.39693,"is_reserved":false,"is_disabled":true,"rental_uris":{"android":"levelo://app?vid=90bee144-32cd-4cdf-922d-2257ff3b894f","ios":"levelo://app?vid=90bee144-32cd-4cdf-922d-2257ff3b894f"},"vehicle_type_id":"4","last_reported":1760191612,"current_range_meters":0,"station_id":"ce4bgvp2rcd13ifvqcu0","pricing_plan_id":"cebpf4jnsgd1na2vs0mg"},{"bike_id":"44e435ef-254e-4817-95fd-6239f991953a","system_id":"levelo_inurba_marseille","lat":43.30134,"lon":5.39862,"is_reserved":false,"is_disabled":true,"rental_uris":{"android":"levelo://app?vid=44e435ef-254e-4817-95fd-6239f991953a","ios":"levelo://app?vid=44e435ef-254e-4817-95fd-6239f991953a"},"vehicle_type_id":"4","last_reported":1760191612,"current_range_meters":0,"station_id":"ce4bh0h2rcd13ifvqd40","pricing_plan_id":"cebpf4jnsgd1na2vs0mg"},{"bike_id":"c899cea1-1887-4962-a32a-d9f481b940cb","system_id":"levelo_inurba_marseille","lat":43.29189,"lon":5.39313,"is_reserved":false,"is_disabled":true,"rental_uris":{"android":"levelo://app?vid=c899cea1-1887-4962-a32a-d9f481b940cb","ios":"levelo://app?vid=c899cea1-1887-4962-a32a-d9f481b940cb"},"vehicle_type_id":"4","last_reported":1760191612,"current_range_meters":0,"station_id":"ce4bh192rcd13ifvqdd0","pricing_plan_id":"cebpf4jnsgd1na2vs0mg"},{"bike_id":"33f47225-167c-4a2d-ab47-56c230e0cbd6","system_id":"levelo_inurba_marseille","lat":43.2925,"lon":5.38454,"is_reserved":false,"is_disabled":true,"rental_uris":{"android":"levelo://app?vid=33f47225-167c-4a2d-ab47-56c230e0cbd6","ios":"levelo://app?vid=33f47225-167c-4a2d-ab47-56c230e0cbd6"},"vehicle_type_id":"4","last_reported":1760191612,"current_range_meters":0,"station_id":"ce4bh692rcd13ifvqea0","pricing_plan_id":"cebpf4jnsgd1na2vs0mg"},{"bike_id":"8f489ee7-1431-4b5a-9e51-0cf9e7513e69","system_id":"levelo_inurba_marseille","lat":43.28414,"lon":5.34982,"is_reserved":false,"is_disabled":true,"rental_uris":{"android":"levelo://app?vid=8f489ee7-1431-4b5a-9e51-0cf9e7513e69","ios":"levelo://app?vid=8f489ee7-1431-4b5a-9e51-0cf9e7513e69"},"vehicle_type_id":"4","last_reported":1760191612,"current_range_meters":0,"station_id":"ce4bhbh2rcd13ifvqepg","pricing_plan_id":"cebpf4jnsgd1na2vs0mg"},{"bike_id":"b752d299-a741-46c0-82e4-8dddf78b3e19","system_id":"levelo_inurba_marseille","lat":43.28257,"lon":5.35066,"is_reserved":false,"is_disabled":true,"rental_uris":{"android":"levelo://app?vid=b752d299-a741-46c0-82e4-8dddf78b3e19","ios":"levelo://app?vid=b752d299-a741-46c0-82e4-8dddf78b3e19"},"vehicle_type_id":"4","last_reported":1760191612,"current_range_meters":0,"station_id":"ce4bhbp2rcd13ifvqerg","pricing_plan_id":"cebpf4jnsgd1na2vs0mg"},{"bike_id":"e266bd84-a4a9-48aa-9ea6-d88b8be11afe","system_id":"levelo_inurba_marseille","lat":43.28608,"lon":5.35138,"is_reserved":false,"is_disabled":true,"rental_uris":{"android":"levelo://app?vid=e266bd84-a4a9-48aa-9ea6-d88b8be11afe","ios":"levelo://app?vid=e266bd84-a4a9-48aa-9ea6-d88b8be11afe"},"vehicle_type_id":"4","last_reported":1760191612,"current_range_meters":0,"station_id":"ce4bhch2rcd13ifvqeug","pricing_plan_id":"cebpf4jnsgd1na2vs0mg"},{"bike_id":"d3d434db-8806-49c7-88ae-b6391a974063","system_id":"levelo_inurba_marseille","lat":43.28615,"lon":5.35108,"is_reserved":false,"is_disabled":true,"rental_uris":{"android":"levelo://app?vid=d3d434db-8806-49c7-88ae-b6391a974063","ios":"levelo://app?vid=d3d434db-8806-49c7-88ae-b6391a974063"},"vehicle_type_id":"4","last_reported":1760191612,"current_range_meters":0,"station_id":"ce4bhch2rcd13ifvqeug","pricing_plan_id":"cebpf4jnsgd1na2vs0mg"},{"bike_id":"c3a1707d-0ff8-437e-92c7-4e0be5ac5fea","system_id":"levelo_inurba_marseille","lat":43.286171,"lon":5.350932,"is_reserved":false,"is_disabled":true,"rental_uris":{"android":"levelo://app?vid=c3a1707d-0ff8-437e-92c7-4e0be5ac5fea","ios":"levelo://app?vid=c3a1707d-0ff8-437e-92c7-4e0be5ac5fea"},"vehicle_type_id":"4","last_reported":1760191612,"current_range_meters":0,"station_id":"ce4bhch2rcd13ifvqeug","pricing_plan_id":"cebpf4jnsgd1na2vs0mg"},{"bike_id":"9a4429d1-232c-4519-8ed9-312533b588c9","system_id":"levelo_inurba_marseille","lat":43.26221,"lon":5.40458,"is_reserved":false,"is_disabled":true,"rental_uris":{"android":"levelo://app?vid=9a4429d1-232c-4519-8ed9-312533b588c9","ios":"levelo://app?vid=9a4429d1-232c-4519-8ed9-312533b588c9"},"vehicle_type_id":"4","last_reported":1760191612,"current_range_meters":0,"station_id":"ce4bhmh2rcd13ifvqgmg","pricing_plan_id":"cebpf4jnsgd1na2vs0mg"},{"bike_id":"71adf011-375e-40dc-9f02-5f5866d7a20c","system_id":"levelo_inurba_marseille","lat":43.229348,"lon":5.354011,"is_reserved":false,"is_disabled":true,"rental_uris":{"android":"levelo://app?vid=71adf011-375e-40dc-9f02-5f5866d7a20c","ios":"levelo://app?vid=71adf011-375e-40dc-9f02-5f5866d7a20c"},"vehicle_type_id":"4","last_reported":1760191612,"current_range_meters":0,"station_id":"cpo3532slgdg3j2ikp40","pricing_plan_id":"cebpf4jnsgd1na2vs0mg"},{"bike_id":"4c380478-825a-4f4f-b122-4ea4a46ac72c","system_id":"levelo_inurba_marseille","lat":43.24172,"lon":5.36395,"is_reserved":false,"is_disabled":true,"rental_uris":{"android":"levelo://app?vid=4c380478-825a-4f4f-b122-4ea4a46ac72c","ios":"levelo://app?vid=4c380478-825a-4f4f-b122-4ea4a46ac72c"},"vehicle_type_id":"4","last_reported":1760191612,"current_range_meters":0,"station_id":"cpo36qri1sfpv3e86is0","pricing_plan_id":"cebpf4jnsgd1na2vs0mg"},{"bike_id":"0ff28379-d69e-46fd-a711-ef84b1b06a74","system_id":"levelo_inurba_marseille","lat":43.21748,"lon":5.34602,"is_reserved":false,"is_disabled":true,"rental_uris":{"android":"levelo://app?vid=0ff28379-d69e-46fd-a711-ef84b1b06a74","ios":"levelo://app?vid=0ff28379-d69e-46fd-a711-ef84b1b06a74"},"vehicle_type_id":"4","last_reported":1760191612,"current_range_meters":0,"station_id":"st_cvj6r9ubvosntc0bgbag","pricing_plan_id":"cebpf4jnsgd1na2vs0mg"},{"bike_id":"bc508d92-e055-4123-8e72-1c0771f1f4a0","system_id":"levelo_inurba_marseille","lat":43.21749,"lon":5.34605,"is_reserved":false,"is_disabled":true,"rental_uris":{"android":"levelo://app?vid=bc508d92-e055-4123-8e72-1c0771f1f4a0","ios":"levelo://app?vid=bc508d92-e055-4123-8e72-1c0771f1f4a0"},"vehicle_type_id":"4","last_reported":1760191612,"current_range_meters":0,"station_id":"st_cvj6r9ubvosntc0bgbag","pricing_plan_id":"cebpf4jnsgd1na2vs0mg"},{"bike_id":"86eca012-edfb-4c20-9aef-d37ce3cadbda","system_id":"levelo_inurba_marseille","lat":43.211869,"lon":5.350699,"is_reserved":false,"is_disabled":true,"rental_uris":{"android":"levelo://app?vid=86eca012-edfb-4c20-9aef-d37ce3cadbda","ios":"levelo://app?vid=86eca012-edfb-4c20-9aef-d37ce3cadbda"},"vehicle_type_id":"4","last_reported":1760191612,"current_range_meters":0,"station_id":"st_cvj6sg6p6f1abm77japg","pricing_plan_id":"cebpf4jnsgd1na2vs0mg"},{"bike_id":"5206f34d-5c08-42bd-b24d-21b13734d2e6","system_id":"levelo_inurba_marseille","lat":43.21193,"lon":5.35076,"is_reserved":false,"is_disabled":true,"rental_uris":{"android":"levelo://app?vid=5206f34d-5c08-42bd-b24d-21b13734d2e6","ios":"levelo://app?vid=5206f34d-5c08-42bd-b24d-21b13734d2e6"},"vehicle_type_id":"4","last_reported":1760191612,"current_range_meters":0,"station_id":"st_cvj6sg6p6f1abm77japg","pricing_plan_id":"cebpf4jnsgd1na2vs0mg"},{"bike_id":"5a1f50b1-f1f9-4f02-a3c5-363250f2c45b","system_id":"levelo_inurba_marseille","lat":43.2119,"lon":5.35071,"is_reserved":false,"is_disabled":true,"rental_uris":{"android":"levelo://app?vid=5a1f50b1-f1f9-4f02-a3c5-363250f2c45b","ios":"levelo://app?vid=5a1f50b1-f1f9-4f02-a3c5-363250f2c45b"},"vehicle_type_id":"4","last_reported":1760191612,"current_range_meters":0,"station_id":"st_cvj6sg6p6f1abm77japg","pricing_plan_id":"cebpf4jnsgd1na2vs0mg"},{"bike_id":"b2e2b38d-36f4-4e15-986e-723132819a60","system_id":"levelo_inurba_marseille","lat":43.3082,"lon":5.43539,"is_reserved":false,"is_disabled":true,"rental_uris":{"android":"levelo://app?vid=b2e2b38d-36f4-4e15-986e-723132819a60","ios":"levelo://app?vid=b2e2b38d-36f4-4e15-986e-723132819a60"},"vehicle_type_id":"4","last_reported":1760191612,"current_range_meters":400,"station_id":"ce4bhph2rcd13ifvqheg","pricing_plan_id":"cebpf4jnsgd1na2vs0mg"},{"bike_id":"9d0fad03-63a6-494f-9149-4682b4930204","system_id":"levelo_inurba_marseille","lat":43.2293,"lon":5.35375,"is_reserved":false,"is_disabled":true,"rental_uris":{"android":"levelo://app?vid=9d0fad03-63a6-494f-9149-4682b4930204","ios":"levelo://app?vid=9d0fad03-63a6-494f-9149-4682b4930204"},"vehicle_type_id":"4","last_reported":1760191612,"current_range_meters":400,"station_id":"cpo3532slgdg3j2ikp40","pricing_plan_id":"cebpf4jnsgd1na2vs0mg"},{"bike_id":"9a9f181b-3cce-4cb3-b8f6-be1762c120ec","system_id":"levelo_inurba_marseille","lat":43.22552,"lon":5.41638,"is_reserved":false,"is_disabled":true,"rental_uris":{"android":"levelo://app?vid=9a9f181b-3cce-4cb3-b8f6-be1762c120ec","ios":"levelo://app?vid=9a9f181b-3cce-4cb3-b8f6-be1762c120ec"},"vehicle_type_id":"4","last_reported":1760191612,"current_range_meters":400,"station_id":"st_d2o4gvlbi1j2169b742g","pricing_plan_id":"cebpf4jnsgd1na2vs0mg"},{"bike_id":"1d6245e4-562b-49a1-9e17-90a195bca958","system_id":"levelo_inurba_marseille","lat":43.22534,"lon":5.34829,"is_reserved":false,"is_disabled":true,"rental_uris":{"android":"levelo://app?vid=1d6245e4-562b-49a1-9e17-90a195bca958","ios":"levelo://app?vid=1d6245e4-562b-49a1-9e17-90a195bca958"},"vehicle_type_id":"4","last_reported":1760191612,"current_range_meters":800,"station_id":"","pricing_plan_id":"cebpf4jnsgd1na2vs0mg"},{"bike_id":"a9dd0207-4537-4709-9252-789d1dd6f16e","system_id":"levelo_inurba_marseille","lat":43.22373,"lon":5.34661,"is_reserved":false,"is_disabled":true,"rental_uris":{"android":"levelo://app?vid=a9dd0207-4537-4709-9252-789d1dd6f16e","ios":"levelo://app?vid=a9dd0207-4537-4709-9252-789d1dd6f16e"},"vehicle_type_id":"4","last_reported":1760191612,"current_range_meters":800,"station_id":"","pricing_plan_id":"cebpf4jnsgd1na2vs0mg"},{"bike_id":"603a8e6a-0cf0-459c-a975-5af59d0d295f","system_id":"levelo_inurba_marseille","lat":43.23967,"lon":5.36402,"is_reserved":false,"is_disabled":true,"rental_uris":{"android":"levelo://app?vid=603a8e6a-0cf0-459c-a975-5af59d0d295f","ios":"levelo://app?vid=603a8e6a-0cf0-459c-a975-5af59d0d295f"},"vehicle_type_id":"4","last_reported":1760191612,"current_range_meters":800,"station_id":"","pricing_plan_id":"cebpf4jnsgd1na2vs0mg"},{"bike_id":"feddee3e-59d2-4715-8f93-634f35343328","system_id":"levelo_inurba_marseille","lat":43.23965,"lon":5.36622,"is_reserved":false,"is_disabled":true,"rental_uris":{"android":"levelo://app?vid=feddee3e-59d2-4715-8f93-634f35343328","ios":"levelo://app?vid=feddee3e-59d2-4715-8f93-634f35343328"},"vehicle_type_id":"4","last_reported":1760191612,"current_range_meters":800,"station_id":"ce4bhi12rcd13ifvqfp0","pricing_plan_id":"cebpf4jnsgd1na2vs0mg"},{"bike_id":"739be169-16ac-4575-b413-319a370b7926","system_id":"levelo_inurba_marseille","lat":43.255676,"lon":5.382248,"is_reserved":false,"is_disabled":true,"rental_uris":{"android":"levelo://app?vid=739be169-16ac-4575-b413-319a370b7926","ios":"levelo://app?vid=739be169-16ac-4575-b413-319a370b7926"},"vehicle_type_id":"4","last_reported":1760191612,"current_range_meters":800,"station_id":"ce4bhih2rcd13ifvqfs0","pricing_plan_id":"cebpf4jnsgd1na2vs0mg"},{"bike_id":"5d0db4cc-b74a-4268-9082-44720fd06cc4","system_id":"levelo_inurba_marseille","lat":43.23047,"lon":5.35503,"is_reserved":false,"is_disabled":true,"rental_uris":{"android":"levelo://app?vid=5d0db4cc-b74a-4268-9082-44720fd06cc4","ios":"levelo://app?vid=5d0db4cc-b74a-4268-9082-44720fd06cc4"},"vehicle_type_id":"4","last_reported":1760191612,"current_range_meters":800,"station_id":"cpo3342slgdg3j2ifvpg","pricing_plan_id":"cebpf4jnsgd1na2vs0mg"},{"bike_id":"42090839-f056-44d5-aacc-4b130fc72776","system_id":"levelo_inurba_marseille","lat":43.298041,"lon":5.381202,"is_reserved":false,"is_disabled":true,"rental_uris":{"android":"levelo://app?vid=42090839-f056-44d5-aacc-4b130fc72776","ios":"levelo://app?vid=42090839-f056-44d5-aacc-4b130fc72776"},"vehicle_type_id":"4","last_reported":1760191612,"current_range_meters":1200,"station_id":"ce4bgip2rcd13ifvqbb0","pricing_plan_id":"cebpf4jnsgd1na2vs0mg"},{"bike_id":"92000d44-524e-499d-b2f2-9180086115d4","system_id":"levelo_inurba_marseille","lat":43.30953,"lon":5.39028,"is_reserved":false,"is_disabled":true,"rental_uris":{"android":"levelo://app?vid=92000d44-524e-499d-b2f2-9180086115d4","ios":"levelo://app?vid=92000d44-524e-499d-b2f2-9180086115d4"},"vehicle_type_id":"4","last_reported":1760191612,"current_range_meters":1200,"station_id":"ce4bgup2rcd13ifvqco0","pricing_plan_id":"cebpf4jnsgd1na2vs0mg"},{"bike_id":"cab81908-22ab-45d0-a774-5bc4e1b4e137","system_id":"levelo_inurba_marseille","lat":43.28414,"lon":5.37525,"is_reserved":false,"is_disabled":true,"rental_uris":{"android":"levelo://app?vid=cab81908-22ab-45d0-a774-5bc4e1b4e137","ios":"levelo://app?vid=cab81908-22ab-45d0-a774-5bc4e1b4e137"},"vehicle_type_id":"4","last_reported":1760191612,"current_range_meters":1200,"station_id":"ce4bh412rcd13ifvqds0","pricing_plan_id":"cebpf4jnsgd1na2vs0mg"},{"bike_id":"dd1438fd-44c5-4a35-aaa3-98819f14b137","system_id":"levelo_inurba_marseille","lat":43.28616,"lon":5.35134,"is_reserved":false,"is_disabled":true,"rental_uris":{"android":"levelo://app?vid=dd1438fd-44c5-4a35-aaa3-98819f14b137","ios":"levelo://app?vid=dd1438fd-44c5-4a35-aaa3-98819f14b137"},"vehicle_type_id":"4","last_reported":1760191612,"current_range_meters":1200,"station_id":"ce4bhch2rcd13ifvqeug","pricing_plan_id":"cebpf4jnsgd1na2vs0mg"},{"bike_id":"e47add60-5578-40de-8897-c30f9dd2a163","system_id":"levelo_inurba_marseille","lat":43.2861,"lon":5.35129,"is_reserved":false,"is_disabled":true,"rental_uris":{"android":"levelo://app?vid=e47add60-5578-40de-8897-c30f9dd2a163","ios":"levelo://app?vid=e47add60-5578-40de-8897-c30f9dd2a163"},"vehicle_type_id":"4","last_reported":1760191612,"current_range_meters":1200,"station_id":"ce4bhch2rcd13ifvqeug","pricing_plan_id":"cebpf4jnsgd1na2vs0mg"},{"bike_id":"e8a3af25-90cc-4d0e-94ee-0a33e73c75e9","system_id":"levelo_inurba_marseille","lat":43.286145,"lon":5.351116,"is_reserved":false,"is_disabled":true,"rental_uris":{"android":"levelo://app?vid=e8a3af25-90cc-4d0e-94ee-0a33e73c75e9","ios":"levelo://app?vid=e8a3af25-90cc-4d0e-94ee-0a33e73c75e9"},"vehicle_type_id":"4","last_reported":1760191612,"current_range_meters":1200,"station_id":"ce4bhch2rcd13ifvqeug","pricing_plan_id":"cebpf4jnsgd1na2vs0mg"},{"bike_id":"d7ab0be0-f1db-4183-bbf9-901df6408a9c","system_id":"levelo_inurba_marseille","lat":43.27969,"lon":5.38733,"is_reserved":false,"is_disabled":true,"rental_uris":{"android":"levelo://app?vid=d7ab0be0-f1db-4183-bbf9-901df6408a9c","ios":"levelo://app?vid=d7ab0be0-f1db-4183-bbf9-901df6408a9c"},"vehicle_type_id":"4","last_reported":1760191612,"current_range_meters":1200,"station_id":"ce4bhg12rcd13ifvqf80","pricing_plan_id":"cebpf4jnsgd1na2vs0mg"},{"bike_id":"bc3f26e6-e751-4b6b-963c-dde1fcea9387","system_id":"levelo_inurba_marseille","lat":43.29859,"lon":5.36286,"is_reserved":false,"is_disabled":true,"rental_uris":{"android":"levelo://app?vid=bc3f26e6-e751-4b6b-963c-dde1fcea9387","ios":"levelo://app?vid=bc3f26e6-e751-4b6b-963c-dde1fcea9387"},"vehicle_type_id":"4","last_reported":1760191612,"current_range_meters":1600,"station_id":"ce4bgpp2rcd13ifvqc3g","pricing_plan_id":"cebpf4jnsgd1na2vs0mg"},{"bike_id":"7db76847-e562-4b74-9f52-d03a664cabd8","system_id":"levelo_inurba_marseille","lat":43.30295,"lon":5.369,"is_reserved":false,"is_disabled":true,"rental_uris":{"android":"levelo://app?vid=7db76847-e562-4b74-9f52-d03a664cabd8","ios":"levelo://app?vid=7db76847-e562-4b74-9f52-d03a664cabd8"},"vehicle_type_id":"4","last_reported":1760191612,"current_range_meters":1600,"station_id":"ce4bgqh2rcd13ifvqc5g","pricing_plan_id":"cebpf4jnsgd1na2vs0mg"},{"bike_id":"4de9bb2c-153d-477b-bb89-ff8edd4891d6","system_id":"levelo_inurba_marseille","lat":43.3137,"lon":5.38492,"is_reserved":false,"is_disabled":true,"rental_uris":{"android":"levelo://app?vid=4de9bb2c-153d-477b-bb89-ff8edd4891d6","ios":"levelo://app?vid=4de9bb2c-153d-477b-bb89-ff8edd4891d6"},"vehicle_type_id":"4","last_reported":1760191612,"current_range_meters":1600,"station_id":"ce4bgt92rcd13ifvqcf0","pricing_plan_id":"cebpf4jnsgd1na2vs0mg"},{"bike_id":"07f0252c-eee9-4f4f-a803-1de12836cbd0","system_id":"levelo_inurba_marseille","lat":43.26192,"lon":5.37459,"is_reserved":false,"is_disabled":true,"rental_uris":{"android":"levelo://app?vid=07f0252c-eee9-4f4f-a803-1de12836cbd0","ios":"levelo://app?vid=07f0252c-eee9-4f4f-a803-1de12836cbd0"},"vehicle_type_id":"4","last_reported":1760191612,"current_range_meters":1600,"station_id":"ce4bhgp2rcd13ifvqfc0","pricing_plan_id":"cebpf4jnsgd1na2vs0mg"},{"bike_id":"8e033d07-6455-4150-afe6-4d0f578e80d6","system_id":"levelo_inurba_marseille","lat":43.239614,"lon":5.366226,"is_reserved":false,"is_disabled":true,"rental_uris":{"android":"levelo://app?vid=8e033d07-6455-4150-afe6-4d0f578e80d6","ios":"levelo://app?vid=8e033d07-6455-4150-afe6-4d0f578e80d6"},"vehicle_type_id":"4","last_reported":1760191612,"current_range_meters":1600,"station_id":"ce4bhi12rcd13ifvqfp0","pricing_plan_id":"cebpf4jnsgd1na2vs0mg"},{"bike_id":"f9393001-3c65-48bd-ae4e-67982ba4ca22","system_id":"levelo_inurba_marseille","lat":43.2175,"lon":5.34599,"is_reserved":false,"is_disabled":true,"rental_uris":{"android":"levelo://app?vid=f9393001-3c65-48bd-ae4e-67982ba4ca22","ios":"levelo://app?vid=f9393001-3c65-48bd-ae4e-67982ba4ca22"},"vehicle_type_id":"4","last_reported":1760191612,"current_range_meters":1600,"station_id":"st_cvj6r9ubvosntc0bgbag","pricing_plan_id":"cebpf4jnsgd1na2vs0mg"},{"bike_id":"6decc953-4c4b-409e-94f0-05f004b445d6","system_id":"levelo_inurba_marseille","lat":43.29028,"lon":5.38655,"is_reserved":false,"is_disabled":true,"rental_uris":{"android":"levelo://app?vid=6decc953-4c4b-409e-94f0-05f004b445d6","ios":"levelo://app?vid=6decc953-4c4b-409e-94f0-05f004b445d6"},"vehicle_type_id":"4","last_reported":1760191612,"current_range_meters":2000,"station_id":"ce4bh4p2rcd13ifvqe0g","pricing_plan_id":"cebpf4jnsgd1na2vs0mg"},{"bike_id":"55a35844-d58a-44d1-8304-8e1c714a7c18","system_id":"levelo_inurba_marseille","lat":43.31364,"lon":5.38496,"is_reserved":false,"is_disabled":false,"rental_uris":{"android":"levelo://app?vid=55a35844-d58a-44d1-8304-8e1c714a7c18","ios":"levelo://app?vid=55a35844-d58a-44d1-8304-8e1c714a7c18"},"vehicle_type_id":"4","last_reported":1760191612,"current_range_meters":2800,"station_id":"ce4bgt92rcd13ifvqcf0","pricing_plan_id":"cebpf4jnsgd1na2vs0mg"},{"bike_id":"11df2912-c630-4d84-95f8-dc8cf12dbe6b","system_id":"levelo_inurba_marseille","lat":43.26933,"lon":5.38931,"is_reserved":false,"is_disabled":false,"rental_uris":{"android":"levelo://app?vid=11df2912-c630-4d84-95f8-dc8cf12dbe6b","ios":"levelo://app?vid=11df2912-c630-4d84-95f8-dc8cf12dbe6b"},"vehicle_type_id":"4","last_reported":1760191612,"current_range_meters":2800,"station_id":"ce4bhhh2rcd13ifvqfl0","pricing_plan_id":"cebpf4jnsgd1na2vs0mg"},{"bike_id":"f86a1730-3fc5-4ecb-b915-795ba2dd5da2","system_id":"levelo_inurba_marseille","lat":43.23058,"lon":5.35491,"is_reserved":false,"is_disabled":false,"rental_uris":{"android":"levelo://app?vid=f86a1730-3fc5-4ecb-b915-795ba2dd5da2","ios":"levelo://app?vid=f86a1730-3fc5-4ecb-b915-795ba2dd5da2"},"vehicle_type_id":"4","last_reported":1760191612,"current_range_meters":2800,"station_id":"cpo3342slgdg3j2ifvpg","pricing_plan_id":"cebpf4jnsgd1na2vs0mg"},{"bike_id":"4f0eeea7-b2bb-4237-b3c6-e8ca5d5bfb28","system_id":"levelo_inurba_marseille","lat":43.288574,"lon":5.358459,"is_reserved":false,"is_disabled":false,"rental_uris":{"android":"levelo://app?vid=4f0eeea7-b2bb-4237-b3c6-e8ca5d5bfb28","ios":"levelo://app?vid=4f0eeea7-b2bb-4237-b3c6-e8ca5d5bfb28"},"vehicle_type_id":"4","last_reported":1760191612,"current_range_meters":3200,"station_id":"ce4bhb12rcd13ifvqem0","pricing_plan_id":"cebpf4jnsgd1na2vs0mg"},{"bike_id":"7b15a463-c914-4169-88c2-e405869e1703","system_id":"levelo_inurba_marseille","lat":43.27371,"lon":5.36262,"is_reserved":false,"is_disabled":false,"rental_uris":{"android":"levelo://app?vid=7b15a463-c914-4169-88c2-e405869e1703","ios":"levelo://app?vid=7b15a463-c914-4169-88c2-e405869e1703"},"vehicle_type_id":"4","last_reported":1760191612,"current_range_meters":3200,"station_id":"ce4bhbh2rcd13ifvqeo0","pricing_plan_id":"cebpf4jnsgd1na2vs0mg"},{"bike_id":"d75fb7f0-6f3f-4cac-86db-fac81037a457","system_id":"levelo_inurba_marseille","lat":43.26194,"lon":5.37939,"is_reserved":false,"is_disabled":false,"rental_uris":{"android":"levelo://app?vid=d75fb7f0-6f3f-4cac-86db-fac81037a457","ios":"levelo://app?vid=d75fb7f0-6f3f-4cac-86db-fac81037a457"},"vehicle_type_id":"4","last_reported":1760191612,"current_range_meters":3200,"station_id":"ce4bhjp2rcd13ifvqg90","pricing_plan_id":"cebpf4jnsgd1na2vs0mg"},{"bike_id":"23f15c4d-3aab-43e2-8825-d491160ecaf9","system_id":"levelo_inurba_marseille","lat":43.21191,"lon":5.35077,"is_reserved":false,"is_disabled":false,"rental_uris":{"android":"levelo://app?vid=23f15c4d-3aab-43e2-8825-d491160ecaf9","ios":"levelo://app?vid=23f15c4d-3aab-43e2-8825-d491160ecaf9"},"vehicle_type_id":"4","last_reported":1760191612,"current_range_meters":3200,"station_id":"st_cvj6sg6p6f1abm77japg","pricing_plan_id":"cebpf4jnsgd1na2vs0mg"},{"bike_id":"d4cb48c9-ba37-44be-9bac-a0f456db096c","system_id":"levelo_inurba_marseille","lat":43.27422,"lon":5.39429,"is_reserved":false,"is_disabled":true,"rental_uris":{"android":"levelo://app?vid=d4cb48c9-ba37-44be-9bac-a0f456db096c","ios":"levelo://app?vid=d4cb48c9-ba37-44be-9bac-a0f456db096c"},"vehicle_type_id":"4","last_reported":1760191612,"current_range_meters":3600,"station_id":"ce4bhdp2rcd13ifvqf20","pricing_plan_id":"cebpf4jnsgd1na2vs0mg"},{"bike_id":"42500951-210f-4506-b37d-e5f9ed0848c8","system_id":"levelo_inurba_marseille","lat":43.23184,"lon":5.35562,"is_reserved":false,"is_disabled":false,"rental_uris":{"android":"levelo://app?vid=42500951-210f-4506-b37d-e5f9ed0848c8","ios":"levelo://app?vid=42500951-210f-4506-b37d-e5f9ed0848c8"},"vehicle_type_id":"4","last_reported":1760191612,"current_range_meters":3600,"station_id":"ce4bhu92rcd13ifvqi70","pricing_plan_id":"cebpf4jnsgd1na2vs0mg"},{"bike_id":"1508e37c-ddee-4fca-a836-8777a02263a4","system_id":"levelo_inurba_marseille","lat":43.297229,"lon":5.380115,"is_reserved":false,"is_disabled":false,"rental_uris":{"android":"levelo://app?vid=1508e37c-ddee-4fca-a836-8777a02263a4","ios":"levelo://app?vid=1508e37c-ddee-4fca-a836-8777a02263a4"},"vehicle_type_id":"4","last_reported":1760191612,"current_range_meters":4000,"station_id":"","pricing_plan_id":"cebpf4jnsgd1na2vs0mg"},{"bike_id":"66ebf68c-5915-4632-ac85-ad168186e4f8","system_id":"levelo_inurba_marseille","lat":43.21748,"lon":5.34603,"is_reserved":false,"is_disabled":false,"rental_uris":{"android":"levelo://app?vid=66ebf68c-5915-4632-ac85-ad168186e4f8","ios":"levelo://app?vid=66ebf68c-5915-4632-ac85-ad168186e4f8"},"vehicle_type_id":"4","last_reported":1760191612,"current_range_meters":4000,"station_id":"st_cvj6r9ubvosntc0bgbag","pricing_plan_id":"cebpf4jnsgd1na2vs0mg"},{"bike_id":"c19915a3-9d36-4556-bafe-c7863ff90ad4","system_id":"levelo_inurba_marseille","lat":43.21747,"lon":5.34598,"is_reserved":false,"is_disabled":false,"rental_uris":{"android":"levelo://app?vid=c19915a3-9d36-4556-bafe-c7863ff90ad4","ios":"levelo://app?vid=c19915a3-9d36-4556-bafe-c7863ff90ad4"},"vehicle_type_id":"4","last_reported":1760191612,"current_range_meters":4400,"station_id":"st_cvj6r9ubvosntc0bgbag","pricing_plan_id":"cebpf4jnsgd1na2vs0mg"},{"bike_id":"d26ebaf9-3a2e-4c2f-9e9c-c214097ad25d","system_id":"levelo_inurba_marseille","lat":43.2732,"lon":5.39073,"is_reserved":false,"is_disabled":false,"rental_uris":{"android":"levelo://app?vid=d26ebaf9-3a2e-4c2f-9e9c-c214097ad25d","ios":"levelo://app?vid=d26ebaf9-3a2e-4c2f-9e9c-c214097ad25d"},"vehicle_type_id":"4","last_reported":1760191612,"current_range_meters":4800,"station_id":"ce4bhgp2rcd13ifvqfe0","pricing_plan_id":"cebpf4jnsgd1na2vs0mg"},{"bike_id":"e2efff28-9621-46f6-ad46-0132f5e190b5","system_id":"levelo_inurba_marseille","lat":43.24169,"lon":5.36393,"is_reserved":false,"is_disabled":false,"rental_uris":{"android":"levelo://app?vid=e2efff28-9621-46f6-ad46-0132f5e190b5","ios":"levelo://app?vid=e2efff28-9621-46f6-ad46-0132f5e190b5"},"vehicle_type_id":"4","last_reported":1760191612,"current_range_meters":4800,"station_id":"cpo36qri1sfpv3e86is0","pricing_plan_id":"cebpf4jnsgd1na2vs0mg"},{"bike_id":"dcf26a5b-b8ed-42bb-ad77-12eab8688ea3","system_id":"levelo_inurba_marseille","lat":43.21756,"lon":5.34599,"is_reserved":false,"is_disabled":false,"rental_uris":{"android":"levelo://app?vid=dcf26a5b-b8ed-42bb-ad77-12eab8688ea3","ios":"levelo://app?vid=dcf26a5b-b8ed-42bb-ad77-12eab8688ea3"},"vehicle_type_id":"4","last_reported":1760191612,"current_range_meters":5600,"station_id":"","pricing_plan_id":"cebpf4jnsgd1na2vs0mg"},{"bike_id":"19110ecc-8fea-4451-8c6c-6ce8406488a5","system_id":"levelo_inurba_marseille","lat":43.28069,"lon":5.39655,"is_reserved":false,"is_disabled":false,"rental_uris":{"android":"levelo://app?vid=19110ecc-8fea-4451-8c6c-6ce8406488a5","ios":"levelo://app?vid=19110ecc-8fea-4451-8c6c-6ce8406488a5"},"vehicle_type_id":"4","last_reported":1760191612,"current_range_meters":5600,"station_id":"ce4bho12rcd13ifvqh2g","pricing_plan_id":"cebpf4jnsgd1na2vs0mg"},{"bike_id":"973d8d5f-ceaf-4023-aa9c-d8193b78b2e7","system_id":"levelo_inurba_marseille","lat":43.22549,"lon":5.41638,"is_reserved":false,"is_disabled":false,"rental_uris":{"android":"levelo://app?vid=973d8d5f-ceaf-4023-aa9c-d8193b78b2e7","ios":"levelo://app?vid=973d8d5f-ceaf-4023-aa9c-d8193b78b2e7"},"vehicle_type_id":"4","last_reported":1760191612,"current_range_meters":5600,"station_id":"st_d2o4gvlbi1j2169b742g","pricing_plan_id":"cebpf4jnsgd1na2vs0mg"},{"bike_id":"994a33a7-2943-4903-ba33-8f0d3daafc22","system_id":"levelo_inurba_marseille","lat":43.217462,"lon":5.346028,"is_reserved":false,"is_disabled":false,"rental_uris":{"android":"levelo://app?vid=994a33a7-2943-4903-ba33-8f0d3daafc22","ios":"levelo://app?vid=994a33a7-2943-4903-ba33-8f0d3daafc22"},"vehicle_type_id":"4","last_reported":1760191612,"current_range_meters":6400,"station_id":"","pricing_plan_id":"cebpf4jnsgd1na2vs0mg"},{"bike_id":"d242da2c-7458-4cc0-b900-7c7b939f2ce7","system_id":"levelo_inurba_marseille","lat":43.29371,"lon":5.37844,"is_reserved":false,"is_disabled":false,"rental_uris":{"android":"levelo://app?vid=d242da2c-7458-4cc0-b900-7c7b939f2ce7","ios":"levelo://app?vid=d242da2c-7458-4cc0-b900-7c7b939f2ce7"},"vehicle_type_id":"4","last_reported":1760191612,"current_range_meters":6400,"station_id":"","pricing_plan_id":"cebpf4jnsgd1na2vs0mg"},{"bike_id":"40884aa6-ac96-4fb5-bc2d-762bbd624df1","system_id":"levelo_inurba_marseille","lat":43.28679,"lon":5.38663,"is_reserved":false,"is_disabled":false,"rental_uris":{"android":"levelo://app?vid=40884aa6-ac96-4fb5-bc2d-762bbd624df1","ios":"levelo://app?vid=40884aa6-ac96-4fb5-bc2d-762bbd624df1"},"vehicle_type_id":"4","last_reported":1760191612,"current_range_meters":6400,"station_id":"ce4bh492rcd13ifvqdug","pricing_plan_id":"cebpf4jnsgd1na2vs0mg"},{"bike_id":"b493d3fb-b4c6-4529-9211-254445f9e70b","system_id":"levelo_inurba_marseille","lat":43.28268,"lon":5.35071,"is_reserved":false,"is_disabled":false,"rental_uris":{"android":"levelo://app?vid=b493d3fb-b4c6-4529-9211-254445f9e70b","ios":"levelo://app?vid=b493d3fb-b4c6-4529-9211-254445f9e70b"},"vehicle_type_id":"4","last_reported":1760191612,"current_range_meters":6400,"station_id":"ce4bhbp2rcd13ifvqerg","pricing_plan_id":"cebpf4jnsgd1na2vs0mg"},{"bike_id":"2bc038b1-519b-42b1-9bd4-7d2b97044996","system_id":"levelo_inurba_marseille","lat":43.292816,"lon":5.410488,"is_reserved":false,"is_disabled":false,"rental_uris":{"android":"levelo://app?vid=2bc038b1-519b-42b1-9bd4-7d2b97044996","ios":"levelo://app?vid=2bc038b1-519b-42b1-9bd4-7d2b97044996"},"vehicle_type_id":"4","last_reported":1760191612,"current_range_meters":6800,"station_id":"","pricing_plan_id":"cebpf4jnsgd1na2vs0mg"},{"bike_id":"68712bd8-87c4-490e-939e-c163fe45722f","system_id":"levelo_inurba_marseille","lat":43.28612,"lon":5.35119,"is_reserved":false,"is_disabled":false,"rental_uris":{"android":"levelo://app?vid=68712bd8-87c4-490e-939e-c163fe45722f","ios":"levelo://app?vid=68712bd8-87c4-490e-939e-c163fe45722f"},"vehicle_type_id":"4","last_reported":1760191612,"current_range_meters":6800,"station_id":"ce4bhch2rcd13ifvqeug","pricing_plan_id":"cebpf4jnsgd1na2vs0mg"},{"bike_id":"f4e4dd08-5d2a-405f-aa8f-86b638f9a301","system_id":"levelo_inurba_marseille","lat":43.26685,"lon":5.38276,"is_reserved":false,"is_disabled":false,"rental_uris":{"android":"levelo://app?vid=f4e4dd08-5d2a-405f-aa8f-86b638f9a301","ios":"levelo://app?vid=f4e4dd08-5d2a-405f-aa8f-86b638f9a301"},"vehicle_type_id":"4","last_reported":1760191612,"current_range_meters":6800,"station_id":"ce4bhg92rcd13ifvqf90","pricing_plan_id":"cebpf4jnsgd1na2vs0mg"},{"bike_id":"225656e8-52a9-4b37-95b8-48add13b7d08","system_id":"levelo_inurba_marseille","lat":43.23964,"lon":5.36632,"is_reserved":false,"is_disabled":false,"rental_uris":{"android":"levelo://app?vid=225656e8-52a9-4b37-95b8-48add13b7d08","ios":"levelo://app?vid=225656e8-52a9-4b37-95b8-48add13b7d08"},"vehicle_type_id":"4","last_reported":1760191612,"current_range_meters":6800,"station_id":"ce4bhi12rcd13ifvqfp0","pricing_plan_id":"cebpf4jnsgd1na2vs0mg"},{"bike_id":"03f1aff3-ac2c-4ada-a961-389b08008880","system_id":"levelo_inurba_marseille","lat":43.24158,"lon":5.36398,"is_reserved":false,"is_disabled":false,"rental_uris":{"android":"levelo://app?vid=03f1aff3-ac2c-4ada-a961-389b08008880","ios":"levelo://app?vid=03f1aff3-ac2c-4ada-a961-389b08008880"},"vehicle_type_id":"4","last_reported":1760191612,"current_range_meters":6800,"station_id":"cpo36qri1sfpv3e86is0","pricing_plan_id":"cebpf4jnsgd1na2vs0mg"},{"bike_id":"e9e42d2d-7e53-4efc-b575-031b106766c7","system_id":"levelo_inurba_marseille","lat":43.297386,"lon":5.36875,"is_reserved":false,"is_disabled":false,"rental_uris":{"android":"levelo://app?vid=e9e42d2d-7e53-4efc-b575-031b106766c7","ios":"levelo://app?vid=e9e42d2d-7e53-4efc-b575-031b106766c7"},"vehicle_type_id":"4","last_reported":1760191612,"current_range_meters":7200,"station_id":"","pricing_plan_id":"cebpf4jnsgd1na2vs0mg"},{"bike_id":"426ae459-bdd3-41a6-86fe-0a9afbe8d303","system_id":"levelo_inurba_marseille","lat":43.23061,"lon":5.3549,"is_reserved":false,"is_disabled":false,"rental_uris":{"android":"levelo://app?vid=426ae459-bdd3-41a6-86fe-0a9afbe8d303","ios":"levelo://app?vid=426ae459-bdd3-41a6-86fe-0a9afbe8d303"},"vehicle_type_id":"4","last_reported":1760191612,"current_range_meters":7200,"station_id":"cpo3342slgdg3j2ifvpg","pricing_plan_id":"cebpf4jnsgd1na2vs0mg"},{"bike_id":"286e15cd-84d2-453c-94e7-d09eaa8c91d3","system_id":"levelo_inurba_marseille","lat":43.211918,"lon":5.35068,"is_reserved":false,"is_disabled":false,"rental_uris":{"android":"levelo://app?vid=286e15cd-84d2-453c-94e7-d09eaa8c91d3","ios":"levelo://app?vid=286e15cd-84d2-453c-94e7-d09eaa8c91d3"},"vehicle_type_id":"4","last_reported":1760191612,"current_range_meters":7200,"station_id":"st_cvj6sg6p6f1abm77japg","pricing_plan_id":"cebpf4jnsgd1na2vs0mg"},{"bike_id":"b7844ae4-20d5-4d81-8f4d-cd146b6f58ee","system_id":"levelo_inurba_marseille","lat":43.3179,"lon":5.37642,"is_reserved":false,"is_disabled":false,"rental_uris":{"android":"levelo://app?vid=b7844ae4-20d5-4d81-8f4d-cd146b6f58ee","ios":"levelo://app?vid=b7844ae4-20d5-4d81-8f4d-cd146b6f58ee"},"vehicle_type_id":"4","last_reported":1760191612,"current_range_meters":8000,"station_id":"","pricing_plan_id":"cebpf4jnsgd1na2vs0mg"},{"bike_id":"d96643a5-46d3-4144-a9f6-0dde0db01c53","system_id":"levelo_inurba_marseille","lat":43.29251,"lon":5.37624,"is_reserved":false,"is_disabled":false,"rental_uris":{"android":"levelo://app?vid=d96643a5-46d3-4144-a9f6-0dde0db01c53","ios":"levelo://app?vid=d96643a5-46d3-4144-a9f6-0dde0db01c53"},"vehicle_type_id":"4","last_reported":1760191612,"current_range_meters":8000,"station_id":"ce4bgi12rcd13ifvqb80","pricing_plan_id":"cebpf4jnsgd1na2vs0mg"},{"bike_id":"87d5fbb3-d910-4550-9adb-817c4ee05549","system_id":"levelo_inurba_marseille","lat":43.28312,"lon":5.35086,"is_reserved":false,"is_disabled":false,"rental_uris":{"android":"levelo://app?vid=87d5fbb3-d910-4550-9adb-817c4ee05549","ios":"levelo://app?vid=87d5fbb3-d910-4550-9adb-817c4ee05549"},"vehicle_type_id":"4","last_reported":1760191612,"current_range_meters":8000,"station_id":"ce4bhbp2rcd13ifvqerg","pricing_plan_id":"cebpf4jnsgd1na2vs0mg"},{"bike_id":"5ccc7909-a5b3-4035-995d-3377d5b9c3fc","system_id":"levelo_inurba_marseille","lat":43.2292,"lon":5.35401,"is_reserved":false,"is_disabled":false,"rental_uris":{"android":"levelo://app?vid=5ccc7909-a5b3-4035-995d-3377d5b9c3fc","ios":"levelo://app?vid=5ccc7909-a5b3-4035-995d-3377d5b9c3fc"},"vehicle_type_id":"4","last_reported":1760191612,"current_range_meters":8000,"station_id":"cpo3532slgdg3j2ikp40","pricing_plan_id":"cebpf4jnsgd1na2vs0mg"},{"bike_id":"ab39e7be-c709-417b-8585-a40c41c27372","system_id":"levelo_inurba_marseille","lat":43.22573,"lon":5.41617,"is_reserved":false,"is_disabled":false,"rental_uris":{"android":"levelo://app?vid=ab39e7be-c709-417b-8585-a40c41c27372","ios":"levelo://app?vid=ab39e7be-c709-417b-8585-a40c41c27372"},"vehicle_type_id":"4","last_reported":1760191612,"current_range_meters":8000,"station_id":"st_d2o4gvlbi1j2169b742g","pricing_plan_id":"cebpf4jnsgd1na2vs0mg"},{"bike_id":"d1a54783-e0e1-4cc9-b0e2-5a7720c6a813","system_id":"levelo_inurba_marseille","lat":43.217435,"lon":5.346034,"is_reserved":false,"is_disabled":false,"rental_uris":{"android":"levelo://app?vid=d1a54783-e0e1-4cc9-b0e2-5a7720c6a813","ios":"levelo://app?vid=d1a54783-e0e1-4cc9-b0e2-5a7720c6a813"},"vehicle_type_id":"4","last_reported":1760191612,"current_range_meters":8400,"station_id":"","pricing_plan_id":"cebpf4jnsgd1na2vs0mg"},{"bike_id":"ae22ddd9-dd75-4e46-9710-aee5bc7401e6","system_id":"levelo_inurba_marseille","lat":43.24163,"lon":5.36392,"is_reserved":false,"is_disabled":false,"rental_uris":{"android":"levelo://app?vid=ae22ddd9-dd75-4e46-9710-aee5bc7401e6","ios":"levelo://app?vid=ae22ddd9-dd75-4e46-9710-aee5bc7401e6"},"vehicle_type_id":"4","last_reported":1760191612,"current_range_meters":8400,"station_id":"cpo36qri1sfpv3e86is0","pricing_plan_id":"cebpf4jnsgd1na2vs0mg"},{"bike_id":"12ffbdf7-d631-41cd-abfc-6e57387a22b0","system_id":"levelo_inurba_marseille","lat":43.24162,"lon":5.36396,"is_reserved":false,"is_disabled":false,"rental_uris":{"android":"levelo://app?vid=12ffbdf7-d631-41cd-abfc-6e57387a22b0","ios":"levelo://app?vid=12ffbdf7-d631-41cd-abfc-6e57387a22b0"},"vehicle_type_id":"4","last_reported":1760191612,"current_range_meters":8400,"station_id":"cpo36qri1sfpv3e86is0","pricing_plan_id":"cebpf4jnsgd1na2vs0mg"},{"bike_id":"92a30c30-f0b8-473f-9db4-cad408eac6b7","system_id":"levelo_inurba_marseille","lat":43.21753,"lon":5.34592,"is_reserved":false,"is_disabled":false,"rental_uris":{"android":"levelo://app?vid=92a30c30-f0b8-473f-9db4-cad408eac6b7","ios":"levelo://app?vid=92a30c30-f0b8-473f-9db4-cad408eac6b7"},"vehicle_type_id":"4","last_reported":1760191612,"current_range_meters":8400,"station_id":"st_cvj6r9ubvosntc0bgbag","pricing_plan_id":"cebpf4jnsgd1na2vs0mg"},{"bike_id":"7ecce9b3-6d8a-4b46-9e3e-06d9c28c905f","system_id":"levelo_inurba_marseille","lat":43.28933,"lon":5.39107,"is_reserved":false,"is_disabled":false,"rental_uris":{"android":"levelo://app?vid=7ecce9b3-6d8a-4b46-9e3e-06d9c28c905f","ios":"levelo://app?vid=7ecce9b3-6d8a-4b46-9e3e-06d9c28c905f"},"vehicle_type_id":"4","last_reported":1760191612,"current_range_meters":8800,"station_id":"","pricing_plan_id":"cebpf4jnsgd1na2vs0mg"},{"bike_id":"840f5367-4a8b-4bf8-aed3-ddf295d75be0","system_id":"levelo_inurba_marseille","lat":43.30428,"lon":5.371896,"is_reserved":false,"is_disabled":false,"rental_uris":{"android":"levelo://app?vid=840f5367-4a8b-4bf8-aed3-ddf295d75be0","ios":"levelo://app?vid=840f5367-4a8b-4bf8-aed3-ddf295d75be0"},"vehicle_type_id":"4","last_reported":1760191612,"current_range_meters":8800,"station_id":"","pricing_plan_id":"cebpf4jnsgd1na2vs0mg"},{"bike_id":"02c7fb2f-97d9-435d-ac32-f55720559d56","system_id":"levelo_inurba_marseille","lat":43.26689,"lon":5.38265,"is_reserved":false,"is_disabled":false,"rental_uris":{"android":"levelo://app?vid=02c7fb2f-97d9-435d-ac32-f55720559d56","ios":"levelo://app?vid=02c7fb2f-97d9-435d-ac32-f55720559d56"},"vehicle_type_id":"4","last_reported":1760191612,"current_range_meters":8800,"station_id":"ce4bhg92rcd13ifvqf90","pricing_plan_id":"cebpf4jnsgd1na2vs0mg"},{"bike_id":"8f3397a7-6be1-436d-972d-993eeb83afde","system_id":"levelo_inurba_marseille","lat":43.23194,"lon":5.35553,"is_reserved":false,"is_disabled":false,"rental_uris":{"android":"levelo://app?vid=8f3397a7-6be1-436d-972d-993eeb83afde","ios":"levelo://app?vid=8f3397a7-6be1-436d-972d-993eeb83afde"},"vehicle_type_id":"4","last_reported":1760191612,"current_range_meters":8800,"station_id":"ce4bhu92rcd13ifvqi70","pricing_plan_id":"cebpf4jnsgd1na2vs0mg"},{"bike_id":"418daf0b-408b-461f-adb6-879ea5491ed1","system_id":"levelo_inurba_marseille","lat":43.24165,"lon":5.3639,"is_reserved":false,"is_disabled":false,"rental_uris":{"android":"levelo://app?vid=418daf0b-408b-461f-adb6-879ea5491ed1","ios":"levelo://app?vid=418daf0b-408b-461f-adb6-879ea5491ed1"},"vehicle_type_id":"4","last_reported":1760191612,"current_range_meters":8800,"station_id":"cpo36qri1sfpv3e86is0","pricing_plan_id":"cebpf4jnsgd1na2vs0mg"},{"bike_id":"65de34ce-6450-4e56-a6fe-251627e07b88","system_id":"levelo_inurba_marseille","lat":43.21748,"lon":5.34608,"is_reserved":false,"is_disabled":false,"rental_uris":{"android":"levelo://app?vid=65de34ce-6450-4e56-a6fe-251627e07b88","ios":"levelo://app?vid=65de34ce-6450-4e56-a6fe-251627e07b88"},"vehicle_type_id":"4","last_reported":1760191612,"current_range_meters":8800,"station_id":"st_cvj6r9ubvosntc0bgbag","pricing_plan_id":"cebpf4jnsgd1na2vs0mg"},{"bike_id":"d37b9956-af67-4976-823b-f7189eb9fee7","system_id":"levelo_inurba_marseille","lat":43.21747,"lon":5.3461,"is_reserved":false,"is_disabled":false,"rental_uris":{"android":"levelo://app?vid=d37b9956-af67-4976-823b-f7189eb9fee7","ios":"levelo://app?vid=d37b9956-af67-4976-823b-f7189eb9fee7"},"vehicle_type_id":"4","last_reported":1760191612,"current_range_meters":8800,"station_id":"st_cvj6r9ubvosntc0bgbag","pricing_plan_id":"cebpf4jnsgd1na2vs0mg"},{"bike_id":"0458f03b-1910-440f-9167-c00670fba699","system_id":"levelo_inurba_marseille","lat":43.337444,"lon":5.374475,"is_reserved":false,"is_disabled":false,"rental_uris":{"android":"levelo://app?vid=0458f03b-1910-440f-9167-c00670fba699","ios":"levelo://app?vid=0458f03b-1910-440f-9167-c00670fba699"},"vehicle_type_id":"4","last_reported":1760191612,"current_range_meters":9200,"station_id":"","pricing_plan_id":"cebpf4jnsgd1na2vs0mg"},{"bike_id":"6fd6dea3-d148-4db8-86ca-bc606e7fc665","system_id":"levelo_inurba_marseille","lat":43.2828,"lon":5.35052,"is_reserved":false,"is_disabled":false,"rental_uris":{"android":"levelo://app?vid=6fd6dea3-d148-4db8-86ca-bc606e7fc665","ios":"levelo://app?vid=6fd6dea3-d148-4db8-86ca-bc606e7fc665"},"vehicle_type_id":"4","last_reported":1760191612,"current_range_meters":9200,"station_id":"ce4bhbp2rcd13ifvqerg","pricing_plan_id":"cebpf4jnsgd1na2vs0mg"},{"bike_id":"d3ddb799-7726-45fb-b784-e4fb2e2509f1","system_id":"levelo_inurba_marseille","lat":43.28617,"lon":5.35086,"is_reserved":false,"is_disabled":false,"rental_uris":{"android":"levelo://app?vid=d3ddb799-7726-45fb-b784-e4fb2e2509f1","ios":"levelo://app?vid=d3ddb799-7726-45fb-b784-e4fb2e2509f1"},"vehicle_type_id":"4","last_reported":1760191612,"current_range_meters":9200,"station_id":"ce4bhch2rcd13ifvqeug","pricing_plan_id":"cebpf4jnsgd1na2vs0mg"},{"bike_id":"4c4c0d28-bb88-4615-8c43-622b6e6f4c3a","system_id":"levelo_inurba_marseille","lat":43.28216,"lon":5.39058,"is_reserved":false,"is_disabled":false,"rental_uris":{"android":"levelo://app?vid=4c4c0d28-bb88-4615-8c43-622b6e6f4c3a","ios":"levelo://app?vid=4c4c0d28-bb88-4615-8c43-622b6e6f4c3a"},"vehicle_type_id":"4","last_reported":1760191612,"current_range_meters":9200,"station_id":"ce4bhn92rcd13ifvqgsg","pricing_plan_id":"cebpf4jnsgd1na2vs0mg"},{"bike_id":"c8bb1cc3-97bb-478b-b645-b9cbc81ff292","system_id":"levelo_inurba_marseille","lat":43.24169,"lon":5.36394,"is_reserved":false,"is_disabled":false,"rental_uris":{"android":"levelo://app?vid=c8bb1cc3-97bb-478b-b645-b9cbc81ff292","ios":"levelo://app?vid=c8bb1cc3-97bb-478b-b645-b9cbc81ff292"},"vehicle_type_id":"4","last_reported":1760191612,"current_range_meters":9200,"station_id":"cpo36qri1sfpv3e86is0","pricing_plan_id":"cebpf4jnsgd1na2vs0mg"},{"bike_id":"567535da-e28c-4727-a5a6-665654600220","system_id":"levelo_inurba_marseille","lat":43.21745,"lon":5.34602,"is_reserved":false,"is_disabled":false,"rental_uris":{"android":"levelo://app?vid=567535da-e28c-4727-a5a6-665654600220","ios":"levelo://app?vid=567535da-e28c-4727-a5a6-665654600220"},"vehicle_type_id":"4","last_reported":1760191612,"current_range_meters":9200,"station_id":"st_cvj6r9ubvosntc0bgbag","pricing_plan_id":"cebpf4jnsgd1na2vs0mg"},{"bike_id":"f2e35bad-98cf-4d74-b733-376d1fde6c8d","system_id":"levelo_inurba_marseille","lat":43.31162,"lon":5.38723,"is_reserved":false,"is_disabled":false,"rental_uris":{"android":"levelo://app?vid=f2e35bad-98cf-4d74-b733-376d1fde6c8d","ios":"levelo://app?vid=f2e35bad-98cf-4d74-b733-376d1fde6c8d"},"vehicle_type_id":"4","last_reported":1760191612,"current_range_meters":9600,"station_id":"ce4bgv12rcd13ifvqcp0","pricing_plan_id":"cebpf4jnsgd1na2vs0mg"},{"bike_id":"9f9edaa2-34b7-4837-8925-898705819e49","system_id":"levelo_inurba_marseille","lat":43.323604,"lon":5.367607,"is_reserved":false,"is_disabled":false,"rental_uris":{"android":"levelo://app?vid=9f9edaa2-34b7-4837-8925-898705819e49","ios":"levelo://app?vid=9f9edaa2-34b7-4837-8925-898705819e49"},"vehicle_type_id":"4","last_reported":1760191612,"current_range_meters":9600,"station_id":"ce4bhsh2rcd13ifvqi2g","pricing_plan_id":"cebpf4jnsgd1na2vs0mg"},{"bike_id":"c1850418-2bc0-4b54-95d2-984a6e34538c","system_id":"levelo_inurba_marseille","lat":43.23194,"lon":5.35562,"is_reserved":false,"is_disabled":false,"rental_uris":{"android":"levelo://app?vid=c1850418-2bc0-4b54-95d2-984a6e34538c","ios":"levelo://app?vid=c1850418-2bc0-4b54-95d2-984a6e34538c"},"vehicle_type_id":"4","last_reported":1760191612,"current_range_meters":9600,"station_id":"ce4bhu92rcd13ifvqi70","pricing_plan_id":"cebpf4jnsgd1na2vs0mg"},{"bike_id":"a0751e22-b05e-4f86-8571-0bd1d0cb6aca","system_id":"levelo_inurba_marseille","lat":43.22556,"lon":5.41651,"is_reserved":false,"is_disabled":false,"rental_uris":{"android":"levelo://app?vid=a0751e22-b05e-4f86-8571-0bd1d0cb6aca","ios":"levelo://app?vid=a0751e22-b05e-4f86-8571-0bd1d0cb6aca"},"vehicle_type_id":"4","last_reported":1760191612,"current_range_meters":9600,"station_id":"st_d2o4gvlbi1j2169b742g","pricing_plan_id":"cebpf4jnsgd1na2vs0mg"},{"bike_id":"a091fa2a-de07-4635-870e-3375376348fb","system_id":"levelo_inurba_marseille","lat":43.30072,"lon":5.38646,"is_reserved":false,"is_disabled":false,"rental_uris":{"android":"levelo://app?vid=a091fa2a-de07-4635-870e-3375376348fb","ios":"levelo://app?vid=a091fa2a-de07-4635-870e-3375376348fb"},"vehicle_type_id":"4","last_reported":1760191612,"current_range_meters":10000,"station_id":"","pricing_plan_id":"cebpf4jnsgd1na2vs0mg"},{"bike_id":"f84db39b-1588-467c-a7d6-3417c55d68b1","system_id":"levelo_inurba_marseille","lat":43.29384,"lon":5.37522,"is_reserved":false,"is_disabled":false,"rental_uris":{"android":"levelo://app?vid=f84db39b-1588-467c-a7d6-3417c55d68b1","ios":"levelo://app?vid=f84db39b-1588-467c-a7d6-3417c55d68b1"},"vehicle_type_id":"4","last_reported":1760191612,"current_range_meters":10000,"station_id":"","pricing_plan_id":"cebpf4jnsgd1na2vs0mg"},{"bike_id":"431c2e70-433d-4af0-acf4-957ec8670f40","system_id":"levelo_inurba_marseille","lat":43.2954,"lon":5.383068,"is_reserved":false,"is_disabled":false,"rental_uris":{"android":"levelo://app?vid=431c2e70-433d-4af0-acf4-957ec8670f40","ios":"levelo://app?vid=431c2e70-433d-4af0-acf4-957ec8670f40"},"vehicle_type_id":"4","last_reported":1760191612,"current_range_meters":10000,"station_id":"","pricing_plan_id":"cebpf4jnsgd1na2vs0mg"},{"bike_id":"049de467-6ca4-49e4-a381-ab0443b53e70","system_id":"levelo_inurba_marseille","lat":43.287845,"lon":5.372658,"is_reserved":false,"is_disabled":false,"rental_uris":{"android":"levelo://app?vid=049de467-6ca4-49e4-a381-ab0443b53e70","ios":"levelo://app?vid=049de467-6ca4-49e4-a381-ab0443b53e70"},"vehicle_type_id":"4","last_reported":1760191612,"current_range_meters":10000,"station_id":"ce4bh3p2rcd13ifvqdq0","pricing_plan_id":"cebpf4jnsgd1na2vs0mg"},{"bike_id":"2bc5c8d7-779e-4217-a284-10d4f7efa841","system_id":"levelo_inurba_marseille","lat":43.271774,"lon":5.409532,"is_reserved":false,"is_disabled":false,"rental_uris":{"android":"levelo://app?vid=2bc5c8d7-779e-4217-a284-10d4f7efa841","ios":"levelo://app?vid=2bc5c8d7-779e-4217-a284-10d4f7efa841"},"vehicle_type_id":"4","last_reported":1760191612,"current_range_meters":10000,"station_id":"ce4bhl12rcd13ifvqgf0","pricing_plan_id":"cebpf4jnsgd1na2vs0mg"},{"bike_id":"d0541185-1ae0-4b7a-85f0-f156ffc178f8","system_id":"levelo_inurba_marseille","lat":43.3205,"lon":5.415728,"is_reserved":false,"is_disabled":false,"rental_uris":{"android":"levelo://app?vid=d0541185-1ae0-4b7a-85f0-f156ffc178f8","ios":"levelo://app?vid=d0541185-1ae0-4b7a-85f0-f156ffc178f8"},"vehicle_type_id":"4","last_reported":1760191612,"current_range_meters":10000,"station_id":"ce4bhq92rcd13ifvqhkg","pricing_plan_id":"cebpf4jnsgd1na2vs0mg"},{"bike_id":"6b9aceba-71e8-40c6-a46e-e48f670aa85f","system_id":"levelo_inurba_marseille","lat":43.225342,"lon":5.348318,"is_reserved":false,"is_disabled":false,"rental_uris":{"android":"levelo://app?vid=6b9aceba-71e8-40c6-a46e-e48f670aa85f","ios":"levelo://app?vid=6b9aceba-71e8-40c6-a46e-e48f670aa85f"},"vehicle_type_id":"4","last_reported":1760191612,"current_range_meters":10800,"station_id":"","pricing_plan_id":"cebpf4jnsgd1na2vs0mg"},{"bike_id":"cb7a87e1-161d-40c0-b72d-0992f07c0c46","system_id":"levelo_inurba_marseille","lat":43.211916,"lon":5.350756,"is_reserved":false,"is_disabled":false,"rental_uris":{"android":"levelo://app?vid=cb7a87e1-161d-40c0-b72d-0992f07c0c46","ios":"levelo://app?vid=cb7a87e1-161d-40c0-b72d-0992f07c0c46"},"vehicle_type_id":"4","last_reported":1760191612,"current_range_meters":11200,"station_id":"","pricing_plan_id":"cebpf4jnsgd1na2vs0mg"},{"bike_id":"5722b1b0-2937-49a7-bdd9-7f283c0f6121","system_id":"levelo_inurba_marseille","lat":43.28263,"lon":5.35081,"is_reserved":false,"is_disabled":false,"rental_uris":{"android":"levelo://app?vid=5722b1b0-2937-49a7-bdd9-7f283c0f6121","ios":"levelo://app?vid=5722b1b0-2937-49a7-bdd9-7f283c0f6121"},"vehicle_type_id":"4","last_reported":1760191612,"current_range_meters":11200,"station_id":"ce4bhbp2rcd13ifvqerg","pricing_plan_id":"cebpf4jnsgd1na2vs0mg"},{"bike_id":"e84e7111-2bb1-4253-a815-668390568d4b","system_id":"levelo_inurba_marseille","lat":43.29278,"lon":5.36853,"is_reserved":false,"is_disabled":false,"rental_uris":{"android":"levelo://app?vid=e84e7111-2bb1-4253-a815-668390568d4b","ios":"levelo://app?vid=e84e7111-2bb1-4253-a815-668390568d4b"},"vehicle_type_id":"4","last_reported":1760191612,"current_range_meters":11200,"station_id":"ce4bhbp2rcd13ifvqesg","pricing_plan_id":"cebpf4jnsgd1na2vs0mg"},{"bike_id":"8482c7fc-cae1-421d-909c-59f847f96804","system_id":"levelo_inurba_marseille","lat":43.229262,"lon":5.353809,"is_reserved":false,"is_disabled":false,"rental_uris":{"android":"levelo://app?vid=8482c7fc-cae1-421d-909c-59f847f96804","ios":"levelo://app?vid=8482c7fc-cae1-421d-909c-59f847f96804"},"vehicle_type_id":"4","last_reported":1760191612,"current_range_meters":11200,"station_id":"cpo3532slgdg3j2ikp40","pricing_plan_id":"cebpf4jnsgd1na2vs0mg"},{"bike_id":"68c0b6a3-a9d2-47a1-bccd-2b46e24f2696","system_id":"levelo_inurba_marseille","lat":43.22572,"lon":5.41617,"is_reserved":false,"is_disabled":false,"rental_uris":{"android":"levelo://app?vid=68c0b6a3-a9d2-47a1-bccd-2b46e24f2696","ios":"levelo://app?vid=68c0b6a3-a9d2-47a1-bccd-2b46e24f2696"},"vehicle_type_id":"4","last_reported":1760191612,"current_range_meters":11200,"station_id":"st_d2o4gvlbi1j2169b742g","pricing_plan_id":"cebpf4jnsgd1na2vs0mg"},{"bike_id":"80b5fdd6-8044-4280-9733-7a4992e6b8f6","system_id":"levelo_inurba_marseille","lat":43.292676,"lon":5.376168,"is_reserved":false,"is_disabled":false,"rental_uris":{"android":"levelo://app?vid=80b5fdd6-8044-4280-9733-7a4992e6b8f6","ios":"levelo://app?vid=80b5fdd6-8044-4280-9733-7a4992e6b8f6"},"vehicle_type_id":"4","last_reported":1760191612,"current_range_meters":11600,"station_id":"","pricing_plan_id":"cebpf4jnsgd1na2vs0mg"},{"bike_id":"a301e0f2-321c-40e4-bce9-2fca52035756","system_id":"levelo_inurba_marseille","lat":43.21757,"lon":5.34606,"is_reserved":false,"is_disabled":false,"rental_uris":{"android":"levelo://app?vid=a301e0f2-321c-40e4-bce9-2fca52035756","ios":"levelo://app?vid=a301e0f2-321c-40e4-bce9-2fca52035756"},"vehicle_type_id":"4","last_reported":1760191612,"current_range_meters":11600,"station_id":"ce4bhnp2rcd13ifvqgvg","pricing_plan_id":"cebpf4jnsgd1na2vs0mg"},{"bike_id":"b94209b1-e421-40e8-9cb4-962181fc4122","system_id":"levelo_inurba_marseille","lat":43.28422,"lon":5.34978,"is_reserved":false,"is_disabled":false,"rental_uris":{"android":"levelo://app?vid=b94209b1-e421-40e8-9cb4-962181fc4122","ios":"levelo://app?vid=b94209b1-e421-40e8-9cb4-962181fc4122"},"vehicle_type_id":"4","last_reported":1760191612,"current_range_meters":12000,"station_id":"ce4bhbh2rcd13ifvqepg","pricing_plan_id":"cebpf4jnsgd1na2vs0mg"},{"bike_id":"a33a8451-e509-4bd9-910d-787b9a4a6425","system_id":"levelo_inurba_marseille","lat":43.29785,"lon":5.39338,"is_reserved":false,"is_disabled":false,"rental_uris":{"android":"levelo://app?vid=a33a8451-e509-4bd9-910d-787b9a4a6425","ios":"levelo://app?vid=a33a8451-e509-4bd9-910d-787b9a4a6425"},"vehicle_type_id":"4","last_reported":1760191612,"current_range_meters":12000,"station_id":"chh1huq6cuj3fo74tm60","pricing_plan_id":"cebpf4jnsgd1na2vs0mg"},{"bike_id":"f7ebaabc-94e3-4158-9f4b-3cf32277b28b","system_id":"levelo_inurba_marseille","lat":43.24181,"lon":5.36387,"is_reserved":false,"is_disabled":false,"rental_uris":{"android":"levelo://app?vid=f7ebaabc-94e3-4158-9f4b-3cf32277b28b","ios":"levelo://app?vid=f7ebaabc-94e3-4158-9f4b-3cf32277b28b"},"vehicle_type_id":"4","last_reported":1760191612,"current_range_meters":12000,"station_id":"cpo36qri1sfpv3e86is0","pricing_plan_id":"cebpf4jnsgd1na2vs0mg"},{"bike_id":"91ca0724-863f-4f34-bcd1-2a4d45177f29","system_id":"levelo_inurba_marseille","lat":43.2924,"lon":5.37622,"is_reserved":false,"is_disabled":false,"rental_uris":{"android":"levelo://app?vid=91ca0724-863f-4f34-bcd1-2a4d45177f29","ios":"levelo://app?vid=91ca0724-863f-4f34-bcd1-2a4d45177f29"},"vehicle_type_id":"4","last_reported":1760191612,"current_range_meters":12400,"station_id":"ce4bgi12rcd13ifvqb80","pricing_plan_id":"cebpf4jnsgd1na2vs0mg"},{"bike_id":"01dfdfb0-f870-48b5-af2a-f7e6ab2d7a92","system_id":"levelo_inurba_marseille","lat":43.30277,"lon":5.37694,"is_reserved":false,"is_disabled":false,"rental_uris":{"android":"levelo://app?vid=01dfdfb0-f870-48b5-af2a-f7e6ab2d7a92","ios":"levelo://app?vid=01dfdfb0-f870-48b5-af2a-f7e6ab2d7a92"},"vehicle_type_id":"4","last_reported":1760191612,"current_range_meters":12400,"station_id":"ce4bguh2rcd13ifvqcj0","pricing_plan_id":"cebpf4jnsgd1na2vs0mg"},{"bike_id":"2f5a8dc9-d2d7-4438-8d94-822dd75a9859","system_id":"levelo_inurba_marseille","lat":43.28417,"lon":5.34991,"is_reserved":false,"is_disabled":false,"rental_uris":{"android":"levelo://app?vid=2f5a8dc9-d2d7-4438-8d94-822dd75a9859","ios":"levelo://app?vid=2f5a8dc9-d2d7-4438-8d94-822dd75a9859"},"vehicle_type_id":"4","last_reported":1760191612,"current_range_meters":12400,"station_id":"ce4bhbh2rcd13ifvqepg","pricing_plan_id":"cebpf4jnsgd1na2vs0mg"},{"bike_id":"5b570568-b744-4ae9-9fba-9e5841e4a42f","system_id":"levelo_inurba_marseille","lat":43.24175,"lon":5.39744,"is_reserved":false,"is_disabled":false,"rental_uris":{"android":"levelo://app?vid=5b570568-b744-4ae9-9fba-9e5841e4a42f","ios":"levelo://app?vid=5b570568-b744-4ae9-9fba-9e5841e4a42f"},"vehicle_type_id":"4","last_reported":1760191612,"current_range_meters":12400,"station_id":"ce4bhn12rcd13ifvqgpg","pricing_plan_id":"cebpf4jnsgd1na2vs0mg"},{"bike_id":"c39df3bb-01b0-4775-a701-339d4b4fe32d","system_id":"levelo_inurba_marseille","lat":43.23192,"lon":5.35558,"is_reserved":false,"is_disabled":false,"rental_uris":{"android":"levelo://app?vid=c39df3bb-01b0-4775-a701-339d4b4fe32d","ios":"levelo://app?vid=c39df3bb-01b0-4775-a701-339d4b4fe32d"},"vehicle_type_id":"4","last_reported":1760191612,"current_range_meters":12400,"station_id":"ce4bhu92rcd13ifvqi70","pricing_plan_id":"cebpf4jnsgd1na2vs0mg"},{"bike_id":"3aee201c-eced-4867-b84a-9c76c962f6e2","system_id":"levelo_inurba_marseille","lat":43.241669,"lon":5.363969,"is_reserved":false,"is_disabled":false,"rental_uris":{"android":"levelo://app?vid=3aee201c-eced-4867-b84a-9c76c962f6e2","ios":"levelo://app?vid=3aee201c-eced-4867-b84a-9c76c962f6e2"},"vehicle_type_id":"4","last_reported":1760191612,"current_range_meters":12400,"station_id":"cpo36qri1sfpv3e86is0","pricing_plan_id":"cebpf4jnsgd1na2vs0mg"},{"bike_id":"bba518c9-6b41-4f52-bbd2-7ca9cdbd7c63","system_id":"levelo_inurba_marseille","lat":43.28275,"lon":5.35081,"is_reserved":false,"is_disabled":false,"rental_uris":{"android":"levelo://app?vid=bba518c9-6b41-4f52-bbd2-7ca9cdbd7c63","ios":"levelo://app?vid=bba518c9-6b41-4f52-bbd2-7ca9cdbd7c63"},"vehicle_type_id":"4","last_reported":1760191612,"current_range_meters":12800,"station_id":"ce4bhbp2rcd13ifvqerg","pricing_plan_id":"cebpf4jnsgd1na2vs0mg"},{"bike_id":"34ee85c6-5ad4-47a3-86f2-fb7a8b8f71b3","system_id":"levelo_inurba_marseille","lat":43.21744,"lon":5.34603,"is_reserved":false,"is_disabled":false,"rental_uris":{"android":"levelo://app?vid=34ee85c6-5ad4-47a3-86f2-fb7a8b8f71b3","ios":"levelo://app?vid=34ee85c6-5ad4-47a3-86f2-fb7a8b8f71b3"},"vehicle_type_id":"4","last_reported":1760191612,"current_range_meters":12800,"station_id":"st_cvj6r9ubvosntc0bgbag","pricing_plan_id":"cebpf4jnsgd1na2vs0mg"},{"bike_id":"96189567-9f56-4467-99e1-85c33efa20b5","system_id":"levelo_inurba_marseille","lat":43.22566,"lon":5.4163,"is_reserved":false,"is_disabled":false,"rental_uris":{"android":"levelo://app?vid=96189567-9f56-4467-99e1-85c33efa20b5","ios":"levelo://app?vid=96189567-9f56-4467-99e1-85c33efa20b5"},"vehicle_type_id":"4","last_reported":1760191612,"current_range_meters":12800,"station_id":"st_d2o4gvlbi1j2169b742g","pricing_plan_id":"cebpf4jnsgd1na2vs0mg"},{"bike_id":"4c2ea989-f363-4d09-a5d9-340a713e1403","system_id":"levelo_inurba_marseille","lat":43.28419,"lon":5.34976,"is_reserved":false,"is_disabled":false,"rental_uris":{"android":"levelo://app?vid=4c2ea989-f363-4d09-a5d9-340a713e1403","ios":"levelo://app?vid=4c2ea989-f363-4d09-a5d9-340a713e1403"},"vehicle_type_id":"4","last_reported":1760191612,"current_range_meters":13600,"station_id":"ce4bhbh2rcd13ifvqepg","pricing_plan_id":"cebpf4jnsgd1na2vs0mg"},{"bike_id":"569b0767-5594-4cd5-9819-4e09c06e16b2","system_id":"levelo_inurba_marseille","lat":43.24804,"lon":5.3746,"is_reserved":false,"is_disabled":false,"rental_uris":{"android":"levelo://app?vid=569b0767-5594-4cd5-9819-4e09c06e16b2","ios":"levelo://app?vid=569b0767-5594-4cd5-9819-4e09c06e16b2"},"vehicle_type_id":"4","last_reported":1760191612,"current_range_meters":13600,"station_id":"ce4bhgh2rcd13ifvqfb0","pricing_plan_id":"cebpf4jnsgd1na2vs0mg"},{"bike_id":"5b3bb1e2-271f-4440-b875-4f6020a66735","system_id":"levelo_inurba_marseille","lat":43.24998,"lon":5.3894,"is_reserved":false,"is_disabled":false,"rental_uris":{"android":"levelo://app?vid=5b3bb1e2-271f-4440-b875-4f6020a66735","ios":"levelo://app?vid=5b3bb1e2-271f-4440-b875-4f6020a66735"},"vehicle_type_id":"4","last_reported":1760191612,"current_range_meters":13600,"station_id":"ce4bhgp2rcd13ifvqfd0","pricing_plan_id":"cebpf4jnsgd1na2vs0mg"},{"bike_id":"05413a99-4067-44ec-a846-1e0ed4fc9e4f","system_id":"levelo_inurba_marseille","lat":43.25004,"lon":5.38929,"is_reserved":false,"is_disabled":false,"rental_uris":{"android":"levelo://app?vid=05413a99-4067-44ec-a846-1e0ed4fc9e4f","ios":"levelo://app?vid=05413a99-4067-44ec-a846-1e0ed4fc9e4f"},"vehicle_type_id":"4","last_reported":1760191612,"current_range_meters":13600,"station_id":"ce4bhgp2rcd13ifvqfd0","pricing_plan_id":"cebpf4jnsgd1na2vs0mg"},{"bike_id":"9ffee93c-9f40-4f78-9b73-036c629fc6e7","system_id":"levelo_inurba_marseille","lat":43.23217,"lon":5.35519,"is_reserved":false,"is_disabled":false,"rental_uris":{"android":"levelo://app?vid=9ffee93c-9f40-4f78-9b73-036c629fc6e7","ios":"levelo://app?vid=9ffee93c-9f40-4f78-9b73-036c629fc6e7"},"vehicle_type_id":"4","last_reported":1760191612,"current_range_meters":13600,"station_id":"ce4bhu92rcd13ifvqi70","pricing_plan_id":"cebpf4jnsgd1na2vs0mg"},{"bike_id":"34074c9c-9696-4faa-ac71-2c3ed5a5c093","system_id":"levelo_inurba_marseille","lat":43.21739,"lon":5.34614,"is_reserved":false,"is_disabled":false,"rental_uris":{"android":"levelo://app?vid=34074c9c-9696-4faa-ac71-2c3ed5a5c093","ios":"levelo://app?vid=34074c9c-9696-4faa-ac71-2c3ed5a5c093"},"vehicle_type_id":"4","last_reported":1760191612,"current_range_meters":13600,"station_id":"st_cvj6r9ubvosntc0bgbag","pricing_plan_id":"cebpf4jnsgd1na2vs0mg"},{"bike_id":"cc731a5b-ec15-4e39-8ce8-518c53a81ef3","system_id":"levelo_inurba_marseille","lat":43.2176,"lon":5.34598,"is_reserved":false,"is_disabled":false,"rental_uris":{"android":"levelo://app?vid=cc731a5b-ec15-4e39-8ce8-518c53a81ef3","ios":"levelo://app?vid=cc731a5b-ec15-4e39-8ce8-518c53a81ef3"},"vehicle_type_id":"4","last_reported":1760191612,"current_range_meters":13600,"station_id":"st_cvj6r9ubvosntc0bgbag","pricing_plan_id":"cebpf4jnsgd1na2vs0mg"},{"bike_id":"08fcdb32-2bb9-48aa-82a9-a8f703dd0269","system_id":"levelo_inurba_marseille","lat":43.253919,"lon":5.418948,"is_reserved":false,"is_disabled":false,"rental_uris":{"android":"levelo://app?vid=08fcdb32-2bb9-48aa-82a9-a8f703dd0269","ios":"levelo://app?vid=08fcdb32-2bb9-48aa-82a9-a8f703dd0269"},"vehicle_type_id":"4","last_reported":1760191612,"current_range_meters":14000,"station_id":"","pricing_plan_id":"cebpf4jnsgd1na2vs0mg"},{"bike_id":"85a1ee1d-dda2-4de7-81f8-a5546f79bc76","system_id":"levelo_inurba_marseille","lat":43.239747,"lon":5.366311,"is_reserved":false,"is_disabled":false,"rental_uris":{"android":"levelo://app?vid=85a1ee1d-dda2-4de7-81f8-a5546f79bc76","ios":"levelo://app?vid=85a1ee1d-dda2-4de7-81f8-a5546f79bc76"},"vehicle_type_id":"4","last_reported":1760191612,"current_range_meters":14000,"station_id":"ce4bhi12rcd13ifvqfp0","pricing_plan_id":"cebpf4jnsgd1na2vs0mg"},{"bike_id":"1d0726e0-7a3b-43ce-a853-86633180b636","system_id":"levelo_inurba_marseille","lat":43.25823,"lon":5.39436,"is_reserved":false,"is_disabled":false,"rental_uris":{"android":"levelo://app?vid=1d0726e0-7a3b-43ce-a853-86633180b636","ios":"levelo://app?vid=1d0726e0-7a3b-43ce-a853-86633180b636"},"vehicle_type_id":"4","last_reported":1760191612,"current_range_meters":14000,"station_id":"ce4bhip2rcd13ifvqft0","pricing_plan_id":"cebpf4jnsgd1na2vs0mg"},{"bike_id":"2c4b2638-6ca0-492d-ba12-8da2147de5c2","system_id":"levelo_inurba_marseille","lat":43.24077,"lon":5.37763,"is_reserved":false,"is_disabled":false,"rental_uris":{"android":"levelo://app?vid=2c4b2638-6ca0-492d-ba12-8da2147de5c2","ios":"levelo://app?vid=2c4b2638-6ca0-492d-ba12-8da2147de5c2"},"vehicle_type_id":"4","last_reported":1760191612,"current_range_meters":14000,"station_id":"ce4bhnp2rcd13ifvqgvg","pricing_plan_id":"cebpf4jnsgd1na2vs0mg"},{"bike_id":"b6bb6b7a-5b62-4eea-bdcd-350fb33f76e6","system_id":"levelo_inurba_marseille","lat":43.23184,"lon":5.35552,"is_reserved":false,"is_disabled":false,"rental_uris":{"android":"levelo://app?vid=b6bb6b7a-5b62-4eea-bdcd-350fb33f76e6","ios":"levelo://app?vid=b6bb6b7a-5b62-4eea-bdcd-350fb33f76e6"},"vehicle_type_id":"4","last_reported":1760191612,"current_range_meters":14000,"station_id":"ce4bhu92rcd13ifvqi70","pricing_plan_id":"cebpf4jnsgd1na2vs0mg"},{"bike_id":"963f2540-5fa7-4d25-bcfd-b0e2fd2ae75d","system_id":"levelo_inurba_marseille","lat":43.2175,"lon":5.34595,"is_reserved":false,"is_disabled":false,"rental_uris":{"android":"levelo://app?vid=963f2540-5fa7-4d25-bcfd-b0e2fd2ae75d","ios":"levelo://app?vid=963f2540-5fa7-4d25-bcfd-b0e2fd2ae75d"},"vehicle_type_id":"4","last_reported":1760191612,"current_range_meters":14000,"station_id":"st_cvj6r9ubvosntc0bgbag","pricing_plan_id":"cebpf4jnsgd1na2vs0mg"},{"bike_id":"8dc0c13a-1042-4c67-b7b2-fb8ee98dc388","system_id":"levelo_inurba_marseille","lat":43.21759,"lon":5.34608,"is_reserved":false,"is_disabled":false,"rental_uris":{"android":"levelo://app?vid=8dc0c13a-1042-4c67-b7b2-fb8ee98dc388","ios":"levelo://app?vid=8dc0c13a-1042-4c67-b7b2-fb8ee98dc388"},"vehicle_type_id":"4","last_reported":1760191612,"current_range_meters":14000,"station_id":"st_cvj6r9ubvosntc0bgbag","pricing_plan_id":"cebpf4jnsgd1na2vs0mg"},{"bike_id":"ddab2a1b-efd6-4024-bf05-65d95714247a","system_id":"levelo_inurba_marseille","lat":43.28418,"lon":5.3498,"is_reserved":false,"is_disabled":false,"rental_uris":{"android":"levelo://app?vid=ddab2a1b-efd6-4024-bf05-65d95714247a","ios":"levelo://app?vid=ddab2a1b-efd6-4024-bf05-65d95714247a"},"vehicle_type_id":"4","last_reported":1760191612,"current_range_meters":14400,"station_id":"ce4bhbh2rcd13ifvqepg","pricing_plan_id":"cebpf4jnsgd1na2vs0mg"},{"bike_id":"9a3f78ca-b0c6-4f72-8a79-592b18fbedf7","system_id":"levelo_inurba_marseille","lat":43.24069,"lon":5.37767,"is_reserved":false,"is_disabled":false,"rental_uris":{"android":"levelo://app?vid=9a3f78ca-b0c6-4f72-8a79-592b18fbedf7","ios":"levelo://app?vid=9a3f78ca-b0c6-4f72-8a79-592b18fbedf7"},"vehicle_type_id":"4","last_reported":1760191612,"current_range_meters":14400,"station_id":"ce4bhnp2rcd13ifvqgvg","pricing_plan_id":"cebpf4jnsgd1na2vs0mg"},{"bike_id":"5f2f1c1c-aae9-42d9-9683-aee6c96dc20e","system_id":"levelo_inurba_marseille","lat":43.31789,"lon":5.39037,"is_reserved":false,"is_disabled":false,"rental_uris":{"android":"levelo://app?vid=5f2f1c1c-aae9-42d9-9683-aee6c96dc20e","ios":"levelo://app?vid=5f2f1c1c-aae9-42d9-9683-aee6c96dc20e"},"vehicle_type_id":"4","last_reported":1760191612,"current_range_meters":14400,"station_id":"ce4bhqp2rcd13ifvqhng","pricing_plan_id":"cebpf4jnsgd1na2vs0mg"},{"bike_id":"996f9f46-e0ea-4e4d-bf22-c899d0b79667","system_id":"levelo_inurba_marseille","lat":43.2293,"lon":5.35373,"is_reserved":false,"is_disabled":false,"rental_uris":{"android":"levelo://app?vid=996f9f46-e0ea-4e4d-bf22-c899d0b79667","ios":"levelo://app?vid=996f9f46-e0ea-4e4d-bf22-c899d0b79667"},"vehicle_type_id":"4","last_reported":1760191612,"current_range_meters":14400,"station_id":"cpo3532slgdg3j2ikp40","pricing_plan_id":"cebpf4jnsgd1na2vs0mg"},{"bike_id":"daca0046-00af-4c3d-97a3-9a04d8ad7588","system_id":"levelo_inurba_marseille","lat":43.22552,"lon":5.41626,"is_reserved":false,"is_disabled":false,"rental_uris":{"android":"levelo://app?vid=daca0046-00af-4c3d-97a3-9a04d8ad7588","ios":"levelo://app?vid=daca0046-00af-4c3d-97a3-9a04d8ad7588"},"vehicle_type_id":"4","last_reported":1760191612,"current_range_meters":14400,"station_id":"st_d2o4gvlbi1j2169b742g","pricing_plan_id":"cebpf4jnsgd1na2vs0mg"},{"bike_id":"17c12004-9ed4-4b1f-b1bf-3cb4f120663b","system_id":"levelo_inurba_marseille","lat":43.22557,"lon":5.41634,"is_reserved":false,"is_disabled":false,"rental_uris":{"android":"levelo://app?vid=17c12004-9ed4-4b1f-b1bf-3cb4f120663b","ios":"levelo://app?vid=17c12004-9ed4-4b1f-b1bf-3cb4f120663b"},"vehicle_type_id":"4","last_reported":1760191612,"current_range_meters":14400,"station_id":"st_d2o4gvlbi1j2169b742g","pricing_plan_id":"cebpf4jnsgd1na2vs0mg"},{"bike_id":"36852a13-f383-442f-9a01-f153febeeef2","system_id":"levelo_inurba_marseille","lat":43.30184,"lon":5.36841,"is_reserved":false,"is_disabled":false,"rental_uris":{"android":"levelo://app?vid=36852a13-f383-442f-9a01-f153febeeef2","ios":"levelo://app?vid=36852a13-f383-442f-9a01-f153febeeef2"},"vehicle_type_id":"4","last_reported":1760191612,"current_range_meters":14800,"station_id":"","pricing_plan_id":"cebpf4jnsgd1na2vs0mg"},{"bike_id":"dacfb982-a340-4191-b67d-23fcb487e849","system_id":"levelo_inurba_marseille","lat":43.28263,"lon":5.35061,"is_reserved":false,"is_disabled":false,"rental_uris":{"android":"levelo://app?vid=dacfb982-a340-4191-b67d-23fcb487e849","ios":"levelo://app?vid=dacfb982-a340-4191-b67d-23fcb487e849"},"vehicle_type_id":"4","last_reported":1760191612,"current_range_meters":14800,"station_id":"ce4bhbp2rcd13ifvqerg","pricing_plan_id":"cebpf4jnsgd1na2vs0mg"},{"bike_id":"36eec012-e762-4979-aa32-17e11544423d","system_id":"levelo_inurba_marseille","lat":43.27427,"lon":5.39422,"is_reserved":false,"is_disabled":false,"rental_uris":{"android":"levelo://app?vid=36eec012-e762-4979-aa32-17e11544423d","ios":"levelo://app?vid=36eec012-e762-4979-aa32-17e11544423d"},"vehicle_type_id":"4","last_reported":1760191612,"current_range_meters":14800,"station_id":"ce4bhdp2rcd13ifvqf20","pricing_plan_id":"cebpf4jnsgd1na2vs0mg"},{"bike_id":"461d6440-5738-4dd8-9ccb-a1d747e039d4","system_id":"levelo_inurba_marseille","lat":43.26192,"lon":5.37457,"is_reserved":false,"is_disabled":false,"rental_uris":{"android":"levelo://app?vid=461d6440-5738-4dd8-9ccb-a1d747e039d4","ios":"levelo://app?vid=461d6440-5738-4dd8-9ccb-a1d747e039d4"},"vehicle_type_id":"4","last_reported":1760191612,"current_range_meters":14800,"station_id":"ce4bhgp2rcd13ifvqfc0","pricing_plan_id":"cebpf4jnsgd1na2vs0mg"},{"bike_id":"4fe8ebe8-dc7a-4dde-a9ea-f665f98c5b37","system_id":"levelo_inurba_marseille","lat":43.2314,"lon":5.43718,"is_reserved":false,"is_disabled":false,"rental_uris":{"android":"levelo://app?vid=4fe8ebe8-dc7a-4dde-a9ea-f665f98c5b37","ios":"levelo://app?vid=4fe8ebe8-dc7a-4dde-a9ea-f665f98c5b37"},"vehicle_type_id":"4","last_reported":1760191612,"current_range_meters":14800,"station_id":"ce4bhmp2rcd13ifvqgog","pricing_plan_id":"cebpf4jnsgd1na2vs0mg"},{"bike_id":"1274341e-f484-48bd-95e5-e905ccbea7d0","system_id":"levelo_inurba_marseille","lat":43.28005,"lon":5.41682,"is_reserved":false,"is_disabled":false,"rental_uris":{"android":"levelo://app?vid=1274341e-f484-48bd-95e5-e905ccbea7d0","ios":"levelo://app?vid=1274341e-f484-48bd-95e5-e905ccbea7d0"},"vehicle_type_id":"4","last_reported":1760191612,"current_range_meters":14800,"station_id":"ce4bho12rcd13ifvqh1g","pricing_plan_id":"cebpf4jnsgd1na2vs0mg"},{"bike_id":"cad83941-12bb-462d-aefc-5dd7d6496066","system_id":"levelo_inurba_marseille","lat":43.22561,"lon":5.41632,"is_reserved":false,"is_disabled":false,"rental_uris":{"android":"levelo://app?vid=cad83941-12bb-462d-aefc-5dd7d6496066","ios":"levelo://app?vid=cad83941-12bb-462d-aefc-5dd7d6496066"},"vehicle_type_id":"4","last_reported":1760191612,"current_range_meters":14800,"station_id":"st_d2o4gvlbi1j2169b742g","pricing_plan_id":"cebpf4jnsgd1na2vs0mg"},{"bike_id":"187cf0d8-0607-43fc-8eaa-6af12fda0dee","system_id":"levelo_inurba_marseille","lat":43.22428,"lon":5.34657,"is_reserved":false,"is_disabled":false,"rental_uris":{"android":"levelo://app?vid=187cf0d8-0607-43fc-8eaa-6af12fda0dee","ios":"levelo://app?vid=187cf0d8-0607-43fc-8eaa-6af12fda0dee"},"vehicle_type_id":"4","last_reported":1760191612,"current_range_meters":15200,"station_id":"","pricing_plan_id":"cebpf4jnsgd1na2vs0mg"},{"bike_id":"f643732a-737c-4023-9ce1-91073dd626a3","system_id":"levelo_inurba_marseille","lat":43.31598,"lon":5.38135,"is_reserved":false,"is_disabled":false,"rental_uris":{"android":"levelo://app?vid=f643732a-737c-4023-9ce1-91073dd626a3","ios":"levelo://app?vid=f643732a-737c-4023-9ce1-91073dd626a3"},"vehicle_type_id":"4","last_reported":1760191612,"current_range_meters":15200,"station_id":"","pricing_plan_id":"cebpf4jnsgd1na2vs0mg"},{"bike_id":"1653f7f0-e95e-429b-a4dd-e09e9a037668","system_id":"levelo_inurba_marseille","lat":43.29368,"lon":5.37867,"is_reserved":false,"is_disabled":false,"rental_uris":{"android":"levelo://app?vid=1653f7f0-e95e-429b-a4dd-e09e9a037668","ios":"levelo://app?vid=1653f7f0-e95e-429b-a4dd-e09e9a037668"},"vehicle_type_id":"4","last_reported":1760191612,"current_range_meters":15200,"station_id":"ce4bgjh2rcd13ifvqbf0","pricing_plan_id":"cebpf4jnsgd1na2vs0mg"},{"bike_id":"deadc656-3037-4ce5-b7dd-35e1f65ee08d","system_id":"levelo_inurba_marseille","lat":43.28939,"lon":5.39635,"is_reserved":false,"is_disabled":false,"rental_uris":{"android":"levelo://app?vid=deadc656-3037-4ce5-b7dd-35e1f65ee08d","ios":"levelo://app?vid=deadc656-3037-4ce5-b7dd-35e1f65ee08d"},"vehicle_type_id":"4","last_reported":1760191612,"current_range_meters":15200,"station_id":"ce4bh3h2rcd13ifvqdn0","pricing_plan_id":"cebpf4jnsgd1na2vs0mg"},{"bike_id":"c858ea21-ccd2-49bf-ab50-1c02025b0abc","system_id":"levelo_inurba_marseille","lat":43.28413,"lon":5.34991,"is_reserved":false,"is_disabled":false,"rental_uris":{"android":"levelo://app?vid=c858ea21-ccd2-49bf-ab50-1c02025b0abc","ios":"levelo://app?vid=c858ea21-ccd2-49bf-ab50-1c02025b0abc"},"vehicle_type_id":"4","last_reported":1760191612,"current_range_meters":15200,"station_id":"ce4bhbh2rcd13ifvqepg","pricing_plan_id":"cebpf4jnsgd1na2vs0mg"},{"bike_id":"7be0f6bf-6c6b-4bc2-8340-976d6be916ea","system_id":"levelo_inurba_marseille","lat":43.22926,"lon":5.3537,"is_reserved":false,"is_disabled":false,"rental_uris":{"android":"levelo://app?vid=7be0f6bf-6c6b-4bc2-8340-976d6be916ea","ios":"levelo://app?vid=7be0f6bf-6c6b-4bc2-8340-976d6be916ea"},"vehicle_type_id":"4","last_reported":1760191612,"current_range_meters":15200,"station_id":"cpo3532slgdg3j2ikp40","pricing_plan_id":"cebpf4jnsgd1na2vs0mg"},{"bike_id":"2d47de9e-e33d-477c-8917-7d91ac05947a","system_id":"levelo_inurba_marseille","lat":43.29711,"lon":5.39824,"is_reserved":false,"is_disabled":false,"rental_uris":{"android":"levelo://app?vid=2d47de9e-e33d-477c-8917-7d91ac05947a","ios":"levelo://app?vid=2d47de9e-e33d-477c-8917-7d91ac05947a"},"vehicle_type_id":"4","last_reported":1760191612,"current_range_meters":16000,"station_id":"","pricing_plan_id":"cebpf4jnsgd1na2vs0mg"},{"bike_id":"b78fc6de-8c66-40b1-bc7e-1794eacc6804","system_id":"levelo_inurba_marseille","lat":43.28132,"lon":5.35029,"is_reserved":false,"is_disabled":false,"rental_uris":{"android":"levelo://app?vid=b78fc6de-8c66-40b1-bc7e-1794eacc6804","ios":"levelo://app?vid=b78fc6de-8c66-40b1-bc7e-1794eacc6804"},"vehicle_type_id":"4","last_reported":1760191612,"current_range_meters":16000,"station_id":"","pricing_plan_id":"cebpf4jnsgd1na2vs0mg"},{"bike_id":"15451fa0-fcd8-4d45-8db6-456dca15837d","system_id":"levelo_inurba_marseille","lat":43.28411,"lon":5.34991,"is_reserved":false,"is_disabled":false,"rental_uris":{"android":"levelo://app?vid=15451fa0-fcd8-4d45-8db6-456dca15837d","ios":"levelo://app?vid=15451fa0-fcd8-4d45-8db6-456dca15837d"},"vehicle_type_id":"4","last_reported":1760191612,"current_range_meters":16000,"station_id":"ce4bhbh2rcd13ifvqepg","pricing_plan_id":"cebpf4jnsgd1na2vs0mg"},{"bike_id":"89e0317d-5d5b-4318-8f53-4e00e69b1c2e","system_id":"levelo_inurba_marseille","lat":43.26559,"lon":5.3728,"is_reserved":false,"is_disabled":false,"rental_uris":{"android":"levelo://app?vid=89e0317d-5d5b-4318-8f53-4e00e69b1c2e","ios":"levelo://app?vid=89e0317d-5d5b-4318-8f53-4e00e69b1c2e"},"vehicle_type_id":"4","last_reported":1760191612,"current_range_meters":16000,"station_id":"ce4bhg12rcd13ifvqf70","pricing_plan_id":"cebpf4jnsgd1na2vs0mg"},{"bike_id":"b7beb4e8-058e-45b5-ba9a-d411cd9da5a0","system_id":"levelo_inurba_marseille","lat":43.239639,"lon":5.366295,"is_reserved":false,"is_disabled":false,"rental_uris":{"android":"levelo://app?vid=b7beb4e8-058e-45b5-ba9a-d411cd9da5a0","ios":"levelo://app?vid=b7beb4e8-058e-45b5-ba9a-d411cd9da5a0"},"vehicle_type_id":"4","last_reported":1760191612,"current_range_meters":16000,"station_id":"ce4bhi12rcd13ifvqfp0","pricing_plan_id":"cebpf4jnsgd1na2vs0mg"},{"bike_id":"ae11731f-25a2-48c5-9ff7-c36133f114a8","system_id":"levelo_inurba_marseille","lat":43.23177,"lon":5.39986,"is_reserved":false,"is_disabled":false,"rental_uris":{"android":"levelo://app?vid=ae11731f-25a2-48c5-9ff7-c36133f114a8","ios":"levelo://app?vid=ae11731f-25a2-48c5-9ff7-c36133f114a8"},"vehicle_type_id":"4","last_reported":1760191612,"current_range_meters":16000,"station_id":"ce4bhn12rcd13ifvqgqg","pricing_plan_id":"cebpf4jnsgd1na2vs0mg"},{"bike_id":"d450faec-bf95-41b5-bd5a-258b856397d3","system_id":"levelo_inurba_marseille","lat":43.337444,"lon":5.374475,"is_reserved":false,"is_disabled":false,"rental_uris":{"android":"levelo://app?vid=d450faec-bf95-41b5-bd5a-258b856397d3","ios":"levelo://app?vid=d450faec-bf95-41b5-bd5a-258b856397d3"},"vehicle_type_id":"4","last_reported":1760191612,"current_range_meters":16000,"station_id":"ce4bhpp2rcd13ifvqhgg","pricing_plan_id":"cebpf4jnsgd1na2vs0mg"},{"bike_id":"694547b5-a972-4858-8070-97658603f337","system_id":"levelo_inurba_marseille","lat":43.23192,"lon":5.35561,"is_reserved":false,"is_disabled":false,"rental_uris":{"android":"levelo://app?vid=694547b5-a972-4858-8070-97658603f337","ios":"levelo://app?vid=694547b5-a972-4858-8070-97658603f337"},"vehicle_type_id":"4","last_reported":1760191612,"current_range_meters":16000,"station_id":"ce4bhu92rcd13ifvqi70","pricing_plan_id":"cebpf4jnsgd1na2vs0mg"},{"bike_id":"bf3e6031-a4b5-4d11-9089-ea468e967475","system_id":"levelo_inurba_marseille","lat":43.24174,"lon":5.3639,"is_reserved":false,"is_disabled":false,"rental_uris":{"android":"levelo://app?vid=bf3e6031-a4b5-4d11-9089-ea468e967475","ios":"levelo://app?vid=bf3e6031-a4b5-4d11-9089-ea468e967475"},"vehicle_type_id":"4","last_reported":1760191612,"current_range_meters":16000,"station_id":"cpo36qri1sfpv3e86is0","pricing_plan_id":"cebpf4jnsgd1na2vs0mg"},{"bike_id":"0d125caf-5238-4006-bbc8-77c21e114e38","system_id":"levelo_inurba_marseille","lat":43.241737,"lon":5.36383,"is_reserved":false,"is_disabled":false,"rental_uris":{"android":"levelo://app?vid=0d125caf-5238-4006-bbc8-77c21e114e38","ios":"levelo://app?vid=0d125caf-5238-4006-bbc8-77c21e114e38"},"vehicle_type_id":"4","last_reported":1760191612,"current_range_meters":16000,"station_id":"cpo36qri1sfpv3e86is0","pricing_plan_id":"cebpf4jnsgd1na2vs0mg"},{"bike_id":"4834a710-f242-4b0f-9ef7-9d6d9f7a4b7b","system_id":"levelo_inurba_marseille","lat":43.22567,"lon":5.41637,"is_reserved":false,"is_disabled":false,"rental_uris":{"android":"levelo://app?vid=4834a710-f242-4b0f-9ef7-9d6d9f7a4b7b","ios":"levelo://app?vid=4834a710-f242-4b0f-9ef7-9d6d9f7a4b7b"},"vehicle_type_id":"4","last_reported":1760191612,"current_range_meters":16000,"station_id":"st_d2o4gvlbi1j2169b742g","pricing_plan_id":"cebpf4jnsgd1na2vs0mg"},{"bike_id":"d5aa1ce2-c6fd-4a6f-b955-7d8d35750943","system_id":"levelo_inurba_marseille","lat":43.22558,"lon":5.41623,"is_reserved":false,"is_disabled":false,"rental_uris":{"android":"levelo://app?vid=d5aa1ce2-c6fd-4a6f-b955-7d8d35750943","ios":"levelo://app?vid=d5aa1ce2-c6fd-4a6f-b955-7d8d35750943"},"vehicle_type_id":"4","last_reported":1760191612,"current_range_meters":16000,"station_id":"st_d2o4gvlbi1j2169b742g","pricing_plan_id":"cebpf4jnsgd1na2vs0mg"},{"bike_id":"ccfae903-b8f3-4cfe-8ec1-e159814c32b2","system_id":"levelo_inurba_marseille","lat":43.30554,"lon":5.36531,"is_reserved":false,"is_disabled":false,"rental_uris":{"android":"levelo://app?vid=ccfae903-b8f3-4cfe-8ec1-e159814c32b2","ios":"levelo://app?vid=ccfae903-b8f3-4cfe-8ec1-e159814c32b2"},"vehicle_type_id":"4","last_reported":1760191612,"current_range_meters":16400,"station_id":"ce4bgs12rcd13ifvqcag","pricing_plan_id":"cebpf4jnsgd1na2vs0mg"},{"bike_id":"c36d972e-e172-4c0a-9346-13c15226b64f","system_id":"levelo_inurba_marseille","lat":43.284149,"lon":5.349755,"is_reserved":false,"is_disabled":false,"rental_uris":{"android":"levelo://app?vid=c36d972e-e172-4c0a-9346-13c15226b64f","ios":"levelo://app?vid=c36d972e-e172-4c0a-9346-13c15226b64f"},"vehicle_type_id":"4","last_reported":1760191612,"current_range_meters":16400,"station_id":"ce4bhbh2rcd13ifvqepg","pricing_plan_id":"cebpf4jnsgd1na2vs0mg"},{"bike_id":"3c296a21-fc7f-4ea1-b63f-bab951af21f7","system_id":"levelo_inurba_marseille","lat":43.2656,"lon":5.37296,"is_reserved":false,"is_disabled":false,"rental_uris":{"android":"levelo://app?vid=3c296a21-fc7f-4ea1-b63f-bab951af21f7","ios":"levelo://app?vid=3c296a21-fc7f-4ea1-b63f-bab951af21f7"},"vehicle_type_id":"4","last_reported":1760191612,"current_range_meters":16400,"station_id":"ce4bhg12rcd13ifvqf70","pricing_plan_id":"cebpf4jnsgd1na2vs0mg"},{"bike_id":"33f89483-ce28-4491-a3c7-f0cdbc13e3ff","system_id":"levelo_inurba_marseille","lat":43.26496,"lon":5.39548,"is_reserved":false,"is_disabled":false,"rental_uris":{"android":"levelo://app?vid=33f89483-ce28-4491-a3c7-f0cdbc13e3ff","ios":"levelo://app?vid=33f89483-ce28-4491-a3c7-f0cdbc13e3ff"},"vehicle_type_id":"4","last_reported":1760191612,"current_range_meters":16400,"station_id":"ce4bhi12rcd13ifvqfq0","pricing_plan_id":"cebpf4jnsgd1na2vs0mg"},{"bike_id":"83e214c2-0ada-4351-8a27-d8d9e569d46f","system_id":"levelo_inurba_marseille","lat":43.24165,"lon":5.36379,"is_reserved":false,"is_disabled":false,"rental_uris":{"android":"levelo://app?vid=83e214c2-0ada-4351-8a27-d8d9e569d46f","ios":"levelo://app?vid=83e214c2-0ada-4351-8a27-d8d9e569d46f"},"vehicle_type_id":"4","last_reported":1760191612,"current_range_meters":16400,"station_id":"cpo36qri1sfpv3e86is0","pricing_plan_id":"cebpf4jnsgd1na2vs0mg"},{"bike_id":"d0ff8a65-d448-4538-a794-58e40d06c7bf","system_id":"levelo_inurba_marseille","lat":43.21754,"lon":5.34602,"is_reserved":false,"is_disabled":false,"rental_uris":{"android":"levelo://app?vid=d0ff8a65-d448-4538-a794-58e40d06c7bf","ios":"levelo://app?vid=d0ff8a65-d448-4538-a794-58e40d06c7bf"},"vehicle_type_id":"4","last_reported":1760191612,"current_range_meters":16400,"station_id":"st_cvj6r9ubvosntc0bgbag","pricing_plan_id":"cebpf4jnsgd1na2vs0mg"},{"bike_id":"8654beed-90c5-4d01-bd1b-f13a940838c5","system_id":"levelo_inurba_marseille","lat":43.25338,"lon":5.42212,"is_reserved":false,"is_disabled":false,"rental_uris":{"android":"levelo://app?vid=8654beed-90c5-4d01-bd1b-f13a940838c5","ios":"levelo://app?vid=8654beed-90c5-4d01-bd1b-f13a940838c5"},"vehicle_type_id":"4","last_reported":1760191612,"current_range_meters":16400,"station_id":"st_d2m65c5bi1j21697t3ng","pricing_plan_id":"cebpf4jnsgd1na2vs0mg"},{"bike_id":"90a7399f-67eb-4ed6-8265-2126a88abadc","system_id":"levelo_inurba_marseille","lat":43.2255,"lon":5.41623,"is_reserved":false,"is_disabled":false,"rental_uris":{"android":"levelo://app?vid=90a7399f-67eb-4ed6-8265-2126a88abadc","ios":"levelo://app?vid=90a7399f-67eb-4ed6-8265-2126a88abadc"},"vehicle_type_id":"4","last_reported":1760191612,"current_range_meters":16400,"station_id":"st_d2o4gvlbi1j2169b742g","pricing_plan_id":"cebpf4jnsgd1na2vs0mg"},{"bike_id":"1888b777-ec90-4e32-bbd4-94210dbe509f","system_id":"levelo_inurba_marseille","lat":43.28464,"lon":5.35882,"is_reserved":false,"is_disabled":false,"rental_uris":{"android":"levelo://app?vid=1888b777-ec90-4e32-bbd4-94210dbe509f","ios":"levelo://app?vid=1888b777-ec90-4e32-bbd4-94210dbe509f"},"vehicle_type_id":"4","last_reported":1760191612,"current_range_meters":16800,"station_id":"ce4bhah2rcd13ifvqei0","pricing_plan_id":"cebpf4jnsgd1na2vs0mg"},{"bike_id":"6a5168bc-dfb3-44f7-8262-8346f72d3469","system_id":"levelo_inurba_marseille","lat":43.26247,"lon":5.37419,"is_reserved":false,"is_disabled":false,"rental_uris":{"android":"levelo://app?vid=6a5168bc-dfb3-44f7-8262-8346f72d3469","ios":"levelo://app?vid=6a5168bc-dfb3-44f7-8262-8346f72d3469"},"vehicle_type_id":"4","last_reported":1760191612,"current_range_meters":16800,"station_id":"ce4bhgp2rcd13ifvqfc0","pricing_plan_id":"cebpf4jnsgd1na2vs0mg"},{"bike_id":"d3fee595-9b5c-4d0a-86f2-175eb2e56345","system_id":"levelo_inurba_marseille","lat":43.24167,"lon":5.3639,"is_reserved":false,"is_disabled":false,"rental_uris":{"android":"levelo://app?vid=d3fee595-9b5c-4d0a-86f2-175eb2e56345","ios":"levelo://app?vid=d3fee595-9b5c-4d0a-86f2-175eb2e56345"},"vehicle_type_id":"4","last_reported":1760191612,"current_range_meters":16800,"station_id":"cpo36qri1sfpv3e86is0","pricing_plan_id":"cebpf4jnsgd1na2vs0mg"},{"bike_id":"3017431a-1237-4842-a66d-718891ed2371","system_id":"levelo_inurba_marseille","lat":43.21746,"lon":5.34609,"is_reserved":false,"is_disabled":false,"rental_uris":{"android":"levelo://app?vid=3017431a-1237-4842-a66d-718891ed2371","ios":"levelo://app?vid=3017431a-1237-4842-a66d-718891ed2371"},"vehicle_type_id":"4","last_reported":1760191612,"current_range_meters":16800,"station_id":"st_cvj6r9ubvosntc0bgbag","pricing_plan_id":"cebpf4jnsgd1na2vs0mg"},{"bike_id":"a10dabe4-e9de-4ff3-9dc9-8a21e2d7ddb0","system_id":"levelo_inurba_marseille","lat":43.21192,"lon":5.350707,"is_reserved":false,"is_disabled":false,"rental_uris":{"android":"levelo://app?vid=a10dabe4-e9de-4ff3-9dc9-8a21e2d7ddb0","ios":"levelo://app?vid=a10dabe4-e9de-4ff3-9dc9-8a21e2d7ddb0"},"vehicle_type_id":"4","last_reported":1760191612,"current_range_meters":17200,"station_id":"","pricing_plan_id":"cebpf4jnsgd1na2vs0mg"},{"bike_id":"3272e5cb-e544-4bac-866a-624239b9225a","system_id":"levelo_inurba_marseille","lat":43.217492,"lon":5.346061,"is_reserved":false,"is_disabled":false,"rental_uris":{"android":"levelo://app?vid=3272e5cb-e544-4bac-866a-624239b9225a","ios":"levelo://app?vid=3272e5cb-e544-4bac-866a-624239b9225a"},"vehicle_type_id":"4","last_reported":1760191612,"current_range_meters":17200,"station_id":"","pricing_plan_id":"cebpf4jnsgd1na2vs0mg"},{"bike_id":"bf1566bd-22f9-416e-98dc-04b2c8f4ead7","system_id":"levelo_inurba_marseille","lat":43.21197,"lon":5.35073,"is_reserved":false,"is_disabled":false,"rental_uris":{"android":"levelo://app?vid=bf1566bd-22f9-416e-98dc-04b2c8f4ead7","ios":"levelo://app?vid=bf1566bd-22f9-416e-98dc-04b2c8f4ead7"},"vehicle_type_id":"4","last_reported":1760191612,"current_range_meters":17200,"station_id":"","pricing_plan_id":"cebpf4jnsgd1na2vs0mg"},{"bike_id":"b90fea58-14fd-471d-ae67-67cf310cb491","system_id":"levelo_inurba_marseille","lat":43.30306,"lon":5.39199,"is_reserved":false,"is_disabled":false,"rental_uris":{"android":"levelo://app?vid=b90fea58-14fd-471d-ae67-67cf310cb491","ios":"levelo://app?vid=b90fea58-14fd-471d-ae67-67cf310cb491"},"vehicle_type_id":"4","last_reported":1760191612,"current_range_meters":17200,"station_id":"ce4bgkh2rcd13ifvqbk0","pricing_plan_id":"cebpf4jnsgd1na2vs0mg"},{"bike_id":"7591e1b9-39da-4bb9-bfef-91d026a9b9cc","system_id":"levelo_inurba_marseille","lat":43.29038,"lon":5.35934,"is_reserved":false,"is_disabled":false,"rental_uris":{"android":"levelo://app?vid=7591e1b9-39da-4bb9-bfef-91d026a9b9cc","ios":"levelo://app?vid=7591e1b9-39da-4bb9-bfef-91d026a9b9cc"},"vehicle_type_id":"4","last_reported":1760191612,"current_range_meters":17200,"station_id":"ce4bha92rcd13ifvqeg0","pricing_plan_id":"cebpf4jnsgd1na2vs0mg"},{"bike_id":"261a3eeb-f4b7-48d4-a8dd-b1d2b673dd88","system_id":"levelo_inurba_marseille","lat":43.28853,"lon":5.35844,"is_reserved":false,"is_disabled":false,"rental_uris":{"android":"levelo://app?vid=261a3eeb-f4b7-48d4-a8dd-b1d2b673dd88","ios":"levelo://app?vid=261a3eeb-f4b7-48d4-a8dd-b1d2b673dd88"},"vehicle_type_id":"4","last_reported":1760191612,"current_range_meters":17200,"station_id":"ce4bhb12rcd13ifvqem0","pricing_plan_id":"cebpf4jnsgd1na2vs0mg"},{"bike_id":"db3185ee-7676-4a75-a3ad-fa94ee02a092","system_id":"levelo_inurba_marseille","lat":43.211908,"lon":5.350662,"is_reserved":false,"is_disabled":false,"rental_uris":{"android":"levelo://app?vid=db3185ee-7676-4a75-a3ad-fa94ee02a092","ios":"levelo://app?vid=db3185ee-7676-4a75-a3ad-fa94ee02a092"},"vehicle_type_id":"4","last_reported":1760191612,"current_range_meters":17200,"station_id":"st_cvj6sg6p6f1abm77japg","pricing_plan_id":"cebpf4jnsgd1na2vs0mg"},{"bike_id":"d6961ec5-7510-42c0-b9f5-2a20bfb26aa5","system_id":"levelo_inurba_marseille","lat":43.23983,"lon":5.36468,"is_reserved":false,"is_disabled":false,"rental_uris":{"android":"levelo://app?vid=d6961ec5-7510-42c0-b9f5-2a20bfb26aa5","ios":"levelo://app?vid=d6961ec5-7510-42c0-b9f5-2a20bfb26aa5"},"vehicle_type_id":"4","last_reported":1760191612,"current_range_meters":17600,"station_id":"","pricing_plan_id":"cebpf4jnsgd1na2vs0mg"},{"bike_id":"322aad86-0702-4b0d-80f9-1521627caf78","system_id":"levelo_inurba_marseille","lat":43.2992,"lon":5.3747,"is_reserved":false,"is_disabled":false,"rental_uris":{"android":"levelo://app?vid=322aad86-0702-4b0d-80f9-1521627caf78","ios":"levelo://app?vid=322aad86-0702-4b0d-80f9-1521627caf78"},"vehicle_type_id":"4","last_reported":1760191612,"current_range_meters":17600,"station_id":"ce4bgjh2rcd13ifvqbg0","pricing_plan_id":"cebpf4jnsgd1na2vs0mg"},{"bike_id":"502aa0d6-40e9-4d07-9fc1-9b85ae0f20d4","system_id":"levelo_inurba_marseille","lat":43.27379,"lon":5.36257,"is_reserved":false,"is_disabled":false,"rental_uris":{"android":"levelo://app?vid=502aa0d6-40e9-4d07-9fc1-9b85ae0f20d4","ios":"levelo://app?vid=502aa0d6-40e9-4d07-9fc1-9b85ae0f20d4"},"vehicle_type_id":"4","last_reported":1760191612,"current_range_meters":17600,"station_id":"ce4bhbh2rcd13ifvqeo0","pricing_plan_id":"cebpf4jnsgd1na2vs0mg"},{"bike_id":"db2c3756-ed6d-40fb-be4a-bc076233a40b","system_id":"levelo_inurba_marseille","lat":43.28418,"lon":5.349911,"is_reserved":false,"is_disabled":false,"rental_uris":{"android":"levelo://app?vid=db2c3756-ed6d-40fb-be4a-bc076233a40b","ios":"levelo://app?vid=db2c3756-ed6d-40fb-be4a-bc076233a40b"},"vehicle_type_id":"4","last_reported":1760191612,"current_range_meters":17600,"station_id":"ce4bhbh2rcd13ifvqepg","pricing_plan_id":"cebpf4jnsgd1na2vs0mg"},{"bike_id":"c2159ce0-acf3-448f-91aa-fbc7b50be1bc","system_id":"levelo_inurba_marseille","lat":43.28268,"lon":5.35077,"is_reserved":false,"is_disabled":false,"rental_uris":{"android":"levelo://app?vid=c2159ce0-acf3-448f-91aa-fbc7b50be1bc","ios":"levelo://app?vid=c2159ce0-acf3-448f-91aa-fbc7b50be1bc"},"vehicle_type_id":"4","last_reported":1760191612,"current_range_meters":17600,"station_id":"ce4bhbp2rcd13ifvqerg","pricing_plan_id":"cebpf4jnsgd1na2vs0mg"},{"bike_id":"920393cc-9b89-4346-9bd2-6e08a7e6e7d0","system_id":"levelo_inurba_marseille","lat":43.32291,"lon":5.38262,"is_reserved":false,"is_disabled":false,"rental_uris":{"android":"levelo://app?vid=920393cc-9b89-4346-9bd2-6e08a7e6e7d0","ios":"levelo://app?vid=920393cc-9b89-4346-9bd2-6e08a7e6e7d0"},"vehicle_type_id":"4","last_reported":1760191612,"current_range_meters":17600,"station_id":"ce4bhr12rcd13ifvqhqg","pricing_plan_id":"cebpf4jnsgd1na2vs0mg"},{"bike_id":"b10d96bd-cfc0-4f48-ab6e-c4c72ef0cbc3","system_id":"levelo_inurba_marseille","lat":43.297328,"lon":5.370844,"is_reserved":false,"is_disabled":false,"rental_uris":{"android":"levelo://app?vid=b10d96bd-cfc0-4f48-ab6e-c4c72ef0cbc3","ios":"levelo://app?vid=b10d96bd-cfc0-4f48-ab6e-c4c72ef0cbc3"},"vehicle_type_id":"4","last_reported":1760191612,"current_range_meters":18000,"station_id":"","pricing_plan_id":"cebpf4jnsgd1na2vs0mg"},{"bike_id":"fdfd3e92-648a-4e18-90a3-57873823c41b","system_id":"levelo_inurba_marseille","lat":43.337444,"lon":5.374475,"is_reserved":false,"is_disabled":false,"rental_uris":{"android":"levelo://app?vid=fdfd3e92-648a-4e18-90a3-57873823c41b","ios":"levelo://app?vid=fdfd3e92-648a-4e18-90a3-57873823c41b"},"vehicle_type_id":"4","last_reported":1760191612,"current_range_meters":18000,"station_id":"","pricing_plan_id":"cebpf4jnsgd1na2vs0mg"},{"bike_id":"7bfe4d3e-74e2-46de-9338-78bd2bbe5034","system_id":"levelo_inurba_marseille","lat":43.29373,"lon":5.37849,"is_reserved":false,"is_disabled":false,"rental_uris":{"android":"levelo://app?vid=7bfe4d3e-74e2-46de-9338-78bd2bbe5034","ios":"levelo://app?vid=7bfe4d3e-74e2-46de-9338-78bd2bbe5034"},"vehicle_type_id":"4","last_reported":1760191612,"current_range_meters":18000,"station_id":"ce4bgjh2rcd13ifvqbf0","pricing_plan_id":"cebpf4jnsgd1na2vs0mg"},{"bike_id":"8e459058-ffad-46b3-b9d9-03028c3bb0bd","system_id":"levelo_inurba_marseille","lat":43.297009,"lon":5.376959,"is_reserved":false,"is_disabled":false,"rental_uris":{"android":"levelo://app?vid=8e459058-ffad-46b3-b9d9-03028c3bb0bd","ios":"levelo://app?vid=8e459058-ffad-46b3-b9d9-03028c3bb0bd"},"vehicle_type_id":"4","last_reported":1760191612,"current_range_meters":18000,"station_id":"ce4bgkh2rcd13ifvqbl0","pricing_plan_id":"cebpf4jnsgd1na2vs0mg"},{"bike_id":"d835caf5-38e0-4eeb-bbf6-fe5e6dcaf211","system_id":"levelo_inurba_marseille","lat":43.29204,"lon":5.39316,"is_reserved":false,"is_disabled":false,"rental_uris":{"android":"levelo://app?vid=d835caf5-38e0-4eeb-bbf6-fe5e6dcaf211","ios":"levelo://app?vid=d835caf5-38e0-4eeb-bbf6-fe5e6dcaf211"},"vehicle_type_id":"4","last_reported":1760191612,"current_range_meters":18000,"station_id":"ce4bh192rcd13ifvqdd0","pricing_plan_id":"cebpf4jnsgd1na2vs0mg"},{"bike_id":"86bd1f3c-5e6e-41b7-921a-6444bb79813b","system_id":"levelo_inurba_marseille","lat":43.28615,"lon":5.35106,"is_reserved":false,"is_disabled":false,"rental_uris":{"android":"levelo://app?vid=86bd1f3c-5e6e-41b7-921a-6444bb79813b","ios":"levelo://app?vid=86bd1f3c-5e6e-41b7-921a-6444bb79813b"},"vehicle_type_id":"4","last_reported":1760191612,"current_range_meters":18000,"station_id":"ce4bhch2rcd13ifvqeug","pricing_plan_id":"cebpf4jnsgd1na2vs0mg"},{"bike_id":"abce8d14-bfd1-4430-9043-646c1fb6b882","system_id":"levelo_inurba_marseille","lat":43.2481,"lon":5.37444,"is_reserved":false,"is_disabled":false,"rental_uris":{"android":"levelo://app?vid=abce8d14-bfd1-4430-9043-646c1fb6b882","ios":"levelo://app?vid=abce8d14-bfd1-4430-9043-646c1fb6b882"},"vehicle_type_id":"4","last_reported":1760191612,"current_range_meters":18000,"station_id":"ce4bhgh2rcd13ifvqfb0","pricing_plan_id":"cebpf4jnsgd1na2vs0mg"},{"bike_id":"305fb9c4-3b39-469a-8341-f8abd1af35d5","system_id":"levelo_inurba_marseille","lat":43.248012,"lon":5.374563,"is_reserved":false,"is_disabled":false,"rental_uris":{"android":"levelo://app?vid=305fb9c4-3b39-469a-8341-f8abd1af35d5","ios":"levelo://app?vid=305fb9c4-3b39-469a-8341-f8abd1af35d5"},"vehicle_type_id":"4","last_reported":1760191612,"current_range_meters":18000,"station_id":"ce4bhgh2rcd13ifvqfb0","pricing_plan_id":"cebpf4jnsgd1na2vs0mg"},{"bike_id":"d23ed4de-07de-4bb0-8861-b8ee51bbc2ef","system_id":"levelo_inurba_marseille","lat":43.25503,"lon":5.37664,"is_reserved":false,"is_disabled":false,"rental_uris":{"android":"levelo://app?vid=d23ed4de-07de-4bb0-8861-b8ee51bbc2ef","ios":"levelo://app?vid=d23ed4de-07de-4bb0-8861-b8ee51bbc2ef"},"vehicle_type_id":"4","last_reported":1760191612,"current_range_meters":18000,"station_id":"ce4bhh12rcd13ifvqff0","pricing_plan_id":"cebpf4jnsgd1na2vs0mg"},