{"last_updated":1691161602,"ttl":30,"version":"2.2","data":{"bikes":[{"bike_id":"87f783dc-bd5a-41b5-996e-c836cbf1209c","system_id":"levelo_inurba_marseille","lat":43.3134,"lon":5.36726,"is_reserved":false,"is_disabled":false,"rental_uris":{"android":"levelo://app?vid=87f783dc-bd5a-41b5-996e-c836cbf1209c","ios":"levelo://app?vid=87f783dc-bd5a-41b5-996e-c836cbf1209c"},"vehicle_type_id":"4","last_reported":1691161602,"current_range_meters":27600,"station_id":"ce4bgr92rcd13ifvqc6g","pricing_plan_id":"free"},{"bike_id":"192555f1-9f30-49a0-853c-b92b4a7532c4","system_id":"levelo_inurba_marseille","lat":43.31362,"lon":5.36724,"is_reserved":false,"is_disabled":false,"rental_uris":{"android":"levelo://app?vid=192555f1-9f30-49a0-853c-b92b4a7532c4","ios":"levelo://app?vid=192555f1-9f30-49a0-853c-b92b4a7532c4"},"vehicle_type_id":"4","last_reported":1691161602,"current_range_meters":23200,"station_id":"ce4bgr92rcd13ifvqc6g","pricing_plan_id":"free"},{"bike_id":"7cfb81a3-fd7f-41d1-987d-c1037b7c6b4a","system_id":"levelo_inurba_marseille","lat":43.31397,"lon":5.37548,"is_reserved":false,"is_disabled":false,"rental_uris":{"android":"levelo://app?vid=7cfb81a3-fd7f-41d1-987d-c1037b7c6b4a","ios":"levelo://app?vid=7cfb81a3-fd7f-41d1-987d-c1037b7c6b4a"},"vehicle_type_id":"4","last_reported":1691161602,"current_range_meters":18000,"station_id":"","pricing_plan_id":"free"},{"bike_id":"c384fae6-5a6f-4b6c-a88e-f0c99a1dcb95","system_id":"levelo_inurba_marseille","lat":43.305706,"lon":5.365654,"is_reserved":false,"is_disabled":false,"rental_uris":{"android":"levelo://app?vid=c384fae6-5a6f-4b6c-a88e-f0c99a1dcb95","ios":"levelo://app?vid=c384fae6-5a6f-4b6c-a88e-f0c99a1dcb95"},"vehicle_type_id":"4","last_reported":1691161602,"current_range_meters":14000,"station_id":"ce4bgs12rcd13ifvqcag","pricing_plan_id":"free"},{"bike_id":"400b45e9-93d4-4f94-8477-5ac19f7821eb","system_id":"levelo_inurba_marseille","lat":43.305706,"lon":5.365654,"is_reserved":false,"is_disabled":false,"rental_uris":{"android":"levelo://app?vid=400b45e9-93d4-4f94-8477-5ac19f7821eb","ios":"levelo://app?vid=400b45e9-93d4-4f94-8477-5ac19f7821eb"},"vehicle_type_id":"4","last_reported":1691161602,"current_range_meters":16400,"station_id":"ce4bgs12rcd13ifvqcag","pricing_plan_id":"free"},{"bike_id":"5e41c70c-c34a-4f0e-81a0-c74bc3ec4fee","system_id":"levelo_inurba_marseille","lat":43.305706,"lon":5.365654,"is_reserved":false,"is_disabled":false,"rental_uris":{"android":"levelo://app?vid=5e41c70c-c34a-4f0e-81a0-c74bc3ec4fee","ios":"levelo://app?vid=5e41c70c-c34a-4f0e-81a0-c74bc3ec4fee"},"vehicle_type_id":"4","last_reported":1691161602,"current_range_meters":14000,"station_id":"ce4bgs12rcd13ifvqcag","pricing_plan_id":"free"},{"bike_id":"04d1bb5e-26e7-451f-b9bd-0bae493912e7","system_id":"levelo_inurba_marseille","lat":43.305706,"lon":5.365654,"is_reserved":false,"is_disabled":false,"rental_uris":{"android":"levelo://app?vid=04d1bb5e-26e7-451f-b9bd-0bae493912e7","ios":"levelo://app?vid=04d1bb5e-26e7-451f-b9bd-0bae493912e7"},"vehicle_type_id":"4","last_reported":1691161602,"current_range_meters":9200,"station_id":"ce4bgs12rcd13ifvqcag","pricing_plan_id":"free"},{"bike_id":"f20ea888-8740-440b-bfeb-8eb2a7c1f652","system_id":"levelo_inurba_marseille","lat":43.305989,"lon":5.37225,"is_reserved":false,"is_disabled":false,"rental_uris":{"android":"levelo://app?vid=f20ea888-8740-440b-bfeb-8eb2a7c1f652","ios":"levelo://app?vid=f20ea888-8740-440b-bfeb-8eb2a7c1f652"},"vehicle_type_id":"4","last_reported":1691161602,"current_range_meters":31600,"station_id":"ce4bgqh2rcd13ifvqc4g","pricing_plan_id":"free"},{"bike_id":"dcb45eb4-a648-46cc-a272-a05b471590c7","system_id":"levelo_inurba_marseille","lat":43.305989,"lon":5.37225,"is_reserved":false,"is_disabled":false,"rental_uris":{"android":"levelo://app?vid=dcb45eb4-a648-46cc-a272-a05b471590c7","ios":"levelo://app?vid=dcb45eb4-a648-46cc-a272-a05b471590c7"},"vehicle_type_id":"4","last_reported":1691161602,"current_range_meters":31600,"station_id":"ce4bgqh2rcd13ifvqc4g","pricing_plan_id":"free"},{"bike_id":"7eefa676-0a00-4280-b0db-4edd293c72f4","system_id":"levelo_inurba_marseille","lat":43.311131,"lon":5.377651,"is_reserved":false,"is_disabled":false,"rental_uris":{"android":"levelo://app?vid=7eefa676-0a00-4280-b0db-4edd293c72f4","ios":"levelo://app?vid=7eefa676-0a00-4280-b0db-4edd293c72f4"},"vehicle_type_id":"4","last_reported":1691161602,"current_range_meters":7600,"station_id":"ce4bgt92rcd13ifvqcg0","pricing_plan_id":"free"},{"bike_id":"9395a10c-4817-4587-8e40-a67d9d306b8d","system_id":"levelo_inurba_marseille","lat":43.311131,"lon":5.377651,"is_reserved":false,"is_disabled":false,"rental_uris":{"android":"levelo://app?vid=9395a10c-4817-4587-8e40-a67d9d306b8d","ios":"levelo://app?vid=9395a10c-4817-4587-8e40-a67d9d306b8d"},"vehicle_type_id":"4","last_reported":1691161602,"current_range_meters":28400,"station_id":"ce4bgt92rcd13ifvqcg0","pricing_plan_id":"free"},{"bike_id":"5e582a53-78c9-45d7-a68b-706833b3e930","system_id":"levelo_inurba_marseille","lat":43.304606,"lon":5.379026,"is_reserved":false,"is_disabled":false,"rental_uris":{"android":"levelo://app?vid=5e582a53-78c9-45d7-a68b-706833b3e930","ios":"levelo://app?vid=5e582a53-78c9-45d7-a68b-706833b3e930"},"vehicle_type_id":"4","last_reported":1691161602,"current_range_meters":18000,"station_id":"ce4bgup2rcd13ifvqcn0","pricing_plan_id":"free"},{"bike_id":"c5f5a01a-1201-4b1b-b77b-6e123f6f4c50","system_id":"levelo_inurba_marseille","lat":43.304606,"lon":5.379026,"is_reserved":false,"is_disabled":false,"rental_uris":{"android":"levelo://app?vid=c5f5a01a-1201-4b1b-b77b-6e123f6f4c50","ios":"levelo://app?vid=c5f5a01a-1201-4b1b-b77b-6e123f6f4c50"},"vehicle_type_id":"4","last_reported":1691161602,"current_range_meters":22400,"station_id":"ce4bgup2rcd13ifvqcn0","pricing_plan_id":"free"},{"bike_id":"259cc596-4827-4742-bb40-fd5cfaacd548","system_id":"levelo_inurba_marseille","lat":43.304606,"lon":5.379026,"is_reserved":false,"is_disabled":false,"rental_uris":{"android":"levelo://app?vid=259cc596-4827-4742-bb40-fd5cfaacd548","ios":"levelo://app?vid=259cc596-4827-4742-bb40-fd5cfaacd548"},"vehicle_type_id":"4","last_reported":1691161602,"current_range_meters":19200,"station_id":"ce4bgup2rcd13ifvqcn0","pricing_plan_id":"free"},{"bike_id":"8e378c62-695e-440c-9292-4237b8c5bd00","system_id":"levelo_inurba_marseille","lat":43.304606,"lon":5.379026,"is_reserved":false,"is_disabled":false,"rental_uris":{"android":"levelo://app?vid=8e378c62-695e-440c-9292-4237b8c5bd00","ios":"levelo://app?vid=8e378c62-695e-440c-9292-4237b8c5bd00"},"vehicle_type_id":"4","last_reported":1691161602,"current_range_meters":4400,"station_id":"ce4bgup2rcd13ifvqcn0","pricing_plan_id":"free"},{"bike_id":"4e3b7e64-ed15-45e2-a6d6-8d4ce521bf15","system_id":"levelo_inurba_marseille","lat":43.304606,"lon":5.379026,"is_reserved":false,"is_disabled":false,"rental_uris":{"android":"levelo://app?vid=4e3b7e64-ed15-45e2-a6d6-8d4ce521bf15","ios":"levelo://app?vid=4e3b7e64-ed15-45e2-a6d6-8d4ce521bf15"},"vehicle_type_id":"4","last_reported":1691161602,"current_range_meters":21600,"station_id":"ce4bgup2rcd13ifvqcn0","pricing_plan_id":"free"},{"bike_id":"61bfeafd-dc38-4dab-8ec1-d42c8e0ed592","system_id":"levelo_inurba_marseille","lat":43.304606,"lon":5.379026,"is_reserved":false,"is_disabled":false,"rental_uris":{"android":"levelo://app?vid=61bfeafd-dc38-4dab-8ec1-d42c8e0ed592","ios":"levelo://app?vid=61bfeafd-dc38-4dab-8ec1-d42c8e0ed592"},"vehicle_type_id":"4","last_reported":1691161602,"current_range_meters":32000,"station_id":"ce4bgup2rcd13ifvqcn0","pricing_plan_id":"free"},{"bike_id":"4c4a75c2-0e1e-4a58-891f-79385757d015","system_id":"levelo_inurba_marseille","lat":43.304606,"lon":5.379026,"is_reserved":false,"is_disabled":false,"rental_uris":{"android":"levelo://app?vid=4c4a75c2-0e1e-4a58-891f-79385757d015","ios":"levelo://app?vid=4c4a75c2-0e1e-4a58-891f-79385757d015"},"vehicle_type_id":"4","last_reported":1691161602,"current_range_meters":20800,"station_id":"ce4bgup2rcd13ifvqcn0","pricing_plan_id":"free"},{"bike_id":"d5f7f396-3296-41b5-bc26-a6ef0187ad90","system_id":"levelo_inurba_marseille","lat":43.31995,"lon":5.38154,"is_reserved":false,"is_disabled":false,"rental_uris":{"android":"levelo://app?vid=d5f7f396-3296-41b5-bc26-a6ef0187ad90","ios":"levelo://app?vid=d5f7f396-3296-41b5-bc26-a6ef0187ad90"},"vehicle_type_id":"4","last_reported":1691161602,"current_range_meters":0,"station_id":"ce4bhr12rcd13ifvqhpg","pricing_plan_id":"free"},{"bike_id":"aba12c0d-2820-4b69-9a7a-b3eec9807bf9","system_id":"levelo_inurba_marseille","lat":43.32005,"lon":5.38173,"is_reserved":false,"is_disabled":false,"rental_uris":{"android":"levelo://app?vid=aba12c0d-2820-4b69-9a7a-b3eec9807bf9","ios":"levelo://app?vid=aba12c0d-2820-4b69-9a7a-b3eec9807bf9"},"vehicle_type_id":"4","last_reported":1691161602,"current_range_meters":30800,"station_id":"ce4bhr12rcd13ifvqhpg","pricing_plan_id":"free"},{"bike_id":"1b9f7d8b-7564-469f-9f17-c98ea15ef4e6","system_id":"levelo_inurba_marseille","lat":43.313571,"lon":5.384829,"is_reserved":false,"is_disabled":false,"rental_uris":{"android":"levelo://app?vid=1b9f7d8b-7564-469f-9f17-c98ea15ef4e6","ios":"levelo://app?vid=1b9f7d8b-7564-469f-9f17-c98ea15ef4e6"},"vehicle_type_id":"4","last_reported":1691161602,"current_range_meters":31200,"station_id":"ce4bgt92rcd13ifvqcf0","pricing_plan_id":"free"},{"bike_id":"3cb7fd70-121e-4eb5-9a01-ecc8718aa1bb","system_id":"levelo_inurba_marseille","lat":43.29939,"lon":5.36552,"is_reserved":false,"is_disabled":false,"rental_uris":{"android":"levelo://app?vid=3cb7fd70-121e-4eb5-9a01-ecc8718aa1bb","ios":"levelo://app?vid=3cb7fd70-121e-4eb5-9a01-ecc8718aa1bb"},"vehicle_type_id":"4","last_reported":1691161602,"current_range_meters":27200,"station_id":"ce4bgm92rcd13ifvqbr0","pricing_plan_id":"free"},{"bike_id":"af642cf3-88ae-4be9-bb1a-7e501cd03cd0","system_id":"levelo_inurba_marseille","lat":43.298433,"lon":5.362774,"is_reserved":false,"is_disabled":false,"rental_uris":{"android":"levelo://app?vid=af642cf3-88ae-4be9-bb1a-7e501cd03cd0","ios":"levelo://app?vid=af642cf3-88ae-4be9-bb1a-7e501cd03cd0"},"vehicle_type_id":"4","last_reported":1691161602,"current_range_meters":21200,"station_id":"ce4bgpp2rcd13ifvqc3g","pricing_plan_id":"free"},{"bike_id":"469632ba-338b-4068-bd44-12ae291c0557","system_id":"levelo_inurba_marseille","lat":43.29855,"lon":5.36293,"is_reserved":false,"is_disabled":false,"rental_uris":{"android":"levelo://app?vid=469632ba-338b-4068-bd44-12ae291c0557","ios":"levelo://app?vid=469632ba-338b-4068-bd44-12ae291c0557"},"vehicle_type_id":"4","last_reported":1691161602,"current_range_meters":12400,"station_id":"ce4bgpp2rcd13ifvqc3g","pricing_plan_id":"free"},{"bike_id":"30537d43-af02-4a10-b928-7b9b8cf633d2","system_id":"levelo_inurba_marseille","lat":43.30548,"lon":5.38419,"is_reserved":false,"is_disabled":false,"rental_uris":{"android":"levelo://app?vid=30537d43-af02-4a10-b928-7b9b8cf633d2","ios":"levelo://app?vid=30537d43-af02-4a10-b928-7b9b8cf633d2"},"vehicle_type_id":"4","last_reported":1691161602,"current_range_meters":29200,"station_id":"ce4bgg92rcd13ifvqb30","pricing_plan_id":"free"},{"bike_id":"772c5995-6735-499f-9d35-92f300c63a30","system_id":"levelo_inurba_marseille","lat":43.29852,"lon":5.36288,"is_reserved":false,"is_disabled":false,"rental_uris":{"android":"levelo://app?vid=772c5995-6735-499f-9d35-92f300c63a30","ios":"levelo://app?vid=772c5995-6735-499f-9d35-92f300c63a30"},"vehicle_type_id":"4","last_reported":1691161602,"current_range_meters":9200,"station_id":"ce4bgpp2rcd13ifvqc3g","pricing_plan_id":"free"},{"bike_id":"694c35ce-681e-433c-9814-172a5d31ea90","system_id":"levelo_inurba_marseille","lat":43.299243,"lon":5.374807,"is_reserved":false,"is_disabled":false,"rental_uris":{"android":"levelo://app?vid=694c35ce-681e-433c-9814-172a5d31ea90","ios":"levelo://app?vid=694c35ce-681e-433c-9814-172a5d31ea90"},"vehicle_type_id":"4","last_reported":1691161602,"current_range_meters":31600,"station_id":"ce4bgjh2rcd13ifvqbg0","pricing_plan_id":"free"},{"bike_id":"8740bfe0-1c23-42e0-bf63-158716b7c832","system_id":"levelo_inurba_marseille","lat":43.311722,"lon":5.387247,"is_reserved":false,"is_disabled":false,"rental_uris":{"android":"levelo://app?vid=8740bfe0-1c23-42e0-bf63-158716b7c832","ios":"levelo://app?vid=8740bfe0-1c23-42e0-bf63-158716b7c832"},"vehicle_type_id":"4","last_reported":1691161602,"current_range_meters":14400,"station_id":"ce4bgv12rcd13ifvqcp0","pricing_plan_id":"free"},{"bike_id":"d9ba9097-ccdd-4a42-b4fd-1bbf76ebaab0","system_id":"levelo_inurba_marseille","lat":43.311722,"lon":5.387247,"is_reserved":false,"is_disabled":false,"rental_uris":{"android":"levelo://app?vid=d9ba9097-ccdd-4a42-b4fd-1bbf76ebaab0","ios":"levelo://app?vid=d9ba9097-ccdd-4a42-b4fd-1bbf76ebaab0"},"vehicle_type_id":"4","last_reported":1691161602,"current_range_meters":12400,"station_id":"ce4bgv12rcd13ifvqcp0","pricing_plan_id":"free"},{"bike_id":"3cac025d-0ad9-44af-80ad-04512a9d70b4","system_id":"levelo_inurba_marseille","lat":43.311722,"lon":5.387247,"is_reserved":false,"is_disabled":false,"rental_uris":{"android":"levelo://app?vid=3cac025d-0ad9-44af-80ad-04512a9d70b4","ios":"levelo://app?vid=3cac025d-0ad9-44af-80ad-04512a9d70b4"},"vehicle_type_id":"4","last_reported":1691161602,"current_range_meters":6000,"station_id":"ce4bgv12rcd13ifvqcp0","pricing_plan_id":"free"},{"bike_id":"c35efa21-a824-4e7a-b092-a819b7008247","system_id":"levelo_inurba_marseille","lat":43.297794,"lon":5.370888,"is_reserved":false,"is_disabled":false,"rental_uris":{"android":"levelo://app?vid=c35efa21-a824-4e7a-b092-a819b7008247","ios":"levelo://app?vid=c35efa21-a824-4e7a-b092-a819b7008247"},"vehicle_type_id":"4","last_reported":1691161602,"current_range_meters":22800,"station_id":"ce4bgop2rcd13ifvqc1g","pricing_plan_id":"free"},{"bike_id":"4bac7e9d-3db1-4f23-9cba-1fbda2173808","system_id":"levelo_inurba_marseille","lat":43.297163,"lon":5.365866,"is_reserved":false,"is_disabled":false,"rental_uris":{"android":"levelo://app?vid=4bac7e9d-3db1-4f23-9cba-1fbda2173808","ios":"levelo://app?vid=4bac7e9d-3db1-4f23-9cba-1fbda2173808"},"vehicle_type_id":"4","last_reported":1691161602,"current_range_meters":7600,"station_id":"ce4bgn12rcd13ifvqbt0","pricing_plan_id":"free"},{"bike_id":"429c8798-bf0a-4c3a-bdcd-b5e9868450c4","system_id":"levelo_inurba_marseille","lat":43.297163,"lon":5.365866,"is_reserved":false,"is_disabled":false,"rental_uris":{"android":"levelo://app?vid=429c8798-bf0a-4c3a-bdcd-b5e9868450c4","ios":"levelo://app?vid=429c8798-bf0a-4c3a-bdcd-b5e9868450c4"},"vehicle_type_id":"4","last_reported":1691161602,"current_range_meters":1600,"station_id":"ce4bgn12rcd13ifvqbt0","pricing_plan_id":"free"},{"bike_id":"e92dda2d-d75d-411d-99b3-29f0994a33b8","system_id":"levelo_inurba_marseille","lat":43.328371,"lon":5.366909,"is_reserved":false,"is_disabled":false,"rental_uris":{"android":"levelo://app?vid=e92dda2d-d75d-411d-99b3-29f0994a33b8","ios":"levelo://app?vid=e92dda2d-d75d-411d-99b3-29f0994a33b8"},"vehicle_type_id":"4","last_reported":1691161602,"current_range_meters":10000,"station_id":"ce4bhs92rcd13ifvqi0g","pricing_plan_id":"free"},{"bike_id":"dd789220-e7b5-42c1-b9dc-dc4243148021","system_id":"levelo_inurba_marseille","lat":43.297163,"lon":5.365866,"is_reserved":false,"is_disabled":false,"rental_uris":{"android":"levelo://app?vid=dd789220-e7b5-42c1-b9dc-dc4243148021","ios":"levelo://app?vid=dd789220-e7b5-42c1-b9dc-dc4243148021"},"vehicle_type_id":"4","last_reported":1691161602,"current_range_meters":31600,"station_id":"ce4bgn12rcd13ifvqbt0","pricing_plan_id":"free"},{"bike_id":"cbb017a8-24bf-4ab9-8007-443ec38604e9","system_id":"levelo_inurba_marseille","lat":43.297163,"lon":5.365866,"is_reserved":false,"is_disabled":false,"rental_uris":{"android":"levelo://app?vid=cbb017a8-24bf-4ab9-8007-443ec38604e9","ios":"levelo://app?vid=cbb017a8-24bf-4ab9-8007-443ec38604e9"},"vehicle_type_id":"4","last_reported":1691161602,"current_range_meters":20000,"station_id":"ce4bgn12rcd13ifvqbt0","pricing_plan_id":"free"},{"bike_id":"bac322c1-6cdb-459c-aa6f-fbb4d152e39d","system_id":"levelo_inurba_marseille","lat":43.328371,"lon":5.366909,"is_reserved":false,"is_disabled":false,"rental_uris":{"android":"levelo://app?vid=bac322c1-6cdb-459c-aa6f-fbb4d152e39d","ios":"levelo://app?vid=bac322c1-6cdb-459c-aa6f-fbb4d152e39d"},"vehicle_type_id":"4","last_reported":1691161602,"current_range_meters":0,"station_id":"ce4bhs92rcd13ifvqi0g","pricing_plan_id":"free"},{"bike_id":"3d8f763a-2773-4d40-9c46-c5b574a80b5e","system_id":"levelo_inurba_marseille","lat":43.29706,"lon":5.36616,"is_reserved":false,"is_disabled":false,"rental_uris":{"android":"levelo://app?vid=3d8f763a-2773-4d40-9c46-c5b574a80b5e","ios":"levelo://app?vid=3d8f763a-2773-4d40-9c46-c5b574a80b5e"},"vehicle_type_id":"4","last_reported":1691161602,"current_range_meters":10800,"station_id":"ce4bgn12rcd13ifvqbt0","pricing_plan_id":"free"},{"bike_id":"8c92bfd7-aa96-4c81-ba42-2d47b27641ab","system_id":"levelo_inurba_marseille","lat":43.297163,"lon":5.365866,"is_reserved":false,"is_disabled":false,"rental_uris":{"android":"levelo://app?vid=8c92bfd7-aa96-4c81-ba42-2d47b27641ab","ios":"levelo://app?vid=8c92bfd7-aa96-4c81-ba42-2d47b27641ab"},"vehicle_type_id":"4","last_reported":1691161602,"current_range_meters":14800,"station_id":"ce4bgn12rcd13ifvqbt0","pricing_plan_id":"free"},{"bike_id":"4ba981b2-0412-402a-bc88-c3326e1f4afd","system_id":"levelo_inurba_marseille","lat":43.297163,"lon":5.365866,"is_reserved":false,"is_disabled":false,"rental_uris":{"android":"levelo://app?vid=4ba981b2-0412-402a-bc88-c3326e1f4afd","ios":"levelo://app?vid=4ba981b2-0412-402a-bc88-c3326e1f4afd"},"vehicle_type_id":"4","last_reported":1691161602,"current_range_meters":18400,"station_id":"ce4bgn12rcd13ifvqbt0","pricing_plan_id":"free"},{"bike_id":"da6da072-aa19-48e6-8dce-ff526cbd5c60","system_id":"levelo_inurba_marseille","lat":43.2968,"lon":5.37291,"is_reserved":false,"is_disabled":false,"rental_uris":{"android":"levelo://app?vid=da6da072-aa19-48e6-8dce-ff526cbd5c60","ios":"levelo://app?vid=da6da072-aa19-48e6-8dce-ff526cbd5c60"},"vehicle_type_id":"4","last_reported":1691161602,"current_range_meters":17600,"station_id":"ce4bgk12rcd13ifvqbj0","pricing_plan_id":"free"},{"bike_id":"bbd1e709-6868-4f75-807c-57101526b0f3","system_id":"levelo_inurba_marseille","lat":43.29573,"lon":5.367355,"is_reserved":false,"is_disabled":false,"rental_uris":{"android":"levelo://app?vid=bbd1e709-6868-4f75-807c-57101526b0f3","ios":"levelo://app?vid=bbd1e709-6868-4f75-807c-57101526b0f3"},"vehicle_type_id":"4","last_reported":1691161602,"current_range_meters":30400,"station_id":"ce4bgph2rcd13ifvqc2g","pricing_plan_id":"free"},{"bike_id":"eaab84d6-84fe-4192-902a-99d8cb0f0e66","system_id":"levelo_inurba_marseille","lat":43.29573,"lon":5.367355,"is_reserved":false,"is_disabled":false,"rental_uris":{"android":"levelo://app?vid=eaab84d6-84fe-4192-902a-99d8cb0f0e66","ios":"levelo://app?vid=eaab84d6-84fe-4192-902a-99d8cb0f0e66"},"vehicle_type_id":"4","last_reported":1691161602,"current_range_meters":17600,"station_id":"ce4bgph2rcd13ifvqc2g","pricing_plan_id":"free"},{"bike_id":"6d4917c8-e717-4456-835f-2233ba010052","system_id":"levelo_inurba_marseille","lat":43.29907,"lon":5.38133,"is_reserved":false,"is_disabled":false,"rental_uris":{"android":"levelo://app?vid=6d4917c8-e717-4456-835f-2233ba010052","ios":"levelo://app?vid=6d4917c8-e717-4456-835f-2233ba010052"},"vehicle_type_id":"4","last_reported":1691161602,"current_range_meters":4000,"station_id":"ce4bgj12rcd13ifvqbc0","pricing_plan_id":"free"},{"bike_id":"753061ce-0333-4de1-8331-77ef528cea20","system_id":"levelo_inurba_marseille","lat":43.29712,"lon":5.37704,"is_reserved":false,"is_disabled":false,"rental_uris":{"android":"levelo://app?vid=753061ce-0333-4de1-8331-77ef528cea20","ios":"levelo://app?vid=753061ce-0333-4de1-8331-77ef528cea20"},"vehicle_type_id":"4","last_reported":1691161602,"current_range_meters":24000,"station_id":"ce4bgkh2rcd13ifvqbl0","pricing_plan_id":"free"},{"bike_id":"f0b1921d-8fc5-42f6-8214-26455e772ce5","system_id":"levelo_inurba_marseille","lat":43.309589,"lon":5.390258,"is_reserved":false,"is_disabled":false,"rental_uris":{"android":"levelo://app?vid=f0b1921d-8fc5-42f6-8214-26455e772ce5","ios":"levelo://app?vid=f0b1921d-8fc5-42f6-8214-26455e772ce5"},"vehicle_type_id":"4","last_reported":1691161602,"current_range_meters":26000,"station_id":"ce4bgup2rcd13ifvqco0","pricing_plan_id":"free"},{"bike_id":"57bfae2c-b467-4346-953b-15de540e404e","system_id":"levelo_inurba_marseille","lat":43.317557,"lon":5.390173,"is_reserved":false,"is_disabled":false,"rental_uris":{"android":"levelo://app?vid=57bfae2c-b467-4346-953b-15de540e404e","ios":"levelo://app?vid=57bfae2c-b467-4346-953b-15de540e404e"},"vehicle_type_id":"4","last_reported":1691161602,"current_range_meters":4000,"station_id":"ce4bhqp2rcd13ifvqhng","pricing_plan_id":"free"},{"bike_id":"7c42d25f-0594-4878-9427-296e3ebfad1f","system_id":"levelo_inurba_marseille","lat":43.317557,"lon":5.390173,"is_reserved":false,"is_disabled":false,"rental_uris":{"android":"levelo://app?vid=7c42d25f-0594-4878-9427-296e3ebfad1f","ios":"levelo://app?vid=7c42d25f-0594-4878-9427-296e3ebfad1f"},"vehicle_type_id":"4","last_reported":1691161602,"current_range_meters":17200,"station_id":"ce4bhqp2rcd13ifvqhng","pricing_plan_id":"free"},{"bike_id":"c070a522-6c17-4333-a9ee-bbef4dc643ed","system_id":"levelo_inurba_marseille","lat":43.317557,"lon":5.390173,"is_reserved":false,"is_disabled":false,"rental_uris":{"android":"levelo://app?vid=c070a522-6c17-4333-a9ee-bbef4dc643ed","ios":"levelo://app?vid=c070a522-6c17-4333-a9ee-bbef4dc643ed"},"vehicle_type_id":"4","last_reported":1691161602,"current_range_meters":31600,"station_id":"ce4bhqp2rcd13ifvqhng","pricing_plan_id":"free"},{"bike_id":"fb5d1b63-b2f2-4d34-b700-b062bf6b4e69","system_id":"levelo_inurba_marseille","lat":43.317557,"lon":5.390173,"is_reserved":false,"is_disabled":false,"rental_uris":{"android":"levelo://app?vid=fb5d1b63-b2f2-4d34-b700-b062bf6b4e69","ios":"levelo://app?vid=fb5d1b63-b2f2-4d34-b700-b062bf6b4e69"},"vehicle_type_id":"4","last_reported":1691161602,"current_range_meters":31600,"station_id":"ce4bhqp2rcd13ifvqhng","pricing_plan_id":"free"},{"bike_id":"90569ba5-8bb9-4d2d-b876-dc35e42f9a0c","system_id":"levelo_inurba_marseille","lat":43.317557,"lon":5.390173,"is_reserved":false,"is_disabled":false,"rental_uris":{"android":"levelo://app?vid=90569ba5-8bb9-4d2d-b876-dc35e42f9a0c","ios":"levelo://app?vid=90569ba5-8bb9-4d2d-b876-dc35e42f9a0c"},"vehicle_type_id":"4","last_reported":1691161602,"current_range_meters":25200,"station_id":"ce4bhqp2rcd13ifvqhng","pricing_plan_id":"free"},{"bike_id":"3218dc81-9be9-4b6a-b009-c66bba4881b7","system_id":"levelo_inurba_marseille","lat":43.30438,"lon":5.38886,"is_reserved":false,"is_disabled":false,"rental_uris":{"android":"levelo://app?vid=3218dc81-9be9-4b6a-b009-c66bba4881b7","ios":"levelo://app?vid=3218dc81-9be9-4b6a-b009-c66bba4881b7"},"vehicle_type_id":"4","last_reported":1691161602,"current_range_meters":16800,"station_id":"ce4bgk12rcd13ifvqbi0","pricing_plan_id":"free"},{"bike_id":"0b13bcd1-1a55-4afd-aa54-46f732441aad","system_id":"levelo_inurba_marseille","lat":43.29796,"lon":5.38111,"is_reserved":false,"is_disabled":false,"rental_uris":{"android":"levelo://app?vid=0b13bcd1-1a55-4afd-aa54-46f732441aad","ios":"levelo://app?vid=0b13bcd1-1a55-4afd-aa54-46f732441aad"},"vehicle_type_id":"4","last_reported":1691161602,"current_range_meters":23200,"station_id":"ce4bgip2rcd13ifvqbb0","pricing_plan_id":"free"},{"bike_id":"d0251fcb-f52e-40b3-ac0b-84a360c4f8ba","system_id":"levelo_inurba_marseille","lat":43.30424,"lon":5.38887,"is_reserved":false,"is_disabled":false,"rental_uris":{"android":"levelo://app?vid=d0251fcb-f52e-40b3-ac0b-84a360c4f8ba","ios":"levelo://app?vid=d0251fcb-f52e-40b3-ac0b-84a360c4f8ba"},"vehicle_type_id":"4","last_reported":1691161602,"current_range_meters":8800,"station_id":"ce4bgk12rcd13ifvqbi0","pricing_plan_id":"free"},{"bike_id":"f2efa481-65c7-41ae-9441-db16301faa1f","system_id":"levelo_inurba_marseille","lat":43.295748,"lon":5.37522,"is_reserved":false,"is_disabled":false,"rental_uris":{"android":"levelo://app?vid=f2efa481-65c7-41ae-9441-db16301faa1f","ios":"levelo://app?vid=f2efa481-65c7-41ae-9441-db16301faa1f"},"vehicle_type_id":"4","last_reported":1691161602,"current_range_meters":19200,"station_id":"ce4bgh92rcd13ifvqb50","pricing_plan_id":"free"},{"bike_id":"f103de54-99d1-41e7-9d22-117f9efca06b","system_id":"levelo_inurba_marseille","lat":43.295279,"lon":5.375048,"is_reserved":false,"is_disabled":false,"rental_uris":{"android":"levelo://app?vid=f103de54-99d1-41e7-9d22-117f9efca06b","ios":"levelo://app?vid=f103de54-99d1-41e7-9d22-117f9efca06b"},"vehicle_type_id":"4","last_reported":1691161602,"current_range_meters":0,"station_id":"ce4bgkp2rcd13ifvqbmg","pricing_plan_id":"free"},{"bike_id":"cd1216d4-4864-454b-890a-01dd0d15d9ce","system_id":"levelo_inurba_marseille","lat":43.299717,"lon":5.384845,"is_reserved":false,"is_disabled":false,"rental_uris":{"android":"levelo://app?vid=cd1216d4-4864-454b-890a-01dd0d15d9ce","ios":"levelo://app?vid=cd1216d4-4864-454b-890a-01dd0d15d9ce"},"vehicle_type_id":"4","last_reported":1691161602,"current_range_meters":9600,"station_id":"ce4bgj92rcd13ifvqbd0","pricing_plan_id":"free"},{"bike_id":"02623514-c61e-4999-b4e9-bc9b02d98e9a","system_id":"levelo_inurba_marseille","lat":43.32371,"lon":5.38865,"is_reserved":false,"is_disabled":false,"rental_uris":{"android":"levelo://app?vid=02623514-c61e-4999-b4e9-bc9b02d98e9a","ios":"levelo://app?vid=02623514-c61e-4999-b4e9-bc9b02d98e9a"},"vehicle_type_id":"4","last_reported":1691161602,"current_range_meters":30000,"station_id":"ce4bhqp2rcd13ifvqhog","pricing_plan_id":"free"},{"bike_id":"be3b9c7a-ef73-47f2-8a40-38431e709cbe","system_id":"levelo_inurba_marseille","lat":43.3237,"lon":5.38867,"is_reserved":false,"is_disabled":false,"rental_uris":{"android":"levelo://app?vid=be3b9c7a-ef73-47f2-8a40-38431e709cbe","ios":"levelo://app?vid=be3b9c7a-ef73-47f2-8a40-38431e709cbe"},"vehicle_type_id":"4","last_reported":1691161602,"current_range_meters":28800,"station_id":"ce4bhqp2rcd13ifvqhog","pricing_plan_id":"free"},{"bike_id":"b0c7ca86-ee56-4d5b-8ef5-0c1132701ee5","system_id":"levelo_inurba_marseille","lat":43.32365,"lon":5.38872,"is_reserved":false,"is_disabled":false,"rental_uris":{"android":"levelo://app?vid=b0c7ca86-ee56-4d5b-8ef5-0c1132701ee5","ios":"levelo://app?vid=b0c7ca86-ee56-4d5b-8ef5-0c1132701ee5"},"vehicle_type_id":"4","last_reported":1691161602,"current_range_meters":27200,"station_id":"ce4bhqp2rcd13ifvqhog","pricing_plan_id":"free"},{"bike_id":"bcab87f8-4000-4f0d-8af8-06c7cdaa4ad4","system_id":"levelo_inurba_marseille","lat":43.32368,"lon":5.38871,"is_reserved":false,"is_disabled":false,"rental_uris":{"android":"levelo://app?vid=bcab87f8-4000-4f0d-8af8-06c7cdaa4ad4","ios":"levelo://app?vid=bcab87f8-4000-4f0d-8af8-06c7cdaa4ad4"},"vehicle_type_id":"4","last_reported":1691161602,"current_range_meters":12800,"station_id":"ce4bhqp2rcd13ifvqhog","pricing_plan_id":"free"},{"bike_id":"3d2edb57-516f-41bc-985e-42a721904578","system_id":"levelo_inurba_marseille","lat":43.32366,"lon":5.38876,"is_reserved":false,"is_disabled":false,"rental_uris":{"android":"levelo://app?vid=3d2edb57-516f-41bc-985e-42a721904578","ios":"levelo://app?vid=3d2edb57-516f-41bc-985e-42a721904578"},"vehicle_type_id":"4","last_reported":1691161602,"current_range_meters":25200,"station_id":"ce4bhqp2rcd13ifvqhog","pricing_plan_id":"free"},{"bike_id":"ee373f4b-d04e-43ef-92b8-3105e264ba5d","system_id":"levelo_inurba_marseille","lat":43.32376,"lon":5.3887,"is_reserved":false,"is_disabled":false,"rental_uris":{"android":"levelo://app?vid=ee373f4b-d04e-43ef-92b8-3105e264ba5d","ios":"levelo://app?vid=ee373f4b-d04e-43ef-92b8-3105e264ba5d"},"vehicle_type_id":"4","last_reported":1691161602,"current_range_meters":26800,"station_id":"ce4bhqp2rcd13ifvqhog","pricing_plan_id":"free"},{"bike_id":"5f1c231d-5549-420b-a974-1b1406435a60","system_id":"levelo_inurba_marseille","lat":43.32368,"lon":5.38878,"is_reserved":false,"is_disabled":false,"rental_uris":{"android":"levelo://app?vid=5f1c231d-5549-420b-a974-1b1406435a60","ios":"levelo://app?vid=5f1c231d-5549-420b-a974-1b1406435a60"},"vehicle_type_id":"4","last_reported":1691161602,"current_range_meters":25600,"station_id":"ce4bhqp2rcd13ifvqhog","pricing_plan_id":"free"},{"bike_id":"3205d0e9-dc07-44ba-8cfe-0b5a882e32d0","system_id":"levelo_inurba_marseille","lat":43.32367,"lon":5.388836,"is_reserved":false,"is_disabled":false,"rental_uris":{"android":"levelo://app?vid=3205d0e9-dc07-44ba-8cfe-0b5a882e32d0","ios":"levelo://app?vid=3205d0e9-dc07-44ba-8cfe-0b5a882e32d0"},"vehicle_type_id":"4","last_reported":1691161602,"current_range_meters":25600,"station_id":"ce4bhqp2rcd13ifvqhog","pricing_plan_id":"free"},{"bike_id":"ea8035d1-28fe-43e1-9f00-12a102f9e97f","system_id":"levelo_inurba_marseille","lat":43.32354,"lon":5.38893,"is_reserved":false,"is_disabled":false,"rental_uris":{"android":"levelo://app?vid=ea8035d1-28fe-43e1-9f00-12a102f9e97f","ios":"levelo://app?vid=ea8035d1-28fe-43e1-9f00-12a102f9e97f"},"vehicle_type_id":"4","last_reported":1691161602,"current_range_meters":23600,"station_id":"ce4bhqp2rcd13ifvqhog","pricing_plan_id":"free"},{"bike_id":"153806a9-c106-4acb-8efe-f81ba29b58d3","system_id":"levelo_inurba_marseille","lat":43.32366,"lon":5.38882,"is_reserved":false,"is_disabled":false,"rental_uris":{"android":"levelo://app?vid=153806a9-c106-4acb-8efe-f81ba29b58d3","ios":"levelo://app?vid=153806a9-c106-4acb-8efe-f81ba29b58d3"},"vehicle_type_id":"4","last_reported":1691161602,"current_range_meters":28400,"station_id":"ce4bhqp2rcd13ifvqhog","pricing_plan_id":"free"},{"bike_id":"83e40035-5ae5-4bb2-89ae-adf2ef147026","system_id":"levelo_inurba_marseille","lat":43.323676,"lon":5.388816,"is_reserved":false,"is_disabled":false,"rental_uris":{"android":"levelo://app?vid=83e40035-5ae5-4bb2-89ae-adf2ef147026","ios":"levelo://app?vid=83e40035-5ae5-4bb2-89ae-adf2ef147026"},"vehicle_type_id":"4","last_reported":1691161602,"current_range_meters":10800,"station_id":"","pricing_plan_id":"free"},{"bike_id":"34ef5601-8765-4b80-bdc1-e9818152ffab","system_id":"levelo_inurba_marseille","lat":43.32371,"lon":5.38882,"is_reserved":false,"is_disabled":false,"rental_uris":{"android":"levelo://app?vid=34ef5601-8765-4b80-bdc1-e9818152ffab","ios":"levelo://app?vid=34ef5601-8765-4b80-bdc1-e9818152ffab"},"vehicle_type_id":"4","last_reported":1691161602,"current_range_meters":29200,"station_id":"ce4bhqp2rcd13ifvqhog","pricing_plan_id":"free"},{"bike_id":"660de016-7b00-4735-9d75-3ae99d5de62d","system_id":"levelo_inurba_marseille","lat":43.3238,"lon":5.38874,"is_reserved":false,"is_disabled":false,"rental_uris":{"android":"levelo://app?vid=660de016-7b00-4735-9d75-3ae99d5de62d","ios":"levelo://app?vid=660de016-7b00-4735-9d75-3ae99d5de62d"},"vehicle_type_id":"4","last_reported":1691161602,"current_range_meters":26400,"station_id":"ce4bhqp2rcd13ifvqhog","pricing_plan_id":"free"},{"bike_id":"0096218a-32f1-4ad1-a7f6-a83210e4e020","system_id":"levelo_inurba_marseille","lat":43.32378,"lon":5.38879,"is_reserved":false,"is_disabled":false,"rental_uris":{"android":"levelo://app?vid=0096218a-32f1-4ad1-a7f6-a83210e4e020","ios":"levelo://app?vid=0096218a-32f1-4ad1-a7f6-a83210e4e020"},"vehicle_type_id":"4","last_reported":1691161602,"current_range_meters":30400,"station_id":"ce4bhqp2rcd13ifvqhog","pricing_plan_id":"free"},{"bike_id":"6be534a9-96c6-4989-b3bb-e9dea76376c4","system_id":"levelo_inurba_marseille","lat":43.32372,"lon":5.38886,"is_reserved":false,"is_disabled":false,"rental_uris":{"android":"levelo://app?vid=6be534a9-96c6-4989-b3bb-e9dea76376c4","ios":"levelo://app?vid=6be534a9-96c6-4989-b3bb-e9dea76376c4"},"vehicle_type_id":"4","last_reported":1691161602,"current_range_meters":11200,"station_id":"ce4bhqp2rcd13ifvqhog","pricing_plan_id":"free"},{"bike_id":"8b24d0ec-7688-4e03-b8e0-2d0b6bddb8b0","system_id":"levelo_inurba_marseille","lat":43.29601,"lon":5.381084,"is_reserved":false,"is_disabled":false,"rental_uris":{"android":"levelo://app?vid=8b24d0ec-7688-4e03-b8e0-2d0b6bddb8b0","ios":"levelo://app?vid=8b24d0ec-7688-4e03-b8e0-2d0b6bddb8b0"},"vehicle_type_id":"4","last_reported":1691161602,"current_range_meters":22800,"station_id":"ce4bgl12rcd13ifvqbo0","pricing_plan_id":"free"},{"bike_id":"0e2c7509-bad8-42a7-8fe6-568a7fffa90a","system_id":"levelo_inurba_marseille","lat":43.293009,"lon":5.374584,"is_reserved":false,"is_disabled":false,"rental_uris":{"android":"levelo://app?vid=0e2c7509-bad8-42a7-8fe6-568a7fffa90a","ios":"levelo://app?vid=0e2c7509-bad8-42a7-8fe6-568a7fffa90a"},"vehicle_type_id":"4","last_reported":1691161602,"current_range_meters":0,"station_id":"ce4bgi12rcd13ifvqb70","pricing_plan_id":"free"},{"bike_id":"6b5ae871-6393-4045-ae75-35353cf3fbd8","system_id":"levelo_inurba_marseille","lat":43.293009,"lon":5.374584,"is_reserved":false,"is_disabled":false,"rental_uris":{"android":"levelo://app?vid=6b5ae871-6393-4045-ae75-35353cf3fbd8","ios":"levelo://app?vid=6b5ae871-6393-4045-ae75-35353cf3fbd8"},"vehicle_type_id":"4","last_reported":1691161602,"current_range_meters":9200,"station_id":"ce4bgi12rcd13ifvqb70","pricing_plan_id":"free"},{"bike_id":"2890bcd2-05c2-48ff-9ce5-9252e14f6379","system_id":"levelo_inurba_marseille","lat":43.30085,"lon":5.390856,"is_reserved":false,"is_disabled":false,"rental_uris":{"android":"levelo://app?vid=2890bcd2-05c2-48ff-9ce5-9252e14f6379","ios":"levelo://app?vid=2890bcd2-05c2-48ff-9ce5-9252e14f6379"},"vehicle_type_id":"4","last_reported":1691161602,"current_range_meters":17600,"station_id":"ce4bh192rcd13ifvqdb0","pricing_plan_id":"free"},{"bike_id":"be46ab22-f748-47b3-ad94-e4eee5270317","system_id":"levelo_inurba_marseille","lat":43.292663,"lon":5.376394,"is_reserved":false,"is_disabled":false,"rental_uris":{"android":"levelo://app?vid=be46ab22-f748-47b3-ad94-e4eee5270317","ios":"levelo://app?vid=be46ab22-f748-47b3-ad94-e4eee5270317"},"vehicle_type_id":"4","last_reported":1691161602,"current_range_meters":18400,"station_id":"ce4bgi12rcd13ifvqb80","pricing_plan_id":"free"},{"bike_id":"f51b1fec-5fe7-4d46-aa7e-a7b2f27b6c37","system_id":"levelo_inurba_marseille","lat":43.292663,"lon":5.376394,"is_reserved":false,"is_disabled":false,"rental_uris":{"android":"levelo://app?vid=f51b1fec-5fe7-4d46-aa7e-a7b2f27b6c37","ios":"levelo://app?vid=f51b1fec-5fe7-4d46-aa7e-a7b2f27b6c37"},"vehicle_type_id":"4","last_reported":1691161602,"current_range_meters":6000,"station_id":"ce4bgi12rcd13ifvqb80","pricing_plan_id":"free"},{"bike_id":"c0c0ef9b-509a-4ae5-aecb-ddc095963460","system_id":"levelo_inurba_marseille","lat":43.291671,"lon":5.371575,"is_reserved":false,"is_disabled":false,"rental_uris":{"android":"levelo://app?vid=c0c0ef9b-509a-4ae5-aecb-ddc095963460","ios":"levelo://app?vid=c0c0ef9b-509a-4ae5-aecb-ddc095963460"},"vehicle_type_id":"4","last_reported":1691161602,"current_range_meters":0,"station_id":"ce4bha92rcd13ifvqeh0","pricing_plan_id":"free"},{"bike_id":"7b797696-edb1-4c3b-90b0-b872c5993c11","system_id":"levelo_inurba_marseille","lat":43.31325,"lon":5.3969,"is_reserved":false,"is_disabled":false,"rental_uris":{"android":"levelo://app?vid=7b797696-edb1-4c3b-90b0-b872c5993c11","ios":"levelo://app?vid=7b797696-edb1-4c3b-90b0-b872c5993c11"},"vehicle_type_id":"4","last_reported":1691161602,"current_range_meters":4000,"station_id":"ce4bgvp2rcd13ifvqcu0","pricing_plan_id":"free"},{"bike_id":"c7cde921-d44c-4909-beea-c465dd252a59","system_id":"levelo_inurba_marseille","lat":43.29188,"lon":5.35806,"is_reserved":false,"is_disabled":false,"rental_uris":{"android":"levelo://app?vid=c7cde921-d44c-4909-beea-c465dd252a59","ios":"levelo://app?vid=c7cde921-d44c-4909-beea-c465dd252a59"},"vehicle_type_id":"4","last_reported":1691161602,"current_range_meters":18800,"station_id":"ce4bhb12rcd13ifvqel0","pricing_plan_id":"free"},{"bike_id":"c8a47b17-460c-489c-a608-ccf870a3c4dd","system_id":"levelo_inurba_marseille","lat":43.291994,"lon":5.357886,"is_reserved":false,"is_disabled":false,"rental_uris":{"android":"levelo://app?vid=c8a47b17-460c-489c-a608-ccf870a3c4dd","ios":"levelo://app?vid=c8a47b17-460c-489c-a608-ccf870a3c4dd"},"vehicle_type_id":"4","last_reported":1691161602,"current_range_meters":0,"station_id":"ce4bhb12rcd13ifvqel0","pricing_plan_id":"free"},{"bike_id":"e7163a7c-6746-47d9-b81e-2792299fa751","system_id":"levelo_inurba_marseille","lat":43.31329,"lon":5.39694,"is_reserved":false,"is_disabled":false,"rental_uris":{"android":"levelo://app?vid=e7163a7c-6746-47d9-b81e-2792299fa751","ios":"levelo://app?vid=e7163a7c-6746-47d9-b81e-2792299fa751"},"vehicle_type_id":"4","last_reported":1691161602,"current_range_meters":23200,"station_id":"ce4bgvp2rcd13ifvqcu0","pricing_plan_id":"free"},{"bike_id":"68eb672a-5927-4254-a498-a562a20e8b89","system_id":"levelo_inurba_marseille","lat":43.30887,"lon":5.39656,"is_reserved":false,"is_disabled":false,"rental_uris":{"android":"levelo://app?vid=68eb672a-5927-4254-a498-a562a20e8b89","ios":"levelo://app?vid=68eb672a-5927-4254-a498-a562a20e8b89"},"vehicle_type_id":"4","last_reported":1691161602,"current_range_meters":27200,"station_id":"ce4bh012rcd13ifvqcv0","pricing_plan_id":"free"},{"bike_id":"28190892-c5de-4eac-8a1a-6895f0e49703","system_id":"levelo_inurba_marseille","lat":43.308896,"lon":5.396582,"is_reserved":false,"is_disabled":false,"rental_uris":{"android":"levelo://app?vid=28190892-c5de-4eac-8a1a-6895f0e49703","ios":"levelo://app?vid=28190892-c5de-4eac-8a1a-6895f0e49703"},"vehicle_type_id":"4","last_reported":1691161602,"current_range_meters":10400,"station_id":"ce4bh012rcd13ifvqcv0","pricing_plan_id":"free"},{"bike_id":"92895d77-46ee-4a6e-9672-afdda1e7497d","system_id":"levelo_inurba_marseille","lat":43.290779,"lon":5.371482,"is_reserved":false,"is_disabled":false,"rental_uris":{"android":"levelo://app?vid=92895d77-46ee-4a6e-9672-afdda1e7497d","ios":"levelo://app?vid=92895d77-46ee-4a6e-9672-afdda1e7497d"},"vehicle_type_id":"4","last_reported":1691161602,"current_range_meters":28400,"station_id":"ce4bh5p2rcd13ifvqe4g","pricing_plan_id":"free"},{"bike_id":"d2431549-3b9c-4ecf-bb1f-980f0e7043c2","system_id":"levelo_inurba_marseille","lat":43.29074,"lon":5.3717,"is_reserved":false,"is_disabled":false,"rental_uris":{"android":"levelo://app?vid=d2431549-3b9c-4ecf-bb1f-980f0e7043c2","ios":"levelo://app?vid=d2431549-3b9c-4ecf-bb1f-980f0e7043c2"},"vehicle_type_id":"4","last_reported":1691161602,"current_range_meters":32000,"station_id":"","pricing_plan_id":"free"},{"bike_id":"22d05fd1-ebc1-4fcc-9448-d849f53df9a9","system_id":"levelo_inurba_marseille","lat":43.29003,"lon":5.36768,"is_reserved":false,"is_disabled":false,"rental_uris":{"android":"levelo://app?vid=22d05fd1-ebc1-4fcc-9448-d849f53df9a9","ios":"levelo://app?vid=22d05fd1-ebc1-4fcc-9448-d849f53df9a9"},"vehicle_type_id":"4","last_reported":1691161602,"current_range_meters":12400,"station_id":"ce4bhbp2rcd13ifvqerg","pricing_plan_id":"free"},{"bike_id":"61b99577-6d4a-4749-a597-dbeb5b1f79d3","system_id":"levelo_inurba_marseille","lat":43.294153,"lon":5.386305,"is_reserved":false,"is_disabled":false,"rental_uris":{"android":"levelo://app?vid=61b99577-6d4a-4749-a597-dbeb5b1f79d3","ios":"levelo://app?vid=61b99577-6d4a-4749-a597-dbeb5b1f79d3"},"vehicle_type_id":"4","last_reported":1691161602,"current_range_meters":23600,"station_id":"ce4bh2h2rcd13ifvqdh0","pricing_plan_id":"free"},{"bike_id":"b10c07f4-0850-410a-83b5-c9f3bc2fed03","system_id":"levelo_inurba_marseille","lat":43.304274,"lon":5.397513,"is_reserved":false,"is_disabled":false,"rental_uris":{"android":"levelo://app?vid=b10c07f4-0850-410a-83b5-c9f3bc2fed03","ios":"levelo://app?vid=b10c07f4-0850-410a-83b5-c9f3bc2fed03"},"vehicle_type_id":"4","last_reported":1691161602,"current_range_meters":0,"station_id":"ce4bh092rcd13ifvqd20","pricing_plan_id":"free"},{"bike_id":"6cee07b8-b63c-4b52-a71c-569b39c66b01","system_id":"levelo_inurba_marseille","lat":43.292644,"lon":5.384257,"is_reserved":false,"is_disabled":false,"rental_uris":{"android":"levelo://app?vid=6cee07b8-b63c-4b52-a71c-569b39c66b01","ios":"levelo://app?vid=6cee07b8-b63c-4b52-a71c-569b39c66b01"},"vehicle_type_id":"4","last_reported":1691161602,"current_range_meters":14400,"station_id":"ce4bh692rcd13ifvqea0","pricing_plan_id":"free"},{"bike_id":"16bb14ed-7d88-467c-ab3f-857c5a303700","system_id":"levelo_inurba_marseille","lat":43.33047,"lon":5.38907,"is_reserved":false,"is_disabled":false,"rental_uris":{"android":"levelo://app?vid=16bb14ed-7d88-467c-ab3f-857c5a303700","ios":"levelo://app?vid=16bb14ed-7d88-467c-ab3f-857c5a303700"},"vehicle_type_id":"4","last_reported":1691161602,"current_range_meters":30800,"station_id":"ce4bhr92rcd13ifvqhrg","pricing_plan_id":"free"},{"bike_id":"58d9daa4-9c4c-4dbc-a91c-3eee752552f5","system_id":"levelo_inurba_marseille","lat":43.30468,"lon":5.39793,"is_reserved":false,"is_disabled":false,"rental_uris":{"android":"levelo://app?vid=58d9daa4-9c4c-4dbc-a91c-3eee752552f5","ios":"levelo://app?vid=58d9daa4-9c4c-4dbc-a91c-3eee752552f5"},"vehicle_type_id":"4","last_reported":1691161602,"current_range_meters":22000,"station_id":"","pricing_plan_id":"free"},{"bike_id":"f67edc25-bcc7-41fb-8431-1add679b0933","system_id":"levelo_inurba_marseille","lat":43.33044,"lon":5.38915,"is_reserved":false,"is_disabled":false,"rental_uris":{"android":"levelo://app?vid=f67edc25-bcc7-41fb-8431-1add679b0933","ios":"levelo://app?vid=f67edc25-bcc7-41fb-8431-1add679b0933"},"vehicle_type_id":"4","last_reported":1691161602,"current_range_meters":20400,"station_id":"ce4bhr92rcd13ifvqhrg","pricing_plan_id":"free"},{"bike_id":"98f910d2-52f4-4465-977e-10142d8cca43","system_id":"levelo_inurba_marseille","lat":43.33042,"lon":5.38919,"is_reserved":false,"is_disabled":false,"rental_uris":{"android":"levelo://app?vid=98f910d2-52f4-4465-977e-10142d8cca43","ios":"levelo://app?vid=98f910d2-52f4-4465-977e-10142d8cca43"},"vehicle_type_id":"4","last_reported":1691161602,"current_range_meters":20800,"station_id":"ce4bhr92rcd13ifvqhrg","pricing_plan_id":"free"},{"bike_id":"e6c6e4e8-edee-449e-8936-76c8ef3752c4","system_id":"levelo_inurba_marseille","lat":43.33042,"lon":5.38919,"is_reserved":false,"is_disabled":false,"rental_uris":{"android":"levelo://app?vid=e6c6e4e8-edee-449e-8936-76c8ef3752c4","ios":"levelo://app?vid=e6c6e4e8-edee-449e-8936-76c8ef3752c4"},"vehicle_type_id":"4","last_reported":1691161602,"current_range_meters":23200,"station_id":"ce4bhr92rcd13ifvqhrg","pricing_plan_id":"free"},{"bike_id":"2f2d42a2-8de0-405f-9429-d3eae654394c","system_id":"levelo_inurba_marseille","lat":43.33044,"lon":5.38916,"is_reserved":false,"is_disabled":false,"rental_uris":{"android":"levelo://app?vid=2f2d42a2-8de0-405f-9429-d3eae654394c","ios":"levelo://app?vid=2f2d42a2-8de0-405f-9429-d3eae654394c"},"vehicle_type_id":"4","last_reported":1691161602,"current_range_meters":21200,"station_id":"ce4bhr92rcd13ifvqhrg","pricing_plan_id":"free"},{"bike_id":"38c1adea-6867-4940-9699-a628b1958570","system_id":"levelo_inurba_marseille","lat":43.33044,"lon":5.38916,"is_reserved":false,"is_disabled":false,"rental_uris":{"android":"levelo://app?vid=38c1adea-6867-4940-9699-a628b1958570","ios":"levelo://app?vid=38c1adea-6867-4940-9699-a628b1958570"},"vehicle_type_id":"4","last_reported":1691161602,"current_range_meters":31200,"station_id":"ce4bhr92rcd13ifvqhrg","pricing_plan_id":"free"},{"bike_id":"976f718a-bfdb-4480-a757-e5b9a5d1a5d6","system_id":"levelo_inurba_marseille","lat":43.33046,"lon":5.38913,"is_reserved":false,"is_disabled":false,"rental_uris":{"android":"levelo://app?vid=976f718a-bfdb-4480-a757-e5b9a5d1a5d6","ios":"levelo://app?vid=976f718a-bfdb-4480-a757-e5b9a5d1a5d6"},"vehicle_type_id":"4","last_reported":1691161602,"current_range_meters":29600,"station_id":"ce4bhr92rcd13ifvqhrg","pricing_plan_id":"free"},{"bike_id":"cedbc9c4-3cd8-4974-be60-104359550a71","system_id":"levelo_inurba_marseille","lat":43.33048,"lon":5.38911,"is_reserved":false,"is_disabled":false,"rental_uris":{"android":"levelo://app?vid=cedbc9c4-3cd8-4974-be60-104359550a71","ios":"levelo://app?vid=cedbc9c4-3cd8-4974-be60-104359550a71"},"vehicle_type_id":"4","last_reported":1691161602,"current_range_meters":12400,"station_id":"ce4bhr92rcd13ifvqhrg","pricing_plan_id":"free"},{"bike_id":"8d5921a4-6e90-4d09-8dd7-1c67d9c7284b","system_id":"levelo_inurba_marseille","lat":43.290104,"lon":5.356111,"is_reserved":false,"is_disabled":false,"rental_uris":{"android":"levelo://app?vid=8d5921a4-6e90-4d09-8dd7-1c67d9c7284b","ios":"levelo://app?vid=8d5921a4-6e90-4d09-8dd7-1c67d9c7284b"},"vehicle_type_id":"4","last_reported":1691161602,"current_range_meters":15200,"station_id":"ce4bhb92rcd13ifvqen0","pricing_plan_id":"free"},{"bike_id":"00b2dcdc-2882-40a1-9132-89c3ec15cf18","system_id":"levelo_inurba_marseille","lat":43.33045,"lon":5.38918,"is_reserved":false,"is_disabled":false,"rental_uris":{"android":"levelo://app?vid=00b2dcdc-2882-40a1-9132-89c3ec15cf18","ios":"levelo://app?vid=00b2dcdc-2882-40a1-9132-89c3ec15cf18"},"vehicle_type_id":"4","last_reported":1691161602,"current_range_meters":18800,"station_id":"ce4bhr92rcd13ifvqhrg","pricing_plan_id":"free"},{"bike_id":"87a91d50-b0ca-4c64-94ae-7cf78dbb050f","system_id":"levelo_inurba_marseille","lat":43.33041,"lon":5.38924,"is_reserved":false,"is_disabled":false,"rental_uris":{"android":"levelo://app?vid=87a91d50-b0ca-4c64-94ae-7cf78dbb050f","ios":"levelo://app?vid=87a91d50-b0ca-4c64-94ae-7cf78dbb050f"},"vehicle_type_id":"4","last_reported":1691161602,"current_range_meters":17600,"station_id":"ce4bhr92rcd13ifvqhrg","pricing_plan_id":"free"},{"bike_id":"20cf3f6d-acf4-4653-bf24-baa04253f77a","system_id":"levelo_inurba_marseille","lat":43.33053,"lon":5.38906,"is_reserved":false,"is_disabled":false,"rental_uris":{"android":"levelo://app?vid=20cf3f6d-acf4-4653-bf24-baa04253f77a","ios":"levelo://app?vid=20cf3f6d-acf4-4653-bf24-baa04253f77a"},"vehicle_type_id":"4","last_reported":1691161602,"current_range_meters":18800,"station_id":"ce4bhr92rcd13ifvqhrg","pricing_plan_id":"free"},{"bike_id":"417d79c3-ceb1-4ab5-807c-0a04d28d3e02","system_id":"levelo_inurba_marseille","lat":43.290103,"lon":5.356114,"is_reserved":false,"is_disabled":false,"rental_uris":{"android":"levelo://app?vid=417d79c3-ceb1-4ab5-807c-0a04d28d3e02","ios":"levelo://app?vid=417d79c3-ceb1-4ab5-807c-0a04d28d3e02"},"vehicle_type_id":"4","last_reported":1691161602,"current_range_meters":13600,"station_id":"ce4bhb92rcd13ifvqen0","pricing_plan_id":"free"},{"bike_id":"34fc0bae-b089-42d1-99d0-10d5b39f2b41","system_id":"levelo_inurba_marseille","lat":43.33039,"lon":5.3893,"is_reserved":false,"is_disabled":false,"rental_uris":{"android":"levelo://app?vid=34fc0bae-b089-42d1-99d0-10d5b39f2b41","ios":"levelo://app?vid=34fc0bae-b089-42d1-99d0-10d5b39f2b41"},"vehicle_type_id":"4","last_reported":1691161602,"current_range_meters":26400,"station_id":"ce4bhr92rcd13ifvqhrg","pricing_plan_id":"free"},{"bike_id":"9ce62819-7d94-47c9-aff2-f56e39f0ba59","system_id":"levelo_inurba_marseille","lat":43.33044,"lon":5.38925,"is_reserved":false,"is_disabled":false,"rental_uris":{"android":"levelo://app?vid=9ce62819-7d94-47c9-aff2-f56e39f0ba59","ios":"levelo://app?vid=9ce62819-7d94-47c9-aff2-f56e39f0ba59"},"vehicle_type_id":"4","last_reported":1691161602,"current_range_meters":30800,"station_id":"ce4bhr92rcd13ifvqhrg","pricing_plan_id":"free"},{"bike_id":"05bf2cc0-c80b-4d3b-9303-5cea93148e89","system_id":"levelo_inurba_marseille","lat":43.290995,"lon":5.381361,"is_reserved":false,"is_disabled":false,"rental_uris":{"android":"levelo://app?vid=05bf2cc0-c80b-4d3b-9303-5cea93148e89","ios":"levelo://app?vid=05bf2cc0-c80b-4d3b-9303-5cea93148e89"},"vehicle_type_id":"4","last_reported":1691161602,"current_range_meters":31600,"station_id":"ce4bh512rcd13ifvqe2g","pricing_plan_id":"free"},{"bike_id":"4c1deb31-3753-458d-8930-6311437b325a","system_id":"levelo_inurba_marseille","lat":43.290995,"lon":5.381361,"is_reserved":false,"is_disabled":false,"rental_uris":{"android":"levelo://app?vid=4c1deb31-3753-458d-8930-6311437b325a","ios":"levelo://app?vid=4c1deb31-3753-458d-8930-6311437b325a"},"vehicle_type_id":"4","last_reported":1691161602,"current_range_meters":800,"station_id":"ce4bh512rcd13ifvqe2g","pricing_plan_id":"free"},{"bike_id":"b81d8371-d901-4c39-8946-6648443dac0b","system_id":"levelo_inurba_marseille","lat":43.29528,"lon":5.39034,"is_reserved":false,"is_disabled":false,"rental_uris":{"android":"levelo://app?vid=b81d8371-d901-4c39-8946-6648443dac0b","ios":"levelo://app?vid=b81d8371-d901-4c39-8946-6648443dac0b"},"vehicle_type_id":"4","last_reported":1691161602,"current_range_meters":2000,"station_id":"ce4bh3p2rcd13ifvqdp0","pricing_plan_id":"free"},{"bike_id":"c7d9d6dc-66ec-42a1-a3b1-31d8c50e23fb","system_id":"levelo_inurba_marseille","lat":43.295169,"lon":5.390426,"is_reserved":false,"is_disabled":false,"rental_uris":{"android":"levelo://app?vid=c7d9d6dc-66ec-42a1-a3b1-31d8c50e23fb","ios":"levelo://app?vid=c7d9d6dc-66ec-42a1-a3b1-31d8c50e23fb"},"vehicle_type_id":"4","last_reported":1691161602,"current_range_meters":30000,"station_id":"ce4bh3p2rcd13ifvqdp0","pricing_plan_id":"free"},{"bike_id":"02b71b4a-42f4-4a78-b265-ed4cf501e35d","system_id":"levelo_inurba_marseille","lat":43.295169,"lon":5.390426,"is_reserved":false,"is_disabled":false,"rental_uris":{"android":"levelo://app?vid=02b71b4a-42f4-4a78-b265-ed4cf501e35d","ios":"levelo://app?vid=02b71b4a-42f4-4a78-b265-ed4cf501e35d"},"vehicle_type_id":"4","last_reported":1691161602,"current_range_meters":22000,"station_id":"ce4bh3p2rcd13ifvqdp0","pricing_plan_id":"free"},{"bike_id":"7d697eb0-f073-44c7-83cb-376ffd19c752","system_id":"levelo_inurba_marseille","lat":43.295169,"lon":5.390426,"is_reserved":false,"is_disabled":false,"rental_uris":{"android":"levelo://app?vid=7d697eb0-f073-44c7-83cb-376ffd19c752","ios":"levelo://app?vid=7d697eb0-f073-44c7-83cb-376ffd19c752"},"vehicle_type_id":"4","last_reported":1691161602,"current_range_meters":19600,"station_id":"ce4bh3p2rcd13ifvqdp0","pricing_plan_id":"free"},{"bike_id":"9437baca-ca68-4da1-838c-c71a5757ceb3","system_id":"levelo_inurba_marseille","lat":43.28856,"lon":5.358371,"is_reserved":false,"is_disabled":false,"rental_uris":{"android":"levelo://app?vid=9437baca-ca68-4da1-838c-c71a5757ceb3","ios":"levelo://app?vid=9437baca-ca68-4da1-838c-c71a5757ceb3"},"vehicle_type_id":"4","last_reported":1691161602,"current_range_meters":0,"station_id":"ce4bhb12rcd13ifvqem0","pricing_plan_id":"free"},{"bike_id":"4b76f68a-08a7-41d0-801c-82ca94fea646","system_id":"levelo_inurba_marseille","lat":43.3094,"lon":5.40142,"is_reserved":false,"is_disabled":false,"rental_uris":{"android":"levelo://app?vid=4b76f68a-08a7-41d0-801c-82ca94fea646","ios":"levelo://app?vid=4b76f68a-08a7-41d0-801c-82ca94fea646"},"vehicle_type_id":"4","last_reported":1691161602,"current_range_meters":9200,"station_id":"ce4bgvp2rcd13ifvqct0","pricing_plan_id":"free"},{"bike_id":"0d378fa4-069a-4e89-9ff7-f29622daa7e2","system_id":"levelo_inurba_marseille","lat":43.31271,"lon":5.40189,"is_reserved":false,"is_disabled":false,"rental_uris":{"android":"levelo://app?vid=0d378fa4-069a-4e89-9ff7-f29622daa7e2","ios":"levelo://app?vid=0d378fa4-069a-4e89-9ff7-f29622daa7e2"},"vehicle_type_id":"4","last_reported":1691161602,"current_range_meters":4000,"station_id":"ce4bh092rcd13ifvqd30","pricing_plan_id":"free"},{"bike_id":"a856a9bf-2914-4d99-b110-0ae70d1373ec","system_id":"levelo_inurba_marseille","lat":43.33763,"lon":5.37486,"is_reserved":false,"is_disabled":false,"rental_uris":{"android":"levelo://app?vid=a856a9bf-2914-4d99-b110-0ae70d1373ec","ios":"levelo://app?vid=a856a9bf-2914-4d99-b110-0ae70d1373ec"},"vehicle_type_id":"4","last_reported":1691161602,"current_range_meters":23200,"station_id":"","pricing_plan_id":"free"},{"bike_id":"e753fb07-411f-43ea-93f1-31c9ef1da441","system_id":"levelo_inurba_marseille","lat":43.30642,"lon":5.401031,"is_reserved":false,"is_disabled":false,"rental_uris":{"android":"levelo://app?vid=e753fb07-411f-43ea-93f1-31c9ef1da441","ios":"levelo://app?vid=e753fb07-411f-43ea-93f1-31c9ef1da441"},"vehicle_type_id":"4","last_reported":1691161602,"current_range_meters":17600,"station_id":"ce4bh112rcd13ifvqda0","pricing_plan_id":"free"},{"bike_id":"75199276-b705-4ad7-b6a9-49aeaa84628a","system_id":"levelo_inurba_marseille","lat":43.286591,"lon":5.363346,"is_reserved":false,"is_disabled":false,"rental_uris":{"android":"levelo://app?vid=75199276-b705-4ad7-b6a9-49aeaa84628a","ios":"levelo://app?vid=75199276-b705-4ad7-b6a9-49aeaa84628a"},"vehicle_type_id":"4","last_reported":1691161602,"current_range_meters":31600,"station_id":"ce4bhah2rcd13ifvqej0","pricing_plan_id":"free"},{"bike_id":"052d7752-b6af-4e6b-a837-82e3625c8d4e","system_id":"levelo_inurba_marseille","lat":43.286591,"lon":5.363346,"is_reserved":false,"is_disabled":false,"rental_uris":{"android":"levelo://app?vid=052d7752-b6af-4e6b-a837-82e3625c8d4e","ios":"levelo://app?vid=052d7752-b6af-4e6b-a837-82e3625c8d4e"},"vehicle_type_id":"4","last_reported":1691161602,"current_range_meters":20800,"station_id":"ce4bhah2rcd13ifvqej0","pricing_plan_id":"free"},{"bike_id":"9fd90e93-405a-4cb5-a31c-732fa18d2d5e","system_id":"levelo_inurba_marseille","lat":43.295194,"lon":5.39397,"is_reserved":false,"is_disabled":false,"rental_uris":{"android":"levelo://app?vid=9fd90e93-405a-4cb5-a31c-732fa18d2d5e","ios":"levelo://app?vid=9fd90e93-405a-4cb5-a31c-732fa18d2d5e"},"vehicle_type_id":"4","last_reported":1691161602,"current_range_meters":27600,"station_id":"ce4bh292rcd13ifvqdf0","pricing_plan_id":"free"},{"bike_id":"6d88f858-bc5e-4d10-8a8a-407c69fe6c2d","system_id":"levelo_inurba_marseille","lat":43.290336,"lon":5.386425,"is_reserved":false,"is_disabled":false,"rental_uris":{"android":"levelo://app?vid=6d88f858-bc5e-4d10-8a8a-407c69fe6c2d","ios":"levelo://app?vid=6d88f858-bc5e-4d10-8a8a-407c69fe6c2d"},"vehicle_type_id":"4","last_reported":1691161602,"current_range_meters":14800,"station_id":"ce4bh4p2rcd13ifvqe0g","pricing_plan_id":"free"},{"bike_id":"7b9e2d57-7c2f-4652-8ec0-ee4d147afe24","system_id":"levelo_inurba_marseille","lat":43.302548,"lon":5.400568,"is_reserved":false,"is_disabled":false,"rental_uris":{"android":"levelo://app?vid=7b9e2d57-7c2f-4652-8ec0-ee4d147afe24","ios":"levelo://app?vid=7b9e2d57-7c2f-4652-8ec0-ee4d147afe24"},"vehicle_type_id":"4","last_reported":1691161602,"current_range_meters":14400,"station_id":"","pricing_plan_id":"free"},{"bike_id":"b53de485-a3b4-467c-a638-cd8e89fa61c1","system_id":"levelo_inurba_marseille","lat":43.290336,"lon":5.386425,"is_reserved":false,"is_disabled":false,"rental_uris":{"android":"levelo://app?vid=b53de485-a3b4-467c-a638-cd8e89fa61c1","ios":"levelo://app?vid=b53de485-a3b4-467c-a638-cd8e89fa61c1"},"vehicle_type_id":"4","last_reported":1691161602,"current_range_meters":22800,"station_id":"ce4bh4p2rcd13ifvqe0g","pricing_plan_id":"free"},{"bike_id":"1702ae5e-89b1-43ff-8251-782b08971963","system_id":"levelo_inurba_marseille","lat":43.290336,"lon":5.386425,"is_reserved":false,"is_disabled":false,"rental_uris":{"android":"levelo://app?vid=1702ae5e-89b1-43ff-8251-782b08971963","ios":"levelo://app?vid=1702ae5e-89b1-43ff-8251-782b08971963"},"vehicle_type_id":"4","last_reported":1691161602,"current_range_meters":16800,"station_id":"ce4bh4p2rcd13ifvqe0g","pricing_plan_id":"free"},{"bike_id":"c73aaf58-8e1f-4f7c-852d-9daee3ef4e3e","system_id":"levelo_inurba_marseille","lat":43.302759,"lon":5.400793,"is_reserved":false,"is_disabled":false,"rental_uris":{"android":"levelo://app?vid=c73aaf58-8e1f-4f7c-852d-9daee3ef4e3e","ios":"levelo://app?vid=c73aaf58-8e1f-4f7c-852d-9daee3ef4e3e"},"vehicle_type_id":"4","last_reported":1691161602,"current_range_meters":29600,"station_id":"ce4bgvh2rcd13ifvqcs0","pricing_plan_id":"free"},{"bike_id":"599b624d-e487-4544-8473-815ffaffe66e","system_id":"levelo_inurba_marseille","lat":43.302759,"lon":5.400793,"is_reserved":false,"is_disabled":false,"rental_uris":{"android":"levelo://app?vid=599b624d-e487-4544-8473-815ffaffe66e","ios":"levelo://app?vid=599b624d-e487-4544-8473-815ffaffe66e"},"vehicle_type_id":"4","last_reported":1691161602,"current_range_meters":16000,"station_id":"ce4bgvh2rcd13ifvqcs0","pricing_plan_id":"free"},{"bike_id":"59940152-8d78-40bb-b041-43fdc4cf7630","system_id":"levelo_inurba_marseille","lat":43.302759,"lon":5.400793,"is_reserved":false,"is_disabled":false,"rental_uris":{"android":"levelo://app?vid=59940152-8d78-40bb-b041-43fdc4cf7630","ios":"levelo://app?vid=59940152-8d78-40bb-b041-43fdc4cf7630"},"vehicle_type_id":"4","last_reported":1691161602,"current_range_meters":9200,"station_id":"ce4bgvh2rcd13ifvqcs0","pricing_plan_id":"free"},{"bike_id":"0eec8b1c-8c3d-43c2-ade4-dab3902c07e9","system_id":"levelo_inurba_marseille","lat":43.286039,"lon":5.370679,"is_reserved":false,"is_disabled":false,"rental_uris":{"android":"levelo://app?vid=0eec8b1c-8c3d-43c2-ade4-dab3902c07e9","ios":"levelo://app?vid=0eec8b1c-8c3d-43c2-ade4-dab3902c07e9"},"vehicle_type_id":"4","last_reported":1691161602,"current_range_meters":26400,"station_id":"ce4bht12rcd13ifvqi60","pricing_plan_id":"free"},{"bike_id":"1ff56fe0-1501-4c41-9474-66cb2f3126bd","system_id":"levelo_inurba_marseille","lat":43.28612,"lon":5.37061,"is_reserved":false,"is_disabled":false,"rental_uris":{"android":"levelo://app?vid=1ff56fe0-1501-4c41-9474-66cb2f3126bd","ios":"levelo://app?vid=1ff56fe0-1501-4c41-9474-66cb2f3126bd"},"vehicle_type_id":"4","last_reported":1691161602,"current_range_meters":29600,"station_id":"","pricing_plan_id":"free"},{"bike_id":"2a8a8f72-bd42-4be9-a28f-064fdf767de3","system_id":"levelo_inurba_marseille","lat":43.28812,"lon":5.35253,"is_reserved":false,"is_disabled":false,"rental_uris":{"android":"levelo://app?vid=2a8a8f72-bd42-4be9-a28f-064fdf767de3","ios":"levelo://app?vid=2a8a8f72-bd42-4be9-a28f-064fdf767de3"},"vehicle_type_id":"4","last_reported":1691161602,"current_range_meters":26000,"station_id":"","pricing_plan_id":"free"},{"bike_id":"326cf1d5-dc97-43a5-88f1-511a723a8464","system_id":"levelo_inurba_marseille","lat":43.286039,"lon":5.370681,"is_reserved":false,"is_disabled":false,"rental_uris":{"android":"levelo://app?vid=326cf1d5-dc97-43a5-88f1-511a723a8464","ios":"levelo://app?vid=326cf1d5-dc97-43a5-88f1-511a723a8464"},"vehicle_type_id":"4","last_reported":1691161602,"current_range_meters":14000,"station_id":"ce4bht12rcd13ifvqi60","pricing_plan_id":"free"},{"bike_id":"2505ec1e-c8d9-40d9-9a56-b5650062f6ff","system_id":"levelo_inurba_marseille","lat":43.286039,"lon":5.370679,"is_reserved":false,"is_disabled":false,"rental_uris":{"android":"levelo://app?vid=2505ec1e-c8d9-40d9-9a56-b5650062f6ff","ios":"levelo://app?vid=2505ec1e-c8d9-40d9-9a56-b5650062f6ff"},"vehicle_type_id":"4","last_reported":1691161602,"current_range_meters":13200,"station_id":"ce4bht12rcd13ifvqi60","pricing_plan_id":"free"},{"bike_id":"199dd523-e460-41e6-bf22-080d0b690035","system_id":"levelo_inurba_marseille","lat":43.287185,"lon":5.379373,"is_reserved":false,"is_disabled":false,"rental_uris":{"android":"levelo://app?vid=199dd523-e460-41e6-bf22-080d0b690035","ios":"levelo://app?vid=199dd523-e460-41e6-bf22-080d0b690035"},"vehicle_type_id":"4","last_reported":1691161602,"current_range_meters":5200,"station_id":"ce4bh9p2rcd13ifvqec0","pricing_plan_id":"free"},{"bike_id":"27446e63-ee9a-4e88-926b-a0ec151943d5","system_id":"levelo_inurba_marseille","lat":43.31643,"lon":5.4043,"is_reserved":false,"is_disabled":false,"rental_uris":{"android":"levelo://app?vid=27446e63-ee9a-4e88-926b-a0ec151943d5","ios":"levelo://app?vid=27446e63-ee9a-4e88-926b-a0ec151943d5"},"vehicle_type_id":"4","last_reported":1691161602,"current_range_meters":2800,"station_id":"ce4bh012rcd13ifvqd00","pricing_plan_id":"free"},{"bike_id":"c8428019-34ed-4fa0-ab6b-d0660ab7d830","system_id":"levelo_inurba_marseille","lat":43.316517,"lon":5.404375,"is_reserved":false,"is_disabled":false,"rental_uris":{"android":"levelo://app?vid=c8428019-34ed-4fa0-ab6b-d0660ab7d830","ios":"levelo://app?vid=c8428019-34ed-4fa0-ab6b-d0660ab7d830"},"vehicle_type_id":"4","last_reported":1691161602,"current_range_meters":30400,"station_id":"ce4bh012rcd13ifvqd00","pricing_plan_id":"free"},{"bike_id":"95a0a858-65ac-41a3-9c14-52d3591e1d36","system_id":"levelo_inurba_marseille","lat":43.316517,"lon":5.404375,"is_reserved":false,"is_disabled":false,"rental_uris":{"android":"levelo://app?vid=95a0a858-65ac-41a3-9c14-52d3591e1d36","ios":"levelo://app?vid=95a0a858-65ac-41a3-9c14-52d3591e1d36"},"vehicle_type_id":"4","last_reported":1691161602,"current_range_meters":30400,"station_id":"ce4bh012rcd13ifvqd00","pricing_plan_id":"free"},{"bike_id":"1f21aedb-da70-4618-8dbd-1b9d59083b4e","system_id":"levelo_inurba_marseille","lat":43.28468,"lon":5.35893,"is_reserved":false,"is_disabled":false,"rental_uris":{"android":"levelo://app?vid=1f21aedb-da70-4618-8dbd-1b9d59083b4e","ios":"levelo://app?vid=1f21aedb-da70-4618-8dbd-1b9d59083b4e"},"vehicle_type_id":"4","last_reported":1691161602,"current_range_meters":0,"station_id":"ce4bhah2rcd13ifvqei0","pricing_plan_id":"free"},{"bike_id":"7b78d55e-e99c-4fa7-968a-c672d6912f00","system_id":"levelo_inurba_marseille","lat":43.284538,"lon":5.358657,"is_reserved":false,"is_disabled":false,"rental_uris":{"android":"levelo://app?vid=7b78d55e-e99c-4fa7-968a-c672d6912f00","ios":"levelo://app?vid=7b78d55e-e99c-4fa7-968a-c672d6912f00"},"vehicle_type_id":"4","last_reported":1691161602,"current_range_meters":31200,"station_id":"ce4bhah2rcd13ifvqei0","pricing_plan_id":"free"},{"bike_id":"bb5a4217-6087-4a60-a2f0-418daf939c72","system_id":"levelo_inurba_marseille","lat":43.28619,"lon":5.3511,"is_reserved":false,"is_disabled":false,"rental_uris":{"android":"levelo://app?vid=bb5a4217-6087-4a60-a2f0-418daf939c72","ios":"levelo://app?vid=bb5a4217-6087-4a60-a2f0-418daf939c72"},"vehicle_type_id":"4","last_reported":1691161602,"current_range_meters":17600,"station_id":"ce4bhch2rcd13ifvqeug","pricing_plan_id":"free"},{"bike_id":"2fc997a4-be97-4bb8-92de-2ff322d5472b","system_id":"levelo_inurba_marseille","lat":43.28617,"lon":5.35111,"is_reserved":false,"is_disabled":false,"rental_uris":{"android":"levelo://app?vid=2fc997a4-be97-4bb8-92de-2ff322d5472b","ios":"levelo://app?vid=2fc997a4-be97-4bb8-92de-2ff322d5472b"},"vehicle_type_id":"4","last_reported":1691161602,"current_range_meters":20400,"station_id":"ce4bhch2rcd13ifvqeug","pricing_plan_id":"free"},{"bike_id":"47e421d9-aa57-465a-88ae-e702bc346dc8","system_id":"levelo_inurba_marseille","lat":43.28618,"lon":5.35106,"is_reserved":false,"is_disabled":false,"rental_uris":{"android":"levelo://app?vid=47e421d9-aa57-465a-88ae-e702bc346dc8","ios":"levelo://app?vid=47e421d9-aa57-465a-88ae-e702bc346dc8"},"vehicle_type_id":"4","last_reported":1691161602,"current_range_meters":29600,"station_id":"ce4bhch2rcd13ifvqeug","pricing_plan_id":"free"},{"bike_id":"596f9479-a005-4889-8330-d2c007ebe8e2","system_id":"levelo_inurba_marseille","lat":43.28616,"lon":5.35111,"is_reserved":false,"is_disabled":false,"rental_uris":{"android":"levelo://app?vid=596f9479-a005-4889-8330-d2c007ebe8e2","ios":"levelo://app?vid=596f9479-a005-4889-8330-d2c007ebe8e2"},"vehicle_type_id":"4","last_reported":1691161602,"current_range_meters":22400,"station_id":"ce4bhch2rcd13ifvqeug","pricing_plan_id":"free"},{"bike_id":"319080f0-8af2-49ed-9660-710dd9f6b522","system_id":"levelo_inurba_marseille","lat":43.285848,"lon":5.350787,"is_reserved":false,"is_disabled":false,"rental_uris":{"android":"levelo://app?vid=319080f0-8af2-49ed-9660-710dd9f6b522","ios":"levelo://app?vid=319080f0-8af2-49ed-9660-710dd9f6b522"},"vehicle_type_id":"4","last_reported":1691161602,"current_range_meters":18800,"station_id":"ce4bhch2rcd13ifvqeug","pricing_plan_id":"free"},{"bike_id":"e88ce4db-1617-4559-83ce-e3543f0c7440","system_id":"levelo_inurba_marseille","lat":43.285856,"lon":5.350771,"is_reserved":false,"is_disabled":false,"rental_uris":{"android":"levelo://app?vid=e88ce4db-1617-4559-83ce-e3543f0c7440","ios":"levelo://app?vid=e88ce4db-1617-4559-83ce-e3543f0c7440"},"vehicle_type_id":"4","last_reported":1691161602,"current_range_meters":31200,"station_id":"ce4bhch2rcd13ifvqeug","pricing_plan_id":"free"},{"bike_id":"63651cd5-5c13-4a6d-a0ea-975e23c412bb","system_id":"levelo_inurba_marseille","lat":43.28616,"lon":5.35105,"is_reserved":false,"is_disabled":false,"rental_uris":{"android":"levelo://app?vid=63651cd5-5c13-4a6d-a0ea-975e23c412bb","ios":"levelo://app?vid=63651cd5-5c13-4a6d-a0ea-975e23c412bb"},"vehicle_type_id":"4","last_reported":1691161602,"current_range_meters":16800,"station_id":"ce4bhch2rcd13ifvqeug","pricing_plan_id":"free"},{"bike_id":"92cdc47d-a2ef-4625-997a-e72a7110d532","system_id":"levelo_inurba_marseille","lat":43.28615,"lon":5.35107,"is_reserved":false,"is_disabled":false,"rental_uris":{"android":"levelo://app?vid=92cdc47d-a2ef-4625-997a-e72a7110d532","ios":"levelo://app?vid=92cdc47d-a2ef-4625-997a-e72a7110d532"},"vehicle_type_id":"4","last_reported":1691161602,"current_range_meters":30000,"station_id":"ce4bhch2rcd13ifvqeug","pricing_plan_id":"free"},{"bike_id":"2b3c5eca-4c4a-47ca-98ce-4da798dfbc5d","system_id":"levelo_inurba_marseille","lat":43.28612,"lon":5.35114,"is_reserved":false,"is_disabled":false,"rental_uris":{"android":"levelo://app?vid=2b3c5eca-4c4a-47ca-98ce-4da798dfbc5d","ios":"levelo://app?vid=2b3c5eca-4c4a-47ca-98ce-4da798dfbc5d"},"vehicle_type_id":"4","last_reported":1691161602,"current_range_meters":17200,"station_id":"ce4bhch2rcd13ifvqeug","pricing_plan_id":"free"},{"bike_id":"783ac4a2-8853-4297-885c-25b6bd8fad42","system_id":"levelo_inurba_marseille","lat":43.28614,"lon":5.351063,"is_reserved":false,"is_disabled":false,"rental_uris":{"android":"levelo://app?vid=783ac4a2-8853-4297-885c-25b6bd8fad42","ios":"levelo://app?vid=783ac4a2-8853-4297-885c-25b6bd8fad42"},"vehicle_type_id":"4","last_reported":1691161602,"current_range_meters":30400,"station_id":"ce4bhch2rcd13ifvqeug","pricing_plan_id":"free"},{"bike_id":"ee62100e-0166-49db-ba86-f1fc2e14857d","system_id":"levelo_inurba_marseille","lat":43.28612,"lon":5.35109,"is_reserved":false,"is_disabled":false,"rental_uris":{"android":"levelo://app?vid=ee62100e-0166-49db-ba86-f1fc2e14857d","ios":"levelo://app?vid=ee62100e-0166-49db-ba86-f1fc2e14857d"},"vehicle_type_id":"4","last_reported":1691161602,"current_range_meters":18000,"station_id":"ce4bhch2rcd13ifvqeug","pricing_plan_id":"free"},{"bike_id":"0a0a69fe-92e5-4012-834c-267e32afacc2","system_id":"levelo_inurba_marseille","lat":43.2861,"lon":5.35114,"is_reserved":false,"is_disabled":false,"rental_uris":{"android":"levelo://app?vid=0a0a69fe-92e5-4012-834c-267e32afacc2","ios":"levelo://app?vid=0a0a69fe-92e5-4012-834c-267e32afacc2"},"vehicle_type_id":"4","last_reported":1691161602,"current_range_meters":21600,"station_id":"ce4bhch2rcd13ifvqeug","pricing_plan_id":"free"},{"bike_id":"c607841c-793c-4e99-ae28-75fdb75c32f4","system_id":"levelo_inurba_marseille","lat":43.28611,"lon":5.35107,"is_reserved":false,"is_disabled":false,"rental_uris":{"android":"levelo://app?vid=c607841c-793c-4e99-ae28-75fdb75c32f4","ios":"levelo://app?vid=c607841c-793c-4e99-ae28-75fdb75c32f4"},"vehicle_type_id":"4","last_reported":1691161602,"current_range_meters":28000,"station_id":"ce4bhch2rcd13ifvqeug","pricing_plan_id":"free"},{"bike_id":"0831c029-c4fa-4121-80ff-7bdab63375af","system_id":"levelo_inurba_marseille","lat":43.285848,"lon":5.350787,"is_reserved":false,"is_disabled":false,"rental_uris":{"android":"levelo://app?vid=0831c029-c4fa-4121-80ff-7bdab63375af","ios":"levelo://app?vid=0831c029-c4fa-4121-80ff-7bdab63375af"},"vehicle_type_id":"4","last_reported":1691161602,"current_range_meters":29600,"station_id":"ce4bhch2rcd13ifvqeug","pricing_plan_id":"free"},{"bike_id":"0e513e33-ee31-49cc-8759-659ab9120fdc","system_id":"levelo_inurba_marseille","lat":43.28613,"lon":5.35097,"is_reserved":false,"is_disabled":false,"rental_uris":{"android":"levelo://app?vid=0e513e33-ee31-49cc-8759-659ab9120fdc","ios":"levelo://app?vid=0e513e33-ee31-49cc-8759-659ab9120fdc"},"vehicle_type_id":"4","last_reported":1691161602,"current_range_meters":17200,"station_id":"ce4bhch2rcd13ifvqeug","pricing_plan_id":"free"},{"bike_id":"dedfa9df-4c2f-47f3-b3e6-a2c0137e0859","system_id":"levelo_inurba_marseille","lat":43.28607,"lon":5.35113,"is_reserved":false,"is_disabled":false,"rental_uris":{"android":"levelo://app?vid=dedfa9df-4c2f-47f3-b3e6-a2c0137e0859","ios":"levelo://app?vid=dedfa9df-4c2f-47f3-b3e6-a2c0137e0859"},"vehicle_type_id":"4","last_reported":1691161602,"current_range_meters":22800,"station_id":"ce4bhch2rcd13ifvqeug","pricing_plan_id":"free"},{"bike_id":"d214e823-fb45-4ce8-b514-276db2292c32","system_id":"levelo_inurba_marseille","lat":43.283998,"lon":5.375062,"is_reserved":false,"is_disabled":false,"rental_uris":{"android":"levelo://app?vid=d214e823-fb45-4ce8-b514-276db2292c32","ios":"levelo://app?vid=d214e823-fb45-4ce8-b514-276db2292c32"},"vehicle_type_id":"4","last_reported":1691161602,"current_range_meters":22800,"station_id":"ce4bh412rcd13ifvqds0","pricing_plan_id":"free"},{"bike_id":"eeb02a4a-fc34-4229-a72e-14ead8b86bb9","system_id":"levelo_inurba_marseille","lat":43.31889,"lon":5.40724,"is_reserved":false,"is_disabled":false,"rental_uris":{"android":"levelo://app?vid=eeb02a4a-fc34-4229-a72e-14ead8b86bb9","ios":"levelo://app?vid=eeb02a4a-fc34-4229-a72e-14ead8b86bb9"},"vehicle_type_id":"4","last_reported":1691161602,"current_range_meters":24400,"station_id":"","pricing_plan_id":"free"},{"bike_id":"8daabb4c-3541-4593-9b36-1eadeac41cae","system_id":"levelo_inurba_marseille","lat":43.319179,"lon":5.407725,"is_reserved":false,"is_disabled":false,"rental_uris":{"android":"levelo://app?vid=8daabb4c-3541-4593-9b36-1eadeac41cae","ios":"levelo://app?vid=8daabb4c-3541-4593-9b36-1eadeac41cae"},"vehicle_type_id":"4","last_reported":1691161602,"current_range_meters":16400,"station_id":"ce4bhq12rcd13ifvqhig","pricing_plan_id":"free"},{"bike_id":"fd8d2354-0817-4a67-af7d-23e5ee9f2c95","system_id":"levelo_inurba_marseille","lat":43.31888,"lon":5.40731,"is_reserved":false,"is_disabled":false,"rental_uris":{"android":"levelo://app?vid=fd8d2354-0817-4a67-af7d-23e5ee9f2c95","ios":"levelo://app?vid=fd8d2354-0817-4a67-af7d-23e5ee9f2c95"},"vehicle_type_id":"4","last_reported":1691161602,"current_range_meters":31200,"station_id":"ce4bhq12rcd13ifvqhig","pricing_plan_id":"free"},{"bike_id":"632d4045-2ba1-4d8b-8070-04923aafd128","system_id":"levelo_inurba_marseille","lat":43.31885,"lon":5.40734,"is_reserved":false,"is_disabled":false,"rental_uris":{"android":"levelo://app?vid=632d4045-2ba1-4d8b-8070-04923aafd128","ios":"levelo://app?vid=632d4045-2ba1-4d8b-8070-04923aafd128"},"vehicle_type_id":"4","last_reported":1691161602,"current_range_meters":5200,"station_id":"ce4bhq12rcd13ifvqhig","pricing_plan_id":"free"},{"bike_id":"d7fe841c-6a0f-4218-8c73-d290e823f367","system_id":"levelo_inurba_marseille","lat":43.31892,"lon":5.40738,"is_reserved":false,"is_disabled":false,"rental_uris":{"android":"levelo://app?vid=d7fe841c-6a0f-4218-8c73-d290e823f367","ios":"levelo://app?vid=d7fe841c-6a0f-4218-8c73-d290e823f367"},"vehicle_type_id":"4","last_reported":1691161602,"current_range_meters":12000,"station_id":"ce4bhq12rcd13ifvqhig","pricing_plan_id":"free"},{"bike_id":"430c2063-ded1-4339-9309-d962bc415bc7","system_id":"levelo_inurba_marseille","lat":43.31893,"lon":5.40738,"is_reserved":false,"is_disabled":false,"rental_uris":{"android":"levelo://app?vid=430c2063-ded1-4339-9309-d962bc415bc7","ios":"levelo://app?vid=430c2063-ded1-4339-9309-d962bc415bc7"},"vehicle_type_id":"4","last_reported":1691161602,"current_range_meters":31600,"station_id":"ce4bhq12rcd13ifvqhig","pricing_plan_id":"free"},{"bike_id":"fd72a39e-bfc1-44cc-97aa-4039744f5af5","system_id":"levelo_inurba_marseille","lat":43.28534,"lon":5.38422,"is_reserved":false,"is_disabled":false,"rental_uris":{"android":"levelo://app?vid=fd72a39e-bfc1-44cc-97aa-4039744f5af5","ios":"levelo://app?vid=fd72a39e-bfc1-44cc-97aa-4039744f5af5"},"vehicle_type_id":"4","last_reported":1691161602,"current_range_meters":21600,"station_id":"","pricing_plan_id":"free"},{"bike_id":"8e4ab4c7-b2dc-4e74-b07d-1ff49a416721","system_id":"levelo_inurba_marseille","lat":43.33719,"lon":5.3918,"is_reserved":false,"is_disabled":false,"rental_uris":{"android":"levelo://app?vid=8e4ab4c7-b2dc-4e74-b07d-1ff49a416721","ios":"levelo://app?vid=8e4ab4c7-b2dc-4e74-b07d-1ff49a416721"},"vehicle_type_id":"4","last_reported":1691161602,"current_range_meters":18800,"station_id":"ce4bhr92rcd13ifvqhsg","pricing_plan_id":"free"},{"bike_id":"65e7209e-43de-4472-85bf-edccad84c81f","system_id":"levelo_inurba_marseille","lat":43.33717,"lon":5.39184,"is_reserved":false,"is_disabled":false,"rental_uris":{"android":"levelo://app?vid=65e7209e-43de-4472-85bf-edccad84c81f","ios":"levelo://app?vid=65e7209e-43de-4472-85bf-edccad84c81f"},"vehicle_type_id":"4","last_reported":1691161602,"current_range_meters":27200,"station_id":"ce4bhr92rcd13ifvqhsg","pricing_plan_id":"free"},{"bike_id":"3e563380-a985-451c-801d-2783d7714294","system_id":"levelo_inurba_marseille","lat":43.33717,"lon":5.391857,"is_reserved":false,"is_disabled":false,"rental_uris":{"android":"levelo://app?vid=3e563380-a985-451c-801d-2783d7714294","ios":"levelo://app?vid=3e563380-a985-451c-801d-2783d7714294"},"vehicle_type_id":"4","last_reported":1691161602,"current_range_meters":14800,"station_id":"ce4bhr92rcd13ifvqhsg","pricing_plan_id":"free"},{"bike_id":"c59f30af-b7c9-4762-b544-56156d6a8a97","system_id":"levelo_inurba_marseille","lat":43.33718,"lon":5.39184,"is_reserved":false,"is_disabled":false,"rental_uris":{"android":"levelo://app?vid=c59f30af-b7c9-4762-b544-56156d6a8a97","ios":"levelo://app?vid=c59f30af-b7c9-4762-b544-56156d6a8a97"},"vehicle_type_id":"4","last_reported":1691161602,"current_range_meters":21200,"station_id":"ce4bhr92rcd13ifvqhsg","pricing_plan_id":"free"},{"bike_id":"9be39f6c-974f-4a4e-90c3-357a4d8fdcc8","system_id":"levelo_inurba_marseille","lat":43.323464,"lon":5.406297,"is_reserved":false,"is_disabled":false,"rental_uris":{"android":"levelo://app?vid=9be39f6c-974f-4a4e-90c3-357a4d8fdcc8","ios":"levelo://app?vid=9be39f6c-974f-4a4e-90c3-357a4d8fdcc8"},"vehicle_type_id":"4","last_reported":1691161602,"current_range_meters":31600,"station_id":"ce4bhq92rcd13ifvqhjg","pricing_plan_id":"free"},{"bike_id":"f18b4051-8145-4f33-aee1-6f539e29d721","system_id":"levelo_inurba_marseille","lat":43.33717,"lon":5.39191,"is_reserved":false,"is_disabled":false,"rental_uris":{"android":"levelo://app?vid=f18b4051-8145-4f33-aee1-6f539e29d721","ios":"levelo://app?vid=f18b4051-8145-4f33-aee1-6f539e29d721"},"vehicle_type_id":"4","last_reported":1691161602,"current_range_meters":19200,"station_id":"ce4bhr92rcd13ifvqhsg","pricing_plan_id":"free"},{"bike_id":"df82d2f9-f688-4670-ac84-3e543122cedb","system_id":"levelo_inurba_marseille","lat":43.3372,"lon":5.39186,"is_reserved":false,"is_disabled":false,"rental_uris":{"android":"levelo://app?vid=df82d2f9-f688-4670-ac84-3e543122cedb","ios":"levelo://app?vid=df82d2f9-f688-4670-ac84-3e543122cedb"},"vehicle_type_id":"4","last_reported":1691161602,"current_range_meters":13600,"station_id":"ce4bhr92rcd13ifvqhsg","pricing_plan_id":"free"},{"bike_id":"b522bbf9-91f5-4abf-bed9-853a43b7f3b1","system_id":"levelo_inurba_marseille","lat":43.337231,"lon":5.391805,"is_reserved":false,"is_disabled":false,"rental_uris":{"android":"levelo://app?vid=b522bbf9-91f5-4abf-bed9-853a43b7f3b1","ios":"levelo://app?vid=b522bbf9-91f5-4abf-bed9-853a43b7f3b1"},"vehicle_type_id":"4","last_reported":1691161602,"current_range_meters":16800,"station_id":"ce4bhr92rcd13ifvqhsg","pricing_plan_id":"free"},{"bike_id":"a3cf389b-f19c-4e75-9e92-40c9195ed245","system_id":"levelo_inurba_marseille","lat":43.33722,"lon":5.39183,"is_reserved":false,"is_disabled":false,"rental_uris":{"android":"levelo://app?vid=a3cf389b-f19c-4e75-9e92-40c9195ed245","ios":"levelo://app?vid=a3cf389b-f19c-4e75-9e92-40c9195ed245"},"vehicle_type_id":"4","last_reported":1691161602,"current_range_meters":0,"station_id":"ce4bhr92rcd13ifvqhsg","pricing_plan_id":"free"},{"bike_id":"23dafe58-bc58-41ce-843c-2b5e651c84c2","system_id":"levelo_inurba_marseille","lat":43.32335,"lon":5.40617,"is_reserved":false,"is_disabled":false,"rental_uris":{"android":"levelo://app?vid=23dafe58-bc58-41ce-843c-2b5e651c84c2","ios":"levelo://app?vid=23dafe58-bc58-41ce-843c-2b5e651c84c2"},"vehicle_type_id":"4","last_reported":1691161602,"current_range_meters":30800,"station_id":"ce4bhq92rcd13ifvqhjg","pricing_plan_id":"free"},{"bike_id":"37dfae56-2a13-495c-9752-c992e0ad9ccf","system_id":"levelo_inurba_marseille","lat":43.32336,"lon":5.40617,"is_reserved":false,"is_disabled":false,"rental_uris":{"android":"levelo://app?vid=37dfae56-2a13-495c-9752-c992e0ad9ccf","ios":"levelo://app?vid=37dfae56-2a13-495c-9752-c992e0ad9ccf"},"vehicle_type_id":"4","last_reported":1691161602,"current_range_meters":29200,"station_id":"ce4bhq92rcd13ifvqhjg","pricing_plan_id":"free"},{"bike_id":"1f5722b0-5667-43f6-9dad-3a3b818c5a69","system_id":"levelo_inurba_marseille","lat":43.33724,"lon":5.39182,"is_reserved":false,"is_disabled":false,"rental_uris":{"android":"levelo://app?vid=1f5722b0-5667-43f6-9dad-3a3b818c5a69","ios":"levelo://app?vid=1f5722b0-5667-43f6-9dad-3a3b818c5a69"},"vehicle_type_id":"4","last_reported":1691161602,"current_range_meters":30800,"station_id":"ce4bhr92rcd13ifvqhsg","pricing_plan_id":"free"},{"bike_id":"9d8dc018-8295-487e-aae9-79ce0f469cdf","system_id":"levelo_inurba_marseille","lat":43.33723,"lon":5.39186,"is_reserved":false,"is_disabled":false,"rental_uris":{"android":"levelo://app?vid=9d8dc018-8295-487e-aae9-79ce0f469cdf","ios":"levelo://app?vid=9d8dc018-8295-487e-aae9-79ce0f469cdf"},"vehicle_type_id":"4","last_reported":1691161602,"current_range_meters":25200,"station_id":"ce4bhr92rcd13ifvqhsg","pricing_plan_id":"free"},{"bike_id":"ed9797b8-d925-4a28-9a9e-5f5639c20314","system_id":"levelo_inurba_marseille","lat":43.33726,"lon":5.39183,"is_reserved":false,"is_disabled":false,"rental_uris":{"android":"levelo://app?vid=ed9797b8-d925-4a28-9a9e-5f5639c20314","ios":"levelo://app?vid=ed9797b8-d925-4a28-9a9e-5f5639c20314"},"vehicle_type_id":"4","last_reported":1691161602,"current_range_meters":14400,"station_id":"ce4bhr92rcd13ifvqhsg","pricing_plan_id":"free"},{"bike_id":"a9671d69-2a62-4abb-9d98-78ee12b6b2d8","system_id":"levelo_inurba_marseille","lat":43.33722,"lon":5.39192,"is_reserved":false,"is_disabled":false,"rental_uris":{"android":"levelo://app?vid=a9671d69-2a62-4abb-9d98-78ee12b6b2d8","ios":"levelo://app?vid=a9671d69-2a62-4abb-9d98-78ee12b6b2d8"},"vehicle_type_id":"4","last_reported":1691161602,"current_range_meters":12000,"station_id":"ce4bhr92rcd13ifvqhsg","pricing_plan_id":"free"},{"bike_id":"3e2b1177-2c86-434f-b952-b4cf179b745c","system_id":"levelo_inurba_marseille","lat":43.3233,"lon":5.40625,"is_reserved":false,"is_disabled":false,"rental_uris":{"android":"levelo://app?vid=3e2b1177-2c86-434f-b952-b4cf179b745c","ios":"levelo://app?vid=3e2b1177-2c86-434f-b952-b4cf179b745c"},"vehicle_type_id":"4","last_reported":1691161602,"current_range_meters":21600,"station_id":"ce4bhq92rcd13ifvqhjg","pricing_plan_id":"free"},{"bike_id":"9ed5c8cd-5716-467d-9a0b-e5002dcb5a2c","system_id":"levelo_inurba_marseille","lat":43.33729,"lon":5.39182,"is_reserved":false,"is_disabled":false,"rental_uris":{"android":"levelo://app?vid=9ed5c8cd-5716-467d-9a0b-e5002dcb5a2c","ios":"levelo://app?vid=9ed5c8cd-5716-467d-9a0b-e5002dcb5a2c"},"vehicle_type_id":"4","last_reported":1691161602,"current_range_meters":30000,"station_id":"ce4bhr92rcd13ifvqhsg","pricing_plan_id":"free"},{"bike_id":"939edbe6-adcc-4f97-ad69-99748df4073d","system_id":"levelo_inurba_marseille","lat":43.33729,"lon":5.39183,"is_reserved":false,"is_disabled":false,"rental_uris":{"android":"levelo://app?vid=939edbe6-adcc-4f97-ad69-99748df4073d","ios":"levelo://app?vid=939edbe6-adcc-4f97-ad69-99748df4073d"},"vehicle_type_id":"4","last_reported":1691161602,"current_range_meters":25600,"station_id":"ce4bhr92rcd13ifvqhsg","pricing_plan_id":"free"},{"bike_id":"dbada9f9-e33c-4a7d-ab43-1cac4e571e70","system_id":"levelo_inurba_marseille","lat":43.28495,"lon":5.38427,"is_reserved":false,"is_disabled":false,"rental_uris":{"android":"levelo://app?vid=dbada9f9-e33c-4a7d-ab43-1cac4e571e70","ios":"levelo://app?vid=dbada9f9-e33c-4a7d-ab43-1cac4e571e70"},"vehicle_type_id":"4","last_reported":1691161602,"current_range_meters":28400,"station_id":"ce4bh512rcd13ifvqe3g","pricing_plan_id":"free"},{"bike_id":"5fd6a347-0a02-4efa-ab4a-06802493ed56","system_id":"levelo_inurba_marseille","lat":43.33731,"lon":5.39189,"is_reserved":false,"is_disabled":false,"rental_uris":{"android":"levelo://app?vid=5fd6a347-0a02-4efa-ab4a-06802493ed56","ios":"levelo://app?vid=5fd6a347-0a02-4efa-ab4a-06802493ed56"},"vehicle_type_id":"4","last_reported":1691161602,"current_range_meters":16000,"station_id":"ce4bhr92rcd13ifvqhsg","pricing_plan_id":"free"},{"bike_id":"891b750a-182f-4dfb-803c-ae781522a955","system_id":"levelo_inurba_marseille","lat":43.29803,"lon":5.40418,"is_reserved":false,"is_disabled":false,"rental_uris":{"android":"levelo://app?vid=891b750a-182f-4dfb-803c-ae781522a955","ios":"levelo://app?vid=891b750a-182f-4dfb-803c-ae781522a955"},"vehicle_type_id":"4","last_reported":1691161602,"current_range_meters":18400,"station_id":"","pricing_plan_id":"free"},{"bike_id":"d467766d-3512-465b-a791-caab20aea86b","system_id":"levelo_inurba_marseille","lat":43.28437,"lon":5.34976,"is_reserved":false,"is_disabled":false,"rental_uris":{"android":"levelo://app?vid=d467766d-3512-465b-a791-caab20aea86b","ios":"levelo://app?vid=d467766d-3512-465b-a791-caab20aea86b"},"vehicle_type_id":"4","last_reported":1691161602,"current_range_meters":12000,"station_id":"ce4bhbh2rcd13ifvqepg","pricing_plan_id":"free"},{"bike_id":"cc1e5e92-f88d-4aad-ab5d-2ac31992f744","system_id":"levelo_inurba_marseille","lat":43.2843,"lon":5.34989,"is_reserved":false,"is_disabled":false,"rental_uris":{"android":"levelo://app?vid=cc1e5e92-f88d-4aad-ab5d-2ac31992f744","ios":"levelo://app?vid=cc1e5e92-f88d-4aad-ab5d-2ac31992f744"},"vehicle_type_id":"4","last_reported":1691161602,"current_range_meters":19600,"station_id":"ce4bhbh2rcd13ifvqepg","pricing_plan_id":"free"},{"bike_id":"509f37c7-acb3-4b17-99cf-e4dbe380daa0","system_id":"levelo_inurba_marseille","lat":43.284217,"lon":5.349697,"is_reserved":false,"is_disabled":false,"rental_uris":{"android":"levelo://app?vid=509f37c7-acb3-4b17-99cf-e4dbe380daa0","ios":"levelo://app?vid=509f37c7-acb3-4b17-99cf-e4dbe380daa0"},"vehicle_type_id":"4","last_reported":1691161602,"current_range_meters":31600,"station_id":"ce4bhbh2rcd13ifvqepg","pricing_plan_id":"free"},{"bike_id":"b96ed91b-fb24-4bbd-9431-a5f43fe86ec4","system_id":"levelo_inurba_marseille","lat":43.28434,"lon":5.34975,"is_reserved":false,"is_disabled":false,"rental_uris":{"android":"levelo://app?vid=b96ed91b-fb24-4bbd-9431-a5f43fe86ec4","ios":"levelo://app?vid=b96ed91b-fb24-4bbd-9431-a5f43fe86ec4"},"vehicle_type_id":"4","last_reported":1691161602,"current_range_meters":12400,"station_id":"ce4bhbh2rcd13ifvqepg","pricing_plan_id":"free"},{"bike_id":"1002eda9-1961-410c-88cb-04af7fbc34c0","system_id":"levelo_inurba_marseille","lat":43.28426,"lon":5.34986,"is_reserved":false,"is_disabled":false,"rental_uris":{"android":"levelo://app?vid=1002eda9-1961-410c-88cb-04af7fbc34c0","ios":"levelo://app?vid=1002eda9-1961-410c-88cb-04af7fbc34c0"},"vehicle_type_id":"4","last_reported":1691161602,"current_range_meters":22400,"station_id":"ce4bhbh2rcd13ifvqepg","pricing_plan_id":"free"},{"bike_id":"1cd36677-ba42-48dc-8618-a23a2d946f87","system_id":"levelo_inurba_marseille","lat":43.28427,"lon":5.34982,"is_reserved":false,"is_disabled":false,"rental_uris":{"android":"levelo://app?vid=1cd36677-ba42-48dc-8618-a23a2d946f87","ios":"levelo://app?vid=1cd36677-ba42-48dc-8618-a23a2d946f87"},"vehicle_type_id":"4","last_reported":1691161602,"current_range_meters":24800,"station_id":"ce4bhbh2rcd13ifvqepg","pricing_plan_id":"free"},{"bike_id":"4781a394-7f0c-465a-8176-781e1b27215c","system_id":"levelo_inurba_marseille","lat":43.28427,"lon":5.34978,"is_reserved":false,"is_disabled":false,"rental_uris":{"android":"levelo://app?vid=4781a394-7f0c-465a-8176-781e1b27215c","ios":"levelo://app?vid=4781a394-7f0c-465a-8176-781e1b27215c"},"vehicle_type_id":"4","last_reported":1691161602,"current_range_meters":22000,"station_id":"ce4bhbh2rcd13ifvqepg","pricing_plan_id":"free"},{"bike_id":"67a317f5-9abf-41e0-b0c0-cecc9f59c420","system_id":"levelo_inurba_marseille","lat":43.284219,"lon":5.3497,"is_reserved":false,"is_disabled":false,"rental_uris":{"android":"levelo://app?vid=67a317f5-9abf-41e0-b0c0-cecc9f59c420","ios":"levelo://app?vid=67a317f5-9abf-41e0-b0c0-cecc9f59c420"},"vehicle_type_id":"4","last_reported":1691161602,"current_range_meters":28800,"station_id":"ce4bhbh2rcd13ifvqepg","pricing_plan_id":"free"},{"bike_id":"eb4e3a60-54ee-4577-bc4a-d516ce6ca302","system_id":"levelo_inurba_marseille","lat":43.28423,"lon":5.34985,"is_reserved":false,"is_disabled":false,"rental_uris":{"android":"levelo://app?vid=eb4e3a60-54ee-4577-bc4a-d516ce6ca302","ios":"levelo://app?vid=eb4e3a60-54ee-4577-bc4a-d516ce6ca302"},"vehicle_type_id":"4","last_reported":1691161602,"current_range_meters":10400,"station_id":"ce4bhbh2rcd13ifvqepg","pricing_plan_id":"free"},{"bike_id":"a8bd4e3b-fc8c-465f-bcef-5fb5f18c75eb","system_id":"levelo_inurba_marseille","lat":43.28423,"lon":5.34985,"is_reserved":false,"is_disabled":false,"rental_uris":{"android":"levelo://app?vid=a8bd4e3b-fc8c-465f-bcef-5fb5f18c75eb","ios":"levelo://app?vid=a8bd4e3b-fc8c-465f-bcef-5fb5f18c75eb"},"vehicle_type_id":"4","last_reported":1691161602,"current_range_meters":30000,"station_id":"ce4bhbh2rcd13ifvqepg","pricing_plan_id":"free"},{"bike_id":"33c7f28c-8bf0-4a12-a367-dbd734724f6e","system_id":"levelo_inurba_marseille","lat":43.28422,"lon":5.34988,"is_reserved":false,"is_disabled":false,"rental_uris":{"android":"levelo://app?vid=33c7f28c-8bf0-4a12-a367-dbd734724f6e","ios":"levelo://app?vid=33c7f28c-8bf0-4a12-a367-dbd734724f6e"},"vehicle_type_id":"4","last_reported":1691161602,"current_range_meters":26000,"station_id":"ce4bhbh2rcd13ifvqepg","pricing_plan_id":"free"},{"bike_id":"3aa05bcc-32e2-43ae-9613-f103777781a2","system_id":"levelo_inurba_marseille","lat":43.28422,"lon":5.34987,"is_reserved":false,"is_disabled":false,"rental_uris":{"android":"levelo://app?vid=3aa05bcc-32e2-43ae-9613-f103777781a2","ios":"levelo://app?vid=3aa05bcc-32e2-43ae-9613-f103777781a2"},"vehicle_type_id":"4","last_reported":1691161602,"current_range_meters":21200,"station_id":"ce4bhbh2rcd13ifvqepg","pricing_plan_id":"free"},{"bike_id":"ccb9b454-bd0b-4b57-8e44-0baa695c0f77","system_id":"levelo_inurba_marseille","lat":43.28422,"lon":5.34987,"is_reserved":false,"is_disabled":false,"rental_uris":{"android":"levelo://app?vid=ccb9b454-bd0b-4b57-8e44-0baa695c0f77","ios":"levelo://app?vid=ccb9b454-bd0b-4b57-8e44-0baa695c0f77"},"vehicle_type_id":"4","last_reported":1691161602,"current_range_meters":25600,"station_id":"ce4bhbh2rcd13ifvqepg","pricing_plan_id":"free"},{"bike_id":"0443f1e1-7f20-4dcf-a9be-39c856e9d8d4","system_id":"levelo_inurba_marseille","lat":43.28425,"lon":5.34976,"is_reserved":false,"is_disabled":false,"rental_uris":{"android":"levelo://app?vid=0443f1e1-7f20-4dcf-a9be-39c856e9d8d4","ios":"levelo://app?vid=0443f1e1-7f20-4dcf-a9be-39c856e9d8d4"},"vehicle_type_id":"4","last_reported":1691161602,"current_range_meters":9200,"station_id":"ce4bhbh2rcd13ifvqepg","pricing_plan_id":"free"},{"bike_id":"a0201101-4167-411b-8383-320c861bb236","system_id":"levelo_inurba_marseille","lat":43.28424,"lon":5.34979,"is_reserved":false,"is_disabled":false,"rental_uris":{"android":"levelo://app?vid=a0201101-4167-411b-8383-320c861bb236","ios":"levelo://app?vid=a0201101-4167-411b-8383-320c861bb236"},"vehicle_type_id":"4","last_reported":1691161602,"current_range_meters":20400,"station_id":"ce4bhbh2rcd13ifvqepg","pricing_plan_id":"free"},{"bike_id":"c137ff5c-5fc0-4f95-87cc-1fad6a0c5768","system_id":"levelo_inurba_marseille","lat":43.2842,"lon":5.34991,"is_reserved":false,"is_disabled":false,"rental_uris":{"android":"levelo://app?vid=c137ff5c-5fc0-4f95-87cc-1fad6a0c5768","ios":"levelo://app?vid=c137ff5c-5fc0-4f95-87cc-1fad6a0c5768"},"vehicle_type_id":"4","last_reported":1691161602,"current_range_meters":28400,"station_id":"ce4bhbh2rcd13ifvqepg","pricing_plan_id":"free"},{"bike_id":"8717a750-1f71-4b56-b91a-9cb3a3aadbab","system_id":"levelo_inurba_marseille","lat":43.28423,"lon":5.3498,"is_reserved":false,"is_disabled":false,"rental_uris":{"android":"levelo://app?vid=8717a750-1f71-4b56-b91a-9cb3a3aadbab","ios":"levelo://app?vid=8717a750-1f71-4b56-b91a-9cb3a3aadbab"},"vehicle_type_id":"4","last_reported":1691161602,"current_range_meters":26800,"station_id":"ce4bhbh2rcd13ifvqepg","pricing_plan_id":"free"},{"bike_id":"ec0c3426-d860-4d67-8df4-ef4b0084a009","system_id":"levelo_inurba_marseille","lat":43.284219,"lon":5.3497,"is_reserved":false,"is_disabled":false,"rental_uris":{"android":"levelo://app?vid=ec0c3426-d860-4d67-8df4-ef4b0084a009","ios":"levelo://app?vid=ec0c3426-d860-4d67-8df4-ef4b0084a009"},"vehicle_type_id":"4","last_reported":1691161602,"current_range_meters":31200,"station_id":"ce4bhbh2rcd13ifvqepg","pricing_plan_id":"free"},{"bike_id":"7f5efc6b-50ae-4988-aee3-be6a272061ff","system_id":"levelo_inurba_marseille","lat":43.28417,"lon":5.34992,"is_reserved":false,"is_disabled":false,"rental_uris":{"android":"levelo://app?vid=7f5efc6b-50ae-4988-aee3-be6a272061ff","ios":"levelo://app?vid=7f5efc6b-50ae-4988-aee3-be6a272061ff"},"vehicle_type_id":"4","last_reported":1691161602,"current_range_meters":12000,"station_id":"ce4bhbh2rcd13ifvqepg","pricing_plan_id":"free"},{"bike_id":"cbfeb36d-9040-477c-9b1c-9150d51f60cb","system_id":"levelo_inurba_marseille","lat":43.284217,"lon":5.349697,"is_reserved":false,"is_disabled":false,"rental_uris":{"android":"levelo://app?vid=cbfeb36d-9040-477c-9b1c-9150d51f60cb","ios":"levelo://app?vid=cbfeb36d-9040-477c-9b1c-9150d51f60cb"},"vehicle_type_id":"4","last_reported":1691161602,"current_range_meters":31200,"station_id":"ce4bhbh2rcd13ifvqepg","pricing_plan_id":"free"},{"bike_id":"91c3ba0f-7e65-452b-b95b-7b55ee8c0e45","system_id":"levelo_inurba_marseille","lat":43.28423,"lon":5.34972,"is_reserved":false,"is_disabled":false,"rental_uris":{"android":"levelo://app?vid=91c3ba0f-7e65-452b-b95b-7b55ee8c0e45","ios":"levelo://app?vid=91c3ba0f-7e65-452b-b95b-7b55ee8c0e45"},"vehicle_type_id":"4","last_reported":1691161602,"current_range_meters":9200,"station_id":"ce4bhbh2rcd13ifvqepg","pricing_plan_id":"free"},{"bike_id":"1439854b-9146-46e8-b80d-9755787de961","system_id":"levelo_inurba_marseille","lat":43.2842,"lon":5.34979,"is_reserved":false,"is_disabled":false,"rental_uris":{"android":"levelo://app?vid=1439854b-9146-46e8-b80d-9755787de961","ios":"levelo://app?vid=1439854b-9146-46e8-b80d-9755787de961"},"vehicle_type_id":"4","last_reported":1691161602,"current_range_meters":22400,"station_id":"ce4bhbh2rcd13ifvqepg","pricing_plan_id":"free"},{"bike_id":"dd2b7e53-cee5-42a6-aae9-c2fc15d5e562","system_id":"levelo_inurba_marseille","lat":43.284219,"lon":5.3497,"is_reserved":false,"is_disabled":false,"rental_uris":{"android":"levelo://app?vid=dd2b7e53-cee5-42a6-aae9-c2fc15d5e562","ios":"levelo://app?vid=dd2b7e53-cee5-42a6-aae9-c2fc15d5e562"},"vehicle_type_id":"4","last_reported":1691161602,"current_range_meters":26400,"station_id":"ce4bhbh2rcd13ifvqepg","pricing_plan_id":"free"},{"bike_id":"f4b48e46-2ef3-4af8-8158-942b0e1cfd9b","system_id":"levelo_inurba_marseille","lat":43.28415,"lon":5.34992,"is_reserved":false,"is_disabled":false,"rental_uris":{"android":"levelo://app?vid=f4b48e46-2ef3-4af8-8158-942b0e1cfd9b","ios":"levelo://app?vid=f4b48e46-2ef3-4af8-8158-942b0e1cfd9b"},"vehicle_type_id":"4","last_reported":1691161602,"current_range_meters":28800,"station_id":"ce4bhbh2rcd13ifvqepg","pricing_plan_id":"free"},{"bike_id":"ef871ca1-d89c-4384-bc00-48ed2583bfe6","system_id":"levelo_inurba_marseille","lat":43.284192,"lon":5.349782,"is_reserved":false,"is_disabled":false,"rental_uris":{"android":"levelo://app?vid=ef871ca1-d89c-4384-bc00-48ed2583bfe6","ios":"levelo://app?vid=ef871ca1-d89c-4384-bc00-48ed2583bfe6"},"vehicle_type_id":"4","last_reported":1691161602,"current_range_meters":31200,"station_id":"ce4bhbh2rcd13ifvqepg","pricing_plan_id":"free"},{"bike_id":"c8ad0af3-0516-4c01-88ff-a8cd3cc7b692","system_id":"levelo_inurba_marseille","lat":43.284219,"lon":5.3497,"is_reserved":false,"is_disabled":false,"rental_uris":{"android":"levelo://app?vid=c8ad0af3-0516-4c01-88ff-a8cd3cc7b692","ios":"levelo://app?vid=c8ad0af3-0516-4c01-88ff-a8cd3cc7b692"},"vehicle_type_id":"4","last_reported":1691161602,"current_range_meters":17600,"station_id":"ce4bhbh2rcd13ifvqepg","pricing_plan_id":"free"},{"bike_id":"237dc8b0-60e8-4978-bff0-f418fae22bf2","system_id":"levelo_inurba_marseille","lat":43.284211,"lon":5.349712,"is_reserved":false,"is_disabled":false,"rental_uris":{"android":"levelo://app?vid=237dc8b0-60e8-4978-bff0-f418fae22bf2","ios":"levelo://app?vid=237dc8b0-60e8-4978-bff0-f418fae22bf2"},"vehicle_type_id":"4","last_reported":1691161602,"current_range_meters":9600,"station_id":"ce4bhbh2rcd13ifvqepg","pricing_plan_id":"free"},{"bike_id":"9938a22f-106c-4f57-b942-e6b65ab2be54","system_id":"levelo_inurba_marseille","lat":43.28418,"lon":5.34979,"is_reserved":false,"is_disabled":false,"rental_uris":{"android":"levelo://app?vid=9938a22f-106c-4f57-b942-e6b65ab2be54","ios":"levelo://app?vid=9938a22f-106c-4f57-b942-e6b65ab2be54"},"vehicle_type_id":"4","last_reported":1691161602,"current_range_meters":30000,"station_id":"ce4bhbh2rcd13ifvqepg","pricing_plan_id":"free"},{"bike_id":"b8404f9d-96b8-47a8-afdc-c30937cf0727","system_id":"levelo_inurba_marseille","lat":43.28418,"lon":5.34978,"is_reserved":false,"is_disabled":false,"rental_uris":{"android":"levelo://app?vid=b8404f9d-96b8-47a8-afdc-c30937cf0727","ios":"levelo://app?vid=b8404f9d-96b8-47a8-afdc-c30937cf0727"},"vehicle_type_id":"4","last_reported":1691161602,"current_range_meters":12000,"station_id":"ce4bhbh2rcd13ifvqepg","pricing_plan_id":"free"},{"bike_id":"cf105604-e441-4abb-b1a8-17b3200bed95","system_id":"levelo_inurba_marseille","lat":43.284177,"lon":5.349787,"is_reserved":false,"is_disabled":false,"rental_uris":{"android":"levelo://app?vid=cf105604-e441-4abb-b1a8-17b3200bed95","ios":"levelo://app?vid=cf105604-e441-4abb-b1a8-17b3200bed95"},"vehicle_type_id":"4","last_reported":1691161602,"current_range_meters":31200,"station_id":"ce4bhbh2rcd13ifvqepg","pricing_plan_id":"free"},{"bike_id":"01a0bcb6-eb2e-4c15-b7fc-739ca9687f6a","system_id":"levelo_inurba_marseille","lat":43.28412,"lon":5.34996,"is_reserved":false,"is_disabled":false,"rental_uris":{"android":"levelo://app?vid=01a0bcb6-eb2e-4c15-b7fc-739ca9687f6a","ios":"levelo://app?vid=01a0bcb6-eb2e-4c15-b7fc-739ca9687f6a"},"vehicle_type_id":"4","last_reported":1691161602,"current_range_meters":20400,"station_id":"ce4bhbh2rcd13ifvqepg","pricing_plan_id":"free"},{"bike_id":"14c873b6-291d-4b82-898b-914c2b03916c","system_id":"levelo_inurba_marseille","lat":43.28417,"lon":5.3498,"is_reserved":false,"is_disabled":false,"rental_uris":{"android":"levelo://app?vid=14c873b6-291d-4b82-898b-914c2b03916c","ios":"levelo://app?vid=14c873b6-291d-4b82-898b-914c2b03916c"},"vehicle_type_id":"4","last_reported":1691161602,"current_range_meters":8000,"station_id":"ce4bhbh2rcd13ifvqepg","pricing_plan_id":"free"},{"bike_id":"3c636f52-d93a-406f-9228-8e6215e578cb","system_id":"levelo_inurba_marseille","lat":43.284189,"lon":5.349719,"is_reserved":false,"is_disabled":false,"rental_uris":{"android":"levelo://app?vid=3c636f52-d93a-406f-9228-8e6215e578cb","ios":"levelo://app?vid=3c636f52-d93a-406f-9228-8e6215e578cb"},"vehicle_type_id":"4","last_reported":1691161602,"current_range_meters":24800,"station_id":"ce4bhbh2rcd13ifvqepg","pricing_plan_id":"free"},{"bike_id":"1618bc7e-089a-4f2b-b7ef-6a791ca377e1","system_id":"levelo_inurba_marseille","lat":43.28412,"lon":5.34993,"is_reserved":false,"is_disabled":false,"rental_uris":{"android":"levelo://app?vid=1618bc7e-089a-4f2b-b7ef-6a791ca377e1","ios":"levelo://app?vid=1618bc7e-089a-4f2b-b7ef-6a791ca377e1"},"vehicle_type_id":"4","last_reported":1691161602,"current_range_meters":11600,"station_id":"ce4bhbh2rcd13ifvqepg","pricing_plan_id":"free"},{"bike_id":"ad2e5448-3aef-4131-af85-6a76cf505b0f","system_id":"levelo_inurba_marseille","lat":43.284219,"lon":5.3497,"is_reserved":false,"is_disabled":false,"rental_uris":{"android":"levelo://app?vid=ad2e5448-3aef-4131-af85-6a76cf505b0f","ios":"levelo://app?vid=ad2e5448-3aef-4131-af85-6a76cf505b0f"},"vehicle_type_id":"4","last_reported":1691161602,"current_range_meters":23600,"station_id":"ce4bhbh2rcd13ifvqepg","pricing_plan_id":"free"},{"bike_id":"f7f5768e-b80f-4da0-8864-86696a8877fb","system_id":"levelo_inurba_marseille","lat":43.32456,"lon":5.40727,"is_reserved":false,"is_disabled":false,"rental_uris":{"android":"levelo://app?vid=f7f5768e-b80f-4da0-8864-86696a8877fb","ios":"levelo://app?vid=f7f5768e-b80f-4da0-8864-86696a8877fb"},"vehicle_type_id":"4","last_reported":1691161602,"current_range_meters":0,"station_id":"","pricing_plan_id":"free"},{"bike_id":"e9508747-e0a4-45bc-a17e-1b6399e82ed6","system_id":"levelo_inurba_marseille","lat":43.28288,"lon":5.35068,"is_reserved":false,"is_disabled":false,"rental_uris":{"android":"levelo://app?vid=e9508747-e0a4-45bc-a17e-1b6399e82ed6","ios":"levelo://app?vid=e9508747-e0a4-45bc-a17e-1b6399e82ed6"},"vehicle_type_id":"4","last_reported":1691161602,"current_range_meters":17600,"station_id":"ce4bhbp2rcd13ifvqerg","pricing_plan_id":"free"},{"bike_id":"1f29dcfd-dc2a-4855-ae18-63fad735b264","system_id":"levelo_inurba_marseille","lat":43.282841,"lon":5.350708,"is_reserved":false,"is_disabled":false,"rental_uris":{"android":"levelo://app?vid=1f29dcfd-dc2a-4855-ae18-63fad735b264","ios":"levelo://app?vid=1f29dcfd-dc2a-4855-ae18-63fad735b264"},"vehicle_type_id":"4","last_reported":1691161602,"current_range_meters":28400,"station_id":"","pricing_plan_id":"free"},{"bike_id":"49293b3f-04ad-4812-a0fe-c5c770b12b16","system_id":"levelo_inurba_marseille","lat":43.28284,"lon":5.35066,"is_reserved":false,"is_disabled":false,"rental_uris":{"android":"levelo://app?vid=49293b3f-04ad-4812-a0fe-c5c770b12b16","ios":"levelo://app?vid=49293b3f-04ad-4812-a0fe-c5c770b12b16"},"vehicle_type_id":"4","last_reported":1691161602,"current_range_meters":15200,"station_id":"ce4bhbp2rcd13ifvqerg","pricing_plan_id":"free"},{"bike_id":"e797493b-001f-46d2-8a76-3986df9651a8","system_id":"levelo_inurba_marseille","lat":43.28276,"lon":5.35083,"is_reserved":false,"is_disabled":false,"rental_uris":{"android":"levelo://app?vid=e797493b-001f-46d2-8a76-3986df9651a8","ios":"levelo://app?vid=e797493b-001f-46d2-8a76-3986df9651a8"},"vehicle_type_id":"4","last_reported":1691161602,"current_range_meters":3600,"station_id":"ce4bhbp2rcd13ifvqerg","pricing_plan_id":"free"},{"bike_id":"3aec6651-83ba-4100-bdb2-734b7892c068","system_id":"levelo_inurba_marseille","lat":43.28282,"lon":5.35062,"is_reserved":false,"is_disabled":false,"rental_uris":{"android":"levelo://app?vid=3aec6651-83ba-4100-bdb2-734b7892c068","ios":"levelo://app?vid=3aec6651-83ba-4100-bdb2-734b7892c068"},"vehicle_type_id":"4","last_reported":1691161602,"current_range_meters":8000,"station_id":"ce4bhbp2rcd13ifvqerg","pricing_plan_id":"free"},{"bike_id":"e291fc32-24e0-4551-baa8-9b95ed0a2173","system_id":"levelo_inurba_marseille","lat":43.28278,"lon":5.35074,"is_reserved":false,"is_disabled":false,"rental_uris":{"android":"levelo://app?vid=e291fc32-24e0-4551-baa8-9b95ed0a2173","ios":"levelo://app?vid=e291fc32-24e0-4551-baa8-9b95ed0a2173"},"vehicle_type_id":"4","last_reported":1691161602,"current_range_meters":1600,"station_id":"ce4bhbp2rcd13ifvqerg","pricing_plan_id":"free"},{"bike_id":"d78e6840-9939-4d09-ac51-7771a337aad1","system_id":"levelo_inurba_marseille","lat":43.28276,"lon":5.35078,"is_reserved":false,"is_disabled":false,"rental_uris":{"android":"levelo://app?vid=d78e6840-9939-4d09-ac51-7771a337aad1","ios":"levelo://app?vid=d78e6840-9939-4d09-ac51-7771a337aad1"},