{"last_updated":1730988524,"ttl":60,"version":"2.2","data":{"bikes":[{"bike_id":"18b52b52-58a9-4e3f-a683-6068b12d8fc8","system_id":"levelo_inurba_marseille","lat":43.28863,"lon":5.35875,"is_reserved":false,"is_disabled":false,"rental_uris":{"android":"levelo://app?vid=18b52b52-58a9-4e3f-a683-6068b12d8fc8","ios":"levelo://app?vid=18b52b52-58a9-4e3f-a683-6068b12d8fc8"},"vehicle_type_id":"4","last_reported":1730988525,"current_range_meters":19200,"station_id":"ce4bhb12rcd13ifvqem0","pricing_plan_id":"cebpf4jnsgd1na2vs0mg"},{"bike_id":"02a8dd32-39a9-4ef4-a051-9faa0f6afeaa","system_id":"levelo_inurba_marseille","lat":43.28703,"lon":5.37909,"is_reserved":false,"is_disabled":false,"rental_uris":{"android":"levelo://app?vid=02a8dd32-39a9-4ef4-a051-9faa0f6afeaa","ios":"levelo://app?vid=02a8dd32-39a9-4ef4-a051-9faa0f6afeaa"},"vehicle_type_id":"4","last_reported":1730988525,"current_range_meters":39200,"station_id":"ce4bh9p2rcd13ifvqec0","pricing_plan_id":"cebpf4jnsgd1na2vs0mg"},{"bike_id":"e8bcca23-42a0-4423-8a65-a75ab12e9cb1","system_id":"levelo_inurba_marseille","lat":43.2958,"lon":5.36742,"is_reserved":false,"is_disabled":false,"rental_uris":{"android":"levelo://app?vid=e8bcca23-42a0-4423-8a65-a75ab12e9cb1","ios":"levelo://app?vid=e8bcca23-42a0-4423-8a65-a75ab12e9cb1"},"vehicle_type_id":"4","last_reported":1730988525,"current_range_meters":35200,"station_id":"ce4bgph2rcd13ifvqc2g","pricing_plan_id":"cebpf4jnsgd1na2vs0mg"},{"bike_id":"90f1ca98-932a-42e5-82fe-80393830185b","system_id":"levelo_inurba_marseille","lat":43.34159,"lon":5.40899,"is_reserved":false,"is_disabled":false,"rental_uris":{"android":"levelo://app?vid=90f1ca98-932a-42e5-82fe-80393830185b","ios":"levelo://app?vid=90f1ca98-932a-42e5-82fe-80393830185b"},"vehicle_type_id":"4","last_reported":1730988525,"current_range_meters":38800,"station_id":"ce4bhqh2rcd13ifvqhlg","pricing_plan_id":"cebpf4jnsgd1na2vs0mg"},{"bike_id":"50e99082-7d21-4908-a76c-85dc17e9cce1","system_id":"levelo_inurba_marseille","lat":43.29419,"lon":5.3861,"is_reserved":false,"is_disabled":false,"rental_uris":{"android":"levelo://app?vid=50e99082-7d21-4908-a76c-85dc17e9cce1","ios":"levelo://app?vid=50e99082-7d21-4908-a76c-85dc17e9cce1"},"vehicle_type_id":"4","last_reported":1730988525,"current_range_meters":38800,"station_id":"ce4bh2h2rcd13ifvqdh0","pricing_plan_id":"cebpf4jnsgd1na2vs0mg"},{"bike_id":"0e4ef1d9-0437-4d4e-b57d-4c75c4376a05","system_id":"levelo_inurba_marseille","lat":43.33722,"lon":5.39192,"is_reserved":false,"is_disabled":false,"rental_uris":{"android":"levelo://app?vid=0e4ef1d9-0437-4d4e-b57d-4c75c4376a05","ios":"levelo://app?vid=0e4ef1d9-0437-4d4e-b57d-4c75c4376a05"},"vehicle_type_id":"4","last_reported":1730988525,"current_range_meters":36000,"station_id":"ce4bhr92rcd13ifvqhsg","pricing_plan_id":"cebpf4jnsgd1na2vs0mg"},{"bike_id":"c5e4941d-8f93-4252-8de0-46bf2fa28a18","system_id":"levelo_inurba_marseille","lat":43.28345,"lon":5.38112,"is_reserved":false,"is_disabled":false,"rental_uris":{"android":"levelo://app?vid=c5e4941d-8f93-4252-8de0-46bf2fa28a18","ios":"levelo://app?vid=c5e4941d-8f93-4252-8de0-46bf2fa28a18"},"vehicle_type_id":"4","last_reported":1730988525,"current_range_meters":6000,"station_id":"ce4bh412rcd13ifvqdr0","pricing_plan_id":"cebpf4jnsgd1na2vs0mg"},{"bike_id":"190118e9-39df-4561-a10d-0e0c117137f7","system_id":"levelo_inurba_marseille","lat":43.28446,"lon":5.39202,"is_reserved":false,"is_disabled":false,"rental_uris":{"android":"levelo://app?vid=190118e9-39df-4561-a10d-0e0c117137f7","ios":"levelo://app?vid=190118e9-39df-4561-a10d-0e0c117137f7"},"vehicle_type_id":"4","last_reported":1730988525,"current_range_meters":22400,"station_id":"ce4bhoh2rcd13ifvqh5g","pricing_plan_id":"cebpf4jnsgd1na2vs0mg"},{"bike_id":"f9bb9c79-6f73-4109-ae8c-df53e2fac037","system_id":"levelo_inurba_marseille","lat":43.30142,"lon":5.39883,"is_reserved":false,"is_disabled":false,"rental_uris":{"android":"levelo://app?vid=f9bb9c79-6f73-4109-ae8c-df53e2fac037","ios":"levelo://app?vid=f9bb9c79-6f73-4109-ae8c-df53e2fac037"},"vehicle_type_id":"4","last_reported":1730988525,"current_range_meters":17200,"station_id":"ce4bh0h2rcd13ifvqd40","pricing_plan_id":"cebpf4jnsgd1na2vs0mg"},{"bike_id":"1df4d711-4ca5-4e4f-8f9c-e7732e3d0984","system_id":"levelo_inurba_marseille","lat":43.29795,"lon":5.37122,"is_reserved":false,"is_disabled":false,"rental_uris":{"android":"levelo://app?vid=1df4d711-4ca5-4e4f-8f9c-e7732e3d0984","ios":"levelo://app?vid=1df4d711-4ca5-4e4f-8f9c-e7732e3d0984"},"vehicle_type_id":"4","last_reported":1730988525,"current_range_meters":28800,"station_id":"ce4bgop2rcd13ifvqc1g","pricing_plan_id":"cebpf4jnsgd1na2vs0mg"},{"bike_id":"eda9dbb0-555c-4289-a1f7-0eaf0991d723","system_id":"levelo_inurba_marseille","lat":43.30535,"lon":5.36702,"is_reserved":false,"is_disabled":false,"rental_uris":{"android":"levelo://app?vid=eda9dbb0-555c-4289-a1f7-0eaf0991d723","ios":"levelo://app?vid=eda9dbb0-555c-4289-a1f7-0eaf0991d723"},"vehicle_type_id":"4","last_reported":1730988525,"current_range_meters":30000,"station_id":"ce4bgrp2rcd13ifvqc9g","pricing_plan_id":"cebpf4jnsgd1na2vs0mg"},{"bike_id":"b2116663-67b9-426e-a75d-ed0e97e6dcbc","system_id":"levelo_inurba_marseille","lat":43.29622,"lon":5.37182,"is_reserved":false,"is_disabled":false,"rental_uris":{"android":"levelo://app?vid=b2116663-67b9-426e-a75d-ed0e97e6dcbc","ios":"levelo://app?vid=b2116663-67b9-426e-a75d-ed0e97e6dcbc"},"vehicle_type_id":"4","last_reported":1730988525,"current_range_meters":38800,"station_id":"ce4bgnh2rcd13ifvqc0g","pricing_plan_id":"cebpf4jnsgd1na2vs0mg"},{"bike_id":"37c549bb-893a-4dcf-b0ce-905029438d78","system_id":"levelo_inurba_marseille","lat":43.28869,"lon":5.35873,"is_reserved":false,"is_disabled":false,"rental_uris":{"android":"levelo://app?vid=37c549bb-893a-4dcf-b0ce-905029438d78","ios":"levelo://app?vid=37c549bb-893a-4dcf-b0ce-905029438d78"},"vehicle_type_id":"4","last_reported":1730988525,"current_range_meters":21600,"station_id":"ce4bhb12rcd13ifvqem0","pricing_plan_id":"cebpf4jnsgd1na2vs0mg"},{"bike_id":"1510aaa8-e4b4-4ded-be09-698b6b03d511","system_id":"levelo_inurba_marseille","lat":43.2315,"lon":5.43714,"is_reserved":false,"is_disabled":false,"rental_uris":{"android":"levelo://app?vid=1510aaa8-e4b4-4ded-be09-698b6b03d511","ios":"levelo://app?vid=1510aaa8-e4b4-4ded-be09-698b6b03d511"},"vehicle_type_id":"4","last_reported":1730988525,"current_range_meters":8800,"station_id":"ce4bhmp2rcd13ifvqgog","pricing_plan_id":"cebpf4jnsgd1na2vs0mg"},{"bike_id":"1865eed8-2d02-4860-87ac-89bd8760cc93","system_id":"levelo_inurba_marseille","lat":43.26678,"lon":5.3826,"is_reserved":false,"is_disabled":false,"rental_uris":{"android":"levelo://app?vid=1865eed8-2d02-4860-87ac-89bd8760cc93","ios":"levelo://app?vid=1865eed8-2d02-4860-87ac-89bd8760cc93"},"vehicle_type_id":"4","last_reported":1730988525,"current_range_meters":28800,"station_id":"ce4bhg92rcd13ifvqf90","pricing_plan_id":"cebpf4jnsgd1na2vs0mg"},{"bike_id":"434fe81b-9da2-49ed-aaee-dc29ee107415","system_id":"levelo_inurba_marseille","lat":43.23965,"lon":5.36643,"is_reserved":false,"is_disabled":false,"rental_uris":{"android":"levelo://app?vid=434fe81b-9da2-49ed-aaee-dc29ee107415","ios":"levelo://app?vid=434fe81b-9da2-49ed-aaee-dc29ee107415"},"vehicle_type_id":"4","last_reported":1730988525,"current_range_meters":38800,"station_id":"ce4bhi12rcd13ifvqfp0","pricing_plan_id":"cebpf4jnsgd1na2vs0mg"},{"bike_id":"ea7c2da9-cac3-4010-900e-2483d22e3c65","system_id":"levelo_inurba_marseille","lat":43.29975,"lon":5.38489,"is_reserved":false,"is_disabled":false,"rental_uris":{"android":"levelo://app?vid=ea7c2da9-cac3-4010-900e-2483d22e3c65","ios":"levelo://app?vid=ea7c2da9-cac3-4010-900e-2483d22e3c65"},"vehicle_type_id":"4","last_reported":1730988525,"current_range_meters":37600,"station_id":"ce4bgj92rcd13ifvqbd0","pricing_plan_id":"cebpf4jnsgd1na2vs0mg"},{"bike_id":"52025ec2-dc31-45fe-aa08-67835bc3a87a","system_id":"levelo_inurba_marseille","lat":43.34142,"lon":5.40902,"is_reserved":false,"is_disabled":false,"rental_uris":{"android":"levelo://app?vid=52025ec2-dc31-45fe-aa08-67835bc3a87a","ios":"levelo://app?vid=52025ec2-dc31-45fe-aa08-67835bc3a87a"},"vehicle_type_id":"4","last_reported":1730988525,"current_range_meters":38800,"station_id":"ce4bhqh2rcd13ifvqhlg","pricing_plan_id":"cebpf4jnsgd1na2vs0mg"},{"bike_id":"bcf5dad1-721a-4f4e-82b2-15a9cc44926f","system_id":"levelo_inurba_marseille","lat":43.33776,"lon":5.37438,"is_reserved":false,"is_disabled":false,"rental_uris":{"android":"levelo://app?vid=bcf5dad1-721a-4f4e-82b2-15a9cc44926f","ios":"levelo://app?vid=bcf5dad1-721a-4f4e-82b2-15a9cc44926f"},"vehicle_type_id":"4","last_reported":1730988525,"current_range_meters":35600,"station_id":"","pricing_plan_id":"cebpf4jnsgd1na2vs0mg"},{"bike_id":"8fcca26e-9b9e-465f-bbfd-abe811e5c9d0","system_id":"levelo_inurba_marseille","lat":43.28415,"lon":5.37519,"is_reserved":false,"is_disabled":false,"rental_uris":{"android":"levelo://app?vid=8fcca26e-9b9e-465f-bbfd-abe811e5c9d0","ios":"levelo://app?vid=8fcca26e-9b9e-465f-bbfd-abe811e5c9d0"},"vehicle_type_id":"4","last_reported":1730988525,"current_range_meters":8000,"station_id":"ce4bh412rcd13ifvqds0","pricing_plan_id":"cebpf4jnsgd1na2vs0mg"},{"bike_id":"a13f35d7-f4ed-4dbe-a408-136689149f8e","system_id":"levelo_inurba_marseille","lat":43.22931,"lon":5.35379,"is_reserved":false,"is_disabled":false,"rental_uris":{"android":"levelo://app?vid=a13f35d7-f4ed-4dbe-a408-136689149f8e","ios":"levelo://app?vid=a13f35d7-f4ed-4dbe-a408-136689149f8e"},"vehicle_type_id":"4","last_reported":1730988525,"current_range_meters":35600,"station_id":"cpo3532slgdg3j2ikp40","pricing_plan_id":"cebpf4jnsgd1na2vs0mg"},{"bike_id":"81a73e1e-df8e-4923-a10d-61f139a542d3","system_id":"levelo_inurba_marseille","lat":43.28038,"lon":5.36943,"is_reserved":false,"is_disabled":false,"rental_uris":{"android":"levelo://app?vid=81a73e1e-df8e-4923-a10d-61f139a542d3","ios":"levelo://app?vid=81a73e1e-df8e-4923-a10d-61f139a542d3"},"vehicle_type_id":"4","last_reported":1730988525,"current_range_meters":14000,"station_id":"ce4bha12rcd13ifvqef0","pricing_plan_id":"cebpf4jnsgd1na2vs0mg"},{"bike_id":"faa8139c-5345-4522-b0b3-6f81304c438a","system_id":"levelo_inurba_marseille","lat":43.2836,"lon":5.38628,"is_reserved":false,"is_disabled":false,"rental_uris":{"android":"levelo://app?vid=faa8139c-5345-4522-b0b3-6f81304c438a","ios":"levelo://app?vid=faa8139c-5345-4522-b0b3-6f81304c438a"},"vehicle_type_id":"4","last_reported":1730988525,"current_range_meters":11200,"station_id":"ce4bh492rcd13ifvqdvg","pricing_plan_id":"cebpf4jnsgd1na2vs0mg"},{"bike_id":"8b970787-2538-498a-9e67-8d8c06e4193b","system_id":"levelo_inurba_marseille","lat":43.305447,"lon":5.365616,"is_reserved":false,"is_disabled":false,"rental_uris":{"android":"levelo://app?vid=8b970787-2538-498a-9e67-8d8c06e4193b","ios":"levelo://app?vid=8b970787-2538-498a-9e67-8d8c06e4193b"},"vehicle_type_id":"4","last_reported":1730988525,"current_range_meters":26000,"station_id":"ce4bguh2rcd13ifvqcj0","pricing_plan_id":"cebpf4jnsgd1na2vs0mg"},{"bike_id":"ed315117-2401-4233-8861-cdae403171ca","system_id":"levelo_inurba_marseille","lat":43.28722,"lon":5.3795,"is_reserved":false,"is_disabled":false,"rental_uris":{"android":"levelo://app?vid=ed315117-2401-4233-8861-cdae403171ca","ios":"levelo://app?vid=ed315117-2401-4233-8861-cdae403171ca"},"vehicle_type_id":"4","last_reported":1730988525,"current_range_meters":21600,"station_id":"ce4bh9p2rcd13ifvqec0","pricing_plan_id":"cebpf4jnsgd1na2vs0mg"},{"bike_id":"dc7a0508-3f52-407d-9301-4e33bd81ba66","system_id":"levelo_inurba_marseille","lat":43.27902,"lon":5.38017,"is_reserved":false,"is_disabled":false,"rental_uris":{"android":"levelo://app?vid=dc7a0508-3f52-407d-9301-4e33bd81ba66","ios":"levelo://app?vid=dc7a0508-3f52-407d-9301-4e33bd81ba66"},"vehicle_type_id":"4","last_reported":1730988525,"current_range_meters":38800,"station_id":"ce4bhf92rcd13ifvqf50","pricing_plan_id":"cebpf4jnsgd1na2vs0mg"},{"bike_id":"dbe7fed8-8293-4341-b586-de12b655672c","system_id":"levelo_inurba_marseille","lat":43.32538,"lon":5.41439,"is_reserved":false,"is_disabled":false,"rental_uris":{"android":"levelo://app?vid=dbe7fed8-8293-4341-b586-de12b655672c","ios":"levelo://app?vid=dbe7fed8-8293-4341-b586-de12b655672c"},"vehicle_type_id":"4","last_reported":1730988525,"current_range_meters":17600,"station_id":"ce4bhq12rcd13ifvqhhg","pricing_plan_id":"cebpf4jnsgd1na2vs0mg"},{"bike_id":"3cb350c5-e993-42d8-accd-bb04604647c6","system_id":"levelo_inurba_marseille","lat":43.2997,"lon":5.37182,"is_reserved":false,"is_disabled":false,"rental_uris":{"android":"levelo://app?vid=3cb350c5-e993-42d8-accd-bb04604647c6","ios":"levelo://app?vid=3cb350c5-e993-42d8-accd-bb04604647c6"},"vehicle_type_id":"4","last_reported":1730988525,"current_range_meters":39200,"station_id":"ce4bgr92rcd13ifvqc7g","pricing_plan_id":"cebpf4jnsgd1na2vs0mg"},{"bike_id":"8a401a8a-30f9-4643-ad63-74116d1b600f","system_id":"levelo_inurba_marseille","lat":43.32476,"lon":5.36591,"is_reserved":false,"is_disabled":false,"rental_uris":{"android":"levelo://app?vid=8a401a8a-30f9-4643-ad63-74116d1b600f","ios":"levelo://app?vid=8a401a8a-30f9-4643-ad63-74116d1b600f"},"vehicle_type_id":"4","last_reported":1730988525,"current_range_meters":36400,"station_id":"ce4bhs12rcd13ifvqhvg","pricing_plan_id":"cebpf4jnsgd1na2vs0mg"},{"bike_id":"5acc7094-b957-4d4b-9393-0abb8f12c841","system_id":"levelo_inurba_marseille","lat":43.29888,"lon":5.38912,"is_reserved":false,"is_disabled":false,"rental_uris":{"android":"levelo://app?vid=5acc7094-b957-4d4b-9393-0abb8f12c841","ios":"levelo://app?vid=5acc7094-b957-4d4b-9393-0abb8f12c841"},"vehicle_type_id":"4","last_reported":1730988525,"current_range_meters":5600,"station_id":"ce4bh392rcd13ifvqdl0","pricing_plan_id":"cebpf4jnsgd1na2vs0mg"},{"bike_id":"60bb8ba5-396a-42c6-a39d-ec6237392067","system_id":"levelo_inurba_marseille","lat":43.22928,"lon":5.35377,"is_reserved":false,"is_disabled":false,"rental_uris":{"android":"levelo://app?vid=60bb8ba5-396a-42c6-a39d-ec6237392067","ios":"levelo://app?vid=60bb8ba5-396a-42c6-a39d-ec6237392067"},"vehicle_type_id":"4","last_reported":1730988525,"current_range_meters":36000,"station_id":"cpo3532slgdg3j2ikp40","pricing_plan_id":"cebpf4jnsgd1na2vs0mg"},{"bike_id":"8606e64c-a2ae-4e8d-a9a7-71a6d0749912","system_id":"levelo_inurba_marseille","lat":43.27961,"lon":5.4105,"is_reserved":false,"is_disabled":false,"rental_uris":{"android":"levelo://app?vid=8606e64c-a2ae-4e8d-a9a7-71a6d0749912","ios":"levelo://app?vid=8606e64c-a2ae-4e8d-a9a7-71a6d0749912"},"vehicle_type_id":"4","last_reported":1730988525,"current_range_meters":12400,"station_id":"ce4bhnp2rcd13ifvqh0g","pricing_plan_id":"cebpf4jnsgd1na2vs0mg"},{"bike_id":"f5d4c6ea-877f-4565-b083-45be9ec21b21","system_id":"levelo_inurba_marseille","lat":43.313117,"lon":5.368396,"is_reserved":false,"is_disabled":false,"rental_uris":{"android":"levelo://app?vid=f5d4c6ea-877f-4565-b083-45be9ec21b21","ios":"levelo://app?vid=f5d4c6ea-877f-4565-b083-45be9ec21b21"},"vehicle_type_id":"4","last_reported":1730988525,"current_range_meters":12800,"station_id":"","pricing_plan_id":"cebpf4jnsgd1na2vs0mg"},{"bike_id":"794c21bb-2dc9-433c-bf5d-8d6b934201ad","system_id":"levelo_inurba_marseille","lat":43.2408,"lon":5.37754,"is_reserved":false,"is_disabled":false,"rental_uris":{"android":"levelo://app?vid=794c21bb-2dc9-433c-bf5d-8d6b934201ad","ios":"levelo://app?vid=794c21bb-2dc9-433c-bf5d-8d6b934201ad"},"vehicle_type_id":"4","last_reported":1730988525,"current_range_meters":24800,"station_id":"ce4bhnp2rcd13ifvqgvg","pricing_plan_id":"cebpf4jnsgd1na2vs0mg"},{"bike_id":"3232343b-b00a-47b1-9de8-95cc6580cbfa","system_id":"levelo_inurba_marseille","lat":43.2293,"lon":5.35376,"is_reserved":false,"is_disabled":false,"rental_uris":{"android":"levelo://app?vid=3232343b-b00a-47b1-9de8-95cc6580cbfa","ios":"levelo://app?vid=3232343b-b00a-47b1-9de8-95cc6580cbfa"},"vehicle_type_id":"4","last_reported":1730988525,"current_range_meters":30800,"station_id":"cpo3532slgdg3j2ikp40","pricing_plan_id":"cebpf4jnsgd1na2vs0mg"},{"bike_id":"adbc8c8b-9f43-4e12-8a65-7f3a249b9e70","system_id":"levelo_inurba_marseille","lat":43.251129,"lon":5.403222,"is_reserved":false,"is_disabled":false,"rental_uris":{"android":"levelo://app?vid=adbc8c8b-9f43-4e12-8a65-7f3a249b9e70","ios":"levelo://app?vid=adbc8c8b-9f43-4e12-8a65-7f3a249b9e70"},"vehicle_type_id":"4","last_reported":1730988525,"current_range_meters":24800,"station_id":"ce4bhlh2rcd13ifvqgig","pricing_plan_id":"cebpf4jnsgd1na2vs0mg"},{"bike_id":"44f25fbd-5119-4440-bd4c-c4253caacb2c","system_id":"levelo_inurba_marseille","lat":43.3014,"lon":5.381,"is_reserved":false,"is_disabled":false,"rental_uris":{"android":"levelo://app?vid=44f25fbd-5119-4440-bd4c-c4253caacb2c","ios":"levelo://app?vid=44f25fbd-5119-4440-bd4c-c4253caacb2c"},"vehicle_type_id":"4","last_reported":1730988525,"current_range_meters":16800,"station_id":"ce4bgjp2rcd13ifvqbh0","pricing_plan_id":"cebpf4jnsgd1na2vs0mg"},{"bike_id":"90b201dc-f5b9-4d3d-a624-d8c47fbf7abb","system_id":"levelo_inurba_marseille","lat":43.28931,"lon":5.3963,"is_reserved":false,"is_disabled":false,"rental_uris":{"android":"levelo://app?vid=90b201dc-f5b9-4d3d-a624-d8c47fbf7abb","ios":"levelo://app?vid=90b201dc-f5b9-4d3d-a624-d8c47fbf7abb"},"vehicle_type_id":"4","last_reported":1730988525,"current_range_meters":33600,"station_id":"ce4bh3h2rcd13ifvqdn0","pricing_plan_id":"cebpf4jnsgd1na2vs0mg"},{"bike_id":"c7f29a43-391f-435b-8b39-327707700c2a","system_id":"levelo_inurba_marseille","lat":43.29042,"lon":5.39947,"is_reserved":false,"is_disabled":false,"rental_uris":{"android":"levelo://app?vid=c7f29a43-391f-435b-8b39-327707700c2a","ios":"levelo://app?vid=c7f29a43-391f-435b-8b39-327707700c2a"},"vehicle_type_id":"4","last_reported":1730988525,"current_range_meters":25600,"station_id":"ce4bh392rcd13ifvqdm0","pricing_plan_id":"cebpf4jnsgd1na2vs0mg"},{"bike_id":"7bb61d2b-5282-43a2-83b9-044d9359fb57","system_id":"levelo_inurba_marseille","lat":43.25929,"lon":5.40912,"is_reserved":false,"is_disabled":false,"rental_uris":{"android":"levelo://app?vid=7bb61d2b-5282-43a2-83b9-044d9359fb57","ios":"levelo://app?vid=7bb61d2b-5282-43a2-83b9-044d9359fb57"},"vehicle_type_id":"4","last_reported":1730988525,"current_range_meters":34800,"station_id":"ce4bhm92rcd13ifvqglg","pricing_plan_id":"cebpf4jnsgd1na2vs0mg"},{"bike_id":"2490b013-4d73-44e8-b4ed-21dfd716aa8d","system_id":"levelo_inurba_marseille","lat":43.29619,"lon":5.37734,"is_reserved":false,"is_disabled":false,"rental_uris":{"android":"levelo://app?vid=2490b013-4d73-44e8-b4ed-21dfd716aa8d","ios":"levelo://app?vid=2490b013-4d73-44e8-b4ed-21dfd716aa8d"},"vehicle_type_id":"4","last_reported":1730988525,"current_range_meters":38800,"station_id":"ce4bgi92rcd13ifvqb90","pricing_plan_id":"cebpf4jnsgd1na2vs0mg"},{"bike_id":"125e715b-108c-474b-8898-c4cf978c6b13","system_id":"levelo_inurba_marseille","lat":43.24666,"lon":5.38175,"is_reserved":false,"is_disabled":false,"rental_uris":{"android":"levelo://app?vid=125e715b-108c-474b-8898-c4cf978c6b13","ios":"levelo://app?vid=125e715b-108c-474b-8898-c4cf978c6b13"},"vehicle_type_id":"4","last_reported":1730988525,"current_range_meters":17200,"station_id":"ce4bhih2rcd13ifvqfr0","pricing_plan_id":"cebpf4jnsgd1na2vs0mg"},{"bike_id":"11c583bf-96d3-444d-b5fa-aeb9b24c7a37","system_id":"levelo_inurba_marseille","lat":43.337444,"lon":5.374475,"is_reserved":false,"is_disabled":false,"rental_uris":{"android":"levelo://app?vid=11c583bf-96d3-444d-b5fa-aeb9b24c7a37","ios":"levelo://app?vid=11c583bf-96d3-444d-b5fa-aeb9b24c7a37"},"vehicle_type_id":"4","last_reported":1730988525,"current_range_meters":37600,"station_id":"ce4bh092rcd13ifvqd20","pricing_plan_id":"cebpf4jnsgd1na2vs0mg"},{"bike_id":"70d67e8b-cf90-41d7-a359-ddc74e8f5edf","system_id":"levelo_inurba_marseille","lat":43.25933,"lon":5.40908,"is_reserved":false,"is_disabled":false,"rental_uris":{"android":"levelo://app?vid=70d67e8b-cf90-41d7-a359-ddc74e8f5edf","ios":"levelo://app?vid=70d67e8b-cf90-41d7-a359-ddc74e8f5edf"},"vehicle_type_id":"4","last_reported":1730988525,"current_range_meters":16000,"station_id":"ce4bhm92rcd13ifvqglg","pricing_plan_id":"cebpf4jnsgd1na2vs0mg"},{"bike_id":"76af8b3d-9a84-4e55-b4f5-30a2c29789a2","system_id":"levelo_inurba_marseille","lat":43.24085,"lon":5.37742,"is_reserved":false,"is_disabled":false,"rental_uris":{"android":"levelo://app?vid=76af8b3d-9a84-4e55-b4f5-30a2c29789a2","ios":"levelo://app?vid=76af8b3d-9a84-4e55-b4f5-30a2c29789a2"},"vehicle_type_id":"4","last_reported":1730988525,"current_range_meters":27600,"station_id":"ce4bhnp2rcd13ifvqgvg","pricing_plan_id":"cebpf4jnsgd1na2vs0mg"},{"bike_id":"7148e5a3-e345-4df8-9602-6c428d6f2779","system_id":"levelo_inurba_marseille","lat":43.2667,"lon":5.40289,"is_reserved":false,"is_disabled":false,"rental_uris":{"android":"levelo://app?vid=7148e5a3-e345-4df8-9602-6c428d6f2779","ios":"levelo://app?vid=7148e5a3-e345-4df8-9602-6c428d6f2779"},"vehicle_type_id":"4","last_reported":1730988525,"current_range_meters":16000,"station_id":"","pricing_plan_id":"cebpf4jnsgd1na2vs0mg"},{"bike_id":"bbde159d-771c-477e-9cb9-0b5767d2e088","system_id":"levelo_inurba_marseille","lat":43.31494,"lon":5.37306,"is_reserved":false,"is_disabled":false,"rental_uris":{"android":"levelo://app?vid=bbde159d-771c-477e-9cb9-0b5767d2e088","ios":"levelo://app?vid=bbde159d-771c-477e-9cb9-0b5767d2e088"},"vehicle_type_id":"4","last_reported":1730988525,"current_range_meters":10800,"station_id":"ce4bgt12rcd13ifvqcd0","pricing_plan_id":"cebpf4jnsgd1na2vs0mg"},{"bike_id":"197f433f-53bf-42fe-8295-cd68fd3f34d8","system_id":"levelo_inurba_marseille","lat":43.29263,"lon":5.38433,"is_reserved":false,"is_disabled":false,"rental_uris":{"android":"levelo://app?vid=197f433f-53bf-42fe-8295-cd68fd3f34d8","ios":"levelo://app?vid=197f433f-53bf-42fe-8295-cd68fd3f34d8"},"vehicle_type_id":"4","last_reported":1730988525,"current_range_meters":28400,"station_id":"ce4bh692rcd13ifvqea0","pricing_plan_id":"cebpf4jnsgd1na2vs0mg"},{"bike_id":"70f4f82a-b187-43b2-ba2d-79b6494332cb","system_id":"levelo_inurba_marseille","lat":43.28857,"lon":5.35858,"is_reserved":false,"is_disabled":false,"rental_uris":{"android":"levelo://app?vid=70f4f82a-b187-43b2-ba2d-79b6494332cb","ios":"levelo://app?vid=70f4f82a-b187-43b2-ba2d-79b6494332cb"},"vehicle_type_id":"4","last_reported":1730988525,"current_range_meters":24400,"station_id":"ce4bhb12rcd13ifvqem0","pricing_plan_id":"cebpf4jnsgd1na2vs0mg"},{"bike_id":"fa0b7a65-cee1-4d2a-a04c-01c31bf50672","system_id":"levelo_inurba_marseille","lat":43.24168,"lon":5.3639,"is_reserved":false,"is_disabled":false,"rental_uris":{"android":"levelo://app?vid=fa0b7a65-cee1-4d2a-a04c-01c31bf50672","ios":"levelo://app?vid=fa0b7a65-cee1-4d2a-a04c-01c31bf50672"},"vehicle_type_id":"4","last_reported":1730988525,"current_range_meters":23200,"station_id":"cpo36qri1sfpv3e86is0","pricing_plan_id":"cebpf4jnsgd1na2vs0mg"},{"bike_id":"84e9b449-261e-40d9-b4a3-e93ed9e31828","system_id":"levelo_inurba_marseille","lat":43.258597,"lon":5.399046,"is_reserved":false,"is_disabled":false,"rental_uris":{"android":"levelo://app?vid=84e9b449-261e-40d9-b4a3-e93ed9e31828","ios":"levelo://app?vid=84e9b449-261e-40d9-b4a3-e93ed9e31828"},"vehicle_type_id":"4","last_reported":1730988525,"current_range_meters":39200,"station_id":"ce4bhl92rcd13ifvqghg","pricing_plan_id":"cebpf4jnsgd1na2vs0mg"},{"bike_id":"ebe24ed0-22ef-4108-8346-d144ddd06aac","system_id":"levelo_inurba_marseille","lat":43.33718,"lon":5.39187,"is_reserved":false,"is_disabled":false,"rental_uris":{"android":"levelo://app?vid=ebe24ed0-22ef-4108-8346-d144ddd06aac","ios":"levelo://app?vid=ebe24ed0-22ef-4108-8346-d144ddd06aac"},"vehicle_type_id":"4","last_reported":1730988525,"current_range_meters":33200,"station_id":"ce4bhr92rcd13ifvqhsg","pricing_plan_id":"cebpf4jnsgd1na2vs0mg"},{"bike_id":"e1fce2b4-f8d0-488b-b1cc-c7807bed546c","system_id":"levelo_inurba_marseille","lat":43.29274,"lon":5.40117,"is_reserved":false,"is_disabled":false,"rental_uris":{"android":"levelo://app?vid=e1fce2b4-f8d0-488b-b1cc-c7807bed546c","ios":"levelo://app?vid=e1fce2b4-f8d0-488b-b1cc-c7807bed546c"},"vehicle_type_id":"4","last_reported":1730988525,"current_range_meters":38800,"station_id":"ce4bh312rcd13ifvqdk0","pricing_plan_id":"cebpf4jnsgd1na2vs0mg"},{"bike_id":"ceb21097-6d7d-4d24-9934-a7624ce60701","system_id":"levelo_inurba_marseille","lat":43.24075,"lon":5.37759,"is_reserved":false,"is_disabled":false,"rental_uris":{"android":"levelo://app?vid=ceb21097-6d7d-4d24-9934-a7624ce60701","ios":"levelo://app?vid=ceb21097-6d7d-4d24-9934-a7624ce60701"},"vehicle_type_id":"4","last_reported":1730988525,"current_range_meters":20400,"station_id":"ce4bhnp2rcd13ifvqgvg","pricing_plan_id":"cebpf4jnsgd1na2vs0mg"},{"bike_id":"5205fbf7-8d59-4be8-bf69-1e6422de7447","system_id":"levelo_inurba_marseille","lat":43.30908,"lon":5.36855,"is_reserved":false,"is_disabled":false,"rental_uris":{"android":"levelo://app?vid=5205fbf7-8d59-4be8-bf69-1e6422de7447","ios":"levelo://app?vid=5205fbf7-8d59-4be8-bf69-1e6422de7447"},"vehicle_type_id":"4","last_reported":1730988525,"current_range_meters":7200,"station_id":"ce4bgn92rcd13ifvqbvg","pricing_plan_id":"cebpf4jnsgd1na2vs0mg"},{"bike_id":"cb0ff2cc-ff1a-49a6-b8fb-f55be74a223d","system_id":"levelo_inurba_marseille","lat":43.30549,"lon":5.3653,"is_reserved":false,"is_disabled":false,"rental_uris":{"android":"levelo://app?vid=cb0ff2cc-ff1a-49a6-b8fb-f55be74a223d","ios":"levelo://app?vid=cb0ff2cc-ff1a-49a6-b8fb-f55be74a223d"},"vehicle_type_id":"4","last_reported":1730988525,"current_range_meters":31200,"station_id":"ce4bgs12rcd13ifvqcag","pricing_plan_id":"cebpf4jnsgd1na2vs0mg"},{"bike_id":"f57cc4aa-169c-4e0d-bd33-97601102de51","system_id":"levelo_inurba_marseille","lat":43.23963,"lon":5.36631,"is_reserved":false,"is_disabled":false,"rental_uris":{"android":"levelo://app?vid=f57cc4aa-169c-4e0d-bd33-97601102de51","ios":"levelo://app?vid=f57cc4aa-169c-4e0d-bd33-97601102de51"},"vehicle_type_id":"4","last_reported":1730988525,"current_range_meters":38800,"station_id":"ce4bhi12rcd13ifvqfp0","pricing_plan_id":"cebpf4jnsgd1na2vs0mg"},{"bike_id":"b72c4c69-2898-4c3d-aeef-f3da571569d0","system_id":"levelo_inurba_marseille","lat":43.26678,"lon":5.38271,"is_reserved":false,"is_disabled":false,"rental_uris":{"android":"levelo://app?vid=b72c4c69-2898-4c3d-aeef-f3da571569d0","ios":"levelo://app?vid=b72c4c69-2898-4c3d-aeef-f3da571569d0"},"vehicle_type_id":"4","last_reported":1730988525,"current_range_meters":38800,"station_id":"ce4bhg92rcd13ifvqf90","pricing_plan_id":"cebpf4jnsgd1na2vs0mg"},{"bike_id":"def2c055-3c93-44a3-ab5f-0192fddff446","system_id":"levelo_inurba_marseille","lat":43.32529,"lon":5.41439,"is_reserved":false,"is_disabled":false,"rental_uris":{"android":"levelo://app?vid=def2c055-3c93-44a3-ab5f-0192fddff446","ios":"levelo://app?vid=def2c055-3c93-44a3-ab5f-0192fddff446"},"vehicle_type_id":"4","last_reported":1730988525,"current_range_meters":18800,"station_id":"ce4bhq12rcd13ifvqhhg","pricing_plan_id":"cebpf4jnsgd1na2vs0mg"},{"bike_id":"73ddab19-f3bf-49d8-9a14-da51e0ed8f6c","system_id":"levelo_inurba_marseille","lat":43.23144,"lon":5.4372,"is_reserved":false,"is_disabled":false,"rental_uris":{"android":"levelo://app?vid=73ddab19-f3bf-49d8-9a14-da51e0ed8f6c","ios":"levelo://app?vid=73ddab19-f3bf-49d8-9a14-da51e0ed8f6c"},"vehicle_type_id":"4","last_reported":1730988525,"current_range_meters":38800,"station_id":"ce4bhmp2rcd13ifvqgog","pricing_plan_id":"cebpf4jnsgd1na2vs0mg"},{"bike_id":"207ed067-29d8-4a8f-b9f3-0849ce579f81","system_id":"levelo_inurba_marseille","lat":43.33025,"lon":5.39046,"is_reserved":false,"is_disabled":false,"rental_uris":{"android":"levelo://app?vid=207ed067-29d8-4a8f-b9f3-0849ce579f81","ios":"levelo://app?vid=207ed067-29d8-4a8f-b9f3-0849ce579f81"},"vehicle_type_id":"4","last_reported":1730988525,"current_range_meters":17600,"station_id":"ce4bhr92rcd13ifvqhrg","pricing_plan_id":"cebpf4jnsgd1na2vs0mg"},{"bike_id":"f4c9a353-b8df-4e25-a8dc-b8756d83db91","system_id":"levelo_inurba_marseille","lat":43.25498,"lon":5.37652,"is_reserved":false,"is_disabled":false,"rental_uris":{"android":"levelo://app?vid=f4c9a353-b8df-4e25-a8dc-b8756d83db91","ios":"levelo://app?vid=f4c9a353-b8df-4e25-a8dc-b8756d83db91"},"vehicle_type_id":"4","last_reported":1730988525,"current_range_meters":32400,"station_id":"ce4bhh12rcd13ifvqff0","pricing_plan_id":"cebpf4jnsgd1na2vs0mg"},{"bike_id":"9d696f74-b98f-4b00-9f07-06ed4abe3915","system_id":"levelo_inurba_marseille","lat":43.24081,"lon":5.37748,"is_reserved":false,"is_disabled":false,"rental_uris":{"android":"levelo://app?vid=9d696f74-b98f-4b00-9f07-06ed4abe3915","ios":"levelo://app?vid=9d696f74-b98f-4b00-9f07-06ed4abe3915"},"vehicle_type_id":"4","last_reported":1730988525,"current_range_meters":31200,"station_id":"ce4bhnp2rcd13ifvqgvg","pricing_plan_id":"cebpf4jnsgd1na2vs0mg"},{"bike_id":"95ac8b55-d461-4c79-bf07-3deece0b5544","system_id":"levelo_inurba_marseille","lat":43.337444,"lon":5.374475,"is_reserved":false,"is_disabled":false,"rental_uris":{"android":"levelo://app?vid=95ac8b55-d461-4c79-bf07-3deece0b5544","ios":"levelo://app?vid=95ac8b55-d461-4c79-bf07-3deece0b5544"},"vehicle_type_id":"4","last_reported":1730988525,"current_range_meters":36800,"station_id":"","pricing_plan_id":"cebpf4jnsgd1na2vs0mg"},{"bike_id":"8dec34fb-327a-4ab3-8174-25c77f727295","system_id":"levelo_inurba_marseille","lat":43.30151,"lon":5.38076,"is_reserved":false,"is_disabled":false,"rental_uris":{"android":"levelo://app?vid=8dec34fb-327a-4ab3-8174-25c77f727295","ios":"levelo://app?vid=8dec34fb-327a-4ab3-8174-25c77f727295"},"vehicle_type_id":"4","last_reported":1730988525,"current_range_meters":37600,"station_id":"ce4bgjp2rcd13ifvqbh0","pricing_plan_id":"cebpf4jnsgd1na2vs0mg"},{"bike_id":"f350266a-d6ca-4400-be04-6f121a628d37","system_id":"levelo_inurba_marseille","lat":43.28853,"lon":5.39318,"is_reserved":false,"is_disabled":false,"rental_uris":{"android":"levelo://app?vid=f350266a-d6ca-4400-be04-6f121a628d37","ios":"levelo://app?vid=f350266a-d6ca-4400-be04-6f121a628d37"},"vehicle_type_id":"4","last_reported":1730988525,"current_range_meters":10000,"station_id":"ce4bh2p2rcd13ifvqdi0","pricing_plan_id":"cebpf4jnsgd1na2vs0mg"},{"bike_id":"f653ebca-ff32-4f7c-9fdc-b2ad9381391e","system_id":"levelo_inurba_marseille","lat":43.24077,"lon":5.37752,"is_reserved":false,"is_disabled":false,"rental_uris":{"android":"levelo://app?vid=f653ebca-ff32-4f7c-9fdc-b2ad9381391e","ios":"levelo://app?vid=f653ebca-ff32-4f7c-9fdc-b2ad9381391e"},"vehicle_type_id":"4","last_reported":1730988525,"current_range_meters":28400,"station_id":"ce4bhnp2rcd13ifvqgvg","pricing_plan_id":"cebpf4jnsgd1na2vs0mg"},{"bike_id":"2e20f2a1-b564-48ea-877a-8fba77b4c953","system_id":"levelo_inurba_marseille","lat":43.22926,"lon":5.35376,"is_reserved":false,"is_disabled":false,"rental_uris":{"android":"levelo://app?vid=2e20f2a1-b564-48ea-877a-8fba77b4c953","ios":"levelo://app?vid=2e20f2a1-b564-48ea-877a-8fba77b4c953"},"vehicle_type_id":"4","last_reported":1730988525,"current_range_meters":36400,"station_id":"cpo3532slgdg3j2ikp40","pricing_plan_id":"cebpf4jnsgd1na2vs0mg"},{"bike_id":"2b00c955-209e-4afd-8242-155060f72c57","system_id":"levelo_inurba_marseille","lat":43.23189,"lon":5.3999,"is_reserved":false,"is_disabled":false,"rental_uris":{"android":"levelo://app?vid=2b00c955-209e-4afd-8242-155060f72c57","ios":"levelo://app?vid=2b00c955-209e-4afd-8242-155060f72c57"},"vehicle_type_id":"4","last_reported":1730988525,"current_range_meters":13600,"station_id":"ce4bhn12rcd13ifvqgqg","pricing_plan_id":"cebpf4jnsgd1na2vs0mg"},{"bike_id":"d1bd7f26-1ddc-447d-bf87-1ceab47dba8f","system_id":"levelo_inurba_marseille","lat":43.29717,"lon":5.37698,"is_reserved":false,"is_disabled":false,"rental_uris":{"android":"levelo://app?vid=d1bd7f26-1ddc-447d-bf87-1ceab47dba8f","ios":"levelo://app?vid=d1bd7f26-1ddc-447d-bf87-1ceab47dba8f"},"vehicle_type_id":"4","last_reported":1730988525,"current_range_meters":6800,"station_id":"ce4bgkh2rcd13ifvqbl0","pricing_plan_id":"cebpf4jnsgd1na2vs0mg"},{"bike_id":"e96a0000-4c65-4389-84e3-72bb9e3f1a77","system_id":"levelo_inurba_marseille","lat":43.2418,"lon":5.39726,"is_reserved":false,"is_disabled":false,"rental_uris":{"android":"levelo://app?vid=e96a0000-4c65-4389-84e3-72bb9e3f1a77","ios":"levelo://app?vid=e96a0000-4c65-4389-84e3-72bb9e3f1a77"},"vehicle_type_id":"4","last_reported":1730988525,"current_range_meters":8800,"station_id":"ce4bhn12rcd13ifvqgpg","pricing_plan_id":"cebpf4jnsgd1na2vs0mg"},{"bike_id":"e00a8282-69fa-4688-9307-2b5af372bb1f","system_id":"levelo_inurba_marseille","lat":43.30097,"lon":5.3909,"is_reserved":false,"is_disabled":false,"rental_uris":{"android":"levelo://app?vid=e00a8282-69fa-4688-9307-2b5af372bb1f","ios":"levelo://app?vid=e00a8282-69fa-4688-9307-2b5af372bb1f"},"vehicle_type_id":"4","last_reported":1730988525,"current_range_meters":31200,"station_id":"ce4bh192rcd13ifvqdb0","pricing_plan_id":"cebpf4jnsgd1na2vs0mg"},{"bike_id":"4df686f7-8cdc-4be1-bac7-404bbaea22b8","system_id":"levelo_inurba_marseille","lat":43.23968,"lon":5.36629,"is_reserved":false,"is_disabled":false,"rental_uris":{"android":"levelo://app?vid=4df686f7-8cdc-4be1-bac7-404bbaea22b8","ios":"levelo://app?vid=4df686f7-8cdc-4be1-bac7-404bbaea22b8"},"vehicle_type_id":"4","last_reported":1730988525,"current_range_meters":22400,"station_id":"ce4bhi12rcd13ifvqfp0","pricing_plan_id":"cebpf4jnsgd1na2vs0mg"},{"bike_id":"f6be9b35-e22b-47f5-afe1-1f886e398857","system_id":"levelo_inurba_marseille","lat":43.24073,"lon":5.37737,"is_reserved":false,"is_disabled":false,"rental_uris":{"android":"levelo://app?vid=f6be9b35-e22b-47f5-afe1-1f886e398857","ios":"levelo://app?vid=f6be9b35-e22b-47f5-afe1-1f886e398857"},"vehicle_type_id":"4","last_reported":1730988525,"current_range_meters":38800,"station_id":"ce4bhnp2rcd13ifvqgvg","pricing_plan_id":"cebpf4jnsgd1na2vs0mg"},{"bike_id":"9df837eb-2315-4108-8e81-a9a6aea2e7ca","system_id":"levelo_inurba_marseille","lat":43.29879,"lon":5.38914,"is_reserved":false,"is_disabled":false,"rental_uris":{"android":"levelo://app?vid=9df837eb-2315-4108-8e81-a9a6aea2e7ca","ios":"levelo://app?vid=9df837eb-2315-4108-8e81-a9a6aea2e7ca"},"vehicle_type_id":"4","last_reported":1730988525,"current_range_meters":30800,"station_id":"ce4bh392rcd13ifvqdl0","pricing_plan_id":"cebpf4jnsgd1na2vs0mg"},{"bike_id":"e3ee10fb-8b83-41c1-b250-bb9136e88156","system_id":"levelo_inurba_marseille","lat":43.24096,"lon":5.37752,"is_reserved":false,"is_disabled":false,"rental_uris":{"android":"levelo://app?vid=e3ee10fb-8b83-41c1-b250-bb9136e88156","ios":"levelo://app?vid=e3ee10fb-8b83-41c1-b250-bb9136e88156"},"vehicle_type_id":"4","last_reported":1730988525,"current_range_meters":20400,"station_id":"ce4bhnp2rcd13ifvqgvg","pricing_plan_id":"cebpf4jnsgd1na2vs0mg"},{"bike_id":"7cce6816-4690-418b-99b6-346ea176f531","system_id":"levelo_inurba_marseille","lat":43.28722,"lon":5.37948,"is_reserved":false,"is_disabled":false,"rental_uris":{"android":"levelo://app?vid=7cce6816-4690-418b-99b6-346ea176f531","ios":"levelo://app?vid=7cce6816-4690-418b-99b6-346ea176f531"},"vehicle_type_id":"4","last_reported":1730988525,"current_range_meters":22800,"station_id":"ce4bh9p2rcd13ifvqec0","pricing_plan_id":"cebpf4jnsgd1na2vs0mg"},{"bike_id":"84c10ecf-fd70-42a4-91a9-a3bf7b0dfb61","system_id":"levelo_inurba_marseille","lat":43.29794,"lon":5.38118,"is_reserved":false,"is_disabled":false,"rental_uris":{"android":"levelo://app?vid=84c10ecf-fd70-42a4-91a9-a3bf7b0dfb61","ios":"levelo://app?vid=84c10ecf-fd70-42a4-91a9-a3bf7b0dfb61"},"vehicle_type_id":"4","last_reported":1730988525,"current_range_meters":12800,"station_id":"ce4bgip2rcd13ifvqbb0","pricing_plan_id":"cebpf4jnsgd1na2vs0mg"},{"bike_id":"f2b49eb7-7442-4deb-99d5-eac72daea051","system_id":"levelo_inurba_marseille","lat":43.258209,"lon":5.394381,"is_reserved":false,"is_disabled":false,"rental_uris":{"android":"levelo://app?vid=f2b49eb7-7442-4deb-99d5-eac72daea051","ios":"levelo://app?vid=f2b49eb7-7442-4deb-99d5-eac72daea051"},"vehicle_type_id":"4","last_reported":1730988525,"current_range_meters":6000,"station_id":"ce4bhip2rcd13ifvqft0","pricing_plan_id":"cebpf4jnsgd1na2vs0mg"},{"bike_id":"77a2bc23-2b0a-49cb-95ac-b061fd5f84d5","system_id":"levelo_inurba_marseille","lat":43.29596,"lon":5.38096,"is_reserved":false,"is_disabled":false,"rental_uris":{"android":"levelo://app?vid=77a2bc23-2b0a-49cb-95ac-b061fd5f84d5","ios":"levelo://app?vid=77a2bc23-2b0a-49cb-95ac-b061fd5f84d5"},"vehicle_type_id":"4","last_reported":1730988525,"current_range_meters":29600,"station_id":"ce4bgl12rcd13ifvqbo0","pricing_plan_id":"cebpf4jnsgd1na2vs0mg"},{"bike_id":"5f538afc-07b3-406c-bcb8-9ceaa750658f","system_id":"levelo_inurba_marseille","lat":43.3043,"lon":5.3889,"is_reserved":false,"is_disabled":false,"rental_uris":{"android":"levelo://app?vid=5f538afc-07b3-406c-bcb8-9ceaa750658f","ios":"levelo://app?vid=5f538afc-07b3-406c-bcb8-9ceaa750658f"},"vehicle_type_id":"4","last_reported":1730988525,"current_range_meters":9600,"station_id":"ce4bgk12rcd13ifvqbi0","pricing_plan_id":"cebpf4jnsgd1na2vs0mg"},{"bike_id":"0da152f3-a69e-4216-9cfa-9108b495e7a0","system_id":"levelo_inurba_marseille","lat":43.30462,"lon":5.37909,"is_reserved":false,"is_disabled":false,"rental_uris":{"android":"levelo://app?vid=0da152f3-a69e-4216-9cfa-9108b495e7a0","ios":"levelo://app?vid=0da152f3-a69e-4216-9cfa-9108b495e7a0"},"vehicle_type_id":"4","last_reported":1730988525,"current_range_meters":38400,"station_id":"ce4bgup2rcd13ifvqcn0","pricing_plan_id":"cebpf4jnsgd1na2vs0mg"},{"bike_id":"cf04c12c-c700-4ab9-be93-b4b073c140d3","system_id":"levelo_inurba_marseille","lat":43.241674,"lon":5.363921,"is_reserved":false,"is_disabled":false,"rental_uris":{"android":"levelo://app?vid=cf04c12c-c700-4ab9-be93-b4b073c140d3","ios":"levelo://app?vid=cf04c12c-c700-4ab9-be93-b4b073c140d3"},"vehicle_type_id":"4","last_reported":1730988525,"current_range_meters":14400,"station_id":"ce4bhh12rcd13ifvqfg0","pricing_plan_id":"cebpf4jnsgd1na2vs0mg"},{"bike_id":"746f8df5-cd38-4c92-9c55-a49257706bc6","system_id":"levelo_inurba_marseille","lat":43.31325,"lon":5.39689,"is_reserved":false,"is_disabled":false,"rental_uris":{"android":"levelo://app?vid=746f8df5-cd38-4c92-9c55-a49257706bc6","ios":"levelo://app?vid=746f8df5-cd38-4c92-9c55-a49257706bc6"},"vehicle_type_id":"4","last_reported":1730988525,"current_range_meters":30400,"station_id":"ce4bgvp2rcd13ifvqcu0","pricing_plan_id":"cebpf4jnsgd1na2vs0mg"},{"bike_id":"3abaa40a-e468-4195-8a23-8b8fcf30ab1b","system_id":"levelo_inurba_marseille","lat":43.28351,"lon":5.38113,"is_reserved":false,"is_disabled":false,"rental_uris":{"android":"levelo://app?vid=3abaa40a-e468-4195-8a23-8b8fcf30ab1b","ios":"levelo://app?vid=3abaa40a-e468-4195-8a23-8b8fcf30ab1b"},"vehicle_type_id":"4","last_reported":1730988525,"current_range_meters":32400,"station_id":"ce4bh412rcd13ifvqdr0","pricing_plan_id":"cebpf4jnsgd1na2vs0mg"},{"bike_id":"4e8fcbce-f083-4199-9acc-59a900a6e69a","system_id":"levelo_inurba_marseille","lat":43.30604,"lon":5.39354,"is_reserved":false,"is_disabled":false,"rental_uris":{"android":"levelo://app?vid=4e8fcbce-f083-4199-9acc-59a900a6e69a","ios":"levelo://app?vid=4e8fcbce-f083-4199-9acc-59a900a6e69a"},"vehicle_type_id":"4","last_reported":1730988525,"current_range_meters":38800,"station_id":"ce4bh0p2rcd13ifvqd80","pricing_plan_id":"cebpf4jnsgd1na2vs0mg"},{"bike_id":"e41e5be4-c508-4d61-b847-98292c01416f","system_id":"levelo_inurba_marseille","lat":43.24093,"lon":5.37747,"is_reserved":false,"is_disabled":false,"rental_uris":{"android":"levelo://app?vid=e41e5be4-c508-4d61-b847-98292c01416f","ios":"levelo://app?vid=e41e5be4-c508-4d61-b847-98292c01416f"},"vehicle_type_id":"4","last_reported":1730988525,"current_range_meters":33200,"station_id":"ce4bhnp2rcd13ifvqgvg","pricing_plan_id":"cebpf4jnsgd1na2vs0mg"},{"bike_id":"15959e40-daa6-4e1c-8936-8996ca870cbd","system_id":"levelo_inurba_marseille","lat":43.26571,"lon":5.38998,"is_reserved":false,"is_disabled":false,"rental_uris":{"android":"levelo://app?vid=15959e40-daa6-4e1c-8936-8996ca870cbd","ios":"levelo://app?vid=15959e40-daa6-4e1c-8936-8996ca870cbd"},"vehicle_type_id":"4","last_reported":1730988525,"current_range_meters":36800,"station_id":"ce4bhe12rcd13ifvqf30","pricing_plan_id":"cebpf4jnsgd1na2vs0mg"},{"bike_id":"867929a7-ae39-4da9-add9-dd396432d556","system_id":"levelo_inurba_marseille","lat":43.292358,"lon":5.374058,"is_reserved":false,"is_disabled":false,"rental_uris":{"android":"levelo://app?vid=867929a7-ae39-4da9-add9-dd396432d556","ios":"levelo://app?vid=867929a7-ae39-4da9-add9-dd396432d556"},"vehicle_type_id":"4","last_reported":1730988525,"current_range_meters":14800,"station_id":"ce4bha92rcd13ifvqeh0","pricing_plan_id":"cebpf4jnsgd1na2vs0mg"},{"bike_id":"56724e01-9843-478f-9957-90072d770c6c","system_id":"levelo_inurba_marseille","lat":43.23192,"lon":5.35559,"is_reserved":false,"is_disabled":false,"rental_uris":{"android":"levelo://app?vid=56724e01-9843-478f-9957-90072d770c6c","ios":"levelo://app?vid=56724e01-9843-478f-9957-90072d770c6c"},"vehicle_type_id":"4","last_reported":1730988525,"current_range_meters":9600,"station_id":"ce4bhu92rcd13ifvqi70","pricing_plan_id":"cebpf4jnsgd1na2vs0mg"},{"bike_id":"ba81f366-ea79-4c3c-b173-d3b6978cafbf","system_id":"levelo_inurba_marseille","lat":43.29624,"lon":5.37176,"is_reserved":false,"is_disabled":false,"rental_uris":{"android":"levelo://app?vid=ba81f366-ea79-4c3c-b173-d3b6978cafbf","ios":"levelo://app?vid=ba81f366-ea79-4c3c-b173-d3b6978cafbf"},"vehicle_type_id":"4","last_reported":1730988525,"current_range_meters":38800,"station_id":"ce4bgnh2rcd13ifvqc0g","pricing_plan_id":"cebpf4jnsgd1na2vs0mg"},{"bike_id":"2133dfbe-49e8-4189-a0e7-2637129ed1cc","system_id":"levelo_inurba_marseille","lat":43.30153,"lon":5.38084,"is_reserved":false,"is_disabled":false,"rental_uris":{"android":"levelo://app?vid=2133dfbe-49e8-4189-a0e7-2637129ed1cc","ios":"levelo://app?vid=2133dfbe-49e8-4189-a0e7-2637129ed1cc"},"vehicle_type_id":"4","last_reported":1730988525,"current_range_meters":12400,"station_id":"ce4bgjp2rcd13ifvqbh0","pricing_plan_id":"cebpf4jnsgd1na2vs0mg"},{"bike_id":"cde33d01-4fdf-4588-9993-50576e545d63","system_id":"levelo_inurba_marseille","lat":43.299,"lon":5.43667,"is_reserved":false,"is_disabled":false,"rental_uris":{"android":"levelo://app?vid=cde33d01-4fdf-4588-9993-50576e545d63","ios":"levelo://app?vid=cde33d01-4fdf-4588-9993-50576e545d63"},"vehicle_type_id":"4","last_reported":1730988525,"current_range_meters":33600,"station_id":"ce4bhpp2rcd13ifvqhfg","pricing_plan_id":"cebpf4jnsgd1na2vs0mg"},{"bike_id":"aa1b17f6-92bf-40ae-9475-ae4c96498ada","system_id":"levelo_inurba_marseille","lat":43.30281,"lon":5.37697,"is_reserved":false,"is_disabled":false,"rental_uris":{"android":"levelo://app?vid=aa1b17f6-92bf-40ae-9475-ae4c96498ada","ios":"levelo://app?vid=aa1b17f6-92bf-40ae-9475-ae4c96498ada"},"vehicle_type_id":"4","last_reported":1730988525,"current_range_meters":37600,"station_id":"ce4bguh2rcd13ifvqcj0","pricing_plan_id":"cebpf4jnsgd1na2vs0mg"},{"bike_id":"84d60574-e97d-416a-bb69-40e9fb469182","system_id":"levelo_inurba_marseille","lat":43.22928,"lon":5.35377,"is_reserved":false,"is_disabled":false,"rental_uris":{"android":"levelo://app?vid=84d60574-e97d-416a-bb69-40e9fb469182","ios":"levelo://app?vid=84d60574-e97d-416a-bb69-40e9fb469182"},"vehicle_type_id":"4","last_reported":1730988525,"current_range_meters":38800,"station_id":"cpo3532slgdg3j2ikp40","pricing_plan_id":"cebpf4jnsgd1na2vs0mg"},{"bike_id":"6677c91d-3e85-4d69-93bd-16eddf6f0c93","system_id":"levelo_inurba_marseille","lat":43.25866,"lon":5.39895,"is_reserved":false,"is_disabled":false,"rental_uris":{"android":"levelo://app?vid=6677c91d-3e85-4d69-93bd-16eddf6f0c93","ios":"levelo://app?vid=6677c91d-3e85-4d69-93bd-16eddf6f0c93"},"vehicle_type_id":"4","last_reported":1730988525,"current_range_meters":39200,"station_id":"ce4bhl92rcd13ifvqghg","pricing_plan_id":"cebpf4jnsgd1na2vs0mg"},{"bike_id":"443e02d4-2e4e-4942-a709-65676acfcb5f","system_id":"levelo_inurba_marseille","lat":43.28472,"lon":5.38429,"is_reserved":false,"is_disabled":false,"rental_uris":{"android":"levelo://app?vid=443e02d4-2e4e-4942-a709-65676acfcb5f","ios":"levelo://app?vid=443e02d4-2e4e-4942-a709-65676acfcb5f"},"vehicle_type_id":"4","last_reported":1730988525,"current_range_meters":8800,"station_id":"ce4bh512rcd13ifvqe3g","pricing_plan_id":"cebpf4jnsgd1na2vs0mg"},{"bike_id":"34634ce2-f8c9-4afd-9d91-a815c55201fd","system_id":"levelo_inurba_marseille","lat":43.284203,"lon":5.409246,"is_reserved":false,"is_disabled":false,"rental_uris":{"android":"levelo://app?vid=34634ce2-f8c9-4afd-9d91-a815c55201fd","ios":"levelo://app?vid=34634ce2-f8c9-4afd-9d91-a815c55201fd"},"vehicle_type_id":"4","last_reported":1730988525,"current_range_meters":25200,"station_id":"","pricing_plan_id":"cebpf4jnsgd1na2vs0mg"},{"bike_id":"6c146a02-7d0c-4806-8e3c-05ccda77ded1","system_id":"levelo_inurba_marseille","lat":43.2593,"lon":5.40911,"is_reserved":false,"is_disabled":false,"rental_uris":{"android":"levelo://app?vid=6c146a02-7d0c-4806-8e3c-05ccda77ded1","ios":"levelo://app?vid=6c146a02-7d0c-4806-8e3c-05ccda77ded1"},"vehicle_type_id":"4","last_reported":1730988525,"current_range_meters":4400,"station_id":"ce4bhm92rcd13ifvqglg","pricing_plan_id":"cebpf4jnsgd1na2vs0mg"},{"bike_id":"8fba7c7b-3a6f-4601-ada4-3b123dcb6725","system_id":"levelo_inurba_marseille","lat":43.24673,"lon":5.38163,"is_reserved":false,"is_disabled":false,"rental_uris":{"android":"levelo://app?vid=8fba7c7b-3a6f-4601-ada4-3b123dcb6725","ios":"levelo://app?vid=8fba7c7b-3a6f-4601-ada4-3b123dcb6725"},"vehicle_type_id":"4","last_reported":1730988525,"current_range_meters":7200,"station_id":"ce4bhih2rcd13ifvqfr0","pricing_plan_id":"cebpf4jnsgd1na2vs0mg"},{"bike_id":"31662986-2c45-4b07-bab7-0a938893d156","system_id":"levelo_inurba_marseille","lat":43.2861,"lon":5.35103,"is_reserved":false,"is_disabled":false,"rental_uris":{"android":"levelo://app?vid=31662986-2c45-4b07-bab7-0a938893d156","ios":"levelo://app?vid=31662986-2c45-4b07-bab7-0a938893d156"},"vehicle_type_id":"4","last_reported":1730988525,"current_range_meters":10800,"station_id":"ce4bhch2rcd13ifvqeug","pricing_plan_id":"cebpf4jnsgd1na2vs0mg"},{"bike_id":"2fb91550-a5c2-40df-bbc7-d7385a2f7bcb","system_id":"levelo_inurba_marseille","lat":43.30786,"lon":5.3765,"is_reserved":false,"is_disabled":false,"rental_uris":{"android":"levelo://app?vid=2fb91550-a5c2-40df-bbc7-d7385a2f7bcb","ios":"levelo://app?vid=2fb91550-a5c2-40df-bbc7-d7385a2f7bcb"},"vehicle_type_id":"4","last_reported":1730988525,"current_range_meters":23200,"station_id":"ce4bgv92rcd13ifvqcq0","pricing_plan_id":"cebpf4jnsgd1na2vs0mg"},{"bike_id":"f1184172-cb85-400c-9060-866f9017656c","system_id":"levelo_inurba_marseille","lat":43.292,"lon":5.39324,"is_reserved":false,"is_disabled":false,"rental_uris":{"android":"levelo://app?vid=f1184172-cb85-400c-9060-866f9017656c","ios":"levelo://app?vid=f1184172-cb85-400c-9060-866f9017656c"},"vehicle_type_id":"4","last_reported":1730988525,"current_range_meters":39200,"station_id":"ce4bh192rcd13ifvqdd0","pricing_plan_id":"cebpf4jnsgd1na2vs0mg"},{"bike_id":"5174ae6b-73b7-4eb9-b82e-9c61c1f78ce8","system_id":"levelo_inurba_marseille","lat":43.31228,"lon":5.40606,"is_reserved":false,"is_disabled":false,"rental_uris":{"android":"levelo://app?vid=5174ae6b-73b7-4eb9-b82e-9c61c1f78ce8","ios":"levelo://app?vid=5174ae6b-73b7-4eb9-b82e-9c61c1f78ce8"},"vehicle_type_id":"4","last_reported":1730988525,"current_range_meters":16800,"station_id":"","pricing_plan_id":"cebpf4jnsgd1na2vs0mg"},{"bike_id":"6d4cf439-5208-448b-94c4-179b76b463a5","system_id":"levelo_inurba_marseille","lat":43.30551,"lon":5.36731,"is_reserved":false,"is_disabled":false,"rental_uris":{"android":"levelo://app?vid=6d4cf439-5208-448b-94c4-179b76b463a5","ios":"levelo://app?vid=6d4cf439-5208-448b-94c4-179b76b463a5"},"vehicle_type_id":"4","last_reported":1730988525,"current_range_meters":9600,"station_id":"ce4bgrp2rcd13ifvqc9g","pricing_plan_id":"cebpf4jnsgd1na2vs0mg"},{"bike_id":"dbdda8d4-cf10-4eef-99cc-0af832233252","system_id":"levelo_inurba_marseille","lat":43.34135,"lon":5.40908,"is_reserved":false,"is_disabled":false,"rental_uris":{"android":"levelo://app?vid=dbdda8d4-cf10-4eef-99cc-0af832233252","ios":"levelo://app?vid=dbdda8d4-cf10-4eef-99cc-0af832233252"},"vehicle_type_id":"4","last_reported":1730988525,"current_range_meters":17600,"station_id":"ce4bhqh2rcd13ifvqhlg","pricing_plan_id":"cebpf4jnsgd1na2vs0mg"},{"bike_id":"42876d45-ee88-4cd2-8943-0c1dba7eecf8","system_id":"levelo_inurba_marseille","lat":43.30596,"lon":5.37231,"is_reserved":false,"is_disabled":false,"rental_uris":{"android":"levelo://app?vid=42876d45-ee88-4cd2-8943-0c1dba7eecf8","ios":"levelo://app?vid=42876d45-ee88-4cd2-8943-0c1dba7eecf8"},"vehicle_type_id":"4","last_reported":1730988525,"current_range_meters":16400,"station_id":"ce4bgqh2rcd13ifvqc4g","pricing_plan_id":"cebpf4jnsgd1na2vs0mg"},{"bike_id":"c3e27800-3ee3-4406-99ec-fa9ce1dee0ca","system_id":"levelo_inurba_marseille","lat":43.30547,"lon":5.36535,"is_reserved":false,"is_disabled":false,"rental_uris":{"android":"levelo://app?vid=c3e27800-3ee3-4406-99ec-fa9ce1dee0ca","ios":"levelo://app?vid=c3e27800-3ee3-4406-99ec-fa9ce1dee0ca"},"vehicle_type_id":"4","last_reported":1730988525,"current_range_meters":39200,"station_id":"ce4bgs12rcd13ifvqcag","pricing_plan_id":"cebpf4jnsgd1na2vs0mg"},{"bike_id":"198f67f3-24a9-4d19-bed7-14145d808d1a","system_id":"levelo_inurba_marseille","lat":43.26559,"lon":5.37284,"is_reserved":false,"is_disabled":false,"rental_uris":{"android":"levelo://app?vid=198f67f3-24a9-4d19-bed7-14145d808d1a","ios":"levelo://app?vid=198f67f3-24a9-4d19-bed7-14145d808d1a"},"vehicle_type_id":"4","last_reported":1730988525,"current_range_meters":4000,"station_id":"ce4bhg12rcd13ifvqf70","pricing_plan_id":"cebpf4jnsgd1na2vs0mg"},{"bike_id":"76733292-6685-4127-a6aa-dc0a61b373d8","system_id":"levelo_inurba_marseille","lat":43.23147,"lon":5.43716,"is_reserved":false,"is_disabled":false,"rental_uris":{"android":"levelo://app?vid=76733292-6685-4127-a6aa-dc0a61b373d8","ios":"levelo://app?vid=76733292-6685-4127-a6aa-dc0a61b373d8"},"vehicle_type_id":"4","last_reported":1730988525,"current_range_meters":36800,"station_id":"ce4bhmp2rcd13ifvqgog","pricing_plan_id":"cebpf4jnsgd1na2vs0mg"},{"bike_id":"e2c783ad-487e-476c-b5b2-a2d671f755e3","system_id":"levelo_inurba_marseille","lat":43.2886,"lon":5.39311,"is_reserved":false,"is_disabled":false,"rental_uris":{"android":"levelo://app?vid=e2c783ad-487e-476c-b5b2-a2d671f755e3","ios":"levelo://app?vid=e2c783ad-487e-476c-b5b2-a2d671f755e3"},"vehicle_type_id":"4","last_reported":1730988525,"current_range_meters":28800,"station_id":"ce4bh2p2rcd13ifvqdi0","pricing_plan_id":"cebpf4jnsgd1na2vs0mg"},{"bike_id":"8d96c24a-4b4c-4eec-b390-8bcbb29b65d3","system_id":"levelo_inurba_marseille","lat":43.27498,"lon":5.42453,"is_reserved":false,"is_disabled":false,"rental_uris":{"android":"levelo://app?vid=8d96c24a-4b4c-4eec-b390-8bcbb29b65d3","ios":"levelo://app?vid=8d96c24a-4b4c-4eec-b390-8bcbb29b65d3"},"vehicle_type_id":"4","last_reported":1730988525,"current_range_meters":33200,"station_id":"ce4bhn92rcd13ifvqgrg","pricing_plan_id":"cebpf4jnsgd1na2vs0mg"},{"bike_id":"313af37f-2e99-47ca-852c-4a5de83e3f70","system_id":"levelo_inurba_marseille","lat":43.29624,"lon":5.37731,"is_reserved":false,"is_disabled":false,"rental_uris":{"android":"levelo://app?vid=313af37f-2e99-47ca-852c-4a5de83e3f70","ios":"levelo://app?vid=313af37f-2e99-47ca-852c-4a5de83e3f70"},"vehicle_type_id":"4","last_reported":1730988525,"current_range_meters":8400,"station_id":"ce4bgi92rcd13ifvqb90","pricing_plan_id":"cebpf4jnsgd1na2vs0mg"},{"bike_id":"a6ea12f3-65fe-4b29-9494-41c3c96afbc0","system_id":"levelo_inurba_marseille","lat":43.26067,"lon":5.3938,"is_reserved":false,"is_disabled":false,"rental_uris":{"android":"levelo://app?vid=a6ea12f3-65fe-4b29-9494-41c3c96afbc0","ios":"levelo://app?vid=a6ea12f3-65fe-4b29-9494-41c3c96afbc0"},"vehicle_type_id":"4","last_reported":1730988525,"current_range_meters":39200,"station_id":"ce4bhh92rcd13ifvqfj0","pricing_plan_id":"cebpf4jnsgd1na2vs0mg"},{"bike_id":"5ae39f32-721b-47fb-aaf5-c37b54b15b50","system_id":"levelo_inurba_marseille","lat":43.284088,"lon":5.385793,"is_reserved":false,"is_disabled":false,"rental_uris":{"android":"levelo://app?vid=5ae39f32-721b-47fb-aaf5-c37b54b15b50","ios":"levelo://app?vid=5ae39f32-721b-47fb-aaf5-c37b54b15b50"},"vehicle_type_id":"4","last_reported":1730988525,"current_range_meters":8400,"station_id":"ce4bh492rcd13ifvqdvg","pricing_plan_id":"cebpf4jnsgd1na2vs0mg"},{"bike_id":"873554ef-d009-4c29-9a4b-c0c2f4098e25","system_id":"levelo_inurba_marseille","lat":43.30326,"lon":5.40446,"is_reserved":false,"is_disabled":false,"rental_uris":{"android":"levelo://app?vid=873554ef-d009-4c29-9a4b-c0c2f4098e25","ios":"levelo://app?vid=873554ef-d009-4c29-9a4b-c0c2f4098e25"},"vehicle_type_id":"4","last_reported":1730988525,"current_range_meters":36400,"station_id":"ce4bh012rcd13ifvqd10","pricing_plan_id":"cebpf4jnsgd1na2vs0mg"},{"bike_id":"adaaba0e-9314-457e-b940-e4660275bfa0","system_id":"levelo_inurba_marseille","lat":43.30283,"lon":5.37699,"is_reserved":false,"is_disabled":false,"rental_uris":{"android":"levelo://app?vid=adaaba0e-9314-457e-b940-e4660275bfa0","ios":"levelo://app?vid=adaaba0e-9314-457e-b940-e4660275bfa0"},"vehicle_type_id":"4","last_reported":1730988525,"current_range_meters":19600,"station_id":"ce4bguh2rcd13ifvqcj0","pricing_plan_id":"cebpf4jnsgd1na2vs0mg"},{"bike_id":"d619c91b-880c-4c6b-8f5a-fdbd568603fe","system_id":"levelo_inurba_marseille","lat":43.30609,"lon":5.37225,"is_reserved":false,"is_disabled":false,"rental_uris":{"android":"levelo://app?vid=d619c91b-880c-4c6b-8f5a-fdbd568603fe","ios":"levelo://app?vid=d619c91b-880c-4c6b-8f5a-fdbd568603fe"},"vehicle_type_id":"4","last_reported":1730988525,"current_range_meters":28000,"station_id":"ce4bgqh2rcd13ifvqc4g","pricing_plan_id":"cebpf4jnsgd1na2vs0mg"},{"bike_id":"58c1f2be-4fe6-48d7-9deb-bdc097dfe4cc","system_id":"levelo_inurba_marseille","lat":43.2408,"lon":5.37758,"is_reserved":false,"is_disabled":false,"rental_uris":{"android":"levelo://app?vid=58c1f2be-4fe6-48d7-9deb-bdc097dfe4cc","ios":"levelo://app?vid=58c1f2be-4fe6-48d7-9deb-bdc097dfe4cc"},"vehicle_type_id":"4","last_reported":1730988525,"current_range_meters":38800,"station_id":"ce4bhnp2rcd13ifvqgvg","pricing_plan_id":"cebpf4jnsgd1na2vs0mg"},{"bike_id":"f9b51361-1f59-4e32-8790-218894731a9c","system_id":"levelo_inurba_marseille","lat":43.23965,"lon":5.36625,"is_reserved":false,"is_disabled":false,"rental_uris":{"android":"levelo://app?vid=f9b51361-1f59-4e32-8790-218894731a9c","ios":"levelo://app?vid=f9b51361-1f59-4e32-8790-218894731a9c"},"vehicle_type_id":"4","last_reported":1730988525,"current_range_meters":38000,"station_id":"ce4bhi12rcd13ifvqfp0","pricing_plan_id":"cebpf4jnsgd1na2vs0mg"},{"bike_id":"d6fdae69-642e-4d84-a8fd-edeb75ed0ef4","system_id":"levelo_inurba_marseille","lat":43.22925,"lon":5.35374,"is_reserved":false,"is_disabled":false,"rental_uris":{"android":"levelo://app?vid=d6fdae69-642e-4d84-a8fd-edeb75ed0ef4","ios":"levelo://app?vid=d6fdae69-642e-4d84-a8fd-edeb75ed0ef4"},"vehicle_type_id":"4","last_reported":1730988525,"current_range_meters":28000,"station_id":"cpo3532slgdg3j2ikp40","pricing_plan_id":"cebpf4jnsgd1na2vs0mg"},{"bike_id":"cd38d905-7607-4e74-a18a-510ebfbc7ef3","system_id":"levelo_inurba_marseille","lat":43.32656,"lon":5.40998,"is_reserved":false,"is_disabled":false,"rental_uris":{"android":"levelo://app?vid=cd38d905-7607-4e74-a18a-510ebfbc7ef3","ios":"levelo://app?vid=cd38d905-7607-4e74-a18a-510ebfbc7ef3"},"vehicle_type_id":"4","last_reported":1730988525,"current_range_meters":10000,"station_id":"ce4bhpp2rcd13ifvqhgg","pricing_plan_id":"cebpf4jnsgd1na2vs0mg"},{"bike_id":"6c397028-147e-424f-9c74-f458b3eeeb06","system_id":"levelo_inurba_marseille","lat":43.31486,"lon":5.37309,"is_reserved":false,"is_disabled":false,"rental_uris":{"android":"levelo://app?vid=6c397028-147e-424f-9c74-f458b3eeeb06","ios":"levelo://app?vid=6c397028-147e-424f-9c74-f458b3eeeb06"},"vehicle_type_id":"4","last_reported":1730988525,"current_range_meters":25600,"station_id":"ce4bgt12rcd13ifvqcd0","pricing_plan_id":"cebpf4jnsgd1na2vs0mg"},{"bike_id":"b5e02d49-ef14-487b-be10-37c3ad6d6000","system_id":"levelo_inurba_marseille","lat":43.30381,"lon":5.42813,"is_reserved":false,"is_disabled":false,"rental_uris":{"android":"levelo://app?vid=b5e02d49-ef14-487b-be10-37c3ad6d6000","ios":"levelo://app?vid=b5e02d49-ef14-487b-be10-37c3ad6d6000"},"vehicle_type_id":"4","last_reported":1730988525,"current_range_meters":8800,"station_id":"ce4bhop2rcd13ifvqh7g","pricing_plan_id":"cebpf4jnsgd1na2vs0mg"},{"bike_id":"28ca97b7-b90f-43b5-b18c-1a6a39a52b07","system_id":"levelo_inurba_marseille","lat":43.23966,"lon":5.36634,"is_reserved":false,"is_disabled":false,"rental_uris":{"android":"levelo://app?vid=28ca97b7-b90f-43b5-b18c-1a6a39a52b07","ios":"levelo://app?vid=28ca97b7-b90f-43b5-b18c-1a6a39a52b07"},"vehicle_type_id":"4","last_reported":1730988525,"current_range_meters":38800,"station_id":"ce4bhi12rcd13ifvqfp0","pricing_plan_id":"cebpf4jnsgd1na2vs0mg"},{"bike_id":"002d6eac-5b9f-4884-911d-d21eb3f7c152","system_id":"levelo_inurba_marseille","lat":43.30538,"lon":5.36555,"is_reserved":false,"is_disabled":false,"rental_uris":{"android":"levelo://app?vid=002d6eac-5b9f-4884-911d-d21eb3f7c152","ios":"levelo://app?vid=002d6eac-5b9f-4884-911d-d21eb3f7c152"},"vehicle_type_id":"4","last_reported":1730988525,"current_range_meters":6000,"station_id":"ce4bgs12rcd13ifvqcag","pricing_plan_id":"cebpf4jnsgd1na2vs0mg"},{"bike_id":"0d7114f2-4e4d-47ef-a69c-acdd5c771288","system_id":"levelo_inurba_marseille","lat":43.314878,"lon":5.373033,"is_reserved":false,"is_disabled":false,"rental_uris":{"android":"levelo://app?vid=0d7114f2-4e4d-47ef-a69c-acdd5c771288","ios":"levelo://app?vid=0d7114f2-4e4d-47ef-a69c-acdd5c771288"},"vehicle_type_id":"4","last_reported":1730988525,"current_range_meters":36800,"station_id":"ce4bgt12rcd13ifvqcd0","pricing_plan_id":"cebpf4jnsgd1na2vs0mg"},{"bike_id":"21b37299-84e4-4b5b-8bf6-49ee4ecf921e","system_id":"levelo_inurba_marseille","lat":43.23967,"lon":5.3664,"is_reserved":false,"is_disabled":false,"rental_uris":{"android":"levelo://app?vid=21b37299-84e4-4b5b-8bf6-49ee4ecf921e","ios":"levelo://app?vid=21b37299-84e4-4b5b-8bf6-49ee4ecf921e"},"vehicle_type_id":"4","last_reported":1730988525,"current_range_meters":39200,"station_id":"ce4bhi12rcd13ifvqfp0","pricing_plan_id":"cebpf4jnsgd1na2vs0mg"},{"bike_id":"001b7c42-40a7-47a9-927f-6c03197892aa","system_id":"levelo_inurba_marseille","lat":43.33714,"lon":5.39179,"is_reserved":false,"is_disabled":false,"rental_uris":{"android":"levelo://app?vid=001b7c42-40a7-47a9-927f-6c03197892aa","ios":"levelo://app?vid=001b7c42-40a7-47a9-927f-6c03197892aa"},"vehicle_type_id":"4","last_reported":1730988525,"current_range_meters":38800,"station_id":"ce4bhr92rcd13ifvqhsg","pricing_plan_id":"cebpf4jnsgd1na2vs0mg"},{"bike_id":"ac3cc6e9-2ee9-4e5a-bf14-b10adb7d918e","system_id":"levelo_inurba_marseille","lat":43.23967,"lon":5.36634,"is_reserved":false,"is_disabled":false,"rental_uris":{"android":"levelo://app?vid=ac3cc6e9-2ee9-4e5a-bf14-b10adb7d918e","ios":"levelo://app?vid=ac3cc6e9-2ee9-4e5a-bf14-b10adb7d918e"},"vehicle_type_id":"4","last_reported":1730988525,"current_range_meters":17600,"station_id":"ce4bhi12rcd13ifvqfp0","pricing_plan_id":"cebpf4jnsgd1na2vs0mg"},{"bike_id":"eb0e8ae7-be8d-4ed5-944f-3285b8b963e5","system_id":"levelo_inurba_marseille","lat":43.23963,"lon":5.36623,"is_reserved":false,"is_disabled":false,"rental_uris":{"android":"levelo://app?vid=eb0e8ae7-be8d-4ed5-944f-3285b8b963e5","ios":"levelo://app?vid=eb0e8ae7-be8d-4ed5-944f-3285b8b963e5"},"vehicle_type_id":"4","last_reported":1730988525,"current_range_meters":38800,"station_id":"ce4bhi12rcd13ifvqfp0","pricing_plan_id":"cebpf4jnsgd1na2vs0mg"},{"bike_id":"79398219-5041-40a5-81d4-9ccbe347c664","system_id":"levelo_inurba_marseille","lat":43.28723,"lon":5.37949,"is_reserved":false,"is_disabled":false,"rental_uris":{"android":"levelo://app?vid=79398219-5041-40a5-81d4-9ccbe347c664","ios":"levelo://app?vid=79398219-5041-40a5-81d4-9ccbe347c664"},"vehicle_type_id":"4","last_reported":1730988525,"current_range_meters":21600,"station_id":"ce4bh9p2rcd13ifvqec0","pricing_plan_id":"cebpf4jnsgd1na2vs0mg"},{"bike_id":"9178d598-d5de-4d5c-85ae-0efa9377149a","system_id":"levelo_inurba_marseille","lat":43.23189,"lon":5.39981,"is_reserved":false,"is_disabled":false,"rental_uris":{"android":"levelo://app?vid=9178d598-d5de-4d5c-85ae-0efa9377149a","ios":"levelo://app?vid=9178d598-d5de-4d5c-85ae-0efa9377149a"},"vehicle_type_id":"4","last_reported":1730988525,"current_range_meters":21600,"station_id":"ce4bhn12rcd13ifvqgqg","pricing_plan_id":"cebpf4jnsgd1na2vs0mg"},{"bike_id":"18b7999f-6362-47d8-bf63-f9d1d9dc91c9","system_id":"levelo_inurba_marseille","lat":43.23163,"lon":5.43677,"is_reserved":false,"is_disabled":false,"rental_uris":{"android":"levelo://app?vid=18b7999f-6362-47d8-bf63-f9d1d9dc91c9","ios":"levelo://app?vid=18b7999f-6362-47d8-bf63-f9d1d9dc91c9"},"vehicle_type_id":"4","last_reported":1730988525,"current_range_meters":28800,"station_id":"ce4bhmp2rcd13ifvqgog","pricing_plan_id":"cebpf4jnsgd1na2vs0mg"},{"bike_id":"24fc1f95-596e-40fb-aecd-360ba4fa6125","system_id":"levelo_inurba_marseille","lat":43.30886,"lon":5.39651,"is_reserved":false,"is_disabled":false,"rental_uris":{"android":"levelo://app?vid=24fc1f95-596e-40fb-aecd-360ba4fa6125","ios":"levelo://app?vid=24fc1f95-596e-40fb-aecd-360ba4fa6125"},"vehicle_type_id":"4","last_reported":1730988525,"current_range_meters":26800,"station_id":"ce4bh012rcd13ifvqcv0","pricing_plan_id":"cebpf4jnsgd1na2vs0mg"},{"bike_id":"22529114-7083-4dc7-ae65-79aead05e022","system_id":"levelo_inurba_marseille","lat":43.28482,"lon":5.38568,"is_reserved":false,"is_disabled":false,"rental_uris":{"android":"levelo://app?vid=22529114-7083-4dc7-ae65-79aead05e022","ios":"levelo://app?vid=22529114-7083-4dc7-ae65-79aead05e022"},"vehicle_type_id":"4","last_reported":1730988525,"current_range_meters":13600,"station_id":"ce4bh8p2rcd13ifvqeb0","pricing_plan_id":"cebpf4jnsgd1na2vs0mg"},{"bike_id":"70ba574d-a3ef-4998-9fb3-85743e66db24","system_id":"levelo_inurba_marseille","lat":43.2781,"lon":5.40714,"is_reserved":false,"is_disabled":false,"rental_uris":{"android":"levelo://app?vid=70ba574d-a3ef-4998-9fb3-85743e66db24","ios":"levelo://app?vid=70ba574d-a3ef-4998-9fb3-85743e66db24"},"vehicle_type_id":"4","last_reported":1730988525,"current_range_meters":16400,"station_id":"ce4bhnh2rcd13ifvqgtg","pricing_plan_id":"cebpf4jnsgd1na2vs0mg"},{"bike_id":"b7435ef5-727b-4311-8cc4-4dc5c2bf23c3","system_id":"levelo_inurba_marseille","lat":43.24076,"lon":5.37759,"is_reserved":false,"is_disabled":false,"rental_uris":{"android":"levelo://app?vid=b7435ef5-727b-4311-8cc4-4dc5c2bf23c3","ios":"levelo://app?vid=b7435ef5-727b-4311-8cc4-4dc5c2bf23c3"},"vehicle_type_id":"4","last_reported":1730988525,"current_range_meters":38800,"station_id":"ce4bhnp2rcd13ifvqgvg","pricing_plan_id":"cebpf4jnsgd1na2vs0mg"},{"bike_id":"0993ae53-b33b-4ec0-8420-6942bdb9eb84","system_id":"levelo_inurba_marseille","lat":43.30802,"lon":5.43523,"is_reserved":false,"is_disabled":false,"rental_uris":{"android":"levelo://app?vid=0993ae53-b33b-4ec0-8420-6942bdb9eb84","ios":"levelo://app?vid=0993ae53-b33b-4ec0-8420-6942bdb9eb84"},"vehicle_type_id":"4","last_reported":1730988525,"current_range_meters":25600,"station_id":"ce4bhph2rcd13ifvqheg","pricing_plan_id":"cebpf4jnsgd1na2vs0mg"},{"bike_id":"96bbe4b9-c3df-4eb3-8e8f-0dd163426af7","system_id":"levelo_inurba_marseille","lat":43.27486,"lon":5.42454,"is_reserved":false,"is_disabled":false,"rental_uris":{"android":"levelo://app?vid=96bbe4b9-c3df-4eb3-8e8f-0dd163426af7","ios":"levelo://app?vid=96bbe4b9-c3df-4eb3-8e8f-0dd163426af7"},"vehicle_type_id":"4","last_reported":1730988525,"current_range_meters":30400,"station_id":"ce4bhn92rcd13ifvqgrg","pricing_plan_id":"cebpf4jnsgd1na2vs0mg"},{"bike_id":"52af7a3b-ddda-465a-a3b9-5cc6f08e1552","system_id":"levelo_inurba_marseille","lat":43.24171,"lon":5.36393,"is_reserved":false,"is_disabled":false,"rental_uris":{"android":"levelo://app?vid=52af7a3b-ddda-465a-a3b9-5cc6f08e1552","ios":"levelo://app?vid=52af7a3b-ddda-465a-a3b9-5cc6f08e1552"},"vehicle_type_id":"4","last_reported":1730988525,"current_range_meters":14000,"station_id":"cpo36qri1sfpv3e86is0","pricing_plan_id":"cebpf4jnsgd1na2vs0mg"},{"bike_id":"8a76bcd1-0f5e-4170-8a69-1f04e611da97","system_id":"levelo_inurba_marseille","lat":43.32482,"lon":5.36564,"is_reserved":false,"is_disabled":false,"rental_uris":{"android":"levelo://app?vid=8a76bcd1-0f5e-4170-8a69-1f04e611da97","ios":"levelo://app?vid=8a76bcd1-0f5e-4170-8a69-1f04e611da97"},"vehicle_type_id":"4","last_reported":1730988525,"current_range_meters":11200,"station_id":"ce4bhs12rcd13ifvqhvg","pricing_plan_id":"cebpf4jnsgd1na2vs0mg"},{"bike_id":"186d9995-4644-4dc9-ab30-10648929078f","system_id":"levelo_inurba_marseille","lat":43.30536,"lon":5.38452,"is_reserved":false,"is_disabled":false,"rental_uris":{"android":"levelo://app?vid=186d9995-4644-4dc9-ab30-10648929078f","ios":"levelo://app?vid=186d9995-4644-4dc9-ab30-10648929078f"},"vehicle_type_id":"4","last_reported":1730988525,"current_range_meters":38800,"station_id":"ce4bgg92rcd13ifvqb30","pricing_plan_id":"cebpf4jnsgd1na2vs0mg"},{"bike_id":"415955a6-aead-4d1b-8f65-b1ad9c277811","system_id":"levelo_inurba_marseille","lat":43.2871,"lon":5.39982,"is_reserved":false,"is_disabled":false,"rental_uris":{"android":"levelo://app?vid=415955a6-aead-4d1b-8f65-b1ad9c277811","ios":"levelo://app?vid=415955a6-aead-4d1b-8f65-b1ad9c277811"},"vehicle_type_id":"4","last_reported":1730988525,"current_range_meters":2000,"station_id":"ce4bho92rcd13ifvqh3g","pricing_plan_id":"cebpf4jnsgd1na2vs0mg"},{"bike_id":"31b17817-5732-4809-abfa-3cd0c10719cf","system_id":"levelo_inurba_marseille","lat":43.31686,"lon":5.40469,"is_reserved":false,"is_disabled":false,"rental_uris":{"android":"levelo://app?vid=31b17817-5732-4809-abfa-3cd0c10719cf","ios":"levelo://app?vid=31b17817-5732-4809-abfa-3cd0c10719cf"},"vehicle_type_id":"4","last_reported":1730988525,"current_range_meters":38800,"station_id":"ce4bh012rcd13ifvqd00","pricing_plan_id":"cebpf4jnsgd1na2vs0mg"},{"bike_id":"1f92a978-0fe1-416d-b202-7ab4f1f26041","system_id":"levelo_inurba_marseille","lat":43.25082,"lon":5.39512,"is_reserved":false,"is_disabled":false,"rental_uris":{"android":"levelo://app?vid=1f92a978-0fe1-416d-b202-7ab4f1f26041","ios":"levelo://app?vid=1f92a978-0fe1-416d-b202-7ab4f1f26041"},"vehicle_type_id":"4","last_reported":1730988525,"current_range_meters":38800,"station_id":"ce4bhm12rcd13ifvqgkg","pricing_plan_id":"cebpf4jnsgd1na2vs0mg"},{"bike_id":"25f35008-955f-49e0-b146-bf9fee0c02d2","system_id":"levelo_inurba_marseille","lat":43.33761,"lon":5.37457,"is_reserved":false,"is_disabled":false,"rental_uris":{"android":"levelo://app?vid=25f35008-955f-49e0-b146-bf9fee0c02d2","ios":"levelo://app?vid=25f35008-955f-49e0-b146-bf9fee0c02d2"},"vehicle_type_id":"4","last_reported":1730988525,"current_range_meters":36400,"station_id":"","pricing_plan_id":"cebpf4jnsgd1na2vs0mg"},{"bike_id":"3f4fc512-c09e-425c-8600-f50abb41362b","system_id":"levelo_inurba_marseille","lat":43.27495,"lon":5.42453,"is_reserved":false,"is_disabled":false,"rental_uris":{"android":"levelo://app?vid=3f4fc512-c09e-425c-8600-f50abb41362b","ios":"levelo://app?vid=3f4fc512-c09e-425c-8600-f50abb41362b"},"vehicle_type_id":"4","last_reported":1730988525,"current_range_meters":31200,"station_id":"ce4bhn92rcd13ifvqgrg","pricing_plan_id":"cebpf4jnsgd1na2vs0mg"},{"bike_id":"a5667fb0-e110-42c4-a311-eae00378f8fb","system_id":"levelo_inurba_marseille","lat":43.2315,"lon":5.43709,"is_reserved":false,"is_disabled":false,"rental_uris":{"android":"levelo://app?vid=a5667fb0-e110-42c4-a311-eae00378f8fb","ios":"levelo://app?vid=a5667fb0-e110-42c4-a311-eae00378f8fb"},"vehicle_type_id":"4","last_reported":1730988525,"current_range_meters":26000,"station_id":"ce4bhmp2rcd13ifvqgog","pricing_plan_id":"cebpf4jnsgd1na2vs0mg"},{"bike_id":"224ce0ba-8b47-4c01-9b9a-c900b73e5d63","system_id":"levelo_inurba_marseille","lat":43.283462,"lon":5.381039,"is_reserved":false,"is_disabled":false,"rental_uris":{"android":"levelo://app?vid=224ce0ba-8b47-4c01-9b9a-c900b73e5d63","ios":"levelo://app?vid=224ce0ba-8b47-4c01-9b9a-c900b73e5d63"},"vehicle_type_id":"4","last_reported":1730988525,"current_range_meters":24400,"station_id":"ce4bh412rcd13ifvqdr0","pricing_plan_id":"cebpf4jnsgd1na2vs0mg"},{"bike_id":"f182e709-9758-4617-a945-4c8dd2a2d28f","system_id":"levelo_inurba_marseille","lat":43.29879,"lon":5.38907,"is_reserved":false,"is_disabled":false,"rental_uris":{"android":"levelo://app?vid=f182e709-9758-4617-a945-4c8dd2a2d28f","ios":"levelo://app?vid=f182e709-9758-4617-a945-4c8dd2a2d28f"},"vehicle_type_id":"4","last_reported":1730988525,"current_range_meters":35600,"station_id":"ce4bh392rcd13ifvqdl0","pricing_plan_id":"cebpf4jnsgd1na2vs0mg"},{"bike_id":"caaaa4a1-06c0-4b85-817c-42c384330249","system_id":"levelo_inurba_marseille","lat":43.34146,"lon":5.40899,"is_reserved":false,"is_disabled":false,"rental_uris":{"android":"levelo://app?vid=caaaa4a1-06c0-4b85-817c-42c384330249","ios":"levelo://app?vid=caaaa4a1-06c0-4b85-817c-42c384330249"},"vehicle_type_id":"4","last_reported":1730988525,"current_range_meters":17200,"station_id":"ce4bhqh2rcd13ifvqhlg","pricing_plan_id":"cebpf4jnsgd1na2vs0mg"},{"bike_id":"bed4004a-21ef-45fd-9bd7-62af360c69bf","system_id":"levelo_inurba_marseille","lat":43.24079,"lon":5.37738,"is_reserved":false,"is_disabled":false,"rental_uris":{"android":"levelo://app?vid=bed4004a-21ef-45fd-9bd7-62af360c69bf","ios":"levelo://app?vid=bed4004a-21ef-45fd-9bd7-62af360c69bf"},"vehicle_type_id":"4","last_reported":1730988525,"current_range_meters":28800,"station_id":"ce4bhnp2rcd13ifvqgvg","pricing_plan_id":"cebpf4jnsgd1na2vs0mg"},{"bike_id":"c037a069-b356-4f51-a37f-3ef972e5c406","system_id":"levelo_inurba_marseille","lat":43.23065,"lon":5.35492,"is_reserved":false,"is_disabled":false,"rental_uris":{"android":"levelo://app?vid=c037a069-b356-4f51-a37f-3ef972e5c406","ios":"levelo://app?vid=c037a069-b356-4f51-a37f-3ef972e5c406"},"vehicle_type_id":"4","last_reported":1730988525,"current_range_meters":25200,"station_id":"cpo3342slgdg3j2ifvpg","pricing_plan_id":"cebpf4jnsgd1na2vs0mg"},{"bike_id":"cdd64da5-123d-44db-8157-5473e1626676","system_id":"levelo_inurba_marseille","lat":43.29586,"lon":5.36743,"is_reserved":false,"is_disabled":false,"rental_uris":{"android":"levelo://app?vid=cdd64da5-123d-44db-8157-5473e1626676","ios":"levelo://app?vid=cdd64da5-123d-44db-8157-5473e1626676"},"vehicle_type_id":"4","last_reported":1730988525,"current_range_meters":35200,"station_id":"ce4bgph2rcd13ifvqc2g","pricing_plan_id":"cebpf4jnsgd1na2vs0mg"},{"bike_id":"4daac99d-b339-4a98-80a5-47dc575117c6","system_id":"levelo_inurba_marseille","lat":43.293762,"lon":5.383216,"is_reserved":false,"is_disabled":false,"rental_uris":{"android":"levelo://app?vid=4daac99d-b339-4a98-80a5-47dc575117c6","ios":"levelo://app?vid=4daac99d-b339-4a98-80a5-47dc575117c6"},"vehicle_type_id":"4","last_reported":1730988525,"current_range_meters":32400,"station_id":"","pricing_plan_id":"cebpf4jnsgd1na2vs0mg"},{"bike_id":"b7af5fe1-1ffc-4983-a28e-5e881777edc3","system_id":"levelo_inurba_marseille","lat":43.25929,"lon":5.40909,"is_reserved":false,"is_disabled":false,"rental_uris":{"android":"levelo://app?vid=b7af5fe1-1ffc-4983-a28e-5e881777edc3","ios":"levelo://app?vid=b7af5fe1-1ffc-4983-a28e-5e881777edc3"},"vehicle_type_id":"4","last_reported":1730988525,"current_range_meters":16400,"station_id":"ce4bhm92rcd13ifvqglg","pricing_plan_id":"cebpf4jnsgd1na2vs0mg"},{"bike_id":"f486a348-4765-4fb4-803d-857f96d72ee3","system_id":"levelo_inurba_marseille","lat":43.31754,"lon":5.39019,"is_reserved":false,"is_disabled":false,"rental_uris":{"android":"levelo://app?vid=f486a348-4765-4fb4-803d-857f96d72ee3","ios":"levelo://app?vid=f486a348-4765-4fb4-803d-857f96d72ee3"},"vehicle_type_id":"4","last_reported":1730988525,"current_range_meters":16000,"station_id":"ce4bhqp2rcd13ifvqhng","pricing_plan_id":"cebpf4jnsgd1na2vs0mg"},{"bike_id":"70cedf8b-e57f-495e-876c-bd45265f3bba","system_id":"levelo_inurba_marseille","lat":43.292258,"lon":5.360699,"is_reserved":false,"is_disabled":false,"rental_uris":{"android":"levelo://app?vid=70cedf8b-e57f-495e-876c-bd45265f3bba","ios":"levelo://app?vid=70cedf8b-e57f-495e-876c-bd45265f3bba"},"vehicle_type_id":"4","last_reported":1730988525,"current_range_meters":38800,"station_id":"ce4bhbh2rcd13ifvqeqg","pricing_plan_id":"cebpf4jnsgd1na2vs0mg"},{"bike_id":"31370be7-bd9c-4a97-a16e-8d6a5ceded68","system_id":"levelo_inurba_marseille","lat":43.31342,"lon":5.36715,"is_reserved":false,"is_disabled":false,"rental_uris":{"android":"levelo://app?vid=31370be7-bd9c-4a97-a16e-8d6a5ceded68","ios":"levelo://app?vid=31370be7-bd9c-4a97-a16e-8d6a5ceded68"},"vehicle_type_id":"4","last_reported":1730988525,"current_range_meters":30000,"station_id":"ce4bgr92rcd13ifvqc6g","pricing_plan_id":"cebpf4jnsgd1na2vs0mg"},{"bike_id":"26ee007d-c521-4271-a726-fe0c9aeca07e","system_id":"levelo_inurba_marseille","lat":43.33109,"lon":5.38214,"is_reserved":false,"is_disabled":false,"rental_uris":{"android":"levelo://app?vid=26ee007d-c521-4271-a726-fe0c9aeca07e","ios":"levelo://app?vid=26ee007d-c521-4271-a726-fe0c9aeca07e"},"vehicle_type_id":"4","last_reported":1730988525,"current_range_meters":8400,"station_id":"","pricing_plan_id":"cebpf4jnsgd1na2vs0mg"},{"bike_id":"0914028f-8801-4c1d-bc3f-717b468461e6","system_id":"levelo_inurba_marseille","lat":43.248014,"lon":5.374919,"is_reserved":false,"is_disabled":false,"rental_uris":{"android":"levelo://app?vid=0914028f-8801-4c1d-bc3f-717b468461e6","ios":"levelo://app?vid=0914028f-8801-4c1d-bc3f-717b468461e6"},"vehicle_type_id":"4","last_reported":1730988525,"current_range_meters":24400,"station_id":"ce4bh692rcd13ifvqe90","pricing_plan_id":"cebpf4jnsgd1na2vs0mg"},{"bike_id":"b9f00a98-55d1-4ec9-a740-502a3a1169bd","system_id":"levelo_inurba_marseille","lat":43.30531,"lon":5.36564,"is_reserved":false,"is_disabled":false,"rental_uris":{"android":"levelo://app?vid=b9f00a98-55d1-4ec9-a740-502a3a1169bd","ios":"levelo://app?vid=b9f00a98-55d1-4ec9-a740-502a3a1169bd"},"vehicle_type_id":"4","last_reported":1730988525,"current_range_meters":32000,"station_id":"ce4bgs12rcd13ifvqcag","pricing_plan_id":"cebpf4jnsgd1na2vs0mg"},{"bike_id":"57a8f577-0796-4b9b-a40b-643e069b336e","system_id":"levelo_inurba_marseille","lat":43.26805,"lon":5.40273,"is_reserved":false,"is_disabled":false,"rental_uris":{"android":"levelo://app?vid=57a8f577-0796-4b9b-a40b-643e069b336e","ios":"levelo://app?vid=57a8f577-0796-4b9b-a40b-643e069b336e"},"vehicle_type_id":"4","last_reported":1730988525,"current_range_meters":19200,"station_id":"ce501612rcd8frsf0b60","pricing_plan_id":"cebpf4jnsgd1na2vs0mg"},{"bike_id":"c74a6dbf-4e24-459a-96ce-cdf882f11a32","system_id":"levelo_inurba_marseille","lat":43.29886,"lon":5.38909,"is_reserved":false,"is_disabled":false,"rental_uris":{"android":"levelo://app?vid=c74a6dbf-4e24-459a-96ce-cdf882f11a32","ios":"levelo://app?vid=c74a6dbf-4e24-459a-96ce-cdf882f11a32"},"vehicle_type_id":"4","last_reported":1730988525,"current_range_meters":8800,"station_id":"ce4bh392rcd13ifvqdl0","pricing_plan_id":"cebpf4jnsgd1na2vs0mg"},{"bike_id":"e4a3794d-ab4f-400e-af20-05cb71404865","system_id":"levelo_inurba_marseille","lat":43.30145,"lon":5.38077,"is_reserved":false,"is_disabled":false,"rental_uris":{"android":"levelo://app?vid=e4a3794d-ab4f-400e-af20-05cb71404865","ios":"levelo://app?vid=e4a3794d-ab4f-400e-af20-05cb71404865"},"vehicle_type_id":"4","last_reported":1730988525,"current_range_meters":38400,"station_id":"ce4bgjp2rcd13ifvqbh0","pricing_plan_id":"cebpf4jnsgd1na2vs0mg"},{"bike_id":"6fb25d64-3b0b-4eff-9fed-c3969bcf924a","system_id":"levelo_inurba_marseille","lat":43.30285,"lon":5.37699,"is_reserved":false,"is_disabled":false,"rental_uris":{"android":"levelo://app?vid=6fb25d64-3b0b-4eff-9fed-c3969bcf924a","ios":"levelo://app?vid=6fb25d64-3b0b-4eff-9fed-c3969bcf924a"},"vehicle_type_id":"4","last_reported":1730988525,"current_range_meters":39200,"station_id":"ce4bguh2rcd13ifvqcj0","pricing_plan_id":"cebpf4jnsgd1na2vs0mg"},{"bike_id":"c12fc122-9081-4c70-a9f1-d2cd2bc19b18","system_id":"levelo_inurba_marseille","lat":43.28866,"lon":5.35859,"is_reserved":false,"is_disabled":false,"rental_uris":{"android":"levelo://app?vid=c12fc122-9081-4c70-a9f1-d2cd2bc19b18","ios":"levelo://app?vid=c12fc122-9081-4c70-a9f1-d2cd2bc19b18"},"vehicle_type_id":"4","last_reported":1730988525,"current_range_meters":22400,"station_id":"ce4bhb12rcd13ifvqem0","pricing_plan_id":"cebpf4jnsgd1na2vs0mg"},{"bike_id":"63679012-d0a0-44a9-a805-20815a46a99d","system_id":"levelo_inurba_marseille","lat":43.2995,"lon":5.38085,"is_reserved":false,"is_disabled":false,"rental_uris":{"android":"levelo://app?vid=63679012-d0a0-44a9-a805-20815a46a99d","ios":"levelo://app?vid=63679012-d0a0-44a9-a805-20815a46a99d"},"vehicle_type_id":"4","last_reported":1730988525,"current_range_meters":8000,"station_id":"","pricing_plan_id":"cebpf4jnsgd1na2vs0mg"},{"bike_id":"641f2b17-95bc-47d2-9497-15037a737bd1","system_id":"levelo_inurba_marseille","lat":43.25584,"lon":5.38244,"is_reserved":false,"is_disabled":false,"rental_uris":{"android":"levelo://app?vid=641f2b17-95bc-47d2-9497-15037a737bd1","ios":"levelo://app?vid=641f2b17-95bc-47d2-9497-15037a737bd1"},"vehicle_type_id":"4","last_reported":1730988525,"current_range_meters":38400,"station_id":"ce4bhih2rcd13ifvqfs0","pricing_plan_id":"cebpf4jnsgd1na2vs0mg"},{"bike_id":"f19e21fc-3fb8-4be5-8aae-3b3f9019566c","system_id":"levelo_inurba_marseille","lat":43.30552,"lon":5.36534,"is_reserved":false,"is_disabled":false,"rental_uris":{"android":"levelo://app?vid=f19e21fc-3fb8-4be5-8aae-3b3f9019566c","ios":"levelo://app?vid=f19e21fc-3fb8-4be5-8aae-3b3f9019566c"},"vehicle_type_id":"4","last_reported":1730988525,"current_range_meters":40000,"station_id":"ce4bgs12rcd13ifvqcag","pricing_plan_id":"cebpf4jnsgd1na2vs0mg"},{"bike_id":"0562544a-b79d-473e-a168-4b06e39e4c5b","system_id":"levelo_inurba_marseille","lat":43.32482,"lon":5.36569,"is_reserved":false,"is_disabled":false,"rental_uris":{"android":"levelo://app?vid=0562544a-b79d-473e-a168-4b06e39e4c5b","ios":"levelo://app?vid=0562544a-b79d-473e-a168-4b06e39e4c5b"},"vehicle_type_id":"4","last_reported":1730988525,"current_range_meters":31200,"station_id":"ce4bhs12rcd13ifvqhvg","pricing_plan_id":"cebpf4jnsgd1na2vs0mg"},{"bike_id":"5176766f-05f0-4984-ac79-a81ebfd9f8b1","system_id":"levelo_inurba_marseille","lat":43.29617,"lon":5.37152,"is_reserved":false,"is_disabled":false,"rental_uris":{"android":"levelo://app?vid=5176766f-05f0-4984-ac79-a81ebfd9f8b1","ios":"levelo://app?vid=5176766f-05f0-4984-ac79-a81ebfd9f8b1"},"vehicle_type_id":"4","last_reported":1730988525,"current_range_meters":32800,"station_id":"ce4bgnh2rcd13ifvqc0g","pricing_plan_id":"cebpf4jnsgd1na2vs0mg"},{"bike_id":"036644b3-4035-4b02-b63a-112d8ddce538","system_id":"levelo_inurba_marseille","lat":43.30277,"lon":5.37705,"is_reserved":false,"is_disabled":false,"rental_uris":{"android":"levelo://app?vid=036644b3-4035-4b02-b63a-112d8ddce538","ios":"levelo://app?vid=036644b3-4035-4b02-b63a-112d8ddce538"},"vehicle_type_id":"4","last_reported":1730988525,"current_range_meters":38800,"station_id":"ce4bguh2rcd13ifvqcj0","pricing_plan_id":"cebpf4jnsgd1na2vs0mg"},{"bike_id":"978d26de-5736-499b-9b20-742279fdde32","system_id":"levelo_inurba_marseille","lat":43.24069,"lon":5.37766,"is_reserved":false,"is_disabled":false,"rental_uris":{"android":"levelo://app?vid=978d26de-5736-499b-9b20-742279fdde32","ios":"levelo://app?vid=978d26de-5736-499b-9b20-742279fdde32"},"vehicle_type_id":"4","last_reported":1730988525,"current_range_meters":37600,"station_id":"ce4bhnp2rcd13ifvqgvg","pricing_plan_id":"cebpf4jnsgd1na2vs0mg"},{"bike_id":"a5483da6-5f2b-447d-9d04-0d2998f09370","system_id":"levelo_inurba_marseille","lat":43.31351,"lon":5.38496,"is_reserved":false,"is_disabled":false,"rental_uris":{"android":"levelo://app?vid=a5483da6-5f2b-447d-9d04-0d2998f09370","ios":"levelo://app?vid=a5483da6-5f2b-447d-9d04-0d2998f09370"},"vehicle_type_id":"4","last_reported":1730988525,"current_range_meters":38000,"station_id":"ce4bgt92rcd13ifvqcf0","pricing_plan_id":"cebpf4jnsgd1na2vs0mg"},{"bike_id":"bf89549c-f9ef-47d4-ac5a-c0e49c827009","system_id":"levelo_inurba_marseille","lat":43.27071,"lon":5.42282,"is_reserved":false,"is_disabled":false,"rental_uris":{"android":"levelo://app?vid=bf89549c-f9ef-47d4-ac5a-c0e49c827009","ios":"levelo://app?vid=bf89549c-f9ef-47d4-ac5a-c0e49c827009"},"vehicle_type_id":"4","last_reported":1730988525,"current_range_meters":10800,"station_id":"ce4bhk92rcd13ifvqgb0","pricing_plan_id":"cebpf4jnsgd1na2vs0mg"},{"bike_id":"2aa662a0-4282-495f-9b97-18b0fc3cecd1","system_id":"levelo_inurba_marseille","lat":43.30437,"lon":5.38896,"is_reserved":false,"is_disabled":false,"rental_uris":{"android":"levelo://app?vid=2aa662a0-4282-495f-9b97-18b0fc3cecd1","ios":"levelo://app?vid=2aa662a0-4282-495f-9b97-18b0fc3cecd1"},"vehicle_type_id":"4","last_reported":1730988525,"current_range_meters":11600,"station_id":"ce4bgk12rcd13ifvqbi0","pricing_plan_id":"cebpf4jnsgd1na2vs0mg"},{"bike_id":"cb67f130-5e32-4406-8f43-ea2d67d14add","system_id":"levelo_inurba_marseille","lat":43.29614,"lon":5.37719,"is_reserved":false,"is_disabled":false,"rental_uris":{"android":"levelo://app?vid=cb67f130-5e32-4406-8f43-ea2d67d14add","ios":"levelo://app?vid=cb67f130-5e32-4406-8f43-ea2d67d14add"},"vehicle_type_id":"4","last_reported":1730988525,"current_range_meters":35600,"station_id":"ce4bgi92rcd13ifvqb90","pricing_plan_id":"cebpf4jnsgd1na2vs0mg"},{"bike_id":"9c3169c5-7306-4ddc-9f15-d6bb8c9cdea4","system_id":"levelo_inurba_marseille","lat":43.27493,"lon":5.42459,"is_reserved":false,"is_disabled":false,"rental_uris":{"android":"levelo://app?vid=9c3169c5-7306-4ddc-9f15-d6bb8c9cdea4","ios":"levelo://app?vid=9c3169c5-7306-4ddc-9f15-d6bb8c9cdea4"},"vehicle_type_id":"4","last_reported":1730988525,"current_range_meters":28400,"station_id":"ce4bhn92rcd13ifvqgrg","pricing_plan_id":"cebpf4jnsgd1na2vs0mg"},{"bike_id":"d58f8f37-e746-47c0-a774-feb63ea601ee","system_id":"levelo_inurba_marseille","lat":43.310799,"lon":5.383483,"is_reserved":false,"is_disabled":false,"rental_uris":{"android":"levelo://app?vid=d58f8f37-e746-47c0-a774-feb63ea601ee","ios":"levelo://app?vid=d58f8f37-e746-47c0-a774-feb63ea601ee"},"vehicle_type_id":"4","last_reported":1730988525,"current_range_meters":38800,"station_id":"ce4bgv92rcd13ifvqcr0","pricing_plan_id":"cebpf4jnsgd1na2vs0mg"},{"bike_id":"7b8bf20c-10d6-41b2-b3b0-1ec098835e12","system_id":"levelo_inurba_marseille","lat":43.28428,"lon":5.39204,"is_reserved":false,"is_disabled":false,"rental_uris":{"android":"levelo://app?vid=7b8bf20c-10d6-41b2-b3b0-1ec098835e12","ios":"levelo://app?vid=7b8bf20c-10d6-41b2-b3b0-1ec098835e12"},"vehicle_type_id":"4","last_reported":1730988525,"current_range_meters":34800,"station_id":"ce4bhoh2rcd13ifvqh5g","pricing_plan_id":"cebpf4jnsgd1na2vs0mg"},{"bike_id":"361daaab-f144-495f-a973-f10f0e4897fc","system_id":"levelo_inurba_marseille","lat":43.30889,"lon":5.37206,"is_reserved":false,"is_disabled":false,"rental_uris":{"android":"levelo://app?vid=361daaab-f144-495f-a973-f10f0e4897fc","ios":"levelo://app?vid=361daaab-f144-495f-a973-f10f0e4897fc"},"vehicle_type_id":"4","last_reported":1730988525,"current_range_meters":7200,"station_id":"ce4bguh2rcd13ifvqckg","pricing_plan_id":"cebpf4jnsgd1na2vs0mg"},{"bike_id":"9af9c25b-33ad-4158-a1cc-079d3f198d97","system_id":"levelo_inurba_marseille","lat":43.27074,"lon":5.42283,"is_reserved":false,"is_disabled":false,"rental_uris":{"android":"levelo://app?vid=9af9c25b-33ad-4158-a1cc-079d3f198d97","ios":"levelo://app?vid=9af9c25b-33ad-4158-a1cc-079d3f198d97"},"vehicle_type_id":"4","last_reported":1730988525,"current_range_meters":12400,"station_id":"ce4bhk92rcd13ifvqgb0","pricing_plan_id":"cebpf4jnsgd1na2vs0mg"},{"bike_id":"f0af1873-117f-4176-988b-7bbf7d14df74","system_id":"levelo_inurba_marseille","lat":43.22928,"lon":5.35377,"is_reserved":false,"is_disabled":false,"rental_uris":{"android":"levelo://app?vid=f0af1873-117f-4176-988b-7bbf7d14df74","ios":"levelo://app?vid=f0af1873-117f-4176-988b-7bbf7d14df74"},"vehicle_type_id":"4","last_reported":1730988525,"current_range_meters":37600,"station_id":"cpo3532slgdg3j2ikp40","pricing_plan_id":"cebpf4jnsgd1na2vs0mg"},{"bike_id":"3432efb2-a10d-427c-a287-16ab67192755","system_id":"levelo_inurba_marseille","lat":43.29945,"lon":5.38599,"is_reserved":false,"is_disabled":false,"rental_uris":{"android":"levelo://app?vid=3432efb2-a10d-427c-a287-16ab67192755","ios":"levelo://app?vid=3432efb2-a10d-427c-a287-16ab67192755"},"vehicle_type_id":"4","last_reported":1730988525,"current_range_meters":18800,"station_id":"","pricing_plan_id":"cebpf4jnsgd1na2vs0mg"},{"bike_id":"4189533c-99dc-4b2a-827d-78db601dc6a9","system_id":"levelo_inurba_marseille","lat":43.28347,"lon":5.38114,"is_reserved":false,"is_disabled":false,"rental_uris":{"android":"levelo://app?vid=4189533c-99dc-4b2a-827d-78db601dc6a9","ios":"levelo://app?vid=4189533c-99dc-4b2a-827d-78db601dc6a9"},"vehicle_type_id":"4","last_reported":1730988525,"current_range_meters":7200,"station_id":"ce4bh412rcd13ifvqdr0","pricing_plan_id":"cebpf4jnsgd1na2vs0mg"},{"bike_id":"97388f91-2be9-453c-b668-a737022f5a3f","system_id":"levelo_inurba_marseille","lat":43.29043,"lon":5.39965,"is_reserved":false,"is_disabled":false,"rental_uris":{"android":"levelo://app?vid=97388f91-2be9-453c-b668-a737022f5a3f","ios":"levelo://app?vid=97388f91-2be9-453c-b668-a737022f5a3f"},"vehicle_type_id":"4","last_reported":1730988525,"current_range_meters":28400,"station_id":"ce4bh392rcd13ifvqdm0","pricing_plan_id":"cebpf4jnsgd1na2vs0mg"},{"bike_id":"fc13ae1c-4321-44c6-b739-390ab31b4f0e","system_id":"levelo_inurba_marseille","lat":43.32531,"lon":5.4144,"is_reserved":false,"is_disabled":false,"rental_uris":{"android":"levelo://app?vid=fc13ae1c-4321-44c6-b739-390ab31b4f0e","ios":"levelo://app?vid=fc13ae1c-4321-44c6-b739-390ab31b4f0e"},"vehicle_type_id":"4","last_reported":1730988525,"current_range_meters":38800,"station_id":"ce4bhq12rcd13ifvqhhg","pricing_plan_id":"cebpf4jnsgd1na2vs0mg"},{"bike_id":"cb3bbfe8-eb15-4cf2-b9b1-50cc4da0eb6a","system_id":"levelo_inurba_marseille","lat":43.26804,"lon":5.40273,"is_reserved":false,"is_disabled":false,"rental_uris":{"android":"levelo://app?vid=cb3bbfe8-eb15-4cf2-b9b1-50cc4da0eb6a","ios":"levelo://app?vid=cb3bbfe8-eb15-4cf2-b9b1-50cc4da0eb6a"},"vehicle_type_id":"4","last_reported":1730988525,"current_range_meters":10000,"station_id":"ce501612rcd8frsf0b60","pricing_plan_id":"cebpf4jnsgd1na2vs0mg"},{"bike_id":"8294435c-33cf-40ed-a40c-5d2100f72aff","system_id":"levelo_inurba_marseille","lat":43.28263,"lon":5.35061,"is_reserved":false,"is_disabled":false,"rental_uris":{"android":"levelo://app?vid=8294435c-33cf-40ed-a40c-5d2100f72aff","ios":"levelo://app?vid=8294435c-33cf-40ed-a40c-5d2100f72aff"},"vehicle_type_id":"4","last_reported":1730988525,"current_range_meters":18000,"station_id":"ce4bhbp2rcd13ifvqerg","pricing_plan_id":"cebpf4jnsgd1na2vs0mg"},{"bike_id":"1ed4b874-bdae-43c6-98a8-b3cf65705ae8","system_id":"levelo_inurba_marseille","lat":43.23151,"lon":5.43724,"is_reserved":false,"is_disabled":false,"rental_uris":{"android":"levelo://app?vid=1ed4b874-bdae-43c6-98a8-b3cf65705ae8","ios":"levelo://app?vid=1ed4b874-bdae-43c6-98a8-b3cf65705ae8"},"vehicle_type_id":"4","last_reported":1730988525,"current_range_meters":16000,"station_id":"ce4bhmp2rcd13ifvqgog","pricing_plan_id":"cebpf4jnsgd1na2vs0mg"},{"bike_id":"5aa2eeb1-0b88-4c0a-8b4a-d066526c3725","system_id":"levelo_inurba_marseille","lat":43.24388,"lon":5.37054,"is_reserved":false,"is_disabled":false,"rental_uris":{"android":"levelo://app?vid=5aa2eeb1-0b88-4c0a-8b4a-d066526c3725","ios":"levelo://app?vid=5aa2eeb1-0b88-4c0a-8b4a-d066526c3725"},"vehicle_type_id":"4","last_reported":1730988525,"current_range_meters":14800,"station_id":"ce4bhhh2rcd13ifvqfk0","pricing_plan_id":"cebpf4jnsgd1na2vs0mg"},{"bike_id":"02813c2d-ed3d-4240-b2e9-81c6e9f6816b","system_id":"levelo_inurba_marseille","lat":43.276798,"lon":5.388699,"is_reserved":false,"is_disabled":false,"rental_uris":{"android":"levelo://app?vid=02813c2d-ed3d-4240-b2e9-81c6e9f6816b","ios":"levelo://app?vid=02813c2d-ed3d-4240-b2e9-81c6e9f6816b"},"vehicle_type_id":"4","last_reported":1730988525,"current_range_meters":36800,"station_id":"ce4bhi12rcd13ifvqfo0","pricing_plan_id":"cebpf4jnsgd1na2vs0mg"},{"bike_id":"c0cd4c56-8008-47bf-9ddc-fc31b7c69a28","system_id":"levelo_inurba_marseille","lat":43.28857,"lon":5.3932,"is_reserved":false,"is_disabled":false,"rental_uris":{"android":"levelo://app?vid=c0cd4c56-8008-47bf-9ddc-fc31b7c69a28","ios":"levelo://app?vid=c0cd4c56-8008-47bf-9ddc-fc31b7c69a28"},"vehicle_type_id":"4","last_reported":1730988525,"current_range_meters":26000,"station_id":"ce4bh2p2rcd13ifvqdi0","pricing_plan_id":"cebpf4jnsgd1na2vs0mg"},{"bike_id":"05148cac-7f0f-43a7-bd6f-6a902fb52788","system_id":"levelo_inurba_marseille","lat":43.31072,"lon":5.38352,"is_reserved":false,"is_disabled":false,"rental_uris":{"android":"levelo://app?vid=05148cac-7f0f-43a7-bd6f-6a902fb52788","ios":"levelo://app?vid=05148cac-7f0f-43a7-bd6f-6a902fb52788"},"vehicle_type_id":"4","last_reported":1730988525,"current_range_meters":29600,"station_id":"ce4bgv92rcd13ifvqcr0","pricing_plan_id":"cebpf4jnsgd1na2vs0mg"},{"bike_id":"d3e54780-ddfb-432e-bfd3-55d19e8c43c8","system_id":"levelo_inurba_marseille","lat":43.31757,"lon":5.39031,"is_reserved":false,"is_disabled":false,"rental_uris":{"android":"levelo://app?vid=d3e54780-ddfb-432e-bfd3-55d19e8c43c8","ios":"levelo://app?vid=d3e54780-ddfb-432e-bfd3-55d19e8c43c8"},"vehicle_type_id":"4","last_reported":1730988525,"current_range_meters":31200,"station_id":"ce4bhqp2rcd13ifvqhng","pricing_plan_id":"cebpf4jnsgd1na2vs0mg"},{"bike_id":"27c19e94-1e8c-42d1-a268-14ca74dc6d7c","system_id":"levelo_inurba_marseille","lat":43.30333,"lon":5.40448,"is_reserved":false,"is_disabled":false,"rental_uris":{"android":"levelo://app?vid=27c19e94-1e8c-42d1-a268-14ca74dc6d7c","ios":"levelo://app?vid=27c19e94-1e8c-42d1-a268-14ca74dc6d7c"},"vehicle_type_id":"4","last_reported":1730988525,"current_range_meters":24400,"station_id":"ce4bh012rcd13ifvqd10","pricing_plan_id":"cebpf4jnsgd1na2vs0mg"},{"bike_id":"647bb081-3c19-41ba-a02f-a775c8a26f1f","system_id":"levelo_inurba_marseille","lat":43.29724,"lon":5.37699,"is_reserved":false,"is_disabled":false,"rental_uris":{"android":"levelo://app?vid=647bb081-3c19-41ba-a02f-a775c8a26f1f","ios":"levelo://app?vid=647bb081-3c19-41ba-a02f-a775c8a26f1f"},"vehicle_type_id":"4","last_reported":1730988525,"current_range_meters":36400,"station_id":"ce4bgkh2rcd13ifvqbl0","pricing_plan_id":"cebpf4jnsgd1na2vs0mg"},{"bike_id":"d16e9ecd-bd68-4f7c-83a4-3a884d4134e7","system_id":"levelo_inurba_marseille","lat":43.2511,"lon":5.40325,"is_reserved":false,"is_disabled":false,"rental_uris":{"android":"levelo://app?vid=d16e9ecd-bd68-4f7c-83a4-3a884d4134e7","ios":"levelo://app?vid=d16e9ecd-bd68-4f7c-83a4-3a884d4134e7"},"vehicle_type_id":"4","last_reported":1730988525,"current_range_meters":16800,"station_id":"ce4bhlh2rcd13ifvqgig","pricing_plan_id":"cebpf4jnsgd1na2vs0mg"},{"bike_id":"76da3204-edae-4129-bd40-3c4954793fc1","system_id":"levelo_inurba_marseille","lat":43.29278,"lon":5.36842,"is_reserved":false,"is_disabled":false,"rental_uris":{"android":"levelo://app?vid=76da3204-edae-4129-bd40-3c4954793fc1","ios":"levelo://app?vid=76da3204-edae-4129-bd40-3c4954793fc1"},"vehicle_type_id":"4","last_reported":1730988525,"current_range_meters":12400,"station_id":"ce4bhbp2rcd13ifvqesg","pricing_plan_id":"cebpf4jnsgd1na2vs0mg"},{"bike_id":"e11f2957-c866-431f-b50b-d0178644b09f","system_id":"levelo_inurba_marseille","lat":43.2319,"lon":5.39987,"is_reserved":false,"is_disabled":false,"rental_uris":{"android":"levelo://app?vid=e11f2957-c866-431f-b50b-d0178644b09f","ios":"levelo://app?vid=e11f2957-c866-431f-b50b-d0178644b09f"},"vehicle_type_id":"4","last_reported":1730988525,"current_range_meters":30000,"station_id":"ce4bhn12rcd13ifvqgqg","pricing_plan_id":"cebpf4jnsgd1na2vs0mg"},{"bike_id":"16011c9c-19c1-4efc-a082-96549931df21","system_id":"levelo_inurba_marseille","lat":43.3021,"lon":5.39472,"is_reserved":false,"is_disabled":false,"rental_uris":{"android":"levelo://app?vid=16011c9c-19c1-4efc-a082-96549931df21","ios":"levelo://app?vid=16011c9c-19c1-4efc-a082-96549931df21"},"vehicle_type_id":"4","last_reported":1730988525,"current_range_meters":39200,"station_id":"ce4bh0p2rcd13ifvqd70","pricing_plan_id":"cebpf4jnsgd1na2vs0mg"},{"bike_id":"1c22f66d-906c-4647-9cec-30e0993f7b15","system_id":"levelo_inurba_marseille","lat":43.28701,"lon":5.37384,"is_reserved":false,"is_disabled":false,"rental_uris":{"android":"levelo://app?vid=1c22f66d-906c-4647-9cec-30e0993f7b15","ios":"levelo://app?vid=1c22f66d-906c-4647-9cec-30e0993f7b15"},"vehicle_type_id":"4","last_reported":1730988525,"current_range_meters":20400,"station_id":"ce4bh3p2rcd13ifvqdq0","pricing_plan_id":"cebpf4jnsgd1na2vs0mg"},{"bike_id":"92bfdb81-1ac2-4e23-9e47-9d5b1f837dde","system_id":"levelo_inurba_marseille","lat":43.30536,"lon":5.36547,"is_reserved":false,"is_disabled":false,"rental_uris":{"android":"levelo://app?vid=92bfdb81-1ac2-4e23-9e47-9d5b1f837dde","ios":"levelo://app?vid=92bfdb81-1ac2-4e23-9e47-9d5b1f837dde"},"vehicle_type_id":"4","last_reported":1730988525,"current_range_meters":17200,"station_id":"ce4bgs12rcd13ifvqcag","pricing_plan_id":"cebpf4jnsgd1na2vs0mg"},{"bike_id":"0890b25c-eb6d-4ffb-9cc8-6aa1888c070a","system_id":"levelo_inurba_marseille","lat":43.29803,"lon":5.39344,"is_reserved":false,"is_disabled":false,"rental_uris":{"android":"levelo://app?vid=0890b25c-eb6d-4ffb-9cc8-6aa1888c070a","ios":"levelo://app?vid=0890b25c-eb6d-4ffb-9cc8-6aa1888c070a"},"vehicle_type_id":"4","last_reported":1730988525,"current_range_meters":8000,"station_id":"chh1huq6cuj3fo74tm60","pricing_plan_id":"cebpf4jnsgd1na2vs0mg"},{"bike_id":"8befa393-3872-493a-9a5d-6005d6827670","system_id":"levelo_inurba_marseille","lat":43.33716,"lon":5.39178,"is_reserved":false,"is_disabled":false,"rental_uris":{"android":"levelo://app?vid=8befa393-3872-493a-9a5d-6005d6827670","ios":"levelo://app?vid=8befa393-3872-493a-9a5d-6005d6827670"},"vehicle_type_id":"4","last_reported":1730988525,"current_range_meters":38400,"station_id":"ce4bhr92rcd13ifvqhsg","pricing_plan_id":"cebpf4jnsgd1na2vs0mg"},{"bike_id":"9fc49755-493e-4943-ba82-79480e8185c0","system_id":"levelo_inurba_marseille","lat":43.25498,"lon":5.37652,"is_reserved":false,"is_disabled":false,"rental_uris":{"android":"levelo://app?vid=9fc49755-493e-4943-ba82-79480e8185c0","ios":"levelo://app?vid=9fc49755-493e-4943-ba82-79480e8185c0"},"vehicle_type_id":"4","last_reported":1730988525,"current_range_meters":31200,"station_id":"ce4bhh12rcd13ifvqff0","pricing_plan_id":"cebpf4jnsgd1na2vs0mg"},{"bike_id":"3849e2c7-006f-4b98-8d2e-5ac2da9bb9e2","system_id":"levelo_inurba_marseille","lat":43.26209,"lon":5.37442,"is_reserved":false,"is_disabled":false,"rental_uris":{"android":"levelo://app?vid=3849e2c7-006f-4b98-8d2e-5ac2da9bb9e2","ios":"levelo://app?vid=3849e2c7-006f-4b98-8d2e-5ac2da9bb9e2"},"vehicle_type_id":"4","last_reported":1730988525,"current_range_meters":14800,"station_id":"ce4bhgp2rcd13ifvqfc0","pricing_plan_id":"cebpf4jnsgd1na2vs0mg"},{"bike_id":"164d2af1-ca60-47d4-9935-4e56683dd060","system_id":"levelo_inurba_marseille","lat":43.34141,"lon":5.409,"is_reserved":false,"is_disabled":false,"rental_uris":{"android":"levelo://app?vid=164d2af1-ca60-47d4-9935-4e56683dd060","ios":"levelo://app?vid=164d2af1-ca60-47d4-9935-4e56683dd060"},"vehicle_type_id":"4","last_reported":1730988525,"current_range_meters":28400,"station_id":"ce4bhqh2rcd13ifvqhlg","pricing_plan_id":"cebpf4jnsgd1na2vs0mg"},{"bike_id":"a5a00f9c-7ea2-40bb-8d4b-adb5c6602cc5","system_id":"levelo_inurba_marseille","lat":43.288492,"lon":5.393033,"is_reserved":false,"is_disabled":false,"rental_uris":{"android":"levelo://app?vid=a5a00f9c-7ea2-40bb-8d4b-adb5c6602cc5","ios":"levelo://app?vid=a5a00f9c-7ea2-40bb-8d4b-adb5c6602cc5"},"vehicle_type_id":"4","last_reported":1730988525,"current_range_meters":32000,"station_id":"ce4bh2p2rcd13ifvqdi0","pricing_plan_id":"cebpf4jnsgd1na2vs0mg"},{"bike_id":"c5aff4f4-4452-4f7b-9855-a52a5e05b4ad","system_id":"levelo_inurba_marseille","lat":43.27995,"lon":5.41674,"is_reserved":false,"is_disabled":false,"rental_uris":{"android":"levelo://app?vid=c5aff4f4-4452-4f7b-9855-a52a5e05b4ad","ios":"levelo://app?vid=c5aff4f4-4452-4f7b-9855-a52a5e05b4ad"},"vehicle_type_id":"4","last_reported":1730988525,"current_range_meters":39200,"station_id":"ce4bho12rcd13ifvqh1g","pricing_plan_id":"cebpf4jnsgd1na2vs0mg"},{"bike_id":"8275bbc5-cf35-405a-965c-9ba13eb76b4d","system_id":"levelo_inurba_marseille","lat":43.28859,"lon":5.39321,"is_reserved":false,"is_disabled":false,"rental_uris":{"android":"levelo://app?vid=8275bbc5-cf35-405a-965c-9ba13eb76b4d","ios":"levelo://app?vid=8275bbc5-cf35-405a-965c-9ba13eb76b4d"},"vehicle_type_id":"4","last_reported":1730988525,"current_range_meters":36800,"station_id":"ce4bh2p2rcd13ifvqdi0","pricing_plan_id":"cebpf4jnsgd1na2vs0mg"},{"bike_id":"e822e0c9-24dc-4dc5-b15d-8ba138d409d7","system_id":"levelo_inurba_marseille","lat":43.29915,"lon":5.37478,"is_reserved":false,"is_disabled":false,"rental_uris":{"android":"levelo://app?vid=e822e0c9-24dc-4dc5-b15d-8ba138d409d7","ios":"levelo://app?vid=e822e0c9-24dc-4dc5-b15d-8ba138d409d7"},"vehicle_type_id":"4","last_reported":1730988525,"current_range_meters":38800,"station_id":"ce4bgjh2rcd13ifvqbg0","pricing_plan_id":"cebpf4jnsgd1na2vs0mg"},{"bike_id":"b3dd1567-9a9b-4fe0-b77b-bb3d76f4e917","system_id":"levelo_inurba_marseille","lat":43.297754,"lon":5.403892,"is_reserved":false,"is_disabled":false,"rental_uris":{"android":"levelo://app?vid=b3dd1567-9a9b-4fe0-b77b-bb3d76f4e917","ios":"levelo://app?vid=b3dd1567-9a9b-4fe0-b77b-bb3d76f4e917"},"vehicle_type_id":"4","last_reported":1730988525,"current_range_meters":38000,"station_id":"ce4bh112rcd13ifvqd90","pricing_plan_id":"cebpf4jnsgd1na2vs0mg"},{"bike_id":"0e0aa953-ce04-478d-bf26-e5f223f30f5e","system_id":"levelo_inurba_marseille","lat":43.305362,"lon":5.365273,"is_reserved":false,"is_disabled":false,"rental_uris":{"android":"levelo://app?vid=0e0aa953-ce04-478d-bf26-e5f223f30f5e","ios":"levelo://app?vid=0e0aa953-ce04-478d-bf26-e5f223f30f5e"},"vehicle_type_id":"4","last_reported":1730988525,"current_range_meters":39200,"station_id":"ce4bgs12rcd13ifvqcag","pricing_plan_id":"cebpf4jnsgd1na2vs0mg"},{"bike_id":"aa264c45-b748-4aa5-8bff-887e8eea0f78","system_id":"levelo_inurba_marseille","lat":43.29975,"lon":5.37188,"is_reserved":false,"is_disabled":false,"rental_uris":{"android":"levelo://app?vid=aa264c45-b748-4aa5-8bff-887e8eea0f78","ios":"levelo://app?vid=aa264c45-b748-4aa5-8bff-887e8eea0f78"},"vehicle_type_id":"4","last_reported":1730988525,"current_range_meters":38800,"station_id":"ce4bgr92rcd13ifvqc7g","pricing_plan_id":"cebpf4jnsgd1na2vs0mg"},{"bike_id":"bd6dfbb3-bbb8-42f8-a208-837fc6a936a1","system_id":"levelo_inurba_marseille","lat":43.33022,"lon":5.39038,"is_reserved":false,"is_disabled":false,"rental_uris":{"android":"levelo://app?vid=bd6dfbb3-bbb8-42f8-a208-837fc6a936a1","ios":"levelo://app?vid=bd6dfbb3-bbb8-42f8-a208-837fc6a936a1"},"vehicle_type_id":"4","last_reported":1730988525,"current_range_meters":21600,"station_id":"ce4bhr92rcd13ifvqhrg","pricing_plan_id":"cebpf4jnsgd1na2vs0mg"},{"bike_id":"e42dd4c8-e95b-41bb-85eb-5f35636fee1e","system_id":"levelo_inurba_marseille","lat":43.29871,"lon":5.39738,"is_reserved":false,"is_disabled":false,"rental_uris":{"android":"levelo://app?vid=e42dd4c8-e95b-41bb-85eb-5f35636fee1e","ios":"levelo://app?vid=e42dd4c8-e95b-41bb-85eb-5f35636fee1e"},"vehicle_type_id":"4","last_reported":1730988525,"current_range_meters":38400,"station_id":"ce4bh0h2rcd13ifvqd50","pricing_plan_id":"cebpf4jnsgd1na2vs0mg"},