{"last_updated":1762333984,"ttl":60,"version":"2.2","data":{"bikes":[{"bike_id":"b7c5e96f-2666-418c-b8cc-36dfc613348c","system_id":"levelo_inurba_marseille","lat":43.337444,"lon":5.374475,"is_reserved":false,"is_disabled":false,"rental_uris":{"android":"levelo://app?vid=b7c5e96f-2666-418c-b8cc-36dfc613348c","ios":"levelo://app?vid=b7c5e96f-2666-418c-b8cc-36dfc613348c"},"vehicle_type_id":"4","last_reported":1762333984,"current_range_meters":0,"station_id":"","pricing_plan_id":"cebpf4jnsgd1na2vs0mg"},{"bike_id":"9c46a9f5-39cb-461a-ac28-286dc216524b","system_id":"levelo_inurba_marseille","lat":43.337444,"lon":5.374475,"is_reserved":false,"is_disabled":false,"rental_uris":{"android":"levelo://app?vid=9c46a9f5-39cb-461a-ac28-286dc216524b","ios":"levelo://app?vid=9c46a9f5-39cb-461a-ac28-286dc216524b"},"vehicle_type_id":"4","last_reported":1762333984,"current_range_meters":0,"station_id":"","pricing_plan_id":"cebpf4jnsgd1na2vs0mg"},{"bike_id":"2aa95e42-5a8c-4825-81d0-40d356e0168e","system_id":"levelo_inurba_marseille","lat":43.337444,"lon":5.374475,"is_reserved":false,"is_disabled":false,"rental_uris":{"android":"levelo://app?vid=2aa95e42-5a8c-4825-81d0-40d356e0168e","ios":"levelo://app?vid=2aa95e42-5a8c-4825-81d0-40d356e0168e"},"vehicle_type_id":"4","last_reported":1762333984,"current_range_meters":0,"station_id":"","pricing_plan_id":"cebpf4jnsgd1na2vs0mg"},{"bike_id":"23f7c00c-abd3-4b9e-b454-b625ef68ddce","system_id":"levelo_inurba_marseille","lat":43.337444,"lon":5.374475,"is_reserved":false,"is_disabled":false,"rental_uris":{"android":"levelo://app?vid=23f7c00c-abd3-4b9e-b454-b625ef68ddce","ios":"levelo://app?vid=23f7c00c-abd3-4b9e-b454-b625ef68ddce"},"vehicle_type_id":"4","last_reported":1762333984,"current_range_meters":0,"station_id":"","pricing_plan_id":"cebpf4jnsgd1na2vs0mg"},{"bike_id":"a3451d83-9c80-4ffa-96f9-a14c25634465","system_id":"levelo_inurba_marseille","lat":43.337444,"lon":5.374475,"is_reserved":false,"is_disabled":false,"rental_uris":{"android":"levelo://app?vid=a3451d83-9c80-4ffa-96f9-a14c25634465","ios":"levelo://app?vid=a3451d83-9c80-4ffa-96f9-a14c25634465"},"vehicle_type_id":"4","last_reported":1762333984,"current_range_meters":0,"station_id":"","pricing_plan_id":"cebpf4jnsgd1na2vs0mg"},{"bike_id":"19649598-fd0f-4237-a302-8b748132eb30","system_id":"levelo_inurba_marseille","lat":43.337444,"lon":5.374475,"is_reserved":false,"is_disabled":false,"rental_uris":{"android":"levelo://app?vid=19649598-fd0f-4237-a302-8b748132eb30","ios":"levelo://app?vid=19649598-fd0f-4237-a302-8b748132eb30"},"vehicle_type_id":"4","last_reported":1762333984,"current_range_meters":0,"station_id":"","pricing_plan_id":"cebpf4jnsgd1na2vs0mg"},{"bike_id":"79f0199f-1fbb-40b2-9337-191d82b520a7","system_id":"levelo_inurba_marseille","lat":43.337444,"lon":5.374475,"is_reserved":false,"is_disabled":false,"rental_uris":{"android":"levelo://app?vid=79f0199f-1fbb-40b2-9337-191d82b520a7","ios":"levelo://app?vid=79f0199f-1fbb-40b2-9337-191d82b520a7"},"vehicle_type_id":"4","last_reported":1762333984,"current_range_meters":0,"station_id":"","pricing_plan_id":"cebpf4jnsgd1na2vs0mg"},{"bike_id":"34a0d96e-bbf5-4ab6-8de8-a56cc767fd57","system_id":"levelo_inurba_marseille","lat":43.337444,"lon":5.374475,"is_reserved":false,"is_disabled":false,"rental_uris":{"android":"levelo://app?vid=34a0d96e-bbf5-4ab6-8de8-a56cc767fd57","ios":"levelo://app?vid=34a0d96e-bbf5-4ab6-8de8-a56cc767fd57"},"vehicle_type_id":"4","last_reported":1762333984,"current_range_meters":0,"station_id":"","pricing_plan_id":"cebpf4jnsgd1na2vs0mg"},{"bike_id":"30c4756b-2e3a-4ac9-b1fb-aa08283eecaa","system_id":"levelo_inurba_marseille","lat":43.337444,"lon":5.374475,"is_reserved":false,"is_disabled":false,"rental_uris":{"android":"levelo://app?vid=30c4756b-2e3a-4ac9-b1fb-aa08283eecaa","ios":"levelo://app?vid=30c4756b-2e3a-4ac9-b1fb-aa08283eecaa"},"vehicle_type_id":"4","last_reported":1762333984,"current_range_meters":0,"station_id":"","pricing_plan_id":"cebpf4jnsgd1na2vs0mg"},{"bike_id":"cb5b6ee7-3ef8-4299-a38d-cc32f035098b","system_id":"levelo_inurba_marseille","lat":43.337444,"lon":5.374475,"is_reserved":false,"is_disabled":false,"rental_uris":{"android":"levelo://app?vid=cb5b6ee7-3ef8-4299-a38d-cc32f035098b","ios":"levelo://app?vid=cb5b6ee7-3ef8-4299-a38d-cc32f035098b"},"vehicle_type_id":"4","last_reported":1762333984,"current_range_meters":0,"station_id":"","pricing_plan_id":"cebpf4jnsgd1na2vs0mg"},{"bike_id":"0dbf8834-1963-4427-879a-60d5139a1252","system_id":"levelo_inurba_marseille","lat":43.337444,"lon":5.374475,"is_reserved":false,"is_disabled":false,"rental_uris":{"android":"levelo://app?vid=0dbf8834-1963-4427-879a-60d5139a1252","ios":"levelo://app?vid=0dbf8834-1963-4427-879a-60d5139a1252"},"vehicle_type_id":"4","last_reported":1762333984,"current_range_meters":0,"station_id":"","pricing_plan_id":"cebpf4jnsgd1na2vs0mg"},{"bike_id":"c3d3ce5c-8075-4b42-9455-beadd1468f17","system_id":"levelo_inurba_marseille","lat":43.337444,"lon":5.374475,"is_reserved":false,"is_disabled":false,"rental_uris":{"android":"levelo://app?vid=c3d3ce5c-8075-4b42-9455-beadd1468f17","ios":"levelo://app?vid=c3d3ce5c-8075-4b42-9455-beadd1468f17"},"vehicle_type_id":"4","last_reported":1762333984,"current_range_meters":0,"station_id":"","pricing_plan_id":"cebpf4jnsgd1na2vs0mg"},{"bike_id":"2177a091-7ad7-4fcd-ad08-e78406d1a8ef","system_id":"levelo_inurba_marseille","lat":43.337444,"lon":5.374475,"is_reserved":false,"is_disabled":false,"rental_uris":{"android":"levelo://app?vid=2177a091-7ad7-4fcd-ad08-e78406d1a8ef","ios":"levelo://app?vid=2177a091-7ad7-4fcd-ad08-e78406d1a8ef"},"vehicle_type_id":"4","last_reported":1762333984,"current_range_meters":0,"station_id":"","pricing_plan_id":"cebpf4jnsgd1na2vs0mg"},{"bike_id":"ed2dc6ad-7a96-47d2-b4d0-3deee38fd62c","system_id":"levelo_inurba_marseille","lat":43.337444,"lon":5.374475,"is_reserved":false,"is_disabled":false,"rental_uris":{"android":"levelo://app?vid=ed2dc6ad-7a96-47d2-b4d0-3deee38fd62c","ios":"levelo://app?vid=ed2dc6ad-7a96-47d2-b4d0-3deee38fd62c"},"vehicle_type_id":"4","last_reported":1762333984,"current_range_meters":0,"station_id":"","pricing_plan_id":"cebpf4jnsgd1na2vs0mg"},{"bike_id":"42735ee1-244b-4d96-8480-f9806199924f","system_id":"levelo_inurba_marseille","lat":43.337444,"lon":5.374475,"is_reserved":false,"is_disabled":false,"rental_uris":{"android":"levelo://app?vid=42735ee1-244b-4d96-8480-f9806199924f","ios":"levelo://app?vid=42735ee1-244b-4d96-8480-f9806199924f"},"vehicle_type_id":"4","last_reported":1762333984,"current_range_meters":0,"station_id":"","pricing_plan_id":"cebpf4jnsgd1na2vs0mg"},{"bike_id":"0d7ab61a-02ec-456f-ab23-ba92f34594d5","system_id":"levelo_inurba_marseille","lat":43.337444,"lon":5.374475,"is_reserved":false,"is_disabled":false,"rental_uris":{"android":"levelo://app?vid=0d7ab61a-02ec-456f-ab23-ba92f34594d5","ios":"levelo://app?vid=0d7ab61a-02ec-456f-ab23-ba92f34594d5"},"vehicle_type_id":"4","last_reported":1762333984,"current_range_meters":0,"station_id":"","pricing_plan_id":"cebpf4jnsgd1na2vs0mg"},{"bike_id":"f68022fa-eb0a-4aac-8aea-6f2e14d0afb9","system_id":"levelo_inurba_marseille","lat":43.337444,"lon":5.374475,"is_reserved":false,"is_disabled":false,"rental_uris":{"android":"levelo://app?vid=f68022fa-eb0a-4aac-8aea-6f2e14d0afb9","ios":"levelo://app?vid=f68022fa-eb0a-4aac-8aea-6f2e14d0afb9"},"vehicle_type_id":"4","last_reported":1762333984,"current_range_meters":0,"station_id":"","pricing_plan_id":"cebpf4jnsgd1na2vs0mg"},{"bike_id":"386a9781-f1f4-4d33-8679-4d1163c3b9de","system_id":"levelo_inurba_marseille","lat":43.337444,"lon":5.374475,"is_reserved":false,"is_disabled":false,"rental_uris":{"android":"levelo://app?vid=386a9781-f1f4-4d33-8679-4d1163c3b9de","ios":"levelo://app?vid=386a9781-f1f4-4d33-8679-4d1163c3b9de"},"vehicle_type_id":"4","last_reported":1762333984,"current_range_meters":0,"station_id":"","pricing_plan_id":"cebpf4jnsgd1na2vs0mg"},{"bike_id":"4692d694-8a80-47c7-a7c6-1264ca94c6df","system_id":"levelo_inurba_marseille","lat":43.337444,"lon":5.374475,"is_reserved":false,"is_disabled":false,"rental_uris":{"android":"levelo://app?vid=4692d694-8a80-47c7-a7c6-1264ca94c6df","ios":"levelo://app?vid=4692d694-8a80-47c7-a7c6-1264ca94c6df"},"vehicle_type_id":"4","last_reported":1762333984,"current_range_meters":0,"station_id":"","pricing_plan_id":"cebpf4jnsgd1na2vs0mg"},{"bike_id":"4706d18d-408c-4dc1-a44f-b0f99f27bdf0","system_id":"levelo_inurba_marseille","lat":43.337444,"lon":5.374475,"is_reserved":false,"is_disabled":false,"rental_uris":{"android":"levelo://app?vid=4706d18d-408c-4dc1-a44f-b0f99f27bdf0","ios":"levelo://app?vid=4706d18d-408c-4dc1-a44f-b0f99f27bdf0"},"vehicle_type_id":"4","last_reported":1762333984,"current_range_meters":0,"station_id":"","pricing_plan_id":"cebpf4jnsgd1na2vs0mg"},{"bike_id":"abb77335-fe7b-4b75-9b2f-be4bb45cbb0d","system_id":"levelo_inurba_marseille","lat":43.337444,"lon":5.374475,"is_reserved":false,"is_disabled":false,"rental_uris":{"android":"levelo://app?vid=abb77335-fe7b-4b75-9b2f-be4bb45cbb0d","ios":"levelo://app?vid=abb77335-fe7b-4b75-9b2f-be4bb45cbb0d"},"vehicle_type_id":"4","last_reported":1762333984,"current_range_meters":0,"station_id":"","pricing_plan_id":"cebpf4jnsgd1na2vs0mg"},{"bike_id":"4bde9393-6919-41f3-8fef-f4b40f375cc0","system_id":"levelo_inurba_marseille","lat":43.337444,"lon":5.374475,"is_reserved":false,"is_disabled":false,"rental_uris":{"android":"levelo://app?vid=4bde9393-6919-41f3-8fef-f4b40f375cc0","ios":"levelo://app?vid=4bde9393-6919-41f3-8fef-f4b40f375cc0"},"vehicle_type_id":"4","last_reported":1762333984,"current_range_meters":0,"station_id":"","pricing_plan_id":"cebpf4jnsgd1na2vs0mg"},{"bike_id":"51f4e824-5009-4c5b-9283-cfda2d34404c","system_id":"levelo_inurba_marseille","lat":43.337444,"lon":5.374475,"is_reserved":false,"is_disabled":false,"rental_uris":{"android":"levelo://app?vid=51f4e824-5009-4c5b-9283-cfda2d34404c","ios":"levelo://app?vid=51f4e824-5009-4c5b-9283-cfda2d34404c"},"vehicle_type_id":"4","last_reported":1762333984,"current_range_meters":0,"station_id":"","pricing_plan_id":"cebpf4jnsgd1na2vs0mg"},{"bike_id":"d155d58c-f50a-4469-b126-b5af1b8d3f8a","system_id":"levelo_inurba_marseille","lat":43.337444,"lon":5.374475,"is_reserved":false,"is_disabled":false,"rental_uris":{"android":"levelo://app?vid=d155d58c-f50a-4469-b126-b5af1b8d3f8a","ios":"levelo://app?vid=d155d58c-f50a-4469-b126-b5af1b8d3f8a"},"vehicle_type_id":"4","last_reported":1762333984,"current_range_meters":0,"station_id":"","pricing_plan_id":"cebpf4jnsgd1na2vs0mg"},{"bike_id":"16f471c2-a8ed-4e61-ba2a-d83085a9c284","system_id":"levelo_inurba_marseille","lat":43.337444,"lon":5.374475,"is_reserved":false,"is_disabled":false,"rental_uris":{"android":"levelo://app?vid=16f471c2-a8ed-4e61-ba2a-d83085a9c284","ios":"levelo://app?vid=16f471c2-a8ed-4e61-ba2a-d83085a9c284"},"vehicle_type_id":"4","last_reported":1762333984,"current_range_meters":0,"station_id":"","pricing_plan_id":"cebpf4jnsgd1na2vs0mg"},{"bike_id":"b8bd4cc4-f519-43de-b194-2cc2cf75483c","system_id":"levelo_inurba_marseille","lat":43.337444,"lon":5.374475,"is_reserved":false,"is_disabled":false,"rental_uris":{"android":"levelo://app?vid=b8bd4cc4-f519-43de-b194-2cc2cf75483c","ios":"levelo://app?vid=b8bd4cc4-f519-43de-b194-2cc2cf75483c"},"vehicle_type_id":"4","last_reported":1762333984,"current_range_meters":0,"station_id":"","pricing_plan_id":"cebpf4jnsgd1na2vs0mg"},{"bike_id":"591b062c-0423-40a0-9120-f7c30f97e98f","system_id":"levelo_inurba_marseille","lat":43.337444,"lon":5.374475,"is_reserved":false,"is_disabled":false,"rental_uris":{"android":"levelo://app?vid=591b062c-0423-40a0-9120-f7c30f97e98f","ios":"levelo://app?vid=591b062c-0423-40a0-9120-f7c30f97e98f"},"vehicle_type_id":"4","last_reported":1762333984,"current_range_meters":0,"station_id":"","pricing_plan_id":"cebpf4jnsgd1na2vs0mg"},{"bike_id":"8fbb8d57-565e-4232-a867-846a316b3375","system_id":"levelo_inurba_marseille","lat":43.337444,"lon":5.374475,"is_reserved":false,"is_disabled":false,"rental_uris":{"android":"levelo://app?vid=8fbb8d57-565e-4232-a867-846a316b3375","ios":"levelo://app?vid=8fbb8d57-565e-4232-a867-846a316b3375"},"vehicle_type_id":"4","last_reported":1762333984,"current_range_meters":0,"station_id":"","pricing_plan_id":"cebpf4jnsgd1na2vs0mg"},{"bike_id":"e6134458-396f-46c5-87ab-a79cf2b6424c","system_id":"levelo_inurba_marseille","lat":43.337444,"lon":5.374475,"is_reserved":false,"is_disabled":false,"rental_uris":{"android":"levelo://app?vid=e6134458-396f-46c5-87ab-a79cf2b6424c","ios":"levelo://app?vid=e6134458-396f-46c5-87ab-a79cf2b6424c"},"vehicle_type_id":"4","last_reported":1762333984,"current_range_meters":0,"station_id":"","pricing_plan_id":"cebpf4jnsgd1na2vs0mg"},{"bike_id":"0a0d4295-fe5b-4614-b2ca-f5579d5190b0","system_id":"levelo_inurba_marseille","lat":43.337444,"lon":5.374475,"is_reserved":false,"is_disabled":false,"rental_uris":{"android":"levelo://app?vid=0a0d4295-fe5b-4614-b2ca-f5579d5190b0","ios":"levelo://app?vid=0a0d4295-fe5b-4614-b2ca-f5579d5190b0"},"vehicle_type_id":"4","last_reported":1762333984,"current_range_meters":0,"station_id":"","pricing_plan_id":"cebpf4jnsgd1na2vs0mg"},{"bike_id":"91dfed3f-615a-42b2-a64a-fe486533e0e1","system_id":"levelo_inurba_marseille","lat":43.31021,"lon":5.37532,"is_reserved":false,"is_disabled":false,"rental_uris":{"android":"levelo://app?vid=91dfed3f-615a-42b2-a64a-fe486533e0e1","ios":"levelo://app?vid=91dfed3f-615a-42b2-a64a-fe486533e0e1"},"vehicle_type_id":"4","last_reported":1762333984,"current_range_meters":2800,"station_id":"","pricing_plan_id":"cebpf4jnsgd1na2vs0mg"},{"bike_id":"0f5b83b7-6a87-462e-b8b4-5558011e2f85","system_id":"levelo_inurba_marseille","lat":43.33601,"lon":5.4103,"is_reserved":false,"is_disabled":false,"rental_uris":{"android":"levelo://app?vid=0f5b83b7-6a87-462e-b8b4-5558011e2f85","ios":"levelo://app?vid=0f5b83b7-6a87-462e-b8b4-5558011e2f85"},"vehicle_type_id":"4","last_reported":1762333984,"current_range_meters":3600,"station_id":"ce4bhqh2rcd13ifvqhmg","pricing_plan_id":"cebpf4jnsgd1na2vs0mg"},{"bike_id":"67842f6f-98fe-4358-b85e-7f04e0f0b59c","system_id":"levelo_inurba_marseille","lat":43.313499,"lon":5.379119,"is_reserved":false,"is_disabled":false,"rental_uris":{"android":"levelo://app?vid=67842f6f-98fe-4358-b85e-7f04e0f0b59c","ios":"levelo://app?vid=67842f6f-98fe-4358-b85e-7f04e0f0b59c"},"vehicle_type_id":"4","last_reported":1762333984,"current_range_meters":3600,"station_id":"","pricing_plan_id":"cebpf4jnsgd1na2vs0mg"},{"bike_id":"f0b14cfe-60b3-4573-80a3-1d31373cc742","system_id":"levelo_inurba_marseille","lat":43.27212,"lon":5.391857,"is_reserved":false,"is_disabled":false,"rental_uris":{"android":"levelo://app?vid=f0b14cfe-60b3-4573-80a3-1d31373cc742","ios":"levelo://app?vid=f0b14cfe-60b3-4573-80a3-1d31373cc742"},"vehicle_type_id":"4","last_reported":1762333984,"current_range_meters":3600,"station_id":"ce4bhhp2rcd13ifvqfm0","pricing_plan_id":"cebpf4jnsgd1na2vs0mg"},{"bike_id":"fa03f619-3a46-4a47-92d6-4e4b6a15922a","system_id":"levelo_inurba_marseille","lat":43.29269,"lon":5.40168,"is_reserved":false,"is_disabled":true,"rental_uris":{"android":"levelo://app?vid=fa03f619-3a46-4a47-92d6-4e4b6a15922a","ios":"levelo://app?vid=fa03f619-3a46-4a47-92d6-4e4b6a15922a"},"vehicle_type_id":"4","last_reported":1762333984,"current_range_meters":3600,"station_id":"ce4bh312rcd13ifvqdk0","pricing_plan_id":"cebpf4jnsgd1na2vs0mg"},{"bike_id":"4206fd1c-fca5-4468-81b6-1c50d2a4a589","system_id":"levelo_inurba_marseille","lat":43.29802,"lon":5.43839,"is_reserved":false,"is_disabled":false,"rental_uris":{"android":"levelo://app?vid=4206fd1c-fca5-4468-81b6-1c50d2a4a589","ios":"levelo://app?vid=4206fd1c-fca5-4468-81b6-1c50d2a4a589"},"vehicle_type_id":"4","last_reported":1762333984,"current_range_meters":4000,"station_id":"","pricing_plan_id":"cebpf4jnsgd1na2vs0mg"},{"bike_id":"2d1aab64-9618-4d27-a397-cc24ad98d6bf","system_id":"levelo_inurba_marseille","lat":43.28931,"lon":5.36393,"is_reserved":false,"is_disabled":false,"rental_uris":{"android":"levelo://app?vid=2d1aab64-9618-4d27-a397-cc24ad98d6bf","ios":"levelo://app?vid=2d1aab64-9618-4d27-a397-cc24ad98d6bf"},"vehicle_type_id":"4","last_reported":1762333984,"current_range_meters":4000,"station_id":"ce4bhc92rcd13ifvqetg","pricing_plan_id":"cebpf4jnsgd1na2vs0mg"},{"bike_id":"e316d8c0-567f-4794-97db-615dfaa55771","system_id":"levelo_inurba_marseille","lat":43.29539,"lon":5.37517,"is_reserved":false,"is_disabled":true,"rental_uris":{"android":"levelo://app?vid=e316d8c0-567f-4794-97db-615dfaa55771","ios":"levelo://app?vid=e316d8c0-567f-4794-97db-615dfaa55771"},"vehicle_type_id":"4","last_reported":1762333984,"current_range_meters":4000,"station_id":"ce4bgkp2rcd13ifvqbmg","pricing_plan_id":"cebpf4jnsgd1na2vs0mg"},{"bike_id":"4d26efef-9580-44a9-86de-4e8de129a52b","system_id":"levelo_inurba_marseille","lat":43.27614,"lon":5.36111,"is_reserved":false,"is_disabled":false,"rental_uris":{"android":"levelo://app?vid=4d26efef-9580-44a9-86de-4e8de129a52b","ios":"levelo://app?vid=4d26efef-9580-44a9-86de-4e8de129a52b"},"vehicle_type_id":"4","last_reported":1762333984,"current_range_meters":4000,"station_id":"ce4bgj92rcd13ifvqbe0","pricing_plan_id":"cebpf4jnsgd1na2vs0mg"},{"bike_id":"195df65e-b4c7-44b5-87b9-50c7ec536152","system_id":"levelo_inurba_marseille","lat":43.265507,"lon":5.372867,"is_reserved":false,"is_disabled":false,"rental_uris":{"android":"levelo://app?vid=195df65e-b4c7-44b5-87b9-50c7ec536152","ios":"levelo://app?vid=195df65e-b4c7-44b5-87b9-50c7ec536152"},"vehicle_type_id":"4","last_reported":1762333984,"current_range_meters":4000,"station_id":"ce4bhg12rcd13ifvqf70","pricing_plan_id":"cebpf4jnsgd1na2vs0mg"},{"bike_id":"906969f5-74c6-45de-b10a-c4b1f067c4f6","system_id":"levelo_inurba_marseille","lat":43.29906,"lon":5.3814,"is_reserved":false,"is_disabled":false,"rental_uris":{"android":"levelo://app?vid=906969f5-74c6-45de-b10a-c4b1f067c4f6","ios":"levelo://app?vid=906969f5-74c6-45de-b10a-c4b1f067c4f6"},"vehicle_type_id":"4","last_reported":1762333984,"current_range_meters":4000,"station_id":"ce4bgj12rcd13ifvqbc0","pricing_plan_id":"cebpf4jnsgd1na2vs0mg"},{"bike_id":"baae2ea3-aa17-4557-9ce0-e706321e6b0b","system_id":"levelo_inurba_marseille","lat":43.31239,"lon":5.36835,"is_reserved":false,"is_disabled":false,"rental_uris":{"android":"levelo://app?vid=baae2ea3-aa17-4557-9ce0-e706321e6b0b","ios":"levelo://app?vid=baae2ea3-aa17-4557-9ce0-e706321e6b0b"},"vehicle_type_id":"4","last_reported":1762333984,"current_range_meters":4400,"station_id":"ce4bgl92rcd13ifvqbq0","pricing_plan_id":"cebpf4jnsgd1na2vs0mg"},{"bike_id":"3fff9ed6-b883-45c3-b97c-e1c1e8fd4ca2","system_id":"levelo_inurba_marseille","lat":43.285364,"lon":5.440939,"is_reserved":false,"is_disabled":false,"rental_uris":{"android":"levelo://app?vid=3fff9ed6-b883-45c3-b97c-e1c1e8fd4ca2","ios":"levelo://app?vid=3fff9ed6-b883-45c3-b97c-e1c1e8fd4ca2"},"vehicle_type_id":"4","last_reported":1762333984,"current_range_meters":4400,"station_id":"st_d3j3df2ikq2c7380ej80","pricing_plan_id":"cebpf4jnsgd1na2vs0mg"},{"bike_id":"40d803c3-7558-46e1-a94e-a58f396f1e49","system_id":"levelo_inurba_marseille","lat":43.29631,"lon":5.40592,"is_reserved":false,"is_disabled":false,"rental_uris":{"android":"levelo://app?vid=40d803c3-7558-46e1-a94e-a58f396f1e49","ios":"levelo://app?vid=40d803c3-7558-46e1-a94e-a58f396f1e49"},"vehicle_type_id":"4","last_reported":1762333984,"current_range_meters":4400,"station_id":"ce4bh0h2rcd13ifvqd60","pricing_plan_id":"cebpf4jnsgd1na2vs0mg"},{"bike_id":"76ae99b8-b243-4465-9690-1947de69f378","system_id":"levelo_inurba_marseille","lat":43.25504,"lon":5.37644,"is_reserved":false,"is_disabled":false,"rental_uris":{"android":"levelo://app?vid=76ae99b8-b243-4465-9690-1947de69f378","ios":"levelo://app?vid=76ae99b8-b243-4465-9690-1947de69f378"},"vehicle_type_id":"4","last_reported":1762333984,"current_range_meters":4800,"station_id":"ce4bhh12rcd13ifvqff0","pricing_plan_id":"cebpf4jnsgd1na2vs0mg"},{"bike_id":"2e8af0c8-f098-4cb5-b2de-c78973a0957e","system_id":"levelo_inurba_marseille","lat":43.27838,"lon":5.39206,"is_reserved":false,"is_disabled":false,"rental_uris":{"android":"levelo://app?vid=2e8af0c8-f098-4cb5-b2de-c78973a0957e","ios":"levelo://app?vid=2e8af0c8-f098-4cb5-b2de-c78973a0957e"},"vehicle_type_id":"4","last_reported":1762333984,"current_range_meters":4800,"station_id":"ce4bhjp2rcd13ifvqga0","pricing_plan_id":"cebpf4jnsgd1na2vs0mg"},{"bike_id":"b7274164-d104-4569-8e8d-d56b2a397565","system_id":"levelo_inurba_marseille","lat":43.28489,"lon":5.48382,"is_reserved":false,"is_disabled":false,"rental_uris":{"android":"levelo://app?vid=b7274164-d104-4569-8e8d-d56b2a397565","ios":"levelo://app?vid=b7274164-d104-4569-8e8d-d56b2a397565"},"vehicle_type_id":"4","last_reported":1762333984,"current_range_meters":4800,"station_id":"st_d3svhcjqgbts73a3dn0g","pricing_plan_id":"cebpf4jnsgd1na2vs0mg"},{"bike_id":"f438d69e-3d42-4bc8-90a5-4882f256900b","system_id":"levelo_inurba_marseille","lat":43.29278,"lon":5.36841,"is_reserved":false,"is_disabled":false,"rental_uris":{"android":"levelo://app?vid=f438d69e-3d42-4bc8-90a5-4882f256900b","ios":"levelo://app?vid=f438d69e-3d42-4bc8-90a5-4882f256900b"},"vehicle_type_id":"4","last_reported":1762333984,"current_range_meters":4800,"station_id":"ce4bhbp2rcd13ifvqesg","pricing_plan_id":"cebpf4jnsgd1na2vs0mg"},{"bike_id":"6b584dfc-9ae5-43a1-9b6e-c68f93817c95","system_id":"levelo_inurba_marseille","lat":43.2794,"lon":5.41049,"is_reserved":false,"is_disabled":false,"rental_uris":{"android":"levelo://app?vid=6b584dfc-9ae5-43a1-9b6e-c68f93817c95","ios":"levelo://app?vid=6b584dfc-9ae5-43a1-9b6e-c68f93817c95"},"vehicle_type_id":"4","last_reported":1762333984,"current_range_meters":5600,"station_id":"ce4bhnp2rcd13ifvqh0g","pricing_plan_id":"cebpf4jnsgd1na2vs0mg"},{"bike_id":"11d40e71-4ca5-48fa-8510-84cd0e14098e","system_id":"levelo_inurba_marseille","lat":43.23195,"lon":5.35538,"is_reserved":false,"is_disabled":false,"rental_uris":{"android":"levelo://app?vid=11d40e71-4ca5-48fa-8510-84cd0e14098e","ios":"levelo://app?vid=11d40e71-4ca5-48fa-8510-84cd0e14098e"},"vehicle_type_id":"4","last_reported":1762333984,"current_range_meters":5600,"station_id":"ce4bhu92rcd13ifvqi70","pricing_plan_id":"cebpf4jnsgd1na2vs0mg"},{"bike_id":"b2439e5f-60b7-4fa5-83b5-02acc9a17028","system_id":"levelo_inurba_marseille","lat":43.28724,"lon":5.37941,"is_reserved":false,"is_disabled":false,"rental_uris":{"android":"levelo://app?vid=b2439e5f-60b7-4fa5-83b5-02acc9a17028","ios":"levelo://app?vid=b2439e5f-60b7-4fa5-83b5-02acc9a17028"},"vehicle_type_id":"4","last_reported":1762333984,"current_range_meters":5600,"station_id":"ce4bh9p2rcd13ifvqec0","pricing_plan_id":"cebpf4jnsgd1na2vs0mg"},{"bike_id":"f9ed55fe-5c18-4aac-95b2-748b671abdc6","system_id":"levelo_inurba_marseille","lat":43.25922,"lon":5.40894,"is_reserved":false,"is_disabled":true,"rental_uris":{"android":"levelo://app?vid=f9ed55fe-5c18-4aac-95b2-748b671abdc6","ios":"levelo://app?vid=f9ed55fe-5c18-4aac-95b2-748b671abdc6"},"vehicle_type_id":"4","last_reported":1762333984,"current_range_meters":5600,"station_id":"ce4bhm92rcd13ifvqglg","pricing_plan_id":"cebpf4jnsgd1na2vs0mg"},{"bike_id":"e74de763-a965-40f6-9155-0d9ea263dd83","system_id":"levelo_inurba_marseille","lat":43.30949,"lon":5.39038,"is_reserved":false,"is_disabled":false,"rental_uris":{"android":"levelo://app?vid=e74de763-a965-40f6-9155-0d9ea263dd83","ios":"levelo://app?vid=e74de763-a965-40f6-9155-0d9ea263dd83"},"vehicle_type_id":"4","last_reported":1762333984,"current_range_meters":5600,"station_id":"ce4bgup2rcd13ifvqco0","pricing_plan_id":"cebpf4jnsgd1na2vs0mg"},{"bike_id":"89a288b2-e942-4979-9566-fa0b8e71c907","system_id":"levelo_inurba_marseille","lat":43.29029,"lon":5.38641,"is_reserved":false,"is_disabled":false,"rental_uris":{"android":"levelo://app?vid=89a288b2-e942-4979-9566-fa0b8e71c907","ios":"levelo://app?vid=89a288b2-e942-4979-9566-fa0b8e71c907"},"vehicle_type_id":"4","last_reported":1762333984,"current_range_meters":6000,"station_id":"ce4bh4p2rcd13ifvqe0g","pricing_plan_id":"cebpf4jnsgd1na2vs0mg"},{"bike_id":"b8cbf908-2c20-49fd-951e-6deb89573ac9","system_id":"levelo_inurba_marseille","lat":43.3053,"lon":5.36555,"is_reserved":false,"is_disabled":false,"rental_uris":{"android":"levelo://app?vid=b8cbf908-2c20-49fd-951e-6deb89573ac9","ios":"levelo://app?vid=b8cbf908-2c20-49fd-951e-6deb89573ac9"},"vehicle_type_id":"4","last_reported":1762333984,"current_range_meters":6000,"station_id":"ce4bgs12rcd13ifvqcag","pricing_plan_id":"cebpf4jnsgd1na2vs0mg"},{"bike_id":"99b78299-1744-4856-acb3-c9e8ecba9610","system_id":"levelo_inurba_marseille","lat":43.28355,"lon":5.38099,"is_reserved":false,"is_disabled":false,"rental_uris":{"android":"levelo://app?vid=99b78299-1744-4856-acb3-c9e8ecba9610","ios":"levelo://app?vid=99b78299-1744-4856-acb3-c9e8ecba9610"},"vehicle_type_id":"4","last_reported":1762333984,"current_range_meters":6000,"station_id":"ce4bh412rcd13ifvqdr0","pricing_plan_id":"cebpf4jnsgd1na2vs0mg"},{"bike_id":"28b85111-1e3c-4e94-9d4a-5a837507bfee","system_id":"levelo_inurba_marseille","lat":43.29723,"lon":5.42648,"is_reserved":false,"is_disabled":false,"rental_uris":{"android":"levelo://app?vid=28b85111-1e3c-4e94-9d4a-5a837507bfee","ios":"levelo://app?vid=28b85111-1e3c-4e94-9d4a-5a837507bfee"},"vehicle_type_id":"4","last_reported":1762333984,"current_range_meters":6400,"station_id":"","pricing_plan_id":"cebpf4jnsgd1na2vs0mg"},{"bike_id":"49f13488-3a94-4c31-8203-2445daaa2d09","system_id":"levelo_inurba_marseille","lat":43.283346,"lon":5.398162,"is_reserved":false,"is_disabled":false,"rental_uris":{"android":"levelo://app?vid=49f13488-3a94-4c31-8203-2445daaa2d09","ios":"levelo://app?vid=49f13488-3a94-4c31-8203-2445daaa2d09"},"vehicle_type_id":"4","last_reported":1762333984,"current_range_meters":6400,"station_id":"","pricing_plan_id":"cebpf4jnsgd1na2vs0mg"},{"bike_id":"8f844a6f-5730-4155-b202-3075f42ae182","system_id":"levelo_inurba_marseille","lat":43.31358,"lon":5.38491,"is_reserved":false,"is_disabled":false,"rental_uris":{"android":"levelo://app?vid=8f844a6f-5730-4155-b202-3075f42ae182","ios":"levelo://app?vid=8f844a6f-5730-4155-b202-3075f42ae182"},"vehicle_type_id":"4","last_reported":1762333984,"current_range_meters":6400,"station_id":"ce4bgt92rcd13ifvqcf0","pricing_plan_id":"cebpf4jnsgd1na2vs0mg"},{"bike_id":"b2edbec7-9959-4a3c-90f0-6e77723c6b7d","system_id":"levelo_inurba_marseille","lat":43.317291,"lon":5.424062,"is_reserved":false,"is_disabled":false,"rental_uris":{"android":"levelo://app?vid=b2edbec7-9959-4a3c-90f0-6e77723c6b7d","ios":"levelo://app?vid=b2edbec7-9959-4a3c-90f0-6e77723c6b7d"},"vehicle_type_id":"4","last_reported":1762333984,"current_range_meters":6400,"station_id":"ce4bhp92rcd13ifvqhbg","pricing_plan_id":"cebpf4jnsgd1na2vs0mg"},{"bike_id":"341c8253-ea87-40d9-ac2c-0a0c2a78b5f4","system_id":"levelo_inurba_marseille","lat":43.29704,"lon":5.37695,"is_reserved":false,"is_disabled":false,"rental_uris":{"android":"levelo://app?vid=341c8253-ea87-40d9-ac2c-0a0c2a78b5f4","ios":"levelo://app?vid=341c8253-ea87-40d9-ac2c-0a0c2a78b5f4"},"vehicle_type_id":"4","last_reported":1762333984,"current_range_meters":6400,"station_id":"ce4bgkh2rcd13ifvqbl0","pricing_plan_id":"cebpf4jnsgd1na2vs0mg"},{"bike_id":"2a9f3f66-6cab-4774-86fd-de269055156c","system_id":"levelo_inurba_marseille","lat":43.29895,"lon":5.36277,"is_reserved":false,"is_disabled":false,"rental_uris":{"android":"levelo://app?vid=2a9f3f66-6cab-4774-86fd-de269055156c","ios":"levelo://app?vid=2a9f3f66-6cab-4774-86fd-de269055156c"},"vehicle_type_id":"4","last_reported":1762333984,"current_range_meters":6400,"station_id":"ce4bgpp2rcd13ifvqc3g","pricing_plan_id":"cebpf4jnsgd1na2vs0mg"},{"bike_id":"2463ae75-92d1-4c1f-a1c6-a55d98ec3bb0","system_id":"levelo_inurba_marseille","lat":43.23153,"lon":5.43714,"is_reserved":false,"is_disabled":false,"rental_uris":{"android":"levelo://app?vid=2463ae75-92d1-4c1f-a1c6-a55d98ec3bb0","ios":"levelo://app?vid=2463ae75-92d1-4c1f-a1c6-a55d98ec3bb0"},"vehicle_type_id":"4","last_reported":1762333984,"current_range_meters":6400,"station_id":"ce4bhmp2rcd13ifvqgog","pricing_plan_id":"cebpf4jnsgd1na2vs0mg"},{"bike_id":"eea94ffa-bf81-429f-bdc0-14e3cdce8da3","system_id":"levelo_inurba_marseille","lat":43.26575,"lon":5.39002,"is_reserved":false,"is_disabled":false,"rental_uris":{"android":"levelo://app?vid=eea94ffa-bf81-429f-bdc0-14e3cdce8da3","ios":"levelo://app?vid=eea94ffa-bf81-429f-bdc0-14e3cdce8da3"},"vehicle_type_id":"4","last_reported":1762333984,"current_range_meters":6400,"station_id":"ce4bhe12rcd13ifvqf30","pricing_plan_id":"cebpf4jnsgd1na2vs0mg"},{"bike_id":"aa245444-6a34-4efe-9949-e29bca990e53","system_id":"levelo_inurba_marseille","lat":43.21733,"lon":5.34591,"is_reserved":false,"is_disabled":false,"rental_uris":{"android":"levelo://app?vid=aa245444-6a34-4efe-9949-e29bca990e53","ios":"levelo://app?vid=aa245444-6a34-4efe-9949-e29bca990e53"},"vehicle_type_id":"4","last_reported":1762333984,"current_range_meters":6800,"station_id":"st_cvj6r9ubvosntc0bgbag","pricing_plan_id":"cebpf4jnsgd1na2vs0mg"},{"bike_id":"610496fb-dd48-4b87-b9d3-9e79312f0b9c","system_id":"levelo_inurba_marseille","lat":43.336063,"lon":5.410298,"is_reserved":false,"is_disabled":false,"rental_uris":{"android":"levelo://app?vid=610496fb-dd48-4b87-b9d3-9e79312f0b9c","ios":"levelo://app?vid=610496fb-dd48-4b87-b9d3-9e79312f0b9c"},"vehicle_type_id":"4","last_reported":1762333984,"current_range_meters":6800,"station_id":"ce4bhqh2rcd13ifvqhmg","pricing_plan_id":"cebpf4jnsgd1na2vs0mg"},{"bike_id":"1e2b10b6-9fc5-41ca-b42f-016c859384b3","system_id":"levelo_inurba_marseille","lat":43.23147,"lon":5.43712,"is_reserved":false,"is_disabled":false,"rental_uris":{"android":"levelo://app?vid=1e2b10b6-9fc5-41ca-b42f-016c859384b3","ios":"levelo://app?vid=1e2b10b6-9fc5-41ca-b42f-016c859384b3"},"vehicle_type_id":"4","last_reported":1762333984,"current_range_meters":6800,"station_id":"ce4bhmp2rcd13ifvqgog","pricing_plan_id":"cebpf4jnsgd1na2vs0mg"},{"bike_id":"90ad737b-e613-4760-a420-1f6218a679c8","system_id":"levelo_inurba_marseille","lat":43.30306,"lon":5.36891,"is_reserved":false,"is_disabled":false,"rental_uris":{"android":"levelo://app?vid=90ad737b-e613-4760-a420-1f6218a679c8","ios":"levelo://app?vid=90ad737b-e613-4760-a420-1f6218a679c8"},"vehicle_type_id":"4","last_reported":1762333984,"current_range_meters":6800,"station_id":"ce4bgqh2rcd13ifvqc5g","pricing_plan_id":"cebpf4jnsgd1na2vs0mg"},{"bike_id":"a1aff0c3-6826-44e5-9ab5-dacc1887cc81","system_id":"levelo_inurba_marseille","lat":43.29569,"lon":5.37533,"is_reserved":false,"is_disabled":false,"rental_uris":{"android":"levelo://app?vid=a1aff0c3-6826-44e5-9ab5-dacc1887cc81","ios":"levelo://app?vid=a1aff0c3-6826-44e5-9ab5-dacc1887cc81"},"vehicle_type_id":"4","last_reported":1762333984,"current_range_meters":6800,"station_id":"ce4bgh92rcd13ifvqb50","pricing_plan_id":"cebpf4jnsgd1na2vs0mg"},{"bike_id":"ce4c055f-09c5-4124-aefd-a7464c6f8cbc","system_id":"levelo_inurba_marseille","lat":43.29023,"lon":5.381282,"is_reserved":false,"is_disabled":false,"rental_uris":{"android":"levelo://app?vid=ce4c055f-09c5-4124-aefd-a7464c6f8cbc","ios":"levelo://app?vid=ce4c055f-09c5-4124-aefd-a7464c6f8cbc"},"vehicle_type_id":"4","last_reported":1762333984,"current_range_meters":7200,"station_id":"ce4bh4p2rcd13ifvqe1g","pricing_plan_id":"cebpf4jnsgd1na2vs0mg"},{"bike_id":"3800314d-6410-4feb-bd76-28cb0729c673","system_id":"levelo_inurba_marseille","lat":43.30341,"lon":5.40065,"is_reserved":false,"is_disabled":false,"rental_uris":{"android":"levelo://app?vid=3800314d-6410-4feb-bd76-28cb0729c673","ios":"levelo://app?vid=3800314d-6410-4feb-bd76-28cb0729c673"},"vehicle_type_id":"4","last_reported":1762333984,"current_range_meters":7200,"station_id":"","pricing_plan_id":"cebpf4jnsgd1na2vs0mg"},{"bike_id":"86c0f716-adc6-4d92-acb1-f61051c05c50","system_id":"levelo_inurba_marseille","lat":43.23187,"lon":5.39997,"is_reserved":false,"is_disabled":false,"rental_uris":{"android":"levelo://app?vid=86c0f716-adc6-4d92-acb1-f61051c05c50","ios":"levelo://app?vid=86c0f716-adc6-4d92-acb1-f61051c05c50"},"vehicle_type_id":"4","last_reported":1762333984,"current_range_meters":7200,"station_id":"ce4bhn12rcd13ifvqgqg","pricing_plan_id":"cebpf4jnsgd1na2vs0mg"},{"bike_id":"1dd114a1-5db3-4983-bc55-7b2404be665a","system_id":"levelo_inurba_marseille","lat":43.30949,"lon":5.39036,"is_reserved":false,"is_disabled":false,"rental_uris":{"android":"levelo://app?vid=1dd114a1-5db3-4983-bc55-7b2404be665a","ios":"levelo://app?vid=1dd114a1-5db3-4983-bc55-7b2404be665a"},"vehicle_type_id":"4","last_reported":1762333984,"current_range_meters":7200,"station_id":"ce4bgup2rcd13ifvqco0","pricing_plan_id":"cebpf4jnsgd1na2vs0mg"},{"bike_id":"a29e5d52-629c-472f-92a8-cdbd62c95e36","system_id":"levelo_inurba_marseille","lat":43.26945,"lon":5.40241,"is_reserved":false,"is_disabled":false,"rental_uris":{"android":"levelo://app?vid=a29e5d52-629c-472f-92a8-cdbd62c95e36","ios":"levelo://app?vid=a29e5d52-629c-472f-92a8-cdbd62c95e36"},"vehicle_type_id":"4","last_reported":1762333984,"current_range_meters":7200,"station_id":"cjm6bp8fraef2m0cb0m0","pricing_plan_id":"cebpf4jnsgd1na2vs0mg"},{"bike_id":"f558d479-ce57-4cf0-a0fa-5a549c753dc8","system_id":"levelo_inurba_marseille","lat":43.23066,"lon":5.35496,"is_reserved":false,"is_disabled":false,"rental_uris":{"android":"levelo://app?vid=f558d479-ce57-4cf0-a0fa-5a549c753dc8","ios":"levelo://app?vid=f558d479-ce57-4cf0-a0fa-5a549c753dc8"},"vehicle_type_id":"4","last_reported":1762333984,"current_range_meters":8000,"station_id":"cpo3342slgdg3j2ifvpg","pricing_plan_id":"cebpf4jnsgd1na2vs0mg"},{"bike_id":"654dc482-8458-4686-a09b-a5e21a822232","system_id":"levelo_inurba_marseille","lat":43.23191,"lon":5.35552,"is_reserved":false,"is_disabled":true,"rental_uris":{"android":"levelo://app?vid=654dc482-8458-4686-a09b-a5e21a822232","ios":"levelo://app?vid=654dc482-8458-4686-a09b-a5e21a822232"},"vehicle_type_id":"4","last_reported":1762333984,"current_range_meters":8000,"station_id":"ce4bhu92rcd13ifvqi70","pricing_plan_id":"cebpf4jnsgd1na2vs0mg"},{"bike_id":"5e6ed3c5-083f-4298-af98-8291b64959a8","system_id":"levelo_inurba_marseille","lat":43.31664,"lon":5.40478,"is_reserved":false,"is_disabled":false,"rental_uris":{"android":"levelo://app?vid=5e6ed3c5-083f-4298-af98-8291b64959a8","ios":"levelo://app?vid=5e6ed3c5-083f-4298-af98-8291b64959a8"},"vehicle_type_id":"4","last_reported":1762333984,"current_range_meters":8000,"station_id":"ce4bh012rcd13ifvqd00","pricing_plan_id":"cebpf4jnsgd1na2vs0mg"},{"bike_id":"2f838315-9d8e-40da-9e79-103124df0adf","system_id":"levelo_inurba_marseille","lat":43.2378,"lon":5.36631,"is_reserved":false,"is_disabled":false,"rental_uris":{"android":"levelo://app?vid=2f838315-9d8e-40da-9e79-103124df0adf","ios":"levelo://app?vid=2f838315-9d8e-40da-9e79-103124df0adf"},"vehicle_type_id":"4","last_reported":1762333984,"current_range_meters":8000,"station_id":"st_d3nk18o9ro0c73en2l3g","pricing_plan_id":"cebpf4jnsgd1na2vs0mg"},{"bike_id":"f5c7f0c6-9e9c-4f9f-96f6-bc2d6a6bb005","system_id":"levelo_inurba_marseille","lat":43.29082,"lon":5.38148,"is_reserved":false,"is_disabled":false,"rental_uris":{"android":"levelo://app?vid=f5c7f0c6-9e9c-4f9f-96f6-bc2d6a6bb005","ios":"levelo://app?vid=f5c7f0c6-9e9c-4f9f-96f6-bc2d6a6bb005"},"vehicle_type_id":"4","last_reported":1762333984,"current_range_meters":8000,"station_id":"ce4bh512rcd13ifvqe2g","pricing_plan_id":"cebpf4jnsgd1na2vs0mg"},{"bike_id":"844d4ff5-36ff-43b6-b15e-91e430098692","system_id":"levelo_inurba_marseille","lat":43.245457,"lon":5.395216,"is_reserved":false,"is_disabled":false,"rental_uris":{"android":"levelo://app?vid=844d4ff5-36ff-43b6-b15e-91e430098692","ios":"levelo://app?vid=844d4ff5-36ff-43b6-b15e-91e430098692"},"vehicle_type_id":"4","last_reported":1762333984,"current_range_meters":8000,"station_id":"ce4bhlp2rcd13ifvqgjg","pricing_plan_id":"cebpf4jnsgd1na2vs0mg"},{"bike_id":"a48d331b-4354-4057-87ba-dc627a7fae39","system_id":"levelo_inurba_marseille","lat":43.24643,"lon":5.43136,"is_reserved":false,"is_disabled":false,"rental_uris":{"android":"levelo://app?vid=a48d331b-4354-4057-87ba-dc627a7fae39","ios":"levelo://app?vid=a48d331b-4354-4057-87ba-dc627a7fae39"},"vehicle_type_id":"4","last_reported":1762333984,"current_range_meters":8400,"station_id":"st_d2m6c4gdas8pm72e190g","pricing_plan_id":"cebpf4jnsgd1na2vs0mg"},{"bike_id":"ca027186-72c6-4358-8d7a-70b219e6273a","system_id":"levelo_inurba_marseille","lat":43.35155,"lon":5.38458,"is_reserved":false,"is_disabled":false,"rental_uris":{"android":"levelo://app?vid=ca027186-72c6-4358-8d7a-70b219e6273a","ios":"levelo://app?vid=ca027186-72c6-4358-8d7a-70b219e6273a"},"vehicle_type_id":"4","last_reported":1762333984,"current_range_meters":8400,"station_id":"","pricing_plan_id":"cebpf4jnsgd1na2vs0mg"},{"bike_id":"398fa1cd-6e6f-4f71-b261-f57c4fcde186","system_id":"levelo_inurba_marseille","lat":43.25581,"lon":5.38231,"is_reserved":false,"is_disabled":false,"rental_uris":{"android":"levelo://app?vid=398fa1cd-6e6f-4f71-b261-f57c4fcde186","ios":"levelo://app?vid=398fa1cd-6e6f-4f71-b261-f57c4fcde186"},"vehicle_type_id":"4","last_reported":1762333984,"current_range_meters":8400,"station_id":"ce4bhih2rcd13ifvqfs0","pricing_plan_id":"cebpf4jnsgd1na2vs0mg"},{"bike_id":"8017c9b0-3de6-4c1c-a289-e4973cfa6723","system_id":"levelo_inurba_marseille","lat":43.25936,"lon":5.40908,"is_reserved":false,"is_disabled":false,"rental_uris":{"android":"levelo://app?vid=8017c9b0-3de6-4c1c-a289-e4973cfa6723","ios":"levelo://app?vid=8017c9b0-3de6-4c1c-a289-e4973cfa6723"},"vehicle_type_id":"4","last_reported":1762333984,"current_range_meters":8400,"station_id":"ce4bhm92rcd13ifvqglg","pricing_plan_id":"cebpf4jnsgd1na2vs0mg"},{"bike_id":"f96d84e9-3ba7-4e75-a8c6-00603bb7726c","system_id":"levelo_inurba_marseille","lat":43.2465,"lon":5.38892,"is_reserved":false,"is_disabled":false,"rental_uris":{"android":"levelo://app?vid=f96d84e9-3ba7-4e75-a8c6-00603bb7726c","ios":"levelo://app?vid=f96d84e9-3ba7-4e75-a8c6-00603bb7726c"},"vehicle_type_id":"4","last_reported":1762333984,"current_range_meters":8400,"station_id":"ce4bhg12rcd13ifvqf60","pricing_plan_id":"cebpf4jnsgd1na2vs0mg"},{"bike_id":"aacf42e0-2f18-4200-a64b-11d1f88c92f0","system_id":"levelo_inurba_marseille","lat":43.292671,"lon":5.37626,"is_reserved":false,"is_disabled":true,"rental_uris":{"android":"levelo://app?vid=aacf42e0-2f18-4200-a64b-11d1f88c92f0","ios":"levelo://app?vid=aacf42e0-2f18-4200-a64b-11d1f88c92f0"},"vehicle_type_id":"4","last_reported":1762333984,"current_range_meters":8800,"station_id":"ce4bgi12rcd13ifvqb80","pricing_plan_id":"cebpf4jnsgd1na2vs0mg"},{"bike_id":"7114bad6-8482-4ab0-a9c4-9f9284c696cc","system_id":"levelo_inurba_marseille","lat":43.2797,"lon":5.38693,"is_reserved":false,"is_disabled":false,"rental_uris":{"android":"levelo://app?vid=7114bad6-8482-4ab0-a9c4-9f9284c696cc","ios":"levelo://app?vid=7114bad6-8482-4ab0-a9c4-9f9284c696cc"},"vehicle_type_id":"4","last_reported":1762333984,"current_range_meters":8800,"station_id":"ce4bhg12rcd13ifvqf80","pricing_plan_id":"cebpf4jnsgd1na2vs0mg"},{"bike_id":"8625fd71-52f7-4d25-987b-6e76164035a5","system_id":"levelo_inurba_marseille","lat":43.307856,"lon":5.40543,"is_reserved":false,"is_disabled":false,"rental_uris":{"android":"levelo://app?vid=8625fd71-52f7-4d25-987b-6e76164035a5","ios":"levelo://app?vid=8625fd71-52f7-4d25-987b-6e76164035a5"},"vehicle_type_id":"4","last_reported":1762333984,"current_range_meters":8800,"station_id":"","pricing_plan_id":"cebpf4jnsgd1na2vs0mg"},{"bike_id":"68d146d0-a1e1-4df2-bed0-1d4c93812841","system_id":"levelo_inurba_marseille","lat":43.29836,"lon":5.40856,"is_reserved":false,"is_disabled":false,"rental_uris":{"android":"levelo://app?vid=68d146d0-a1e1-4df2-bed0-1d4c93812841","ios":"levelo://app?vid=68d146d0-a1e1-4df2-bed0-1d4c93812841"},"vehicle_type_id":"4","last_reported":1762333984,"current_range_meters":9200,"station_id":"","pricing_plan_id":"cebpf4jnsgd1na2vs0mg"},{"bike_id":"58b9e0a5-957a-43c8-b168-272d9a536430","system_id":"levelo_inurba_marseille","lat":43.29452,"lon":5.37408,"is_reserved":false,"is_disabled":false,"rental_uris":{"android":"levelo://app?vid=58b9e0a5-957a-43c8-b168-272d9a536430","ios":"levelo://app?vid=58b9e0a5-957a-43c8-b168-272d9a536430"},"vehicle_type_id":"4","last_reported":1762333984,"current_range_meters":9200,"station_id":"ce4bgnh2rcd13ifvqc0g","pricing_plan_id":"cebpf4jnsgd1na2vs0mg"},{"bike_id":"cb0c0c0d-8401-4097-b5ec-ced1363d7011","system_id":"levelo_inurba_marseille","lat":43.28974,"lon":5.3783,"is_reserved":false,"is_disabled":false,"rental_uris":{"android":"levelo://app?vid=cb0c0c0d-8401-4097-b5ec-ced1363d7011","ios":"levelo://app?vid=cb0c0c0d-8401-4097-b5ec-ced1363d7011"},"vehicle_type_id":"4","last_reported":1762333984,"current_range_meters":9200,"station_id":"ce4bh9p2rcd13ifvqed0","pricing_plan_id":"cebpf4jnsgd1na2vs0mg"},{"bike_id":"eed78698-4705-4f36-b1cc-c3cc31682f5d","system_id":"levelo_inurba_marseille","lat":43.334015,"lon":5.41955,"is_reserved":false,"is_disabled":false,"rental_uris":{"android":"levelo://app?vid=eed78698-4705-4f36-b1cc-c3cc31682f5d","ios":"levelo://app?vid=eed78698-4705-4f36-b1cc-c3cc31682f5d"},"vehicle_type_id":"4","last_reported":1762333984,"current_range_meters":9200,"station_id":"","pricing_plan_id":"cebpf4jnsgd1na2vs0mg"},{"bike_id":"beb80fbc-eef9-4d6f-86ca-5451a7fe5a6b","system_id":"levelo_inurba_marseille","lat":43.28969,"lon":5.37832,"is_reserved":false,"is_disabled":false,"rental_uris":{"android":"levelo://app?vid=beb80fbc-eef9-4d6f-86ca-5451a7fe5a6b","ios":"levelo://app?vid=beb80fbc-eef9-4d6f-86ca-5451a7fe5a6b"},"vehicle_type_id":"4","last_reported":1762333984,"current_range_meters":9200,"station_id":"ce4bh9p2rcd13ifvqed0","pricing_plan_id":"cebpf4jnsgd1na2vs0mg"},{"bike_id":"d6820309-3cfa-410b-9500-c11f6652c95e","system_id":"levelo_inurba_marseille","lat":43.24631,"lon":5.43145,"is_reserved":false,"is_disabled":false,"rental_uris":{"android":"levelo://app?vid=d6820309-3cfa-410b-9500-c11f6652c95e","ios":"levelo://app?vid=d6820309-3cfa-410b-9500-c11f6652c95e"},"vehicle_type_id":"4","last_reported":1762333984,"current_range_meters":9200,"station_id":"st_d2m6c4gdas8pm72e190g","pricing_plan_id":"cebpf4jnsgd1na2vs0mg"},{"bike_id":"2f1e40ac-a206-4716-ae78-665d98a9dec1","system_id":"levelo_inurba_marseille","lat":43.30736,"lon":5.39291,"is_reserved":false,"is_disabled":false,"rental_uris":{"android":"levelo://app?vid=2f1e40ac-a206-4716-ae78-665d98a9dec1","ios":"levelo://app?vid=2f1e40ac-a206-4716-ae78-665d98a9dec1"},"vehicle_type_id":"4","last_reported":1762333984,"current_range_meters":9200,"station_id":"","pricing_plan_id":"cebpf4jnsgd1na2vs0mg"},{"bike_id":"c745baa2-7f9c-4c5c-813e-da0e4745b082","system_id":"levelo_inurba_marseille","lat":43.32541,"lon":5.41461,"is_reserved":false,"is_disabled":false,"rental_uris":{"android":"levelo://app?vid=c745baa2-7f9c-4c5c-813e-da0e4745b082","ios":"levelo://app?vid=c745baa2-7f9c-4c5c-813e-da0e4745b082"},"vehicle_type_id":"4","last_reported":1762333984,"current_range_meters":9600,"station_id":"ce4bhq12rcd13ifvqhhg","pricing_plan_id":"cebpf4jnsgd1na2vs0mg"},{"bike_id":"d651bebc-b3bc-439e-9300-442259fd499a","system_id":"levelo_inurba_marseille","lat":43.25933,"lon":5.40904,"is_reserved":false,"is_disabled":false,"rental_uris":{"android":"levelo://app?vid=d651bebc-b3bc-439e-9300-442259fd499a","ios":"levelo://app?vid=d651bebc-b3bc-439e-9300-442259fd499a"},"vehicle_type_id":"4","last_reported":1762333984,"current_range_meters":9600,"station_id":"ce4bhm92rcd13ifvqglg","pricing_plan_id":"cebpf4jnsgd1na2vs0mg"},{"bike_id":"cd9c6c8f-813a-4b2c-b0c7-7a3265cb2fa0","system_id":"levelo_inurba_marseille","lat":43.242373,"lon":5.393298,"is_reserved":false,"is_disabled":false,"rental_uris":{"android":"levelo://app?vid=cd9c6c8f-813a-4b2c-b0c7-7a3265cb2fa0","ios":"levelo://app?vid=cd9c6c8f-813a-4b2c-b0c7-7a3265cb2fa0"},"vehicle_type_id":"4","last_reported":1762333984,"current_range_meters":9600,"station_id":"","pricing_plan_id":"cebpf4jnsgd1na2vs0mg"},{"bike_id":"824ca8fc-97e4-4c9a-b121-2fea63e1bee2","system_id":"levelo_inurba_marseille","lat":43.321069,"lon":5.367652,"is_reserved":false,"is_disabled":false,"rental_uris":{"android":"levelo://app?vid=824ca8fc-97e4-4c9a-b121-2fea63e1bee2","ios":"levelo://app?vid=824ca8fc-97e4-4c9a-b121-2fea63e1bee2"},"vehicle_type_id":"4","last_reported":1762333984,"current_range_meters":9600,"station_id":"ce4bhrh2rcd13ifvqhug","pricing_plan_id":"cebpf4jnsgd1na2vs0mg"},{"bike_id":"d793680a-6308-4d87-bbee-b09c5af6ff46","system_id":"levelo_inurba_marseille","lat":43.2768,"lon":5.38888,"is_reserved":false,"is_disabled":false,"rental_uris":{"android":"levelo://app?vid=d793680a-6308-4d87-bbee-b09c5af6ff46","ios":"levelo://app?vid=d793680a-6308-4d87-bbee-b09c5af6ff46"},"vehicle_type_id":"4","last_reported":1762333984,"current_range_meters":9600,"station_id":"ce4bhi12rcd13ifvqfo0","pricing_plan_id":"cebpf4jnsgd1na2vs0mg"},{"bike_id":"ad483091-7411-4e16-8cc4-09042e8161f5","system_id":"levelo_inurba_marseille","lat":43.273468,"lon":5.385179,"is_reserved":false,"is_disabled":true,"rental_uris":{"android":"levelo://app?vid=ad483091-7411-4e16-8cc4-09042e8161f5","ios":"levelo://app?vid=ad483091-7411-4e16-8cc4-09042e8161f5"},"vehicle_type_id":"4","last_reported":1762333984,"current_range_meters":9600,"station_id":"","pricing_plan_id":"cebpf4jnsgd1na2vs0mg"},{"bike_id":"96a2ec32-00dd-4e11-9599-b24267248a8a","system_id":"levelo_inurba_marseille","lat":43.31366,"lon":5.36723,"is_reserved":false,"is_disabled":false,"rental_uris":{"android":"levelo://app?vid=96a2ec32-00dd-4e11-9599-b24267248a8a","ios":"levelo://app?vid=96a2ec32-00dd-4e11-9599-b24267248a8a"},"vehicle_type_id":"4","last_reported":1762333984,"current_range_meters":9600,"station_id":"ce4bgr92rcd13ifvqc6g","pricing_plan_id":"cebpf4jnsgd1na2vs0mg"},{"bike_id":"1e6622b0-2827-46bd-b3a9-ae6ba2b69a17","system_id":"levelo_inurba_marseille","lat":43.2705,"lon":5.40265,"is_reserved":false,"is_disabled":false,"rental_uris":{"android":"levelo://app?vid=1e6622b0-2827-46bd-b3a9-ae6ba2b69a17","ios":"levelo://app?vid=1e6622b0-2827-46bd-b3a9-ae6ba2b69a17"},"vehicle_type_id":"4","last_reported":1762333984,"current_range_meters":10000,"station_id":"ce4bhk92rcd13ifvqgc0","pricing_plan_id":"cebpf4jnsgd1na2vs0mg"},{"bike_id":"61a5f595-d6ab-4501-8205-2048318312f0","system_id":"levelo_inurba_marseille","lat":43.337444,"lon":5.374475,"is_reserved":false,"is_disabled":false,"rental_uris":{"android":"levelo://app?vid=61a5f595-d6ab-4501-8205-2048318312f0","ios":"levelo://app?vid=61a5f595-d6ab-4501-8205-2048318312f0"},"vehicle_type_id":"4","last_reported":1762333984,"current_range_meters":10000,"station_id":"","pricing_plan_id":"cebpf4jnsgd1na2vs0mg"},{"bike_id":"17bbf34e-30a3-48ae-89a7-101afb24d19d","system_id":"levelo_inurba_marseille","lat":43.2956,"lon":5.381621,"is_reserved":false,"is_disabled":true,"rental_uris":{"android":"levelo://app?vid=17bbf34e-30a3-48ae-89a7-101afb24d19d","ios":"levelo://app?vid=17bbf34e-30a3-48ae-89a7-101afb24d19d"},"vehicle_type_id":"4","last_reported":1762333984,"current_range_meters":10000,"station_id":"","pricing_plan_id":"cebpf4jnsgd1na2vs0mg"},{"bike_id":"0646185f-3347-4039-bb05-fecd536576e9","system_id":"levelo_inurba_marseille","lat":43.26927,"lon":5.38913,"is_reserved":false,"is_disabled":false,"rental_uris":{"android":"levelo://app?vid=0646185f-3347-4039-bb05-fecd536576e9","ios":"levelo://app?vid=0646185f-3347-4039-bb05-fecd536576e9"},"vehicle_type_id":"4","last_reported":1762333984,"current_range_meters":10000,"station_id":"ce4bhhh2rcd13ifvqfl0","pricing_plan_id":"cebpf4jnsgd1na2vs0mg"},{"bike_id":"9a927517-8d0a-4f13-9128-9855e1f39229","system_id":"levelo_inurba_marseille","lat":43.32109,"lon":5.367704,"is_reserved":false,"is_disabled":false,"rental_uris":{"android":"levelo://app?vid=9a927517-8d0a-4f13-9128-9855e1f39229","ios":"levelo://app?vid=9a927517-8d0a-4f13-9128-9855e1f39229"},"vehicle_type_id":"4","last_reported":1762333984,"current_range_meters":10000,"station_id":"ce4bhrh2rcd13ifvqhug","pricing_plan_id":"cebpf4jnsgd1na2vs0mg"},{"bike_id":"7cc80567-11da-4d30-bdf4-3fb2be00fc62","system_id":"levelo_inurba_marseille","lat":43.295773,"lon":5.367378,"is_reserved":false,"is_disabled":false,"rental_uris":{"android":"levelo://app?vid=7cc80567-11da-4d30-bdf4-3fb2be00fc62","ios":"levelo://app?vid=7cc80567-11da-4d30-bdf4-3fb2be00fc62"},"vehicle_type_id":"4","last_reported":1762333984,"current_range_meters":10000,"station_id":"ce4bgph2rcd13ifvqc2g","pricing_plan_id":"cebpf4jnsgd1na2vs0mg"},{"bike_id":"93a4db4d-1bba-4287-acbf-f8d08aa1e988","system_id":"levelo_inurba_marseille","lat":43.24638,"lon":5.4314,"is_reserved":false,"is_disabled":false,"rental_uris":{"android":"levelo://app?vid=93a4db4d-1bba-4287-acbf-f8d08aa1e988","ios":"levelo://app?vid=93a4db4d-1bba-4287-acbf-f8d08aa1e988"},"vehicle_type_id":"4","last_reported":1762333984,"current_range_meters":10800,"station_id":"st_d2m6c4gdas8pm72e190g","pricing_plan_id":"cebpf4jnsgd1na2vs0mg"},{"bike_id":"f6b63f63-0cf2-4b66-bf94-f3c901d2e9a7","system_id":"levelo_inurba_marseille","lat":43.32483,"lon":5.36559,"is_reserved":false,"is_disabled":false,"rental_uris":{"android":"levelo://app?vid=f6b63f63-0cf2-4b66-bf94-f3c901d2e9a7","ios":"levelo://app?vid=f6b63f63-0cf2-4b66-bf94-f3c901d2e9a7"},"vehicle_type_id":"4","last_reported":1762333984,"current_range_meters":10800,"station_id":"ce4bhs12rcd13ifvqhvg","pricing_plan_id":"cebpf4jnsgd1na2vs0mg"},{"bike_id":"1d1fb2b7-027c-42b3-b84e-0273eb397ef2","system_id":"levelo_inurba_marseille","lat":43.26544,"lon":5.38968,"is_reserved":false,"is_disabled":false,"rental_uris":{"android":"levelo://app?vid=1d1fb2b7-027c-42b3-b84e-0273eb397ef2","ios":"levelo://app?vid=1d1fb2b7-027c-42b3-b84e-0273eb397ef2"},"vehicle_type_id":"4","last_reported":1762333984,"current_range_meters":10800,"station_id":"ce4bhe12rcd13ifvqf30","pricing_plan_id":"cebpf4jnsgd1na2vs0mg"},{"bike_id":"cb5be059-9180-494d-834c-f341c2d161fa","system_id":"levelo_inurba_marseille","lat":43.23958,"lon":5.36634,"is_reserved":false,"is_disabled":false,"rental_uris":{"android":"levelo://app?vid=cb5be059-9180-494d-834c-f341c2d161fa","ios":"levelo://app?vid=cb5be059-9180-494d-834c-f341c2d161fa"},"vehicle_type_id":"4","last_reported":1762333984,"current_range_meters":10800,"station_id":"ce4bhi12rcd13ifvqfp0","pricing_plan_id":"cebpf4jnsgd1na2vs0mg"},{"bike_id":"d546b81e-8744-4e46-aaa9-b420b6469e33","system_id":"levelo_inurba_marseille","lat":43.28721,"lon":5.36089,"is_reserved":false,"is_disabled":false,"rental_uris":{"android":"levelo://app?vid=d546b81e-8744-4e46-aaa9-b420b6469e33","ios":"levelo://app?vid=d546b81e-8744-4e46-aaa9-b420b6469e33"},"vehicle_type_id":"4","last_reported":1762333984,"current_range_meters":10800,"station_id":"cki0cbj6b192h4jlfktg","pricing_plan_id":"cebpf4jnsgd1na2vs0mg"},{"bike_id":"36dadbf7-a228-4f6f-8b08-391008b68693","system_id":"levelo_inurba_marseille","lat":43.34541,"lon":5.3686,"is_reserved":false,"is_disabled":false,"rental_uris":{"android":"levelo://app?vid=36dadbf7-a228-4f6f-8b08-391008b68693","ios":"levelo://app?vid=36dadbf7-a228-4f6f-8b08-391008b68693"},"vehicle_type_id":"4","last_reported":1762333984,"current_range_meters":10800,"station_id":"","pricing_plan_id":"cebpf4jnsgd1na2vs0mg"},{"bike_id":"d4738a02-0e7a-4e9a-bf96-c19e52869dab","system_id":"levelo_inurba_marseille","lat":43.28105,"lon":5.37856,"is_reserved":false,"is_disabled":false,"rental_uris":{"android":"levelo://app?vid=d4738a02-0e7a-4e9a-bf96-c19e52869dab","ios":"levelo://app?vid=d4738a02-0e7a-4e9a-bf96-c19e52869dab"},"vehicle_type_id":"4","last_reported":1762333984,"current_range_meters":10800,"station_id":"ce4bha12rcd13ifvqee0","pricing_plan_id":"cebpf4jnsgd1na2vs0mg"},{"bike_id":"47de9693-398c-4078-bb2e-bf0d38c76c57","system_id":"levelo_inurba_marseille","lat":43.28481,"lon":5.38799,"is_reserved":false,"is_disabled":false,"rental_uris":{"android":"levelo://app?vid=47de9693-398c-4078-bb2e-bf0d38c76c57","ios":"levelo://app?vid=47de9693-398c-4078-bb2e-bf0d38c76c57"},"vehicle_type_id":"4","last_reported":1762333984,"current_range_meters":10800,"station_id":"","pricing_plan_id":"cebpf4jnsgd1na2vs0mg"},{"bike_id":"1af250b1-f20d-43a6-b023-0debb5f25884","system_id":"levelo_inurba_marseille","lat":43.295504,"lon":5.422936,"is_reserved":false,"is_disabled":true,"rental_uris":{"android":"levelo://app?vid=1af250b1-f20d-43a6-b023-0debb5f25884","ios":"levelo://app?vid=1af250b1-f20d-43a6-b023-0debb5f25884"},"vehicle_type_id":"4","last_reported":1762333984,"current_range_meters":10800,"station_id":"ce4bhph2rcd13ifvqhdg","pricing_plan_id":"cebpf4jnsgd1na2vs0mg"},{"bike_id":"28069767-84bb-4c35-b19c-b38cef0c3a3a","system_id":"levelo_inurba_marseille","lat":43.27362,"lon":5.42386,"is_reserved":false,"is_disabled":false,"rental_uris":{"android":"levelo://app?vid=28069767-84bb-4c35-b19c-b38cef0c3a3a","ios":"levelo://app?vid=28069767-84bb-4c35-b19c-b38cef0c3a3a"},"vehicle_type_id":"4","last_reported":1762333984,"current_range_meters":10800,"station_id":"","pricing_plan_id":"cebpf4jnsgd1na2vs0mg"},{"bike_id":"4d4c3c47-d0e0-46d9-857f-a75c3c2aa6e7","system_id":"levelo_inurba_marseille","lat":43.304688,"lon":5.379178,"is_reserved":false,"is_disabled":false,"rental_uris":{"android":"levelo://app?vid=4d4c3c47-d0e0-46d9-857f-a75c3c2aa6e7","ios":"levelo://app?vid=4d4c3c47-d0e0-46d9-857f-a75c3c2aa6e7"},"vehicle_type_id":"4","last_reported":1762333984,"current_range_meters":10800,"station_id":"ce4bgup2rcd13ifvqcn0","pricing_plan_id":"cebpf4jnsgd1na2vs0mg"},{"bike_id":"eb18d2a1-f8b3-4279-b380-67bc412ea72d","system_id":"levelo_inurba_marseille","lat":43.27669,"lon":5.38871,"is_reserved":false,"is_disabled":false,"rental_uris":{"android":"levelo://app?vid=eb18d2a1-f8b3-4279-b380-67bc412ea72d","ios":"levelo://app?vid=eb18d2a1-f8b3-4279-b380-67bc412ea72d"},"vehicle_type_id":"4","last_reported":1762333984,"current_range_meters":10800,"station_id":"ce4bhi12rcd13ifvqfo0","pricing_plan_id":"cebpf4jnsgd1na2vs0mg"},{"bike_id":"a20fcab2-b751-4584-a402-d2391f0a1e45","system_id":"levelo_inurba_marseille","lat":43.23149,"lon":5.43718,"is_reserved":false,"is_disabled":false,"rental_uris":{"android":"levelo://app?vid=a20fcab2-b751-4584-a402-d2391f0a1e45","ios":"levelo://app?vid=a20fcab2-b751-4584-a402-d2391f0a1e45"},"vehicle_type_id":"4","last_reported":1762333984,"current_range_meters":11200,"station_id":"ce4bhmp2rcd13ifvqgog","pricing_plan_id":"cebpf4jnsgd1na2vs0mg"},{"bike_id":"45c3430f-93bf-4f93-9d9f-df10fc7aeac7","system_id":"levelo_inurba_marseille","lat":43.25577,"lon":5.3824,"is_reserved":false,"is_disabled":false,"rental_uris":{"android":"levelo://app?vid=45c3430f-93bf-4f93-9d9f-df10fc7aeac7","ios":"levelo://app?vid=45c3430f-93bf-4f93-9d9f-df10fc7aeac7"},"vehicle_type_id":"4","last_reported":1762333984,"current_range_meters":11200,"station_id":"ce4bhih2rcd13ifvqfs0","pricing_plan_id":"cebpf4jnsgd1na2vs0mg"},{"bike_id":"2c4236dd-1bed-4961-a66e-613259442086","system_id":"levelo_inurba_marseille","lat":43.31884,"lon":5.40736,"is_reserved":false,"is_disabled":false,"rental_uris":{"android":"levelo://app?vid=2c4236dd-1bed-4961-a66e-613259442086","ios":"levelo://app?vid=2c4236dd-1bed-4961-a66e-613259442086"},"vehicle_type_id":"4","last_reported":1762333984,"current_range_meters":11200,"station_id":"ce4bhq12rcd13ifvqhig","pricing_plan_id":"cebpf4jnsgd1na2vs0mg"},{"bike_id":"ea4f4b84-78b0-4180-a7f8-ecb8c6182713","system_id":"levelo_inurba_marseille","lat":43.2953,"lon":5.36104,"is_reserved":false,"is_disabled":true,"rental_uris":{"android":"levelo://app?vid=ea4f4b84-78b0-4180-a7f8-ecb8c6182713","ios":"levelo://app?vid=ea4f4b84-78b0-4180-a7f8-ecb8c6182713"},"vehicle_type_id":"4","last_reported":1762333984,"current_range_meters":11200,"station_id":"","pricing_plan_id":"cebpf4jnsgd1na2vs0mg"},{"bike_id":"d4e9c572-0207-4b11-9136-2b8e1e5dfb0c","system_id":"levelo_inurba_marseille","lat":43.32109,"lon":5.3676,"is_reserved":false,"is_disabled":false,"rental_uris":{"android":"levelo://app?vid=d4e9c572-0207-4b11-9136-2b8e1e5dfb0c","ios":"levelo://app?vid=d4e9c572-0207-4b11-9136-2b8e1e5dfb0c"},"vehicle_type_id":"4","last_reported":1762333984,"current_range_meters":11200,"station_id":"ce4bhrh2rcd13ifvqhug","pricing_plan_id":"cebpf4jnsgd1na2vs0mg"},{"bike_id":"655c679b-1dad-48f2-bb27-9b27269ca3d1","system_id":"levelo_inurba_marseille","lat":43.2952,"lon":5.39403,"is_reserved":false,"is_disabled":false,"rental_uris":{"android":"levelo://app?vid=655c679b-1dad-48f2-bb27-9b27269ca3d1","ios":"levelo://app?vid=655c679b-1dad-48f2-bb27-9b27269ca3d1"},"vehicle_type_id":"4","last_reported":1762333984,"current_range_meters":11600,"station_id":"ce4bh292rcd13ifvqdf0","pricing_plan_id":"cebpf4jnsgd1na2vs0mg"},{"bike_id":"db6a2c65-c838-4de7-bcff-af7747b366c1","system_id":"levelo_inurba_marseille","lat":43.25582,"lon":5.38225,"is_reserved":false,"is_disabled":false,"rental_uris":{"android":"levelo://app?vid=db6a2c65-c838-4de7-bcff-af7747b366c1","ios":"levelo://app?vid=db6a2c65-c838-4de7-bcff-af7747b366c1"},"vehicle_type_id":"4","last_reported":1762333984,"current_range_meters":11600,"station_id":"ce4bhih2rcd13ifvqfs0","pricing_plan_id":"cebpf4jnsgd1na2vs0mg"},{"bike_id":"44e825f1-cbfb-4087-a6e7-c6ad83313d2e","system_id":"levelo_inurba_marseille","lat":43.305499,"lon":5.367328,"is_reserved":false,"is_disabled":false,"rental_uris":{"android":"levelo://app?vid=44e825f1-cbfb-4087-a6e7-c6ad83313d2e","ios":"levelo://app?vid=44e825f1-cbfb-4087-a6e7-c6ad83313d2e"},"vehicle_type_id":"4","last_reported":1762333984,"current_range_meters":11600,"station_id":"ce4bgrp2rcd13ifvqc9g","pricing_plan_id":"cebpf4jnsgd1na2vs0mg"},{"bike_id":"dcf2d859-2bac-4942-a2af-403cf29bb62c","system_id":"levelo_inurba_marseille","lat":43.31394,"lon":5.36675,"is_reserved":false,"is_disabled":false,"rental_uris":{"android":"levelo://app?vid=dcf2d859-2bac-4942-a2af-403cf29bb62c","ios":"levelo://app?vid=dcf2d859-2bac-4942-a2af-403cf29bb62c"},"vehicle_type_id":"4","last_reported":1762333984,"current_range_meters":11600,"station_id":"","pricing_plan_id":"cebpf4jnsgd1na2vs0mg"},{"bike_id":"e4b19c5d-a6c4-4399-828a-d5953060b7aa","system_id":"levelo_inurba_marseille","lat":43.32376,"lon":5.36725,"is_reserved":false,"is_disabled":false,"rental_uris":{"android":"levelo://app?vid=e4b19c5d-a6c4-4399-828a-d5953060b7aa","ios":"levelo://app?vid=e4b19c5d-a6c4-4399-828a-d5953060b7aa"},"vehicle_type_id":"4","last_reported":1762333984,"current_range_meters":11600,"station_id":"","pricing_plan_id":"cebpf4jnsgd1na2vs0mg"},{"bike_id":"6409001b-50f5-4983-830b-ca3d4844f31e","system_id":"levelo_inurba_marseille","lat":43.25583,"lon":5.38227,"is_reserved":false,"is_disabled":false,"rental_uris":{"android":"levelo://app?vid=6409001b-50f5-4983-830b-ca3d4844f31e","ios":"levelo://app?vid=6409001b-50f5-4983-830b-ca3d4844f31e"},"vehicle_type_id":"4","last_reported":1762333984,"current_range_meters":11600,"station_id":"ce4bhih2rcd13ifvqfs0","pricing_plan_id":"cebpf4jnsgd1na2vs0mg"},{"bike_id":"dceb4beb-6bb5-4225-ae7e-d3c4b9815bbe","system_id":"levelo_inurba_marseille","lat":43.284717,"lon":5.484071,"is_reserved":false,"is_disabled":false,"rental_uris":{"android":"levelo://app?vid=dceb4beb-6bb5-4225-ae7e-d3c4b9815bbe","ios":"levelo://app?vid=dceb4beb-6bb5-4225-ae7e-d3c4b9815bbe"},"vehicle_type_id":"4","last_reported":1762333984,"current_range_meters":12000,"station_id":"st_d3svhcjqgbts73a3dn0g","pricing_plan_id":"cebpf4jnsgd1na2vs0mg"},{"bike_id":"a432a034-45ef-4989-ae92-70addb508dd2","system_id":"levelo_inurba_marseille","lat":43.314983,"lon":5.374727,"is_reserved":false,"is_disabled":false,"rental_uris":{"android":"levelo://app?vid=a432a034-45ef-4989-ae92-70addb508dd2","ios":"levelo://app?vid=a432a034-45ef-4989-ae92-70addb508dd2"},"vehicle_type_id":"4","last_reported":1762333984,"current_range_meters":12000,"station_id":"","pricing_plan_id":"cebpf4jnsgd1na2vs0mg"},{"bike_id":"dae30738-204c-4787-a9b5-e056fa94e0c9","system_id":"levelo_inurba_marseille","lat":43.2257,"lon":5.41631,"is_reserved":false,"is_disabled":false,"rental_uris":{"android":"levelo://app?vid=dae30738-204c-4787-a9b5-e056fa94e0c9","ios":"levelo://app?vid=dae30738-204c-4787-a9b5-e056fa94e0c9"},"vehicle_type_id":"4","last_reported":1762333984,"current_range_meters":12000,"station_id":"st_d2o4gvlbi1j2169b742g","pricing_plan_id":"cebpf4jnsgd1na2vs0mg"},{"bike_id":"d9fd7bb5-fd79-41f8-b907-8d24aff88403","system_id":"levelo_inurba_marseille","lat":43.30262,"lon":5.39929,"is_reserved":false,"is_disabled":false,"rental_uris":{"android":"levelo://app?vid=d9fd7bb5-fd79-41f8-b907-8d24aff88403","ios":"levelo://app?vid=d9fd7bb5-fd79-41f8-b907-8d24aff88403"},"vehicle_type_id":"4","last_reported":1762333984,"current_range_meters":12000,"station_id":"","pricing_plan_id":"cebpf4jnsgd1na2vs0mg"},{"bike_id":"1c65ff7a-5df1-438c-9cb7-2366dd467bad","system_id":"levelo_inurba_marseille","lat":43.30457,"lon":5.37913,"is_reserved":false,"is_disabled":false,"rental_uris":{"android":"levelo://app?vid=1c65ff7a-5df1-438c-9cb7-2366dd467bad","ios":"levelo://app?vid=1c65ff7a-5df1-438c-9cb7-2366dd467bad"},"vehicle_type_id":"4","last_reported":1762333984,"current_range_meters":12000,"station_id":"ce4bgup2rcd13ifvqcn0","pricing_plan_id":"cebpf4jnsgd1na2vs0mg"},{"bike_id":"8a80570e-bf7a-4811-b6f7-f7bef821bdac","system_id":"levelo_inurba_marseille","lat":43.309435,"lon":5.390253,"is_reserved":false,"is_disabled":false,"rental_uris":{"android":"levelo://app?vid=8a80570e-bf7a-4811-b6f7-f7bef821bdac","ios":"levelo://app?vid=8a80570e-bf7a-4811-b6f7-f7bef821bdac"},"vehicle_type_id":"4","last_reported":1762333984,"current_range_meters":12000,"station_id":"ce4bgkp2rcd13ifvqbmg","pricing_plan_id":"cebpf4jnsgd1na2vs0mg"},{"bike_id":"e7002296-a724-4792-9c77-9aa7da662e7d","system_id":"levelo_inurba_marseille","lat":43.29752,"lon":5.36248,"is_reserved":false,"is_disabled":false,"rental_uris":{"android":"levelo://app?vid=e7002296-a724-4792-9c77-9aa7da662e7d","ios":"levelo://app?vid=e7002296-a724-4792-9c77-9aa7da662e7d"},"vehicle_type_id":"4","last_reported":1762333984,"current_range_meters":12000,"station_id":"","pricing_plan_id":"cebpf4jnsgd1na2vs0mg"},{"bike_id":"56c85e38-643a-4a70-9c37-ffd50f7e9186","system_id":"levelo_inurba_marseille","lat":43.2901,"lon":5.40034,"is_reserved":false,"is_disabled":false,"rental_uris":{"android":"levelo://app?vid=56c85e38-643a-4a70-9c37-ffd50f7e9186","ios":"levelo://app?vid=56c85e38-643a-4a70-9c37-ffd50f7e9186"},"vehicle_type_id":"4","last_reported":1762333984,"current_range_meters":12400,"station_id":"","pricing_plan_id":"cebpf4jnsgd1na2vs0mg"},{"bike_id":"4b24dbba-41a5-4ecf-ade9-ac15d69f3a39","system_id":"levelo_inurba_marseille","lat":43.30277,"lon":5.37689,"is_reserved":false,"is_disabled":false,"rental_uris":{"android":"levelo://app?vid=4b24dbba-41a5-4ecf-ade9-ac15d69f3a39","ios":"levelo://app?vid=4b24dbba-41a5-4ecf-ade9-ac15d69f3a39"},"vehicle_type_id":"4","last_reported":1762333984,"current_range_meters":12400,"station_id":"ce4bguh2rcd13ifvqcj0","pricing_plan_id":"cebpf4jnsgd1na2vs0mg"},{"bike_id":"6467a27c-e2ad-48d3-9535-f013fea54b9a","system_id":"levelo_inurba_marseille","lat":43.23148,"lon":5.43718,"is_reserved":false,"is_disabled":false,"rental_uris":{"android":"levelo://app?vid=6467a27c-e2ad-48d3-9535-f013fea54b9a","ios":"levelo://app?vid=6467a27c-e2ad-48d3-9535-f013fea54b9a"},"vehicle_type_id":"4","last_reported":1762333984,"current_range_meters":12400,"station_id":"ce4bhmp2rcd13ifvqgog","pricing_plan_id":"cebpf4jnsgd1na2vs0mg"},{"bike_id":"7e8da862-2af0-47cd-9267-b7b5a54bf28d","system_id":"levelo_inurba_marseille","lat":43.22921,"lon":5.35364,"is_reserved":false,"is_disabled":false,"rental_uris":{"android":"levelo://app?vid=7e8da862-2af0-47cd-9267-b7b5a54bf28d","ios":"levelo://app?vid=7e8da862-2af0-47cd-9267-b7b5a54bf28d"},"vehicle_type_id":"4","last_reported":1762333984,"current_range_meters":12400,"station_id":"cpo3532slgdg3j2ikp40","pricing_plan_id":"cebpf4jnsgd1na2vs0mg"},{"bike_id":"f0592f78-49c8-456a-9cb2-79cc08057180","system_id":"levelo_inurba_marseille","lat":43.31376,"lon":5.36707,"is_reserved":false,"is_disabled":false,"rental_uris":{"android":"levelo://app?vid=f0592f78-49c8-456a-9cb2-79cc08057180","ios":"levelo://app?vid=f0592f78-49c8-456a-9cb2-79cc08057180"},"vehicle_type_id":"4","last_reported":1762333984,"current_range_meters":12400,"station_id":"ce4bgr92rcd13ifvqc6g","pricing_plan_id":"cebpf4jnsgd1na2vs0mg"},{"bike_id":"7c8c77e6-611f-4f5e-8374-da326e1729a3","system_id":"levelo_inurba_marseille","lat":43.298182,"lon":5.440679,"is_reserved":false,"is_disabled":false,"rental_uris":{"android":"levelo://app?vid=7c8c77e6-611f-4f5e-8374-da326e1729a3","ios":"levelo://app?vid=7c8c77e6-611f-4f5e-8374-da326e1729a3"},"vehicle_type_id":"4","last_reported":1762333984,"current_range_meters":12400,"station_id":"st_d3jp68qikq2c7381ktn0","pricing_plan_id":"cebpf4jnsgd1na2vs0mg"},{"bike_id":"8357c6a4-220a-45e7-bbfc-c767085c853a","system_id":"levelo_inurba_marseille","lat":43.296282,"lon":5.363049,"is_reserved":false,"is_disabled":false,"rental_uris":{"android":"levelo://app?vid=8357c6a4-220a-45e7-bbfc-c767085c853a","ios":"levelo://app?vid=8357c6a4-220a-45e7-bbfc-c767085c853a"},"vehicle_type_id":"4","last_reported":1762333984,"current_range_meters":12400,"station_id":"ce4bhh92rcd13ifvqfj0","pricing_plan_id":"cebpf4jnsgd1na2vs0mg"},{"bike_id":"d844fb96-2de4-4994-b1cc-ccf081a4d135","system_id":"levelo_inurba_marseille","lat":43.33602,"lon":5.41028,"is_reserved":false,"is_disabled":false,"rental_uris":{"android":"levelo://app?vid=d844fb96-2de4-4994-b1cc-ccf081a4d135","ios":"levelo://app?vid=d844fb96-2de4-4994-b1cc-ccf081a4d135"},"vehicle_type_id":"4","last_reported":1762333984,"current_range_meters":12400,"station_id":"ce4bhqh2rcd13ifvqhmg","pricing_plan_id":"cebpf4jnsgd1na2vs0mg"},{"bike_id":"ba2938fb-1ec4-425e-b6e5-c82904ce08fe","system_id":"levelo_inurba_marseille","lat":43.246317,"lon":5.431515,"is_reserved":false,"is_disabled":true,"rental_uris":{"android":"levelo://app?vid=ba2938fb-1ec4-425e-b6e5-c82904ce08fe","ios":"levelo://app?vid=ba2938fb-1ec4-425e-b6e5-c82904ce08fe"},"vehicle_type_id":"4","last_reported":1762333984,"current_range_meters":12400,"station_id":"st_d2m6c4gdas8pm72e190g","pricing_plan_id":"cebpf4jnsgd1na2vs0mg"},{"bike_id":"a17fc044-54f5-447e-ae3f-977fc053e919","system_id":"levelo_inurba_marseille","lat":43.24651,"lon":5.38887,"is_reserved":false,"is_disabled":false,"rental_uris":{"android":"levelo://app?vid=a17fc044-54f5-447e-ae3f-977fc053e919","ios":"levelo://app?vid=a17fc044-54f5-447e-ae3f-977fc053e919"},"vehicle_type_id":"4","last_reported":1762333984,"current_range_meters":12400,"station_id":"ce4bhg12rcd13ifvqf60","pricing_plan_id":"cebpf4jnsgd1na2vs0mg"},{"bike_id":"0e3aee91-b2d2-407f-a8df-b69fa0cb561b","system_id":"levelo_inurba_marseille","lat":43.31348,"lon":5.36704,"is_reserved":false,"is_disabled":false,"rental_uris":{"android":"levelo://app?vid=0e3aee91-b2d2-407f-a8df-b69fa0cb561b","ios":"levelo://app?vid=0e3aee91-b2d2-407f-a8df-b69fa0cb561b"},"vehicle_type_id":"4","last_reported":1762333984,"current_range_meters":12800,"station_id":"ce4bgr92rcd13ifvqc6g","pricing_plan_id":"cebpf4jnsgd1na2vs0mg"},{"bike_id":"37d838b7-b11b-477d-a0b8-104cf02771a9","system_id":"levelo_inurba_marseille","lat":43.28732,"lon":5.36084,"is_reserved":false,"is_disabled":false,"rental_uris":{"android":"levelo://app?vid=37d838b7-b11b-477d-a0b8-104cf02771a9","ios":"levelo://app?vid=37d838b7-b11b-477d-a0b8-104cf02771a9"},"vehicle_type_id":"4","last_reported":1762333984,"current_range_meters":12800,"station_id":"cki0cbj6b192h4jlfktg","pricing_plan_id":"cebpf4jnsgd1na2vs0mg"},{"bike_id":"765b9661-2b24-4c0f-a9fb-732d7409b10c","system_id":"levelo_inurba_marseille","lat":43.21618,"lon":5.34438,"is_reserved":false,"is_disabled":false,"rental_uris":{"android":"levelo://app?vid=765b9661-2b24-4c0f-a9fb-732d7409b10c","ios":"levelo://app?vid=765b9661-2b24-4c0f-a9fb-732d7409b10c"},"vehicle_type_id":"4","last_reported":1762333984,"current_range_meters":12800,"station_id":"","pricing_plan_id":"cebpf4jnsgd1na2vs0mg"},{"bike_id":"d16911f9-0093-4796-bbbd-eb912eeb6174","system_id":"levelo_inurba_marseille","lat":43.25936,"lon":5.40897,"is_reserved":false,"is_disabled":false,"rental_uris":{"android":"levelo://app?vid=d16911f9-0093-4796-bbbd-eb912eeb6174","ios":"levelo://app?vid=d16911f9-0093-4796-bbbd-eb912eeb6174"},"vehicle_type_id":"4","last_reported":1762333984,"current_range_meters":12800,"station_id":"ce4bhm92rcd13ifvqglg","pricing_plan_id":"cebpf4jnsgd1na2vs0mg"},{"bike_id":"69145967-c249-43c4-9122-5eb05d32d73b","system_id":"levelo_inurba_marseille","lat":43.2732,"lon":5.39077,"is_reserved":false,"is_disabled":false,"rental_uris":{"android":"levelo://app?vid=69145967-c249-43c4-9122-5eb05d32d73b","ios":"levelo://app?vid=69145967-c249-43c4-9122-5eb05d32d73b"},"vehicle_type_id":"4","last_reported":1762333984,"current_range_meters":12800,"station_id":"ce4bhgp2rcd13ifvqfe0","pricing_plan_id":"cebpf4jnsgd1na2vs0mg"},{"bike_id":"164d5702-0547-4346-b871-1b96ca114dc1","system_id":"levelo_inurba_marseille","lat":43.269867,"lon":5.42233,"is_reserved":false,"is_disabled":false,"rental_uris":{"android":"levelo://app?vid=164d5702-0547-4346-b871-1b96ca114dc1","ios":"levelo://app?vid=164d5702-0547-4346-b871-1b96ca114dc1"},"vehicle_type_id":"4","last_reported":1762333984,"current_range_meters":12800,"station_id":"ce4bhk92rcd13ifvqgb0","pricing_plan_id":"cebpf4jnsgd1na2vs0mg"},{"bike_id":"15900d44-0dc9-4273-ab27-5c9ef40511e7","system_id":"levelo_inurba_marseille","lat":43.31339,"lon":5.36726,"is_reserved":false,"is_disabled":false,"rental_uris":{"android":"levelo://app?vid=15900d44-0dc9-4273-ab27-5c9ef40511e7","ios":"levelo://app?vid=15900d44-0dc9-4273-ab27-5c9ef40511e7"},"vehicle_type_id":"4","last_reported":1762333984,"current_range_meters":12800,"station_id":"ce4bgr92rcd13ifvqc6g","pricing_plan_id":"cebpf4jnsgd1na2vs0mg"},{"bike_id":"b8950634-601f-4b1a-a8ca-9ac75a365486","system_id":"levelo_inurba_marseille","lat":43.30476,"lon":5.37907,"is_reserved":false,"is_disabled":false,"rental_uris":{"android":"levelo://app?vid=b8950634-601f-4b1a-a8ca-9ac75a365486","ios":"levelo://app?vid=b8950634-601f-4b1a-a8ca-9ac75a365486"},"vehicle_type_id":"4","last_reported":1762333984,"current_range_meters":13600,"station_id":"ce4bgup2rcd13ifvqcn0","pricing_plan_id":"cebpf4jnsgd1na2vs0mg"},{"bike_id":"10760b76-3da0-47f3-8292-34aed5acc9d0","system_id":"levelo_inurba_marseille","lat":43.27944,"lon":5.41047,"is_reserved":false,"is_disabled":false,"rental_uris":{"android":"levelo://app?vid=10760b76-3da0-47f3-8292-34aed5acc9d0","ios":"levelo://app?vid=10760b76-3da0-47f3-8292-34aed5acc9d0"},"vehicle_type_id":"4","last_reported":1762333984,"current_range_meters":13600,"station_id":"ce4bhnp2rcd13ifvqh0g","pricing_plan_id":"cebpf4jnsgd1na2vs0mg"},{"bike_id":"d47980af-6a27-4877-b694-0fcefd40990a","system_id":"levelo_inurba_marseille","lat":43.30475,"lon":5.37904,"is_reserved":false,"is_disabled":false,"rental_uris":{"android":"levelo://app?vid=d47980af-6a27-4877-b694-0fcefd40990a","ios":"levelo://app?vid=d47980af-6a27-4877-b694-0fcefd40990a"},"vehicle_type_id":"4","last_reported":1762333984,"current_range_meters":13600,"station_id":"ce4bgup2rcd13ifvqcn0","pricing_plan_id":"cebpf4jnsgd1na2vs0mg"},{"bike_id":"13c3ccaa-99d2-4685-a1fa-a15f41ed3f72","system_id":"levelo_inurba_marseille","lat":43.3055,"lon":5.36524,"is_reserved":false,"is_disabled":false,"rental_uris":{"android":"levelo://app?vid=13c3ccaa-99d2-4685-a1fa-a15f41ed3f72","ios":"levelo://app?vid=13c3ccaa-99d2-4685-a1fa-a15f41ed3f72"},"vehicle_type_id":"4","last_reported":1762333984,"current_range_meters":13600,"station_id":"ce4bgs12rcd13ifvqcag","pricing_plan_id":"cebpf4jnsgd1na2vs0mg"},{"bike_id":"c2ab50fe-a113-42d6-85c2-9be22ea12653","system_id":"levelo_inurba_marseille","lat":43.25958,"lon":5.40885,"is_reserved":false,"is_disabled":false,"rental_uris":{"android":"levelo://app?vid=c2ab50fe-a113-42d6-85c2-9be22ea12653","ios":"levelo://app?vid=c2ab50fe-a113-42d6-85c2-9be22ea12653"},"vehicle_type_id":"4","last_reported":1762333984,"current_range_meters":13600,"station_id":"ce4bhm92rcd13ifvqglg","pricing_plan_id":"cebpf4jnsgd1na2vs0mg"},{"bike_id":"e2104b6a-7e12-4a20-ae1b-cf4b446d5e26","system_id":"levelo_inurba_marseille","lat":43.28483,"lon":5.48403,"is_reserved":false,"is_disabled":false,"rental_uris":{"android":"levelo://app?vid=e2104b6a-7e12-4a20-ae1b-cf4b446d5e26","ios":"levelo://app?vid=e2104b6a-7e12-4a20-ae1b-cf4b446d5e26"},"vehicle_type_id":"4","last_reported":1762333984,"current_range_meters":13600,"station_id":"st_d3svhcjqgbts73a3dn0g","pricing_plan_id":"cebpf4jnsgd1na2vs0mg"},{"bike_id":"bacb9c52-ae0d-48f0-aa92-6c038e31315d","system_id":"levelo_inurba_marseille","lat":43.2928,"lon":5.387689,"is_reserved":false,"is_disabled":false,"rental_uris":{"android":"levelo://app?vid=bacb9c52-ae0d-48f0-aa92-6c038e31315d","ios":"levelo://app?vid=bacb9c52-ae0d-48f0-aa92-6c038e31315d"},"vehicle_type_id":"4","last_reported":1762333984,"current_range_meters":13600,"station_id":"","pricing_plan_id":"cebpf4jnsgd1na2vs0mg"},{"bike_id":"bcc138ed-a420-49ce-bd09-2812d40d19ee","system_id":"levelo_inurba_marseille","lat":43.24069,"lon":5.37759,"is_reserved":false,"is_disabled":false,"rental_uris":{"android":"levelo://app?vid=bcc138ed-a420-49ce-bd09-2812d40d19ee","ios":"levelo://app?vid=bcc138ed-a420-49ce-bd09-2812d40d19ee"},"vehicle_type_id":"4","last_reported":1762333984,"current_range_meters":13600,"station_id":"ce4bhnp2rcd13ifvqgvg","pricing_plan_id":"cebpf4jnsgd1na2vs0mg"},{"bike_id":"460958aa-abb4-46e7-a2e3-909165861081","system_id":"levelo_inurba_marseille","lat":43.29838,"lon":5.36273,"is_reserved":false,"is_disabled":false,"rental_uris":{"android":"levelo://app?vid=460958aa-abb4-46e7-a2e3-909165861081","ios":"levelo://app?vid=460958aa-abb4-46e7-a2e3-909165861081"},"vehicle_type_id":"4","last_reported":1762333984,"current_range_meters":13600,"station_id":"ce4bgpp2rcd13ifvqc3g","pricing_plan_id":"cebpf4jnsgd1na2vs0mg"},{"bike_id":"e458a04e-8648-405c-ad83-b53d61f3e64a","system_id":"levelo_inurba_marseille","lat":43.229309,"lon":5.353794,"is_reserved":false,"is_disabled":false,"rental_uris":{"android":"levelo://app?vid=e458a04e-8648-405c-ad83-b53d61f3e64a","ios":"levelo://app?vid=e458a04e-8648-405c-ad83-b53d61f3e64a"},"vehicle_type_id":"4","last_reported":1762333984,"current_range_meters":14000,"station_id":"cpo3532slgdg3j2ikp40","pricing_plan_id":"cebpf4jnsgd1na2vs0mg"},{"bike_id":"593036ad-2a77-4763-9f09-9796f6468513","system_id":"levelo_inurba_marseille","lat":43.30351,"lon":5.41875,"is_reserved":false,"is_disabled":false,"rental_uris":{"android":"levelo://app?vid=593036ad-2a77-4763-9f09-9796f6468513","ios":"levelo://app?vid=593036ad-2a77-4763-9f09-9796f6468513"},"vehicle_type_id":"4","last_reported":1762333984,"current_range_meters":14000,"station_id":"ce4bhop2rcd13ifvqh7g","pricing_plan_id":"cebpf4jnsgd1na2vs0mg"},{"bike_id":"5f93c904-b9ec-4f25-8b7b-6c7a835949a0","system_id":"levelo_inurba_marseille","lat":43.2594,"lon":5.40886,"is_reserved":false,"is_disabled":false,"rental_uris":{"android":"levelo://app?vid=5f93c904-b9ec-4f25-8b7b-6c7a835949a0","ios":"levelo://app?vid=5f93c904-b9ec-4f25-8b7b-6c7a835949a0"},"vehicle_type_id":"4","last_reported":1762333984,"current_range_meters":14000,"station_id":"ce4bhm92rcd13ifvqglg","pricing_plan_id":"cebpf4jnsgd1na2vs0mg"},{"bike_id":"ffa09e43-06f0-4fdf-8444-99998243b633","system_id":"levelo_inurba_marseille","lat":43.26684,"lon":5.38268,"is_reserved":false,"is_disabled":false,"rental_uris":{"android":"levelo://app?vid=ffa09e43-06f0-4fdf-8444-99998243b633","ios":"levelo://app?vid=ffa09e43-06f0-4fdf-8444-99998243b633"},"vehicle_type_id":"4","last_reported":1762333984,"current_range_meters":14000,"station_id":"ce4bhg92rcd13ifvqf90","pricing_plan_id":"cebpf4jnsgd1na2vs0mg"},{"bike_id":"389ca07e-e3c9-430f-850d-3a86e9fc776a","system_id":"levelo_inurba_marseille","lat":43.31319,"lon":5.36718,"is_reserved":false,"is_disabled":false,"rental_uris":{"android":"levelo://app?vid=389ca07e-e3c9-430f-850d-3a86e9fc776a","ios":"levelo://app?vid=389ca07e-e3c9-430f-850d-3a86e9fc776a"},"vehicle_type_id":"4","last_reported":1762333984,"current_range_meters":14000,"station_id":"ce4bgr92rcd13ifvqc6g","pricing_plan_id":"cebpf4jnsgd1na2vs0mg"},{"bike_id":"1c7c3644-d6bb-4eff-832b-0f155425662c","system_id":"levelo_inurba_marseille","lat":43.320985,"lon":5.366039,"is_reserved":false,"is_disabled":false,"rental_uris":{"android":"levelo://app?vid=1c7c3644-d6bb-4eff-832b-0f155425662c","ios":"levelo://app?vid=1c7c3644-d6bb-4eff-832b-0f155425662c"},"vehicle_type_id":"4","last_reported":1762333984,"current_range_meters":14000,"station_id":"ce4bhrh2rcd13ifvqhug","pricing_plan_id":"cebpf4jnsgd1na2vs0mg"},{"bike_id":"2ecf69a5-dd5a-4797-a967-76411d68b0f1","system_id":"levelo_inurba_marseille","lat":43.25927,"lon":5.40906,"is_reserved":false,"is_disabled":false,"rental_uris":{"android":"levelo://app?vid=2ecf69a5-dd5a-4797-a967-76411d68b0f1","ios":"levelo://app?vid=2ecf69a5-dd5a-4797-a967-76411d68b0f1"},"vehicle_type_id":"4","last_reported":1762333984,"current_range_meters":14000,"station_id":"ce4bhm92rcd13ifvqglg","pricing_plan_id":"cebpf4jnsgd1na2vs0mg"},{"bike_id":"839b0ee5-7b96-41df-a192-d6fc3a3bebee","system_id":"levelo_inurba_marseille","lat":43.30537,"lon":5.36547,"is_reserved":false,"is_disabled":false,"rental_uris":{"android":"levelo://app?vid=839b0ee5-7b96-41df-a192-d6fc3a3bebee","ios":"levelo://app?vid=839b0ee5-7b96-41df-a192-d6fc3a3bebee"},"vehicle_type_id":"4","last_reported":1762333984,"current_range_meters":14000,"station_id":"ce4bgs12rcd13ifvqcag","pricing_plan_id":"cebpf4jnsgd1na2vs0mg"},{"bike_id":"9f0334c6-58cc-4b17-803a-c3297d907754","system_id":"levelo_inurba_marseille","lat":43.27425,"lon":5.39418,"is_reserved":false,"is_disabled":false,"rental_uris":{"android":"levelo://app?vid=9f0334c6-58cc-4b17-803a-c3297d907754","ios":"levelo://app?vid=9f0334c6-58cc-4b17-803a-c3297d907754"},"vehicle_type_id":"4","last_reported":1762333984,"current_range_meters":14000,"station_id":"ce4bhdp2rcd13ifvqf20","pricing_plan_id":"cebpf4jnsgd1na2vs0mg"},{"bike_id":"a887b1cd-286a-477e-b7f7-98653ff5555e","system_id":"levelo_inurba_marseille","lat":43.26706,"lon":5.41211,"is_reserved":false,"is_disabled":false,"rental_uris":{"android":"levelo://app?vid=a887b1cd-286a-477e-b7f7-98653ff5555e","ios":"levelo://app?vid=a887b1cd-286a-477e-b7f7-98653ff5555e"},"vehicle_type_id":"4","last_reported":1762333984,"current_range_meters":14400,"station_id":"","pricing_plan_id":"cebpf4jnsgd1na2vs0mg"},{"bike_id":"2821c9ce-5a17-4c43-af5c-8560dd5fb1f8","system_id":"levelo_inurba_marseille","lat":43.24039,"lon":5.3778,"is_reserved":false,"is_disabled":false,"rental_uris":{"android":"levelo://app?vid=2821c9ce-5a17-4c43-af5c-8560dd5fb1f8","ios":"levelo://app?vid=2821c9ce-5a17-4c43-af5c-8560dd5fb1f8"},"vehicle_type_id":"4","last_reported":1762333984,"current_range_meters":14400,"station_id":"ce4bhnp2rcd13ifvqgvg","pricing_plan_id":"cebpf4jnsgd1na2vs0mg"},{"bike_id":"70adadce-b025-4db3-81c9-bb604d9f6f06","system_id":"levelo_inurba_marseille","lat":43.30148,"lon":5.3809,"is_reserved":false,"is_disabled":false,"rental_uris":{"android":"levelo://app?vid=70adadce-b025-4db3-81c9-bb604d9f6f06","ios":"levelo://app?vid=70adadce-b025-4db3-81c9-bb604d9f6f06"},"vehicle_type_id":"4","last_reported":1762333984,"current_range_meters":14400,"station_id":"ce4bgjp2rcd13ifvqbh0","pricing_plan_id":"cebpf4jnsgd1na2vs0mg"},{"bike_id":"ab9b2bcc-ea75-449d-adbb-4add292d38c4","system_id":"levelo_inurba_marseille","lat":43.347938,"lon":5.37372,"is_reserved":false,"is_disabled":false,"rental_uris":{"android":"levelo://app?vid=ab9b2bcc-ea75-449d-adbb-4add292d38c4","ios":"levelo://app?vid=ab9b2bcc-ea75-449d-adbb-4add292d38c4"},"vehicle_type_id":"4","last_reported":1762333984,"current_range_meters":14400,"station_id":"","pricing_plan_id":"cebpf4jnsgd1na2vs0mg"},{"bike_id":"b9fd5a1b-fd04-4b24-a46a-4d2a6504e33d","system_id":"levelo_inurba_marseille","lat":43.32762,"lon":5.42429,"is_reserved":false,"is_disabled":false,"rental_uris":{"android":"levelo://app?vid=b9fd5a1b-fd04-4b24-a46a-4d2a6504e33d","ios":"levelo://app?vid=b9fd5a1b-fd04-4b24-a46a-4d2a6504e33d"},"vehicle_type_id":"4","last_reported":1762333984,"current_range_meters":14400,"station_id":"","pricing_plan_id":"cebpf4jnsgd1na2vs0mg"},{"bike_id":"8dcca48b-f36b-4574-ac35-0f04b245352c","system_id":"levelo_inurba_marseille","lat":43.307953,"lon":5.435225,"is_reserved":false,"is_disabled":false,"rental_uris":{"android":"levelo://app?vid=8dcca48b-f36b-4574-ac35-0f04b245352c","ios":"levelo://app?vid=8dcca48b-f36b-4574-ac35-0f04b245352c"},"vehicle_type_id":"4","last_reported":1762333984,"current_range_meters":14400,"station_id":"","pricing_plan_id":"cebpf4jnsgd1na2vs0mg"},{"bike_id":"85b01de7-4f6b-4521-bb9e-c159e0fde0dc","system_id":"levelo_inurba_marseille","lat":43.26686,"lon":5.38276,"is_reserved":false,"is_disabled":false,"rental_uris":{"android":"levelo://app?vid=85b01de7-4f6b-4521-bb9e-c159e0fde0dc","ios":"levelo://app?vid=85b01de7-4f6b-4521-bb9e-c159e0fde0dc"},"vehicle_type_id":"4","last_reported":1762333984,"current_range_meters":14400,"station_id":"ce4bhg92rcd13ifvqf90","pricing_plan_id":"cebpf4jnsgd1na2vs0mg"},{"bike_id":"92775789-142e-484d-9972-40c0fd7ff85c","system_id":"levelo_inurba_marseille","lat":43.30902,"lon":5.36842,"is_reserved":false,"is_disabled":false,"rental_uris":{"android":"levelo://app?vid=92775789-142e-484d-9972-40c0fd7ff85c","ios":"levelo://app?vid=92775789-142e-484d-9972-40c0fd7ff85c"},"vehicle_type_id":"4","last_reported":1762333984,"current_range_meters":14400,"station_id":"ce4bgn92rcd13ifvqbvg","pricing_plan_id":"cebpf4jnsgd1na2vs0mg"},{"bike_id":"ccf319fd-51f0-43ca-8948-67301941b5ee","system_id":"levelo_inurba_marseille","lat":43.26556,"lon":5.39004,"is_reserved":false,"is_disabled":false,"rental_uris":{"android":"levelo://app?vid=ccf319fd-51f0-43ca-8948-67301941b5ee","ios":"levelo://app?vid=ccf319fd-51f0-43ca-8948-67301941b5ee"},"vehicle_type_id":"4","last_reported":1762333984,"current_range_meters":14800,"station_id":"ce4bhe12rcd13ifvqf30","pricing_plan_id":"cebpf4jnsgd1na2vs0mg"},{"bike_id":"1b4a955f-9b04-47b6-8346-bcfdc6800fb1","system_id":"levelo_inurba_marseille","lat":43.31759,"lon":5.39026,"is_reserved":false,"is_disabled":false,"rental_uris":{"android":"levelo://app?vid=1b4a955f-9b04-47b6-8346-bcfdc6800fb1","ios":"levelo://app?vid=1b4a955f-9b04-47b6-8346-bcfdc6800fb1"},"vehicle_type_id":"4","last_reported":1762333984,"current_range_meters":15200,"station_id":"ce4bhqp2rcd13ifvqhng","pricing_plan_id":"cebpf4jnsgd1na2vs0mg"},{"bike_id":"bcac1c24-90fc-4609-baac-34013d616e31","system_id":"levelo_inurba_marseille","lat":43.24167,"lon":5.36397,"is_reserved":false,"is_disabled":false,"rental_uris":{"android":"levelo://app?vid=bcac1c24-90fc-4609-baac-34013d616e31","ios":"levelo://app?vid=bcac1c24-90fc-4609-baac-34013d616e31"},"vehicle_type_id":"4","last_reported":1762333984,"current_range_meters":15200,"station_id":"cpo36qri1sfpv3e86is0","pricing_plan_id":"cebpf4jnsgd1na2vs0mg"},{"bike_id":"94b06f3e-9c43-404e-899a-d1e48d6d7a76","system_id":"levelo_inurba_marseille","lat":43.287102,"lon":5.399967,"is_reserved":false,"is_disabled":false,"rental_uris":{"android":"levelo://app?vid=94b06f3e-9c43-404e-899a-d1e48d6d7a76","ios":"levelo://app?vid=94b06f3e-9c43-404e-899a-d1e48d6d7a76"},"vehicle_type_id":"4","last_reported":1762333984,"current_range_meters":16000,"station_id":"ce4bho92rcd13ifvqh3g","pricing_plan_id":"cebpf4jnsgd1na2vs0mg"},{"bike_id":"bcb3c39b-ec48-48ef-9eac-eb8b71840959","system_id":"levelo_inurba_marseille","lat":43.33757,"lon":5.37464,"is_reserved":false,"is_disabled":false,"rental_uris":{"android":"levelo://app?vid=bcb3c39b-ec48-48ef-9eac-eb8b71840959","ios":"levelo://app?vid=bcb3c39b-ec48-48ef-9eac-eb8b71840959"},"vehicle_type_id":"4","last_reported":1762333984,"current_range_meters":16000,"station_id":"","pricing_plan_id":"cebpf4jnsgd1na2vs0mg"},{"bike_id":"0a567e7b-a8c7-4700-b2e5-90b665b67c4d","system_id":"levelo_inurba_marseille","lat":43.2618,"lon":5.40516,"is_reserved":false,"is_disabled":false,"rental_uris":{"android":"levelo://app?vid=0a567e7b-a8c7-4700-b2e5-90b665b67c4d","ios":"levelo://app?vid=0a567e7b-a8c7-4700-b2e5-90b665b67c4d"},"vehicle_type_id":"4","last_reported":1762333984,"current_range_meters":16000,"station_id":"ce4bhmh2rcd13ifvqgmg","pricing_plan_id":"cebpf4jnsgd1na2vs0mg"},{"bike_id":"27aefe03-bbd2-43d3-8d72-3a7105da9194","system_id":"levelo_inurba_marseille","lat":43.31356,"lon":5.37911,"is_reserved":false,"is_disabled":false,"rental_uris":{"android":"levelo://app?vid=27aefe03-bbd2-43d3-8d72-3a7105da9194","ios":"levelo://app?vid=27aefe03-bbd2-43d3-8d72-3a7105da9194"},"vehicle_type_id":"4","last_reported":1762333984,"current_range_meters":16000,"station_id":"","pricing_plan_id":"cebpf4jnsgd1na2vs0mg"},{"bike_id":"80a32258-b757-4b02-b12c-6aeb36314f57","system_id":"levelo_inurba_marseille","lat":43.29277,"lon":5.36839,"is_reserved":false,"is_disabled":false,"rental_uris":{"android":"levelo://app?vid=80a32258-b757-4b02-b12c-6aeb36314f57","ios":"levelo://app?vid=80a32258-b757-4b02-b12c-6aeb36314f57"},"vehicle_type_id":"4","last_reported":1762333984,"current_range_meters":16000,"station_id":"ce4bhbp2rcd13ifvqesg","pricing_plan_id":"cebpf4jnsgd1na2vs0mg"},{"bike_id":"baf56fd1-d80d-4c2e-a11f-6f0881ce3265","system_id":"levelo_inurba_marseille","lat":43.257171,"lon":5.411023,"is_reserved":false,"is_disabled":false,"rental_uris":{"android":"levelo://app?vid=baf56fd1-d80d-4c2e-a11f-6f0881ce3265","ios":"levelo://app?vid=baf56fd1-d80d-4c2e-a11f-6f0881ce3265"},"vehicle_type_id":"4","last_reported":1762333984,"current_range_meters":16000,"station_id":"","pricing_plan_id":"cebpf4jnsgd1na2vs0mg"},{"bike_id":"e3d6ac93-3aed-4f3a-9ade-6ec73efc12e4","system_id":"levelo_inurba_marseille","lat":43.30296,"lon":5.37691,"is_reserved":false,"is_disabled":false,"rental_uris":{"android":"levelo://app?vid=e3d6ac93-3aed-4f3a-9ade-6ec73efc12e4","ios":"levelo://app?vid=e3d6ac93-3aed-4f3a-9ade-6ec73efc12e4"},"vehicle_type_id":"4","last_reported":1762333984,"current_range_meters":16400,"station_id":"ce4bguh2rcd13ifvqcj0","pricing_plan_id":"cebpf4jnsgd1na2vs0mg"},{"bike_id":"ee7b4a2a-327b-4f7c-88c2-d8bb993ed935","system_id":"levelo_inurba_marseille","lat":43.25927,"lon":5.40902,"is_reserved":false,"is_disabled":false,"rental_uris":{"android":"levelo://app?vid=ee7b4a2a-327b-4f7c-88c2-d8bb993ed935","ios":"levelo://app?vid=ee7b4a2a-327b-4f7c-88c2-d8bb993ed935"},"vehicle_type_id":"4","last_reported":1762333984,"current_range_meters":16400,"station_id":"ce4bhm92rcd13ifvqglg","pricing_plan_id":"cebpf4jnsgd1na2vs0mg"},{"bike_id":"68d5c92f-1f0d-4d06-a7dc-4f57a7975119","system_id":"levelo_inurba_marseille","lat":43.24074,"lon":5.37756,"is_reserved":false,"is_disabled":false,"rental_uris":{"android":"levelo://app?vid=68d5c92f-1f0d-4d06-a7dc-4f57a7975119","ios":"levelo://app?vid=68d5c92f-1f0d-4d06-a7dc-4f57a7975119"},"vehicle_type_id":"4","last_reported":1762333984,"current_range_meters":16400,"station_id":"ce4bhnp2rcd13ifvqgvg","pricing_plan_id":"cebpf4jnsgd1na2vs0mg"},{"bike_id":"813d84df-d28e-442a-86a4-2693a3f1117d","system_id":"levelo_inurba_marseille","lat":43.230518,"lon":5.354951,"is_reserved":false,"is_disabled":false,"rental_uris":{"android":"levelo://app?vid=813d84df-d28e-442a-86a4-2693a3f1117d","ios":"levelo://app?vid=813d84df-d28e-442a-86a4-2693a3f1117d"},"vehicle_type_id":"4","last_reported":1762333984,"current_range_meters":16400,"station_id":"cpo3342slgdg3j2ifvpg","pricing_plan_id":"cebpf4jnsgd1na2vs0mg"},{"bike_id":"983ffc7c-b099-496e-8f16-36ff15d6ed53","system_id":"levelo_inurba_marseille","lat":43.29968,"lon":5.385,"is_reserved":false,"is_disabled":false,"rental_uris":{"android":"levelo://app?vid=983ffc7c-b099-496e-8f16-36ff15d6ed53","ios":"levelo://app?vid=983ffc7c-b099-496e-8f16-36ff15d6ed53"},"vehicle_type_id":"4","last_reported":1762333984,"current_range_meters":16400,"station_id":"ce4bgj92rcd13ifvqbd0","pricing_plan_id":"cebpf4jnsgd1na2vs0mg"},{"bike_id":"cff64f4e-5f37-43ea-ae7e-1ca574864a38","system_id":"levelo_inurba_marseille","lat":43.32449,"lon":5.42812,"is_reserved":false,"is_disabled":false,"rental_uris":{"android":"levelo://app?vid=cff64f4e-5f37-43ea-ae7e-1ca574864a38","ios":"levelo://app?vid=cff64f4e-5f37-43ea-ae7e-1ca574864a38"},"vehicle_type_id":"4","last_reported":1762333984,"current_range_meters":16400,"station_id":"","pricing_plan_id":"cebpf4jnsgd1na2vs0mg"},{"bike_id":"9f42320e-716a-463d-a0ac-defefad10bcf","system_id":"levelo_inurba_marseille","lat":43.24173,"lon":5.397296,"is_reserved":false,"is_disabled":false,"rental_uris":{"android":"levelo://app?vid=9f42320e-716a-463d-a0ac-defefad10bcf","ios":"levelo://app?vid=9f42320e-716a-463d-a0ac-defefad10bcf"},"vehicle_type_id":"4","last_reported":1762333984,"current_range_meters":16400,"station_id":"ce4bhn12rcd13ifvqgpg","pricing_plan_id":"cebpf4jnsgd1na2vs0mg"},{"bike_id":"42d2792a-88bd-48e5-afe0-4b6400cd337a","system_id":"levelo_inurba_marseille","lat":43.31681,"lon":5.382,"is_reserved":false,"is_disabled":false,"rental_uris":{"android":"levelo://app?vid=42d2792a-88bd-48e5-afe0-4b6400cd337a","ios":"levelo://app?vid=42d2792a-88bd-48e5-afe0-4b6400cd337a"},"vehicle_type_id":"4","last_reported":1762333984,"current_range_meters":16400,"station_id":"","pricing_plan_id":"cebpf4jnsgd1na2vs0mg"},{"bike_id":"ca46fdbd-ac89-432a-9c58-507605a7d54c","system_id":"levelo_inurba_marseille","lat":43.29269,"lon":5.37629,"is_reserved":false,"is_disabled":false,"rental_uris":{"android":"levelo://app?vid=ca46fdbd-ac89-432a-9c58-507605a7d54c","ios":"levelo://app?vid=ca46fdbd-ac89-432a-9c58-507605a7d54c"},"vehicle_type_id":"4","last_reported":1762333984,"current_range_meters":16400,"station_id":"ce4bgi12rcd13ifvqb80","pricing_plan_id":"cebpf4jnsgd1na2vs0mg"},{"bike_id":"183aea80-8dbe-4056-98be-d2037192cb58","system_id":"levelo_inurba_marseille","lat":43.24083,"lon":5.37744,"is_reserved":false,"is_disabled":false,"rental_uris":{"android":"levelo://app?vid=183aea80-8dbe-4056-98be-d2037192cb58","ios":"levelo://app?vid=183aea80-8dbe-4056-98be-d2037192cb58"},"vehicle_type_id":"4","last_reported":1762333984,"current_range_meters":16400,"station_id":"ce4bhnp2rcd13ifvqgvg","pricing_plan_id":"cebpf4jnsgd1na2vs0mg"},{"bike_id":"a1187d6c-958c-4d38-88b9-38ceba247cf4","system_id":"levelo_inurba_marseille","lat":43.31345,"lon":5.36711,"is_reserved":false,"is_disabled":false,"rental_uris":{"android":"levelo://app?vid=a1187d6c-958c-4d38-88b9-38ceba247cf4","ios":"levelo://app?vid=a1187d6c-958c-4d38-88b9-38ceba247cf4"},"vehicle_type_id":"4","last_reported":1762333984,"current_range_meters":16400,"station_id":"ce4bgr92rcd13ifvqc6g","pricing_plan_id":"cebpf4jnsgd1na2vs0mg"},{"bike_id":"81dcc136-dea2-46c0-98af-42dbdee92b54","system_id":"levelo_inurba_marseille","lat":43.284823,"lon":5.484058,"is_reserved":false,"is_disabled":false,"rental_uris":{"android":"levelo://app?vid=81dcc136-dea2-46c0-98af-42dbdee92b54","ios":"levelo://app?vid=81dcc136-dea2-46c0-98af-42dbdee92b54"},"vehicle_type_id":"4","last_reported":1762333984,"current_range_meters":16400,"station_id":"","pricing_plan_id":"cebpf4jnsgd1na2vs0mg"},{"bike_id":"38f3a1ad-1a7f-4179-ad15-f2aa06e77d9a","system_id":"levelo_inurba_marseille","lat":43.30915,"lon":5.36858,"is_reserved":false,"is_disabled":false,"rental_uris":{"android":"levelo://app?vid=38f3a1ad-1a7f-4179-ad15-f2aa06e77d9a","ios":"levelo://app?vid=38f3a1ad-1a7f-4179-ad15-f2aa06e77d9a"},"vehicle_type_id":"4","last_reported":1762333984,"current_range_meters":16400,"station_id":"ce4bgn92rcd13ifvqbvg","pricing_plan_id":"cebpf4jnsgd1na2vs0mg"},{"bike_id":"9de1ea12-df0c-4af8-853d-d2f2fa88f9c2","system_id":"levelo_inurba_marseille","lat":43.27202,"lon":5.39179,"is_reserved":false,"is_disabled":false,"rental_uris":{"android":"levelo://app?vid=9de1ea12-df0c-4af8-853d-d2f2fa88f9c2","ios":"levelo://app?vid=9de1ea12-df0c-4af8-853d-d2f2fa88f9c2"},"vehicle_type_id":"4","last_reported":1762333984,"current_range_meters":16800,"station_id":"ce4bhhp2rcd13ifvqfm0","pricing_plan_id":"cebpf4jnsgd1na2vs0mg"},{"bike_id":"bd84767d-9a60-4b3b-a598-7f2c790c16f1","system_id":"levelo_inurba_marseille","lat":43.26489,"lon":5.3955,"is_reserved":false,"is_disabled":true,"rental_uris":{"android":"levelo://app?vid=bd84767d-9a60-4b3b-a598-7f2c790c16f1","ios":"levelo://app?vid=bd84767d-9a60-4b3b-a598-7f2c790c16f1"},"vehicle_type_id":"4","last_reported":1762333984,"current_range_meters":16800,"station_id":"ce4bhi12rcd13ifvqfq0","pricing_plan_id":"cebpf4jnsgd1na2vs0mg"},{"bike_id":"c6d2dafc-fb2c-4b82-8b78-f3d7d347211b","system_id":"levelo_inurba_marseille","lat":43.32365,"lon":5.36754,"is_reserved":false,"is_disabled":false,"rental_uris":{"android":"levelo://app?vid=c6d2dafc-fb2c-4b82-8b78-f3d7d347211b","ios":"levelo://app?vid=c6d2dafc-fb2c-4b82-8b78-f3d7d347211b"},"vehicle_type_id":"4","last_reported":1762333984,"current_range_meters":16800,"station_id":"ce4bhsh2rcd13ifvqi2g","pricing_plan_id":"cebpf4jnsgd1na2vs0mg"},{"bike_id":"01dac5f4-266b-419a-a9bd-a94574c64697","system_id":"levelo_inurba_marseille","lat":43.26684,"lon":5.38276,"is_reserved":false,"is_disabled":false,"rental_uris":{"android":"levelo://app?vid=01dac5f4-266b-419a-a9bd-a94574c64697","ios":"levelo://app?vid=01dac5f4-266b-419a-a9bd-a94574c64697"},"vehicle_type_id":"4","last_reported":1762333984,"current_range_meters":16800,"station_id":"ce4bhg92rcd13ifvqf90","pricing_plan_id":"cebpf4jnsgd1na2vs0mg"},{"bike_id":"787ae1e0-5549-4d57-89d0-d46e5f57b20a","system_id":"levelo_inurba_marseille","lat":43.28147,"lon":5.42657,"is_reserved":false,"is_disabled":false,"rental_uris":{"android":"levelo://app?vid=787ae1e0-5549-4d57-89d0-d46e5f57b20a","ios":"levelo://app?vid=787ae1e0-5549-4d57-89d0-d46e5f57b20a"},"vehicle_type_id":"4","last_reported":1762333984,"current_range_meters":16800,"station_id":"ce4bhnh2rcd13ifvqgug","pricing_plan_id":"cebpf4jnsgd1na2vs0mg"},{"bike_id":"4b9b61f9-e84c-4648-b6f6-faf53029a4ee","system_id":"levelo_inurba_marseille","lat":43.27067,"lon":5.42274,"is_reserved":false,"is_disabled":false,"rental_uris":{"android":"levelo://app?vid=4b9b61f9-e84c-4648-b6f6-faf53029a4ee","ios":"levelo://app?vid=4b9b61f9-e84c-4648-b6f6-faf53029a4ee"},"vehicle_type_id":"4","last_reported":1762333984,"current_range_meters":17200,"station_id":"ce4bhk92rcd13ifvqgb0","pricing_plan_id":"cebpf4jnsgd1na2vs0mg"},{"bike_id":"e035c84c-d3bf-4104-9825-2a3d45c1c0d0","system_id":"levelo_inurba_marseille","lat":43.29791,"lon":5.38088,"is_reserved":false,"is_disabled":false,"rental_uris":{"android":"levelo://app?vid=e035c84c-d3bf-4104-9825-2a3d45c1c0d0","ios":"levelo://app?vid=e035c84c-d3bf-4104-9825-2a3d45c1c0d0"},"vehicle_type_id":"4","last_reported":1762333984,"current_range_meters":17200,"station_id":"ce4bgip2rcd13ifvqbb0","pricing_plan_id":"cebpf4jnsgd1na2vs0mg"},{"bike_id":"d1f85e00-6138-4826-ab02-142019bc3b7a","system_id":"levelo_inurba_marseille","lat":43.29578,"lon":5.36736,"is_reserved":false,"is_disabled":false,"rental_uris":{"android":"levelo://app?vid=d1f85e00-6138-4826-ab02-142019bc3b7a","ios":"levelo://app?vid=d1f85e00-6138-4826-ab02-142019bc3b7a"},"vehicle_type_id":"4","last_reported":1762333984,"current_range_meters":17200,"station_id":"ce4bgph2rcd13ifvqc2g","pricing_plan_id":"cebpf4jnsgd1na2vs0mg"},{"bike_id":"011adf65-4f68-4847-a13d-24a720a8adcb","system_id":"levelo_inurba_marseille","lat":43.31259,"lon":5.36867,"is_reserved":false,"is_disabled":false,"rental_uris":{"android":"levelo://app?vid=011adf65-4f68-4847-a13d-24a720a8adcb","ios":"levelo://app?vid=011adf65-4f68-4847-a13d-24a720a8adcb"},"vehicle_type_id":"4","last_reported":1762333984,"current_range_meters":17200,"station_id":"ce4bgl92rcd13ifvqbq0","pricing_plan_id":"cebpf4jnsgd1na2vs0mg"},{"bike_id":"8471bcea-3335-4789-9cec-667cd2617349","system_id":"levelo_inurba_marseille","lat":43.31721,"lon":5.42386,"is_reserved":false,"is_disabled":false,"rental_uris":{"android":"levelo://app?vid=8471bcea-3335-4789-9cec-667cd2617349","ios":"levelo://app?vid=8471bcea-3335-4789-9cec-667cd2617349"},"vehicle_type_id":"4","last_reported":1762333984,"current_range_meters":17200,"station_id":"ce4bhp92rcd13ifvqhbg","pricing_plan_id":"cebpf4jnsgd1na2vs0mg"},{"bike_id":"e946e9ec-a4d2-434a-b465-1ffc5a3e6b52","system_id":"levelo_inurba_marseille","lat":43.25921,"lon":5.40913,"is_reserved":false,"is_disabled":false,"rental_uris":{"android":"levelo://app?vid=e946e9ec-a4d2-434a-b465-1ffc5a3e6b52","ios":"levelo://app?vid=e946e9ec-a4d2-434a-b465-1ffc5a3e6b52"},"vehicle_type_id":"4","last_reported":1762333984,"current_range_meters":17200,"station_id":"ce4bhm92rcd13ifvqglg","pricing_plan_id":"cebpf4jnsgd1na2vs0mg"},{"bike_id":"2f285cf1-b949-4a01-937d-dcaf2bf2b345","system_id":"levelo_inurba_marseille","lat":43.27329,"lon":5.39071,"is_reserved":false,"is_disabled":false,"rental_uris":{"android":"levelo://app?vid=2f285cf1-b949-4a01-937d-dcaf2bf2b345","ios":"levelo://app?vid=2f285cf1-b949-4a01-937d-dcaf2bf2b345"},"vehicle_type_id":"4","last_reported":1762333984,"current_range_meters":17200,"station_id":"ce4bhgp2rcd13ifvqfe0","pricing_plan_id":"cebpf4jnsgd1na2vs0mg"},{"bike_id":"a6010974-670e-49c0-b408-8e5fee4c2775","system_id":"levelo_inurba_marseille","lat":43.24169,"lon":5.363965,"is_reserved":false,"is_disabled":false,"rental_uris":{"android":"levelo://app?vid=a6010974-670e-49c0-b408-8e5fee4c2775","ios":"levelo://app?vid=a6010974-670e-49c0-b408-8e5fee4c2775"},"vehicle_type_id":"4","last_reported":1762333984,"current_range_meters":17600,"station_id":"cpo36qri1sfpv3e86is0","pricing_plan_id":"cebpf4jnsgd1na2vs0mg"},{"bike_id":"ce1c2141-edec-497f-b7e0-3db3a275c2ce","system_id":"levelo_inurba_marseille","lat":43.29748,"lon":5.38075,"is_reserved":false,"is_disabled":false,"rental_uris":{"android":"levelo://app?vid=ce1c2141-edec-497f-b7e0-3db3a275c2ce","ios":"levelo://app?vid=ce1c2141-edec-497f-b7e0-3db3a275c2ce"},"vehicle_type_id":"4","last_reported":1762333984,"current_range_meters":17600,"station_id":"","pricing_plan_id":"cebpf4jnsgd1na2vs0mg"},{"bike_id":"95667a99-bb27-4fab-bcc4-0039bce1b456","system_id":"levelo_inurba_marseille","lat":43.26952,"lon":5.38925,"is_reserved":false,"is_disabled":false,"rental_uris":{"android":"levelo://app?vid=95667a99-bb27-4fab-bcc4-0039bce1b456","ios":"levelo://app?vid=95667a99-bb27-4fab-bcc4-0039bce1b456"},"vehicle_type_id":"4","last_reported":1762333984,"current_range_meters":17600,"station_id":"ce4bhhh2rcd13ifvqfl0","pricing_plan_id":"cebpf4jnsgd1na2vs0mg"},{"bike_id":"54f2b277-a252-415f-928c-108cd6e72a19","system_id":"levelo_inurba_marseille","lat":43.302704,"lon":5.377195,"is_reserved":false,"is_disabled":false,"rental_uris":{"android":"levelo://app?vid=54f2b277-a252-415f-928c-108cd6e72a19","ios":"levelo://app?vid=54f2b277-a252-415f-928c-108cd6e72a19"},"vehicle_type_id":"4","last_reported":1762333984,"current_range_meters":17600,"station_id":"ce4bguh2rcd13ifvqcj0","pricing_plan_id":"cebpf4jnsgd1na2vs0mg"},{"bike_id":"cdb34d18-daf3-4f02-8b47-6ae8d62050cb","system_id":"levelo_inurba_marseille","lat":43.32482,"lon":5.36575,"is_reserved":false,"is_disabled":false,"rental_uris":{"android":"levelo://app?vid=cdb34d18-daf3-4f02-8b47-6ae8d62050cb","ios":"levelo://app?vid=cdb34d18-daf3-4f02-8b47-6ae8d62050cb"},"vehicle_type_id":"4","last_reported":1762333984,"current_range_meters":18000,"station_id":"ce4bhs12rcd13ifvqhvg","pricing_plan_id":"cebpf4jnsgd1na2vs0mg"},{"bike_id":"5e3e69af-f619-4a16-9bf1-ccaf1c87b6d6","system_id":"levelo_inurba_marseille","lat":43.30285,"lon":5.37689,"is_reserved":false,"is_disabled":false,"rental_uris":{"android":"levelo://app?vid=5e3e69af-f619-4a16-9bf1-ccaf1c87b6d6","ios":"levelo://app?vid=5e3e69af-f619-4a16-9bf1-ccaf1c87b6d6"},"vehicle_type_id":"4","last_reported":1762333984,"current_range_meters":18000,"station_id":"ce4bguh2rcd13ifvqcj0","pricing_plan_id":"cebpf4jnsgd1na2vs0mg"},{"bike_id":"c24c2cd9-54b8-4138-837c-7ca0e65e609b","system_id":"levelo_inurba_marseille","lat":43.29615,"lon":5.37733,"is_reserved":false,"is_disabled":false,"rental_uris":{"android":"levelo://app?vid=c24c2cd9-54b8-4138-837c-7ca0e65e609b","ios":"levelo://app?vid=c24c2cd9-54b8-4138-837c-7ca0e65e609b"},