{"last_updated":1718644059,"ttl":30,"version":"2.2","data":{"bikes":[{"bike_id":"82f83946-a7dd-4ae3-bc97-79dc1b28e22e","system_id":"levelo_inurba_marseille","lat":43.312239,"lon":5.368562,"is_reserved":false,"is_disabled":false,"rental_uris":{"android":"levelo://app?vid=82f83946-a7dd-4ae3-bc97-79dc1b28e22e","ios":"levelo://app?vid=82f83946-a7dd-4ae3-bc97-79dc1b28e22e"},"vehicle_type_id":"4","last_reported":1718644060,"current_range_meters":400,"station_id":"ce4bgl92rcd13ifvqbq0","pricing_plan_id":"cebpf4jnsgd1na2vs0mg"},{"bike_id":"5278c218-71c4-4981-a7ce-b46944c4cd1c","system_id":"levelo_inurba_marseille","lat":43.312239,"lon":5.368562,"is_reserved":false,"is_disabled":false,"rental_uris":{"android":"levelo://app?vid=5278c218-71c4-4981-a7ce-b46944c4cd1c","ios":"levelo://app?vid=5278c218-71c4-4981-a7ce-b46944c4cd1c"},"vehicle_type_id":"4","last_reported":1718644060,"current_range_meters":0,"station_id":"ce4bgl92rcd13ifvqbq0","pricing_plan_id":"cebpf4jnsgd1na2vs0mg"},{"bike_id":"3b1bf77f-94f5-4843-9c1f-f5be9db08193","system_id":"levelo_inurba_marseille","lat":43.31509,"lon":5.37123,"is_reserved":false,"is_disabled":false,"rental_uris":{"android":"levelo://app?vid=3b1bf77f-94f5-4843-9c1f-f5be9db08193","ios":"levelo://app?vid=3b1bf77f-94f5-4843-9c1f-f5be9db08193"},"vehicle_type_id":"4","last_reported":1718644060,"current_range_meters":20800,"station_id":"","pricing_plan_id":"cebpf4jnsgd1na2vs0mg"},{"bike_id":"e4aace69-0051-4f50-8ca9-dc406684945c","system_id":"levelo_inurba_marseille","lat":43.315113,"lon":5.371233,"is_reserved":false,"is_disabled":false,"rental_uris":{"android":"levelo://app?vid=e4aace69-0051-4f50-8ca9-dc406684945c","ios":"levelo://app?vid=e4aace69-0051-4f50-8ca9-dc406684945c"},"vehicle_type_id":"4","last_reported":1718644060,"current_range_meters":1200,"station_id":"","pricing_plan_id":"cebpf4jnsgd1na2vs0mg"},{"bike_id":"06397ed5-6e06-4357-8166-539e2303a1dc","system_id":"levelo_inurba_marseille","lat":43.314811,"lon":5.373103,"is_reserved":false,"is_disabled":false,"rental_uris":{"android":"levelo://app?vid=06397ed5-6e06-4357-8166-539e2303a1dc","ios":"levelo://app?vid=06397ed5-6e06-4357-8166-539e2303a1dc"},"vehicle_type_id":"4","last_reported":1718644060,"current_range_meters":23600,"station_id":"ce4bgt12rcd13ifvqcd0","pricing_plan_id":"cebpf4jnsgd1na2vs0mg"},{"bike_id":"7e391cea-9a0a-48dc-bda3-c5289c0409c6","system_id":"levelo_inurba_marseille","lat":43.314811,"lon":5.373103,"is_reserved":false,"is_disabled":false,"rental_uris":{"android":"levelo://app?vid=7e391cea-9a0a-48dc-bda3-c5289c0409c6","ios":"levelo://app?vid=7e391cea-9a0a-48dc-bda3-c5289c0409c6"},"vehicle_type_id":"4","last_reported":1718644060,"current_range_meters":17600,"station_id":"ce4bgt12rcd13ifvqcd0","pricing_plan_id":"cebpf4jnsgd1na2vs0mg"},{"bike_id":"a55094f9-a752-4c26-be42-3fd6fbe6c06d","system_id":"levelo_inurba_marseille","lat":43.309034,"lon":5.371783,"is_reserved":false,"is_disabled":false,"rental_uris":{"android":"levelo://app?vid=a55094f9-a752-4c26-be42-3fd6fbe6c06d","ios":"levelo://app?vid=a55094f9-a752-4c26-be42-3fd6fbe6c06d"},"vehicle_type_id":"4","last_reported":1718644060,"current_range_meters":19200,"station_id":"ce4bguh2rcd13ifvqckg","pricing_plan_id":"cebpf4jnsgd1na2vs0mg"},{"bike_id":"19fbc8e3-e4c5-46ce-8ac7-41d0314da69e","system_id":"levelo_inurba_marseille","lat":43.314494,"lon":5.373708,"is_reserved":false,"is_disabled":false,"rental_uris":{"android":"levelo://app?vid=19fbc8e3-e4c5-46ce-8ac7-41d0314da69e","ios":"levelo://app?vid=19fbc8e3-e4c5-46ce-8ac7-41d0314da69e"},"vehicle_type_id":"4","last_reported":1718644060,"current_range_meters":29200,"station_id":"","pricing_plan_id":"cebpf4jnsgd1na2vs0mg"},{"bike_id":"07861776-82d9-4352-82f8-7eee5340bfa5","system_id":"levelo_inurba_marseille","lat":43.309039,"lon":5.371797,"is_reserved":false,"is_disabled":false,"rental_uris":{"android":"levelo://app?vid=07861776-82d9-4352-82f8-7eee5340bfa5","ios":"levelo://app?vid=07861776-82d9-4352-82f8-7eee5340bfa5"},"vehicle_type_id":"4","last_reported":1718644060,"current_range_meters":0,"station_id":"ce4bguh2rcd13ifvqckg","pricing_plan_id":"cebpf4jnsgd1na2vs0mg"},{"bike_id":"270143d2-5b46-4379-861d-fec58bb798db","system_id":"levelo_inurba_marseille","lat":43.314532,"lon":5.373771,"is_reserved":false,"is_disabled":false,"rental_uris":{"android":"levelo://app?vid=270143d2-5b46-4379-861d-fec58bb798db","ios":"levelo://app?vid=270143d2-5b46-4379-861d-fec58bb798db"},"vehicle_type_id":"4","last_reported":1718644060,"current_range_meters":28800,"station_id":"","pricing_plan_id":"cebpf4jnsgd1na2vs0mg"},{"bike_id":"3aabf1c1-9643-4a70-9400-02bfb97a9d5c","system_id":"levelo_inurba_marseille","lat":43.309034,"lon":5.371783,"is_reserved":false,"is_disabled":false,"rental_uris":{"android":"levelo://app?vid=3aabf1c1-9643-4a70-9400-02bfb97a9d5c","ios":"levelo://app?vid=3aabf1c1-9643-4a70-9400-02bfb97a9d5c"},"vehicle_type_id":"4","last_reported":1718644060,"current_range_meters":25200,"station_id":"ce4bguh2rcd13ifvqckg","pricing_plan_id":"cebpf4jnsgd1na2vs0mg"},{"bike_id":"800411f3-e60a-42cd-88ae-ebb3c6f6a1f3","system_id":"levelo_inurba_marseille","lat":43.31663,"lon":5.37231,"is_reserved":false,"is_disabled":false,"rental_uris":{"android":"levelo://app?vid=800411f3-e60a-42cd-88ae-ebb3c6f6a1f3","ios":"levelo://app?vid=800411f3-e60a-42cd-88ae-ebb3c6f6a1f3"},"vehicle_type_id":"4","last_reported":1718644060,"current_range_meters":25600,"station_id":"","pricing_plan_id":"cebpf4jnsgd1na2vs0mg"},{"bike_id":"ec52b1a7-757b-4cb0-9bc6-b08867f48a8e","system_id":"levelo_inurba_marseille","lat":43.305368,"lon":5.367343,"is_reserved":false,"is_disabled":false,"rental_uris":{"android":"levelo://app?vid=ec52b1a7-757b-4cb0-9bc6-b08867f48a8e","ios":"levelo://app?vid=ec52b1a7-757b-4cb0-9bc6-b08867f48a8e"},"vehicle_type_id":"4","last_reported":1718644060,"current_range_meters":4000,"station_id":"ce4bgrp2rcd13ifvqc9g","pricing_plan_id":"cebpf4jnsgd1na2vs0mg"},{"bike_id":"35b6ce0a-f1b9-4b3c-868e-0c4cd948afa7","system_id":"levelo_inurba_marseille","lat":43.30537,"lon":5.367345,"is_reserved":false,"is_disabled":false,"rental_uris":{"android":"levelo://app?vid=35b6ce0a-f1b9-4b3c-868e-0c4cd948afa7","ios":"levelo://app?vid=35b6ce0a-f1b9-4b3c-868e-0c4cd948afa7"},"vehicle_type_id":"4","last_reported":1718644060,"current_range_meters":0,"station_id":"ce4bgrp2rcd13ifvqc9g","pricing_plan_id":"cebpf4jnsgd1na2vs0mg"},{"bike_id":"7e48e882-ba77-49ce-a252-c75617869dec","system_id":"levelo_inurba_marseille","lat":43.305368,"lon":5.367343,"is_reserved":false,"is_disabled":false,"rental_uris":{"android":"levelo://app?vid=7e48e882-ba77-49ce-a252-c75617869dec","ios":"levelo://app?vid=7e48e882-ba77-49ce-a252-c75617869dec"},"vehicle_type_id":"4","last_reported":1718644060,"current_range_meters":800,"station_id":"ce4bgrp2rcd13ifvqc9g","pricing_plan_id":"cebpf4jnsgd1na2vs0mg"},{"bike_id":"71303e17-1d84-4fe4-a11f-3f07d4584ccf","system_id":"levelo_inurba_marseille","lat":43.305368,"lon":5.367343,"is_reserved":false,"is_disabled":false,"rental_uris":{"android":"levelo://app?vid=71303e17-1d84-4fe4-a11f-3f07d4584ccf","ios":"levelo://app?vid=71303e17-1d84-4fe4-a11f-3f07d4584ccf"},"vehicle_type_id":"4","last_reported":1718644060,"current_range_meters":400,"station_id":"ce4bgrp2rcd13ifvqc9g","pricing_plan_id":"cebpf4jnsgd1na2vs0mg"},{"bike_id":"459d8e0c-e3f8-402c-bb1a-434326bb35d2","system_id":"levelo_inurba_marseille","lat":43.30537,"lon":5.367345,"is_reserved":false,"is_disabled":false,"rental_uris":{"android":"levelo://app?vid=459d8e0c-e3f8-402c-bb1a-434326bb35d2","ios":"levelo://app?vid=459d8e0c-e3f8-402c-bb1a-434326bb35d2"},"vehicle_type_id":"4","last_reported":1718644060,"current_range_meters":4000,"station_id":"ce4bgrp2rcd13ifvqc9g","pricing_plan_id":"cebpf4jnsgd1na2vs0mg"},{"bike_id":"4a1bde21-ec2c-4f1a-be7b-b44e1f6ccd30","system_id":"levelo_inurba_marseille","lat":43.305368,"lon":5.367343,"is_reserved":false,"is_disabled":false,"rental_uris":{"android":"levelo://app?vid=4a1bde21-ec2c-4f1a-be7b-b44e1f6ccd30","ios":"levelo://app?vid=4a1bde21-ec2c-4f1a-be7b-b44e1f6ccd30"},"vehicle_type_id":"4","last_reported":1718644060,"current_range_meters":31200,"station_id":"ce4bgrp2rcd13ifvqc9g","pricing_plan_id":"cebpf4jnsgd1na2vs0mg"},{"bike_id":"0f8050ea-2f25-489d-9b1f-0bb597dfaa3b","system_id":"levelo_inurba_marseille","lat":43.305989,"lon":5.37225,"is_reserved":false,"is_disabled":false,"rental_uris":{"android":"levelo://app?vid=0f8050ea-2f25-489d-9b1f-0bb597dfaa3b","ios":"levelo://app?vid=0f8050ea-2f25-489d-9b1f-0bb597dfaa3b"},"vehicle_type_id":"4","last_reported":1718644060,"current_range_meters":6800,"station_id":"ce4bgqh2rcd13ifvqc4g","pricing_plan_id":"cebpf4jnsgd1na2vs0mg"},{"bike_id":"53796f03-4370-48ed-acbb-730cad10ddcb","system_id":"levelo_inurba_marseille","lat":43.311153,"lon":5.377673,"is_reserved":false,"is_disabled":false,"rental_uris":{"android":"levelo://app?vid=53796f03-4370-48ed-acbb-730cad10ddcb","ios":"levelo://app?vid=53796f03-4370-48ed-acbb-730cad10ddcb"},"vehicle_type_id":"4","last_reported":1718644060,"current_range_meters":0,"station_id":"ce4bgt92rcd13ifvqcg0","pricing_plan_id":"cebpf4jnsgd1na2vs0mg"},{"bike_id":"8ad2a78e-4457-4ed6-ab0a-1be154581810","system_id":"levelo_inurba_marseille","lat":43.311125,"lon":5.377624,"is_reserved":false,"is_disabled":false,"rental_uris":{"android":"levelo://app?vid=8ad2a78e-4457-4ed6-ab0a-1be154581810","ios":"levelo://app?vid=8ad2a78e-4457-4ed6-ab0a-1be154581810"},"vehicle_type_id":"4","last_reported":1718644060,"current_range_meters":20400,"station_id":"ce4bgt92rcd13ifvqcg0","pricing_plan_id":"cebpf4jnsgd1na2vs0mg"},{"bike_id":"2d964eef-0057-4469-8bc3-7558be0341c7","system_id":"levelo_inurba_marseille","lat":43.311125,"lon":5.377624,"is_reserved":false,"is_disabled":false,"rental_uris":{"android":"levelo://app?vid=2d964eef-0057-4469-8bc3-7558be0341c7","ios":"levelo://app?vid=2d964eef-0057-4469-8bc3-7558be0341c7"},"vehicle_type_id":"4","last_reported":1718644060,"current_range_meters":4000,"station_id":"ce4bgt92rcd13ifvqcg0","pricing_plan_id":"cebpf4jnsgd1na2vs0mg"},{"bike_id":"b5d9ef59-854d-4793-86a4-62d5f4220c91","system_id":"levelo_inurba_marseille","lat":43.31686,"lon":5.37739,"is_reserved":false,"is_disabled":false,"rental_uris":{"android":"levelo://app?vid=b5d9ef59-854d-4793-86a4-62d5f4220c91","ios":"levelo://app?vid=b5d9ef59-854d-4793-86a4-62d5f4220c91"},"vehicle_type_id":"4","last_reported":1718644060,"current_range_meters":30000,"station_id":"ce4bgth2rcd13ifvqch0","pricing_plan_id":"cebpf4jnsgd1na2vs0mg"},{"bike_id":"86d0dda6-6caf-4875-bb01-ff3e9c12ce96","system_id":"levelo_inurba_marseille","lat":43.31709,"lon":5.37757,"is_reserved":false,"is_disabled":false,"rental_uris":{"android":"levelo://app?vid=86d0dda6-6caf-4875-bb01-ff3e9c12ce96","ios":"levelo://app?vid=86d0dda6-6caf-4875-bb01-ff3e9c12ce96"},"vehicle_type_id":"4","last_reported":1718644060,"current_range_meters":24000,"station_id":"ce4bgth2rcd13ifvqch0","pricing_plan_id":"cebpf4jnsgd1na2vs0mg"},{"bike_id":"89f2dd91-ec11-4743-82a8-569fefed81aa","system_id":"levelo_inurba_marseille","lat":43.31709,"lon":5.37758,"is_reserved":false,"is_disabled":false,"rental_uris":{"android":"levelo://app?vid=89f2dd91-ec11-4743-82a8-569fefed81aa","ios":"levelo://app?vid=89f2dd91-ec11-4743-82a8-569fefed81aa"},"vehicle_type_id":"4","last_reported":1718644060,"current_range_meters":0,"station_id":"ce4bgth2rcd13ifvqch0","pricing_plan_id":"cebpf4jnsgd1na2vs0mg"},{"bike_id":"e247502a-7e50-4e75-a960-30e5e483f40c","system_id":"levelo_inurba_marseille","lat":43.330442,"lon":5.389148,"is_reserved":false,"is_disabled":false,"rental_uris":{"android":"levelo://app?vid=e247502a-7e50-4e75-a960-30e5e483f40c","ios":"levelo://app?vid=e247502a-7e50-4e75-a960-30e5e483f40c"},"vehicle_type_id":"4","last_reported":1718644060,"current_range_meters":5600,"station_id":"ce4bhr92rcd13ifvqhrg","pricing_plan_id":"cebpf4jnsgd1na2vs0mg"},{"bike_id":"b5625780-a137-4c0f-bc1c-357e0acd3bac","system_id":"levelo_inurba_marseille","lat":43.305706,"lon":5.365654,"is_reserved":false,"is_disabled":false,"rental_uris":{"android":"levelo://app?vid=b5625780-a137-4c0f-bc1c-357e0acd3bac","ios":"levelo://app?vid=b5625780-a137-4c0f-bc1c-357e0acd3bac"},"vehicle_type_id":"4","last_reported":1718644060,"current_range_meters":800,"station_id":"ce4bgs12rcd13ifvqcag","pricing_plan_id":"cebpf4jnsgd1na2vs0mg"},{"bike_id":"8cfd755f-1958-467d-b37f-f1b511ffcfab","system_id":"levelo_inurba_marseille","lat":43.315289,"lon":5.380349,"is_reserved":false,"is_disabled":false,"rental_uris":{"android":"levelo://app?vid=8cfd755f-1958-467d-b37f-f1b511ffcfab","ios":"levelo://app?vid=8cfd755f-1958-467d-b37f-f1b511ffcfab"},"vehicle_type_id":"4","last_reported":1718644060,"current_range_meters":13200,"station_id":"ce4bhsp2rcd13ifvqi50","pricing_plan_id":"cebpf4jnsgd1na2vs0mg"},{"bike_id":"1ed9c7cf-9f56-40b7-b4aa-b1f150ec08e9","system_id":"levelo_inurba_marseille","lat":43.301939,"lon":5.366286,"is_reserved":false,"is_disabled":false,"rental_uris":{"android":"levelo://app?vid=1ed9c7cf-9f56-40b7-b4aa-b1f150ec08e9","ios":"levelo://app?vid=1ed9c7cf-9f56-40b7-b4aa-b1f150ec08e9"},"vehicle_type_id":"4","last_reported":1718644060,"current_range_meters":3600,"station_id":"ce4bgrh2rcd13ifvqc8g","pricing_plan_id":"cebpf4jnsgd1na2vs0mg"},{"bike_id":"3c0c6b12-d005-4663-adeb-a203a68e74d5","system_id":"levelo_inurba_marseille","lat":43.3135,"lon":5.38298,"is_reserved":false,"is_disabled":false,"rental_uris":{"android":"levelo://app?vid=3c0c6b12-d005-4663-adeb-a203a68e74d5","ios":"levelo://app?vid=3c0c6b12-d005-4663-adeb-a203a68e74d5"},"vehicle_type_id":"4","last_reported":1718644060,"current_range_meters":3200,"station_id":"","pricing_plan_id":"cebpf4jnsgd1na2vs0mg"},{"bike_id":"fe9ab12b-3ebd-4887-a10d-7976c7dcead4","system_id":"levelo_inurba_marseille","lat":43.304606,"lon":5.379026,"is_reserved":false,"is_disabled":false,"rental_uris":{"android":"levelo://app?vid=fe9ab12b-3ebd-4887-a10d-7976c7dcead4","ios":"levelo://app?vid=fe9ab12b-3ebd-4887-a10d-7976c7dcead4"},"vehicle_type_id":"4","last_reported":1718644060,"current_range_meters":20000,"station_id":"ce4bgup2rcd13ifvqcn0","pricing_plan_id":"cebpf4jnsgd1na2vs0mg"},{"bike_id":"7e1e3b34-4bb9-42a4-93b2-c1f6cdb45766","system_id":"levelo_inurba_marseille","lat":43.32475,"lon":5.365815,"is_reserved":false,"is_disabled":false,"rental_uris":{"android":"levelo://app?vid=7e1e3b34-4bb9-42a4-93b2-c1f6cdb45766","ios":"levelo://app?vid=7e1e3b34-4bb9-42a4-93b2-c1f6cdb45766"},"vehicle_type_id":"4","last_reported":1718644060,"current_range_meters":10400,"station_id":"ce4bhs12rcd13ifvqhvg","pricing_plan_id":"cebpf4jnsgd1na2vs0mg"},{"bike_id":"003a8031-48ca-475c-9297-f48fda892efa","system_id":"levelo_inurba_marseille","lat":43.32477,"lon":5.36562,"is_reserved":false,"is_disabled":false,"rental_uris":{"android":"levelo://app?vid=003a8031-48ca-475c-9297-f48fda892efa","ios":"levelo://app?vid=003a8031-48ca-475c-9297-f48fda892efa"},"vehicle_type_id":"4","last_reported":1718644060,"current_range_meters":8400,"station_id":"ce4bhs12rcd13ifvqhvg","pricing_plan_id":"cebpf4jnsgd1na2vs0mg"},{"bike_id":"f4165603-f176-440c-bc04-2cd46c775ce4","system_id":"levelo_inurba_marseille","lat":43.32479,"lon":5.36565,"is_reserved":false,"is_disabled":false,"rental_uris":{"android":"levelo://app?vid=f4165603-f176-440c-bc04-2cd46c775ce4","ios":"levelo://app?vid=f4165603-f176-440c-bc04-2cd46c775ce4"},"vehicle_type_id":"4","last_reported":1718644060,"current_range_meters":1200,"station_id":"ce4bhs12rcd13ifvqhvg","pricing_plan_id":"cebpf4jnsgd1na2vs0mg"},{"bike_id":"a42c4b5b-d2e7-48e0-b1c9-fb00c3fdb384","system_id":"levelo_inurba_marseille","lat":43.32488,"lon":5.36579,"is_reserved":false,"is_disabled":false,"rental_uris":{"android":"levelo://app?vid=a42c4b5b-d2e7-48e0-b1c9-fb00c3fdb384","ios":"levelo://app?vid=a42c4b5b-d2e7-48e0-b1c9-fb00c3fdb384"},"vehicle_type_id":"4","last_reported":1718644060,"current_range_meters":22400,"station_id":"ce4bhs12rcd13ifvqhvg","pricing_plan_id":"cebpf4jnsgd1na2vs0mg"},{"bike_id":"aaeaf643-6abe-43dc-b66d-131f0d099c75","system_id":"levelo_inurba_marseille","lat":43.3249,"lon":5.36569,"is_reserved":false,"is_disabled":false,"rental_uris":{"android":"levelo://app?vid=aaeaf643-6abe-43dc-b66d-131f0d099c75","ios":"levelo://app?vid=aaeaf643-6abe-43dc-b66d-131f0d099c75"},"vehicle_type_id":"4","last_reported":1718644060,"current_range_meters":17600,"station_id":"ce4bhs12rcd13ifvqhvg","pricing_plan_id":"cebpf4jnsgd1na2vs0mg"},{"bike_id":"0e0b046c-65f4-4201-9665-175b55ab8bca","system_id":"levelo_inurba_marseille","lat":43.301429,"lon":5.37413,"is_reserved":false,"is_disabled":false,"rental_uris":{"android":"levelo://app?vid=0e0b046c-65f4-4201-9665-175b55ab8bca","ios":"levelo://app?vid=0e0b046c-65f4-4201-9665-175b55ab8bca"},"vehicle_type_id":"4","last_reported":1718644060,"current_range_meters":2400,"station_id":"ce4bgs92rcd13ifvqcc0","pricing_plan_id":"cebpf4jnsgd1na2vs0mg"},{"bike_id":"e395948c-d268-4eb4-8bee-ff721c828dab","system_id":"levelo_inurba_marseille","lat":43.319935,"lon":5.381699,"is_reserved":false,"is_disabled":false,"rental_uris":{"android":"levelo://app?vid=e395948c-d268-4eb4-8bee-ff721c828dab","ios":"levelo://app?vid=e395948c-d268-4eb4-8bee-ff721c828dab"},"vehicle_type_id":"4","last_reported":1718644060,"current_range_meters":22400,"station_id":"ce4bhr12rcd13ifvqhpg","pricing_plan_id":"cebpf4jnsgd1na2vs0mg"},{"bike_id":"9c25e1c9-7c5f-495c-b4a8-2b522a006a36","system_id":"levelo_inurba_marseille","lat":43.31998,"lon":5.38166,"is_reserved":false,"is_disabled":false,"rental_uris":{"android":"levelo://app?vid=9c25e1c9-7c5f-495c-b4a8-2b522a006a36","ios":"levelo://app?vid=9c25e1c9-7c5f-495c-b4a8-2b522a006a36"},"vehicle_type_id":"4","last_reported":1718644060,"current_range_meters":16000,"station_id":"ce4bhr12rcd13ifvqhpg","pricing_plan_id":"cebpf4jnsgd1na2vs0mg"},{"bike_id":"dbeec4e1-4612-4bf2-aef7-b321ec922f8d","system_id":"levelo_inurba_marseille","lat":43.31268,"lon":5.385241,"is_reserved":false,"is_disabled":false,"rental_uris":{"android":"levelo://app?vid=dbeec4e1-4612-4bf2-aef7-b321ec922f8d","ios":"levelo://app?vid=dbeec4e1-4612-4bf2-aef7-b321ec922f8d"},"vehicle_type_id":"4","last_reported":1718644060,"current_range_meters":9600,"station_id":"","pricing_plan_id":"cebpf4jnsgd1na2vs0mg"},{"bike_id":"489dc641-8660-433e-b84e-ac54ea3cf3b0","system_id":"levelo_inurba_marseille","lat":43.305364,"lon":5.384119,"is_reserved":false,"is_disabled":false,"rental_uris":{"android":"levelo://app?vid=489dc641-8660-433e-b84e-ac54ea3cf3b0","ios":"levelo://app?vid=489dc641-8660-433e-b84e-ac54ea3cf3b0"},"vehicle_type_id":"4","last_reported":1718644060,"current_range_meters":22400,"station_id":"ce4bgg92rcd13ifvqb30","pricing_plan_id":"cebpf4jnsgd1na2vs0mg"},{"bike_id":"49e32c55-54fc-4d65-afbc-3083103f4cbf","system_id":"levelo_inurba_marseille","lat":43.29983,"lon":5.37611,"is_reserved":false,"is_disabled":false,"rental_uris":{"android":"levelo://app?vid=49e32c55-54fc-4d65-afbc-3083103f4cbf","ios":"levelo://app?vid=49e32c55-54fc-4d65-afbc-3083103f4cbf"},"vehicle_type_id":"4","last_reported":1718644060,"current_range_meters":2000,"station_id":"","pricing_plan_id":"cebpf4jnsgd1na2vs0mg"},{"bike_id":"4ca3e9be-756c-48e2-8aa9-711eb752cea7","system_id":"levelo_inurba_marseille","lat":43.298433,"lon":5.362774,"is_reserved":false,"is_disabled":false,"rental_uris":{"android":"levelo://app?vid=4ca3e9be-756c-48e2-8aa9-711eb752cea7","ios":"levelo://app?vid=4ca3e9be-756c-48e2-8aa9-711eb752cea7"},"vehicle_type_id":"4","last_reported":1718644060,"current_range_meters":400,"station_id":"ce4bgpp2rcd13ifvqc3g","pricing_plan_id":"cebpf4jnsgd1na2vs0mg"},{"bike_id":"f593a335-7bc2-4582-8d44-d94109d8901f","system_id":"levelo_inurba_marseille","lat":43.311722,"lon":5.387247,"is_reserved":false,"is_disabled":false,"rental_uris":{"android":"levelo://app?vid=f593a335-7bc2-4582-8d44-d94109d8901f","ios":"levelo://app?vid=f593a335-7bc2-4582-8d44-d94109d8901f"},"vehicle_type_id":"4","last_reported":1718644060,"current_range_meters":8800,"station_id":"ce4bgv12rcd13ifvqcp0","pricing_plan_id":"cebpf4jnsgd1na2vs0mg"},{"bike_id":"295cc573-b6b9-4aec-9b7b-c718bfc88e42","system_id":"levelo_inurba_marseille","lat":43.311722,"lon":5.387247,"is_reserved":false,"is_disabled":false,"rental_uris":{"android":"levelo://app?vid=295cc573-b6b9-4aec-9b7b-c718bfc88e42","ios":"levelo://app?vid=295cc573-b6b9-4aec-9b7b-c718bfc88e42"},"vehicle_type_id":"4","last_reported":1718644060,"current_range_meters":0,"station_id":"ce4bgv12rcd13ifvqcp0","pricing_plan_id":"cebpf4jnsgd1na2vs0mg"},{"bike_id":"2410ce9c-5967-4db7-b411-46403507ad00","system_id":"levelo_inurba_marseille","lat":43.3229,"lon":5.38268,"is_reserved":false,"is_disabled":false,"rental_uris":{"android":"levelo://app?vid=2410ce9c-5967-4db7-b411-46403507ad00","ios":"levelo://app?vid=2410ce9c-5967-4db7-b411-46403507ad00"},"vehicle_type_id":"4","last_reported":1718644060,"current_range_meters":24800,"station_id":"ce4bhr12rcd13ifvqhqg","pricing_plan_id":"cebpf4jnsgd1na2vs0mg"},{"bike_id":"351dcc1c-aa00-45a1-ae52-8b3044c22886","system_id":"levelo_inurba_marseille","lat":43.322872,"lon":5.382756,"is_reserved":false,"is_disabled":false,"rental_uris":{"android":"levelo://app?vid=351dcc1c-aa00-45a1-ae52-8b3044c22886","ios":"levelo://app?vid=351dcc1c-aa00-45a1-ae52-8b3044c22886"},"vehicle_type_id":"4","last_reported":1718644060,"current_range_meters":7600,"station_id":"ce4bhr12rcd13ifvqhqg","pricing_plan_id":"cebpf4jnsgd1na2vs0mg"},{"bike_id":"7a83a878-ce64-4fa4-9b22-d734e8bf9474","system_id":"levelo_inurba_marseille","lat":43.297163,"lon":5.365866,"is_reserved":false,"is_disabled":false,"rental_uris":{"android":"levelo://app?vid=7a83a878-ce64-4fa4-9b22-d734e8bf9474","ios":"levelo://app?vid=7a83a878-ce64-4fa4-9b22-d734e8bf9474"},"vehicle_type_id":"4","last_reported":1718644060,"current_range_meters":0,"station_id":"ce4bgn12rcd13ifvqbt0","pricing_plan_id":"cebpf4jnsgd1na2vs0mg"},{"bike_id":"2a42502e-4a26-4730-a36d-a07ad7c25a95","system_id":"levelo_inurba_marseille","lat":43.318457,"lon":5.387081,"is_reserved":false,"is_disabled":false,"rental_uris":{"android":"levelo://app?vid=2a42502e-4a26-4730-a36d-a07ad7c25a95","ios":"levelo://app?vid=2a42502e-4a26-4730-a36d-a07ad7c25a95"},"vehicle_type_id":"4","last_reported":1718644060,"current_range_meters":14800,"station_id":"","pricing_plan_id":"cebpf4jnsgd1na2vs0mg"},{"bike_id":"475c5571-9a02-4102-aed8-0aeba4ccfd40","system_id":"levelo_inurba_marseille","lat":43.316183,"lon":5.389053,"is_reserved":false,"is_disabled":false,"rental_uris":{"android":"levelo://app?vid=475c5571-9a02-4102-aed8-0aeba4ccfd40","ios":"levelo://app?vid=475c5571-9a02-4102-aed8-0aeba4ccfd40"},"vehicle_type_id":"4","last_reported":1718644060,"current_range_meters":15200,"station_id":"","pricing_plan_id":"cebpf4jnsgd1na2vs0mg"},{"bike_id":"e8f0f43e-618f-4865-949f-43196db4ad5b","system_id":"levelo_inurba_marseille","lat":43.296131,"lon":5.370791,"is_reserved":false,"is_disabled":false,"rental_uris":{"android":"levelo://app?vid=e8f0f43e-618f-4865-949f-43196db4ad5b","ios":"levelo://app?vid=e8f0f43e-618f-4865-949f-43196db4ad5b"},"vehicle_type_id":"4","last_reported":1718644060,"current_range_meters":0,"station_id":"ce4bgnh2rcd13ifvqc0g","pricing_plan_id":"cebpf4jnsgd1na2vs0mg"},{"bike_id":"874adc1d-67ba-42d8-8a77-1c9bdc2ac820","system_id":"levelo_inurba_marseille","lat":43.29568,"lon":5.36636,"is_reserved":false,"is_disabled":false,"rental_uris":{"android":"levelo://app?vid=874adc1d-67ba-42d8-8a77-1c9bdc2ac820","ios":"levelo://app?vid=874adc1d-67ba-42d8-8a77-1c9bdc2ac820"},"vehicle_type_id":"4","last_reported":1718644060,"current_range_meters":0,"station_id":"","pricing_plan_id":"cebpf4jnsgd1na2vs0mg"},{"bike_id":"cb3d891d-6e82-4223-b10c-defc7b6caa21","system_id":"levelo_inurba_marseille","lat":43.29723,"lon":5.37673,"is_reserved":false,"is_disabled":false,"rental_uris":{"android":"levelo://app?vid=cb3d891d-6e82-4223-b10c-defc7b6caa21","ios":"levelo://app?vid=cb3d891d-6e82-4223-b10c-defc7b6caa21"},"vehicle_type_id":"4","last_reported":1718644060,"current_range_meters":0,"station_id":"ce4bgkh2rcd13ifvqbl0","pricing_plan_id":"cebpf4jnsgd1na2vs0mg"},{"bike_id":"f3a0994a-b05a-4917-b763-748510ef01b4","system_id":"levelo_inurba_marseille","lat":43.317557,"lon":5.390173,"is_reserved":false,"is_disabled":false,"rental_uris":{"android":"levelo://app?vid=f3a0994a-b05a-4917-b763-748510ef01b4","ios":"levelo://app?vid=f3a0994a-b05a-4917-b763-748510ef01b4"},"vehicle_type_id":"4","last_reported":1718644060,"current_range_meters":14800,"station_id":"ce4bhqp2rcd13ifvqhng","pricing_plan_id":"cebpf4jnsgd1na2vs0mg"},{"bike_id":"716d74ae-cb76-4372-afa8-27faa53a3fcf","system_id":"levelo_inurba_marseille","lat":43.317557,"lon":5.390173,"is_reserved":false,"is_disabled":false,"rental_uris":{"android":"levelo://app?vid=716d74ae-cb76-4372-afa8-27faa53a3fcf","ios":"levelo://app?vid=716d74ae-cb76-4372-afa8-27faa53a3fcf"},"vehicle_type_id":"4","last_reported":1718644060,"current_range_meters":11600,"station_id":"ce4bhqp2rcd13ifvqhng","pricing_plan_id":"cebpf4jnsgd1na2vs0mg"},{"bike_id":"f167fa32-bb7f-47a5-8017-df8910e1447e","system_id":"levelo_inurba_marseille","lat":43.317557,"lon":5.390173,"is_reserved":false,"is_disabled":false,"rental_uris":{"android":"levelo://app?vid=f167fa32-bb7f-47a5-8017-df8910e1447e","ios":"levelo://app?vid=f167fa32-bb7f-47a5-8017-df8910e1447e"},"vehicle_type_id":"4","last_reported":1718644060,"current_range_meters":6800,"station_id":"ce4bhqp2rcd13ifvqhng","pricing_plan_id":"cebpf4jnsgd1na2vs0mg"},{"bike_id":"2f16c346-17fa-4605-ba67-cf39f6e946cd","system_id":"levelo_inurba_marseille","lat":43.317557,"lon":5.390173,"is_reserved":false,"is_disabled":false,"rental_uris":{"android":"levelo://app?vid=2f16c346-17fa-4605-ba67-cf39f6e946cd","ios":"levelo://app?vid=2f16c346-17fa-4605-ba67-cf39f6e946cd"},"vehicle_type_id":"4","last_reported":1718644060,"current_range_meters":9600,"station_id":"ce4bhqp2rcd13ifvqhng","pricing_plan_id":"cebpf4jnsgd1na2vs0mg"},{"bike_id":"8d46fbd6-48ac-4213-aef9-46b49915de6d","system_id":"levelo_inurba_marseille","lat":43.317557,"lon":5.390173,"is_reserved":false,"is_disabled":false,"rental_uris":{"android":"levelo://app?vid=8d46fbd6-48ac-4213-aef9-46b49915de6d","ios":"levelo://app?vid=8d46fbd6-48ac-4213-aef9-46b49915de6d"},"vehicle_type_id":"4","last_reported":1718644060,"current_range_meters":23200,"station_id":"ce4bhqp2rcd13ifvqhng","pricing_plan_id":"cebpf4jnsgd1na2vs0mg"},{"bike_id":"4f164069-e5ae-4b3f-aff4-6672ee9cd6af","system_id":"levelo_inurba_marseille","lat":43.317557,"lon":5.390173,"is_reserved":false,"is_disabled":false,"rental_uris":{"android":"levelo://app?vid=4f164069-e5ae-4b3f-aff4-6672ee9cd6af","ios":"levelo://app?vid=4f164069-e5ae-4b3f-aff4-6672ee9cd6af"},"vehicle_type_id":"4","last_reported":1718644060,"current_range_meters":1600,"station_id":"ce4bhqp2rcd13ifvqhng","pricing_plan_id":"cebpf4jnsgd1na2vs0mg"},{"bike_id":"128e540d-a6ce-4e3e-ae2e-743b0c2ab7d4","system_id":"levelo_inurba_marseille","lat":43.317557,"lon":5.390173,"is_reserved":false,"is_disabled":false,"rental_uris":{"android":"levelo://app?vid=128e540d-a6ce-4e3e-ae2e-743b0c2ab7d4","ios":"levelo://app?vid=128e540d-a6ce-4e3e-ae2e-743b0c2ab7d4"},"vehicle_type_id":"4","last_reported":1718644060,"current_range_meters":12000,"station_id":"ce4bhqp2rcd13ifvqhng","pricing_plan_id":"cebpf4jnsgd1na2vs0mg"},{"bike_id":"c70dc1e5-54c9-40ba-8bca-e474e8f89f08","system_id":"levelo_inurba_marseille","lat":43.317557,"lon":5.390173,"is_reserved":false,"is_disabled":false,"rental_uris":{"android":"levelo://app?vid=c70dc1e5-54c9-40ba-8bca-e474e8f89f08","ios":"levelo://app?vid=c70dc1e5-54c9-40ba-8bca-e474e8f89f08"},"vehicle_type_id":"4","last_reported":1718644060,"current_range_meters":14800,"station_id":"ce4bhqp2rcd13ifvqhng","pricing_plan_id":"cebpf4jnsgd1na2vs0mg"},{"bike_id":"8d1ffc51-da4d-4a90-8547-e6c58c7093fa","system_id":"levelo_inurba_marseille","lat":43.317557,"lon":5.390173,"is_reserved":false,"is_disabled":false,"rental_uris":{"android":"levelo://app?vid=8d1ffc51-da4d-4a90-8547-e6c58c7093fa","ios":"levelo://app?vid=8d1ffc51-da4d-4a90-8547-e6c58c7093fa"},"vehicle_type_id":"4","last_reported":1718644060,"current_range_meters":5200,"station_id":"ce4bhqp2rcd13ifvqhng","pricing_plan_id":"cebpf4jnsgd1na2vs0mg"},{"bike_id":"b0708fa3-6b33-4ea6-8710-7f64926959ce","system_id":"levelo_inurba_marseille","lat":43.298037,"lon":5.381066,"is_reserved":false,"is_disabled":false,"rental_uris":{"android":"levelo://app?vid=b0708fa3-6b33-4ea6-8710-7f64926959ce","ios":"levelo://app?vid=b0708fa3-6b33-4ea6-8710-7f64926959ce"},"vehicle_type_id":"4","last_reported":1718644060,"current_range_meters":0,"station_id":"ce4bgip2rcd13ifvqbb0","pricing_plan_id":"cebpf4jnsgd1na2vs0mg"},{"bike_id":"1a398aeb-bd87-417e-a02a-1abe197f70e2","system_id":"levelo_inurba_marseille","lat":43.298037,"lon":5.381066,"is_reserved":false,"is_disabled":false,"rental_uris":{"android":"levelo://app?vid=1a398aeb-bd87-417e-a02a-1abe197f70e2","ios":"levelo://app?vid=1a398aeb-bd87-417e-a02a-1abe197f70e2"},"vehicle_type_id":"4","last_reported":1718644060,"current_range_meters":17200,"station_id":"ce4bgip2rcd13ifvqbb0","pricing_plan_id":"cebpf4jnsgd1na2vs0mg"},{"bike_id":"125b39fd-0788-4ec3-8201-531a83bcf457","system_id":"levelo_inurba_marseille","lat":43.29801,"lon":5.38106,"is_reserved":false,"is_disabled":false,"rental_uris":{"android":"levelo://app?vid=125b39fd-0788-4ec3-8201-531a83bcf457","ios":"levelo://app?vid=125b39fd-0788-4ec3-8201-531a83bcf457"},"vehicle_type_id":"4","last_reported":1718644060,"current_range_meters":400,"station_id":"ce4bgip2rcd13ifvqbb0","pricing_plan_id":"cebpf4jnsgd1na2vs0mg"},{"bike_id":"c6329e1a-e765-4292-b298-7441738c2bdf","system_id":"levelo_inurba_marseille","lat":43.2957,"lon":5.37494,"is_reserved":false,"is_disabled":false,"rental_uris":{"android":"levelo://app?vid=c6329e1a-e765-4292-b298-7441738c2bdf","ios":"levelo://app?vid=c6329e1a-e765-4292-b298-7441738c2bdf"},"vehicle_type_id":"4","last_reported":1718644060,"current_range_meters":0,"station_id":"ce4bgh92rcd13ifvqb50","pricing_plan_id":"cebpf4jnsgd1na2vs0mg"},{"bike_id":"f69cba16-9224-48d7-ad7c-aabdbac48eb8","system_id":"levelo_inurba_marseille","lat":43.304274,"lon":5.388873,"is_reserved":false,"is_disabled":false,"rental_uris":{"android":"levelo://app?vid=f69cba16-9224-48d7-ad7c-aabdbac48eb8","ios":"levelo://app?vid=f69cba16-9224-48d7-ad7c-aabdbac48eb8"},"vehicle_type_id":"4","last_reported":1718644060,"current_range_meters":5200,"station_id":"ce4bgk12rcd13ifvqbi0","pricing_plan_id":"cebpf4jnsgd1na2vs0mg"},{"bike_id":"88112a69-a392-4ae4-9c3a-261668356cb9","system_id":"levelo_inurba_marseille","lat":43.304274,"lon":5.388873,"is_reserved":false,"is_disabled":false,"rental_uris":{"android":"levelo://app?vid=88112a69-a392-4ae4-9c3a-261668356cb9","ios":"levelo://app?vid=88112a69-a392-4ae4-9c3a-261668356cb9"},"vehicle_type_id":"4","last_reported":1718644060,"current_range_meters":10000,"station_id":"ce4bgk12rcd13ifvqbi0","pricing_plan_id":"cebpf4jnsgd1na2vs0mg"},{"bike_id":"4a9dcde4-d091-4673-b075-1ce94aeef4c3","system_id":"levelo_inurba_marseille","lat":43.304274,"lon":5.388873,"is_reserved":false,"is_disabled":false,"rental_uris":{"android":"levelo://app?vid=4a9dcde4-d091-4673-b075-1ce94aeef4c3","ios":"levelo://app?vid=4a9dcde4-d091-4673-b075-1ce94aeef4c3"},"vehicle_type_id":"4","last_reported":1718644060,"current_range_meters":17200,"station_id":"ce4bgk12rcd13ifvqbi0","pricing_plan_id":"cebpf4jnsgd1na2vs0mg"},{"bike_id":"c82eb1b3-360a-404a-aaaa-84ca0f15a047","system_id":"levelo_inurba_marseille","lat":43.304274,"lon":5.388873,"is_reserved":false,"is_disabled":false,"rental_uris":{"android":"levelo://app?vid=c82eb1b3-360a-404a-aaaa-84ca0f15a047","ios":"levelo://app?vid=c82eb1b3-360a-404a-aaaa-84ca0f15a047"},"vehicle_type_id":"4","last_reported":1718644060,"current_range_meters":23600,"station_id":"ce4bgk12rcd13ifvqbi0","pricing_plan_id":"cebpf4jnsgd1na2vs0mg"},{"bike_id":"c1ab5e96-6a33-4ba8-8d6e-65bb0c78129f","system_id":"levelo_inurba_marseille","lat":43.29616,"lon":5.37706,"is_reserved":false,"is_disabled":false,"rental_uris":{"android":"levelo://app?vid=c1ab5e96-6a33-4ba8-8d6e-65bb0c78129f","ios":"levelo://app?vid=c1ab5e96-6a33-4ba8-8d6e-65bb0c78129f"},"vehicle_type_id":"4","last_reported":1718644060,"current_range_meters":0,"station_id":"ce4bgi92rcd13ifvqb90","pricing_plan_id":"cebpf4jnsgd1na2vs0mg"},{"bike_id":"81bbe580-e36e-4373-a349-9baf7f163f58","system_id":"levelo_inurba_marseille","lat":43.299707,"lon":5.384859,"is_reserved":false,"is_disabled":false,"rental_uris":{"android":"levelo://app?vid=81bbe580-e36e-4373-a349-9baf7f163f58","ios":"levelo://app?vid=81bbe580-e36e-4373-a349-9baf7f163f58"},"vehicle_type_id":"4","last_reported":1718644060,"current_range_meters":0,"station_id":"ce4bgj92rcd13ifvqbd0","pricing_plan_id":"cebpf4jnsgd1na2vs0mg"},{"bike_id":"e78ea6ca-a9cf-4913-a169-3f8cebffa678","system_id":"levelo_inurba_marseille","lat":43.299707,"lon":5.384859,"is_reserved":false,"is_disabled":false,"rental_uris":{"android":"levelo://app?vid=e78ea6ca-a9cf-4913-a169-3f8cebffa678","ios":"levelo://app?vid=e78ea6ca-a9cf-4913-a169-3f8cebffa678"},"vehicle_type_id":"4","last_reported":1718644060,"current_range_meters":400,"station_id":"ce4bgj92rcd13ifvqbd0","pricing_plan_id":"cebpf4jnsgd1na2vs0mg"},{"bike_id":"5e1c6451-3193-4dc8-8248-0d59599ad424","system_id":"levelo_inurba_marseille","lat":43.295279,"lon":5.375048,"is_reserved":false,"is_disabled":false,"rental_uris":{"android":"levelo://app?vid=5e1c6451-3193-4dc8-8248-0d59599ad424","ios":"levelo://app?vid=5e1c6451-3193-4dc8-8248-0d59599ad424"},"vehicle_type_id":"4","last_reported":1718644060,"current_range_meters":0,"station_id":"ce4bgkp2rcd13ifvqbmg","pricing_plan_id":"cebpf4jnsgd1na2vs0mg"},{"bike_id":"be57433d-d3b7-4218-b6fe-21657196866f","system_id":"levelo_inurba_marseille","lat":43.299707,"lon":5.384859,"is_reserved":false,"is_disabled":false,"rental_uris":{"android":"levelo://app?vid=be57433d-d3b7-4218-b6fe-21657196866f","ios":"levelo://app?vid=be57433d-d3b7-4218-b6fe-21657196866f"},"vehicle_type_id":"4","last_reported":1718644060,"current_range_meters":0,"station_id":"ce4bgj92rcd13ifvqbd0","pricing_plan_id":"cebpf4jnsgd1na2vs0mg"},{"bike_id":"f56dd502-97f9-4e91-841a-076c0398dd36","system_id":"levelo_inurba_marseille","lat":43.299717,"lon":5.384845,"is_reserved":false,"is_disabled":false,"rental_uris":{"android":"levelo://app?vid=f56dd502-97f9-4e91-841a-076c0398dd36","ios":"levelo://app?vid=f56dd502-97f9-4e91-841a-076c0398dd36"},"vehicle_type_id":"4","last_reported":1718644060,"current_range_meters":1200,"station_id":"ce4bgj92rcd13ifvqbd0","pricing_plan_id":"cebpf4jnsgd1na2vs0mg"},{"bike_id":"e2338d2f-477e-442c-86c1-813731e02424","system_id":"levelo_inurba_marseille","lat":43.299222,"lon":5.365554,"is_reserved":false,"is_disabled":false,"rental_uris":{"android":"levelo://app?vid=e2338d2f-477e-442c-86c1-813731e02424","ios":"levelo://app?vid=e2338d2f-477e-442c-86c1-813731e02424"},"vehicle_type_id":"4","last_reported":1718644060,"current_range_meters":4400,"station_id":"ce4bgm92rcd13ifvqbr0","pricing_plan_id":"cebpf4jnsgd1na2vs0mg"},{"bike_id":"1fd39b82-97e1-4247-88a6-701a8f00f4db","system_id":"levelo_inurba_marseille","lat":43.32365,"lon":5.38873,"is_reserved":false,"is_disabled":false,"rental_uris":{"android":"levelo://app?vid=1fd39b82-97e1-4247-88a6-701a8f00f4db","ios":"levelo://app?vid=1fd39b82-97e1-4247-88a6-701a8f00f4db"},"vehicle_type_id":"4","last_reported":1718644060,"current_range_meters":6000,"station_id":"","pricing_plan_id":"cebpf4jnsgd1na2vs0mg"},{"bike_id":"c3f062df-1fae-485e-8164-4686da2e9f04","system_id":"levelo_inurba_marseille","lat":43.32367,"lon":5.388836,"is_reserved":false,"is_disabled":false,"rental_uris":{"android":"levelo://app?vid=c3f062df-1fae-485e-8164-4686da2e9f04","ios":"levelo://app?vid=c3f062df-1fae-485e-8164-4686da2e9f04"},"vehicle_type_id":"4","last_reported":1718644060,"current_range_meters":4800,"station_id":"ce4bhqp2rcd13ifvqhog","pricing_plan_id":"cebpf4jnsgd1na2vs0mg"},{"bike_id":"90936c87-9cec-40be-9fa0-02a404a11a40","system_id":"levelo_inurba_marseille","lat":43.29602,"lon":5.38104,"is_reserved":false,"is_disabled":false,"rental_uris":{"android":"levelo://app?vid=90936c87-9cec-40be-9fa0-02a404a11a40","ios":"levelo://app?vid=90936c87-9cec-40be-9fa0-02a404a11a40"},"vehicle_type_id":"4","last_reported":1718644060,"current_range_meters":7600,"station_id":"ce4bgl12rcd13ifvqbo0","pricing_plan_id":"cebpf4jnsgd1na2vs0mg"},{"bike_id":"00921e36-66bb-42ea-b070-4446399e2b0b","system_id":"levelo_inurba_marseille","lat":43.292749,"lon":5.368402,"is_reserved":false,"is_disabled":false,"rental_uris":{"android":"levelo://app?vid=00921e36-66bb-42ea-b070-4446399e2b0b","ios":"levelo://app?vid=00921e36-66bb-42ea-b070-4446399e2b0b"},"vehicle_type_id":"4","last_reported":1718644060,"current_range_meters":0,"station_id":"ce4bhbp2rcd13ifvqesg","pricing_plan_id":"cebpf4jnsgd1na2vs0mg"},{"bike_id":"f89afadf-ff22-4b06-a863-5d74c8aa850f","system_id":"levelo_inurba_marseille","lat":43.293249,"lon":5.371578,"is_reserved":false,"is_disabled":false,"rental_uris":{"android":"levelo://app?vid=f89afadf-ff22-4b06-a863-5d74c8aa850f","ios":"levelo://app?vid=f89afadf-ff22-4b06-a863-5d74c8aa850f"},"vehicle_type_id":"4","last_reported":1718644060,"current_range_meters":14800,"station_id":"ce4bgh92rcd13ifvqb40","pricing_plan_id":"cebpf4jnsgd1na2vs0mg"},{"bike_id":"b4064f6e-063e-4424-a363-f30b8822cc88","system_id":"levelo_inurba_marseille","lat":43.309047,"lon":5.396551,"is_reserved":false,"is_disabled":false,"rental_uris":{"android":"levelo://app?vid=b4064f6e-063e-4424-a363-f30b8822cc88","ios":"levelo://app?vid=b4064f6e-063e-4424-a363-f30b8822cc88"},"vehicle_type_id":"4","last_reported":1718644060,"current_range_meters":9600,"station_id":"ce4bh012rcd13ifvqcv0","pricing_plan_id":"cebpf4jnsgd1na2vs0mg"},{"bike_id":"550ea27f-f8d2-4339-a071-e90b69af3a8f","system_id":"levelo_inurba_marseille","lat":43.29301,"lon":5.37447,"is_reserved":false,"is_disabled":false,"rental_uris":{"android":"levelo://app?vid=550ea27f-f8d2-4339-a071-e90b69af3a8f","ios":"levelo://app?vid=550ea27f-f8d2-4339-a071-e90b69af3a8f"},"vehicle_type_id":"4","last_reported":1718644060,"current_range_meters":1600,"station_id":"ce4bgi12rcd13ifvqb70","pricing_plan_id":"cebpf4jnsgd1na2vs0mg"},{"bike_id":"db36eaf8-a1a2-4dad-8c44-9c20eac2aedb","system_id":"levelo_inurba_marseille","lat":43.293009,"lon":5.374584,"is_reserved":false,"is_disabled":false,"rental_uris":{"android":"levelo://app?vid=db36eaf8-a1a2-4dad-8c44-9c20eac2aedb","ios":"levelo://app?vid=db36eaf8-a1a2-4dad-8c44-9c20eac2aedb"},"vehicle_type_id":"4","last_reported":1718644060,"current_range_meters":13600,"station_id":"ce4bgi12rcd13ifvqb70","pricing_plan_id":"cebpf4jnsgd1na2vs0mg"},{"bike_id":"feced809-0c8d-404b-9a80-ee5318f010df","system_id":"levelo_inurba_marseille","lat":43.293,"lon":5.37465,"is_reserved":false,"is_disabled":false,"rental_uris":{"android":"levelo://app?vid=feced809-0c8d-404b-9a80-ee5318f010df","ios":"levelo://app?vid=feced809-0c8d-404b-9a80-ee5318f010df"},"vehicle_type_id":"4","last_reported":1718644060,"current_range_meters":0,"station_id":"ce4bgi12rcd13ifvqb70","pricing_plan_id":"cebpf4jnsgd1na2vs0mg"},{"bike_id":"5c4586a4-42bf-46f5-b75c-c3eb29fe86d4","system_id":"levelo_inurba_marseille","lat":43.29298,"lon":5.37462,"is_reserved":false,"is_disabled":false,"rental_uris":{"android":"levelo://app?vid=5c4586a4-42bf-46f5-b75c-c3eb29fe86d4","ios":"levelo://app?vid=5c4586a4-42bf-46f5-b75c-c3eb29fe86d4"},"vehicle_type_id":"4","last_reported":1718644060,"current_range_meters":0,"station_id":"ce4bgi12rcd13ifvqb70","pricing_plan_id":"cebpf4jnsgd1na2vs0mg"},{"bike_id":"9400fbc3-4664-432a-8ebe-595e3a75a4b0","system_id":"levelo_inurba_marseille","lat":43.29359,"lon":5.37832,"is_reserved":false,"is_disabled":false,"rental_uris":{"android":"levelo://app?vid=9400fbc3-4664-432a-8ebe-595e3a75a4b0","ios":"levelo://app?vid=9400fbc3-4664-432a-8ebe-595e3a75a4b0"},"vehicle_type_id":"4","last_reported":1718644060,"current_range_meters":0,"station_id":"ce4bgjh2rcd13ifvqbf0","pricing_plan_id":"cebpf4jnsgd1na2vs0mg"},{"bike_id":"d6781361-2fd1-421f-aeb2-cb3f7ae5ec2f","system_id":"levelo_inurba_marseille","lat":43.303002,"lon":5.392142,"is_reserved":false,"is_disabled":false,"rental_uris":{"android":"levelo://app?vid=d6781361-2fd1-421f-aeb2-cb3f7ae5ec2f","ios":"levelo://app?vid=d6781361-2fd1-421f-aeb2-cb3f7ae5ec2f"},"vehicle_type_id":"4","last_reported":1718644060,"current_range_meters":0,"station_id":"ce4bgkh2rcd13ifvqbk0","pricing_plan_id":"cebpf4jnsgd1na2vs0mg"},{"bike_id":"10ee3a32-702d-4d4f-a123-a2c76bf14e3c","system_id":"levelo_inurba_marseille","lat":43.30085,"lon":5.390856,"is_reserved":false,"is_disabled":false,"rental_uris":{"android":"levelo://app?vid=10ee3a32-702d-4d4f-a123-a2c76bf14e3c","ios":"levelo://app?vid=10ee3a32-702d-4d4f-a123-a2c76bf14e3c"},"vehicle_type_id":"4","last_reported":1718644060,"current_range_meters":8800,"station_id":"ce4bh192rcd13ifvqdb0","pricing_plan_id":"cebpf4jnsgd1na2vs0mg"},{"bike_id":"363974ed-10c3-4a23-8f97-bc62f7347c5a","system_id":"levelo_inurba_marseille","lat":43.292311,"lon":5.360731,"is_reserved":false,"is_disabled":false,"rental_uris":{"android":"levelo://app?vid=363974ed-10c3-4a23-8f97-bc62f7347c5a","ios":"levelo://app?vid=363974ed-10c3-4a23-8f97-bc62f7347c5a"},"vehicle_type_id":"4","last_reported":1718644060,"current_range_meters":28000,"station_id":"ce4bhbh2rcd13ifvqeqg","pricing_plan_id":"cebpf4jnsgd1na2vs0mg"},{"bike_id":"2c2ccf37-460c-4eeb-81c5-379c04b43a1d","system_id":"levelo_inurba_marseille","lat":43.300852,"lon":5.390859,"is_reserved":false,"is_disabled":false,"rental_uris":{"android":"levelo://app?vid=2c2ccf37-460c-4eeb-81c5-379c04b43a1d","ios":"levelo://app?vid=2c2ccf37-460c-4eeb-81c5-379c04b43a1d"},"vehicle_type_id":"4","last_reported":1718644060,"current_range_meters":0,"station_id":"ce4bh192rcd13ifvqdb0","pricing_plan_id":"cebpf4jnsgd1na2vs0mg"},{"bike_id":"fce57449-bea6-49a9-9565-7175d978c106","system_id":"levelo_inurba_marseille","lat":43.292311,"lon":5.360731,"is_reserved":false,"is_disabled":false,"rental_uris":{"android":"levelo://app?vid=fce57449-bea6-49a9-9565-7175d978c106","ios":"levelo://app?vid=fce57449-bea6-49a9-9565-7175d978c106"},"vehicle_type_id":"4","last_reported":1718644060,"current_range_meters":31200,"station_id":"ce4bhbh2rcd13ifvqeqg","pricing_plan_id":"cebpf4jnsgd1na2vs0mg"},{"bike_id":"919a72ee-6b9f-4069-8b0e-7ed51e796dbf","system_id":"levelo_inurba_marseille","lat":43.298764,"lon":5.388973,"is_reserved":false,"is_disabled":false,"rental_uris":{"android":"levelo://app?vid=919a72ee-6b9f-4069-8b0e-7ed51e796dbf","ios":"levelo://app?vid=919a72ee-6b9f-4069-8b0e-7ed51e796dbf"},"vehicle_type_id":"4","last_reported":1718644060,"current_range_meters":6400,"station_id":"ce4bh392rcd13ifvqdl0","pricing_plan_id":"cebpf4jnsgd1na2vs0mg"},{"bike_id":"9308ceb1-b768-41eb-aba2-3c074278197b","system_id":"levelo_inurba_marseille","lat":43.291675,"lon":5.371583,"is_reserved":false,"is_disabled":false,"rental_uris":{"android":"levelo://app?vid=9308ceb1-b768-41eb-aba2-3c074278197b","ios":"levelo://app?vid=9308ceb1-b768-41eb-aba2-3c074278197b"},"vehicle_type_id":"4","last_reported":1718644060,"current_range_meters":3600,"station_id":"ce4bha92rcd13ifvqeh0","pricing_plan_id":"cebpf4jnsgd1na2vs0mg"},{"bike_id":"2d3d04c5-222f-4e9c-a41f-7825eddc722d","system_id":"levelo_inurba_marseille","lat":43.29194,"lon":5.35798,"is_reserved":false,"is_disabled":false,"rental_uris":{"android":"levelo://app?vid=2d3d04c5-222f-4e9c-a41f-7825eddc722d","ios":"levelo://app?vid=2d3d04c5-222f-4e9c-a41f-7825eddc722d"},"vehicle_type_id":"4","last_reported":1718644060,"current_range_meters":31200,"station_id":"ce4bhb12rcd13ifvqel0","pricing_plan_id":"cebpf4jnsgd1na2vs0mg"},{"bike_id":"f45808ad-62a3-416a-8bb5-ba774960d3d7","system_id":"levelo_inurba_marseille","lat":43.292005,"lon":5.357875,"is_reserved":false,"is_disabled":false,"rental_uris":{"android":"levelo://app?vid=f45808ad-62a3-416a-8bb5-ba774960d3d7","ios":"levelo://app?vid=f45808ad-62a3-416a-8bb5-ba774960d3d7"},"vehicle_type_id":"4","last_reported":1718644060,"current_range_meters":0,"station_id":"ce4bhb12rcd13ifvqel0","pricing_plan_id":"cebpf4jnsgd1na2vs0mg"},{"bike_id":"b045ce5d-cbcb-4228-ab15-42a0c82b9533","system_id":"levelo_inurba_marseille","lat":43.309047,"lon":5.396551,"is_reserved":false,"is_disabled":false,"rental_uris":{"android":"levelo://app?vid=b045ce5d-cbcb-4228-ab15-42a0c82b9533","ios":"levelo://app?vid=b045ce5d-cbcb-4228-ab15-42a0c82b9533"},"vehicle_type_id":"4","last_reported":1718644060,"current_range_meters":14000,"station_id":"ce4bh012rcd13ifvqcv0","pricing_plan_id":"cebpf4jnsgd1na2vs0mg"},{"bike_id":"27f7b16b-f617-4107-a162-211ff4a0d818","system_id":"levelo_inurba_marseille","lat":43.291994,"lon":5.357886,"is_reserved":false,"is_disabled":false,"rental_uris":{"android":"levelo://app?vid=27f7b16b-f617-4107-a162-211ff4a0d818","ios":"levelo://app?vid=27f7b16b-f617-4107-a162-211ff4a0d818"},"vehicle_type_id":"4","last_reported":1718644060,"current_range_meters":9600,"station_id":"ce4bhb12rcd13ifvqel0","pricing_plan_id":"cebpf4jnsgd1na2vs0mg"},{"bike_id":"10a943f4-699d-41ef-9cac-dba4d6e64fec","system_id":"levelo_inurba_marseille","lat":43.313291,"lon":5.396838,"is_reserved":false,"is_disabled":false,"rental_uris":{"android":"levelo://app?vid=10a943f4-699d-41ef-9cac-dba4d6e64fec","ios":"levelo://app?vid=10a943f4-699d-41ef-9cac-dba4d6e64fec"},"vehicle_type_id":"4","last_reported":1718644060,"current_range_meters":5600,"station_id":"ce4bgvp2rcd13ifvqcu0","pricing_plan_id":"cebpf4jnsgd1na2vs0mg"},{"bike_id":"68ad5a73-2ca2-4e54-9041-816805948830","system_id":"levelo_inurba_marseille","lat":43.313291,"lon":5.396838,"is_reserved":false,"is_disabled":false,"rental_uris":{"android":"levelo://app?vid=68ad5a73-2ca2-4e54-9041-816805948830","ios":"levelo://app?vid=68ad5a73-2ca2-4e54-9041-816805948830"},"vehicle_type_id":"4","last_reported":1718644060,"current_range_meters":18000,"station_id":"ce4bgvp2rcd13ifvqcu0","pricing_plan_id":"cebpf4jnsgd1na2vs0mg"},{"bike_id":"e9dc99bd-a666-48b2-ad30-8c20334d5666","system_id":"levelo_inurba_marseille","lat":43.308945,"lon":5.396478,"is_reserved":false,"is_disabled":false,"rental_uris":{"android":"levelo://app?vid=e9dc99bd-a666-48b2-ad30-8c20334d5666","ios":"levelo://app?vid=e9dc99bd-a666-48b2-ad30-8c20334d5666"},"vehicle_type_id":"4","last_reported":1718644060,"current_range_meters":0,"station_id":"ce4bh012rcd13ifvqcv0","pricing_plan_id":"cebpf4jnsgd1na2vs0mg"},{"bike_id":"270d818e-ef1d-404b-97b4-e5d2545b000b","system_id":"levelo_inurba_marseille","lat":43.309038,"lon":5.396546,"is_reserved":false,"is_disabled":false,"rental_uris":{"android":"levelo://app?vid=270d818e-ef1d-404b-97b4-e5d2545b000b","ios":"levelo://app?vid=270d818e-ef1d-404b-97b4-e5d2545b000b"},"vehicle_type_id":"4","last_reported":1718644060,"current_range_meters":0,"station_id":"ce4bh012rcd13ifvqcv0","pricing_plan_id":"cebpf4jnsgd1na2vs0mg"},{"bike_id":"f0b2e5a7-ba1c-454f-82d6-3249f63fe809","system_id":"levelo_inurba_marseille","lat":43.313291,"lon":5.396838,"is_reserved":false,"is_disabled":false,"rental_uris":{"android":"levelo://app?vid=f0b2e5a7-ba1c-454f-82d6-3249f63fe809","ios":"levelo://app?vid=f0b2e5a7-ba1c-454f-82d6-3249f63fe809"},"vehicle_type_id":"4","last_reported":1718644060,"current_range_meters":18000,"station_id":"ce4bgvp2rcd13ifvqcu0","pricing_plan_id":"cebpf4jnsgd1na2vs0mg"},{"bike_id":"9072885f-1932-4d8d-a0a6-2a90194dfaf3","system_id":"levelo_inurba_marseille","lat":43.29186,"lon":5.35801,"is_reserved":false,"is_disabled":false,"rental_uris":{"android":"levelo://app?vid=9072885f-1932-4d8d-a0a6-2a90194dfaf3","ios":"levelo://app?vid=9072885f-1932-4d8d-a0a6-2a90194dfaf3"},"vehicle_type_id":"4","last_reported":1718644060,"current_range_meters":4800,"station_id":"ce4bhb12rcd13ifvqel0","pricing_plan_id":"cebpf4jnsgd1na2vs0mg"},{"bike_id":"0641ed59-e26a-4b42-b219-36f02266e271","system_id":"levelo_inurba_marseille","lat":43.309038,"lon":5.396546,"is_reserved":false,"is_disabled":false,"rental_uris":{"android":"levelo://app?vid=0641ed59-e26a-4b42-b219-36f02266e271","ios":"levelo://app?vid=0641ed59-e26a-4b42-b219-36f02266e271"},"vehicle_type_id":"4","last_reported":1718644060,"current_range_meters":0,"station_id":"ce4bh012rcd13ifvqcv0","pricing_plan_id":"cebpf4jnsgd1na2vs0mg"},{"bike_id":"e3f8ab0d-c803-488e-9c52-943d9e66bb12","system_id":"levelo_inurba_marseille","lat":43.30876,"lon":5.39648,"is_reserved":false,"is_disabled":false,"rental_uris":{"android":"levelo://app?vid=e3f8ab0d-c803-488e-9c52-943d9e66bb12","ios":"levelo://app?vid=e3f8ab0d-c803-488e-9c52-943d9e66bb12"},"vehicle_type_id":"4","last_reported":1718644060,"current_range_meters":19200,"station_id":"ce4bh012rcd13ifvqcv0","pricing_plan_id":"cebpf4jnsgd1na2vs0mg"},{"bike_id":"10b7d95b-0a59-48b8-b18e-283b460fb3b8","system_id":"levelo_inurba_marseille","lat":43.32211,"lon":5.39409,"is_reserved":false,"is_disabled":false,"rental_uris":{"android":"levelo://app?vid=10b7d95b-0a59-48b8-b18e-283b460fb3b8","ios":"levelo://app?vid=10b7d95b-0a59-48b8-b18e-283b460fb3b8"},"vehicle_type_id":"4","last_reported":1718644060,"current_range_meters":27600,"station_id":"","pricing_plan_id":"cebpf4jnsgd1na2vs0mg"},{"bike_id":"b8194006-9def-4e0f-aa10-2929bdf70b94","system_id":"levelo_inurba_marseille","lat":43.309047,"lon":5.396551,"is_reserved":false,"is_disabled":false,"rental_uris":{"android":"levelo://app?vid=b8194006-9def-4e0f-aa10-2929bdf70b94","ios":"levelo://app?vid=b8194006-9def-4e0f-aa10-2929bdf70b94"},"vehicle_type_id":"4","last_reported":1718644060,"current_range_meters":18000,"station_id":"ce4bh012rcd13ifvqcv0","pricing_plan_id":"cebpf4jnsgd1na2vs0mg"},{"bike_id":"0c8c231a-eafc-41e2-a72a-fca50c72c1d2","system_id":"levelo_inurba_marseille","lat":43.309038,"lon":5.396546,"is_reserved":false,"is_disabled":false,"rental_uris":{"android":"levelo://app?vid=0c8c231a-eafc-41e2-a72a-fca50c72c1d2","ios":"levelo://app?vid=0c8c231a-eafc-41e2-a72a-fca50c72c1d2"},"vehicle_type_id":"4","last_reported":1718644060,"current_range_meters":18000,"station_id":"ce4bh012rcd13ifvqcv0","pricing_plan_id":"cebpf4jnsgd1na2vs0mg"},{"bike_id":"3a8d5468-3e61-413d-a7b9-91740d7b555f","system_id":"levelo_inurba_marseille","lat":43.309038,"lon":5.396546,"is_reserved":false,"is_disabled":false,"rental_uris":{"android":"levelo://app?vid=3a8d5468-3e61-413d-a7b9-91740d7b555f","ios":"levelo://app?vid=3a8d5468-3e61-413d-a7b9-91740d7b555f"},"vehicle_type_id":"4","last_reported":1718644060,"current_range_meters":5600,"station_id":"ce4bh012rcd13ifvqcv0","pricing_plan_id":"cebpf4jnsgd1na2vs0mg"},{"bike_id":"14b78c03-8e57-4a44-ac23-4d17af921c40","system_id":"levelo_inurba_marseille","lat":43.31328,"lon":5.39706,"is_reserved":false,"is_disabled":false,"rental_uris":{"android":"levelo://app?vid=14b78c03-8e57-4a44-ac23-4d17af921c40","ios":"levelo://app?vid=14b78c03-8e57-4a44-ac23-4d17af921c40"},"vehicle_type_id":"4","last_reported":1718644060,"current_range_meters":0,"station_id":"ce4bgvp2rcd13ifvqcu0","pricing_plan_id":"cebpf4jnsgd1na2vs0mg"},{"bike_id":"d9fd5f62-69c2-42d7-bb7e-9990d6553507","system_id":"levelo_inurba_marseille","lat":43.29529,"lon":5.385581,"is_reserved":false,"is_disabled":false,"rental_uris":{"android":"levelo://app?vid=d9fd5f62-69c2-42d7-bb7e-9990d6553507","ios":"levelo://app?vid=d9fd5f62-69c2-42d7-bb7e-9990d6553507"},"vehicle_type_id":"4","last_reported":1718644060,"current_range_meters":1600,"station_id":"ce4bgih2rcd13ifvqba0","pricing_plan_id":"cebpf4jnsgd1na2vs0mg"},{"bike_id":"07959b33-27e5-4997-a8ff-cf701efa58ca","system_id":"levelo_inurba_marseille","lat":43.29532,"lon":5.385443,"is_reserved":false,"is_disabled":false,"rental_uris":{"android":"levelo://app?vid=07959b33-27e5-4997-a8ff-cf701efa58ca","ios":"levelo://app?vid=07959b33-27e5-4997-a8ff-cf701efa58ca"},"vehicle_type_id":"4","last_reported":1718644060,"current_range_meters":1200,"station_id":"ce4bgih2rcd13ifvqba0","pricing_plan_id":"cebpf4jnsgd1na2vs0mg"},{"bike_id":"b935c28d-074f-4536-ba4f-e6078c397180","system_id":"levelo_inurba_marseille","lat":43.290779,"lon":5.371482,"is_reserved":false,"is_disabled":false,"rental_uris":{"android":"levelo://app?vid=b935c28d-074f-4536-ba4f-e6078c397180","ios":"levelo://app?vid=b935c28d-074f-4536-ba4f-e6078c397180"},"vehicle_type_id":"4","last_reported":1718644060,"current_range_meters":19200,"station_id":"ce4bh5p2rcd13ifvqe4g","pricing_plan_id":"cebpf4jnsgd1na2vs0mg"},{"bike_id":"38993f69-3bb9-4112-9319-65952c3d2589","system_id":"levelo_inurba_marseille","lat":43.29529,"lon":5.385581,"is_reserved":false,"is_disabled":false,"rental_uris":{"android":"levelo://app?vid=38993f69-3bb9-4112-9319-65952c3d2589","ios":"levelo://app?vid=38993f69-3bb9-4112-9319-65952c3d2589"},"vehicle_type_id":"4","last_reported":1718644060,"current_range_meters":400,"station_id":"ce4bgih2rcd13ifvqba0","pricing_plan_id":"cebpf4jnsgd1na2vs0mg"},{"bike_id":"7f42e349-2fdf-4d8e-a178-997e86ddc6dc","system_id":"levelo_inurba_marseille","lat":43.302008,"lon":5.394694,"is_reserved":false,"is_disabled":false,"rental_uris":{"android":"levelo://app?vid=7f42e349-2fdf-4d8e-a178-997e86ddc6dc","ios":"levelo://app?vid=7f42e349-2fdf-4d8e-a178-997e86ddc6dc"},"vehicle_type_id":"4","last_reported":1718644060,"current_range_meters":6400,"station_id":"ce4bh0p2rcd13ifvqd70","pricing_plan_id":"cebpf4jnsgd1na2vs0mg"},{"bike_id":"b45abf7e-c75a-4975-8b5b-7de19adb9439","system_id":"levelo_inurba_marseille","lat":43.302008,"lon":5.394694,"is_reserved":false,"is_disabled":false,"rental_uris":{"android":"levelo://app?vid=b45abf7e-c75a-4975-8b5b-7de19adb9439","ios":"levelo://app?vid=b45abf7e-c75a-4975-8b5b-7de19adb9439"},"vehicle_type_id":"4","last_reported":1718644060,"current_range_meters":14400,"station_id":"ce4bh0p2rcd13ifvqd70","pricing_plan_id":"cebpf4jnsgd1na2vs0mg"},{"bike_id":"2d525dcf-af29-4ae2-9d9f-88d03f7fcab8","system_id":"levelo_inurba_marseille","lat":43.302008,"lon":5.394694,"is_reserved":false,"is_disabled":false,"rental_uris":{"android":"levelo://app?vid=2d525dcf-af29-4ae2-9d9f-88d03f7fcab8","ios":"levelo://app?vid=2d525dcf-af29-4ae2-9d9f-88d03f7fcab8"},"vehicle_type_id":"4","last_reported":1718644060,"current_range_meters":2000,"station_id":"ce4bh0p2rcd13ifvqd70","pricing_plan_id":"cebpf4jnsgd1na2vs0mg"},{"bike_id":"00dfc8fc-35f7-4007-a891-501cd3eb8f9b","system_id":"levelo_inurba_marseille","lat":43.29451,"lon":5.38607,"is_reserved":false,"is_disabled":false,"rental_uris":{"android":"levelo://app?vid=00dfc8fc-35f7-4007-a891-501cd3eb8f9b","ios":"levelo://app?vid=00dfc8fc-35f7-4007-a891-501cd3eb8f9b"},"vehicle_type_id":"4","last_reported":1718644060,"current_range_meters":11600,"station_id":"ce4bh2h2rcd13ifvqdh0","pricing_plan_id":"cebpf4jnsgd1na2vs0mg"},{"bike_id":"0c8ef971-60f5-4e42-b6da-23c1fd5d5760","system_id":"levelo_inurba_marseille","lat":43.290624,"lon":5.359245,"is_reserved":false,"is_disabled":false,"rental_uris":{"android":"levelo://app?vid=0c8ef971-60f5-4e42-b6da-23c1fd5d5760","ios":"levelo://app?vid=0c8ef971-60f5-4e42-b6da-23c1fd5d5760"},"vehicle_type_id":"4","last_reported":1718644060,"current_range_meters":1200,"station_id":"ce4bha92rcd13ifvqeg0","pricing_plan_id":"cebpf4jnsgd1na2vs0mg"},{"bike_id":"d8cfc064-9c51-4915-aead-0691f75bf0e9","system_id":"levelo_inurba_marseille","lat":43.29427,"lon":5.38612,"is_reserved":false,"is_disabled":false,"rental_uris":{"android":"levelo://app?vid=d8cfc064-9c51-4915-aead-0691f75bf0e9","ios":"levelo://app?vid=d8cfc064-9c51-4915-aead-0691f75bf0e9"},"vehicle_type_id":"4","last_reported":1718644060,"current_range_meters":1600,"station_id":"ce4bh2h2rcd13ifvqdh0","pricing_plan_id":"cebpf4jnsgd1na2vs0mg"},{"bike_id":"9458d4a9-b2b1-4fdf-a45c-75d78c9c5fba","system_id":"levelo_inurba_marseille","lat":43.28945,"lon":5.3663,"is_reserved":false,"is_disabled":false,"rental_uris":{"android":"levelo://app?vid=9458d4a9-b2b1-4fdf-a45c-75d78c9c5fba","ios":"levelo://app?vid=9458d4a9-b2b1-4fdf-a45c-75d78c9c5fba"},"vehicle_type_id":"4","last_reported":1718644060,"current_range_meters":3600,"station_id":"ce4bhap2rcd13ifvqek0","pricing_plan_id":"cebpf4jnsgd1na2vs0mg"},{"bike_id":"bc1d424f-d862-4e3a-9a24-50ec286fc768","system_id":"levelo_inurba_marseille","lat":43.28942,"lon":5.36639,"is_reserved":false,"is_disabled":false,"rental_uris":{"android":"levelo://app?vid=bc1d424f-d862-4e3a-9a24-50ec286fc768","ios":"levelo://app?vid=bc1d424f-d862-4e3a-9a24-50ec286fc768"},"vehicle_type_id":"4","last_reported":1718644060,"current_range_meters":31200,"station_id":"ce4bhap2rcd13ifvqek0","pricing_plan_id":"cebpf4jnsgd1na2vs0mg"},{"bike_id":"e073ccff-cc9c-4ef9-b3b7-1c2aa2bda009","system_id":"levelo_inurba_marseille","lat":43.28941,"lon":5.36642,"is_reserved":false,"is_disabled":false,"rental_uris":{"android":"levelo://app?vid=e073ccff-cc9c-4ef9-b3b7-1c2aa2bda009","ios":"levelo://app?vid=e073ccff-cc9c-4ef9-b3b7-1c2aa2bda009"},"vehicle_type_id":"4","last_reported":1718644060,"current_range_meters":31200,"station_id":"ce4bhap2rcd13ifvqek0","pricing_plan_id":"cebpf4jnsgd1na2vs0mg"},{"bike_id":"0cc81369-ff1f-458b-8179-3c3d3c85cc02","system_id":"levelo_inurba_marseille","lat":43.289184,"lon":5.366408,"is_reserved":false,"is_disabled":false,"rental_uris":{"android":"levelo://app?vid=0cc81369-ff1f-458b-8179-3c3d3c85cc02","ios":"levelo://app?vid=0cc81369-ff1f-458b-8179-3c3d3c85cc02"},"vehicle_type_id":"4","last_reported":1718644060,"current_range_meters":14400,"station_id":"ce4bhap2rcd13ifvqek0","pricing_plan_id":"cebpf4jnsgd1na2vs0mg"},{"bike_id":"d9df1f1e-32f7-44fa-807b-f8188e8a178b","system_id":"levelo_inurba_marseille","lat":43.289468,"lon":5.363719,"is_reserved":false,"is_disabled":false,"rental_uris":{"android":"levelo://app?vid=d9df1f1e-32f7-44fa-807b-f8188e8a178b","ios":"levelo://app?vid=d9df1f1e-32f7-44fa-807b-f8188e8a178b"},"vehicle_type_id":"4","last_reported":1718644060,"current_range_meters":11600,"station_id":"ce4bhc92rcd13ifvqetg","pricing_plan_id":"cebpf4jnsgd1na2vs0mg"},{"bike_id":"35320753-cc5a-45de-8660-2286eddec68c","system_id":"levelo_inurba_marseille","lat":43.292644,"lon":5.384257,"is_reserved":false,"is_disabled":false,"rental_uris":{"android":"levelo://app?vid=35320753-cc5a-45de-8660-2286eddec68c","ios":"levelo://app?vid=35320753-cc5a-45de-8660-2286eddec68c"},"vehicle_type_id":"4","last_reported":1718644060,"current_range_meters":6800,"station_id":"ce4bh692rcd13ifvqea0","pricing_plan_id":"cebpf4jnsgd1na2vs0mg"},{"bike_id":"4ce555f0-a6a5-4c1b-8928-a6da60859748","system_id":"levelo_inurba_marseille","lat":43.2927,"lon":5.38446,"is_reserved":false,"is_disabled":false,"rental_uris":{"android":"levelo://app?vid=4ce555f0-a6a5-4c1b-8928-a6da60859748","ios":"levelo://app?vid=4ce555f0-a6a5-4c1b-8928-a6da60859748"},"vehicle_type_id":"4","last_reported":1718644060,"current_range_meters":0,"station_id":"ce4bh692rcd13ifvqea0","pricing_plan_id":"cebpf4jnsgd1na2vs0mg"},{"bike_id":"0003aa1c-61df-4e7d-9fc5-13e2cd0f9741","system_id":"levelo_inurba_marseille","lat":43.304296,"lon":5.397513,"is_reserved":false,"is_disabled":false,"rental_uris":{"android":"levelo://app?vid=0003aa1c-61df-4e7d-9fc5-13e2cd0f9741","ios":"levelo://app?vid=0003aa1c-61df-4e7d-9fc5-13e2cd0f9741"},"vehicle_type_id":"4","last_reported":1718644060,"current_range_meters":24000,"station_id":"ce4bh092rcd13ifvqd20","pricing_plan_id":"cebpf4jnsgd1na2vs0mg"},{"bike_id":"9b18b39f-fbca-4c7c-b0c1-d4981bfe430d","system_id":"levelo_inurba_marseille","lat":43.294135,"lon":5.38731,"is_reserved":false,"is_disabled":false,"rental_uris":{"android":"levelo://app?vid=9b18b39f-fbca-4c7c-b0c1-d4981bfe430d","ios":"levelo://app?vid=9b18b39f-fbca-4c7c-b0c1-d4981bfe430d"},"vehicle_type_id":"4","last_reported":1718644060,"current_range_meters":22000,"station_id":"chh1huq6cuj3fo74tm60","pricing_plan_id":"cebpf4jnsgd1na2vs0mg"},{"bike_id":"32b452d4-0b02-4a57-9b34-0fe3013891ce","system_id":"levelo_inurba_marseille","lat":43.304296,"lon":5.397513,"is_reserved":false,"is_disabled":false,"rental_uris":{"android":"levelo://app?vid=32b452d4-0b02-4a57-9b34-0fe3013891ce","ios":"levelo://app?vid=32b452d4-0b02-4a57-9b34-0fe3013891ce"},"vehicle_type_id":"4","last_reported":1718644060,"current_range_meters":22000,"station_id":"ce4bh092rcd13ifvqd20","pricing_plan_id":"cebpf4jnsgd1na2vs0mg"},{"bike_id":"532bd561-7a32-4106-a6b7-6462796c59d5","system_id":"levelo_inurba_marseille","lat":43.29262,"lon":5.38445,"is_reserved":false,"is_disabled":false,"rental_uris":{"android":"levelo://app?vid=532bd561-7a32-4106-a6b7-6462796c59d5","ios":"levelo://app?vid=532bd561-7a32-4106-a6b7-6462796c59d5"},"vehicle_type_id":"4","last_reported":1718644060,"current_range_meters":0,"station_id":"ce4bh692rcd13ifvqea0","pricing_plan_id":"cebpf4jnsgd1na2vs0mg"},{"bike_id":"3fef1d51-0013-4093-a8a9-07f707520091","system_id":"levelo_inurba_marseille","lat":43.292644,"lon":5.384257,"is_reserved":false,"is_disabled":false,"rental_uris":{"android":"levelo://app?vid=3fef1d51-0013-4093-a8a9-07f707520091","ios":"levelo://app?vid=3fef1d51-0013-4093-a8a9-07f707520091"},"vehicle_type_id":"4","last_reported":1718644060,"current_range_meters":14800,"station_id":"ce4bh692rcd13ifvqea0","pricing_plan_id":"cebpf4jnsgd1na2vs0mg"},{"bike_id":"70ecdfb8-a49a-4bb0-8b2f-c1a3520ad9b0","system_id":"levelo_inurba_marseille","lat":43.290104,"lon":5.356111,"is_reserved":false,"is_disabled":false,"rental_uris":{"android":"levelo://app?vid=70ecdfb8-a49a-4bb0-8b2f-c1a3520ad9b0","ios":"levelo://app?vid=70ecdfb8-a49a-4bb0-8b2f-c1a3520ad9b0"},"vehicle_type_id":"4","last_reported":1718644060,"current_range_meters":18800,"station_id":"ce4bhb92rcd13ifvqen0","pricing_plan_id":"cebpf4jnsgd1na2vs0mg"},{"bike_id":"a82231e1-8d31-4008-b3b3-d19531ee5441","system_id":"levelo_inurba_marseille","lat":43.290104,"lon":5.356111,"is_reserved":false,"is_disabled":false,"rental_uris":{"android":"levelo://app?vid=a82231e1-8d31-4008-b3b3-d19531ee5441","ios":"levelo://app?vid=a82231e1-8d31-4008-b3b3-d19531ee5441"},"vehicle_type_id":"4","last_reported":1718644060,"current_range_meters":4800,"station_id":"ce4bhb92rcd13ifvqen0","pricing_plan_id":"cebpf4jnsgd1na2vs0mg"},{"bike_id":"6c98bc83-ac1b-46f8-93f1-a6121c531284","system_id":"levelo_inurba_marseille","lat":43.290104,"lon":5.356111,"is_reserved":false,"is_disabled":false,"rental_uris":{"android":"levelo://app?vid=6c98bc83-ac1b-46f8-93f1-a6121c531284","ios":"levelo://app?vid=6c98bc83-ac1b-46f8-93f1-a6121c531284"},"vehicle_type_id":"4","last_reported":1718644060,"current_range_meters":28400,"station_id":"ce4bhb92rcd13ifvqen0","pricing_plan_id":"cebpf4jnsgd1na2vs0mg"},{"bike_id":"744a0ec9-8f5e-4f3b-b3fd-3a82688f0403","system_id":"levelo_inurba_marseille","lat":43.290103,"lon":5.356114,"is_reserved":false,"is_disabled":false,"rental_uris":{"android":"levelo://app?vid=744a0ec9-8f5e-4f3b-b3fd-3a82688f0403","ios":"levelo://app?vid=744a0ec9-8f5e-4f3b-b3fd-3a82688f0403"},"vehicle_type_id":"4","last_reported":1718644060,"current_range_meters":0,"station_id":"ce4bhb92rcd13ifvqen0","pricing_plan_id":"cebpf4jnsgd1na2vs0mg"},{"bike_id":"f8e54f08-44bf-4e36-8bd8-ad6de0a3ed5d","system_id":"levelo_inurba_marseille","lat":43.29007,"lon":5.35602,"is_reserved":false,"is_disabled":false,"rental_uris":{"android":"levelo://app?vid=f8e54f08-44bf-4e36-8bd8-ad6de0a3ed5d","ios":"levelo://app?vid=f8e54f08-44bf-4e36-8bd8-ad6de0a3ed5d"},"vehicle_type_id":"4","last_reported":1718644060,"current_range_meters":28800,"station_id":"ce4bhb92rcd13ifvqen0","pricing_plan_id":"cebpf4jnsgd1na2vs0mg"},{"bike_id":"6d6dbd35-7a1c-42f6-8336-7263a507e2e0","system_id":"levelo_inurba_marseille","lat":43.29002,"lon":5.35615,"is_reserved":false,"is_disabled":false,"rental_uris":{"android":"levelo://app?vid=6d6dbd35-7a1c-42f6-8336-7263a507e2e0","ios":"levelo://app?vid=6d6dbd35-7a1c-42f6-8336-7263a507e2e0"},"vehicle_type_id":"4","last_reported":1718644060,"current_range_meters":3200,"station_id":"ce4bhb92rcd13ifvqen0","pricing_plan_id":"cebpf4jnsgd1na2vs0mg"},{"bike_id":"0a63a5ec-d01f-471d-ae3f-cf0f49cac78c","system_id":"levelo_inurba_marseille","lat":43.29001,"lon":5.35613,"is_reserved":false,"is_disabled":false,"rental_uris":{"android":"levelo://app?vid=0a63a5ec-d01f-471d-ae3f-cf0f49cac78c","ios":"levelo://app?vid=0a63a5ec-d01f-471d-ae3f-cf0f49cac78c"},"vehicle_type_id":"4","last_reported":1718644060,"current_range_meters":31200,"station_id":"ce4bhb92rcd13ifvqen0","pricing_plan_id":"cebpf4jnsgd1na2vs0mg"},{"bike_id":"1a50e76c-9986-4a81-afe4-05c6f653d9ca","system_id":"levelo_inurba_marseille","lat":43.290104,"lon":5.356111,"is_reserved":false,"is_disabled":false,"rental_uris":{"android":"levelo://app?vid=1a50e76c-9986-4a81-afe4-05c6f653d9ca","ios":"levelo://app?vid=1a50e76c-9986-4a81-afe4-05c6f653d9ca"},"vehicle_type_id":"4","last_reported":1718644060,"current_range_meters":22400,"station_id":"ce4bhb92rcd13ifvqen0","pricing_plan_id":"cebpf4jnsgd1na2vs0mg"},{"bike_id":"f8cf3808-7046-4a80-808d-ea411629257c","system_id":"levelo_inurba_marseille","lat":43.2917,"lon":5.382956,"is_reserved":false,"is_disabled":false,"rental_uris":{"android":"levelo://app?vid=f8cf3808-7046-4a80-808d-ea411629257c","ios":"levelo://app?vid=f8cf3808-7046-4a80-808d-ea411629257c"},"vehicle_type_id":"4","last_reported":1718644060,"current_range_meters":0,"station_id":"","pricing_plan_id":"cebpf4jnsgd1na2vs0mg"},{"bike_id":"a9b38055-7b1a-490d-bc89-2e08ccbf471a","system_id":"levelo_inurba_marseille","lat":43.29015,"lon":5.3555,"is_reserved":false,"is_disabled":false,"rental_uris":{"android":"levelo://app?vid=a9b38055-7b1a-490d-bc89-2e08ccbf471a","ios":"levelo://app?vid=a9b38055-7b1a-490d-bc89-2e08ccbf471a"},"vehicle_type_id":"4","last_reported":1718644060,"current_range_meters":400,"station_id":"ce4bhb92rcd13ifvqen0","pricing_plan_id":"cebpf4jnsgd1na2vs0mg"},{"bike_id":"089ce7e1-7869-4131-a6e7-90058e633a7c","system_id":"levelo_inurba_marseille","lat":43.290995,"lon":5.381361,"is_reserved":false,"is_disabled":false,"rental_uris":{"android":"levelo://app?vid=089ce7e1-7869-4131-a6e7-90058e633a7c","ios":"levelo://app?vid=089ce7e1-7869-4131-a6e7-90058e633a7c"},"vehicle_type_id":"4","last_reported":1718644060,"current_range_meters":0,"station_id":"ce4bh512rcd13ifvqe2g","pricing_plan_id":"cebpf4jnsgd1na2vs0mg"},{"bike_id":"5229b058-eb9f-4d82-b2f0-87f1c555dd72","system_id":"levelo_inurba_marseille","lat":43.330442,"lon":5.389148,"is_reserved":false,"is_disabled":false,"rental_uris":{"android":"levelo://app?vid=5229b058-eb9f-4d82-b2f0-87f1c555dd72","ios":"levelo://app?vid=5229b058-eb9f-4d82-b2f0-87f1c555dd72"},"vehicle_type_id":"4","last_reported":1718644060,"current_range_meters":31600,"station_id":"ce4bhr92rcd13ifvqhrg","pricing_plan_id":"cebpf4jnsgd1na2vs0mg"},{"bike_id":"0614b77f-f41d-4b8f-9f51-bd12798de82b","system_id":"levelo_inurba_marseille","lat":43.295169,"lon":5.390426,"is_reserved":false,"is_disabled":false,"rental_uris":{"android":"levelo://app?vid=0614b77f-f41d-4b8f-9f51-bd12798de82b","ios":"levelo://app?vid=0614b77f-f41d-4b8f-9f51-bd12798de82b"},"vehicle_type_id":"4","last_reported":1718644060,"current_range_meters":800,"station_id":"ce4bh3p2rcd13ifvqdp0","pricing_plan_id":"cebpf4jnsgd1na2vs0mg"},{"bike_id":"cf293b3d-58e9-4f5f-be7a-e5549df5d3cd","system_id":"levelo_inurba_marseille","lat":43.330442,"lon":5.389148,"is_reserved":false,"is_disabled":false,"rental_uris":{"android":"levelo://app?vid=cf293b3d-58e9-4f5f-be7a-e5549df5d3cd","ios":"levelo://app?vid=cf293b3d-58e9-4f5f-be7a-e5549df5d3cd"},"vehicle_type_id":"4","last_reported":1718644060,"current_range_meters":5600,"station_id":"ce4bhr92rcd13ifvqhrg","pricing_plan_id":"cebpf4jnsgd1na2vs0mg"},{"bike_id":"5de2addf-b6ad-4443-84a9-bd455b9f5feb","system_id":"levelo_inurba_marseille","lat":43.330442,"lon":5.389148,"is_reserved":false,"is_disabled":false,"rental_uris":{"android":"levelo://app?vid=5de2addf-b6ad-4443-84a9-bd455b9f5feb","ios":"levelo://app?vid=5de2addf-b6ad-4443-84a9-bd455b9f5feb"},"vehicle_type_id":"4","last_reported":1718644060,"current_range_meters":1600,"station_id":"ce4bhr92rcd13ifvqhrg","pricing_plan_id":"cebpf4jnsgd1na2vs0mg"},{"bike_id":"89c8e958-7831-4527-b8f1-f0f42e5e70f8","system_id":"levelo_inurba_marseille","lat":43.33024,"lon":5.39041,"is_reserved":false,"is_disabled":false,"rental_uris":{"android":"levelo://app?vid=89c8e958-7831-4527-b8f1-f0f42e5e70f8","ios":"levelo://app?vid=89c8e958-7831-4527-b8f1-f0f42e5e70f8"},"vehicle_type_id":"4","last_reported":1718644060,"current_range_meters":13600,"station_id":"ce4bhr92rcd13ifvqhrg","pricing_plan_id":"cebpf4jnsgd1na2vs0mg"},{"bike_id":"1d84fbc0-450b-48f9-9d00-8179cc2b1f74","system_id":"levelo_inurba_marseille","lat":43.330442,"lon":5.389148,"is_reserved":false,"is_disabled":false,"rental_uris":{"android":"levelo://app?vid=1d84fbc0-450b-48f9-9d00-8179cc2b1f74","ios":"levelo://app?vid=1d84fbc0-450b-48f9-9d00-8179cc2b1f74"},"vehicle_type_id":"4","last_reported":1718644060,"current_range_meters":8000,"station_id":"ce4bhr92rcd13ifvqhrg","pricing_plan_id":"cebpf4jnsgd1na2vs0mg"},{"bike_id":"8a491c57-da11-4a41-9e3e-10ef15d1ec4a","system_id":"levelo_inurba_marseille","lat":43.297815,"lon":5.393548,"is_reserved":false,"is_disabled":false,"rental_uris":{"android":"levelo://app?vid=8a491c57-da11-4a41-9e3e-10ef15d1ec4a","ios":"levelo://app?vid=8a491c57-da11-4a41-9e3e-10ef15d1ec4a"},"vehicle_type_id":"4","last_reported":1718644060,"current_range_meters":3200,"station_id":"chh1huq6cuj3fo74tm60","pricing_plan_id":"cebpf4jnsgd1na2vs0mg"},{"bike_id":"dadef1c5-9f32-4d6e-9d31-40d91d1736c5","system_id":"levelo_inurba_marseille","lat":43.310622,"lon":5.400854,"is_reserved":false,"is_disabled":false,"rental_uris":{"android":"levelo://app?vid=dadef1c5-9f32-4d6e-9d31-40d91d1736c5","ios":"levelo://app?vid=dadef1c5-9f32-4d6e-9d31-40d91d1736c5"},"vehicle_type_id":"4","last_reported":1718644060,"current_range_meters":31200,"station_id":"","pricing_plan_id":"cebpf4jnsgd1na2vs0mg"},{"bike_id":"af57adaa-6702-4e9c-89ef-79b984cad2b3","system_id":"levelo_inurba_marseille","lat":43.2901,"lon":5.381269,"is_reserved":false,"is_disabled":false,"rental_uris":{"android":"levelo://app?vid=af57adaa-6702-4e9c-89ef-79b984cad2b3","ios":"levelo://app?vid=af57adaa-6702-4e9c-89ef-79b984cad2b3"},"vehicle_type_id":"4","last_reported":1718644060,"current_range_meters":6000,"station_id":"ce4bh4p2rcd13ifvqe1g","pricing_plan_id":"cebpf4jnsgd1na2vs0mg"},{"bike_id":"485967b0-5fb8-457e-a6ab-20c4cf702edf","system_id":"levelo_inurba_marseille","lat":43.28865,"lon":5.35858,"is_reserved":false,"is_disabled":false,"rental_uris":{"android":"levelo://app?vid=485967b0-5fb8-457e-a6ab-20c4cf702edf","ios":"levelo://app?vid=485967b0-5fb8-457e-a6ab-20c4cf702edf"},"vehicle_type_id":"4","last_reported":1718644060,"current_range_meters":10400,"station_id":"","pricing_plan_id":"cebpf4jnsgd1na2vs0mg"},{"bike_id":"ef79167a-53cf-4c68-9cb3-e1057a3433a7","system_id":"levelo_inurba_marseille","lat":43.28856,"lon":5.358371,"is_reserved":false,"is_disabled":false,"rental_uris":{"android":"levelo://app?vid=ef79167a-53cf-4c68-9cb3-e1057a3433a7","ios":"levelo://app?vid=ef79167a-53cf-4c68-9cb3-e1057a3433a7"},"vehicle_type_id":"4","last_reported":1718644060,"current_range_meters":0,"station_id":"ce4bhb12rcd13ifvqem0","pricing_plan_id":"cebpf4jnsgd1na2vs0mg"},{"bike_id":"da63d80e-f183-45c4-89cb-211c35ab605f","system_id":"levelo_inurba_marseille","lat":43.28856,"lon":5.358371,"is_reserved":false,"is_disabled":false,"rental_uris":{"android":"levelo://app?vid=da63d80e-f183-45c4-89cb-211c35ab605f","ios":"levelo://app?vid=da63d80e-f183-45c4-89cb-211c35ab605f"},"vehicle_type_id":"4","last_reported":1718644060,"current_range_meters":400,"station_id":"ce4bhb12rcd13ifvqem0","pricing_plan_id":"cebpf4jnsgd1na2vs0mg"},{"bike_id":"d941ca39-8d50-47a5-b1ff-1449a1371712","system_id":"levelo_inurba_marseille","lat":43.286593,"lon":5.363346,"is_reserved":false,"is_disabled":false,"rental_uris":{"android":"levelo://app?vid=d941ca39-8d50-47a5-b1ff-1449a1371712","ios":"levelo://app?vid=d941ca39-8d50-47a5-b1ff-1449a1371712"},"vehicle_type_id":"4","last_reported":1718644060,"current_range_meters":13600,"station_id":"ce4bhah2rcd13ifvqej0","pricing_plan_id":"cebpf4jnsgd1na2vs0mg"},{"bike_id":"e80b863f-c227-49d1-99cb-afc70902d9b8","system_id":"levelo_inurba_marseille","lat":43.309318,"lon":5.40137,"is_reserved":false,"is_disabled":false,"rental_uris":{"android":"levelo://app?vid=e80b863f-c227-49d1-99cb-afc70902d9b8","ios":"levelo://app?vid=e80b863f-c227-49d1-99cb-afc70902d9b8"},"vehicle_type_id":"4","last_reported":1718644060,"current_range_meters":0,"station_id":"ce4bgvp2rcd13ifvqct0","pricing_plan_id":"cebpf4jnsgd1na2vs0mg"},{"bike_id":"dcc08ce8-26d7-4200-8600-6722c480617c","system_id":"levelo_inurba_marseille","lat":43.33748,"lon":5.37456,"is_reserved":false,"is_disabled":false,"rental_uris":{"android":"levelo://app?vid=dcc08ce8-26d7-4200-8600-6722c480617c","ios":"levelo://app?vid=dcc08ce8-26d7-4200-8600-6722c480617c"},"vehicle_type_id":"4","last_reported":1718644060,"current_range_meters":24000,"station_id":"","pricing_plan_id":"cebpf4jnsgd1na2vs0mg"},{"bike_id":"d3bcf0f8-6a37-48e7-85d4-35769152f479","system_id":"levelo_inurba_marseille","lat":43.30922,"lon":5.4015,"is_reserved":false,"is_disabled":false,"rental_uris":{"android":"levelo://app?vid=d3bcf0f8-6a37-48e7-85d4-35769152f479","ios":"levelo://app?vid=d3bcf0f8-6a37-48e7-85d4-35769152f479"},"vehicle_type_id":"4","last_reported":1718644060,"current_range_meters":0,"station_id":"","pricing_plan_id":"cebpf4jnsgd1na2vs0mg"},{"bike_id":"aebf9c21-147c-490d-89b4-5a444276861c","system_id":"levelo_inurba_marseille","lat":43.30642,"lon":5.401031,"is_reserved":false,"is_disabled":false,"rental_uris":{"android":"levelo://app?vid=aebf9c21-147c-490d-89b4-5a444276861c","ios":"levelo://app?vid=aebf9c21-147c-490d-89b4-5a444276861c"},"vehicle_type_id":"4","last_reported":1718644060,"current_range_meters":8000,"station_id":"ce4bh112rcd13ifvqda0","pricing_plan_id":"cebpf4jnsgd1na2vs0mg"},{"bike_id":"37e1224d-a5ca-49c4-a04d-ae99fbea9b6b","system_id":"levelo_inurba_marseille","lat":43.306412,"lon":5.401035,"is_reserved":false,"is_disabled":false,"rental_uris":{"android":"levelo://app?vid=37e1224d-a5ca-49c4-a04d-ae99fbea9b6b","ios":"levelo://app?vid=37e1224d-a5ca-49c4-a04d-ae99fbea9b6b"},"vehicle_type_id":"4","last_reported":1718644060,"current_range_meters":9200,"station_id":"ce4bh112rcd13ifvqda0","pricing_plan_id":"cebpf4jnsgd1na2vs0mg"},{"bike_id":"f58abc34-6500-41be-8308-e7d1a0d667a3","system_id":"levelo_inurba_marseille","lat":43.306412,"lon":5.401035,"is_reserved":false,"is_disabled":false,"rental_uris":{"android":"levelo://app?vid=f58abc34-6500-41be-8308-e7d1a0d667a3","ios":"levelo://app?vid=f58abc34-6500-41be-8308-e7d1a0d667a3"},"vehicle_type_id":"4","last_reported":1718644060,"current_range_meters":21200,"station_id":"ce4bh112rcd13ifvqda0","pricing_plan_id":"cebpf4jnsgd1na2vs0mg"},{"bike_id":"51c4f509-5299-4bab-9253-55fe31d61153","system_id":"levelo_inurba_marseille","lat":43.306412,"lon":5.401035,"is_reserved":false,"is_disabled":false,"rental_uris":{"android":"levelo://app?vid=51c4f509-5299-4bab-9253-55fe31d61153","ios":"levelo://app?vid=51c4f509-5299-4bab-9253-55fe31d61153"},"vehicle_type_id":"4","last_reported":1718644060,"current_range_meters":22400,"station_id":"ce4bh112rcd13ifvqda0","pricing_plan_id":"cebpf4jnsgd1na2vs0mg"},{"bike_id":"cc748070-7cd0-4996-84f4-046e0192e6b4","system_id":"levelo_inurba_marseille","lat":43.301117,"lon":5.398795,"is_reserved":false,"is_disabled":false,"rental_uris":{"android":"levelo://app?vid=cc748070-7cd0-4996-84f4-046e0192e6b4","ios":"levelo://app?vid=cc748070-7cd0-4996-84f4-046e0192e6b4"},"vehicle_type_id":"4","last_reported":1718644060,"current_range_meters":1600,"station_id":"ce4bh0h2rcd13ifvqd40","pricing_plan_id":"cebpf4jnsgd1na2vs0mg"},{"bike_id":"eb2e89e7-bf45-404b-820d-070fe0d56313","system_id":"levelo_inurba_marseille","lat":43.301117,"lon":5.398795,"is_reserved":false,"is_disabled":false,"rental_uris":{"android":"levelo://app?vid=eb2e89e7-bf45-404b-820d-070fe0d56313","ios":"levelo://app?vid=eb2e89e7-bf45-404b-820d-070fe0d56313"},"vehicle_type_id":"4","last_reported":1718644060,"current_range_meters":0,"station_id":"ce4bh0h2rcd13ifvqd40","pricing_plan_id":"cebpf4jnsgd1na2vs0mg"},{"bike_id":"bbe03c61-6b51-4812-8fb5-014388933b56","system_id":"levelo_inurba_marseille","lat":43.301117,"lon":5.398795,"is_reserved":false,"is_disabled":false,"rental_uris":{"android":"levelo://app?vid=bbe03c61-6b51-4812-8fb5-014388933b56","ios":"levelo://app?vid=bbe03c61-6b51-4812-8fb5-014388933b56"},"vehicle_type_id":"4","last_reported":1718644060,"current_range_meters":16800,"station_id":"ce4bh0h2rcd13ifvqd40","pricing_plan_id":"cebpf4jnsgd1na2vs0mg"},{"bike_id":"9f265a8e-2982-4771-9d36-b934156f5b87","system_id":"levelo_inurba_marseille","lat":43.301358,"lon":5.398782,"is_reserved":false,"is_disabled":false,"rental_uris":{"android":"levelo://app?vid=9f265a8e-2982-4771-9d36-b934156f5b87","ios":"levelo://app?vid=9f265a8e-2982-4771-9d36-b934156f5b87"},"vehicle_type_id":"4","last_reported":1718644060,"current_range_meters":0,"station_id":"ce4bh0h2rcd13ifvqd40","pricing_plan_id":"cebpf4jnsgd1na2vs0mg"},{"bike_id":"1bc757aa-0c62-4a6c-b207-aabe9baaf827","system_id":"levelo_inurba_marseille","lat":43.28727,"lon":5.36078,"is_reserved":false,"is_disabled":false,"rental_uris":{"android":"levelo://app?vid=1bc757aa-0c62-4a6c-b207-aabe9baaf827","ios":"levelo://app?vid=1bc757aa-0c62-4a6c-b207-aabe9baaf827"},"vehicle_type_id":"4","last_reported":1718644060,"current_range_meters":0,"station_id":"cki0cbj6b192h4jlfktg","pricing_plan_id":"cebpf4jnsgd1na2vs0mg"},{"bike_id":"6ef94281-b7a8-4436-a016-a13cb3a178fa","system_id":"levelo_inurba_marseille","lat":43.28727,"lon":5.36078,"is_reserved":false,"is_disabled":false,"rental_uris":{"android":"levelo://app?vid=6ef94281-b7a8-4436-a016-a13cb3a178fa","ios":"levelo://app?vid=6ef94281-b7a8-4436-a016-a13cb3a178fa"},"vehicle_type_id":"4","last_reported":1718644060,"current_range_meters":4000,"station_id":"cki0cbj6b192h4jlfktg","pricing_plan_id":"cebpf4jnsgd1na2vs0mg"},{"bike_id":"5c2e4823-20bf-4ba8-97d3-391ce180b698","system_id":"levelo_inurba_marseille","lat":43.28727,"lon":5.36078,"is_reserved":false,"is_disabled":false,"rental_uris":{"android":"levelo://app?vid=5c2e4823-20bf-4ba8-97d3-391ce180b698","ios":"levelo://app?vid=5c2e4823-20bf-4ba8-97d3-391ce180b698"},"vehicle_type_id":"4","last_reported":1718644060,"current_range_meters":15200,"station_id":"cki0cbj6b192h4jlfktg","pricing_plan_id":"cebpf4jnsgd1na2vs0mg"},{"bike_id":"604264fe-f446-4747-9bc2-82156b5a21cb","system_id":"levelo_inurba_marseille","lat":43.286961,"lon":5.373785,"is_reserved":false,"is_disabled":false,"rental_uris":{"android":"levelo://app?vid=604264fe-f446-4747-9bc2-82156b5a21cb","ios":"levelo://app?vid=604264fe-f446-4747-9bc2-82156b5a21cb"},"vehicle_type_id":"4","last_reported":1718644060,"current_range_meters":0,"station_id":"ce4bh3p2rcd13ifvqdq0","pricing_plan_id":"cebpf4jnsgd1na2vs0mg"},{"bike_id":"95a8d5f8-40d1-4fcb-bd59-4ed958eab861","system_id":"levelo_inurba_marseille","lat":43.28671,"lon":5.36355,"is_reserved":false,"is_disabled":false,"rental_uris":{"android":"levelo://app?vid=95a8d5f8-40d1-4fcb-bd59-4ed958eab861","ios":"levelo://app?vid=95a8d5f8-40d1-4fcb-bd59-4ed958eab861"},"vehicle_type_id":"4","last_reported":1718644060,"current_range_meters":1600,"station_id":"ce4bhah2rcd13ifvqej0","pricing_plan_id":"cebpf4jnsgd1na2vs0mg"},{"bike_id":"15145a34-65ed-4f1e-b534-4cdae78ecbcc","system_id":"levelo_inurba_marseille","lat":43.298751,"lon":5.397283,"is_reserved":false,"is_disabled":false,"rental_uris":{"android":"levelo://app?vid=15145a34-65ed-4f1e-b534-4cdae78ecbcc","ios":"levelo://app?vid=15145a34-65ed-4f1e-b534-4cdae78ecbcc"},"vehicle_type_id":"4","last_reported":1718644060,"current_range_meters":0,"station_id":"ce4bh0h2rcd13ifvqd50","pricing_plan_id":"cebpf4jnsgd1na2vs0mg"},{"bike_id":"51845124-456a-49c5-93c6-2cbb93ed8db6","system_id":"levelo_inurba_marseille","lat":43.298681,"lon":5.397225,"is_reserved":false,"is_disabled":false,"rental_uris":{"android":"levelo://app?vid=51845124-456a-49c5-93c6-2cbb93ed8db6","ios":"levelo://app?vid=51845124-456a-49c5-93c6-2cbb93ed8db6"},"vehicle_type_id":"4","last_reported":1718644060,"current_range_meters":0,"station_id":"ce4bh0h2rcd13ifvqd50","pricing_plan_id":"cebpf4jnsgd1na2vs0mg"},{"bike_id":"175bc06c-c20f-4fc0-b484-f3c3e78381a1","system_id":"levelo_inurba_marseille","lat":43.286961,"lon":5.373785,"is_reserved":false,"is_disabled":false,"rental_uris":{"android":"levelo://app?vid=175bc06c-c20f-4fc0-b484-f3c3e78381a1","ios":"levelo://app?vid=175bc06c-c20f-4fc0-b484-f3c3e78381a1"},"vehicle_type_id":"4","last_reported":1718644060,"current_range_meters":14800,"station_id":"ce4bh3p2rcd13ifvqdq0","pricing_plan_id":"cebpf4jnsgd1na2vs0mg"},{"bike_id":"0b5bdf51-1dab-437c-ae93-749bf4ceb0d0","system_id":"levelo_inurba_marseille","lat":43.286961,"lon":5.373785,"is_reserved":false,"is_disabled":false,"rental_uris":{"android":"levelo://app?vid=0b5bdf51-1dab-437c-ae93-749bf4ceb0d0","ios":"levelo://app?vid=0b5bdf51-1dab-437c-ae93-749bf4ceb0d0"},"vehicle_type_id":"4","last_reported":1718644060,"current_range_meters":12000,"station_id":"ce4bh3p2rcd13ifvqdq0","pricing_plan_id":"cebpf4jnsgd1na2vs0mg"},{"bike_id":"9fed42d6-e442-40fd-a8e9-4af21a33c0e9","system_id":"levelo_inurba_marseille","lat":43.29871,"lon":5.39729,"is_reserved":false,"is_disabled":false,"rental_uris":{"android":"levelo://app?vid=9fed42d6-e442-40fd-a8e9-4af21a33c0e9","ios":"levelo://app?vid=9fed42d6-e442-40fd-a8e9-4af21a33c0e9"},"vehicle_type_id":"4","last_reported":1718644060,"current_range_meters":800,"station_id":"ce4bh0h2rcd13ifvqd50","pricing_plan_id":"cebpf4jnsgd1na2vs0mg"},{"bike_id":"427fe25e-f18f-4355-a8bb-8ef945dbefd0","system_id":"levelo_inurba_marseille","lat":43.298681,"lon":5.397225,"is_reserved":false,"is_disabled":false,"rental_uris":{"android":"levelo://app?vid=427fe25e-f18f-4355-a8bb-8ef945dbefd0","ios":"levelo://app?vid=427fe25e-f18f-4355-a8bb-8ef945dbefd0"},"vehicle_type_id":"4","last_reported":1718644060,"current_range_meters":25600,"station_id":"ce4bh0h2rcd13ifvqd50","pricing_plan_id":"cebpf4jnsgd1na2vs0mg"},{"bike_id":"c641db11-b2f6-457b-ac85-96fa812957b2","system_id":"levelo_inurba_marseille","lat":43.298681,"lon":5.397225,"is_reserved":false,"is_disabled":false,"rental_uris":{"android":"levelo://app?vid=c641db11-b2f6-457b-ac85-96fa812957b2","ios":"levelo://app?vid=c641db11-b2f6-457b-ac85-96fa812957b2"},"vehicle_type_id":"4","last_reported":1718644060,"current_range_meters":22000,"station_id":"ce4bh0h2rcd13ifvqd50","pricing_plan_id":"cebpf4jnsgd1na2vs0mg"},{"bike_id":"bd885b24-c797-4ac0-b539-8f2909e5c4ad","system_id":"levelo_inurba_marseille","lat":43.286591,"lon":5.363346,"is_reserved":false,"is_disabled":false,"rental_uris":{"android":"levelo://app?vid=bd885b24-c797-4ac0-b539-8f2909e5c4ad","ios":"levelo://app?vid=bd885b24-c797-4ac0-b539-8f2909e5c4ad"},"vehicle_type_id":"4","last_reported":1718644060,"current_range_meters":11600,"station_id":"ce4bhah2rcd13ifvqej0","pricing_plan_id":"cebpf4jnsgd1na2vs0mg"},{"bike_id":"5a4df622-a53d-4e51-b812-6300a73b63c9","system_id":"levelo_inurba_marseille","lat":43.286961,"lon":5.373785,"is_reserved":false,"is_disabled":false,"rental_uris":{"android":"levelo://app?vid=5a4df622-a53d-4e51-b812-6300a73b63c9","ios":"levelo://app?vid=5a4df622-a53d-4e51-b812-6300a73b63c9"},"vehicle_type_id":"4","last_reported":1718644060,"current_range_meters":26000,"station_id":"ce4bh3p2rcd13ifvqdq0","pricing_plan_id":"cebpf4jnsgd1na2vs0mg"},{"bike_id":"06c58a6d-f555-4c16-9d1c-b373e8a69331","system_id":"levelo_inurba_marseille","lat":43.28698,"lon":5.3739,"is_reserved":false,"is_disabled":false,"rental_uris":{"android":"levelo://app?vid=06c58a6d-f555-4c16-9d1c-b373e8a69331","ios":"levelo://app?vid=06c58a6d-f555-4c16-9d1c-b373e8a69331"},"vehicle_type_id":"4","last_reported":1718644060,"current_range_meters":0,"station_id":"ce4bh3p2rcd13ifvqdq0","pricing_plan_id":"cebpf4jnsgd1na2vs0mg"},{"bike_id":"3a230e68-ef78-42a2-b8de-9167dc61ace4","system_id":"levelo_inurba_marseille","lat":43.286961,"lon":5.373785,"is_reserved":false,"is_disabled":false,"rental_uris":{"android":"levelo://app?vid=3a230e68-ef78-42a2-b8de-9167dc61ace4","ios":"levelo://app?vid=3a230e68-ef78-42a2-b8de-9167dc61ace4"},"vehicle_type_id":"4","last_reported":1718644060,"current_range_meters":0,"station_id":"ce4bh3p2rcd13ifvqdq0","pricing_plan_id":"cebpf4jnsgd1na2vs0mg"},{"bike_id":"af61f080-c712-4c3a-a485-d780aedfa9ce","system_id":"levelo_inurba_marseille","lat":43.286961,"lon":5.373785,"is_reserved":false,"is_disabled":false,"rental_uris":{"android":"levelo://app?vid=af61f080-c712-4c3a-a485-d780aedfa9ce","ios":"levelo://app?vid=af61f080-c712-4c3a-a485-d780aedfa9ce"},"vehicle_type_id":"4","last_reported":1718644060,"current_range_meters":1600,"station_id":"ce4bh3p2rcd13ifvqdq0","pricing_plan_id":"cebpf4jnsgd1na2vs0mg"},{"bike_id":"cb6b5a0f-3a5c-4d58-9c27-3670c1b7ce5a","system_id":"levelo_inurba_marseille","lat":43.286961,"lon":5.373785,"is_reserved":false,"is_disabled":false,"rental_uris":{"android":"levelo://app?vid=cb6b5a0f-3a5c-4d58-9c27-3670c1b7ce5a","ios":"levelo://app?vid=cb6b5a0f-3a5c-4d58-9c27-3670c1b7ce5a"},"vehicle_type_id":"4","last_reported":1718644060,"current_range_meters":24400,"station_id":"ce4bh3p2rcd13ifvqdq0","pricing_plan_id":"cebpf4jnsgd1na2vs0mg"},{"bike_id":"083e8653-0b2c-4be4-ae26-81c3ca1fc9f2","system_id":"levelo_inurba_marseille","lat":43.286961,"lon":5.373785,"is_reserved":false,"is_disabled":false,"rental_uris":{"android":"levelo://app?vid=083e8653-0b2c-4be4-ae26-81c3ca1fc9f2","ios":"levelo://app?vid=083e8653-0b2c-4be4-ae26-81c3ca1fc9f2"},"vehicle_type_id":"4","last_reported":1718644060,"current_range_meters":9600,"station_id":"ce4bh3p2rcd13ifvqdq0","pricing_plan_id":"cebpf4jnsgd1na2vs0mg"},{"bike_id":"7f30c458-d8b3-4ae0-a8e4-3d6433cbf9c1","system_id":"levelo_inurba_marseille","lat":43.29037,"lon":5.38632,"is_reserved":false,"is_disabled":false,"rental_uris":{"android":"levelo://app?vid=7f30c458-d8b3-4ae0-a8e4-3d6433cbf9c1","ios":"levelo://app?vid=7f30c458-d8b3-4ae0-a8e4-3d6433cbf9c1"},"vehicle_type_id":"4","last_reported":1718644060,"current_range_meters":2400,"station_id":"ce4bh4p2rcd13ifvqe0g","pricing_plan_id":"cebpf4jnsgd1na2vs0mg"},{"bike_id":"662f7196-a09b-42cc-974e-4ab3c25c2291","system_id":"levelo_inurba_marseille","lat":43.290336,"lon":5.386425,"is_reserved":false,"is_disabled":false,"rental_uris":{"android":"levelo://app?vid=662f7196-a09b-42cc-974e-4ab3c25c2291","ios":"levelo://app?vid=662f7196-a09b-42cc-974e-4ab3c25c2291"},"vehicle_type_id":"4","last_reported":1718644060,"current_range_meters":26400,"station_id":"ce4bh4p2rcd13ifvqe0g","pricing_plan_id":"cebpf4jnsgd1na2vs0mg"},{"bike_id":"a68ba24f-319c-4f85-9b93-eb117fb8af74","system_id":"levelo_inurba_marseille","lat":43.289307,"lon":5.38406,"is_reserved":false,"is_disabled":false,"rental_uris":{"android":"levelo://app?vid=a68ba24f-319c-4f85-9b93-eb117fb8af74","ios":"levelo://app?vid=a68ba24f-319c-4f85-9b93-eb117fb8af74"},"vehicle_type_id":"4","last_reported":1718644060,"current_range_meters":0,"station_id":"ce4bh612rcd13ifvqe6g","pricing_plan_id":"cebpf4jnsgd1na2vs0mg"},{"bike_id":"1a9e62b3-b467-4586-b1ae-b9696a76e38c","system_id":"levelo_inurba_marseille","lat":43.2903,"lon":5.38636,"is_reserved":false,"is_disabled":false,"rental_uris":{"android":"levelo://app?vid=1a9e62b3-b467-4586-b1ae-b9696a76e38c","ios":"levelo://app?vid=1a9e62b3-b467-4586-b1ae-b9696a76e38c"},"vehicle_type_id":"4","last_reported":1718644060,"current_range_meters":26000,"station_id":"ce4bh4p2rcd13ifvqe0g","pricing_plan_id":"cebpf4jnsgd1na2vs0mg"},{"bike_id":"7cb8ade8-6dd6-4442-8f2c-16de1a8cccbc","system_id":"levelo_inurba_marseille","lat":43.290336,"lon":5.386425,"is_reserved":false,"is_disabled":false,"rental_uris":{"android":"levelo://app?vid=7cb8ade8-6dd6-4442-8f2c-16de1a8cccbc","ios":"levelo://app?vid=7cb8ade8-6dd6-4442-8f2c-16de1a8cccbc"},"vehicle_type_id":"4","last_reported":1718644060,"current_range_meters":400,"station_id":"ce4bh4p2rcd13ifvqe0g","pricing_plan_id":"cebpf4jnsgd1na2vs0mg"},{"bike_id":"4e567981-82d5-4e18-87c6-014fd70a4801","system_id":"levelo_inurba_marseille","lat":43.290336,"lon":5.386425,"is_reserved":false,"is_disabled":false,"rental_uris":{"android":"levelo://app?vid=4e567981-82d5-4e18-87c6-014fd70a4801","ios":"levelo://app?vid=4e567981-82d5-4e18-87c6-014fd70a4801"},"vehicle_type_id":"4","last_reported":1718644060,"current_range_meters":8800,"station_id":"ce4bh4p2rcd13ifvqe0g","pricing_plan_id":"cebpf4jnsgd1na2vs0mg"},{"bike_id":"a09c6b4d-4d11-4378-8320-6432f9a3cf63","system_id":"levelo_inurba_marseille","lat":43.289307,"lon":5.38406,"is_reserved":false,"is_disabled":false,"rental_uris":{"android":"levelo://app?vid=a09c6b4d-4d11-4378-8320-6432f9a3cf63","ios":"levelo://app?vid=a09c6b4d-4d11-4378-8320-6432f9a3cf63"},"vehicle_type_id":"4","last_reported":1718644060,"current_range_meters":400,"station_id":"ce4bh612rcd13ifvqe6g","pricing_plan_id":"cebpf4jnsgd1na2vs0mg"},{"bike_id":"a7e30b02-f3be-47fa-b132-dd1431d6c536","system_id":"levelo_inurba_marseille","lat":43.290336,"lon":5.386425,"is_reserved":false,"is_disabled":false,"rental_uris":{"android":"levelo://app?vid=a7e30b02-f3be-47fa-b132-dd1431d6c536","ios":"levelo://app?vid=a7e30b02-f3be-47fa-b132-dd1431d6c536"},"vehicle_type_id":"4","last_reported":1718644060,"current_range_meters":2000,"station_id":"ce4bh4p2rcd13ifvqe0g","pricing_plan_id":"cebpf4jnsgd1na2vs0mg"},{"bike_id":"30cab6ee-63ab-412a-8213-bc7ad59b4102","system_id":"levelo_inurba_marseille","lat":43.290336,"lon":5.386425,"is_reserved":false,"is_disabled":false,"rental_uris":{"android":"levelo://app?vid=30cab6ee-63ab-412a-8213-bc7ad59b4102","ios":"levelo://app?vid=30cab6ee-63ab-412a-8213-bc7ad59b4102"},"vehicle_type_id":"4","last_reported":1718644060,"current_range_meters":4800,"station_id":"ce4bh4p2rcd13ifvqe0g","pricing_plan_id":"cebpf4jnsgd1na2vs0mg"},{"bike_id":"4f43f8fb-ff9e-4fff-beec-1b351fe47616","system_id":"levelo_inurba_marseille","lat":43.302759,"lon":5.400793,"is_reserved":false,"is_disabled":false,"rental_uris":{"android":"levelo://app?vid=4f43f8fb-ff9e-4fff-beec-1b351fe47616","ios":"levelo://app?vid=4f43f8fb-ff9e-4fff-beec-1b351fe47616"},"vehicle_type_id":"4","last_reported":1718644060,"current_range_meters":22400,"station_id":"ce4bgvh2rcd13ifvqcs0","pricing_plan_id":"cebpf4jnsgd1na2vs0mg"},{"bike_id":"8c36919a-3bf4-4383-8bee-929e5b0fb62c","system_id":"levelo_inurba_marseille","lat":43.302759,"lon":5.400793,"is_reserved":false,"is_disabled":false,"rental_uris":{"android":"levelo://app?vid=8c36919a-3bf4-4383-8bee-929e5b0fb62c","ios":"levelo://app?vid=8c36919a-3bf4-4383-8bee-929e5b0fb62c"},"vehicle_type_id":"4","last_reported":1718644060,"current_range_meters":25200,"station_id":"ce4bgvh2rcd13ifvqcs0","pricing_plan_id":"cebpf4jnsgd1na2vs0mg"},{"bike_id":"8a104304-a39b-464a-aacb-c0078cb63878","system_id":"levelo_inurba_marseille","lat":43.302759,"lon":5.400793,"is_reserved":false,"is_disabled":false,"rental_uris":{"android":"levelo://app?vid=8a104304-a39b-464a-aacb-c0078cb63878","ios":"levelo://app?vid=8a104304-a39b-464a-aacb-c0078cb63878"},"vehicle_type_id":"4","last_reported":1718644060,"current_range_meters":27200,"station_id":"ce4bgvh2rcd13ifvqcs0","pricing_plan_id":"cebpf4jnsgd1na2vs0mg"},{"bike_id":"84d83e7d-a5b5-46bc-8338-3dcec0b3a415","system_id":"levelo_inurba_marseille","lat":43.286039,"lon":5.370681,"is_reserved":false,"is_disabled":false,"rental_uris":{"android":"levelo://app?vid=84d83e7d-a5b5-46bc-8338-3dcec0b3a415","ios":"levelo://app?vid=84d83e7d-a5b5-46bc-8338-3dcec0b3a415"},"vehicle_type_id":"4","last_reported":1718644060,"current_range_meters":2400,"station_id":"ce4bht12rcd13ifvqi60","pricing_plan_id":"cebpf4jnsgd1na2vs0mg"},{"bike_id":"5484fa82-bd0f-46ce-9a02-b610f89c19ea","system_id":"levelo_inurba_marseille","lat":43.287185,"lon":5.379373,"is_reserved":false,"is_disabled":false,"rental_uris":{"android":"levelo://app?vid=5484fa82-bd0f-46ce-9a02-b610f89c19ea","ios":"levelo://app?vid=5484fa82-bd0f-46ce-9a02-b610f89c19ea"},"vehicle_type_id":"4","last_reported":1718644060,"current_range_meters":0,"station_id":"ce4bh9p2rcd13ifvqec0","pricing_plan_id":"cebpf4jnsgd1na2vs0mg"},{"bike_id":"df4141d3-00c8-40c4-b8c8-66f8efbb3ffa","system_id":"levelo_inurba_marseille","lat":43.291994,"lon":5.392907,"is_reserved":false,"is_disabled":false,"rental_uris":{"android":"levelo://app?vid=df4141d3-00c8-40c4-b8c8-66f8efbb3ffa","ios":"levelo://app?vid=df4141d3-00c8-40c4-b8c8-66f8efbb3ffa"},"vehicle_type_id":"4","last_reported":1718644060,"current_range_meters":8000,"station_id":"ce4bh192rcd13ifvqdd0","pricing_plan_id":"cebpf4jnsgd1na2vs0mg"},{"bike_id":"2982a7cd-93d8-4f01-a45b-ebc3c1d68fc5","system_id":"levelo_inurba_marseille","lat":43.291994,"lon":5.392907,"is_reserved":false,"is_disabled":false,"rental_uris":{"android":"levelo://app?vid=2982a7cd-93d8-4f01-a45b-ebc3c1d68fc5","ios":"levelo://app?vid=2982a7cd-93d8-4f01-a45b-ebc3c1d68fc5"},"vehicle_type_id":"4","last_reported":1718644060,"current_range_meters":2000,"station_id":"ce4bh192rcd13ifvqdd0","pricing_plan_id":"cebpf4jnsgd1na2vs0mg"},{"bike_id":"8b5a9603-dd81-4b73-ad4f-89f2530dae11","system_id":"levelo_inurba_marseille","lat":43.291994,"lon":5.392907,"is_reserved":false,"is_disabled":false,"rental_uris":{"android":"levelo://app?vid=8b5a9603-dd81-4b73-ad4f-89f2530dae11","ios":"levelo://app?vid=8b5a9603-dd81-4b73-ad4f-89f2530dae11"},"vehicle_type_id":"4","last_reported":1718644060,"current_range_meters":4800,"station_id":"ce4bh192rcd13ifvqdd0","pricing_plan_id":"cebpf4jnsgd1na2vs0mg"},{"bike_id":"2943aa2d-3cc6-4651-9be3-7ad261d3e135","system_id":"levelo_inurba_marseille","lat":43.284534,"lon":5.358662,"is_reserved":false,"is_disabled":false,"rental_uris":{"android":"levelo://app?vid=2943aa2d-3cc6-4651-9be3-7ad261d3e135","ios":"levelo://app?vid=2943aa2d-3cc6-4651-9be3-7ad261d3e135"},"vehicle_type_id":"4","last_reported":1718644060,"current_range_meters":10000,"station_id":"ce4bhah2rcd13ifvqei0","pricing_plan_id":"cebpf4jnsgd1na2vs0mg"},{"bike_id":"d697fa01-4b3c-45e5-9944-90012016ae55","system_id":"levelo_inurba_marseille","lat":43.284534,"lon":5.358662,"is_reserved":false,"is_disabled":false,"rental_uris":{"android":"levelo://app?vid=d697fa01-4b3c-45e5-9944-90012016ae55","ios":"levelo://app?vid=d697fa01-4b3c-45e5-9944-90012016ae55"},"vehicle_type_id":"4","last_reported":1718644060,"current_range_meters":5600,"station_id":"ce4bhah2rcd13ifvqei0","pricing_plan_id":"cebpf4jnsgd1na2vs0mg"},{"bike_id":"e20d459a-c74c-4b20-8a1e-9cfabceb78e1","system_id":"levelo_inurba_marseille","lat":43.284538,"lon":5.358657,"is_reserved":false,"is_disabled":false,"rental_uris":{"android":"levelo://app?vid=e20d459a-c74c-4b20-8a1e-9cfabceb78e1","ios":"levelo://app?vid=e20d459a-c74c-4b20-8a1e-9cfabceb78e1"},"vehicle_type_id":"4","last_reported":1718644060,"current_range_meters":20000,"station_id":"ce4bhah2rcd13ifvqei0","pricing_plan_id":"cebpf4jnsgd1na2vs0mg"},{"bike_id":"ddd9ea4c-fc57-4b45-adfb-2941fa10f39e","system_id":"levelo_inurba_marseille","lat":43.284538,"lon":5.358657,"is_reserved":false,"is_disabled":false,"rental_uris":{"android":"levelo://app?vid=ddd9ea4c-fc57-4b45-adfb-2941fa10f39e","ios":"levelo://app?vid=ddd9ea4c-fc57-4b45-adfb-2941fa10f39e"},"vehicle_type_id":"4","last_reported":1718644060,"current_range_meters":14400,"station_id":"ce4bhah2rcd13ifvqei0","pricing_plan_id":"cebpf4jnsgd1na2vs0mg"},{"bike_id":"e168268c-1629-48dc-82f4-6a38f77c47f4","system_id":"levelo_inurba_marseille","lat":43.284534,"lon":5.358662,"is_reserved":false,"is_disabled":false,"rental_uris":{"android":"levelo://app?vid=e168268c-1629-48dc-82f4-6a38f77c47f4","ios":"levelo://app?vid=e168268c-1629-48dc-82f4-6a38f77c47f4"},"vehicle_type_id":"4","last_reported":1718644060,"current_range_meters":21600,"station_id":"ce4bhah2rcd13ifvqei0","pricing_plan_id":"cebpf4jnsgd1na2vs0mg"},{"bike_id":"fdfdcb5d-a2d6-4db3-823b-80feafa04608","system_id":"levelo_inurba_marseille","lat":43.28449,"lon":5.35892,"is_reserved":false,"is_disabled":false,"rental_uris":{"android":"levelo://app?vid=fdfdcb5d-a2d6-4db3-823b-80feafa04608","ios":"levelo://app?vid=fdfdcb5d-a2d6-4db3-823b-80feafa04608"},"vehicle_type_id":"4","last_reported":1718644060,"current_range_meters":21600,"station_id":"ce4bhah2rcd13ifvqei0","pricing_plan_id":"cebpf4jnsgd1na2vs0mg"},{"bike_id":"97c46661-49f7-4d33-9caa-2a8ec64bddee","system_id":"levelo_inurba_marseille","lat":43.28621,"lon":5.3511,"is_reserved":false,"is_disabled":false,"rental_uris":{"android":"levelo://app?vid=97c46661-49f7-4d33-9caa-2a8ec64bddee","ios":"levelo://app?vid=97c46661-49f7-4d33-9caa-2a8ec64bddee"},"vehicle_type_id":"4","last_reported":1718644060,"current_range_meters":20000,"station_id":"ce4bhch2rcd13ifvqeug","pricing_plan_id":"cebpf4jnsgd1na2vs0mg"},{"bike_id":"0c0a8a91-f2cc-482f-a580-d4db051cb56a","system_id":"levelo_inurba_marseille","lat":43.28619,"lon":5.35108,"is_reserved":false,"is_disabled":false,"rental_uris":{"android":"levelo://app?vid=0c0a8a91-f2cc-482f-a580-d4db051cb56a","ios":"levelo://app?vid=0c0a8a91-f2cc-482f-a580-d4db051cb56a"},"vehicle_type_id":"4","last_reported":1718644060,"current_range_meters":0,"station_id":"ce4bhch2rcd13ifvqeug","pricing_plan_id":"cebpf4jnsgd1na2vs0mg"},{"bike_id":"579a8bf8-b9fe-470d-a2f6-3a043c8ac564","system_id":"levelo_inurba_marseille","lat":43.294314,"lon":5.397498,"is_reserved":false,"is_disabled":false,"rental_uris":{"android":"levelo://app?vid=579a8bf8-b9fe-470d-a2f6-3a043c8ac564","ios":"levelo://app?vid=579a8bf8-b9fe-470d-a2f6-3a043c8ac564"},"vehicle_type_id":"4","last_reported":1718644060,"current_range_meters":1600,"station_id":"ce4bh3h2rcd13ifvqdo0","pricing_plan_id":"cebpf4jnsgd1na2vs0mg"},{"bike_id":"671a107e-2c5b-4844-b383-44a4b3f60d3f","system_id":"levelo_inurba_marseille","lat":43.28616,"lon":5.35107,"is_reserved":false,"is_disabled":false,"rental_uris":{"android":"levelo://app?vid=671a107e-2c5b-4844-b383-44a4b3f60d3f","ios":"levelo://app?vid=671a107e-2c5b-4844-b383-44a4b3f60d3f"},"vehicle_type_id":"4","last_reported":1718644060,"current_range_meters":0,"station_id":"ce4bhch2rcd13ifvqeug","pricing_plan_id":"cebpf4jnsgd1na2vs0mg"},{"bike_id":"e8db2dea-e827-46a3-a545-e7bea6536634","system_id":"levelo_inurba_marseille","lat":43.28615,"lon":5.35108,"is_reserved":false,"is_disabled":false,"rental_uris":{"android":"levelo://app?vid=e8db2dea-e827-46a3-a545-e7bea6536634","ios":"levelo://app?vid=e8db2dea-e827-46a3-a545-e7bea6536634"},"vehicle_type_id":"4","last_reported":1718644060,"current_range_meters":18400,"station_id":"ce4bhch2rcd13ifvqeug","pricing_plan_id":"cebpf4jnsgd1na2vs0mg"},{"bike_id":"e99873d8-52a5-4f8f-9955-b51470e163c9","system_id":"levelo_inurba_marseille","lat":43.28616,"lon":5.351048,"is_reserved":false,"is_disabled":false,"rental_uris":{"android":"levelo://app?vid=e99873d8-52a5-4f8f-9955-b51470e163c9","ios":"levelo://app?vid=e99873d8-52a5-4f8f-9955-b51470e163c9"},"vehicle_type_id":"4","last_reported":1718644060,"current_range_meters":31200,"station_id":"ce4bhch2rcd13ifvqeug","pricing_plan_id":"cebpf4jnsgd1na2vs0mg"},{"bike_id":"5e26aeb0-6777-4108-b419-a5930ebac1bc","system_id":"levelo_inurba_marseille","lat":43.292749,"lon":5.368398,"is_reserved":false,"is_disabled":false,"rental_uris":{"android":"levelo://app?vid=5e26aeb0-6777-4108-b419-a5930ebac1bc","ios":"levelo://app?vid=5e26aeb0-6777-4108-b419-a5930ebac1bc"},"vehicle_type_id":"4","last_reported":1718644060,"current_range_meters":25200,"station_id":"ce4bhbp2rcd13ifvqesg","pricing_plan_id":"cebpf4jnsgd1na2vs0mg"},{"bike_id":"63438767-8f23-4972-b5b3-2426e9ba2b78","system_id":"levelo_inurba_marseille","lat":43.28615,"lon":5.35105,"is_reserved":false,"is_disabled":false,"rental_uris":{"android":"levelo://app?vid=63438767-8f23-4972-b5b3-2426e9ba2b78","ios":"levelo://app?vid=63438767-8f23-4972-b5b3-2426e9ba2b78"},"vehicle_type_id":"4","last_reported":1718644060,"current_range_meters":31200,"station_id":"ce4bhch2rcd13ifvqeug","pricing_plan_id":"cebpf4jnsgd1na2vs0mg"},