{"last_updated":1740471159,"ttl":60,"version":"2.2","data":{"bikes":[{"bike_id":"89e6b415-eae7-4584-b5d5-a0f2eb1d8259","system_id":"levelo_inurba_marseille","lat":43.27823,"lon":5.39214,"is_reserved":false,"is_disabled":false,"rental_uris":{"android":"levelo://app?vid=89e6b415-eae7-4584-b5d5-a0f2eb1d8259","ios":"levelo://app?vid=89e6b415-eae7-4584-b5d5-a0f2eb1d8259"},"vehicle_type_id":"4","last_reported":1740471159,"current_range_meters":4000,"station_id":"","pricing_plan_id":"cebpf4jnsgd1na2vs0mg"},{"bike_id":"39505843-80ca-426a-86f1-c25b71cffadb","system_id":"levelo_inurba_marseille","lat":43.27492,"lon":5.42468,"is_reserved":false,"is_disabled":false,"rental_uris":{"android":"levelo://app?vid=39505843-80ca-426a-86f1-c25b71cffadb","ios":"levelo://app?vid=39505843-80ca-426a-86f1-c25b71cffadb"},"vehicle_type_id":"4","last_reported":1740471159,"current_range_meters":2800,"station_id":"ce4bhn92rcd13ifvqgrg","pricing_plan_id":"cebpf4jnsgd1na2vs0mg"},{"bike_id":"3d22fb6d-91ff-46ae-a4d7-c4682f5965e6","system_id":"levelo_inurba_marseille","lat":43.23153,"lon":5.43713,"is_reserved":false,"is_disabled":false,"rental_uris":{"android":"levelo://app?vid=3d22fb6d-91ff-46ae-a4d7-c4682f5965e6","ios":"levelo://app?vid=3d22fb6d-91ff-46ae-a4d7-c4682f5965e6"},"vehicle_type_id":"4","last_reported":1740471159,"current_range_meters":3600,"station_id":"ce4bhmp2rcd13ifvqgog","pricing_plan_id":"cebpf4jnsgd1na2vs0mg"},{"bike_id":"16a64962-c840-403e-8215-260ce50518b7","system_id":"levelo_inurba_marseille","lat":43.28155,"lon":5.4265,"is_reserved":false,"is_disabled":true,"rental_uris":{"android":"levelo://app?vid=16a64962-c840-403e-8215-260ce50518b7","ios":"levelo://app?vid=16a64962-c840-403e-8215-260ce50518b7"},"vehicle_type_id":"4","last_reported":1740471159,"current_range_meters":4000,"station_id":"ce4bhnh2rcd13ifvqgug","pricing_plan_id":"cebpf4jnsgd1na2vs0mg"},{"bike_id":"caaafe59-17c5-4a0d-b221-e6dcecd987d9","system_id":"levelo_inurba_marseille","lat":43.30143,"lon":5.37429,"is_reserved":false,"is_disabled":false,"rental_uris":{"android":"levelo://app?vid=caaafe59-17c5-4a0d-b221-e6dcecd987d9","ios":"levelo://app?vid=caaafe59-17c5-4a0d-b221-e6dcecd987d9"},"vehicle_type_id":"4","last_reported":1740471159,"current_range_meters":4000,"station_id":"ce4bgs92rcd13ifvqcc0","pricing_plan_id":"cebpf4jnsgd1na2vs0mg"},{"bike_id":"a278b8e6-6a6f-43e4-8af8-ccf033113b37","system_id":"levelo_inurba_marseille","lat":43.26953,"lon":5.38637,"is_reserved":false,"is_disabled":false,"rental_uris":{"android":"levelo://app?vid=a278b8e6-6a6f-43e4-8af8-ccf033113b37","ios":"levelo://app?vid=a278b8e6-6a6f-43e4-8af8-ccf033113b37"},"vehicle_type_id":"4","last_reported":1740471159,"current_range_meters":4400,"station_id":"ce4bhh92rcd13ifvqfh0","pricing_plan_id":"cebpf4jnsgd1na2vs0mg"},{"bike_id":"db29ab0a-60d6-4bfa-9201-46260261a3af","system_id":"levelo_inurba_marseille","lat":43.32444,"lon":5.36597,"is_reserved":false,"is_disabled":false,"rental_uris":{"android":"levelo://app?vid=db29ab0a-60d6-4bfa-9201-46260261a3af","ios":"levelo://app?vid=db29ab0a-60d6-4bfa-9201-46260261a3af"},"vehicle_type_id":"4","last_reported":1740471159,"current_range_meters":4400,"station_id":"ce4bhs12rcd13ifvqhvg","pricing_plan_id":"cebpf4jnsgd1na2vs0mg"},{"bike_id":"fcaacc0e-b29a-4b74-84ef-236c574ca2ba","system_id":"levelo_inurba_marseille","lat":43.33602,"lon":5.4103,"is_reserved":false,"is_disabled":false,"rental_uris":{"android":"levelo://app?vid=fcaacc0e-b29a-4b74-84ef-236c574ca2ba","ios":"levelo://app?vid=fcaacc0e-b29a-4b74-84ef-236c574ca2ba"},"vehicle_type_id":"4","last_reported":1740471159,"current_range_meters":4800,"station_id":"ce4bhqh2rcd13ifvqhmg","pricing_plan_id":"cebpf4jnsgd1na2vs0mg"},{"bike_id":"bddf8e7b-3da7-4773-b7ae-9c6dd1337414","system_id":"levelo_inurba_marseille","lat":43.28152,"lon":5.42657,"is_reserved":false,"is_disabled":false,"rental_uris":{"android":"levelo://app?vid=bddf8e7b-3da7-4773-b7ae-9c6dd1337414","ios":"levelo://app?vid=bddf8e7b-3da7-4773-b7ae-9c6dd1337414"},"vehicle_type_id":"4","last_reported":1740471159,"current_range_meters":5600,"station_id":"ce4bhnh2rcd13ifvqgug","pricing_plan_id":"cebpf4jnsgd1na2vs0mg"},{"bike_id":"2f3b3a8a-05f5-4e58-b511-f45877d28021","system_id":"levelo_inurba_marseille","lat":43.27986,"lon":5.41686,"is_reserved":false,"is_disabled":false,"rental_uris":{"android":"levelo://app?vid=2f3b3a8a-05f5-4e58-b511-f45877d28021","ios":"levelo://app?vid=2f3b3a8a-05f5-4e58-b511-f45877d28021"},"vehicle_type_id":"4","last_reported":1740471159,"current_range_meters":5600,"station_id":"ce4bho12rcd13ifvqh1g","pricing_plan_id":"cebpf4jnsgd1na2vs0mg"},{"bike_id":"2f039805-95db-4e35-939c-434f6f4eb295","system_id":"levelo_inurba_marseille","lat":43.27059,"lon":5.40265,"is_reserved":false,"is_disabled":false,"rental_uris":{"android":"levelo://app?vid=2f039805-95db-4e35-939c-434f6f4eb295","ios":"levelo://app?vid=2f039805-95db-4e35-939c-434f6f4eb295"},"vehicle_type_id":"4","last_reported":1740471159,"current_range_meters":4800,"station_id":"ce4bhk92rcd13ifvqgc0","pricing_plan_id":"cebpf4jnsgd1na2vs0mg"},{"bike_id":"fda3072b-a436-4658-8816-eb8305f4567d","system_id":"levelo_inurba_marseille","lat":43.33594,"lon":5.40974,"is_reserved":false,"is_disabled":false,"rental_uris":{"android":"levelo://app?vid=fda3072b-a436-4658-8816-eb8305f4567d","ios":"levelo://app?vid=fda3072b-a436-4658-8816-eb8305f4567d"},"vehicle_type_id":"4","last_reported":1740471159,"current_range_meters":5600,"station_id":"ce4bhqh2rcd13ifvqhmg","pricing_plan_id":"cebpf4jnsgd1na2vs0mg"},{"bike_id":"b004eea0-d52e-4a34-9da5-8c7018b8b6a2","system_id":"levelo_inurba_marseille","lat":43.232,"lon":5.35559,"is_reserved":false,"is_disabled":false,"rental_uris":{"android":"levelo://app?vid=b004eea0-d52e-4a34-9da5-8c7018b8b6a2","ios":"levelo://app?vid=b004eea0-d52e-4a34-9da5-8c7018b8b6a2"},"vehicle_type_id":"4","last_reported":1740471159,"current_range_meters":6000,"station_id":"ce4bhu92rcd13ifvqi70","pricing_plan_id":"cebpf4jnsgd1na2vs0mg"},{"bike_id":"bd1c9204-109d-453d-a655-cc2878aad0c5","system_id":"levelo_inurba_marseille","lat":43.29885,"lon":5.4367,"is_reserved":false,"is_disabled":false,"rental_uris":{"android":"levelo://app?vid=bd1c9204-109d-453d-a655-cc2878aad0c5","ios":"levelo://app?vid=bd1c9204-109d-453d-a655-cc2878aad0c5"},"vehicle_type_id":"4","last_reported":1740471159,"current_range_meters":6400,"station_id":"ce4bhpp2rcd13ifvqhfg","pricing_plan_id":"cebpf4jnsgd1na2vs0mg"},{"bike_id":"d26d2bd8-ad25-4eaf-a06e-8c96ed9397a9","system_id":"levelo_inurba_marseille","lat":43.267806,"lon":5.394209,"is_reserved":false,"is_disabled":false,"rental_uris":{"android":"levelo://app?vid=d26d2bd8-ad25-4eaf-a06e-8c96ed9397a9","ios":"levelo://app?vid=d26d2bd8-ad25-4eaf-a06e-8c96ed9397a9"},"vehicle_type_id":"4","last_reported":1740471159,"current_range_meters":6400,"station_id":"ce4bhh12rcd13ifvqfg0","pricing_plan_id":"cebpf4jnsgd1na2vs0mg"},{"bike_id":"216bb77f-c769-4011-8970-e66d63254aa2","system_id":"levelo_inurba_marseille","lat":43.29889,"lon":5.37886,"is_reserved":false,"is_disabled":false,"rental_uris":{"android":"levelo://app?vid=216bb77f-c769-4011-8970-e66d63254aa2","ios":"levelo://app?vid=216bb77f-c769-4011-8970-e66d63254aa2"},"vehicle_type_id":"4","last_reported":1740471159,"current_range_meters":6800,"station_id":"","pricing_plan_id":"cebpf4jnsgd1na2vs0mg"},{"bike_id":"dab327f3-8784-4afb-9a30-3014e7f44d8e","system_id":"levelo_inurba_marseille","lat":43.29195,"lon":5.39334,"is_reserved":false,"is_disabled":false,"rental_uris":{"android":"levelo://app?vid=dab327f3-8784-4afb-9a30-3014e7f44d8e","ios":"levelo://app?vid=dab327f3-8784-4afb-9a30-3014e7f44d8e"},"vehicle_type_id":"4","last_reported":1740471159,"current_range_meters":6400,"station_id":"ce4bh192rcd13ifvqdd0","pricing_plan_id":"cebpf4jnsgd1na2vs0mg"},{"bike_id":"9912bd3b-182f-467c-92db-65e052c11af3","system_id":"levelo_inurba_marseille","lat":43.24285,"lon":5.43821,"is_reserved":false,"is_disabled":false,"rental_uris":{"android":"levelo://app?vid=9912bd3b-182f-467c-92db-65e052c11af3","ios":"levelo://app?vid=9912bd3b-182f-467c-92db-65e052c11af3"},"vehicle_type_id":"4","last_reported":1740471159,"current_range_meters":6400,"station_id":"","pricing_plan_id":"cebpf4jnsgd1na2vs0mg"},{"bike_id":"8b12f3dd-d3ac-4793-ac1c-9f637dd7dde2","system_id":"levelo_inurba_marseille","lat":43.30945,"lon":5.3903,"is_reserved":false,"is_disabled":false,"rental_uris":{"android":"levelo://app?vid=8b12f3dd-d3ac-4793-ac1c-9f637dd7dde2","ios":"levelo://app?vid=8b12f3dd-d3ac-4793-ac1c-9f637dd7dde2"},"vehicle_type_id":"4","last_reported":1740471159,"current_range_meters":9200,"station_id":"ce4bgup2rcd13ifvqco0","pricing_plan_id":"cebpf4jnsgd1na2vs0mg"},{"bike_id":"87bbda1f-0db0-4d79-a046-a87b5e94995a","system_id":"levelo_inurba_marseille","lat":43.24161,"lon":5.36403,"is_reserved":false,"is_disabled":false,"rental_uris":{"android":"levelo://app?vid=87bbda1f-0db0-4d79-a046-a87b5e94995a","ios":"levelo://app?vid=87bbda1f-0db0-4d79-a046-a87b5e94995a"},"vehicle_type_id":"4","last_reported":1740471159,"current_range_meters":6800,"station_id":"cpo36qri1sfpv3e86is0","pricing_plan_id":"cebpf4jnsgd1na2vs0mg"},{"bike_id":"f1a3b4bc-57c7-4c54-9825-18988b7de455","system_id":"levelo_inurba_marseille","lat":43.27803,"lon":5.40711,"is_reserved":false,"is_disabled":false,"rental_uris":{"android":"levelo://app?vid=f1a3b4bc-57c7-4c54-9825-18988b7de455","ios":"levelo://app?vid=f1a3b4bc-57c7-4c54-9825-18988b7de455"},"vehicle_type_id":"4","last_reported":1740471159,"current_range_meters":6800,"station_id":"ce4bhnh2rcd13ifvqgtg","pricing_plan_id":"cebpf4jnsgd1na2vs0mg"},{"bike_id":"15d63c41-d467-4e01-ab9d-1a4d98399eb8","system_id":"levelo_inurba_marseille","lat":43.28076,"lon":5.39673,"is_reserved":false,"is_disabled":true,"rental_uris":{"android":"levelo://app?vid=15d63c41-d467-4e01-ab9d-1a4d98399eb8","ios":"levelo://app?vid=15d63c41-d467-4e01-ab9d-1a4d98399eb8"},"vehicle_type_id":"4","last_reported":1740471159,"current_range_meters":6800,"station_id":"ce4bho12rcd13ifvqh2g","pricing_plan_id":"cebpf4jnsgd1na2vs0mg"},{"bike_id":"2ce5a7a3-ebc5-4542-8581-83c42fa52a52","system_id":"levelo_inurba_marseille","lat":43.30964,"lon":5.39034,"is_reserved":false,"is_disabled":true,"rental_uris":{"android":"levelo://app?vid=2ce5a7a3-ebc5-4542-8581-83c42fa52a52","ios":"levelo://app?vid=2ce5a7a3-ebc5-4542-8581-83c42fa52a52"},"vehicle_type_id":"4","last_reported":1740471159,"current_range_meters":6800,"station_id":"ce4bgup2rcd13ifvqco0","pricing_plan_id":"cebpf4jnsgd1na2vs0mg"},{"bike_id":"826b9b93-ed69-4372-979b-8eb67c0c4857","system_id":"levelo_inurba_marseille","lat":43.28662,"lon":5.36359,"is_reserved":false,"is_disabled":false,"rental_uris":{"android":"levelo://app?vid=826b9b93-ed69-4372-979b-8eb67c0c4857","ios":"levelo://app?vid=826b9b93-ed69-4372-979b-8eb67c0c4857"},"vehicle_type_id":"4","last_reported":1740471159,"current_range_meters":6800,"station_id":"ce4bhah2rcd13ifvqej0","pricing_plan_id":"cebpf4jnsgd1na2vs0mg"},{"bike_id":"a295a266-5da2-4ee3-bc6a-c5a03776d4a1","system_id":"levelo_inurba_marseille","lat":43.30937,"lon":5.40154,"is_reserved":false,"is_disabled":false,"rental_uris":{"android":"levelo://app?vid=a295a266-5da2-4ee3-bc6a-c5a03776d4a1","ios":"levelo://app?vid=a295a266-5da2-4ee3-bc6a-c5a03776d4a1"},"vehicle_type_id":"4","last_reported":1740471159,"current_range_meters":6400,"station_id":"ce4bgvp2rcd13ifvqct0","pricing_plan_id":"cebpf4jnsgd1na2vs0mg"},{"bike_id":"4c676afd-aabb-48c7-9c62-f89205cd3f4a","system_id":"levelo_inurba_marseille","lat":43.27826,"lon":5.40705,"is_reserved":false,"is_disabled":false,"rental_uris":{"android":"levelo://app?vid=4c676afd-aabb-48c7-9c62-f89205cd3f4a","ios":"levelo://app?vid=4c676afd-aabb-48c7-9c62-f89205cd3f4a"},"vehicle_type_id":"4","last_reported":1740471159,"current_range_meters":6800,"station_id":"ce4bhnh2rcd13ifvqgtg","pricing_plan_id":"cebpf4jnsgd1na2vs0mg"},{"bike_id":"f3e2d31b-bf16-4d93-8358-e1b5fc69cdb1","system_id":"levelo_inurba_marseille","lat":43.28082,"lon":5.39906,"is_reserved":false,"is_disabled":false,"rental_uris":{"android":"levelo://app?vid=f3e2d31b-bf16-4d93-8358-e1b5fc69cdb1","ios":"levelo://app?vid=f3e2d31b-bf16-4d93-8358-e1b5fc69cdb1"},"vehicle_type_id":"4","last_reported":1740471159,"current_range_meters":6800,"station_id":"","pricing_plan_id":"cebpf4jnsgd1na2vs0mg"},{"bike_id":"17da1feb-9abe-4e1d-9544-5a842d8f1b8a","system_id":"levelo_inurba_marseille","lat":43.27803,"lon":5.40736,"is_reserved":false,"is_disabled":false,"rental_uris":{"android":"levelo://app?vid=17da1feb-9abe-4e1d-9544-5a842d8f1b8a","ios":"levelo://app?vid=17da1feb-9abe-4e1d-9544-5a842d8f1b8a"},"vehicle_type_id":"4","last_reported":1740471159,"current_range_meters":6800,"station_id":"ce4bhnh2rcd13ifvqgtg","pricing_plan_id":"cebpf4jnsgd1na2vs0mg"},{"bike_id":"5f618fd8-4c1d-4b98-9d96-80413e9c5e2b","system_id":"levelo_inurba_marseille","lat":43.32367,"lon":5.40615,"is_reserved":false,"is_disabled":true,"rental_uris":{"android":"levelo://app?vid=5f618fd8-4c1d-4b98-9d96-80413e9c5e2b","ios":"levelo://app?vid=5f618fd8-4c1d-4b98-9d96-80413e9c5e2b"},"vehicle_type_id":"4","last_reported":1740471159,"current_range_meters":7200,"station_id":"ce4bhq92rcd13ifvqhjg","pricing_plan_id":"cebpf4jnsgd1na2vs0mg"},{"bike_id":"b631dc4c-3319-459c-a4ce-4386ba6aed89","system_id":"levelo_inurba_marseille","lat":43.33601,"lon":5.41029,"is_reserved":false,"is_disabled":false,"rental_uris":{"android":"levelo://app?vid=b631dc4c-3319-459c-a4ce-4386ba6aed89","ios":"levelo://app?vid=b631dc4c-3319-459c-a4ce-4386ba6aed89"},"vehicle_type_id":"4","last_reported":1740471159,"current_range_meters":7200,"station_id":"ce4bhqh2rcd13ifvqhmg","pricing_plan_id":"cebpf4jnsgd1na2vs0mg"},{"bike_id":"6491ef1b-9b7b-4294-a78b-cf05a333ba7f","system_id":"levelo_inurba_marseille","lat":43.30806,"lon":5.38158,"is_reserved":false,"is_disabled":false,"rental_uris":{"android":"levelo://app?vid=6491ef1b-9b7b-4294-a78b-cf05a333ba7f","ios":"levelo://app?vid=6491ef1b-9b7b-4294-a78b-cf05a333ba7f"},"vehicle_type_id":"4","last_reported":1740471159,"current_range_meters":8000,"station_id":"ce4bgt12rcd13ifvqce0","pricing_plan_id":"cebpf4jnsgd1na2vs0mg"},{"bike_id":"59df4256-a0b1-41dd-97e3-36897a61b684","system_id":"levelo_inurba_marseille","lat":43.28435,"lon":5.39197,"is_reserved":false,"is_disabled":false,"rental_uris":{"android":"levelo://app?vid=59df4256-a0b1-41dd-97e3-36897a61b684","ios":"levelo://app?vid=59df4256-a0b1-41dd-97e3-36897a61b684"},"vehicle_type_id":"4","last_reported":1740471159,"current_range_meters":8000,"station_id":"ce4bhoh2rcd13ifvqh5g","pricing_plan_id":"cebpf4jnsgd1na2vs0mg"},{"bike_id":"71a2ca21-6469-4c04-b37e-71c3da583ccf","system_id":"levelo_inurba_marseille","lat":43.28987,"lon":5.37826,"is_reserved":false,"is_disabled":false,"rental_uris":{"android":"levelo://app?vid=71a2ca21-6469-4c04-b37e-71c3da583ccf","ios":"levelo://app?vid=71a2ca21-6469-4c04-b37e-71c3da583ccf"},"vehicle_type_id":"4","last_reported":1740471159,"current_range_meters":8000,"station_id":"ce4bh9p2rcd13ifvqed0","pricing_plan_id":"cebpf4jnsgd1na2vs0mg"},{"bike_id":"6dc0ad63-8aa4-4d25-aebe-9d4f65d536e9","system_id":"levelo_inurba_marseille","lat":43.27945,"lon":5.41046,"is_reserved":false,"is_disabled":false,"rental_uris":{"android":"levelo://app?vid=6dc0ad63-8aa4-4d25-aebe-9d4f65d536e9","ios":"levelo://app?vid=6dc0ad63-8aa4-4d25-aebe-9d4f65d536e9"},"vehicle_type_id":"4","last_reported":1740471159,"current_range_meters":8400,"station_id":"ce4bhnp2rcd13ifvqh0g","pricing_plan_id":"cebpf4jnsgd1na2vs0mg"},{"bike_id":"9ea64632-dae4-495a-bb36-7a99de769a14","system_id":"levelo_inurba_marseille","lat":43.29708,"lon":5.36591,"is_reserved":false,"is_disabled":false,"rental_uris":{"android":"levelo://app?vid=9ea64632-dae4-495a-bb36-7a99de769a14","ios":"levelo://app?vid=9ea64632-dae4-495a-bb36-7a99de769a14"},"vehicle_type_id":"4","last_reported":1740471159,"current_range_meters":8400,"station_id":"ce4bgn12rcd13ifvqbt0","pricing_plan_id":"cebpf4jnsgd1na2vs0mg"},{"bike_id":"396d32b0-2724-4e98-acc0-785003c32179","system_id":"levelo_inurba_marseille","lat":43.29711,"lon":5.36604,"is_reserved":false,"is_disabled":false,"rental_uris":{"android":"levelo://app?vid=396d32b0-2724-4e98-acc0-785003c32179","ios":"levelo://app?vid=396d32b0-2724-4e98-acc0-785003c32179"},"vehicle_type_id":"4","last_reported":1740471159,"current_range_meters":8400,"station_id":"ce4bgn12rcd13ifvqbt0","pricing_plan_id":"cebpf4jnsgd1na2vs0mg"},{"bike_id":"ec17ff6a-26f9-4514-bd43-4ec7017c0b01","system_id":"levelo_inurba_marseille","lat":43.2932,"lon":5.3769,"is_reserved":false,"is_disabled":false,"rental_uris":{"android":"levelo://app?vid=ec17ff6a-26f9-4514-bd43-4ec7017c0b01","ios":"levelo://app?vid=ec17ff6a-26f9-4514-bd43-4ec7017c0b01"},"vehicle_type_id":"4","last_reported":1740471159,"current_range_meters":8400,"station_id":"","pricing_plan_id":"cebpf4jnsgd1na2vs0mg"},{"bike_id":"6511c383-b32c-402c-ba0f-22666ac7d9a3","system_id":"levelo_inurba_marseille","lat":43.31334,"lon":5.36712,"is_reserved":false,"is_disabled":false,"rental_uris":{"android":"levelo://app?vid=6511c383-b32c-402c-ba0f-22666ac7d9a3","ios":"levelo://app?vid=6511c383-b32c-402c-ba0f-22666ac7d9a3"},"vehicle_type_id":"4","last_reported":1740471159,"current_range_meters":8400,"station_id":"ce4bgr92rcd13ifvqc6g","pricing_plan_id":"cebpf4jnsgd1na2vs0mg"},{"bike_id":"f5e523f2-246d-474c-808f-a050215d7059","system_id":"levelo_inurba_marseille","lat":43.23191,"lon":5.35556,"is_reserved":false,"is_disabled":false,"rental_uris":{"android":"levelo://app?vid=f5e523f2-246d-474c-808f-a050215d7059","ios":"levelo://app?vid=f5e523f2-246d-474c-808f-a050215d7059"},"vehicle_type_id":"4","last_reported":1740471159,"current_range_meters":8800,"station_id":"ce4bhu92rcd13ifvqi70","pricing_plan_id":"cebpf4jnsgd1na2vs0mg"},{"bike_id":"5162c2ce-a731-4d3b-a21a-a1c8cb63150f","system_id":"levelo_inurba_marseille","lat":43.31712,"lon":5.43698,"is_reserved":false,"is_disabled":false,"rental_uris":{"android":"levelo://app?vid=5162c2ce-a731-4d3b-a21a-a1c8cb63150f","ios":"levelo://app?vid=5162c2ce-a731-4d3b-a21a-a1c8cb63150f"},"vehicle_type_id":"4","last_reported":1740471159,"current_range_meters":8800,"station_id":"ce4bhp92rcd13ifvqhcg","pricing_plan_id":"cebpf4jnsgd1na2vs0mg"},{"bike_id":"446313c8-37fc-4f36-b9c3-a1d481dfb62b","system_id":"levelo_inurba_marseille","lat":43.26817,"lon":5.41104,"is_reserved":false,"is_disabled":false,"rental_uris":{"android":"levelo://app?vid=446313c8-37fc-4f36-b9c3-a1d481dfb62b","ios":"levelo://app?vid=446313c8-37fc-4f36-b9c3-a1d481dfb62b"},"vehicle_type_id":"4","last_reported":1740471159,"current_range_meters":8800,"station_id":"","pricing_plan_id":"cebpf4jnsgd1na2vs0mg"},{"bike_id":"674cb057-5d42-4512-ae8c-448c1f63016b","system_id":"levelo_inurba_marseille","lat":43.30358,"lon":5.39442,"is_reserved":false,"is_disabled":false,"rental_uris":{"android":"levelo://app?vid=674cb057-5d42-4512-ae8c-448c1f63016b","ios":"levelo://app?vid=674cb057-5d42-4512-ae8c-448c1f63016b"},"vehicle_type_id":"4","last_reported":1740471159,"current_range_meters":9200,"station_id":"","pricing_plan_id":"cebpf4jnsgd1na2vs0mg"},{"bike_id":"f980f677-3577-4af4-a6ba-79a13435ea20","system_id":"levelo_inurba_marseille","lat":43.29036,"lon":5.37583,"is_reserved":false,"is_disabled":false,"rental_uris":{"android":"levelo://app?vid=f980f677-3577-4af4-a6ba-79a13435ea20","ios":"levelo://app?vid=f980f677-3577-4af4-a6ba-79a13435ea20"},"vehicle_type_id":"4","last_reported":1740471159,"current_range_meters":8400,"station_id":"ce4bh692rcd13ifvqe90","pricing_plan_id":"cebpf4jnsgd1na2vs0mg"},{"bike_id":"dff46531-ecb9-49fa-a3ef-95998e22f73e","system_id":"levelo_inurba_marseille","lat":43.30473,"lon":5.36545,"is_reserved":false,"is_disabled":false,"rental_uris":{"android":"levelo://app?vid=dff46531-ecb9-49fa-a3ef-95998e22f73e","ios":"levelo://app?vid=dff46531-ecb9-49fa-a3ef-95998e22f73e"},"vehicle_type_id":"4","last_reported":1740471159,"current_range_meters":9600,"station_id":"ce4bgs12rcd13ifvqcag","pricing_plan_id":"cebpf4jnsgd1na2vs0mg"},{"bike_id":"dd209a24-bb39-407d-bb4c-30fb90704639","system_id":"levelo_inurba_marseille","lat":43.29195,"lon":5.39334,"is_reserved":false,"is_disabled":true,"rental_uris":{"android":"levelo://app?vid=dd209a24-bb39-407d-bb4c-30fb90704639","ios":"levelo://app?vid=dd209a24-bb39-407d-bb4c-30fb90704639"},"vehicle_type_id":"4","last_reported":1740471159,"current_range_meters":9200,"station_id":"ce4bh192rcd13ifvqdd0","pricing_plan_id":"cebpf4jnsgd1na2vs0mg"},{"bike_id":"7deaf953-0f73-4d03-80c3-69818dfef8bd","system_id":"levelo_inurba_marseille","lat":43.2418,"lon":5.39725,"is_reserved":false,"is_disabled":false,"rental_uris":{"android":"levelo://app?vid=7deaf953-0f73-4d03-80c3-69818dfef8bd","ios":"levelo://app?vid=7deaf953-0f73-4d03-80c3-69818dfef8bd"},"vehicle_type_id":"4","last_reported":1740471159,"current_range_meters":9200,"station_id":"ce4bhn12rcd13ifvqgpg","pricing_plan_id":"cebpf4jnsgd1na2vs0mg"},{"bike_id":"d469ae70-b06c-49f4-b9c4-a41e0d165d26","system_id":"levelo_inurba_marseille","lat":43.24156,"lon":5.36413,"is_reserved":false,"is_disabled":false,"rental_uris":{"android":"levelo://app?vid=d469ae70-b06c-49f4-b9c4-a41e0d165d26","ios":"levelo://app?vid=d469ae70-b06c-49f4-b9c4-a41e0d165d26"},"vehicle_type_id":"4","last_reported":1740471159,"current_range_meters":9600,"station_id":"cpo36qri1sfpv3e86is0","pricing_plan_id":"cebpf4jnsgd1na2vs0mg"},{"bike_id":"ce08e129-3210-4784-8e00-3661099c392d","system_id":"levelo_inurba_marseille","lat":43.29884,"lon":5.43702,"is_reserved":false,"is_disabled":false,"rental_uris":{"android":"levelo://app?vid=ce08e129-3210-4784-8e00-3661099c392d","ios":"levelo://app?vid=ce08e129-3210-4784-8e00-3661099c392d"},"vehicle_type_id":"4","last_reported":1740471159,"current_range_meters":9600,"station_id":"ce4bhpp2rcd13ifvqhfg","pricing_plan_id":"cebpf4jnsgd1na2vs0mg"},{"bike_id":"43283546-0c6f-4116-b0be-3b4e91fa7c5f","system_id":"levelo_inurba_marseille","lat":43.29392,"lon":5.38493,"is_reserved":false,"is_disabled":false,"rental_uris":{"android":"levelo://app?vid=43283546-0c6f-4116-b0be-3b4e91fa7c5f","ios":"levelo://app?vid=43283546-0c6f-4116-b0be-3b4e91fa7c5f"},"vehicle_type_id":"4","last_reported":1740471159,"current_range_meters":10000,"station_id":"","pricing_plan_id":"cebpf4jnsgd1na2vs0mg"},{"bike_id":"cf627f1b-44b9-4541-9f0b-7ac061f04e84","system_id":"levelo_inurba_marseille","lat":43.29739,"lon":5.38468,"is_reserved":false,"is_disabled":false,"rental_uris":{"android":"levelo://app?vid=cf627f1b-44b9-4541-9f0b-7ac061f04e84","ios":"levelo://app?vid=cf627f1b-44b9-4541-9f0b-7ac061f04e84"},"vehicle_type_id":"4","last_reported":1740471159,"current_range_meters":9600,"station_id":"","pricing_plan_id":"cebpf4jnsgd1na2vs0mg"},{"bike_id":"f07dc0be-e1f4-4d51-8249-8120527c217d","system_id":"levelo_inurba_marseille","lat":43.2919,"lon":5.35814,"is_reserved":false,"is_disabled":false,"rental_uris":{"android":"levelo://app?vid=f07dc0be-e1f4-4d51-8249-8120527c217d","ios":"levelo://app?vid=f07dc0be-e1f4-4d51-8249-8120527c217d"},"vehicle_type_id":"4","last_reported":1740471159,"current_range_meters":9600,"station_id":"ce4bhb12rcd13ifvqel0","pricing_plan_id":"cebpf4jnsgd1na2vs0mg"},{"bike_id":"ef987b3a-f46d-411c-be8c-43479ac1e151","system_id":"levelo_inurba_marseille","lat":43.25933,"lon":5.40911,"is_reserved":false,"is_disabled":false,"rental_uris":{"android":"levelo://app?vid=ef987b3a-f46d-411c-be8c-43479ac1e151","ios":"levelo://app?vid=ef987b3a-f46d-411c-be8c-43479ac1e151"},"vehicle_type_id":"4","last_reported":1740471159,"current_range_meters":9600,"station_id":"ce4bhm92rcd13ifvqglg","pricing_plan_id":"cebpf4jnsgd1na2vs0mg"},{"bike_id":"2d9f0777-5b96-4c1e-80c5-10449636aa92","system_id":"levelo_inurba_marseille","lat":43.32366,"lon":5.38886,"is_reserved":false,"is_disabled":false,"rental_uris":{"android":"levelo://app?vid=2d9f0777-5b96-4c1e-80c5-10449636aa92","ios":"levelo://app?vid=2d9f0777-5b96-4c1e-80c5-10449636aa92"},"vehicle_type_id":"4","last_reported":1740471159,"current_range_meters":9600,"station_id":"ce4bhqp2rcd13ifvqhog","pricing_plan_id":"cebpf4jnsgd1na2vs0mg"},{"bike_id":"fa607b43-2bfd-442a-86bc-08f40a695b42","system_id":"levelo_inurba_marseille","lat":43.23146,"lon":5.43735,"is_reserved":false,"is_disabled":false,"rental_uris":{"android":"levelo://app?vid=fa607b43-2bfd-442a-86bc-08f40a695b42","ios":"levelo://app?vid=fa607b43-2bfd-442a-86bc-08f40a695b42"},"vehicle_type_id":"4","last_reported":1740471159,"current_range_meters":9600,"station_id":"ce4bhmp2rcd13ifvqgog","pricing_plan_id":"cebpf4jnsgd1na2vs0mg"},{"bike_id":"e2b4ea08-0dae-49c6-afc0-0e036c5f8091","system_id":"levelo_inurba_marseille","lat":43.3134,"lon":5.367,"is_reserved":false,"is_disabled":false,"rental_uris":{"android":"levelo://app?vid=e2b4ea08-0dae-49c6-afc0-0e036c5f8091","ios":"levelo://app?vid=e2b4ea08-0dae-49c6-afc0-0e036c5f8091"},"vehicle_type_id":"4","last_reported":1740471159,"current_range_meters":10000,"station_id":"ce4bgr92rcd13ifvqc6g","pricing_plan_id":"cebpf4jnsgd1na2vs0mg"},{"bike_id":"9a87a1ca-c397-4cca-872f-898db0d07da2","system_id":"levelo_inurba_marseille","lat":43.31352,"lon":5.36704,"is_reserved":false,"is_disabled":false,"rental_uris":{"android":"levelo://app?vid=9a87a1ca-c397-4cca-872f-898db0d07da2","ios":"levelo://app?vid=9a87a1ca-c397-4cca-872f-898db0d07da2"},"vehicle_type_id":"4","last_reported":1740471159,"current_range_meters":10000,"station_id":"ce4bgr92rcd13ifvqc6g","pricing_plan_id":"cebpf4jnsgd1na2vs0mg"},{"bike_id":"20bed9e4-7fc1-41ee-978b-7492bbbd20d1","system_id":"levelo_inurba_marseille","lat":43.264905,"lon":5.39538,"is_reserved":false,"is_disabled":false,"rental_uris":{"android":"levelo://app?vid=20bed9e4-7fc1-41ee-978b-7492bbbd20d1","ios":"levelo://app?vid=20bed9e4-7fc1-41ee-978b-7492bbbd20d1"},"vehicle_type_id":"4","last_reported":1740471159,"current_range_meters":10800,"station_id":"ce4bhi12rcd13ifvqfq0","pricing_plan_id":"cebpf4jnsgd1na2vs0mg"},{"bike_id":"d316eb4a-d1d3-4a8c-8729-cc5f66832b53","system_id":"levelo_inurba_marseille","lat":43.29173,"lon":5.39333,"is_reserved":false,"is_disabled":true,"rental_uris":{"android":"levelo://app?vid=d316eb4a-d1d3-4a8c-8729-cc5f66832b53","ios":"levelo://app?vid=d316eb4a-d1d3-4a8c-8729-cc5f66832b53"},"vehicle_type_id":"4","last_reported":1740471159,"current_range_meters":12400,"station_id":"","pricing_plan_id":"cebpf4jnsgd1na2vs0mg"},{"bike_id":"62db0c3e-77fa-43b0-983d-169b64c3e343","system_id":"levelo_inurba_marseille","lat":43.27881,"lon":5.39565,"is_reserved":false,"is_disabled":false,"rental_uris":{"android":"levelo://app?vid=62db0c3e-77fa-43b0-983d-169b64c3e343","ios":"levelo://app?vid=62db0c3e-77fa-43b0-983d-169b64c3e343"},"vehicle_type_id":"4","last_reported":1740471159,"current_range_meters":10800,"station_id":"ce4bhf92rcd13ifvqf40","pricing_plan_id":"cebpf4jnsgd1na2vs0mg"},{"bike_id":"cdd24989-081e-4ace-a92c-ff5850d2f988","system_id":"levelo_inurba_marseille","lat":43.2749,"lon":5.42475,"is_reserved":false,"is_disabled":false,"rental_uris":{"android":"levelo://app?vid=cdd24989-081e-4ace-a92c-ff5850d2f988","ios":"levelo://app?vid=cdd24989-081e-4ace-a92c-ff5850d2f988"},"vehicle_type_id":"4","last_reported":1740471159,"current_range_meters":11200,"station_id":"ce4bhn92rcd13ifvqgrg","pricing_plan_id":"cebpf4jnsgd1na2vs0mg"},{"bike_id":"0967b844-3997-4e2a-9359-1a667f42739c","system_id":"levelo_inurba_marseille","lat":43.29193,"lon":5.39321,"is_reserved":false,"is_disabled":true,"rental_uris":{"android":"levelo://app?vid=0967b844-3997-4e2a-9359-1a667f42739c","ios":"levelo://app?vid=0967b844-3997-4e2a-9359-1a667f42739c"},"vehicle_type_id":"4","last_reported":1740471159,"current_range_meters":11200,"station_id":"ce4bh192rcd13ifvqdd0","pricing_plan_id":"cebpf4jnsgd1na2vs0mg"},{"bike_id":"8e5ae0b1-8e84-4ee8-a954-9733e390b352","system_id":"levelo_inurba_marseille","lat":43.31877,"lon":5.4075,"is_reserved":false,"is_disabled":false,"rental_uris":{"android":"levelo://app?vid=8e5ae0b1-8e84-4ee8-a954-9733e390b352","ios":"levelo://app?vid=8e5ae0b1-8e84-4ee8-a954-9733e390b352"},"vehicle_type_id":"4","last_reported":1740471159,"current_range_meters":11600,"station_id":"ce4bhq12rcd13ifvqhig","pricing_plan_id":"cebpf4jnsgd1na2vs0mg"},{"bike_id":"96f05573-e5c0-455b-9671-9b1d8a09b29f","system_id":"levelo_inurba_marseille","lat":43.25939,"lon":5.40908,"is_reserved":false,"is_disabled":false,"rental_uris":{"android":"levelo://app?vid=96f05573-e5c0-455b-9671-9b1d8a09b29f","ios":"levelo://app?vid=96f05573-e5c0-455b-9671-9b1d8a09b29f"},"vehicle_type_id":"4","last_reported":1740471159,"current_range_meters":11600,"station_id":"ce4bhm92rcd13ifvqglg","pricing_plan_id":"cebpf4jnsgd1na2vs0mg"},{"bike_id":"e5c275a2-a964-47d8-9489-ed1126cf4cef","system_id":"levelo_inurba_marseille","lat":43.29634,"lon":5.37933,"is_reserved":false,"is_disabled":false,"rental_uris":{"android":"levelo://app?vid=e5c275a2-a964-47d8-9489-ed1126cf4cef","ios":"levelo://app?vid=e5c275a2-a964-47d8-9489-ed1126cf4cef"},"vehicle_type_id":"4","last_reported":1740471159,"current_range_meters":11600,"station_id":"","pricing_plan_id":"cebpf4jnsgd1na2vs0mg"},{"bike_id":"32539051-701a-43d4-870d-0627192d3ef3","system_id":"levelo_inurba_marseille","lat":43.25019,"lon":5.38943,"is_reserved":false,"is_disabled":false,"rental_uris":{"android":"levelo://app?vid=32539051-701a-43d4-870d-0627192d3ef3","ios":"levelo://app?vid=32539051-701a-43d4-870d-0627192d3ef3"},"vehicle_type_id":"4","last_reported":1740471159,"current_range_meters":11600,"station_id":"ce4bhgp2rcd13ifvqfd0","pricing_plan_id":"cebpf4jnsgd1na2vs0mg"},{"bike_id":"b76a6269-28a7-4472-9782-d19b4d227f3b","system_id":"levelo_inurba_marseille","lat":43.27944,"lon":5.41039,"is_reserved":false,"is_disabled":false,"rental_uris":{"android":"levelo://app?vid=b76a6269-28a7-4472-9782-d19b4d227f3b","ios":"levelo://app?vid=b76a6269-28a7-4472-9782-d19b4d227f3b"},"vehicle_type_id":"4","last_reported":1740471159,"current_range_meters":12000,"station_id":"ce4bhnp2rcd13ifvqh0g","pricing_plan_id":"cebpf4jnsgd1na2vs0mg"},{"bike_id":"84018f7a-e77d-4c1e-b9d0-a5dcf8e2e91c","system_id":"levelo_inurba_marseille","lat":43.30458,"lon":5.37914,"is_reserved":false,"is_disabled":false,"rental_uris":{"android":"levelo://app?vid=84018f7a-e77d-4c1e-b9d0-a5dcf8e2e91c","ios":"levelo://app?vid=84018f7a-e77d-4c1e-b9d0-a5dcf8e2e91c"},"vehicle_type_id":"4","last_reported":1740471159,"current_range_meters":16800,"station_id":"ce4bgup2rcd13ifvqcn0","pricing_plan_id":"cebpf4jnsgd1na2vs0mg"},{"bike_id":"03c502df-c0d3-4ad7-b038-d3923b426e2e","system_id":"levelo_inurba_marseille","lat":43.29421,"lon":5.38633,"is_reserved":false,"is_disabled":true,"rental_uris":{"android":"levelo://app?vid=03c502df-c0d3-4ad7-b038-d3923b426e2e","ios":"levelo://app?vid=03c502df-c0d3-4ad7-b038-d3923b426e2e"},"vehicle_type_id":"4","last_reported":1740471159,"current_range_meters":12400,"station_id":"ce4bh2h2rcd13ifvqdh0","pricing_plan_id":"cebpf4jnsgd1na2vs0mg"},{"bike_id":"3f50d38c-6776-4741-bd30-5c55fd389b1b","system_id":"levelo_inurba_marseille","lat":43.24076,"lon":5.37758,"is_reserved":false,"is_disabled":false,"rental_uris":{"android":"levelo://app?vid=3f50d38c-6776-4741-bd30-5c55fd389b1b","ios":"levelo://app?vid=3f50d38c-6776-4741-bd30-5c55fd389b1b"},"vehicle_type_id":"4","last_reported":1740471159,"current_range_meters":12400,"station_id":"ce4bhnp2rcd13ifvqgvg","pricing_plan_id":"cebpf4jnsgd1na2vs0mg"},{"bike_id":"d023689c-e693-453b-9563-c3ec9c997e61","system_id":"levelo_inurba_marseille","lat":43.29039,"lon":5.37631,"is_reserved":false,"is_disabled":false,"rental_uris":{"android":"levelo://app?vid=d023689c-e693-453b-9563-c3ec9c997e61","ios":"levelo://app?vid=d023689c-e693-453b-9563-c3ec9c997e61"},"vehicle_type_id":"4","last_reported":1740471159,"current_range_meters":14000,"station_id":"ce4bhah2rcd13ifvqei0","pricing_plan_id":"cebpf4jnsgd1na2vs0mg"},{"bike_id":"05f51bd6-bf8c-4b6c-ba2f-d7bf7cec3006","system_id":"levelo_inurba_marseille","lat":43.23192,"lon":5.35577,"is_reserved":false,"is_disabled":false,"rental_uris":{"android":"levelo://app?vid=05f51bd6-bf8c-4b6c-ba2f-d7bf7cec3006","ios":"levelo://app?vid=05f51bd6-bf8c-4b6c-ba2f-d7bf7cec3006"},"vehicle_type_id":"4","last_reported":1740471159,"current_range_meters":12800,"station_id":"ce4bhu92rcd13ifvqi70","pricing_plan_id":"cebpf4jnsgd1na2vs0mg"},{"bike_id":"fbde2581-a1db-4259-a885-ddb215e67083","system_id":"levelo_inurba_marseille","lat":43.27486,"lon":5.42465,"is_reserved":false,"is_disabled":false,"rental_uris":{"android":"levelo://app?vid=fbde2581-a1db-4259-a885-ddb215e67083","ios":"levelo://app?vid=fbde2581-a1db-4259-a885-ddb215e67083"},"vehicle_type_id":"4","last_reported":1740471159,"current_range_meters":12800,"station_id":"ce4bhn92rcd13ifvqgrg","pricing_plan_id":"cebpf4jnsgd1na2vs0mg"},{"bike_id":"3d17fa74-4265-42a0-947c-8434cb5dbba2","system_id":"levelo_inurba_marseille","lat":43.31333,"lon":5.36725,"is_reserved":false,"is_disabled":false,"rental_uris":{"android":"levelo://app?vid=3d17fa74-4265-42a0-947c-8434cb5dbba2","ios":"levelo://app?vid=3d17fa74-4265-42a0-947c-8434cb5dbba2"},"vehicle_type_id":"4","last_reported":1740471159,"current_range_meters":12800,"station_id":"ce4bgr92rcd13ifvqc6g","pricing_plan_id":"cebpf4jnsgd1na2vs0mg"},{"bike_id":"a60165fc-213a-4e16-9b6c-b1d6f1924dff","system_id":"levelo_inurba_marseille","lat":43.27502,"lon":5.42458,"is_reserved":false,"is_disabled":false,"rental_uris":{"android":"levelo://app?vid=a60165fc-213a-4e16-9b6c-b1d6f1924dff","ios":"levelo://app?vid=a60165fc-213a-4e16-9b6c-b1d6f1924dff"},"vehicle_type_id":"4","last_reported":1740471159,"current_range_meters":16800,"station_id":"ce4bhn92rcd13ifvqgrg","pricing_plan_id":"cebpf4jnsgd1na2vs0mg"},{"bike_id":"92ed7cef-280a-478a-a395-78128812bf52","system_id":"levelo_inurba_marseille","lat":43.28483,"lon":5.38458,"is_reserved":false,"is_disabled":true,"rental_uris":{"android":"levelo://app?vid=92ed7cef-280a-478a-a395-78128812bf52","ios":"levelo://app?vid=92ed7cef-280a-478a-a395-78128812bf52"},"vehicle_type_id":"4","last_reported":1740471159,"current_range_meters":13600,"station_id":"ce4bh512rcd13ifvqe3g","pricing_plan_id":"cebpf4jnsgd1na2vs0mg"},{"bike_id":"c5e1f455-47dd-4e17-9e7b-db61e577214b","system_id":"levelo_inurba_marseille","lat":43.27477,"lon":5.42468,"is_reserved":false,"is_disabled":false,"rental_uris":{"android":"levelo://app?vid=c5e1f455-47dd-4e17-9e7b-db61e577214b","ios":"levelo://app?vid=c5e1f455-47dd-4e17-9e7b-db61e577214b"},"vehicle_type_id":"4","last_reported":1740471159,"current_range_meters":14000,"station_id":"ce4bhn92rcd13ifvqgrg","pricing_plan_id":"cebpf4jnsgd1na2vs0mg"},{"bike_id":"b3270428-2339-45d5-90bf-b4dd39eeae57","system_id":"levelo_inurba_marseille","lat":43.30907,"lon":5.36852,"is_reserved":false,"is_disabled":false,"rental_uris":{"android":"levelo://app?vid=b3270428-2339-45d5-90bf-b4dd39eeae57","ios":"levelo://app?vid=b3270428-2339-45d5-90bf-b4dd39eeae57"},"vehicle_type_id":"4","last_reported":1740471159,"current_range_meters":13600,"station_id":"ce4bgn92rcd13ifvqbvg","pricing_plan_id":"cebpf4jnsgd1na2vs0mg"},{"bike_id":"1c2f3bdc-68fa-40a8-b99e-fcf41f32f9e4","system_id":"levelo_inurba_marseille","lat":43.2919,"lon":5.40505,"is_reserved":false,"is_disabled":false,"rental_uris":{"android":"levelo://app?vid=1c2f3bdc-68fa-40a8-b99e-fcf41f32f9e4","ios":"levelo://app?vid=1c2f3bdc-68fa-40a8-b99e-fcf41f32f9e4"},"vehicle_type_id":"4","last_reported":1740471159,"current_range_meters":14000,"station_id":"","pricing_plan_id":"cebpf4jnsgd1na2vs0mg"},{"bike_id":"be334a33-fe06-4019-adb5-309e4c5afaa4","system_id":"levelo_inurba_marseille","lat":43.31326,"lon":5.36738,"is_reserved":false,"is_disabled":false,"rental_uris":{"android":"levelo://app?vid=be334a33-fe06-4019-adb5-309e4c5afaa4","ios":"levelo://app?vid=be334a33-fe06-4019-adb5-309e4c5afaa4"},"vehicle_type_id":"4","last_reported":1740471159,"current_range_meters":18800,"station_id":"ce4bgr92rcd13ifvqc6g","pricing_plan_id":"cebpf4jnsgd1na2vs0mg"},{"bike_id":"6bb7a600-4627-48d6-a6ba-24a72f10b0e3","system_id":"levelo_inurba_marseille","lat":43.23204,"lon":5.43735,"is_reserved":false,"is_disabled":false,"rental_uris":{"android":"levelo://app?vid=6bb7a600-4627-48d6-a6ba-24a72f10b0e3","ios":"levelo://app?vid=6bb7a600-4627-48d6-a6ba-24a72f10b0e3"},"vehicle_type_id":"4","last_reported":1740471159,"current_range_meters":14000,"station_id":"ce4bhmp2rcd13ifvqgog","pricing_plan_id":"cebpf4jnsgd1na2vs0mg"},{"bike_id":"65c14da8-5902-45f7-b88e-fb5f96fcc6f0","system_id":"levelo_inurba_marseille","lat":43.32111,"lon":5.36774,"is_reserved":false,"is_disabled":false,"rental_uris":{"android":"levelo://app?vid=65c14da8-5902-45f7-b88e-fb5f96fcc6f0","ios":"levelo://app?vid=65c14da8-5902-45f7-b88e-fb5f96fcc6f0"},"vehicle_type_id":"4","last_reported":1740471159,"current_range_meters":14000,"station_id":"ce4bhrh2rcd13ifvqhug","pricing_plan_id":"cebpf4jnsgd1na2vs0mg"},{"bike_id":"f834722a-aaff-4f96-a1ce-35f0af75609f","system_id":"levelo_inurba_marseille","lat":43.302704,"lon":5.392661,"is_reserved":false,"is_disabled":false,"rental_uris":{"android":"levelo://app?vid=f834722a-aaff-4f96-a1ce-35f0af75609f","ios":"levelo://app?vid=f834722a-aaff-4f96-a1ce-35f0af75609f"},"vehicle_type_id":"4","last_reported":1740471159,"current_range_meters":16400,"station_id":"ce4bh192rcd13ifvqdd0","pricing_plan_id":"cebpf4jnsgd1na2vs0mg"},{"bike_id":"1920f62b-bdce-417f-9f57-7997bf23af91","system_id":"levelo_inurba_marseille","lat":43.27987,"lon":5.4167,"is_reserved":false,"is_disabled":false,"rental_uris":{"android":"levelo://app?vid=1920f62b-bdce-417f-9f57-7997bf23af91","ios":"levelo://app?vid=1920f62b-bdce-417f-9f57-7997bf23af91"},"vehicle_type_id":"4","last_reported":1740471159,"current_range_meters":19200,"station_id":"ce4bho12rcd13ifvqh1g","pricing_plan_id":"cebpf4jnsgd1na2vs0mg"},{"bike_id":"9062f7b6-9c81-49b8-a1bd-5df58202afcd","system_id":"levelo_inurba_marseille","lat":43.31669,"lon":5.43691,"is_reserved":false,"is_disabled":false,"rental_uris":{"android":"levelo://app?vid=9062f7b6-9c81-49b8-a1bd-5df58202afcd","ios":"levelo://app?vid=9062f7b6-9c81-49b8-a1bd-5df58202afcd"},"vehicle_type_id":"4","last_reported":1740471159,"current_range_meters":14400,"station_id":"ce4bhp92rcd13ifvqhcg","pricing_plan_id":"cebpf4jnsgd1na2vs0mg"},{"bike_id":"fb352528-6dce-483c-a4f0-c367df3759b9","system_id":"levelo_inurba_marseille","lat":43.29039,"lon":5.37554,"is_reserved":false,"is_disabled":true,"rental_uris":{"android":"levelo://app?vid=fb352528-6dce-483c-a4f0-c367df3759b9","ios":"levelo://app?vid=fb352528-6dce-483c-a4f0-c367df3759b9"},"vehicle_type_id":"4","last_reported":1740471159,"current_range_meters":14800,"station_id":"ce4bh692rcd13ifvqe90","pricing_plan_id":"cebpf4jnsgd1na2vs0mg"},{"bike_id":"8514fc45-931a-4d33-8ebd-119ca23a33dc","system_id":"levelo_inurba_marseille","lat":43.27816,"lon":5.40723,"is_reserved":false,"is_disabled":false,"rental_uris":{"android":"levelo://app?vid=8514fc45-931a-4d33-8ebd-119ca23a33dc","ios":"levelo://app?vid=8514fc45-931a-4d33-8ebd-119ca23a33dc"},"vehicle_type_id":"4","last_reported":1740471159,"current_range_meters":14800,"station_id":"","pricing_plan_id":"cebpf4jnsgd1na2vs0mg"},{"bike_id":"7c45866a-bd99-4c12-9747-66203f12a96e","system_id":"levelo_inurba_marseille","lat":43.23153,"lon":5.35514,"is_reserved":false,"is_disabled":false,"rental_uris":{"android":"levelo://app?vid=7c45866a-bd99-4c12-9747-66203f12a96e","ios":"levelo://app?vid=7c45866a-bd99-4c12-9747-66203f12a96e"},"vehicle_type_id":"4","last_reported":1740471159,"current_range_meters":14800,"station_id":"","pricing_plan_id":"cebpf4jnsgd1na2vs0mg"},{"bike_id":"aff7a8a1-5476-44b3-8b23-aa5705650095","system_id":"levelo_inurba_marseille","lat":43.29528,"lon":5.39415,"is_reserved":false,"is_disabled":true,"rental_uris":{"android":"levelo://app?vid=aff7a8a1-5476-44b3-8b23-aa5705650095","ios":"levelo://app?vid=aff7a8a1-5476-44b3-8b23-aa5705650095"},"vehicle_type_id":"4","last_reported":1740471159,"current_range_meters":15200,"station_id":"ce4bh292rcd13ifvqdf0","pricing_plan_id":"cebpf4jnsgd1na2vs0mg"},{"bike_id":"63d2dc5a-e03c-4909-9269-36c39633100a","system_id":"levelo_inurba_marseille","lat":43.28421,"lon":5.34993,"is_reserved":false,"is_disabled":true,"rental_uris":{"android":"levelo://app?vid=63d2dc5a-e03c-4909-9269-36c39633100a","ios":"levelo://app?vid=63d2dc5a-e03c-4909-9269-36c39633100a"},"vehicle_type_id":"4","last_reported":1740471159,"current_range_meters":15200,"station_id":"ce4bhbh2rcd13ifvqepg","pricing_plan_id":"cebpf4jnsgd1na2vs0mg"},{"bike_id":"46455735-1dab-4610-8eb6-3c16d93ce19b","system_id":"levelo_inurba_marseille","lat":43.27941,"lon":5.41036,"is_reserved":false,"is_disabled":false,"rental_uris":{"android":"levelo://app?vid=46455735-1dab-4610-8eb6-3c16d93ce19b","ios":"levelo://app?vid=46455735-1dab-4610-8eb6-3c16d93ce19b"},"vehicle_type_id":"4","last_reported":1740471159,"current_range_meters":15200,"station_id":"ce4bhnp2rcd13ifvqh0g","pricing_plan_id":"cebpf4jnsgd1na2vs0mg"},{"bike_id":"3ca12e5b-bc10-471e-b621-aa59335cc3bb","system_id":"levelo_inurba_marseille","lat":43.29518,"lon":5.40782,"is_reserved":false,"is_disabled":false,"rental_uris":{"android":"levelo://app?vid=3ca12e5b-bc10-471e-b621-aa59335cc3bb","ios":"levelo://app?vid=3ca12e5b-bc10-471e-b621-aa59335cc3bb"},"vehicle_type_id":"4","last_reported":1740471159,"current_range_meters":15200,"station_id":"","pricing_plan_id":"cebpf4jnsgd1na2vs0mg"},{"bike_id":"d9cd0b24-d8d3-4c55-90c0-4ef5893eee0c","system_id":"levelo_inurba_marseille","lat":43.25014,"lon":5.38954,"is_reserved":false,"is_disabled":false,"rental_uris":{"android":"levelo://app?vid=d9cd0b24-d8d3-4c55-90c0-4ef5893eee0c","ios":"levelo://app?vid=d9cd0b24-d8d3-4c55-90c0-4ef5893eee0c"},"vehicle_type_id":"4","last_reported":1740471159,"current_range_meters":15200,"station_id":"ce4bhgp2rcd13ifvqfd0","pricing_plan_id":"cebpf4jnsgd1na2vs0mg"},{"bike_id":"6f9eb619-ce1a-440a-9085-673242f78425","system_id":"levelo_inurba_marseille","lat":43.29496,"lon":5.37529,"is_reserved":false,"is_disabled":true,"rental_uris":{"android":"levelo://app?vid=6f9eb619-ce1a-440a-9085-673242f78425","ios":"levelo://app?vid=6f9eb619-ce1a-440a-9085-673242f78425"},"vehicle_type_id":"4","last_reported":1740471159,"current_range_meters":16000,"station_id":"","pricing_plan_id":"cebpf4jnsgd1na2vs0mg"},{"bike_id":"fd0761a2-be25-4e28-a89f-bda3cde9d408","system_id":"levelo_inurba_marseille","lat":43.27068,"lon":5.4228,"is_reserved":false,"is_disabled":true,"rental_uris":{"android":"levelo://app?vid=fd0761a2-be25-4e28-a89f-bda3cde9d408","ios":"levelo://app?vid=fd0761a2-be25-4e28-a89f-bda3cde9d408"},"vehicle_type_id":"4","last_reported":1740471159,"current_range_meters":20000,"station_id":"ce4bhk92rcd13ifvqgb0","pricing_plan_id":"cebpf4jnsgd1na2vs0mg"},{"bike_id":"99a6215f-6506-4f6e-9c5e-ddad7f4be2a5","system_id":"levelo_inurba_marseille","lat":43.29929,"lon":5.43748,"is_reserved":false,"is_disabled":false,"rental_uris":{"android":"levelo://app?vid=99a6215f-6506-4f6e-9c5e-ddad7f4be2a5","ios":"levelo://app?vid=99a6215f-6506-4f6e-9c5e-ddad7f4be2a5"},"vehicle_type_id":"4","last_reported":1740471159,"current_range_meters":16000,"station_id":"","pricing_plan_id":"cebpf4jnsgd1na2vs0mg"},{"bike_id":"b6658582-3b6e-414c-aa64-c7b9862f6bb4","system_id":"levelo_inurba_marseille","lat":43.31078,"lon":5.42447,"is_reserved":false,"is_disabled":false,"rental_uris":{"android":"levelo://app?vid=b6658582-3b6e-414c-aa64-c7b9862f6bb4","ios":"levelo://app?vid=b6658582-3b6e-414c-aa64-c7b9862f6bb4"},"vehicle_type_id":"4","last_reported":1740471159,"current_range_meters":16000,"station_id":"ce4bhp92rcd13ifvqhag","pricing_plan_id":"cebpf4jnsgd1na2vs0mg"},{"bike_id":"543d8c7a-fbc4-4859-9dfc-6bd0bf2b6ab8","system_id":"levelo_inurba_marseille","lat":43.31343,"lon":5.36703,"is_reserved":false,"is_disabled":false,"rental_uris":{"android":"levelo://app?vid=543d8c7a-fbc4-4859-9dfc-6bd0bf2b6ab8","ios":"levelo://app?vid=543d8c7a-fbc4-4859-9dfc-6bd0bf2b6ab8"},"vehicle_type_id":"4","last_reported":1740471159,"current_range_meters":16400,"station_id":"","pricing_plan_id":"cebpf4jnsgd1na2vs0mg"},{"bike_id":"895ebf0e-abd4-46d2-b5db-3b3d7b5b9232","system_id":"levelo_inurba_marseille","lat":43.30212,"lon":5.39464,"is_reserved":false,"is_disabled":true,"rental_uris":{"android":"levelo://app?vid=895ebf0e-abd4-46d2-b5db-3b3d7b5b9232","ios":"levelo://app?vid=895ebf0e-abd4-46d2-b5db-3b3d7b5b9232"},"vehicle_type_id":"4","last_reported":1740471159,"current_range_meters":16400,"station_id":"ce4bh0p2rcd13ifvqd70","pricing_plan_id":"cebpf4jnsgd1na2vs0mg"},{"bike_id":"67d94ead-21a9-443c-863c-85f04537e7f0","system_id":"levelo_inurba_marseille","lat":43.29433,"lon":5.39743,"is_reserved":false,"is_disabled":false,"rental_uris":{"android":"levelo://app?vid=67d94ead-21a9-443c-863c-85f04537e7f0","ios":"levelo://app?vid=67d94ead-21a9-443c-863c-85f04537e7f0"},"vehicle_type_id":"4","last_reported":1740471159,"current_range_meters":16400,"station_id":"ce4bh3h2rcd13ifvqdo0","pricing_plan_id":"cebpf4jnsgd1na2vs0mg"},{"bike_id":"6f97cdf1-f223-487f-9fc2-e9fadec05187","system_id":"levelo_inurba_marseille","lat":43.302868,"lon":5.377001,"is_reserved":false,"is_disabled":false,"rental_uris":{"android":"levelo://app?vid=6f97cdf1-f223-487f-9fc2-e9fadec05187","ios":"levelo://app?vid=6f97cdf1-f223-487f-9fc2-e9fadec05187"},"vehicle_type_id":"4","last_reported":1740471159,"current_range_meters":16400,"station_id":"ce4bguh2rcd13ifvqcj0","pricing_plan_id":"cebpf4jnsgd1na2vs0mg"},{"bike_id":"a0ef3366-6f01-4273-864d-81f214e98d30","system_id":"levelo_inurba_marseille","lat":43.32535,"lon":5.41422,"is_reserved":false,"is_disabled":false,"rental_uris":{"android":"levelo://app?vid=a0ef3366-6f01-4273-864d-81f214e98d30","ios":"levelo://app?vid=a0ef3366-6f01-4273-864d-81f214e98d30"},"vehicle_type_id":"4","last_reported":1740471159,"current_range_meters":16400,"station_id":"ce4bhq12rcd13ifvqhhg","pricing_plan_id":"cebpf4jnsgd1na2vs0mg"},{"bike_id":"50aa33df-92e4-49f4-b04e-a8aed5e09bca","system_id":"levelo_inurba_marseille","lat":43.30546,"lon":5.36555,"is_reserved":false,"is_disabled":false,"rental_uris":{"android":"levelo://app?vid=50aa33df-92e4-49f4-b04e-a8aed5e09bca","ios":"levelo://app?vid=50aa33df-92e4-49f4-b04e-a8aed5e09bca"},"vehicle_type_id":"4","last_reported":1740471159,"current_range_meters":16800,"station_id":"ce4bgs12rcd13ifvqcag","pricing_plan_id":"cebpf4jnsgd1na2vs0mg"},{"bike_id":"d0b7eefb-3e00-4080-859f-c37befb8e6df","system_id":"levelo_inurba_marseille","lat":43.283473,"lon":5.381114,"is_reserved":false,"is_disabled":true,"rental_uris":{"android":"levelo://app?vid=d0b7eefb-3e00-4080-859f-c37befb8e6df","ios":"levelo://app?vid=d0b7eefb-3e00-4080-859f-c37befb8e6df"},"vehicle_type_id":"4","last_reported":1740471159,"current_range_meters":16800,"station_id":"ce4bh412rcd13ifvqdr0","pricing_plan_id":"cebpf4jnsgd1na2vs0mg"},{"bike_id":"a0363308-ea01-46a2-862c-67dad5913464","system_id":"levelo_inurba_marseille","lat":43.30452,"lon":5.37915,"is_reserved":false,"is_disabled":false,"rental_uris":{"android":"levelo://app?vid=a0363308-ea01-46a2-862c-67dad5913464","ios":"levelo://app?vid=a0363308-ea01-46a2-862c-67dad5913464"},"vehicle_type_id":"4","last_reported":1740471159,"current_range_meters":16800,"station_id":"ce4bgup2rcd13ifvqcn0","pricing_plan_id":"cebpf4jnsgd1na2vs0mg"},{"bike_id":"45ae883b-0aff-454b-a2be-e94342b6f471","system_id":"levelo_inurba_marseille","lat":43.28341,"lon":5.3811,"is_reserved":false,"is_disabled":false,"rental_uris":{"android":"levelo://app?vid=45ae883b-0aff-454b-a2be-e94342b6f471","ios":"levelo://app?vid=45ae883b-0aff-454b-a2be-e94342b6f471"},"vehicle_type_id":"4","last_reported":1740471159,"current_range_meters":16800,"station_id":"ce4bh412rcd13ifvqdr0","pricing_plan_id":"cebpf4jnsgd1na2vs0mg"},{"bike_id":"4aa21fac-f979-4d2d-9865-89c0c584cb10","system_id":"levelo_inurba_marseille","lat":43.31708,"lon":5.3779,"is_reserved":false,"is_disabled":false,"rental_uris":{"android":"levelo://app?vid=4aa21fac-f979-4d2d-9865-89c0c584cb10","ios":"levelo://app?vid=4aa21fac-f979-4d2d-9865-89c0c584cb10"},"vehicle_type_id":"4","last_reported":1740471159,"current_range_meters":16800,"station_id":"ce4bgth2rcd13ifvqch0","pricing_plan_id":"cebpf4jnsgd1na2vs0mg"},{"bike_id":"7b3f257d-d464-49e6-97e3-bfdf7fc60601","system_id":"levelo_inurba_marseille","lat":43.29,"lon":5.35615,"is_reserved":false,"is_disabled":false,"rental_uris":{"android":"levelo://app?vid=7b3f257d-d464-49e6-97e3-bfdf7fc60601","ios":"levelo://app?vid=7b3f257d-d464-49e6-97e3-bfdf7fc60601"},"vehicle_type_id":"4","last_reported":1740471159,"current_range_meters":17200,"station_id":"ce4bhb92rcd13ifvqen0","pricing_plan_id":"cebpf4jnsgd1na2vs0mg"},{"bike_id":"a328f23c-3df3-4c58-b1b3-d993b29e5f42","system_id":"levelo_inurba_marseille","lat":43.24078,"lon":5.37755,"is_reserved":false,"is_disabled":false,"rental_uris":{"android":"levelo://app?vid=a328f23c-3df3-4c58-b1b3-d993b29e5f42","ios":"levelo://app?vid=a328f23c-3df3-4c58-b1b3-d993b29e5f42"},"vehicle_type_id":"4","last_reported":1740471159,"current_range_meters":17200,"station_id":"ce4bhnp2rcd13ifvqgvg","pricing_plan_id":"cebpf4jnsgd1na2vs0mg"},{"bike_id":"6e81c8e6-11df-443f-ad8d-9c418aabd54e","system_id":"levelo_inurba_marseille","lat":43.25932,"lon":5.4091,"is_reserved":false,"is_disabled":false,"rental_uris":{"android":"levelo://app?vid=6e81c8e6-11df-443f-ad8d-9c418aabd54e","ios":"levelo://app?vid=6e81c8e6-11df-443f-ad8d-9c418aabd54e"},"vehicle_type_id":"4","last_reported":1740471159,"current_range_meters":17200,"station_id":"ce4bhm92rcd13ifvqglg","pricing_plan_id":"cebpf4jnsgd1na2vs0mg"},{"bike_id":"d1c6219d-01cb-4f09-bf56-1655ff401130","system_id":"levelo_inurba_marseille","lat":43.29692,"lon":5.36628,"is_reserved":false,"is_disabled":false,"rental_uris":{"android":"levelo://app?vid=d1c6219d-01cb-4f09-bf56-1655ff401130","ios":"levelo://app?vid=d1c6219d-01cb-4f09-bf56-1655ff401130"},"vehicle_type_id":"4","last_reported":1740471159,"current_range_meters":17200,"station_id":"ce4bgn12rcd13ifvqbt0","pricing_plan_id":"cebpf4jnsgd1na2vs0mg"},{"bike_id":"69482540-30fb-4cb1-bb0f-b0892538b51a","system_id":"levelo_inurba_marseille","lat":43.287239,"lon":5.360948,"is_reserved":false,"is_disabled":false,"rental_uris":{"android":"levelo://app?vid=69482540-30fb-4cb1-bb0f-b0892538b51a","ios":"levelo://app?vid=69482540-30fb-4cb1-bb0f-b0892538b51a"},"vehicle_type_id":"4","last_reported":1740471159,"current_range_meters":17600,"station_id":"cki0cbj6b192h4jlfktg","pricing_plan_id":"cebpf4jnsgd1na2vs0mg"},{"bike_id":"c3d0fefa-5db4-49bd-a964-1a22da440d36","system_id":"levelo_inurba_marseille","lat":43.269559,"lon":5.386313,"is_reserved":false,"is_disabled":true,"rental_uris":{"android":"levelo://app?vid=c3d0fefa-5db4-49bd-a964-1a22da440d36","ios":"levelo://app?vid=c3d0fefa-5db4-49bd-a964-1a22da440d36"},"vehicle_type_id":"4","last_reported":1740471159,"current_range_meters":17600,"station_id":"","pricing_plan_id":"cebpf4jnsgd1na2vs0mg"},{"bike_id":"c454f58f-407b-49ca-9484-40f5618a55c5","system_id":"levelo_inurba_marseille","lat":43.26681,"lon":5.38277,"is_reserved":false,"is_disabled":false,"rental_uris":{"android":"levelo://app?vid=c454f58f-407b-49ca-9484-40f5618a55c5","ios":"levelo://app?vid=c454f58f-407b-49ca-9484-40f5618a55c5"},"vehicle_type_id":"4","last_reported":1740471159,"current_range_meters":20000,"station_id":"ce4bhg92rcd13ifvqf90","pricing_plan_id":"cebpf4jnsgd1na2vs0mg"},{"bike_id":"3dfb3f3a-36a0-4f39-bd8d-6763f1b82ef1","system_id":"levelo_inurba_marseille","lat":43.292084,"lon":5.393242,"is_reserved":false,"is_disabled":false,"rental_uris":{"android":"levelo://app?vid=3dfb3f3a-36a0-4f39-bd8d-6763f1b82ef1","ios":"levelo://app?vid=3dfb3f3a-36a0-4f39-bd8d-6763f1b82ef1"},"vehicle_type_id":"4","last_reported":1740471159,"current_range_meters":18800,"station_id":"","pricing_plan_id":"cebpf4jnsgd1na2vs0mg"},{"bike_id":"d3103336-2d71-4742-bf9a-d557baf6d26c","system_id":"levelo_inurba_marseille","lat":43.27494,"lon":5.42476,"is_reserved":false,"is_disabled":false,"rental_uris":{"android":"levelo://app?vid=d3103336-2d71-4742-bf9a-d557baf6d26c","ios":"levelo://app?vid=d3103336-2d71-4742-bf9a-d557baf6d26c"},"vehicle_type_id":"4","last_reported":1740471159,"current_range_meters":18800,"station_id":"ce4bhn92rcd13ifvqgrg","pricing_plan_id":"cebpf4jnsgd1na2vs0mg"},{"bike_id":"64651f69-916f-4017-b572-6e868476a483","system_id":"levelo_inurba_marseille","lat":43.24069,"lon":5.37769,"is_reserved":false,"is_disabled":false,"rental_uris":{"android":"levelo://app?vid=64651f69-916f-4017-b572-6e868476a483","ios":"levelo://app?vid=64651f69-916f-4017-b572-6e868476a483"},"vehicle_type_id":"4","last_reported":1740471159,"current_range_meters":18800,"station_id":"ce4bhnp2rcd13ifvqgvg","pricing_plan_id":"cebpf4jnsgd1na2vs0mg"},{"bike_id":"b2a8266f-f88e-4359-ba00-c172f2fb679f","system_id":"levelo_inurba_marseille","lat":43.30454,"lon":5.37941,"is_reserved":false,"is_disabled":false,"rental_uris":{"android":"levelo://app?vid=b2a8266f-f88e-4359-ba00-c172f2fb679f","ios":"levelo://app?vid=b2a8266f-f88e-4359-ba00-c172f2fb679f"},"vehicle_type_id":"4","last_reported":1740471159,"current_range_meters":18800,"station_id":"ce4bgup2rcd13ifvqcn0","pricing_plan_id":"cebpf4jnsgd1na2vs0mg"},{"bike_id":"86befc45-de19-437b-9867-84c5cc7cca12","system_id":"levelo_inurba_marseille","lat":43.30453,"lon":5.37926,"is_reserved":false,"is_disabled":false,"rental_uris":{"android":"levelo://app?vid=86befc45-de19-437b-9867-84c5cc7cca12","ios":"levelo://app?vid=86befc45-de19-437b-9867-84c5cc7cca12"},"vehicle_type_id":"4","last_reported":1740471159,"current_range_meters":18800,"station_id":"ce4bgup2rcd13ifvqcn0","pricing_plan_id":"cebpf4jnsgd1na2vs0mg"},{"bike_id":"3ec574c8-ac7d-4d13-b8b1-33d411d4b6ba","system_id":"levelo_inurba_marseille","lat":43.27076,"lon":5.40252,"is_reserved":false,"is_disabled":false,"rental_uris":{"android":"levelo://app?vid=3ec574c8-ac7d-4d13-b8b1-33d411d4b6ba","ios":"levelo://app?vid=3ec574c8-ac7d-4d13-b8b1-33d411d4b6ba"},"vehicle_type_id":"4","last_reported":1740471159,"current_range_meters":18800,"station_id":"ce4bhk92rcd13ifvqgc0","pricing_plan_id":"cebpf4jnsgd1na2vs0mg"},{"bike_id":"44fed316-9e46-4865-b093-d76d2e74a729","system_id":"levelo_inurba_marseille","lat":43.2816,"lon":5.42642,"is_reserved":false,"is_disabled":false,"rental_uris":{"android":"levelo://app?vid=44fed316-9e46-4865-b093-d76d2e74a729","ios":"levelo://app?vid=44fed316-9e46-4865-b093-d76d2e74a729"},"vehicle_type_id":"4","last_reported":1740471159,"current_range_meters":19200,"station_id":"ce4bhnh2rcd13ifvqgug","pricing_plan_id":"cebpf4jnsgd1na2vs0mg"},{"bike_id":"9bcb6e74-9384-4520-a191-6ca3da24e600","system_id":"levelo_inurba_marseille","lat":43.2416,"lon":5.36399,"is_reserved":false,"is_disabled":false,"rental_uris":{"android":"levelo://app?vid=9bcb6e74-9384-4520-a191-6ca3da24e600","ios":"levelo://app?vid=9bcb6e74-9384-4520-a191-6ca3da24e600"},"vehicle_type_id":"4","last_reported":1740471159,"current_range_meters":19200,"station_id":"cpo36qri1sfpv3e86is0","pricing_plan_id":"cebpf4jnsgd1na2vs0mg"},{"bike_id":"451ee27c-3053-4dad-97f9-30aa721d9def","system_id":"levelo_inurba_marseille","lat":43.27989,"lon":5.40025,"is_reserved":false,"is_disabled":false,"rental_uris":{"android":"levelo://app?vid=451ee27c-3053-4dad-97f9-30aa721d9def","ios":"levelo://app?vid=451ee27c-3053-4dad-97f9-30aa721d9def"},"vehicle_type_id":"4","last_reported":1740471159,"current_range_meters":19200,"station_id":"ce4bho92rcd13ifvqh4g","pricing_plan_id":"cebpf4jnsgd1na2vs0mg"},{"bike_id":"d7b86c71-089b-48f6-a952-fb6803fe85b1","system_id":"levelo_inurba_marseille","lat":43.26089,"lon":5.40331,"is_reserved":false,"is_disabled":false,"rental_uris":{"android":"levelo://app?vid=d7b86c71-089b-48f6-a952-fb6803fe85b1","ios":"levelo://app?vid=d7b86c71-089b-48f6-a952-fb6803fe85b1"},"vehicle_type_id":"4","last_reported":1740471159,"current_range_meters":19200,"station_id":"","pricing_plan_id":"cebpf4jnsgd1na2vs0mg"},{"bike_id":"3d442e47-47fa-435e-9a15-822e067cb866","system_id":"levelo_inurba_marseille","lat":43.25929,"lon":5.40914,"is_reserved":false,"is_disabled":false,"rental_uris":{"android":"levelo://app?vid=3d442e47-47fa-435e-9a15-822e067cb866","ios":"levelo://app?vid=3d442e47-47fa-435e-9a15-822e067cb866"},"vehicle_type_id":"4","last_reported":1740471159,"current_range_meters":19200,"station_id":"ce4bhm92rcd13ifvqglg","pricing_plan_id":"cebpf4jnsgd1na2vs0mg"},{"bike_id":"a09fdd65-d16c-46c0-a4e4-e1cef6223831","system_id":"levelo_inurba_marseille","lat":43.295374,"lon":5.390372,"is_reserved":false,"is_disabled":false,"rental_uris":{"android":"levelo://app?vid=a09fdd65-d16c-46c0-a4e4-e1cef6223831","ios":"levelo://app?vid=a09fdd65-d16c-46c0-a4e4-e1cef6223831"},"vehicle_type_id":"4","last_reported":1740471159,"current_range_meters":19600,"station_id":"ce4bh3p2rcd13ifvqdp0","pricing_plan_id":"cebpf4jnsgd1na2vs0mg"},{"bike_id":"03f8ecf4-f41c-40ac-83df-fdda1fdc2f2e","system_id":"levelo_inurba_marseille","lat":43.32379,"lon":5.38883,"is_reserved":false,"is_disabled":false,"rental_uris":{"android":"levelo://app?vid=03f8ecf4-f41c-40ac-83df-fdda1fdc2f2e","ios":"levelo://app?vid=03f8ecf4-f41c-40ac-83df-fdda1fdc2f2e"},"vehicle_type_id":"4","last_reported":1740471159,"current_range_meters":19600,"station_id":"ce4bhqp2rcd13ifvqhog","pricing_plan_id":"cebpf4jnsgd1na2vs0mg"},{"bike_id":"511489bf-fd55-4518-81e5-dfabda559647","system_id":"levelo_inurba_marseille","lat":43.32529,"lon":5.4143,"is_reserved":false,"is_disabled":false,"rental_uris":{"android":"levelo://app?vid=511489bf-fd55-4518-81e5-dfabda559647","ios":"levelo://app?vid=511489bf-fd55-4518-81e5-dfabda559647"},"vehicle_type_id":"4","last_reported":1740471159,"current_range_meters":19200,"station_id":"ce4bhq12rcd13ifvqhhg","pricing_plan_id":"cebpf4jnsgd1na2vs0mg"},{"bike_id":"1ceb6f54-bea9-414b-8d51-0ec4c30a6f3b","system_id":"levelo_inurba_marseille","lat":43.3031,"lon":5.36914,"is_reserved":false,"is_disabled":false,"rental_uris":{"android":"levelo://app?vid=1ceb6f54-bea9-414b-8d51-0ec4c30a6f3b","ios":"levelo://app?vid=1ceb6f54-bea9-414b-8d51-0ec4c30a6f3b"},"vehicle_type_id":"4","last_reported":1740471159,"current_range_meters":20000,"station_id":"ce4bgqh2rcd13ifvqc5g","pricing_plan_id":"cebpf4jnsgd1na2vs0mg"},{"bike_id":"dd9f8149-3f3c-435e-bce6-d1e6be60136d","system_id":"levelo_inurba_marseille","lat":43.31339,"lon":5.36707,"is_reserved":false,"is_disabled":false,"rental_uris":{"android":"levelo://app?vid=dd9f8149-3f3c-435e-bce6-d1e6be60136d","ios":"levelo://app?vid=dd9f8149-3f3c-435e-bce6-d1e6be60136d"},"vehicle_type_id":"4","last_reported":1740471159,"current_range_meters":20000,"station_id":"ce4bgr92rcd13ifvqc6g","pricing_plan_id":"cebpf4jnsgd1na2vs0mg"},{"bike_id":"f4629c6e-36fc-402c-93ca-7566da9b882d","system_id":"levelo_inurba_marseille","lat":43.27815,"lon":5.40714,"is_reserved":false,"is_disabled":false,"rental_uris":{"android":"levelo://app?vid=f4629c6e-36fc-402c-93ca-7566da9b882d","ios":"levelo://app?vid=f4629c6e-36fc-402c-93ca-7566da9b882d"},"vehicle_type_id":"4","last_reported":1740471159,"current_range_meters":20400,"station_id":"ce4bhnh2rcd13ifvqgtg","pricing_plan_id":"cebpf4jnsgd1na2vs0mg"},{"bike_id":"418c601f-5913-4c82-b3d6-4a8b9a502251","system_id":"levelo_inurba_marseille","lat":43.3112,"lon":5.37777,"is_reserved":false,"is_disabled":false,"rental_uris":{"android":"levelo://app?vid=418c601f-5913-4c82-b3d6-4a8b9a502251","ios":"levelo://app?vid=418c601f-5913-4c82-b3d6-4a8b9a502251"},"vehicle_type_id":"4","last_reported":1740471159,"current_range_meters":20000,"station_id":"ce4bgt92rcd13ifvqcg0","pricing_plan_id":"cebpf4jnsgd1na2vs0mg"},{"bike_id":"bfa63be2-4a76-4e23-8137-fb3e2f6ee01e","system_id":"levelo_inurba_marseille","lat":43.29264,"lon":5.40126,"is_reserved":false,"is_disabled":true,"rental_uris":{"android":"levelo://app?vid=bfa63be2-4a76-4e23-8137-fb3e2f6ee01e","ios":"levelo://app?vid=bfa63be2-4a76-4e23-8137-fb3e2f6ee01e"},"vehicle_type_id":"4","last_reported":1740471159,"current_range_meters":20000,"station_id":"ce4bh312rcd13ifvqdk0","pricing_plan_id":"cebpf4jnsgd1na2vs0mg"},{"bike_id":"8eafd206-24b4-4ad8-90ba-a48ef304ebd8","system_id":"levelo_inurba_marseille","lat":43.31684,"lon":5.40477,"is_reserved":false,"is_disabled":false,"rental_uris":{"android":"levelo://app?vid=8eafd206-24b4-4ad8-90ba-a48ef304ebd8","ios":"levelo://app?vid=8eafd206-24b4-4ad8-90ba-a48ef304ebd8"},"vehicle_type_id":"4","last_reported":1740471159,"current_range_meters":22400,"station_id":"ce4bh012rcd13ifvqd00","pricing_plan_id":"cebpf4jnsgd1na2vs0mg"},{"bike_id":"e4b61e67-5c22-4221-873e-01cee989859c","system_id":"levelo_inurba_marseille","lat":43.29889,"lon":5.43675,"is_reserved":false,"is_disabled":false,"rental_uris":{"android":"levelo://app?vid=e4b61e67-5c22-4221-873e-01cee989859c","ios":"levelo://app?vid=e4b61e67-5c22-4221-873e-01cee989859c"},"vehicle_type_id":"4","last_reported":1740471159,"current_range_meters":20000,"station_id":"ce4bhpp2rcd13ifvqhfg","pricing_plan_id":"cebpf4jnsgd1na2vs0mg"},{"bike_id":"edd6dcfb-5b2f-4ccc-931a-f8deb7493690","system_id":"levelo_inurba_marseille","lat":43.31219,"lon":5.36855,"is_reserved":false,"is_disabled":false,"rental_uris":{"android":"levelo://app?vid=edd6dcfb-5b2f-4ccc-931a-f8deb7493690","ios":"levelo://app?vid=edd6dcfb-5b2f-4ccc-931a-f8deb7493690"},"vehicle_type_id":"4","last_reported":1740471159,"current_range_meters":20400,"station_id":"ce4bgl92rcd13ifvqbq0","pricing_plan_id":"cebpf4jnsgd1na2vs0mg"},{"bike_id":"25411262-23d1-41bb-a382-a545d4af1ec3","system_id":"levelo_inurba_marseille","lat":43.25112,"lon":5.40317,"is_reserved":false,"is_disabled":false,"rental_uris":{"android":"levelo://app?vid=25411262-23d1-41bb-a382-a545d4af1ec3","ios":"levelo://app?vid=25411262-23d1-41bb-a382-a545d4af1ec3"},"vehicle_type_id":"4","last_reported":1740471159,"current_range_meters":21600,"station_id":"ce4bhlh2rcd13ifvqgig","pricing_plan_id":"cebpf4jnsgd1na2vs0mg"},{"bike_id":"85a421ef-6c7d-4e89-b552-dd01fe18194d","system_id":"levelo_inurba_marseille","lat":43.292893,"lon":5.376999,"is_reserved":false,"is_disabled":false,"rental_uris":{"android":"levelo://app?vid=85a421ef-6c7d-4e89-b552-dd01fe18194d","ios":"levelo://app?vid=85a421ef-6c7d-4e89-b552-dd01fe18194d"},"vehicle_type_id":"4","last_reported":1740471159,"current_range_meters":20800,"station_id":"","pricing_plan_id":"cebpf4jnsgd1na2vs0mg"},{"bike_id":"68441ac3-e9ba-447f-986b-cf8766da8a81","system_id":"levelo_inurba_marseille","lat":43.287,"lon":5.38725,"is_reserved":false,"is_disabled":false,"rental_uris":{"android":"levelo://app?vid=68441ac3-e9ba-447f-986b-cf8766da8a81","ios":"levelo://app?vid=68441ac3-e9ba-447f-986b-cf8766da8a81"},"vehicle_type_id":"4","last_reported":1740471159,"current_range_meters":20800,"station_id":"ce4bh392rcd13ifvqdm0","pricing_plan_id":"cebpf4jnsgd1na2vs0mg"},{"bike_id":"9875200b-d253-42ce-ad11-a1fb0e85eb17","system_id":"levelo_inurba_marseille","lat":43.288519,"lon":5.393098,"is_reserved":false,"is_disabled":false,"rental_uris":{"android":"levelo://app?vid=9875200b-d253-42ce-ad11-a1fb0e85eb17","ios":"levelo://app?vid=9875200b-d253-42ce-ad11-a1fb0e85eb17"},"vehicle_type_id":"4","last_reported":1740471159,"current_range_meters":20800,"station_id":"ce4bh2p2rcd13ifvqdi0","pricing_plan_id":"cebpf4jnsgd1na2vs0mg"},{"bike_id":"f80ff2e8-1750-4504-90a1-079e347b0382","system_id":"levelo_inurba_marseille","lat":43.33024,"lon":5.39044,"is_reserved":false,"is_disabled":false,"rental_uris":{"android":"levelo://app?vid=f80ff2e8-1750-4504-90a1-079e347b0382","ios":"levelo://app?vid=f80ff2e8-1750-4504-90a1-079e347b0382"},"vehicle_type_id":"4","last_reported":1740471159,"current_range_meters":27600,"station_id":"ce4bhr92rcd13ifvqhrg","pricing_plan_id":"cebpf4jnsgd1na2vs0mg"},{"bike_id":"9ae55f47-3b74-4a0e-9817-a00b342ec6ea","system_id":"levelo_inurba_marseille","lat":43.29509,"lon":5.39425,"is_reserved":false,"is_disabled":true,"rental_uris":{"android":"levelo://app?vid=9ae55f47-3b74-4a0e-9817-a00b342ec6ea","ios":"levelo://app?vid=9ae55f47-3b74-4a0e-9817-a00b342ec6ea"},"vehicle_type_id":"4","last_reported":1740471159,"current_range_meters":21600,"station_id":"ce4bh292rcd13ifvqdf0","pricing_plan_id":"cebpf4jnsgd1na2vs0mg"},{"bike_id":"fc22684b-1e44-4137-8eb3-8f4c97d52cb0","system_id":"levelo_inurba_marseille","lat":43.25004,"lon":5.38938,"is_reserved":false,"is_disabled":false,"rental_uris":{"android":"levelo://app?vid=fc22684b-1e44-4137-8eb3-8f4c97d52cb0","ios":"levelo://app?vid=fc22684b-1e44-4137-8eb3-8f4c97d52cb0"},"vehicle_type_id":"4","last_reported":1740471159,"current_range_meters":21600,"station_id":"ce4bhgp2rcd13ifvqfd0","pricing_plan_id":"cebpf4jnsgd1na2vs0mg"},{"bike_id":"e2609f98-54cb-4088-9713-af930c06cb8f","system_id":"levelo_inurba_marseille","lat":43.301544,"lon":5.374213,"is_reserved":false,"is_disabled":false,"rental_uris":{"android":"levelo://app?vid=e2609f98-54cb-4088-9713-af930c06cb8f","ios":"levelo://app?vid=e2609f98-54cb-4088-9713-af930c06cb8f"},"vehicle_type_id":"4","last_reported":1740471159,"current_range_meters":21600,"station_id":"ce4bgs92rcd13ifvqcc0","pricing_plan_id":"cebpf4jnsgd1na2vs0mg"},{"bike_id":"c3558330-f1af-4e0e-a458-4e1e21bac14b","system_id":"levelo_inurba_marseille","lat":43.25183,"lon":5.3746,"is_reserved":false,"is_disabled":false,"rental_uris":{"android":"levelo://app?vid=c3558330-f1af-4e0e-a458-4e1e21bac14b","ios":"levelo://app?vid=c3558330-f1af-4e0e-a458-4e1e21bac14b"},"vehicle_type_id":"4","last_reported":1740471159,"current_range_meters":21600,"station_id":"","pricing_plan_id":"cebpf4jnsgd1na2vs0mg"},{"bike_id":"5cac1fb7-4240-4b63-a55f-8da79b3f4a53","system_id":"levelo_inurba_marseille","lat":43.32536,"lon":5.41427,"is_reserved":false,"is_disabled":false,"rental_uris":{"android":"levelo://app?vid=5cac1fb7-4240-4b63-a55f-8da79b3f4a53","ios":"levelo://app?vid=5cac1fb7-4240-4b63-a55f-8da79b3f4a53"},"vehicle_type_id":"4","last_reported":1740471159,"current_range_meters":21600,"station_id":"ce4bhq12rcd13ifvqhhg","pricing_plan_id":"cebpf4jnsgd1na2vs0mg"},{"bike_id":"c0ec9620-a238-4d85-bb5d-f3f28d4be671","system_id":"levelo_inurba_marseille","lat":43.27949,"lon":5.38693,"is_reserved":false,"is_disabled":true,"rental_uris":{"android":"levelo://app?vid=c0ec9620-a238-4d85-bb5d-f3f28d4be671","ios":"levelo://app?vid=c0ec9620-a238-4d85-bb5d-f3f28d4be671"},"vehicle_type_id":"4","last_reported":1740471159,"current_range_meters":21600,"station_id":"ce4bhg12rcd13ifvqf80","pricing_plan_id":"cebpf4jnsgd1na2vs0mg"},{"bike_id":"034f4946-0532-4716-bfa9-71f08dacc26e","system_id":"levelo_inurba_marseille","lat":43.28768,"lon":5.39018,"is_reserved":false,"is_disabled":false,"rental_uris":{"android":"levelo://app?vid=034f4946-0532-4716-bfa9-71f08dacc26e","ios":"levelo://app?vid=034f4946-0532-4716-bfa9-71f08dacc26e"},"vehicle_type_id":"4","last_reported":1740471159,"current_range_meters":21600,"station_id":"","pricing_plan_id":"cebpf4jnsgd1na2vs0mg"},{"bike_id":"11d5f17c-dcd7-43f2-a054-2e2ce856853d","system_id":"levelo_inurba_marseille","lat":43.24071,"lon":5.37765,"is_reserved":false,"is_disabled":false,"rental_uris":{"android":"levelo://app?vid=11d5f17c-dcd7-43f2-a054-2e2ce856853d","ios":"levelo://app?vid=11d5f17c-dcd7-43f2-a054-2e2ce856853d"},"vehicle_type_id":"4","last_reported":1740471159,"current_range_meters":21600,"station_id":"ce4bhnp2rcd13ifvqgvg","pricing_plan_id":"cebpf4jnsgd1na2vs0mg"},{"bike_id":"1df32ffb-b6d0-42f0-8856-8dbb268b7110","system_id":"levelo_inurba_marseille","lat":43.31667,"lon":5.4371,"is_reserved":false,"is_disabled":false,"rental_uris":{"android":"levelo://app?vid=1df32ffb-b6d0-42f0-8856-8dbb268b7110","ios":"levelo://app?vid=1df32ffb-b6d0-42f0-8856-8dbb268b7110"},"vehicle_type_id":"4","last_reported":1740471159,"current_range_meters":21600,"station_id":"ce4bhp92rcd13ifvqhcg","pricing_plan_id":"cebpf4jnsgd1na2vs0mg"},{"bike_id":"8f7422ee-5a90-49d2-8d59-dce030089561","system_id":"levelo_inurba_marseille","lat":43.33603,"lon":5.41022,"is_reserved":false,"is_disabled":false,"rental_uris":{"android":"levelo://app?vid=8f7422ee-5a90-49d2-8d59-dce030089561","ios":"levelo://app?vid=8f7422ee-5a90-49d2-8d59-dce030089561"},"vehicle_type_id":"4","last_reported":1740471159,"current_range_meters":21600,"station_id":"ce4bhqh2rcd13ifvqhmg","pricing_plan_id":"cebpf4jnsgd1na2vs0mg"},{"bike_id":"4769aac5-9827-47ba-a73a-7f2bfe42983a","system_id":"levelo_inurba_marseille","lat":43.265609,"lon":5.390154,"is_reserved":false,"is_disabled":false,"rental_uris":{"android":"levelo://app?vid=4769aac5-9827-47ba-a73a-7f2bfe42983a","ios":"levelo://app?vid=4769aac5-9827-47ba-a73a-7f2bfe42983a"},"vehicle_type_id":"4","last_reported":1740471159,"current_range_meters":21600,"station_id":"ce4bhe12rcd13ifvqf30","pricing_plan_id":"cebpf4jnsgd1na2vs0mg"},{"bike_id":"0a7ddea2-668b-4aee-a00b-74f8899377ad","system_id":"levelo_inurba_marseille","lat":43.23963,"lon":5.3663,"is_reserved":false,"is_disabled":false,"rental_uris":{"android":"levelo://app?vid=0a7ddea2-668b-4aee-a00b-74f8899377ad","ios":"levelo://app?vid=0a7ddea2-668b-4aee-a00b-74f8899377ad"},"vehicle_type_id":"4","last_reported":1740471159,"current_range_meters":22000,"station_id":"ce4bhi12rcd13ifvqfp0","pricing_plan_id":"cebpf4jnsgd1na2vs0mg"},{"bike_id":"8ac9e472-f1db-41f4-907b-6432fdf1b6b0","system_id":"levelo_inurba_marseille","lat":43.29259,"lon":5.38443,"is_reserved":false,"is_disabled":true,"rental_uris":{"android":"levelo://app?vid=8ac9e472-f1db-41f4-907b-6432fdf1b6b0","ios":"levelo://app?vid=8ac9e472-f1db-41f4-907b-6432fdf1b6b0"},"vehicle_type_id":"4","last_reported":1740471159,"current_range_meters":22000,"station_id":"ce4bh692rcd13ifvqea0","pricing_plan_id":"cebpf4jnsgd1na2vs0mg"},{"bike_id":"9547fb1b-e264-4d24-98b3-be99c391ec13","system_id":"levelo_inurba_marseille","lat":43.278,"lon":5.40723,"is_reserved":false,"is_disabled":false,"rental_uris":{"android":"levelo://app?vid=9547fb1b-e264-4d24-98b3-be99c391ec13","ios":"levelo://app?vid=9547fb1b-e264-4d24-98b3-be99c391ec13"},"vehicle_type_id":"4","last_reported":1740471159,"current_range_meters":22000,"station_id":"ce4bhnh2rcd13ifvqgtg","pricing_plan_id":"cebpf4jnsgd1na2vs0mg"},{"bike_id":"45127abe-699f-4c02-9aab-c9892981149b","system_id":"levelo_inurba_marseille","lat":43.27169,"lon":5.40988,"is_reserved":false,"is_disabled":false,"rental_uris":{"android":"levelo://app?vid=45127abe-699f-4c02-9aab-c9892981149b","ios":"levelo://app?vid=45127abe-699f-4c02-9aab-c9892981149b"},"vehicle_type_id":"4","last_reported":1740471159,"current_range_meters":22000,"station_id":"ce4bhl12rcd13ifvqgf0","pricing_plan_id":"cebpf4jnsgd1na2vs0mg"},{"bike_id":"2f6f7de4-1b9a-4be1-bbf6-716ea4553174","system_id":"levelo_inurba_marseille","lat":43.31076,"lon":5.383474,"is_reserved":false,"is_disabled":false,"rental_uris":{"android":"levelo://app?vid=2f6f7de4-1b9a-4be1-bbf6-716ea4553174","ios":"levelo://app?vid=2f6f7de4-1b9a-4be1-bbf6-716ea4553174"},"vehicle_type_id":"4","last_reported":1740471159,"current_range_meters":22000,"station_id":"ce4bgv92rcd13ifvqcr0","pricing_plan_id":"cebpf4jnsgd1na2vs0mg"},{"bike_id":"15c9f4fb-b955-4d20-b4f9-271e528187f4","system_id":"levelo_inurba_marseille","lat":43.28156,"lon":5.4263,"is_reserved":false,"is_disabled":true,"rental_uris":{"android":"levelo://app?vid=15c9f4fb-b955-4d20-b4f9-271e528187f4","ios":"levelo://app?vid=15c9f4fb-b955-4d20-b4f9-271e528187f4"},"vehicle_type_id":"4","last_reported":1740471159,"current_range_meters":22000,"station_id":"ce4bhnh2rcd13ifvqgug","pricing_plan_id":"cebpf4jnsgd1na2vs0mg"},{"bike_id":"9a9b4c48-2cca-4f70-9015-f8219ae1b092","system_id":"levelo_inurba_marseille","lat":43.29019,"lon":5.38133,"is_reserved":false,"is_disabled":false,"rental_uris":{"android":"levelo://app?vid=9a9b4c48-2cca-4f70-9015-f8219ae1b092","ios":"levelo://app?vid=9a9b4c48-2cca-4f70-9015-f8219ae1b092"},"vehicle_type_id":"4","last_reported":1740471159,"current_range_meters":22000,"station_id":"ce4bh4p2rcd13ifvqe1g","pricing_plan_id":"cebpf4jnsgd1na2vs0mg"},{"bike_id":"b40cdecf-f647-4707-9735-b5fd5c77ddbf","system_id":"levelo_inurba_marseille","lat":43.34095,"lon":5.41996,"is_reserved":false,"is_disabled":false,"rental_uris":{"android":"levelo://app?vid=b40cdecf-f647-4707-9735-b5fd5c77ddbf","ios":"levelo://app?vid=b40cdecf-f647-4707-9735-b5fd5c77ddbf"},"vehicle_type_id":"4","last_reported":1740471159,"current_range_meters":22000,"station_id":"","pricing_plan_id":"cebpf4jnsgd1na2vs0mg"},{"bike_id":"1015abbd-7082-4ba1-86ea-5a0ad2804113","system_id":"levelo_inurba_marseille","lat":43.29899,"lon":5.43663,"is_reserved":false,"is_disabled":false,"rental_uris":{"android":"levelo://app?vid=1015abbd-7082-4ba1-86ea-5a0ad2804113","ios":"levelo://app?vid=1015abbd-7082-4ba1-86ea-5a0ad2804113"},"vehicle_type_id":"4","last_reported":1740471159,"current_range_meters":22400,"station_id":"ce4bhpp2rcd13ifvqhfg","pricing_plan_id":"cebpf4jnsgd1na2vs0mg"},{"bike_id":"58812e50-dc44-4238-9c6b-faf2aacb08b5","system_id":"levelo_inurba_marseille","lat":43.267881,"lon":5.395592,"is_reserved":false,"is_disabled":false,"rental_uris":{"android":"levelo://app?vid=58812e50-dc44-4238-9c6b-faf2aacb08b5","ios":"levelo://app?vid=58812e50-dc44-4238-9c6b-faf2aacb08b5"},"vehicle_type_id":"4","last_reported":1740471159,"current_range_meters":22800,"station_id":"ce4bhh12rcd13ifvqfg0","pricing_plan_id":"cebpf4jnsgd1na2vs0mg"},{"bike_id":"3142f017-c4b6-483e-aa73-b65aa0cf64a2","system_id":"levelo_inurba_marseille","lat":43.28036,"lon":5.36956,"is_reserved":false,"is_disabled":true,"rental_uris":{"android":"levelo://app?vid=3142f017-c4b6-483e-aa73-b65aa0cf64a2","ios":"levelo://app?vid=3142f017-c4b6-483e-aa73-b65aa0cf64a2"},"vehicle_type_id":"4","last_reported":1740471159,"current_range_meters":22400,"station_id":"ce4bha12rcd13ifvqef0","pricing_plan_id":"cebpf4jnsgd1na2vs0mg"},{"bike_id":"c303f159-ac45-4fe0-aac9-2f0b1453cd31","system_id":"levelo_inurba_marseille","lat":43.27993,"lon":5.4162,"is_reserved":false,"is_disabled":true,"rental_uris":{"android":"levelo://app?vid=c303f159-ac45-4fe0-aac9-2f0b1453cd31","ios":"levelo://app?vid=c303f159-ac45-4fe0-aac9-2f0b1453cd31"},"vehicle_type_id":"4","last_reported":1740471159,"current_range_meters":22800,"station_id":"ce4bho12rcd13ifvqh1g","pricing_plan_id":"cebpf4jnsgd1na2vs0mg"},{"bike_id":"49dcf4cb-f859-4d9b-a032-d584bde08957","system_id":"levelo_inurba_marseille","lat":43.29531,"lon":5.38535,"is_reserved":false,"is_disabled":false,"rental_uris":{"android":"levelo://app?vid=49dcf4cb-f859-4d9b-a032-d584bde08957","ios":"levelo://app?vid=49dcf4cb-f859-4d9b-a032-d584bde08957"},"vehicle_type_id":"4","last_reported":1740471159,"current_range_meters":18000,"station_id":"ce4bgih2rcd13ifvqba0","pricing_plan_id":"cebpf4jnsgd1na2vs0mg"},{"bike_id":"b2616ec3-ed79-46c0-91c4-35a843ea1e98","system_id":"levelo_inurba_marseille","lat":43.2795,"lon":5.41047,"is_reserved":false,"is_disabled":false,"rental_uris":{"android":"levelo://app?vid=b2616ec3-ed79-46c0-91c4-35a843ea1e98","ios":"levelo://app?vid=b2616ec3-ed79-46c0-91c4-35a843ea1e98"},"vehicle_type_id":"4","last_reported":1740471159,"current_range_meters":22800,"station_id":"ce4bhnp2rcd13ifvqh0g","pricing_plan_id":"cebpf4jnsgd1na2vs0mg"},{"bike_id":"ce6c3a57-2472-4142-ab26-fc6dee861395","system_id":"levelo_inurba_marseille","lat":43.30249,"lon":5.37526,"is_reserved":false,"is_disabled":false,"rental_uris":{"android":"levelo://app?vid=ce6c3a57-2472-4142-ab26-fc6dee861395","ios":"levelo://app?vid=ce6c3a57-2472-4142-ab26-fc6dee861395"},"vehicle_type_id":"4","last_reported":1740471159,"current_range_meters":22800,"station_id":"ce4bgrh2rcd13ifvqc8g","pricing_plan_id":"cebpf4jnsgd1na2vs0mg"},{"bike_id":"1cd61523-5c98-4938-b773-21fdebbfe22d","system_id":"levelo_inurba_marseille","lat":43.293,"lon":5.37451,"is_reserved":false,"is_disabled":false,"rental_uris":{"android":"levelo://app?vid=1cd61523-5c98-4938-b773-21fdebbfe22d","ios":"levelo://app?vid=1cd61523-5c98-4938-b773-21fdebbfe22d"},"vehicle_type_id":"4","last_reported":1740471159,"current_range_meters":21600,"station_id":"ce4bgi12rcd13ifvqb70","pricing_plan_id":"cebpf4jnsgd1na2vs0mg"},{"bike_id":"63b8865a-8f98-40b5-bdcc-d18ab3064f1e","system_id":"levelo_inurba_marseille","lat":43.29033,"lon":5.3757,"is_reserved":false,"is_disabled":false,"rental_uris":{"android":"levelo://app?vid=63b8865a-8f98-40b5-bdcc-d18ab3064f1e","ios":"levelo://app?vid=63b8865a-8f98-40b5-bdcc-d18ab3064f1e"},"vehicle_type_id":"4","last_reported":1740471159,"current_range_meters":22800,"station_id":"","pricing_plan_id":"cebpf4jnsgd1na2vs0mg"},{"bike_id":"4ccd555a-3719-4339-9df7-9779d4b46f75","system_id":"levelo_inurba_marseille","lat":43.280334,"lon":5.369463,"is_reserved":false,"is_disabled":false,"rental_uris":{"android":"levelo://app?vid=4ccd555a-3719-4339-9df7-9779d4b46f75","ios":"levelo://app?vid=4ccd555a-3719-4339-9df7-9779d4b46f75"},"vehicle_type_id":"4","last_reported":1740471159,"current_range_meters":23200,"station_id":"ce4bha12rcd13ifvqef0","pricing_plan_id":"cebpf4jnsgd1na2vs0mg"},{"bike_id":"9eb10ab9-ef97-459e-a893-bed63e589588","system_id":"levelo_inurba_marseille","lat":43.25007,"lon":5.38926,"is_reserved":false,"is_disabled":false,"rental_uris":{"android":"levelo://app?vid=9eb10ab9-ef97-459e-a893-bed63e589588","ios":"levelo://app?vid=9eb10ab9-ef97-459e-a893-bed63e589588"},"vehicle_type_id":"4","last_reported":1740471159,"current_range_meters":23200,"station_id":"ce4bhgp2rcd13ifvqfd0","pricing_plan_id":"cebpf4jnsgd1na2vs0mg"},{"bike_id":"a83fdc07-afd3-4837-96c3-faea2f4e7779","system_id":"levelo_inurba_marseille","lat":43.2977,"lon":5.38146,"is_reserved":false,"is_disabled":true,"rental_uris":{"android":"levelo://app?vid=a83fdc07-afd3-4837-96c3-faea2f4e7779","ios":"levelo://app?vid=a83fdc07-afd3-4837-96c3-faea2f4e7779"},"vehicle_type_id":"4","last_reported":1740471159,"current_range_meters":23200,"station_id":"ce4bgip2rcd13ifvqbb0","pricing_plan_id":"cebpf4jnsgd1na2vs0mg"},{"bike_id":"92f91540-b063-4719-98b6-1cb1c9ee7a6b","system_id":"levelo_inurba_marseille","lat":43.265,"lon":5.39536,"is_reserved":false,"is_disabled":false,"rental_uris":{"android":"levelo://app?vid=92f91540-b063-4719-98b6-1cb1c9ee7a6b","ios":"levelo://app?vid=92f91540-b063-4719-98b6-1cb1c9ee7a6b"},"vehicle_type_id":"4","last_reported":1740471159,"current_range_meters":23200,"station_id":"ce4bhi12rcd13ifvqfq0","pricing_plan_id":"cebpf4jnsgd1na2vs0mg"},{"bike_id":"c66043a9-4683-43d0-9e2b-3748e47a791d","system_id":"levelo_inurba_marseille","lat":43.25854,"lon":5.39912,"is_reserved":false,"is_disabled":false,"rental_uris":{"android":"levelo://app?vid=c66043a9-4683-43d0-9e2b-3748e47a791d","ios":"levelo://app?vid=c66043a9-4683-43d0-9e2b-3748e47a791d"},"vehicle_type_id":"4","last_reported":1740471159,"current_range_meters":23200,"station_id":"ce4bhl92rcd13ifvqghg","pricing_plan_id":"cebpf4jnsgd1na2vs0mg"},{"bike_id":"b3515fe4-cc7a-47f6-8d72-576f30f093e2","system_id":"levelo_inurba_marseille","lat":43.3136,"lon":5.38496,"is_reserved":false,"is_disabled":true,"rental_uris":{"android":"levelo://app?vid=b3515fe4-cc7a-47f6-8d72-576f30f093e2","ios":"levelo://app?vid=b3515fe4-cc7a-47f6-8d72-576f30f093e2"},"vehicle_type_id":"4","last_reported":1740471159,"current_range_meters":23200,"station_id":"ce4bgt92rcd13ifvqcf0","pricing_plan_id":"cebpf4jnsgd1na2vs0mg"},{"bike_id":"17f516ab-03e2-41ae-a740-dfd8a23c41c3","system_id":"levelo_inurba_marseille","lat":43.28618,"lon":5.35106,"is_reserved":false,"is_disabled":false,"rental_uris":{"android":"levelo://app?vid=17f516ab-03e2-41ae-a740-dfd8a23c41c3","ios":"levelo://app?vid=17f516ab-03e2-41ae-a740-dfd8a23c41c3"},"vehicle_type_id":"4","last_reported":1740471159,"current_range_meters":22800,"station_id":"ce4bhch2rcd13ifvqeug","pricing_plan_id":"cebpf4jnsgd1na2vs0mg"},{"bike_id":"168248a5-bd3b-4ec1-a93b-1d90297d3bba","system_id":"levelo_inurba_marseille","lat":43.32364,"lon":5.38883,"is_reserved":false,"is_disabled":false,"rental_uris":{"android":"levelo://app?vid=168248a5-bd3b-4ec1-a93b-1d90297d3bba","ios":"levelo://app?vid=168248a5-bd3b-4ec1-a93b-1d90297d3bba"},"vehicle_type_id":"4","last_reported":1740471159,"current_range_meters":23200,"station_id":"ce4bhqp2rcd13ifvqhog","pricing_plan_id":"cebpf4jnsgd1na2vs0mg"},{"bike_id":"5eb88a7b-00fd-44ad-b1d8-1c98a5a28819","system_id":"levelo_inurba_marseille","lat":43.23149,"lon":5.43718,"is_reserved":false,"is_disabled":false,"rental_uris":{"android":"levelo://app?vid=5eb88a7b-00fd-44ad-b1d8-1c98a5a28819","ios":"levelo://app?vid=5eb88a7b-00fd-44ad-b1d8-1c98a5a28819"},"vehicle_type_id":"4","last_reported":1740471159,"current_range_meters":24000,"station_id":"ce4bhmp2rcd13ifvqgog","pricing_plan_id":"cebpf4jnsgd1na2vs0mg"},{"bike_id":"0edf3a85-0e12-4f65-a670-900a1988fcf3","system_id":"levelo_inurba_marseille","lat":43.30417,"lon":5.4128,"is_reserved":false,"is_disabled":true,"rental_uris":{"android":"levelo://app?vid=0edf3a85-0e12-4f65-a670-900a1988fcf3","ios":"levelo://app?vid=0edf3a85-0e12-4f65-a670-900a1988fcf3"},"vehicle_type_id":"4","last_reported":1740471159,"current_range_meters":23200,"station_id":"ce4bhop2rcd13ifvqh8g","pricing_plan_id":"cebpf4jnsgd1na2vs0mg"},{"bike_id":"d15e458d-d6ab-44bb-aa15-095e649dcfff","system_id":"levelo_inurba_marseille","lat":43.27319,"lon":5.39083,"is_reserved":false,"is_disabled":false,"rental_uris":{"android":"levelo://app?vid=d15e458d-d6ab-44bb-aa15-095e649dcfff","ios":"levelo://app?vid=d15e458d-d6ab-44bb-aa15-095e649dcfff"},"vehicle_type_id":"4","last_reported":1740471159,"current_range_meters":22000,"station_id":"ce4bhgp2rcd13ifvqfe0","pricing_plan_id":"cebpf4jnsgd1na2vs0mg"},{"bike_id":"ae48d40b-ad78-47c1-ad32-7a0759d52ae5","system_id":"levelo_inurba_marseille","lat":43.33766,"lon":5.37435,"is_reserved":false,"is_disabled":false,"rental_uris":{"android":"levelo://app?vid=ae48d40b-ad78-47c1-ad32-7a0759d52ae5","ios":"levelo://app?vid=ae48d40b-ad78-47c1-ad32-7a0759d52ae5"},"vehicle_type_id":"4","last_reported":1740471159,"current_range_meters":24000,"station_id":"","pricing_plan_id":"cebpf4jnsgd1na2vs0mg"},{"bike_id":"6b892a37-5f8e-4801-94ff-99a8f066027b","system_id":"levelo_inurba_marseille","lat":43.31904,"lon":5.40732,"is_reserved":false,"is_disabled":false,"rental_uris":{"android":"levelo://app?vid=6b892a37-5f8e-4801-94ff-99a8f066027b","ios":"levelo://app?vid=6b892a37-5f8e-4801-94ff-99a8f066027b"},"vehicle_type_id":"4","last_reported":1740471159,"current_range_meters":23200,"station_id":"ce4bhq12rcd13ifvqhig","pricing_plan_id":"cebpf4jnsgd1na2vs0mg"},{"bike_id":"220837e6-44d1-411a-aaca-6e3d59340904","system_id":"levelo_inurba_marseille","lat":43.301318,"lon":5.387765,"is_reserved":false,"is_disabled":true,"rental_uris":{"android":"levelo://app?vid=220837e6-44d1-411a-aaca-6e3d59340904","ios":"levelo://app?vid=220837e6-44d1-411a-aaca-6e3d59340904"},"vehicle_type_id":"4","last_reported":1740471159,"current_range_meters":24000,"station_id":"","pricing_plan_id":"cebpf4jnsgd1na2vs0mg"},{"bike_id":"83242a76-3868-4247-888d-8a2f685b9e92","system_id":"levelo_inurba_marseille","lat":43.337444,"lon":5.374475,"is_reserved":false,"is_disabled":false,"rental_uris":{"android":"levelo://app?vid=83242a76-3868-4247-888d-8a2f685b9e92","ios":"levelo://app?vid=83242a76-3868-4247-888d-8a2f685b9e92"},"vehicle_type_id":"4","last_reported":1740471159,"current_range_meters":24000,"station_id":"","pricing_plan_id":"cebpf4jnsgd1na2vs0mg"},{"bike_id":"12bf7a1a-3d74-4b2d-92d7-1553f915ee8a","system_id":"levelo_inurba_marseille","lat":43.33604,"lon":5.4103,"is_reserved":false,"is_disabled":false,"rental_uris":{"android":"levelo://app?vid=12bf7a1a-3d74-4b2d-92d7-1553f915ee8a","ios":"levelo://app?vid=12bf7a1a-3d74-4b2d-92d7-1553f915ee8a"},"vehicle_type_id":"4","last_reported":1740471159,"current_range_meters":24000,"station_id":"","pricing_plan_id":"cebpf4jnsgd1na2vs0mg"},{"bike_id":"612f1b8b-5b4b-4053-8a86-fb65ea3abcbc","system_id":"levelo_inurba_marseille","lat":43.23153,"lon":5.43716,"is_reserved":false,"is_disabled":false,"rental_uris":{"android":"levelo://app?vid=612f1b8b-5b4b-4053-8a86-fb65ea3abcbc","ios":"levelo://app?vid=612f1b8b-5b4b-4053-8a86-fb65ea3abcbc"},"vehicle_type_id":"4","last_reported":1740471159,"current_range_meters":24000,"station_id":"ce4bhmp2rcd13ifvqgog","pricing_plan_id":"cebpf4jnsgd1na2vs0mg"},{"bike_id":"8b7e8afa-bd36-44f3-b7d2-192da0a2367b","system_id":"levelo_inurba_marseille","lat":43.30313,"lon":5.36885,"is_reserved":false,"is_disabled":false,"rental_uris":{"android":"levelo://app?vid=8b7e8afa-bd36-44f3-b7d2-192da0a2367b","ios":"levelo://app?vid=8b7e8afa-bd36-44f3-b7d2-192da0a2367b"},"vehicle_type_id":"4","last_reported":1740471159,"current_range_meters":20800,"station_id":"ce4bgqh2rcd13ifvqc5g","pricing_plan_id":"cebpf4jnsgd1na2vs0mg"},{"bike_id":"8b97b81a-d560-4ddb-ad0e-106b6a397579","system_id":"levelo_inurba_marseille","lat":43.29962,"lon":5.38494,"is_reserved":false,"is_disabled":false,"rental_uris":{"android":"levelo://app?vid=8b97b81a-d560-4ddb-ad0e-106b6a397579","ios":"levelo://app?vid=8b97b81a-d560-4ddb-ad0e-106b6a397579"},"vehicle_type_id":"4","last_reported":1740471159,"current_range_meters":24000,"station_id":"ce4bgj92rcd13ifvqbd0","pricing_plan_id":"cebpf4jnsgd1na2vs0mg"},{"bike_id":"c73cd9c5-e3ac-4e8b-b857-98fd2f9305ef","system_id":"levelo_inurba_marseille","lat":43.23197,"lon":5.40029,"is_reserved":false,"is_disabled":false,"rental_uris":{"android":"levelo://app?vid=c73cd9c5-e3ac-4e8b-b857-98fd2f9305ef","ios":"levelo://app?vid=c73cd9c5-e3ac-4e8b-b857-98fd2f9305ef"},"vehicle_type_id":"4","last_reported":1740471159,"current_range_meters":24000,"station_id":"ce4bhn12rcd13ifvqgqg","pricing_plan_id":"cebpf4jnsgd1na2vs0mg"},{"bike_id":"b18f0f30-6eac-4a75-aa36-5a5719d3ee2a","system_id":"levelo_inurba_marseille","lat":43.27421,"lon":5.3941,"is_reserved":false,"is_disabled":false,"rental_uris":{"android":"levelo://app?vid=b18f0f30-6eac-4a75-aa36-5a5719d3ee2a","ios":"levelo://app?vid=b18f0f30-6eac-4a75-aa36-5a5719d3ee2a"},"vehicle_type_id":"4","last_reported":1740471159,"current_range_meters":24400,"station_id":"ce4bhdp2rcd13ifvqf20","pricing_plan_id":"cebpf4jnsgd1na2vs0mg"},{"bike_id":"2ed15423-a868-4573-bacd-df9288b94cc4","system_id":"levelo_inurba_marseille","lat":43.30606,"lon":5.39352,"is_reserved":false,"is_disabled":true,"rental_uris":{"android":"levelo://app?vid=2ed15423-a868-4573-bacd-df9288b94cc4","ios":"levelo://app?vid=2ed15423-a868-4573-bacd-df9288b94cc4"},"vehicle_type_id":"4","last_reported":1740471159,"current_range_meters":24400,"station_id":"ce4bh0p2rcd13ifvqd80","pricing_plan_id":"cebpf4jnsgd1na2vs0mg"},{"bike_id":"4ea509d1-9385-4191-ba4f-426601ab6e3d","system_id":"levelo_inurba_marseille","lat":43.25085,"lon":5.39534,"is_reserved":false,"is_disabled":false,"rental_uris":{"android":"levelo://app?vid=4ea509d1-9385-4191-ba4f-426601ab6e3d","ios":"levelo://app?vid=4ea509d1-9385-4191-ba4f-426601ab6e3d"},"vehicle_type_id":"4","last_reported":1740471159,"current_range_meters":24400,"station_id":"ce4bhm12rcd13ifvqgkg","pricing_plan_id":"cebpf4jnsgd1na2vs0mg"},{"bike_id":"245c9ee4-a552-4737-8cda-71747db953a0","system_id":"levelo_inurba_marseille","lat":43.249887,"lon":5.389521,"is_reserved":false,"is_disabled":false,"rental_uris":{"android":"levelo://app?vid=245c9ee4-a552-4737-8cda-71747db953a0","ios":"levelo://app?vid=245c9ee4-a552-4737-8cda-71747db953a0"},"vehicle_type_id":"4","last_reported":1740471159,"current_range_meters":24400,"station_id":"ce4bhgp2rcd13ifvqfd0","pricing_plan_id":"cebpf4jnsgd1na2vs0mg"},{"bike_id":"227a0d24-81ff-4f1b-a275-58d410bc73a0","system_id":"levelo_inurba_marseille","lat":43.299194,"lon":5.374532,"is_reserved":false,"is_disabled":false,"rental_uris":{"android":"levelo://app?vid=227a0d24-81ff-4f1b-a275-58d410bc73a0","ios":"levelo://app?vid=227a0d24-81ff-4f1b-a275-58d410bc73a0"},"vehicle_type_id":"4","last_reported":1740471159,"current_range_meters":26800,"station_id":"ce4bgph2rcd13ifvqc2g","pricing_plan_id":"cebpf4jnsgd1na2vs0mg"},{"bike_id":"197d2611-a6ff-4bd2-b775-a19efacf62d1","system_id":"levelo_inurba_marseille","lat":43.25081,"lon":5.39518,"is_reserved":false,"is_disabled":false,"rental_uris":{"android":"levelo://app?vid=197d2611-a6ff-4bd2-b775-a19efacf62d1","ios":"levelo://app?vid=197d2611-a6ff-4bd2-b775-a19efacf62d1"},"vehicle_type_id":"4","last_reported":1740471159,"current_range_meters":24400,"station_id":"ce4bhm12rcd13ifvqgkg","pricing_plan_id":"cebpf4jnsgd1na2vs0mg"},{"bike_id":"207e0213-fbcf-4c1c-9ca3-aea4e512cf52","system_id":"levelo_inurba_marseille","lat":43.30548,"lon":5.36716,"is_reserved":false,"is_disabled":false,"rental_uris":{"android":"levelo://app?vid=207e0213-fbcf-4c1c-9ca3-aea4e512cf52","ios":"levelo://app?vid=207e0213-fbcf-4c1c-9ca3-aea4e512cf52"},"vehicle_type_id":"4","last_reported":1740471159,"current_range_meters":24400,"station_id":"ce4bgrp2rcd13ifvqc9g","pricing_plan_id":"cebpf4jnsgd1na2vs0mg"},{"bike_id":"0464a6fb-09db-4408-bd58-84085dbc1948","system_id":"levelo_inurba_marseille","lat":43.26119,"lon":5.41472,"is_reserved":false,"is_disabled":false,"rental_uris":{"android":"levelo://app?vid=0464a6fb-09db-4408-bd58-84085dbc1948","ios":"levelo://app?vid=0464a6fb-09db-4408-bd58-84085dbc1948"},"vehicle_type_id":"4","last_reported":1740471159,"current_range_meters":24400,"station_id":"","pricing_plan_id":"cebpf4jnsgd1na2vs0mg"},{"bike_id":"5eff5ae1-4bb0-461f-b0bd-45acef884444","system_id":"levelo_inurba_marseille","lat":43.30564,"lon":5.37567,"is_reserved":false,"is_disabled":false,"rental_uris":{"android":"levelo://app?vid=5eff5ae1-4bb0-461f-b0bd-45acef884444","ios":"levelo://app?vid=5eff5ae1-4bb0-461f-b0bd-45acef884444"},"vehicle_type_id":"4","last_reported":1740471159,"current_range_meters":24400,"station_id":"","pricing_plan_id":"cebpf4jnsgd1na2vs0mg"},{"bike_id":"3de9aeda-1f9a-4bbc-8b90-e02a49e56ca9","system_id":"levelo_inurba_marseille","lat":43.23185,"lon":5.35545,"is_reserved":false,"is_disabled":false,"rental_uris":{"android":"levelo://app?vid=3de9aeda-1f9a-4bbc-8b90-e02a49e56ca9","ios":"levelo://app?vid=3de9aeda-1f9a-4bbc-8b90-e02a49e56ca9"},"vehicle_type_id":"4","last_reported":1740471159,"current_range_meters":24800,"station_id":"ce4bhu92rcd13ifvqi70","pricing_plan_id":"cebpf4jnsgd1na2vs0mg"},{"bike_id":"4ae7dddc-893b-4fb1-a57f-81cfb3aff9f4","system_id":"levelo_inurba_marseille","lat":43.32372,"lon":5.38881,"is_reserved":false,"is_disabled":false,"rental_uris":{"android":"levelo://app?vid=4ae7dddc-893b-4fb1-a57f-81cfb3aff9f4","ios":"levelo://app?vid=4ae7dddc-893b-4fb1-a57f-81cfb3aff9f4"},"vehicle_type_id":"4","last_reported":1740471159,"current_range_meters":24400,"station_id":"ce4bhqp2rcd13ifvqhog","pricing_plan_id":"cebpf4jnsgd1na2vs0mg"},{"bike_id":"24c31276-7449-40fd-a2d1-a3f92466f13f","system_id":"levelo_inurba_marseille","lat":43.30537,"lon":5.36531,"is_reserved":false,"is_disabled":false,"rental_uris":{"android":"levelo://app?vid=24c31276-7449-40fd-a2d1-a3f92466f13f","ios":"levelo://app?vid=24c31276-7449-40fd-a2d1-a3f92466f13f"},"vehicle_type_id":"4","last_reported":1740471159,"current_range_meters":23200,"station_id":"ce4bgs12rcd13ifvqcag","pricing_plan_id":"cebpf4jnsgd1na2vs0mg"},{"bike_id":"2ff2cef9-073a-4cea-9254-a20aec9b8a31","system_id":"levelo_inurba_marseille","lat":43.32339,"lon":5.40627,"is_reserved":false,"is_disabled":false,"rental_uris":{"android":"levelo://app?vid=2ff2cef9-073a-4cea-9254-a20aec9b8a31","ios":"levelo://app?vid=2ff2cef9-073a-4cea-9254-a20aec9b8a31"},"vehicle_type_id":"4","last_reported":1740471159,"current_range_meters":24400,"station_id":"","pricing_plan_id":"cebpf4jnsgd1na2vs0mg"},{"bike_id":"d99ef3c5-cefd-4e7e-9d89-1ddf0035af4f","system_id":"levelo_inurba_marseille","lat":43.30281,"lon":5.37717,"is_reserved":false,"is_disabled":false,"rental_uris":{"android":"levelo://app?vid=d99ef3c5-cefd-4e7e-9d89-1ddf0035af4f","ios":"levelo://app?vid=d99ef3c5-cefd-4e7e-9d89-1ddf0035af4f"},"vehicle_type_id":"4","last_reported":1740471159,"current_range_meters":24800,"station_id":"ce4bguh2rcd13ifvqcj0","pricing_plan_id":"cebpf4jnsgd1na2vs0mg"},{"bike_id":"d7820aee-d5cb-4fa9-8d83-b62dde9b2994","system_id":"levelo_inurba_marseille","lat":43.32654,"lon":5.41005,"is_reserved":false,"is_disabled":false,"rental_uris":{"android":"levelo://app?vid=d7820aee-d5cb-4fa9-8d83-b62dde9b2994","ios":"levelo://app?vid=d7820aee-d5cb-4fa9-8d83-b62dde9b2994"},"vehicle_type_id":"4","last_reported":1740471159,"current_range_meters":24800,"station_id":"ce4bhpp2rcd13ifvqhgg","pricing_plan_id":"cebpf4jnsgd1na2vs0mg"},{"bike_id":"b597206e-3344-4293-895e-fd9a2b396685","system_id":"levelo_inurba_marseille","lat":43.30398,"lon":5.41277,"is_reserved":false,"is_disabled":true,"rental_uris":{"android":"levelo://app?vid=b597206e-3344-4293-895e-fd9a2b396685","ios":"levelo://app?vid=b597206e-3344-4293-895e-fd9a2b396685"},"vehicle_type_id":"4","last_reported":1740471159,"current_range_meters":24800,"station_id":"ce4bhop2rcd13ifvqh8g","pricing_plan_id":"cebpf4jnsgd1na2vs0mg"},{"bike_id":"dd2110e4-32ee-466e-94da-f1f6c9014ff8","system_id":"levelo_inurba_marseille","lat":43.30148,"lon":5.38079,"is_reserved":false,"is_disabled":false,"rental_uris":{"android":"levelo://app?vid=dd2110e4-32ee-466e-94da-f1f6c9014ff8","ios":"levelo://app?vid=dd2110e4-32ee-466e-94da-f1f6c9014ff8"},"vehicle_type_id":"4","last_reported":1740471159,"current_range_meters":24800,"station_id":"ce4bgjp2rcd13ifvqbh0","pricing_plan_id":"cebpf4jnsgd1na2vs0mg"},{"bike_id":"5e45c6a4-c241-4a3f-803b-6b5211cfbe1e","system_id":"levelo_inurba_marseille","lat":43.27919,"lon":5.39585,"is_reserved":false,"is_disabled":false,"rental_uris":{"android":"levelo://app?vid=5e45c6a4-c241-4a3f-803b-6b5211cfbe1e","ios":"levelo://app?vid=5e45c6a4-c241-4a3f-803b-6b5211cfbe1e"},"vehicle_type_id":"4","last_reported":1740471159,"current_range_meters":25200,"station_id":"","pricing_plan_id":"cebpf4jnsgd1na2vs0mg"},{"bike_id":"cdcac68b-1a06-498c-ad63-eeb255b679b6","system_id":"levelo_inurba_marseille","lat":43.27938,"lon":5.41047,"is_reserved":false,"is_disabled":false,"rental_uris":{"android":"levelo://app?vid=cdcac68b-1a06-498c-ad63-eeb255b679b6","ios":"levelo://app?vid=cdcac68b-1a06-498c-ad63-eeb255b679b6"},"vehicle_type_id":"4","last_reported":1740471159,"current_range_meters":24800,"station_id":"ce4bhnp2rcd13ifvqh0g","pricing_plan_id":"cebpf4jnsgd1na2vs0mg"},{"bike_id":"03f0e06b-9db1-4101-a5e7-199b5a2dd83e","system_id":"levelo_inurba_marseille","lat":43.31715,"lon":5.37791,"is_reserved":false,"is_disabled":false,"rental_uris":{"android":"levelo://app?vid=03f0e06b-9db1-4101-a5e7-199b5a2dd83e","ios":"levelo://app?vid=03f0e06b-9db1-4101-a5e7-199b5a2dd83e"},"vehicle_type_id":"4","last_reported":1740471159,"current_range_meters":24800,"station_id":"ce4bgth2rcd13ifvqch0","pricing_plan_id":"cebpf4jnsgd1na2vs0mg"},{"bike_id":"d05e524d-9a25-4ad4-890b-92efc3309e65","system_id":"levelo_inurba_marseille","lat":43.25928,"lon":5.40913,"is_reserved":false,"is_disabled":false,"rental_uris":{"android":"levelo://app?vid=d05e524d-9a25-4ad4-890b-92efc3309e65","ios":"levelo://app?vid=d05e524d-9a25-4ad4-890b-92efc3309e65"},"vehicle_type_id":"4","last_reported":1740471159,"current_range_meters":25200,"station_id":"ce4bhm92rcd13ifvqglg","pricing_plan_id":"cebpf4jnsgd1na2vs0mg"},{"bike_id":"86cee0fa-0979-429d-9b49-0e3063256449","system_id":"levelo_inurba_marseille","lat":43.33598,"lon":5.41021,"is_reserved":false,"is_disabled":false,"rental_uris":{"android":"levelo://app?vid=86cee0fa-0979-429d-9b49-0e3063256449","ios":"levelo://app?vid=86cee0fa-0979-429d-9b49-0e3063256449"},"vehicle_type_id":"4","last_reported":1740471159,"current_range_meters":25200,"station_id":"ce4bhqh2rcd13ifvqhmg","pricing_plan_id":"cebpf4jnsgd1na2vs0mg"},{"bike_id":"93b34b01-2a6e-47fd-80ea-774de235aaf8","system_id":"levelo_inurba_marseille","lat":43.31332,"lon":5.39698,"is_reserved":false,"is_disabled":false,"rental_uris":{"android":"levelo://app?vid=93b34b01-2a6e-47fd-80ea-774de235aaf8","ios":"levelo://app?vid=93b34b01-2a6e-47fd-80ea-774de235aaf8"},"vehicle_type_id":"4","last_reported":1740471159,"current_range_meters":25600,"station_id":"ce4bgvp2rcd13ifvqcu0","pricing_plan_id":"cebpf4jnsgd1na2vs0mg"},{"bike_id":"5010097d-7ff6-4cb9-bb3d-6c98ad6e23da","system_id":"levelo_inurba_marseille","lat":43.25119,"lon":5.40327,"is_reserved":false,"is_disabled":false,"rental_uris":{"android":"levelo://app?vid=5010097d-7ff6-4cb9-bb3d-6c98ad6e23da","ios":"levelo://app?vid=5010097d-7ff6-4cb9-bb3d-6c98ad6e23da"},"vehicle_type_id":"4","last_reported":1740471159,"current_range_meters":25200,"station_id":"ce4bhlh2rcd13ifvqgig","pricing_plan_id":"cebpf4jnsgd1na2vs0mg"},{"bike_id":"c5291204-ae35-4ce6-9e15-bffed3536467","system_id":"levelo_inurba_marseille","lat":43.33058,"lon":5.40837,"is_reserved":false,"is_disabled":false,"rental_uris":{"android":"levelo://app?vid=c5291204-ae35-4ce6-9e15-bffed3536467","ios":"levelo://app?vid=c5291204-ae35-4ce6-9e15-bffed3536467"},"vehicle_type_id":"4","last_reported":1740471159,"current_range_meters":25600,"station_id":"","pricing_plan_id":"cebpf4jnsgd1na2vs0mg"},{"bike_id":"b3703b6e-165c-4326-a14f-331e9fdc866e","system_id":"levelo_inurba_marseille","lat":43.30954,"lon":5.40151,"is_reserved":false,"is_disabled":false,"rental_uris":{"android":"levelo://app?vid=b3703b6e-165c-4326-a14f-331e9fdc866e","ios":"levelo://app?vid=b3703b6e-165c-4326-a14f-331e9fdc866e"},"vehicle_type_id":"4","last_reported":1740471159,"current_range_meters":26800,"station_id":"ce4bgvp2rcd13ifvqct0","pricing_plan_id":"cebpf4jnsgd1na2vs0mg"},{"bike_id":"65e623cd-fcc4-42e1-8726-6f34c2eb528f","system_id":"levelo_inurba_marseille","lat":43.30912,"lon":5.3684,"is_reserved":false,"is_disabled":false,"rental_uris":{"android":"levelo://app?vid=65e623cd-fcc4-42e1-8726-6f34c2eb528f","ios":"levelo://app?vid=65e623cd-fcc4-42e1-8726-6f34c2eb528f"},"vehicle_type_id":"4","last_reported":1740471159,"current_range_meters":25600,"station_id":"ce4bhah2rcd13ifvqei0","pricing_plan_id":"cebpf4jnsgd1na2vs0mg"},{"bike_id":"9f2ed4f1-2485-4d7f-8cd9-aa6e53cb7ed5","system_id":"levelo_inurba_marseille","lat":43.25721,"lon":5.41127,"is_reserved":false,"is_disabled":false,"rental_uris":{"android":"levelo://app?vid=9f2ed4f1-2485-4d7f-8cd9-aa6e53cb7ed5","ios":"levelo://app?vid=9f2ed4f1-2485-4d7f-8cd9-aa6e53cb7ed5"},"vehicle_type_id":"4","last_reported":1740471159,"current_range_meters":26000,"station_id":"ce4bhkp2rcd13ifvqgd0","pricing_plan_id":"cebpf4jnsgd1na2vs0mg"},{"bike_id":"e116a813-10c8-422d-b6e3-00240506658c","system_id":"levelo_inurba_marseille","lat":43.28157,"lon":5.4263,"is_reserved":false,"is_disabled":true,"rental_uris":{"android":"levelo://app?vid=e116a813-10c8-422d-b6e3-00240506658c","ios":"levelo://app?vid=e116a813-10c8-422d-b6e3-00240506658c"},"vehicle_type_id":"4","last_reported":1740471159,"current_range_meters":25600,"station_id":"ce4bhnh2rcd13ifvqgug","pricing_plan_id":"cebpf4jnsgd1na2vs0mg"},{"bike_id":"cdd671cd-d297-43a1-9fb7-92bcfbd4b7b7","system_id":"levelo_inurba_marseille","lat":43.25096,"lon":5.39503,"is_reserved":false,"is_disabled":false,"rental_uris":{"android":"levelo://app?vid=cdd671cd-d297-43a1-9fb7-92bcfbd4b7b7","ios":"levelo://app?vid=cdd671cd-d297-43a1-9fb7-92bcfbd4b7b7"},"vehicle_type_id":"4","last_reported":1740471159,"current_range_meters":26000,"station_id":"ce4bhm12rcd13ifvqgkg","pricing_plan_id":"cebpf4jnsgd1na2vs0mg"},{"bike_id":"c394a265-4b16-4a53-a239-6e35c9a75090","system_id":"levelo_inurba_marseille","lat":43.27947,"lon":5.41055,"is_reserved":false,"is_disabled":false,"rental_uris":{"android":"levelo://app?vid=c394a265-4b16-4a53-a239-6e35c9a75090","ios":"levelo://app?vid=c394a265-4b16-4a53-a239-6e35c9a75090"},"vehicle_type_id":"4","last_reported":1740471159,"current_range_meters":26000,"station_id":"ce4bhnp2rcd13ifvqh0g","pricing_plan_id":"cebpf4jnsgd1na2vs0mg"},{"bike_id":"43d6aa6f-20c7-4a1b-bcb8-31b660876567","system_id":"levelo_inurba_marseille","lat":43.26559,"lon":5.37286,"is_reserved":false,"is_disabled":false,"rental_uris":{"android":"levelo://app?vid=43d6aa6f-20c7-4a1b-bcb8-31b660876567","ios":"levelo://app?vid=43d6aa6f-20c7-4a1b-bcb8-31b660876567"},"vehicle_type_id":"4","last_reported":1740471159,"current_range_meters":26000,"station_id":"ce4bhg12rcd13ifvqf70","pricing_plan_id":"cebpf4jnsgd1na2vs0mg"},