{"last_updated":1736525499,"ttl":60,"version":"2.2","data":{"bikes":[{"bike_id":"4a0516f0-920d-4a64-948c-00d83b3d86de","system_id":"levelo_inurba_marseille","lat":43.28157,"lon":5.4264,"is_reserved":false,"is_disabled":false,"rental_uris":{"android":"levelo://app?vid=4a0516f0-920d-4a64-948c-00d83b3d86de","ios":"levelo://app?vid=4a0516f0-920d-4a64-948c-00d83b3d86de"},"vehicle_type_id":"4","last_reported":1736525499,"current_range_meters":33600,"station_id":"ce4bhnh2rcd13ifvqgug","pricing_plan_id":"cebpf4jnsgd1na2vs0mg"},{"bike_id":"14a8245a-9128-40d3-8265-cf1423d2fdc8","system_id":"levelo_inurba_marseille","lat":43.24823,"lon":5.37478,"is_reserved":false,"is_disabled":false,"rental_uris":{"android":"levelo://app?vid=14a8245a-9128-40d3-8265-cf1423d2fdc8","ios":"levelo://app?vid=14a8245a-9128-40d3-8265-cf1423d2fdc8"},"vehicle_type_id":"4","last_reported":1736525499,"current_range_meters":38800,"station_id":"ce4bhgh2rcd13ifvqfb0","pricing_plan_id":"cebpf4jnsgd1na2vs0mg"},{"bike_id":"9ff24b9e-60a3-48d4-8cde-0ae6dfde2dc8","system_id":"levelo_inurba_marseille","lat":43.33027,"lon":5.39028,"is_reserved":false,"is_disabled":false,"rental_uris":{"android":"levelo://app?vid=9ff24b9e-60a3-48d4-8cde-0ae6dfde2dc8","ios":"levelo://app?vid=9ff24b9e-60a3-48d4-8cde-0ae6dfde2dc8"},"vehicle_type_id":"4","last_reported":1736525499,"current_range_meters":33200,"station_id":"ce4bhr92rcd13ifvqhrg","pricing_plan_id":"cebpf4jnsgd1na2vs0mg"},{"bike_id":"b726806f-90dc-4107-9399-3e91fe6e488f","system_id":"levelo_inurba_marseille","lat":43.28978,"lon":5.37826,"is_reserved":false,"is_disabled":false,"rental_uris":{"android":"levelo://app?vid=b726806f-90dc-4107-9399-3e91fe6e488f","ios":"levelo://app?vid=b726806f-90dc-4107-9399-3e91fe6e488f"},"vehicle_type_id":"4","last_reported":1736525499,"current_range_meters":16800,"station_id":"ce4bh9p2rcd13ifvqed0","pricing_plan_id":"cebpf4jnsgd1na2vs0mg"},{"bike_id":"6369c140-3323-465a-a3e4-b9f4b2637437","system_id":"levelo_inurba_marseille","lat":43.25918,"lon":5.40896,"is_reserved":false,"is_disabled":false,"rental_uris":{"android":"levelo://app?vid=6369c140-3323-465a-a3e4-b9f4b2637437","ios":"levelo://app?vid=6369c140-3323-465a-a3e4-b9f4b2637437"},"vehicle_type_id":"4","last_reported":1736525499,"current_range_meters":29600,"station_id":"ce4bhm92rcd13ifvqglg","pricing_plan_id":"cebpf4jnsgd1na2vs0mg"},{"bike_id":"6b3e4da5-765c-43be-9d90-3ccb5342f422","system_id":"levelo_inurba_marseille","lat":43.27058,"lon":5.40265,"is_reserved":false,"is_disabled":false,"rental_uris":{"android":"levelo://app?vid=6b3e4da5-765c-43be-9d90-3ccb5342f422","ios":"levelo://app?vid=6b3e4da5-765c-43be-9d90-3ccb5342f422"},"vehicle_type_id":"4","last_reported":1736525499,"current_range_meters":33200,"station_id":"ce4bhk92rcd13ifvqgc0","pricing_plan_id":"cebpf4jnsgd1na2vs0mg"},{"bike_id":"1ecf36f3-78ef-4170-9998-a2e0fc18265b","system_id":"levelo_inurba_marseille","lat":43.31709,"lon":5.37757,"is_reserved":false,"is_disabled":false,"rental_uris":{"android":"levelo://app?vid=1ecf36f3-78ef-4170-9998-a2e0fc18265b","ios":"levelo://app?vid=1ecf36f3-78ef-4170-9998-a2e0fc18265b"},"vehicle_type_id":"4","last_reported":1736525499,"current_range_meters":19200,"station_id":"ce4bgth2rcd13ifvqch0","pricing_plan_id":"cebpf4jnsgd1na2vs0mg"},{"bike_id":"cca8daa2-835d-4373-8bf2-da5672d50807","system_id":"levelo_inurba_marseille","lat":43.28567,"lon":5.39488,"is_reserved":false,"is_disabled":false,"rental_uris":{"android":"levelo://app?vid=cca8daa2-835d-4373-8bf2-da5672d50807","ios":"levelo://app?vid=cca8daa2-835d-4373-8bf2-da5672d50807"},"vehicle_type_id":"4","last_reported":1736525499,"current_range_meters":6800,"station_id":"ce4bh292rcd13ifvqdg0","pricing_plan_id":"cebpf4jnsgd1na2vs0mg"},{"bike_id":"a444a04d-7a75-4bb0-b921-23a4f692b157","system_id":"levelo_inurba_marseille","lat":43.24653,"lon":5.38886,"is_reserved":false,"is_disabled":false,"rental_uris":{"android":"levelo://app?vid=a444a04d-7a75-4bb0-b921-23a4f692b157","ios":"levelo://app?vid=a444a04d-7a75-4bb0-b921-23a4f692b157"},"vehicle_type_id":"4","last_reported":1736525499,"current_range_meters":18800,"station_id":"ce4bhg12rcd13ifvqf60","pricing_plan_id":"cebpf4jnsgd1na2vs0mg"},{"bike_id":"fd55126c-9c0e-4404-b02f-1fbbe0747ddf","system_id":"levelo_inurba_marseille","lat":43.28345,"lon":5.38102,"is_reserved":false,"is_disabled":false,"rental_uris":{"android":"levelo://app?vid=fd55126c-9c0e-4404-b02f-1fbbe0747ddf","ios":"levelo://app?vid=fd55126c-9c0e-4404-b02f-1fbbe0747ddf"},"vehicle_type_id":"4","last_reported":1736525499,"current_range_meters":23200,"station_id":"ce4bh412rcd13ifvqdr0","pricing_plan_id":"cebpf4jnsgd1na2vs0mg"},{"bike_id":"bb1c625a-b4e5-4895-b13f-cf0f9113de05","system_id":"levelo_inurba_marseille","lat":43.29192,"lon":5.39319,"is_reserved":false,"is_disabled":false,"rental_uris":{"android":"levelo://app?vid=bb1c625a-b4e5-4895-b13f-cf0f9113de05","ios":"levelo://app?vid=bb1c625a-b4e5-4895-b13f-cf0f9113de05"},"vehicle_type_id":"4","last_reported":1736525499,"current_range_meters":36400,"station_id":"ce4bh192rcd13ifvqdd0","pricing_plan_id":"cebpf4jnsgd1na2vs0mg"},{"bike_id":"cd89cd8e-e7ff-41b9-9b28-3d8dceb1ed86","system_id":"levelo_inurba_marseille","lat":43.31114,"lon":5.37771,"is_reserved":false,"is_disabled":false,"rental_uris":{"android":"levelo://app?vid=cd89cd8e-e7ff-41b9-9b28-3d8dceb1ed86","ios":"levelo://app?vid=cd89cd8e-e7ff-41b9-9b28-3d8dceb1ed86"},"vehicle_type_id":"4","last_reported":1736525499,"current_range_meters":31200,"station_id":"ce4bgt92rcd13ifvqcg0","pricing_plan_id":"cebpf4jnsgd1na2vs0mg"},{"bike_id":"9b9f7a00-78fa-4c6e-9a55-5c7cdd99b601","system_id":"levelo_inurba_marseille","lat":43.28028,"lon":5.36933,"is_reserved":false,"is_disabled":false,"rental_uris":{"android":"levelo://app?vid=9b9f7a00-78fa-4c6e-9a55-5c7cdd99b601","ios":"levelo://app?vid=9b9f7a00-78fa-4c6e-9a55-5c7cdd99b601"},"vehicle_type_id":"4","last_reported":1736525499,"current_range_meters":38800,"station_id":"ce4bha12rcd13ifvqef0","pricing_plan_id":"cebpf4jnsgd1na2vs0mg"},{"bike_id":"fc5fa814-735d-4201-841a-51d1951cef89","system_id":"levelo_inurba_marseille","lat":43.29435,"lon":5.39758,"is_reserved":false,"is_disabled":false,"rental_uris":{"android":"levelo://app?vid=fc5fa814-735d-4201-841a-51d1951cef89","ios":"levelo://app?vid=fc5fa814-735d-4201-841a-51d1951cef89"},"vehicle_type_id":"4","last_reported":1736525499,"current_range_meters":12400,"station_id":"ce4bh3h2rcd13ifvqdo0","pricing_plan_id":"cebpf4jnsgd1na2vs0mg"},{"bike_id":"13b473bc-816f-467e-ae12-cfad637a890c","system_id":"levelo_inurba_marseille","lat":43.27428,"lon":5.394,"is_reserved":false,"is_disabled":true,"rental_uris":{"android":"levelo://app?vid=13b473bc-816f-467e-ae12-cfad637a890c","ios":"levelo://app?vid=13b473bc-816f-467e-ae12-cfad637a890c"},"vehicle_type_id":"4","last_reported":1736525499,"current_range_meters":1600,"station_id":"ce4bhdp2rcd13ifvqf20","pricing_plan_id":"cebpf4jnsgd1na2vs0mg"},{"bike_id":"18ee749d-e549-4ed8-90be-f6854a8fecca","system_id":"levelo_inurba_marseille","lat":43.23183,"lon":5.39991,"is_reserved":false,"is_disabled":false,"rental_uris":{"android":"levelo://app?vid=18ee749d-e549-4ed8-90be-f6854a8fecca","ios":"levelo://app?vid=18ee749d-e549-4ed8-90be-f6854a8fecca"},"vehicle_type_id":"4","last_reported":1736525499,"current_range_meters":27200,"station_id":"ce4bhn12rcd13ifvqgqg","pricing_plan_id":"cebpf4jnsgd1na2vs0mg"},{"bike_id":"1c40deab-fbff-4c5b-b64d-773745c63157","system_id":"levelo_inurba_marseille","lat":43.3093,"lon":5.4014,"is_reserved":false,"is_disabled":false,"rental_uris":{"android":"levelo://app?vid=1c40deab-fbff-4c5b-b64d-773745c63157","ios":"levelo://app?vid=1c40deab-fbff-4c5b-b64d-773745c63157"},"vehicle_type_id":"4","last_reported":1736525499,"current_range_meters":12000,"station_id":"ce4bgvp2rcd13ifvqct0","pricing_plan_id":"cebpf4jnsgd1na2vs0mg"},{"bike_id":"004c2ac5-7f25-4e48-8a80-9a02537f6ba6","system_id":"levelo_inurba_marseille","lat":43.3211,"lon":5.36779,"is_reserved":false,"is_disabled":false,"rental_uris":{"android":"levelo://app?vid=004c2ac5-7f25-4e48-8a80-9a02537f6ba6","ios":"levelo://app?vid=004c2ac5-7f25-4e48-8a80-9a02537f6ba6"},"vehicle_type_id":"4","last_reported":1736525499,"current_range_meters":35600,"station_id":"ce4bhrh2rcd13ifvqhug","pricing_plan_id":"cebpf4jnsgd1na2vs0mg"},{"bike_id":"49d154ab-b066-4a04-b00a-22a27742a39e","system_id":"levelo_inurba_marseille","lat":43.24162,"lon":5.39753,"is_reserved":false,"is_disabled":false,"rental_uris":{"android":"levelo://app?vid=49d154ab-b066-4a04-b00a-22a27742a39e","ios":"levelo://app?vid=49d154ab-b066-4a04-b00a-22a27742a39e"},"vehicle_type_id":"4","last_reported":1736525499,"current_range_meters":38800,"station_id":"ce4bhn12rcd13ifvqgpg","pricing_plan_id":"cebpf4jnsgd1na2vs0mg"},{"bike_id":"aca9d58c-8821-4d79-88c1-67c3a044952f","system_id":"levelo_inurba_marseille","lat":43.33045,"lon":5.39044,"is_reserved":false,"is_disabled":false,"rental_uris":{"android":"levelo://app?vid=aca9d58c-8821-4d79-88c1-67c3a044952f","ios":"levelo://app?vid=aca9d58c-8821-4d79-88c1-67c3a044952f"},"vehicle_type_id":"4","last_reported":1736525499,"current_range_meters":25200,"station_id":"ce4bhr92rcd13ifvqhrg","pricing_plan_id":"cebpf4jnsgd1na2vs0mg"},{"bike_id":"267fed3f-6012-4351-9059-bf7ab55122e9","system_id":"levelo_inurba_marseille","lat":43.30244,"lon":5.40052,"is_reserved":false,"is_disabled":false,"rental_uris":{"android":"levelo://app?vid=267fed3f-6012-4351-9059-bf7ab55122e9","ios":"levelo://app?vid=267fed3f-6012-4351-9059-bf7ab55122e9"},"vehicle_type_id":"4","last_reported":1736525499,"current_range_meters":14800,"station_id":"ce4bgvh2rcd13ifvqcs0","pricing_plan_id":"cebpf4jnsgd1na2vs0mg"},{"bike_id":"9f35e75c-ba6d-4f8b-b521-eefbbebfb95e","system_id":"levelo_inurba_marseille","lat":43.24662,"lon":5.38165,"is_reserved":false,"is_disabled":false,"rental_uris":{"android":"levelo://app?vid=9f35e75c-ba6d-4f8b-b521-eefbbebfb95e","ios":"levelo://app?vid=9f35e75c-ba6d-4f8b-b521-eefbbebfb95e"},"vehicle_type_id":"4","last_reported":1736525499,"current_range_meters":16000,"station_id":"ce4bhih2rcd13ifvqfr0","pricing_plan_id":"cebpf4jnsgd1na2vs0mg"},{"bike_id":"1f2e003a-e38e-40ad-918a-9f1b5a334195","system_id":"levelo_inurba_marseille","lat":43.31357,"lon":5.38499,"is_reserved":false,"is_disabled":false,"rental_uris":{"android":"levelo://app?vid=1f2e003a-e38e-40ad-918a-9f1b5a334195","ios":"levelo://app?vid=1f2e003a-e38e-40ad-918a-9f1b5a334195"},"vehicle_type_id":"4","last_reported":1736525499,"current_range_meters":24400,"station_id":"ce4bgt92rcd13ifvqcf0","pricing_plan_id":"cebpf4jnsgd1na2vs0mg"},{"bike_id":"1897ca13-53e7-4d66-b244-bbfe3dca73f1","system_id":"levelo_inurba_marseille","lat":43.27318,"lon":5.39068,"is_reserved":false,"is_disabled":false,"rental_uris":{"android":"levelo://app?vid=1897ca13-53e7-4d66-b244-bbfe3dca73f1","ios":"levelo://app?vid=1897ca13-53e7-4d66-b244-bbfe3dca73f1"},"vehicle_type_id":"4","last_reported":1736525499,"current_range_meters":12800,"station_id":"ce4bhgp2rcd13ifvqfe0","pricing_plan_id":"cebpf4jnsgd1na2vs0mg"},{"bike_id":"3e35ef7b-3237-4c6e-a7b1-693543e13672","system_id":"levelo_inurba_marseille","lat":43.2465,"lon":5.38887,"is_reserved":false,"is_disabled":false,"rental_uris":{"android":"levelo://app?vid=3e35ef7b-3237-4c6e-a7b1-693543e13672","ios":"levelo://app?vid=3e35ef7b-3237-4c6e-a7b1-693543e13672"},"vehicle_type_id":"4","last_reported":1736525499,"current_range_meters":32800,"station_id":"ce4bhg12rcd13ifvqf60","pricing_plan_id":"cebpf4jnsgd1na2vs0mg"},{"bike_id":"531dbdfa-6a68-4371-989b-04c400665064","system_id":"levelo_inurba_marseille","lat":43.30138,"lon":5.39852,"is_reserved":false,"is_disabled":false,"rental_uris":{"android":"levelo://app?vid=531dbdfa-6a68-4371-989b-04c400665064","ios":"levelo://app?vid=531dbdfa-6a68-4371-989b-04c400665064"},"vehicle_type_id":"4","last_reported":1736525499,"current_range_meters":26800,"station_id":"ce4bh0h2rcd13ifvqd40","pricing_plan_id":"cebpf4jnsgd1na2vs0mg"},{"bike_id":"71cf82d9-2798-42b4-a4cc-4ab59dd88803","system_id":"levelo_inurba_marseille","lat":43.2319,"lon":5.39976,"is_reserved":false,"is_disabled":false,"rental_uris":{"android":"levelo://app?vid=71cf82d9-2798-42b4-a4cc-4ab59dd88803","ios":"levelo://app?vid=71cf82d9-2798-42b4-a4cc-4ab59dd88803"},"vehicle_type_id":"4","last_reported":1736525499,"current_range_meters":7200,"station_id":"ce4bhn12rcd13ifvqgqg","pricing_plan_id":"cebpf4jnsgd1na2vs0mg"},{"bike_id":"40aa582d-815a-4ab4-b49f-d3b3d622ee04","system_id":"levelo_inurba_marseille","lat":43.23061,"lon":5.35491,"is_reserved":false,"is_disabled":false,"rental_uris":{"android":"levelo://app?vid=40aa582d-815a-4ab4-b49f-d3b3d622ee04","ios":"levelo://app?vid=40aa582d-815a-4ab4-b49f-d3b3d622ee04"},"vehicle_type_id":"4","last_reported":1736525499,"current_range_meters":7200,"station_id":"cpo3342slgdg3j2ifvpg","pricing_plan_id":"cebpf4jnsgd1na2vs0mg"},{"bike_id":"6b750947-fb43-40e2-9931-495446cc2b3f","system_id":"levelo_inurba_marseille","lat":43.229247,"lon":5.353732,"is_reserved":false,"is_disabled":false,"rental_uris":{"android":"levelo://app?vid=6b750947-fb43-40e2-9931-495446cc2b3f","ios":"levelo://app?vid=6b750947-fb43-40e2-9931-495446cc2b3f"},"vehicle_type_id":"4","last_reported":1736525499,"current_range_meters":38800,"station_id":"cpo3532slgdg3j2ikp40","pricing_plan_id":"cebpf4jnsgd1na2vs0mg"},{"bike_id":"287f8af8-96bb-4963-839c-8374d1cc00fa","system_id":"levelo_inurba_marseille","lat":43.29597,"lon":5.38101,"is_reserved":false,"is_disabled":false,"rental_uris":{"android":"levelo://app?vid=287f8af8-96bb-4963-839c-8374d1cc00fa","ios":"levelo://app?vid=287f8af8-96bb-4963-839c-8374d1cc00fa"},"vehicle_type_id":"4","last_reported":1736525499,"current_range_meters":28000,"station_id":"ce4bgl12rcd13ifvqbo0","pricing_plan_id":"cebpf4jnsgd1na2vs0mg"},{"bike_id":"a695196c-79fc-477c-ba43-5e8d0411f6ec","system_id":"levelo_inurba_marseille","lat":43.30207,"lon":5.39462,"is_reserved":false,"is_disabled":false,"rental_uris":{"android":"levelo://app?vid=a695196c-79fc-477c-ba43-5e8d0411f6ec","ios":"levelo://app?vid=a695196c-79fc-477c-ba43-5e8d0411f6ec"},"vehicle_type_id":"4","last_reported":1736525499,"current_range_meters":36800,"station_id":"ce4bh0p2rcd13ifvqd70","pricing_plan_id":"cebpf4jnsgd1na2vs0mg"},{"bike_id":"5b79b006-d7c3-4b04-9541-c9d77e2d63cb","system_id":"levelo_inurba_marseille","lat":43.31713,"lon":5.40471,"is_reserved":false,"is_disabled":true,"rental_uris":{"android":"levelo://app?vid=5b79b006-d7c3-4b04-9541-c9d77e2d63cb","ios":"levelo://app?vid=5b79b006-d7c3-4b04-9541-c9d77e2d63cb"},"vehicle_type_id":"4","last_reported":1736525499,"current_range_meters":16800,"station_id":"ce4bh012rcd13ifvqd00","pricing_plan_id":"cebpf4jnsgd1na2vs0mg"},{"bike_id":"1f5ef9f6-050f-4f79-a9ce-badba66ed461","system_id":"levelo_inurba_marseille","lat":43.286437,"lon":5.399593,"is_reserved":false,"is_disabled":false,"rental_uris":{"android":"levelo://app?vid=1f5ef9f6-050f-4f79-a9ce-badba66ed461","ios":"levelo://app?vid=1f5ef9f6-050f-4f79-a9ce-badba66ed461"},"vehicle_type_id":"4","last_reported":1736525499,"current_range_meters":24400,"station_id":"","pricing_plan_id":"cebpf4jnsgd1na2vs0mg"},{"bike_id":"4af16076-0c4c-4b77-bf13-a9dfad761f4a","system_id":"levelo_inurba_marseille","lat":43.260326,"lon":5.375569,"is_reserved":false,"is_disabled":false,"rental_uris":{"android":"levelo://app?vid=4af16076-0c4c-4b77-bf13-a9dfad761f4a","ios":"levelo://app?vid=4af16076-0c4c-4b77-bf13-a9dfad761f4a"},"vehicle_type_id":"4","last_reported":1736525499,"current_range_meters":34800,"station_id":"ce4bhgh2rcd13ifvqfa0","pricing_plan_id":"cebpf4jnsgd1na2vs0mg"},{"bike_id":"79da2544-1cc6-4479-aa5c-48161bc5839b","system_id":"levelo_inurba_marseille","lat":43.30416,"lon":5.39747,"is_reserved":false,"is_disabled":true,"rental_uris":{"android":"levelo://app?vid=79da2544-1cc6-4479-aa5c-48161bc5839b","ios":"levelo://app?vid=79da2544-1cc6-4479-aa5c-48161bc5839b"},"vehicle_type_id":"4","last_reported":1736525499,"current_range_meters":30800,"station_id":"ce4bh092rcd13ifvqd20","pricing_plan_id":"cebpf4jnsgd1na2vs0mg"},{"bike_id":"354affe1-c6a9-4a12-959f-abb3e9e909dd","system_id":"levelo_inurba_marseille","lat":43.29028,"lon":5.38639,"is_reserved":false,"is_disabled":false,"rental_uris":{"android":"levelo://app?vid=354affe1-c6a9-4a12-959f-abb3e9e909dd","ios":"levelo://app?vid=354affe1-c6a9-4a12-959f-abb3e9e909dd"},"vehicle_type_id":"4","last_reported":1736525499,"current_range_meters":11600,"station_id":"ce4bh4p2rcd13ifvqe0g","pricing_plan_id":"cebpf4jnsgd1na2vs0mg"},{"bike_id":"6d907632-b7a4-409f-98d5-031bae93ab87","system_id":"levelo_inurba_marseille","lat":43.2396,"lon":5.36627,"is_reserved":false,"is_disabled":false,"rental_uris":{"android":"levelo://app?vid=6d907632-b7a4-409f-98d5-031bae93ab87","ios":"levelo://app?vid=6d907632-b7a4-409f-98d5-031bae93ab87"},"vehicle_type_id":"4","last_reported":1736525499,"current_range_meters":38800,"station_id":"ce4bhi12rcd13ifvqfp0","pricing_plan_id":"cebpf4jnsgd1na2vs0mg"},{"bike_id":"0f5563d6-0941-46ef-98a9-a8cb65f72164","system_id":"levelo_inurba_marseille","lat":43.28462,"lon":5.35885,"is_reserved":false,"is_disabled":false,"rental_uris":{"android":"levelo://app?vid=0f5563d6-0941-46ef-98a9-a8cb65f72164","ios":"levelo://app?vid=0f5563d6-0941-46ef-98a9-a8cb65f72164"},"vehicle_type_id":"4","last_reported":1736525499,"current_range_meters":12400,"station_id":"ce4bhah2rcd13ifvqei0","pricing_plan_id":"cebpf4jnsgd1na2vs0mg"},{"bike_id":"a32b2dfc-af23-42dc-a0fd-205aa8242f3d","system_id":"levelo_inurba_marseille","lat":43.27552,"lon":5.38409,"is_reserved":false,"is_disabled":false,"rental_uris":{"android":"levelo://app?vid=a32b2dfc-af23-42dc-a0fd-205aa8242f3d","ios":"levelo://app?vid=a32b2dfc-af23-42dc-a0fd-205aa8242f3d"},"vehicle_type_id":"4","last_reported":1736525499,"current_range_meters":29600,"station_id":"ce4bhh92rcd13ifvqfi0","pricing_plan_id":"cebpf4jnsgd1na2vs0mg"},{"bike_id":"237b367f-69c6-422c-b184-44b6091e4d4e","system_id":"levelo_inurba_marseille","lat":43.23959,"lon":5.36647,"is_reserved":false,"is_disabled":false,"rental_uris":{"android":"levelo://app?vid=237b367f-69c6-422c-b184-44b6091e4d4e","ios":"levelo://app?vid=237b367f-69c6-422c-b184-44b6091e4d4e"},"vehicle_type_id":"4","last_reported":1736525499,"current_range_meters":27600,"station_id":"ce4bhi12rcd13ifvqfp0","pricing_plan_id":"cebpf4jnsgd1na2vs0mg"},{"bike_id":"b7612839-10e2-4f7c-91ee-7e7922563c42","system_id":"levelo_inurba_marseille","lat":43.28437,"lon":5.392,"is_reserved":false,"is_disabled":false,"rental_uris":{"android":"levelo://app?vid=b7612839-10e2-4f7c-91ee-7e7922563c42","ios":"levelo://app?vid=b7612839-10e2-4f7c-91ee-7e7922563c42"},"vehicle_type_id":"4","last_reported":1736525499,"current_range_meters":26000,"station_id":"ce4bhoh2rcd13ifvqh5g","pricing_plan_id":"cebpf4jnsgd1na2vs0mg"},{"bike_id":"effc1ad2-81ea-450d-94d8-ec07ff8f2ba0","system_id":"levelo_inurba_marseille","lat":43.24543,"lon":5.39523,"is_reserved":false,"is_disabled":false,"rental_uris":{"android":"levelo://app?vid=effc1ad2-81ea-450d-94d8-ec07ff8f2ba0","ios":"levelo://app?vid=effc1ad2-81ea-450d-94d8-ec07ff8f2ba0"},"vehicle_type_id":"4","last_reported":1736525499,"current_range_meters":37600,"station_id":"ce4bhlp2rcd13ifvqgjg","pricing_plan_id":"cebpf4jnsgd1na2vs0mg"},{"bike_id":"2f3e1caf-138e-4dea-91c4-b759d04d2ad6","system_id":"levelo_inurba_marseille","lat":43.29291,"lon":5.37126,"is_reserved":false,"is_disabled":false,"rental_uris":{"android":"levelo://app?vid=2f3e1caf-138e-4dea-91c4-b759d04d2ad6","ios":"levelo://app?vid=2f3e1caf-138e-4dea-91c4-b759d04d2ad6"},"vehicle_type_id":"4","last_reported":1736525499,"current_range_meters":39200,"station_id":"ce4bgh92rcd13ifvqb40","pricing_plan_id":"cebpf4jnsgd1na2vs0mg"},{"bike_id":"1bdc7dfa-1c34-4b77-9f1a-27ef1e629964","system_id":"levelo_inurba_marseille","lat":43.27319,"lon":5.39074,"is_reserved":false,"is_disabled":false,"rental_uris":{"android":"levelo://app?vid=1bdc7dfa-1c34-4b77-9f1a-27ef1e629964","ios":"levelo://app?vid=1bdc7dfa-1c34-4b77-9f1a-27ef1e629964"},"vehicle_type_id":"4","last_reported":1736525499,"current_range_meters":24800,"station_id":"ce4bhgp2rcd13ifvqfe0","pricing_plan_id":"cebpf4jnsgd1na2vs0mg"},{"bike_id":"c7abeb44-8217-484e-bb70-10161fb311b5","system_id":"levelo_inurba_marseille","lat":43.27934,"lon":5.41041,"is_reserved":false,"is_disabled":false,"rental_uris":{"android":"levelo://app?vid=c7abeb44-8217-484e-bb70-10161fb311b5","ios":"levelo://app?vid=c7abeb44-8217-484e-bb70-10161fb311b5"},"vehicle_type_id":"4","last_reported":1736525499,"current_range_meters":30400,"station_id":"ce4bhnp2rcd13ifvqh0g","pricing_plan_id":"cebpf4jnsgd1na2vs0mg"},{"bike_id":"f8f038bf-963e-4cc7-92aa-d346a08a0d6a","system_id":"levelo_inurba_marseille","lat":43.274222,"lon":5.394133,"is_reserved":false,"is_disabled":false,"rental_uris":{"android":"levelo://app?vid=f8f038bf-963e-4cc7-92aa-d346a08a0d6a","ios":"levelo://app?vid=f8f038bf-963e-4cc7-92aa-d346a08a0d6a"},"vehicle_type_id":"4","last_reported":1736525499,"current_range_meters":38000,"station_id":"ce4bhdp2rcd13ifvqf20","pricing_plan_id":"cebpf4jnsgd1na2vs0mg"},{"bike_id":"68de5a44-ab94-41dc-90c9-34b01f76de5a","system_id":"levelo_inurba_marseille","lat":43.299575,"lon":5.37176,"is_reserved":false,"is_disabled":false,"rental_uris":{"android":"levelo://app?vid=68de5a44-ab94-41dc-90c9-34b01f76de5a","ios":"levelo://app?vid=68de5a44-ab94-41dc-90c9-34b01f76de5a"},"vehicle_type_id":"4","last_reported":1736525499,"current_range_meters":22400,"station_id":"ce4bgr92rcd13ifvqc7g","pricing_plan_id":"cebpf4jnsgd1na2vs0mg"},{"bike_id":"426ee80e-06b0-4d0f-86a5-ea8ad64aaa11","system_id":"levelo_inurba_marseille","lat":43.28929,"lon":5.43771,"is_reserved":false,"is_disabled":false,"rental_uris":{"android":"levelo://app?vid=426ee80e-06b0-4d0f-86a5-ea8ad64aaa11","ios":"levelo://app?vid=426ee80e-06b0-4d0f-86a5-ea8ad64aaa11"},"vehicle_type_id":"4","last_reported":1736525499,"current_range_meters":20800,"station_id":"","pricing_plan_id":"cebpf4jnsgd1na2vs0mg"},{"bike_id":"c465a6a1-f799-409e-939f-1bf09d90a02a","system_id":"levelo_inurba_marseille","lat":43.29784,"lon":5.39341,"is_reserved":false,"is_disabled":false,"rental_uris":{"android":"levelo://app?vid=c465a6a1-f799-409e-939f-1bf09d90a02a","ios":"levelo://app?vid=c465a6a1-f799-409e-939f-1bf09d90a02a"},"vehicle_type_id":"4","last_reported":1736525499,"current_range_meters":19600,"station_id":"chh1huq6cuj3fo74tm60","pricing_plan_id":"cebpf4jnsgd1na2vs0mg"},{"bike_id":"5ca61d7c-4cce-4318-abf1-81f79230ef6c","system_id":"levelo_inurba_marseille","lat":43.31008,"lon":5.37525,"is_reserved":false,"is_disabled":false,"rental_uris":{"android":"levelo://app?vid=5ca61d7c-4cce-4318-abf1-81f79230ef6c","ios":"levelo://app?vid=5ca61d7c-4cce-4318-abf1-81f79230ef6c"},"vehicle_type_id":"4","last_reported":1736525499,"current_range_meters":26000,"station_id":"","pricing_plan_id":"cebpf4jnsgd1na2vs0mg"},{"bike_id":"49fa6fa9-e214-43cb-b6a1-e9c3251ac00a","system_id":"levelo_inurba_marseille","lat":43.25866,"lon":5.3991,"is_reserved":false,"is_disabled":false,"rental_uris":{"android":"levelo://app?vid=49fa6fa9-e214-43cb-b6a1-e9c3251ac00a","ios":"levelo://app?vid=49fa6fa9-e214-43cb-b6a1-e9c3251ac00a"},"vehicle_type_id":"4","last_reported":1736525499,"current_range_meters":8400,"station_id":"ce4bhl92rcd13ifvqghg","pricing_plan_id":"cebpf4jnsgd1na2vs0mg"},{"bike_id":"f95daa3e-08e9-41b2-ad25-d5582d5f5b64","system_id":"levelo_inurba_marseille","lat":43.27219,"lon":5.39197,"is_reserved":false,"is_disabled":false,"rental_uris":{"android":"levelo://app?vid=f95daa3e-08e9-41b2-ad25-d5582d5f5b64","ios":"levelo://app?vid=f95daa3e-08e9-41b2-ad25-d5582d5f5b64"},"vehicle_type_id":"4","last_reported":1736525499,"current_range_meters":36800,"station_id":"ce4bhhp2rcd13ifvqfm0","pricing_plan_id":"cebpf4jnsgd1na2vs0mg"},{"bike_id":"ad382853-925f-458c-8cbf-9b7a7dedfb29","system_id":"levelo_inurba_marseille","lat":43.29806,"lon":5.38109,"is_reserved":false,"is_disabled":false,"rental_uris":{"android":"levelo://app?vid=ad382853-925f-458c-8cbf-9b7a7dedfb29","ios":"levelo://app?vid=ad382853-925f-458c-8cbf-9b7a7dedfb29"},"vehicle_type_id":"4","last_reported":1736525499,"current_range_meters":4800,"station_id":"ce4bgip2rcd13ifvqbb0","pricing_plan_id":"cebpf4jnsgd1na2vs0mg"},{"bike_id":"819e9877-d561-4552-865a-627808046d3d","system_id":"levelo_inurba_marseille","lat":43.29983,"lon":5.38485,"is_reserved":false,"is_disabled":true,"rental_uris":{"android":"levelo://app?vid=819e9877-d561-4552-865a-627808046d3d","ios":"levelo://app?vid=819e9877-d561-4552-865a-627808046d3d"},"vehicle_type_id":"4","last_reported":1736525499,"current_range_meters":27600,"station_id":"ce4bgj92rcd13ifvqbd0","pricing_plan_id":"cebpf4jnsgd1na2vs0mg"},{"bike_id":"d67addf5-55ae-4b6d-a38e-ccfa6c336ef7","system_id":"levelo_inurba_marseille","lat":43.3136,"lon":5.385,"is_reserved":false,"is_disabled":true,"rental_uris":{"android":"levelo://app?vid=d67addf5-55ae-4b6d-a38e-ccfa6c336ef7","ios":"levelo://app?vid=d67addf5-55ae-4b6d-a38e-ccfa6c336ef7"},"vehicle_type_id":"4","last_reported":1736525499,"current_range_meters":0,"station_id":"ce4bgt92rcd13ifvqcf0","pricing_plan_id":"cebpf4jnsgd1na2vs0mg"},{"bike_id":"62dd21a1-19b6-409e-8eba-80c35218abba","system_id":"levelo_inurba_marseille","lat":43.31756,"lon":5.39024,"is_reserved":false,"is_disabled":false,"rental_uris":{"android":"levelo://app?vid=62dd21a1-19b6-409e-8eba-80c35218abba","ios":"levelo://app?vid=62dd21a1-19b6-409e-8eba-80c35218abba"},"vehicle_type_id":"4","last_reported":1736525499,"current_range_meters":38000,"station_id":"ce4bhqp2rcd13ifvqhng","pricing_plan_id":"cebpf4jnsgd1na2vs0mg"},{"bike_id":"f30841b6-3956-4561-a57a-3c71bf5282e6","system_id":"levelo_inurba_marseille","lat":43.29194,"lon":5.39326,"is_reserved":false,"is_disabled":false,"rental_uris":{"android":"levelo://app?vid=f30841b6-3956-4561-a57a-3c71bf5282e6","ios":"levelo://app?vid=f30841b6-3956-4561-a57a-3c71bf5282e6"},"vehicle_type_id":"4","last_reported":1736525499,"current_range_meters":8800,"station_id":"ce4bh192rcd13ifvqdd0","pricing_plan_id":"cebpf4jnsgd1na2vs0mg"},{"bike_id":"afe1dfde-0d60-4886-b6a1-cd2ad9b42bf7","system_id":"levelo_inurba_marseille","lat":43.32165,"lon":5.37867,"is_reserved":false,"is_disabled":false,"rental_uris":{"android":"levelo://app?vid=afe1dfde-0d60-4886-b6a1-cd2ad9b42bf7","ios":"levelo://app?vid=afe1dfde-0d60-4886-b6a1-cd2ad9b42bf7"},"vehicle_type_id":"4","last_reported":1736525499,"current_range_meters":28800,"station_id":"","pricing_plan_id":"cebpf4jnsgd1na2vs0mg"},{"bike_id":"2acd9ed5-63bb-408c-a254-c6692f4bcf40","system_id":"levelo_inurba_marseille","lat":43.25582,"lon":5.38231,"is_reserved":false,"is_disabled":false,"rental_uris":{"android":"levelo://app?vid=2acd9ed5-63bb-408c-a254-c6692f4bcf40","ios":"levelo://app?vid=2acd9ed5-63bb-408c-a254-c6692f4bcf40"},"vehicle_type_id":"4","last_reported":1736525499,"current_range_meters":11200,"station_id":"ce4bhih2rcd13ifvqfs0","pricing_plan_id":"cebpf4jnsgd1na2vs0mg"},{"bike_id":"80609ff8-7d7d-4ae2-9159-aea837c7c52b","system_id":"levelo_inurba_marseille","lat":43.23951,"lon":5.36642,"is_reserved":false,"is_disabled":false,"rental_uris":{"android":"levelo://app?vid=80609ff8-7d7d-4ae2-9159-aea837c7c52b","ios":"levelo://app?vid=80609ff8-7d7d-4ae2-9159-aea837c7c52b"},"vehicle_type_id":"4","last_reported":1736525499,"current_range_meters":16000,"station_id":"ce4bhi12rcd13ifvqfp0","pricing_plan_id":"cebpf4jnsgd1na2vs0mg"},{"bike_id":"c1f187e7-2ef7-4a0a-bdb8-e9896554a9e3","system_id":"levelo_inurba_marseille","lat":43.24181,"lon":5.39729,"is_reserved":false,"is_disabled":false,"rental_uris":{"android":"levelo://app?vid=c1f187e7-2ef7-4a0a-bdb8-e9896554a9e3","ios":"levelo://app?vid=c1f187e7-2ef7-4a0a-bdb8-e9896554a9e3"},"vehicle_type_id":"4","last_reported":1736525499,"current_range_meters":29600,"station_id":"ce4bhn12rcd13ifvqgpg","pricing_plan_id":"cebpf4jnsgd1na2vs0mg"},{"bike_id":"f816a0c6-4fe1-41aa-be2a-1639708b029d","system_id":"levelo_inurba_marseille","lat":43.31165,"lon":5.38721,"is_reserved":false,"is_disabled":false,"rental_uris":{"android":"levelo://app?vid=f816a0c6-4fe1-41aa-be2a-1639708b029d","ios":"levelo://app?vid=f816a0c6-4fe1-41aa-be2a-1639708b029d"},"vehicle_type_id":"4","last_reported":1736525499,"current_range_meters":20400,"station_id":"ce4bgv12rcd13ifvqcp0","pricing_plan_id":"cebpf4jnsgd1na2vs0mg"},{"bike_id":"eefc68ee-5d42-41d4-8d86-f3bdf24dec5e","system_id":"levelo_inurba_marseille","lat":43.298,"lon":5.38084,"is_reserved":false,"is_disabled":false,"rental_uris":{"android":"levelo://app?vid=eefc68ee-5d42-41d4-8d86-f3bdf24dec5e","ios":"levelo://app?vid=eefc68ee-5d42-41d4-8d86-f3bdf24dec5e"},"vehicle_type_id":"4","last_reported":1736525499,"current_range_meters":36800,"station_id":"ce4bgip2rcd13ifvqbb0","pricing_plan_id":"cebpf4jnsgd1na2vs0mg"},{"bike_id":"5edb9b21-4917-4f45-9961-6635931db922","system_id":"levelo_inurba_marseille","lat":43.22933,"lon":5.35376,"is_reserved":false,"is_disabled":false,"rental_uris":{"android":"levelo://app?vid=5edb9b21-4917-4f45-9961-6635931db922","ios":"levelo://app?vid=5edb9b21-4917-4f45-9961-6635931db922"},"vehicle_type_id":"4","last_reported":1736525499,"current_range_meters":38800,"station_id":"cpo3532slgdg3j2ikp40","pricing_plan_id":"cebpf4jnsgd1na2vs0mg"},{"bike_id":"6c16b955-c13c-49a6-a5bb-29559922d02c","system_id":"levelo_inurba_marseille","lat":43.23954,"lon":5.36637,"is_reserved":false,"is_disabled":false,"rental_uris":{"android":"levelo://app?vid=6c16b955-c13c-49a6-a5bb-29559922d02c","ios":"levelo://app?vid=6c16b955-c13c-49a6-a5bb-29559922d02c"},"vehicle_type_id":"4","last_reported":1736525499,"current_range_meters":24800,"station_id":"ce4bhi12rcd13ifvqfp0","pricing_plan_id":"cebpf4jnsgd1na2vs0mg"},{"bike_id":"acc57c46-0c06-4767-b429-edb19e5dc1a2","system_id":"levelo_inurba_marseille","lat":43.30154,"lon":5.39867,"is_reserved":false,"is_disabled":false,"rental_uris":{"android":"levelo://app?vid=acc57c46-0c06-4767-b429-edb19e5dc1a2","ios":"levelo://app?vid=acc57c46-0c06-4767-b429-edb19e5dc1a2"},"vehicle_type_id":"4","last_reported":1736525499,"current_range_meters":30400,"station_id":"ce4bh0h2rcd13ifvqd40","pricing_plan_id":"cebpf4jnsgd1na2vs0mg"},{"bike_id":"dd95b172-24fd-4056-9bb1-1ba37d74b460","system_id":"levelo_inurba_marseille","lat":43.25583,"lon":5.38236,"is_reserved":false,"is_disabled":false,"rental_uris":{"android":"levelo://app?vid=dd95b172-24fd-4056-9bb1-1ba37d74b460","ios":"levelo://app?vid=dd95b172-24fd-4056-9bb1-1ba37d74b460"},"vehicle_type_id":"4","last_reported":1736525499,"current_range_meters":16000,"station_id":"ce4bhih2rcd13ifvqfs0","pricing_plan_id":"cebpf4jnsgd1na2vs0mg"},{"bike_id":"fd41f5d5-9738-4a68-9369-1fc80941c005","system_id":"levelo_inurba_marseille","lat":43.24546,"lon":5.39519,"is_reserved":false,"is_disabled":false,"rental_uris":{"android":"levelo://app?vid=fd41f5d5-9738-4a68-9369-1fc80941c005","ios":"levelo://app?vid=fd41f5d5-9738-4a68-9369-1fc80941c005"},"vehicle_type_id":"4","last_reported":1736525499,"current_range_meters":32000,"station_id":"ce4bhlp2rcd13ifvqgjg","pricing_plan_id":"cebpf4jnsgd1na2vs0mg"},{"bike_id":"e247b89a-68d3-4787-a893-22107163a77e","system_id":"levelo_inurba_marseille","lat":43.23176,"lon":5.39987,"is_reserved":false,"is_disabled":false,"rental_uris":{"android":"levelo://app?vid=e247b89a-68d3-4787-a893-22107163a77e","ios":"levelo://app?vid=e247b89a-68d3-4787-a893-22107163a77e"},"vehicle_type_id":"4","last_reported":1736525499,"current_range_meters":28800,"station_id":"ce4bhn12rcd13ifvqgqg","pricing_plan_id":"cebpf4jnsgd1na2vs0mg"},{"bike_id":"0aa71507-4891-4e48-a1cb-9580c9181892","system_id":"levelo_inurba_marseille","lat":43.31327,"lon":5.39694,"is_reserved":false,"is_disabled":false,"rental_uris":{"android":"levelo://app?vid=0aa71507-4891-4e48-a1cb-9580c9181892","ios":"levelo://app?vid=0aa71507-4891-4e48-a1cb-9580c9181892"},"vehicle_type_id":"4","last_reported":1736525499,"current_range_meters":10800,"station_id":"ce4bgvp2rcd13ifvqcu0","pricing_plan_id":"cebpf4jnsgd1na2vs0mg"},{"bike_id":"43d9959f-4d32-4c63-9929-a4a33ac5dfff","system_id":"levelo_inurba_marseille","lat":43.27947,"lon":5.41046,"is_reserved":false,"is_disabled":false,"rental_uris":{"android":"levelo://app?vid=43d9959f-4d32-4c63-9929-a4a33ac5dfff","ios":"levelo://app?vid=43d9959f-4d32-4c63-9929-a4a33ac5dfff"},"vehicle_type_id":"4","last_reported":1736525499,"current_range_meters":6800,"station_id":"ce4bhnp2rcd13ifvqh0g","pricing_plan_id":"cebpf4jnsgd1na2vs0mg"},{"bike_id":"2b9f9611-d71b-4f9a-b814-a64ed7dfc055","system_id":"levelo_inurba_marseille","lat":43.25098,"lon":5.40325,"is_reserved":false,"is_disabled":true,"rental_uris":{"android":"levelo://app?vid=2b9f9611-d71b-4f9a-b814-a64ed7dfc055","ios":"levelo://app?vid=2b9f9611-d71b-4f9a-b814-a64ed7dfc055"},"vehicle_type_id":"4","last_reported":1736525499,"current_range_meters":0,"station_id":"ce4bhlh2rcd13ifvqgig","pricing_plan_id":"cebpf4jnsgd1na2vs0mg"},{"bike_id":"1135944d-c37d-4c21-b6e8-d66c74671bc1","system_id":"levelo_inurba_marseille","lat":43.30248,"lon":5.40053,"is_reserved":false,"is_disabled":false,"rental_uris":{"android":"levelo://app?vid=1135944d-c37d-4c21-b6e8-d66c74671bc1","ios":"levelo://app?vid=1135944d-c37d-4c21-b6e8-d66c74671bc1"},"vehicle_type_id":"4","last_reported":1736525499,"current_range_meters":5600,"station_id":"ce4bgvh2rcd13ifvqcs0","pricing_plan_id":"cebpf4jnsgd1na2vs0mg"},{"bike_id":"066fc890-cce1-4b7e-a941-320c51e991c9","system_id":"levelo_inurba_marseille","lat":43.23961,"lon":5.36621,"is_reserved":false,"is_disabled":false,"rental_uris":{"android":"levelo://app?vid=066fc890-cce1-4b7e-a941-320c51e991c9","ios":"levelo://app?vid=066fc890-cce1-4b7e-a941-320c51e991c9"},"vehicle_type_id":"4","last_reported":1736525499,"current_range_meters":25200,"station_id":"ce4bhi12rcd13ifvqfp0","pricing_plan_id":"cebpf4jnsgd1na2vs0mg"},{"bike_id":"e71db8cf-7b3c-485e-a8dd-487e8221434b","system_id":"levelo_inurba_marseille","lat":43.30515,"lon":5.36632,"is_reserved":false,"is_disabled":false,"rental_uris":{"android":"levelo://app?vid=e71db8cf-7b3c-485e-a8dd-487e8221434b","ios":"levelo://app?vid=e71db8cf-7b3c-485e-a8dd-487e8221434b"},"vehicle_type_id":"4","last_reported":1736525499,"current_range_meters":38800,"station_id":"ce4bgrp2rcd13ifvqc9g","pricing_plan_id":"cebpf4jnsgd1na2vs0mg"},{"bike_id":"b1cd05bd-cc6d-452b-8b8c-f24ee7fb627f","system_id":"levelo_inurba_marseille","lat":43.25837,"lon":5.39436,"is_reserved":false,"is_disabled":false,"rental_uris":{"android":"levelo://app?vid=b1cd05bd-cc6d-452b-8b8c-f24ee7fb627f","ios":"levelo://app?vid=b1cd05bd-cc6d-452b-8b8c-f24ee7fb627f"},"vehicle_type_id":"4","last_reported":1736525499,"current_range_meters":36400,"station_id":"ce4bhip2rcd13ifvqft0","pricing_plan_id":"cebpf4jnsgd1na2vs0mg"},{"bike_id":"ca3888bc-9bf5-44e1-bb7f-c3baa8080f01","system_id":"levelo_inurba_marseille","lat":43.30793,"lon":5.38171,"is_reserved":false,"is_disabled":false,"rental_uris":{"android":"levelo://app?vid=ca3888bc-9bf5-44e1-bb7f-c3baa8080f01","ios":"levelo://app?vid=ca3888bc-9bf5-44e1-bb7f-c3baa8080f01"},"vehicle_type_id":"4","last_reported":1736525499,"current_range_meters":32000,"station_id":"ce4bgt12rcd13ifvqce0","pricing_plan_id":"cebpf4jnsgd1na2vs0mg"},{"bike_id":"b6d6888e-7f2e-477f-a1e4-72d94af363b1","system_id":"levelo_inurba_marseille","lat":43.30933,"lon":5.40137,"is_reserved":false,"is_disabled":false,"rental_uris":{"android":"levelo://app?vid=b6d6888e-7f2e-477f-a1e4-72d94af363b1","ios":"levelo://app?vid=b6d6888e-7f2e-477f-a1e4-72d94af363b1"},"vehicle_type_id":"4","last_reported":1736525499,"current_range_meters":16800,"station_id":"ce4bgvp2rcd13ifvqct0","pricing_plan_id":"cebpf4jnsgd1na2vs0mg"},{"bike_id":"4046bb7a-f1a0-4285-b213-c10687f1b3f3","system_id":"levelo_inurba_marseille","lat":43.31075,"lon":5.38355,"is_reserved":false,"is_disabled":false,"rental_uris":{"android":"levelo://app?vid=4046bb7a-f1a0-4285-b213-c10687f1b3f3","ios":"levelo://app?vid=4046bb7a-f1a0-4285-b213-c10687f1b3f3"},"vehicle_type_id":"4","last_reported":1736525499,"current_range_meters":30800,"station_id":"ce4bgv92rcd13ifvqcr0","pricing_plan_id":"cebpf4jnsgd1na2vs0mg"},{"bike_id":"34f7147a-0c73-4aae-b1e4-8965ce8bb117","system_id":"levelo_inurba_marseille","lat":43.29625,"lon":5.37712,"is_reserved":false,"is_disabled":false,"rental_uris":{"android":"levelo://app?vid=34f7147a-0c73-4aae-b1e4-8965ce8bb117","ios":"levelo://app?vid=34f7147a-0c73-4aae-b1e4-8965ce8bb117"},"vehicle_type_id":"4","last_reported":1736525499,"current_range_meters":28400,"station_id":"ce4bgi92rcd13ifvqb90","pricing_plan_id":"cebpf4jnsgd1na2vs0mg"},{"bike_id":"8262ee59-f439-4cce-8cca-6779edfaab60","system_id":"levelo_inurba_marseille","lat":43.26555,"lon":5.38994,"is_reserved":false,"is_disabled":false,"rental_uris":{"android":"levelo://app?vid=8262ee59-f439-4cce-8cca-6779edfaab60","ios":"levelo://app?vid=8262ee59-f439-4cce-8cca-6779edfaab60"},"vehicle_type_id":"4","last_reported":1736525499,"current_range_meters":24000,"station_id":"ce4bhe12rcd13ifvqf30","pricing_plan_id":"cebpf4jnsgd1na2vs0mg"},{"bike_id":"14260f59-5e6c-465e-be91-94b0442db1da","system_id":"levelo_inurba_marseille","lat":43.27832,"lon":5.39215,"is_reserved":false,"is_disabled":false,"rental_uris":{"android":"levelo://app?vid=14260f59-5e6c-465e-be91-94b0442db1da","ios":"levelo://app?vid=14260f59-5e6c-465e-be91-94b0442db1da"},"vehicle_type_id":"4","last_reported":1736525499,"current_range_meters":37600,"station_id":"ce4bhjp2rcd13ifvqga0","pricing_plan_id":"cebpf4jnsgd1na2vs0mg"},{"bike_id":"531af2b4-da39-4340-a571-942df5926a02","system_id":"levelo_inurba_marseille","lat":43.29618,"lon":5.37725,"is_reserved":false,"is_disabled":false,"rental_uris":{"android":"levelo://app?vid=531af2b4-da39-4340-a571-942df5926a02","ios":"levelo://app?vid=531af2b4-da39-4340-a571-942df5926a02"},"vehicle_type_id":"4","last_reported":1736525499,"current_range_meters":24400,"station_id":"ce4bgi92rcd13ifvqb90","pricing_plan_id":"cebpf4jnsgd1na2vs0mg"},{"bike_id":"5388bfb7-d9db-4d08-8046-2899e21c62fb","system_id":"levelo_inurba_marseille","lat":43.29867,"lon":5.39732,"is_reserved":false,"is_disabled":false,"rental_uris":{"android":"levelo://app?vid=5388bfb7-d9db-4d08-8046-2899e21c62fb","ios":"levelo://app?vid=5388bfb7-d9db-4d08-8046-2899e21c62fb"},"vehicle_type_id":"4","last_reported":1736525499,"current_range_meters":19600,"station_id":"ce4bh0h2rcd13ifvqd50","pricing_plan_id":"cebpf4jnsgd1na2vs0mg"},{"bike_id":"177de369-3397-42af-a917-385db222f5c9","system_id":"levelo_inurba_marseille","lat":43.28563,"lon":5.39497,"is_reserved":false,"is_disabled":false,"rental_uris":{"android":"levelo://app?vid=177de369-3397-42af-a917-385db222f5c9","ios":"levelo://app?vid=177de369-3397-42af-a917-385db222f5c9"},"vehicle_type_id":"4","last_reported":1736525499,"current_range_meters":33600,"station_id":"ce4bh292rcd13ifvqdg0","pricing_plan_id":"cebpf4jnsgd1na2vs0mg"},{"bike_id":"bc72b692-fa80-4572-afe8-0e7949eae868","system_id":"levelo_inurba_marseille","lat":43.33739,"lon":5.37436,"is_reserved":false,"is_disabled":false,"rental_uris":{"android":"levelo://app?vid=bc72b692-fa80-4572-afe8-0e7949eae868","ios":"levelo://app?vid=bc72b692-fa80-4572-afe8-0e7949eae868"},"vehicle_type_id":"4","last_reported":1736525499,"current_range_meters":26800,"station_id":"","pricing_plan_id":"cebpf4jnsgd1na2vs0mg"},{"bike_id":"81f9c0df-891c-4a46-a39a-098c095c710d","system_id":"levelo_inurba_marseille","lat":43.27167,"lon":5.40977,"is_reserved":false,"is_disabled":false,"rental_uris":{"android":"levelo://app?vid=81f9c0df-891c-4a46-a39a-098c095c710d","ios":"levelo://app?vid=81f9c0df-891c-4a46-a39a-098c095c710d"},"vehicle_type_id":"4","last_reported":1736525499,"current_range_meters":8000,"station_id":"ce4bhl12rcd13ifvqgf0","pricing_plan_id":"cebpf4jnsgd1na2vs0mg"},{"bike_id":"9ed1c0a7-5035-4dde-954f-378a0451f32a","system_id":"levelo_inurba_marseille","lat":43.23969,"lon":5.36621,"is_reserved":false,"is_disabled":false,"rental_uris":{"android":"levelo://app?vid=9ed1c0a7-5035-4dde-954f-378a0451f32a","ios":"levelo://app?vid=9ed1c0a7-5035-4dde-954f-378a0451f32a"},"vehicle_type_id":"4","last_reported":1736525499,"current_range_meters":38800,"station_id":"ce4bhi12rcd13ifvqfp0","pricing_plan_id":"cebpf4jnsgd1na2vs0mg"},{"bike_id":"597c532c-555b-4a8a-8a0b-0cde1fec5b19","system_id":"levelo_inurba_marseille","lat":43.30646,"lon":5.40096,"is_reserved":false,"is_disabled":false,"rental_uris":{"android":"levelo://app?vid=597c532c-555b-4a8a-8a0b-0cde1fec5b19","ios":"levelo://app?vid=597c532c-555b-4a8a-8a0b-0cde1fec5b19"},"vehicle_type_id":"4","last_reported":1736525499,"current_range_meters":10000,"station_id":"ce4bh112rcd13ifvqda0","pricing_plan_id":"cebpf4jnsgd1na2vs0mg"},{"bike_id":"6d0bef2f-14fe-4cb3-a7d0-3ef814ed9293","system_id":"levelo_inurba_marseille","lat":43.24809,"lon":5.37454,"is_reserved":false,"is_disabled":false,"rental_uris":{"android":"levelo://app?vid=6d0bef2f-14fe-4cb3-a7d0-3ef814ed9293","ios":"levelo://app?vid=6d0bef2f-14fe-4cb3-a7d0-3ef814ed9293"},"vehicle_type_id":"4","last_reported":1736525499,"current_range_meters":36400,"station_id":"ce4bhgh2rcd13ifvqfb0","pricing_plan_id":"cebpf4jnsgd1na2vs0mg"},{"bike_id":"e28483d1-4b50-47d3-8f68-bbbc48a67024","system_id":"levelo_inurba_marseille","lat":43.29051,"lon":5.37154,"is_reserved":false,"is_disabled":true,"rental_uris":{"android":"levelo://app?vid=e28483d1-4b50-47d3-8f68-bbbc48a67024","ios":"levelo://app?vid=e28483d1-4b50-47d3-8f68-bbbc48a67024"},"vehicle_type_id":"4","last_reported":1736525499,"current_range_meters":30800,"station_id":"ce4bh5p2rcd13ifvqe4g","pricing_plan_id":"cebpf4jnsgd1na2vs0mg"},{"bike_id":"af1d8654-7f66-4539-8667-313d56746f24","system_id":"levelo_inurba_marseille","lat":43.25089,"lon":5.39536,"is_reserved":false,"is_disabled":false,"rental_uris":{"android":"levelo://app?vid=af1d8654-7f66-4539-8667-313d56746f24","ios":"levelo://app?vid=af1d8654-7f66-4539-8667-313d56746f24"},"vehicle_type_id":"4","last_reported":1736525499,"current_range_meters":38800,"station_id":"ce4bhm12rcd13ifvqgkg","pricing_plan_id":"cebpf4jnsgd1na2vs0mg"},{"bike_id":"60271d0f-3a77-4626-8905-d712a41f6304","system_id":"levelo_inurba_marseille","lat":43.28458,"lon":5.35898,"is_reserved":false,"is_disabled":false,"rental_uris":{"android":"levelo://app?vid=60271d0f-3a77-4626-8905-d712a41f6304","ios":"levelo://app?vid=60271d0f-3a77-4626-8905-d712a41f6304"},"vehicle_type_id":"4","last_reported":1736525499,"current_range_meters":38400,"station_id":"ce4bhah2rcd13ifvqei0","pricing_plan_id":"cebpf4jnsgd1na2vs0mg"},{"bike_id":"ea85eaf0-fde0-43c4-b882-10e3bd598be8","system_id":"levelo_inurba_marseille","lat":43.25105,"lon":5.40326,"is_reserved":false,"is_disabled":true,"rental_uris":{"android":"levelo://app?vid=ea85eaf0-fde0-43c4-b882-10e3bd598be8","ios":"levelo://app?vid=ea85eaf0-fde0-43c4-b882-10e3bd598be8"},"vehicle_type_id":"4","last_reported":1736525499,"current_range_meters":8400,"station_id":"ce4bhlh2rcd13ifvqgig","pricing_plan_id":"cebpf4jnsgd1na2vs0mg"},{"bike_id":"ce3911f4-d940-41e3-a1b8-935c8c7794b9","system_id":"levelo_inurba_marseille","lat":43.29571,"lon":5.37492,"is_reserved":false,"is_disabled":true,"rental_uris":{"android":"levelo://app?vid=ce3911f4-d940-41e3-a1b8-935c8c7794b9","ios":"levelo://app?vid=ce3911f4-d940-41e3-a1b8-935c8c7794b9"},"vehicle_type_id":"4","last_reported":1736525499,"current_range_meters":0,"station_id":"ce4bgh92rcd13ifvqb50","pricing_plan_id":"cebpf4jnsgd1na2vs0mg"},{"bike_id":"7a0a8a69-615c-43f3-a001-073b74f4a57b","system_id":"levelo_inurba_marseille","lat":43.25578,"lon":5.38214,"is_reserved":false,"is_disabled":false,"rental_uris":{"android":"levelo://app?vid=7a0a8a69-615c-43f3-a001-073b74f4a57b","ios":"levelo://app?vid=7a0a8a69-615c-43f3-a001-073b74f4a57b"},"vehicle_type_id":"4","last_reported":1736525499,"current_range_meters":26800,"station_id":"ce4bhih2rcd13ifvqfs0","pricing_plan_id":"cebpf4jnsgd1na2vs0mg"},{"bike_id":"e818ed36-c5cc-43ff-8fcf-d414ad66f124","system_id":"levelo_inurba_marseille","lat":43.28468,"lon":5.38552,"is_reserved":false,"is_disabled":false,"rental_uris":{"android":"levelo://app?vid=e818ed36-c5cc-43ff-8fcf-d414ad66f124","ios":"levelo://app?vid=e818ed36-c5cc-43ff-8fcf-d414ad66f124"},"vehicle_type_id":"4","last_reported":1736525499,"current_range_meters":32400,"station_id":"ce4bh8p2rcd13ifvqeb0","pricing_plan_id":"cebpf4jnsgd1na2vs0mg"},{"bike_id":"04b99ebe-7927-40e6-9554-a7aa6d8ff5da","system_id":"levelo_inurba_marseille","lat":43.330176,"lon":5.390443,"is_reserved":false,"is_disabled":false,"rental_uris":{"android":"levelo://app?vid=04b99ebe-7927-40e6-9554-a7aa6d8ff5da","ios":"levelo://app?vid=04b99ebe-7927-40e6-9554-a7aa6d8ff5da"},"vehicle_type_id":"4","last_reported":1736525499,"current_range_meters":39200,"station_id":"ce4bhr92rcd13ifvqhrg","pricing_plan_id":"cebpf4jnsgd1na2vs0mg"},{"bike_id":"a0c983e2-48b5-44d4-87d6-88734240743b","system_id":"levelo_inurba_marseille","lat":43.28563,"lon":5.39495,"is_reserved":false,"is_disabled":false,"rental_uris":{"android":"levelo://app?vid=a0c983e2-48b5-44d4-87d6-88734240743b","ios":"levelo://app?vid=a0c983e2-48b5-44d4-87d6-88734240743b"},"vehicle_type_id":"4","last_reported":1736525499,"current_range_meters":27600,"station_id":"ce4bh292rcd13ifvqdg0","pricing_plan_id":"cebpf4jnsgd1na2vs0mg"},{"bike_id":"62946874-e37c-444e-ba7f-bc19990c6404","system_id":"levelo_inurba_marseille","lat":43.30213,"lon":5.39472,"is_reserved":false,"is_disabled":true,"rental_uris":{"android":"levelo://app?vid=62946874-e37c-444e-ba7f-bc19990c6404","ios":"levelo://app?vid=62946874-e37c-444e-ba7f-bc19990c6404"},"vehicle_type_id":"4","last_reported":1736525499,"current_range_meters":800,"station_id":"ce4bh0p2rcd13ifvqd70","pricing_plan_id":"cebpf4jnsgd1na2vs0mg"},{"bike_id":"9d5e6a87-d396-46b3-9339-79ab1fb6cc47","system_id":"levelo_inurba_marseille","lat":43.30804,"lon":5.43534,"is_reserved":false,"is_disabled":false,"rental_uris":{"android":"levelo://app?vid=9d5e6a87-d396-46b3-9339-79ab1fb6cc47","ios":"levelo://app?vid=9d5e6a87-d396-46b3-9339-79ab1fb6cc47"},"vehicle_type_id":"4","last_reported":1736525499,"current_range_meters":29600,"station_id":"ce4bhph2rcd13ifvqheg","pricing_plan_id":"cebpf4jnsgd1na2vs0mg"},{"bike_id":"aae2786a-8a55-4ab3-89e6-b89d08a1bcc2","system_id":"levelo_inurba_marseille","lat":43.30536,"lon":5.38417,"is_reserved":false,"is_disabled":false,"rental_uris":{"android":"levelo://app?vid=aae2786a-8a55-4ab3-89e6-b89d08a1bcc2","ios":"levelo://app?vid=aae2786a-8a55-4ab3-89e6-b89d08a1bcc2"},"vehicle_type_id":"4","last_reported":1736525499,"current_range_meters":30800,"station_id":"ce4bgg92rcd13ifvqb30","pricing_plan_id":"cebpf4jnsgd1na2vs0mg"},{"bike_id":"ee7f1a46-f7f2-488b-a4c6-5c522dbd6eac","system_id":"levelo_inurba_marseille","lat":43.31728,"lon":5.42398,"is_reserved":false,"is_disabled":false,"rental_uris":{"android":"levelo://app?vid=ee7f1a46-f7f2-488b-a4c6-5c522dbd6eac","ios":"levelo://app?vid=ee7f1a46-f7f2-488b-a4c6-5c522dbd6eac"},"vehicle_type_id":"4","last_reported":1736525499,"current_range_meters":5600,"station_id":"ce4bhp92rcd13ifvqhbg","pricing_plan_id":"cebpf4jnsgd1na2vs0mg"},{"bike_id":"ac1e75e8-aa20-4f87-9b89-590338d01051","system_id":"levelo_inurba_marseille","lat":43.2971,"lon":5.37688,"is_reserved":false,"is_disabled":false,"rental_uris":{"android":"levelo://app?vid=ac1e75e8-aa20-4f87-9b89-590338d01051","ios":"levelo://app?vid=ac1e75e8-aa20-4f87-9b89-590338d01051"},"vehicle_type_id":"4","last_reported":1736525499,"current_range_meters":35200,"station_id":"ce4bgkh2rcd13ifvqbl0","pricing_plan_id":"cebpf4jnsgd1na2vs0mg"},{"bike_id":"05bca130-4494-401b-9dfd-de5da1acdf3e","system_id":"levelo_inurba_marseille","lat":43.24174,"lon":5.39722,"is_reserved":false,"is_disabled":false,"rental_uris":{"android":"levelo://app?vid=05bca130-4494-401b-9dfd-de5da1acdf3e","ios":"levelo://app?vid=05bca130-4494-401b-9dfd-de5da1acdf3e"},"vehicle_type_id":"4","last_reported":1736525499,"current_range_meters":11600,"station_id":"ce4bhn12rcd13ifvqgpg","pricing_plan_id":"cebpf4jnsgd1na2vs0mg"},{"bike_id":"34b9cefd-7da7-4a4a-a117-9c232ab08ddd","system_id":"levelo_inurba_marseille","lat":43.29196,"lon":5.39319,"is_reserved":false,"is_disabled":false,"rental_uris":{"android":"levelo://app?vid=34b9cefd-7da7-4a4a-a117-9c232ab08ddd","ios":"levelo://app?vid=34b9cefd-7da7-4a4a-a117-9c232ab08ddd"},"vehicle_type_id":"4","last_reported":1736525499,"current_range_meters":28400,"station_id":"ce4bh192rcd13ifvqdd0","pricing_plan_id":"cebpf4jnsgd1na2vs0mg"},{"bike_id":"fae25706-b625-400e-b8c0-b50197067313","system_id":"levelo_inurba_marseille","lat":43.23178,"lon":5.40001,"is_reserved":false,"is_disabled":false,"rental_uris":{"android":"levelo://app?vid=fae25706-b625-400e-b8c0-b50197067313","ios":"levelo://app?vid=fae25706-b625-400e-b8c0-b50197067313"},"vehicle_type_id":"4","last_reported":1736525499,"current_range_meters":17600,"station_id":"ce4bhn12rcd13ifvqgqg","pricing_plan_id":"cebpf4jnsgd1na2vs0mg"},{"bike_id":"5297b66f-0e55-4ec8-88f8-4daa23208aa8","system_id":"levelo_inurba_marseille","lat":43.29843,"lon":5.36265,"is_reserved":false,"is_disabled":false,"rental_uris":{"android":"levelo://app?vid=5297b66f-0e55-4ec8-88f8-4daa23208aa8","ios":"levelo://app?vid=5297b66f-0e55-4ec8-88f8-4daa23208aa8"},"vehicle_type_id":"4","last_reported":1736525499,"current_range_meters":38800,"station_id":"ce4bgpp2rcd13ifvqc3g","pricing_plan_id":"cebpf4jnsgd1na2vs0mg"},{"bike_id":"5fa2e3a5-e832-42e6-a5a6-81071c6ff0f0","system_id":"levelo_inurba_marseille","lat":43.28457,"lon":5.35885,"is_reserved":false,"is_disabled":false,"rental_uris":{"android":"levelo://app?vid=5fa2e3a5-e832-42e6-a5a6-81071c6ff0f0","ios":"levelo://app?vid=5fa2e3a5-e832-42e6-a5a6-81071c6ff0f0"},"vehicle_type_id":"4","last_reported":1736525499,"current_range_meters":28800,"station_id":"ce4bhah2rcd13ifvqei0","pricing_plan_id":"cebpf4jnsgd1na2vs0mg"},{"bike_id":"bb09aba3-e725-4db5-9d0b-860b910730c7","system_id":"levelo_inurba_marseille","lat":43.31329,"lon":5.397,"is_reserved":false,"is_disabled":true,"rental_uris":{"android":"levelo://app?vid=bb09aba3-e725-4db5-9d0b-860b910730c7","ios":"levelo://app?vid=bb09aba3-e725-4db5-9d0b-860b910730c7"},"vehicle_type_id":"4","last_reported":1736525499,"current_range_meters":6000,"station_id":"ce4bgvp2rcd13ifvqcu0","pricing_plan_id":"cebpf4jnsgd1na2vs0mg"},{"bike_id":"c0a472c1-c188-44e6-bb32-ed0f78a35c7b","system_id":"levelo_inurba_marseille","lat":43.27053,"lon":5.40262,"is_reserved":false,"is_disabled":false,"rental_uris":{"android":"levelo://app?vid=c0a472c1-c188-44e6-bb32-ed0f78a35c7b","ios":"levelo://app?vid=c0a472c1-c188-44e6-bb32-ed0f78a35c7b"},"vehicle_type_id":"4","last_reported":1736525499,"current_range_meters":38000,"station_id":"ce4bhk92rcd13ifvqgc0","pricing_plan_id":"cebpf4jnsgd1na2vs0mg"},{"bike_id":"2e93c354-325a-4054-a386-854b121ab358","system_id":"levelo_inurba_marseille","lat":43.26805,"lon":5.4027,"is_reserved":false,"is_disabled":false,"rental_uris":{"android":"levelo://app?vid=2e93c354-325a-4054-a386-854b121ab358","ios":"levelo://app?vid=2e93c354-325a-4054-a386-854b121ab358"},"vehicle_type_id":"4","last_reported":1736525499,"current_range_meters":31200,"station_id":"ce501612rcd8frsf0b60","pricing_plan_id":"cebpf4jnsgd1na2vs0mg"},{"bike_id":"bc5ecb21-f1e6-4dd9-b630-dc6d26c0fdd7","system_id":"levelo_inurba_marseille","lat":43.29164,"lon":5.3715,"is_reserved":false,"is_disabled":false,"rental_uris":{"android":"levelo://app?vid=bc5ecb21-f1e6-4dd9-b630-dc6d26c0fdd7","ios":"levelo://app?vid=bc5ecb21-f1e6-4dd9-b630-dc6d26c0fdd7"},"vehicle_type_id":"4","last_reported":1736525499,"current_range_meters":30800,"station_id":"ce4bha92rcd13ifvqeh0","pricing_plan_id":"cebpf4jnsgd1na2vs0mg"},{"bike_id":"f966dc48-73ce-43da-aa37-5e732c8259bb","system_id":"levelo_inurba_marseille","lat":43.27917,"lon":5.39579,"is_reserved":false,"is_disabled":false,"rental_uris":{"android":"levelo://app?vid=f966dc48-73ce-43da-aa37-5e732c8259bb","ios":"levelo://app?vid=f966dc48-73ce-43da-aa37-5e732c8259bb"},"vehicle_type_id":"4","last_reported":1736525499,"current_range_meters":8000,"station_id":"ce4bhf92rcd13ifvqf40","pricing_plan_id":"cebpf4jnsgd1na2vs0mg"},{"bike_id":"3b3bbdef-cf1f-4962-a04c-d6c97fef1de0","system_id":"levelo_inurba_marseille","lat":43.32369,"lon":5.38883,"is_reserved":false,"is_disabled":false,"rental_uris":{"android":"levelo://app?vid=3b3bbdef-cf1f-4962-a04c-d6c97fef1de0","ios":"levelo://app?vid=3b3bbdef-cf1f-4962-a04c-d6c97fef1de0"},"vehicle_type_id":"4","last_reported":1736525499,"current_range_meters":17200,"station_id":"ce4bhqp2rcd13ifvqhog","pricing_plan_id":"cebpf4jnsgd1na2vs0mg"},{"bike_id":"d4b9ec52-492e-41b6-8dae-be3aec56cf81","system_id":"levelo_inurba_marseille","lat":43.28616,"lon":5.35095,"is_reserved":false,"is_disabled":false,"rental_uris":{"android":"levelo://app?vid=d4b9ec52-492e-41b6-8dae-be3aec56cf81","ios":"levelo://app?vid=d4b9ec52-492e-41b6-8dae-be3aec56cf81"},"vehicle_type_id":"4","last_reported":1736525499,"current_range_meters":9600,"station_id":"ce4bhch2rcd13ifvqeug","pricing_plan_id":"cebpf4jnsgd1na2vs0mg"},{"bike_id":"458c3d58-e6a5-4d1a-8df2-05d9cb3e0072","system_id":"levelo_inurba_marseille","lat":43.25589,"lon":5.38233,"is_reserved":false,"is_disabled":false,"rental_uris":{"android":"levelo://app?vid=458c3d58-e6a5-4d1a-8df2-05d9cb3e0072","ios":"levelo://app?vid=458c3d58-e6a5-4d1a-8df2-05d9cb3e0072"},"vehicle_type_id":"4","last_reported":1736525499,"current_range_meters":16400,"station_id":"ce4bhih2rcd13ifvqfs0","pricing_plan_id":"cebpf4jnsgd1na2vs0mg"},{"bike_id":"10f7d31a-ef8d-4e8a-acbf-8aa9a8c72143","system_id":"levelo_inurba_marseille","lat":43.24409,"lon":5.37066,"is_reserved":false,"is_disabled":false,"rental_uris":{"android":"levelo://app?vid=10f7d31a-ef8d-4e8a-acbf-8aa9a8c72143","ios":"levelo://app?vid=10f7d31a-ef8d-4e8a-acbf-8aa9a8c72143"},"vehicle_type_id":"4","last_reported":1736525499,"current_range_meters":22800,"station_id":"ce4bhhh2rcd13ifvqfk0","pricing_plan_id":"cebpf4jnsgd1na2vs0mg"},{"bike_id":"6c9672bf-f199-48da-8402-1f61af011942","system_id":"levelo_inurba_marseille","lat":43.29026,"lon":5.38139,"is_reserved":false,"is_disabled":false,"rental_uris":{"android":"levelo://app?vid=6c9672bf-f199-48da-8402-1f61af011942","ios":"levelo://app?vid=6c9672bf-f199-48da-8402-1f61af011942"},"vehicle_type_id":"4","last_reported":1736525499,"current_range_meters":36800,"station_id":"ce4bh4p2rcd13ifvqe1g","pricing_plan_id":"cebpf4jnsgd1na2vs0mg"},{"bike_id":"96f09216-8806-4f0e-908d-6ebe96172e03","system_id":"levelo_inurba_marseille","lat":43.2799,"lon":5.41651,"is_reserved":false,"is_disabled":false,"rental_uris":{"android":"levelo://app?vid=96f09216-8806-4f0e-908d-6ebe96172e03","ios":"levelo://app?vid=96f09216-8806-4f0e-908d-6ebe96172e03"},"vehicle_type_id":"4","last_reported":1736525499,"current_range_meters":5600,"station_id":"ce4bho12rcd13ifvqh1g","pricing_plan_id":"cebpf4jnsgd1na2vs0mg"},{"bike_id":"e56a2290-8664-437c-bd1f-6ddb03ea3f29","system_id":"levelo_inurba_marseille","lat":43.29275,"lon":5.3685,"is_reserved":false,"is_disabled":false,"rental_uris":{"android":"levelo://app?vid=e56a2290-8664-437c-bd1f-6ddb03ea3f29","ios":"levelo://app?vid=e56a2290-8664-437c-bd1f-6ddb03ea3f29"},"vehicle_type_id":"4","last_reported":1736525499,"current_range_meters":34000,"station_id":"ce4bhbp2rcd13ifvqesg","pricing_plan_id":"cebpf4jnsgd1na2vs0mg"},{"bike_id":"81e650fb-946f-4e41-a04f-8169232bb99d","system_id":"levelo_inurba_marseille","lat":43.23185,"lon":5.39978,"is_reserved":false,"is_disabled":false,"rental_uris":{"android":"levelo://app?vid=81e650fb-946f-4e41-a04f-8169232bb99d","ios":"levelo://app?vid=81e650fb-946f-4e41-a04f-8169232bb99d"},"vehicle_type_id":"4","last_reported":1736525499,"current_range_meters":30000,"station_id":"ce4bhn12rcd13ifvqgqg","pricing_plan_id":"cebpf4jnsgd1na2vs0mg"},{"bike_id":"c150f8af-fc8f-4eb5-ac98-0b06dadf4ce0","system_id":"levelo_inurba_marseille","lat":43.25581,"lon":5.38235,"is_reserved":false,"is_disabled":false,"rental_uris":{"android":"levelo://app?vid=c150f8af-fc8f-4eb5-ac98-0b06dadf4ce0","ios":"levelo://app?vid=c150f8af-fc8f-4eb5-ac98-0b06dadf4ce0"},"vehicle_type_id":"4","last_reported":1736525499,"current_range_meters":32800,"station_id":"ce4bhih2rcd13ifvqfs0","pricing_plan_id":"cebpf4jnsgd1na2vs0mg"},{"bike_id":"04af2dc9-a9de-4915-9c9c-207f374f346e","system_id":"levelo_inurba_marseille","lat":43.23206,"lon":5.35543,"is_reserved":false,"is_disabled":false,"rental_uris":{"android":"levelo://app?vid=04af2dc9-a9de-4915-9c9c-207f374f346e","ios":"levelo://app?vid=04af2dc9-a9de-4915-9c9c-207f374f346e"},"vehicle_type_id":"4","last_reported":1736525499,"current_range_meters":38800,"station_id":"ce4bhu92rcd13ifvqi70","pricing_plan_id":"cebpf4jnsgd1na2vs0mg"},{"bike_id":"83b954cb-b1cd-4e51-b5e1-c2bfd0e62ed1","system_id":"levelo_inurba_marseille","lat":43.28852,"lon":5.39296,"is_reserved":false,"is_disabled":false,"rental_uris":{"android":"levelo://app?vid=83b954cb-b1cd-4e51-b5e1-c2bfd0e62ed1","ios":"levelo://app?vid=83b954cb-b1cd-4e51-b5e1-c2bfd0e62ed1"},"vehicle_type_id":"4","last_reported":1736525499,"current_range_meters":21600,"station_id":"ce4bh2p2rcd13ifvqdi0","pricing_plan_id":"cebpf4jnsgd1na2vs0mg"},{"bike_id":"2699aa44-e054-4052-825f-54a662a06c6e","system_id":"levelo_inurba_marseille","lat":43.23185,"lon":5.39978,"is_reserved":false,"is_disabled":false,"rental_uris":{"android":"levelo://app?vid=2699aa44-e054-4052-825f-54a662a06c6e","ios":"levelo://app?vid=2699aa44-e054-4052-825f-54a662a06c6e"},"vehicle_type_id":"4","last_reported":1736525499,"current_range_meters":38800,"station_id":"ce4bhn12rcd13ifvqgqg","pricing_plan_id":"cebpf4jnsgd1na2vs0mg"},{"bike_id":"61754fba-3376-4768-8c7c-511ea5daf5e6","system_id":"levelo_inurba_marseille","lat":43.295721,"lon":5.39977,"is_reserved":false,"is_disabled":false,"rental_uris":{"android":"levelo://app?vid=61754fba-3376-4768-8c7c-511ea5daf5e6","ios":"levelo://app?vid=61754fba-3376-4768-8c7c-511ea5daf5e6"},"vehicle_type_id":"4","last_reported":1736525499,"current_range_meters":10000,"station_id":"","pricing_plan_id":"cebpf4jnsgd1na2vs0mg"},{"bike_id":"4eea0f9a-8371-44e1-8ec2-1b8667eafdd9","system_id":"levelo_inurba_marseille","lat":43.28602,"lon":5.35097,"is_reserved":false,"is_disabled":false,"rental_uris":{"android":"levelo://app?vid=4eea0f9a-8371-44e1-8ec2-1b8667eafdd9","ios":"levelo://app?vid=4eea0f9a-8371-44e1-8ec2-1b8667eafdd9"},"vehicle_type_id":"4","last_reported":1736525499,"current_range_meters":38800,"station_id":"ce4bhch2rcd13ifvqeug","pricing_plan_id":"cebpf4jnsgd1na2vs0mg"},{"bike_id":"30653996-9326-4bca-864c-21ac92f61041","system_id":"levelo_inurba_marseille","lat":43.24645,"lon":5.3889,"is_reserved":false,"is_disabled":false,"rental_uris":{"android":"levelo://app?vid=30653996-9326-4bca-864c-21ac92f61041","ios":"levelo://app?vid=30653996-9326-4bca-864c-21ac92f61041"},"vehicle_type_id":"4","last_reported":1736525499,"current_range_meters":37600,"station_id":"ce4bhg12rcd13ifvqf60","pricing_plan_id":"cebpf4jnsgd1na2vs0mg"},{"bike_id":"37ec304b-ae44-480f-8d20-88be2b569e70","system_id":"levelo_inurba_marseille","lat":43.29843,"lon":5.36265,"is_reserved":false,"is_disabled":false,"rental_uris":{"android":"levelo://app?vid=37ec304b-ae44-480f-8d20-88be2b569e70","ios":"levelo://app?vid=37ec304b-ae44-480f-8d20-88be2b569e70"},"vehicle_type_id":"4","last_reported":1736525499,"current_range_meters":38800,"station_id":"ce4bgpp2rcd13ifvqc3g","pricing_plan_id":"cebpf4jnsgd1na2vs0mg"},{"bike_id":"2f8ad459-3412-488c-8718-46949f130497","system_id":"levelo_inurba_marseille","lat":43.24416,"lon":5.37062,"is_reserved":false,"is_disabled":false,"rental_uris":{"android":"levelo://app?vid=2f8ad459-3412-488c-8718-46949f130497","ios":"levelo://app?vid=2f8ad459-3412-488c-8718-46949f130497"},"vehicle_type_id":"4","last_reported":1736525499,"current_range_meters":31200,"station_id":"ce4bhhh2rcd13ifvqfk0","pricing_plan_id":"cebpf4jnsgd1na2vs0mg"},{"bike_id":"408554f9-e938-4c8d-b712-51774be7b111","system_id":"levelo_inurba_marseille","lat":43.30555,"lon":5.36549,"is_reserved":false,"is_disabled":false,"rental_uris":{"android":"levelo://app?vid=408554f9-e938-4c8d-b712-51774be7b111","ios":"levelo://app?vid=408554f9-e938-4c8d-b712-51774be7b111"},"vehicle_type_id":"4","last_reported":1736525499,"current_range_meters":38800,"station_id":"ce4bgs12rcd13ifvqcag","pricing_plan_id":"cebpf4jnsgd1na2vs0mg"},{"bike_id":"fcf95b3e-33ee-45ed-ad8d-978354e91da5","system_id":"levelo_inurba_marseille","lat":43.28336,"lon":5.3988,"is_reserved":false,"is_disabled":false,"rental_uris":{"android":"levelo://app?vid=fcf95b3e-33ee-45ed-ad8d-978354e91da5","ios":"levelo://app?vid=fcf95b3e-33ee-45ed-ad8d-978354e91da5"},"vehicle_type_id":"4","last_reported":1736525499,"current_range_meters":30800,"station_id":"","pricing_plan_id":"cebpf4jnsgd1na2vs0mg"},{"bike_id":"cffdbb96-5acd-4130-9896-e23d0afde4e8","system_id":"levelo_inurba_marseille","lat":43.27544,"lon":5.38423,"is_reserved":false,"is_disabled":false,"rental_uris":{"android":"levelo://app?vid=cffdbb96-5acd-4130-9896-e23d0afde4e8","ios":"levelo://app?vid=cffdbb96-5acd-4130-9896-e23d0afde4e8"},"vehicle_type_id":"4","last_reported":1736525499,"current_range_meters":32400,"station_id":"ce4bhh92rcd13ifvqfi0","pricing_plan_id":"cebpf4jnsgd1na2vs0mg"},{"bike_id":"dbb21a8b-dc67-44ba-84d7-05f02306daa0","system_id":"levelo_inurba_marseille","lat":43.28442,"lon":5.35881,"is_reserved":false,"is_disabled":false,"rental_uris":{"android":"levelo://app?vid=dbb21a8b-dc67-44ba-84d7-05f02306daa0","ios":"levelo://app?vid=dbb21a8b-dc67-44ba-84d7-05f02306daa0"},"vehicle_type_id":"4","last_reported":1736525499,"current_range_meters":12400,"station_id":"ce4bhah2rcd13ifvqei0","pricing_plan_id":"cebpf4jnsgd1na2vs0mg"},{"bike_id":"29ff5b00-1248-486a-8fb1-eb80a02beef5","system_id":"levelo_inurba_marseille","lat":43.2815,"lon":5.42635,"is_reserved":false,"is_disabled":false,"rental_uris":{"android":"levelo://app?vid=29ff5b00-1248-486a-8fb1-eb80a02beef5","ios":"levelo://app?vid=29ff5b00-1248-486a-8fb1-eb80a02beef5"},"vehicle_type_id":"4","last_reported":1736525499,"current_range_meters":36400,"station_id":"ce4bhnh2rcd13ifvqgug","pricing_plan_id":"cebpf4jnsgd1na2vs0mg"},{"bike_id":"04c144bb-885d-4367-8bc8-e2ccfca26ca3","system_id":"levelo_inurba_marseille","lat":43.31325,"lon":5.397,"is_reserved":false,"is_disabled":true,"rental_uris":{"android":"levelo://app?vid=04c144bb-885d-4367-8bc8-e2ccfca26ca3","ios":"levelo://app?vid=04c144bb-885d-4367-8bc8-e2ccfca26ca3"},"vehicle_type_id":"4","last_reported":1736525499,"current_range_meters":25200,"station_id":"ce4bgvp2rcd13ifvqcu0","pricing_plan_id":"cebpf4jnsgd1na2vs0mg"},{"bike_id":"fc1057d4-90a1-4917-8219-50abd6b84da3","system_id":"levelo_inurba_marseille","lat":43.32114,"lon":5.36768,"is_reserved":false,"is_disabled":false,"rental_uris":{"android":"levelo://app?vid=fc1057d4-90a1-4917-8219-50abd6b84da3","ios":"levelo://app?vid=fc1057d4-90a1-4917-8219-50abd6b84da3"},"vehicle_type_id":"4","last_reported":1736525499,"current_range_meters":22400,"station_id":"ce4bhrh2rcd13ifvqhug","pricing_plan_id":"cebpf4jnsgd1na2vs0mg"},{"bike_id":"5ac4cbe2-58bd-420e-b2e3-f723aa6d08fb","system_id":"levelo_inurba_marseille","lat":43.2857,"lon":5.39491,"is_reserved":false,"is_disabled":false,"rental_uris":{"android":"levelo://app?vid=5ac4cbe2-58bd-420e-b2e3-f723aa6d08fb","ios":"levelo://app?vid=5ac4cbe2-58bd-420e-b2e3-f723aa6d08fb"},"vehicle_type_id":"4","last_reported":1736525499,"current_range_meters":22000,"station_id":"ce4bh292rcd13ifvqdg0","pricing_plan_id":"cebpf4jnsgd1na2vs0mg"},{"bike_id":"ca2f36ca-8c74-4175-bef0-328d90f18754","system_id":"levelo_inurba_marseille","lat":43.28609,"lon":5.37057,"is_reserved":false,"is_disabled":false,"rental_uris":{"android":"levelo://app?vid=ca2f36ca-8c74-4175-bef0-328d90f18754","ios":"levelo://app?vid=ca2f36ca-8c74-4175-bef0-328d90f18754"},"vehicle_type_id":"4","last_reported":1736525499,"current_range_meters":28000,"station_id":"ce4bht12rcd13ifvqi60","pricing_plan_id":"cebpf4jnsgd1na2vs0mg"},{"bike_id":"38352b29-897c-4fa7-be31-9c23452e3a93","system_id":"levelo_inurba_marseille","lat":43.2987,"lon":5.39731,"is_reserved":false,"is_disabled":false,"rental_uris":{"android":"levelo://app?vid=38352b29-897c-4fa7-be31-9c23452e3a93","ios":"levelo://app?vid=38352b29-897c-4fa7-be31-9c23452e3a93"},"vehicle_type_id":"4","last_reported":1736525499,"current_range_meters":22800,"station_id":"ce4bh0h2rcd13ifvqd50","pricing_plan_id":"cebpf4jnsgd1na2vs0mg"},{"bike_id":"7475f743-fa68-4b23-ab37-60e01b01184f","system_id":"levelo_inurba_marseille","lat":43.321106,"lon":5.367833,"is_reserved":false,"is_disabled":false,"rental_uris":{"android":"levelo://app?vid=7475f743-fa68-4b23-ab37-60e01b01184f","ios":"levelo://app?vid=7475f743-fa68-4b23-ab37-60e01b01184f"},"vehicle_type_id":"4","last_reported":1736525499,"current_range_meters":31200,"station_id":"ce4bhrh2rcd13ifvqhug","pricing_plan_id":"cebpf4jnsgd1na2vs0mg"},{"bike_id":"e1a9eeca-afff-4076-97be-7e8fd04207a8","system_id":"levelo_inurba_marseille","lat":43.28407,"lon":5.37522,"is_reserved":false,"is_disabled":false,"rental_uris":{"android":"levelo://app?vid=e1a9eeca-afff-4076-97be-7e8fd04207a8","ios":"levelo://app?vid=e1a9eeca-afff-4076-97be-7e8fd04207a8"},"vehicle_type_id":"4","last_reported":1736525499,"current_range_meters":6400,"station_id":"ce4bh412rcd13ifvqds0","pricing_plan_id":"cebpf4jnsgd1na2vs0mg"},{"bike_id":"39e8b8db-a45b-47ac-924f-708d2b3bef9a","system_id":"levelo_inurba_marseille","lat":43.28637,"lon":5.3509,"is_reserved":false,"is_disabled":false,"rental_uris":{"android":"levelo://app?vid=39e8b8db-a45b-47ac-924f-708d2b3bef9a","ios":"levelo://app?vid=39e8b8db-a45b-47ac-924f-708d2b3bef9a"},"vehicle_type_id":"4","last_reported":1736525499,"current_range_meters":18000,"station_id":"ce4bhch2rcd13ifvqeug","pricing_plan_id":"cebpf4jnsgd1na2vs0mg"},{"bike_id":"96c82f85-9eaa-40ba-bb37-3cb7870432f7","system_id":"levelo_inurba_marseille","lat":43.29273,"lon":5.40115,"is_reserved":false,"is_disabled":false,"rental_uris":{"android":"levelo://app?vid=96c82f85-9eaa-40ba-bb37-3cb7870432f7","ios":"levelo://app?vid=96c82f85-9eaa-40ba-bb37-3cb7870432f7"},"vehicle_type_id":"4","last_reported":1736525499,"current_range_meters":34000,"station_id":"ce4bh312rcd13ifvqdk0","pricing_plan_id":"cebpf4jnsgd1na2vs0mg"},{"bike_id":"0615edb5-484f-4422-be48-09cdc2ddcd47","system_id":"levelo_inurba_marseille","lat":43.24177,"lon":5.39729,"is_reserved":false,"is_disabled":false,"rental_uris":{"android":"levelo://app?vid=0615edb5-484f-4422-be48-09cdc2ddcd47","ios":"levelo://app?vid=0615edb5-484f-4422-be48-09cdc2ddcd47"},"vehicle_type_id":"4","last_reported":1736525499,"current_range_meters":38800,"station_id":"ce4bhn12rcd13ifvqgpg","pricing_plan_id":"cebpf4jnsgd1na2vs0mg"},{"bike_id":"e2544aba-a350-44bf-ba9f-d261b2f4eb98","system_id":"levelo_inurba_marseille","lat":43.27953,"lon":5.41022,"is_reserved":false,"is_disabled":true,"rental_uris":{"android":"levelo://app?vid=e2544aba-a350-44bf-ba9f-d261b2f4eb98","ios":"levelo://app?vid=e2544aba-a350-44bf-ba9f-d261b2f4eb98"},"vehicle_type_id":"4","last_reported":1736525499,"current_range_meters":1200,"station_id":"ce4bhnp2rcd13ifvqh0g","pricing_plan_id":"cebpf4jnsgd1na2vs0mg"},{"bike_id":"4f8710ac-b7fe-46e2-9b85-89a2b91070fc","system_id":"levelo_inurba_marseille","lat":43.30399,"lon":5.40102,"is_reserved":false,"is_disabled":true,"rental_uris":{"android":"levelo://app?vid=4f8710ac-b7fe-46e2-9b85-89a2b91070fc","ios":"levelo://app?vid=4f8710ac-b7fe-46e2-9b85-89a2b91070fc"},"vehicle_type_id":"4","last_reported":1736525499,"current_range_meters":0,"station_id":"","pricing_plan_id":"cebpf4jnsgd1na2vs0mg"},{"bike_id":"2eb264c8-1e8d-4f17-a831-3cda07857865","system_id":"levelo_inurba_marseille","lat":43.32097,"lon":5.36768,"is_reserved":false,"is_disabled":false,"rental_uris":{"android":"levelo://app?vid=2eb264c8-1e8d-4f17-a831-3cda07857865","ios":"levelo://app?vid=2eb264c8-1e8d-4f17-a831-3cda07857865"},"vehicle_type_id":"4","last_reported":1736525499,"current_range_meters":34000,"station_id":"ce4bhrh2rcd13ifvqhug","pricing_plan_id":"cebpf4jnsgd1na2vs0mg"},{"bike_id":"1e2223a2-c032-49e7-8dbf-982df86a0520","system_id":"levelo_inurba_marseille","lat":43.22931,"lon":5.35382,"is_reserved":false,"is_disabled":false,"rental_uris":{"android":"levelo://app?vid=1e2223a2-c032-49e7-8dbf-982df86a0520","ios":"levelo://app?vid=1e2223a2-c032-49e7-8dbf-982df86a0520"},"vehicle_type_id":"4","last_reported":1736525499,"current_range_meters":32000,"station_id":"cpo3532slgdg3j2ikp40","pricing_plan_id":"cebpf4jnsgd1na2vs0mg"},{"bike_id":"816c2567-570f-4dea-94a5-cee630be949a","system_id":"levelo_inurba_marseille","lat":43.255789,"lon":5.382335,"is_reserved":false,"is_disabled":true,"rental_uris":{"android":"levelo://app?vid=816c2567-570f-4dea-94a5-cee630be949a","ios":"levelo://app?vid=816c2567-570f-4dea-94a5-cee630be949a"},"vehicle_type_id":"4","last_reported":1736525499,"current_range_meters":36800,"station_id":"ce4bhih2rcd13ifvqfs0","pricing_plan_id":"cebpf4jnsgd1na2vs0mg"},{"bike_id":"be8a233f-ad85-41b2-af03-bfa1e3033438","system_id":"levelo_inurba_marseille","lat":43.23195,"lon":5.35558,"is_reserved":false,"is_disabled":false,"rental_uris":{"android":"levelo://app?vid=be8a233f-ad85-41b2-af03-bfa1e3033438","ios":"levelo://app?vid=be8a233f-ad85-41b2-af03-bfa1e3033438"},"vehicle_type_id":"4","last_reported":1736525499,"current_range_meters":24400,"station_id":"ce4bhu92rcd13ifvqi70","pricing_plan_id":"cebpf4jnsgd1na2vs0mg"},{"bike_id":"d7284d59-0fa0-4e55-88c3-9102035d8a99","system_id":"levelo_inurba_marseille","lat":43.30244,"lon":5.40042,"is_reserved":false,"is_disabled":true,"rental_uris":{"android":"levelo://app?vid=d7284d59-0fa0-4e55-88c3-9102035d8a99","ios":"levelo://app?vid=d7284d59-0fa0-4e55-88c3-9102035d8a99"},"vehicle_type_id":"4","last_reported":1736525499,"current_range_meters":13600,"station_id":"ce4bgvh2rcd13ifvqcs0","pricing_plan_id":"cebpf4jnsgd1na2vs0mg"},{"bike_id":"064d2efa-7dbb-467e-a2b5-648421f12e2c","system_id":"levelo_inurba_marseille","lat":43.29613,"lon":5.3771,"is_reserved":false,"is_disabled":false,"rental_uris":{"android":"levelo://app?vid=064d2efa-7dbb-467e-a2b5-648421f12e2c","ios":"levelo://app?vid=064d2efa-7dbb-467e-a2b5-648421f12e2c"},"vehicle_type_id":"4","last_reported":1736525499,"current_range_meters":32400,"station_id":"ce4bgi92rcd13ifvqb90","pricing_plan_id":"cebpf4jnsgd1na2vs0mg"},{"bike_id":"a33b7e45-b8f4-4081-b3df-1aa30c9665a8","system_id":"levelo_inurba_marseille","lat":43.29612,"lon":5.37729,"is_reserved":false,"is_disabled":false,"rental_uris":{"android":"levelo://app?vid=a33b7e45-b8f4-4081-b3df-1aa30c9665a8","ios":"levelo://app?vid=a33b7e45-b8f4-4081-b3df-1aa30c9665a8"},"vehicle_type_id":"4","last_reported":1736525499,"current_range_meters":20800,"station_id":"ce4bgi92rcd13ifvqb90","pricing_plan_id":"cebpf4jnsgd1na2vs0mg"},{"bike_id":"401ff55f-764c-4de4-a59d-3b941aac169a","system_id":"levelo_inurba_marseille","lat":43.26063,"lon":5.39386,"is_reserved":false,"is_disabled":false,"rental_uris":{"android":"levelo://app?vid=401ff55f-764c-4de4-a59d-3b941aac169a","ios":"levelo://app?vid=401ff55f-764c-4de4-a59d-3b941aac169a"},"vehicle_type_id":"4","last_reported":1736525499,"current_range_meters":9200,"station_id":"ce4bhh92rcd13ifvqfj0","pricing_plan_id":"cebpf4jnsgd1na2vs0mg"},{"bike_id":"b78040f5-d3c6-45bc-acd5-78c4544f3cac","system_id":"levelo_inurba_marseille","lat":43.27948,"lon":5.41057,"is_reserved":false,"is_disabled":false,"rental_uris":{"android":"levelo://app?vid=b78040f5-d3c6-45bc-acd5-78c4544f3cac","ios":"levelo://app?vid=b78040f5-d3c6-45bc-acd5-78c4544f3cac"},"vehicle_type_id":"4","last_reported":1736525499,"current_range_meters":20400,"station_id":"ce4bhnp2rcd13ifvqh0g","pricing_plan_id":"cebpf4jnsgd1na2vs0mg"},{"bike_id":"4a4cc57a-9f55-4ba1-b681-fde36b475ae9","system_id":"levelo_inurba_marseille","lat":43.28152,"lon":5.40438,"is_reserved":false,"is_disabled":false,"rental_uris":{"android":"levelo://app?vid=4a4cc57a-9f55-4ba1-b681-fde36b475ae9","ios":"levelo://app?vid=4a4cc57a-9f55-4ba1-b681-fde36b475ae9"},"vehicle_type_id":"4","last_reported":1736525499,"current_range_meters":8800,"station_id":"ce4bh3p2rcd13ifvqdq0","pricing_plan_id":"cebpf4jnsgd1na2vs0mg"},{"bike_id":"a4a1c7e6-66c4-4368-af66-ff064e6a876a","system_id":"levelo_inurba_marseille","lat":43.29265,"lon":5.40125,"is_reserved":false,"is_disabled":false,"rental_uris":{"android":"levelo://app?vid=a4a1c7e6-66c4-4368-af66-ff064e6a876a","ios":"levelo://app?vid=a4a1c7e6-66c4-4368-af66-ff064e6a876a"},"vehicle_type_id":"4","last_reported":1736525499,"current_range_meters":8000,"station_id":"ce4bh312rcd13ifvqdk0","pricing_plan_id":"cebpf4jnsgd1na2vs0mg"},{"bike_id":"0751221b-37bf-4486-a78f-e3467767c553","system_id":"levelo_inurba_marseille","lat":43.25578,"lon":5.38241,"is_reserved":false,"is_disabled":false,"rental_uris":{"android":"levelo://app?vid=0751221b-37bf-4486-a78f-e3467767c553","ios":"levelo://app?vid=0751221b-37bf-4486-a78f-e3467767c553"},"vehicle_type_id":"4","last_reported":1736525499,"current_range_meters":38800,"station_id":"ce4bhih2rcd13ifvqfs0","pricing_plan_id":"cebpf4jnsgd1na2vs0mg"},{"bike_id":"ad480116-0bc3-416a-8b7c-87a526f228e4","system_id":"levelo_inurba_marseille","lat":43.30319,"lon":5.36893,"is_reserved":false,"is_disabled":false,"rental_uris":{"android":"levelo://app?vid=ad480116-0bc3-416a-8b7c-87a526f228e4","ios":"levelo://app?vid=ad480116-0bc3-416a-8b7c-87a526f228e4"},"vehicle_type_id":"4","last_reported":1736525499,"current_range_meters":36400,"station_id":"ce4bgqh2rcd13ifvqc5g","pricing_plan_id":"cebpf4jnsgd1na2vs0mg"},{"bike_id":"ca72bb38-6596-47b1-91c2-1d6f232cb29d","system_id":"levelo_inurba_marseille","lat":43.27364,"lon":5.36257,"is_reserved":false,"is_disabled":false,"rental_uris":{"android":"levelo://app?vid=ca72bb38-6596-47b1-91c2-1d6f232cb29d","ios":"levelo://app?vid=ca72bb38-6596-47b1-91c2-1d6f232cb29d"},"vehicle_type_id":"4","last_reported":1736525499,"current_range_meters":39200,"station_id":"ce4bhbh2rcd13ifvqeo0","pricing_plan_id":"cebpf4jnsgd1na2vs0mg"},{"bike_id":"2131771f-f41e-4a79-a293-c2063d60f666","system_id":"levelo_inurba_marseille","lat":43.28845,"lon":5.39265,"is_reserved":false,"is_disabled":false,"rental_uris":{"android":"levelo://app?vid=2131771f-f41e-4a79-a293-c2063d60f666","ios":"levelo://app?vid=2131771f-f41e-4a79-a293-c2063d60f666"},"vehicle_type_id":"4","last_reported":1736525499,"current_range_meters":4800,"station_id":"ce4bh2p2rcd13ifvqdi0","pricing_plan_id":"cebpf4jnsgd1na2vs0mg"},{"bike_id":"ad28bd53-1c8c-44ea-9a1c-1e5a5b2498fe","system_id":"levelo_inurba_marseille","lat":43.24174,"lon":5.36416,"is_reserved":false,"is_disabled":false,"rental_uris":{"android":"levelo://app?vid=ad28bd53-1c8c-44ea-9a1c-1e5a5b2498fe","ios":"levelo://app?vid=ad28bd53-1c8c-44ea-9a1c-1e5a5b2498fe"},"vehicle_type_id":"4","last_reported":1736525499,"current_range_meters":9600,"station_id":"cpo36qri1sfpv3e86is0","pricing_plan_id":"cebpf4jnsgd1na2vs0mg"},{"bike_id":"a485df20-6949-450b-817f-83560d5ca690","system_id":"levelo_inurba_marseille","lat":43.29041,"lon":5.37574,"is_reserved":false,"is_disabled":false,"rental_uris":{"android":"levelo://app?vid=a485df20-6949-450b-817f-83560d5ca690","ios":"levelo://app?vid=a485df20-6949-450b-817f-83560d5ca690"},"vehicle_type_id":"4","last_reported":1736525499,"current_range_meters":30800,"station_id":"ce4bh692rcd13ifvqe90","pricing_plan_id":"cebpf4jnsgd1na2vs0mg"},{"bike_id":"fd391227-d5c0-4e0e-a9ed-197c4a4efdae","system_id":"levelo_inurba_marseille","lat":43.28662,"lon":5.36356,"is_reserved":false,"is_disabled":false,"rental_uris":{"android":"levelo://app?vid=fd391227-d5c0-4e0e-a9ed-197c4a4efdae","ios":"levelo://app?vid=fd391227-d5c0-4e0e-a9ed-197c4a4efdae"},"vehicle_type_id":"4","last_reported":1736525499,"current_range_meters":27600,"station_id":"ce4bhah2rcd13ifvqej0","pricing_plan_id":"cebpf4jnsgd1na2vs0mg"},{"bike_id":"71a3091e-3542-45c0-aafd-125914f1fcc9","system_id":"levelo_inurba_marseille","lat":43.28462,"lon":5.35881,"is_reserved":false,"is_disabled":false,"rental_uris":{"android":"levelo://app?vid=71a3091e-3542-45c0-aafd-125914f1fcc9","ios":"levelo://app?vid=71a3091e-3542-45c0-aafd-125914f1fcc9"},"vehicle_type_id":"4","last_reported":1736525499,"current_range_meters":33600,"station_id":"ce4bhah2rcd13ifvqei0","pricing_plan_id":"cebpf4jnsgd1na2vs0mg"},{"bike_id":"b8acbba0-a715-4ced-a2aa-0517db10ac9d","system_id":"levelo_inurba_marseille","lat":43.229303,"lon":5.353612,"is_reserved":false,"is_disabled":true,"rental_uris":{"android":"levelo://app?vid=b8acbba0-a715-4ced-a2aa-0517db10ac9d","ios":"levelo://app?vid=b8acbba0-a715-4ced-a2aa-0517db10ac9d"},"vehicle_type_id":"4","last_reported":1736525499,"current_range_meters":38800,"station_id":"cpo3532slgdg3j2ikp40","pricing_plan_id":"cebpf4jnsgd1na2vs0mg"},{"bike_id":"c144e423-9fd2-442c-ac43-fbc0550e9250","system_id":"levelo_inurba_marseille","lat":43.25111,"lon":5.40322,"is_reserved":false,"is_disabled":false,"rental_uris":{"android":"levelo://app?vid=c144e423-9fd2-442c-ac43-fbc0550e9250","ios":"levelo://app?vid=c144e423-9fd2-442c-ac43-fbc0550e9250"},"vehicle_type_id":"4","last_reported":1736525499,"current_range_meters":6800,"station_id":"ce4bhlh2rcd13ifvqgig","pricing_plan_id":"cebpf4jnsgd1na2vs0mg"},{"bike_id":"f9a366fa-dc72-4933-b5ea-c423ec5dca9c","system_id":"levelo_inurba_marseille","lat":43.29709,"lon":5.36605,"is_reserved":false,"is_disabled":false,"rental_uris":{"android":"levelo://app?vid=f9a366fa-dc72-4933-b5ea-c423ec5dca9c","ios":"levelo://app?vid=f9a366fa-dc72-4933-b5ea-c423ec5dca9c"},"vehicle_type_id":"4","last_reported":1736525499,"current_range_meters":8000,"station_id":"ce4bgn12rcd13ifvqbt0","pricing_plan_id":"cebpf4jnsgd1na2vs0mg"},{"bike_id":"ad113f76-a766-497a-90be-d1902352af36","system_id":"levelo_inurba_marseille","lat":43.3211,"lon":5.3677,"is_reserved":false,"is_disabled":false,"rental_uris":{"android":"levelo://app?vid=ad113f76-a766-497a-90be-d1902352af36","ios":"levelo://app?vid=ad113f76-a766-497a-90be-d1902352af36"},"vehicle_type_id":"4","last_reported":1736525499,"current_range_meters":38000,"station_id":"ce4bhrh2rcd13ifvqhug","pricing_plan_id":"cebpf4jnsgd1na2vs0mg"},{"bike_id":"2a41c80f-f772-42ef-a88c-dbfac1477441","system_id":"levelo_inurba_marseille","lat":43.28955,"lon":5.36398,"is_reserved":false,"is_disabled":false,"rental_uris":{"android":"levelo://app?vid=2a41c80f-f772-42ef-a88c-dbfac1477441","ios":"levelo://app?vid=2a41c80f-f772-42ef-a88c-dbfac1477441"},"vehicle_type_id":"4","last_reported":1736525499,"current_range_meters":38800,"station_id":"ce4bhc92rcd13ifvqetg","pricing_plan_id":"cebpf4jnsgd1na2vs0mg"},{"bike_id":"492eaeaa-12ec-45d5-becd-2f0b35e16c8d","system_id":"levelo_inurba_marseille","lat":43.24166,"lon":5.363937,"is_reserved":false,"is_disabled":false,"rental_uris":{"android":"levelo://app?vid=492eaeaa-12ec-45d5-becd-2f0b35e16c8d","ios":"levelo://app?vid=492eaeaa-12ec-45d5-becd-2f0b35e16c8d"},"vehicle_type_id":"4","last_reported":1736525499,"current_range_meters":12800,"station_id":"cpo36qri1sfpv3e86is0","pricing_plan_id":"cebpf4jnsgd1na2vs0mg"},{"bike_id":"377730c6-0336-4c78-9c46-cdee41ff19a9","system_id":"levelo_inurba_marseille","lat":43.28027,"lon":5.41117,"is_reserved":false,"is_disabled":false,"rental_uris":{"android":"levelo://app?vid=377730c6-0336-4c78-9c46-cdee41ff19a9","ios":"levelo://app?vid=377730c6-0336-4c78-9c46-cdee41ff19a9"},"vehicle_type_id":"4","last_reported":1736525499,"current_range_meters":6000,"station_id":"","pricing_plan_id":"cebpf4jnsgd1na2vs0mg"},{"bike_id":"07b32511-ec8f-4999-8db6-3fe48f8d3367","system_id":"levelo_inurba_marseille","lat":43.31088,"lon":5.38362,"is_reserved":false,"is_disabled":false,"rental_uris":{"android":"levelo://app?vid=07b32511-ec8f-4999-8db6-3fe48f8d3367","ios":"levelo://app?vid=07b32511-ec8f-4999-8db6-3fe48f8d3367"},"vehicle_type_id":"4","last_reported":1736525499,"current_range_meters":24400,"station_id":"ce4bgv92rcd13ifvqcr0","pricing_plan_id":"cebpf4jnsgd1na2vs0mg"},{"bike_id":"69689a84-aa34-48e6-8abf-e56354e3d93c","system_id":"levelo_inurba_marseille","lat":43.29523,"lon":5.37514,"is_reserved":false,"is_disabled":true,"rental_uris":{"android":"levelo://app?vid=69689a84-aa34-48e6-8abf-e56354e3d93c","ios":"levelo://app?vid=69689a84-aa34-48e6-8abf-e56354e3d93c"},"vehicle_type_id":"4","last_reported":1736525499,"current_range_meters":34000,"station_id":"ce4bgkp2rcd13ifvqbmg","pricing_plan_id":"cebpf4jnsgd1na2vs0mg"},{"bike_id":"266859f2-18fe-482a-8c9f-5bdad982c716","system_id":"levelo_inurba_marseille","lat":43.28035,"lon":5.41118,"is_reserved":false,"is_disabled":false,"rental_uris":{"android":"levelo://app?vid=266859f2-18fe-482a-8c9f-5bdad982c716","ios":"levelo://app?vid=266859f2-18fe-482a-8c9f-5bdad982c716"},"vehicle_type_id":"4","last_reported":1736525499,"current_range_meters":3200,"station_id":"","pricing_plan_id":"cebpf4jnsgd1na2vs0mg"},{"bike_id":"2c688393-e883-49b4-9c87-6e46d8474957","system_id":"levelo_inurba_marseille","lat":43.30791,"lon":5.37642,"is_reserved":false,"is_disabled":false,"rental_uris":{"android":"levelo://app?vid=2c688393-e883-49b4-9c87-6e46d8474957","ios":"levelo://app?vid=2c688393-e883-49b4-9c87-6e46d8474957"},"vehicle_type_id":"4","last_reported":1736525499,"current_range_meters":32800,"station_id":"ce4bgv92rcd13ifvqcq0","pricing_plan_id":"cebpf4jnsgd1na2vs0mg"},{"bike_id":"83920d00-0bac-486a-ac22-b2b92fff98a1","system_id":"levelo_inurba_marseille","lat":43.30645,"lon":5.40073,"is_reserved":false,"is_disabled":false,"rental_uris":{"android":"levelo://app?vid=83920d00-0bac-486a-ac22-b2b92fff98a1","ios":"levelo://app?vid=83920d00-0bac-486a-ac22-b2b92fff98a1"},"vehicle_type_id":"4","last_reported":1736525499,"current_range_meters":6800,"station_id":"ce4bh112rcd13ifvqda0","pricing_plan_id":"cebpf4jnsgd1na2vs0mg"},{"bike_id":"f2cb2b1a-72e5-4f7a-9ac7-58f106f6c7ff","system_id":"levelo_inurba_marseille","lat":43.26678,"lon":5.38272,"is_reserved":false,"is_disabled":false,"rental_uris":{"android":"levelo://app?vid=f2cb2b1a-72e5-4f7a-9ac7-58f106f6c7ff","ios":"levelo://app?vid=f2cb2b1a-72e5-4f7a-9ac7-58f106f6c7ff"},"vehicle_type_id":"4","last_reported":1736525499,"current_range_meters":24800,"station_id":"ce4bhg92rcd13ifvqf90","pricing_plan_id":"cebpf4jnsgd1na2vs0mg"},{"bike_id":"01559d93-a0b4-4e02-bfc0-edc509722fda","system_id":"levelo_inurba_marseille","lat":43.31716,"lon":5.42389,"is_reserved":false,"is_disabled":false,"rental_uris":{"android":"levelo://app?vid=01559d93-a0b4-4e02-bfc0-edc509722fda","ios":"levelo://app?vid=01559d93-a0b4-4e02-bfc0-edc509722fda"},"vehicle_type_id":"4","last_reported":1736525499,"current_range_meters":30800,"station_id":"ce4bhp92rcd13ifvqhbg","pricing_plan_id":"cebpf4jnsgd1na2vs0mg"},{"bike_id":"79d4d31b-e814-4db1-9d24-013e65778338","system_id":"levelo_inurba_marseille","lat":43.26196,"lon":5.37446,"is_reserved":false,"is_disabled":false,"rental_uris":{"android":"levelo://app?vid=79d4d31b-e814-4db1-9d24-013e65778338","ios":"levelo://app?vid=79d4d31b-e814-4db1-9d24-013e65778338"},"vehicle_type_id":"4","last_reported":1736525499,"current_range_meters":21600,"station_id":"ce4bhgp2rcd13ifvqfc0","pricing_plan_id":"cebpf4jnsgd1na2vs0mg"},{"bike_id":"20e5ca04-7572-4a9c-a0ae-3aa1294ad9ed","system_id":"levelo_inurba_marseille","lat":43.30151,"lon":5.38089,"is_reserved":false,"is_disabled":false,"rental_uris":{"android":"levelo://app?vid=20e5ca04-7572-4a9c-a0ae-3aa1294ad9ed","ios":"levelo://app?vid=20e5ca04-7572-4a9c-a0ae-3aa1294ad9ed"},"vehicle_type_id":"4","last_reported":1736525499,"current_range_meters":16400,"station_id":"ce4bgjp2rcd13ifvqbh0","pricing_plan_id":"cebpf4jnsgd1na2vs0mg"},{"bike_id":"00fd3c4c-0e4e-4eff-b779-de0495087cab","system_id":"levelo_inurba_marseille","lat":43.29783,"lon":5.38098,"is_reserved":false,"is_disabled":false,"rental_uris":{"android":"levelo://app?vid=00fd3c4c-0e4e-4eff-b779-de0495087cab","ios":"levelo://app?vid=00fd3c4c-0e4e-4eff-b779-de0495087cab"},"vehicle_type_id":"4","last_reported":1736525499,"current_range_meters":34800,"station_id":"ce4bgip2rcd13ifvqbb0","pricing_plan_id":"cebpf4jnsgd1na2vs0mg"},{"bike_id":"f95a3f6e-e375-4dc4-9d6e-2ae8c5602a90","system_id":"levelo_inurba_marseille","lat":43.28636,"lon":5.35106,"is_reserved":false,"is_disabled":false,"rental_uris":{"android":"levelo://app?vid=f95a3f6e-e375-4dc4-9d6e-2ae8c5602a90","ios":"levelo://app?vid=f95a3f6e-e375-4dc4-9d6e-2ae8c5602a90"},"vehicle_type_id":"4","last_reported":1736525499,"current_range_meters":24400,"station_id":"ce4bhch2rcd13ifvqeug","pricing_plan_id":"cebpf4jnsgd1na2vs0mg"},{"bike_id":"d5547491-1e73-4373-af6b-070158834c0a","system_id":"levelo_inurba_marseille","lat":43.31103,"lon":5.37734,"is_reserved":false,"is_disabled":false,"rental_uris":{"android":"levelo://app?vid=d5547491-1e73-4373-af6b-070158834c0a","ios":"levelo://app?vid=d5547491-1e73-4373-af6b-070158834c0a"},"vehicle_type_id":"4","last_reported":1736525499,"current_range_meters":28000,"station_id":"ce4bgt92rcd13ifvqcg0","pricing_plan_id":"cebpf4jnsgd1na2vs0mg"},{"bike_id":"a75b5b88-3c41-4a19-a376-27e21e28aca9","system_id":"levelo_inurba_marseille","lat":43.30535,"lon":5.3655,"is_reserved":false,"is_disabled":false,"rental_uris":{"android":"levelo://app?vid=a75b5b88-3c41-4a19-a376-27e21e28aca9","ios":"levelo://app?vid=a75b5b88-3c41-4a19-a376-27e21e28aca9"},"vehicle_type_id":"4","last_reported":1736525499,"current_range_meters":4400,"station_id":"ce4bgs12rcd13ifvqcag","pricing_plan_id":"cebpf4jnsgd1na2vs0mg"},{"bike_id":"3a9366c6-502a-444b-b374-6877acc3af2b","system_id":"levelo_inurba_marseille","lat":43.31718,"lon":5.42401,"is_reserved":false,"is_disabled":false,"rental_uris":{"android":"levelo://app?vid=3a9366c6-502a-444b-b374-6877acc3af2b","ios":"levelo://app?vid=3a9366c6-502a-444b-b374-6877acc3af2b"},"vehicle_type_id":"4","last_reported":1736525499,"current_range_meters":5600,"station_id":"ce4bhp92rcd13ifvqhbg","pricing_plan_id":"cebpf4jnsgd1na2vs0mg"},{"bike_id":"d744633a-c5f2-431a-9090-228e806526df","system_id":"levelo_inurba_marseille","lat":43.29278,"lon":5.40127,"is_reserved":false,"is_disabled":false,"rental_uris":{"android":"levelo://app?vid=d744633a-c5f2-431a-9090-228e806526df","ios":"levelo://app?vid=d744633a-c5f2-431a-9090-228e806526df"},"vehicle_type_id":"4","last_reported":1736525499,"current_range_meters":8000,"station_id":"ce4bh312rcd13ifvqdk0","pricing_plan_id":"cebpf4jnsgd1na2vs0mg"},{"bike_id":"711b0961-e9dd-4cb4-bd77-1c3efd8ddc03","system_id":"levelo_inurba_marseille","lat":43.27167,"lon":5.40986,"is_reserved":false,"is_disabled":false,"rental_uris":{"android":"levelo://app?vid=711b0961-e9dd-4cb4-bd77-1c3efd8ddc03","ios":"levelo://app?vid=711b0961-e9dd-4cb4-bd77-1c3efd8ddc03"},"vehicle_type_id":"4","last_reported":1736525499,"current_range_meters":34000,"station_id":"ce4bhl12rcd13ifvqgf0","pricing_plan_id":"cebpf4jnsgd1na2vs0mg"},{"bike_id":"b9619dd7-91f7-432e-b0ef-695b4d3f299d","system_id":"levelo_inurba_marseille","lat":43.31998,"lon":5.38167,"is_reserved":false,"is_disabled":false,"rental_uris":{"android":"levelo://app?vid=b9619dd7-91f7-432e-b0ef-695b4d3f299d","ios":"levelo://app?vid=b9619dd7-91f7-432e-b0ef-695b4d3f299d"},"vehicle_type_id":"4","last_reported":1736525499,"current_range_meters":11600,"station_id":"ce4bhr12rcd13ifvqhpg","pricing_plan_id":"cebpf4jnsgd1na2vs0mg"},{"bike_id":"f13a541f-179f-4c41-addb-df4a1f69f0e1","system_id":"levelo_inurba_marseille","lat":43.28853,"lon":5.39321,"is_reserved":false,"is_disabled":false,"rental_uris":{"android":"levelo://app?vid=f13a541f-179f-4c41-addb-df4a1f69f0e1","ios":"levelo://app?vid=f13a541f-179f-4c41-addb-df4a1f69f0e1"},"vehicle_type_id":"4","last_reported":1736525499,"current_range_meters":10800,"station_id":"ce4bh2p2rcd13ifvqdi0","pricing_plan_id":"cebpf4jnsgd1na2vs0mg"},{"bike_id":"24f515b3-81f3-4d6f-ae7d-b430ec0e88f5","system_id":"levelo_inurba_marseille","lat":43.28858,"lon":5.3933,"is_reserved":false,"is_disabled":false,"rental_uris":{"android":"levelo://app?vid=24f515b3-81f3-4d6f-ae7d-b430ec0e88f5","ios":"levelo://app?vid=24f515b3-81f3-4d6f-ae7d-b430ec0e88f5"},"vehicle_type_id":"4","last_reported":1736525499,"current_range_meters":38800,"station_id":"ce4bh2p2rcd13ifvqdi0","pricing_plan_id":"cebpf4jnsgd1na2vs0mg"},{"bike_id":"69047c1d-7d57-4894-8a5c-e20d96fbed8d","system_id":"levelo_inurba_marseille","lat":43.28657,"lon":5.36343,"is_reserved":false,"is_disabled":false,"rental_uris":{"android":"levelo://app?vid=69047c1d-7d57-4894-8a5c-e20d96fbed8d","ios":"levelo://app?vid=69047c1d-7d57-4894-8a5c-e20d96fbed8d"},"vehicle_type_id":"4","last_reported":1736525499,"current_range_meters":38800,"station_id":"ce4bhah2rcd13ifvqej0","pricing_plan_id":"cebpf4jnsgd1na2vs0mg"},{"bike_id":"9953f8e5-1ec9-430c-9fd2-071fa2132bbf","system_id":"levelo_inurba_marseille","lat":43.29526,"lon":5.38547,"is_reserved":false,"is_disabled":false,"rental_uris":{"android":"levelo://app?vid=9953f8e5-1ec9-430c-9fd2-071fa2132bbf","ios":"levelo://app?vid=9953f8e5-1ec9-430c-9fd2-071fa2132bbf"},"vehicle_type_id":"4","last_reported":1736525499,"current_range_meters":38800,"station_id":"ce4bgih2rcd13ifvqba0","pricing_plan_id":"cebpf4jnsgd1na2vs0mg"},{"bike_id":"782b8766-0aea-4709-8aed-aa27661f3e86","system_id":"levelo_inurba_marseille","lat":43.30533,"lon":5.38422,"is_reserved":false,"is_disabled":false,"rental_uris":{"android":"levelo://app?vid=782b8766-0aea-4709-8aed-aa27661f3e86","ios":"levelo://app?vid=782b8766-0aea-4709-8aed-aa27661f3e86"},"vehicle_type_id":"4","last_reported":1736525499,"current_range_meters":30400,"station_id":"ce4bgg92rcd13ifvqb30","pricing_plan_id":"cebpf4jnsgd1na2vs0mg"},{"bike_id":"ca2450e7-5c66-4bdc-b528-943118702b91","system_id":"levelo_inurba_marseille","lat":43.33732,"lon":5.39184,"is_reserved":false,"is_disabled":false,"rental_uris":{"android":"levelo://app?vid=ca2450e7-5c66-4bdc-b528-943118702b91","ios":"levelo://app?vid=ca2450e7-5c66-4bdc-b528-943118702b91"},"vehicle_type_id":"4","last_reported":1736525499,"current_range_meters":38800,"station_id":"ce4bhr92rcd13ifvqhsg","pricing_plan_id":"cebpf4jnsgd1na2vs0mg"},{"bike_id":"be97934a-efd5-43dc-a20c-fded1b4a0387","system_id":"levelo_inurba_marseille","lat":43.23963,"lon":5.3662,"is_reserved":false,"is_disabled":false,"rental_uris":{"android":"levelo://app?vid=be97934a-efd5-43dc-a20c-fded1b4a0387","ios":"levelo://app?vid=be97934a-efd5-43dc-a20c-fded1b4a0387"},"vehicle_type_id":"4","last_reported":1736525499,"current_range_meters":38800,"station_id":"ce4bhi12rcd13ifvqfp0","pricing_plan_id":"cebpf4jnsgd1na2vs0mg"},{"bike_id":"d5f7e953-050c-4cea-99af-495b991331e3","system_id":"levelo_inurba_marseille","lat":43.31764,"lon":5.37584,"is_reserved":false,"is_disabled":false,"rental_uris":{"android":"levelo://app?vid=d5f7e953-050c-4cea-99af-495b991331e3","ios":"levelo://app?vid=d5f7e953-050c-4cea-99af-495b991331e3"},"vehicle_type_id":"4","last_reported":1736525499,"current_range_meters":38800,"station_id":"","pricing_plan_id":"cebpf4jnsgd1na2vs0mg"},{"bike_id":"921f7bce-db66-47d0-a237-43d20d2a6e4d","system_id":"levelo_inurba_marseille","lat":43.3061,"lon":5.37229,"is_reserved":false,"is_disabled":false,"rental_uris":{"android":"levelo://app?vid=921f7bce-db66-47d0-a237-43d20d2a6e4d","ios":"levelo://app?vid=921f7bce-db66-47d0-a237-43d20d2a6e4d"},"vehicle_type_id":"4","last_reported":1736525499,"current_range_meters":37600,"station_id":"ce4bgqh2rcd13ifvqc4g","pricing_plan_id":"cebpf4jnsgd1na2vs0mg"},{"bike_id":"a1164a90-2dc8-4478-8d43-814a6b95fb9e","system_id":"levelo_inurba_marseille","lat":43.33755,"lon":5.37453,"is_reserved":false,"is_disabled":false,"rental_uris":{"android":"levelo://app?vid=a1164a90-2dc8-4478-8d43-814a6b95fb9e","ios":"levelo://app?vid=a1164a90-2dc8-4478-8d43-814a6b95fb9e"},"vehicle_type_id":"4","last_reported":1736525499,"current_range_meters":38400,"station_id":"","pricing_plan_id":"cebpf4jnsgd1na2vs0mg"},{"bike_id":"a8e7a711-8962-4e7a-8887-6d71298d2cec","system_id":"levelo_inurba_marseille","lat":43.30551,"lon":5.36554,"is_reserved":false,"is_disabled":false,"rental_uris":{"android":"levelo://app?vid=a8e7a711-8962-4e7a-8887-6d71298d2cec","ios":"levelo://app?vid=a8e7a711-8962-4e7a-8887-6d71298d2cec"},"vehicle_type_id":"4","last_reported":1736525499,"current_range_meters":26800,"station_id":"ce4bgs12rcd13ifvqcag","pricing_plan_id":"cebpf4jnsgd1na2vs0mg"},{"bike_id":"122c24a5-2303-4b05-a2eb-945976a79baf","system_id":"levelo_inurba_marseille","lat":43.27203,"lon":5.39176,"is_reserved":false,"is_disabled":false,"rental_uris":{"android":"levelo://app?vid=122c24a5-2303-4b05-a2eb-945976a79baf","ios":"levelo://app?vid=122c24a5-2303-4b05-a2eb-945976a79baf"},"vehicle_type_id":"4","last_reported":1736525499,"current_range_meters":35200,"station_id":"ce4bhhp2rcd13ifvqfm0","pricing_plan_id":"cebpf4jnsgd1na2vs0mg"},{"bike_id":"6fdecff2-2545-405f-8c66-4d246590b289","system_id":"levelo_inurba_marseille","lat":43.24162,"lon":5.36395,"is_reserved":false,"is_disabled":false,"rental_uris":{"android":"levelo://app?vid=6fdecff2-2545-405f-8c66-4d246590b289","ios":"levelo://app?vid=6fdecff2-2545-405f-8c66-4d246590b289"},"vehicle_type_id":"4","last_reported":1736525499,"current_range_meters":13600,"station_id":"cpo36qri1sfpv3e86is0","pricing_plan_id":"cebpf4jnsgd1na2vs0mg"},{"bike_id":"b72bd1d7-4c39-4e5e-97aa-5aa72c212ff4","system_id":"levelo_inurba_marseille","lat":43.25089,"lon":5.39522,"is_reserved":false,"is_disabled":false,"rental_uris":{"android":"levelo://app?vid=b72bd1d7-4c39-4e5e-97aa-5aa72c212ff4","ios":"levelo://app?vid=b72bd1d7-4c39-4e5e-97aa-5aa72c212ff4"},"vehicle_type_id":"4","last_reported":1736525499,"current_range_meters":38800,"station_id":"ce4bhm12rcd13ifvqgkg","pricing_plan_id":"cebpf4jnsgd1na2vs0mg"},{"bike_id":"e861f7a5-116f-47e0-ab18-ccb25b4d0900","system_id":"levelo_inurba_marseille","lat":43.30131,"lon":5.39867,"is_reserved":false,"is_disabled":false,"rental_uris":{"android":"levelo://app?vid=e861f7a5-116f-47e0-ab18-ccb25b4d0900","ios":"levelo://app?vid=e861f7a5-116f-47e0-ab18-ccb25b4d0900"},"vehicle_type_id":"4","last_reported":1736525499,"current_range_meters":22000,"station_id":"ce4bh0h2rcd13ifvqd40","pricing_plan_id":"cebpf4jnsgd1na2vs0mg"},{"bike_id":"d40d9428-a2fe-4f4e-a58b-7e600af87521","system_id":"levelo_inurba_marseille","lat":43.26051,"lon":5.39395,"is_reserved":false,"is_disabled":false,"rental_uris":{"android":"levelo://app?vid=d40d9428-a2fe-4f4e-a58b-7e600af87521","ios":"levelo://app?vid=d40d9428-a2fe-4f4e-a58b-7e600af87521"},"vehicle_type_id":"4","last_reported":1736525499,"current_range_meters":4000,"station_id":"ce4bhh92rcd13ifvqfj0","pricing_plan_id":"cebpf4jnsgd1na2vs0mg"},{"bike_id":"cb3fcc9a-db4e-4110-b6dc-a684c13ad5c0","system_id":"levelo_inurba_marseille","lat":43.32419,"lon":5.38934,"is_reserved":false,"is_disabled":false,"rental_uris":{"android":"levelo://app?vid=cb3fcc9a-db4e-4110-b6dc-a684c13ad5c0","ios":"levelo://app?vid=cb3fcc9a-db4e-4110-b6dc-a684c13ad5c0"},"vehicle_type_id":"4","last_reported":1736525499,"current_range_meters":14000,"station_id":"","pricing_plan_id":"cebpf4jnsgd1na2vs0mg"},{"bike_id":"eabaf27b-72f2-4249-9a2c-a32234730eb2","system_id":"levelo_inurba_marseille","lat":43.30746,"lon":5.3788,"is_reserved":false,"is_disabled":false,"rental_uris":{"android":"levelo://app?vid=eabaf27b-72f2-4249-9a2c-a32234730eb2","ios":"levelo://app?vid=eabaf27b-72f2-4249-9a2c-a32234730eb2"},"vehicle_type_id":"4","last_reported":1736525499,"current_range_meters":6400,"station_id":"","pricing_plan_id":"cebpf4jnsgd1na2vs0mg"},{"bike_id":"9ebda255-efb4-4ab3-b04a-ae4abf443a46","system_id":"levelo_inurba_marseille","lat":43.307817,"lon":5.376397,"is_reserved":false,"is_disabled":false,"rental_uris":{"android":"levelo://app?vid=9ebda255-efb4-4ab3-b04a-ae4abf443a46","ios":"levelo://app?vid=9ebda255-efb4-4ab3-b04a-ae4abf443a46"},"vehicle_type_id":"4","last_reported":1736525499,"current_range_meters":29600,"station_id":"ce4bgv92rcd13ifvqcq0","pricing_plan_id":"cebpf4jnsgd1na2vs0mg"},{"bike_id":"c19ac43c-25c8-47c2-9551-7bb58b5b5508","system_id":"levelo_inurba_marseille","lat":43.337561,"lon":5.374573,"is_reserved":false,"is_disabled":false,"rental_uris":{"android":"levelo://app?vid=c19ac43c-25c8-47c2-9551-7bb58b5b5508","ios":"levelo://app?vid=c19ac43c-25c8-47c2-9551-7bb58b5b5508"},"vehicle_type_id":"4","last_reported":1736525499,"current_range_meters":37600,"station_id":"","pricing_plan_id":"cebpf4jnsgd1na2vs0mg"},{"bike_id":"78f543b4-486b-4e6e-8f6b-ad8fdcfae2fa","system_id":"levelo_inurba_marseille","lat":43.30439,"lon":5.38885,"is_reserved":false,"is_disabled":false,"rental_uris":{"android":"levelo://app?vid=78f543b4-486b-4e6e-8f6b-ad8fdcfae2fa","ios":"levelo://app?vid=78f543b4-486b-4e6e-8f6b-ad8fdcfae2fa"},"vehicle_type_id":"4","last_reported":1736525499,"current_range_meters":10800,"station_id":"ce4bgk12rcd13ifvqbi0","pricing_plan_id":"cebpf4jnsgd1na2vs0mg"},{"bike_id":"47cf20b4-f1ba-4f52-906e-d4eb8560a3e0","system_id":"levelo_inurba_marseille","lat":43.26799,"lon":5.40265,"is_reserved":false,"is_disabled":false,"rental_uris":{"android":"levelo://app?vid=47cf20b4-f1ba-4f52-906e-d4eb8560a3e0","ios":"levelo://app?vid=47cf20b4-f1ba-4f52-906e-d4eb8560a3e0"},"vehicle_type_id":"4","last_reported":1736525499,"current_range_meters":8400,"station_id":"ce501612rcd8frsf0b60","pricing_plan_id":"cebpf4jnsgd1na2vs0mg"},{"bike_id":"5b6e4112-bb5e-42b9-ae3e-15bfc3cf2e06","system_id":"levelo_inurba_marseille","lat":43.29171,"lon":5.37158,"is_reserved":false,"is_disabled":false,"rental_uris":{"android":"levelo://app?vid=5b6e4112-bb5e-42b9-ae3e-15bfc3cf2e06","ios":"levelo://app?vid=5b6e4112-bb5e-42b9-ae3e-15bfc3cf2e06"},"vehicle_type_id":"4","last_reported":1736525499,"current_range_meters":38000,"station_id":"ce4bha92rcd13ifvqeh0","pricing_plan_id":"cebpf4jnsgd1na2vs0mg"},{"bike_id":"1483ed74-2ac9-4360-a0b0-cd1b27122b84","system_id":"levelo_inurba_marseille","lat":43.24657,"lon":5.38897,"is_reserved":false,"is_disabled":false,"rental_uris":{"android":"levelo://app?vid=1483ed74-2ac9-4360-a0b0-cd1b27122b84","ios":"levelo://app?vid=1483ed74-2ac9-4360-a0b0-cd1b27122b84"},"vehicle_type_id":"4","last_reported":1736525499,"current_range_meters":14800,"station_id":"ce4bhg12rcd13ifvqf60","pricing_plan_id":"cebpf4jnsgd1na2vs0mg"},{"bike_id":"b0d66df1-2b6e-4bea-8fa5-c00fde2949c2","system_id":"levelo_inurba_marseille","lat":43.28454,"lon":5.35895,"is_reserved":false,"is_disabled":true,"rental_uris":{"android":"levelo://app?vid=b0d66df1-2b6e-4bea-8fa5-c00fde2949c2","ios":"levelo://app?vid=b0d66df1-2b6e-4bea-8fa5-c00fde2949c2"},"vehicle_type_id":"4","last_reported":1736525499,"current_range_meters":16000,"station_id":"ce4bhah2rcd13ifvqei0","pricing_plan_id":"cebpf4jnsgd1na2vs0mg"},{"bike_id":"31c5a65d-19bb-49f4-a10f-43ee6b8a1557","system_id":"levelo_inurba_marseille","lat":43.32361,"lon":5.36746,"is_reserved":false,"is_disabled":false,"rental_uris":{"android":"levelo://app?vid=31c5a65d-19bb-49f4-a10f-43ee6b8a1557","ios":"levelo://app?vid=31c5a65d-19bb-49f4-a10f-43ee6b8a1557"},"vehicle_type_id":"4","last_reported":1736525499,"current_range_meters":38800,"station_id":"ce4bhsh2rcd13ifvqi2g","pricing_plan_id":"cebpf4jnsgd1na2vs0mg"},{"bike_id":"918d76b3-fa86-4850-a3eb-66a88dad6c95","system_id":"levelo_inurba_marseille","lat":43.30326,"lon":5.3689,"is_reserved":false,"is_disabled":false,"rental_uris":{"android":"levelo://app?vid=918d76b3-fa86-4850-a3eb-66a88dad6c95","ios":"levelo://app?vid=918d76b3-fa86-4850-a3eb-66a88dad6c95"},"vehicle_type_id":"4","last_reported":1736525499,"current_range_meters":20400,"station_id":"ce4bgqh2rcd13ifvqc5g","pricing_plan_id":"cebpf4jnsgd1na2vs0mg"},{"bike_id":"676c264a-c495-49c9-a320-af68361bccf8","system_id":"levelo_inurba_marseille","lat":43.26781,"lon":5.39415,"is_reserved":false,"is_disabled":false,"rental_uris":{"android":"levelo://app?vid=676c264a-c495-49c9-a320-af68361bccf8","ios":"levelo://app?vid=676c264a-c495-49c9-a320-af68361bccf8"},"vehicle_type_id":"4","last_reported":1736525499,"current_range_meters":29600,"station_id":"ce4bhh12rcd13ifvqfg0","pricing_plan_id":"cebpf4jnsgd1na2vs0mg"},