{"last_updated":1770264267,"ttl":60,"version":"2.2","data":{"bikes":[{"bike_id":"f21c0d87-1702-49bf-9088-34966ba9a2d7","system_id":"levelo_inurba_marseille","lat":43.2722,"lon":5.39207,"is_reserved":false,"is_disabled":false,"rental_uris":{"android":"levelo://app?vid=f21c0d87-1702-49bf-9088-34966ba9a2d7","ios":"levelo://app?vid=f21c0d87-1702-49bf-9088-34966ba9a2d7"},"vehicle_type_id":"4","last_reported":1770264268,"current_range_meters":1200,"station_id":"ce4bhhp2rcd13ifvqfm0","pricing_plan_id":"cebpf4jnsgd1na2vs0mg"},{"bike_id":"988afa8e-d306-4003-baf9-728102144f56","system_id":"levelo_inurba_marseille","lat":43.267658,"lon":5.382906,"is_reserved":false,"is_disabled":false,"rental_uris":{"android":"levelo://app?vid=988afa8e-d306-4003-baf9-728102144f56","ios":"levelo://app?vid=988afa8e-d306-4003-baf9-728102144f56"},"vehicle_type_id":"4","last_reported":1770264268,"current_range_meters":2800,"station_id":"","pricing_plan_id":"cebpf4jnsgd1na2vs0mg"},{"bike_id":"2e5ecc25-77a5-480b-9b59-990ada3aef80","system_id":"levelo_inurba_marseille","lat":43.313533,"lon":5.367112,"is_reserved":false,"is_disabled":false,"rental_uris":{"android":"levelo://app?vid=2e5ecc25-77a5-480b-9b59-990ada3aef80","ios":"levelo://app?vid=2e5ecc25-77a5-480b-9b59-990ada3aef80"},"vehicle_type_id":"4","last_reported":1770264268,"current_range_meters":2800,"station_id":"ce4bgr92rcd13ifvqc6g","pricing_plan_id":"cebpf4jnsgd1na2vs0mg"},{"bike_id":"f54f7d74-409f-410d-95c8-a65e90d900f5","system_id":"levelo_inurba_marseille","lat":43.24642,"lon":5.43142,"is_reserved":false,"is_disabled":false,"rental_uris":{"android":"levelo://app?vid=f54f7d74-409f-410d-95c8-a65e90d900f5","ios":"levelo://app?vid=f54f7d74-409f-410d-95c8-a65e90d900f5"},"vehicle_type_id":"4","last_reported":1770264268,"current_range_meters":2800,"station_id":"st_d2m6c4gdas8pm72e190g","pricing_plan_id":"cebpf4jnsgd1na2vs0mg"},{"bike_id":"a0dac713-2dba-4e6f-87ab-5eb43b252ad4","system_id":"levelo_inurba_marseille","lat":43.31166,"lon":5.38699,"is_reserved":false,"is_disabled":false,"rental_uris":{"android":"levelo://app?vid=a0dac713-2dba-4e6f-87ab-5eb43b252ad4","ios":"levelo://app?vid=a0dac713-2dba-4e6f-87ab-5eb43b252ad4"},"vehicle_type_id":"4","last_reported":1770264268,"current_range_meters":2800,"station_id":"ce4bgv12rcd13ifvqcp0","pricing_plan_id":"cebpf4jnsgd1na2vs0mg"},{"bike_id":"39c3d193-5b66-4a03-9000-d757a98d5f69","system_id":"levelo_inurba_marseille","lat":43.30769,"lon":5.40925,"is_reserved":false,"is_disabled":false,"rental_uris":{"android":"levelo://app?vid=39c3d193-5b66-4a03-9000-d757a98d5f69","ios":"levelo://app?vid=39c3d193-5b66-4a03-9000-d757a98d5f69"},"vehicle_type_id":"4","last_reported":1770264268,"current_range_meters":2800,"station_id":"","pricing_plan_id":"cebpf4jnsgd1na2vs0mg"},{"bike_id":"0430bddf-32dc-40bc-9cb0-7d34f16c7534","system_id":"levelo_inurba_marseille","lat":43.212,"lon":5.35063,"is_reserved":false,"is_disabled":false,"rental_uris":{"android":"levelo://app?vid=0430bddf-32dc-40bc-9cb0-7d34f16c7534","ios":"levelo://app?vid=0430bddf-32dc-40bc-9cb0-7d34f16c7534"},"vehicle_type_id":"4","last_reported":1770264268,"current_range_meters":2800,"station_id":"st_cvj6sg6p6f1abm77japg","pricing_plan_id":"cebpf4jnsgd1na2vs0mg"},{"bike_id":"9d79ec10-3ed1-4035-8609-ff591e4f54d3","system_id":"levelo_inurba_marseille","lat":43.25587,"lon":5.38205,"is_reserved":false,"is_disabled":false,"rental_uris":{"android":"levelo://app?vid=9d79ec10-3ed1-4035-8609-ff591e4f54d3","ios":"levelo://app?vid=9d79ec10-3ed1-4035-8609-ff591e4f54d3"},"vehicle_type_id":"4","last_reported":1770264268,"current_range_meters":2800,"station_id":"ce4bhih2rcd13ifvqfs0","pricing_plan_id":"cebpf4jnsgd1na2vs0mg"},{"bike_id":"9a41c992-8ec6-4c5f-9787-da9fbb815a48","system_id":"levelo_inurba_marseille","lat":43.25564,"lon":5.38266,"is_reserved":false,"is_disabled":false,"rental_uris":{"android":"levelo://app?vid=9a41c992-8ec6-4c5f-9787-da9fbb815a48","ios":"levelo://app?vid=9a41c992-8ec6-4c5f-9787-da9fbb815a48"},"vehicle_type_id":"4","last_reported":1770264268,"current_range_meters":2800,"station_id":"ce4bhih2rcd13ifvqfs0","pricing_plan_id":"cebpf4jnsgd1na2vs0mg"},{"bike_id":"2618ff75-b22c-47c0-827a-63e2f0006ace","system_id":"levelo_inurba_marseille","lat":43.31494,"lon":5.37317,"is_reserved":false,"is_disabled":false,"rental_uris":{"android":"levelo://app?vid=2618ff75-b22c-47c0-827a-63e2f0006ace","ios":"levelo://app?vid=2618ff75-b22c-47c0-827a-63e2f0006ace"},"vehicle_type_id":"4","last_reported":1770264268,"current_range_meters":2800,"station_id":"ce4bgt12rcd13ifvqcd0","pricing_plan_id":"cebpf4jnsgd1na2vs0mg"},{"bike_id":"d5d98457-3377-411c-bbd5-111f6add1380","system_id":"levelo_inurba_marseille","lat":43.259059,"lon":5.394227,"is_reserved":false,"is_disabled":false,"rental_uris":{"android":"levelo://app?vid=d5d98457-3377-411c-bbd5-111f6add1380","ios":"levelo://app?vid=d5d98457-3377-411c-bbd5-111f6add1380"},"vehicle_type_id":"4","last_reported":1770264268,"current_range_meters":2800,"station_id":"","pricing_plan_id":"cebpf4jnsgd1na2vs0mg"},{"bike_id":"242256f5-f0bd-4204-9565-2087ceacdda5","system_id":"levelo_inurba_marseille","lat":43.2256,"lon":5.41543,"is_reserved":false,"is_disabled":false,"rental_uris":{"android":"levelo://app?vid=242256f5-f0bd-4204-9565-2087ceacdda5","ios":"levelo://app?vid=242256f5-f0bd-4204-9565-2087ceacdda5"},"vehicle_type_id":"4","last_reported":1770264268,"current_range_meters":3200,"station_id":"st_d2o4gvlbi1j2169b742g","pricing_plan_id":"cebpf4jnsgd1na2vs0mg"},{"bike_id":"7b2df10f-d97d-4068-9983-8f53d0a78517","system_id":"levelo_inurba_marseille","lat":43.28858,"lon":5.42535,"is_reserved":false,"is_disabled":false,"rental_uris":{"android":"levelo://app?vid=7b2df10f-d97d-4068-9983-8f53d0a78517","ios":"levelo://app?vid=7b2df10f-d97d-4068-9983-8f53d0a78517"},"vehicle_type_id":"4","last_reported":1770264268,"current_range_meters":3200,"station_id":"st_d3b462108ojc7389ooeg","pricing_plan_id":"cebpf4jnsgd1na2vs0mg"},{"bike_id":"261d39cf-836d-4e3b-8140-d504536ebe1c","system_id":"levelo_inurba_marseille","lat":43.24666,"lon":5.39371,"is_reserved":false,"is_disabled":false,"rental_uris":{"android":"levelo://app?vid=261d39cf-836d-4e3b-8140-d504536ebe1c","ios":"levelo://app?vid=261d39cf-836d-4e3b-8140-d504536ebe1c"},"vehicle_type_id":"4","last_reported":1770264268,"current_range_meters":3200,"station_id":"","pricing_plan_id":"cebpf4jnsgd1na2vs0mg"},{"bike_id":"dbeef5c7-4028-4d99-a76c-21cebff9483e","system_id":"levelo_inurba_marseille","lat":43.33536,"lon":5.3746,"is_reserved":false,"is_disabled":false,"rental_uris":{"android":"levelo://app?vid=dbeef5c7-4028-4d99-a76c-21cebff9483e","ios":"levelo://app?vid=dbeef5c7-4028-4d99-a76c-21cebff9483e"},"vehicle_type_id":"4","last_reported":1770264268,"current_range_meters":3200,"station_id":"st_d46tts09ee8s73dlu43g","pricing_plan_id":"cebpf4jnsgd1na2vs0mg"},{"bike_id":"efea85db-b1c8-46f7-b3e0-9fa246910aa6","system_id":"levelo_inurba_marseille","lat":43.23186,"lon":5.39983,"is_reserved":false,"is_disabled":false,"rental_uris":{"android":"levelo://app?vid=efea85db-b1c8-46f7-b3e0-9fa246910aa6","ios":"levelo://app?vid=efea85db-b1c8-46f7-b3e0-9fa246910aa6"},"vehicle_type_id":"4","last_reported":1770264268,"current_range_meters":3200,"station_id":"ce4bhn12rcd13ifvqgqg","pricing_plan_id":"cebpf4jnsgd1na2vs0mg"},{"bike_id":"046e7757-7125-4638-959f-a98bf271f615","system_id":"levelo_inurba_marseille","lat":43.26176,"lon":5.37415,"is_reserved":false,"is_disabled":false,"rental_uris":{"android":"levelo://app?vid=046e7757-7125-4638-959f-a98bf271f615","ios":"levelo://app?vid=046e7757-7125-4638-959f-a98bf271f615"},"vehicle_type_id":"4","last_reported":1770264268,"current_range_meters":3200,"station_id":"ce4bhgp2rcd13ifvqfc0","pricing_plan_id":"cebpf4jnsgd1na2vs0mg"},{"bike_id":"13792967-e84d-49d8-a084-62f8e2603bbd","system_id":"levelo_inurba_marseille","lat":43.24652,"lon":5.38881,"is_reserved":false,"is_disabled":false,"rental_uris":{"android":"levelo://app?vid=13792967-e84d-49d8-a084-62f8e2603bbd","ios":"levelo://app?vid=13792967-e84d-49d8-a084-62f8e2603bbd"},"vehicle_type_id":"4","last_reported":1770264268,"current_range_meters":3200,"station_id":"ce4bhg12rcd13ifvqf60","pricing_plan_id":"cebpf4jnsgd1na2vs0mg"},{"bike_id":"f3318fc5-517b-4379-ab99-0b3b1be2500a","system_id":"levelo_inurba_marseille","lat":43.23395,"lon":5.41251,"is_reserved":false,"is_disabled":false,"rental_uris":{"android":"levelo://app?vid=f3318fc5-517b-4379-ab99-0b3b1be2500a","ios":"levelo://app?vid=f3318fc5-517b-4379-ab99-0b3b1be2500a"},"vehicle_type_id":"4","last_reported":1770264268,"current_range_meters":3200,"station_id":"","pricing_plan_id":"cebpf4jnsgd1na2vs0mg"},{"bike_id":"bb915ab1-968f-45a5-9cf5-461e5d809abf","system_id":"levelo_inurba_marseille","lat":43.31332,"lon":5.39694,"is_reserved":false,"is_disabled":false,"rental_uris":{"android":"levelo://app?vid=bb915ab1-968f-45a5-9cf5-461e5d809abf","ios":"levelo://app?vid=bb915ab1-968f-45a5-9cf5-461e5d809abf"},"vehicle_type_id":"4","last_reported":1770264268,"current_range_meters":3200,"station_id":"ce4bgvp2rcd13ifvqcu0","pricing_plan_id":"cebpf4jnsgd1na2vs0mg"},{"bike_id":"f844f93b-b547-45b0-a47b-143e3a91102a","system_id":"levelo_inurba_marseille","lat":43.30294,"lon":5.39208,"is_reserved":false,"is_disabled":false,"rental_uris":{"android":"levelo://app?vid=f844f93b-b547-45b0-a47b-143e3a91102a","ios":"levelo://app?vid=f844f93b-b547-45b0-a47b-143e3a91102a"},"vehicle_type_id":"4","last_reported":1770264268,"current_range_meters":3200,"station_id":"ce4bgkh2rcd13ifvqbk0","pricing_plan_id":"cebpf4jnsgd1na2vs0mg"},{"bike_id":"5eb21952-7569-4fff-be54-163288ae4b37","system_id":"levelo_inurba_marseille","lat":43.27057,"lon":5.38289,"is_reserved":false,"is_disabled":false,"rental_uris":{"android":"levelo://app?vid=5eb21952-7569-4fff-be54-163288ae4b37","ios":"levelo://app?vid=5eb21952-7569-4fff-be54-163288ae4b37"},"vehicle_type_id":"4","last_reported":1770264268,"current_range_meters":3200,"station_id":"st_d3n2fo6cfp8s73cte1j0","pricing_plan_id":"cebpf4jnsgd1na2vs0mg"},{"bike_id":"4df9164b-69f3-4aee-8864-605fcc120300","system_id":"levelo_inurba_marseille","lat":43.31176,"lon":5.38708,"is_reserved":false,"is_disabled":false,"rental_uris":{"android":"levelo://app?vid=4df9164b-69f3-4aee-8864-605fcc120300","ios":"levelo://app?vid=4df9164b-69f3-4aee-8864-605fcc120300"},"vehicle_type_id":"4","last_reported":1770264268,"current_range_meters":3600,"station_id":"ce4bgv12rcd13ifvqcp0","pricing_plan_id":"cebpf4jnsgd1na2vs0mg"},{"bike_id":"73b6626a-125d-4b63-8d66-3e6a9851d390","system_id":"levelo_inurba_marseille","lat":43.22563,"lon":5.41628,"is_reserved":false,"is_disabled":false,"rental_uris":{"android":"levelo://app?vid=73b6626a-125d-4b63-8d66-3e6a9851d390","ios":"levelo://app?vid=73b6626a-125d-4b63-8d66-3e6a9851d390"},"vehicle_type_id":"4","last_reported":1770264268,"current_range_meters":3600,"station_id":"st_d2o4gvlbi1j2169b742g","pricing_plan_id":"cebpf4jnsgd1na2vs0mg"},{"bike_id":"a8c22487-8662-4b4c-ad3e-edccba99e631","system_id":"levelo_inurba_marseille","lat":43.31354,"lon":5.3848,"is_reserved":false,"is_disabled":false,"rental_uris":{"android":"levelo://app?vid=a8c22487-8662-4b4c-ad3e-edccba99e631","ios":"levelo://app?vid=a8c22487-8662-4b4c-ad3e-edccba99e631"},"vehicle_type_id":"4","last_reported":1770264268,"current_range_meters":3600,"station_id":"ce4bgt92rcd13ifvqcf0","pricing_plan_id":"cebpf4jnsgd1na2vs0mg"},{"bike_id":"8fb4838b-c5bd-4cb2-8c92-fceeea48a889","system_id":"levelo_inurba_marseille","lat":43.29543,"lon":5.42286,"is_reserved":false,"is_disabled":false,"rental_uris":{"android":"levelo://app?vid=8fb4838b-c5bd-4cb2-8c92-fceeea48a889","ios":"levelo://app?vid=8fb4838b-c5bd-4cb2-8c92-fceeea48a889"},"vehicle_type_id":"4","last_reported":1770264268,"current_range_meters":3600,"station_id":"ce4bhph2rcd13ifvqhdg","pricing_plan_id":"cebpf4jnsgd1na2vs0mg"},{"bike_id":"458b1d5f-d114-467e-9088-6f35cf923bb2","system_id":"levelo_inurba_marseille","lat":43.29766,"lon":5.38064,"is_reserved":false,"is_disabled":true,"rental_uris":{"android":"levelo://app?vid=458b1d5f-d114-467e-9088-6f35cf923bb2","ios":"levelo://app?vid=458b1d5f-d114-467e-9088-6f35cf923bb2"},"vehicle_type_id":"4","last_reported":1770264268,"current_range_meters":3600,"station_id":"ce4bgip2rcd13ifvqbb0","pricing_plan_id":"cebpf4jnsgd1na2vs0mg"},{"bike_id":"c143c7c9-0924-48dc-a1e7-7eac6ac1a2c4","system_id":"levelo_inurba_marseille","lat":43.32655,"lon":5.4099,"is_reserved":false,"is_disabled":false,"rental_uris":{"android":"levelo://app?vid=c143c7c9-0924-48dc-a1e7-7eac6ac1a2c4","ios":"levelo://app?vid=c143c7c9-0924-48dc-a1e7-7eac6ac1a2c4"},"vehicle_type_id":"4","last_reported":1770264268,"current_range_meters":4000,"station_id":"ce4bhpp2rcd13ifvqhgg","pricing_plan_id":"cebpf4jnsgd1na2vs0mg"},{"bike_id":"a335e491-c933-4fc6-b3af-3e15603baffd","system_id":"levelo_inurba_marseille","lat":43.31634,"lon":5.38303,"is_reserved":false,"is_disabled":false,"rental_uris":{"android":"levelo://app?vid=a335e491-c933-4fc6-b3af-3e15603baffd","ios":"levelo://app?vid=a335e491-c933-4fc6-b3af-3e15603baffd"},"vehicle_type_id":"4","last_reported":1770264268,"current_range_meters":4000,"station_id":"","pricing_plan_id":"cebpf4jnsgd1na2vs0mg"},{"bike_id":"6af9c093-c8f8-4e82-9b76-84ead01f4f13","system_id":"levelo_inurba_marseille","lat":43.26566,"lon":5.40324,"is_reserved":false,"is_disabled":false,"rental_uris":{"android":"levelo://app?vid=6af9c093-c8f8-4e82-9b76-84ead01f4f13","ios":"levelo://app?vid=6af9c093-c8f8-4e82-9b76-84ead01f4f13"},"vehicle_type_id":"4","last_reported":1770264268,"current_range_meters":4000,"station_id":"ce4bhmp2rcd13ifvqgng","pricing_plan_id":"cebpf4jnsgd1na2vs0mg"},{"bike_id":"c3e77f90-af9b-4ac4-9b36-0c3e90510873","system_id":"levelo_inurba_marseille","lat":43.25721,"lon":5.41011,"is_reserved":false,"is_disabled":false,"rental_uris":{"android":"levelo://app?vid=c3e77f90-af9b-4ac4-9b36-0c3e90510873","ios":"levelo://app?vid=c3e77f90-af9b-4ac4-9b36-0c3e90510873"},"vehicle_type_id":"4","last_reported":1770264268,"current_range_meters":4000,"station_id":"","pricing_plan_id":"cebpf4jnsgd1na2vs0mg"},{"bike_id":"ad450168-32bc-48e5-981d-10198d96911f","system_id":"levelo_inurba_marseille","lat":43.24122,"lon":5.36449,"is_reserved":false,"is_disabled":false,"rental_uris":{"android":"levelo://app?vid=ad450168-32bc-48e5-981d-10198d96911f","ios":"levelo://app?vid=ad450168-32bc-48e5-981d-10198d96911f"},"vehicle_type_id":"4","last_reported":1770264268,"current_range_meters":4000,"station_id":"cpo36qri1sfpv3e86is0","pricing_plan_id":"cebpf4jnsgd1na2vs0mg"},{"bike_id":"ef68b6ab-11e1-4875-bcbe-37369f60c1ba","system_id":"levelo_inurba_marseille","lat":43.25333,"lon":5.42176,"is_reserved":false,"is_disabled":false,"rental_uris":{"android":"levelo://app?vid=ef68b6ab-11e1-4875-bcbe-37369f60c1ba","ios":"levelo://app?vid=ef68b6ab-11e1-4875-bcbe-37369f60c1ba"},"vehicle_type_id":"4","last_reported":1770264268,"current_range_meters":4000,"station_id":"st_d2m65c5bi1j21697t3ng","pricing_plan_id":"cebpf4jnsgd1na2vs0mg"},{"bike_id":"41ca42ba-dc95-43b8-bdd4-37f439e3c100","system_id":"levelo_inurba_marseille","lat":43.29067,"lon":5.37552,"is_reserved":false,"is_disabled":false,"rental_uris":{"android":"levelo://app?vid=41ca42ba-dc95-43b8-bdd4-37f439e3c100","ios":"levelo://app?vid=41ca42ba-dc95-43b8-bdd4-37f439e3c100"},"vehicle_type_id":"4","last_reported":1770264268,"current_range_meters":4400,"station_id":"ce4bh692rcd13ifvqe90","pricing_plan_id":"cebpf4jnsgd1na2vs0mg"},{"bike_id":"7ab80b7e-a203-442c-b352-62055b06df4d","system_id":"levelo_inurba_marseille","lat":43.31032,"lon":5.37182,"is_reserved":false,"is_disabled":false,"rental_uris":{"android":"levelo://app?vid=7ab80b7e-a203-442c-b352-62055b06df4d","ios":"levelo://app?vid=7ab80b7e-a203-442c-b352-62055b06df4d"},"vehicle_type_id":"4","last_reported":1770264268,"current_range_meters":4400,"station_id":"st_d4kl2rp97mjs73e7tdfg","pricing_plan_id":"cebpf4jnsgd1na2vs0mg"},{"bike_id":"df818b63-7648-41d3-aafa-acbf575354e7","system_id":"levelo_inurba_marseille","lat":43.289725,"lon":5.378462,"is_reserved":false,"is_disabled":false,"rental_uris":{"android":"levelo://app?vid=df818b63-7648-41d3-aafa-acbf575354e7","ios":"levelo://app?vid=df818b63-7648-41d3-aafa-acbf575354e7"},"vehicle_type_id":"4","last_reported":1770264268,"current_range_meters":4400,"station_id":"ce4bh9p2rcd13ifvqed0","pricing_plan_id":"cebpf4jnsgd1na2vs0mg"},{"bike_id":"5ffc162c-3876-4a49-af02-3661f44effbb","system_id":"levelo_inurba_marseille","lat":43.28496,"lon":5.48382,"is_reserved":false,"is_disabled":false,"rental_uris":{"android":"levelo://app?vid=5ffc162c-3876-4a49-af02-3661f44effbb","ios":"levelo://app?vid=5ffc162c-3876-4a49-af02-3661f44effbb"},"vehicle_type_id":"4","last_reported":1770264268,"current_range_meters":4400,"station_id":"st_d3svhcjqgbts73a3dn0g","pricing_plan_id":"cebpf4jnsgd1na2vs0mg"},{"bike_id":"83031ca8-9a01-425b-992d-e4dc7237fe73","system_id":"levelo_inurba_marseille","lat":43.22932,"lon":5.35381,"is_reserved":false,"is_disabled":false,"rental_uris":{"android":"levelo://app?vid=83031ca8-9a01-425b-992d-e4dc7237fe73","ios":"levelo://app?vid=83031ca8-9a01-425b-992d-e4dc7237fe73"},"vehicle_type_id":"4","last_reported":1770264268,"current_range_meters":4800,"station_id":"cpo3532slgdg3j2ikp40","pricing_plan_id":"cebpf4jnsgd1na2vs0mg"},{"bike_id":"941d0b03-9ae1-4106-9296-775ca1406222","system_id":"levelo_inurba_marseille","lat":43.283022,"lon":5.423959,"is_reserved":false,"is_disabled":false,"rental_uris":{"android":"levelo://app?vid=941d0b03-9ae1-4106-9296-775ca1406222","ios":"levelo://app?vid=941d0b03-9ae1-4106-9296-775ca1406222"},"vehicle_type_id":"4","last_reported":1770264268,"current_range_meters":4800,"station_id":"","pricing_plan_id":"cebpf4jnsgd1na2vs0mg"},{"bike_id":"6c0809a9-584d-43e0-91a7-40baf97ad0a5","system_id":"levelo_inurba_marseille","lat":43.27188,"lon":5.41007,"is_reserved":false,"is_disabled":false,"rental_uris":{"android":"levelo://app?vid=6c0809a9-584d-43e0-91a7-40baf97ad0a5","ios":"levelo://app?vid=6c0809a9-584d-43e0-91a7-40baf97ad0a5"},"vehicle_type_id":"4","last_reported":1770264268,"current_range_meters":4800,"station_id":"ce4bhl12rcd13ifvqgf0","pricing_plan_id":"cebpf4jnsgd1na2vs0mg"},{"bike_id":"f345fe6b-cad0-409f-b72f-99413160af20","system_id":"levelo_inurba_marseille","lat":43.26547,"lon":5.37283,"is_reserved":false,"is_disabled":false,"rental_uris":{"android":"levelo://app?vid=f345fe6b-cad0-409f-b72f-99413160af20","ios":"levelo://app?vid=f345fe6b-cad0-409f-b72f-99413160af20"},"vehicle_type_id":"4","last_reported":1770264268,"current_range_meters":4800,"station_id":"ce4bhg12rcd13ifvqf70","pricing_plan_id":"cebpf4jnsgd1na2vs0mg"},{"bike_id":"bc11b645-4a28-43a9-a15e-e34b2b942d16","system_id":"levelo_inurba_marseille","lat":43.29635,"lon":5.38006,"is_reserved":false,"is_disabled":false,"rental_uris":{"android":"levelo://app?vid=bc11b645-4a28-43a9-a15e-e34b2b942d16","ios":"levelo://app?vid=bc11b645-4a28-43a9-a15e-e34b2b942d16"},"vehicle_type_id":"4","last_reported":1770264268,"current_range_meters":4800,"station_id":"ce4bgl12rcd13ifvqbo0","pricing_plan_id":"cebpf4jnsgd1na2vs0mg"},{"bike_id":"605a645e-761d-4a85-acd6-fe955761eefa","system_id":"levelo_inurba_marseille","lat":43.29598,"lon":5.38339,"is_reserved":false,"is_disabled":false,"rental_uris":{"android":"levelo://app?vid=605a645e-761d-4a85-acd6-fe955761eefa","ios":"levelo://app?vid=605a645e-761d-4a85-acd6-fe955761eefa"},"vehicle_type_id":"4","last_reported":1770264268,"current_range_meters":4800,"station_id":"","pricing_plan_id":"cebpf4jnsgd1na2vs0mg"},{"bike_id":"2d334d5c-0886-4db9-83b0-7ae06d91ac1c","system_id":"levelo_inurba_marseille","lat":43.211932,"lon":5.350728,"is_reserved":false,"is_disabled":false,"rental_uris":{"android":"levelo://app?vid=2d334d5c-0886-4db9-83b0-7ae06d91ac1c","ios":"levelo://app?vid=2d334d5c-0886-4db9-83b0-7ae06d91ac1c"},"vehicle_type_id":"4","last_reported":1770264268,"current_range_meters":4800,"station_id":"st_cvj6sg6p6f1abm77japg","pricing_plan_id":"cebpf4jnsgd1na2vs0mg"},{"bike_id":"f85a8f19-abd1-4b22-ba2e-623f9a1b5e5f","system_id":"levelo_inurba_marseille","lat":43.29966,"lon":5.41316,"is_reserved":false,"is_disabled":false,"rental_uris":{"android":"levelo://app?vid=f85a8f19-abd1-4b22-ba2e-623f9a1b5e5f","ios":"levelo://app?vid=f85a8f19-abd1-4b22-ba2e-623f9a1b5e5f"},"vehicle_type_id":"4","last_reported":1770264268,"current_range_meters":4800,"station_id":"ce4bhp12rcd13ifvqh9g","pricing_plan_id":"cebpf4jnsgd1na2vs0mg"},{"bike_id":"ef64cb18-c8a8-4251-87f8-703e259c4330","system_id":"levelo_inurba_marseille","lat":43.47654,"lon":5.48969,"is_reserved":false,"is_disabled":false,"rental_uris":{"android":"levelo://app?vid=ef64cb18-c8a8-4251-87f8-703e259c4330","ios":"levelo://app?vid=ef64cb18-c8a8-4251-87f8-703e259c4330"},"vehicle_type_id":"4","last_reported":1770264268,"current_range_meters":4800,"station_id":"","pricing_plan_id":"cebpf4jnsgd1na2vs0mg"},{"bike_id":"626974d3-ace9-41dd-9dbe-f4621ca953aa","system_id":"levelo_inurba_marseille","lat":43.29468,"lon":5.40952,"is_reserved":false,"is_disabled":false,"rental_uris":{"android":"levelo://app?vid=626974d3-ace9-41dd-9dbe-f4621ca953aa","ios":"levelo://app?vid=626974d3-ace9-41dd-9dbe-f4621ca953aa"},"vehicle_type_id":"4","last_reported":1770264268,"current_range_meters":5600,"station_id":"","pricing_plan_id":"cebpf4jnsgd1na2vs0mg"},{"bike_id":"36dd5665-3f05-4d98-98f1-7d8891cd8a4a","system_id":"levelo_inurba_marseille","lat":43.30308,"lon":5.392161,"is_reserved":false,"is_disabled":false,"rental_uris":{"android":"levelo://app?vid=36dd5665-3f05-4d98-98f1-7d8891cd8a4a","ios":"levelo://app?vid=36dd5665-3f05-4d98-98f1-7d8891cd8a4a"},"vehicle_type_id":"4","last_reported":1770264268,"current_range_meters":5600,"station_id":"","pricing_plan_id":"cebpf4jnsgd1na2vs0mg"},{"bike_id":"25a30114-b4b1-4731-a753-4f5ac3ff1606","system_id":"levelo_inurba_marseille","lat":43.290221,"lon":5.386427,"is_reserved":false,"is_disabled":false,"rental_uris":{"android":"levelo://app?vid=25a30114-b4b1-4731-a753-4f5ac3ff1606","ios":"levelo://app?vid=25a30114-b4b1-4731-a753-4f5ac3ff1606"},"vehicle_type_id":"4","last_reported":1770264268,"current_range_meters":5600,"station_id":"ce4bh4p2rcd13ifvqe0g","pricing_plan_id":"cebpf4jnsgd1na2vs0mg"},{"bike_id":"8e443969-89bd-46f6-a10f-2e1233840320","system_id":"levelo_inurba_marseille","lat":43.24657,"lon":5.38141,"is_reserved":false,"is_disabled":false,"rental_uris":{"android":"levelo://app?vid=8e443969-89bd-46f6-a10f-2e1233840320","ios":"levelo://app?vid=8e443969-89bd-46f6-a10f-2e1233840320"},"vehicle_type_id":"4","last_reported":1770264268,"current_range_meters":5600,"station_id":"ce4bhih2rcd13ifvqfr0","pricing_plan_id":"cebpf4jnsgd1na2vs0mg"},{"bike_id":"91c21601-5efe-4644-9a24-675b91c6816e","system_id":"levelo_inurba_marseille","lat":43.24644,"lon":5.38889,"is_reserved":false,"is_disabled":false,"rental_uris":{"android":"levelo://app?vid=91c21601-5efe-4644-9a24-675b91c6816e","ios":"levelo://app?vid=91c21601-5efe-4644-9a24-675b91c6816e"},"vehicle_type_id":"4","last_reported":1770264268,"current_range_meters":5600,"station_id":"ce4bhg12rcd13ifvqf60","pricing_plan_id":"cebpf4jnsgd1na2vs0mg"},{"bike_id":"aa652dc7-21cd-4625-9b3a-7dd1e13e5acc","system_id":"levelo_inurba_marseille","lat":43.24539,"lon":5.39525,"is_reserved":false,"is_disabled":false,"rental_uris":{"android":"levelo://app?vid=aa652dc7-21cd-4625-9b3a-7dd1e13e5acc","ios":"levelo://app?vid=aa652dc7-21cd-4625-9b3a-7dd1e13e5acc"},"vehicle_type_id":"4","last_reported":1770264268,"current_range_meters":5600,"station_id":"ce4bhlp2rcd13ifvqgjg","pricing_plan_id":"cebpf4jnsgd1na2vs0mg"},{"bike_id":"522d748c-7700-4a9e-9665-197613ae3ea1","system_id":"levelo_inurba_marseille","lat":43.2256,"lon":5.4164,"is_reserved":false,"is_disabled":false,"rental_uris":{"android":"levelo://app?vid=522d748c-7700-4a9e-9665-197613ae3ea1","ios":"levelo://app?vid=522d748c-7700-4a9e-9665-197613ae3ea1"},"vehicle_type_id":"4","last_reported":1770264268,"current_range_meters":5600,"station_id":"st_d2o4gvlbi1j2169b742g","pricing_plan_id":"cebpf4jnsgd1na2vs0mg"},{"bike_id":"63bed449-f327-47c0-971d-3d6b04a3d904","system_id":"levelo_inurba_marseille","lat":43.27995,"lon":5.41664,"is_reserved":false,"is_disabled":false,"rental_uris":{"android":"levelo://app?vid=63bed449-f327-47c0-971d-3d6b04a3d904","ios":"levelo://app?vid=63bed449-f327-47c0-971d-3d6b04a3d904"},"vehicle_type_id":"4","last_reported":1770264268,"current_range_meters":5600,"station_id":"ce4bho12rcd13ifvqh1g","pricing_plan_id":"cebpf4jnsgd1na2vs0mg"},{"bike_id":"c6e323e3-4052-4940-8ba6-87e1847b0dcf","system_id":"levelo_inurba_marseille","lat":43.25934,"lon":5.40887,"is_reserved":false,"is_disabled":false,"rental_uris":{"android":"levelo://app?vid=c6e323e3-4052-4940-8ba6-87e1847b0dcf","ios":"levelo://app?vid=c6e323e3-4052-4940-8ba6-87e1847b0dcf"},"vehicle_type_id":"4","last_reported":1770264268,"current_range_meters":5600,"station_id":"ce4bhm92rcd13ifvqglg","pricing_plan_id":"cebpf4jnsgd1na2vs0mg"},{"bike_id":"16c34f42-9a66-4fd5-8689-2fc8478b1531","system_id":"levelo_inurba_marseille","lat":43.22936,"lon":5.35371,"is_reserved":false,"is_disabled":false,"rental_uris":{"android":"levelo://app?vid=16c34f42-9a66-4fd5-8689-2fc8478b1531","ios":"levelo://app?vid=16c34f42-9a66-4fd5-8689-2fc8478b1531"},"vehicle_type_id":"4","last_reported":1770264268,"current_range_meters":5600,"station_id":"cpo3532slgdg3j2ikp40","pricing_plan_id":"cebpf4jnsgd1na2vs0mg"},{"bike_id":"c7fd0cc4-a197-46ca-aee1-7cb94bc0ffc0","system_id":"levelo_inurba_marseille","lat":43.23392,"lon":5.41213,"is_reserved":false,"is_disabled":false,"rental_uris":{"android":"levelo://app?vid=c7fd0cc4-a197-46ca-aee1-7cb94bc0ffc0","ios":"levelo://app?vid=c7fd0cc4-a197-46ca-aee1-7cb94bc0ffc0"},"vehicle_type_id":"4","last_reported":1770264268,"current_range_meters":5600,"station_id":"","pricing_plan_id":"cebpf4jnsgd1na2vs0mg"},{"bike_id":"a5c1703c-0b2d-4e6b-b820-25e716f1e211","system_id":"levelo_inurba_marseille","lat":43.2848,"lon":5.48384,"is_reserved":false,"is_disabled":false,"rental_uris":{"android":"levelo://app?vid=a5c1703c-0b2d-4e6b-b820-25e716f1e211","ios":"levelo://app?vid=a5c1703c-0b2d-4e6b-b820-25e716f1e211"},"vehicle_type_id":"4","last_reported":1770264268,"current_range_meters":5600,"station_id":"st_d3svhcjqgbts73a3dn0g","pricing_plan_id":"cebpf4jnsgd1na2vs0mg"},{"bike_id":"8d3e7d7f-fadb-4171-a139-ea9d29aba2b7","system_id":"levelo_inurba_marseille","lat":43.28407,"lon":5.43477,"is_reserved":false,"is_disabled":false,"rental_uris":{"android":"levelo://app?vid=8d3e7d7f-fadb-4171-a139-ea9d29aba2b7","ios":"levelo://app?vid=8d3e7d7f-fadb-4171-a139-ea9d29aba2b7"},"vehicle_type_id":"4","last_reported":1770264268,"current_range_meters":6000,"station_id":"","pricing_plan_id":"cebpf4jnsgd1na2vs0mg"},{"bike_id":"7d98e2af-e184-45f6-93f5-c693cd01569d","system_id":"levelo_inurba_marseille","lat":43.23139,"lon":5.43698,"is_reserved":false,"is_disabled":false,"rental_uris":{"android":"levelo://app?vid=7d98e2af-e184-45f6-93f5-c693cd01569d","ios":"levelo://app?vid=7d98e2af-e184-45f6-93f5-c693cd01569d"},"vehicle_type_id":"4","last_reported":1770264268,"current_range_meters":6000,"station_id":"ce4bhmp2rcd13ifvqgog","pricing_plan_id":"cebpf4jnsgd1na2vs0mg"},{"bike_id":"8e7f7dcc-7fc1-4fa3-8f7a-9b4596de5459","system_id":"levelo_inurba_marseille","lat":43.28467,"lon":5.35905,"is_reserved":false,"is_disabled":true,"rental_uris":{"android":"levelo://app?vid=8e7f7dcc-7fc1-4fa3-8f7a-9b4596de5459","ios":"levelo://app?vid=8e7f7dcc-7fc1-4fa3-8f7a-9b4596de5459"},"vehicle_type_id":"4","last_reported":1770264268,"current_range_meters":6000,"station_id":"ce4bhah2rcd13ifvqei0","pricing_plan_id":"cebpf4jnsgd1na2vs0mg"},{"bike_id":"61c4cbe2-eed4-41e6-a6ff-be907a5d72ed","system_id":"levelo_inurba_marseille","lat":43.25003,"lon":5.38935,"is_reserved":false,"is_disabled":false,"rental_uris":{"android":"levelo://app?vid=61c4cbe2-eed4-41e6-a6ff-be907a5d72ed","ios":"levelo://app?vid=61c4cbe2-eed4-41e6-a6ff-be907a5d72ed"},"vehicle_type_id":"4","last_reported":1770264268,"current_range_meters":6000,"station_id":"ce4bhgp2rcd13ifvqfd0","pricing_plan_id":"cebpf4jnsgd1na2vs0mg"},{"bike_id":"d72c8d0b-6864-4eb2-b074-4484e5b3c2c1","system_id":"levelo_inurba_marseille","lat":43.28481,"lon":5.48399,"is_reserved":false,"is_disabled":false,"rental_uris":{"android":"levelo://app?vid=d72c8d0b-6864-4eb2-b074-4484e5b3c2c1","ios":"levelo://app?vid=d72c8d0b-6864-4eb2-b074-4484e5b3c2c1"},"vehicle_type_id":"4","last_reported":1770264268,"current_range_meters":6000,"station_id":"st_d3svhcjqgbts73a3dn0g","pricing_plan_id":"cebpf4jnsgd1na2vs0mg"},{"bike_id":"708d8107-a502-4715-8ee8-97e259938ef7","system_id":"levelo_inurba_marseille","lat":43.2417,"lon":5.36389,"is_reserved":false,"is_disabled":false,"rental_uris":{"android":"levelo://app?vid=708d8107-a502-4715-8ee8-97e259938ef7","ios":"levelo://app?vid=708d8107-a502-4715-8ee8-97e259938ef7"},"vehicle_type_id":"4","last_reported":1770264268,"current_range_meters":6000,"station_id":"cpo36qri1sfpv3e86is0","pricing_plan_id":"cebpf4jnsgd1na2vs0mg"},{"bike_id":"efea97cf-ff85-47aa-a6fd-26dd39fdf16c","system_id":"levelo_inurba_marseille","lat":43.30541,"lon":5.36676,"is_reserved":false,"is_disabled":false,"rental_uris":{"android":"levelo://app?vid=efea97cf-ff85-47aa-a6fd-26dd39fdf16c","ios":"levelo://app?vid=efea97cf-ff85-47aa-a6fd-26dd39fdf16c"},"vehicle_type_id":"4","last_reported":1770264268,"current_range_meters":6000,"station_id":"ce4bgrp2rcd13ifvqc9g","pricing_plan_id":"cebpf4jnsgd1na2vs0mg"},{"bike_id":"2de0cce0-a4cf-4b2c-870c-3c981e77423e","system_id":"levelo_inurba_marseille","lat":43.29251,"lon":5.38431,"is_reserved":false,"is_disabled":true,"rental_uris":{"android":"levelo://app?vid=2de0cce0-a4cf-4b2c-870c-3c981e77423e","ios":"levelo://app?vid=2de0cce0-a4cf-4b2c-870c-3c981e77423e"},"vehicle_type_id":"4","last_reported":1770264268,"current_range_meters":6000,"station_id":"ce4bh692rcd13ifvqea0","pricing_plan_id":"cebpf4jnsgd1na2vs0mg"},{"bike_id":"f56dea41-99a0-46d5-bc1f-58ac218b3393","system_id":"levelo_inurba_marseille","lat":43.311849,"lon":5.387123,"is_reserved":false,"is_disabled":false,"rental_uris":{"android":"levelo://app?vid=f56dea41-99a0-46d5-bc1f-58ac218b3393","ios":"levelo://app?vid=f56dea41-99a0-46d5-bc1f-58ac218b3393"},"vehicle_type_id":"4","last_reported":1770264268,"current_range_meters":6000,"station_id":"ce4bgv12rcd13ifvqcp0","pricing_plan_id":"cebpf4jnsgd1na2vs0mg"},{"bike_id":"e55375b7-3afd-47f8-a340-f83f485617be","system_id":"levelo_inurba_marseille","lat":43.29941,"lon":5.36547,"is_reserved":false,"is_disabled":false,"rental_uris":{"android":"levelo://app?vid=e55375b7-3afd-47f8-a340-f83f485617be","ios":"levelo://app?vid=e55375b7-3afd-47f8-a340-f83f485617be"},"vehicle_type_id":"4","last_reported":1770264268,"current_range_meters":6000,"station_id":"ce4bgm92rcd13ifvqbr0","pricing_plan_id":"cebpf4jnsgd1na2vs0mg"},{"bike_id":"d6f9639e-1700-4811-ac53-5bdc6daab89f","system_id":"levelo_inurba_marseille","lat":43.248111,"lon":5.374518,"is_reserved":false,"is_disabled":false,"rental_uris":{"android":"levelo://app?vid=d6f9639e-1700-4811-ac53-5bdc6daab89f","ios":"levelo://app?vid=d6f9639e-1700-4811-ac53-5bdc6daab89f"},"vehicle_type_id":"4","last_reported":1770264268,"current_range_meters":6000,"station_id":"ce4bhgh2rcd13ifvqfb0","pricing_plan_id":"cebpf4jnsgd1na2vs0mg"},{"bike_id":"d2552b84-e732-4f87-a2d3-975686408eda","system_id":"levelo_inurba_marseille","lat":43.310562,"lon":5.371821,"is_reserved":false,"is_disabled":false,"rental_uris":{"android":"levelo://app?vid=d2552b84-e732-4f87-a2d3-975686408eda","ios":"levelo://app?vid=d2552b84-e732-4f87-a2d3-975686408eda"},"vehicle_type_id":"4","last_reported":1770264268,"current_range_meters":6400,"station_id":"st_d4kl2rp97mjs73e7tdfg","pricing_plan_id":"cebpf4jnsgd1na2vs0mg"},{"bike_id":"df59a0a1-ae4e-4a4e-abd9-3e734c444ecb","system_id":"levelo_inurba_marseille","lat":43.29246,"lon":5.36832,"is_reserved":false,"is_disabled":false,"rental_uris":{"android":"levelo://app?vid=df59a0a1-ae4e-4a4e-abd9-3e734c444ecb","ios":"levelo://app?vid=df59a0a1-ae4e-4a4e-abd9-3e734c444ecb"},"vehicle_type_id":"4","last_reported":1770264268,"current_range_meters":6400,"station_id":"ce4bhbp2rcd13ifvqesg","pricing_plan_id":"cebpf4jnsgd1na2vs0mg"},{"bike_id":"c5cff992-53ec-4d00-9c16-443240fd0d04","system_id":"levelo_inurba_marseille","lat":43.26956,"lon":5.40227,"is_reserved":false,"is_disabled":false,"rental_uris":{"android":"levelo://app?vid=c5cff992-53ec-4d00-9c16-443240fd0d04","ios":"levelo://app?vid=c5cff992-53ec-4d00-9c16-443240fd0d04"},"vehicle_type_id":"4","last_reported":1770264268,"current_range_meters":6400,"station_id":"cjm6bp8fraef2m0cb0m0","pricing_plan_id":"cebpf4jnsgd1na2vs0mg"},{"bike_id":"ae0672e2-1839-431a-b388-02cf3de3f3a6","system_id":"levelo_inurba_marseille","lat":43.294876,"lon":5.433083,"is_reserved":false,"is_disabled":false,"rental_uris":{"android":"levelo://app?vid=ae0672e2-1839-431a-b388-02cf3de3f3a6","ios":"levelo://app?vid=ae0672e2-1839-431a-b388-02cf3de3f3a6"},"vehicle_type_id":"4","last_reported":1770264268,"current_range_meters":6400,"station_id":"st_d3j5ugp08ojc73fj9d10","pricing_plan_id":"cebpf4jnsgd1na2vs0mg"},{"bike_id":"09a681ca-f587-48c1-ac8f-662ed8c8a8cf","system_id":"levelo_inurba_marseille","lat":43.31076,"lon":5.38342,"is_reserved":false,"is_disabled":true,"rental_uris":{"android":"levelo://app?vid=09a681ca-f587-48c1-ac8f-662ed8c8a8cf","ios":"levelo://app?vid=09a681ca-f587-48c1-ac8f-662ed8c8a8cf"},"vehicle_type_id":"4","last_reported":1770264268,"current_range_meters":6400,"station_id":"ce4bgv92rcd13ifvqcr0","pricing_plan_id":"cebpf4jnsgd1na2vs0mg"},{"bike_id":"ae9e6eb5-b58b-4eee-b5c1-4ce893811d8d","system_id":"levelo_inurba_marseille","lat":43.24174,"lon":5.39724,"is_reserved":false,"is_disabled":false,"rental_uris":{"android":"levelo://app?vid=ae9e6eb5-b58b-4eee-b5c1-4ce893811d8d","ios":"levelo://app?vid=ae9e6eb5-b58b-4eee-b5c1-4ce893811d8d"},"vehicle_type_id":"4","last_reported":1770264268,"current_range_meters":6400,"station_id":"ce4bhn12rcd13ifvqgpg","pricing_plan_id":"cebpf4jnsgd1na2vs0mg"},{"bike_id":"da4d19a5-63fa-471e-bc87-bb23db14643b","system_id":"levelo_inurba_marseille","lat":43.29544,"lon":5.42502,"is_reserved":false,"is_disabled":false,"rental_uris":{"android":"levelo://app?vid=da4d19a5-63fa-471e-bc87-bb23db14643b","ios":"levelo://app?vid=da4d19a5-63fa-471e-bc87-bb23db14643b"},"vehicle_type_id":"4","last_reported":1770264268,"current_range_meters":6400,"station_id":"","pricing_plan_id":"cebpf4jnsgd1na2vs0mg"},{"bike_id":"ae31df1c-c3f6-4879-abd7-99d899c9ca05","system_id":"levelo_inurba_marseille","lat":43.31082,"lon":5.38454,"is_reserved":false,"is_disabled":false,"rental_uris":{"android":"levelo://app?vid=ae31df1c-c3f6-4879-abd7-99d899c9ca05","ios":"levelo://app?vid=ae31df1c-c3f6-4879-abd7-99d899c9ca05"},"vehicle_type_id":"4","last_reported":1770264268,"current_range_meters":6400,"station_id":"","pricing_plan_id":"cebpf4jnsgd1na2vs0mg"},{"bike_id":"809dfd22-afa1-4754-8327-1cac66519aa2","system_id":"levelo_inurba_marseille","lat":43.28275,"lon":5.35048,"is_reserved":false,"is_disabled":false,"rental_uris":{"android":"levelo://app?vid=809dfd22-afa1-4754-8327-1cac66519aa2","ios":"levelo://app?vid=809dfd22-afa1-4754-8327-1cac66519aa2"},"vehicle_type_id":"4","last_reported":1770264268,"current_range_meters":6400,"station_id":"ce4bhbp2rcd13ifvqerg","pricing_plan_id":"cebpf4jnsgd1na2vs0mg"},{"bike_id":"975d126b-89e4-4613-9114-c70ad14b4ed6","system_id":"levelo_inurba_marseille","lat":43.22575,"lon":5.41619,"is_reserved":false,"is_disabled":false,"rental_uris":{"android":"levelo://app?vid=975d126b-89e4-4613-9114-c70ad14b4ed6","ios":"levelo://app?vid=975d126b-89e4-4613-9114-c70ad14b4ed6"},"vehicle_type_id":"4","last_reported":1770264268,"current_range_meters":6400,"station_id":"st_d2o4gvlbi1j2169b742g","pricing_plan_id":"cebpf4jnsgd1na2vs0mg"},{"bike_id":"0d59add4-4b56-4ced-b456-94533a67403b","system_id":"levelo_inurba_marseille","lat":43.232017,"lon":5.355451,"is_reserved":false,"is_disabled":false,"rental_uris":{"android":"levelo://app?vid=0d59add4-4b56-4ced-b456-94533a67403b","ios":"levelo://app?vid=0d59add4-4b56-4ced-b456-94533a67403b"},"vehicle_type_id":"4","last_reported":1770264268,"current_range_meters":6800,"station_id":"ce4bhu92rcd13ifvqi70","pricing_plan_id":"cebpf4jnsgd1na2vs0mg"},{"bike_id":"3376af0a-2c8a-4f7e-ab86-0856914ff72b","system_id":"levelo_inurba_marseille","lat":43.29528,"lon":5.38536,"is_reserved":false,"is_disabled":false,"rental_uris":{"android":"levelo://app?vid=3376af0a-2c8a-4f7e-ab86-0856914ff72b","ios":"levelo://app?vid=3376af0a-2c8a-4f7e-ab86-0856914ff72b"},"vehicle_type_id":"4","last_reported":1770264268,"current_range_meters":6800,"station_id":"ce4bgih2rcd13ifvqba0","pricing_plan_id":"cebpf4jnsgd1na2vs0mg"},{"bike_id":"1794fc4b-f1e9-4439-acd6-7a3c137a2b38","system_id":"levelo_inurba_marseille","lat":43.23787,"lon":5.36634,"is_reserved":false,"is_disabled":false,"rental_uris":{"android":"levelo://app?vid=1794fc4b-f1e9-4439-acd6-7a3c137a2b38","ios":"levelo://app?vid=1794fc4b-f1e9-4439-acd6-7a3c137a2b38"},"vehicle_type_id":"4","last_reported":1770264268,"current_range_meters":6800,"station_id":"st_d3nk18o9ro0c73en2l3g","pricing_plan_id":"cebpf4jnsgd1na2vs0mg"},{"bike_id":"b55cf58b-0b2d-45d8-b9da-9cab3935aa03","system_id":"levelo_inurba_marseille","lat":43.23052,"lon":5.35492,"is_reserved":false,"is_disabled":false,"rental_uris":{"android":"levelo://app?vid=b55cf58b-0b2d-45d8-b9da-9cab3935aa03","ios":"levelo://app?vid=b55cf58b-0b2d-45d8-b9da-9cab3935aa03"},"vehicle_type_id":"4","last_reported":1770264268,"current_range_meters":6800,"station_id":"cpo3342slgdg3j2ifvpg","pricing_plan_id":"cebpf4jnsgd1na2vs0mg"},{"bike_id":"27b91125-8725-4db7-bbdb-0b7821e21970","system_id":"levelo_inurba_marseille","lat":43.23384,"lon":5.41257,"is_reserved":false,"is_disabled":false,"rental_uris":{"android":"levelo://app?vid=27b91125-8725-4db7-bbdb-0b7821e21970","ios":"levelo://app?vid=27b91125-8725-4db7-bbdb-0b7821e21970"},"vehicle_type_id":"4","last_reported":1770264268,"current_range_meters":6800,"station_id":"","pricing_plan_id":"cebpf4jnsgd1na2vs0mg"},{"bike_id":"dc557827-aa70-4c26-b155-69a8514c695a","system_id":"levelo_inurba_marseille","lat":43.33545,"lon":5.37454,"is_reserved":false,"is_disabled":false,"rental_uris":{"android":"levelo://app?vid=dc557827-aa70-4c26-b155-69a8514c695a","ios":"levelo://app?vid=dc557827-aa70-4c26-b155-69a8514c695a"},"vehicle_type_id":"4","last_reported":1770264268,"current_range_meters":6800,"station_id":"","pricing_plan_id":"cebpf4jnsgd1na2vs0mg"},{"bike_id":"5861cbe4-2772-497d-b5aa-b2fb74191cac","system_id":"levelo_inurba_marseille","lat":43.311677,"lon":5.387184,"is_reserved":false,"is_disabled":false,"rental_uris":{"android":"levelo://app?vid=5861cbe4-2772-497d-b5aa-b2fb74191cac","ios":"levelo://app?vid=5861cbe4-2772-497d-b5aa-b2fb74191cac"},"vehicle_type_id":"4","last_reported":1770264268,"current_range_meters":6800,"station_id":"ce4bgv12rcd13ifvqcp0","pricing_plan_id":"cebpf4jnsgd1na2vs0mg"},{"bike_id":"916d25d2-1934-4b0b-a11a-4597463459fa","system_id":"levelo_inurba_marseille","lat":43.30588,"lon":5.39352,"is_reserved":false,"is_disabled":false,"rental_uris":{"android":"levelo://app?vid=916d25d2-1934-4b0b-a11a-4597463459fa","ios":"levelo://app?vid=916d25d2-1934-4b0b-a11a-4597463459fa"},"vehicle_type_id":"4","last_reported":1770264268,"current_range_meters":6800,"station_id":"ce4bh0p2rcd13ifvqd80","pricing_plan_id":"cebpf4jnsgd1na2vs0mg"},{"bike_id":"40876c26-127d-407e-adb0-83b88074f4ef","system_id":"levelo_inurba_marseille","lat":43.295921,"lon":5.380967,"is_reserved":false,"is_disabled":false,"rental_uris":{"android":"levelo://app?vid=40876c26-127d-407e-adb0-83b88074f4ef","ios":"levelo://app?vid=40876c26-127d-407e-adb0-83b88074f4ef"},"vehicle_type_id":"4","last_reported":1770264268,"current_range_meters":6800,"station_id":"ce4bgl12rcd13ifvqbo0","pricing_plan_id":"cebpf4jnsgd1na2vs0mg"},{"bike_id":"3a4b7fad-d353-4ccb-8488-6ee8991487ab","system_id":"levelo_inurba_marseille","lat":43.23176,"lon":5.35566,"is_reserved":false,"is_disabled":false,"rental_uris":{"android":"levelo://app?vid=3a4b7fad-d353-4ccb-8488-6ee8991487ab","ios":"levelo://app?vid=3a4b7fad-d353-4ccb-8488-6ee8991487ab"},"vehicle_type_id":"4","last_reported":1770264268,"current_range_meters":6800,"station_id":"ce4bhu92rcd13ifvqi70","pricing_plan_id":"cebpf4jnsgd1na2vs0mg"},{"bike_id":"239edf4b-52a5-42bd-a57d-2d4cbfc6074d","system_id":"levelo_inurba_marseille","lat":43.249467,"lon":5.404964,"is_reserved":false,"is_disabled":false,"rental_uris":{"android":"levelo://app?vid=239edf4b-52a5-42bd-a57d-2d4cbfc6074d","ios":"levelo://app?vid=239edf4b-52a5-42bd-a57d-2d4cbfc6074d"},"vehicle_type_id":"4","last_reported":1770264268,"current_range_meters":6800,"station_id":"st_d2ngiaodas8pm72gd1h0","pricing_plan_id":"cebpf4jnsgd1na2vs0mg"},{"bike_id":"8674cfe8-4a44-48f5-a11c-90468b3a433c","system_id":"levelo_inurba_marseille","lat":43.31166,"lon":5.38706,"is_reserved":false,"is_disabled":false,"rental_uris":{"android":"levelo://app?vid=8674cfe8-4a44-48f5-a11c-90468b3a433c","ios":"levelo://app?vid=8674cfe8-4a44-48f5-a11c-90468b3a433c"},"vehicle_type_id":"4","last_reported":1770264268,"current_range_meters":6800,"station_id":"ce4bgv12rcd13ifvqcp0","pricing_plan_id":"cebpf4jnsgd1na2vs0mg"},{"bike_id":"e44e7816-6809-4e44-b512-aba042c8c26b","system_id":"levelo_inurba_marseille","lat":43.258276,"lon":5.394416,"is_reserved":false,"is_disabled":false,"rental_uris":{"android":"levelo://app?vid=e44e7816-6809-4e44-b512-aba042c8c26b","ios":"levelo://app?vid=e44e7816-6809-4e44-b512-aba042c8c26b"},"vehicle_type_id":"4","last_reported":1770264268,"current_range_meters":6800,"station_id":"ce4bhip2rcd13ifvqft0","pricing_plan_id":"cebpf4jnsgd1na2vs0mg"},{"bike_id":"c269eff6-7414-4fb8-b35a-8132e5c63b79","system_id":"levelo_inurba_marseille","lat":43.250065,"lon":5.389179,"is_reserved":false,"is_disabled":false,"rental_uris":{"android":"levelo://app?vid=c269eff6-7414-4fb8-b35a-8132e5c63b79","ios":"levelo://app?vid=c269eff6-7414-4fb8-b35a-8132e5c63b79"},"vehicle_type_id":"4","last_reported":1770264268,"current_range_meters":6800,"station_id":"ce4bhgp2rcd13ifvqfd0","pricing_plan_id":"cebpf4jnsgd1na2vs0mg"},{"bike_id":"41440d78-60d6-4472-ae57-0bbc5d6345c4","system_id":"levelo_inurba_marseille","lat":43.25512,"lon":5.37657,"is_reserved":false,"is_disabled":false,"rental_uris":{"android":"levelo://app?vid=41440d78-60d6-4472-ae57-0bbc5d6345c4","ios":"levelo://app?vid=41440d78-60d6-4472-ae57-0bbc5d6345c4"},"vehicle_type_id":"4","last_reported":1770264268,"current_range_meters":7200,"station_id":"ce4bhh12rcd13ifvqff0","pricing_plan_id":"cebpf4jnsgd1na2vs0mg"},{"bike_id":"f73bf0ee-9df1-47ae-be36-5758f33adaf5","system_id":"levelo_inurba_marseille","lat":43.33347,"lon":5.41061,"is_reserved":false,"is_disabled":false,"rental_uris":{"android":"levelo://app?vid=f73bf0ee-9df1-47ae-be36-5758f33adaf5","ios":"levelo://app?vid=f73bf0ee-9df1-47ae-be36-5758f33adaf5"},"vehicle_type_id":"4","last_reported":1770264268,"current_range_meters":7200,"station_id":"","pricing_plan_id":"cebpf4jnsgd1na2vs0mg"},{"bike_id":"2bf19671-0061-46e9-83e3-55d71bb70148","system_id":"levelo_inurba_marseille","lat":43.22934,"lon":5.35333,"is_reserved":false,"is_disabled":false,"rental_uris":{"android":"levelo://app?vid=2bf19671-0061-46e9-83e3-55d71bb70148","ios":"levelo://app?vid=2bf19671-0061-46e9-83e3-55d71bb70148"},"vehicle_type_id":"4","last_reported":1770264268,"current_range_meters":7200,"station_id":"cpo3532slgdg3j2ikp40","pricing_plan_id":"cebpf4jnsgd1na2vs0mg"},{"bike_id":"81843b81-dc05-4822-ac46-ea3aebd24a78","system_id":"levelo_inurba_marseille","lat":43.323689,"lon":5.367401,"is_reserved":false,"is_disabled":false,"rental_uris":{"android":"levelo://app?vid=81843b81-dc05-4822-ac46-ea3aebd24a78","ios":"levelo://app?vid=81843b81-dc05-4822-ac46-ea3aebd24a78"},"vehicle_type_id":"4","last_reported":1770264268,"current_range_meters":7200,"station_id":"ce4bhsh2rcd13ifvqi2g","pricing_plan_id":"cebpf4jnsgd1na2vs0mg"},{"bike_id":"bc84ebea-3709-44f1-a5ef-62a520b808b8","system_id":"levelo_inurba_marseille","lat":43.26484,"lon":5.39546,"is_reserved":false,"is_disabled":false,"rental_uris":{"android":"levelo://app?vid=bc84ebea-3709-44f1-a5ef-62a520b808b8","ios":"levelo://app?vid=bc84ebea-3709-44f1-a5ef-62a520b808b8"},"vehicle_type_id":"4","last_reported":1770264268,"current_range_meters":7200,"station_id":"ce4bhi12rcd13ifvqfq0","pricing_plan_id":"cebpf4jnsgd1na2vs0mg"},{"bike_id":"95186a85-ac5d-4bde-b3fb-07b34e4b7077","system_id":"levelo_inurba_marseille","lat":43.251181,"lon":5.403299,"is_reserved":false,"is_disabled":false,"rental_uris":{"android":"levelo://app?vid=95186a85-ac5d-4bde-b3fb-07b34e4b7077","ios":"levelo://app?vid=95186a85-ac5d-4bde-b3fb-07b34e4b7077"},"vehicle_type_id":"4","last_reported":1770264268,"current_range_meters":7200,"station_id":"ce4bhlh2rcd13ifvqgig","pricing_plan_id":"cebpf4jnsgd1na2vs0mg"},{"bike_id":"c9cf1bda-a378-4513-8aed-b2dba30c86f7","system_id":"levelo_inurba_marseille","lat":43.29571,"lon":5.42267,"is_reserved":false,"is_disabled":false,"rental_uris":{"android":"levelo://app?vid=c9cf1bda-a378-4513-8aed-b2dba30c86f7","ios":"levelo://app?vid=c9cf1bda-a378-4513-8aed-b2dba30c86f7"},"vehicle_type_id":"4","last_reported":1770264268,"current_range_meters":7200,"station_id":"ce4bhph2rcd13ifvqhdg","pricing_plan_id":"cebpf4jnsgd1na2vs0mg"},{"bike_id":"59ee5f7d-ad97-4c4d-bf47-920683c932a5","system_id":"levelo_inurba_marseille","lat":43.25937,"lon":5.40906,"is_reserved":false,"is_disabled":false,"rental_uris":{"android":"levelo://app?vid=59ee5f7d-ad97-4c4d-bf47-920683c932a5","ios":"levelo://app?vid=59ee5f7d-ad97-4c4d-bf47-920683c932a5"},"vehicle_type_id":"4","last_reported":1770264268,"current_range_meters":7200,"station_id":"ce4bhm92rcd13ifvqglg","pricing_plan_id":"cebpf4jnsgd1na2vs0mg"},{"bike_id":"35696b74-cd47-406b-9f63-c33f8dc3b9b3","system_id":"levelo_inurba_marseille","lat":43.29029,"lon":5.38645,"is_reserved":false,"is_disabled":false,"rental_uris":{"android":"levelo://app?vid=35696b74-cd47-406b-9f63-c33f8dc3b9b3","ios":"levelo://app?vid=35696b74-cd47-406b-9f63-c33f8dc3b9b3"},"vehicle_type_id":"4","last_reported":1770264268,"current_range_meters":7200,"station_id":"ce4bh4p2rcd13ifvqe0g","pricing_plan_id":"cebpf4jnsgd1na2vs0mg"},{"bike_id":"7420566e-7f9c-4e43-ad5c-037ad83a3126","system_id":"levelo_inurba_marseille","lat":43.313526,"lon":5.385106,"is_reserved":false,"is_disabled":false,"rental_uris":{"android":"levelo://app?vid=7420566e-7f9c-4e43-ad5c-037ad83a3126","ios":"levelo://app?vid=7420566e-7f9c-4e43-ad5c-037ad83a3126"},"vehicle_type_id":"4","last_reported":1770264268,"current_range_meters":7200,"station_id":"ce4bgt92rcd13ifvqcf0","pricing_plan_id":"cebpf4jnsgd1na2vs0mg"},{"bike_id":"a3bfa0eb-eda7-49b7-ab25-b9c4130a73e5","system_id":"levelo_inurba_marseille","lat":43.27823,"lon":5.40681,"is_reserved":false,"is_disabled":true,"rental_uris":{"android":"levelo://app?vid=a3bfa0eb-eda7-49b7-ab25-b9c4130a73e5","ios":"levelo://app?vid=a3bfa0eb-eda7-49b7-ab25-b9c4130a73e5"},"vehicle_type_id":"4","last_reported":1770264268,"current_range_meters":7200,"station_id":"ce4bhnh2rcd13ifvqgtg","pricing_plan_id":"cebpf4jnsgd1na2vs0mg"},{"bike_id":"e89b42f3-9ad9-40cd-a65c-98400cb11139","system_id":"levelo_inurba_marseille","lat":43.23149,"lon":5.43712,"is_reserved":false,"is_disabled":false,"rental_uris":{"android":"levelo://app?vid=e89b42f3-9ad9-40cd-a65c-98400cb11139","ios":"levelo://app?vid=e89b42f3-9ad9-40cd-a65c-98400cb11139"},"vehicle_type_id":"4","last_reported":1770264268,"current_range_meters":7200,"station_id":"ce4bhmp2rcd13ifvqgog","pricing_plan_id":"cebpf4jnsgd1na2vs0mg"},{"bike_id":"b7764fc0-f5c7-40c2-8393-22727defba3a","system_id":"levelo_inurba_marseille","lat":43.26366,"lon":5.41078,"is_reserved":false,"is_disabled":false,"rental_uris":{"android":"levelo://app?vid=b7764fc0-f5c7-40c2-8393-22727defba3a","ios":"levelo://app?vid=b7764fc0-f5c7-40c2-8393-22727defba3a"},"vehicle_type_id":"4","last_reported":1770264268,"current_range_meters":7200,"station_id":"st_d4e5ca6na9uc73bfl5fg","pricing_plan_id":"cebpf4jnsgd1na2vs0mg"},{"bike_id":"fee01d67-c7fb-42fb-9808-4298ed7a7849","system_id":"levelo_inurba_marseille","lat":43.2447,"lon":5.42539,"is_reserved":false,"is_disabled":false,"rental_uris":{"android":"levelo://app?vid=fee01d67-c7fb-42fb-9808-4298ed7a7849","ios":"levelo://app?vid=fee01d67-c7fb-42fb-9808-4298ed7a7849"},"vehicle_type_id":"4","last_reported":1770264268,"current_range_meters":7200,"station_id":"st_d4a3vfp97mjs738cd8kg","pricing_plan_id":"cebpf4jnsgd1na2vs0mg"},{"bike_id":"9c97ed08-c8de-49a9-b037-9c50c2f5044c","system_id":"levelo_inurba_marseille","lat":43.29424,"lon":5.41328,"is_reserved":false,"is_disabled":false,"rental_uris":{"android":"levelo://app?vid=9c97ed08-c8de-49a9-b037-9c50c2f5044c","ios":"levelo://app?vid=9c97ed08-c8de-49a9-b037-9c50c2f5044c"},"vehicle_type_id":"4","last_reported":1770264268,"current_range_meters":7200,"station_id":"","pricing_plan_id":"cebpf4jnsgd1na2vs0mg"},{"bike_id":"2d36a833-9c1e-4986-b296-52f4e681367f","system_id":"levelo_inurba_marseille","lat":43.2316,"lon":5.43701,"is_reserved":false,"is_disabled":false,"rental_uris":{"android":"levelo://app?vid=2d36a833-9c1e-4986-b296-52f4e681367f","ios":"levelo://app?vid=2d36a833-9c1e-4986-b296-52f4e681367f"},"vehicle_type_id":"4","last_reported":1770264268,"current_range_meters":8000,"station_id":"ce4bhmp2rcd13ifvqgog","pricing_plan_id":"cebpf4jnsgd1na2vs0mg"},{"bike_id":"6b2f8803-9c28-4df8-a226-517617e199e5","system_id":"levelo_inurba_marseille","lat":43.27993,"lon":5.41652,"is_reserved":false,"is_disabled":false,"rental_uris":{"android":"levelo://app?vid=6b2f8803-9c28-4df8-a226-517617e199e5","ios":"levelo://app?vid=6b2f8803-9c28-4df8-a226-517617e199e5"},"vehicle_type_id":"4","last_reported":1770264268,"current_range_meters":8000,"station_id":"ce4bho12rcd13ifvqh1g","pricing_plan_id":"cebpf4jnsgd1na2vs0mg"},{"bike_id":"aca17575-adf4-4e24-8c79-a39e65809e00","system_id":"levelo_inurba_marseille","lat":43.26204,"lon":5.37903,"is_reserved":false,"is_disabled":false,"rental_uris":{"android":"levelo://app?vid=aca17575-adf4-4e24-8c79-a39e65809e00","ios":"levelo://app?vid=aca17575-adf4-4e24-8c79-a39e65809e00"},"vehicle_type_id":"4","last_reported":1770264268,"current_range_meters":8000,"station_id":"ce4bhjp2rcd13ifvqg90","pricing_plan_id":"cebpf4jnsgd1na2vs0mg"},{"bike_id":"961e9953-0463-46e8-b679-88ae5f88af0c","system_id":"levelo_inurba_marseille","lat":43.28561,"lon":5.39482,"is_reserved":false,"is_disabled":false,"rental_uris":{"android":"levelo://app?vid=961e9953-0463-46e8-b679-88ae5f88af0c","ios":"levelo://app?vid=961e9953-0463-46e8-b679-88ae5f88af0c"},"vehicle_type_id":"4","last_reported":1770264268,"current_range_meters":8000,"station_id":"ce4bh292rcd13ifvqdg0","pricing_plan_id":"cebpf4jnsgd1na2vs0mg"},{"bike_id":"c26de9f0-aea6-437d-a752-448502a27f69","system_id":"levelo_inurba_marseille","lat":43.25941,"lon":5.409,"is_reserved":false,"is_disabled":false,"rental_uris":{"android":"levelo://app?vid=c26de9f0-aea6-437d-a752-448502a27f69","ios":"levelo://app?vid=c26de9f0-aea6-437d-a752-448502a27f69"},"vehicle_type_id":"4","last_reported":1770264268,"current_range_meters":8000,"station_id":"ce4bhm92rcd13ifvqglg","pricing_plan_id":"cebpf4jnsgd1na2vs0mg"},{"bike_id":"30af4932-afd2-4a71-b1f1-12452d4ffee0","system_id":"levelo_inurba_marseille","lat":43.23761,"lon":5.36615,"is_reserved":false,"is_disabled":false,"rental_uris":{"android":"levelo://app?vid=30af4932-afd2-4a71-b1f1-12452d4ffee0","ios":"levelo://app?vid=30af4932-afd2-4a71-b1f1-12452d4ffee0"},"vehicle_type_id":"4","last_reported":1770264268,"current_range_meters":8000,"station_id":"st_d3nk18o9ro0c73en2l3g","pricing_plan_id":"cebpf4jnsgd1na2vs0mg"},{"bike_id":"3c5f466a-30b7-4780-a724-cfc51041d205","system_id":"levelo_inurba_marseille","lat":43.2992,"lon":5.38155,"is_reserved":false,"is_disabled":false,"rental_uris":{"android":"levelo://app?vid=3c5f466a-30b7-4780-a724-cfc51041d205","ios":"levelo://app?vid=3c5f466a-30b7-4780-a724-cfc51041d205"},"vehicle_type_id":"4","last_reported":1770264268,"current_range_meters":8000,"station_id":"ce4bgj12rcd13ifvqbc0","pricing_plan_id":"cebpf4jnsgd1na2vs0mg"},{"bike_id":"5ff887be-55dc-49d2-a786-f91a5a722cf5","system_id":"levelo_inurba_marseille","lat":43.303104,"lon":5.392187,"is_reserved":false,"is_disabled":false,"rental_uris":{"android":"levelo://app?vid=5ff887be-55dc-49d2-a786-f91a5a722cf5","ios":"levelo://app?vid=5ff887be-55dc-49d2-a786-f91a5a722cf5"},"vehicle_type_id":"4","last_reported":1770264268,"current_range_meters":8000,"station_id":"","pricing_plan_id":"cebpf4jnsgd1na2vs0mg"},{"bike_id":"38712b4b-754b-41b9-9f4d-8f2f4069c5f1","system_id":"levelo_inurba_marseille","lat":43.29901,"lon":5.37422,"is_reserved":false,"is_disabled":false,"rental_uris":{"android":"levelo://app?vid=38712b4b-754b-41b9-9f4d-8f2f4069c5f1","ios":"levelo://app?vid=38712b4b-754b-41b9-9f4d-8f2f4069c5f1"},"vehicle_type_id":"4","last_reported":1770264268,"current_range_meters":8000,"station_id":"","pricing_plan_id":"cebpf4jnsgd1na2vs0mg"},{"bike_id":"f7d0906b-23c2-4d3f-bf41-7c900c058085","system_id":"levelo_inurba_marseille","lat":43.28034,"lon":5.42211,"is_reserved":false,"is_disabled":false,"rental_uris":{"android":"levelo://app?vid=f7d0906b-23c2-4d3f-bf41-7c900c058085","ios":"levelo://app?vid=f7d0906b-23c2-4d3f-bf41-7c900c058085"},"vehicle_type_id":"4","last_reported":1770264268,"current_range_meters":8000,"station_id":"","pricing_plan_id":"cebpf4jnsgd1na2vs0mg"},{"bike_id":"22dc092e-167d-4639-90d0-64f5aea2f582","system_id":"levelo_inurba_marseille","lat":43.28418,"lon":5.39175,"is_reserved":false,"is_disabled":false,"rental_uris":{"android":"levelo://app?vid=22dc092e-167d-4639-90d0-64f5aea2f582","ios":"levelo://app?vid=22dc092e-167d-4639-90d0-64f5aea2f582"},"vehicle_type_id":"4","last_reported":1770264268,"current_range_meters":8000,"station_id":"ce4bhoh2rcd13ifvqh5g","pricing_plan_id":"cebpf4jnsgd1na2vs0mg"},{"bike_id":"85ea35d2-3956-47f8-af2a-f5d40ff2980c","system_id":"levelo_inurba_marseille","lat":43.28474,"lon":5.48401,"is_reserved":false,"is_disabled":false,"rental_uris":{"android":"levelo://app?vid=85ea35d2-3956-47f8-af2a-f5d40ff2980c","ios":"levelo://app?vid=85ea35d2-3956-47f8-af2a-f5d40ff2980c"},"vehicle_type_id":"4","last_reported":1770264268,"current_range_meters":8000,"station_id":"st_d3svhcjqgbts73a3dn0g","pricing_plan_id":"cebpf4jnsgd1na2vs0mg"},{"bike_id":"37867e40-4e69-4e30-9726-c1f71541de4c","system_id":"levelo_inurba_marseille","lat":43.30891,"lon":5.37196,"is_reserved":false,"is_disabled":false,"rental_uris":{"android":"levelo://app?vid=37867e40-4e69-4e30-9726-c1f71541de4c","ios":"levelo://app?vid=37867e40-4e69-4e30-9726-c1f71541de4c"},"vehicle_type_id":"4","last_reported":1770264268,"current_range_meters":8000,"station_id":"ce4bguh2rcd13ifvqckg","pricing_plan_id":"cebpf4jnsgd1na2vs0mg"},{"bike_id":"b2e95c65-a1ae-4322-9564-56f6659076f8","system_id":"levelo_inurba_marseille","lat":43.23137,"lon":5.43723,"is_reserved":false,"is_disabled":false,"rental_uris":{"android":"levelo://app?vid=b2e95c65-a1ae-4322-9564-56f6659076f8","ios":"levelo://app?vid=b2e95c65-a1ae-4322-9564-56f6659076f8"},"vehicle_type_id":"4","last_reported":1770264268,"current_range_meters":8000,"station_id":"ce4bhmp2rcd13ifvqgog","pricing_plan_id":"cebpf4jnsgd1na2vs0mg"},{"bike_id":"a03a0587-26a0-4743-94df-85cf192becc0","system_id":"levelo_inurba_marseille","lat":43.33526,"lon":5.37436,"is_reserved":false,"is_disabled":false,"rental_uris":{"android":"levelo://app?vid=a03a0587-26a0-4743-94df-85cf192becc0","ios":"levelo://app?vid=a03a0587-26a0-4743-94df-85cf192becc0"},"vehicle_type_id":"4","last_reported":1770264268,"current_range_meters":8000,"station_id":"st_d46tts09ee8s73dlu43g","pricing_plan_id":"cebpf4jnsgd1na2vs0mg"},{"bike_id":"c97cb073-8168-4347-8195-bc8c51c235c6","system_id":"levelo_inurba_marseille","lat":43.24031,"lon":5.37705,"is_reserved":false,"is_disabled":false,"rental_uris":{"android":"levelo://app?vid=c97cb073-8168-4347-8195-bc8c51c235c6","ios":"levelo://app?vid=c97cb073-8168-4347-8195-bc8c51c235c6"},"vehicle_type_id":"4","last_reported":1770264268,"current_range_meters":8000,"station_id":"ce4bhnp2rcd13ifvqgvg","pricing_plan_id":"cebpf4jnsgd1na2vs0mg"},{"bike_id":"4afade3c-74d8-4d8b-96da-c0bd053dccdf","system_id":"levelo_inurba_marseille","lat":43.2909,"lon":5.37117,"is_reserved":false,"is_disabled":true,"rental_uris":{"android":"levelo://app?vid=4afade3c-74d8-4d8b-96da-c0bd053dccdf","ios":"levelo://app?vid=4afade3c-74d8-4d8b-96da-c0bd053dccdf"},"vehicle_type_id":"4","last_reported":1770264268,"current_range_meters":8000,"station_id":"ce4bh5p2rcd13ifvqe4g","pricing_plan_id":"cebpf4jnsgd1na2vs0mg"},{"bike_id":"63b0defc-cb5e-4c6d-95eb-4fde2c849f72","system_id":"levelo_inurba_marseille","lat":43.30147,"lon":5.38075,"is_reserved":false,"is_disabled":false,"rental_uris":{"android":"levelo://app?vid=63b0defc-cb5e-4c6d-95eb-4fde2c849f72","ios":"levelo://app?vid=63b0defc-cb5e-4c6d-95eb-4fde2c849f72"},"vehicle_type_id":"4","last_reported":1770264268,"current_range_meters":8000,"station_id":"ce4bgjp2rcd13ifvqbh0","pricing_plan_id":"cebpf4jnsgd1na2vs0mg"},{"bike_id":"e6e58918-784d-4937-ad58-d434a1e12b03","system_id":"levelo_inurba_marseille","lat":43.28697,"lon":5.37388,"is_reserved":false,"is_disabled":false,"rental_uris":{"android":"levelo://app?vid=e6e58918-784d-4937-ad58-d434a1e12b03","ios":"levelo://app?vid=e6e58918-784d-4937-ad58-d434a1e12b03"},"vehicle_type_id":"4","last_reported":1770264268,"current_range_meters":8000,"station_id":"ce4bh3p2rcd13ifvqdq0","pricing_plan_id":"cebpf4jnsgd1na2vs0mg"},{"bike_id":"c54292e3-065f-4936-9d5e-2b6c416dceb3","system_id":"levelo_inurba_marseille","lat":43.23154,"lon":5.437,"is_reserved":false,"is_disabled":false,"rental_uris":{"android":"levelo://app?vid=c54292e3-065f-4936-9d5e-2b6c416dceb3","ios":"levelo://app?vid=c54292e3-065f-4936-9d5e-2b6c416dceb3"},"vehicle_type_id":"4","last_reported":1770264268,"current_range_meters":8400,"station_id":"ce4bhmp2rcd13ifvqgog","pricing_plan_id":"cebpf4jnsgd1na2vs0mg"},{"bike_id":"b3735e88-8cf7-4a8a-8190-24b4e6e943c9","system_id":"levelo_inurba_marseille","lat":43.31114,"lon":5.37763,"is_reserved":false,"is_disabled":false,"rental_uris":{"android":"levelo://app?vid=b3735e88-8cf7-4a8a-8190-24b4e6e943c9","ios":"levelo://app?vid=b3735e88-8cf7-4a8a-8190-24b4e6e943c9"},"vehicle_type_id":"4","last_reported":1770264268,"current_range_meters":8400,"station_id":"ce4bgt92rcd13ifvqcg0","pricing_plan_id":"cebpf4jnsgd1na2vs0mg"},{"bike_id":"b7fceb7d-5c94-4236-913d-205150a917a2","system_id":"levelo_inurba_marseille","lat":43.24462,"lon":5.42533,"is_reserved":false,"is_disabled":false,"rental_uris":{"android":"levelo://app?vid=b7fceb7d-5c94-4236-913d-205150a917a2","ios":"levelo://app?vid=b7fceb7d-5c94-4236-913d-205150a917a2"},"vehicle_type_id":"4","last_reported":1770264268,"current_range_meters":8400,"station_id":"st_d4a3vfp97mjs738cd8kg","pricing_plan_id":"cebpf4jnsgd1na2vs0mg"},{"bike_id":"7f442fdf-ff46-4239-8e67-e1ed9e9857ff","system_id":"levelo_inurba_marseille","lat":43.29798,"lon":5.38069,"is_reserved":false,"is_disabled":true,"rental_uris":{"android":"levelo://app?vid=7f442fdf-ff46-4239-8e67-e1ed9e9857ff","ios":"levelo://app?vid=7f442fdf-ff46-4239-8e67-e1ed9e9857ff"},"vehicle_type_id":"4","last_reported":1770264268,"current_range_meters":8400,"station_id":"ce4bgip2rcd13ifvqbb0","pricing_plan_id":"cebpf4jnsgd1na2vs0mg"},{"bike_id":"34876a11-74b9-4acf-98dd-abc289f65181","system_id":"levelo_inurba_marseille","lat":43.29896,"lon":5.39738,"is_reserved":false,"is_disabled":false,"rental_uris":{"android":"levelo://app?vid=34876a11-74b9-4acf-98dd-abc289f65181","ios":"levelo://app?vid=34876a11-74b9-4acf-98dd-abc289f65181"},"vehicle_type_id":"4","last_reported":1770264268,"current_range_meters":8400,"station_id":"ce4bh0h2rcd13ifvqd50","pricing_plan_id":"cebpf4jnsgd1na2vs0mg"},{"bike_id":"1afee07c-366b-46e2-8984-d19ca032be81","system_id":"levelo_inurba_marseille","lat":43.25106,"lon":5.40321,"is_reserved":false,"is_disabled":false,"rental_uris":{"android":"levelo://app?vid=1afee07c-366b-46e2-8984-d19ca032be81","ios":"levelo://app?vid=1afee07c-366b-46e2-8984-d19ca032be81"},"vehicle_type_id":"4","last_reported":1770264268,"current_range_meters":8400,"station_id":"ce4bhlh2rcd13ifvqgig","pricing_plan_id":"cebpf4jnsgd1na2vs0mg"},{"bike_id":"c3f43aa2-1ae1-41b3-a072-0f15c8d488c0","system_id":"levelo_inurba_marseille","lat":43.28473,"lon":5.43724,"is_reserved":false,"is_disabled":false,"rental_uris":{"android":"levelo://app?vid=c3f43aa2-1ae1-41b3-a072-0f15c8d488c0","ios":"levelo://app?vid=c3f43aa2-1ae1-41b3-a072-0f15c8d488c0"},"vehicle_type_id":"4","last_reported":1770264268,"current_range_meters":8400,"station_id":"","pricing_plan_id":"cebpf4jnsgd1na2vs0mg"},{"bike_id":"522d13f9-4f38-4274-96c0-15194addacc6","system_id":"levelo_inurba_marseille","lat":43.23783,"lon":5.36594,"is_reserved":false,"is_disabled":false,"rental_uris":{"android":"levelo://app?vid=522d13f9-4f38-4274-96c0-15194addacc6","ios":"levelo://app?vid=522d13f9-4f38-4274-96c0-15194addacc6"},"vehicle_type_id":"4","last_reported":1770264268,"current_range_meters":8400,"station_id":"st_d3nk18o9ro0c73en2l3g","pricing_plan_id":"cebpf4jnsgd1na2vs0mg"},{"bike_id":"1be79b39-519d-4004-8fc8-79c55282c459","system_id":"levelo_inurba_marseille","lat":43.24134,"lon":5.36437,"is_reserved":false,"is_disabled":false,"rental_uris":{"android":"levelo://app?vid=1be79b39-519d-4004-8fc8-79c55282c459","ios":"levelo://app?vid=1be79b39-519d-4004-8fc8-79c55282c459"},"vehicle_type_id":"4","last_reported":1770264268,"current_range_meters":8400,"station_id":"cpo36qri1sfpv3e86is0","pricing_plan_id":"cebpf4jnsgd1na2vs0mg"},{"bike_id":"6509da1d-d5c5-49f5-b2aa-ced3c5aca640","system_id":"levelo_inurba_marseille","lat":43.31167,"lon":5.38683,"is_reserved":false,"is_disabled":false,"rental_uris":{"android":"levelo://app?vid=6509da1d-d5c5-49f5-b2aa-ced3c5aca640","ios":"levelo://app?vid=6509da1d-d5c5-49f5-b2aa-ced3c5aca640"},"vehicle_type_id":"4","last_reported":1770264268,"current_range_meters":8400,"station_id":"ce4bgv12rcd13ifvqcp0","pricing_plan_id":"cebpf4jnsgd1na2vs0mg"},{"bike_id":"b883f242-7517-4c8d-9c46-a0fc689d5737","system_id":"levelo_inurba_marseille","lat":43.28567,"lon":5.39496,"is_reserved":false,"is_disabled":false,"rental_uris":{"android":"levelo://app?vid=b883f242-7517-4c8d-9c46-a0fc689d5737","ios":"levelo://app?vid=b883f242-7517-4c8d-9c46-a0fc689d5737"},"vehicle_type_id":"4","last_reported":1770264268,"current_range_meters":8400,"station_id":"ce4bh292rcd13ifvqdg0","pricing_plan_id":"cebpf4jnsgd1na2vs0mg"},{"bike_id":"41ee1b12-a1ee-4751-b8bc-42c641c8d973","system_id":"levelo_inurba_marseille","lat":43.28408,"lon":5.37502,"is_reserved":false,"is_disabled":false,"rental_uris":{"android":"levelo://app?vid=41ee1b12-a1ee-4751-b8bc-42c641c8d973","ios":"levelo://app?vid=41ee1b12-a1ee-4751-b8bc-42c641c8d973"},"vehicle_type_id":"4","last_reported":1770264268,"current_range_meters":8400,"station_id":"ce4bh412rcd13ifvqds0","pricing_plan_id":"cebpf4jnsgd1na2vs0mg"},{"bike_id":"d3d63c27-06f0-4b77-9ac5-a9069aedd324","system_id":"levelo_inurba_marseille","lat":43.24079,"lon":5.377224,"is_reserved":false,"is_disabled":false,"rental_uris":{"android":"levelo://app?vid=d3d63c27-06f0-4b77-9ac5-a9069aedd324","ios":"levelo://app?vid=d3d63c27-06f0-4b77-9ac5-a9069aedd324"},"vehicle_type_id":"4","last_reported":1770264268,"current_range_meters":8400,"station_id":"ce4bhnp2rcd13ifvqgvg","pricing_plan_id":"cebpf4jnsgd1na2vs0mg"},{"bike_id":"d2c14433-6ee8-4acf-8c27-13116ae17eed","system_id":"levelo_inurba_marseille","lat":43.229336,"lon":5.353806,"is_reserved":false,"is_disabled":false,"rental_uris":{"android":"levelo://app?vid=d2c14433-6ee8-4acf-8c27-13116ae17eed","ios":"levelo://app?vid=d2c14433-6ee8-4acf-8c27-13116ae17eed"},"vehicle_type_id":"4","last_reported":1770264268,"current_range_meters":8400,"station_id":"cpo3532slgdg3j2ikp40","pricing_plan_id":"cebpf4jnsgd1na2vs0mg"},{"bike_id":"6b57bf3b-8c0e-4c20-ac17-97c4a9b3eefe","system_id":"levelo_inurba_marseille","lat":43.2314,"lon":5.43713,"is_reserved":false,"is_disabled":false,"rental_uris":{"android":"levelo://app?vid=6b57bf3b-8c0e-4c20-ac17-97c4a9b3eefe","ios":"levelo://app?vid=6b57bf3b-8c0e-4c20-ac17-97c4a9b3eefe"},"vehicle_type_id":"4","last_reported":1770264268,"current_range_meters":8400,"station_id":"ce4bhmp2rcd13ifvqgog","pricing_plan_id":"cebpf4jnsgd1na2vs0mg"},{"bike_id":"49bc0ac4-ec4c-46b4-bcba-c5b87d948aa1","system_id":"levelo_inurba_marseille","lat":43.23963,"lon":5.36618,"is_reserved":false,"is_disabled":false,"rental_uris":{"android":"levelo://app?vid=49bc0ac4-ec4c-46b4-bcba-c5b87d948aa1","ios":"levelo://app?vid=49bc0ac4-ec4c-46b4-bcba-c5b87d948aa1"},"vehicle_type_id":"4","last_reported":1770264268,"current_range_meters":8800,"station_id":"ce4bhi12rcd13ifvqfp0","pricing_plan_id":"cebpf4jnsgd1na2vs0mg"},{"bike_id":"dd80c901-c2fa-47d4-ae61-a97431ae582b","system_id":"levelo_inurba_marseille","lat":43.216357,"lon":5.346536,"is_reserved":false,"is_disabled":false,"rental_uris":{"android":"levelo://app?vid=dd80c901-c2fa-47d4-ae61-a97431ae582b","ios":"levelo://app?vid=dd80c901-c2fa-47d4-ae61-a97431ae582b"},"vehicle_type_id":"4","last_reported":1770264268,"current_range_meters":8800,"station_id":"","pricing_plan_id":"cebpf4jnsgd1na2vs0mg"},{"bike_id":"6655b68c-34d5-4976-9b6b-2354fa7ac20f","system_id":"levelo_inurba_marseille","lat":43.28855,"lon":5.42529,"is_reserved":false,"is_disabled":false,"rental_uris":{"android":"levelo://app?vid=6655b68c-34d5-4976-9b6b-2354fa7ac20f","ios":"levelo://app?vid=6655b68c-34d5-4976-9b6b-2354fa7ac20f"},"vehicle_type_id":"4","last_reported":1770264268,"current_range_meters":8800,"station_id":"st_d3b462108ojc7389ooeg","pricing_plan_id":"cebpf4jnsgd1na2vs0mg"},{"bike_id":"e2544c40-cde6-4971-8a6c-204e91c8aa30","system_id":"levelo_inurba_marseille","lat":43.29519,"lon":5.39035,"is_reserved":false,"is_disabled":false,"rental_uris":{"android":"levelo://app?vid=e2544c40-cde6-4971-8a6c-204e91c8aa30","ios":"levelo://app?vid=e2544c40-cde6-4971-8a6c-204e91c8aa30"},"vehicle_type_id":"4","last_reported":1770264268,"current_range_meters":8800,"station_id":"ce4bh3p2rcd13ifvqdp0","pricing_plan_id":"cebpf4jnsgd1na2vs0mg"},{"bike_id":"14d29e34-9030-4ebb-b26b-b9968049d1ce","system_id":"levelo_inurba_marseille","lat":43.24171,"lon":5.36394,"is_reserved":false,"is_disabled":false,"rental_uris":{"android":"levelo://app?vid=14d29e34-9030-4ebb-b26b-b9968049d1ce","ios":"levelo://app?vid=14d29e34-9030-4ebb-b26b-b9968049d1ce"},"vehicle_type_id":"4","last_reported":1770264268,"current_range_meters":8800,"station_id":"cpo36qri1sfpv3e86is0","pricing_plan_id":"cebpf4jnsgd1na2vs0mg"},{"bike_id":"d54d1be8-869f-4c63-b314-8eb80f9babad","system_id":"levelo_inurba_marseille","lat":43.229335,"lon":5.353888,"is_reserved":false,"is_disabled":false,"rental_uris":{"android":"levelo://app?vid=d54d1be8-869f-4c63-b314-8eb80f9babad","ios":"levelo://app?vid=d54d1be8-869f-4c63-b314-8eb80f9babad"},"vehicle_type_id":"4","last_reported":1770264268,"current_range_meters":8800,"station_id":"cpo3532slgdg3j2ikp40","pricing_plan_id":"cebpf4jnsgd1na2vs0mg"},{"bike_id":"c1e23706-b5c7-4d8a-8806-4510eaf5a695","system_id":"levelo_inurba_marseille","lat":43.30133,"lon":5.37413,"is_reserved":false,"is_disabled":true,"rental_uris":{"android":"levelo://app?vid=c1e23706-b5c7-4d8a-8806-4510eaf5a695","ios":"levelo://app?vid=c1e23706-b5c7-4d8a-8806-4510eaf5a695"},"vehicle_type_id":"4","last_reported":1770264268,"current_range_meters":8800,"station_id":"ce4bgs92rcd13ifvqcc0","pricing_plan_id":"cebpf4jnsgd1na2vs0mg"},{"bike_id":"6fb99119-655d-47da-8c5f-3d60a34cd591","system_id":"levelo_inurba_marseille","lat":43.24949,"lon":5.40493,"is_reserved":false,"is_disabled":false,"rental_uris":{"android":"levelo://app?vid=6fb99119-655d-47da-8c5f-3d60a34cd591","ios":"levelo://app?vid=6fb99119-655d-47da-8c5f-3d60a34cd591"},"vehicle_type_id":"4","last_reported":1770264268,"current_range_meters":8800,"station_id":"st_d2ngiaodas8pm72gd1h0","pricing_plan_id":"cebpf4jnsgd1na2vs0mg"},{"bike_id":"c1141524-5343-4555-9ca5-2692a3456421","system_id":"levelo_inurba_marseille","lat":43.22924,"lon":5.3538,"is_reserved":false,"is_disabled":false,"rental_uris":{"android":"levelo://app?vid=c1141524-5343-4555-9ca5-2692a3456421","ios":"levelo://app?vid=c1141524-5343-4555-9ca5-2692a3456421"},"vehicle_type_id":"4","last_reported":1770264268,"current_range_meters":8800,"station_id":"cpo3532slgdg3j2ikp40","pricing_plan_id":"cebpf4jnsgd1na2vs0mg"},{"bike_id":"c59be42f-0772-451e-a452-b56e08719067","system_id":"levelo_inurba_marseille","lat":43.23961,"lon":5.36621,"is_reserved":false,"is_disabled":false,"rental_uris":{"android":"levelo://app?vid=c59be42f-0772-451e-a452-b56e08719067","ios":"levelo://app?vid=c59be42f-0772-451e-a452-b56e08719067"},"vehicle_type_id":"4","last_reported":1770264268,"current_range_meters":8800,"station_id":"ce4bhi12rcd13ifvqfp0","pricing_plan_id":"cebpf4jnsgd1na2vs0mg"},{"bike_id":"755e59af-683d-4f2b-b573-16e19ef74443","system_id":"levelo_inurba_marseille","lat":43.2976,"lon":5.42777,"is_reserved":false,"is_disabled":false,"rental_uris":{"android":"levelo://app?vid=755e59af-683d-4f2b-b573-16e19ef74443","ios":"levelo://app?vid=755e59af-683d-4f2b-b573-16e19ef74443"},"vehicle_type_id":"4","last_reported":1770264268,"current_range_meters":8800,"station_id":"st_d3md5207bmas73dh9klg","pricing_plan_id":"cebpf4jnsgd1na2vs0mg"},{"bike_id":"b8f84804-3c6a-46e2-933b-865abf78412e","system_id":"levelo_inurba_marseille","lat":43.28481,"lon":5.48388,"is_reserved":false,"is_disabled":false,"rental_uris":{"android":"levelo://app?vid=b8f84804-3c6a-46e2-933b-865abf78412e","ios":"levelo://app?vid=b8f84804-3c6a-46e2-933b-865abf78412e"},"vehicle_type_id":"4","last_reported":1770264268,"current_range_meters":8800,"station_id":"st_d3svhcjqgbts73a3dn0g","pricing_plan_id":"cebpf4jnsgd1na2vs0mg"},{"bike_id":"59b3cf07-a48a-4e24-9342-16d8dccf8d71","system_id":"levelo_inurba_marseille","lat":43.298824,"lon":5.3973,"is_reserved":false,"is_disabled":false,"rental_uris":{"android":"levelo://app?vid=59b3cf07-a48a-4e24-9342-16d8dccf8d71","ios":"levelo://app?vid=59b3cf07-a48a-4e24-9342-16d8dccf8d71"},"vehicle_type_id":"4","last_reported":1770264268,"current_range_meters":9200,"station_id":"ce4bh0h2rcd13ifvqd50","pricing_plan_id":"cebpf4jnsgd1na2vs0mg"},{"bike_id":"89e4ab3d-1408-4d9b-9ebc-e7cb420fad6f","system_id":"levelo_inurba_marseille","lat":43.31091,"lon":5.38389,"is_reserved":false,"is_disabled":false,"rental_uris":{"android":"levelo://app?vid=89e4ab3d-1408-4d9b-9ebc-e7cb420fad6f","ios":"levelo://app?vid=89e4ab3d-1408-4d9b-9ebc-e7cb420fad6f"},"vehicle_type_id":"4","last_reported":1770264268,"current_range_meters":9200,"station_id":"ce4bgv92rcd13ifvqcr0","pricing_plan_id":"cebpf4jnsgd1na2vs0mg"},{"bike_id":"82026f6c-9d07-4663-9912-25f5d62833ed","system_id":"levelo_inurba_marseille","lat":43.26191,"lon":5.37446,"is_reserved":false,"is_disabled":false,"rental_uris":{"android":"levelo://app?vid=82026f6c-9d07-4663-9912-25f5d62833ed","ios":"levelo://app?vid=82026f6c-9d07-4663-9912-25f5d62833ed"},"vehicle_type_id":"4","last_reported":1770264268,"current_range_meters":9200,"station_id":"ce4bhgp2rcd13ifvqfc0","pricing_plan_id":"cebpf4jnsgd1na2vs0mg"},{"bike_id":"4e050dc2-18d1-48d2-bd3b-afdb4aa018e8","system_id":"levelo_inurba_marseille","lat":43.30278,"lon":5.3768,"is_reserved":false,"is_disabled":false,"rental_uris":{"android":"levelo://app?vid=4e050dc2-18d1-48d2-bd3b-afdb4aa018e8","ios":"levelo://app?vid=4e050dc2-18d1-48d2-bd3b-afdb4aa018e8"},"vehicle_type_id":"4","last_reported":1770264268,"current_range_meters":9200,"station_id":"ce4bguh2rcd13ifvqcj0","pricing_plan_id":"cebpf4jnsgd1na2vs0mg"},{"bike_id":"0c0204e9-2e2c-4854-9498-c261c0135345","system_id":"levelo_inurba_marseille","lat":43.237826,"lon":5.366352,"is_reserved":false,"is_disabled":false,"rental_uris":{"android":"levelo://app?vid=0c0204e9-2e2c-4854-9498-c261c0135345","ios":"levelo://app?vid=0c0204e9-2e2c-4854-9498-c261c0135345"},"vehicle_type_id":"4","last_reported":1770264268,"current_range_meters":9200,"station_id":"st_d3nk18o9ro0c73en2l3g","pricing_plan_id":"cebpf4jnsgd1na2vs0mg"},{"bike_id":"ac551100-dc22-4913-9a52-4829a5f95f35","system_id":"levelo_inurba_marseille","lat":43.28618,"lon":5.39869,"is_reserved":false,"is_disabled":true,"rental_uris":{"android":"levelo://app?vid=ac551100-dc22-4913-9a52-4829a5f95f35","ios":"levelo://app?vid=ac551100-dc22-4913-9a52-4829a5f95f35"},"vehicle_type_id":"4","last_reported":1770264268,"current_range_meters":9200,"station_id":"st_d4a7ka997mjs738ck50g","pricing_plan_id":"cebpf4jnsgd1na2vs0mg"},{"bike_id":"f1b2e5b7-5c9b-42f8-845f-ee6f7b95cc90","system_id":"levelo_inurba_marseille","lat":43.24685,"lon":5.38154,"is_reserved":false,"is_disabled":false,"rental_uris":{"android":"levelo://app?vid=f1b2e5b7-5c9b-42f8-845f-ee6f7b95cc90","ios":"levelo://app?vid=f1b2e5b7-5c9b-42f8-845f-ee6f7b95cc90"},"vehicle_type_id":"4","last_reported":1770264268,"current_range_meters":9200,"station_id":"ce4bhih2rcd13ifvqfr0","pricing_plan_id":"cebpf4jnsgd1na2vs0mg"},{"bike_id":"b53c6c98-8c8f-43b4-8753-1f27fa4df19b","system_id":"levelo_inurba_marseille","lat":43.272513,"lon":5.400774,"is_reserved":false,"is_disabled":false,"rental_uris":{"android":"levelo://app?vid=b53c6c98-8c8f-43b4-8753-1f27fa4df19b","ios":"levelo://app?vid=b53c6c98-8c8f-43b4-8753-1f27fa4df19b"},"vehicle_type_id":"4","last_reported":1770264268,"current_range_meters":9200,"station_id":"","pricing_plan_id":"cebpf4jnsgd1na2vs0mg"},{"bike_id":"13305f2b-460c-49e5-b9ce-079e8e15a51f","system_id":"levelo_inurba_marseille","lat":43.25078,"lon":5.40319,"is_reserved":false,"is_disabled":false,"rental_uris":{"android":"levelo://app?vid=13305f2b-460c-49e5-b9ce-079e8e15a51f","ios":"levelo://app?vid=13305f2b-460c-49e5-b9ce-079e8e15a51f"},"vehicle_type_id":"4","last_reported":1770264268,"current_range_meters":9200,"station_id":"ce4bhlh2rcd13ifvqgig","pricing_plan_id":"cebpf4jnsgd1na2vs0mg"},{"bike_id":"117def50-876b-4a77-bc7f-3e901c787b6b","system_id":"levelo_inurba_marseille","lat":43.23154,"lon":5.43694,"is_reserved":false,"is_disabled":false,"rental_uris":{"android":"levelo://app?vid=117def50-876b-4a77-bc7f-3e901c787b6b","ios":"levelo://app?vid=117def50-876b-4a77-bc7f-3e901c787b6b"},"vehicle_type_id":"4","last_reported":1770264268,"current_range_meters":9200,"station_id":"ce4bhmp2rcd13ifvqgog","pricing_plan_id":"cebpf4jnsgd1na2vs0mg"},{"bike_id":"453579d7-6663-41ac-8c92-337a0b82bafa","system_id":"levelo_inurba_marseille","lat":43.24982,"lon":5.38921,"is_reserved":false,"is_disabled":false,"rental_uris":{"android":"levelo://app?vid=453579d7-6663-41ac-8c92-337a0b82bafa","ios":"levelo://app?vid=453579d7-6663-41ac-8c92-337a0b82bafa"},"vehicle_type_id":"4","last_reported":1770264268,"current_range_meters":9200,"station_id":"ce4bhgp2rcd13ifvqfd0","pricing_plan_id":"cebpf4jnsgd1na2vs0mg"},{"bike_id":"5309610c-bf76-4542-a232-389bbf17cbff","system_id":"levelo_inurba_marseille","lat":43.33532,"lon":5.37468,"is_reserved":false,"is_disabled":false,"rental_uris":{"android":"levelo://app?vid=5309610c-bf76-4542-a232-389bbf17cbff","ios":"levelo://app?vid=5309610c-bf76-4542-a232-389bbf17cbff"},"vehicle_type_id":"4","last_reported":1770264268,"current_range_meters":9600,"station_id":"","pricing_plan_id":"cebpf4jnsgd1na2vs0mg"},{"bike_id":"f4f2627f-ecfe-4cf2-b41e-79b8d04c8e2e","system_id":"levelo_inurba_marseille","lat":43.29179,"lon":5.35781,"is_reserved":false,"is_disabled":false,"rental_uris":{"android":"levelo://app?vid=f4f2627f-ecfe-4cf2-b41e-79b8d04c8e2e","ios":"levelo://app?vid=f4f2627f-ecfe-4cf2-b41e-79b8d04c8e2e"},"vehicle_type_id":"4","last_reported":1770264268,"current_range_meters":9600,"station_id":"ce4bhb12rcd13ifvqel0","pricing_plan_id":"cebpf4jnsgd1na2vs0mg"},{"bike_id":"16cef1b2-13b0-4d67-bb68-39eced8a049c","system_id":"levelo_inurba_marseille","lat":43.25083,"lon":5.39526,"is_reserved":false,"is_disabled":false,"rental_uris":{"android":"levelo://app?vid=16cef1b2-13b0-4d67-bb68-39eced8a049c","ios":"levelo://app?vid=16cef1b2-13b0-4d67-bb68-39eced8a049c"},"vehicle_type_id":"4","last_reported":1770264268,"current_range_meters":9600,"station_id":"ce4bhm12rcd13ifvqgkg","pricing_plan_id":"cebpf4jnsgd1na2vs0mg"},{"bike_id":"766c71d2-1c69-4282-87b8-db01bd839208","system_id":"levelo_inurba_marseille","lat":43.28266,"lon":5.350758,"is_reserved":false,"is_disabled":false,"rental_uris":{"android":"levelo://app?vid=766c71d2-1c69-4282-87b8-db01bd839208","ios":"levelo://app?vid=766c71d2-1c69-4282-87b8-db01bd839208"},"vehicle_type_id":"4","last_reported":1770264268,"current_range_meters":9600,"station_id":"ce4bhbp2rcd13ifvqerg","pricing_plan_id":"cebpf4jnsgd1na2vs0mg"},{"bike_id":"0ad61100-8c1e-4683-9cc6-748f02a03fec","system_id":"levelo_inurba_marseille","lat":43.29897,"lon":5.43665,"is_reserved":false,"is_disabled":false,"rental_uris":{"android":"levelo://app?vid=0ad61100-8c1e-4683-9cc6-748f02a03fec","ios":"levelo://app?vid=0ad61100-8c1e-4683-9cc6-748f02a03fec"},"vehicle_type_id":"4","last_reported":1770264268,"current_range_meters":9600,"station_id":"ce4bhpp2rcd13ifvqhfg","pricing_plan_id":"cebpf4jnsgd1na2vs0mg"},{"bike_id":"ef79007e-ef6d-4e7f-a3ae-3ed5ead69e87","system_id":"levelo_inurba_marseille","lat":43.23193,"lon":5.35542,"is_reserved":false,"is_disabled":false,"rental_uris":{"android":"levelo://app?vid=ef79007e-ef6d-4e7f-a3ae-3ed5ead69e87","ios":"levelo://app?vid=ef79007e-ef6d-4e7f-a3ae-3ed5ead69e87"},"vehicle_type_id":"4","last_reported":1770264268,"current_range_meters":9600,"station_id":"ce4bhu92rcd13ifvqi70","pricing_plan_id":"cebpf4jnsgd1na2vs0mg"},{"bike_id":"6c706595-1835-4ddf-8d94-5e35d4a0f5cb","system_id":"levelo_inurba_marseille","lat":43.31241,"lon":5.36851,"is_reserved":false,"is_disabled":false,"rental_uris":{"android":"levelo://app?vid=6c706595-1835-4ddf-8d94-5e35d4a0f5cb","ios":"levelo://app?vid=6c706595-1835-4ddf-8d94-5e35d4a0f5cb"},"vehicle_type_id":"4","last_reported":1770264268,"current_range_meters":9600,"station_id":"ce4bgl92rcd13ifvqbq0","pricing_plan_id":"cebpf4jnsgd1na2vs0mg"},{"bike_id":"0617e3aa-fd7b-4fe7-95f4-410c62553c86","system_id":"levelo_inurba_marseille","lat":43.28466,"lon":5.35869,"is_reserved":false,"is_disabled":false,"rental_uris":{"android":"levelo://app?vid=0617e3aa-fd7b-4fe7-95f4-410c62553c86","ios":"levelo://app?vid=0617e3aa-fd7b-4fe7-95f4-410c62553c86"},"vehicle_type_id":"4","last_reported":1770264268,"current_range_meters":9600,"station_id":"ce4bhah2rcd13ifvqei0","pricing_plan_id":"cebpf4jnsgd1na2vs0mg"},{"bike_id":"1389e1cd-66fc-40cd-bd4c-e6ce3ec9990d","system_id":"levelo_inurba_marseille","lat":43.29508,"lon":5.43289,"is_reserved":false,"is_disabled":false,"rental_uris":{"android":"levelo://app?vid=1389e1cd-66fc-40cd-bd4c-e6ce3ec9990d","ios":"levelo://app?vid=1389e1cd-66fc-40cd-bd4c-e6ce3ec9990d"},"vehicle_type_id":"4","last_reported":1770264268,"current_range_meters":9600,"station_id":"st_d3j5ugp08ojc73fj9d10","pricing_plan_id":"cebpf4jnsgd1na2vs0mg"},{"bike_id":"4be77f3a-064c-4b78-bdab-567aa49f7bd8","system_id":"levelo_inurba_marseille","lat":43.27998,"lon":5.40003,"is_reserved":false,"is_disabled":false,"rental_uris":{"android":"levelo://app?vid=4be77f3a-064c-4b78-bdab-567aa49f7bd8","ios":"levelo://app?vid=4be77f3a-064c-4b78-bdab-567aa49f7bd8"},"vehicle_type_id":"4","last_reported":1770264268,"current_range_meters":9600,"station_id":"ce4bho92rcd13ifvqh4g","pricing_plan_id":"cebpf4jnsgd1na2vs0mg"},{"bike_id":"d6b26db0-d8ba-44ea-9212-b3440b811a4a","system_id":"levelo_inurba_marseille","lat":43.30488,"lon":5.41059,"is_reserved":false,"is_disabled":false,"rental_uris":{"android":"levelo://app?vid=d6b26db0-d8ba-44ea-9212-b3440b811a4a","ios":"levelo://app?vid=d6b26db0-d8ba-44ea-9212-b3440b811a4a"},"vehicle_type_id":"4","last_reported":1770264268,"current_range_meters":9600,"station_id":"","pricing_plan_id":"cebpf4jnsgd1na2vs0mg"},{"bike_id":"bdec47f5-d0e8-4e97-abea-eea78fbafc96","system_id":"levelo_inurba_marseille","lat":43.321155,"lon":5.367604,"is_reserved":false,"is_disabled":false,"rental_uris":{"android":"levelo://app?vid=bdec47f5-d0e8-4e97-abea-eea78fbafc96","ios":"levelo://app?vid=bdec47f5-d0e8-4e97-abea-eea78fbafc96"},"vehicle_type_id":"4","last_reported":1770264268,"current_range_meters":9600,"station_id":"ce4bhrh2rcd13ifvqhug","pricing_plan_id":"cebpf4jnsgd1na2vs0mg"},{"bike_id":"1ce19887-577a-4b95-93a9-3bf61490b602","system_id":"levelo_inurba_marseille","lat":43.305964,"lon":5.393641,"is_reserved":false,"is_disabled":false,"rental_uris":{"android":"levelo://app?vid=1ce19887-577a-4b95-93a9-3bf61490b602","ios":"levelo://app?vid=1ce19887-577a-4b95-93a9-3bf61490b602"},"vehicle_type_id":"4","last_reported":1770264268,"current_range_meters":9600,"station_id":"","pricing_plan_id":"cebpf4jnsgd1na2vs0mg"},{"bike_id":"e6c56c0f-8543-40e3-b0b7-23114589efc2","system_id":"levelo_inurba_marseille","lat":43.27374,"lon":5.3623,"is_reserved":false,"is_disabled":false,"rental_uris":{"android":"levelo://app?vid=e6c56c0f-8543-40e3-b0b7-23114589efc2","ios":"levelo://app?vid=e6c56c0f-8543-40e3-b0b7-23114589efc2"},"vehicle_type_id":"4","last_reported":1770264268,"current_range_meters":9600,"station_id":"ce4bhbh2rcd13ifvqeo0","pricing_plan_id":"cebpf4jnsgd1na2vs0mg"},{"bike_id":"5c3d031a-a771-44bc-8903-4ef356b4460b","system_id":"levelo_inurba_marseille","lat":43.24805,"lon":5.37453,"is_reserved":false,"is_disabled":false,"rental_uris":{"android":"levelo://app?vid=5c3d031a-a771-44bc-8903-4ef356b4460b","ios":"levelo://app?vid=5c3d031a-a771-44bc-8903-4ef356b4460b"},"vehicle_type_id":"4","last_reported":1770264268,"current_range_meters":9600,"station_id":"ce4bhgh2rcd13ifvqfb0","pricing_plan_id":"cebpf4jnsgd1na2vs0mg"},{"bike_id":"40b0ab97-2458-48cf-8276-ad0b58fc7a32","system_id":"levelo_inurba_marseille","lat":43.310554,"lon":5.371751,"is_reserved":false,"is_disabled":false,"rental_uris":{"android":"levelo://app?vid=40b0ab97-2458-48cf-8276-ad0b58fc7a32","ios":"levelo://app?vid=40b0ab97-2458-48cf-8276-ad0b58fc7a32"},"vehicle_type_id":"4","last_reported":1770264268,"current_range_meters":9600,"station_id":"st_d4kl2rp97mjs73e7tdfg","pricing_plan_id":"cebpf4jnsgd1na2vs0mg"},{"bike_id":"b5d4a021-0bb0-42cf-bd44-43afe8841e01","system_id":"levelo_inurba_marseille","lat":43.32354,"lon":5.36728,"is_reserved":false,"is_disabled":false,"rental_uris":{"android":"levelo://app?vid=b5d4a021-0bb0-42cf-bd44-43afe8841e01","ios":"levelo://app?vid=b5d4a021-0bb0-42cf-bd44-43afe8841e01"},"vehicle_type_id":"4","last_reported":1770264268,"current_range_meters":9600,"station_id":"ce4bhsh2rcd13ifvqi2g","pricing_plan_id":"cebpf4jnsgd1na2vs0mg"},{"bike_id":"693d0724-33c4-47af-b424-e5bc7c45f372","system_id":"levelo_inurba_marseille","lat":43.29251,"lon":5.38408,"is_reserved":false,"is_disabled":false,"rental_uris":{"android":"levelo://app?vid=693d0724-33c4-47af-b424-e5bc7c45f372","ios":"levelo://app?vid=693d0724-33c4-47af-b424-e5bc7c45f372"},"vehicle_type_id":"4","last_reported":1770264268,"current_range_meters":10000,"station_id":"ce4bh692rcd13ifvqea0","pricing_plan_id":"cebpf4jnsgd1na2vs0mg"},{"bike_id":"04b99eae-5cb6-47f7-b888-c501f77be2d9","system_id":"levelo_inurba_marseille","lat":43.29922,"lon":5.374655,"is_reserved":false,"is_disabled":false,"rental_uris":{"android":"levelo://app?vid=04b99eae-5cb6-47f7-b888-c501f77be2d9","ios":"levelo://app?vid=04b99eae-5cb6-47f7-b888-c501f77be2d9"},"vehicle_type_id":"4","last_reported":1770264268,"current_range_meters":10000,"station_id":"ce4bgjh2rcd13ifvqbg0","pricing_plan_id":"cebpf4jnsgd1na2vs0mg"},{"bike_id":"bc722694-86ed-4d48-9c93-949ab7ccf030","system_id":"levelo_inurba_marseille","lat":43.31182,"lon":5.3872,"is_reserved":false,"is_disabled":false,"rental_uris":{"android":"levelo://app?vid=bc722694-86ed-4d48-9c93-949ab7ccf030","ios":"levelo://app?vid=bc722694-86ed-4d48-9c93-949ab7ccf030"},"vehicle_type_id":"4","last_reported":1770264268,"current_range_meters":10000,"station_id":"ce4bgv12rcd13ifvqcp0","pricing_plan_id":"cebpf4jnsgd1na2vs0mg"},{"bike_id":"ce42e7f7-46f5-4db3-9bac-ce86f1010cc5","system_id":"levelo_inurba_marseille","lat":43.23389,"lon":5.41231,"is_reserved":false,"is_disabled":false,"rental_uris":{"android":"levelo://app?vid=ce42e7f7-46f5-4db3-9bac-ce86f1010cc5","ios":"levelo://app?vid=ce42e7f7-46f5-4db3-9bac-ce86f1010cc5"},"vehicle_type_id":"4","last_reported":1770264268,"current_range_meters":10000,"station_id":"","pricing_plan_id":"cebpf4jnsgd1na2vs0mg"},{"bike_id":"7a9437dc-9620-4e4d-ac55-f97780f81760","system_id":"levelo_inurba_marseille","lat":43.24807,"lon":5.37456,"is_reserved":false,"is_disabled":false,"rental_uris":{"android":"levelo://app?vid=7a9437dc-9620-4e4d-ac55-f97780f81760","ios":"levelo://app?vid=7a9437dc-9620-4e4d-ac55-f97780f81760"},"vehicle_type_id":"4","last_reported":1770264268,"current_range_meters":10000,"station_id":"ce4bhgh2rcd13ifvqfb0","pricing_plan_id":"cebpf4jnsgd1na2vs0mg"},{"bike_id":"b735f5c7-4851-4508-8457-c361561aa01d","system_id":"levelo_inurba_marseille","lat":43.29197,"lon":5.35803,"is_reserved":false,"is_disabled":false,"rental_uris":{"android":"levelo://app?vid=b735f5c7-4851-4508-8457-c361561aa01d","ios":"levelo://app?vid=b735f5c7-4851-4508-8457-c361561aa01d"},"vehicle_type_id":"4","last_reported":1770264268,"current_range_meters":10000,"station_id":"ce4bhb12rcd13ifvqel0","pricing_plan_id":"cebpf4jnsgd1na2vs0mg"},{"bike_id":"a76c2d90-7855-49de-80b4-3e0b4c33e593","system_id":"levelo_inurba_marseille","lat":43.24964,"lon":5.40486,"is_reserved":false,"is_disabled":false,"rental_uris":{"android":"levelo://app?vid=a76c2d90-7855-49de-80b4-3e0b4c33e593","ios":"levelo://app?vid=a76c2d90-7855-49de-80b4-3e0b4c33e593"},"vehicle_type_id":"4","last_reported":1770264268,"current_range_meters":10000,"station_id":"st_d2ngiaodas8pm72gd1h0","pricing_plan_id":"cebpf4jnsgd1na2vs0mg"},{"bike_id":"a29bd862-d4e1-4cab-b88a-2c26a3036667","system_id":"levelo_inurba_marseille","lat":43.31937,"lon":5.36891,"is_reserved":false,"is_disabled":false,"rental_uris":{"android":"levelo://app?vid=a29bd862-d4e1-4cab-b88a-2c26a3036667","ios":"levelo://app?vid=a29bd862-d4e1-4cab-b88a-2c26a3036667"},"vehicle_type_id":"4","last_reported":1770264268,"current_range_meters":10000,"station_id":"","pricing_plan_id":"cebpf4jnsgd1na2vs0mg"},{"bike_id":"46718fbf-dfaf-4a04-a440-ce25e7ca8e80","system_id":"levelo_inurba_marseille","lat":43.30732,"lon":5.42423,"is_reserved":false,"is_disabled":false,"rental_uris":{"android":"levelo://app?vid=46718fbf-dfaf-4a04-a440-ce25e7ca8e80","ios":"levelo://app?vid=46718fbf-dfaf-4a04-a440-ce25e7ca8e80"},"vehicle_type_id":"4","last_reported":1770264268,"current_range_meters":10000,"station_id":"st_cvj6ca6bvosntc0bfgr0","pricing_plan_id":"cebpf4jnsgd1na2vs0mg"},{"bike_id":"3d65a6db-91b1-4165-b12a-cf603a9cff9a","system_id":"levelo_inurba_marseille","lat":43.31279,"lon":5.40161,"is_reserved":false,"is_disabled":false,"rental_uris":{"android":"levelo://app?vid=3d65a6db-91b1-4165-b12a-cf603a9cff9a","ios":"levelo://app?vid=3d65a6db-91b1-4165-b12a-cf603a9cff9a"},"vehicle_type_id":"4","last_reported":1770264268,"current_range_meters":10000,"station_id":"ce4bh092rcd13ifvqd30","pricing_plan_id":"cebpf4jnsgd1na2vs0mg"},{"bike_id":"672ffb42-9662-4248-bd5b-2109ba57e123","system_id":"levelo_inurba_marseille","lat":43.31085,"lon":5.42432,"is_reserved":false,"is_disabled":false,"rental_uris":{"android":"levelo://app?vid=672ffb42-9662-4248-bd5b-2109ba57e123","ios":"levelo://app?vid=672ffb42-9662-4248-bd5b-2109ba57e123"},"vehicle_type_id":"4","last_reported":1770264268,"current_range_meters":10000,"station_id":"ce4bhp92rcd13ifvqhag","pricing_plan_id":"cebpf4jnsgd1na2vs0mg"},{"bike_id":"e25b8644-0d6c-46dc-94c8-0b50a7bc6d7e","system_id":"levelo_inurba_marseille","lat":43.3211,"lon":5.36781,"is_reserved":false,"is_disabled":false,"rental_uris":{"android":"levelo://app?vid=e25b8644-0d6c-46dc-94c8-0b50a7bc6d7e","ios":"levelo://app?vid=e25b8644-0d6c-46dc-94c8-0b50a7bc6d7e"},"vehicle_type_id":"4","last_reported":1770264268,"current_range_meters":10000,"station_id":"ce4bhrh2rcd13ifvqhug","pricing_plan_id":"cebpf4jnsgd1na2vs0mg"},{"bike_id":"6b078351-0f00-4936-873b-f166caaf8d01","system_id":"levelo_inurba_marseille","lat":43.25121,"lon":5.40304,"is_reserved":false,"is_disabled":false,"rental_uris":{"android":"levelo://app?vid=6b078351-0f00-4936-873b-f166caaf8d01","ios":"levelo://app?vid=6b078351-0f00-4936-873b-f166caaf8d01"},"vehicle_type_id":"4","last_reported":1770264268,"current_range_meters":10000,"station_id":"ce4bhlh2rcd13ifvqgig","pricing_plan_id":"cebpf4jnsgd1na2vs0mg"},{"bike_id":"8242b3dd-6d2d-45e8-b221-ea9e1f572586","system_id":"levelo_inurba_marseille","lat":43.30321,"lon":5.36875,"is_reserved":false,"is_disabled":false,"rental_uris":{"android":"levelo://app?vid=8242b3dd-6d2d-45e8-b221-ea9e1f572586","ios":"levelo://app?vid=8242b3dd-6d2d-45e8-b221-ea9e1f572586"},"vehicle_type_id":"4","last_reported":1770264268,"current_range_meters":10000,"station_id":"ce4bgqh2rcd13ifvqc5g","pricing_plan_id":"cebpf4jnsgd1na2vs0mg"},{"bike_id":"487b44f5-9ec1-4ff5-a5b5-5af994d3243e","system_id":"levelo_inurba_marseille","lat":43.29675,"lon":5.37126,"is_reserved":false,"is_disabled":false,"rental_uris":{"android":"levelo://app?vid=487b44f5-9ec1-4ff5-a5b5-5af994d3243e","ios":"levelo://app?vid=487b44f5-9ec1-4ff5-a5b5-5af994d3243e"},"vehicle_type_id":"4","last_reported":1770264268,"current_range_meters":10800,"station_id":"","pricing_plan_id":"cebpf4jnsgd1na2vs0mg"},{"bike_id":"da76f900-b17d-4248-b9ba-2a8067b473bd","system_id":"levelo_inurba_marseille","lat":43.31686,"lon":5.42404,"is_reserved":false,"is_disabled":false,"rental_uris":{"android":"levelo://app?vid=da76f900-b17d-4248-b9ba-2a8067b473bd","ios":"levelo://app?vid=da76f900-b17d-4248-b9ba-2a8067b473bd"},"vehicle_type_id":"4","last_reported":1770264268,"current_range_meters":10800,"station_id":"ce4bhp92rcd13ifvqhbg","pricing_plan_id":"cebpf4jnsgd1na2vs0mg"},{"bike_id":"b685c879-bceb-49f4-a8d7-e15d803d203b","system_id":"levelo_inurba_marseille","lat":43.29271,"lon":5.40151,"is_reserved":false,"is_disabled":false,"rental_uris":{"android":"levelo://app?vid=b685c879-bceb-49f4-a8d7-e15d803d203b","ios":"levelo://app?vid=b685c879-bceb-49f4-a8d7-e15d803d203b"},"vehicle_type_id":"4","last_reported":1770264268,"current_range_meters":10800,"station_id":"ce4bh312rcd13ifvqdk0","pricing_plan_id":"cebpf4jnsgd1na2vs0mg"},{"bike_id":"8267a59a-96fe-435a-a59a-5974d84dff18","system_id":"levelo_inurba_marseille","lat":43.249997,"lon":5.38927,"is_reserved":false,"is_disabled":false,"rental_uris":{"android":"levelo://app?vid=8267a59a-96fe-435a-a59a-5974d84dff18","ios":"levelo://app?vid=8267a59a-96fe-435a-a59a-5974d84dff18"},"vehicle_type_id":"4","last_reported":1770264268,"current_range_meters":10800,"station_id":"ce4bhgp2rcd13ifvqfd0","pricing_plan_id":"cebpf4jnsgd1na2vs0mg"},{"bike_id":"7f607748-495f-4344-8312-e45f568419de","system_id":"levelo_inurba_marseille","lat":43.29586,"lon":5.38101,"is_reserved":false,"is_disabled":false,"rental_uris":{"android":"levelo://app?vid=7f607748-495f-4344-8312-e45f568419de","ios":"levelo://app?vid=7f607748-495f-4344-8312-e45f568419de"},"vehicle_type_id":"4","last_reported":1770264268,"current_range_meters":10800,"station_id":"ce4bgl12rcd13ifvqbo0","pricing_plan_id":"cebpf4jnsgd1na2vs0mg"},{"bike_id":"a3680cb2-86b1-413e-ab4e-0fb533fd5514","system_id":"levelo_inurba_marseille","lat":43.25345,"lon":5.42161,"is_reserved":false,"is_disabled":false,"rental_uris":{"android":"levelo://app?vid=a3680cb2-86b1-413e-ab4e-0fb533fd5514","ios":"levelo://app?vid=a3680cb2-86b1-413e-ab4e-0fb533fd5514"},"vehicle_type_id":"4","last_reported":1770264268,"current_range_meters":10800,"station_id":"st_d2m65c5bi1j21697t3ng","pricing_plan_id":"cebpf4jnsgd1na2vs0mg"},{"bike_id":"c6782d87-e485-4a2c-b62b-9a52105fb0ef","system_id":"levelo_inurba_marseille","lat":43.24998,"lon":5.38901,"is_reserved":false,"is_disabled":false,"rental_uris":{"android":"levelo://app?vid=c6782d87-e485-4a2c-b62b-9a52105fb0ef","ios":"levelo://app?vid=c6782d87-e485-4a2c-b62b-9a52105fb0ef"},"vehicle_type_id":"4","last_reported":1770264268,"current_range_meters":10800,"station_id":"ce4bhgp2rcd13ifvqfd0","pricing_plan_id":"cebpf4jnsgd1na2vs0mg"},{"bike_id":"0388f24a-b566-45b1-a38a-12fb5d338f89","system_id":"levelo_inurba_marseille","lat":43.31647,"lon":5.37654,"is_reserved":false,"is_disabled":false,"rental_uris":{"android":"levelo://app?vid=0388f24a-b566-45b1-a38a-12fb5d338f89","ios":"levelo://app?vid=0388f24a-b566-45b1-a38a-12fb5d338f89"},"vehicle_type_id":"4","last_reported":1770264268,"current_range_meters":10800,"station_id":"","pricing_plan_id":"cebpf4jnsgd1na2vs0mg"},{"bike_id":"f032e3f9-5399-4635-8e00-5e4d3179bb75","system_id":"levelo_inurba_marseille","lat":43.24466,"lon":5.42529,"is_reserved":false,"is_disabled":false,"rental_uris":{"android":"levelo://app?vid=f032e3f9-5399-4635-8e00-5e4d3179bb75","ios":"levelo://app?vid=f032e3f9-5399-4635-8e00-5e4d3179bb75"},"vehicle_type_id":"4","last_reported":1770264268,"current_range_meters":10800,"station_id":"st_d4a3vfp97mjs738cd8kg","pricing_plan_id":"cebpf4jnsgd1na2vs0mg"},{"bike_id":"3b986d99-7b42-471f-993a-11fde28f3c51","system_id":"levelo_inurba_marseille","lat":43.22566,"lon":5.41625,"is_reserved":false,"is_disabled":false,"rental_uris":{"android":"levelo://app?vid=3b986d99-7b42-471f-993a-11fde28f3c51","ios":"levelo://app?vid=3b986d99-7b42-471f-993a-11fde28f3c51"},"vehicle_type_id":"4","last_reported":1770264268,"current_range_meters":10800,"station_id":"st_d2o4gvlbi1j2169b742g","pricing_plan_id":"cebpf4jnsgd1na2vs0mg"},{"bike_id":"b4fef902-e6cd-464a-9f11-d6538c87979b","system_id":"levelo_inurba_marseille","lat":43.27217,"lon":5.39188,"is_reserved":false,"is_disabled":false,"rental_uris":{"android":"levelo://app?vid=b4fef902-e6cd-464a-9f11-d6538c87979b","ios":"levelo://app?vid=b4fef902-e6cd-464a-9f11-d6538c87979b"},"vehicle_type_id":"4","last_reported":1770264268,"current_range_meters":10800,"station_id":"ce4bhhp2rcd13ifvqfm0","pricing_plan_id":"cebpf4jnsgd1na2vs0mg"},{"bike_id":"ddc87509-ae20-4d3a-aba3-5f2d7c91e914","system_id":"levelo_inurba_marseille","lat":43.23142,"lon":5.43682,"is_reserved":false,"is_disabled":false,"rental_uris":{"android":"levelo://app?vid=ddc87509-ae20-4d3a-aba3-5f2d7c91e914","ios":"levelo://app?vid=ddc87509-ae20-4d3a-aba3-5f2d7c91e914"},"vehicle_type_id":"4","last_reported":1770264268,"current_range_meters":10800,"station_id":"ce4bhmp2rcd13ifvqgog","pricing_plan_id":"cebpf4jnsgd1na2vs0mg"},{"bike_id":"e0c6a05b-eb02-486c-b185-09b703cc70a3","system_id":"levelo_inurba_marseille","lat":43.28253,"lon":5.40608,"is_reserved":false,"is_disabled":false,"rental_uris":{"android":"levelo://app?vid=e0c6a05b-eb02-486c-b185-09b703cc70a3","ios":"levelo://app?vid=e0c6a05b-eb02-486c-b185-09b703cc70a3"},"vehicle_type_id":"4","last_reported":1770264268,"current_range_meters":10800,"station_id":"","pricing_plan_id":"cebpf4jnsgd1na2vs0mg"},{"bike_id":"42ced7c4-0191-4233-b6f6-66e1d9671888","system_id":"levelo_inurba_marseille","lat":43.31134,"lon":5.37724,"is_reserved":false,"is_disabled":false,"rental_uris":{"android":"levelo://app?vid=42ced7c4-0191-4233-b6f6-66e1d9671888","ios":"levelo://app?vid=42ced7c4-0191-4233-b6f6-66e1d9671888"},"vehicle_type_id":"4","last_reported":1770264268,"current_range_meters":11200,"station_id":"ce4bgt92rcd13ifvqcg0","pricing_plan_id":"cebpf4jnsgd1na2vs0mg"},{"bike_id":"ea0a1780-5e61-4501-9de3-20395ebb94ec","system_id":"levelo_inurba_marseille","lat":43.248,"lon":5.37439,"is_reserved":false,"is_disabled":false,"rental_uris":{"android":"levelo://app?vid=ea0a1780-5e61-4501-9de3-20395ebb94ec","ios":"levelo://app?vid=ea0a1780-5e61-4501-9de3-20395ebb94ec"},"vehicle_type_id":"4","last_reported":1770264268,"current_range_meters":11200,"station_id":"ce4bhgh2rcd13ifvqfb0","pricing_plan_id":"cebpf4jnsgd1na2vs0mg"},{"bike_id":"2019aed1-4c5c-46a1-8cfd-39406ce16be5","system_id":"levelo_inurba_marseille","lat":43.32072,"lon":5.41619,"is_reserved":false,"is_disabled":false,"rental_uris":{"android":"levelo://app?vid=2019aed1-4c5c-46a1-8cfd-39406ce16be5","ios":"levelo://app?vid=2019aed1-4c5c-46a1-8cfd-39406ce16be5"},"vehicle_type_id":"4","last_reported":1770264268,"current_range_meters":11200,"station_id":"","pricing_plan_id":"cebpf4jnsgd1na2vs0mg"},{"bike_id":"b8930ff7-8ce5-4f8d-9e8d-e85cd2415d7d","system_id":"levelo_inurba_marseille","lat":43.313363,"lon":5.367072,"is_reserved":false,"is_disabled":false,"rental_uris":{"android":"levelo://app?vid=b8930ff7-8ce5-4f8d-9e8d-e85cd2415d7d","ios":"levelo://app?vid=b8930ff7-8ce5-4f8d-9e8d-e85cd2415d7d"},"vehicle_type_id":"4","last_reported":1770264268,"current_range_meters":11200,"station_id":"ce4bgr92rcd13ifvqc6g","pricing_plan_id":"cebpf4jnsgd1na2vs0mg"},{"bike_id":"07236d39-4234-4a66-b75f-4404b97effcf","system_id":"levelo_inurba_marseille","lat":43.23769,"lon":5.36624,"is_reserved":false,"is_disabled":false,"rental_uris":{"android":"levelo://app?vid=07236d39-4234-4a66-b75f-4404b97effcf","ios":"levelo://app?vid=07236d39-4234-4a66-b75f-4404b97effcf"},"vehicle_type_id":"4","last_reported":1770264268,"current_range_meters":11200,"station_id":"st_d3nk18o9ro0c73en2l3g","pricing_plan_id":"cebpf4jnsgd1na2vs0mg"},{"bike_id":"59f832b2-b3bc-4065-8750-a9a072c98d4a","system_id":"levelo_inurba_marseille","lat":43.27899,"lon":5.39578,"is_reserved":false,"is_disabled":false,"rental_uris":{"android":"levelo://app?vid=59f832b2-b3bc-4065-8750-a9a072c98d4a","ios":"levelo://app?vid=59f832b2-b3bc-4065-8750-a9a072c98d4a"},"vehicle_type_id":"4","last_reported":1770264268,"current_range_meters":11200,"station_id":"ce4bhf92rcd13ifvqf40","pricing_plan_id":"cebpf4jnsgd1na2vs0mg"},{"bike_id":"8f9ff33a-0886-4d60-8fcb-f1b65a883414","system_id":"levelo_inurba_marseille","lat":43.258267,"lon":5.394406,"is_reserved":false,"is_disabled":false,"rental_uris":{"android":"levelo://app?vid=8f9ff33a-0886-4d60-8fcb-f1b65a883414","ios":"levelo://app?vid=8f9ff33a-0886-4d60-8fcb-f1b65a883414"},"vehicle_type_id":"4","last_reported":1770264268,"current_range_meters":11200,"station_id":"ce4bhip2rcd13ifvqft0","pricing_plan_id":"cebpf4jnsgd1na2vs0mg"},{"bike_id":"d9718be6-2a4a-4a39-82b6-2815d7e553aa","system_id":"levelo_inurba_marseille","lat":43.31437,"lon":5.37534,"is_reserved":false,"is_disabled":false,"rental_uris":{"android":"levelo://app?vid=d9718be6-2a4a-4a39-82b6-2815d7e553aa","ios":"levelo://app?vid=d9718be6-2a4a-4a39-82b6-2815d7e553aa"},"vehicle_type_id":"4","last_reported":1770264268,"current_range_meters":11200,"station_id":"","pricing_plan_id":"cebpf4jnsgd1na2vs0mg"},{"bike_id":"33e6b01d-cadc-4668-ba29-d6b917e280b4","system_id":"levelo_inurba_marseille","lat":43.24396,"lon":5.37074,"is_reserved":false,"is_disabled":false,"rental_uris":{"android":"levelo://app?vid=33e6b01d-cadc-4668-ba29-d6b917e280b4","ios":"levelo://app?vid=33e6b01d-cadc-4668-ba29-d6b917e280b4"},"vehicle_type_id":"4","last_reported":1770264268,"current_range_meters":11200,"station_id":"ce4bhhh2rcd13ifvqfk0","pricing_plan_id":"cebpf4jnsgd1na2vs0mg"},{"bike_id":"2ec9313e-d454-47f0-9199-9904693659bc","system_id":"levelo_inurba_marseille","lat":43.2738,"lon":5.3625,"is_reserved":false,"is_disabled":false,"rental_uris":{"android":"levelo://app?vid=2ec9313e-d454-47f0-9199-9904693659bc","ios":"levelo://app?vid=2ec9313e-d454-47f0-9199-9904693659bc"},"vehicle_type_id":"4","last_reported":1770264268,"current_range_meters":11200,"station_id":"ce4bhbh2rcd13ifvqeo0","pricing_plan_id":"cebpf4jnsgd1na2vs0mg"},{"bike_id":"29568cb5-48e1-4afd-96a8-69d8393592fe","system_id":"levelo_inurba_marseille","lat":43.28479,"lon":5.483896,"is_reserved":false,"is_disabled":false,"rental_uris":{"android":"levelo://app?vid=29568cb5-48e1-4afd-96a8-69d8393592fe","ios":"levelo://app?vid=29568cb5-48e1-4afd-96a8-69d8393592fe"},"vehicle_type_id":"4","last_reported":1770264268,"current_range_meters":11200,"station_id":"","pricing_plan_id":"cebpf4jnsgd1na2vs0mg"},