{"last_updated":1778673245,"ttl":60,"version":"2.2","data":{"bikes":[{"bike_id":"bce85dfd-9b0c-484b-a2f9-c156d6620947","system_id":"levelo_inurba_marseille","lat":43.30521,"lon":5.36521,"is_reserved":false,"is_disabled":true,"rental_uris":{"android":"levelo://app?vid=bce85dfd-9b0c-484b-a2f9-c156d6620947","ios":"levelo://app?vid=bce85dfd-9b0c-484b-a2f9-c156d6620947"},"vehicle_type_id":"4","last_reported":1778673245,"current_range_meters":2800,"station_id":"","pricing_plan_id":"cebpf4jnsgd1na2vs0mg"},{"bike_id":"23b6dc26-1392-4fa8-9cc5-0f40ceb1f1c5","system_id":"levelo_inurba_marseille","lat":43.28704,"lon":5.46675,"is_reserved":false,"is_disabled":false,"rental_uris":{"android":"levelo://app?vid=23b6dc26-1392-4fa8-9cc5-0f40ceb1f1c5","ios":"levelo://app?vid=23b6dc26-1392-4fa8-9cc5-0f40ceb1f1c5"},"vehicle_type_id":"4","last_reported":1778673245,"current_range_meters":2800,"station_id":"st_d6tc3vkotcvc738tfjhg","pricing_plan_id":"cebpf4jnsgd1na2vs0mg"},{"bike_id":"fd04bdd1-20aa-46b1-80b1-9c901b7b3d14","system_id":"levelo_inurba_marseille","lat":43.26688,"lon":5.38265,"is_reserved":false,"is_disabled":true,"rental_uris":{"android":"levelo://app?vid=fd04bdd1-20aa-46b1-80b1-9c901b7b3d14","ios":"levelo://app?vid=fd04bdd1-20aa-46b1-80b1-9c901b7b3d14"},"vehicle_type_id":"4","last_reported":1778673245,"current_range_meters":2800,"station_id":"ce4bhg92rcd13ifvqf90","pricing_plan_id":"cebpf4jnsgd1na2vs0mg"},{"bike_id":"14059eb2-1b3f-4461-b0ee-158772daa7a1","system_id":"levelo_inurba_marseille","lat":43.317,"lon":5.40446,"is_reserved":false,"is_disabled":false,"rental_uris":{"android":"levelo://app?vid=14059eb2-1b3f-4461-b0ee-158772daa7a1","ios":"levelo://app?vid=14059eb2-1b3f-4461-b0ee-158772daa7a1"},"vehicle_type_id":"4","last_reported":1778673245,"current_range_meters":2800,"station_id":"ce4bh012rcd13ifvqd00","pricing_plan_id":"cebpf4jnsgd1na2vs0mg"},{"bike_id":"cc08138b-40fc-4068-b5f2-bde9c76a7e40","system_id":"levelo_inurba_marseille","lat":43.34164,"lon":5.4092,"is_reserved":false,"is_disabled":true,"rental_uris":{"android":"levelo://app?vid=cc08138b-40fc-4068-b5f2-bde9c76a7e40","ios":"levelo://app?vid=cc08138b-40fc-4068-b5f2-bde9c76a7e40"},"vehicle_type_id":"4","last_reported":1778673245,"current_range_meters":2800,"station_id":"ce4bhqh2rcd13ifvqhlg","pricing_plan_id":"cebpf4jnsgd1na2vs0mg"},{"bike_id":"81fd2da9-a102-4338-9379-010033a7cccc","system_id":"levelo_inurba_marseille","lat":43.29196,"lon":5.39304,"is_reserved":false,"is_disabled":false,"rental_uris":{"android":"levelo://app?vid=81fd2da9-a102-4338-9379-010033a7cccc","ios":"levelo://app?vid=81fd2da9-a102-4338-9379-010033a7cccc"},"vehicle_type_id":"4","last_reported":1778673245,"current_range_meters":2800,"station_id":"ce4bh192rcd13ifvqdd0","pricing_plan_id":"cebpf4jnsgd1na2vs0mg"},{"bike_id":"5f164a82-cc42-4cc7-9bd9-35f80cabcb2a","system_id":"levelo_inurba_marseille","lat":43.29547,"lon":5.37498,"is_reserved":false,"is_disabled":false,"rental_uris":{"android":"levelo://app?vid=5f164a82-cc42-4cc7-9bd9-35f80cabcb2a","ios":"levelo://app?vid=5f164a82-cc42-4cc7-9bd9-35f80cabcb2a"},"vehicle_type_id":"4","last_reported":1778673245,"current_range_meters":2800,"station_id":"ce4bgkp2rcd13ifvqbmg","pricing_plan_id":"cebpf4jnsgd1na2vs0mg"},{"bike_id":"07a9b671-4f11-4201-95b6-67d884bae6f1","system_id":"levelo_inurba_marseille","lat":43.25064,"lon":5.40369,"is_reserved":false,"is_disabled":false,"rental_uris":{"android":"levelo://app?vid=07a9b671-4f11-4201-95b6-67d884bae6f1","ios":"levelo://app?vid=07a9b671-4f11-4201-95b6-67d884bae6f1"},"vehicle_type_id":"4","last_reported":1778673245,"current_range_meters":2800,"station_id":"","pricing_plan_id":"cebpf4jnsgd1na2vs0mg"},{"bike_id":"1fb136bb-3cc6-48f7-af4f-974b5baf2852","system_id":"levelo_inurba_marseille","lat":43.23953,"lon":5.36622,"is_reserved":false,"is_disabled":true,"rental_uris":{"android":"levelo://app?vid=1fb136bb-3cc6-48f7-af4f-974b5baf2852","ios":"levelo://app?vid=1fb136bb-3cc6-48f7-af4f-974b5baf2852"},"vehicle_type_id":"4","last_reported":1778673245,"current_range_meters":3200,"station_id":"ce4bhi12rcd13ifvqfp0","pricing_plan_id":"cebpf4jnsgd1na2vs0mg"},{"bike_id":"b0351153-fdea-4d61-9458-346bc5cdc270","system_id":"levelo_inurba_marseille","lat":43.24662,"lon":5.38154,"is_reserved":false,"is_disabled":false,"rental_uris":{"android":"levelo://app?vid=b0351153-fdea-4d61-9458-346bc5cdc270","ios":"levelo://app?vid=b0351153-fdea-4d61-9458-346bc5cdc270"},"vehicle_type_id":"4","last_reported":1778673245,"current_range_meters":3200,"station_id":"ce4bhih2rcd13ifvqfr0","pricing_plan_id":"cebpf4jnsgd1na2vs0mg"},{"bike_id":"a3931dae-05f0-4e1d-8b68-01fdd7d05951","system_id":"levelo_inurba_marseille","lat":43.27505,"lon":5.41593,"is_reserved":false,"is_disabled":true,"rental_uris":{"android":"levelo://app?vid=a3931dae-05f0-4e1d-8b68-01fdd7d05951","ios":"levelo://app?vid=a3931dae-05f0-4e1d-8b68-01fdd7d05951"},"vehicle_type_id":"4","last_reported":1778673245,"current_range_meters":3200,"station_id":"st_d6im8g6chgec73a5pndg","pricing_plan_id":"cebpf4jnsgd1na2vs0mg"},{"bike_id":"d3927f69-f92c-417d-8957-90b9061933b5","system_id":"levelo_inurba_marseille","lat":43.299729,"lon":5.384994,"is_reserved":false,"is_disabled":false,"rental_uris":{"android":"levelo://app?vid=d3927f69-f92c-417d-8957-90b9061933b5","ios":"levelo://app?vid=d3927f69-f92c-417d-8957-90b9061933b5"},"vehicle_type_id":"4","last_reported":1778673245,"current_range_meters":3200,"station_id":"ce4bgj92rcd13ifvqbd0","pricing_plan_id":"cebpf4jnsgd1na2vs0mg"},{"bike_id":"b36555d5-c39d-4b8d-b757-b31990b964c0","system_id":"levelo_inurba_marseille","lat":43.27811,"lon":5.40715,"is_reserved":false,"is_disabled":false,"rental_uris":{"android":"levelo://app?vid=b36555d5-c39d-4b8d-b757-b31990b964c0","ios":"levelo://app?vid=b36555d5-c39d-4b8d-b757-b31990b964c0"},"vehicle_type_id":"4","last_reported":1778673245,"current_range_meters":3200,"station_id":"ce4bhnh2rcd13ifvqgtg","pricing_plan_id":"cebpf4jnsgd1na2vs0mg"},{"bike_id":"7ea7e39c-6f4a-4fb6-9113-9de9a71e4246","system_id":"levelo_inurba_marseille","lat":43.31052,"lon":5.37178,"is_reserved":false,"is_disabled":false,"rental_uris":{"android":"levelo://app?vid=7ea7e39c-6f4a-4fb6-9113-9de9a71e4246","ios":"levelo://app?vid=7ea7e39c-6f4a-4fb6-9113-9de9a71e4246"},"vehicle_type_id":"4","last_reported":1778673245,"current_range_meters":3200,"station_id":"st_d4kl2rp97mjs73e7tdfg","pricing_plan_id":"cebpf4jnsgd1na2vs0mg"},{"bike_id":"526e2397-685f-412f-aa04-4b5140b2f702","system_id":"levelo_inurba_marseille","lat":43.28934,"lon":5.36383,"is_reserved":false,"is_disabled":false,"rental_uris":{"android":"levelo://app?vid=526e2397-685f-412f-aa04-4b5140b2f702","ios":"levelo://app?vid=526e2397-685f-412f-aa04-4b5140b2f702"},"vehicle_type_id":"4","last_reported":1778673245,"current_range_meters":3200,"station_id":"ce4bhc92rcd13ifvqetg","pricing_plan_id":"cebpf4jnsgd1na2vs0mg"},{"bike_id":"02d1cb52-a5a9-48bd-aec1-c949f50e802d","system_id":"levelo_inurba_marseille","lat":43.30549,"lon":5.38434,"is_reserved":false,"is_disabled":false,"rental_uris":{"android":"levelo://app?vid=02d1cb52-a5a9-48bd-aec1-c949f50e802d","ios":"levelo://app?vid=02d1cb52-a5a9-48bd-aec1-c949f50e802d"},"vehicle_type_id":"4","last_reported":1778673245,"current_range_meters":3600,"station_id":"ce4bgg92rcd13ifvqb30","pricing_plan_id":"cebpf4jnsgd1na2vs0mg"},{"bike_id":"0d5a6d54-dad4-453d-9b1a-d94782ee22c6","system_id":"levelo_inurba_marseille","lat":43.32345,"lon":5.36544,"is_reserved":false,"is_disabled":false,"rental_uris":{"android":"levelo://app?vid=0d5a6d54-dad4-453d-9b1a-d94782ee22c6","ios":"levelo://app?vid=0d5a6d54-dad4-453d-9b1a-d94782ee22c6"},"vehicle_type_id":"4","last_reported":1778673245,"current_range_meters":3600,"station_id":"","pricing_plan_id":"cebpf4jnsgd1na2vs0mg"},{"bike_id":"0fe5211a-c7e2-4915-8727-69eb2b781698","system_id":"levelo_inurba_marseille","lat":43.31715,"lon":5.40433,"is_reserved":false,"is_disabled":false,"rental_uris":{"android":"levelo://app?vid=0fe5211a-c7e2-4915-8727-69eb2b781698","ios":"levelo://app?vid=0fe5211a-c7e2-4915-8727-69eb2b781698"},"vehicle_type_id":"4","last_reported":1778673245,"current_range_meters":3600,"station_id":"ce4bh012rcd13ifvqd00","pricing_plan_id":"cebpf4jnsgd1na2vs0mg"},{"bike_id":"f1199c7e-7903-4188-bbb9-ee8e51dbcbaf","system_id":"levelo_inurba_marseille","lat":43.2466,"lon":5.38167,"is_reserved":false,"is_disabled":true,"rental_uris":{"android":"levelo://app?vid=f1199c7e-7903-4188-bbb9-ee8e51dbcbaf","ios":"levelo://app?vid=f1199c7e-7903-4188-bbb9-ee8e51dbcbaf"},"vehicle_type_id":"4","last_reported":1778673245,"current_range_meters":3600,"station_id":"ce4bhih2rcd13ifvqfr0","pricing_plan_id":"cebpf4jnsgd1na2vs0mg"},{"bike_id":"f71a30cb-adc7-43c3-b0fc-e042674eef88","system_id":"levelo_inurba_marseille","lat":43.2732,"lon":5.39055,"is_reserved":false,"is_disabled":false,"rental_uris":{"android":"levelo://app?vid=f71a30cb-adc7-43c3-b0fc-e042674eef88","ios":"levelo://app?vid=f71a30cb-adc7-43c3-b0fc-e042674eef88"},"vehicle_type_id":"4","last_reported":1778673245,"current_range_meters":3600,"station_id":"ce4bhgp2rcd13ifvqfe0","pricing_plan_id":"cebpf4jnsgd1na2vs0mg"},{"bike_id":"d5b22f9f-8531-4936-a197-c9ad24ab2bed","system_id":"levelo_inurba_marseille","lat":43.292291,"lon":5.360718,"is_reserved":false,"is_disabled":false,"rental_uris":{"android":"levelo://app?vid=d5b22f9f-8531-4936-a197-c9ad24ab2bed","ios":"levelo://app?vid=d5b22f9f-8531-4936-a197-c9ad24ab2bed"},"vehicle_type_id":"4","last_reported":1778673245,"current_range_meters":3600,"station_id":"ce4bhbh2rcd13ifvqeqg","pricing_plan_id":"cebpf4jnsgd1na2vs0mg"},{"bike_id":"0aef81b0-a6e2-4a9d-8925-5e0c5d9a6115","system_id":"levelo_inurba_marseille","lat":43.23156,"lon":5.43702,"is_reserved":false,"is_disabled":false,"rental_uris":{"android":"levelo://app?vid=0aef81b0-a6e2-4a9d-8925-5e0c5d9a6115","ios":"levelo://app?vid=0aef81b0-a6e2-4a9d-8925-5e0c5d9a6115"},"vehicle_type_id":"4","last_reported":1778673245,"current_range_meters":3600,"station_id":"ce4bhmp2rcd13ifvqgog","pricing_plan_id":"cebpf4jnsgd1na2vs0mg"},{"bike_id":"e3e6a269-338b-482e-8c7f-7dca167d167b","system_id":"levelo_inurba_marseille","lat":43.27451,"lon":5.41575,"is_reserved":false,"is_disabled":true,"rental_uris":{"android":"levelo://app?vid=e3e6a269-338b-482e-8c7f-7dca167d167b","ios":"levelo://app?vid=e3e6a269-338b-482e-8c7f-7dca167d167b"},"vehicle_type_id":"4","last_reported":1778673245,"current_range_meters":3600,"station_id":"","pricing_plan_id":"cebpf4jnsgd1na2vs0mg"},{"bike_id":"b5152c79-a413-427c-8e76-280f0427da04","system_id":"levelo_inurba_marseille","lat":43.278093,"lon":5.407164,"is_reserved":false,"is_disabled":false,"rental_uris":{"android":"levelo://app?vid=b5152c79-a413-427c-8e76-280f0427da04","ios":"levelo://app?vid=b5152c79-a413-427c-8e76-280f0427da04"},"vehicle_type_id":"4","last_reported":1778673245,"current_range_meters":3600,"station_id":"ce4bhnh2rcd13ifvqgtg","pricing_plan_id":"cebpf4jnsgd1na2vs0mg"},{"bike_id":"691b1c30-b5c0-428c-a863-89d39a14fdfc","system_id":"levelo_inurba_marseille","lat":43.29846,"lon":5.36269,"is_reserved":false,"is_disabled":false,"rental_uris":{"android":"levelo://app?vid=691b1c30-b5c0-428c-a863-89d39a14fdfc","ios":"levelo://app?vid=691b1c30-b5c0-428c-a863-89d39a14fdfc"},"vehicle_type_id":"4","last_reported":1778673245,"current_range_meters":3600,"station_id":"ce4bgpp2rcd13ifvqc3g","pricing_plan_id":"cebpf4jnsgd1na2vs0mg"},{"bike_id":"021702b2-3ea7-4e2d-bbfd-88c4a5a78afd","system_id":"levelo_inurba_marseille","lat":43.24168,"lon":5.39695,"is_reserved":false,"is_disabled":false,"rental_uris":{"android":"levelo://app?vid=021702b2-3ea7-4e2d-bbfd-88c4a5a78afd","ios":"levelo://app?vid=021702b2-3ea7-4e2d-bbfd-88c4a5a78afd"},"vehicle_type_id":"4","last_reported":1778673245,"current_range_meters":4000,"station_id":"ce4bhn12rcd13ifvqgpg","pricing_plan_id":"cebpf4jnsgd1na2vs0mg"},{"bike_id":"cbd94ce0-7f21-418a-aa1f-7dde0278722b","system_id":"levelo_inurba_marseille","lat":43.29039,"lon":5.40145,"is_reserved":false,"is_disabled":false,"rental_uris":{"android":"levelo://app?vid=cbd94ce0-7f21-418a-aa1f-7dde0278722b","ios":"levelo://app?vid=cbd94ce0-7f21-418a-aa1f-7dde0278722b"},"vehicle_type_id":"4","last_reported":1778673245,"current_range_meters":4000,"station_id":"","pricing_plan_id":"cebpf4jnsgd1na2vs0mg"},{"bike_id":"a574ab55-d4b6-4739-bb71-86a8375e1e9c","system_id":"levelo_inurba_marseille","lat":43.27844,"lon":5.40702,"is_reserved":false,"is_disabled":false,"rental_uris":{"android":"levelo://app?vid=a574ab55-d4b6-4739-bb71-86a8375e1e9c","ios":"levelo://app?vid=a574ab55-d4b6-4739-bb71-86a8375e1e9c"},"vehicle_type_id":"4","last_reported":1778673245,"current_range_meters":4000,"station_id":"ce4bhnh2rcd13ifvqgtg","pricing_plan_id":"cebpf4jnsgd1na2vs0mg"},{"bike_id":"ddcccdd1-f081-47c8-b30a-c48afb808db8","system_id":"levelo_inurba_marseille","lat":43.29778,"lon":5.3809,"is_reserved":false,"is_disabled":false,"rental_uris":{"android":"levelo://app?vid=ddcccdd1-f081-47c8-b30a-c48afb808db8","ios":"levelo://app?vid=ddcccdd1-f081-47c8-b30a-c48afb808db8"},"vehicle_type_id":"4","last_reported":1778673245,"current_range_meters":4000,"station_id":"ce4bgip2rcd13ifvqbb0","pricing_plan_id":"cebpf4jnsgd1na2vs0mg"},{"bike_id":"86c436a1-9dfe-4c36-89c1-eba3ef592e26","system_id":"levelo_inurba_marseille","lat":43.26216,"lon":5.4043,"is_reserved":false,"is_disabled":false,"rental_uris":{"android":"levelo://app?vid=86c436a1-9dfe-4c36-89c1-eba3ef592e26","ios":"levelo://app?vid=86c436a1-9dfe-4c36-89c1-eba3ef592e26"},"vehicle_type_id":"4","last_reported":1778673245,"current_range_meters":4000,"station_id":"ce4bhmh2rcd13ifvqgmg","pricing_plan_id":"cebpf4jnsgd1na2vs0mg"},{"bike_id":"95552473-a32b-49e5-a6c9-92815a2ac96e","system_id":"levelo_inurba_marseille","lat":43.32827,"lon":5.42608,"is_reserved":false,"is_disabled":false,"rental_uris":{"android":"levelo://app?vid=95552473-a32b-49e5-a6c9-92815a2ac96e","ios":"levelo://app?vid=95552473-a32b-49e5-a6c9-92815a2ac96e"},"vehicle_type_id":"4","last_reported":1778673245,"current_range_meters":4000,"station_id":"","pricing_plan_id":"cebpf4jnsgd1na2vs0mg"},{"bike_id":"9f442448-844f-4170-9d12-7e9cc900bf59","system_id":"levelo_inurba_marseille","lat":43.2319,"lon":5.35542,"is_reserved":false,"is_disabled":false,"rental_uris":{"android":"levelo://app?vid=9f442448-844f-4170-9d12-7e9cc900bf59","ios":"levelo://app?vid=9f442448-844f-4170-9d12-7e9cc900bf59"},"vehicle_type_id":"4","last_reported":1778673245,"current_range_meters":4000,"station_id":"ce4bhu92rcd13ifvqi70","pricing_plan_id":"cebpf4jnsgd1na2vs0mg"},{"bike_id":"9a58ca7c-e3f1-470f-aa1d-a424d69785bb","system_id":"levelo_inurba_marseille","lat":43.21744,"lon":5.34602,"is_reserved":false,"is_disabled":false,"rental_uris":{"android":"levelo://app?vid=9a58ca7c-e3f1-470f-aa1d-a424d69785bb","ios":"levelo://app?vid=9a58ca7c-e3f1-470f-aa1d-a424d69785bb"},"vehicle_type_id":"4","last_reported":1778673245,"current_range_meters":4000,"station_id":"","pricing_plan_id":"cebpf4jnsgd1na2vs0mg"},{"bike_id":"359d3fdd-33b2-42d4-91cd-7787ccb0dcb2","system_id":"levelo_inurba_marseille","lat":43.28126,"lon":5.37813,"is_reserved":false,"is_disabled":false,"rental_uris":{"android":"levelo://app?vid=359d3fdd-33b2-42d4-91cd-7787ccb0dcb2","ios":"levelo://app?vid=359d3fdd-33b2-42d4-91cd-7787ccb0dcb2"},"vehicle_type_id":"4","last_reported":1778673245,"current_range_meters":4000,"station_id":"ce4bha12rcd13ifvqee0","pricing_plan_id":"cebpf4jnsgd1na2vs0mg"},{"bike_id":"5df4aade-ba62-4286-872c-0027b4ad50f5","system_id":"levelo_inurba_marseille","lat":43.23151,"lon":5.43707,"is_reserved":false,"is_disabled":false,"rental_uris":{"android":"levelo://app?vid=5df4aade-ba62-4286-872c-0027b4ad50f5","ios":"levelo://app?vid=5df4aade-ba62-4286-872c-0027b4ad50f5"},"vehicle_type_id":"4","last_reported":1778673245,"current_range_meters":4000,"station_id":"ce4bhmp2rcd13ifvqgog","pricing_plan_id":"cebpf4jnsgd1na2vs0mg"},{"bike_id":"96aa8bc2-987f-492b-a2ee-60db1c4c7b2a","system_id":"levelo_inurba_marseille","lat":43.2959,"lon":5.37495,"is_reserved":false,"is_disabled":false,"rental_uris":{"android":"levelo://app?vid=96aa8bc2-987f-492b-a2ee-60db1c4c7b2a","ios":"levelo://app?vid=96aa8bc2-987f-492b-a2ee-60db1c4c7b2a"},"vehicle_type_id":"4","last_reported":1778673245,"current_range_meters":4000,"station_id":"ce4bgh92rcd13ifvqb50","pricing_plan_id":"cebpf4jnsgd1na2vs0mg"},{"bike_id":"0f1807cc-9d93-4021-8b9a-9457f4117b8b","system_id":"levelo_inurba_marseille","lat":43.32096,"lon":5.36734,"is_reserved":false,"is_disabled":false,"rental_uris":{"android":"levelo://app?vid=0f1807cc-9d93-4021-8b9a-9457f4117b8b","ios":"levelo://app?vid=0f1807cc-9d93-4021-8b9a-9457f4117b8b"},"vehicle_type_id":"4","last_reported":1778673245,"current_range_meters":4400,"station_id":"ce4bhrh2rcd13ifvqhug","pricing_plan_id":"cebpf4jnsgd1na2vs0mg"},{"bike_id":"c57b9d8b-726c-424e-a5d4-cee105e1ed0e","system_id":"levelo_inurba_marseille","lat":43.26203,"lon":5.3792,"is_reserved":false,"is_disabled":false,"rental_uris":{"android":"levelo://app?vid=c57b9d8b-726c-424e-a5d4-cee105e1ed0e","ios":"levelo://app?vid=c57b9d8b-726c-424e-a5d4-cee105e1ed0e"},"vehicle_type_id":"4","last_reported":1778673245,"current_range_meters":4400,"station_id":"ce4bhjp2rcd13ifvqg90","pricing_plan_id":"cebpf4jnsgd1na2vs0mg"},{"bike_id":"cb774951-9535-4d5e-a491-0303cc127755","system_id":"levelo_inurba_marseille","lat":43.29653,"lon":5.41887,"is_reserved":false,"is_disabled":false,"rental_uris":{"android":"levelo://app?vid=cb774951-9535-4d5e-a491-0303cc127755","ios":"levelo://app?vid=cb774951-9535-4d5e-a491-0303cc127755"},"vehicle_type_id":"4","last_reported":1778673245,"current_range_meters":4400,"station_id":"","pricing_plan_id":"cebpf4jnsgd1na2vs0mg"},{"bike_id":"211cea86-71fd-43ef-9b6e-844e35d10a69","system_id":"levelo_inurba_marseille","lat":43.26194,"lon":5.37449,"is_reserved":false,"is_disabled":true,"rental_uris":{"android":"levelo://app?vid=211cea86-71fd-43ef-9b6e-844e35d10a69","ios":"levelo://app?vid=211cea86-71fd-43ef-9b6e-844e35d10a69"},"vehicle_type_id":"4","last_reported":1778673245,"current_range_meters":4400,"station_id":"ce4bhgp2rcd13ifvqfc0","pricing_plan_id":"cebpf4jnsgd1na2vs0mg"},{"bike_id":"42e605e7-9491-4a58-978c-412fb16ef21a","system_id":"levelo_inurba_marseille","lat":43.30953,"lon":5.39032,"is_reserved":false,"is_disabled":false,"rental_uris":{"android":"levelo://app?vid=42e605e7-9491-4a58-978c-412fb16ef21a","ios":"levelo://app?vid=42e605e7-9491-4a58-978c-412fb16ef21a"},"vehicle_type_id":"4","last_reported":1778673245,"current_range_meters":4400,"station_id":"ce4bgup2rcd13ifvqco0","pricing_plan_id":"cebpf4jnsgd1na2vs0mg"},{"bike_id":"aa2a9d78-14f8-48f1-a385-6123d676fd65","system_id":"levelo_inurba_marseille","lat":43.29786,"lon":5.37082,"is_reserved":false,"is_disabled":false,"rental_uris":{"android":"levelo://app?vid=aa2a9d78-14f8-48f1-a385-6123d676fd65","ios":"levelo://app?vid=aa2a9d78-14f8-48f1-a385-6123d676fd65"},"vehicle_type_id":"4","last_reported":1778673245,"current_range_meters":4400,"station_id":"ce4bgop2rcd13ifvqc1g","pricing_plan_id":"cebpf4jnsgd1na2vs0mg"},{"bike_id":"4886c252-2728-4a7b-8055-7bc754291d67","system_id":"levelo_inurba_marseille","lat":43.26184,"lon":5.40391,"is_reserved":false,"is_disabled":false,"rental_uris":{"android":"levelo://app?vid=4886c252-2728-4a7b-8055-7bc754291d67","ios":"levelo://app?vid=4886c252-2728-4a7b-8055-7bc754291d67"},"vehicle_type_id":"4","last_reported":1778673245,"current_range_meters":4800,"station_id":"","pricing_plan_id":"cebpf4jnsgd1na2vs0mg"},{"bike_id":"ca453d8f-c4ae-4c9d-a161-fc7624efc7c6","system_id":"levelo_inurba_marseille","lat":43.284211,"lon":5.349822,"is_reserved":false,"is_disabled":false,"rental_uris":{"android":"levelo://app?vid=ca453d8f-c4ae-4c9d-a161-fc7624efc7c6","ios":"levelo://app?vid=ca453d8f-c4ae-4c9d-a161-fc7624efc7c6"},"vehicle_type_id":"4","last_reported":1778673245,"current_range_meters":4800,"station_id":"ce4bhbh2rcd13ifvqepg","pricing_plan_id":"cebpf4jnsgd1na2vs0mg"},{"bike_id":"4aad697a-91b2-4fed-aee3-9939aca7631b","system_id":"levelo_inurba_marseille","lat":43.3134,"lon":5.37918,"is_reserved":false,"is_disabled":false,"rental_uris":{"android":"levelo://app?vid=4aad697a-91b2-4fed-aee3-9939aca7631b","ios":"levelo://app?vid=4aad697a-91b2-4fed-aee3-9939aca7631b"},"vehicle_type_id":"4","last_reported":1778673245,"current_range_meters":4800,"station_id":"","pricing_plan_id":"cebpf4jnsgd1na2vs0mg"},{"bike_id":"c2a550eb-2fed-4bf8-b049-2c6eca7d91b8","system_id":"levelo_inurba_marseille","lat":43.25581,"lon":5.38227,"is_reserved":false,"is_disabled":false,"rental_uris":{"android":"levelo://app?vid=c2a550eb-2fed-4bf8-b049-2c6eca7d91b8","ios":"levelo://app?vid=c2a550eb-2fed-4bf8-b049-2c6eca7d91b8"},"vehicle_type_id":"4","last_reported":1778673245,"current_range_meters":4800,"station_id":"ce4bhih2rcd13ifvqfs0","pricing_plan_id":"cebpf4jnsgd1na2vs0mg"},{"bike_id":"92156b36-924a-49c4-bd07-c1b054e499e4","system_id":"levelo_inurba_marseille","lat":43.30885,"lon":5.3718,"is_reserved":false,"is_disabled":false,"rental_uris":{"android":"levelo://app?vid=92156b36-924a-49c4-bd07-c1b054e499e4","ios":"levelo://app?vid=92156b36-924a-49c4-bd07-c1b054e499e4"},"vehicle_type_id":"4","last_reported":1778673245,"current_range_meters":4800,"station_id":"ce4bguh2rcd13ifvqckg","pricing_plan_id":"cebpf4jnsgd1na2vs0mg"},{"bike_id":"33365701-971b-4be5-98fb-721102a7c62f","system_id":"levelo_inurba_marseille","lat":43.3137,"lon":5.38484,"is_reserved":false,"is_disabled":false,"rental_uris":{"android":"levelo://app?vid=33365701-971b-4be5-98fb-721102a7c62f","ios":"levelo://app?vid=33365701-971b-4be5-98fb-721102a7c62f"},"vehicle_type_id":"4","last_reported":1778673245,"current_range_meters":4800,"station_id":"ce4bgt92rcd13ifvqcf0","pricing_plan_id":"cebpf4jnsgd1na2vs0mg"},{"bike_id":"e5c04703-81b7-47d9-a859-f5a694af719d","system_id":"levelo_inurba_marseille","lat":43.28939,"lon":5.3663,"is_reserved":false,"is_disabled":false,"rental_uris":{"android":"levelo://app?vid=e5c04703-81b7-47d9-a859-f5a694af719d","ios":"levelo://app?vid=e5c04703-81b7-47d9-a859-f5a694af719d"},"vehicle_type_id":"4","last_reported":1778673245,"current_range_meters":4800,"station_id":"ce4bhap2rcd13ifvqek0","pricing_plan_id":"cebpf4jnsgd1na2vs0mg"},{"bike_id":"909a3346-ee77-4d0b-a01a-ae6b3f12ca3a","system_id":"levelo_inurba_marseille","lat":43.31214,"lon":5.36806,"is_reserved":false,"is_disabled":false,"rental_uris":{"android":"levelo://app?vid=909a3346-ee77-4d0b-a01a-ae6b3f12ca3a","ios":"levelo://app?vid=909a3346-ee77-4d0b-a01a-ae6b3f12ca3a"},"vehicle_type_id":"4","last_reported":1778673245,"current_range_meters":4800,"station_id":"ce4bgl92rcd13ifvqbq0","pricing_plan_id":"cebpf4jnsgd1na2vs0mg"},{"bike_id":"00f9e8e9-a796-4063-972a-6a13a52bcfd2","system_id":"levelo_inurba_marseille","lat":43.28661,"lon":5.36257,"is_reserved":false,"is_disabled":false,"rental_uris":{"android":"levelo://app?vid=00f9e8e9-a796-4063-972a-6a13a52bcfd2","ios":"levelo://app?vid=00f9e8e9-a796-4063-972a-6a13a52bcfd2"},"vehicle_type_id":"4","last_reported":1778673245,"current_range_meters":4800,"station_id":"","pricing_plan_id":"cebpf4jnsgd1na2vs0mg"},{"bike_id":"9a3d064a-69ae-4a70-8a78-029db7e0b467","system_id":"levelo_inurba_marseille","lat":43.24391,"lon":5.37065,"is_reserved":false,"is_disabled":false,"rental_uris":{"android":"levelo://app?vid=9a3d064a-69ae-4a70-8a78-029db7e0b467","ios":"levelo://app?vid=9a3d064a-69ae-4a70-8a78-029db7e0b467"},"vehicle_type_id":"4","last_reported":1778673245,"current_range_meters":4800,"station_id":"ce4bhhh2rcd13ifvqfk0","pricing_plan_id":"cebpf4jnsgd1na2vs0mg"},{"bike_id":"74494f74-a1e7-4bf2-9fde-40c663fcfa85","system_id":"levelo_inurba_marseille","lat":43.287173,"lon":5.379357,"is_reserved":false,"is_disabled":false,"rental_uris":{"android":"levelo://app?vid=74494f74-a1e7-4bf2-9fde-40c663fcfa85","ios":"levelo://app?vid=74494f74-a1e7-4bf2-9fde-40c663fcfa85"},"vehicle_type_id":"4","last_reported":1778673245,"current_range_meters":4800,"station_id":"ce4bh9p2rcd13ifvqec0","pricing_plan_id":"cebpf4jnsgd1na2vs0mg"},{"bike_id":"ff489f48-8eb7-4134-9df2-b54a8dbbf171","system_id":"levelo_inurba_marseille","lat":43.2775,"lon":5.37286,"is_reserved":false,"is_disabled":false,"rental_uris":{"android":"levelo://app?vid=ff489f48-8eb7-4134-9df2-b54a8dbbf171","ios":"levelo://app?vid=ff489f48-8eb7-4134-9df2-b54a8dbbf171"},"vehicle_type_id":"4","last_reported":1778673245,"current_range_meters":4800,"station_id":"","pricing_plan_id":"cebpf4jnsgd1na2vs0mg"},{"bike_id":"795e65b9-e1e4-44a5-9b1a-3e7ee52cf27a","system_id":"levelo_inurba_marseille","lat":43.31356,"lon":5.36712,"is_reserved":false,"is_disabled":false,"rental_uris":{"android":"levelo://app?vid=795e65b9-e1e4-44a5-9b1a-3e7ee52cf27a","ios":"levelo://app?vid=795e65b9-e1e4-44a5-9b1a-3e7ee52cf27a"},"vehicle_type_id":"4","last_reported":1778673245,"current_range_meters":4800,"station_id":"ce4bgr92rcd13ifvqc6g","pricing_plan_id":"cebpf4jnsgd1na2vs0mg"},{"bike_id":"d4148635-d34f-4fff-9cec-db3f5fff6521","system_id":"levelo_inurba_marseille","lat":43.28268,"lon":5.3506,"is_reserved":false,"is_disabled":false,"rental_uris":{"android":"levelo://app?vid=d4148635-d34f-4fff-9cec-db3f5fff6521","ios":"levelo://app?vid=d4148635-d34f-4fff-9cec-db3f5fff6521"},"vehicle_type_id":"4","last_reported":1778673245,"current_range_meters":4800,"station_id":"ce4bhbp2rcd13ifvqerg","pricing_plan_id":"cebpf4jnsgd1na2vs0mg"},{"bike_id":"81a6fdad-8a1e-4b90-942e-ccbedb6e2b04","system_id":"levelo_inurba_marseille","lat":43.25506,"lon":5.37659,"is_reserved":false,"is_disabled":false,"rental_uris":{"android":"levelo://app?vid=81a6fdad-8a1e-4b90-942e-ccbedb6e2b04","ios":"levelo://app?vid=81a6fdad-8a1e-4b90-942e-ccbedb6e2b04"},"vehicle_type_id":"4","last_reported":1778673245,"current_range_meters":4800,"station_id":"ce4bhh12rcd13ifvqff0","pricing_plan_id":"cebpf4jnsgd1na2vs0mg"},{"bike_id":"883e5225-cc81-4559-b3c9-0154c5dd9df1","system_id":"levelo_inurba_marseille","lat":43.31992,"lon":5.38156,"is_reserved":false,"is_disabled":false,"rental_uris":{"android":"levelo://app?vid=883e5225-cc81-4559-b3c9-0154c5dd9df1","ios":"levelo://app?vid=883e5225-cc81-4559-b3c9-0154c5dd9df1"},"vehicle_type_id":"4","last_reported":1778673245,"current_range_meters":4800,"station_id":"ce4bhr12rcd13ifvqhpg","pricing_plan_id":"cebpf4jnsgd1na2vs0mg"},{"bike_id":"d81f348a-5a0d-4a29-b6c6-358f9d732682","system_id":"levelo_inurba_marseille","lat":43.26029,"lon":5.37544,"is_reserved":false,"is_disabled":false,"rental_uris":{"android":"levelo://app?vid=d81f348a-5a0d-4a29-b6c6-358f9d732682","ios":"levelo://app?vid=d81f348a-5a0d-4a29-b6c6-358f9d732682"},"vehicle_type_id":"4","last_reported":1778673245,"current_range_meters":5600,"station_id":"ce4bhgh2rcd13ifvqfa0","pricing_plan_id":"cebpf4jnsgd1na2vs0mg"},{"bike_id":"fedef20a-06eb-49cb-b78b-12fc7e18b60d","system_id":"levelo_inurba_marseille","lat":43.28927,"lon":5.3662,"is_reserved":false,"is_disabled":false,"rental_uris":{"android":"levelo://app?vid=fedef20a-06eb-49cb-b78b-12fc7e18b60d","ios":"levelo://app?vid=fedef20a-06eb-49cb-b78b-12fc7e18b60d"},"vehicle_type_id":"4","last_reported":1778673245,"current_range_meters":5600,"station_id":"ce4bhap2rcd13ifvqek0","pricing_plan_id":"cebpf4jnsgd1na2vs0mg"},{"bike_id":"98f232b9-815e-4400-8786-23b865a48601","system_id":"levelo_inurba_marseille","lat":43.27914,"lon":5.39581,"is_reserved":false,"is_disabled":false,"rental_uris":{"android":"levelo://app?vid=98f232b9-815e-4400-8786-23b865a48601","ios":"levelo://app?vid=98f232b9-815e-4400-8786-23b865a48601"},"vehicle_type_id":"4","last_reported":1778673245,"current_range_meters":5600,"station_id":"ce4bhf92rcd13ifvqf40","pricing_plan_id":"cebpf4jnsgd1na2vs0mg"},{"bike_id":"71c83927-4073-46e1-b223-8bfd7f6cf9e4","system_id":"levelo_inurba_marseille","lat":43.32498,"lon":5.38279,"is_reserved":false,"is_disabled":false,"rental_uris":{"android":"levelo://app?vid=71c83927-4073-46e1-b223-8bfd7f6cf9e4","ios":"levelo://app?vid=71c83927-4073-46e1-b223-8bfd7f6cf9e4"},"vehicle_type_id":"4","last_reported":1778673245,"current_range_meters":5600,"station_id":"st_d4asgbiv49dc73anf9m0","pricing_plan_id":"cebpf4jnsgd1na2vs0mg"},{"bike_id":"d257960a-edb4-4348-90b0-b5fd8baf1634","system_id":"levelo_inurba_marseille","lat":43.31717,"lon":5.37724,"is_reserved":false,"is_disabled":true,"rental_uris":{"android":"levelo://app?vid=d257960a-edb4-4348-90b0-b5fd8baf1634","ios":"levelo://app?vid=d257960a-edb4-4348-90b0-b5fd8baf1634"},"vehicle_type_id":"4","last_reported":1778673245,"current_range_meters":5600,"station_id":"ce4bgth2rcd13ifvqch0","pricing_plan_id":"cebpf4jnsgd1na2vs0mg"},{"bike_id":"50f65ead-d1b4-4678-b4de-27cea66897de","system_id":"levelo_inurba_marseille","lat":43.24186,"lon":5.3968,"is_reserved":false,"is_disabled":false,"rental_uris":{"android":"levelo://app?vid=50f65ead-d1b4-4678-b4de-27cea66897de","ios":"levelo://app?vid=50f65ead-d1b4-4678-b4de-27cea66897de"},"vehicle_type_id":"4","last_reported":1778673245,"current_range_meters":5600,"station_id":"ce4bhn12rcd13ifvqgpg","pricing_plan_id":"cebpf4jnsgd1na2vs0mg"},{"bike_id":"e4d14a16-3a86-477e-a1d7-6a4b831d46dc","system_id":"levelo_inurba_marseille","lat":43.28706,"lon":5.39981,"is_reserved":false,"is_disabled":false,"rental_uris":{"android":"levelo://app?vid=e4d14a16-3a86-477e-a1d7-6a4b831d46dc","ios":"levelo://app?vid=e4d14a16-3a86-477e-a1d7-6a4b831d46dc"},"vehicle_type_id":"4","last_reported":1778673245,"current_range_meters":5600,"station_id":"ce4bho92rcd13ifvqh3g","pricing_plan_id":"cebpf4jnsgd1na2vs0mg"},{"bike_id":"a7edd572-502c-491d-8abf-9814425c1f9f","system_id":"levelo_inurba_marseille","lat":43.28936,"lon":5.36392,"is_reserved":false,"is_disabled":false,"rental_uris":{"android":"levelo://app?vid=a7edd572-502c-491d-8abf-9814425c1f9f","ios":"levelo://app?vid=a7edd572-502c-491d-8abf-9814425c1f9f"},"vehicle_type_id":"4","last_reported":1778673245,"current_range_meters":5600,"station_id":"ce4bhc92rcd13ifvqetg","pricing_plan_id":"cebpf4jnsgd1na2vs0mg"},{"bike_id":"ca321ffd-2865-47ff-aca6-06ca38852a2f","system_id":"levelo_inurba_marseille","lat":43.26218,"lon":5.40449,"is_reserved":false,"is_disabled":false,"rental_uris":{"android":"levelo://app?vid=ca321ffd-2865-47ff-aca6-06ca38852a2f","ios":"levelo://app?vid=ca321ffd-2865-47ff-aca6-06ca38852a2f"},"vehicle_type_id":"4","last_reported":1778673245,"current_range_meters":5600,"station_id":"ce4bhmh2rcd13ifvqgmg","pricing_plan_id":"cebpf4jnsgd1na2vs0mg"},{"bike_id":"53d5ee26-6f72-452e-9c91-aca54a94acf5","system_id":"levelo_inurba_marseille","lat":43.28419,"lon":5.37508,"is_reserved":false,"is_disabled":false,"rental_uris":{"android":"levelo://app?vid=53d5ee26-6f72-452e-9c91-aca54a94acf5","ios":"levelo://app?vid=53d5ee26-6f72-452e-9c91-aca54a94acf5"},"vehicle_type_id":"4","last_reported":1778673245,"current_range_meters":5600,"station_id":"ce4bh412rcd13ifvqds0","pricing_plan_id":"cebpf4jnsgd1na2vs0mg"},{"bike_id":"411cf9a2-e4c3-48e8-bb83-57d7b75c2237","system_id":"levelo_inurba_marseille","lat":43.25816,"lon":5.39427,"is_reserved":false,"is_disabled":false,"rental_uris":{"android":"levelo://app?vid=411cf9a2-e4c3-48e8-bb83-57d7b75c2237","ios":"levelo://app?vid=411cf9a2-e4c3-48e8-bb83-57d7b75c2237"},"vehicle_type_id":"4","last_reported":1778673245,"current_range_meters":5600,"station_id":"ce4bhip2rcd13ifvqft0","pricing_plan_id":"cebpf4jnsgd1na2vs0mg"},{"bike_id":"b0f35401-3e13-4a9a-b487-22b954d5ad6b","system_id":"levelo_inurba_marseille","lat":43.29544,"lon":5.38536,"is_reserved":false,"is_disabled":false,"rental_uris":{"android":"levelo://app?vid=b0f35401-3e13-4a9a-b487-22b954d5ad6b","ios":"levelo://app?vid=b0f35401-3e13-4a9a-b487-22b954d5ad6b"},"vehicle_type_id":"4","last_reported":1778673245,"current_range_meters":5600,"station_id":"ce4bgih2rcd13ifvqba0","pricing_plan_id":"cebpf4jnsgd1na2vs0mg"},{"bike_id":"2f265e07-8740-4671-80e0-3f5acc909515","system_id":"levelo_inurba_marseille","lat":43.29003,"lon":5.35616,"is_reserved":false,"is_disabled":false,"rental_uris":{"android":"levelo://app?vid=2f265e07-8740-4671-80e0-3f5acc909515","ios":"levelo://app?vid=2f265e07-8740-4671-80e0-3f5acc909515"},"vehicle_type_id":"4","last_reported":1778673245,"current_range_meters":5600,"station_id":"ce4bhb92rcd13ifvqen0","pricing_plan_id":"cebpf4jnsgd1na2vs0mg"},{"bike_id":"73f702fb-dd5a-471c-90cc-142501c193f7","system_id":"levelo_inurba_marseille","lat":43.287,"lon":5.46673,"is_reserved":false,"is_disabled":false,"rental_uris":{"android":"levelo://app?vid=73f702fb-dd5a-471c-90cc-142501c193f7","ios":"levelo://app?vid=73f702fb-dd5a-471c-90cc-142501c193f7"},"vehicle_type_id":"4","last_reported":1778673245,"current_range_meters":5600,"station_id":"st_d6tc3vkotcvc738tfjhg","pricing_plan_id":"cebpf4jnsgd1na2vs0mg"},{"bike_id":"acdc7f9f-c208-4d71-8aab-07abf62efdc3","system_id":"levelo_inurba_marseille","lat":43.33761,"lon":5.37453,"is_reserved":false,"is_disabled":false,"rental_uris":{"android":"levelo://app?vid=acdc7f9f-c208-4d71-8aab-07abf62efdc3","ios":"levelo://app?vid=acdc7f9f-c208-4d71-8aab-07abf62efdc3"},"vehicle_type_id":"4","last_reported":1778673245,"current_range_meters":6000,"station_id":"","pricing_plan_id":"cebpf4jnsgd1na2vs0mg"},{"bike_id":"4305922b-886a-4e10-98c5-9db56042926a","system_id":"levelo_inurba_marseille","lat":43.29748,"lon":5.3795,"is_reserved":false,"is_disabled":false,"rental_uris":{"android":"levelo://app?vid=4305922b-886a-4e10-98c5-9db56042926a","ios":"levelo://app?vid=4305922b-886a-4e10-98c5-9db56042926a"},"vehicle_type_id":"4","last_reported":1778673245,"current_range_meters":6000,"station_id":"","pricing_plan_id":"cebpf4jnsgd1na2vs0mg"},{"bike_id":"be516926-fe12-4374-9b96-0a5d95fc4532","system_id":"levelo_inurba_marseille","lat":43.225323,"lon":5.348352,"is_reserved":false,"is_disabled":false,"rental_uris":{"android":"levelo://app?vid=be516926-fe12-4374-9b96-0a5d95fc4532","ios":"levelo://app?vid=be516926-fe12-4374-9b96-0a5d95fc4532"},"vehicle_type_id":"4","last_reported":1778673245,"current_range_meters":6000,"station_id":"st_cvj5dfep6f1abm77gieg","pricing_plan_id":"cebpf4jnsgd1na2vs0mg"},{"bike_id":"4128c085-91aa-48ea-963c-55c07880f562","system_id":"levelo_inurba_marseille","lat":43.23196,"lon":5.35545,"is_reserved":false,"is_disabled":false,"rental_uris":{"android":"levelo://app?vid=4128c085-91aa-48ea-963c-55c07880f562","ios":"levelo://app?vid=4128c085-91aa-48ea-963c-55c07880f562"},"vehicle_type_id":"4","last_reported":1778673245,"current_range_meters":6000,"station_id":"ce4bhu92rcd13ifvqi70","pricing_plan_id":"cebpf4jnsgd1na2vs0mg"},{"bike_id":"2aaf8d3d-dddc-4659-85e7-34b3b97fa5bc","system_id":"levelo_inurba_marseille","lat":43.21199,"lon":5.3506,"is_reserved":false,"is_disabled":false,"rental_uris":{"android":"levelo://app?vid=2aaf8d3d-dddc-4659-85e7-34b3b97fa5bc","ios":"levelo://app?vid=2aaf8d3d-dddc-4659-85e7-34b3b97fa5bc"},"vehicle_type_id":"4","last_reported":1778673245,"current_range_meters":6000,"station_id":"st_cvj6sg6p6f1abm77japg","pricing_plan_id":"cebpf4jnsgd1na2vs0mg"},{"bike_id":"f96c72da-1adc-427e-a4c0-30afefc40d90","system_id":"levelo_inurba_marseille","lat":43.28529,"lon":5.44082,"is_reserved":false,"is_disabled":true,"rental_uris":{"android":"levelo://app?vid=f96c72da-1adc-427e-a4c0-30afefc40d90","ios":"levelo://app?vid=f96c72da-1adc-427e-a4c0-30afefc40d90"},"vehicle_type_id":"4","last_reported":1778673245,"current_range_meters":6000,"station_id":"st_d3j3df2ikq2c7380ej80","pricing_plan_id":"cebpf4jnsgd1na2vs0mg"},{"bike_id":"c8b7cde2-e1ca-4365-ba07-d7284a4263e0","system_id":"levelo_inurba_marseille","lat":43.29138,"lon":5.38061,"is_reserved":false,"is_disabled":false,"rental_uris":{"android":"levelo://app?vid=c8b7cde2-e1ca-4365-ba07-d7284a4263e0","ios":"levelo://app?vid=c8b7cde2-e1ca-4365-ba07-d7284a4263e0"},"vehicle_type_id":"4","last_reported":1778673245,"current_range_meters":6000,"station_id":"","pricing_plan_id":"cebpf4jnsgd1na2vs0mg"},{"bike_id":"f2489e2a-acbb-4157-bb53-722731d8ed9a","system_id":"levelo_inurba_marseille","lat":43.29979,"lon":5.36756,"is_reserved":false,"is_disabled":false,"rental_uris":{"android":"levelo://app?vid=f2489e2a-acbb-4157-bb53-722731d8ed9a","ios":"levelo://app?vid=f2489e2a-acbb-4157-bb53-722731d8ed9a"},"vehicle_type_id":"4","last_reported":1778673245,"current_range_meters":6000,"station_id":"","pricing_plan_id":"cebpf4jnsgd1na2vs0mg"},{"bike_id":"ba923c2c-dc23-409d-9175-6710a5d40e63","system_id":"levelo_inurba_marseille","lat":43.30585,"lon":5.36527,"is_reserved":false,"is_disabled":false,"rental_uris":{"android":"levelo://app?vid=ba923c2c-dc23-409d-9175-6710a5d40e63","ios":"levelo://app?vid=ba923c2c-dc23-409d-9175-6710a5d40e63"},"vehicle_type_id":"4","last_reported":1778673245,"current_range_meters":6000,"station_id":"ce4bgs12rcd13ifvqcag","pricing_plan_id":"cebpf4jnsgd1na2vs0mg"},{"bike_id":"7d495a91-4757-4bd7-b72f-ad237a9371f1","system_id":"levelo_inurba_marseille","lat":43.21186,"lon":5.35075,"is_reserved":false,"is_disabled":false,"rental_uris":{"android":"levelo://app?vid=7d495a91-4757-4bd7-b72f-ad237a9371f1","ios":"levelo://app?vid=7d495a91-4757-4bd7-b72f-ad237a9371f1"},"vehicle_type_id":"4","last_reported":1778673245,"current_range_meters":6000,"station_id":"st_cvj6sg6p6f1abm77japg","pricing_plan_id":"cebpf4jnsgd1na2vs0mg"},{"bike_id":"d9595856-f6af-4f93-8cc9-f464c6231b4d","system_id":"levelo_inurba_marseille","lat":43.30952,"lon":5.39027,"is_reserved":false,"is_disabled":false,"rental_uris":{"android":"levelo://app?vid=d9595856-f6af-4f93-8cc9-f464c6231b4d","ios":"levelo://app?vid=d9595856-f6af-4f93-8cc9-f464c6231b4d"},"vehicle_type_id":"4","last_reported":1778673245,"current_range_meters":6000,"station_id":"ce4bgup2rcd13ifvqco0","pricing_plan_id":"cebpf4jnsgd1na2vs0mg"},{"bike_id":"bd1646a4-8a5f-4957-8175-e34547cea699","system_id":"levelo_inurba_marseille","lat":43.30553,"lon":5.36541,"is_reserved":false,"is_disabled":false,"rental_uris":{"android":"levelo://app?vid=bd1646a4-8a5f-4957-8175-e34547cea699","ios":"levelo://app?vid=bd1646a4-8a5f-4957-8175-e34547cea699"},"vehicle_type_id":"4","last_reported":1778673245,"current_range_meters":6400,"station_id":"ce4bgs12rcd13ifvqcag","pricing_plan_id":"cebpf4jnsgd1na2vs0mg"},{"bike_id":"337e5d15-9f6d-40f1-b4d5-6db4068e7fee","system_id":"levelo_inurba_marseille","lat":43.30165,"lon":5.36859,"is_reserved":false,"is_disabled":false,"rental_uris":{"android":"levelo://app?vid=337e5d15-9f6d-40f1-b4d5-6db4068e7fee","ios":"levelo://app?vid=337e5d15-9f6d-40f1-b4d5-6db4068e7fee"},"vehicle_type_id":"4","last_reported":1778673245,"current_range_meters":6400,"station_id":"","pricing_plan_id":"cebpf4jnsgd1na2vs0mg"},{"bike_id":"2aad52d5-6a56-4a4d-b89e-2cdd466252cd","system_id":"levelo_inurba_marseille","lat":43.28783,"lon":5.40072,"is_reserved":false,"is_disabled":true,"rental_uris":{"android":"levelo://app?vid=2aad52d5-6a56-4a4d-b89e-2cdd466252cd","ios":"levelo://app?vid=2aad52d5-6a56-4a4d-b89e-2cdd466252cd"},"vehicle_type_id":"4","last_reported":1778673245,"current_range_meters":6400,"station_id":"","pricing_plan_id":"cebpf4jnsgd1na2vs0mg"},{"bike_id":"3e8f476a-2f44-402a-b9a8-f5eaa220c28f","system_id":"levelo_inurba_marseille","lat":43.27322,"lon":5.39096,"is_reserved":false,"is_disabled":false,"rental_uris":{"android":"levelo://app?vid=3e8f476a-2f44-402a-b9a8-f5eaa220c28f","ios":"levelo://app?vid=3e8f476a-2f44-402a-b9a8-f5eaa220c28f"},"vehicle_type_id":"4","last_reported":1778673245,"current_range_meters":6400,"station_id":"ce4bhgp2rcd13ifvqfe0","pricing_plan_id":"cebpf4jnsgd1na2vs0mg"},{"bike_id":"cc35d2bb-6d25-489d-94f5-d5160311de4c","system_id":"levelo_inurba_marseille","lat":43.288594,"lon":5.425146,"is_reserved":false,"is_disabled":true,"rental_uris":{"android":"levelo://app?vid=cc35d2bb-6d25-489d-94f5-d5160311de4c","ios":"levelo://app?vid=cc35d2bb-6d25-489d-94f5-d5160311de4c"},"vehicle_type_id":"4","last_reported":1778673245,"current_range_meters":6400,"station_id":"","pricing_plan_id":"cebpf4jnsgd1na2vs0mg"},{"bike_id":"8daf255b-0513-4163-bc9d-401e1639777b","system_id":"levelo_inurba_marseille","lat":43.24942,"lon":5.40501,"is_reserved":false,"is_disabled":false,"rental_uris":{"android":"levelo://app?vid=8daf255b-0513-4163-bc9d-401e1639777b","ios":"levelo://app?vid=8daf255b-0513-4163-bc9d-401e1639777b"},"vehicle_type_id":"4","last_reported":1778673245,"current_range_meters":6400,"station_id":"st_d2ngiaodas8pm72gd1h0","pricing_plan_id":"cebpf4jnsgd1na2vs0mg"},{"bike_id":"499cf116-1dff-4936-959c-23c1b14f6a2b","system_id":"levelo_inurba_marseille","lat":43.29049,"lon":5.37144,"is_reserved":false,"is_disabled":false,"rental_uris":{"android":"levelo://app?vid=499cf116-1dff-4936-959c-23c1b14f6a2b","ios":"levelo://app?vid=499cf116-1dff-4936-959c-23c1b14f6a2b"},"vehicle_type_id":"4","last_reported":1778673245,"current_range_meters":6400,"station_id":"ce4bh5p2rcd13ifvqe4g","pricing_plan_id":"cebpf4jnsgd1na2vs0mg"},{"bike_id":"494e0f53-a137-4652-b071-f0f61a244817","system_id":"levelo_inurba_marseille","lat":43.32062,"lon":5.36656,"is_reserved":false,"is_disabled":false,"rental_uris":{"android":"levelo://app?vid=494e0f53-a137-4652-b071-f0f61a244817","ios":"levelo://app?vid=494e0f53-a137-4652-b071-f0f61a244817"},"vehicle_type_id":"4","last_reported":1778673245,"current_range_meters":6400,"station_id":"","pricing_plan_id":"cebpf4jnsgd1na2vs0mg"},{"bike_id":"33e726db-b04a-4466-9d0d-46fe67a4980a","system_id":"levelo_inurba_marseille","lat":43.29274,"lon":5.36847,"is_reserved":false,"is_disabled":false,"rental_uris":{"android":"levelo://app?vid=33e726db-b04a-4466-9d0d-46fe67a4980a","ios":"levelo://app?vid=33e726db-b04a-4466-9d0d-46fe67a4980a"},"vehicle_type_id":"4","last_reported":1778673245,"current_range_meters":6400,"station_id":"ce4bhbp2rcd13ifvqesg","pricing_plan_id":"cebpf4jnsgd1na2vs0mg"},{"bike_id":"f9e11440-deb3-451b-8f73-de151eac06ed","system_id":"levelo_inurba_marseille","lat":43.2971,"lon":5.36613,"is_reserved":false,"is_disabled":false,"rental_uris":{"android":"levelo://app?vid=f9e11440-deb3-451b-8f73-de151eac06ed","ios":"levelo://app?vid=f9e11440-deb3-451b-8f73-de151eac06ed"},"vehicle_type_id":"4","last_reported":1778673245,"current_range_meters":6400,"station_id":"ce4bgn12rcd13ifvqbt0","pricing_plan_id":"cebpf4jnsgd1na2vs0mg"},{"bike_id":"1da6257b-f1af-4a48-8996-6c5a6ab19545","system_id":"levelo_inurba_marseille","lat":43.24687,"lon":5.38157,"is_reserved":false,"is_disabled":false,"rental_uris":{"android":"levelo://app?vid=1da6257b-f1af-4a48-8996-6c5a6ab19545","ios":"levelo://app?vid=1da6257b-f1af-4a48-8996-6c5a6ab19545"},"vehicle_type_id":"4","last_reported":1778673245,"current_range_meters":6400,"station_id":"ce4bhih2rcd13ifvqfr0","pricing_plan_id":"cebpf4jnsgd1na2vs0mg"},{"bike_id":"681819bd-97fc-469d-b88c-3a38b5d85d5c","system_id":"levelo_inurba_marseille","lat":43.29695,"lon":5.37706,"is_reserved":false,"is_disabled":false,"rental_uris":{"android":"levelo://app?vid=681819bd-97fc-469d-b88c-3a38b5d85d5c","ios":"levelo://app?vid=681819bd-97fc-469d-b88c-3a38b5d85d5c"},"vehicle_type_id":"4","last_reported":1778673245,"current_range_meters":6400,"station_id":"ce4bgkh2rcd13ifvqbl0","pricing_plan_id":"cebpf4jnsgd1na2vs0mg"},{"bike_id":"66753501-1dea-49a1-a9b2-fc86536c9571","system_id":"levelo_inurba_marseille","lat":43.29282,"lon":5.36843,"is_reserved":false,"is_disabled":false,"rental_uris":{"android":"levelo://app?vid=66753501-1dea-49a1-a9b2-fc86536c9571","ios":"levelo://app?vid=66753501-1dea-49a1-a9b2-fc86536c9571"},"vehicle_type_id":"4","last_reported":1778673245,"current_range_meters":6800,"station_id":"ce4bhbp2rcd13ifvqesg","pricing_plan_id":"cebpf4jnsgd1na2vs0mg"},{"bike_id":"5c730ef3-6979-4f81-896c-c08976855327","system_id":"levelo_inurba_marseille","lat":43.30126,"lon":5.37405,"is_reserved":false,"is_disabled":false,"rental_uris":{"android":"levelo://app?vid=5c730ef3-6979-4f81-896c-c08976855327","ios":"levelo://app?vid=5c730ef3-6979-4f81-896c-c08976855327"},"vehicle_type_id":"4","last_reported":1778673245,"current_range_meters":6800,"station_id":"ce4bgs92rcd13ifvqcc0","pricing_plan_id":"cebpf4jnsgd1na2vs0mg"},{"bike_id":"98e33a06-8a19-47f2-b217-276386fece96","system_id":"levelo_inurba_marseille","lat":43.28626,"lon":5.35099,"is_reserved":false,"is_disabled":false,"rental_uris":{"android":"levelo://app?vid=98e33a06-8a19-47f2-b217-276386fece96","ios":"levelo://app?vid=98e33a06-8a19-47f2-b217-276386fece96"},"vehicle_type_id":"4","last_reported":1778673245,"current_range_meters":6800,"station_id":"ce4bhch2rcd13ifvqeug","pricing_plan_id":"cebpf4jnsgd1na2vs0mg"},{"bike_id":"19e877fd-e015-4a86-8008-1a0d333eea65","system_id":"levelo_inurba_marseille","lat":43.33542,"lon":5.37461,"is_reserved":false,"is_disabled":false,"rental_uris":{"android":"levelo://app?vid=19e877fd-e015-4a86-8008-1a0d333eea65","ios":"levelo://app?vid=19e877fd-e015-4a86-8008-1a0d333eea65"},"vehicle_type_id":"4","last_reported":1778673245,"current_range_meters":6800,"station_id":"st_d46tts09ee8s73dlu43g","pricing_plan_id":"cebpf4jnsgd1na2vs0mg"},{"bike_id":"a95d12fa-4ce1-4a2e-8812-f139473cb3cb","system_id":"levelo_inurba_marseille","lat":43.28736,"lon":5.37929,"is_reserved":false,"is_disabled":false,"rental_uris":{"android":"levelo://app?vid=a95d12fa-4ce1-4a2e-8812-f139473cb3cb","ios":"levelo://app?vid=a95d12fa-4ce1-4a2e-8812-f139473cb3cb"},"vehicle_type_id":"4","last_reported":1778673245,"current_range_meters":6800,"station_id":"ce4bh9p2rcd13ifvqec0","pricing_plan_id":"cebpf4jnsgd1na2vs0mg"},{"bike_id":"1ae3456e-4feb-4e6e-b875-003634ca9869","system_id":"levelo_inurba_marseille","lat":43.30532,"lon":5.36541,"is_reserved":false,"is_disabled":false,"rental_uris":{"android":"levelo://app?vid=1ae3456e-4feb-4e6e-b875-003634ca9869","ios":"levelo://app?vid=1ae3456e-4feb-4e6e-b875-003634ca9869"},"vehicle_type_id":"4","last_reported":1778673245,"current_range_meters":6800,"station_id":"ce4bgs12rcd13ifvqcag","pricing_plan_id":"cebpf4jnsgd1na2vs0mg"},{"bike_id":"a073844e-70ad-469b-9486-00db4f8e69dc","system_id":"levelo_inurba_marseille","lat":43.3144,"lon":5.37392,"is_reserved":false,"is_disabled":false,"rental_uris":{"android":"levelo://app?vid=a073844e-70ad-469b-9486-00db4f8e69dc","ios":"levelo://app?vid=a073844e-70ad-469b-9486-00db4f8e69dc"},"vehicle_type_id":"4","last_reported":1778673245,"current_range_meters":6800,"station_id":"","pricing_plan_id":"cebpf4jnsgd1na2vs0mg"},{"bike_id":"4196c41d-8bac-4f59-809d-20c5bacf0921","system_id":"levelo_inurba_marseille","lat":43.28693,"lon":5.46679,"is_reserved":false,"is_disabled":false,"rental_uris":{"android":"levelo://app?vid=4196c41d-8bac-4f59-809d-20c5bacf0921","ios":"levelo://app?vid=4196c41d-8bac-4f59-809d-20c5bacf0921"},"vehicle_type_id":"4","last_reported":1778673245,"current_range_meters":6800,"station_id":"st_d6tc3vkotcvc738tfjhg","pricing_plan_id":"cebpf4jnsgd1na2vs0mg"},{"bike_id":"730935d3-6868-4d7c-a454-bbea4152c4ff","system_id":"levelo_inurba_marseille","lat":43.23964,"lon":5.3663,"is_reserved":false,"is_disabled":false,"rental_uris":{"android":"levelo://app?vid=730935d3-6868-4d7c-a454-bbea4152c4ff","ios":"levelo://app?vid=730935d3-6868-4d7c-a454-bbea4152c4ff"},"vehicle_type_id":"4","last_reported":1778673245,"current_range_meters":6800,"station_id":"ce4bhi12rcd13ifvqfp0","pricing_plan_id":"cebpf4jnsgd1na2vs0mg"},{"bike_id":"f8dc3fb9-1817-419f-8937-16ce4993cda8","system_id":"levelo_inurba_marseille","lat":43.2893,"lon":5.36616,"is_reserved":false,"is_disabled":false,"rental_uris":{"android":"levelo://app?vid=f8dc3fb9-1817-419f-8937-16ce4993cda8","ios":"levelo://app?vid=f8dc3fb9-1817-419f-8937-16ce4993cda8"},"vehicle_type_id":"4","last_reported":1778673245,"current_range_meters":6800,"station_id":"ce4bhap2rcd13ifvqek0","pricing_plan_id":"cebpf4jnsgd1na2vs0mg"},{"bike_id":"924c7b02-e21c-4947-adb6-7efece53a228","system_id":"levelo_inurba_marseille","lat":43.23135,"lon":5.43713,"is_reserved":false,"is_disabled":false,"rental_uris":{"android":"levelo://app?vid=924c7b02-e21c-4947-adb6-7efece53a228","ios":"levelo://app?vid=924c7b02-e21c-4947-adb6-7efece53a228"},"vehicle_type_id":"4","last_reported":1778673245,"current_range_meters":6800,"station_id":"ce4bhmp2rcd13ifvqgog","pricing_plan_id":"cebpf4jnsgd1na2vs0mg"},{"bike_id":"b591dbdb-49fe-4d0e-978a-1f71bc43d591","system_id":"levelo_inurba_marseille","lat":43.26939,"lon":5.40255,"is_reserved":false,"is_disabled":false,"rental_uris":{"android":"levelo://app?vid=b591dbdb-49fe-4d0e-978a-1f71bc43d591","ios":"levelo://app?vid=b591dbdb-49fe-4d0e-978a-1f71bc43d591"},"vehicle_type_id":"4","last_reported":1778673245,"current_range_meters":6800,"station_id":"cjm6bp8fraef2m0cb0m0","pricing_plan_id":"cebpf4jnsgd1na2vs0mg"},{"bike_id":"2f0eb61d-9fef-48b1-934d-b32dd59cd710","system_id":"levelo_inurba_marseille","lat":43.25711,"lon":5.41045,"is_reserved":false,"is_disabled":false,"rental_uris":{"android":"levelo://app?vid=2f0eb61d-9fef-48b1-934d-b32dd59cd710","ios":"levelo://app?vid=2f0eb61d-9fef-48b1-934d-b32dd59cd710"},"vehicle_type_id":"4","last_reported":1778673245,"current_range_meters":6800,"station_id":"ce4bhkp2rcd13ifvqgd0","pricing_plan_id":"cebpf4jnsgd1na2vs0mg"},{"bike_id":"c1bb68bf-1f98-4f09-95df-bd233e834403","system_id":"levelo_inurba_marseille","lat":43.30154,"lon":5.38096,"is_reserved":false,"is_disabled":false,"rental_uris":{"android":"levelo://app?vid=c1bb68bf-1f98-4f09-95df-bd233e834403","ios":"levelo://app?vid=c1bb68bf-1f98-4f09-95df-bd233e834403"},"vehicle_type_id":"4","last_reported":1778673245,"current_range_meters":6800,"station_id":"ce4bgjp2rcd13ifvqbh0","pricing_plan_id":"cebpf4jnsgd1na2vs0mg"},{"bike_id":"45436511-7d00-4cfc-9258-a15059dbb105","system_id":"levelo_inurba_marseille","lat":43.30137,"lon":5.374,"is_reserved":false,"is_disabled":true,"rental_uris":{"android":"levelo://app?vid=45436511-7d00-4cfc-9258-a15059dbb105","ios":"levelo://app?vid=45436511-7d00-4cfc-9258-a15059dbb105"},"vehicle_type_id":"4","last_reported":1778673245,"current_range_meters":6800,"station_id":"ce4bgs92rcd13ifvqcc0","pricing_plan_id":"cebpf4jnsgd1na2vs0mg"},{"bike_id":"6ce9189e-3bcd-44c8-90a0-8435ca9bae4a","system_id":"levelo_inurba_marseille","lat":43.28019,"lon":5.39309,"is_reserved":false,"is_disabled":false,"rental_uris":{"android":"levelo://app?vid=6ce9189e-3bcd-44c8-90a0-8435ca9bae4a","ios":"levelo://app?vid=6ce9189e-3bcd-44c8-90a0-8435ca9bae4a"},"vehicle_type_id":"4","last_reported":1778673245,"current_range_meters":6800,"station_id":"","pricing_plan_id":"cebpf4jnsgd1na2vs0mg"},{"bike_id":"a97b88fe-5bad-475f-a90a-4484218c2a5c","system_id":"levelo_inurba_marseille","lat":43.30585,"lon":5.37198,"is_reserved":false,"is_disabled":false,"rental_uris":{"android":"levelo://app?vid=a97b88fe-5bad-475f-a90a-4484218c2a5c","ios":"levelo://app?vid=a97b88fe-5bad-475f-a90a-4484218c2a5c"},"vehicle_type_id":"4","last_reported":1778673245,"current_range_meters":6800,"station_id":"ce4bgqh2rcd13ifvqc4g","pricing_plan_id":"cebpf4jnsgd1na2vs0mg"},{"bike_id":"ff97f993-4696-44f8-a505-08ba5c0a70df","system_id":"levelo_inurba_marseille","lat":43.31363,"lon":5.39708,"is_reserved":false,"is_disabled":false,"rental_uris":{"android":"levelo://app?vid=ff97f993-4696-44f8-a505-08ba5c0a70df","ios":"levelo://app?vid=ff97f993-4696-44f8-a505-08ba5c0a70df"},"vehicle_type_id":"4","last_reported":1778673245,"current_range_meters":7200,"station_id":"ce4bgvp2rcd13ifvqcu0","pricing_plan_id":"cebpf4jnsgd1na2vs0mg"},{"bike_id":"f89dc7a0-fe47-41cb-ba00-70c80de88b25","system_id":"levelo_inurba_marseille","lat":43.24678,"lon":5.38147,"is_reserved":false,"is_disabled":false,"rental_uris":{"android":"levelo://app?vid=f89dc7a0-fe47-41cb-ba00-70c80de88b25","ios":"levelo://app?vid=f89dc7a0-fe47-41cb-ba00-70c80de88b25"},"vehicle_type_id":"4","last_reported":1778673245,"current_range_meters":7200,"station_id":"ce4bhih2rcd13ifvqfr0","pricing_plan_id":"cebpf4jnsgd1na2vs0mg"},{"bike_id":"bab941fc-f7cc-4362-a0cc-9b708da032ab","system_id":"levelo_inurba_marseille","lat":43.30165,"lon":5.366,"is_reserved":false,"is_disabled":false,"rental_uris":{"android":"levelo://app?vid=bab941fc-f7cc-4362-a0cc-9b708da032ab","ios":"levelo://app?vid=bab941fc-f7cc-4362-a0cc-9b708da032ab"},"vehicle_type_id":"4","last_reported":1778673245,"current_range_meters":7200,"station_id":"ce4bgrh2rcd13ifvqc8g","pricing_plan_id":"cebpf4jnsgd1na2vs0mg"},{"bike_id":"b477be1e-64c7-4e90-bc42-6fe97cda14a2","system_id":"levelo_inurba_marseille","lat":43.29878,"lon":5.42058,"is_reserved":false,"is_disabled":false,"rental_uris":{"android":"levelo://app?vid=b477be1e-64c7-4e90-bc42-6fe97cda14a2","ios":"levelo://app?vid=b477be1e-64c7-4e90-bc42-6fe97cda14a2"},"vehicle_type_id":"4","last_reported":1778673245,"current_range_meters":7200,"station_id":"st_d6tc004otcvc738tfe70","pricing_plan_id":"cebpf4jnsgd1na2vs0mg"},{"bike_id":"a790a6ce-a159-4f93-8d3e-5ce0fb35421c","system_id":"levelo_inurba_marseille","lat":43.30202,"lon":5.38062,"is_reserved":false,"is_disabled":false,"rental_uris":{"android":"levelo://app?vid=a790a6ce-a159-4f93-8d3e-5ce0fb35421c","ios":"levelo://app?vid=a790a6ce-a159-4f93-8d3e-5ce0fb35421c"},"vehicle_type_id":"4","last_reported":1778673245,"current_range_meters":7200,"station_id":"","pricing_plan_id":"cebpf4jnsgd1na2vs0mg"},{"bike_id":"68bbdbe7-9f72-4642-9f37-9ae265a9daa7","system_id":"levelo_inurba_marseille","lat":43.24467,"lon":5.4254,"is_reserved":false,"is_disabled":false,"rental_uris":{"android":"levelo://app?vid=68bbdbe7-9f72-4642-9f37-9ae265a9daa7","ios":"levelo://app?vid=68bbdbe7-9f72-4642-9f37-9ae265a9daa7"},"vehicle_type_id":"4","last_reported":1778673245,"current_range_meters":7200,"station_id":"st_d4a3vfp97mjs738cd8kg","pricing_plan_id":"cebpf4jnsgd1na2vs0mg"},{"bike_id":"579c0378-303c-4bd3-a906-d06a29d20937","system_id":"levelo_inurba_marseille","lat":43.26214,"lon":5.37434,"is_reserved":false,"is_disabled":false,"rental_uris":{"android":"levelo://app?vid=579c0378-303c-4bd3-a906-d06a29d20937","ios":"levelo://app?vid=579c0378-303c-4bd3-a906-d06a29d20937"},"vehicle_type_id":"4","last_reported":1778673245,"current_range_meters":7200,"station_id":"ce4bhgp2rcd13ifvqfc0","pricing_plan_id":"cebpf4jnsgd1na2vs0mg"},{"bike_id":"ed41cb91-67f5-4644-9405-9cc872277718","system_id":"levelo_inurba_marseille","lat":43.28005,"lon":5.40029,"is_reserved":false,"is_disabled":false,"rental_uris":{"android":"levelo://app?vid=ed41cb91-67f5-4644-9405-9cc872277718","ios":"levelo://app?vid=ed41cb91-67f5-4644-9405-9cc872277718"},"vehicle_type_id":"4","last_reported":1778673245,"current_range_meters":7200,"station_id":"ce4bho92rcd13ifvqh4g","pricing_plan_id":"cebpf4jnsgd1na2vs0mg"},{"bike_id":"94ad0b25-5e51-427b-975e-dbf854287092","system_id":"levelo_inurba_marseille","lat":43.27305,"lon":5.39023,"is_reserved":false,"is_disabled":true,"rental_uris":{"android":"levelo://app?vid=94ad0b25-5e51-427b-975e-dbf854287092","ios":"levelo://app?vid=94ad0b25-5e51-427b-975e-dbf854287092"},"vehicle_type_id":"4","last_reported":1778673245,"current_range_meters":7200,"station_id":"ce4bhgp2rcd13ifvqfe0","pricing_plan_id":"cebpf4jnsgd1na2vs0mg"},{"bike_id":"b9cd22e4-403a-4222-8eaf-633f95c9c8a5","system_id":"levelo_inurba_marseille","lat":43.25508,"lon":5.37652,"is_reserved":false,"is_disabled":false,"rental_uris":{"android":"levelo://app?vid=b9cd22e4-403a-4222-8eaf-633f95c9c8a5","ios":"levelo://app?vid=b9cd22e4-403a-4222-8eaf-633f95c9c8a5"},"vehicle_type_id":"4","last_reported":1778673245,"current_range_meters":7200,"station_id":"ce4bhh12rcd13ifvqff0","pricing_plan_id":"cebpf4jnsgd1na2vs0mg"},{"bike_id":"0ad9f56c-0cb1-4ddd-bfff-c7b211f4a077","system_id":"levelo_inurba_marseille","lat":43.23473,"lon":5.37221,"is_reserved":false,"is_disabled":false,"rental_uris":{"android":"levelo://app?vid=0ad9f56c-0cb1-4ddd-bfff-c7b211f4a077","ios":"levelo://app?vid=0ad9f56c-0cb1-4ddd-bfff-c7b211f4a077"},"vehicle_type_id":"4","last_reported":1778673245,"current_range_meters":7200,"station_id":"","pricing_plan_id":"cebpf4jnsgd1na2vs0mg"},{"bike_id":"8c1c2728-943b-42d1-8c72-1ba67b443289","system_id":"levelo_inurba_marseille","lat":43.25497,"lon":5.37648,"is_reserved":false,"is_disabled":false,"rental_uris":{"android":"levelo://app?vid=8c1c2728-943b-42d1-8c72-1ba67b443289","ios":"levelo://app?vid=8c1c2728-943b-42d1-8c72-1ba67b443289"},"vehicle_type_id":"4","last_reported":1778673245,"current_range_meters":7200,"station_id":"ce4bhh12rcd13ifvqff0","pricing_plan_id":"cebpf4jnsgd1na2vs0mg"},{"bike_id":"5748eb94-b493-4efb-913f-356ac219a9af","system_id":"levelo_inurba_marseille","lat":43.26562,"lon":5.37295,"is_reserved":false,"is_disabled":false,"rental_uris":{"android":"levelo://app?vid=5748eb94-b493-4efb-913f-356ac219a9af","ios":"levelo://app?vid=5748eb94-b493-4efb-913f-356ac219a9af"},"vehicle_type_id":"4","last_reported":1778673245,"current_range_meters":7200,"station_id":"ce4bhg12rcd13ifvqf70","pricing_plan_id":"cebpf4jnsgd1na2vs0mg"},{"bike_id":"190e1df1-9ae7-4b10-8f66-3bf16b4ae39c","system_id":"levelo_inurba_marseille","lat":43.25094,"lon":5.39506,"is_reserved":false,"is_disabled":false,"rental_uris":{"android":"levelo://app?vid=190e1df1-9ae7-4b10-8f66-3bf16b4ae39c","ios":"levelo://app?vid=190e1df1-9ae7-4b10-8f66-3bf16b4ae39c"},"vehicle_type_id":"4","last_reported":1778673245,"current_range_meters":7200,"station_id":"ce4bhm12rcd13ifvqgkg","pricing_plan_id":"cebpf4jnsgd1na2vs0mg"},{"bike_id":"6f9a9a97-64fd-4c09-9fd5-fce787af8bd3","system_id":"levelo_inurba_marseille","lat":43.31331,"lon":5.39704,"is_reserved":false,"is_disabled":false,"rental_uris":{"android":"levelo://app?vid=6f9a9a97-64fd-4c09-9fd5-fce787af8bd3","ios":"levelo://app?vid=6f9a9a97-64fd-4c09-9fd5-fce787af8bd3"},"vehicle_type_id":"4","last_reported":1778673245,"current_range_meters":7200,"station_id":"ce4bgvp2rcd13ifvqcu0","pricing_plan_id":"cebpf4jnsgd1na2vs0mg"},{"bike_id":"bcf2759b-de1c-49c6-b84b-2aefaa4a659b","system_id":"levelo_inurba_marseille","lat":43.25092,"lon":5.39518,"is_reserved":false,"is_disabled":false,"rental_uris":{"android":"levelo://app?vid=bcf2759b-de1c-49c6-b84b-2aefaa4a659b","ios":"levelo://app?vid=bcf2759b-de1c-49c6-b84b-2aefaa4a659b"},"vehicle_type_id":"4","last_reported":1778673245,"current_range_meters":7200,"station_id":"ce4bhm12rcd13ifvqgkg","pricing_plan_id":"cebpf4jnsgd1na2vs0mg"},{"bike_id":"6f8b0d63-4a27-4c64-8991-130a8e2c7266","system_id":"levelo_inurba_marseille","lat":43.33157,"lon":5.377,"is_reserved":false,"is_disabled":false,"rental_uris":{"android":"levelo://app?vid=6f8b0d63-4a27-4c64-8991-130a8e2c7266","ios":"levelo://app?vid=6f8b0d63-4a27-4c64-8991-130a8e2c7266"},"vehicle_type_id":"4","last_reported":1778673245,"current_range_meters":7200,"station_id":"st_d46cu089ee8s73dldbu0","pricing_plan_id":"cebpf4jnsgd1na2vs0mg"},{"bike_id":"869ad588-7fcc-4de4-805a-1a170e0e1557","system_id":"levelo_inurba_marseille","lat":43.298659,"lon":5.397399,"is_reserved":false,"is_disabled":false,"rental_uris":{"android":"levelo://app?vid=869ad588-7fcc-4de4-805a-1a170e0e1557","ios":"levelo://app?vid=869ad588-7fcc-4de4-805a-1a170e0e1557"},"vehicle_type_id":"4","last_reported":1778673245,"current_range_meters":7200,"station_id":"ce4bh0h2rcd13ifvqd50","pricing_plan_id":"cebpf4jnsgd1na2vs0mg"},{"bike_id":"6571a48f-2613-4d23-8622-e8883c1f3d55","system_id":"levelo_inurba_marseille","lat":43.23949,"lon":5.3665,"is_reserved":false,"is_disabled":false,"rental_uris":{"android":"levelo://app?vid=6571a48f-2613-4d23-8622-e8883c1f3d55","ios":"levelo://app?vid=6571a48f-2613-4d23-8622-e8883c1f3d55"},"vehicle_type_id":"4","last_reported":1778673245,"current_range_meters":7200,"station_id":"ce4bhi12rcd13ifvqfp0","pricing_plan_id":"cebpf4jnsgd1na2vs0mg"},{"bike_id":"e267adc5-5f11-46b6-a0f3-78f119b246da","system_id":"levelo_inurba_marseille","lat":43.23201,"lon":5.39972,"is_reserved":false,"is_disabled":false,"rental_uris":{"android":"levelo://app?vid=e267adc5-5f11-46b6-a0f3-78f119b246da","ios":"levelo://app?vid=e267adc5-5f11-46b6-a0f3-78f119b246da"},"vehicle_type_id":"4","last_reported":1778673245,"current_range_meters":7200,"station_id":"ce4bhn12rcd13ifvqgqg","pricing_plan_id":"cebpf4jnsgd1na2vs0mg"},{"bike_id":"64b62b18-b814-4dc3-8090-c8c0105a73f8","system_id":"levelo_inurba_marseille","lat":43.299713,"lon":5.37188,"is_reserved":false,"is_disabled":false,"rental_uris":{"android":"levelo://app?vid=64b62b18-b814-4dc3-8090-c8c0105a73f8","ios":"levelo://app?vid=64b62b18-b814-4dc3-8090-c8c0105a73f8"},"vehicle_type_id":"4","last_reported":1778673245,"current_range_meters":8000,"station_id":"ce4bgr92rcd13ifvqc7g","pricing_plan_id":"cebpf4jnsgd1na2vs0mg"},{"bike_id":"dd1cf2c7-593b-4038-bf9d-78d4c4e22f6b","system_id":"levelo_inurba_marseille","lat":43.3127,"lon":5.37742,"is_reserved":false,"is_disabled":false,"rental_uris":{"android":"levelo://app?vid=dd1cf2c7-593b-4038-bf9d-78d4c4e22f6b","ios":"levelo://app?vid=dd1cf2c7-593b-4038-bf9d-78d4c4e22f6b"},"vehicle_type_id":"4","last_reported":1778673245,"current_range_meters":8000,"station_id":"","pricing_plan_id":"cebpf4jnsgd1na2vs0mg"},{"bike_id":"3a0a303a-4c01-46ad-ba0b-98f8b7c8e79f","system_id":"levelo_inurba_marseille","lat":43.31353,"lon":5.36722,"is_reserved":false,"is_disabled":false,"rental_uris":{"android":"levelo://app?vid=3a0a303a-4c01-46ad-ba0b-98f8b7c8e79f","ios":"levelo://app?vid=3a0a303a-4c01-46ad-ba0b-98f8b7c8e79f"},"vehicle_type_id":"4","last_reported":1778673245,"current_range_meters":8000,"station_id":"ce4bgr92rcd13ifvqc6g","pricing_plan_id":"cebpf4jnsgd1na2vs0mg"},{"bike_id":"0466b201-3fc7-4f76-9cf6-e04e59b647fb","system_id":"levelo_inurba_marseille","lat":43.24395,"lon":5.37069,"is_reserved":false,"is_disabled":false,"rental_uris":{"android":"levelo://app?vid=0466b201-3fc7-4f76-9cf6-e04e59b647fb","ios":"levelo://app?vid=0466b201-3fc7-4f76-9cf6-e04e59b647fb"},"vehicle_type_id":"4","last_reported":1778673245,"current_range_meters":8000,"station_id":"ce4bhhh2rcd13ifvqfk0","pricing_plan_id":"cebpf4jnsgd1na2vs0mg"},{"bike_id":"0aa26d60-579b-4a0a-878e-0f9323c7c1cf","system_id":"levelo_inurba_marseille","lat":43.2573,"lon":5.41091,"is_reserved":false,"is_disabled":false,"rental_uris":{"android":"levelo://app?vid=0aa26d60-579b-4a0a-878e-0f9323c7c1cf","ios":"levelo://app?vid=0aa26d60-579b-4a0a-878e-0f9323c7c1cf"},"vehicle_type_id":"4","last_reported":1778673245,"current_range_meters":8000,"station_id":"ce4bhkp2rcd13ifvqgd0","pricing_plan_id":"cebpf4jnsgd1na2vs0mg"},{"bike_id":"f74fcc39-29f8-4f50-96cd-ebed7379781d","system_id":"levelo_inurba_marseille","lat":43.29041,"lon":5.37553,"is_reserved":false,"is_disabled":false,"rental_uris":{"android":"levelo://app?vid=f74fcc39-29f8-4f50-96cd-ebed7379781d","ios":"levelo://app?vid=f74fcc39-29f8-4f50-96cd-ebed7379781d"},"vehicle_type_id":"4","last_reported":1778673245,"current_range_meters":8000,"station_id":"ce4bh692rcd13ifvqe90","pricing_plan_id":"cebpf4jnsgd1na2vs0mg"},{"bike_id":"638f0fd9-8092-4d8b-9b9b-e7a2a736b653","system_id":"levelo_inurba_marseille","lat":43.27465,"lon":5.4155,"is_reserved":false,"is_disabled":true,"rental_uris":{"android":"levelo://app?vid=638f0fd9-8092-4d8b-9b9b-e7a2a736b653","ios":"levelo://app?vid=638f0fd9-8092-4d8b-9b9b-e7a2a736b653"},"vehicle_type_id":"4","last_reported":1778673245,"current_range_meters":8000,"station_id":"st_d6im8g6chgec73a5pndg","pricing_plan_id":"cebpf4jnsgd1na2vs0mg"},{"bike_id":"62605396-1ad4-4c61-9512-8fc01eea55ad","system_id":"levelo_inurba_marseille","lat":43.21741,"lon":5.346,"is_reserved":false,"is_disabled":false,"rental_uris":{"android":"levelo://app?vid=62605396-1ad4-4c61-9512-8fc01eea55ad","ios":"levelo://app?vid=62605396-1ad4-4c61-9512-8fc01eea55ad"},"vehicle_type_id":"4","last_reported":1778673245,"current_range_meters":8000,"station_id":"st_cvj6r9ubvosntc0bgbag","pricing_plan_id":"cebpf4jnsgd1na2vs0mg"},{"bike_id":"cd3bf1fa-127b-48f3-b4b1-cec37ebb83c9","system_id":"levelo_inurba_marseille","lat":43.23802,"lon":5.36634,"is_reserved":false,"is_disabled":false,"rental_uris":{"android":"levelo://app?vid=cd3bf1fa-127b-48f3-b4b1-cec37ebb83c9","ios":"levelo://app?vid=cd3bf1fa-127b-48f3-b4b1-cec37ebb83c9"},"vehicle_type_id":"4","last_reported":1778673245,"current_range_meters":8000,"station_id":"st_d3nk18o9ro0c73en2l3g","pricing_plan_id":"cebpf4jnsgd1na2vs0mg"},{"bike_id":"cf8a01a9-08f0-4fe4-9306-c728f942874f","system_id":"levelo_inurba_marseille","lat":43.24807,"lon":5.37452,"is_reserved":false,"is_disabled":false,"rental_uris":{"android":"levelo://app?vid=cf8a01a9-08f0-4fe4-9306-c728f942874f","ios":"levelo://app?vid=cf8a01a9-08f0-4fe4-9306-c728f942874f"},"vehicle_type_id":"4","last_reported":1778673245,"current_range_meters":8000,"station_id":"ce4bhgh2rcd13ifvqfb0","pricing_plan_id":"cebpf4jnsgd1na2vs0mg"},{"bike_id":"1fa6c2e5-6369-44b0-932a-52ae09b7a491","system_id":"levelo_inurba_marseille","lat":43.25589,"lon":5.38215,"is_reserved":false,"is_disabled":false,"rental_uris":{"android":"levelo://app?vid=1fa6c2e5-6369-44b0-932a-52ae09b7a491","ios":"levelo://app?vid=1fa6c2e5-6369-44b0-932a-52ae09b7a491"},"vehicle_type_id":"4","last_reported":1778673245,"current_range_meters":8000,"station_id":"ce4bhih2rcd13ifvqfs0","pricing_plan_id":"cebpf4jnsgd1na2vs0mg"},{"bike_id":"fd5b45da-4c6e-4228-b5da-587487851e73","system_id":"levelo_inurba_marseille","lat":43.288603,"lon":5.425158,"is_reserved":false,"is_disabled":false,"rental_uris":{"android":"levelo://app?vid=fd5b45da-4c6e-4228-b5da-587487851e73","ios":"levelo://app?vid=fd5b45da-4c6e-4228-b5da-587487851e73"},"vehicle_type_id":"4","last_reported":1778673245,"current_range_meters":8000,"station_id":"st_d3b462108ojc7389ooeg","pricing_plan_id":"cebpf4jnsgd1na2vs0mg"},{"bike_id":"4ed34391-f5d4-4f34-9e81-72d6a65ff383","system_id":"levelo_inurba_marseille","lat":43.27921,"lon":5.39583,"is_reserved":false,"is_disabled":true,"rental_uris":{"android":"levelo://app?vid=4ed34391-f5d4-4f34-9e81-72d6a65ff383","ios":"levelo://app?vid=4ed34391-f5d4-4f34-9e81-72d6a65ff383"},"vehicle_type_id":"4","last_reported":1778673245,"current_range_meters":8000,"station_id":"ce4bhf92rcd13ifvqf40","pricing_plan_id":"cebpf4jnsgd1na2vs0mg"},{"bike_id":"30f8e6d4-83a6-4a92-a859-a35a296eed10","system_id":"levelo_inurba_marseille","lat":43.24041,"lon":5.37716,"is_reserved":false,"is_disabled":false,"rental_uris":{"android":"levelo://app?vid=30f8e6d4-83a6-4a92-a859-a35a296eed10","ios":"levelo://app?vid=30f8e6d4-83a6-4a92-a859-a35a296eed10"},"vehicle_type_id":"4","last_reported":1778673245,"current_range_meters":8000,"station_id":"ce4bhnp2rcd13ifvqgvg","pricing_plan_id":"cebpf4jnsgd1na2vs0mg"},{"bike_id":"c6cfec37-43b2-4518-909e-c5b3cc00144e","system_id":"levelo_inurba_marseille","lat":43.29804,"lon":5.38088,"is_reserved":false,"is_disabled":false,"rental_uris":{"android":"levelo://app?vid=c6cfec37-43b2-4518-909e-c5b3cc00144e","ios":"levelo://app?vid=c6cfec37-43b2-4518-909e-c5b3cc00144e"},"vehicle_type_id":"4","last_reported":1778673245,"current_range_meters":8000,"station_id":"ce4bgip2rcd13ifvqbb0","pricing_plan_id":"cebpf4jnsgd1na2vs0mg"},{"bike_id":"ca6eea16-a101-4184-ab9c-0bd14a0b65b6","system_id":"levelo_inurba_marseille","lat":43.31505,"lon":5.37288,"is_reserved":false,"is_disabled":false,"rental_uris":{"android":"levelo://app?vid=ca6eea16-a101-4184-ab9c-0bd14a0b65b6","ios":"levelo://app?vid=ca6eea16-a101-4184-ab9c-0bd14a0b65b6"},"vehicle_type_id":"4","last_reported":1778673245,"current_range_meters":8000,"station_id":"ce4bgt12rcd13ifvqcd0","pricing_plan_id":"cebpf4jnsgd1na2vs0mg"},{"bike_id":"f7173221-84e6-41e3-8484-907a95c809b8","system_id":"levelo_inurba_marseille","lat":43.30779,"lon":5.37647,"is_reserved":false,"is_disabled":false,"rental_uris":{"android":"levelo://app?vid=f7173221-84e6-41e3-8484-907a95c809b8","ios":"levelo://app?vid=f7173221-84e6-41e3-8484-907a95c809b8"},"vehicle_type_id":"4","last_reported":1778673245,"current_range_meters":8000,"station_id":"ce4bgv92rcd13ifvqcq0","pricing_plan_id":"cebpf4jnsgd1na2vs0mg"},{"bike_id":"dd9124d2-eae5-4f60-ad7a-7ef70e61f6d7","system_id":"levelo_inurba_marseille","lat":43.33542,"lon":5.37463,"is_reserved":false,"is_disabled":false,"rental_uris":{"android":"levelo://app?vid=dd9124d2-eae5-4f60-ad7a-7ef70e61f6d7","ios":"levelo://app?vid=dd9124d2-eae5-4f60-ad7a-7ef70e61f6d7"},"vehicle_type_id":"4","last_reported":1778673245,"current_range_meters":8400,"station_id":"st_d46tts09ee8s73dlu43g","pricing_plan_id":"cebpf4jnsgd1na2vs0mg"},{"bike_id":"3b7bad75-1742-42f3-8675-dff901e7a382","system_id":"levelo_inurba_marseille","lat":43.292818,"lon":5.401056,"is_reserved":false,"is_disabled":false,"rental_uris":{"android":"levelo://app?vid=3b7bad75-1742-42f3-8675-dff901e7a382","ios":"levelo://app?vid=3b7bad75-1742-42f3-8675-dff901e7a382"},"vehicle_type_id":"4","last_reported":1778673245,"current_range_meters":8400,"station_id":"ce4bh312rcd13ifvqdk0","pricing_plan_id":"cebpf4jnsgd1na2vs0mg"},{"bike_id":"39770716-6899-41ce-8c2d-50080edab1de","system_id":"levelo_inurba_marseille","lat":43.28614,"lon":5.35113,"is_reserved":false,"is_disabled":false,"rental_uris":{"android":"levelo://app?vid=39770716-6899-41ce-8c2d-50080edab1de","ios":"levelo://app?vid=39770716-6899-41ce-8c2d-50080edab1de"},"vehicle_type_id":"4","last_reported":1778673245,"current_range_meters":8400,"station_id":"ce4bhch2rcd13ifvqeug","pricing_plan_id":"cebpf4jnsgd1na2vs0mg"},{"bike_id":"9ca25bc5-4228-4b5c-a846-b4fc2356fa6d","system_id":"levelo_inurba_marseille","lat":43.28364,"lon":5.38627,"is_reserved":false,"is_disabled":false,"rental_uris":{"android":"levelo://app?vid=9ca25bc5-4228-4b5c-a846-b4fc2356fa6d","ios":"levelo://app?vid=9ca25bc5-4228-4b5c-a846-b4fc2356fa6d"},"vehicle_type_id":"4","last_reported":1778673245,"current_range_meters":8400,"station_id":"ce4bh492rcd13ifvqdvg","pricing_plan_id":"cebpf4jnsgd1na2vs0mg"},{"bike_id":"44769a63-2434-4160-917d-9d5801eaf9ed","system_id":"levelo_inurba_marseille","lat":43.2396,"lon":5.36633,"is_reserved":false,"is_disabled":false,"rental_uris":{"android":"levelo://app?vid=44769a63-2434-4160-917d-9d5801eaf9ed","ios":"levelo://app?vid=44769a63-2434-4160-917d-9d5801eaf9ed"},"vehicle_type_id":"4","last_reported":1778673245,"current_range_meters":8400,"station_id":"ce4bhi12rcd13ifvqfp0","pricing_plan_id":"cebpf4jnsgd1na2vs0mg"},{"bike_id":"01b224ee-4c63-40d9-b70d-9fb6c651d396","system_id":"levelo_inurba_marseille","lat":43.29225,"lon":5.40909,"is_reserved":false,"is_disabled":true,"rental_uris":{"android":"levelo://app?vid=01b224ee-4c63-40d9-b70d-9fb6c651d396","ios":"levelo://app?vid=01b224ee-4c63-40d9-b70d-9fb6c651d396"},"vehicle_type_id":"4","last_reported":1778673245,"current_range_meters":8400,"station_id":"ce4bh192rcd13ifvqdc0","pricing_plan_id":"cebpf4jnsgd1na2vs0mg"},{"bike_id":"66932e16-c230-4fbd-b816-a1b7511001b1","system_id":"levelo_inurba_marseille","lat":43.3015,"lon":5.38079,"is_reserved":false,"is_disabled":false,"rental_uris":{"android":"levelo://app?vid=66932e16-c230-4fbd-b816-a1b7511001b1","ios":"levelo://app?vid=66932e16-c230-4fbd-b816-a1b7511001b1"},"vehicle_type_id":"4","last_reported":1778673245,"current_range_meters":8400,"station_id":"ce4bgjp2rcd13ifvqbh0","pricing_plan_id":"cebpf4jnsgd1na2vs0mg"},{"bike_id":"4e528f4c-3558-4ea0-8fad-771eb4a0d8d7","system_id":"levelo_inurba_marseille","lat":43.2723,"lon":5.39263,"is_reserved":false,"is_disabled":false,"rental_uris":{"android":"levelo://app?vid=4e528f4c-3558-4ea0-8fad-771eb4a0d8d7","ios":"levelo://app?vid=4e528f4c-3558-4ea0-8fad-771eb4a0d8d7"},"vehicle_type_id":"4","last_reported":1778673245,"current_range_meters":8400,"station_id":"","pricing_plan_id":"cebpf4jnsgd1na2vs0mg"},{"bike_id":"0ca51679-944e-4c38-ad98-9b7b5affb644","system_id":"levelo_inurba_marseille","lat":43.30609,"lon":5.36503,"is_reserved":false,"is_disabled":false,"rental_uris":{"android":"levelo://app?vid=0ca51679-944e-4c38-ad98-9b7b5affb644","ios":"levelo://app?vid=0ca51679-944e-4c38-ad98-9b7b5affb644"},"vehicle_type_id":"4","last_reported":1778673245,"current_range_meters":8400,"station_id":"","pricing_plan_id":"cebpf4jnsgd1na2vs0mg"},{"bike_id":"3d10bf0f-0f6d-4a75-86ad-26901373ecca","system_id":"levelo_inurba_marseille","lat":43.32985,"lon":5.37728,"is_reserved":false,"is_disabled":false,"rental_uris":{"android":"levelo://app?vid=3d10bf0f-0f6d-4a75-86ad-26901373ecca","ios":"levelo://app?vid=3d10bf0f-0f6d-4a75-86ad-26901373ecca"},"vehicle_type_id":"4","last_reported":1778673245,"current_range_meters":8400,"station_id":"","pricing_plan_id":"cebpf4jnsgd1na2vs0mg"},{"bike_id":"dd9d2dfb-afdd-4bed-aa38-8b17dff351c8","system_id":"levelo_inurba_marseille","lat":43.27023,"lon":5.40349,"is_reserved":false,"is_disabled":true,"rental_uris":{"android":"levelo://app?vid=dd9d2dfb-afdd-4bed-aa38-8b17dff351c8","ios":"levelo://app?vid=dd9d2dfb-afdd-4bed-aa38-8b17dff351c8"},"vehicle_type_id":"4","last_reported":1778673245,"current_range_meters":8400,"station_id":"","pricing_plan_id":"cebpf4jnsgd1na2vs0mg"},{"bike_id":"f460af7e-2050-495c-8a91-949a99c5138d","system_id":"levelo_inurba_marseille","lat":43.2874,"lon":5.3608,"is_reserved":false,"is_disabled":false,"rental_uris":{"android":"levelo://app?vid=f460af7e-2050-495c-8a91-949a99c5138d","ios":"levelo://app?vid=f460af7e-2050-495c-8a91-949a99c5138d"},"vehicle_type_id":"4","last_reported":1778673245,"current_range_meters":8400,"station_id":"cki0cbj6b192h4jlfktg","pricing_plan_id":"cebpf4jnsgd1na2vs0mg"},{"bike_id":"3506286c-7dd6-4125-bb3f-687c1b81cf5c","system_id":"levelo_inurba_marseille","lat":43.23189,"lon":5.39969,"is_reserved":false,"is_disabled":false,"rental_uris":{"android":"levelo://app?vid=3506286c-7dd6-4125-bb3f-687c1b81cf5c","ios":"levelo://app?vid=3506286c-7dd6-4125-bb3f-687c1b81cf5c"},"vehicle_type_id":"4","last_reported":1778673245,"current_range_meters":8400,"station_id":"ce4bhn12rcd13ifvqgqg","pricing_plan_id":"cebpf4jnsgd1na2vs0mg"},{"bike_id":"d35353cd-e3a3-4eae-b227-e63a6f95886a","system_id":"levelo_inurba_marseille","lat":43.30855,"lon":5.39601,"is_reserved":false,"is_disabled":false,"rental_uris":{"android":"levelo://app?vid=d35353cd-e3a3-4eae-b227-e63a6f95886a","ios":"levelo://app?vid=d35353cd-e3a3-4eae-b227-e63a6f95886a"},"vehicle_type_id":"4","last_reported":1778673245,"current_range_meters":8400,"station_id":"ce4bh012rcd13ifvqcv0","pricing_plan_id":"cebpf4jnsgd1na2vs0mg"},{"bike_id":"f42a9f3a-d124-4f19-a022-a8eb6f144d7d","system_id":"levelo_inurba_marseille","lat":43.28267,"lon":5.3506,"is_reserved":false,"is_disabled":false,"rental_uris":{"android":"levelo://app?vid=f42a9f3a-d124-4f19-a022-a8eb6f144d7d","ios":"levelo://app?vid=f42a9f3a-d124-4f19-a022-a8eb6f144d7d"},"vehicle_type_id":"4","last_reported":1778673245,"current_range_meters":8400,"station_id":"ce4bhbp2rcd13ifvqerg","pricing_plan_id":"cebpf4jnsgd1na2vs0mg"},{"bike_id":"6562811c-eec2-4574-a7e1-27ba13ff4c40","system_id":"levelo_inurba_marseille","lat":43.28326,"lon":5.38073,"is_reserved":false,"is_disabled":false,"rental_uris":{"android":"levelo://app?vid=6562811c-eec2-4574-a7e1-27ba13ff4c40","ios":"levelo://app?vid=6562811c-eec2-4574-a7e1-27ba13ff4c40"},"vehicle_type_id":"4","last_reported":1778673245,"current_range_meters":8400,"station_id":"ce4bh412rcd13ifvqdr0","pricing_plan_id":"cebpf4jnsgd1na2vs0mg"},{"bike_id":"8b7fe420-4019-4fa7-a671-7b21630d5ec8","system_id":"levelo_inurba_marseille","lat":43.28014,"lon":5.36937,"is_reserved":false,"is_disabled":false,"rental_uris":{"android":"levelo://app?vid=8b7fe420-4019-4fa7-a671-7b21630d5ec8","ios":"levelo://app?vid=8b7fe420-4019-4fa7-a671-7b21630d5ec8"},"vehicle_type_id":"4","last_reported":1778673245,"current_range_meters":8400,"station_id":"ce4bha12rcd13ifvqef0","pricing_plan_id":"cebpf4jnsgd1na2vs0mg"},{"bike_id":"4fba4b66-75de-4f6b-9434-89f9eaa79d22","system_id":"levelo_inurba_marseille","lat":43.2606,"lon":5.39376,"is_reserved":false,"is_disabled":false,"rental_uris":{"android":"levelo://app?vid=4fba4b66-75de-4f6b-9434-89f9eaa79d22","ios":"levelo://app?vid=4fba4b66-75de-4f6b-9434-89f9eaa79d22"},"vehicle_type_id":"4","last_reported":1778673245,"current_range_meters":8400,"station_id":"ce4bhh92rcd13ifvqfj0","pricing_plan_id":"cebpf4jnsgd1na2vs0mg"},{"bike_id":"2db0ffab-6bdd-4726-8016-a3a2ddff536d","system_id":"levelo_inurba_marseille","lat":43.22583,"lon":5.41625,"is_reserved":false,"is_disabled":false,"rental_uris":{"android":"levelo://app?vid=2db0ffab-6bdd-4726-8016-a3a2ddff536d","ios":"levelo://app?vid=2db0ffab-6bdd-4726-8016-a3a2ddff536d"},"vehicle_type_id":"4","last_reported":1778673245,"current_range_meters":8400,"station_id":"st_d2o4gvlbi1j2169b742g","pricing_plan_id":"cebpf4jnsgd1na2vs0mg"},{"bike_id":"88036b0e-26b0-426a-b38f-072112f51a0f","system_id":"levelo_inurba_marseille","lat":43.2174,"lon":5.34603,"is_reserved":false,"is_disabled":false,"rental_uris":{"android":"levelo://app?vid=88036b0e-26b0-426a-b38f-072112f51a0f","ios":"levelo://app?vid=88036b0e-26b0-426a-b38f-072112f51a0f"},"vehicle_type_id":"4","last_reported":1778673245,"current_range_meters":8400,"station_id":"st_cvj6r9ubvosntc0bgbag","pricing_plan_id":"cebpf4jnsgd1na2vs0mg"},{"bike_id":"065afd78-175a-4df5-98b8-bcb045c273e7","system_id":"levelo_inurba_marseille","lat":43.30783,"lon":5.38169,"is_reserved":false,"is_disabled":false,"rental_uris":{"android":"levelo://app?vid=065afd78-175a-4df5-98b8-bcb045c273e7","ios":"levelo://app?vid=065afd78-175a-4df5-98b8-bcb045c273e7"},"vehicle_type_id":"4","last_reported":1778673245,"current_range_meters":8400,"station_id":"ce4bgt12rcd13ifvqce0","pricing_plan_id":"cebpf4jnsgd1na2vs0mg"},{"bike_id":"9996b21f-a111-4446-b9fe-e4526d15c80b","system_id":"levelo_inurba_marseille","lat":43.30938,"lon":5.40134,"is_reserved":false,"is_disabled":false,"rental_uris":{"android":"levelo://app?vid=9996b21f-a111-4446-b9fe-e4526d15c80b","ios":"levelo://app?vid=9996b21f-a111-4446-b9fe-e4526d15c80b"},"vehicle_type_id":"4","last_reported":1778673245,"current_range_meters":8800,"station_id":"ce4bgvp2rcd13ifvqct0","pricing_plan_id":"cebpf4jnsgd1na2vs0mg"},{"bike_id":"47eafea1-2f37-4389-a0ca-895e8bcf5c4a","system_id":"levelo_inurba_marseille","lat":43.27957,"lon":5.39583,"is_reserved":false,"is_disabled":false,"rental_uris":{"android":"levelo://app?vid=47eafea1-2f37-4389-a0ca-895e8bcf5c4a","ios":"levelo://app?vid=47eafea1-2f37-4389-a0ca-895e8bcf5c4a"},"vehicle_type_id":"4","last_reported":1778673245,"current_range_meters":8800,"station_id":"ce4bhf92rcd13ifvqf40","pricing_plan_id":"cebpf4jnsgd1na2vs0mg"},{"bike_id":"071219c0-2e9b-4f78-bfd1-1dd39002c782","system_id":"levelo_inurba_marseille","lat":43.28961,"lon":5.37832,"is_reserved":false,"is_disabled":true,"rental_uris":{"android":"levelo://app?vid=071219c0-2e9b-4f78-bfd1-1dd39002c782","ios":"levelo://app?vid=071219c0-2e9b-4f78-bfd1-1dd39002c782"},"vehicle_type_id":"4","last_reported":1778673245,"current_range_meters":8800,"station_id":"ce4bh9p2rcd13ifvqed0","pricing_plan_id":"cebpf4jnsgd1na2vs0mg"},{"bike_id":"59a6e24a-9db4-402e-8b5e-049f3595c118","system_id":"levelo_inurba_marseille","lat":43.29538,"lon":5.39989,"is_reserved":false,"is_disabled":true,"rental_uris":{"android":"levelo://app?vid=59a6e24a-9db4-402e-8b5e-049f3595c118","ios":"levelo://app?vid=59a6e24a-9db4-402e-8b5e-049f3595c118"},"vehicle_type_id":"4","last_reported":1778673245,"current_range_meters":8800,"station_id":"ce4bh312rcd13ifvqdj0","pricing_plan_id":"cebpf4jnsgd1na2vs0mg"},{"bike_id":"c09926ef-6243-44a8-8f84-163c78b8face","system_id":"levelo_inurba_marseille","lat":43.28533,"lon":5.44087,"is_reserved":false,"is_disabled":false,"rental_uris":{"android":"levelo://app?vid=c09926ef-6243-44a8-8f84-163c78b8face","ios":"levelo://app?vid=c09926ef-6243-44a8-8f84-163c78b8face"},"vehicle_type_id":"4","last_reported":1778673245,"current_range_meters":8800,"station_id":"st_d3j3df2ikq2c7380ej80","pricing_plan_id":"cebpf4jnsgd1na2vs0mg"},{"bike_id":"f5ef1d5d-a83a-4de6-a56d-3d414007232e","system_id":"levelo_inurba_marseille","lat":43.25087,"lon":5.39509,"is_reserved":false,"is_disabled":false,"rental_uris":{"android":"levelo://app?vid=f5ef1d5d-a83a-4de6-a56d-3d414007232e","ios":"levelo://app?vid=f5ef1d5d-a83a-4de6-a56d-3d414007232e"},"vehicle_type_id":"4","last_reported":1778673245,"current_range_meters":8800,"station_id":"ce4bhm12rcd13ifvqgkg","pricing_plan_id":"cebpf4jnsgd1na2vs0mg"},{"bike_id":"6e6118e0-d7b8-42ba-a2c6-79786f3c704d","system_id":"levelo_inurba_marseille","lat":43.25111,"lon":5.40314,"is_reserved":false,"is_disabled":false,"rental_uris":{"android":"levelo://app?vid=6e6118e0-d7b8-42ba-a2c6-79786f3c704d","ios":"levelo://app?vid=6e6118e0-d7b8-42ba-a2c6-79786f3c704d"},"vehicle_type_id":"4","last_reported":1778673245,"current_range_meters":8800,"station_id":"ce4bhlh2rcd13ifvqgig","pricing_plan_id":"cebpf4jnsgd1na2vs0mg"},{"bike_id":"9318fa1c-4cc8-444b-997a-7a44b36741bf","system_id":"levelo_inurba_marseille","lat":43.3028,"lon":5.37735,"is_reserved":false,"is_disabled":false,"rental_uris":{"android":"levelo://app?vid=9318fa1c-4cc8-444b-997a-7a44b36741bf","ios":"levelo://app?vid=9318fa1c-4cc8-444b-997a-7a44b36741bf"},"vehicle_type_id":"4","last_reported":1778673245,"current_range_meters":8800,"station_id":"ce4bguh2rcd13ifvqcj0","pricing_plan_id":"cebpf4jnsgd1na2vs0mg"},{"bike_id":"7c29adec-5199-4011-bf31-6df09390dcfa","system_id":"levelo_inurba_marseille","lat":43.31346,"lon":5.36713,"is_reserved":false,"is_disabled":false,"rental_uris":{"android":"levelo://app?vid=7c29adec-5199-4011-bf31-6df09390dcfa","ios":"levelo://app?vid=7c29adec-5199-4011-bf31-6df09390dcfa"},"vehicle_type_id":"4","last_reported":1778673245,"current_range_meters":8800,"station_id":"ce4bgr92rcd13ifvqc6g","pricing_plan_id":"cebpf4jnsgd1na2vs0mg"},{"bike_id":"e9c21840-d4ae-423f-8373-09ca11a9522b","system_id":"levelo_inurba_marseille","lat":43.25718,"lon":5.4111,"is_reserved":false,"is_disabled":false,"rental_uris":{"android":"levelo://app?vid=e9c21840-d4ae-423f-8373-09ca11a9522b","ios":"levelo://app?vid=e9c21840-d4ae-423f-8373-09ca11a9522b"},"vehicle_type_id":"4","last_reported":1778673245,"current_range_meters":8800,"station_id":"ce4bhkp2rcd13ifvqgd0","pricing_plan_id":"cebpf4jnsgd1na2vs0mg"},{"bike_id":"f866b4ae-c870-49cf-9a8c-f7f6622d7dab","system_id":"levelo_inurba_marseille","lat":43.28444,"lon":5.48355,"is_reserved":false,"is_disabled":false,"rental_uris":{"android":"levelo://app?vid=f866b4ae-c870-49cf-9a8c-f7f6622d7dab","ios":"levelo://app?vid=f866b4ae-c870-49cf-9a8c-f7f6622d7dab"},"vehicle_type_id":"4","last_reported":1778673245,"current_range_meters":8800,"station_id":"","pricing_plan_id":"cebpf4jnsgd1na2vs0mg"},{"bike_id":"c0362586-16d8-4849-aae1-deb7e2bfb9f1","system_id":"levelo_inurba_marseille","lat":43.33535,"lon":5.3746,"is_reserved":false,"is_disabled":false,"rental_uris":{"android":"levelo://app?vid=c0362586-16d8-4849-aae1-deb7e2bfb9f1","ios":"levelo://app?vid=c0362586-16d8-4849-aae1-deb7e2bfb9f1"},"vehicle_type_id":"4","last_reported":1778673245,"current_range_meters":8800,"station_id":"st_d46tts09ee8s73dlu43g","pricing_plan_id":"cebpf4jnsgd1na2vs0mg"},{"bike_id":"a01394ad-f23b-4d15-98e3-74772d28c7d8","system_id":"levelo_inurba_marseille","lat":43.26559,"lon":5.37281,"is_reserved":false,"is_disabled":false,"rental_uris":{"android":"levelo://app?vid=a01394ad-f23b-4d15-98e3-74772d28c7d8","ios":"levelo://app?vid=a01394ad-f23b-4d15-98e3-74772d28c7d8"},"vehicle_type_id":"4","last_reported":1778673245,"current_range_meters":8800,"station_id":"ce4bhg12rcd13ifvqf70","pricing_plan_id":"cebpf4jnsgd1na2vs0mg"},{"bike_id":"91d5ec01-2658-4e1f-af1a-245fb7ea3595","system_id":"levelo_inurba_marseille","lat":43.28697,"lon":5.46672,"is_reserved":false,"is_disabled":false,"rental_uris":{"android":"levelo://app?vid=91d5ec01-2658-4e1f-af1a-245fb7ea3595","ios":"levelo://app?vid=91d5ec01-2658-4e1f-af1a-245fb7ea3595"},"vehicle_type_id":"4","last_reported":1778673245,"current_range_meters":8800,"station_id":"st_d6tc3vkotcvc738tfjhg","pricing_plan_id":"cebpf4jnsgd1na2vs0mg"},{"bike_id":"3fc67ff4-1be9-4da4-be8f-9ec5bd95e554","system_id":"levelo_inurba_marseille","lat":43.33555,"lon":5.37455,"is_reserved":false,"is_disabled":false,"rental_uris":{"android":"levelo://app?vid=3fc67ff4-1be9-4da4-be8f-9ec5bd95e554","ios":"levelo://app?vid=3fc67ff4-1be9-4da4-be8f-9ec5bd95e554"},"vehicle_type_id":"4","last_reported":1778673245,"current_range_meters":8800,"station_id":"st_d46tts09ee8s73dlu43g","pricing_plan_id":"cebpf4jnsgd1na2vs0mg"},{"bike_id":"a728aa98-b09f-422e-985c-d1e9ee7337cf","system_id":"levelo_inurba_marseille","lat":43.31486,"lon":5.37309,"is_reserved":false,"is_disabled":false,"rental_uris":{"android":"levelo://app?vid=a728aa98-b09f-422e-985c-d1e9ee7337cf","ios":"levelo://app?vid=a728aa98-b09f-422e-985c-d1e9ee7337cf"},"vehicle_type_id":"4","last_reported":1778673245,"current_range_meters":8800,"station_id":"ce4bgt12rcd13ifvqcd0","pricing_plan_id":"cebpf4jnsgd1na2vs0mg"},{"bike_id":"a1751cce-a99f-4352-a478-1678f0a5c5e3","system_id":"levelo_inurba_marseille","lat":43.23192,"lon":5.39977,"is_reserved":false,"is_disabled":false,"rental_uris":{"android":"levelo://app?vid=a1751cce-a99f-4352-a478-1678f0a5c5e3","ios":"levelo://app?vid=a1751cce-a99f-4352-a478-1678f0a5c5e3"},"vehicle_type_id":"4","last_reported":1778673245,"current_range_meters":8800,"station_id":"ce4bhn12rcd13ifvqgqg","pricing_plan_id":"cebpf4jnsgd1na2vs0mg"},{"bike_id":"015bfd6b-736a-4e44-a42d-948980700872","system_id":"levelo_inurba_marseille","lat":43.24645,"lon":5.38974,"is_reserved":false,"is_disabled":false,"rental_uris":{"android":"levelo://app?vid=015bfd6b-736a-4e44-a42d-948980700872","ios":"levelo://app?vid=015bfd6b-736a-4e44-a42d-948980700872"},"vehicle_type_id":"4","last_reported":1778673245,"current_range_meters":8800,"station_id":"","pricing_plan_id":"cebpf4jnsgd1na2vs0mg"},{"bike_id":"6acda846-787e-4f7b-aaac-ace346d60146","system_id":"levelo_inurba_marseille","lat":43.31337,"lon":5.36698,"is_reserved":false,"is_disabled":false,"rental_uris":{"android":"levelo://app?vid=6acda846-787e-4f7b-aaac-ace346d60146","ios":"levelo://app?vid=6acda846-787e-4f7b-aaac-ace346d60146"},"vehicle_type_id":"4","last_reported":1778673245,"current_range_meters":9200,"station_id":"ce4bgr92rcd13ifvqc6g","pricing_plan_id":"cebpf4jnsgd1na2vs0mg"},{"bike_id":"4036d707-70c6-46e1-bb49-c96a8dbbe889","system_id":"levelo_inurba_marseille","lat":43.24177,"lon":5.39718,"is_reserved":false,"is_disabled":false,"rental_uris":{"android":"levelo://app?vid=4036d707-70c6-46e1-bb49-c96a8dbbe889","ios":"levelo://app?vid=4036d707-70c6-46e1-bb49-c96a8dbbe889"},"vehicle_type_id":"4","last_reported":1778673245,"current_range_meters":9200,"station_id":"ce4bhn12rcd13ifvqgpg","pricing_plan_id":"cebpf4jnsgd1na2vs0mg"},{"bike_id":"e0f2d823-a278-4400-9444-d44158f5dbc1","system_id":"levelo_inurba_marseille","lat":43.31078,"lon":5.37188,"is_reserved":false,"is_disabled":false,"rental_uris":{"android":"levelo://app?vid=e0f2d823-a278-4400-9444-d44158f5dbc1","ios":"levelo://app?vid=e0f2d823-a278-4400-9444-d44158f5dbc1"},"vehicle_type_id":"4","last_reported":1778673245,"current_range_meters":9200,"station_id":"st_d4kl2rp97mjs73e7tdfg","pricing_plan_id":"cebpf4jnsgd1na2vs0mg"},{"bike_id":"4183f966-3ef7-4dd0-96f2-80648ce542bd","system_id":"levelo_inurba_marseille","lat":43.28687,"lon":5.38655,"is_reserved":false,"is_disabled":true,"rental_uris":{"android":"levelo://app?vid=4183f966-3ef7-4dd0-96f2-80648ce542bd","ios":"levelo://app?vid=4183f966-3ef7-4dd0-96f2-80648ce542bd"},"vehicle_type_id":"4","last_reported":1778673245,"current_range_meters":9200,"station_id":"ce4bh492rcd13ifvqdug","pricing_plan_id":"cebpf4jnsgd1na2vs0mg"},{"bike_id":"0377dc53-d6f7-4d97-8a1e-d81882c3f6fe","system_id":"levelo_inurba_marseille","lat":43.2921,"lon":5.36046,"is_reserved":false,"is_disabled":false,"rental_uris":{"android":"levelo://app?vid=0377dc53-d6f7-4d97-8a1e-d81882c3f6fe","ios":"levelo://app?vid=0377dc53-d6f7-4d97-8a1e-d81882c3f6fe"},"vehicle_type_id":"4","last_reported":1778673245,"current_range_meters":9200,"station_id":"ce4bhbh2rcd13ifvqeqg","pricing_plan_id":"cebpf4jnsgd1na2vs0mg"},{"bike_id":"63aea760-b45e-4cf3-aab2-489b9f2b00f4","system_id":"levelo_inurba_marseille","lat":43.28937,"lon":5.36631,"is_reserved":false,"is_disabled":false,"rental_uris":{"android":"levelo://app?vid=63aea760-b45e-4cf3-aab2-489b9f2b00f4","ios":"levelo://app?vid=63aea760-b45e-4cf3-aab2-489b9f2b00f4"},"vehicle_type_id":"4","last_reported":1778673245,"current_range_meters":9200,"station_id":"ce4bhap2rcd13ifvqek0","pricing_plan_id":"cebpf4jnsgd1na2vs0mg"},{"bike_id":"0b9b3ae0-bb23-4192-b9f3-81ae23e66ff5","system_id":"levelo_inurba_marseille","lat":43.29599,"lon":5.3674,"is_reserved":false,"is_disabled":true,"rental_uris":{"android":"levelo://app?vid=0b9b3ae0-bb23-4192-b9f3-81ae23e66ff5","ios":"levelo://app?vid=0b9b3ae0-bb23-4192-b9f3-81ae23e66ff5"},"vehicle_type_id":"4","last_reported":1778673245,"current_range_meters":9200,"station_id":"ce4bgph2rcd13ifvqc2g","pricing_plan_id":"cebpf4jnsgd1na2vs0mg"},{"bike_id":"4c4ead43-13a3-4149-95b3-e3a66f804ab5","system_id":"levelo_inurba_marseille","lat":43.32442,"lon":5.37453,"is_reserved":false,"is_disabled":false,"rental_uris":{"android":"levelo://app?vid=4c4ead43-13a3-4149-95b3-e3a66f804ab5","ios":"levelo://app?vid=4c4ead43-13a3-4149-95b3-e3a66f804ab5"},"vehicle_type_id":"4","last_reported":1778673245,"current_range_meters":9200,"station_id":"","pricing_plan_id":"cebpf4jnsgd1na2vs0mg"},{"bike_id":"a61a20bb-0de9-4975-9a88-318145e4772f","system_id":"levelo_inurba_marseille","lat":43.27203,"lon":5.39186,"is_reserved":false,"is_disabled":false,"rental_uris":{"android":"levelo://app?vid=a61a20bb-0de9-4975-9a88-318145e4772f","ios":"levelo://app?vid=a61a20bb-0de9-4975-9a88-318145e4772f"},"vehicle_type_id":"4","last_reported":1778673245,"current_range_meters":9200,"station_id":"ce4bhhp2rcd13ifvqfm0","pricing_plan_id":"cebpf4jnsgd1na2vs0mg"},{"bike_id":"52ab9d0d-9e35-4a85-b761-e90befddf3ee","system_id":"levelo_inurba_marseille","lat":43.24658,"lon":5.38899,"is_reserved":false,"is_disabled":false,"rental_uris":{"android":"levelo://app?vid=52ab9d0d-9e35-4a85-b761-e90befddf3ee","ios":"levelo://app?vid=52ab9d0d-9e35-4a85-b761-e90befddf3ee"},"vehicle_type_id":"4","last_reported":1778673245,"current_range_meters":9200,"station_id":"ce4bhg12rcd13ifvqf60","pricing_plan_id":"cebpf4jnsgd1na2vs0mg"},{"bike_id":"a313d30c-9c11-4750-befb-24c77ac6b376","system_id":"levelo_inurba_marseille","lat":43.21758,"lon":5.34597,"is_reserved":false,"is_disabled":true,"rental_uris":{"android":"levelo://app?vid=a313d30c-9c11-4750-befb-24c77ac6b376","ios":"levelo://app?vid=a313d30c-9c11-4750-befb-24c77ac6b376"},"vehicle_type_id":"4","last_reported":1778673245,"current_range_meters":9200,"station_id":"st_cvj6r9ubvosntc0bgbag","pricing_plan_id":"cebpf4jnsgd1na2vs0mg"},{"bike_id":"d2da92e5-c04a-4084-9143-b92a982a1f04","system_id":"levelo_inurba_marseille","lat":43.24816,"lon":5.40122,"is_reserved":false,"is_disabled":false,"rental_uris":{"android":"levelo://app?vid=d2da92e5-c04a-4084-9143-b92a982a1f04","ios":"levelo://app?vid=d2da92e5-c04a-4084-9143-b92a982a1f04"},"vehicle_type_id":"4","last_reported":1778673245,"current_range_meters":9200,"station_id":"","pricing_plan_id":"cebpf4jnsgd1na2vs0mg"},{"bike_id":"15305eef-6e43-4af1-8513-b5d82925d53d","system_id":"levelo_inurba_marseille","lat":43.29713,"lon":5.37687,"is_reserved":false,"is_disabled":false,"rental_uris":{"android":"levelo://app?vid=15305eef-6e43-4af1-8513-b5d82925d53d","ios":"levelo://app?vid=15305eef-6e43-4af1-8513-b5d82925d53d"},"vehicle_type_id":"4","last_reported":1778673245,"current_range_meters":9200,"station_id":"ce4bgkh2rcd13ifvqbl0","pricing_plan_id":"cebpf4jnsgd1na2vs0mg"},{"bike_id":"4886d05d-f0a9-4923-93e1-5a0d3dff9526","system_id":"levelo_inurba_marseille","lat":43.29641,"lon":5.37166,"is_reserved":false,"is_disabled":false,"rental_uris":{"android":"levelo://app?vid=4886d05d-f0a9-4923-93e1-5a0d3dff9526","ios":"levelo://app?vid=4886d05d-f0a9-4923-93e1-5a0d3dff9526"},"vehicle_type_id":"4","last_reported":1778673245,"current_range_meters":9200,"station_id":"ce4bgnh2rcd13ifvqc0g","pricing_plan_id":"cebpf4jnsgd1na2vs0mg"},{"bike_id":"8b47becf-a8f7-4ffb-a915-79c4ea31e23e","system_id":"levelo_inurba_marseille","lat":43.23215,"lon":5.39964,"is_reserved":false,"is_disabled":false,"rental_uris":{"android":"levelo://app?vid=8b47becf-a8f7-4ffb-a915-79c4ea31e23e","ios":"levelo://app?vid=8b47becf-a8f7-4ffb-a915-79c4ea31e23e"},"vehicle_type_id":"4","last_reported":1778673245,"current_range_meters":9200,"station_id":"","pricing_plan_id":"cebpf4jnsgd1na2vs0mg"},{"bike_id":"42e9dc0c-5719-4acc-a938-55c1e40e3401","system_id":"levelo_inurba_marseille","lat":43.30277,"lon":5.41858,"is_reserved":false,"is_disabled":false,"rental_uris":{"android":"levelo://app?vid=42e9dc0c-5719-4acc-a938-55c1e40e3401","ios":"levelo://app?vid=42e9dc0c-5719-4acc-a938-55c1e40e3401"},"vehicle_type_id":"4","last_reported":1778673245,"current_range_meters":9200,"station_id":"","pricing_plan_id":"cebpf4jnsgd1na2vs0mg"},{"bike_id":"968a2c85-1263-41b4-8ee5-1862c3ef50d1","system_id":"levelo_inurba_marseille","lat":43.21754,"lon":5.34603,"is_reserved":false,"is_disabled":false,"rental_uris":{"android":"levelo://app?vid=968a2c85-1263-41b4-8ee5-1862c3ef50d1","ios":"levelo://app?vid=968a2c85-1263-41b4-8ee5-1862c3ef50d1"},"vehicle_type_id":"4","last_reported":1778673245,"current_range_meters":9600,"station_id":"st_cvj6r9ubvosntc0bgbag","pricing_plan_id":"cebpf4jnsgd1na2vs0mg"},{"bike_id":"ce7affa4-e899-4670-ab01-77985006ca36","system_id":"levelo_inurba_marseille","lat":43.30149,"lon":5.38097,"is_reserved":false,"is_disabled":false,"rental_uris":{"android":"levelo://app?vid=ce7affa4-e899-4670-ab01-77985006ca36","ios":"levelo://app?vid=ce7affa4-e899-4670-ab01-77985006ca36"},"vehicle_type_id":"4","last_reported":1778673245,"current_range_meters":9600,"station_id":"ce4bgjp2rcd13ifvqbh0","pricing_plan_id":"cebpf4jnsgd1na2vs0mg"},{"bike_id":"f33aafe0-1ab0-4bb4-a807-e31a7758bcc6","system_id":"levelo_inurba_marseille","lat":43.30375,"lon":5.42487,"is_reserved":false,"is_disabled":false,"rental_uris":{"android":"levelo://app?vid=f33aafe0-1ab0-4bb4-a807-e31a7758bcc6","ios":"levelo://app?vid=f33aafe0-1ab0-4bb4-a807-e31a7758bcc6"},"vehicle_type_id":"4","last_reported":1778673245,"current_range_meters":9600,"station_id":"ce4bhoh2rcd13ifvqh6g","pricing_plan_id":"cebpf4jnsgd1na2vs0mg"},{"bike_id":"88175b16-1dfd-4b23-8b40-1d8c9f3f124c","system_id":"levelo_inurba_marseille","lat":43.28035,"lon":5.36952,"is_reserved":false,"is_disabled":false,"rental_uris":{"android":"levelo://app?vid=88175b16-1dfd-4b23-8b40-1d8c9f3f124c","ios":"levelo://app?vid=88175b16-1dfd-4b23-8b40-1d8c9f3f124c"},"vehicle_type_id":"4","last_reported":1778673245,"current_range_meters":9600,"station_id":"ce4bha12rcd13ifvqef0","pricing_plan_id":"cebpf4jnsgd1na2vs0mg"},{"bike_id":"a3e5c805-901c-4625-95ba-e3051c9c6c64","system_id":"levelo_inurba_marseille","lat":43.28155,"lon":5.42636,"is_reserved":false,"is_disabled":true,"rental_uris":{"android":"levelo://app?vid=a3e5c805-901c-4625-95ba-e3051c9c6c64","ios":"levelo://app?vid=a3e5c805-901c-4625-95ba-e3051c9c6c64"},"vehicle_type_id":"4","last_reported":1778673245,"current_range_meters":9600,"station_id":"ce4bhnh2rcd13ifvqgug","pricing_plan_id":"cebpf4jnsgd1na2vs0mg"},{"bike_id":"36c5cdaa-5cd1-4faf-99d4-72892f0865ba","system_id":"levelo_inurba_marseille","lat":43.30162,"lon":5.38078,"is_reserved":false,"is_disabled":false,"rental_uris":{"android":"levelo://app?vid=36c5cdaa-5cd1-4faf-99d4-72892f0865ba","ios":"levelo://app?vid=36c5cdaa-5cd1-4faf-99d4-72892f0865ba"},"vehicle_type_id":"4","last_reported":1778673245,"current_range_meters":9600,"station_id":"ce4bgjp2rcd13ifvqbh0","pricing_plan_id":"cebpf4jnsgd1na2vs0mg"},{"bike_id":"7170c5f3-b962-449b-acc3-c350995b0888","system_id":"levelo_inurba_marseille","lat":43.27326,"lon":5.39072,"is_reserved":false,"is_disabled":true,"rental_uris":{"android":"levelo://app?vid=7170c5f3-b962-449b-acc3-c350995b0888","ios":"levelo://app?vid=7170c5f3-b962-449b-acc3-c350995b0888"},"vehicle_type_id":"4","last_reported":1778673245,"current_range_meters":9600,"station_id":"ce4bhgp2rcd13ifvqfe0","pricing_plan_id":"cebpf4jnsgd1na2vs0mg"},{"bike_id":"33fbc1a0-b50a-4f68-89ad-82f55e26181b","system_id":"levelo_inurba_marseille","lat":43.23151,"lon":5.43715,"is_reserved":false,"is_disabled":false,"rental_uris":{"android":"levelo://app?vid=33fbc1a0-b50a-4f68-89ad-82f55e26181b","ios":"levelo://app?vid=33fbc1a0-b50a-4f68-89ad-82f55e26181b"},"vehicle_type_id":"4","last_reported":1778673245,"current_range_meters":9600,"station_id":"ce4bhmp2rcd13ifvqgog","pricing_plan_id":"cebpf4jnsgd1na2vs0mg"},{"bike_id":"5f6e429d-ed0f-4b74-931b-cf2c877dc0d9","system_id":"levelo_inurba_marseille","lat":43.24172,"lon":5.36382,"is_reserved":false,"is_disabled":false,"rental_uris":{"android":"levelo://app?vid=5f6e429d-ed0f-4b74-931b-cf2c877dc0d9","ios":"levelo://app?vid=5f6e429d-ed0f-4b74-931b-cf2c877dc0d9"},"vehicle_type_id":"4","last_reported":1778673245,"current_range_meters":9600,"station_id":"cpo36qri1sfpv3e86is0","pricing_plan_id":"cebpf4jnsgd1na2vs0mg"},{"bike_id":"573945d6-10da-4f22-8096-cda2709a2714","system_id":"levelo_inurba_marseille","lat":43.2418,"lon":5.39709,"is_reserved":false,"is_disabled":false,"rental_uris":{"android":"levelo://app?vid=573945d6-10da-4f22-8096-cda2709a2714","ios":"levelo://app?vid=573945d6-10da-4f22-8096-cda2709a2714"},"vehicle_type_id":"4","last_reported":1778673245,"current_range_meters":9600,"station_id":"ce4bhn12rcd13ifvqgpg","pricing_plan_id":"cebpf4jnsgd1na2vs0mg"},{"bike_id":"c69880ac-fd90-4927-b141-659dfceb8f3e","system_id":"levelo_inurba_marseille","lat":43.26498,"lon":5.37261,"is_reserved":false,"is_disabled":false,"rental_uris":{"android":"levelo://app?vid=c69880ac-fd90-4927-b141-659dfceb8f3e","ios":"levelo://app?vid=c69880ac-fd90-4927-b141-659dfceb8f3e"},"vehicle_type_id":"4","last_reported":1778673245,"current_range_meters":9600,"station_id":"ce4bhg12rcd13ifvqf70","pricing_plan_id":"cebpf4jnsgd1na2vs0mg"},{"bike_id":"a57b1f95-9e31-4dff-8ba3-8d8532694490","system_id":"levelo_inurba_marseille","lat":43.2865,"lon":5.47495,"is_reserved":false,"is_disabled":false,"rental_uris":{"android":"levelo://app?vid=a57b1f95-9e31-4dff-8ba3-8d8532694490","ios":"levelo://app?vid=a57b1f95-9e31-4dff-8ba3-8d8532694490"},"vehicle_type_id":"4","last_reported":1778673245,"current_range_meters":9600,"station_id":"","pricing_plan_id":"cebpf4jnsgd1na2vs0mg"},{"bike_id":"337addb5-30cf-4338-a9e4-b393edf5a6f7","system_id":"levelo_inurba_marseille","lat":43.31358,"lon":5.38496,"is_reserved":false,"is_disabled":false,"rental_uris":{"android":"levelo://app?vid=337addb5-30cf-4338-a9e4-b393edf5a6f7","ios":"levelo://app?vid=337addb5-30cf-4338-a9e4-b393edf5a6f7"},"vehicle_type_id":"4","last_reported":1778673245,"current_range_meters":9600,"station_id":"ce4bgt92rcd13ifvqcf0","pricing_plan_id":"cebpf4jnsgd1na2vs0mg"},{"bike_id":"44988ded-c29d-4125-9072-2bec1e64bec2","system_id":"levelo_inurba_marseille","lat":43.31376,"lon":5.3848,"is_reserved":false,"is_disabled":false,"rental_uris":{"android":"levelo://app?vid=44988ded-c29d-4125-9072-2bec1e64bec2","ios":"levelo://app?vid=44988ded-c29d-4125-9072-2bec1e64bec2"},"vehicle_type_id":"4","last_reported":1778673245,"current_range_meters":9600,"station_id":"ce4bgt92rcd13ifvqcf0","pricing_plan_id":"cebpf4jnsgd1na2vs0mg"},{"bike_id":"7eb62501-89b7-4d2f-8208-4c86091c6abd","system_id":"levelo_inurba_marseille","lat":43.28568,"lon":5.39489,"is_reserved":false,"is_disabled":false,"rental_uris":{"android":"levelo://app?vid=7eb62501-89b7-4d2f-8208-4c86091c6abd","ios":"levelo://app?vid=7eb62501-89b7-4d2f-8208-4c86091c6abd"},"vehicle_type_id":"4","last_reported":1778673245,"current_range_meters":9600,"station_id":"ce4bh292rcd13ifvqdg0","pricing_plan_id":"cebpf4jnsgd1na2vs0mg"},{"bike_id":"0326f06c-55c4-452e-923e-f53ba4ecef5c","system_id":"levelo_inurba_marseille","lat":43.26185,"lon":5.37917,"is_reserved":false,"is_disabled":false,"rental_uris":{"android":"levelo://app?vid=0326f06c-55c4-452e-923e-f53ba4ecef5c","ios":"levelo://app?vid=0326f06c-55c4-452e-923e-f53ba4ecef5c"},"vehicle_type_id":"4","last_reported":1778673245,"current_range_meters":10000,"station_id":"ce4bhjp2rcd13ifvqg90","pricing_plan_id":"cebpf4jnsgd1na2vs0mg"},{"bike_id":"c206aa84-7330-4ed3-965c-a76882628d82","system_id":"levelo_inurba_marseille","lat":43.32354,"lon":5.36728,"is_reserved":false,"is_disabled":false,"rental_uris":{"android":"levelo://app?vid=c206aa84-7330-4ed3-965c-a76882628d82","ios":"levelo://app?vid=c206aa84-7330-4ed3-965c-a76882628d82"},