{"last_updated":1728421737,"ttl":60,"version":"2.2","data":{"bikes":[{"bike_id":"5e298f33-cbb1-41c7-9d1f-6b6ff9bda3e9","system_id":"levelo_inurba_marseille","lat":43.25862,"lon":5.399,"is_reserved":false,"is_disabled":false,"rental_uris":{"android":"levelo://app?vid=5e298f33-cbb1-41c7-9d1f-6b6ff9bda3e9","ios":"levelo://app?vid=5e298f33-cbb1-41c7-9d1f-6b6ff9bda3e9"},"vehicle_type_id":"4","last_reported":1728421737,"current_range_meters":37600,"station_id":"ce4bhl92rcd13ifvqghg","pricing_plan_id":"cebpf4jnsgd1na2vs0mg"},{"bike_id":"1aecd509-ea4f-40d9-b98b-65d7ca1a650a","system_id":"levelo_inurba_marseille","lat":43.24653,"lon":5.38896,"is_reserved":false,"is_disabled":false,"rental_uris":{"android":"levelo://app?vid=1aecd509-ea4f-40d9-b98b-65d7ca1a650a","ios":"levelo://app?vid=1aecd509-ea4f-40d9-b98b-65d7ca1a650a"},"vehicle_type_id":"4","last_reported":1728421737,"current_range_meters":14000,"station_id":"ce4bhg12rcd13ifvqf60","pricing_plan_id":"cebpf4jnsgd1na2vs0mg"},{"bike_id":"f1619dec-850c-4de7-b54c-2b50243ecfa2","system_id":"levelo_inurba_marseille","lat":43.2816,"lon":5.42633,"is_reserved":false,"is_disabled":false,"rental_uris":{"android":"levelo://app?vid=f1619dec-850c-4de7-b54c-2b50243ecfa2","ios":"levelo://app?vid=f1619dec-850c-4de7-b54c-2b50243ecfa2"},"vehicle_type_id":"4","last_reported":1728421737,"current_range_meters":30800,"station_id":"ce4bhnh2rcd13ifvqgug","pricing_plan_id":"cebpf4jnsgd1na2vs0mg"},{"bike_id":"a35661b2-b710-4aed-96d4-0351ce96658b","system_id":"levelo_inurba_marseille","lat":43.27608,"lon":5.36121,"is_reserved":false,"is_disabled":false,"rental_uris":{"android":"levelo://app?vid=a35661b2-b710-4aed-96d4-0351ce96658b","ios":"levelo://app?vid=a35661b2-b710-4aed-96d4-0351ce96658b"},"vehicle_type_id":"4","last_reported":1728421737,"current_range_meters":31200,"station_id":"ce4bgj92rcd13ifvqbe0","pricing_plan_id":"cebpf4jnsgd1na2vs0mg"},{"bike_id":"32b6ce76-b786-4714-ad62-d6e7cbb1900d","system_id":"levelo_inurba_marseille","lat":43.30597,"lon":5.3722,"is_reserved":false,"is_disabled":false,"rental_uris":{"android":"levelo://app?vid=32b6ce76-b786-4714-ad62-d6e7cbb1900d","ios":"levelo://app?vid=32b6ce76-b786-4714-ad62-d6e7cbb1900d"},"vehicle_type_id":"4","last_reported":1728421737,"current_range_meters":32400,"station_id":"ce4bgqh2rcd13ifvqc4g","pricing_plan_id":"cebpf4jnsgd1na2vs0mg"},{"bike_id":"75f11660-7622-4c47-b2e5-57a2baeae5dd","system_id":"levelo_inurba_marseille","lat":43.27366,"lon":5.36253,"is_reserved":false,"is_disabled":false,"rental_uris":{"android":"levelo://app?vid=75f11660-7622-4c47-b2e5-57a2baeae5dd","ios":"levelo://app?vid=75f11660-7622-4c47-b2e5-57a2baeae5dd"},"vehicle_type_id":"4","last_reported":1728421737,"current_range_meters":36800,"station_id":"ce4bhbh2rcd13ifvqeo0","pricing_plan_id":"cebpf4jnsgd1na2vs0mg"},{"bike_id":"cd8f648d-3604-4910-8e4a-b926818f72e2","system_id":"levelo_inurba_marseille","lat":43.23062,"lon":5.35492,"is_reserved":false,"is_disabled":false,"rental_uris":{"android":"levelo://app?vid=cd8f648d-3604-4910-8e4a-b926818f72e2","ios":"levelo://app?vid=cd8f648d-3604-4910-8e4a-b926818f72e2"},"vehicle_type_id":"4","last_reported":1728421737,"current_range_meters":11200,"station_id":"cpo3342slgdg3j2ifvpg","pricing_plan_id":"cebpf4jnsgd1na2vs0mg"},{"bike_id":"b4cfcc4c-d506-4c5e-9655-e52e28dbc76c","system_id":"levelo_inurba_marseille","lat":43.32483,"lon":5.36567,"is_reserved":false,"is_disabled":false,"rental_uris":{"android":"levelo://app?vid=b4cfcc4c-d506-4c5e-9655-e52e28dbc76c","ios":"levelo://app?vid=b4cfcc4c-d506-4c5e-9655-e52e28dbc76c"},"vehicle_type_id":"4","last_reported":1728421737,"current_range_meters":28800,"station_id":"ce4bhs12rcd13ifvqhvg","pricing_plan_id":"cebpf4jnsgd1na2vs0mg"},{"bike_id":"f85a0d38-36a7-44d0-8600-4615154c0b51","system_id":"levelo_inurba_marseille","lat":43.26811,"lon":5.40267,"is_reserved":false,"is_disabled":false,"rental_uris":{"android":"levelo://app?vid=f85a0d38-36a7-44d0-8600-4615154c0b51","ios":"levelo://app?vid=f85a0d38-36a7-44d0-8600-4615154c0b51"},"vehicle_type_id":"4","last_reported":1728421737,"current_range_meters":10000,"station_id":"ce501612rcd8frsf0b60","pricing_plan_id":"cebpf4jnsgd1na2vs0mg"},{"bike_id":"77b6da1b-ffe6-4741-aab5-c6ffa897c82e","system_id":"levelo_inurba_marseille","lat":43.33606,"lon":5.41032,"is_reserved":false,"is_disabled":false,"rental_uris":{"android":"levelo://app?vid=77b6da1b-ffe6-4741-aab5-c6ffa897c82e","ios":"levelo://app?vid=77b6da1b-ffe6-4741-aab5-c6ffa897c82e"},"vehicle_type_id":"4","last_reported":1728421737,"current_range_meters":36000,"station_id":"ce4bhqh2rcd13ifvqhmg","pricing_plan_id":"cebpf4jnsgd1na2vs0mg"},{"bike_id":"0c830b6c-6f65-4dc5-9761-3b5fa8096668","system_id":"levelo_inurba_marseille","lat":43.31657,"lon":5.40425,"is_reserved":false,"is_disabled":false,"rental_uris":{"android":"levelo://app?vid=0c830b6c-6f65-4dc5-9761-3b5fa8096668","ios":"levelo://app?vid=0c830b6c-6f65-4dc5-9761-3b5fa8096668"},"vehicle_type_id":"4","last_reported":1728421737,"current_range_meters":6400,"station_id":"ce4bhq92rcd13ifvqhjg","pricing_plan_id":"cebpf4jnsgd1na2vs0mg"},{"bike_id":"cf8f16fb-4580-41c1-9847-689c326f31cc","system_id":"levelo_inurba_marseille","lat":43.31168,"lon":5.38717,"is_reserved":false,"is_disabled":false,"rental_uris":{"android":"levelo://app?vid=cf8f16fb-4580-41c1-9847-689c326f31cc","ios":"levelo://app?vid=cf8f16fb-4580-41c1-9847-689c326f31cc"},"vehicle_type_id":"4","last_reported":1728421737,"current_range_meters":39200,"station_id":"ce4bgv12rcd13ifvqcp0","pricing_plan_id":"cebpf4jnsgd1na2vs0mg"},{"bike_id":"c56accb3-d784-4d4a-a5a4-0b03a0697b79","system_id":"levelo_inurba_marseille","lat":43.30589,"lon":5.39346,"is_reserved":false,"is_disabled":false,"rental_uris":{"android":"levelo://app?vid=c56accb3-d784-4d4a-a5a4-0b03a0697b79","ios":"levelo://app?vid=c56accb3-d784-4d4a-a5a4-0b03a0697b79"},"vehicle_type_id":"4","last_reported":1728421737,"current_range_meters":11600,"station_id":"ce4bh0p2rcd13ifvqd80","pricing_plan_id":"cebpf4jnsgd1na2vs0mg"},{"bike_id":"c383ee7b-21fb-4f73-a28d-385288d4939d","system_id":"levelo_inurba_marseille","lat":43.25089,"lon":5.39527,"is_reserved":false,"is_disabled":false,"rental_uris":{"android":"levelo://app?vid=c383ee7b-21fb-4f73-a28d-385288d4939d","ios":"levelo://app?vid=c383ee7b-21fb-4f73-a28d-385288d4939d"},"vehicle_type_id":"4","last_reported":1728421737,"current_range_meters":10000,"station_id":"ce4bhm12rcd13ifvqgkg","pricing_plan_id":"cebpf4jnsgd1na2vs0mg"},{"bike_id":"3835c92e-3bf9-4211-9e27-8bf627d200a6","system_id":"levelo_inurba_marseille","lat":43.30933,"lon":5.40148,"is_reserved":false,"is_disabled":false,"rental_uris":{"android":"levelo://app?vid=3835c92e-3bf9-4211-9e27-8bf627d200a6","ios":"levelo://app?vid=3835c92e-3bf9-4211-9e27-8bf627d200a6"},"vehicle_type_id":"4","last_reported":1728421737,"current_range_meters":28800,"station_id":"ce4bgvp2rcd13ifvqct0","pricing_plan_id":"cebpf4jnsgd1na2vs0mg"},{"bike_id":"2144f07d-f6df-4254-911c-b629e74209f9","system_id":"levelo_inurba_marseille","lat":43.23064,"lon":5.3549,"is_reserved":false,"is_disabled":false,"rental_uris":{"android":"levelo://app?vid=2144f07d-f6df-4254-911c-b629e74209f9","ios":"levelo://app?vid=2144f07d-f6df-4254-911c-b629e74209f9"},"vehicle_type_id":"4","last_reported":1728421737,"current_range_meters":4800,"station_id":"cpo3342slgdg3j2ifvpg","pricing_plan_id":"cebpf4jnsgd1na2vs0mg"},{"bike_id":"49de744f-30ae-4050-959d-189712ef8913","system_id":"levelo_inurba_marseille","lat":43.29291,"lon":5.40126,"is_reserved":false,"is_disabled":false,"rental_uris":{"android":"levelo://app?vid=49de744f-30ae-4050-959d-189712ef8913","ios":"levelo://app?vid=49de744f-30ae-4050-959d-189712ef8913"},"vehicle_type_id":"4","last_reported":1728421737,"current_range_meters":3200,"station_id":"ce4bh312rcd13ifvqdk0","pricing_plan_id":"cebpf4jnsgd1na2vs0mg"},{"bike_id":"dc044d99-2298-479c-8d77-f3c125080a79","system_id":"levelo_inurba_marseille","lat":43.32336,"lon":5.40624,"is_reserved":false,"is_disabled":false,"rental_uris":{"android":"levelo://app?vid=dc044d99-2298-479c-8d77-f3c125080a79","ios":"levelo://app?vid=dc044d99-2298-479c-8d77-f3c125080a79"},"vehicle_type_id":"4","last_reported":1728421737,"current_range_meters":13600,"station_id":"ce4bhq92rcd13ifvqhjg","pricing_plan_id":"cebpf4jnsgd1na2vs0mg"},{"bike_id":"1c5e9102-64cc-4162-ac44-ab9c67ef7cf6","system_id":"levelo_inurba_marseille","lat":43.31527,"lon":5.38036,"is_reserved":false,"is_disabled":false,"rental_uris":{"android":"levelo://app?vid=1c5e9102-64cc-4162-ac44-ab9c67ef7cf6","ios":"levelo://app?vid=1c5e9102-64cc-4162-ac44-ab9c67ef7cf6"},"vehicle_type_id":"4","last_reported":1728421737,"current_range_meters":39200,"station_id":"ce4bhsp2rcd13ifvqi50","pricing_plan_id":"cebpf4jnsgd1na2vs0mg"},{"bike_id":"468b1a9a-dc8b-4792-9c95-1832a914924f","system_id":"levelo_inurba_marseille","lat":43.29559,"lon":5.42275,"is_reserved":false,"is_disabled":false,"rental_uris":{"android":"levelo://app?vid=468b1a9a-dc8b-4792-9c95-1832a914924f","ios":"levelo://app?vid=468b1a9a-dc8b-4792-9c95-1832a914924f"},"vehicle_type_id":"4","last_reported":1728421737,"current_range_meters":2800,"station_id":"ce4bhph2rcd13ifvqhdg","pricing_plan_id":"cebpf4jnsgd1na2vs0mg"},{"bike_id":"e79e47f6-ca17-4ebb-8876-4879aae4f7fd","system_id":"levelo_inurba_marseille","lat":43.28456,"lon":5.3588,"is_reserved":false,"is_disabled":false,"rental_uris":{"android":"levelo://app?vid=e79e47f6-ca17-4ebb-8876-4879aae4f7fd","ios":"levelo://app?vid=e79e47f6-ca17-4ebb-8876-4879aae4f7fd"},"vehicle_type_id":"4","last_reported":1728421737,"current_range_meters":28800,"station_id":"ce4bhah2rcd13ifvqei0","pricing_plan_id":"cebpf4jnsgd1na2vs0mg"},{"bike_id":"728d6580-0a0d-4c50-a117-a8f67b546d67","system_id":"levelo_inurba_marseille","lat":43.28451,"lon":5.35889,"is_reserved":false,"is_disabled":false,"rental_uris":{"android":"levelo://app?vid=728d6580-0a0d-4c50-a117-a8f67b546d67","ios":"levelo://app?vid=728d6580-0a0d-4c50-a117-a8f67b546d67"},"vehicle_type_id":"4","last_reported":1728421737,"current_range_meters":36800,"station_id":"ce4bhah2rcd13ifvqei0","pricing_plan_id":"cebpf4jnsgd1na2vs0mg"},{"bike_id":"87197431-ee07-4ed3-815b-84c70514bc23","system_id":"levelo_inurba_marseille","lat":43.28455,"lon":5.35883,"is_reserved":false,"is_disabled":false,"rental_uris":{"android":"levelo://app?vid=87197431-ee07-4ed3-815b-84c70514bc23","ios":"levelo://app?vid=87197431-ee07-4ed3-815b-84c70514bc23"},"vehicle_type_id":"4","last_reported":1728421737,"current_range_meters":38800,"station_id":"ce4bhah2rcd13ifvqei0","pricing_plan_id":"cebpf4jnsgd1na2vs0mg"},{"bike_id":"90b7b815-be07-4d3f-a351-671d7e515226","system_id":"levelo_inurba_marseille","lat":43.24645,"lon":5.38889,"is_reserved":false,"is_disabled":false,"rental_uris":{"android":"levelo://app?vid=90b7b815-be07-4d3f-a351-671d7e515226","ios":"levelo://app?vid=90b7b815-be07-4d3f-a351-671d7e515226"},"vehicle_type_id":"4","last_reported":1728421737,"current_range_meters":16400,"station_id":"ce4bhg12rcd13ifvqf60","pricing_plan_id":"cebpf4jnsgd1na2vs0mg"},{"bike_id":"5abb41d0-b142-434e-b250-209044c42a73","system_id":"levelo_inurba_marseille","lat":43.30944,"lon":5.3964,"is_reserved":false,"is_disabled":false,"rental_uris":{"android":"levelo://app?vid=5abb41d0-b142-434e-b250-209044c42a73","ios":"levelo://app?vid=5abb41d0-b142-434e-b250-209044c42a73"},"vehicle_type_id":"4","last_reported":1728421737,"current_range_meters":28000,"station_id":"ce4bh012rcd13ifvqcv0","pricing_plan_id":"cebpf4jnsgd1na2vs0mg"},{"bike_id":"4517b0ca-5586-48b6-9bf9-dc3274854ebf","system_id":"levelo_inurba_marseille","lat":43.30932,"lon":5.40145,"is_reserved":false,"is_disabled":false,"rental_uris":{"android":"levelo://app?vid=4517b0ca-5586-48b6-9bf9-dc3274854ebf","ios":"levelo://app?vid=4517b0ca-5586-48b6-9bf9-dc3274854ebf"},"vehicle_type_id":"4","last_reported":1728421737,"current_range_meters":25200,"station_id":"ce4bgvp2rcd13ifvqct0","pricing_plan_id":"cebpf4jnsgd1na2vs0mg"},{"bike_id":"066ccb90-6b9a-4302-bde4-9c97dfce747d","system_id":"levelo_inurba_marseille","lat":43.337238,"lon":5.391914,"is_reserved":false,"is_disabled":false,"rental_uris":{"android":"levelo://app?vid=066ccb90-6b9a-4302-bde4-9c97dfce747d","ios":"levelo://app?vid=066ccb90-6b9a-4302-bde4-9c97dfce747d"},"vehicle_type_id":"4","last_reported":1728421737,"current_range_meters":35600,"station_id":"ce4bhr92rcd13ifvqhsg","pricing_plan_id":"cebpf4jnsgd1na2vs0mg"},{"bike_id":"0f5e5a18-f4da-4c3c-9a4f-f41090bc7661","system_id":"levelo_inurba_marseille","lat":43.31994,"lon":5.38155,"is_reserved":false,"is_disabled":false,"rental_uris":{"android":"levelo://app?vid=0f5e5a18-f4da-4c3c-9a4f-f41090bc7661","ios":"levelo://app?vid=0f5e5a18-f4da-4c3c-9a4f-f41090bc7661"},"vehicle_type_id":"4","last_reported":1728421737,"current_range_meters":26000,"station_id":"ce4bhr12rcd13ifvqhpg","pricing_plan_id":"cebpf4jnsgd1na2vs0mg"},{"bike_id":"78162ca2-a873-4095-b3f0-b96c3db339b0","system_id":"levelo_inurba_marseille","lat":43.28463,"lon":5.35886,"is_reserved":false,"is_disabled":false,"rental_uris":{"android":"levelo://app?vid=78162ca2-a873-4095-b3f0-b96c3db339b0","ios":"levelo://app?vid=78162ca2-a873-4095-b3f0-b96c3db339b0"},"vehicle_type_id":"4","last_reported":1728421737,"current_range_meters":22400,"station_id":"ce4bhah2rcd13ifvqei0","pricing_plan_id":"cebpf4jnsgd1na2vs0mg"},{"bike_id":"26deb83c-7d31-49fc-aca5-bc881f64f0bf","system_id":"levelo_inurba_marseille","lat":43.31167,"lon":5.38711,"is_reserved":false,"is_disabled":false,"rental_uris":{"android":"levelo://app?vid=26deb83c-7d31-49fc-aca5-bc881f64f0bf","ios":"levelo://app?vid=26deb83c-7d31-49fc-aca5-bc881f64f0bf"},"vehicle_type_id":"4","last_reported":1728421737,"current_range_meters":38800,"station_id":"ce4bgv12rcd13ifvqcp0","pricing_plan_id":"cebpf4jnsgd1na2vs0mg"},{"bike_id":"8c81a4b1-7025-4920-b034-cfb8aa6a4141","system_id":"levelo_inurba_marseille","lat":43.33608,"lon":5.41035,"is_reserved":false,"is_disabled":false,"rental_uris":{"android":"levelo://app?vid=8c81a4b1-7025-4920-b034-cfb8aa6a4141","ios":"levelo://app?vid=8c81a4b1-7025-4920-b034-cfb8aa6a4141"},"vehicle_type_id":"4","last_reported":1728421737,"current_range_meters":30400,"station_id":"ce4bhqh2rcd13ifvqhmg","pricing_plan_id":"cebpf4jnsgd1na2vs0mg"},{"bike_id":"35db5aab-a536-4286-87d7-90ec43783f24","system_id":"levelo_inurba_marseille","lat":43.23193,"lon":5.35554,"is_reserved":false,"is_disabled":false,"rental_uris":{"android":"levelo://app?vid=35db5aab-a536-4286-87d7-90ec43783f24","ios":"levelo://app?vid=35db5aab-a536-4286-87d7-90ec43783f24"},"vehicle_type_id":"4","last_reported":1728421737,"current_range_meters":28400,"station_id":"ce4bhu92rcd13ifvqi70","pricing_plan_id":"cebpf4jnsgd1na2vs0mg"},{"bike_id":"958a4695-4e83-43eb-ad4e-ced4abf9d2fb","system_id":"levelo_inurba_marseille","lat":43.28929,"lon":5.3639,"is_reserved":false,"is_disabled":false,"rental_uris":{"android":"levelo://app?vid=958a4695-4e83-43eb-ad4e-ced4abf9d2fb","ios":"levelo://app?vid=958a4695-4e83-43eb-ad4e-ced4abf9d2fb"},"vehicle_type_id":"4","last_reported":1728421737,"current_range_meters":38800,"station_id":"ce4bhc92rcd13ifvqetg","pricing_plan_id":"cebpf4jnsgd1na2vs0mg"},{"bike_id":"7f85c262-6ba6-486a-9028-3713c22ca539","system_id":"levelo_inurba_marseille","lat":43.29509,"lon":5.38541,"is_reserved":false,"is_disabled":false,"rental_uris":{"android":"levelo://app?vid=7f85c262-6ba6-486a-9028-3713c22ca539","ios":"levelo://app?vid=7f85c262-6ba6-486a-9028-3713c22ca539"},"vehicle_type_id":"4","last_reported":1728421737,"current_range_meters":4400,"station_id":"ce4bgih2rcd13ifvqba0","pricing_plan_id":"cebpf4jnsgd1na2vs0mg"},{"bike_id":"f8651fb9-6db1-42c3-b707-a0153b1d457b","system_id":"levelo_inurba_marseille","lat":43.23184,"lon":5.39984,"is_reserved":false,"is_disabled":false,"rental_uris":{"android":"levelo://app?vid=f8651fb9-6db1-42c3-b707-a0153b1d457b","ios":"levelo://app?vid=f8651fb9-6db1-42c3-b707-a0153b1d457b"},"vehicle_type_id":"4","last_reported":1728421737,"current_range_meters":7200,"station_id":"ce4bhn12rcd13ifvqgqg","pricing_plan_id":"cebpf4jnsgd1na2vs0mg"},{"bike_id":"58df3b6c-dd3d-45e8-bdec-33bb836515c1","system_id":"levelo_inurba_marseille","lat":43.30547,"lon":5.3655,"is_reserved":false,"is_disabled":false,"rental_uris":{"android":"levelo://app?vid=58df3b6c-dd3d-45e8-bdec-33bb836515c1","ios":"levelo://app?vid=58df3b6c-dd3d-45e8-bdec-33bb836515c1"},"vehicle_type_id":"4","last_reported":1728421737,"current_range_meters":2800,"station_id":"ce4bhop2rcd13ifvqh8g","pricing_plan_id":"cebpf4jnsgd1na2vs0mg"},{"bike_id":"4a2e3ed1-ac76-48a8-94ec-a2de38042303","system_id":"levelo_inurba_marseille","lat":43.28105,"lon":5.37847,"is_reserved":false,"is_disabled":false,"rental_uris":{"android":"levelo://app?vid=4a2e3ed1-ac76-48a8-94ec-a2de38042303","ios":"levelo://app?vid=4a2e3ed1-ac76-48a8-94ec-a2de38042303"},"vehicle_type_id":"4","last_reported":1728421737,"current_range_meters":14000,"station_id":"ce4bha12rcd13ifvqee0","pricing_plan_id":"cebpf4jnsgd1na2vs0mg"},{"bike_id":"d74661f0-830d-4988-b75c-49337b55f926","system_id":"levelo_inurba_marseille","lat":43.32153,"lon":5.38641,"is_reserved":false,"is_disabled":false,"rental_uris":{"android":"levelo://app?vid=d74661f0-830d-4988-b75c-49337b55f926","ios":"levelo://app?vid=d74661f0-830d-4988-b75c-49337b55f926"},"vehicle_type_id":"4","last_reported":1728421737,"current_range_meters":30400,"station_id":"","pricing_plan_id":"cebpf4jnsgd1na2vs0mg"},{"bike_id":"f2ca1e44-e304-48eb-ae87-fe965c250b6f","system_id":"levelo_inurba_marseille","lat":43.2467,"lon":5.38159,"is_reserved":false,"is_disabled":false,"rental_uris":{"android":"levelo://app?vid=f2ca1e44-e304-48eb-ae87-fe965c250b6f","ios":"levelo://app?vid=f2ca1e44-e304-48eb-ae87-fe965c250b6f"},"vehicle_type_id":"4","last_reported":1728421737,"current_range_meters":24000,"station_id":"ce4bhih2rcd13ifvqfr0","pricing_plan_id":"cebpf4jnsgd1na2vs0mg"},{"bike_id":"2795bedb-4905-4643-86e1-987aafd52090","system_id":"levelo_inurba_marseille","lat":43.24082,"lon":5.37752,"is_reserved":false,"is_disabled":false,"rental_uris":{"android":"levelo://app?vid=2795bedb-4905-4643-86e1-987aafd52090","ios":"levelo://app?vid=2795bedb-4905-4643-86e1-987aafd52090"},"vehicle_type_id":"4","last_reported":1728421737,"current_range_meters":10000,"station_id":"ce4bhnp2rcd13ifvqgvg","pricing_plan_id":"cebpf4jnsgd1na2vs0mg"},{"bike_id":"4700db27-b328-4da7-b5f9-137896b15491","system_id":"levelo_inurba_marseille","lat":43.27827,"lon":5.40717,"is_reserved":false,"is_disabled":false,"rental_uris":{"android":"levelo://app?vid=4700db27-b328-4da7-b5f9-137896b15491","ios":"levelo://app?vid=4700db27-b328-4da7-b5f9-137896b15491"},"vehicle_type_id":"4","last_reported":1728421737,"current_range_meters":30800,"station_id":"ce4bhnh2rcd13ifvqgtg","pricing_plan_id":"cebpf4jnsgd1na2vs0mg"},{"bike_id":"9dcfb907-c7dd-4c2d-a961-3d4ea695a7fe","system_id":"levelo_inurba_marseille","lat":43.28614,"lon":5.35105,"is_reserved":false,"is_disabled":false,"rental_uris":{"android":"levelo://app?vid=9dcfb907-c7dd-4c2d-a961-3d4ea695a7fe","ios":"levelo://app?vid=9dcfb907-c7dd-4c2d-a961-3d4ea695a7fe"},"vehicle_type_id":"4","last_reported":1728421737,"current_range_meters":11200,"station_id":"ce4bhch2rcd13ifvqeug","pricing_plan_id":"cebpf4jnsgd1na2vs0mg"},{"bike_id":"14578538-07ea-4061-88ab-838f1fb2830e","system_id":"levelo_inurba_marseille","lat":43.28702,"lon":5.39975,"is_reserved":false,"is_disabled":false,"rental_uris":{"android":"levelo://app?vid=14578538-07ea-4061-88ab-838f1fb2830e","ios":"levelo://app?vid=14578538-07ea-4061-88ab-838f1fb2830e"},"vehicle_type_id":"4","last_reported":1728421737,"current_range_meters":5600,"station_id":"ce4bho92rcd13ifvqh3g","pricing_plan_id":"cebpf4jnsgd1na2vs0mg"},{"bike_id":"076a1fe4-5d8c-477b-9f26-1cef2268f27c","system_id":"levelo_inurba_marseille","lat":43.294128,"lon":5.386181,"is_reserved":false,"is_disabled":false,"rental_uris":{"android":"levelo://app?vid=076a1fe4-5d8c-477b-9f26-1cef2268f27c","ios":"levelo://app?vid=076a1fe4-5d8c-477b-9f26-1cef2268f27c"},"vehicle_type_id":"4","last_reported":1728421737,"current_range_meters":15200,"station_id":"ce4bh3h2rcd13ifvqdo0","pricing_plan_id":"cebpf4jnsgd1na2vs0mg"},{"bike_id":"72f390d6-8036-4225-a9fd-bbdc6e34eeea","system_id":"levelo_inurba_marseille","lat":43.23186,"lon":5.39984,"is_reserved":false,"is_disabled":false,"rental_uris":{"android":"levelo://app?vid=72f390d6-8036-4225-a9fd-bbdc6e34eeea","ios":"levelo://app?vid=72f390d6-8036-4225-a9fd-bbdc6e34eeea"},"vehicle_type_id":"4","last_reported":1728421737,"current_range_meters":36400,"station_id":"ce4bhn12rcd13ifvqgqg","pricing_plan_id":"cebpf4jnsgd1na2vs0mg"},{"bike_id":"714107bd-ae76-4985-a869-3353cdfa3255","system_id":"levelo_inurba_marseille","lat":43.32289,"lon":5.38281,"is_reserved":false,"is_disabled":false,"rental_uris":{"android":"levelo://app?vid=714107bd-ae76-4985-a869-3353cdfa3255","ios":"levelo://app?vid=714107bd-ae76-4985-a869-3353cdfa3255"},"vehicle_type_id":"4","last_reported":1728421737,"current_range_meters":21600,"station_id":"ce4bhr12rcd13ifvqhqg","pricing_plan_id":"cebpf4jnsgd1na2vs0mg"},{"bike_id":"7859a7fc-f221-492d-8d9e-4f38314159d9","system_id":"levelo_inurba_marseille","lat":43.24809,"lon":5.37458,"is_reserved":false,"is_disabled":false,"rental_uris":{"android":"levelo://app?vid=7859a7fc-f221-492d-8d9e-4f38314159d9","ios":"levelo://app?vid=7859a7fc-f221-492d-8d9e-4f38314159d9"},"vehicle_type_id":"4","last_reported":1728421737,"current_range_meters":39200,"station_id":"ce4bhgh2rcd13ifvqfb0","pricing_plan_id":"cebpf4jnsgd1na2vs0mg"},{"bike_id":"2bb8ae6c-7b17-45f6-ae2f-a94631598955","system_id":"levelo_inurba_marseille","lat":43.22928,"lon":5.35377,"is_reserved":false,"is_disabled":false,"rental_uris":{"android":"levelo://app?vid=2bb8ae6c-7b17-45f6-ae2f-a94631598955","ios":"levelo://app?vid=2bb8ae6c-7b17-45f6-ae2f-a94631598955"},"vehicle_type_id":"4","last_reported":1728421737,"current_range_meters":19200,"station_id":"cpo3532slgdg3j2ikp40","pricing_plan_id":"cebpf4jnsgd1na2vs0mg"},{"bike_id":"1108f945-2562-4a37-b07f-6ae5d87c264e","system_id":"levelo_inurba_marseille","lat":43.337444,"lon":5.374475,"is_reserved":false,"is_disabled":false,"rental_uris":{"android":"levelo://app?vid=1108f945-2562-4a37-b07f-6ae5d87c264e","ios":"levelo://app?vid=1108f945-2562-4a37-b07f-6ae5d87c264e"},"vehicle_type_id":"4","last_reported":1728421737,"current_range_meters":36400,"station_id":"","pricing_plan_id":"cebpf4jnsgd1na2vs0mg"},{"bike_id":"e9cbddf3-3db4-4f44-9957-89549aad434d","system_id":"levelo_inurba_marseille","lat":43.29741,"lon":5.38104,"is_reserved":false,"is_disabled":false,"rental_uris":{"android":"levelo://app?vid=e9cbddf3-3db4-4f44-9957-89549aad434d","ios":"levelo://app?vid=e9cbddf3-3db4-4f44-9957-89549aad434d"},"vehicle_type_id":"4","last_reported":1728421737,"current_range_meters":8800,"station_id":"","pricing_plan_id":"cebpf4jnsgd1na2vs0mg"},{"bike_id":"8bd6fd30-094c-4d3f-8529-044837d92131","system_id":"levelo_inurba_marseille","lat":43.27177,"lon":5.40988,"is_reserved":false,"is_disabled":false,"rental_uris":{"android":"levelo://app?vid=8bd6fd30-094c-4d3f-8529-044837d92131","ios":"levelo://app?vid=8bd6fd30-094c-4d3f-8529-044837d92131"},"vehicle_type_id":"4","last_reported":1728421737,"current_range_meters":30000,"station_id":"ce4bhl12rcd13ifvqgf0","pricing_plan_id":"cebpf4jnsgd1na2vs0mg"},{"bike_id":"b4c76401-0432-4f05-908b-d6e6c8549326","system_id":"levelo_inurba_marseille","lat":43.3133,"lon":5.39695,"is_reserved":false,"is_disabled":false,"rental_uris":{"android":"levelo://app?vid=b4c76401-0432-4f05-908b-d6e6c8549326","ios":"levelo://app?vid=b4c76401-0432-4f05-908b-d6e6c8549326"},"vehicle_type_id":"4","last_reported":1728421737,"current_range_meters":39200,"station_id":"ce4bgvp2rcd13ifvqcu0","pricing_plan_id":"cebpf4jnsgd1na2vs0mg"},{"bike_id":"d97ef086-b101-46be-b171-9933c814020e","system_id":"levelo_inurba_marseille","lat":43.3255,"lon":5.41436,"is_reserved":false,"is_disabled":false,"rental_uris":{"android":"levelo://app?vid=d97ef086-b101-46be-b171-9933c814020e","ios":"levelo://app?vid=d97ef086-b101-46be-b171-9933c814020e"},"vehicle_type_id":"4","last_reported":1728421737,"current_range_meters":24800,"station_id":"ce4bhq12rcd13ifvqhhg","pricing_plan_id":"cebpf4jnsgd1na2vs0mg"},{"bike_id":"c887f412-ea8d-487c-ab0e-69fd90f37ecb","system_id":"levelo_inurba_marseille","lat":43.33601,"lon":5.41025,"is_reserved":false,"is_disabled":false,"rental_uris":{"android":"levelo://app?vid=c887f412-ea8d-487c-ab0e-69fd90f37ecb","ios":"levelo://app?vid=c887f412-ea8d-487c-ab0e-69fd90f37ecb"},"vehicle_type_id":"4","last_reported":1728421737,"current_range_meters":39200,"station_id":"ce4bhqh2rcd13ifvqhmg","pricing_plan_id":"cebpf4jnsgd1na2vs0mg"},{"bike_id":"6e616ff0-60e5-4108-a275-5ee1104eb036","system_id":"levelo_inurba_marseille","lat":43.23146,"lon":5.43721,"is_reserved":false,"is_disabled":false,"rental_uris":{"android":"levelo://app?vid=6e616ff0-60e5-4108-a275-5ee1104eb036","ios":"levelo://app?vid=6e616ff0-60e5-4108-a275-5ee1104eb036"},"vehicle_type_id":"4","last_reported":1728421737,"current_range_meters":17600,"station_id":"ce4bhmp2rcd13ifvqgog","pricing_plan_id":"cebpf4jnsgd1na2vs0mg"},{"bike_id":"c12c46a4-bd86-493d-803e-5d507cd7924b","system_id":"levelo_inurba_marseille","lat":43.23204,"lon":5.35543,"is_reserved":false,"is_disabled":false,"rental_uris":{"android":"levelo://app?vid=c12c46a4-bd86-493d-803e-5d507cd7924b","ios":"levelo://app?vid=c12c46a4-bd86-493d-803e-5d507cd7924b"},"vehicle_type_id":"4","last_reported":1728421737,"current_range_meters":16400,"station_id":"ce4bhu92rcd13ifvqi70","pricing_plan_id":"cebpf4jnsgd1na2vs0mg"},{"bike_id":"1e22ea5d-d406-4b63-92d6-06a783dc0af8","system_id":"levelo_inurba_marseille","lat":43.23182,"lon":5.3998,"is_reserved":false,"is_disabled":false,"rental_uris":{"android":"levelo://app?vid=1e22ea5d-d406-4b63-92d6-06a783dc0af8","ios":"levelo://app?vid=1e22ea5d-d406-4b63-92d6-06a783dc0af8"},"vehicle_type_id":"4","last_reported":1728421737,"current_range_meters":16400,"station_id":"ce4bhn12rcd13ifvqgqg","pricing_plan_id":"cebpf4jnsgd1na2vs0mg"},{"bike_id":"8342a0a5-17b2-4524-a2d2-e2cbce1247d1","system_id":"levelo_inurba_marseille","lat":43.25096,"lon":5.39512,"is_reserved":false,"is_disabled":false,"rental_uris":{"android":"levelo://app?vid=8342a0a5-17b2-4524-a2d2-e2cbce1247d1","ios":"levelo://app?vid=8342a0a5-17b2-4524-a2d2-e2cbce1247d1"},"vehicle_type_id":"4","last_reported":1728421737,"current_range_meters":15200,"station_id":"ce4bhm12rcd13ifvqgkg","pricing_plan_id":"cebpf4jnsgd1na2vs0mg"},{"bike_id":"662f4970-f45a-4eb7-8b5b-5f2d14dbdf57","system_id":"levelo_inurba_marseille","lat":43.26684,"lon":5.38284,"is_reserved":false,"is_disabled":false,"rental_uris":{"android":"levelo://app?vid=662f4970-f45a-4eb7-8b5b-5f2d14dbdf57","ios":"levelo://app?vid=662f4970-f45a-4eb7-8b5b-5f2d14dbdf57"},"vehicle_type_id":"4","last_reported":1728421737,"current_range_meters":36000,"station_id":"ce4bhg92rcd13ifvqf90","pricing_plan_id":"cebpf4jnsgd1na2vs0mg"},{"bike_id":"ebbe9305-8d38-453e-9b7f-2d43ee783e63","system_id":"levelo_inurba_marseille","lat":43.288496,"lon":5.370468,"is_reserved":false,"is_disabled":false,"rental_uris":{"android":"levelo://app?vid=ebbe9305-8d38-453e-9b7f-2d43ee783e63","ios":"levelo://app?vid=ebbe9305-8d38-453e-9b7f-2d43ee783e63"},"vehicle_type_id":"4","last_reported":1728421737,"current_range_meters":28800,"station_id":"","pricing_plan_id":"cebpf4jnsgd1na2vs0mg"},{"bike_id":"0574c1a0-3cc8-4f7d-b926-8637ca5584a1","system_id":"levelo_inurba_marseille","lat":43.28269,"lon":5.35062,"is_reserved":false,"is_disabled":false,"rental_uris":{"android":"levelo://app?vid=0574c1a0-3cc8-4f7d-b926-8637ca5584a1","ios":"levelo://app?vid=0574c1a0-3cc8-4f7d-b926-8637ca5584a1"},"vehicle_type_id":"4","last_reported":1728421737,"current_range_meters":38400,"station_id":"ce4bhbp2rcd13ifvqerg","pricing_plan_id":"cebpf4jnsgd1na2vs0mg"},{"bike_id":"ff37f7e1-e99a-4b52-86d8-31b7b45f3954","system_id":"levelo_inurba_marseille","lat":43.31064,"lon":5.38351,"is_reserved":false,"is_disabled":false,"rental_uris":{"android":"levelo://app?vid=ff37f7e1-e99a-4b52-86d8-31b7b45f3954","ios":"levelo://app?vid=ff37f7e1-e99a-4b52-86d8-31b7b45f3954"},"vehicle_type_id":"4","last_reported":1728421737,"current_range_meters":39200,"station_id":"ce4bgv92rcd13ifvqcr0","pricing_plan_id":"cebpf4jnsgd1na2vs0mg"},{"bike_id":"c0691f4d-dfb2-42e9-a4fe-2cf03229ac6d","system_id":"levelo_inurba_marseille","lat":43.29187,"lon":5.383053,"is_reserved":false,"is_disabled":false,"rental_uris":{"android":"levelo://app?vid=c0691f4d-dfb2-42e9-a4fe-2cf03229ac6d","ios":"levelo://app?vid=c0691f4d-dfb2-42e9-a4fe-2cf03229ac6d"},"vehicle_type_id":"4","last_reported":1728421737,"current_range_meters":30400,"station_id":"ce4bhah2rcd13ifvqei0","pricing_plan_id":"cebpf4jnsgd1na2vs0mg"},{"bike_id":"c696e5df-06f4-4484-bed8-68c701cf25c1","system_id":"levelo_inurba_marseille","lat":43.28701,"lon":5.37383,"is_reserved":false,"is_disabled":false,"rental_uris":{"android":"levelo://app?vid=c696e5df-06f4-4484-bed8-68c701cf25c1","ios":"levelo://app?vid=c696e5df-06f4-4484-bed8-68c701cf25c1"},"vehicle_type_id":"4","last_reported":1728421737,"current_range_meters":35200,"station_id":"ce4bh3p2rcd13ifvqdq0","pricing_plan_id":"cebpf4jnsgd1na2vs0mg"},{"bike_id":"ce0b03a7-4b03-4bd7-928b-a4a84159b584","system_id":"levelo_inurba_marseille","lat":43.2396,"lon":5.36633,"is_reserved":false,"is_disabled":false,"rental_uris":{"android":"levelo://app?vid=ce0b03a7-4b03-4bd7-928b-a4a84159b584","ios":"levelo://app?vid=ce0b03a7-4b03-4bd7-928b-a4a84159b584"},"vehicle_type_id":"4","last_reported":1728421737,"current_range_meters":39200,"station_id":"ce4bhi12rcd13ifvqfp0","pricing_plan_id":"cebpf4jnsgd1na2vs0mg"},{"bike_id":"f2fb36e6-c40d-4117-91af-ee9819d24f58","system_id":"levelo_inurba_marseille","lat":43.29287,"lon":5.40141,"is_reserved":false,"is_disabled":false,"rental_uris":{"android":"levelo://app?vid=f2fb36e6-c40d-4117-91af-ee9819d24f58","ios":"levelo://app?vid=f2fb36e6-c40d-4117-91af-ee9819d24f58"},"vehicle_type_id":"4","last_reported":1728421737,"current_range_meters":36400,"station_id":"ce4bh312rcd13ifvqdk0","pricing_plan_id":"cebpf4jnsgd1na2vs0mg"},{"bike_id":"ec064514-133e-4489-9db9-c55c86f65b9b","system_id":"levelo_inurba_marseille","lat":43.28089,"lon":5.3966,"is_reserved":false,"is_disabled":false,"rental_uris":{"android":"levelo://app?vid=ec064514-133e-4489-9db9-c55c86f65b9b","ios":"levelo://app?vid=ec064514-133e-4489-9db9-c55c86f65b9b"},"vehicle_type_id":"4","last_reported":1728421737,"current_range_meters":38800,"station_id":"ce4bho12rcd13ifvqh2g","pricing_plan_id":"cebpf4jnsgd1na2vs0mg"},{"bike_id":"d50ea010-9a82-45c6-a16c-8946744458ab","system_id":"levelo_inurba_marseille","lat":43.28673,"lon":5.36351,"is_reserved":false,"is_disabled":false,"rental_uris":{"android":"levelo://app?vid=d50ea010-9a82-45c6-a16c-8946744458ab","ios":"levelo://app?vid=d50ea010-9a82-45c6-a16c-8946744458ab"},"vehicle_type_id":"4","last_reported":1728421737,"current_range_meters":24000,"station_id":"ce4bhah2rcd13ifvqej0","pricing_plan_id":"cebpf4jnsgd1na2vs0mg"},{"bike_id":"a96960fb-1ae0-4688-92ce-8bc122ef6c6a","system_id":"levelo_inurba_marseille","lat":43.31333,"lon":5.39702,"is_reserved":false,"is_disabled":false,"rental_uris":{"android":"levelo://app?vid=a96960fb-1ae0-4688-92ce-8bc122ef6c6a","ios":"levelo://app?vid=a96960fb-1ae0-4688-92ce-8bc122ef6c6a"},"vehicle_type_id":"4","last_reported":1728421737,"current_range_meters":38800,"station_id":"ce4bgvp2rcd13ifvqcu0","pricing_plan_id":"cebpf4jnsgd1na2vs0mg"},{"bike_id":"ab58da5c-f39a-4108-8290-f35621db6eb5","system_id":"levelo_inurba_marseille","lat":43.31688,"lon":5.37765,"is_reserved":false,"is_disabled":false,"rental_uris":{"android":"levelo://app?vid=ab58da5c-f39a-4108-8290-f35621db6eb5","ios":"levelo://app?vid=ab58da5c-f39a-4108-8290-f35621db6eb5"},"vehicle_type_id":"4","last_reported":1728421737,"current_range_meters":39200,"station_id":"ce4bgth2rcd13ifvqch0","pricing_plan_id":"cebpf4jnsgd1na2vs0mg"},{"bike_id":"1a16b4b2-3882-45ac-8e9c-156fab61c883","system_id":"levelo_inurba_marseille","lat":43.2707,"lon":5.42281,"is_reserved":false,"is_disabled":false,"rental_uris":{"android":"levelo://app?vid=1a16b4b2-3882-45ac-8e9c-156fab61c883","ios":"levelo://app?vid=1a16b4b2-3882-45ac-8e9c-156fab61c883"},"vehicle_type_id":"4","last_reported":1728421737,"current_range_meters":5600,"station_id":"ce4bhk92rcd13ifvqgb0","pricing_plan_id":"cebpf4jnsgd1na2vs0mg"},{"bike_id":"61bb2e34-c24f-4f6a-a7ed-093f2a1bc2f5","system_id":"levelo_inurba_marseille","lat":43.28937,"lon":5.36636,"is_reserved":false,"is_disabled":false,"rental_uris":{"android":"levelo://app?vid=61bb2e34-c24f-4f6a-a7ed-093f2a1bc2f5","ios":"levelo://app?vid=61bb2e34-c24f-4f6a-a7ed-093f2a1bc2f5"},"vehicle_type_id":"4","last_reported":1728421737,"current_range_meters":38800,"station_id":"ce4bhap2rcd13ifvqek0","pricing_plan_id":"cebpf4jnsgd1na2vs0mg"},{"bike_id":"e8f38f77-6572-42be-9296-0cbe6e7cb972","system_id":"levelo_inurba_marseille","lat":43.23054,"lon":5.35492,"is_reserved":false,"is_disabled":false,"rental_uris":{"android":"levelo://app?vid=e8f38f77-6572-42be-9296-0cbe6e7cb972","ios":"levelo://app?vid=e8f38f77-6572-42be-9296-0cbe6e7cb972"},"vehicle_type_id":"4","last_reported":1728421737,"current_range_meters":30000,"station_id":"cpo3342slgdg3j2ifvpg","pricing_plan_id":"cebpf4jnsgd1na2vs0mg"},{"bike_id":"166e18fe-66a6-4f65-8b87-4b97a68421e8","system_id":"levelo_inurba_marseille","lat":43.30463,"lon":5.40179,"is_reserved":false,"is_disabled":false,"rental_uris":{"android":"levelo://app?vid=166e18fe-66a6-4f65-8b87-4b97a68421e8","ios":"levelo://app?vid=166e18fe-66a6-4f65-8b87-4b97a68421e8"},"vehicle_type_id":"4","last_reported":1728421737,"current_range_meters":11200,"station_id":"","pricing_plan_id":"cebpf4jnsgd1na2vs0mg"},{"bike_id":"73197709-5931-4507-9083-15d482770d36","system_id":"levelo_inurba_marseille","lat":43.30605,"lon":5.37225,"is_reserved":false,"is_disabled":false,"rental_uris":{"android":"levelo://app?vid=73197709-5931-4507-9083-15d482770d36","ios":"levelo://app?vid=73197709-5931-4507-9083-15d482770d36"},"vehicle_type_id":"4","last_reported":1728421737,"current_range_meters":19600,"station_id":"ce4bgqh2rcd13ifvqc4g","pricing_plan_id":"cebpf4jnsgd1na2vs0mg"},{"bike_id":"1a312de3-74a7-445a-ba8d-2b9575083afb","system_id":"levelo_inurba_marseille","lat":43.32477,"lon":5.36573,"is_reserved":false,"is_disabled":false,"rental_uris":{"android":"levelo://app?vid=1a312de3-74a7-445a-ba8d-2b9575083afb","ios":"levelo://app?vid=1a312de3-74a7-445a-ba8d-2b9575083afb"},"vehicle_type_id":"4","last_reported":1728421737,"current_range_meters":37600,"station_id":"ce4bhs12rcd13ifvqhvg","pricing_plan_id":"cebpf4jnsgd1na2vs0mg"},{"bike_id":"e8f09d7c-8742-4833-a698-54878d39b10c","system_id":"levelo_inurba_marseille","lat":43.28284,"lon":5.35076,"is_reserved":false,"is_disabled":false,"rental_uris":{"android":"levelo://app?vid=e8f09d7c-8742-4833-a698-54878d39b10c","ios":"levelo://app?vid=e8f09d7c-8742-4833-a698-54878d39b10c"},"vehicle_type_id":"4","last_reported":1728421737,"current_range_meters":22800,"station_id":"ce4bhbp2rcd13ifvqerg","pricing_plan_id":"cebpf4jnsgd1na2vs0mg"},{"bike_id":"a29c54b5-4303-4a3a-94d7-ad398b347ba6","system_id":"levelo_inurba_marseille","lat":43.27916,"lon":5.39591,"is_reserved":false,"is_disabled":false,"rental_uris":{"android":"levelo://app?vid=a29c54b5-4303-4a3a-94d7-ad398b347ba6","ios":"levelo://app?vid=a29c54b5-4303-4a3a-94d7-ad398b347ba6"},"vehicle_type_id":"4","last_reported":1728421737,"current_range_meters":28000,"station_id":"ce4bhf92rcd13ifvqf40","pricing_plan_id":"cebpf4jnsgd1na2vs0mg"},{"bike_id":"1302f1d5-5433-4f37-bda5-bf64fc3e260b","system_id":"levelo_inurba_marseille","lat":43.298704,"lon":5.397348,"is_reserved":false,"is_disabled":false,"rental_uris":{"android":"levelo://app?vid=1302f1d5-5433-4f37-bda5-bf64fc3e260b","ios":"levelo://app?vid=1302f1d5-5433-4f37-bda5-bf64fc3e260b"},"vehicle_type_id":"4","last_reported":1728421737,"current_range_meters":4800,"station_id":"ce4bh0h2rcd13ifvqd50","pricing_plan_id":"cebpf4jnsgd1na2vs0mg"},{"bike_id":"27990b65-6928-4044-8b6b-0fd7c4f76242","system_id":"levelo_inurba_marseille","lat":43.29884,"lon":5.39742,"is_reserved":false,"is_disabled":false,"rental_uris":{"android":"levelo://app?vid=27990b65-6928-4044-8b6b-0fd7c4f76242","ios":"levelo://app?vid=27990b65-6928-4044-8b6b-0fd7c4f76242"},"vehicle_type_id":"4","last_reported":1728421737,"current_range_meters":10800,"station_id":"ce4bh0h2rcd13ifvqd50","pricing_plan_id":"cebpf4jnsgd1na2vs0mg"},{"bike_id":"d19fa051-28af-4400-ab05-672935e249d8","system_id":"levelo_inurba_marseille","lat":43.29259,"lon":5.38438,"is_reserved":false,"is_disabled":false,"rental_uris":{"android":"levelo://app?vid=d19fa051-28af-4400-ab05-672935e249d8","ios":"levelo://app?vid=d19fa051-28af-4400-ab05-672935e249d8"},"vehicle_type_id":"4","last_reported":1728421737,"current_range_meters":38000,"station_id":"ce4bh692rcd13ifvqea0","pricing_plan_id":"cebpf4jnsgd1na2vs0mg"},{"bike_id":"e61c3a29-6607-40e9-b0b8-328b07bd30c4","system_id":"levelo_inurba_marseille","lat":43.25118,"lon":5.40324,"is_reserved":false,"is_disabled":false,"rental_uris":{"android":"levelo://app?vid=e61c3a29-6607-40e9-b0b8-328b07bd30c4","ios":"levelo://app?vid=e61c3a29-6607-40e9-b0b8-328b07bd30c4"},"vehicle_type_id":"4","last_reported":1728421737,"current_range_meters":38000,"station_id":"ce4bhlh2rcd13ifvqgig","pricing_plan_id":"cebpf4jnsgd1na2vs0mg"},{"bike_id":"f1fa1e77-7918-4922-b3b7-f1f80240a5aa","system_id":"levelo_inurba_marseille","lat":43.30643,"lon":5.40097,"is_reserved":false,"is_disabled":false,"rental_uris":{"android":"levelo://app?vid=f1fa1e77-7918-4922-b3b7-f1f80240a5aa","ios":"levelo://app?vid=f1fa1e77-7918-4922-b3b7-f1f80240a5aa"},"vehicle_type_id":"4","last_reported":1728421737,"current_range_meters":23200,"station_id":"ce4bh112rcd13ifvqda0","pricing_plan_id":"cebpf4jnsgd1na2vs0mg"},{"bike_id":"8ad55eee-602b-4949-a535-c4965d8587b5","system_id":"levelo_inurba_marseille","lat":43.31327,"lon":5.39693,"is_reserved":false,"is_disabled":false,"rental_uris":{"android":"levelo://app?vid=8ad55eee-602b-4949-a535-c4965d8587b5","ios":"levelo://app?vid=8ad55eee-602b-4949-a535-c4965d8587b5"},"vehicle_type_id":"4","last_reported":1728421737,"current_range_meters":39200,"station_id":"ce4bgvp2rcd13ifvqcu0","pricing_plan_id":"cebpf4jnsgd1na2vs0mg"},{"bike_id":"ccf35b56-07ed-4d71-b000-5fba20236cfb","system_id":"levelo_inurba_marseille","lat":43.2707,"lon":5.42282,"is_reserved":false,"is_disabled":false,"rental_uris":{"android":"levelo://app?vid=ccf35b56-07ed-4d71-b000-5fba20236cfb","ios":"levelo://app?vid=ccf35b56-07ed-4d71-b000-5fba20236cfb"},"vehicle_type_id":"4","last_reported":1728421737,"current_range_meters":14400,"station_id":"ce4bhk92rcd13ifvqgb0","pricing_plan_id":"cebpf4jnsgd1na2vs0mg"},{"bike_id":"6b5f667d-4c11-4178-9fd3-b47767185029","system_id":"levelo_inurba_marseille","lat":43.29281,"lon":5.40128,"is_reserved":false,"is_disabled":false,"rental_uris":{"android":"levelo://app?vid=6b5f667d-4c11-4178-9fd3-b47767185029","ios":"levelo://app?vid=6b5f667d-4c11-4178-9fd3-b47767185029"},"vehicle_type_id":"4","last_reported":1728421737,"current_range_meters":16400,"station_id":"ce4bh312rcd13ifvqdk0","pricing_plan_id":"cebpf4jnsgd1na2vs0mg"},{"bike_id":"b5142c12-3f3f-452c-853c-bcb33ce12fbf","system_id":"levelo_inurba_marseille","lat":43.23187,"lon":5.35544,"is_reserved":false,"is_disabled":false,"rental_uris":{"android":"levelo://app?vid=b5142c12-3f3f-452c-853c-bcb33ce12fbf","ios":"levelo://app?vid=b5142c12-3f3f-452c-853c-bcb33ce12fbf"},"vehicle_type_id":"4","last_reported":1728421737,"current_range_meters":36400,"station_id":"ce4bhu92rcd13ifvqi70","pricing_plan_id":"cebpf4jnsgd1na2vs0mg"},{"bike_id":"41cbd591-be75-4a59-afc5-fbe9986717e5","system_id":"levelo_inurba_marseille","lat":43.30872,"lon":5.39638,"is_reserved":false,"is_disabled":false,"rental_uris":{"android":"levelo://app?vid=41cbd591-be75-4a59-afc5-fbe9986717e5","ios":"levelo://app?vid=41cbd591-be75-4a59-afc5-fbe9986717e5"},"vehicle_type_id":"4","last_reported":1728421737,"current_range_meters":17600,"station_id":"ce4bh012rcd13ifvqcv0","pricing_plan_id":"cebpf4jnsgd1na2vs0mg"},{"bike_id":"21de6ba0-bc03-48e1-8d9f-f875bba9c5b9","system_id":"levelo_inurba_marseille","lat":43.308,"lon":5.43523,"is_reserved":false,"is_disabled":false,"rental_uris":{"android":"levelo://app?vid=21de6ba0-bc03-48e1-8d9f-f875bba9c5b9","ios":"levelo://app?vid=21de6ba0-bc03-48e1-8d9f-f875bba9c5b9"},"vehicle_type_id":"4","last_reported":1728421737,"current_range_meters":10800,"station_id":"ce4bhph2rcd13ifvqheg","pricing_plan_id":"cebpf4jnsgd1na2vs0mg"},{"bike_id":"68fe04c0-5d75-45e6-beba-6d59590df5a2","system_id":"levelo_inurba_marseille","lat":43.30798,"lon":5.43522,"is_reserved":false,"is_disabled":false,"rental_uris":{"android":"levelo://app?vid=68fe04c0-5d75-45e6-beba-6d59590df5a2","ios":"levelo://app?vid=68fe04c0-5d75-45e6-beba-6d59590df5a2"},"vehicle_type_id":"4","last_reported":1728421737,"current_range_meters":8800,"station_id":"ce4bhph2rcd13ifvqheg","pricing_plan_id":"cebpf4jnsgd1na2vs0mg"},{"bike_id":"fa1bbc51-e1e1-4088-81f5-a0e8b7769bb0","system_id":"levelo_inurba_marseille","lat":43.29254,"lon":5.409,"is_reserved":false,"is_disabled":false,"rental_uris":{"android":"levelo://app?vid=fa1bbc51-e1e1-4088-81f5-a0e8b7769bb0","ios":"levelo://app?vid=fa1bbc51-e1e1-4088-81f5-a0e8b7769bb0"},"vehicle_type_id":"4","last_reported":1728421737,"current_range_meters":39200,"station_id":"ce4bh192rcd13ifvqdc0","pricing_plan_id":"cebpf4jnsgd1na2vs0mg"},{"bike_id":"8e3669e3-0cc0-4473-bf2c-3229597f49cf","system_id":"levelo_inurba_marseille","lat":43.31181,"lon":5.38718,"is_reserved":false,"is_disabled":false,"rental_uris":{"android":"levelo://app?vid=8e3669e3-0cc0-4473-bf2c-3229597f49cf","ios":"levelo://app?vid=8e3669e3-0cc0-4473-bf2c-3229597f49cf"},"vehicle_type_id":"4","last_reported":1728421737,"current_range_meters":38800,"station_id":"ce4bgv12rcd13ifvqcp0","pricing_plan_id":"cebpf4jnsgd1na2vs0mg"},{"bike_id":"774e6f17-b939-4570-ac09-435652952c86","system_id":"levelo_inurba_marseille","lat":43.30799,"lon":5.43524,"is_reserved":false,"is_disabled":false,"rental_uris":{"android":"levelo://app?vid=774e6f17-b939-4570-ac09-435652952c86","ios":"levelo://app?vid=774e6f17-b939-4570-ac09-435652952c86"},"vehicle_type_id":"4","last_reported":1728421737,"current_range_meters":26000,"station_id":"ce4bhph2rcd13ifvqheg","pricing_plan_id":"cebpf4jnsgd1na2vs0mg"},{"bike_id":"57ef6de0-9539-4d46-a678-83c1acb5fcaf","system_id":"levelo_inurba_marseille","lat":43.26804,"lon":5.40262,"is_reserved":false,"is_disabled":false,"rental_uris":{"android":"levelo://app?vid=57ef6de0-9539-4d46-a678-83c1acb5fcaf","ios":"levelo://app?vid=57ef6de0-9539-4d46-a678-83c1acb5fcaf"},"vehicle_type_id":"4","last_reported":1728421737,"current_range_meters":32000,"station_id":"ce501612rcd8frsf0b60","pricing_plan_id":"cebpf4jnsgd1na2vs0mg"},{"bike_id":"213d39cb-ed73-406e-9edc-73f49befcc73","system_id":"levelo_inurba_marseille","lat":43.29549,"lon":5.42285,"is_reserved":false,"is_disabled":false,"rental_uris":{"android":"levelo://app?vid=213d39cb-ed73-406e-9edc-73f49befcc73","ios":"levelo://app?vid=213d39cb-ed73-406e-9edc-73f49befcc73"},"vehicle_type_id":"4","last_reported":1728421737,"current_range_meters":33200,"station_id":"ce4bhph2rcd13ifvqhdg","pricing_plan_id":"cebpf4jnsgd1na2vs0mg"},{"bike_id":"eef20880-69ac-46a0-bf41-cb04e825b119","system_id":"levelo_inurba_marseille","lat":43.31364,"lon":5.38492,"is_reserved":false,"is_disabled":false,"rental_uris":{"android":"levelo://app?vid=eef20880-69ac-46a0-bf41-cb04e825b119","ios":"levelo://app?vid=eef20880-69ac-46a0-bf41-cb04e825b119"},"vehicle_type_id":"4","last_reported":1728421737,"current_range_meters":39200,"station_id":"ce4bgt92rcd13ifvqcf0","pricing_plan_id":"cebpf4jnsgd1na2vs0mg"},{"bike_id":"276a12d0-ade6-4501-a766-99d833ede0c0","system_id":"levelo_inurba_marseille","lat":43.27902,"lon":5.38006,"is_reserved":false,"is_disabled":false,"rental_uris":{"android":"levelo://app?vid=276a12d0-ade6-4501-a766-99d833ede0c0","ios":"levelo://app?vid=276a12d0-ade6-4501-a766-99d833ede0c0"},"vehicle_type_id":"4","last_reported":1728421737,"current_range_meters":11600,"station_id":"ce4bhf92rcd13ifvqf50","pricing_plan_id":"cebpf4jnsgd1na2vs0mg"},{"bike_id":"75c417ac-9c4a-4f40-991f-acba0d9658ac","system_id":"levelo_inurba_marseille","lat":43.29253,"lon":5.40908,"is_reserved":false,"is_disabled":false,"rental_uris":{"android":"levelo://app?vid=75c417ac-9c4a-4f40-991f-acba0d9658ac","ios":"levelo://app?vid=75c417ac-9c4a-4f40-991f-acba0d9658ac"},"vehicle_type_id":"4","last_reported":1728421737,"current_range_meters":8400,"station_id":"ce4bh192rcd13ifvqdc0","pricing_plan_id":"cebpf4jnsgd1na2vs0mg"},{"bike_id":"017308ad-f481-4218-b7f9-5a36c9fab05f","system_id":"levelo_inurba_marseille","lat":43.23195,"lon":5.35554,"is_reserved":false,"is_disabled":false,"rental_uris":{"android":"levelo://app?vid=017308ad-f481-4218-b7f9-5a36c9fab05f","ios":"levelo://app?vid=017308ad-f481-4218-b7f9-5a36c9fab05f"},"vehicle_type_id":"4","last_reported":1728421737,"current_range_meters":22400,"station_id":"ce4bhu92rcd13ifvqi70","pricing_plan_id":"cebpf4jnsgd1na2vs0mg"},{"bike_id":"68daee59-ae9e-460c-b39c-ffbad830107f","system_id":"levelo_inurba_marseille","lat":43.28568,"lon":5.39499,"is_reserved":false,"is_disabled":false,"rental_uris":{"android":"levelo://app?vid=68daee59-ae9e-460c-b39c-ffbad830107f","ios":"levelo://app?vid=68daee59-ae9e-460c-b39c-ffbad830107f"},"vehicle_type_id":"4","last_reported":1728421737,"current_range_meters":16400,"station_id":"ce4bh292rcd13ifvqdg0","pricing_plan_id":"cebpf4jnsgd1na2vs0mg"},{"bike_id":"18dc9840-28f2-47db-a6c2-550f1ddbc175","system_id":"levelo_inurba_marseille","lat":43.31171,"lon":5.38706,"is_reserved":false,"is_disabled":false,"rental_uris":{"android":"levelo://app?vid=18dc9840-28f2-47db-a6c2-550f1ddbc175","ios":"levelo://app?vid=18dc9840-28f2-47db-a6c2-550f1ddbc175"},"vehicle_type_id":"4","last_reported":1728421737,"current_range_meters":38400,"station_id":"ce4bgv12rcd13ifvqcp0","pricing_plan_id":"cebpf4jnsgd1na2vs0mg"},{"bike_id":"5f5b34ea-c761-44ef-965d-2cd145c53c6a","system_id":"levelo_inurba_marseille","lat":43.23192,"lon":5.35547,"is_reserved":false,"is_disabled":false,"rental_uris":{"android":"levelo://app?vid=5f5b34ea-c761-44ef-965d-2cd145c53c6a","ios":"levelo://app?vid=5f5b34ea-c761-44ef-965d-2cd145c53c6a"},"vehicle_type_id":"4","last_reported":1728421737,"current_range_meters":8800,"station_id":"ce4bhu92rcd13ifvqi70","pricing_plan_id":"cebpf4jnsgd1na2vs0mg"},{"bike_id":"3979d91a-4fc5-48c9-8fab-84457478d405","system_id":"levelo_inurba_marseille","lat":43.30608,"lon":5.37219,"is_reserved":false,"is_disabled":false,"rental_uris":{"android":"levelo://app?vid=3979d91a-4fc5-48c9-8fab-84457478d405","ios":"levelo://app?vid=3979d91a-4fc5-48c9-8fab-84457478d405"},"vehicle_type_id":"4","last_reported":1728421737,"current_range_meters":37600,"station_id":"ce4bgqh2rcd13ifvqc4g","pricing_plan_id":"cebpf4jnsgd1na2vs0mg"},{"bike_id":"25b97d7f-446a-442d-be77-4356bed0b1aa","system_id":"levelo_inurba_marseille","lat":43.29286,"lon":5.40118,"is_reserved":false,"is_disabled":false,"rental_uris":{"android":"levelo://app?vid=25b97d7f-446a-442d-be77-4356bed0b1aa","ios":"levelo://app?vid=25b97d7f-446a-442d-be77-4356bed0b1aa"},"vehicle_type_id":"4","last_reported":1728421737,"current_range_meters":37600,"station_id":"ce4bh312rcd13ifvqdk0","pricing_plan_id":"cebpf4jnsgd1na2vs0mg"},{"bike_id":"a92f6206-1720-4e29-9ed4-ca1db6a5dc4b","system_id":"levelo_inurba_marseille","lat":43.29772,"lon":5.37401,"is_reserved":false,"is_disabled":false,"rental_uris":{"android":"levelo://app?vid=a92f6206-1720-4e29-9ed4-ca1db6a5dc4b","ios":"levelo://app?vid=a92f6206-1720-4e29-9ed4-ca1db6a5dc4b"},"vehicle_type_id":"4","last_reported":1728421737,"current_range_meters":24000,"station_id":"","pricing_plan_id":"cebpf4jnsgd1na2vs0mg"},{"bike_id":"4ab9f254-ccb8-4e88-87f7-c1bcee3c3514","system_id":"levelo_inurba_marseille","lat":43.23959,"lon":5.3664,"is_reserved":false,"is_disabled":false,"rental_uris":{"android":"levelo://app?vid=4ab9f254-ccb8-4e88-87f7-c1bcee3c3514","ios":"levelo://app?vid=4ab9f254-ccb8-4e88-87f7-c1bcee3c3514"},"vehicle_type_id":"4","last_reported":1728421737,"current_range_meters":38800,"station_id":"ce4bhi12rcd13ifvqfp0","pricing_plan_id":"cebpf4jnsgd1na2vs0mg"},{"bike_id":"e2d3c3a0-de00-42f4-9eca-de6205a9e51f","system_id":"levelo_inurba_marseille","lat":43.307675,"lon":5.400662,"is_reserved":false,"is_disabled":false,"rental_uris":{"android":"levelo://app?vid=e2d3c3a0-de00-42f4-9eca-de6205a9e51f","ios":"levelo://app?vid=e2d3c3a0-de00-42f4-9eca-de6205a9e51f"},"vehicle_type_id":"4","last_reported":1728421737,"current_range_meters":35200,"station_id":"ce4bh112rcd13ifvqda0","pricing_plan_id":"cebpf4jnsgd1na2vs0mg"},{"bike_id":"78bd0264-bc12-48d3-96d1-ec6fa3195a78","system_id":"levelo_inurba_marseille","lat":43.3138,"lon":5.38497,"is_reserved":false,"is_disabled":false,"rental_uris":{"android":"levelo://app?vid=78bd0264-bc12-48d3-96d1-ec6fa3195a78","ios":"levelo://app?vid=78bd0264-bc12-48d3-96d1-ec6fa3195a78"},"vehicle_type_id":"4","last_reported":1728421737,"current_range_meters":25600,"station_id":"ce4bgt92rcd13ifvqcf0","pricing_plan_id":"cebpf4jnsgd1na2vs0mg"},{"bike_id":"d564ec54-65e0-4738-a449-60cc6a180065","system_id":"levelo_inurba_marseille","lat":43.2649,"lon":5.39551,"is_reserved":false,"is_disabled":false,"rental_uris":{"android":"levelo://app?vid=d564ec54-65e0-4738-a449-60cc6a180065","ios":"levelo://app?vid=d564ec54-65e0-4738-a449-60cc6a180065"},"vehicle_type_id":"4","last_reported":1728421737,"current_range_meters":38000,"station_id":"ce4bhi12rcd13ifvqfq0","pricing_plan_id":"cebpf4jnsgd1na2vs0mg"},{"bike_id":"a77d3261-bb5d-4f17-8946-65abeeebe3ba","system_id":"levelo_inurba_marseille","lat":43.29025,"lon":5.38142,"is_reserved":false,"is_disabled":false,"rental_uris":{"android":"levelo://app?vid=a77d3261-bb5d-4f17-8946-65abeeebe3ba","ios":"levelo://app?vid=a77d3261-bb5d-4f17-8946-65abeeebe3ba"},"vehicle_type_id":"4","last_reported":1728421737,"current_range_meters":18000,"station_id":"ce4bh4p2rcd13ifvqe1g","pricing_plan_id":"cebpf4jnsgd1na2vs0mg"},{"bike_id":"498bbd01-c00d-4041-9182-db2128dad944","system_id":"levelo_inurba_marseille","lat":43.31712,"lon":5.43708,"is_reserved":false,"is_disabled":false,"rental_uris":{"android":"levelo://app?vid=498bbd01-c00d-4041-9182-db2128dad944","ios":"levelo://app?vid=498bbd01-c00d-4041-9182-db2128dad944"},"vehicle_type_id":"4","last_reported":1728421737,"current_range_meters":11200,"station_id":"ce4bhp92rcd13ifvqhcg","pricing_plan_id":"cebpf4jnsgd1na2vs0mg"},{"bike_id":"580e2b43-d31a-457d-9f81-6e60aba46f6e","system_id":"levelo_inurba_marseille","lat":43.2512,"lon":5.40316,"is_reserved":false,"is_disabled":false,"rental_uris":{"android":"levelo://app?vid=580e2b43-d31a-457d-9f81-6e60aba46f6e","ios":"levelo://app?vid=580e2b43-d31a-457d-9f81-6e60aba46f6e"},"vehicle_type_id":"4","last_reported":1728421737,"current_range_meters":24400,"station_id":"ce4bhlh2rcd13ifvqgig","pricing_plan_id":"cebpf4jnsgd1na2vs0mg"},{"bike_id":"62b6d635-7bcb-41a7-b9d5-21dbc57fd938","system_id":"levelo_inurba_marseille","lat":43.28875,"lon":5.37419,"is_reserved":false,"is_disabled":false,"rental_uris":{"android":"levelo://app?vid=62b6d635-7bcb-41a7-b9d5-21dbc57fd938","ios":"levelo://app?vid=62b6d635-7bcb-41a7-b9d5-21dbc57fd938"},"vehicle_type_id":"4","last_reported":1728421737,"current_range_meters":33600,"station_id":"","pricing_plan_id":"cebpf4jnsgd1na2vs0mg"},{"bike_id":"98018793-740b-444c-a410-6a0ae96c81a4","system_id":"levelo_inurba_marseille","lat":43.29631,"lon":5.37706,"is_reserved":false,"is_disabled":false,"rental_uris":{"android":"levelo://app?vid=98018793-740b-444c-a410-6a0ae96c81a4","ios":"levelo://app?vid=98018793-740b-444c-a410-6a0ae96c81a4"},"vehicle_type_id":"4","last_reported":1728421737,"current_range_meters":24000,"station_id":"ce4bgi92rcd13ifvqb90","pricing_plan_id":"cebpf4jnsgd1na2vs0mg"},{"bike_id":"420b2816-87d0-4210-972c-76597452bb87","system_id":"levelo_inurba_marseille","lat":43.26062,"lon":5.39397,"is_reserved":false,"is_disabled":false,"rental_uris":{"android":"levelo://app?vid=420b2816-87d0-4210-972c-76597452bb87","ios":"levelo://app?vid=420b2816-87d0-4210-972c-76597452bb87"},"vehicle_type_id":"4","last_reported":1728421737,"current_range_meters":9600,"station_id":"ce4bhh92rcd13ifvqfj0","pricing_plan_id":"cebpf4jnsgd1na2vs0mg"},{"bike_id":"346de8cd-501a-48a6-9587-1945899090d2","system_id":"levelo_inurba_marseille","lat":43.296234,"lon":5.371616,"is_reserved":false,"is_disabled":false,"rental_uris":{"android":"levelo://app?vid=346de8cd-501a-48a6-9587-1945899090d2","ios":"levelo://app?vid=346de8cd-501a-48a6-9587-1945899090d2"},"vehicle_type_id":"4","last_reported":1728421737,"current_range_meters":33200,"station_id":"ce4bgnh2rcd13ifvqc0g","pricing_plan_id":"cebpf4jnsgd1na2vs0mg"},{"bike_id":"c9507823-7653-4239-9822-143d3962fa1c","system_id":"levelo_inurba_marseille","lat":43.30938,"lon":5.40146,"is_reserved":false,"is_disabled":false,"rental_uris":{"android":"levelo://app?vid=c9507823-7653-4239-9822-143d3962fa1c","ios":"levelo://app?vid=c9507823-7653-4239-9822-143d3962fa1c"},"vehicle_type_id":"4","last_reported":1728421737,"current_range_meters":17600,"station_id":"ce4bgvp2rcd13ifvqct0","pricing_plan_id":"cebpf4jnsgd1na2vs0mg"},{"bike_id":"23a23253-4a33-4800-be9f-9e81e9112eeb","system_id":"levelo_inurba_marseille","lat":43.30932,"lon":5.40139,"is_reserved":false,"is_disabled":false,"rental_uris":{"android":"levelo://app?vid=23a23253-4a33-4800-be9f-9e81e9112eeb","ios":"levelo://app?vid=23a23253-4a33-4800-be9f-9e81e9112eeb"},"vehicle_type_id":"4","last_reported":1728421737,"current_range_meters":24000,"station_id":"ce4bgvp2rcd13ifvqct0","pricing_plan_id":"cebpf4jnsgd1na2vs0mg"},{"bike_id":"172b6004-71d4-410e-80e8-ffa36892cac3","system_id":"levelo_inurba_marseille","lat":43.30036,"lon":5.40187,"is_reserved":false,"is_disabled":false,"rental_uris":{"android":"levelo://app?vid=172b6004-71d4-410e-80e8-ffa36892cac3","ios":"levelo://app?vid=172b6004-71d4-410e-80e8-ffa36892cac3"},"vehicle_type_id":"4","last_reported":1728421737,"current_range_meters":30400,"station_id":"","pricing_plan_id":"cebpf4jnsgd1na2vs0mg"},{"bike_id":"cf927195-cafe-4fe6-8a9b-b503bf9be2b0","system_id":"levelo_inurba_marseille","lat":43.23183,"lon":5.3999,"is_reserved":false,"is_disabled":false,"rental_uris":{"android":"levelo://app?vid=cf927195-cafe-4fe6-8a9b-b503bf9be2b0","ios":"levelo://app?vid=cf927195-cafe-4fe6-8a9b-b503bf9be2b0"},"vehicle_type_id":"4","last_reported":1728421737,"current_range_meters":35600,"station_id":"ce4bhn12rcd13ifvqgqg","pricing_plan_id":"cebpf4jnsgd1na2vs0mg"},{"bike_id":"23c7d298-ae87-4b9b-9148-3a903a188a1c","system_id":"levelo_inurba_marseille","lat":43.25115,"lon":5.40324,"is_reserved":false,"is_disabled":false,"rental_uris":{"android":"levelo://app?vid=23c7d298-ae87-4b9b-9148-3a903a188a1c","ios":"levelo://app?vid=23c7d298-ae87-4b9b-9148-3a903a188a1c"},"vehicle_type_id":"4","last_reported":1728421737,"current_range_meters":6000,"station_id":"ce4bhlh2rcd13ifvqgig","pricing_plan_id":"cebpf4jnsgd1na2vs0mg"},{"bike_id":"875f4a64-216b-4be8-b9d8-fbdcea85c3e4","system_id":"levelo_inurba_marseille","lat":43.31173,"lon":5.38721,"is_reserved":false,"is_disabled":false,"rental_uris":{"android":"levelo://app?vid=875f4a64-216b-4be8-b9d8-fbdcea85c3e4","ios":"levelo://app?vid=875f4a64-216b-4be8-b9d8-fbdcea85c3e4"},"vehicle_type_id":"4","last_reported":1728421737,"current_range_meters":38800,"station_id":"ce4bgv12rcd13ifvqcp0","pricing_plan_id":"cebpf4jnsgd1na2vs0mg"},{"bike_id":"e7c8a2a0-d85a-4c13-803a-4175eee6563b","system_id":"levelo_inurba_marseille","lat":43.2439,"lon":5.37058,"is_reserved":false,"is_disabled":false,"rental_uris":{"android":"levelo://app?vid=e7c8a2a0-d85a-4c13-803a-4175eee6563b","ios":"levelo://app?vid=e7c8a2a0-d85a-4c13-803a-4175eee6563b"},"vehicle_type_id":"4","last_reported":1728421737,"current_range_meters":16400,"station_id":"ce4bhhh2rcd13ifvqfk0","pricing_plan_id":"cebpf4jnsgd1na2vs0mg"},{"bike_id":"f25c3320-3c59-4058-a283-2b0b09b21a7a","system_id":"levelo_inurba_marseille","lat":43.27191,"lon":5.40993,"is_reserved":false,"is_disabled":false,"rental_uris":{"android":"levelo://app?vid=f25c3320-3c59-4058-a283-2b0b09b21a7a","ios":"levelo://app?vid=f25c3320-3c59-4058-a283-2b0b09b21a7a"},"vehicle_type_id":"4","last_reported":1728421737,"current_range_meters":6000,"station_id":"ce4bhl12rcd13ifvqgf0","pricing_plan_id":"cebpf4jnsgd1na2vs0mg"},{"bike_id":"fcf45b4d-956a-4223-af97-955dc3078b1e","system_id":"levelo_inurba_marseille","lat":43.25731,"lon":5.41105,"is_reserved":false,"is_disabled":false,"rental_uris":{"android":"levelo://app?vid=fcf45b4d-956a-4223-af97-955dc3078b1e","ios":"levelo://app?vid=fcf45b4d-956a-4223-af97-955dc3078b1e"},"vehicle_type_id":"4","last_reported":1728421737,"current_range_meters":20400,"station_id":"ce4bhkp2rcd13ifvqgd0","pricing_plan_id":"cebpf4jnsgd1na2vs0mg"},{"bike_id":"8528d61f-3ed1-4980-9356-81cb407788af","system_id":"levelo_inurba_marseille","lat":43.30892,"lon":5.37183,"is_reserved":false,"is_disabled":false,"rental_uris":{"android":"levelo://app?vid=8528d61f-3ed1-4980-9356-81cb407788af","ios":"levelo://app?vid=8528d61f-3ed1-4980-9356-81cb407788af"},"vehicle_type_id":"4","last_reported":1728421737,"current_range_meters":25600,"station_id":"ce4bguh2rcd13ifvqckg","pricing_plan_id":"cebpf4jnsgd1na2vs0mg"},{"bike_id":"9a9df624-1549-41fb-b7f5-bd4059f46f71","system_id":"levelo_inurba_marseille","lat":43.31755,"lon":5.39004,"is_reserved":false,"is_disabled":false,"rental_uris":{"android":"levelo://app?vid=9a9df624-1549-41fb-b7f5-bd4059f46f71","ios":"levelo://app?vid=9a9df624-1549-41fb-b7f5-bd4059f46f71"},"vehicle_type_id":"4","last_reported":1728421737,"current_range_meters":26800,"station_id":"ce4bhqp2rcd13ifvqhng","pricing_plan_id":"cebpf4jnsgd1na2vs0mg"},{"bike_id":"94af21cb-3b77-4a57-b3de-dcd8ddf38fad","system_id":"levelo_inurba_marseille","lat":43.31169,"lon":5.38705,"is_reserved":false,"is_disabled":false,"rental_uris":{"android":"levelo://app?vid=94af21cb-3b77-4a57-b3de-dcd8ddf38fad","ios":"levelo://app?vid=94af21cb-3b77-4a57-b3de-dcd8ddf38fad"},"vehicle_type_id":"4","last_reported":1728421737,"current_range_meters":38800,"station_id":"ce4bgv12rcd13ifvqcp0","pricing_plan_id":"cebpf4jnsgd1na2vs0mg"},{"bike_id":"fee3e71e-d3d0-4cf8-85dd-8c40f5f18b72","system_id":"levelo_inurba_marseille","lat":43.309458,"lon":5.39026,"is_reserved":false,"is_disabled":false,"rental_uris":{"android":"levelo://app?vid=fee3e71e-d3d0-4cf8-85dd-8c40f5f18b72","ios":"levelo://app?vid=fee3e71e-d3d0-4cf8-85dd-8c40f5f18b72"},"vehicle_type_id":"4","last_reported":1728421737,"current_range_meters":5600,"station_id":"ce4bh0p2rcd13ifvqd80","pricing_plan_id":"cebpf4jnsgd1na2vs0mg"},{"bike_id":"f276946a-c301-4fd8-9ee9-b3ea2a208df0","system_id":"levelo_inurba_marseille","lat":43.23065,"lon":5.3549,"is_reserved":false,"is_disabled":false,"rental_uris":{"android":"levelo://app?vid=f276946a-c301-4fd8-9ee9-b3ea2a208df0","ios":"levelo://app?vid=f276946a-c301-4fd8-9ee9-b3ea2a208df0"},"vehicle_type_id":"4","last_reported":1728421737,"current_range_meters":22800,"station_id":"cpo3342slgdg3j2ifvpg","pricing_plan_id":"cebpf4jnsgd1na2vs0mg"},{"bike_id":"785dd6e2-063e-4f34-bde4-815072a28081","system_id":"levelo_inurba_marseille","lat":43.31357,"lon":5.38501,"is_reserved":false,"is_disabled":false,"rental_uris":{"android":"levelo://app?vid=785dd6e2-063e-4f34-bde4-815072a28081","ios":"levelo://app?vid=785dd6e2-063e-4f34-bde4-815072a28081"},"vehicle_type_id":"4","last_reported":1728421737,"current_range_meters":6000,"station_id":"ce4bgt92rcd13ifvqcf0","pricing_plan_id":"cebpf4jnsgd1na2vs0mg"},{"bike_id":"5eb1d50f-ca91-4fb8-860f-c0199bb2576b","system_id":"levelo_inurba_marseille","lat":43.25583,"lon":5.38239,"is_reserved":false,"is_disabled":false,"rental_uris":{"android":"levelo://app?vid=5eb1d50f-ca91-4fb8-860f-c0199bb2576b","ios":"levelo://app?vid=5eb1d50f-ca91-4fb8-860f-c0199bb2576b"},"vehicle_type_id":"4","last_reported":1728421737,"current_range_meters":36400,"station_id":"ce4bhih2rcd13ifvqfs0","pricing_plan_id":"cebpf4jnsgd1na2vs0mg"},{"bike_id":"7cf53cba-681c-47b9-83e5-0251037afaa7","system_id":"levelo_inurba_marseille","lat":43.28116,"lon":5.37836,"is_reserved":false,"is_disabled":false,"rental_uris":{"android":"levelo://app?vid=7cf53cba-681c-47b9-83e5-0251037afaa7","ios":"levelo://app?vid=7cf53cba-681c-47b9-83e5-0251037afaa7"},"vehicle_type_id":"4","last_reported":1728421737,"current_range_meters":35200,"station_id":"ce4bha12rcd13ifvqee0","pricing_plan_id":"cebpf4jnsgd1na2vs0mg"},{"bike_id":"e72212d7-286d-41f4-9460-3d50f587290c","system_id":"levelo_inurba_marseille","lat":43.28475,"lon":5.38415,"is_reserved":false,"is_disabled":false,"rental_uris":{"android":"levelo://app?vid=e72212d7-286d-41f4-9460-3d50f587290c","ios":"levelo://app?vid=e72212d7-286d-41f4-9460-3d50f587290c"},"vehicle_type_id":"4","last_reported":1728421737,"current_range_meters":5600,"station_id":"ce4bh512rcd13ifvqe3g","pricing_plan_id":"cebpf4jnsgd1na2vs0mg"},{"bike_id":"09cb9fe3-c8f5-4357-b411-105d7cf47241","system_id":"levelo_inurba_marseille","lat":43.2843,"lon":5.39183,"is_reserved":false,"is_disabled":false,"rental_uris":{"android":"levelo://app?vid=09cb9fe3-c8f5-4357-b411-105d7cf47241","ios":"levelo://app?vid=09cb9fe3-c8f5-4357-b411-105d7cf47241"},"vehicle_type_id":"4","last_reported":1728421737,"current_range_meters":6800,"station_id":"ce4bhoh2rcd13ifvqh5g","pricing_plan_id":"cebpf4jnsgd1na2vs0mg"},{"bike_id":"a0c7664f-7ae4-459b-a42b-dd14b0b42df7","system_id":"levelo_inurba_marseille","lat":43.31537,"lon":5.38048,"is_reserved":false,"is_disabled":false,"rental_uris":{"android":"levelo://app?vid=a0c7664f-7ae4-459b-a42b-dd14b0b42df7","ios":"levelo://app?vid=a0c7664f-7ae4-459b-a42b-dd14b0b42df7"},"vehicle_type_id":"4","last_reported":1728421737,"current_range_meters":38400,"station_id":"ce4bhsp2rcd13ifvqi50","pricing_plan_id":"cebpf4jnsgd1na2vs0mg"},{"bike_id":"652ea6b0-0568-4c2d-ae7b-676bb46190fb","system_id":"levelo_inurba_marseille","lat":43.29553,"lon":5.42287,"is_reserved":false,"is_disabled":false,"rental_uris":{"android":"levelo://app?vid=652ea6b0-0568-4c2d-ae7b-676bb46190fb","ios":"levelo://app?vid=652ea6b0-0568-4c2d-ae7b-676bb46190fb"},"vehicle_type_id":"4","last_reported":1728421737,"current_range_meters":17200,"station_id":"ce4bhph2rcd13ifvqhdg","pricing_plan_id":"cebpf4jnsgd1na2vs0mg"},{"bike_id":"8c20e0a7-82e3-4b42-b629-3109b44f1a7d","system_id":"levelo_inurba_marseille","lat":43.29049,"lon":5.37232,"is_reserved":false,"is_disabled":false,"rental_uris":{"android":"levelo://app?vid=8c20e0a7-82e3-4b42-b629-3109b44f1a7d","ios":"levelo://app?vid=8c20e0a7-82e3-4b42-b629-3109b44f1a7d"},"vehicle_type_id":"4","last_reported":1728421737,"current_range_meters":28800,"station_id":"ce4bhah2rcd13ifvqei0","pricing_plan_id":"cebpf4jnsgd1na2vs0mg"},{"bike_id":"67c751ae-fe7f-4cbb-947e-7f9fb622fbc3","system_id":"levelo_inurba_marseille","lat":43.27996,"lon":5.41659,"is_reserved":false,"is_disabled":false,"rental_uris":{"android":"levelo://app?vid=67c751ae-fe7f-4cbb-947e-7f9fb622fbc3","ios":"levelo://app?vid=67c751ae-fe7f-4cbb-947e-7f9fb622fbc3"},"vehicle_type_id":"4","last_reported":1728421737,"current_range_meters":4800,"station_id":"ce4bho12rcd13ifvqh1g","pricing_plan_id":"cebpf4jnsgd1na2vs0mg"},{"bike_id":"9f249347-75e4-47cc-bbf5-03b5e106bc17","system_id":"levelo_inurba_marseille","lat":43.28459,"lon":5.35889,"is_reserved":false,"is_disabled":false,"rental_uris":{"android":"levelo://app?vid=9f249347-75e4-47cc-bbf5-03b5e106bc17","ios":"levelo://app?vid=9f249347-75e4-47cc-bbf5-03b5e106bc17"},"vehicle_type_id":"4","last_reported":1728421737,"current_range_meters":33600,"station_id":"ce4bhah2rcd13ifvqei0","pricing_plan_id":"cebpf4jnsgd1na2vs0mg"},{"bike_id":"4a489799-c7fc-4b6a-befb-18b51c7cac5c","system_id":"levelo_inurba_marseille","lat":43.31332,"lon":5.39693,"is_reserved":false,"is_disabled":false,"rental_uris":{"android":"levelo://app?vid=4a489799-c7fc-4b6a-befb-18b51c7cac5c","ios":"levelo://app?vid=4a489799-c7fc-4b6a-befb-18b51c7cac5c"},"vehicle_type_id":"4","last_reported":1728421737,"current_range_meters":33600,"station_id":"ce4bgvp2rcd13ifvqcu0","pricing_plan_id":"cebpf4jnsgd1na2vs0mg"},{"bike_id":"14aa3b67-793f-4fe5-8f3b-eb595e5d1c4d","system_id":"levelo_inurba_marseille","lat":43.32194,"lon":5.3877,"is_reserved":false,"is_disabled":false,"rental_uris":{"android":"levelo://app?vid=14aa3b67-793f-4fe5-8f3b-eb595e5d1c4d","ios":"levelo://app?vid=14aa3b67-793f-4fe5-8f3b-eb595e5d1c4d"},"vehicle_type_id":"4","last_reported":1728421737,"current_range_meters":17600,"station_id":"","pricing_plan_id":"cebpf4jnsgd1na2vs0mg"},{"bike_id":"e6d86d2f-929e-412d-b639-89761e6c74e0","system_id":"levelo_inurba_marseille","lat":43.337444,"lon":5.374475,"is_reserved":false,"is_disabled":false,"rental_uris":{"android":"levelo://app?vid=e6d86d2f-929e-412d-b639-89761e6c74e0","ios":"levelo://app?vid=e6d86d2f-929e-412d-b639-89761e6c74e0"},"vehicle_type_id":"4","last_reported":1728421737,"current_range_meters":28800,"station_id":"","pricing_plan_id":"cebpf4jnsgd1na2vs0mg"},{"bike_id":"4746ca8d-9001-4c4b-a2a7-45d43b443c06","system_id":"levelo_inurba_marseille","lat":43.30563,"lon":5.38857,"is_reserved":false,"is_disabled":false,"rental_uris":{"android":"levelo://app?vid=4746ca8d-9001-4c4b-a2a7-45d43b443c06","ios":"levelo://app?vid=4746ca8d-9001-4c4b-a2a7-45d43b443c06"},"vehicle_type_id":"4","last_reported":1728421737,"current_range_meters":30400,"station_id":"","pricing_plan_id":"cebpf4jnsgd1na2vs0mg"},{"bike_id":"519f3bbc-1f74-45d8-976e-3629653692a4","system_id":"levelo_inurba_marseille","lat":43.2815,"lon":5.42627,"is_reserved":false,"is_disabled":false,"rental_uris":{"android":"levelo://app?vid=519f3bbc-1f74-45d8-976e-3629653692a4","ios":"levelo://app?vid=519f3bbc-1f74-45d8-976e-3629653692a4"},"vehicle_type_id":"4","last_reported":1728421737,"current_range_meters":0,"station_id":"ce4bhnh2rcd13ifvqgug","pricing_plan_id":"cebpf4jnsgd1na2vs0mg"},{"bike_id":"faa76c66-9da5-41c1-afec-f0c38264aa94","system_id":"levelo_inurba_marseille","lat":43.22932,"lon":5.3538,"is_reserved":false,"is_disabled":false,"rental_uris":{"android":"levelo://app?vid=faa76c66-9da5-41c1-afec-f0c38264aa94","ios":"levelo://app?vid=faa76c66-9da5-41c1-afec-f0c38264aa94"},"vehicle_type_id":"4","last_reported":1728421737,"current_range_meters":26000,"station_id":"cpo3532slgdg3j2ikp40","pricing_plan_id":"cebpf4jnsgd1na2vs0mg"},{"bike_id":"b85afcc4-f999-42dc-aafa-e27c14f1afa0","system_id":"levelo_inurba_marseille","lat":43.28937,"lon":5.3663,"is_reserved":false,"is_disabled":false,"rental_uris":{"android":"levelo://app?vid=b85afcc4-f999-42dc-aafa-e27c14f1afa0","ios":"levelo://app?vid=b85afcc4-f999-42dc-aafa-e27c14f1afa0"},"vehicle_type_id":"4","last_reported":1728421737,"current_range_meters":38800,"station_id":"ce4bhap2rcd13ifvqek0","pricing_plan_id":"cebpf4jnsgd1na2vs0mg"},{"bike_id":"9dca58e9-6ed3-42fc-b2b2-e8452fa520db","system_id":"levelo_inurba_marseille","lat":43.26565,"lon":5.39006,"is_reserved":false,"is_disabled":false,"rental_uris":{"android":"levelo://app?vid=9dca58e9-6ed3-42fc-b2b2-e8452fa520db","ios":"levelo://app?vid=9dca58e9-6ed3-42fc-b2b2-e8452fa520db"},"vehicle_type_id":"4","last_reported":1728421737,"current_range_meters":38800,"station_id":"ce4bhe12rcd13ifvqf30","pricing_plan_id":"cebpf4jnsgd1na2vs0mg"},{"bike_id":"57e31f62-840f-4b1e-a00a-b95f2bcdb078","system_id":"levelo_inurba_marseille","lat":43.315093,"lon":5.37269,"is_reserved":false,"is_disabled":false,"rental_uris":{"android":"levelo://app?vid=57e31f62-840f-4b1e-a00a-b95f2bcdb078","ios":"levelo://app?vid=57e31f62-840f-4b1e-a00a-b95f2bcdb078"},"vehicle_type_id":"4","last_reported":1728421737,"current_range_meters":38800,"station_id":"ce4bgt12rcd13ifvqcd0","pricing_plan_id":"cebpf4jnsgd1na2vs0mg"},{"bike_id":"ee3fb93f-6ce1-4017-a20b-a68b1249cf58","system_id":"levelo_inurba_marseille","lat":43.31753,"lon":5.39017,"is_reserved":false,"is_disabled":false,"rental_uris":{"android":"levelo://app?vid=ee3fb93f-6ce1-4017-a20b-a68b1249cf58","ios":"levelo://app?vid=ee3fb93f-6ce1-4017-a20b-a68b1249cf58"},"vehicle_type_id":"4","last_reported":1728421737,"current_range_meters":39200,"station_id":"ce4bhqp2rcd13ifvqhng","pricing_plan_id":"cebpf4jnsgd1na2vs0mg"},{"bike_id":"aaaa9c8e-18c3-4178-bed9-eb45aaeb3ccd","system_id":"levelo_inurba_marseille","lat":43.33026,"lon":5.39036,"is_reserved":false,"is_disabled":false,"rental_uris":{"android":"levelo://app?vid=aaaa9c8e-18c3-4178-bed9-eb45aaeb3ccd","ios":"levelo://app?vid=aaaa9c8e-18c3-4178-bed9-eb45aaeb3ccd"},"vehicle_type_id":"4","last_reported":1728421737,"current_range_meters":22400,"station_id":"ce4bhr92rcd13ifvqhrg","pricing_plan_id":"cebpf4jnsgd1na2vs0mg"},{"bike_id":"c190b4a1-ea1d-47e2-b2e8-eefa3099f9cc","system_id":"levelo_inurba_marseille","lat":43.23193,"lon":5.35551,"is_reserved":false,"is_disabled":false,"rental_uris":{"android":"levelo://app?vid=c190b4a1-ea1d-47e2-b2e8-eefa3099f9cc","ios":"levelo://app?vid=c190b4a1-ea1d-47e2-b2e8-eefa3099f9cc"},"vehicle_type_id":"4","last_reported":1728421737,"current_range_meters":33600,"station_id":"ce4bhu92rcd13ifvqi70","pricing_plan_id":"cebpf4jnsgd1na2vs0mg"},{"bike_id":"3d392596-4a53-44a5-9183-728b4e20362c","system_id":"levelo_inurba_marseille","lat":43.29692,"lon":5.37227,"is_reserved":false,"is_disabled":false,"rental_uris":{"android":"levelo://app?vid=3d392596-4a53-44a5-9183-728b4e20362c","ios":"levelo://app?vid=3d392596-4a53-44a5-9183-728b4e20362c"},"vehicle_type_id":"4","last_reported":1728421737,"current_range_meters":15200,"station_id":"","pricing_plan_id":"cebpf4jnsgd1na2vs0mg"},{"bike_id":"739ce80c-9280-4de5-bdf8-82fb4a73f324","system_id":"levelo_inurba_marseille","lat":43.311681,"lon":5.387181,"is_reserved":false,"is_disabled":false,"rental_uris":{"android":"levelo://app?vid=739ce80c-9280-4de5-bdf8-82fb4a73f324","ios":"levelo://app?vid=739ce80c-9280-4de5-bdf8-82fb4a73f324"},"vehicle_type_id":"4","last_reported":1728421737,"current_range_meters":39200,"station_id":"ce4bgv12rcd13ifvqcp0","pricing_plan_id":"cebpf4jnsgd1na2vs0mg"},{"bike_id":"2a75358c-c53d-4d85-b84f-ba43cbf3d3c3","system_id":"levelo_inurba_marseille","lat":43.337444,"lon":5.374475,"is_reserved":false,"is_disabled":false,"rental_uris":{"android":"levelo://app?vid=2a75358c-c53d-4d85-b84f-ba43cbf3d3c3","ios":"levelo://app?vid=2a75358c-c53d-4d85-b84f-ba43cbf3d3c3"},"vehicle_type_id":"4","last_reported":1728421737,"current_range_meters":36000,"station_id":"","pricing_plan_id":"cebpf4jnsgd1na2vs0mg"},{"bike_id":"a54cf9af-3bdb-47e0-b38c-b250d8431be6","system_id":"levelo_inurba_marseille","lat":43.23965,"lon":5.36627,"is_reserved":false,"is_disabled":false,"rental_uris":{"android":"levelo://app?vid=a54cf9af-3bdb-47e0-b38c-b250d8431be6","ios":"levelo://app?vid=a54cf9af-3bdb-47e0-b38c-b250d8431be6"},"vehicle_type_id":"4","last_reported":1728421737,"current_range_meters":14400,"station_id":"ce4bhi12rcd13ifvqfp0","pricing_plan_id":"cebpf4jnsgd1na2vs0mg"},{"bike_id":"c4063bb4-e98b-48fe-8a9a-6decedc0ec30","system_id":"levelo_inurba_marseille","lat":43.33019,"lon":5.39046,"is_reserved":false,"is_disabled":false,"rental_uris":{"android":"levelo://app?vid=c4063bb4-e98b-48fe-8a9a-6decedc0ec30","ios":"levelo://app?vid=c4063bb4-e98b-48fe-8a9a-6decedc0ec30"},"vehicle_type_id":"4","last_reported":1728421737,"current_range_meters":39200,"station_id":"ce4bhr92rcd13ifvqhrg","pricing_plan_id":"cebpf4jnsgd1na2vs0mg"},{"bike_id":"52d12ab2-4aaf-48be-a502-71541c546774","system_id":"levelo_inurba_marseille","lat":43.30536,"lon":5.38422,"is_reserved":false,"is_disabled":false,"rental_uris":{"android":"levelo://app?vid=52d12ab2-4aaf-48be-a502-71541c546774","ios":"levelo://app?vid=52d12ab2-4aaf-48be-a502-71541c546774"},"vehicle_type_id":"4","last_reported":1728421737,"current_range_meters":36400,"station_id":"ce4bgg92rcd13ifvqb30","pricing_plan_id":"cebpf4jnsgd1na2vs0mg"},{"bike_id":"6b9b2fed-5e67-402b-b83f-0728c7e810b6","system_id":"levelo_inurba_marseille","lat":43.28071,"lon":5.38861,"is_reserved":false,"is_disabled":false,"rental_uris":{"android":"levelo://app?vid=6b9b2fed-5e67-402b-b83f-0728c7e810b6","ios":"levelo://app?vid=6b9b2fed-5e67-402b-b83f-0728c7e810b6"},"vehicle_type_id":"4","last_reported":1728421737,"current_range_meters":8400,"station_id":"ce4bgi12rcd13ifvqb70","pricing_plan_id":"cebpf4jnsgd1na2vs0mg"},{"bike_id":"8cc00abe-b79d-4360-8a5d-ddbda66b7f8d","system_id":"levelo_inurba_marseille","lat":43.30649,"lon":5.40074,"is_reserved":false,"is_disabled":false,"rental_uris":{"android":"levelo://app?vid=8cc00abe-b79d-4360-8a5d-ddbda66b7f8d","ios":"levelo://app?vid=8cc00abe-b79d-4360-8a5d-ddbda66b7f8d"},"vehicle_type_id":"4","last_reported":1728421737,"current_range_meters":34800,"station_id":"ce4bh112rcd13ifvqda0","pricing_plan_id":"cebpf4jnsgd1na2vs0mg"},{"bike_id":"834bbb49-0d25-4000-a68b-0ba77360dc08","system_id":"levelo_inurba_marseille","lat":43.26569,"lon":5.39013,"is_reserved":false,"is_disabled":false,"rental_uris":{"android":"levelo://app?vid=834bbb49-0d25-4000-a68b-0ba77360dc08","ios":"levelo://app?vid=834bbb49-0d25-4000-a68b-0ba77360dc08"},"vehicle_type_id":"4","last_reported":1728421737,"current_range_meters":28400,"station_id":"ce4bhe12rcd13ifvqf30","pricing_plan_id":"cebpf4jnsgd1na2vs0mg"},{"bike_id":"16753485-5b55-4ec5-8a43-a852220e48cc","system_id":"levelo_inurba_marseille","lat":43.29784,"lon":5.39348,"is_reserved":false,"is_disabled":false,"rental_uris":{"android":"levelo://app?vid=16753485-5b55-4ec5-8a43-a852220e48cc","ios":"levelo://app?vid=16753485-5b55-4ec5-8a43-a852220e48cc"},"vehicle_type_id":"4","last_reported":1728421737,"current_range_meters":38400,"station_id":"chh1huq6cuj3fo74tm60","pricing_plan_id":"cebpf4jnsgd1na2vs0mg"},{"bike_id":"3dd0e4d7-f4e6-4841-bfd7-b24937775bb1","system_id":"levelo_inurba_marseille","lat":43.28073,"lon":5.39664,"is_reserved":false,"is_disabled":false,"rental_uris":{"android":"levelo://app?vid=3dd0e4d7-f4e6-4841-bfd7-b24937775bb1","ios":"levelo://app?vid=3dd0e4d7-f4e6-4841-bfd7-b24937775bb1"},"vehicle_type_id":"4","last_reported":1728421737,"current_range_meters":22400,"station_id":"ce4bho12rcd13ifvqh2g","pricing_plan_id":"cebpf4jnsgd1na2vs0mg"},{"bike_id":"5fc71993-ad27-4c5d-8b15-b15688dfb23a","system_id":"levelo_inurba_marseille","lat":43.30885,"lon":5.39624,"is_reserved":false,"is_disabled":false,"rental_uris":{"android":"levelo://app?vid=5fc71993-ad27-4c5d-8b15-b15688dfb23a","ios":"levelo://app?vid=5fc71993-ad27-4c5d-8b15-b15688dfb23a"},"vehicle_type_id":"4","last_reported":1728421737,"current_range_meters":15200,"station_id":"ce4bh012rcd13ifvqcv0","pricing_plan_id":"cebpf4jnsgd1na2vs0mg"},{"bike_id":"12d9157a-0426-4d97-95a6-f9e86bc15b89","system_id":"levelo_inurba_marseille","lat":43.22932,"lon":5.3538,"is_reserved":false,"is_disabled":false,"rental_uris":{"android":"levelo://app?vid=12d9157a-0426-4d97-95a6-f9e86bc15b89","ios":"levelo://app?vid=12d9157a-0426-4d97-95a6-f9e86bc15b89"},"vehicle_type_id":"4","last_reported":1728421737,"current_range_meters":24400,"station_id":"cpo3532slgdg3j2ikp40","pricing_plan_id":"cebpf4jnsgd1na2vs0mg"},{"bike_id":"a4482259-8610-46b5-b7d6-ee4a9725f2a2","system_id":"levelo_inurba_marseille","lat":43.3089,"lon":5.37197,"is_reserved":false,"is_disabled":false,"rental_uris":{"android":"levelo://app?vid=a4482259-8610-46b5-b7d6-ee4a9725f2a2","ios":"levelo://app?vid=a4482259-8610-46b5-b7d6-ee4a9725f2a2"},"vehicle_type_id":"4","last_reported":1728421737,"current_range_meters":39200,"station_id":"ce4bguh2rcd13ifvqckg","pricing_plan_id":"cebpf4jnsgd1na2vs0mg"},{"bike_id":"3e97c941-733d-442a-8729-603d81a93f36","system_id":"levelo_inurba_marseille","lat":43.31125,"lon":5.37763,"is_reserved":false,"is_disabled":false,"rental_uris":{"android":"levelo://app?vid=3e97c941-733d-442a-8729-603d81a93f36","ios":"levelo://app?vid=3e97c941-733d-442a-8729-603d81a93f36"},"vehicle_type_id":"4","last_reported":1728421737,"current_range_meters":38800,"station_id":"ce4bgt92rcd13ifvqcg0","pricing_plan_id":"cebpf4jnsgd1na2vs0mg"},{"bike_id":"8f7d7ebc-bd88-4894-84d8-dc189d791a25","system_id":"levelo_inurba_marseille","lat":43.29193,"lon":5.39322,"is_reserved":false,"is_disabled":false,"rental_uris":{"android":"levelo://app?vid=8f7d7ebc-bd88-4894-84d8-dc189d791a25","ios":"levelo://app?vid=8f7d7ebc-bd88-4894-84d8-dc189d791a25"},"vehicle_type_id":"4","last_reported":1728421737,"current_range_meters":38800,"station_id":"ce4bh192rcd13ifvqdd0","pricing_plan_id":"cebpf4jnsgd1na2vs0mg"},{"bike_id":"d6db9f2e-3599-4eed-bdb6-3c403a108075","system_id":"levelo_inurba_marseille","lat":43.3229,"lon":5.3827,"is_reserved":false,"is_disabled":false,"rental_uris":{"android":"levelo://app?vid=d6db9f2e-3599-4eed-bdb6-3c403a108075","ios":"levelo://app?vid=d6db9f2e-3599-4eed-bdb6-3c403a108075"},"vehicle_type_id":"4","last_reported":1728421737,"current_range_meters":16000,"station_id":"ce4bhr12rcd13ifvqhqg","pricing_plan_id":"cebpf4jnsgd1na2vs0mg"},{"bike_id":"8b502b40-aea8-4c64-a0f8-2570ee310149","system_id":"levelo_inurba_marseille","lat":43.27173,"lon":5.40994,"is_reserved":false,"is_disabled":false,"rental_uris":{"android":"levelo://app?vid=8b502b40-aea8-4c64-a0f8-2570ee310149","ios":"levelo://app?vid=8b502b40-aea8-4c64-a0f8-2570ee310149"},"vehicle_type_id":"4","last_reported":1728421737,"current_range_meters":8400,"station_id":"ce4bhl12rcd13ifvqgf0","pricing_plan_id":"cebpf4jnsgd1na2vs0mg"},{"bike_id":"f109d54b-0a8e-4b9d-bad5-fa9553d2996b","system_id":"levelo_inurba_marseille","lat":43.29363,"lon":5.37865,"is_reserved":false,"is_disabled":false,"rental_uris":{"android":"levelo://app?vid=f109d54b-0a8e-4b9d-bad5-fa9553d2996b","ios":"levelo://app?vid=f109d54b-0a8e-4b9d-bad5-fa9553d2996b"},"vehicle_type_id":"4","last_reported":1728421737,"current_range_meters":38800,"station_id":"ce4bgjh2rcd13ifvqbf0","pricing_plan_id":"cebpf4jnsgd1na2vs0mg"},{"bike_id":"e3985b6b-0df7-4b77-9867-0f664d445c65","system_id":"levelo_inurba_marseille","lat":43.290437,"lon":5.39961,"is_reserved":false,"is_disabled":false,"rental_uris":{"android":"levelo://app?vid=e3985b6b-0df7-4b77-9867-0f664d445c65","ios":"levelo://app?vid=e3985b6b-0df7-4b77-9867-0f664d445c65"},"vehicle_type_id":"4","last_reported":1728421737,"current_range_meters":9600,"station_id":"ce4bh392rcd13ifvqdm0","pricing_plan_id":"cebpf4jnsgd1na2vs0mg"},{"bike_id":"0936fdb2-c01b-49d1-8fd2-eee76a39058e","system_id":"levelo_inurba_marseille","lat":43.30353,"lon":5.41875,"is_reserved":false,"is_disabled":false,"rental_uris":{"android":"levelo://app?vid=0936fdb2-c01b-49d1-8fd2-eee76a39058e","ios":"levelo://app?vid=0936fdb2-c01b-49d1-8fd2-eee76a39058e"},"vehicle_type_id":"4","last_reported":1728421737,"current_range_meters":38000,"station_id":"ce4bhop2rcd13ifvqh7g","pricing_plan_id":"cebpf4jnsgd1na2vs0mg"},{"bike_id":"870c0672-a714-434c-9dd0-239fa399cf34","system_id":"levelo_inurba_marseille","lat":43.33026,"lon":5.39043,"is_reserved":false,"is_disabled":false,"rental_uris":{"android":"levelo://app?vid=870c0672-a714-434c-9dd0-239fa399cf34","ios":"levelo://app?vid=870c0672-a714-434c-9dd0-239fa399cf34"},"vehicle_type_id":"4","last_reported":1728421737,"current_range_meters":24400,"station_id":"ce4bhr92rcd13ifvqhrg","pricing_plan_id":"cebpf4jnsgd1na2vs0mg"},{"bike_id":"69ef7ca0-d5cb-4072-8324-ac9bf2265ee7","system_id":"levelo_inurba_marseille","lat":43.29266,"lon":5.38457,"is_reserved":false,"is_disabled":false,"rental_uris":{"android":"levelo://app?vid=69ef7ca0-d5cb-4072-8324-ac9bf2265ee7","ios":"levelo://app?vid=69ef7ca0-d5cb-4072-8324-ac9bf2265ee7"},"vehicle_type_id":"4","last_reported":1728421737,"current_range_meters":37600,"station_id":"ce4bh692rcd13ifvqea0","pricing_plan_id":"cebpf4jnsgd1na2vs0mg"},{"bike_id":"209bb9f6-998a-4930-bd27-636f127be441","system_id":"levelo_inurba_marseille","lat":43.312784,"lon":5.40172,"is_reserved":false,"is_disabled":false,"rental_uris":{"android":"levelo://app?vid=209bb9f6-998a-4930-bd27-636f127be441","ios":"levelo://app?vid=209bb9f6-998a-4930-bd27-636f127be441"},"vehicle_type_id":"4","last_reported":1728421737,"current_range_meters":35200,"station_id":"ce4bh092rcd13ifvqd30","pricing_plan_id":"cebpf4jnsgd1na2vs0mg"},{"bike_id":"1f17a76b-c304-46b0-9821-e8e34de300ca","system_id":"levelo_inurba_marseille","lat":43.28454,"lon":5.35886,"is_reserved":false,"is_disabled":false,"rental_uris":{"android":"levelo://app?vid=1f17a76b-c304-46b0-9821-e8e34de300ca","ios":"levelo://app?vid=1f17a76b-c304-46b0-9821-e8e34de300ca"},"vehicle_type_id":"4","last_reported":1728421737,"current_range_meters":8400,"station_id":"ce4bhah2rcd13ifvqei0","pricing_plan_id":"cebpf4jnsgd1na2vs0mg"},{"bike_id":"e5387bb6-804a-4782-b5a4-f8fa9db6cb96","system_id":"levelo_inurba_marseille","lat":43.29255,"lon":5.40902,"is_reserved":false,"is_disabled":false,"rental_uris":{"android":"levelo://app?vid=e5387bb6-804a-4782-b5a4-f8fa9db6cb96","ios":"levelo://app?vid=e5387bb6-804a-4782-b5a4-f8fa9db6cb96"},"vehicle_type_id":"4","last_reported":1728421737,"current_range_meters":9600,"station_id":"ce4bh192rcd13ifvqdc0","pricing_plan_id":"cebpf4jnsgd1na2vs0mg"},{"bike_id":"0177f78c-3759-4f00-a965-2f72bc4eae14","system_id":"levelo_inurba_marseille","lat":43.29803,"lon":5.40406,"is_reserved":false,"is_disabled":false,"rental_uris":{"android":"levelo://app?vid=0177f78c-3759-4f00-a965-2f72bc4eae14","ios":"levelo://app?vid=0177f78c-3759-4f00-a965-2f72bc4eae14"},"vehicle_type_id":"4","last_reported":1728421737,"current_range_meters":6400,"station_id":"ce4bh112rcd13ifvqd90","pricing_plan_id":"cebpf4jnsgd1na2vs0mg"},{"bike_id":"483bd948-1ffb-4e81-aabd-ee4d8ab81341","system_id":"levelo_inurba_marseille","lat":43.30143,"lon":5.38778,"is_reserved":false,"is_disabled":false,"rental_uris":{"android":"levelo://app?vid=483bd948-1ffb-4e81-aabd-ee4d8ab81341","ios":"levelo://app?vid=483bd948-1ffb-4e81-aabd-ee4d8ab81341"},"vehicle_type_id":"4","last_reported":1728421737,"current_range_meters":39200,"station_id":"ce4bghh2rcd13ifvqb60","pricing_plan_id":"cebpf4jnsgd1na2vs0mg"},{"bike_id":"c15d2707-7eb1-4a13-b85d-c7de94141554","system_id":"levelo_inurba_marseille","lat":43.31172,"lon":5.38714,"is_reserved":false,"is_disabled":false,"rental_uris":{"android":"levelo://app?vid=c15d2707-7eb1-4a13-b85d-c7de94141554","ios":"levelo://app?vid=c15d2707-7eb1-4a13-b85d-c7de94141554"},"vehicle_type_id":"4","last_reported":1728421737,"current_range_meters":8400,"station_id":"ce4bgv12rcd13ifvqcp0","pricing_plan_id":"cebpf4jnsgd1na2vs0mg"},{"bike_id":"45c1c7ca-e051-478b-b686-f04fff285ff5","system_id":"levelo_inurba_marseille","lat":43.2985,"lon":5.39752,"is_reserved":false,"is_disabled":false,"rental_uris":{"android":"levelo://app?vid=45c1c7ca-e051-478b-b686-f04fff285ff5","ios":"levelo://app?vid=45c1c7ca-e051-478b-b686-f04fff285ff5"},"vehicle_type_id":"4","last_reported":1728421737,"current_range_meters":18000,"station_id":"ce4bh0h2rcd13ifvqd50","pricing_plan_id":"cebpf4jnsgd1na2vs0mg"},{"bike_id":"2ab6354b-4e96-43be-aedc-8cc67130aacd","system_id":"levelo_inurba_marseille","lat":43.30312,"lon":5.40435,"is_reserved":false,"is_disabled":false,"rental_uris":{"android":"levelo://app?vid=2ab6354b-4e96-43be-aedc-8cc67130aacd","ios":"levelo://app?vid=2ab6354b-4e96-43be-aedc-8cc67130aacd"},"vehicle_type_id":"4","last_reported":1728421737,"current_range_meters":36400,"station_id":"ce4bh012rcd13ifvqd10","pricing_plan_id":"cebpf4jnsgd1na2vs0mg"},{"bike_id":"e7848373-3bac-419c-ba92-ae439a13fb70","system_id":"levelo_inurba_marseille","lat":43.2852,"lon":5.37702,"is_reserved":false,"is_disabled":false,"rental_uris":{"android":"levelo://app?vid=e7848373-3bac-419c-ba92-ae439a13fb70","ios":"levelo://app?vid=e7848373-3bac-419c-ba92-ae439a13fb70"},"vehicle_type_id":"4","last_reported":1728421737,"current_range_meters":21600,"station_id":"","pricing_plan_id":"cebpf4jnsgd1na2vs0mg"},{"bike_id":"b16ab2c2-00dd-43a6-9720-81c2db6fa6eb","system_id":"levelo_inurba_marseille","lat":43.32048,"lon":5.41545,"is_reserved":false,"is_disabled":false,"rental_uris":{"android":"levelo://app?vid=b16ab2c2-00dd-43a6-9720-81c2db6fa6eb","ios":"levelo://app?vid=b16ab2c2-00dd-43a6-9720-81c2db6fa6eb"},"vehicle_type_id":"4","last_reported":1728421737,"current_range_meters":6400,"station_id":"ce4bhq92rcd13ifvqhkg","pricing_plan_id":"cebpf4jnsgd1na2vs0mg"},{"bike_id":"bc865ca1-2a5b-44fe-b3dd-04aadccb155c","system_id":"levelo_inurba_marseille","lat":43.26799,"lon":5.4027,"is_reserved":false,"is_disabled":false,"rental_uris":{"android":"levelo://app?vid=bc865ca1-2a5b-44fe-b3dd-04aadccb155c","ios":"levelo://app?vid=bc865ca1-2a5b-44fe-b3dd-04aadccb155c"},"vehicle_type_id":"4","last_reported":1728421737,"current_range_meters":38000,"station_id":"ce501612rcd8frsf0b60","pricing_plan_id":"cebpf4jnsgd1na2vs0mg"},{"bike_id":"aea9c3e0-189d-47f0-a5bc-e8ef5ea5856a","system_id":"levelo_inurba_marseille","lat":43.24388,"lon":5.37063,"is_reserved":false,"is_disabled":false,"rental_uris":{"android":"levelo://app?vid=aea9c3e0-189d-47f0-a5bc-e8ef5ea5856a","ios":"levelo://app?vid=aea9c3e0-189d-47f0-a5bc-e8ef5ea5856a"},"vehicle_type_id":"4","last_reported":1728421737,"current_range_meters":31200,"station_id":"ce4bhhh2rcd13ifvqfk0","pricing_plan_id":"cebpf4jnsgd1na2vs0mg"},{"bike_id":"f2b75fa6-514c-427b-a3e0-4b73644e7188","system_id":"levelo_inurba_marseille","lat":43.28446,"lon":5.35887,"is_reserved":false,"is_disabled":false,"rental_uris":{"android":"levelo://app?vid=f2b75fa6-514c-427b-a3e0-4b73644e7188","ios":"levelo://app?vid=f2b75fa6-514c-427b-a3e0-4b73644e7188"},"vehicle_type_id":"4","last_reported":1728421737,"current_range_meters":24800,"station_id":"ce4bhah2rcd13ifvqei0","pricing_plan_id":"cebpf4jnsgd1na2vs0mg"},{"bike_id":"e70a3421-ed57-41af-bba5-9b62d01e192c","system_id":"levelo_inurba_marseille","lat":43.29707,"lon":5.36602,"is_reserved":false,"is_disabled":false,"rental_uris":{"android":"levelo://app?vid=e70a3421-ed57-41af-bba5-9b62d01e192c","ios":"levelo://app?vid=e70a3421-ed57-41af-bba5-9b62d01e192c"},"vehicle_type_id":"4","last_reported":1728421737,"current_range_meters":38400,"station_id":"ce4bgn12rcd13ifvqbt0","pricing_plan_id":"cebpf4jnsgd1na2vs0mg"},{"bike_id":"2920fcf8-cd0d-44c4-9deb-cbec5543bae7","system_id":"levelo_inurba_marseille","lat":43.25108,"lon":5.40327,"is_reserved":false,"is_disabled":false,"rental_uris":{"android":"levelo://app?vid=2920fcf8-cd0d-44c4-9deb-cbec5543bae7","ios":"levelo://app?vid=2920fcf8-cd0d-44c4-9deb-cbec5543bae7"},"vehicle_type_id":"4","last_reported":1728421737,"current_range_meters":35200,"station_id":"ce4bhlh2rcd13ifvqgig","pricing_plan_id":"cebpf4jnsgd1na2vs0mg"},{"bike_id":"1a95cf52-8101-4d51-8d53-48bb583d9a3e","system_id":"levelo_inurba_marseille","lat":43.29036,"lon":5.35917,"is_reserved":false,"is_disabled":false,"rental_uris":{"android":"levelo://app?vid=1a95cf52-8101-4d51-8d53-48bb583d9a3e","ios":"levelo://app?vid=1a95cf52-8101-4d51-8d53-48bb583d9a3e"},"vehicle_type_id":"4","last_reported":1728421737,"current_range_meters":6400,"station_id":"ce4bha92rcd13ifvqeg0","pricing_plan_id":"cebpf4jnsgd1na2vs0mg"},{"bike_id":"c99a54ff-16d7-4a70-85c9-f18e78cfc26c","system_id":"levelo_inurba_marseille","lat":43.25106,"lon":5.40325,"is_reserved":false,"is_disabled":false,"rental_uris":{"android":"levelo://app?vid=c99a54ff-16d7-4a70-85c9-f18e78cfc26c","ios":"levelo://app?vid=c99a54ff-16d7-4a70-85c9-f18e78cfc26c"},"vehicle_type_id":"4","last_reported":1728421737,"current_range_meters":16400,"station_id":"ce4bhlh2rcd13ifvqgig","pricing_plan_id":"cebpf4jnsgd1na2vs0mg"},{"bike_id":"61f00eb6-b5bc-4aff-b429-77799dc91bfe","system_id":"levelo_inurba_marseille","lat":43.31538,"lon":5.38028,"is_reserved":false,"is_disabled":false,"rental_uris":{"android":"levelo://app?vid=61f00eb6-b5bc-4aff-b429-77799dc91bfe","ios":"levelo://app?vid=61f00eb6-b5bc-4aff-b429-77799dc91bfe"},"vehicle_type_id":"4","last_reported":1728421737,"current_range_meters":38800,"station_id":"ce4bhsp2rcd13ifvqi50","pricing_plan_id":"cebpf4jnsgd1na2vs0mg"},{"bike_id":"10fbea1f-3d13-4aea-956c-eee949d898d7","system_id":"levelo_inurba_marseille","lat":43.27065,"lon":5.42272,"is_reserved":false,"is_disabled":false,"rental_uris":{"android":"levelo://app?vid=10fbea1f-3d13-4aea-956c-eee949d898d7","ios":"levelo://app?vid=10fbea1f-3d13-4aea-956c-eee949d898d7"},"vehicle_type_id":"4","last_reported":1728421737,"current_range_meters":37600,"station_id":"ce4bhk92rcd13ifvqgb0","pricing_plan_id":"cebpf4jnsgd1na2vs0mg"},{"bike_id":"90919660-0147-402b-b974-4d0ac90e9208","system_id":"levelo_inurba_marseille","lat":43.30878,"lon":5.39629,"is_reserved":false,"is_disabled":false,"rental_uris":{"android":"levelo://app?vid=90919660-0147-402b-b974-4d0ac90e9208","ios":"levelo://app?vid=90919660-0147-402b-b974-4d0ac90e9208"},"vehicle_type_id":"4","last_reported":1728421737,"current_range_meters":22400,"station_id":"ce4bh012rcd13ifvqcv0","pricing_plan_id":"cebpf4jnsgd1na2vs0mg"},{"bike_id":"ac2c1b7d-c6b0-4346-82b8-affca2a41475","system_id":"levelo_inurba_marseille","lat":43.31068,"lon":5.38359,"is_reserved":false,"is_disabled":false,"rental_uris":{"android":"levelo://app?vid=ac2c1b7d-c6b0-4346-82b8-affca2a41475","ios":"levelo://app?vid=ac2c1b7d-c6b0-4346-82b8-affca2a41475"},"vehicle_type_id":"4","last_reported":1728421737,"current_range_meters":30000,"station_id":"ce4bgv92rcd13ifvqcr0","pricing_plan_id":"cebpf4jnsgd1na2vs0mg"},{"bike_id":"ee41fa58-91d5-4ba0-9a32-4b8c08b585a0","system_id":"levelo_inurba_marseille","lat":43.2926,"lon":5.3845,"is_reserved":false,"is_disabled":false,"rental_uris":{"android":"levelo://app?vid=ee41fa58-91d5-4ba0-9a32-4b8c08b585a0","ios":"levelo://app?vid=ee41fa58-91d5-4ba0-9a32-4b8c08b585a0"},"vehicle_type_id":"4","last_reported":1728421737,"current_range_meters":36400,"station_id":"ce4bh692rcd13ifvqea0","pricing_plan_id":"cebpf4jnsgd1na2vs0mg"},{"bike_id":"fbab334e-6568-46ac-88f7-b856d9d2d598","system_id":"levelo_inurba_marseille","lat":43.23191,"lon":5.35562,"is_reserved":false,"is_disabled":false,"rental_uris":{"android":"levelo://app?vid=fbab334e-6568-46ac-88f7-b856d9d2d598","ios":"levelo://app?vid=fbab334e-6568-46ac-88f7-b856d9d2d598"},"vehicle_type_id":"4","last_reported":1728421737,"current_range_meters":38800,"station_id":"ce4bhu92rcd13ifvqi70","pricing_plan_id":"cebpf4jnsgd1na2vs0mg"},{"bike_id":"c01030ea-90c8-4543-aac6-29926ee5982e","system_id":"levelo_inurba_marseille","lat":43.29876,"lon":5.39738,"is_reserved":false,"is_disabled":false,"rental_uris":{"android":"levelo://app?vid=c01030ea-90c8-4543-aac6-29926ee5982e","ios":"levelo://app?vid=c01030ea-90c8-4543-aac6-29926ee5982e"},"vehicle_type_id":"4","last_reported":1728421737,"current_range_meters":29600,"station_id":"ce4bh0h2rcd13ifvqd50","pricing_plan_id":"cebpf4jnsgd1na2vs0mg"},{"bike_id":"2fee0dbb-e4db-44c9-a635-cf09f1b6ebe2","system_id":"levelo_inurba_marseille","lat":43.29285,"lon":5.40121,"is_reserved":false,"is_disabled":false,"rental_uris":{"android":"levelo://app?vid=2fee0dbb-e4db-44c9-a635-cf09f1b6ebe2","ios":"levelo://app?vid=2fee0dbb-e4db-44c9-a635-cf09f1b6ebe2"},"vehicle_type_id":"4","last_reported":1728421737,"current_range_meters":26800,"station_id":"ce4bh312rcd13ifvqdk0","pricing_plan_id":"cebpf4jnsgd1na2vs0mg"},{"bike_id":"990bace9-65d7-4dd9-8c58-e7ec3ddbb2b7","system_id":"levelo_inurba_marseille","lat":43.2804,"lon":5.36945,"is_reserved":false,"is_disabled":false,"rental_uris":{"android":"levelo://app?vid=990bace9-65d7-4dd9-8c58-e7ec3ddbb2b7","ios":"levelo://app?vid=990bace9-65d7-4dd9-8c58-e7ec3ddbb2b7"},"vehicle_type_id":"4","last_reported":1728421737,"current_range_meters":38000,"station_id":"ce4bha12rcd13ifvqef0","pricing_plan_id":"cebpf4jnsgd1na2vs0mg"},{"bike_id":"e818475b-ada9-452b-843e-5c96d9efd1fe","system_id":"levelo_inurba_marseille","lat":43.31218,"lon":5.36845,"is_reserved":false,"is_disabled":false,"rental_uris":{"android":"levelo://app?vid=e818475b-ada9-452b-843e-5c96d9efd1fe","ios":"levelo://app?vid=e818475b-ada9-452b-843e-5c96d9efd1fe"},"vehicle_type_id":"4","last_reported":1728421737,"current_range_meters":36000,"station_id":"ce4bgl92rcd13ifvqbq0","pricing_plan_id":"cebpf4jnsgd1na2vs0mg"},{"bike_id":"10618fac-7e9b-48ad-a67d-2c44ef578753","system_id":"levelo_inurba_marseille","lat":43.30934,"lon":5.40146,"is_reserved":false,"is_disabled":false,"rental_uris":{"android":"levelo://app?vid=10618fac-7e9b-48ad-a67d-2c44ef578753","ios":"levelo://app?vid=10618fac-7e9b-48ad-a67d-2c44ef578753"},"vehicle_type_id":"4","last_reported":1728421737,"current_range_meters":3200,"station_id":"ce4bgvp2rcd13ifvqct0","pricing_plan_id":"cebpf4jnsgd1na2vs0mg"},{"bike_id":"4ac167e8-9680-4075-a60b-124e1bdede2e","system_id":"levelo_inurba_marseille","lat":43.31716,"lon":5.43707,"is_reserved":false,"is_disabled":false,"rental_uris":{"android":"levelo://app?vid=4ac167e8-9680-4075-a60b-124e1bdede2e","ios":"levelo://app?vid=4ac167e8-9680-4075-a60b-124e1bdede2e"},"vehicle_type_id":"4","last_reported":1728421737,"current_range_meters":27600,"station_id":"ce4bhp92rcd13ifvqhcg","pricing_plan_id":"cebpf4jnsgd1na2vs0mg"},{"bike_id":"2af56b5a-e726-4183-aefb-a9377792f009","system_id":"levelo_inurba_marseille","lat":43.28941,"lon":5.36394,"is_reserved":false,"is_disabled":false,"rental_uris":{"android":"levelo://app?vid=2af56b5a-e726-4183-aefb-a9377792f009","ios":"levelo://app?vid=2af56b5a-e726-4183-aefb-a9377792f009"},"vehicle_type_id":"4","last_reported":1728421737,"current_range_meters":18000,"station_id":"ce4bhc92rcd13ifvqetg","pricing_plan_id":"cebpf4jnsgd1na2vs0mg"},{"bike_id":"ac63b881-53ef-4e4b-b5e6-9f4914bcf168","system_id":"levelo_inurba_marseille","lat":43.23057,"lon":5.35491,"is_reserved":false,"is_disabled":false,"rental_uris":{"android":"levelo://app?vid=ac63b881-53ef-4e4b-b5e6-9f4914bcf168","ios":"levelo://app?vid=ac63b881-53ef-4e4b-b5e6-9f4914bcf168"},"vehicle_type_id":"4","last_reported":1728421737,"current_range_meters":28800,"station_id":"cpo3342slgdg3j2ifvpg","pricing_plan_id":"cebpf4jnsgd1na2vs0mg"},{"bike_id":"dd953f34-b2a0-4bdd-96c1-94fe0639a11c","system_id":"levelo_inurba_marseille","lat":43.28568,"lon":5.39498,"is_reserved":false,"is_disabled":false,"rental_uris":{"android":"levelo://app?vid=dd953f34-b2a0-4bdd-96c1-94fe0639a11c","ios":"levelo://app?vid=dd953f34-b2a0-4bdd-96c1-94fe0639a11c"},"vehicle_type_id":"4","last_reported":1728421737,"current_range_meters":39200,"station_id":"ce4bh292rcd13ifvqdg0","pricing_plan_id":"cebpf4jnsgd1na2vs0mg"},{"bike_id":"a185443f-1207-408b-8c72-393a999c91bf","system_id":"levelo_inurba_marseille","lat":43.23962,"lon":5.36638,"is_reserved":false,"is_disabled":false,"rental_uris":{"android":"levelo://app?vid=a185443f-1207-408b-8c72-393a999c91bf","ios":"levelo://app?vid=a185443f-1207-408b-8c72-393a999c91bf"},"vehicle_type_id":"4","last_reported":1728421737,"current_range_meters":22000,"station_id":"ce4bhi12rcd13ifvqfp0","pricing_plan_id":"cebpf4jnsgd1na2vs0mg"},{"bike_id":"f5d21177-422b-401b-9d09-2bae1c1adf85","system_id":"levelo_inurba_marseille","lat":43.30809,"lon":5.37663,"is_reserved":false,"is_disabled":false,"rental_uris":{"android":"levelo://app?vid=f5d21177-422b-401b-9d09-2bae1c1adf85","ios":"levelo://app?vid=f5d21177-422b-401b-9d09-2bae1c1adf85"},"vehicle_type_id":"4","last_reported":1728421737,"current_range_meters":2800,"station_id":"ce4bgv92rcd13ifvqcq0","pricing_plan_id":"cebpf4jnsgd1na2vs0mg"},{"bike_id":"587fe35f-2dc8-4faf-89f1-71be7107b8ea","system_id":"levelo_inurba_marseille","lat":43.28462,"lon":5.35882,"is_reserved":false,"is_disabled":false,"rental_uris":{"android":"levelo://app?vid=587fe35f-2dc8-4faf-89f1-71be7107b8ea","ios":"levelo://app?vid=587fe35f-2dc8-4faf-89f1-71be7107b8ea"},"vehicle_type_id":"4","last_reported":1728421737,"current_range_meters":22400,"station_id":"ce4bhah2rcd13ifvqei0","pricing_plan_id":"cebpf4jnsgd1na2vs0mg"},{"bike_id":"2275f7ca-a756-4a5c-bf43-bff3cf851320","system_id":"levelo_inurba_marseille","lat":43.27813,"lon":5.40707,"is_reserved":false,"is_disabled":false,"rental_uris":{"android":"levelo://app?vid=2275f7ca-a756-4a5c-bf43-bff3cf851320","ios":"levelo://app?vid=2275f7ca-a756-4a5c-bf43-bff3cf851320"},"vehicle_type_id":"4","last_reported":1728421737,"current_range_meters":39200,"station_id":"ce4bhnh2rcd13ifvqgtg","pricing_plan_id":"cebpf4jnsgd1na2vs0mg"},{"bike_id":"a0ae9df4-3c89-4859-a48f-b514099ef09c","system_id":"levelo_inurba_marseille","lat":43.316925,"lon":5.404898,"is_reserved":false,"is_disabled":false,"rental_uris":{"android":"levelo://app?vid=a0ae9df4-3c89-4859-a48f-b514099ef09c","ios":"levelo://app?vid=a0ae9df4-3c89-4859-a48f-b514099ef09c"},"vehicle_type_id":"4","last_reported":1728421737,"current_range_meters":26000,"station_id":"ce4bh012rcd13ifvqd00","pricing_plan_id":"cebpf4jnsgd1na2vs0mg"},{"bike_id":"7a5458a7-8b7f-4fa4-a74f-9e095b642605","system_id":"levelo_inurba_marseille","lat":43.25115,"lon":5.40317,"is_reserved":false,"is_disabled":false,"rental_uris":{"android":"levelo://app?vid=7a5458a7-8b7f-4fa4-a74f-9e095b642605","ios":"levelo://app?vid=7a5458a7-8b7f-4fa4-a74f-9e095b642605"},"vehicle_type_id":"4","last_reported":1728421737,"current_range_meters":36800,"station_id":"ce4bhlh2rcd13ifvqgig","pricing_plan_id":"cebpf4jnsgd1na2vs0mg"},{"bike_id":"cdc5a56c-4818-42f8-993e-73dffd6b8904","system_id":"levelo_inurba_marseille","lat":43.28484,"lon":5.38418,"is_reserved":false,"is_disabled":false,"rental_uris":{"android":"levelo://app?vid=cdc5a56c-4818-42f8-993e-73dffd6b8904","ios":"levelo://app?vid=cdc5a56c-4818-42f8-993e-73dffd6b8904"},"vehicle_type_id":"4","last_reported":1728421737,"current_range_meters":9600,"station_id":"ce4bh512rcd13ifvqe3g","pricing_plan_id":"cebpf4jnsgd1na2vs0mg"},{"bike_id":"923f6136-540e-45bb-926f-0ee0d11e3eea","system_id":"levelo_inurba_marseille","lat":43.31681,"lon":5.40473,"is_reserved":false,"is_disabled":false,"rental_uris":{"android":"levelo://app?vid=923f6136-540e-45bb-926f-0ee0d11e3eea","ios":"levelo://app?vid=923f6136-540e-45bb-926f-0ee0d11e3eea"},"vehicle_type_id":"4","last_reported":1728421737,"current_range_meters":27600,"station_id":"ce4bh012rcd13ifvqd00","pricing_plan_id":"cebpf4jnsgd1na2vs0mg"},{"bike_id":"ee3f614b-373b-449c-a58d-35e47f5eafd2","system_id":"levelo_inurba_marseille","lat":43.23203,"lon":5.35548,"is_reserved":false,"is_disabled":false,"rental_uris":{"android":"levelo://app?vid=ee3f614b-373b-449c-a58d-35e47f5eafd2","ios":"levelo://app?vid=ee3f614b-373b-449c-a58d-35e47f5eafd2"},"vehicle_type_id":"4","last_reported":1728421737,"current_range_meters":6400,"station_id":"ce4bhu92rcd13ifvqi70","pricing_plan_id":"cebpf4jnsgd1na2vs0mg"},{"bike_id":"9e3fe2e1-eca8-4201-b615-2eaf2b4dc3f2","system_id":"levelo_inurba_marseille","lat":43.23196,"lon":5.35552,"is_reserved":false,"is_disabled":false,"rental_uris":{"android":"levelo://app?vid=9e3fe2e1-eca8-4201-b615-2eaf2b4dc3f2","ios":"levelo://app?vid=9e3fe2e1-eca8-4201-b615-2eaf2b4dc3f2"},"vehicle_type_id":"4","last_reported":1728421737,"current_range_meters":36800,"station_id":"ce4bhu92rcd13ifvqi70","pricing_plan_id":"cebpf4jnsgd1na2vs0mg"},{"bike_id":"3317406c-3c96-44d4-bace-407713c54b2b","system_id":"levelo_inurba_marseille","lat":43.25494,"lon":5.37649,"is_reserved":false,"is_disabled":false,"rental_uris":{"android":"levelo://app?vid=3317406c-3c96-44d4-bace-407713c54b2b","ios":"levelo://app?vid=3317406c-3c96-44d4-bace-407713c54b2b"},"vehicle_type_id":"4","last_reported":1728421737,"current_range_meters":36000,"station_id":"ce4bhh12rcd13ifvqff0","pricing_plan_id":"cebpf4jnsgd1na2vs0mg"},{"bike_id":"a62e60d5-76e9-4d97-8bc0-b9f335121f55","system_id":"levelo_inurba_marseille","lat":43.3172,"lon":5.42401,"is_reserved":false,"is_disabled":false,"rental_uris":{"android":"levelo://app?vid=a62e60d5-76e9-4d97-8bc0-b9f335121f55","ios":"levelo://app?vid=a62e60d5-76e9-4d97-8bc0-b9f335121f55"},"vehicle_type_id":"4","last_reported":1728421737,"current_range_meters":10800,"station_id":"ce4bhp92rcd13ifvqhbg","pricing_plan_id":"cebpf4jnsgd1na2vs0mg"},