{"last_updated":1778623341,"ttl":60,"version":"2.2","data":{"bikes":[{"bike_id":"e0ebf5ac-9ebd-4307-bdee-4435f274c270","system_id":"levelo_inurba_marseille","lat":43.31115,"lon":5.37759,"is_reserved":false,"is_disabled":true,"rental_uris":{"android":"levelo://app?vid=e0ebf5ac-9ebd-4307-bdee-4435f274c270","ios":"levelo://app?vid=e0ebf5ac-9ebd-4307-bdee-4435f274c270"},"vehicle_type_id":"4","last_reported":1778623342,"current_range_meters":2800,"station_id":"ce4bgt92rcd13ifvqcg0","pricing_plan_id":"cebpf4jnsgd1na2vs0mg"},{"bike_id":"36a8230c-721c-4328-a9b6-c5c9ffd75279","system_id":"levelo_inurba_marseille","lat":43.33149,"lon":5.37688,"is_reserved":false,"is_disabled":true,"rental_uris":{"android":"levelo://app?vid=36a8230c-721c-4328-a9b6-c5c9ffd75279","ios":"levelo://app?vid=36a8230c-721c-4328-a9b6-c5c9ffd75279"},"vehicle_type_id":"4","last_reported":1778623342,"current_range_meters":2800,"station_id":"st_d46cu089ee8s73dldbu0","pricing_plan_id":"cebpf4jnsgd1na2vs0mg"},{"bike_id":"0a100951-596b-4998-879c-1e3ce20f9ef9","system_id":"levelo_inurba_marseille","lat":43.2731,"lon":5.39069,"is_reserved":false,"is_disabled":false,"rental_uris":{"android":"levelo://app?vid=0a100951-596b-4998-879c-1e3ce20f9ef9","ios":"levelo://app?vid=0a100951-596b-4998-879c-1e3ce20f9ef9"},"vehicle_type_id":"4","last_reported":1778623342,"current_range_meters":2800,"station_id":"ce4bhgp2rcd13ifvqfe0","pricing_plan_id":"cebpf4jnsgd1na2vs0mg"},{"bike_id":"d103bdeb-0322-4061-817a-17ab53c3baf8","system_id":"levelo_inurba_marseille","lat":43.25577,"lon":5.38229,"is_reserved":false,"is_disabled":false,"rental_uris":{"android":"levelo://app?vid=d103bdeb-0322-4061-817a-17ab53c3baf8","ios":"levelo://app?vid=d103bdeb-0322-4061-817a-17ab53c3baf8"},"vehicle_type_id":"4","last_reported":1778623342,"current_range_meters":2800,"station_id":"ce4bhih2rcd13ifvqfs0","pricing_plan_id":"cebpf4jnsgd1na2vs0mg"},{"bike_id":"0f19004c-8f50-46f9-a9d9-6bfd8920cac5","system_id":"levelo_inurba_marseille","lat":43.30153,"lon":5.38063,"is_reserved":false,"is_disabled":true,"rental_uris":{"android":"levelo://app?vid=0f19004c-8f50-46f9-a9d9-6bfd8920cac5","ios":"levelo://app?vid=0f19004c-8f50-46f9-a9d9-6bfd8920cac5"},"vehicle_type_id":"4","last_reported":1778623342,"current_range_meters":2800,"station_id":"ce4bgjp2rcd13ifvqbh0","pricing_plan_id":"cebpf4jnsgd1na2vs0mg"},{"bike_id":"62c56e7d-9a1f-4eaa-ba6e-06eb5b3ac23a","system_id":"levelo_inurba_marseille","lat":43.31182,"lon":5.38714,"is_reserved":false,"is_disabled":false,"rental_uris":{"android":"levelo://app?vid=62c56e7d-9a1f-4eaa-ba6e-06eb5b3ac23a","ios":"levelo://app?vid=62c56e7d-9a1f-4eaa-ba6e-06eb5b3ac23a"},"vehicle_type_id":"4","last_reported":1778623342,"current_range_meters":3200,"station_id":"ce4bgv12rcd13ifvqcp0","pricing_plan_id":"cebpf4jnsgd1na2vs0mg"},{"bike_id":"218d13da-7671-4767-92e4-04d15fc69aaa","system_id":"levelo_inurba_marseille","lat":43.29833,"lon":5.40532,"is_reserved":false,"is_disabled":false,"rental_uris":{"android":"levelo://app?vid=218d13da-7671-4767-92e4-04d15fc69aaa","ios":"levelo://app?vid=218d13da-7671-4767-92e4-04d15fc69aaa"},"vehicle_type_id":"4","last_reported":1778623342,"current_range_meters":3200,"station_id":"","pricing_plan_id":"cebpf4jnsgd1na2vs0mg"},{"bike_id":"acce5035-3230-448b-9940-952c36c5ee8e","system_id":"levelo_inurba_marseille","lat":43.32503,"lon":5.38318,"is_reserved":false,"is_disabled":false,"rental_uris":{"android":"levelo://app?vid=acce5035-3230-448b-9940-952c36c5ee8e","ios":"levelo://app?vid=acce5035-3230-448b-9940-952c36c5ee8e"},"vehicle_type_id":"4","last_reported":1778623342,"current_range_meters":3200,"station_id":"st_d4asgbiv49dc73anf9m0","pricing_plan_id":"cebpf4jnsgd1na2vs0mg"},{"bike_id":"54d91a13-5899-47f6-bec9-71223c378664","system_id":"levelo_inurba_marseille","lat":43.2848,"lon":5.4838,"is_reserved":false,"is_disabled":false,"rental_uris":{"android":"levelo://app?vid=54d91a13-5899-47f6-bec9-71223c378664","ios":"levelo://app?vid=54d91a13-5899-47f6-bec9-71223c378664"},"vehicle_type_id":"4","last_reported":1778623342,"current_range_meters":3200,"station_id":"","pricing_plan_id":"cebpf4jnsgd1na2vs0mg"},{"bike_id":"06ac39d4-2bb2-4e2e-8edb-ba4d1f24ca3b","system_id":"levelo_inurba_marseille","lat":43.2503,"lon":5.37621,"is_reserved":false,"is_disabled":false,"rental_uris":{"android":"levelo://app?vid=06ac39d4-2bb2-4e2e-8edb-ba4d1f24ca3b","ios":"levelo://app?vid=06ac39d4-2bb2-4e2e-8edb-ba4d1f24ca3b"},"vehicle_type_id":"4","last_reported":1778623342,"current_range_meters":3200,"station_id":"","pricing_plan_id":"cebpf4jnsgd1na2vs0mg"},{"bike_id":"daa7168a-7e89-4c13-9120-19d3be838e10","system_id":"levelo_inurba_marseille","lat":43.28698,"lon":5.46683,"is_reserved":false,"is_disabled":false,"rental_uris":{"android":"levelo://app?vid=daa7168a-7e89-4c13-9120-19d3be838e10","ios":"levelo://app?vid=daa7168a-7e89-4c13-9120-19d3be838e10"},"vehicle_type_id":"4","last_reported":1778623342,"current_range_meters":3600,"station_id":"st_d6tc3vkotcvc738tfjhg","pricing_plan_id":"cebpf4jnsgd1na2vs0mg"},{"bike_id":"ace5f4d9-0e5e-4930-8fac-4a59d54dd29a","system_id":"levelo_inurba_marseille","lat":43.28836,"lon":5.35855,"is_reserved":false,"is_disabled":false,"rental_uris":{"android":"levelo://app?vid=ace5f4d9-0e5e-4930-8fac-4a59d54dd29a","ios":"levelo://app?vid=ace5f4d9-0e5e-4930-8fac-4a59d54dd29a"},"vehicle_type_id":"4","last_reported":1778623342,"current_range_meters":3600,"station_id":"ce4bhb12rcd13ifvqem0","pricing_plan_id":"cebpf4jnsgd1na2vs0mg"},{"bike_id":"27f117c8-f9da-4deb-8c1d-d0e11602c0fb","system_id":"levelo_inurba_marseille","lat":43.26949,"lon":5.38689,"is_reserved":false,"is_disabled":false,"rental_uris":{"android":"levelo://app?vid=27f117c8-f9da-4deb-8c1d-d0e11602c0fb","ios":"levelo://app?vid=27f117c8-f9da-4deb-8c1d-d0e11602c0fb"},"vehicle_type_id":"4","last_reported":1778623342,"current_range_meters":3600,"station_id":"ce4bhh92rcd13ifvqfh0","pricing_plan_id":"cebpf4jnsgd1na2vs0mg"},{"bike_id":"dd5feadb-b554-4cfe-9b1d-0b0d811a7c97","system_id":"levelo_inurba_marseille","lat":43.31164,"lon":5.38697,"is_reserved":false,"is_disabled":false,"rental_uris":{"android":"levelo://app?vid=dd5feadb-b554-4cfe-9b1d-0b0d811a7c97","ios":"levelo://app?vid=dd5feadb-b554-4cfe-9b1d-0b0d811a7c97"},"vehicle_type_id":"4","last_reported":1778623342,"current_range_meters":3600,"station_id":"ce4bgv12rcd13ifvqcp0","pricing_plan_id":"cebpf4jnsgd1na2vs0mg"},{"bike_id":"dc0a6e21-47dd-44a5-9f73-3b0019341943","system_id":"levelo_inurba_marseille","lat":43.3049,"lon":5.46,"is_reserved":false,"is_disabled":false,"rental_uris":{"android":"levelo://app?vid=dc0a6e21-47dd-44a5-9f73-3b0019341943","ios":"levelo://app?vid=dc0a6e21-47dd-44a5-9f73-3b0019341943"},"vehicle_type_id":"4","last_reported":1778623342,"current_range_meters":3600,"station_id":"","pricing_plan_id":"cebpf4jnsgd1na2vs0mg"},{"bike_id":"d16850b9-552b-479b-b25f-3750d99e1665","system_id":"levelo_inurba_marseille","lat":43.2951,"lon":5.37504,"is_reserved":false,"is_disabled":false,"rental_uris":{"android":"levelo://app?vid=d16850b9-552b-479b-b25f-3750d99e1665","ios":"levelo://app?vid=d16850b9-552b-479b-b25f-3750d99e1665"},"vehicle_type_id":"4","last_reported":1778623342,"current_range_meters":3600,"station_id":"ce4bgkp2rcd13ifvqbmg","pricing_plan_id":"cebpf4jnsgd1na2vs0mg"},{"bike_id":"3a873739-bcf1-461a-bf3b-b7ef28d6bab3","system_id":"levelo_inurba_marseille","lat":43.274935,"lon":5.424517,"is_reserved":false,"is_disabled":false,"rental_uris":{"android":"levelo://app?vid=3a873739-bcf1-461a-bf3b-b7ef28d6bab3","ios":"levelo://app?vid=3a873739-bcf1-461a-bf3b-b7ef28d6bab3"},"vehicle_type_id":"4","last_reported":1778623342,"current_range_meters":4000,"station_id":"ce4bhn92rcd13ifvqgrg","pricing_plan_id":"cebpf4jnsgd1na2vs0mg"},{"bike_id":"b8fe5d8c-97dc-43fc-a51d-2e7a75471c8a","system_id":"levelo_inurba_marseille","lat":43.28585,"lon":5.37762,"is_reserved":false,"is_disabled":false,"rental_uris":{"android":"levelo://app?vid=b8fe5d8c-97dc-43fc-a51d-2e7a75471c8a","ios":"levelo://app?vid=b8fe5d8c-97dc-43fc-a51d-2e7a75471c8a"},"vehicle_type_id":"4","last_reported":1778623342,"current_range_meters":4000,"station_id":"","pricing_plan_id":"cebpf4jnsgd1na2vs0mg"},{"bike_id":"8f977c3b-162f-41ba-a59e-68f228fee342","system_id":"levelo_inurba_marseille","lat":43.2836,"lon":5.38635,"is_reserved":false,"is_disabled":false,"rental_uris":{"android":"levelo://app?vid=8f977c3b-162f-41ba-a59e-68f228fee342","ios":"levelo://app?vid=8f977c3b-162f-41ba-a59e-68f228fee342"},"vehicle_type_id":"4","last_reported":1778623342,"current_range_meters":4000,"station_id":"ce4bh492rcd13ifvqdvg","pricing_plan_id":"cebpf4jnsgd1na2vs0mg"},{"bike_id":"ac7fcd26-ac13-490f-90ff-4603d3ec029b","system_id":"levelo_inurba_marseille","lat":43.2998,"lon":5.3848,"is_reserved":false,"is_disabled":false,"rental_uris":{"android":"levelo://app?vid=ac7fcd26-ac13-490f-90ff-4603d3ec029b","ios":"levelo://app?vid=ac7fcd26-ac13-490f-90ff-4603d3ec029b"},"vehicle_type_id":"4","last_reported":1778623342,"current_range_meters":4000,"station_id":"ce4bgj92rcd13ifvqbd0","pricing_plan_id":"cebpf4jnsgd1na2vs0mg"},{"bike_id":"f4132285-522c-4bed-81c5-e581d87d2be0","system_id":"levelo_inurba_marseille","lat":43.31529,"lon":5.38031,"is_reserved":false,"is_disabled":false,"rental_uris":{"android":"levelo://app?vid=f4132285-522c-4bed-81c5-e581d87d2be0","ios":"levelo://app?vid=f4132285-522c-4bed-81c5-e581d87d2be0"},"vehicle_type_id":"4","last_reported":1778623342,"current_range_meters":4000,"station_id":"ce4bhsp2rcd13ifvqi50","pricing_plan_id":"cebpf4jnsgd1na2vs0mg"},{"bike_id":"819a3868-e86b-4761-85f7-cd647e1f51b3","system_id":"levelo_inurba_marseille","lat":43.21189,"lon":5.35071,"is_reserved":false,"is_disabled":false,"rental_uris":{"android":"levelo://app?vid=819a3868-e86b-4761-85f7-cd647e1f51b3","ios":"levelo://app?vid=819a3868-e86b-4761-85f7-cd647e1f51b3"},"vehicle_type_id":"4","last_reported":1778623342,"current_range_meters":4000,"station_id":"st_cvj6sg6p6f1abm77japg","pricing_plan_id":"cebpf4jnsgd1na2vs0mg"},{"bike_id":"46672c75-8380-4d67-8e7d-e6b7b40ef82c","system_id":"levelo_inurba_marseille","lat":43.30779,"lon":5.37654,"is_reserved":false,"is_disabled":false,"rental_uris":{"android":"levelo://app?vid=46672c75-8380-4d67-8e7d-e6b7b40ef82c","ios":"levelo://app?vid=46672c75-8380-4d67-8e7d-e6b7b40ef82c"},"vehicle_type_id":"4","last_reported":1778623342,"current_range_meters":4000,"station_id":"ce4bgv92rcd13ifvqcq0","pricing_plan_id":"cebpf4jnsgd1na2vs0mg"},{"bike_id":"20802a3e-ad3e-4195-b336-4cc9e5cb45f7","system_id":"levelo_inurba_marseille","lat":43.29719,"lon":5.37719,"is_reserved":false,"is_disabled":false,"rental_uris":{"android":"levelo://app?vid=20802a3e-ad3e-4195-b336-4cc9e5cb45f7","ios":"levelo://app?vid=20802a3e-ad3e-4195-b336-4cc9e5cb45f7"},"vehicle_type_id":"4","last_reported":1778623342,"current_range_meters":4000,"station_id":"ce4bgkh2rcd13ifvqbl0","pricing_plan_id":"cebpf4jnsgd1na2vs0mg"},{"bike_id":"7e3307b6-4556-4701-98e3-b6f55c7f586e","system_id":"levelo_inurba_marseille","lat":43.31174,"lon":5.38701,"is_reserved":false,"is_disabled":false,"rental_uris":{"android":"levelo://app?vid=7e3307b6-4556-4701-98e3-b6f55c7f586e","ios":"levelo://app?vid=7e3307b6-4556-4701-98e3-b6f55c7f586e"},"vehicle_type_id":"4","last_reported":1778623342,"current_range_meters":4000,"station_id":"ce4bgv12rcd13ifvqcp0","pricing_plan_id":"cebpf4jnsgd1na2vs0mg"},{"bike_id":"ed0249b4-fe2f-48d7-8a4d-14b41929414f","system_id":"levelo_inurba_marseille","lat":43.28355,"lon":5.38089,"is_reserved":false,"is_disabled":false,"rental_uris":{"android":"levelo://app?vid=ed0249b4-fe2f-48d7-8a4d-14b41929414f","ios":"levelo://app?vid=ed0249b4-fe2f-48d7-8a4d-14b41929414f"},"vehicle_type_id":"4","last_reported":1778623342,"current_range_meters":4000,"station_id":"ce4bh412rcd13ifvqdr0","pricing_plan_id":"cebpf4jnsgd1na2vs0mg"},{"bike_id":"0f749ae9-2e7d-44c0-911f-7e5d37b59ba6","system_id":"levelo_inurba_marseille","lat":43.27839,"lon":5.39209,"is_reserved":false,"is_disabled":false,"rental_uris":{"android":"levelo://app?vid=0f749ae9-2e7d-44c0-911f-7e5d37b59ba6","ios":"levelo://app?vid=0f749ae9-2e7d-44c0-911f-7e5d37b59ba6"},"vehicle_type_id":"4","last_reported":1778623342,"current_range_meters":4000,"station_id":"ce4bhjp2rcd13ifvqga0","pricing_plan_id":"cebpf4jnsgd1na2vs0mg"},{"bike_id":"dba3a41e-5817-4dab-887a-39cfc182c3e4","system_id":"levelo_inurba_marseille","lat":43.23796,"lon":5.36619,"is_reserved":false,"is_disabled":true,"rental_uris":{"android":"levelo://app?vid=dba3a41e-5817-4dab-887a-39cfc182c3e4","ios":"levelo://app?vid=dba3a41e-5817-4dab-887a-39cfc182c3e4"},"vehicle_type_id":"4","last_reported":1778623342,"current_range_meters":4400,"station_id":"st_d3nk18o9ro0c73en2l3g","pricing_plan_id":"cebpf4jnsgd1na2vs0mg"},{"bike_id":"37675d96-e2ec-44ec-8ab3-485f0bd8765e","system_id":"levelo_inurba_marseille","lat":43.27937,"lon":5.38703,"is_reserved":false,"is_disabled":false,"rental_uris":{"android":"levelo://app?vid=37675d96-e2ec-44ec-8ab3-485f0bd8765e","ios":"levelo://app?vid=37675d96-e2ec-44ec-8ab3-485f0bd8765e"},"vehicle_type_id":"4","last_reported":1778623342,"current_range_meters":4400,"station_id":"","pricing_plan_id":"cebpf4jnsgd1na2vs0mg"},{"bike_id":"23b6dc26-1392-4fa8-9cc5-0f40ceb1f1c5","system_id":"levelo_inurba_marseille","lat":43.28692,"lon":5.46673,"is_reserved":false,"is_disabled":false,"rental_uris":{"android":"levelo://app?vid=23b6dc26-1392-4fa8-9cc5-0f40ceb1f1c5","ios":"levelo://app?vid=23b6dc26-1392-4fa8-9cc5-0f40ceb1f1c5"},"vehicle_type_id":"4","last_reported":1778623342,"current_range_meters":4400,"station_id":"st_d6tc3vkotcvc738tfjhg","pricing_plan_id":"cebpf4jnsgd1na2vs0mg"},{"bike_id":"062930f4-256c-4994-aaa4-dcf3f07affd4","system_id":"levelo_inurba_marseille","lat":43.28659,"lon":5.3634,"is_reserved":false,"is_disabled":false,"rental_uris":{"android":"levelo://app?vid=062930f4-256c-4994-aaa4-dcf3f07affd4","ios":"levelo://app?vid=062930f4-256c-4994-aaa4-dcf3f07affd4"},"vehicle_type_id":"4","last_reported":1778623342,"current_range_meters":4400,"station_id":"ce4bhah2rcd13ifvqej0","pricing_plan_id":"cebpf4jnsgd1na2vs0mg"},{"bike_id":"a309724a-584e-48ab-bfea-99e1efd0c4b3","system_id":"levelo_inurba_marseille","lat":43.31999,"lon":5.3816,"is_reserved":false,"is_disabled":false,"rental_uris":{"android":"levelo://app?vid=a309724a-584e-48ab-bfea-99e1efd0c4b3","ios":"levelo://app?vid=a309724a-584e-48ab-bfea-99e1efd0c4b3"},"vehicle_type_id":"4","last_reported":1778623342,"current_range_meters":4400,"station_id":"ce4bhr12rcd13ifvqhpg","pricing_plan_id":"cebpf4jnsgd1na2vs0mg"},{"bike_id":"9b348362-3113-4cdb-9853-386198141aa4","system_id":"levelo_inurba_marseille","lat":43.29026,"lon":5.38629,"is_reserved":false,"is_disabled":false,"rental_uris":{"android":"levelo://app?vid=9b348362-3113-4cdb-9853-386198141aa4","ios":"levelo://app?vid=9b348362-3113-4cdb-9853-386198141aa4"},"vehicle_type_id":"4","last_reported":1778623342,"current_range_meters":4400,"station_id":"ce4bh4p2rcd13ifvqe0g","pricing_plan_id":"cebpf4jnsgd1na2vs0mg"},{"bike_id":"a6073d1e-2a9d-46ee-9d4d-fa8ecd0193c4","system_id":"levelo_inurba_marseille","lat":43.3096,"lon":5.40192,"is_reserved":false,"is_disabled":false,"rental_uris":{"android":"levelo://app?vid=a6073d1e-2a9d-46ee-9d4d-fa8ecd0193c4","ios":"levelo://app?vid=a6073d1e-2a9d-46ee-9d4d-fa8ecd0193c4"},"vehicle_type_id":"4","last_reported":1778623342,"current_range_meters":4400,"station_id":"ce4bgvp2rcd13ifvqct0","pricing_plan_id":"cebpf4jnsgd1na2vs0mg"},{"bike_id":"4e9e9f19-6747-44e6-895b-68838dd6a1c5","system_id":"levelo_inurba_marseille","lat":43.3235,"lon":5.36746,"is_reserved":false,"is_disabled":false,"rental_uris":{"android":"levelo://app?vid=4e9e9f19-6747-44e6-895b-68838dd6a1c5","ios":"levelo://app?vid=4e9e9f19-6747-44e6-895b-68838dd6a1c5"},"vehicle_type_id":"4","last_reported":1778623342,"current_range_meters":4400,"station_id":"ce4bhsh2rcd13ifvqi2g","pricing_plan_id":"cebpf4jnsgd1na2vs0mg"},{"bike_id":"06ace5d7-3d4b-48bb-9ba8-5a2e1fabdaaf","system_id":"levelo_inurba_marseille","lat":43.337518,"lon":5.374433,"is_reserved":false,"is_disabled":false,"rental_uris":{"android":"levelo://app?vid=06ace5d7-3d4b-48bb-9ba8-5a2e1fabdaaf","ios":"levelo://app?vid=06ace5d7-3d4b-48bb-9ba8-5a2e1fabdaaf"},"vehicle_type_id":"4","last_reported":1778623342,"current_range_meters":4400,"station_id":"","pricing_plan_id":"cebpf4jnsgd1na2vs0mg"},{"bike_id":"08b0c056-213f-48c2-9d6d-2ae4cf315af9","system_id":"levelo_inurba_marseille","lat":43.25334,"lon":5.42175,"is_reserved":false,"is_disabled":false,"rental_uris":{"android":"levelo://app?vid=08b0c056-213f-48c2-9d6d-2ae4cf315af9","ios":"levelo://app?vid=08b0c056-213f-48c2-9d6d-2ae4cf315af9"},"vehicle_type_id":"4","last_reported":1778623342,"current_range_meters":4400,"station_id":"st_d2m65c5bi1j21697t3ng","pricing_plan_id":"cebpf4jnsgd1na2vs0mg"},{"bike_id":"bd506247-2f6a-40a7-8d36-48669b7e64ee","system_id":"levelo_inurba_marseille","lat":43.29965,"lon":5.37165,"is_reserved":false,"is_disabled":false,"rental_uris":{"android":"levelo://app?vid=bd506247-2f6a-40a7-8d36-48669b7e64ee","ios":"levelo://app?vid=bd506247-2f6a-40a7-8d36-48669b7e64ee"},"vehicle_type_id":"4","last_reported":1778623342,"current_range_meters":4800,"station_id":"ce4bgr92rcd13ifvqc7g","pricing_plan_id":"cebpf4jnsgd1na2vs0mg"},{"bike_id":"bb883d36-d526-4613-874f-fbf82a7a374b","system_id":"levelo_inurba_marseille","lat":43.29695,"lon":5.37008,"is_reserved":false,"is_disabled":false,"rental_uris":{"android":"levelo://app?vid=bb883d36-d526-4613-874f-fbf82a7a374b","ios":"levelo://app?vid=bb883d36-d526-4613-874f-fbf82a7a374b"},"vehicle_type_id":"4","last_reported":1778623342,"current_range_meters":4800,"station_id":"","pricing_plan_id":"cebpf4jnsgd1na2vs0mg"},{"bike_id":"a4a64cb0-a6a1-48e4-b005-689a18031579","system_id":"levelo_inurba_marseille","lat":43.30128,"lon":5.38793,"is_reserved":false,"is_disabled":false,"rental_uris":{"android":"levelo://app?vid=a4a64cb0-a6a1-48e4-b005-689a18031579","ios":"levelo://app?vid=a4a64cb0-a6a1-48e4-b005-689a18031579"},"vehicle_type_id":"4","last_reported":1778623342,"current_range_meters":4800,"station_id":"ce4bghh2rcd13ifvqb60","pricing_plan_id":"cebpf4jnsgd1na2vs0mg"},{"bike_id":"26fa3f14-7b4c-43d4-a89b-42aa6c9925c7","system_id":"levelo_inurba_marseille","lat":43.2859,"lon":5.39934,"is_reserved":false,"is_disabled":false,"rental_uris":{"android":"levelo://app?vid=26fa3f14-7b4c-43d4-a89b-42aa6c9925c7","ios":"levelo://app?vid=26fa3f14-7b4c-43d4-a89b-42aa6c9925c7"},"vehicle_type_id":"4","last_reported":1778623342,"current_range_meters":4800,"station_id":"","pricing_plan_id":"cebpf4jnsgd1na2vs0mg"},{"bike_id":"5b2b3f46-5aac-4a36-9f68-4263262ea6fb","system_id":"levelo_inurba_marseille","lat":43.27913,"lon":5.39573,"is_reserved":false,"is_disabled":false,"rental_uris":{"android":"levelo://app?vid=5b2b3f46-5aac-4a36-9f68-4263262ea6fb","ios":"levelo://app?vid=5b2b3f46-5aac-4a36-9f68-4263262ea6fb"},"vehicle_type_id":"4","last_reported":1778623342,"current_range_meters":4800,"station_id":"ce4bhf92rcd13ifvqf40","pricing_plan_id":"cebpf4jnsgd1na2vs0mg"},{"bike_id":"14059eb2-1b3f-4461-b0ee-158772daa7a1","system_id":"levelo_inurba_marseille","lat":43.3127,"lon":5.40171,"is_reserved":false,"is_disabled":true,"rental_uris":{"android":"levelo://app?vid=14059eb2-1b3f-4461-b0ee-158772daa7a1","ios":"levelo://app?vid=14059eb2-1b3f-4461-b0ee-158772daa7a1"},"vehicle_type_id":"4","last_reported":1778623342,"current_range_meters":4800,"station_id":"ce4bh092rcd13ifvqd30","pricing_plan_id":"cebpf4jnsgd1na2vs0mg"},{"bike_id":"f75200eb-c556-489f-9d74-42038266db2e","system_id":"levelo_inurba_marseille","lat":43.29227,"lon":5.3998,"is_reserved":false,"is_disabled":false,"rental_uris":{"android":"levelo://app?vid=f75200eb-c556-489f-9d74-42038266db2e","ios":"levelo://app?vid=f75200eb-c556-489f-9d74-42038266db2e"},"vehicle_type_id":"4","last_reported":1778623342,"current_range_meters":4800,"station_id":"ce4bh312rcd13ifvqdk0","pricing_plan_id":"cebpf4jnsgd1na2vs0mg"},{"bike_id":"40118873-8835-4ceb-bd64-fd7d091307f9","system_id":"levelo_inurba_marseille","lat":43.31152,"lon":5.38707,"is_reserved":false,"is_disabled":false,"rental_uris":{"android":"levelo://app?vid=40118873-8835-4ceb-bd64-fd7d091307f9","ios":"levelo://app?vid=40118873-8835-4ceb-bd64-fd7d091307f9"},"vehicle_type_id":"4","last_reported":1778623342,"current_range_meters":4800,"station_id":"ce4bgv12rcd13ifvqcp0","pricing_plan_id":"cebpf4jnsgd1na2vs0mg"},{"bike_id":"8e43356a-6894-4729-8a36-e254d80b24c0","system_id":"levelo_inurba_marseille","lat":43.29134,"lon":5.43262,"is_reserved":false,"is_disabled":false,"rental_uris":{"android":"levelo://app?vid=8e43356a-6894-4729-8a36-e254d80b24c0","ios":"levelo://app?vid=8e43356a-6894-4729-8a36-e254d80b24c0"},"vehicle_type_id":"4","last_reported":1778623342,"current_range_meters":4800,"station_id":"","pricing_plan_id":"cebpf4jnsgd1na2vs0mg"},{"bike_id":"c4a39941-4b69-4697-a3ce-af3df8a6d218","system_id":"levelo_inurba_marseille","lat":43.27657,"lon":5.36258,"is_reserved":false,"is_disabled":false,"rental_uris":{"android":"levelo://app?vid=c4a39941-4b69-4697-a3ce-af3df8a6d218","ios":"levelo://app?vid=c4a39941-4b69-4697-a3ce-af3df8a6d218"},"vehicle_type_id":"4","last_reported":1778623342,"current_range_meters":4800,"station_id":"","pricing_plan_id":"cebpf4jnsgd1na2vs0mg"},{"bike_id":"22eeee5a-41db-400c-9bdd-eed0ffb962e0","system_id":"levelo_inurba_marseille","lat":43.24076,"lon":5.37756,"is_reserved":false,"is_disabled":false,"rental_uris":{"android":"levelo://app?vid=22eeee5a-41db-400c-9bdd-eed0ffb962e0","ios":"levelo://app?vid=22eeee5a-41db-400c-9bdd-eed0ffb962e0"},"vehicle_type_id":"4","last_reported":1778623342,"current_range_meters":4800,"station_id":"ce4bhnp2rcd13ifvqgvg","pricing_plan_id":"cebpf4jnsgd1na2vs0mg"},{"bike_id":"1373437b-06f5-49a1-ae22-3a5fcb53cb84","system_id":"levelo_inurba_marseille","lat":43.25083,"lon":5.39522,"is_reserved":false,"is_disabled":false,"rental_uris":{"android":"levelo://app?vid=1373437b-06f5-49a1-ae22-3a5fcb53cb84","ios":"levelo://app?vid=1373437b-06f5-49a1-ae22-3a5fcb53cb84"},"vehicle_type_id":"4","last_reported":1778623342,"current_range_meters":4800,"station_id":"ce4bhm12rcd13ifvqgkg","pricing_plan_id":"cebpf4jnsgd1na2vs0mg"},{"bike_id":"d9666609-26f4-4f22-93cd-248424a7a105","system_id":"levelo_inurba_marseille","lat":43.30377,"lon":5.39773,"is_reserved":false,"is_disabled":false,"rental_uris":{"android":"levelo://app?vid=d9666609-26f4-4f22-93cd-248424a7a105","ios":"levelo://app?vid=d9666609-26f4-4f22-93cd-248424a7a105"},"vehicle_type_id":"4","last_reported":1778623342,"current_range_meters":5600,"station_id":"","pricing_plan_id":"cebpf4jnsgd1na2vs0mg"},{"bike_id":"d903db2b-3c4f-4ebd-adb5-e9d51955ecf8","system_id":"levelo_inurba_marseille","lat":43.2754,"lon":5.35904,"is_reserved":false,"is_disabled":false,"rental_uris":{"android":"levelo://app?vid=d903db2b-3c4f-4ebd-adb5-e9d51955ecf8","ios":"levelo://app?vid=d903db2b-3c4f-4ebd-adb5-e9d51955ecf8"},"vehicle_type_id":"4","last_reported":1778623342,"current_range_meters":5600,"station_id":"","pricing_plan_id":"cebpf4jnsgd1na2vs0mg"},{"bike_id":"d1e625f4-f7a3-447e-9d9b-d52dfc59b3ee","system_id":"levelo_inurba_marseille","lat":43.29029,"lon":5.39956,"is_reserved":false,"is_disabled":false,"rental_uris":{"android":"levelo://app?vid=d1e625f4-f7a3-447e-9d9b-d52dfc59b3ee","ios":"levelo://app?vid=d1e625f4-f7a3-447e-9d9b-d52dfc59b3ee"},"vehicle_type_id":"4","last_reported":1778623342,"current_range_meters":5600,"station_id":"ce4bh392rcd13ifvqdm0","pricing_plan_id":"cebpf4jnsgd1na2vs0mg"},{"bike_id":"9f9cc4d4-6448-4fe0-9bba-35816aedf1fe","system_id":"levelo_inurba_marseille","lat":43.24544,"lon":5.39512,"is_reserved":false,"is_disabled":false,"rental_uris":{"android":"levelo://app?vid=9f9cc4d4-6448-4fe0-9bba-35816aedf1fe","ios":"levelo://app?vid=9f9cc4d4-6448-4fe0-9bba-35816aedf1fe"},"vehicle_type_id":"4","last_reported":1778623342,"current_range_meters":5600,"station_id":"ce4bhlp2rcd13ifvqgjg","pricing_plan_id":"cebpf4jnsgd1na2vs0mg"},{"bike_id":"0e6d4b56-486f-4728-b003-09b611c4e69e","system_id":"levelo_inurba_marseille","lat":43.28846,"lon":5.35839,"is_reserved":false,"is_disabled":false,"rental_uris":{"android":"levelo://app?vid=0e6d4b56-486f-4728-b003-09b611c4e69e","ios":"levelo://app?vid=0e6d4b56-486f-4728-b003-09b611c4e69e"},"vehicle_type_id":"4","last_reported":1778623342,"current_range_meters":5600,"station_id":"ce4bhb12rcd13ifvqem0","pricing_plan_id":"cebpf4jnsgd1na2vs0mg"},{"bike_id":"ff431536-2034-4b27-a3b0-3e2d18d432c7","system_id":"levelo_inurba_marseille","lat":43.28031,"lon":5.36955,"is_reserved":false,"is_disabled":false,"rental_uris":{"android":"levelo://app?vid=ff431536-2034-4b27-a3b0-3e2d18d432c7","ios":"levelo://app?vid=ff431536-2034-4b27-a3b0-3e2d18d432c7"},"vehicle_type_id":"4","last_reported":1778623342,"current_range_meters":5600,"station_id":"ce4bha12rcd13ifvqef0","pricing_plan_id":"cebpf4jnsgd1na2vs0mg"},{"bike_id":"1224442a-12ab-4d10-abcf-bae65d6752c5","system_id":"levelo_inurba_marseille","lat":43.295302,"lon":5.385416,"is_reserved":false,"is_disabled":false,"rental_uris":{"android":"levelo://app?vid=1224442a-12ab-4d10-abcf-bae65d6752c5","ios":"levelo://app?vid=1224442a-12ab-4d10-abcf-bae65d6752c5"},"vehicle_type_id":"4","last_reported":1778623342,"current_range_meters":5600,"station_id":"ce4bgih2rcd13ifvqba0","pricing_plan_id":"cebpf4jnsgd1na2vs0mg"},{"bike_id":"995a2d1d-9360-4eea-964f-729947ed4581","system_id":"levelo_inurba_marseille","lat":43.29806,"lon":5.39706,"is_reserved":false,"is_disabled":false,"rental_uris":{"android":"levelo://app?vid=995a2d1d-9360-4eea-964f-729947ed4581","ios":"levelo://app?vid=995a2d1d-9360-4eea-964f-729947ed4581"},"vehicle_type_id":"4","last_reported":1778623342,"current_range_meters":5600,"station_id":"","pricing_plan_id":"cebpf4jnsgd1na2vs0mg"},{"bike_id":"cc08138b-40fc-4068-b5f2-bde9c76a7e40","system_id":"levelo_inurba_marseille","lat":43.34146,"lon":5.40928,"is_reserved":false,"is_disabled":true,"rental_uris":{"android":"levelo://app?vid=cc08138b-40fc-4068-b5f2-bde9c76a7e40","ios":"levelo://app?vid=cc08138b-40fc-4068-b5f2-bde9c76a7e40"},"vehicle_type_id":"4","last_reported":1778623342,"current_range_meters":5600,"station_id":"ce4bhqh2rcd13ifvqhlg","pricing_plan_id":"cebpf4jnsgd1na2vs0mg"},{"bike_id":"946d3395-a1fc-4c85-99ee-e555a66a34c8","system_id":"levelo_inurba_marseille","lat":43.28476,"lon":5.35847,"is_reserved":false,"is_disabled":false,"rental_uris":{"android":"levelo://app?vid=946d3395-a1fc-4c85-99ee-e555a66a34c8","ios":"levelo://app?vid=946d3395-a1fc-4c85-99ee-e555a66a34c8"},"vehicle_type_id":"4","last_reported":1778623342,"current_range_meters":5600,"station_id":"ce4bhah2rcd13ifvqei0","pricing_plan_id":"cebpf4jnsgd1na2vs0mg"},{"bike_id":"e6db684c-41c8-41d3-8748-cdf012b08e85","system_id":"levelo_inurba_marseille","lat":43.28718,"lon":5.37942,"is_reserved":false,"is_disabled":false,"rental_uris":{"android":"levelo://app?vid=e6db684c-41c8-41d3-8748-cdf012b08e85","ios":"levelo://app?vid=e6db684c-41c8-41d3-8748-cdf012b08e85"},"vehicle_type_id":"4","last_reported":1778623342,"current_range_meters":5600,"station_id":"ce4bh9p2rcd13ifvqec0","pricing_plan_id":"cebpf4jnsgd1na2vs0mg"},{"bike_id":"e4d1d3ae-d2ef-44bd-abeb-266368a40bd9","system_id":"levelo_inurba_marseille","lat":43.3032,"lon":5.40438,"is_reserved":false,"is_disabled":false,"rental_uris":{"android":"levelo://app?vid=e4d1d3ae-d2ef-44bd-abeb-266368a40bd9","ios":"levelo://app?vid=e4d1d3ae-d2ef-44bd-abeb-266368a40bd9"},"vehicle_type_id":"4","last_reported":1778623342,"current_range_meters":5600,"station_id":"ce4bh012rcd13ifvqd10","pricing_plan_id":"cebpf4jnsgd1na2vs0mg"},{"bike_id":"e6838ae8-7115-4aed-b331-3b663ddf858f","system_id":"levelo_inurba_marseille","lat":43.31161,"lon":5.38718,"is_reserved":false,"is_disabled":false,"rental_uris":{"android":"levelo://app?vid=e6838ae8-7115-4aed-b331-3b663ddf858f","ios":"levelo://app?vid=e6838ae8-7115-4aed-b331-3b663ddf858f"},"vehicle_type_id":"4","last_reported":1778623342,"current_range_meters":5600,"station_id":"ce4bgv12rcd13ifvqcp0","pricing_plan_id":"cebpf4jnsgd1na2vs0mg"},{"bike_id":"e47e753a-058b-444f-94c7-09def8951ab4","system_id":"levelo_inurba_marseille","lat":43.2919,"lon":5.3932,"is_reserved":false,"is_disabled":false,"rental_uris":{"android":"levelo://app?vid=e47e753a-058b-444f-94c7-09def8951ab4","ios":"levelo://app?vid=e47e753a-058b-444f-94c7-09def8951ab4"},"vehicle_type_id":"4","last_reported":1778623342,"current_range_meters":5600,"station_id":"ce4bh192rcd13ifvqdd0","pricing_plan_id":"cebpf4jnsgd1na2vs0mg"},{"bike_id":"93a22529-c67b-4c75-b2d8-922da7651d60","system_id":"levelo_inurba_marseille","lat":43.29767,"lon":5.38097,"is_reserved":false,"is_disabled":true,"rental_uris":{"android":"levelo://app?vid=93a22529-c67b-4c75-b2d8-922da7651d60","ios":"levelo://app?vid=93a22529-c67b-4c75-b2d8-922da7651d60"},"vehicle_type_id":"4","last_reported":1778623342,"current_range_meters":5600,"station_id":"ce4bgip2rcd13ifvqbb0","pricing_plan_id":"cebpf4jnsgd1na2vs0mg"},{"bike_id":"f9b67939-8171-44dc-8ed9-d082587fc1d4","system_id":"levelo_inurba_marseille","lat":43.27936,"lon":5.39538,"is_reserved":false,"is_disabled":false,"rental_uris":{"android":"levelo://app?vid=f9b67939-8171-44dc-8ed9-d082587fc1d4","ios":"levelo://app?vid=f9b67939-8171-44dc-8ed9-d082587fc1d4"},"vehicle_type_id":"4","last_reported":1778623342,"current_range_meters":5600,"station_id":"ce4bhf92rcd13ifvqf40","pricing_plan_id":"cebpf4jnsgd1na2vs0mg"},{"bike_id":"429878c0-0fc3-4972-a55a-9c45ef7b1292","system_id":"levelo_inurba_marseille","lat":43.28849,"lon":5.39309,"is_reserved":false,"is_disabled":false,"rental_uris":{"android":"levelo://app?vid=429878c0-0fc3-4972-a55a-9c45ef7b1292","ios":"levelo://app?vid=429878c0-0fc3-4972-a55a-9c45ef7b1292"},"vehicle_type_id":"4","last_reported":1778623342,"current_range_meters":5600,"station_id":"ce4bh2p2rcd13ifvqdi0","pricing_plan_id":"cebpf4jnsgd1na2vs0mg"},{"bike_id":"2186d878-1c12-4272-ab03-752b9242ff5a","system_id":"levelo_inurba_marseille","lat":43.30214,"lon":5.39475,"is_reserved":false,"is_disabled":false,"rental_uris":{"android":"levelo://app?vid=2186d878-1c12-4272-ab03-752b9242ff5a","ios":"levelo://app?vid=2186d878-1c12-4272-ab03-752b9242ff5a"},"vehicle_type_id":"4","last_reported":1778623342,"current_range_meters":5600,"station_id":"ce4bh0p2rcd13ifvqd70","pricing_plan_id":"cebpf4jnsgd1na2vs0mg"},{"bike_id":"07a9b671-4f11-4201-95b6-67d884bae6f1","system_id":"levelo_inurba_marseille","lat":43.25011,"lon":5.40429,"is_reserved":false,"is_disabled":false,"rental_uris":{"android":"levelo://app?vid=07a9b671-4f11-4201-95b6-67d884bae6f1","ios":"levelo://app?vid=07a9b671-4f11-4201-95b6-67d884bae6f1"},"vehicle_type_id":"4","last_reported":1778623342,"current_range_meters":5600,"station_id":"","pricing_plan_id":"cebpf4jnsgd1na2vs0mg"},{"bike_id":"d5567eef-68c5-4ee5-895a-b2f3b2a5fbe3","system_id":"levelo_inurba_marseille","lat":43.31283,"lon":5.40167,"is_reserved":false,"is_disabled":false,"rental_uris":{"android":"levelo://app?vid=d5567eef-68c5-4ee5-895a-b2f3b2a5fbe3","ios":"levelo://app?vid=d5567eef-68c5-4ee5-895a-b2f3b2a5fbe3"},"vehicle_type_id":"4","last_reported":1778623342,"current_range_meters":6000,"station_id":"ce4bh092rcd13ifvqd30","pricing_plan_id":"cebpf4jnsgd1na2vs0mg"},{"bike_id":"7eeaae49-e5ae-480b-aac7-0267ac4b47fd","system_id":"levelo_inurba_marseille","lat":43.25576,"lon":5.38241,"is_reserved":false,"is_disabled":false,"rental_uris":{"android":"levelo://app?vid=7eeaae49-e5ae-480b-aac7-0267ac4b47fd","ios":"levelo://app?vid=7eeaae49-e5ae-480b-aac7-0267ac4b47fd"},"vehicle_type_id":"4","last_reported":1778623342,"current_range_meters":6000,"station_id":"ce4bhih2rcd13ifvqfs0","pricing_plan_id":"cebpf4jnsgd1na2vs0mg"},{"bike_id":"61195f8c-df5f-4867-8563-8cdbcf8d80ea","system_id":"levelo_inurba_marseille","lat":43.25855,"lon":5.39927,"is_reserved":false,"is_disabled":true,"rental_uris":{"android":"levelo://app?vid=61195f8c-df5f-4867-8563-8cdbcf8d80ea","ios":"levelo://app?vid=61195f8c-df5f-4867-8563-8cdbcf8d80ea"},"vehicle_type_id":"4","last_reported":1778623342,"current_range_meters":6000,"station_id":"ce4bhl92rcd13ifvqghg","pricing_plan_id":"cebpf4jnsgd1na2vs0mg"},{"bike_id":"0f1807cc-9d93-4021-8b9a-9457f4117b8b","system_id":"levelo_inurba_marseille","lat":43.32084,"lon":5.36806,"is_reserved":false,"is_disabled":false,"rental_uris":{"android":"levelo://app?vid=0f1807cc-9d93-4021-8b9a-9457f4117b8b","ios":"levelo://app?vid=0f1807cc-9d93-4021-8b9a-9457f4117b8b"},"vehicle_type_id":"4","last_reported":1778623342,"current_range_meters":6000,"station_id":"ce4bhrh2rcd13ifvqhug","pricing_plan_id":"cebpf4jnsgd1na2vs0mg"},{"bike_id":"38ae2b0f-3623-4776-8f73-02a2bd5cb856","system_id":"levelo_inurba_marseille","lat":43.31157,"lon":5.38718,"is_reserved":false,"is_disabled":false,"rental_uris":{"android":"levelo://app?vid=38ae2b0f-3623-4776-8f73-02a2bd5cb856","ios":"levelo://app?vid=38ae2b0f-3623-4776-8f73-02a2bd5cb856"},"vehicle_type_id":"4","last_reported":1778623342,"current_range_meters":6000,"station_id":"ce4bgv12rcd13ifvqcp0","pricing_plan_id":"cebpf4jnsgd1na2vs0mg"},{"bike_id":"61042484-dcc3-4e21-b302-39f97578454f","system_id":"levelo_inurba_marseille","lat":43.31237,"lon":5.38092,"is_reserved":false,"is_disabled":true,"rental_uris":{"android":"levelo://app?vid=61042484-dcc3-4e21-b302-39f97578454f","ios":"levelo://app?vid=61042484-dcc3-4e21-b302-39f97578454f"},"vehicle_type_id":"4","last_reported":1778623342,"current_range_meters":6000,"station_id":"","pricing_plan_id":"cebpf4jnsgd1na2vs0mg"},{"bike_id":"f1199c7e-7903-4188-bbb9-ee8e51dbcbaf","system_id":"levelo_inurba_marseille","lat":43.24666,"lon":5.3816,"is_reserved":false,"is_disabled":false,"rental_uris":{"android":"levelo://app?vid=f1199c7e-7903-4188-bbb9-ee8e51dbcbaf","ios":"levelo://app?vid=f1199c7e-7903-4188-bbb9-ee8e51dbcbaf"},"vehicle_type_id":"4","last_reported":1778623342,"current_range_meters":6000,"station_id":"ce4bhih2rcd13ifvqfr0","pricing_plan_id":"cebpf4jnsgd1na2vs0mg"},{"bike_id":"c2e976b4-7573-4ea6-97e0-eb4dbbe39a6b","system_id":"levelo_inurba_marseille","lat":43.27591,"lon":5.39657,"is_reserved":false,"is_disabled":false,"rental_uris":{"android":"levelo://app?vid=c2e976b4-7573-4ea6-97e0-eb4dbbe39a6b","ios":"levelo://app?vid=c2e976b4-7573-4ea6-97e0-eb4dbbe39a6b"},"vehicle_type_id":"4","last_reported":1778623342,"current_range_meters":6000,"station_id":"","pricing_plan_id":"cebpf4jnsgd1na2vs0mg"},{"bike_id":"a3931dae-05f0-4e1d-8b68-01fdd7d05951","system_id":"levelo_inurba_marseille","lat":43.27508,"lon":5.41594,"is_reserved":false,"is_disabled":true,"rental_uris":{"android":"levelo://app?vid=a3931dae-05f0-4e1d-8b68-01fdd7d05951","ios":"levelo://app?vid=a3931dae-05f0-4e1d-8b68-01fdd7d05951"},"vehicle_type_id":"4","last_reported":1778623342,"current_range_meters":6000,"station_id":"st_d6im8g6chgec73a5pndg","pricing_plan_id":"cebpf4jnsgd1na2vs0mg"},{"bike_id":"e04ab780-4b81-4dfe-8702-69cd383d493e","system_id":"levelo_inurba_marseille","lat":43.24506,"lon":5.42118,"is_reserved":false,"is_disabled":false,"rental_uris":{"android":"levelo://app?vid=e04ab780-4b81-4dfe-8702-69cd383d493e","ios":"levelo://app?vid=e04ab780-4b81-4dfe-8702-69cd383d493e"},"vehicle_type_id":"4","last_reported":1778623342,"current_range_meters":6000,"station_id":"","pricing_plan_id":"cebpf4jnsgd1na2vs0mg"},{"bike_id":"1b2c8958-e91f-45f0-b73e-ce7ed72a04f7","system_id":"levelo_inurba_marseille","lat":43.295743,"lon":5.397636,"is_reserved":false,"is_disabled":true,"rental_uris":{"android":"levelo://app?vid=1b2c8958-e91f-45f0-b73e-ce7ed72a04f7","ios":"levelo://app?vid=1b2c8958-e91f-45f0-b73e-ce7ed72a04f7"},"vehicle_type_id":"4","last_reported":1778623342,"current_range_meters":6000,"station_id":"","pricing_plan_id":"cebpf4jnsgd1na2vs0mg"},{"bike_id":"6e6118e0-d7b8-42ba-a2c6-79786f3c704d","system_id":"levelo_inurba_marseille","lat":43.25108,"lon":5.40319,"is_reserved":false,"is_disabled":true,"rental_uris":{"android":"levelo://app?vid=6e6118e0-d7b8-42ba-a2c6-79786f3c704d","ios":"levelo://app?vid=6e6118e0-d7b8-42ba-a2c6-79786f3c704d"},"vehicle_type_id":"4","last_reported":1778623342,"current_range_meters":6000,"station_id":"ce4bhlh2rcd13ifvqgig","pricing_plan_id":"cebpf4jnsgd1na2vs0mg"},{"bike_id":"62557ba2-fd37-41d9-b8ba-d0969ce56cc9","system_id":"levelo_inurba_marseille","lat":43.2257,"lon":5.41641,"is_reserved":false,"is_disabled":false,"rental_uris":{"android":"levelo://app?vid=62557ba2-fd37-41d9-b8ba-d0969ce56cc9","ios":"levelo://app?vid=62557ba2-fd37-41d9-b8ba-d0969ce56cc9"},"vehicle_type_id":"4","last_reported":1778623342,"current_range_meters":6000,"station_id":"st_d2o4gvlbi1j2169b742g","pricing_plan_id":"cebpf4jnsgd1na2vs0mg"},{"bike_id":"043c41b6-b0d6-4773-b46c-7219e1bac307","system_id":"levelo_inurba_marseille","lat":43.28713,"lon":5.37917,"is_reserved":false,"is_disabled":false,"rental_uris":{"android":"levelo://app?vid=043c41b6-b0d6-4773-b46c-7219e1bac307","ios":"levelo://app?vid=043c41b6-b0d6-4773-b46c-7219e1bac307"},"vehicle_type_id":"4","last_reported":1778623342,"current_range_meters":6000,"station_id":"ce4bh9p2rcd13ifvqec0","pricing_plan_id":"cebpf4jnsgd1na2vs0mg"},{"bike_id":"8f556e0e-50e3-415d-bc0b-bd20df8dcc3e","system_id":"levelo_inurba_marseille","lat":43.22566,"lon":5.41627,"is_reserved":false,"is_disabled":false,"rental_uris":{"android":"levelo://app?vid=8f556e0e-50e3-415d-bc0b-bd20df8dcc3e","ios":"levelo://app?vid=8f556e0e-50e3-415d-bc0b-bd20df8dcc3e"},"vehicle_type_id":"4","last_reported":1778623342,"current_range_meters":6000,"station_id":"st_d2o4gvlbi1j2169b742g","pricing_plan_id":"cebpf4jnsgd1na2vs0mg"},{"bike_id":"29da4c93-1796-4e43-b458-a8979cf4803e","system_id":"levelo_inurba_marseille","lat":43.2908,"lon":5.37151,"is_reserved":false,"is_disabled":false,"rental_uris":{"android":"levelo://app?vid=29da4c93-1796-4e43-b458-a8979cf4803e","ios":"levelo://app?vid=29da4c93-1796-4e43-b458-a8979cf4803e"},"vehicle_type_id":"4","last_reported":1778623342,"current_range_meters":6000,"station_id":"ce4bh5p2rcd13ifvqe4g","pricing_plan_id":"cebpf4jnsgd1na2vs0mg"},{"bike_id":"6bf8e413-e0e6-4b25-b525-a592fcaee470","system_id":"levelo_inurba_marseille","lat":43.30169,"lon":5.38091,"is_reserved":false,"is_disabled":true,"rental_uris":{"android":"levelo://app?vid=6bf8e413-e0e6-4b25-b525-a592fcaee470","ios":"levelo://app?vid=6bf8e413-e0e6-4b25-b525-a592fcaee470"},"vehicle_type_id":"4","last_reported":1778623342,"current_range_meters":6000,"station_id":"ce4bgjp2rcd13ifvqbh0","pricing_plan_id":"cebpf4jnsgd1na2vs0mg"},{"bike_id":"11b850f2-7654-4be6-b2a3-6d51d61419d9","system_id":"levelo_inurba_marseille","lat":43.28858,"lon":5.3929,"is_reserved":false,"is_disabled":false,"rental_uris":{"android":"levelo://app?vid=11b850f2-7654-4be6-b2a3-6d51d61419d9","ios":"levelo://app?vid=11b850f2-7654-4be6-b2a3-6d51d61419d9"},"vehicle_type_id":"4","last_reported":1778623342,"current_range_meters":6000,"station_id":"ce4bh2p2rcd13ifvqdi0","pricing_plan_id":"cebpf4jnsgd1na2vs0mg"},{"bike_id":"e3e6a269-338b-482e-8c7f-7dca167d167b","system_id":"levelo_inurba_marseille","lat":43.27495,"lon":5.41574,"is_reserved":false,"is_disabled":true,"rental_uris":{"android":"levelo://app?vid=e3e6a269-338b-482e-8c7f-7dca167d167b","ios":"levelo://app?vid=e3e6a269-338b-482e-8c7f-7dca167d167b"},"vehicle_type_id":"4","last_reported":1778623342,"current_range_meters":6000,"station_id":"st_d6im8g6chgec73a5pndg","pricing_plan_id":"cebpf4jnsgd1na2vs0mg"},{"bike_id":"46010e51-ffcf-494e-8734-a0917c32a663","system_id":"levelo_inurba_marseille","lat":43.23194,"lon":5.35552,"is_reserved":false,"is_disabled":false,"rental_uris":{"android":"levelo://app?vid=46010e51-ffcf-494e-8734-a0917c32a663","ios":"levelo://app?vid=46010e51-ffcf-494e-8734-a0917c32a663"},"vehicle_type_id":"4","last_reported":1778623342,"current_range_meters":6000,"station_id":"ce4bhu92rcd13ifvqi70","pricing_plan_id":"cebpf4jnsgd1na2vs0mg"},{"bike_id":"0fcc3a6f-f9c3-49e9-a413-6cba21396f90","system_id":"levelo_inurba_marseille","lat":43.286984,"lon":5.373782,"is_reserved":false,"is_disabled":false,"rental_uris":{"android":"levelo://app?vid=0fcc3a6f-f9c3-49e9-a413-6cba21396f90","ios":"levelo://app?vid=0fcc3a6f-f9c3-49e9-a413-6cba21396f90"},"vehicle_type_id":"4","last_reported":1778623342,"current_range_meters":6000,"station_id":"ce4bh3p2rcd13ifvqdq0","pricing_plan_id":"cebpf4jnsgd1na2vs0mg"},{"bike_id":"56aa3777-5c73-49cb-b27f-d7e4ca259c3e","system_id":"levelo_inurba_marseille","lat":43.25094,"lon":5.39528,"is_reserved":false,"is_disabled":false,"rental_uris":{"android":"levelo://app?vid=56aa3777-5c73-49cb-b27f-d7e4ca259c3e","ios":"levelo://app?vid=56aa3777-5c73-49cb-b27f-d7e4ca259c3e"},"vehicle_type_id":"4","last_reported":1778623342,"current_range_meters":6000,"station_id":"ce4bhm12rcd13ifvqgkg","pricing_plan_id":"cebpf4jnsgd1na2vs0mg"},{"bike_id":"89ba3e6a-2631-497f-8d75-3508f5d4fd19","system_id":"levelo_inurba_marseille","lat":43.24678,"lon":5.38191,"is_reserved":false,"is_disabled":false,"rental_uris":{"android":"levelo://app?vid=89ba3e6a-2631-497f-8d75-3508f5d4fd19","ios":"levelo://app?vid=89ba3e6a-2631-497f-8d75-3508f5d4fd19"},"vehicle_type_id":"4","last_reported":1778623342,"current_range_meters":6000,"station_id":"ce4bhih2rcd13ifvqfr0","pricing_plan_id":"cebpf4jnsgd1na2vs0mg"},{"bike_id":"8320621a-37f6-4279-9a61-64b21417d754","system_id":"levelo_inurba_marseille","lat":43.30304,"lon":5.36893,"is_reserved":false,"is_disabled":false,"rental_uris":{"android":"levelo://app?vid=8320621a-37f6-4279-9a61-64b21417d754","ios":"levelo://app?vid=8320621a-37f6-4279-9a61-64b21417d754"},"vehicle_type_id":"4","last_reported":1778623342,"current_range_meters":6000,"station_id":"ce4bgqh2rcd13ifvqc5g","pricing_plan_id":"cebpf4jnsgd1na2vs0mg"},{"bike_id":"f25fce79-e3b2-4e11-91a3-02dd0d76d1af","system_id":"levelo_inurba_marseille","lat":43.29511,"lon":5.39399,"is_reserved":false,"is_disabled":false,"rental_uris":{"android":"levelo://app?vid=f25fce79-e3b2-4e11-91a3-02dd0d76d1af","ios":"levelo://app?vid=f25fce79-e3b2-4e11-91a3-02dd0d76d1af"},"vehicle_type_id":"4","last_reported":1778623342,"current_range_meters":6000,"station_id":"ce4bh292rcd13ifvqdf0","pricing_plan_id":"cebpf4jnsgd1na2vs0mg"},{"bike_id":"0d5a6d54-dad4-453d-9b1a-d94782ee22c6","system_id":"levelo_inurba_marseille","lat":43.32345,"lon":5.36544,"is_reserved":false,"is_disabled":false,"rental_uris":{"android":"levelo://app?vid=0d5a6d54-dad4-453d-9b1a-d94782ee22c6","ios":"levelo://app?vid=0d5a6d54-dad4-453d-9b1a-d94782ee22c6"},"vehicle_type_id":"4","last_reported":1778623342,"current_range_meters":6400,"station_id":"","pricing_plan_id":"cebpf4jnsgd1na2vs0mg"},{"bike_id":"b0351153-fdea-4d61-9458-346bc5cdc270","system_id":"levelo_inurba_marseille","lat":43.24797,"lon":5.37445,"is_reserved":false,"is_disabled":false,"rental_uris":{"android":"levelo://app?vid=b0351153-fdea-4d61-9458-346bc5cdc270","ios":"levelo://app?vid=b0351153-fdea-4d61-9458-346bc5cdc270"},"vehicle_type_id":"4","last_reported":1778623342,"current_range_meters":6400,"station_id":"ce4bhgh2rcd13ifvqfb0","pricing_plan_id":"cebpf4jnsgd1na2vs0mg"},{"bike_id":"f4a9f1cb-0b8b-40b5-9761-bed01b208aa9","system_id":"levelo_inurba_marseille","lat":43.27556,"lon":5.38405,"is_reserved":false,"is_disabled":true,"rental_uris":{"android":"levelo://app?vid=f4a9f1cb-0b8b-40b5-9761-bed01b208aa9","ios":"levelo://app?vid=f4a9f1cb-0b8b-40b5-9761-bed01b208aa9"},"vehicle_type_id":"4","last_reported":1778623342,"current_range_meters":6400,"station_id":"ce4bhh92rcd13ifvqfi0","pricing_plan_id":"cebpf4jnsgd1na2vs0mg"},{"bike_id":"95552473-a32b-49e5-a6c9-92815a2ac96e","system_id":"levelo_inurba_marseille","lat":43.32822,"lon":5.42618,"is_reserved":false,"is_disabled":false,"rental_uris":{"android":"levelo://app?vid=95552473-a32b-49e5-a6c9-92815a2ac96e","ios":"levelo://app?vid=95552473-a32b-49e5-a6c9-92815a2ac96e"},"vehicle_type_id":"4","last_reported":1778623342,"current_range_meters":6400,"station_id":"","pricing_plan_id":"cebpf4jnsgd1na2vs0mg"},{"bike_id":"86660d9c-47a1-454c-bf17-c1141faf0fe4","system_id":"levelo_inurba_marseille","lat":43.24826,"lon":5.37448,"is_reserved":false,"is_disabled":false,"rental_uris":{"android":"levelo://app?vid=86660d9c-47a1-454c-bf17-c1141faf0fe4","ios":"levelo://app?vid=86660d9c-47a1-454c-bf17-c1141faf0fe4"},"vehicle_type_id":"4","last_reported":1778623342,"current_range_meters":6800,"station_id":"ce4bhgh2rcd13ifvqfb0","pricing_plan_id":"cebpf4jnsgd1na2vs0mg"},{"bike_id":"8041a9e7-7ab4-4d1b-ace9-fc5ba24c4b93","system_id":"levelo_inurba_marseille","lat":43.22562,"lon":5.41622,"is_reserved":false,"is_disabled":false,"rental_uris":{"android":"levelo://app?vid=8041a9e7-7ab4-4d1b-ace9-fc5ba24c4b93","ios":"levelo://app?vid=8041a9e7-7ab4-4d1b-ace9-fc5ba24c4b93"},"vehicle_type_id":"4","last_reported":1778623342,"current_range_meters":6800,"station_id":"st_d2o4gvlbi1j2169b742g","pricing_plan_id":"cebpf4jnsgd1na2vs0mg"},{"bike_id":"076b8b25-32f2-44ed-9aec-b4a4ccc49598","system_id":"levelo_inurba_marseille","lat":43.29789,"lon":5.38105,"is_reserved":false,"is_disabled":true,"rental_uris":{"android":"levelo://app?vid=076b8b25-32f2-44ed-9aec-b4a4ccc49598","ios":"levelo://app?vid=076b8b25-32f2-44ed-9aec-b4a4ccc49598"},"vehicle_type_id":"4","last_reported":1778623342,"current_range_meters":6800,"station_id":"ce4bgip2rcd13ifvqbb0","pricing_plan_id":"cebpf4jnsgd1na2vs0mg"},{"bike_id":"4fefd8fd-6e75-4c2d-a861-dc765deec46e","system_id":"levelo_inurba_marseille","lat":43.28489,"lon":5.38444,"is_reserved":false,"is_disabled":false,"rental_uris":{"android":"levelo://app?vid=4fefd8fd-6e75-4c2d-a861-dc765deec46e","ios":"levelo://app?vid=4fefd8fd-6e75-4c2d-a861-dc765deec46e"},"vehicle_type_id":"4","last_reported":1778623342,"current_range_meters":6800,"station_id":"ce4bh512rcd13ifvqe3g","pricing_plan_id":"cebpf4jnsgd1na2vs0mg"},{"bike_id":"f89dc7a0-fe47-41cb-ba00-70c80de88b25","system_id":"levelo_inurba_marseille","lat":43.24663,"lon":5.38159,"is_reserved":false,"is_disabled":false,"rental_uris":{"android":"levelo://app?vid=f89dc7a0-fe47-41cb-ba00-70c80de88b25","ios":"levelo://app?vid=f89dc7a0-fe47-41cb-ba00-70c80de88b25"},"vehicle_type_id":"4","last_reported":1778623342,"current_range_meters":6800,"station_id":"ce4bhih2rcd13ifvqfr0","pricing_plan_id":"cebpf4jnsgd1na2vs0mg"},{"bike_id":"1fb136bb-3cc6-48f7-af4f-974b5baf2852","system_id":"levelo_inurba_marseille","lat":43.23976,"lon":5.36634,"is_reserved":false,"is_disabled":true,"rental_uris":{"android":"levelo://app?vid=1fb136bb-3cc6-48f7-af4f-974b5baf2852","ios":"levelo://app?vid=1fb136bb-3cc6-48f7-af4f-974b5baf2852"},"vehicle_type_id":"4","last_reported":1778623342,"current_range_meters":6800,"station_id":"ce4bhi12rcd13ifvqfp0","pricing_plan_id":"cebpf4jnsgd1na2vs0mg"},{"bike_id":"36ab925f-0af0-433a-849d-91065d85c647","system_id":"levelo_inurba_marseille","lat":43.2809,"lon":5.37828,"is_reserved":false,"is_disabled":false,"rental_uris":{"android":"levelo://app?vid=36ab925f-0af0-433a-849d-91065d85c647","ios":"levelo://app?vid=36ab925f-0af0-433a-849d-91065d85c647"},"vehicle_type_id":"4","last_reported":1778623342,"current_range_meters":6800,"station_id":"ce4bha12rcd13ifvqee0","pricing_plan_id":"cebpf4jnsgd1na2vs0mg"},{"bike_id":"f623a486-de2d-4b12-b7f1-6eb2f82d9bc9","system_id":"levelo_inurba_marseille","lat":43.30443,"lon":5.38887,"is_reserved":false,"is_disabled":false,"rental_uris":{"android":"levelo://app?vid=f623a486-de2d-4b12-b7f1-6eb2f82d9bc9","ios":"levelo://app?vid=f623a486-de2d-4b12-b7f1-6eb2f82d9bc9"},"vehicle_type_id":"4","last_reported":1778623342,"current_range_meters":6800,"station_id":"ce4bgk12rcd13ifvqbi0","pricing_plan_id":"cebpf4jnsgd1na2vs0mg"},{"bike_id":"cf1d7eae-9cae-44f5-acac-39f6c062dec5","system_id":"levelo_inurba_marseille","lat":43.29059,"lon":5.37173,"is_reserved":false,"is_disabled":false,"rental_uris":{"android":"levelo://app?vid=cf1d7eae-9cae-44f5-acac-39f6c062dec5","ios":"levelo://app?vid=cf1d7eae-9cae-44f5-acac-39f6c062dec5"},"vehicle_type_id":"4","last_reported":1778623342,"current_range_meters":6800,"station_id":"ce4bh5p2rcd13ifvqe4g","pricing_plan_id":"cebpf4jnsgd1na2vs0mg"},{"bike_id":"30ba58e6-54af-4654-8a32-09abfe42b6db","system_id":"levelo_inurba_marseille","lat":43.29776,"lon":5.38058,"is_reserved":false,"is_disabled":false,"rental_uris":{"android":"levelo://app?vid=30ba58e6-54af-4654-8a32-09abfe42b6db","ios":"levelo://app?vid=30ba58e6-54af-4654-8a32-09abfe42b6db"},"vehicle_type_id":"4","last_reported":1778623342,"current_range_meters":6800,"station_id":"ce4bgip2rcd13ifvqbb0","pricing_plan_id":"cebpf4jnsgd1na2vs0mg"},{"bike_id":"e29bab83-08a2-4a91-9da6-9b4710314e4c","system_id":"levelo_inurba_marseille","lat":43.31328,"lon":5.39709,"is_reserved":false,"is_disabled":false,"rental_uris":{"android":"levelo://app?vid=e29bab83-08a2-4a91-9da6-9b4710314e4c","ios":"levelo://app?vid=e29bab83-08a2-4a91-9da6-9b4710314e4c"},"vehicle_type_id":"4","last_reported":1778623342,"current_range_meters":6800,"station_id":"ce4bgvp2rcd13ifvqcu0","pricing_plan_id":"cebpf4jnsgd1na2vs0mg"},{"bike_id":"6bf5a739-c134-4744-be04-d26bd6e563cd","system_id":"levelo_inurba_marseille","lat":43.28421,"lon":5.34996,"is_reserved":false,"is_disabled":false,"rental_uris":{"android":"levelo://app?vid=6bf5a739-c134-4744-be04-d26bd6e563cd","ios":"levelo://app?vid=6bf5a739-c134-4744-be04-d26bd6e563cd"},"vehicle_type_id":"4","last_reported":1778623342,"current_range_meters":6800,"station_id":"ce4bhbh2rcd13ifvqepg","pricing_plan_id":"cebpf4jnsgd1na2vs0mg"},{"bike_id":"28b56359-407e-4fcf-acbd-463d51f163a6","system_id":"levelo_inurba_marseille","lat":43.25129,"lon":5.40403,"is_reserved":false,"is_disabled":false,"rental_uris":{"android":"levelo://app?vid=28b56359-407e-4fcf-acbd-463d51f163a6","ios":"levelo://app?vid=28b56359-407e-4fcf-acbd-463d51f163a6"},"vehicle_type_id":"4","last_reported":1778623342,"current_range_meters":6800,"station_id":"","pricing_plan_id":"cebpf4jnsgd1na2vs0mg"},{"bike_id":"ab5c661d-c28c-488b-be15-a455466677ca","system_id":"levelo_inurba_marseille","lat":43.26802,"lon":5.4026,"is_reserved":false,"is_disabled":false,"rental_uris":{"android":"levelo://app?vid=ab5c661d-c28c-488b-be15-a455466677ca","ios":"levelo://app?vid=ab5c661d-c28c-488b-be15-a455466677ca"},"vehicle_type_id":"4","last_reported":1778623342,"current_range_meters":6800,"station_id":"ce501612rcd8frsf0b60","pricing_plan_id":"cebpf4jnsgd1na2vs0mg"},{"bike_id":"6049f75f-f08d-4c4c-8e6c-aa999316afb6","system_id":"levelo_inurba_marseille","lat":43.28404,"lon":5.34983,"is_reserved":false,"is_disabled":false,"rental_uris":{"android":"levelo://app?vid=6049f75f-f08d-4c4c-8e6c-aa999316afb6","ios":"levelo://app?vid=6049f75f-f08d-4c4c-8e6c-aa999316afb6"},"vehicle_type_id":"4","last_reported":1778623342,"current_range_meters":6800,"station_id":"ce4bhbh2rcd13ifvqepg","pricing_plan_id":"cebpf4jnsgd1na2vs0mg"},{"bike_id":"95aeb85c-cda5-4c76-841d-5978f9d16c4b","system_id":"levelo_inurba_marseille","lat":43.25576,"lon":5.38235,"is_reserved":false,"is_disabled":false,"rental_uris":{"android":"levelo://app?vid=95aeb85c-cda5-4c76-841d-5978f9d16c4b","ios":"levelo://app?vid=95aeb85c-cda5-4c76-841d-5978f9d16c4b"},"vehicle_type_id":"4","last_reported":1778623342,"current_range_meters":6800,"station_id":"ce4bhih2rcd13ifvqfs0","pricing_plan_id":"cebpf4jnsgd1na2vs0mg"},{"bike_id":"e807073f-5b22-404b-bfa7-b2c01e81fb88","system_id":"levelo_inurba_marseille","lat":43.32284,"lon":5.38268,"is_reserved":false,"is_disabled":false,"rental_uris":{"android":"levelo://app?vid=e807073f-5b22-404b-bfa7-b2c01e81fb88","ios":"levelo://app?vid=e807073f-5b22-404b-bfa7-b2c01e81fb88"},"vehicle_type_id":"4","last_reported":1778623342,"current_range_meters":6800,"station_id":"ce4bhr12rcd13ifvqhqg","pricing_plan_id":"cebpf4jnsgd1na2vs0mg"},{"bike_id":"4886c252-2728-4a7b-8055-7bc754291d67","system_id":"levelo_inurba_marseille","lat":43.26186,"lon":5.4043,"is_reserved":false,"is_disabled":false,"rental_uris":{"android":"levelo://app?vid=4886c252-2728-4a7b-8055-7bc754291d67","ios":"levelo://app?vid=4886c252-2728-4a7b-8055-7bc754291d67"},"vehicle_type_id":"4","last_reported":1778623342,"current_range_meters":7200,"station_id":"ce4bhmh2rcd13ifvqgmg","pricing_plan_id":"cebpf4jnsgd1na2vs0mg"},{"bike_id":"4be255e9-cd6d-4c75-affc-d9ecab43a512","system_id":"levelo_inurba_marseille","lat":43.28405,"lon":5.34978,"is_reserved":false,"is_disabled":false,"rental_uris":{"android":"levelo://app?vid=4be255e9-cd6d-4c75-affc-d9ecab43a512","ios":"levelo://app?vid=4be255e9-cd6d-4c75-affc-d9ecab43a512"},"vehicle_type_id":"4","last_reported":1778623342,"current_range_meters":7200,"station_id":"ce4bhbh2rcd13ifvqepg","pricing_plan_id":"cebpf4jnsgd1na2vs0mg"},{"bike_id":"cfed0df2-be15-4135-9661-5cac57a11ae3","system_id":"levelo_inurba_marseille","lat":43.26922,"lon":5.40268,"is_reserved":false,"is_disabled":false,"rental_uris":{"android":"levelo://app?vid=cfed0df2-be15-4135-9661-5cac57a11ae3","ios":"levelo://app?vid=cfed0df2-be15-4135-9661-5cac57a11ae3"},"vehicle_type_id":"4","last_reported":1778623342,"current_range_meters":7200,"station_id":"cjm6bp8fraef2m0cb0m0","pricing_plan_id":"cebpf4jnsgd1na2vs0mg"},{"bike_id":"59337c87-5023-4e82-8e30-94c7126e0bd7","system_id":"levelo_inurba_marseille","lat":43.26538,"lon":5.37295,"is_reserved":false,"is_disabled":false,"rental_uris":{"android":"levelo://app?vid=59337c87-5023-4e82-8e30-94c7126e0bd7","ios":"levelo://app?vid=59337c87-5023-4e82-8e30-94c7126e0bd7"},"vehicle_type_id":"4","last_reported":1778623342,"current_range_meters":7200,"station_id":"ce4bhg12rcd13ifvqf70","pricing_plan_id":"cebpf4jnsgd1na2vs0mg"},{"bike_id":"211cea86-71fd-43ef-9b6e-844e35d10a69","system_id":"levelo_inurba_marseille","lat":43.26186,"lon":5.37443,"is_reserved":false,"is_disabled":true,"rental_uris":{"android":"levelo://app?vid=211cea86-71fd-43ef-9b6e-844e35d10a69","ios":"levelo://app?vid=211cea86-71fd-43ef-9b6e-844e35d10a69"},"vehicle_type_id":"4","last_reported":1778623342,"current_range_meters":7200,"station_id":"ce4bhgp2rcd13ifvqfc0","pricing_plan_id":"cebpf4jnsgd1na2vs0mg"},{"bike_id":"7d495a91-4757-4bd7-b72f-ad237a9371f1","system_id":"levelo_inurba_marseille","lat":43.21185,"lon":5.35062,"is_reserved":false,"is_disabled":false,"rental_uris":{"android":"levelo://app?vid=7d495a91-4757-4bd7-b72f-ad237a9371f1","ios":"levelo://app?vid=7d495a91-4757-4bd7-b72f-ad237a9371f1"},"vehicle_type_id":"4","last_reported":1778623342,"current_range_meters":7200,"station_id":"st_cvj6sg6p6f1abm77japg","pricing_plan_id":"cebpf4jnsgd1na2vs0mg"},{"bike_id":"2cf57b33-8812-4e13-8999-4c16ef72cfa0","system_id":"levelo_inurba_marseille","lat":43.23146,"lon":5.43723,"is_reserved":false,"is_disabled":false,"rental_uris":{"android":"levelo://app?vid=2cf57b33-8812-4e13-8999-4c16ef72cfa0","ios":"levelo://app?vid=2cf57b33-8812-4e13-8999-4c16ef72cfa0"},"vehicle_type_id":"4","last_reported":1778623342,"current_range_meters":7200,"station_id":"ce4bhmp2rcd13ifvqgog","pricing_plan_id":"cebpf4jnsgd1na2vs0mg"},{"bike_id":"23cee877-48f0-426f-bfb3-b295be5c0b17","system_id":"levelo_inurba_marseille","lat":43.31528,"lon":5.38024,"is_reserved":false,"is_disabled":false,"rental_uris":{"android":"levelo://app?vid=23cee877-48f0-426f-bfb3-b295be5c0b17","ios":"levelo://app?vid=23cee877-48f0-426f-bfb3-b295be5c0b17"},"vehicle_type_id":"4","last_reported":1778623342,"current_range_meters":7200,"station_id":"ce4bhsp2rcd13ifvqi50","pricing_plan_id":"cebpf4jnsgd1na2vs0mg"},{"bike_id":"a6cb16de-a047-4a34-8320-dcf91eb1b0d6","system_id":"levelo_inurba_marseille","lat":43.31311,"lon":5.39717,"is_reserved":false,"is_disabled":false,"rental_uris":{"android":"levelo://app?vid=a6cb16de-a047-4a34-8320-dcf91eb1b0d6","ios":"levelo://app?vid=a6cb16de-a047-4a34-8320-dcf91eb1b0d6"},"vehicle_type_id":"4","last_reported":1778623342,"current_range_meters":7200,"station_id":"ce4bgvp2rcd13ifvqcu0","pricing_plan_id":"cebpf4jnsgd1na2vs0mg"},{"bike_id":"d81f348a-5a0d-4a29-b6c6-358f9d732682","system_id":"levelo_inurba_marseille","lat":43.26028,"lon":5.37521,"is_reserved":false,"is_disabled":false,"rental_uris":{"android":"levelo://app?vid=d81f348a-5a0d-4a29-b6c6-358f9d732682","ios":"levelo://app?vid=d81f348a-5a0d-4a29-b6c6-358f9d732682"},"vehicle_type_id":"4","last_reported":1778623342,"current_range_meters":8000,"station_id":"ce4bhgh2rcd13ifvqfa0","pricing_plan_id":"cebpf4jnsgd1na2vs0mg"},{"bike_id":"4263a5e5-aa80-48c0-9b55-0dc6d9caac5c","system_id":"levelo_inurba_marseille","lat":43.306462,"lon":5.401053,"is_reserved":false,"is_disabled":false,"rental_uris":{"android":"levelo://app?vid=4263a5e5-aa80-48c0-9b55-0dc6d9caac5c","ios":"levelo://app?vid=4263a5e5-aa80-48c0-9b55-0dc6d9caac5c"},"vehicle_type_id":"4","last_reported":1778623342,"current_range_meters":8000,"station_id":"ce4bh112rcd13ifvqda0","pricing_plan_id":"cebpf4jnsgd1na2vs0mg"},{"bike_id":"59a6e24a-9db4-402e-8b5e-049f3595c118","system_id":"levelo_inurba_marseille","lat":43.295674,"lon":5.39968,"is_reserved":false,"is_disabled":true,"rental_uris":{"android":"levelo://app?vid=59a6e24a-9db4-402e-8b5e-049f3595c118","ios":"levelo://app?vid=59a6e24a-9db4-402e-8b5e-049f3595c118"},"vehicle_type_id":"4","last_reported":1778623342,"current_range_meters":8000,"station_id":"ce4bh312rcd13ifvqdj0","pricing_plan_id":"cebpf4jnsgd1na2vs0mg"},{"bike_id":"2282ecfd-c628-45ec-8328-685141867870","system_id":"levelo_inurba_marseille","lat":43.28929,"lon":5.36628,"is_reserved":false,"is_disabled":false,"rental_uris":{"android":"levelo://app?vid=2282ecfd-c628-45ec-8328-685141867870","ios":"levelo://app?vid=2282ecfd-c628-45ec-8328-685141867870"},"vehicle_type_id":"4","last_reported":1778623342,"current_range_meters":8000,"station_id":"ce4bhap2rcd13ifvqek0","pricing_plan_id":"cebpf4jnsgd1na2vs0mg"},{"bike_id":"4c733966-71e1-46b9-81e1-8d24e59b65ce","system_id":"levelo_inurba_marseille","lat":43.22539,"lon":5.34845,"is_reserved":false,"is_disabled":true,"rental_uris":{"android":"levelo://app?vid=4c733966-71e1-46b9-81e1-8d24e59b65ce","ios":"levelo://app?vid=4c733966-71e1-46b9-81e1-8d24e59b65ce"},"vehicle_type_id":"4","last_reported":1778623342,"current_range_meters":8000,"station_id":"st_cvj5dfep6f1abm77gieg","pricing_plan_id":"cebpf4jnsgd1na2vs0mg"},{"bike_id":"12831884-053b-433a-b0e0-7a11953437fd","system_id":"levelo_inurba_marseille","lat":43.28409,"lon":5.34979,"is_reserved":false,"is_disabled":false,"rental_uris":{"android":"levelo://app?vid=12831884-053b-433a-b0e0-7a11953437fd","ios":"levelo://app?vid=12831884-053b-433a-b0e0-7a11953437fd"},"vehicle_type_id":"4","last_reported":1778623342,"current_range_meters":8000,"station_id":"ce4bhbh2rcd13ifvqepg","pricing_plan_id":"cebpf4jnsgd1na2vs0mg"},{"bike_id":"1602c824-ae5a-4f68-ae9a-a09d00daa24b","system_id":"levelo_inurba_marseille","lat":43.2255,"lon":5.34869,"is_reserved":false,"is_disabled":true,"rental_uris":{"android":"levelo://app?vid=1602c824-ae5a-4f68-ae9a-a09d00daa24b","ios":"levelo://app?vid=1602c824-ae5a-4f68-ae9a-a09d00daa24b"},"vehicle_type_id":"4","last_reported":1778623342,"current_range_meters":8000,"station_id":"st_cvj5dfep6f1abm77gieg","pricing_plan_id":"cebpf4jnsgd1na2vs0mg"},{"bike_id":"d257960a-edb4-4348-90b0-b5fd8baf1634","system_id":"levelo_inurba_marseille","lat":43.31811,"lon":5.37803,"is_reserved":false,"is_disabled":true,"rental_uris":{"android":"levelo://app?vid=d257960a-edb4-4348-90b0-b5fd8baf1634","ios":"levelo://app?vid=d257960a-edb4-4348-90b0-b5fd8baf1634"},"vehicle_type_id":"4","last_reported":1778623342,"current_range_meters":8000,"station_id":"","pricing_plan_id":"cebpf4jnsgd1na2vs0mg"},{"bike_id":"4aad697a-91b2-4fed-aee3-9939aca7631b","system_id":"levelo_inurba_marseille","lat":43.3134,"lon":5.37918,"is_reserved":false,"is_disabled":false,"rental_uris":{"android":"levelo://app?vid=4aad697a-91b2-4fed-aee3-9939aca7631b","ios":"levelo://app?vid=4aad697a-91b2-4fed-aee3-9939aca7631b"},"vehicle_type_id":"4","last_reported":1778623342,"current_range_meters":8000,"station_id":"","pricing_plan_id":"cebpf4jnsgd1na2vs0mg"},{"bike_id":"c57b9d8b-726c-424e-a5d4-cee105e1ed0e","system_id":"levelo_inurba_marseille","lat":43.26197,"lon":5.37929,"is_reserved":false,"is_disabled":false,"rental_uris":{"android":"levelo://app?vid=c57b9d8b-726c-424e-a5d4-cee105e1ed0e","ios":"levelo://app?vid=c57b9d8b-726c-424e-a5d4-cee105e1ed0e"},"vehicle_type_id":"4","last_reported":1778623342,"current_range_meters":8000,"station_id":"ce4bhjp2rcd13ifvqg90","pricing_plan_id":"cebpf4jnsgd1na2vs0mg"},{"bike_id":"9adf12da-a066-47bc-88ed-df17ebb4f248","system_id":"levelo_inurba_marseille","lat":43.28459,"lon":5.38392,"is_reserved":false,"is_disabled":false,"rental_uris":{"android":"levelo://app?vid=9adf12da-a066-47bc-88ed-df17ebb4f248","ios":"levelo://app?vid=9adf12da-a066-47bc-88ed-df17ebb4f248"},"vehicle_type_id":"4","last_reported":1778623342,"current_range_meters":8000,"station_id":"ce4bh512rcd13ifvqe3g","pricing_plan_id":"cebpf4jnsgd1na2vs0mg"},{"bike_id":"b0e95f01-637c-48ac-b86a-470d9ecdac30","system_id":"levelo_inurba_marseille","lat":43.31166,"lon":5.38708,"is_reserved":false,"is_disabled":false,"rental_uris":{"android":"levelo://app?vid=b0e95f01-637c-48ac-b86a-470d9ecdac30","ios":"levelo://app?vid=b0e95f01-637c-48ac-b86a-470d9ecdac30"},"vehicle_type_id":"4","last_reported":1778623342,"current_range_meters":8000,"station_id":"ce4bgv12rcd13ifvqcp0","pricing_plan_id":"cebpf4jnsgd1na2vs0mg"},{"bike_id":"924c7b02-e21c-4947-adb6-7efece53a228","system_id":"levelo_inurba_marseille","lat":43.23143,"lon":5.43709,"is_reserved":false,"is_disabled":false,"rental_uris":{"android":"levelo://app?vid=924c7b02-e21c-4947-adb6-7efece53a228","ios":"levelo://app?vid=924c7b02-e21c-4947-adb6-7efece53a228"},"vehicle_type_id":"4","last_reported":1778623342,"current_range_meters":8000,"station_id":"ce4bhmp2rcd13ifvqgog","pricing_plan_id":"cebpf4jnsgd1na2vs0mg"},{"bike_id":"53c3731c-6f39-49cc-9bdc-d53bb71201eb","system_id":"levelo_inurba_marseille","lat":43.30638,"lon":5.40082,"is_reserved":false,"is_disabled":false,"rental_uris":{"android":"levelo://app?vid=53c3731c-6f39-49cc-9bdc-d53bb71201eb","ios":"levelo://app?vid=53c3731c-6f39-49cc-9bdc-d53bb71201eb"},"vehicle_type_id":"4","last_reported":1778623342,"current_range_meters":8000,"station_id":"ce4bh112rcd13ifvqda0","pricing_plan_id":"cebpf4jnsgd1na2vs0mg"},{"bike_id":"2e172c73-8fd7-4fc9-a807-804ce0f5a8bb","system_id":"levelo_inurba_marseille","lat":43.31361,"lon":5.385,"is_reserved":false,"is_disabled":false,"rental_uris":{"android":"levelo://app?vid=2e172c73-8fd7-4fc9-a807-804ce0f5a8bb","ios":"levelo://app?vid=2e172c73-8fd7-4fc9-a807-804ce0f5a8bb"},"vehicle_type_id":"4","last_reported":1778623342,"current_range_meters":8000,"station_id":"ce4bgt92rcd13ifvqcf0","pricing_plan_id":"cebpf4jnsgd1na2vs0mg"},{"bike_id":"f0f141c6-12b2-4868-87f0-90d9439e98fd","system_id":"levelo_inurba_marseille","lat":43.32356,"lon":5.367535,"is_reserved":false,"is_disabled":false,"rental_uris":{"android":"levelo://app?vid=f0f141c6-12b2-4868-87f0-90d9439e98fd","ios":"levelo://app?vid=f0f141c6-12b2-4868-87f0-90d9439e98fd"},"vehicle_type_id":"4","last_reported":1778623342,"current_range_meters":8000,"station_id":"ce4bhsh2rcd13ifvqi2g","pricing_plan_id":"cebpf4jnsgd1na2vs0mg"},{"bike_id":"689665ac-b201-41b2-bf85-847d727bc299","system_id":"levelo_inurba_marseille","lat":43.29965,"lon":5.37166,"is_reserved":false,"is_disabled":false,"rental_uris":{"android":"levelo://app?vid=689665ac-b201-41b2-bf85-847d727bc299","ios":"levelo://app?vid=689665ac-b201-41b2-bf85-847d727bc299"},"vehicle_type_id":"4","last_reported":1778623342,"current_range_meters":8000,"station_id":"ce4bgr92rcd13ifvqc7g","pricing_plan_id":"cebpf4jnsgd1na2vs0mg"},{"bike_id":"00f9e8e9-a796-4063-972a-6a13a52bcfd2","system_id":"levelo_inurba_marseille","lat":43.28661,"lon":5.36257,"is_reserved":false,"is_disabled":false,"rental_uris":{"android":"levelo://app?vid=00f9e8e9-a796-4063-972a-6a13a52bcfd2","ios":"levelo://app?vid=00f9e8e9-a796-4063-972a-6a13a52bcfd2"},"vehicle_type_id":"4","last_reported":1778623342,"current_range_meters":8000,"station_id":"","pricing_plan_id":"cebpf4jnsgd1na2vs0mg"},{"bike_id":"c86bf7d9-bb52-4428-92d4-6f1bbf9ab470","system_id":"levelo_inurba_marseille","lat":43.23183,"lon":5.39977,"is_reserved":false,"is_disabled":false,"rental_uris":{"android":"levelo://app?vid=c86bf7d9-bb52-4428-92d4-6f1bbf9ab470","ios":"levelo://app?vid=c86bf7d9-bb52-4428-92d4-6f1bbf9ab470"},"vehicle_type_id":"4","last_reported":1778623342,"current_range_meters":8000,"station_id":"ce4bhn12rcd13ifvqgqg","pricing_plan_id":"cebpf4jnsgd1na2vs0mg"},{"bike_id":"2349ea46-0be2-4783-9cc1-d4256fdedf0c","system_id":"levelo_inurba_marseille","lat":43.31277,"lon":5.40171,"is_reserved":false,"is_disabled":false,"rental_uris":{"android":"levelo://app?vid=2349ea46-0be2-4783-9cc1-d4256fdedf0c","ios":"levelo://app?vid=2349ea46-0be2-4783-9cc1-d4256fdedf0c"},"vehicle_type_id":"4","last_reported":1778623342,"current_range_meters":8000,"station_id":"ce4bh092rcd13ifvqd30","pricing_plan_id":"cebpf4jnsgd1na2vs0mg"},{"bike_id":"fe05840d-fbf6-4459-a552-860cb30bbc2e","system_id":"levelo_inurba_marseille","lat":43.28451,"lon":5.35881,"is_reserved":false,"is_disabled":false,"rental_uris":{"android":"levelo://app?vid=fe05840d-fbf6-4459-a552-860cb30bbc2e","ios":"levelo://app?vid=fe05840d-fbf6-4459-a552-860cb30bbc2e"},"vehicle_type_id":"4","last_reported":1778623342,"current_range_meters":8000,"station_id":"ce4bhah2rcd13ifvqei0","pricing_plan_id":"cebpf4jnsgd1na2vs0mg"},{"bike_id":"19e877fd-e015-4a86-8008-1a0d333eea65","system_id":"levelo_inurba_marseille","lat":43.33544,"lon":5.37468,"is_reserved":false,"is_disabled":false,"rental_uris":{"android":"levelo://app?vid=19e877fd-e015-4a86-8008-1a0d333eea65","ios":"levelo://app?vid=19e877fd-e015-4a86-8008-1a0d333eea65"},"vehicle_type_id":"4","last_reported":1778623342,"current_range_meters":8400,"station_id":"st_d46tts09ee8s73dlu43g","pricing_plan_id":"cebpf4jnsgd1na2vs0mg"},{"bike_id":"1dec4592-f318-4ccc-9124-479c7e8f7178","system_id":"levelo_inurba_marseille","lat":43.29207,"lon":5.38394,"is_reserved":false,"is_disabled":false,"rental_uris":{"android":"levelo://app?vid=1dec4592-f318-4ccc-9124-479c7e8f7178","ios":"levelo://app?vid=1dec4592-f318-4ccc-9124-479c7e8f7178"},"vehicle_type_id":"4","last_reported":1778623342,"current_range_meters":8400,"station_id":"","pricing_plan_id":"cebpf4jnsgd1na2vs0mg"},{"bike_id":"b477be1e-64c7-4e90-bc42-6fe97cda14a2","system_id":"levelo_inurba_marseille","lat":43.29815,"lon":5.42081,"is_reserved":false,"is_disabled":false,"rental_uris":{"android":"levelo://app?vid=b477be1e-64c7-4e90-bc42-6fe97cda14a2","ios":"levelo://app?vid=b477be1e-64c7-4e90-bc42-6fe97cda14a2"},"vehicle_type_id":"4","last_reported":1778623342,"current_range_meters":8400,"station_id":"","pricing_plan_id":"cebpf4jnsgd1na2vs0mg"},{"bike_id":"2aaf8d3d-dddc-4659-85e7-34b3b97fa5bc","system_id":"levelo_inurba_marseille","lat":43.21194,"lon":5.35079,"is_reserved":false,"is_disabled":false,"rental_uris":{"android":"levelo://app?vid=2aaf8d3d-dddc-4659-85e7-34b3b97fa5bc","ios":"levelo://app?vid=2aaf8d3d-dddc-4659-85e7-34b3b97fa5bc"},"vehicle_type_id":"4","last_reported":1778623342,"current_range_meters":8400,"station_id":"st_cvj6sg6p6f1abm77japg","pricing_plan_id":"cebpf4jnsgd1na2vs0mg"},{"bike_id":"f915b850-cfc7-49b5-8ad0-d9207a829577","system_id":"levelo_inurba_marseille","lat":43.28661,"lon":5.36343,"is_reserved":false,"is_disabled":false,"rental_uris":{"android":"levelo://app?vid=f915b850-cfc7-49b5-8ad0-d9207a829577","ios":"levelo://app?vid=f915b850-cfc7-49b5-8ad0-d9207a829577"},"vehicle_type_id":"4","last_reported":1778623342,"current_range_meters":8400,"station_id":"ce4bhah2rcd13ifvqej0","pricing_plan_id":"cebpf4jnsgd1na2vs0mg"},{"bike_id":"4196c41d-8bac-4f59-809d-20c5bacf0921","system_id":"levelo_inurba_marseille","lat":43.28703,"lon":5.46684,"is_reserved":false,"is_disabled":false,"rental_uris":{"android":"levelo://app?vid=4196c41d-8bac-4f59-809d-20c5bacf0921","ios":"levelo://app?vid=4196c41d-8bac-4f59-809d-20c5bacf0921"},"vehicle_type_id":"4","last_reported":1778623342,"current_range_meters":8400,"station_id":"st_d6tc3vkotcvc738tfjhg","pricing_plan_id":"cebpf4jnsgd1na2vs0mg"},{"bike_id":"2a6fe7fe-2451-4ede-8fc6-0da3ab1a70a9","system_id":"levelo_inurba_marseille","lat":43.23174,"lon":5.35506,"is_reserved":false,"is_disabled":false,"rental_uris":{"android":"levelo://app?vid=2a6fe7fe-2451-4ede-8fc6-0da3ab1a70a9","ios":"levelo://app?vid=2a6fe7fe-2451-4ede-8fc6-0da3ab1a70a9"},"vehicle_type_id":"4","last_reported":1778623342,"current_range_meters":8400,"station_id":"ce4bhu92rcd13ifvqi70","pricing_plan_id":"cebpf4jnsgd1na2vs0mg"},{"bike_id":"fc92f04b-29b5-4505-a931-909642cfff82","system_id":"levelo_inurba_marseille","lat":43.29255,"lon":5.40909,"is_reserved":false,"is_disabled":false,"rental_uris":{"android":"levelo://app?vid=fc92f04b-29b5-4505-a931-909642cfff82","ios":"levelo://app?vid=fc92f04b-29b5-4505-a931-909642cfff82"},"vehicle_type_id":"4","last_reported":1778623342,"current_range_meters":8400,"station_id":"ce4bh192rcd13ifvqdc0","pricing_plan_id":"cebpf4jnsgd1na2vs0mg"},{"bike_id":"908cf990-7a0d-42fa-9fba-f0da4ae84b10","system_id":"levelo_inurba_marseille","lat":43.26568,"lon":5.4033,"is_reserved":false,"is_disabled":false,"rental_uris":{"android":"levelo://app?vid=908cf990-7a0d-42fa-9fba-f0da4ae84b10","ios":"levelo://app?vid=908cf990-7a0d-42fa-9fba-f0da4ae84b10"},"vehicle_type_id":"4","last_reported":1778623342,"current_range_meters":8400,"station_id":"ce4bhmp2rcd13ifvqgng","pricing_plan_id":"cebpf4jnsgd1na2vs0mg"},{"bike_id":"f96c72da-1adc-427e-a4c0-30afefc40d90","system_id":"levelo_inurba_marseille","lat":43.28518,"lon":5.44095,"is_reserved":false,"is_disabled":true,"rental_uris":{"android":"levelo://app?vid=f96c72da-1adc-427e-a4c0-30afefc40d90","ios":"levelo://app?vid=f96c72da-1adc-427e-a4c0-30afefc40d90"},"vehicle_type_id":"4","last_reported":1778623342,"current_range_meters":8400,"station_id":"st_d3j3df2ikq2c7380ej80","pricing_plan_id":"cebpf4jnsgd1na2vs0mg"},{"bike_id":"31747b77-362c-454f-b967-04fec5720f77","system_id":"levelo_inurba_marseille","lat":43.25083,"lon":5.39541,"is_reserved":false,"is_disabled":false,"rental_uris":{"android":"levelo://app?vid=31747b77-362c-454f-b967-04fec5720f77","ios":"levelo://app?vid=31747b77-362c-454f-b967-04fec5720f77"},"vehicle_type_id":"4","last_reported":1778623342,"current_range_meters":8400,"station_id":"ce4bhm12rcd13ifvqgkg","pricing_plan_id":"cebpf4jnsgd1na2vs0mg"},{"bike_id":"3fd47180-2cb2-4558-99f2-cf2753ea82b4","system_id":"levelo_inurba_marseille","lat":43.29521,"lon":5.39026,"is_reserved":false,"is_disabled":true,"rental_uris":{"android":"levelo://app?vid=3fd47180-2cb2-4558-99f2-cf2753ea82b4","ios":"levelo://app?vid=3fd47180-2cb2-4558-99f2-cf2753ea82b4"},"vehicle_type_id":"4","last_reported":1778623342,"current_range_meters":8400,"station_id":"ce4bh3p2rcd13ifvqdp0","pricing_plan_id":"cebpf4jnsgd1na2vs0mg"},{"bike_id":"e1b6af69-766f-48bb-9170-495af6b9740c","system_id":"levelo_inurba_marseille","lat":43.29054,"lon":5.39971,"is_reserved":false,"is_disabled":false,"rental_uris":{"android":"levelo://app?vid=e1b6af69-766f-48bb-9170-495af6b9740c","ios":"levelo://app?vid=e1b6af69-766f-48bb-9170-495af6b9740c"},"vehicle_type_id":"4","last_reported":1778623342,"current_range_meters":8400,"station_id":"ce4bh392rcd13ifvqdm0","pricing_plan_id":"cebpf4jnsgd1na2vs0mg"},{"bike_id":"33a0b4db-be07-458c-91c4-afc65fea5c6e","system_id":"levelo_inurba_marseille","lat":43.25086,"lon":5.37648,"is_reserved":false,"is_disabled":false,"rental_uris":{"android":"levelo://app?vid=33a0b4db-be07-458c-91c4-afc65fea5c6e","ios":"levelo://app?vid=33a0b4db-be07-458c-91c4-afc65fea5c6e"},"vehicle_type_id":"4","last_reported":1778623342,"current_range_meters":8400,"station_id":"","pricing_plan_id":"cebpf4jnsgd1na2vs0mg"},{"bike_id":"5f2948ba-686e-403a-a354-af3a4fbdf39a","system_id":"levelo_inurba_marseille","lat":43.2952,"lon":5.38538,"is_reserved":false,"is_disabled":true,"rental_uris":{"android":"levelo://app?vid=5f2948ba-686e-403a-a354-af3a4fbdf39a","ios":"levelo://app?vid=5f2948ba-686e-403a-a354-af3a4fbdf39a"},"vehicle_type_id":"4","last_reported":1778623342,"current_range_meters":8400,"station_id":"ce4bgih2rcd13ifvqba0","pricing_plan_id":"cebpf4jnsgd1na2vs0mg"},{"bike_id":"1da6257b-f1af-4a48-8996-6c5a6ab19545","system_id":"levelo_inurba_marseille","lat":43.24667,"lon":5.38144,"is_reserved":false,"is_disabled":false,"rental_uris":{"android":"levelo://app?vid=1da6257b-f1af-4a48-8996-6c5a6ab19545","ios":"levelo://app?vid=1da6257b-f1af-4a48-8996-6c5a6ab19545"},"vehicle_type_id":"4","last_reported":1778623342,"current_range_meters":8400,"station_id":"ce4bhih2rcd13ifvqfr0","pricing_plan_id":"cebpf4jnsgd1na2vs0mg"},{"bike_id":"6ce9189e-3bcd-44c8-90a0-8435ca9bae4a","system_id":"levelo_inurba_marseille","lat":43.28005,"lon":5.39312,"is_reserved":false,"is_disabled":false,"rental_uris":{"android":"levelo://app?vid=6ce9189e-3bcd-44c8-90a0-8435ca9bae4a","ios":"levelo://app?vid=6ce9189e-3bcd-44c8-90a0-8435ca9bae4a"},"vehicle_type_id":"4","last_reported":1778623342,"current_range_meters":8400,"station_id":"","pricing_plan_id":"cebpf4jnsgd1na2vs0mg"},{"bike_id":"73f702fb-dd5a-471c-90cc-142501c193f7","system_id":"levelo_inurba_marseille","lat":43.2869,"lon":5.46674,"is_reserved":false,"is_disabled":false,"rental_uris":{"android":"levelo://app?vid=73f702fb-dd5a-471c-90cc-142501c193f7","ios":"levelo://app?vid=73f702fb-dd5a-471c-90cc-142501c193f7"},"vehicle_type_id":"4","last_reported":1778623342,"current_range_meters":8400,"station_id":"st_d6tc3vkotcvc738tfjhg","pricing_plan_id":"cebpf4jnsgd1na2vs0mg"},{"bike_id":"b6da4a61-eef8-4590-a30c-5d4218354e88","system_id":"levelo_inurba_marseille","lat":43.28199,"lon":5.35398,"is_reserved":false,"is_disabled":false,"rental_uris":{"android":"levelo://app?vid=b6da4a61-eef8-4590-a30c-5d4218354e88","ios":"levelo://app?vid=b6da4a61-eef8-4590-a30c-5d4218354e88"},"vehicle_type_id":"4","last_reported":1778623342,"current_range_meters":8400,"station_id":"","pricing_plan_id":"cebpf4jnsgd1na2vs0mg"},{"bike_id":"acdc7f9f-c208-4d71-8aab-07abf62efdc3","system_id":"levelo_inurba_marseille","lat":43.33761,"lon":5.37453,"is_reserved":false,"is_disabled":false,"rental_uris":{"android":"levelo://app?vid=acdc7f9f-c208-4d71-8aab-07abf62efdc3","ios":"levelo://app?vid=acdc7f9f-c208-4d71-8aab-07abf62efdc3"},"vehicle_type_id":"4","last_reported":1778623342,"current_range_meters":8800,"station_id":"","pricing_plan_id":"cebpf4jnsgd1na2vs0mg"},{"bike_id":"0a2b1ebd-b674-4d42-a66a-a78602a49886","system_id":"levelo_inurba_marseille","lat":43.30533,"lon":5.38434,"is_reserved":false,"is_disabled":false,"rental_uris":{"android":"levelo://app?vid=0a2b1ebd-b674-4d42-a66a-a78602a49886","ios":"levelo://app?vid=0a2b1ebd-b674-4d42-a66a-a78602a49886"},"vehicle_type_id":"4","last_reported":1778623342,"current_range_meters":8800,"station_id":"ce4bgg92rcd13ifvqb30","pricing_plan_id":"cebpf4jnsgd1na2vs0mg"},{"bike_id":"be516926-fe12-4374-9b96-0a5d95fc4532","system_id":"levelo_inurba_marseille","lat":43.225323,"lon":5.348352,"is_reserved":false,"is_disabled":false,"rental_uris":{"android":"levelo://app?vid=be516926-fe12-4374-9b96-0a5d95fc4532","ios":"levelo://app?vid=be516926-fe12-4374-9b96-0a5d95fc4532"},"vehicle_type_id":"4","last_reported":1778623342,"current_range_meters":8800,"station_id":"st_cvj5dfep6f1abm77gieg","pricing_plan_id":"cebpf4jnsgd1na2vs0mg"},{"bike_id":"9b99215c-c222-4e4c-809c-fc012e76423b","system_id":"levelo_inurba_marseille","lat":43.30451,"lon":5.38894,"is_reserved":false,"is_disabled":false,"rental_uris":{"android":"levelo://app?vid=9b99215c-c222-4e4c-809c-fc012e76423b","ios":"levelo://app?vid=9b99215c-c222-4e4c-809c-fc012e76423b"},"vehicle_type_id":"4","last_reported":1778623342,"current_range_meters":8800,"station_id":"ce4bgk12rcd13ifvqbi0","pricing_plan_id":"cebpf4jnsgd1na2vs0mg"},{"bike_id":"cc35d2bb-6d25-489d-94f5-d5160311de4c","system_id":"levelo_inurba_marseille","lat":43.288594,"lon":5.425146,"is_reserved":false,"is_disabled":true,"rental_uris":{"android":"levelo://app?vid=cc35d2bb-6d25-489d-94f5-d5160311de4c","ios":"levelo://app?vid=cc35d2bb-6d25-489d-94f5-d5160311de4c"},"vehicle_type_id":"4","last_reported":1778623342,"current_range_meters":8800,"station_id":"","pricing_plan_id":"cebpf4jnsgd1na2vs0mg"},{"bike_id":"f2a38a5b-b7fa-4592-b5b3-6940a16ec4ef","system_id":"levelo_inurba_marseille","lat":43.28418,"lon":5.34984,"is_reserved":false,"is_disabled":false,"rental_uris":{"android":"levelo://app?vid=f2a38a5b-b7fa-4592-b5b3-6940a16ec4ef","ios":"levelo://app?vid=f2a38a5b-b7fa-4592-b5b3-6940a16ec4ef"},"vehicle_type_id":"4","last_reported":1778623342,"current_range_meters":8800,"station_id":"ce4bhbh2rcd13ifvqepg","pricing_plan_id":"cebpf4jnsgd1na2vs0mg"},{"bike_id":"8c3176fb-911f-46c7-9bb6-9f2fd9293ea6","system_id":"levelo_inurba_marseille","lat":43.25312,"lon":5.42136,"is_reserved":false,"is_disabled":false,"rental_uris":{"android":"levelo://app?vid=8c3176fb-911f-46c7-9bb6-9f2fd9293ea6","ios":"levelo://app?vid=8c3176fb-911f-46c7-9bb6-9f2fd9293ea6"},"vehicle_type_id":"4","last_reported":1778623342,"current_range_meters":8800,"station_id":"st_d2m65c5bi1j21697t3ng","pricing_plan_id":"cebpf4jnsgd1na2vs0mg"},{"bike_id":"88721549-cd88-4d1d-8f8a-61e1680e37ae","system_id":"levelo_inurba_marseille","lat":43.27918,"lon":5.39572,"is_reserved":false,"is_disabled":false,"rental_uris":{"android":"levelo://app?vid=88721549-cd88-4d1d-8f8a-61e1680e37ae","ios":"levelo://app?vid=88721549-cd88-4d1d-8f8a-61e1680e37ae"},"vehicle_type_id":"4","last_reported":1778623342,"current_range_meters":8800,"station_id":"ce4bhf92rcd13ifvqf40","pricing_plan_id":"cebpf4jnsgd1na2vs0mg"},{"bike_id":"8124d941-3105-4cbf-a823-508970bbb225","system_id":"levelo_inurba_marseille","lat":43.28454,"lon":5.35878,"is_reserved":false,"is_disabled":false,"rental_uris":{"android":"levelo://app?vid=8124d941-3105-4cbf-a823-508970bbb225","ios":"levelo://app?vid=8124d941-3105-4cbf-a823-508970bbb225"},"vehicle_type_id":"4","last_reported":1778623342,"current_range_meters":8800,"station_id":"ce4bhah2rcd13ifvqei0","pricing_plan_id":"cebpf4jnsgd1na2vs0mg"},{"bike_id":"9abf0e07-6af0-4096-9767-49724c8658ba","system_id":"levelo_inurba_marseille","lat":43.30626,"lon":5.40069,"is_reserved":false,"is_disabled":false,"rental_uris":{"android":"levelo://app?vid=9abf0e07-6af0-4096-9767-49724c8658ba","ios":"levelo://app?vid=9abf0e07-6af0-4096-9767-49724c8658ba"},"vehicle_type_id":"4","last_reported":1778623342,"current_range_meters":8800,"station_id":"ce4bh112rcd13ifvqda0","pricing_plan_id":"cebpf4jnsgd1na2vs0mg"},{"bike_id":"7db34398-8972-4e52-b193-cdc92f9e7460","system_id":"levelo_inurba_marseille","lat":43.30139,"lon":5.38783,"is_reserved":false,"is_disabled":false,"rental_uris":{"android":"levelo://app?vid=7db34398-8972-4e52-b193-cdc92f9e7460","ios":"levelo://app?vid=7db34398-8972-4e52-b193-cdc92f9e7460"},"vehicle_type_id":"4","last_reported":1778623342,"current_range_meters":8800,"station_id":"ce4bghh2rcd13ifvqb60","pricing_plan_id":"cebpf4jnsgd1na2vs0mg"},{"bike_id":"a443ae15-691a-4409-a9db-37ea68653103","system_id":"levelo_inurba_marseille","lat":43.24541,"lon":5.39519,"is_reserved":false,"is_disabled":false,"rental_uris":{"android":"levelo://app?vid=a443ae15-691a-4409-a9db-37ea68653103","ios":"levelo://app?vid=a443ae15-691a-4409-a9db-37ea68653103"},"vehicle_type_id":"4","last_reported":1778623342,"current_range_meters":8800,"station_id":"ce4bhlp2rcd13ifvqgjg","pricing_plan_id":"cebpf4jnsgd1na2vs0mg"},{"bike_id":"294600dd-ae9e-45e3-8862-d20fc0b806b8","system_id":"levelo_inurba_marseille","lat":43.28363,"lon":5.38632,"is_reserved":false,"is_disabled":false,"rental_uris":{"android":"levelo://app?vid=294600dd-ae9e-45e3-8862-d20fc0b806b8","ios":"levelo://app?vid=294600dd-ae9e-45e3-8862-d20fc0b806b8"},"vehicle_type_id":"4","last_reported":1778623342,"current_range_meters":8800,"station_id":"ce4bh492rcd13ifvqdvg","pricing_plan_id":"cebpf4jnsgd1na2vs0mg"},{"bike_id":"0ad9f56c-0cb1-4ddd-bfff-c7b211f4a077","system_id":"levelo_inurba_marseille","lat":43.23455,"lon":5.37234,"is_reserved":false,"is_disabled":false,"rental_uris":{"android":"levelo://app?vid=0ad9f56c-0cb1-4ddd-bfff-c7b211f4a077","ios":"levelo://app?vid=0ad9f56c-0cb1-4ddd-bfff-c7b211f4a077"},"vehicle_type_id":"4","last_reported":1778623342,"current_range_meters":8800,"station_id":"","pricing_plan_id":"cebpf4jnsgd1na2vs0mg"},{"bike_id":"667305d2-f07a-4ae7-bb9b-48b81b56cba6","system_id":"levelo_inurba_marseille","lat":43.28107,"lon":5.37833,"is_reserved":false,"is_disabled":false,"rental_uris":{"android":"levelo://app?vid=667305d2-f07a-4ae7-bb9b-48b81b56cba6","ios":"levelo://app?vid=667305d2-f07a-4ae7-bb9b-48b81b56cba6"},"vehicle_type_id":"4","last_reported":1778623342,"current_range_meters":8800,"station_id":"ce4bha12rcd13ifvqee0","pricing_plan_id":"cebpf4jnsgd1na2vs0mg"},{"bike_id":"190e1df1-9ae7-4b10-8f66-3bf16b4ae39c","system_id":"levelo_inurba_marseille","lat":43.24795,"lon":5.37454,"is_reserved":false,"is_disabled":false,"rental_uris":{"android":"levelo://app?vid=190e1df1-9ae7-4b10-8f66-3bf16b4ae39c","ios":"levelo://app?vid=190e1df1-9ae7-4b10-8f66-3bf16b4ae39c"},"vehicle_type_id":"4","last_reported":1778623342,"current_range_meters":8800,"station_id":"ce4bhgh2rcd13ifvqfb0","pricing_plan_id":"cebpf4jnsgd1na2vs0mg"},{"bike_id":"6f8b0d63-4a27-4c64-8991-130a8e2c7266","system_id":"levelo_inurba_marseille","lat":43.33154,"lon":5.37685,"is_reserved":false,"is_disabled":false,"rental_uris":{"android":"levelo://app?vid=6f8b0d63-4a27-4c64-8991-130a8e2c7266","ios":"levelo://app?vid=6f8b0d63-4a27-4c64-8991-130a8e2c7266"},"vehicle_type_id":"4","last_reported":1778623342,"current_range_meters":8800,"station_id":"st_d46cu089ee8s73dldbu0","pricing_plan_id":"cebpf4jnsgd1na2vs0mg"},{"bike_id":"edf1f436-cc80-4b9d-9ac8-ae4b34653b6b","system_id":"levelo_inurba_marseille","lat":43.29567,"lon":5.3997,"is_reserved":false,"is_disabled":false,"rental_uris":{"android":"levelo://app?vid=edf1f436-cc80-4b9d-9ac8-ae4b34653b6b","ios":"levelo://app?vid=edf1f436-cc80-4b9d-9ac8-ae4b34653b6b"},"vehicle_type_id":"4","last_reported":1778623342,"current_range_meters":8800,"station_id":"ce4bh312rcd13ifvqdj0","pricing_plan_id":"cebpf4jnsgd1na2vs0mg"},{"bike_id":"e267adc5-5f11-46b6-a0f3-78f119b246da","system_id":"levelo_inurba_marseille","lat":43.23213,"lon":5.3998,"is_reserved":false,"is_disabled":false,"rental_uris":{"android":"levelo://app?vid=e267adc5-5f11-46b6-a0f3-78f119b246da","ios":"levelo://app?vid=e267adc5-5f11-46b6-a0f3-78f119b246da"},"vehicle_type_id":"4","last_reported":1778623342,"current_range_meters":8800,"station_id":"ce4bhn12rcd13ifvqgqg","pricing_plan_id":"cebpf4jnsgd1na2vs0mg"},{"bike_id":"daef2f3d-2ff9-4500-bd35-38c513de9ce8","system_id":"levelo_inurba_marseille","lat":43.29029,"lon":5.38649,"is_reserved":false,"is_disabled":false,"rental_uris":{"android":"levelo://app?vid=daef2f3d-2ff9-4500-bd35-38c513de9ce8","ios":"levelo://app?vid=daef2f3d-2ff9-4500-bd35-38c513de9ce8"},"vehicle_type_id":"4","last_reported":1778623342,"current_range_meters":8800,"station_id":"ce4bh4p2rcd13ifvqe0g","pricing_plan_id":"cebpf4jnsgd1na2vs0mg"},{"bike_id":"dd4919bf-f8b7-492c-8d47-076362757035","system_id":"levelo_inurba_marseille","lat":43.30946,"lon":5.39061,"is_reserved":false,"is_disabled":false,"rental_uris":{"android":"levelo://app?vid=dd4919bf-f8b7-492c-8d47-076362757035","ios":"levelo://app?vid=dd4919bf-f8b7-492c-8d47-076362757035"},"vehicle_type_id":"4","last_reported":1778623342,"current_range_meters":9200,"station_id":"ce4bgup2rcd13ifvqco0","pricing_plan_id":"cebpf4jnsgd1na2vs0mg"},{"bike_id":"36e3a8e3-2e71-44bc-bd7c-83db99a2b6ca","system_id":"levelo_inurba_marseille","lat":43.25863,"lon":5.39897,"is_reserved":false,"is_disabled":false,"rental_uris":{"android":"levelo://app?vid=36e3a8e3-2e71-44bc-bd7c-83db99a2b6ca","ios":"levelo://app?vid=36e3a8e3-2e71-44bc-bd7c-83db99a2b6ca"},"vehicle_type_id":"4","last_reported":1778623342,"current_range_meters":9200,"station_id":"ce4bhl92rcd13ifvqghg","pricing_plan_id":"cebpf4jnsgd1na2vs0mg"},{"bike_id":"3e31714a-c8a2-4aab-9798-b2a4bd0e5358","system_id":"levelo_inurba_marseille","lat":43.3117,"lon":5.38688,"is_reserved":false,"is_disabled":false,"rental_uris":{"android":"levelo://app?vid=3e31714a-c8a2-4aab-9798-b2a4bd0e5358","ios":"levelo://app?vid=3e31714a-c8a2-4aab-9798-b2a4bd0e5358"},"vehicle_type_id":"4","last_reported":1778623342,"current_range_meters":9200,"station_id":"ce4bgv12rcd13ifvqcp0","pricing_plan_id":"cebpf4jnsgd1na2vs0mg"},{"bike_id":"0d4108f6-0c96-4efa-83bb-779a347167c3","system_id":"levelo_inurba_marseille","lat":43.28373,"lon":5.38629,"is_reserved":false,"is_disabled":false,"rental_uris":{"android":"levelo://app?vid=0d4108f6-0c96-4efa-83bb-779a347167c3","ios":"levelo://app?vid=0d4108f6-0c96-4efa-83bb-779a347167c3"},"vehicle_type_id":"4","last_reported":1778623342,"current_range_meters":9200,"station_id":"ce4bh492rcd13ifvqdvg","pricing_plan_id":"cebpf4jnsgd1na2vs0mg"},{"bike_id":"44769a63-2434-4160-917d-9d5801eaf9ed","system_id":"levelo_inurba_marseille","lat":43.23966,"lon":5.3662,"is_reserved":false,"is_disabled":false,"rental_uris":{"android":"levelo://app?vid=44769a63-2434-4160-917d-9d5801eaf9ed","ios":"levelo://app?vid=44769a63-2434-4160-917d-9d5801eaf9ed"},"vehicle_type_id":"4","last_reported":1778623342,"current_range_meters":9200,"station_id":"ce4bhi12rcd13ifvqfp0","pricing_plan_id":"cebpf4jnsgd1na2vs0mg"},{"bike_id":"c71e059e-2c2a-4884-bb62-cfa9f38e88c7","system_id":"levelo_inurba_marseille","lat":43.25574,"lon":5.38232,"is_reserved":false,"is_disabled":false,"rental_uris":{"android":"levelo://app?vid=c71e059e-2c2a-4884-bb62-cfa9f38e88c7","ios":"levelo://app?vid=c71e059e-2c2a-4884-bb62-cfa9f38e88c7"},"vehicle_type_id":"4","last_reported":1778623342,"current_range_meters":9200,"station_id":"ce4bhih2rcd13ifvqfs0","pricing_plan_id":"cebpf4jnsgd1na2vs0mg"},{"bike_id":"f2cb0a19-1030-4a33-8e5a-97914f8f04d7","system_id":"levelo_inurba_marseille","lat":43.30079,"lon":5.39076,"is_reserved":false,"is_disabled":false,"rental_uris":{"android":"levelo://app?vid=f2cb0a19-1030-4a33-8e5a-97914f8f04d7","ios":"levelo://app?vid=f2cb0a19-1030-4a33-8e5a-97914f8f04d7"},"vehicle_type_id":"4","last_reported":1778623342,"current_range_meters":9200,"station_id":"ce4bh192rcd13ifvqdb0","pricing_plan_id":"cebpf4jnsgd1na2vs0mg"},{"bike_id":"711fdbce-5afc-4a96-878c-4081f52af28f","system_id":"levelo_inurba_marseille","lat":43.28865,"lon":5.39307,"is_reserved":false,"is_disabled":false,"rental_uris":{"android":"levelo://app?vid=711fdbce-5afc-4a96-878c-4081f52af28f","ios":"levelo://app?vid=711fdbce-5afc-4a96-878c-4081f52af28f"},"vehicle_type_id":"4","last_reported":1778623342,"current_range_meters":9200,"station_id":"ce4bh2p2rcd13ifvqdi0","pricing_plan_id":"cebpf4jnsgd1na2vs0mg"},{"bike_id":"a073844e-70ad-469b-9486-00db4f8e69dc","system_id":"levelo_inurba_marseille","lat":43.3144,"lon":5.37392,"is_reserved":false,"is_disabled":false,"rental_uris":{"android":"levelo://app?vid=a073844e-70ad-469b-9486-00db4f8e69dc","ios":"levelo://app?vid=a073844e-70ad-469b-9486-00db4f8e69dc"},"vehicle_type_id":"4","last_reported":1778623342,"current_range_meters":9200,"station_id":"","pricing_plan_id":"cebpf4jnsgd1na2vs0mg"},{"bike_id":"b0fa62c4-8e6e-443d-b874-58065c9ec11d","system_id":"levelo_inurba_marseille","lat":43.29267,"lon":5.36831,"is_reserved":false,"is_disabled":true,"rental_uris":{"android":"levelo://app?vid=b0fa62c4-8e6e-443d-b874-58065c9ec11d","ios":"levelo://app?vid=b0fa62c4-8e6e-443d-b874-58065c9ec11d"},"vehicle_type_id":"4","last_reported":1778623342,"current_range_meters":9200,"station_id":"ce4bhbp2rcd13ifvqesg","pricing_plan_id":"cebpf4jnsgd1na2vs0mg"},{"bike_id":"638f0fd9-8092-4d8b-9b9b-e7a2a736b653","system_id":"levelo_inurba_marseille","lat":43.275,"lon":5.41571,"is_reserved":false,"is_disabled":true,"rental_uris":{"android":"levelo://app?vid=638f0fd9-8092-4d8b-9b9b-e7a2a736b653","ios":"levelo://app?vid=638f0fd9-8092-4d8b-9b9b-e7a2a736b653"},"vehicle_type_id":"4","last_reported":1778623342,"current_range_meters":9200,"station_id":"st_d6im8g6chgec73a5pndg","pricing_plan_id":"cebpf4jnsgd1na2vs0mg"},{"bike_id":"d58bef21-a4b3-4591-9f54-513bd590d665","system_id":"levelo_inurba_marseille","lat":43.31492,"lon":5.37316,"is_reserved":false,"is_disabled":false,"rental_uris":{"android":"levelo://app?vid=d58bef21-a4b3-4591-9f54-513bd590d665","ios":"levelo://app?vid=d58bef21-a4b3-4591-9f54-513bd590d665"},"vehicle_type_id":"4","last_reported":1778623342,"current_range_meters":9200,"station_id":"ce4bgt12rcd13ifvqcd0","pricing_plan_id":"cebpf4jnsgd1na2vs0mg"},{"bike_id":"cd3bf1fa-127b-48f3-b4b1-cec37ebb83c9","system_id":"levelo_inurba_marseille","lat":43.23795,"lon":5.3663,"is_reserved":false,"is_disabled":false,"rental_uris":{"android":"levelo://app?vid=cd3bf1fa-127b-48f3-b4b1-cec37ebb83c9","ios":"levelo://app?vid=cd3bf1fa-127b-48f3-b4b1-cec37ebb83c9"},"vehicle_type_id":"4","last_reported":1778623342,"current_range_meters":9200,"station_id":"st_d3nk18o9ro0c73en2l3g","pricing_plan_id":"cebpf4jnsgd1na2vs0mg"},{"bike_id":"9077c230-1a5d-4d38-94dc-fad0bf598fbc","system_id":"levelo_inurba_marseille","lat":43.31349,"lon":5.38484,"is_reserved":false,"is_disabled":false,"rental_uris":{"android":"levelo://app?vid=9077c230-1a5d-4d38-94dc-fad0bf598fbc","ios":"levelo://app?vid=9077c230-1a5d-4d38-94dc-fad0bf598fbc"},"vehicle_type_id":"4","last_reported":1778623342,"current_range_meters":9200,"station_id":"ce4bgt92rcd13ifvqcf0","pricing_plan_id":"cebpf4jnsgd1na2vs0mg"},{"bike_id":"0190f8d2-01b2-4ee2-9e86-e1660dcf0b09","system_id":"levelo_inurba_marseille","lat":43.28408,"lon":5.34961,"is_reserved":false,"is_disabled":false,"rental_uris":{"android":"levelo://app?vid=0190f8d2-01b2-4ee2-9e86-e1660dcf0b09","ios":"levelo://app?vid=0190f8d2-01b2-4ee2-9e86-e1660dcf0b09"},"vehicle_type_id":"4","last_reported":1778623342,"current_range_meters":9200,"station_id":"ce4bhbh2rcd13ifvqepg","pricing_plan_id":"cebpf4jnsgd1na2vs0mg"},{"bike_id":"94ad0b25-5e51-427b-975e-dbf854287092","system_id":"levelo_inurba_marseille","lat":43.27323,"lon":5.39072,"is_reserved":false,"is_disabled":true,"rental_uris":{"android":"levelo://app?vid=94ad0b25-5e51-427b-975e-dbf854287092","ios":"levelo://app?vid=94ad0b25-5e51-427b-975e-dbf854287092"},"vehicle_type_id":"4","last_reported":1778623342,"current_range_meters":9200,"station_id":"ce4bhgp2rcd13ifvqfe0","pricing_plan_id":"cebpf4jnsgd1na2vs0mg"},{"bike_id":"de28e75f-1016-4fe6-b26a-14891e35fbe3","system_id":"levelo_inurba_marseille","lat":43.28402,"lon":5.37519,"is_reserved":false,"is_disabled":false,"rental_uris":{"android":"levelo://app?vid=de28e75f-1016-4fe6-b26a-14891e35fbe3","ios":"levelo://app?vid=de28e75f-1016-4fe6-b26a-14891e35fbe3"},"vehicle_type_id":"4","last_reported":1778623342,"current_range_meters":9200,"station_id":"ce4bh412rcd13ifvqds0","pricing_plan_id":"cebpf4jnsgd1na2vs0mg"},{"bike_id":"b28604ee-1e7a-42a1-8b1f-390abcd8ab50","system_id":"levelo_inurba_marseille","lat":43.30351,"lon":5.41881,"is_reserved":false,"is_disabled":false,"rental_uris":{"android":"levelo://app?vid=b28604ee-1e7a-42a1-8b1f-390abcd8ab50","ios":"levelo://app?vid=b28604ee-1e7a-42a1-8b1f-390abcd8ab50"},"vehicle_type_id":"4","last_reported":1778623342,"current_range_meters":9200,"station_id":"ce4bhop2rcd13ifvqh7g","pricing_plan_id":"cebpf4jnsgd1na2vs0mg"},{"bike_id":"30f8e6d4-83a6-4a92-a859-a35a296eed10","system_id":"levelo_inurba_marseille","lat":43.24071,"lon":5.37711,"is_reserved":false,"is_disabled":false,"rental_uris":{"android":"levelo://app?vid=30f8e6d4-83a6-4a92-a859-a35a296eed10","ios":"levelo://app?vid=30f8e6d4-83a6-4a92-a859-a35a296eed10"},"vehicle_type_id":"4","last_reported":1778623342,"current_range_meters":9200,"station_id":"ce4bhnp2rcd13ifvqgvg","pricing_plan_id":"cebpf4jnsgd1na2vs0mg"},{"bike_id":"d1907652-6ca2-4440-a1ea-6d56ba76f62e","system_id":"levelo_inurba_marseille","lat":43.28173,"lon":5.42634,"is_reserved":false,"is_disabled":false,"rental_uris":{"android":"levelo://app?vid=d1907652-6ca2-4440-a1ea-6d56ba76f62e","ios":"levelo://app?vid=d1907652-6ca2-4440-a1ea-6d56ba76f62e"},"vehicle_type_id":"4","last_reported":1778623342,"current_range_meters":9200,"station_id":"ce4bhnh2rcd13ifvqgug","pricing_plan_id":"cebpf4jnsgd1na2vs0mg"},{"bike_id":"78f52f56-ce15-4e9b-b104-4fff16726b0b","system_id":"levelo_inurba_marseille","lat":43.30462,"lon":5.38894,"is_reserved":false,"is_disabled":true,"rental_uris":{"android":"levelo://app?vid=78f52f56-ce15-4e9b-b104-4fff16726b0b","ios":"levelo://app?vid=78f52f56-ce15-4e9b-b104-4fff16726b0b"},"vehicle_type_id":"4","last_reported":1778623342,"current_range_meters":9200,"station_id":"ce4bgk12rcd13ifvqbi0","pricing_plan_id":"cebpf4jnsgd1na2vs0mg"},{"bike_id":"2db0ffab-6bdd-4726-8016-a3a2ddff536d","system_id":"levelo_inurba_marseille","lat":43.22556,"lon":5.41631,"is_reserved":false,"is_disabled":false,"rental_uris":{"android":"levelo://app?vid=2db0ffab-6bdd-4726-8016-a3a2ddff536d","ios":"levelo://app?vid=2db0ffab-6bdd-4726-8016-a3a2ddff536d"},"vehicle_type_id":"4","last_reported":1778623342,"current_range_meters":9200,"station_id":"st_d2o4gvlbi1j2169b742g","pricing_plan_id":"cebpf4jnsgd1na2vs0mg"},{"bike_id":"3f83eb6e-a4d0-48ab-97bf-0de19e6aa5a2","system_id":"levelo_inurba_marseille","lat":43.23188,"lon":5.35539,"is_reserved":false,"is_disabled":false,"rental_uris":{"android":"levelo://app?vid=3f83eb6e-a4d0-48ab-97bf-0de19e6aa5a2","ios":"levelo://app?vid=3f83eb6e-a4d0-48ab-97bf-0de19e6aa5a2"},"vehicle_type_id":"4","last_reported":1778623342,"current_range_meters":9200,"station_id":"ce4bhu92rcd13ifvqi70","pricing_plan_id":"cebpf4jnsgd1na2vs0mg"},{"bike_id":"fd120c8e-b042-4872-a431-5878bd1d4208","system_id":"levelo_inurba_marseille","lat":43.2866,"lon":5.36344,"is_reserved":false,"is_disabled":false,"rental_uris":{"android":"levelo://app?vid=fd120c8e-b042-4872-a431-5878bd1d4208","ios":"levelo://app?vid=fd120c8e-b042-4872-a431-5878bd1d4208"},"vehicle_type_id":"4","last_reported":1778623342,"current_range_meters":9200,"station_id":"ce4bhah2rcd13ifvqej0","pricing_plan_id":"cebpf4jnsgd1na2vs0mg"},{"bike_id":"31b938d3-51d2-4e15-a66e-c4606ba41acc","system_id":"levelo_inurba_marseille","lat":43.29626,"lon":5.40593,"is_reserved":false,"is_disabled":false,"rental_uris":{"android":"levelo://app?vid=31b938d3-51d2-4e15-a66e-c4606ba41acc","ios":"levelo://app?vid=31b938d3-51d2-4e15-a66e-c4606ba41acc"},"vehicle_type_id":"4","last_reported":1778623342,"current_range_meters":9200,"station_id":"ce4bh0h2rcd13ifvqd60","pricing_plan_id":"cebpf4jnsgd1na2vs0mg"},{"bike_id":"dd9124d2-eae5-4f60-ad7a-7ef70e61f6d7","system_id":"levelo_inurba_marseille","lat":43.33529,"lon":5.37459,"is_reserved":false,"is_disabled":false,"rental_uris":{"android":"levelo://app?vid=dd9124d2-eae5-4f60-ad7a-7ef70e61f6d7","ios":"levelo://app?vid=dd9124d2-eae5-4f60-ad7a-7ef70e61f6d7"},"vehicle_type_id":"4","last_reported":1778623342,"current_range_meters":9600,"station_id":"st_d46tts09ee8s73dlu43g","pricing_plan_id":"cebpf4jnsgd1na2vs0mg"},{"bike_id":"addd53b9-5bfd-4c82-ad90-0a6f9e020b2f","system_id":"levelo_inurba_marseille","lat":43.29201,"lon":5.39303,"is_reserved":false,"is_disabled":false,"rental_uris":{"android":"levelo://app?vid=addd53b9-5bfd-4c82-ad90-0a6f9e020b2f","ios":"levelo://app?vid=addd53b9-5bfd-4c82-ad90-0a6f9e020b2f"},"vehicle_type_id":"4","last_reported":1778623342,"current_range_meters":9600,"station_id":"ce4bh192rcd13ifvqdd0","pricing_plan_id":"cebpf4jnsgd1na2vs0mg"},{"bike_id":"4305922b-886a-4e10-98c5-9db56042926a","system_id":"levelo_inurba_marseille","lat":43.2977,"lon":5.37945,"is_reserved":false,"is_disabled":false,"rental_uris":{"android":"levelo://app?vid=4305922b-886a-4e10-98c5-9db56042926a","ios":"levelo://app?vid=4305922b-886a-4e10-98c5-9db56042926a"},"vehicle_type_id":"4","last_reported":1778623342,"current_range_meters":9600,"station_id":"","pricing_plan_id":"cebpf4jnsgd1na2vs0mg"},{"bike_id":"01b224ee-4c63-40d9-b70d-9fb6c651d396","system_id":"levelo_inurba_marseille","lat":43.29254,"lon":5.4091,"is_reserved":false,"is_disabled":true,"rental_uris":{"android":"levelo://app?vid=01b224ee-4c63-40d9-b70d-9fb6c651d396","ios":"levelo://app?vid=01b224ee-4c63-40d9-b70d-9fb6c651d396"},"vehicle_type_id":"4","last_reported":1778623342,"current_range_meters":9600,"station_id":"ce4bh192rcd13ifvqdc0","pricing_plan_id":"cebpf4jnsgd1na2vs0mg"},{"bike_id":"e3f063b0-bc68-4a05-b4bf-4a932bfdec2a","system_id":"levelo_inurba_marseille","lat":43.25334,"lon":5.42153,"is_reserved":false,"is_disabled":false,"rental_uris":{"android":"levelo://app?vid=e3f063b0-bc68-4a05-b4bf-4a932bfdec2a","ios":"levelo://app?vid=e3f063b0-bc68-4a05-b4bf-4a932bfdec2a"},"vehicle_type_id":"4","last_reported":1778623342,"current_range_meters":9600,"station_id":"st_d2m65c5bi1j21697t3ng","pricing_plan_id":"cebpf4jnsgd1na2vs0mg"},{"bike_id":"86bf91ab-dda6-4259-8421-fcc138548a66","system_id":"levelo_inurba_marseille","lat":43.26546,"lon":5.37291,"is_reserved":false,"is_disabled":false,"rental_uris":{"android":"levelo://app?vid=86bf91ab-dda6-4259-8421-fcc138548a66","ios":"levelo://app?vid=86bf91ab-dda6-4259-8421-fcc138548a66"},"vehicle_type_id":"4","last_reported":1778623342,"current_range_meters":9600,"station_id":"ce4bhg12rcd13ifvqf70","pricing_plan_id":"cebpf4jnsgd1na2vs0mg"},{"bike_id":"793e35d8-ea1c-4a6f-aa2b-fe83d96bdd08","system_id":"levelo_inurba_marseille","lat":43.29527,"lon":5.39366,"is_reserved":false,"is_disabled":false,"rental_uris":{"android":"levelo://app?vid=793e35d8-ea1c-4a6f-aa2b-fe83d96bdd08","ios":"levelo://app?vid=793e35d8-ea1c-4a6f-aa2b-fe83d96bdd08"},"vehicle_type_id":"4","last_reported":1778623342,"current_range_meters":9600,"station_id":"ce4bh292rcd13ifvqdf0","pricing_plan_id":"cebpf4jnsgd1na2vs0mg"},{"bike_id":"eebbbe7c-ef91-4359-a28e-10cd8e1bd071","system_id":"levelo_inurba_marseille","lat":43.30122,"lon":5.39862,"is_reserved":false,"is_disabled":false,"rental_uris":{"android":"levelo://app?vid=eebbbe7c-ef91-4359-a28e-10cd8e1bd071","ios":"levelo://app?vid=eebbbe7c-ef91-4359-a28e-10cd8e1bd071"},"vehicle_type_id":"4","last_reported":1778623342,"current_range_meters":9600,"station_id":"ce4bh0h2rcd13ifvqd40","pricing_plan_id":"cebpf4jnsgd1na2vs0mg"},{"bike_id":"9efa362d-c494-4db9-9a08-175bd2d5550d","system_id":"levelo_inurba_marseille","lat":43.30792,"lon":5.37658,"is_reserved":false,"is_disabled":false,"rental_uris":{"android":"levelo://app?vid=9efa362d-c494-4db9-9a08-175bd2d5550d","ios":"levelo://app?vid=9efa362d-c494-4db9-9a08-175bd2d5550d"},"vehicle_type_id":"4","last_reported":1778623342,"current_range_meters":9600,"station_id":"ce4bgv92rcd13ifvqcq0","pricing_plan_id":"cebpf4jnsgd1na2vs0mg"},{"bike_id":"31abb592-14a8-40e9-9f25-0686c844fefe","system_id":"levelo_inurba_marseille","lat":43.28263,"lon":5.35056,"is_reserved":false,"is_disabled":false,"rental_uris":{"android":"levelo://app?vid=31abb592-14a8-40e9-9f25-0686c844fefe","ios":"levelo://app?vid=31abb592-14a8-40e9-9f25-0686c844fefe"},"vehicle_type_id":"4","last_reported":1778623342,"current_range_meters":9600,"station_id":"ce4bhbp2rcd13ifvqerg","pricing_plan_id":"cebpf4jnsgd1na2vs0mg"},{"bike_id":"e633d23f-b04b-4d56-afeb-43ba816549ac","system_id":"levelo_inurba_marseille","lat":43.30804,"lon":5.38153,"is_reserved":false,"is_disabled":false,"rental_uris":{"android":"levelo://app?vid=e633d23f-b04b-4d56-afeb-43ba816549ac","ios":"levelo://app?vid=e633d23f-b04b-4d56-afeb-43ba816549ac"},"vehicle_type_id":"4","last_reported":1778623342,"current_range_meters":9600,"station_id":"ce4bgt12rcd13ifvqce0","pricing_plan_id":"cebpf4jnsgd1na2vs0mg"},{"bike_id":"a9602b8f-2229-41ab-a27d-639beba9bad1","system_id":"levelo_inurba_marseille","lat":43.29439,"lon":5.39738,"is_reserved":false,"is_disabled":false,"rental_uris":{"android":"levelo://app?vid=a9602b8f-2229-41ab-a27d-639beba9bad1","ios":"levelo://app?vid=a9602b8f-2229-41ab-a27d-639beba9bad1"},"vehicle_type_id":"4","last_reported":1778623342,"current_range_meters":9600,"station_id":"ce4bh3h2rcd13ifvqdo0","pricing_plan_id":"cebpf4jnsgd1na2vs0mg"},