{"last_updated":1737529695,"ttl":60,"version":"2.2","data":{"bikes":[{"bike_id":"7426e5d7-ef23-48f2-8bc1-17f3f5acaa9b","system_id":"levelo_inurba_marseille","lat":43.28327,"lon":5.39275,"is_reserved":false,"is_disabled":false,"rental_uris":{"android":"levelo://app?vid=7426e5d7-ef23-48f2-8bc1-17f3f5acaa9b","ios":"levelo://app?vid=7426e5d7-ef23-48f2-8bc1-17f3f5acaa9b"},"vehicle_type_id":"4","last_reported":1737529695,"current_range_meters":13600,"station_id":"","pricing_plan_id":"cebpf4jnsgd1na2vs0mg"},{"bike_id":"a319178b-5f98-41a6-9d48-283823ef5830","system_id":"levelo_inurba_marseille","lat":43.31688,"lon":5.40473,"is_reserved":false,"is_disabled":false,"rental_uris":{"android":"levelo://app?vid=a319178b-5f98-41a6-9d48-283823ef5830","ios":"levelo://app?vid=a319178b-5f98-41a6-9d48-283823ef5830"},"vehicle_type_id":"4","last_reported":1737529695,"current_range_meters":28000,"station_id":"ce4bh012rcd13ifvqd00","pricing_plan_id":"cebpf4jnsgd1na2vs0mg"},{"bike_id":"b1cc12c1-2bea-4f99-99ef-f3010fa7ebe8","system_id":"levelo_inurba_marseille","lat":43.30605,"lon":5.39366,"is_reserved":false,"is_disabled":false,"rental_uris":{"android":"levelo://app?vid=b1cc12c1-2bea-4f99-99ef-f3010fa7ebe8","ios":"levelo://app?vid=b1cc12c1-2bea-4f99-99ef-f3010fa7ebe8"},"vehicle_type_id":"4","last_reported":1737529695,"current_range_meters":30800,"station_id":"ce4bh0p2rcd13ifvqd80","pricing_plan_id":"cebpf4jnsgd1na2vs0mg"},{"bike_id":"69249617-d866-43f9-b563-9d5202d5cba6","system_id":"levelo_inurba_marseille","lat":43.26943,"lon":5.38638,"is_reserved":false,"is_disabled":false,"rental_uris":{"android":"levelo://app?vid=69249617-d866-43f9-b563-9d5202d5cba6","ios":"levelo://app?vid=69249617-d866-43f9-b563-9d5202d5cba6"},"vehicle_type_id":"4","last_reported":1737529695,"current_range_meters":36800,"station_id":"ce4bhh92rcd13ifvqfh0","pricing_plan_id":"cebpf4jnsgd1na2vs0mg"},{"bike_id":"3948ea88-cf3f-4efe-ace3-cb99aab83717","system_id":"levelo_inurba_marseille","lat":43.28628,"lon":5.35095,"is_reserved":false,"is_disabled":false,"rental_uris":{"android":"levelo://app?vid=3948ea88-cf3f-4efe-ace3-cb99aab83717","ios":"levelo://app?vid=3948ea88-cf3f-4efe-ace3-cb99aab83717"},"vehicle_type_id":"4","last_reported":1737529695,"current_range_meters":23200,"station_id":"ce4bhch2rcd13ifvqeug","pricing_plan_id":"cebpf4jnsgd1na2vs0mg"},{"bike_id":"22d9778a-3096-4868-b2ab-bb4576097f42","system_id":"levelo_inurba_marseille","lat":43.29023,"lon":5.39983,"is_reserved":false,"is_disabled":false,"rental_uris":{"android":"levelo://app?vid=22d9778a-3096-4868-b2ab-bb4576097f42","ios":"levelo://app?vid=22d9778a-3096-4868-b2ab-bb4576097f42"},"vehicle_type_id":"4","last_reported":1737529695,"current_range_meters":39200,"station_id":"ce4bh392rcd13ifvqdm0","pricing_plan_id":"cebpf4jnsgd1na2vs0mg"},{"bike_id":"41204f02-5a80-452b-83bf-3a4ad529f025","system_id":"levelo_inurba_marseille","lat":43.28707,"lon":5.39997,"is_reserved":false,"is_disabled":false,"rental_uris":{"android":"levelo://app?vid=41204f02-5a80-452b-83bf-3a4ad529f025","ios":"levelo://app?vid=41204f02-5a80-452b-83bf-3a4ad529f025"},"vehicle_type_id":"4","last_reported":1737529695,"current_range_meters":13600,"station_id":"ce4bho92rcd13ifvqh3g","pricing_plan_id":"cebpf4jnsgd1na2vs0mg"},{"bike_id":"1dae43f4-d7c8-45f9-a0f5-b7c121fe9bfa","system_id":"levelo_inurba_marseille","lat":43.30466,"lon":5.37916,"is_reserved":false,"is_disabled":false,"rental_uris":{"android":"levelo://app?vid=1dae43f4-d7c8-45f9-a0f5-b7c121fe9bfa","ios":"levelo://app?vid=1dae43f4-d7c8-45f9-a0f5-b7c121fe9bfa"},"vehicle_type_id":"4","last_reported":1737529695,"current_range_meters":32400,"station_id":"ce4bgup2rcd13ifvqcn0","pricing_plan_id":"cebpf4jnsgd1na2vs0mg"},{"bike_id":"5631626c-cd2a-4e1e-86b4-7e2e795ed7eb","system_id":"levelo_inurba_marseille","lat":43.30434,"lon":5.38885,"is_reserved":false,"is_disabled":false,"rental_uris":{"android":"levelo://app?vid=5631626c-cd2a-4e1e-86b4-7e2e795ed7eb","ios":"levelo://app?vid=5631626c-cd2a-4e1e-86b4-7e2e795ed7eb"},"vehicle_type_id":"4","last_reported":1737529695,"current_range_meters":4000,"station_id":"ce4bgk12rcd13ifvqbi0","pricing_plan_id":"cebpf4jnsgd1na2vs0mg"},{"bike_id":"bae6085a-9912-4d15-8445-8a3f905d5654","system_id":"levelo_inurba_marseille","lat":43.26691,"lon":5.38274,"is_reserved":false,"is_disabled":false,"rental_uris":{"android":"levelo://app?vid=bae6085a-9912-4d15-8445-8a3f905d5654","ios":"levelo://app?vid=bae6085a-9912-4d15-8445-8a3f905d5654"},"vehicle_type_id":"4","last_reported":1737529695,"current_range_meters":9200,"station_id":"ce4bhg92rcd13ifvqf90","pricing_plan_id":"cebpf4jnsgd1na2vs0mg"},{"bike_id":"61a28635-abfd-44dc-b605-1dbf473cd019","system_id":"levelo_inurba_marseille","lat":43.28448,"lon":5.39185,"is_reserved":false,"is_disabled":false,"rental_uris":{"android":"levelo://app?vid=61a28635-abfd-44dc-b605-1dbf473cd019","ios":"levelo://app?vid=61a28635-abfd-44dc-b605-1dbf473cd019"},"vehicle_type_id":"4","last_reported":1737529695,"current_range_meters":10000,"station_id":"ce4bhoh2rcd13ifvqh5g","pricing_plan_id":"cebpf4jnsgd1na2vs0mg"},{"bike_id":"2948c027-3674-4ca2-a017-33393e39f681","system_id":"levelo_inurba_marseille","lat":43.27982,"lon":5.40023,"is_reserved":false,"is_disabled":false,"rental_uris":{"android":"levelo://app?vid=2948c027-3674-4ca2-a017-33393e39f681","ios":"levelo://app?vid=2948c027-3674-4ca2-a017-33393e39f681"},"vehicle_type_id":"4","last_reported":1737529695,"current_range_meters":7200,"station_id":"ce4bho92rcd13ifvqh4g","pricing_plan_id":"cebpf4jnsgd1na2vs0mg"},{"bike_id":"bf7eb50d-a124-487a-bd34-be0646460ed1","system_id":"levelo_inurba_marseille","lat":43.31763,"lon":5.39017,"is_reserved":false,"is_disabled":false,"rental_uris":{"android":"levelo://app?vid=bf7eb50d-a124-487a-bd34-be0646460ed1","ios":"levelo://app?vid=bf7eb50d-a124-487a-bd34-be0646460ed1"},"vehicle_type_id":"4","last_reported":1737529695,"current_range_meters":7200,"station_id":"ce4bhqp2rcd13ifvqhng","pricing_plan_id":"cebpf4jnsgd1na2vs0mg"},{"bike_id":"73b5b8fa-af4d-461f-91e2-112593d8066e","system_id":"levelo_inurba_marseille","lat":43.24074,"lon":5.37759,"is_reserved":false,"is_disabled":false,"rental_uris":{"android":"levelo://app?vid=73b5b8fa-af4d-461f-91e2-112593d8066e","ios":"levelo://app?vid=73b5b8fa-af4d-461f-91e2-112593d8066e"},"vehicle_type_id":"4","last_reported":1737529695,"current_range_meters":39200,"station_id":"ce4bhnp2rcd13ifvqgvg","pricing_plan_id":"cebpf4jnsgd1na2vs0mg"},{"bike_id":"a2771881-b956-4a9a-9bc9-a89642d437c9","system_id":"levelo_inurba_marseille","lat":43.23202,"lon":5.3555,"is_reserved":false,"is_disabled":false,"rental_uris":{"android":"levelo://app?vid=a2771881-b956-4a9a-9bc9-a89642d437c9","ios":"levelo://app?vid=a2771881-b956-4a9a-9bc9-a89642d437c9"},"vehicle_type_id":"4","last_reported":1737529695,"current_range_meters":37600,"station_id":"ce4bhu92rcd13ifvqi70","pricing_plan_id":"cebpf4jnsgd1na2vs0mg"},{"bike_id":"86026dde-12b1-4041-beb7-70a4d634500e","system_id":"levelo_inurba_marseille","lat":43.255758,"lon":5.38235,"is_reserved":false,"is_disabled":false,"rental_uris":{"android":"levelo://app?vid=86026dde-12b1-4041-beb7-70a4d634500e","ios":"levelo://app?vid=86026dde-12b1-4041-beb7-70a4d634500e"},"vehicle_type_id":"4","last_reported":1737529695,"current_range_meters":23200,"station_id":"ce4bhih2rcd13ifvqfs0","pricing_plan_id":"cebpf4jnsgd1na2vs0mg"},{"bike_id":"4d071c99-59bc-4138-8b76-2f04d780bbaa","system_id":"levelo_inurba_marseille","lat":43.26228,"lon":5.40468,"is_reserved":false,"is_disabled":false,"rental_uris":{"android":"levelo://app?vid=4d071c99-59bc-4138-8b76-2f04d780bbaa","ios":"levelo://app?vid=4d071c99-59bc-4138-8b76-2f04d780bbaa"},"vehicle_type_id":"4","last_reported":1737529695,"current_range_meters":14800,"station_id":"","pricing_plan_id":"cebpf4jnsgd1na2vs0mg"},{"bike_id":"af5d9bf2-e7e8-4f02-9815-c7014bdb0190","system_id":"levelo_inurba_marseille","lat":43.28353,"lon":5.38104,"is_reserved":false,"is_disabled":false,"rental_uris":{"android":"levelo://app?vid=af5d9bf2-e7e8-4f02-9815-c7014bdb0190","ios":"levelo://app?vid=af5d9bf2-e7e8-4f02-9815-c7014bdb0190"},"vehicle_type_id":"4","last_reported":1737529695,"current_range_meters":28400,"station_id":"ce4bh412rcd13ifvqdr0","pricing_plan_id":"cebpf4jnsgd1na2vs0mg"},{"bike_id":"46c271a9-84a6-4074-bc6b-ea8b2041c27a","system_id":"levelo_inurba_marseille","lat":43.25584,"lon":5.38229,"is_reserved":false,"is_disabled":false,"rental_uris":{"android":"levelo://app?vid=46c271a9-84a6-4074-bc6b-ea8b2041c27a","ios":"levelo://app?vid=46c271a9-84a6-4074-bc6b-ea8b2041c27a"},"vehicle_type_id":"4","last_reported":1737529695,"current_range_meters":14800,"station_id":"ce4bhih2rcd13ifvqfs0","pricing_plan_id":"cebpf4jnsgd1na2vs0mg"},{"bike_id":"9b8e59cc-176c-4543-87f0-686d1d230657","system_id":"levelo_inurba_marseille","lat":43.29194,"lon":5.358,"is_reserved":false,"is_disabled":true,"rental_uris":{"android":"levelo://app?vid=9b8e59cc-176c-4543-87f0-686d1d230657","ios":"levelo://app?vid=9b8e59cc-176c-4543-87f0-686d1d230657"},"vehicle_type_id":"4","last_reported":1737529695,"current_range_meters":400,"station_id":"ce4bhb12rcd13ifvqel0","pricing_plan_id":"cebpf4jnsgd1na2vs0mg"},{"bike_id":"0f35782f-f969-40a2-9f3e-14f4f594f78f","system_id":"levelo_inurba_marseille","lat":43.24081,"lon":5.37756,"is_reserved":false,"is_disabled":false,"rental_uris":{"android":"levelo://app?vid=0f35782f-f969-40a2-9f3e-14f4f594f78f","ios":"levelo://app?vid=0f35782f-f969-40a2-9f3e-14f4f594f78f"},"vehicle_type_id":"4","last_reported":1737529695,"current_range_meters":19200,"station_id":"ce4bhnp2rcd13ifvqgvg","pricing_plan_id":"cebpf4jnsgd1na2vs0mg"},{"bike_id":"e4bbfe92-2a26-4601-b356-68970825b8d8","system_id":"levelo_inurba_marseille","lat":43.29034,"lon":5.38649,"is_reserved":false,"is_disabled":false,"rental_uris":{"android":"levelo://app?vid=e4bbfe92-2a26-4601-b356-68970825b8d8","ios":"levelo://app?vid=e4bbfe92-2a26-4601-b356-68970825b8d8"},"vehicle_type_id":"4","last_reported":1737529695,"current_range_meters":35200,"station_id":"ce4bh4p2rcd13ifvqe0g","pricing_plan_id":"cebpf4jnsgd1na2vs0mg"},{"bike_id":"0c5ad6b7-3862-4c1f-ae20-eed2815f3aa4","system_id":"levelo_inurba_marseille","lat":43.3139,"lon":5.3849,"is_reserved":false,"is_disabled":false,"rental_uris":{"android":"levelo://app?vid=0c5ad6b7-3862-4c1f-ae20-eed2815f3aa4","ios":"levelo://app?vid=0c5ad6b7-3862-4c1f-ae20-eed2815f3aa4"},"vehicle_type_id":"4","last_reported":1737529695,"current_range_meters":11600,"station_id":"ce4bgt92rcd13ifvqcf0","pricing_plan_id":"cebpf4jnsgd1na2vs0mg"},{"bike_id":"3102a72b-882b-4111-af7e-422cd2d2818d","system_id":"levelo_inurba_marseille","lat":43.2961,"lon":5.37138,"is_reserved":false,"is_disabled":false,"rental_uris":{"android":"levelo://app?vid=3102a72b-882b-4111-af7e-422cd2d2818d","ios":"levelo://app?vid=3102a72b-882b-4111-af7e-422cd2d2818d"},"vehicle_type_id":"4","last_reported":1737529695,"current_range_meters":35600,"station_id":"ce4bgnh2rcd13ifvqc0g","pricing_plan_id":"cebpf4jnsgd1na2vs0mg"},{"bike_id":"e8e2ff4b-263b-4f3d-86f2-89df3874fcb1","system_id":"levelo_inurba_marseille","lat":43.30484,"lon":5.37895,"is_reserved":false,"is_disabled":false,"rental_uris":{"android":"levelo://app?vid=e8e2ff4b-263b-4f3d-86f2-89df3874fcb1","ios":"levelo://app?vid=e8e2ff4b-263b-4f3d-86f2-89df3874fcb1"},"vehicle_type_id":"4","last_reported":1737529695,"current_range_meters":16400,"station_id":"ce4bgup2rcd13ifvqcn0","pricing_plan_id":"cebpf4jnsgd1na2vs0mg"},{"bike_id":"5c01ebfb-992b-4e94-baa6-4615b3d195e3","system_id":"levelo_inurba_marseille","lat":43.26933,"lon":5.40274,"is_reserved":false,"is_disabled":false,"rental_uris":{"android":"levelo://app?vid=5c01ebfb-992b-4e94-baa6-4615b3d195e3","ios":"levelo://app?vid=5c01ebfb-992b-4e94-baa6-4615b3d195e3"},"vehicle_type_id":"4","last_reported":1737529695,"current_range_meters":4000,"station_id":"cjm6bp8fraef2m0cb0m0","pricing_plan_id":"cebpf4jnsgd1na2vs0mg"},{"bike_id":"63ac8898-13b7-41ff-9418-e58ae0dbf1ba","system_id":"levelo_inurba_marseille","lat":43.27836,"lon":5.40729,"is_reserved":false,"is_disabled":true,"rental_uris":{"android":"levelo://app?vid=63ac8898-13b7-41ff-9418-e58ae0dbf1ba","ios":"levelo://app?vid=63ac8898-13b7-41ff-9418-e58ae0dbf1ba"},"vehicle_type_id":"4","last_reported":1737529695,"current_range_meters":24800,"station_id":"ce4bhnh2rcd13ifvqgtg","pricing_plan_id":"cebpf4jnsgd1na2vs0mg"},{"bike_id":"0ec0257b-90a0-4795-823a-d8d50d2f0d73","system_id":"levelo_inurba_marseille","lat":43.31684,"lon":5.40472,"is_reserved":false,"is_disabled":false,"rental_uris":{"android":"levelo://app?vid=0ec0257b-90a0-4795-823a-d8d50d2f0d73","ios":"levelo://app?vid=0ec0257b-90a0-4795-823a-d8d50d2f0d73"},"vehicle_type_id":"4","last_reported":1737529695,"current_range_meters":17200,"station_id":"ce4bh012rcd13ifvqd00","pricing_plan_id":"cebpf4jnsgd1na2vs0mg"},{"bike_id":"b9774d04-993a-4f5c-a9a7-0f9ad4017906","system_id":"levelo_inurba_marseille","lat":43.311675,"lon":5.38717,"is_reserved":false,"is_disabled":false,"rental_uris":{"android":"levelo://app?vid=b9774d04-993a-4f5c-a9a7-0f9ad4017906","ios":"levelo://app?vid=b9774d04-993a-4f5c-a9a7-0f9ad4017906"},"vehicle_type_id":"4","last_reported":1737529695,"current_range_meters":39200,"station_id":"ce4bgv12rcd13ifvqcp0","pricing_plan_id":"cebpf4jnsgd1na2vs0mg"},{"bike_id":"56c16567-a209-442e-b152-823591129e8b","system_id":"levelo_inurba_marseille","lat":43.28266,"lon":5.35091,"is_reserved":false,"is_disabled":false,"rental_uris":{"android":"levelo://app?vid=56c16567-a209-442e-b152-823591129e8b","ios":"levelo://app?vid=56c16567-a209-442e-b152-823591129e8b"},"vehicle_type_id":"4","last_reported":1737529695,"current_range_meters":37600,"station_id":"ce4bhbp2rcd13ifvqerg","pricing_plan_id":"cebpf4jnsgd1na2vs0mg"},{"bike_id":"bda5c3c5-1ce2-40be-87ca-14619f5b97ef","system_id":"levelo_inurba_marseille","lat":43.31328,"lon":5.39724,"is_reserved":false,"is_disabled":false,"rental_uris":{"android":"levelo://app?vid=bda5c3c5-1ce2-40be-87ca-14619f5b97ef","ios":"levelo://app?vid=bda5c3c5-1ce2-40be-87ca-14619f5b97ef"},"vehicle_type_id":"4","last_reported":1737529695,"current_range_meters":38800,"station_id":"ce4bgvp2rcd13ifvqcu0","pricing_plan_id":"cebpf4jnsgd1na2vs0mg"},{"bike_id":"cc8190cc-c655-4b6b-b8a9-4a668ec97d5d","system_id":"levelo_inurba_marseille","lat":43.33611,"lon":5.41035,"is_reserved":false,"is_disabled":false,"rental_uris":{"android":"levelo://app?vid=cc8190cc-c655-4b6b-b8a9-4a668ec97d5d","ios":"levelo://app?vid=cc8190cc-c655-4b6b-b8a9-4a668ec97d5d"},"vehicle_type_id":"4","last_reported":1737529695,"current_range_meters":28000,"station_id":"ce4bhqh2rcd13ifvqhmg","pricing_plan_id":"cebpf4jnsgd1na2vs0mg"},{"bike_id":"ef2c1b03-bd1f-4a60-b621-61f7751b628d","system_id":"levelo_inurba_marseille","lat":43.29454,"lon":5.39764,"is_reserved":false,"is_disabled":true,"rental_uris":{"android":"levelo://app?vid=ef2c1b03-bd1f-4a60-b621-61f7751b628d","ios":"levelo://app?vid=ef2c1b03-bd1f-4a60-b621-61f7751b628d"},"vehicle_type_id":"4","last_reported":1737529695,"current_range_meters":2800,"station_id":"ce4bh3h2rcd13ifvqdo0","pricing_plan_id":"cebpf4jnsgd1na2vs0mg"},{"bike_id":"4933a00c-bf24-481b-abc9-f28e89fde20a","system_id":"levelo_inurba_marseille","lat":43.30795,"lon":5.3816,"is_reserved":false,"is_disabled":false,"rental_uris":{"android":"levelo://app?vid=4933a00c-bf24-481b-abc9-f28e89fde20a","ios":"levelo://app?vid=4933a00c-bf24-481b-abc9-f28e89fde20a"},"vehicle_type_id":"4","last_reported":1737529695,"current_range_meters":37600,"station_id":"ce4bgt12rcd13ifvqce0","pricing_plan_id":"cebpf4jnsgd1na2vs0mg"},{"bike_id":"5abf3f81-8b66-4826-861d-55abbb651539","system_id":"levelo_inurba_marseille","lat":43.337444,"lon":5.374475,"is_reserved":false,"is_disabled":true,"rental_uris":{"android":"levelo://app?vid=5abf3f81-8b66-4826-861d-55abbb651539","ios":"levelo://app?vid=5abf3f81-8b66-4826-861d-55abbb651539"},"vehicle_type_id":"4","last_reported":1737529695,"current_range_meters":0,"station_id":"","pricing_plan_id":"cebpf4jnsgd1na2vs0mg"},{"bike_id":"1eb2452e-9527-4cc7-99f1-3114fdf5918d","system_id":"levelo_inurba_marseille","lat":43.25712,"lon":5.41016,"is_reserved":false,"is_disabled":false,"rental_uris":{"android":"levelo://app?vid=1eb2452e-9527-4cc7-99f1-3114fdf5918d","ios":"levelo://app?vid=1eb2452e-9527-4cc7-99f1-3114fdf5918d"},"vehicle_type_id":"4","last_reported":1737529695,"current_range_meters":17200,"station_id":"","pricing_plan_id":"cebpf4jnsgd1na2vs0mg"},{"bike_id":"9bc726c4-f0ae-46a7-9894-3042b33f1aaf","system_id":"levelo_inurba_marseille","lat":43.23159,"lon":5.43706,"is_reserved":false,"is_disabled":false,"rental_uris":{"android":"levelo://app?vid=9bc726c4-f0ae-46a7-9894-3042b33f1aaf","ios":"levelo://app?vid=9bc726c4-f0ae-46a7-9894-3042b33f1aaf"},"vehicle_type_id":"4","last_reported":1737529695,"current_range_meters":38000,"station_id":"ce4bhmp2rcd13ifvqgog","pricing_plan_id":"cebpf4jnsgd1na2vs0mg"},{"bike_id":"04656797-d164-454b-8244-55edc7fec428","system_id":"levelo_inurba_marseille","lat":43.31719,"lon":5.42405,"is_reserved":false,"is_disabled":false,"rental_uris":{"android":"levelo://app?vid=04656797-d164-454b-8244-55edc7fec428","ios":"levelo://app?vid=04656797-d164-454b-8244-55edc7fec428"},"vehicle_type_id":"4","last_reported":1737529695,"current_range_meters":38800,"station_id":"ce4bhp92rcd13ifvqhbg","pricing_plan_id":"cebpf4jnsgd1na2vs0mg"},{"bike_id":"1f16ad06-6773-4946-8305-97dc88287b9f","system_id":"levelo_inurba_marseille","lat":43.30815,"lon":5.37335,"is_reserved":false,"is_disabled":false,"rental_uris":{"android":"levelo://app?vid=1f16ad06-6773-4946-8305-97dc88287b9f","ios":"levelo://app?vid=1f16ad06-6773-4946-8305-97dc88287b9f"},"vehicle_type_id":"4","last_reported":1737529695,"current_range_meters":24000,"station_id":"","pricing_plan_id":"cebpf4jnsgd1na2vs0mg"},{"bike_id":"08498b64-c464-4119-afb2-6f220d6847bc","system_id":"levelo_inurba_marseille","lat":43.282635,"lon":5.350839,"is_reserved":false,"is_disabled":false,"rental_uris":{"android":"levelo://app?vid=08498b64-c464-4119-afb2-6f220d6847bc","ios":"levelo://app?vid=08498b64-c464-4119-afb2-6f220d6847bc"},"vehicle_type_id":"4","last_reported":1737529695,"current_range_meters":36000,"station_id":"ce4bhbp2rcd13ifvqerg","pricing_plan_id":"cebpf4jnsgd1na2vs0mg"},{"bike_id":"72c6a75a-dcec-4bc7-8f9e-96be42e21f17","system_id":"levelo_inurba_marseille","lat":43.251127,"lon":5.403273,"is_reserved":false,"is_disabled":false,"rental_uris":{"android":"levelo://app?vid=72c6a75a-dcec-4bc7-8f9e-96be42e21f17","ios":"levelo://app?vid=72c6a75a-dcec-4bc7-8f9e-96be42e21f17"},"vehicle_type_id":"4","last_reported":1737529695,"current_range_meters":38800,"station_id":"ce4bhlh2rcd13ifvqgig","pricing_plan_id":"cebpf4jnsgd1na2vs0mg"},{"bike_id":"07b10a1c-c33b-436d-a736-4387a4722435","system_id":"levelo_inurba_marseille","lat":43.33112,"lon":5.3822,"is_reserved":false,"is_disabled":false,"rental_uris":{"android":"levelo://app?vid=07b10a1c-c33b-436d-a736-4387a4722435","ios":"levelo://app?vid=07b10a1c-c33b-436d-a736-4387a4722435"},"vehicle_type_id":"4","last_reported":1737529695,"current_range_meters":29600,"station_id":"","pricing_plan_id":"cebpf4jnsgd1na2vs0mg"},{"bike_id":"74aa2cd9-5408-4b97-9ed0-299cf590f8db","system_id":"levelo_inurba_marseille","lat":43.28268,"lon":5.35078,"is_reserved":false,"is_disabled":false,"rental_uris":{"android":"levelo://app?vid=74aa2cd9-5408-4b97-9ed0-299cf590f8db","ios":"levelo://app?vid=74aa2cd9-5408-4b97-9ed0-299cf590f8db"},"vehicle_type_id":"4","last_reported":1737529695,"current_range_meters":39200,"station_id":"ce4bhbp2rcd13ifvqerg","pricing_plan_id":"cebpf4jnsgd1na2vs0mg"},{"bike_id":"11d6b015-1427-4b61-b912-b59f8f25d7dd","system_id":"levelo_inurba_marseille","lat":43.2969,"lon":5.37297,"is_reserved":false,"is_disabled":false,"rental_uris":{"android":"levelo://app?vid=11d6b015-1427-4b61-b912-b59f8f25d7dd","ios":"levelo://app?vid=11d6b015-1427-4b61-b912-b59f8f25d7dd"},"vehicle_type_id":"4","last_reported":1737529695,"current_range_meters":38400,"station_id":"ce4bgk12rcd13ifvqbj0","pricing_plan_id":"cebpf4jnsgd1na2vs0mg"},{"bike_id":"3091ae89-90d3-4550-8084-04911917cbf5","system_id":"levelo_inurba_marseille","lat":43.29281,"lon":5.4012,"is_reserved":false,"is_disabled":false,"rental_uris":{"android":"levelo://app?vid=3091ae89-90d3-4550-8084-04911917cbf5","ios":"levelo://app?vid=3091ae89-90d3-4550-8084-04911917cbf5"},"vehicle_type_id":"4","last_reported":1737529695,"current_range_meters":35200,"station_id":"ce4bh312rcd13ifvqdk0","pricing_plan_id":"cebpf4jnsgd1na2vs0mg"},{"bike_id":"1f6dc155-db14-4993-a445-66a4306b1945","system_id":"levelo_inurba_marseille","lat":43.310795,"lon":5.37475,"is_reserved":false,"is_disabled":false,"rental_uris":{"android":"levelo://app?vid=1f6dc155-db14-4993-a445-66a4306b1945","ios":"levelo://app?vid=1f6dc155-db14-4993-a445-66a4306b1945"},"vehicle_type_id":"4","last_reported":1737529695,"current_range_meters":38800,"station_id":"","pricing_plan_id":"cebpf4jnsgd1na2vs0mg"},{"bike_id":"fb051a1b-f405-4fb7-8edb-82e638aff8f9","system_id":"levelo_inurba_marseille","lat":43.29818,"lon":5.36104,"is_reserved":false,"is_disabled":false,"rental_uris":{"android":"levelo://app?vid=fb051a1b-f405-4fb7-8edb-82e638aff8f9","ios":"levelo://app?vid=fb051a1b-f405-4fb7-8edb-82e638aff8f9"},"vehicle_type_id":"4","last_reported":1737529695,"current_range_meters":36400,"station_id":"","pricing_plan_id":"cebpf4jnsgd1na2vs0mg"},{"bike_id":"63468950-507d-45fc-b23b-b241b7129b89","system_id":"levelo_inurba_marseille","lat":43.23183,"lon":5.3999,"is_reserved":false,"is_disabled":false,"rental_uris":{"android":"levelo://app?vid=63468950-507d-45fc-b23b-b241b7129b89","ios":"levelo://app?vid=63468950-507d-45fc-b23b-b241b7129b89"},"vehicle_type_id":"4","last_reported":1737529695,"current_range_meters":33200,"station_id":"ce4bhn12rcd13ifvqgqg","pricing_plan_id":"cebpf4jnsgd1na2vs0mg"},{"bike_id":"245a70c7-2a5d-4a73-a3a8-17e7e21e9a8b","system_id":"levelo_inurba_marseille","lat":43.32368,"lon":5.36758,"is_reserved":false,"is_disabled":false,"rental_uris":{"android":"levelo://app?vid=245a70c7-2a5d-4a73-a3a8-17e7e21e9a8b","ios":"levelo://app?vid=245a70c7-2a5d-4a73-a3a8-17e7e21e9a8b"},"vehicle_type_id":"4","last_reported":1737529695,"current_range_meters":29600,"station_id":"ce4bhsh2rcd13ifvqi2g","pricing_plan_id":"cebpf4jnsgd1na2vs0mg"},{"bike_id":"79a0dd6b-fde5-43f6-92fa-2ddede50ce04","system_id":"levelo_inurba_marseille","lat":43.322798,"lon":5.382861,"is_reserved":false,"is_disabled":false,"rental_uris":{"android":"levelo://app?vid=79a0dd6b-fde5-43f6-92fa-2ddede50ce04","ios":"levelo://app?vid=79a0dd6b-fde5-43f6-92fa-2ddede50ce04"},"vehicle_type_id":"4","last_reported":1737529695,"current_range_meters":19600,"station_id":"ce4bhr12rcd13ifvqhqg","pricing_plan_id":"cebpf4jnsgd1na2vs0mg"},{"bike_id":"4fcbfa2f-f45b-4d35-a9ff-02c82eeaea19","system_id":"levelo_inurba_marseille","lat":43.239633,"lon":5.366368,"is_reserved":false,"is_disabled":false,"rental_uris":{"android":"levelo://app?vid=4fcbfa2f-f45b-4d35-a9ff-02c82eeaea19","ios":"levelo://app?vid=4fcbfa2f-f45b-4d35-a9ff-02c82eeaea19"},"vehicle_type_id":"4","last_reported":1737529695,"current_range_meters":24800,"station_id":"ce4bhi12rcd13ifvqfp0","pricing_plan_id":"cebpf4jnsgd1na2vs0mg"},{"bike_id":"f6132854-ba8b-4268-9a7d-378c728dd4c5","system_id":"levelo_inurba_marseille","lat":43.30617,"lon":5.39342,"is_reserved":false,"is_disabled":false,"rental_uris":{"android":"levelo://app?vid=f6132854-ba8b-4268-9a7d-378c728dd4c5","ios":"levelo://app?vid=f6132854-ba8b-4268-9a7d-378c728dd4c5"},"vehicle_type_id":"4","last_reported":1737529695,"current_range_meters":30400,"station_id":"ce4bh0p2rcd13ifvqd80","pricing_plan_id":"cebpf4jnsgd1na2vs0mg"},{"bike_id":"b7fe99b3-2520-409c-820c-45dc30488ce6","system_id":"levelo_inurba_marseille","lat":43.30481,"lon":5.37909,"is_reserved":false,"is_disabled":false,"rental_uris":{"android":"levelo://app?vid=b7fe99b3-2520-409c-820c-45dc30488ce6","ios":"levelo://app?vid=b7fe99b3-2520-409c-820c-45dc30488ce6"},"vehicle_type_id":"4","last_reported":1737529695,"current_range_meters":19600,"station_id":"ce4bgup2rcd13ifvqcn0","pricing_plan_id":"cebpf4jnsgd1na2vs0mg"},{"bike_id":"ddf6e991-554f-45c5-93a5-1d644f846a2a","system_id":"levelo_inurba_marseille","lat":43.28576,"lon":5.39498,"is_reserved":false,"is_disabled":false,"rental_uris":{"android":"levelo://app?vid=ddf6e991-554f-45c5-93a5-1d644f846a2a","ios":"levelo://app?vid=ddf6e991-554f-45c5-93a5-1d644f846a2a"},"vehicle_type_id":"4","last_reported":1737529695,"current_range_meters":36400,"station_id":"ce4bh292rcd13ifvqdg0","pricing_plan_id":"cebpf4jnsgd1na2vs0mg"},{"bike_id":"25cce461-9c2a-4621-ab6f-7612add39744","system_id":"levelo_inurba_marseille","lat":43.31343,"lon":5.39683,"is_reserved":false,"is_disabled":false,"rental_uris":{"android":"levelo://app?vid=25cce461-9c2a-4621-ab6f-7612add39744","ios":"levelo://app?vid=25cce461-9c2a-4621-ab6f-7612add39744"},"vehicle_type_id":"4","last_reported":1737529695,"current_range_meters":38800,"station_id":"ce4bgvp2rcd13ifvqcu0","pricing_plan_id":"cebpf4jnsgd1na2vs0mg"},{"bike_id":"6f287a1d-efa4-4c14-b01a-f96e3d7ad51d","system_id":"levelo_inurba_marseille","lat":43.31055,"lon":5.38359,"is_reserved":false,"is_disabled":false,"rental_uris":{"android":"levelo://app?vid=6f287a1d-efa4-4c14-b01a-f96e3d7ad51d","ios":"levelo://app?vid=6f287a1d-efa4-4c14-b01a-f96e3d7ad51d"},"vehicle_type_id":"4","last_reported":1737529695,"current_range_meters":30800,"station_id":"ce4bgv92rcd13ifvqcr0","pricing_plan_id":"cebpf4jnsgd1na2vs0mg"},{"bike_id":"1f7b98ef-2576-4aed-84bd-6180476326dd","system_id":"levelo_inurba_marseille","lat":43.29881,"lon":5.38903,"is_reserved":false,"is_disabled":false,"rental_uris":{"android":"levelo://app?vid=1f7b98ef-2576-4aed-84bd-6180476326dd","ios":"levelo://app?vid=1f7b98ef-2576-4aed-84bd-6180476326dd"},"vehicle_type_id":"4","last_reported":1737529695,"current_range_meters":24000,"station_id":"ce4bh392rcd13ifvqdl0","pricing_plan_id":"cebpf4jnsgd1na2vs0mg"},{"bike_id":"927af5cf-35fc-4939-bc74-cd6ae1f51fc8","system_id":"levelo_inurba_marseille","lat":43.2792,"lon":5.39576,"is_reserved":false,"is_disabled":false,"rental_uris":{"android":"levelo://app?vid=927af5cf-35fc-4939-bc74-cd6ae1f51fc8","ios":"levelo://app?vid=927af5cf-35fc-4939-bc74-cd6ae1f51fc8"},"vehicle_type_id":"4","last_reported":1737529695,"current_range_meters":34000,"station_id":"ce4bhf92rcd13ifvqf40","pricing_plan_id":"cebpf4jnsgd1na2vs0mg"},{"bike_id":"229dd1d5-aa46-48d3-b747-f187a4236bff","system_id":"levelo_inurba_marseille","lat":43.32366,"lon":5.38885,"is_reserved":false,"is_disabled":false,"rental_uris":{"android":"levelo://app?vid=229dd1d5-aa46-48d3-b747-f187a4236bff","ios":"levelo://app?vid=229dd1d5-aa46-48d3-b747-f187a4236bff"},"vehicle_type_id":"4","last_reported":1737529695,"current_range_meters":24800,"station_id":"ce4bhqp2rcd13ifvqhog","pricing_plan_id":"cebpf4jnsgd1na2vs0mg"},{"bike_id":"92074eeb-7c24-47b3-a1d7-6aecb177d103","system_id":"levelo_inurba_marseille","lat":43.33603,"lon":5.41037,"is_reserved":false,"is_disabled":false,"rental_uris":{"android":"levelo://app?vid=92074eeb-7c24-47b3-a1d7-6aecb177d103","ios":"levelo://app?vid=92074eeb-7c24-47b3-a1d7-6aecb177d103"},"vehicle_type_id":"4","last_reported":1737529695,"current_range_meters":36400,"station_id":"ce4bhqh2rcd13ifvqhmg","pricing_plan_id":"cebpf4jnsgd1na2vs0mg"},{"bike_id":"388bf2cf-af51-463d-a5ac-6234f3f91974","system_id":"levelo_inurba_marseille","lat":43.30472,"lon":5.37914,"is_reserved":false,"is_disabled":false,"rental_uris":{"android":"levelo://app?vid=388bf2cf-af51-463d-a5ac-6234f3f91974","ios":"levelo://app?vid=388bf2cf-af51-463d-a5ac-6234f3f91974"},"vehicle_type_id":"4","last_reported":1737529695,"current_range_meters":35600,"station_id":"ce4bgup2rcd13ifvqcn0","pricing_plan_id":"cebpf4jnsgd1na2vs0mg"},{"bike_id":"699b2aaa-b5e3-4f45-805d-1bb84d4edf0f","system_id":"levelo_inurba_marseille","lat":43.29449,"lon":5.39758,"is_reserved":false,"is_disabled":false,"rental_uris":{"android":"levelo://app?vid=699b2aaa-b5e3-4f45-805d-1bb84d4edf0f","ios":"levelo://app?vid=699b2aaa-b5e3-4f45-805d-1bb84d4edf0f"},"vehicle_type_id":"4","last_reported":1737529695,"current_range_meters":32000,"station_id":"ce4bh3h2rcd13ifvqdo0","pricing_plan_id":"cebpf4jnsgd1na2vs0mg"},{"bike_id":"d05311db-440a-444a-9f37-9748632df69a","system_id":"levelo_inurba_marseille","lat":43.27208,"lon":5.39179,"is_reserved":false,"is_disabled":false,"rental_uris":{"android":"levelo://app?vid=d05311db-440a-444a-9f37-9748632df69a","ios":"levelo://app?vid=d05311db-440a-444a-9f37-9748632df69a"},"vehicle_type_id":"4","last_reported":1737529695,"current_range_meters":22400,"station_id":"ce4bhhp2rcd13ifvqfm0","pricing_plan_id":"cebpf4jnsgd1na2vs0mg"},{"bike_id":"b6cc31be-151e-4d56-8839-e71a9cd45b18","system_id":"levelo_inurba_marseille","lat":43.2319,"lon":5.35557,"is_reserved":false,"is_disabled":false,"rental_uris":{"android":"levelo://app?vid=b6cc31be-151e-4d56-8839-e71a9cd45b18","ios":"levelo://app?vid=b6cc31be-151e-4d56-8839-e71a9cd45b18"},"vehicle_type_id":"4","last_reported":1737529695,"current_range_meters":35200,"station_id":"ce4bhu92rcd13ifvqi70","pricing_plan_id":"cebpf4jnsgd1na2vs0mg"},{"bike_id":"2799c8cc-756c-4aea-b7b0-0c1669879e7b","system_id":"levelo_inurba_marseille","lat":43.288437,"lon":5.35866,"is_reserved":false,"is_disabled":false,"rental_uris":{"android":"levelo://app?vid=2799c8cc-756c-4aea-b7b0-0c1669879e7b","ios":"levelo://app?vid=2799c8cc-756c-4aea-b7b0-0c1669879e7b"},"vehicle_type_id":"4","last_reported":1737529695,"current_range_meters":38800,"station_id":"ce4bhb12rcd13ifvqem0","pricing_plan_id":"cebpf4jnsgd1na2vs0mg"},{"bike_id":"fc4611da-77a7-4c7f-96e0-518d1af34c80","system_id":"levelo_inurba_marseille","lat":43.30591,"lon":5.39353,"is_reserved":false,"is_disabled":false,"rental_uris":{"android":"levelo://app?vid=fc4611da-77a7-4c7f-96e0-518d1af34c80","ios":"levelo://app?vid=fc4611da-77a7-4c7f-96e0-518d1af34c80"},"vehicle_type_id":"4","last_reported":1737529695,"current_range_meters":34800,"station_id":"ce4bh0p2rcd13ifvqd80","pricing_plan_id":"cebpf4jnsgd1na2vs0mg"},{"bike_id":"e51e828b-0f2b-4b03-8a68-3811498968fb","system_id":"levelo_inurba_marseille","lat":43.30471,"lon":5.37897,"is_reserved":false,"is_disabled":false,"rental_uris":{"android":"levelo://app?vid=e51e828b-0f2b-4b03-8a68-3811498968fb","ios":"levelo://app?vid=e51e828b-0f2b-4b03-8a68-3811498968fb"},"vehicle_type_id":"4","last_reported":1737529695,"current_range_meters":31200,"station_id":"ce4bgup2rcd13ifvqcn0","pricing_plan_id":"cebpf4jnsgd1na2vs0mg"},{"bike_id":"bef6c1af-f80b-4a93-9039-cf48e3f45fa6","system_id":"levelo_inurba_marseille","lat":43.23963,"lon":5.36651,"is_reserved":false,"is_disabled":false,"rental_uris":{"android":"levelo://app?vid=bef6c1af-f80b-4a93-9039-cf48e3f45fa6","ios":"levelo://app?vid=bef6c1af-f80b-4a93-9039-cf48e3f45fa6"},"vehicle_type_id":"4","last_reported":1737529695,"current_range_meters":27600,"station_id":"ce4bhi12rcd13ifvqfp0","pricing_plan_id":"cebpf4jnsgd1na2vs0mg"},{"bike_id":"f0d90801-3fb7-4f15-941c-c0f5acc83814","system_id":"levelo_inurba_marseille","lat":43.31077,"lon":5.3835,"is_reserved":false,"is_disabled":false,"rental_uris":{"android":"levelo://app?vid=f0d90801-3fb7-4f15-941c-c0f5acc83814","ios":"levelo://app?vid=f0d90801-3fb7-4f15-941c-c0f5acc83814"},"vehicle_type_id":"4","last_reported":1737529695,"current_range_meters":24000,"station_id":"ce4bgv92rcd13ifvqcr0","pricing_plan_id":"cebpf4jnsgd1na2vs0mg"},{"bike_id":"7913d9ce-121f-49fa-9a7c-09d5d8f80136","system_id":"levelo_inurba_marseille","lat":43.278938,"lon":5.380003,"is_reserved":false,"is_disabled":false,"rental_uris":{"android":"levelo://app?vid=7913d9ce-121f-49fa-9a7c-09d5d8f80136","ios":"levelo://app?vid=7913d9ce-121f-49fa-9a7c-09d5d8f80136"},"vehicle_type_id":"4","last_reported":1737529695,"current_range_meters":38800,"station_id":"ce4bhf92rcd13ifvqf50","pricing_plan_id":"cebpf4jnsgd1na2vs0mg"},{"bike_id":"a22954fb-4c64-4ecd-b91c-3596e3c80652","system_id":"levelo_inurba_marseille","lat":43.27495,"lon":5.42449,"is_reserved":false,"is_disabled":false,"rental_uris":{"android":"levelo://app?vid=a22954fb-4c64-4ecd-b91c-3596e3c80652","ios":"levelo://app?vid=a22954fb-4c64-4ecd-b91c-3596e3c80652"},"vehicle_type_id":"4","last_reported":1737529695,"current_range_meters":36800,"station_id":"ce4bhn92rcd13ifvqgrg","pricing_plan_id":"cebpf4jnsgd1na2vs0mg"},{"bike_id":"7f389e7a-ade1-4b76-bf3a-bd5bf61f3d42","system_id":"levelo_inurba_marseille","lat":43.30931,"lon":5.40147,"is_reserved":false,"is_disabled":false,"rental_uris":{"android":"levelo://app?vid=7f389e7a-ade1-4b76-bf3a-bd5bf61f3d42","ios":"levelo://app?vid=7f389e7a-ade1-4b76-bf3a-bd5bf61f3d42"},"vehicle_type_id":"4","last_reported":1737529695,"current_range_meters":38800,"station_id":"ce4bgvp2rcd13ifvqct0","pricing_plan_id":"cebpf4jnsgd1na2vs0mg"},{"bike_id":"aac71eed-fec9-4f89-95a8-f2df692ed8b3","system_id":"levelo_inurba_marseille","lat":43.309303,"lon":5.401556,"is_reserved":false,"is_disabled":false,"rental_uris":{"android":"levelo://app?vid=aac71eed-fec9-4f89-95a8-f2df692ed8b3","ios":"levelo://app?vid=aac71eed-fec9-4f89-95a8-f2df692ed8b3"},"vehicle_type_id":"4","last_reported":1737529695,"current_range_meters":38800,"station_id":"ce4bgvp2rcd13ifvqct0","pricing_plan_id":"cebpf4jnsgd1na2vs0mg"},{"bike_id":"b9fcb3d5-fb1e-4426-9971-37664a09d2b1","system_id":"levelo_inurba_marseille","lat":43.28264,"lon":5.35082,"is_reserved":false,"is_disabled":false,"rental_uris":{"android":"levelo://app?vid=b9fcb3d5-fb1e-4426-9971-37664a09d2b1","ios":"levelo://app?vid=b9fcb3d5-fb1e-4426-9971-37664a09d2b1"},"vehicle_type_id":"4","last_reported":1737529695,"current_range_meters":38800,"station_id":"ce4bhbp2rcd13ifvqerg","pricing_plan_id":"cebpf4jnsgd1na2vs0mg"},{"bike_id":"64905b2d-9f77-4f4a-a6cc-173a557edbcb","system_id":"levelo_inurba_marseille","lat":43.31366,"lon":5.3849,"is_reserved":false,"is_disabled":false,"rental_uris":{"android":"levelo://app?vid=64905b2d-9f77-4f4a-a6cc-173a557edbcb","ios":"levelo://app?vid=64905b2d-9f77-4f4a-a6cc-173a557edbcb"},"vehicle_type_id":"4","last_reported":1737529695,"current_range_meters":36000,"station_id":"ce4bgt92rcd13ifvqcf0","pricing_plan_id":"cebpf4jnsgd1na2vs0mg"},{"bike_id":"2512448d-137b-4c58-a2dc-a8485ce50ee5","system_id":"levelo_inurba_marseille","lat":43.2781,"lon":5.40714,"is_reserved":false,"is_disabled":false,"rental_uris":{"android":"levelo://app?vid=2512448d-137b-4c58-a2dc-a8485ce50ee5","ios":"levelo://app?vid=2512448d-137b-4c58-a2dc-a8485ce50ee5"},"vehicle_type_id":"4","last_reported":1737529695,"current_range_meters":38800,"station_id":"ce4bhnh2rcd13ifvqgtg","pricing_plan_id":"cebpf4jnsgd1na2vs0mg"},{"bike_id":"e6b4a07a-7142-4c60-ad42-8a9947eb9acf","system_id":"levelo_inurba_marseille","lat":43.31688,"lon":5.40478,"is_reserved":false,"is_disabled":false,"rental_uris":{"android":"levelo://app?vid=e6b4a07a-7142-4c60-ad42-8a9947eb9acf","ios":"levelo://app?vid=e6b4a07a-7142-4c60-ad42-8a9947eb9acf"},"vehicle_type_id":"4","last_reported":1737529695,"current_range_meters":30400,"station_id":"ce4bh012rcd13ifvqd00","pricing_plan_id":"cebpf4jnsgd1na2vs0mg"},{"bike_id":"78f7382e-8fcb-4578-a536-bdfffeb211df","system_id":"levelo_inurba_marseille","lat":43.299366,"lon":5.36525,"is_reserved":false,"is_disabled":false,"rental_uris":{"android":"levelo://app?vid=78f7382e-8fcb-4578-a536-bdfffeb211df","ios":"levelo://app?vid=78f7382e-8fcb-4578-a536-bdfffeb211df"},"vehicle_type_id":"4","last_reported":1737529695,"current_range_meters":38400,"station_id":"ce4bgm92rcd13ifvqbr0","pricing_plan_id":"cebpf4jnsgd1na2vs0mg"},{"bike_id":"40be62b4-6dda-47cf-b32e-27a6594e08ac","system_id":"levelo_inurba_marseille","lat":43.287998,"lon":5.376336,"is_reserved":false,"is_disabled":false,"rental_uris":{"android":"levelo://app?vid=40be62b4-6dda-47cf-b32e-27a6594e08ac","ios":"levelo://app?vid=40be62b4-6dda-47cf-b32e-27a6594e08ac"},"vehicle_type_id":"4","last_reported":1737529695,"current_range_meters":6400,"station_id":"","pricing_plan_id":"cebpf4jnsgd1na2vs0mg"},{"bike_id":"1f5cb474-798b-4357-9d76-fbb42e648fb5","system_id":"levelo_inurba_marseille","lat":43.28631,"lon":5.35112,"is_reserved":false,"is_disabled":false,"rental_uris":{"android":"levelo://app?vid=1f5cb474-798b-4357-9d76-fbb42e648fb5","ios":"levelo://app?vid=1f5cb474-798b-4357-9d76-fbb42e648fb5"},"vehicle_type_id":"4","last_reported":1737529695,"current_range_meters":10800,"station_id":"ce4bhch2rcd13ifvqeug","pricing_plan_id":"cebpf4jnsgd1na2vs0mg"},{"bike_id":"7602ec5e-b6be-4286-8ae1-0dcc95a85012","system_id":"levelo_inurba_marseille","lat":43.27376,"lon":5.36253,"is_reserved":false,"is_disabled":false,"rental_uris":{"android":"levelo://app?vid=7602ec5e-b6be-4286-8ae1-0dcc95a85012","ios":"levelo://app?vid=7602ec5e-b6be-4286-8ae1-0dcc95a85012"},"vehicle_type_id":"4","last_reported":1737529695,"current_range_meters":26800,"station_id":"ce4bhbh2rcd13ifvqeo0","pricing_plan_id":"cebpf4jnsgd1na2vs0mg"},{"bike_id":"134ecaa4-9be4-419f-83ae-52c28ba58251","system_id":"levelo_inurba_marseille","lat":43.29032,"lon":5.38655,"is_reserved":false,"is_disabled":true,"rental_uris":{"android":"levelo://app?vid=134ecaa4-9be4-419f-83ae-52c28ba58251","ios":"levelo://app?vid=134ecaa4-9be4-419f-83ae-52c28ba58251"},"vehicle_type_id":"4","last_reported":1737529695,"current_range_meters":800,"station_id":"ce4bh4p2rcd13ifvqe0g","pricing_plan_id":"cebpf4jnsgd1na2vs0mg"},{"bike_id":"104cfb67-3f6d-4eee-b56b-b2252d77931e","system_id":"levelo_inurba_marseille","lat":43.28364,"lon":5.38094,"is_reserved":false,"is_disabled":false,"rental_uris":{"android":"levelo://app?vid=104cfb67-3f6d-4eee-b56b-b2252d77931e","ios":"levelo://app?vid=104cfb67-3f6d-4eee-b56b-b2252d77931e"},"vehicle_type_id":"4","last_reported":1737529695,"current_range_meters":36000,"station_id":"ce4bh412rcd13ifvqdr0","pricing_plan_id":"cebpf4jnsgd1na2vs0mg"},{"bike_id":"a5fb094f-c563-46a7-8a76-54204734f670","system_id":"levelo_inurba_marseille","lat":43.30595,"lon":5.39351,"is_reserved":false,"is_disabled":false,"rental_uris":{"android":"levelo://app?vid=a5fb094f-c563-46a7-8a76-54204734f670","ios":"levelo://app?vid=a5fb094f-c563-46a7-8a76-54204734f670"},"vehicle_type_id":"4","last_reported":1737529695,"current_range_meters":19200,"station_id":"ce4bh0p2rcd13ifvqd80","pricing_plan_id":"cebpf4jnsgd1na2vs0mg"},{"bike_id":"cda6b757-13a4-47ea-9929-18a3e3dec8a3","system_id":"levelo_inurba_marseille","lat":43.26567,"lon":5.39019,"is_reserved":false,"is_disabled":false,"rental_uris":{"android":"levelo://app?vid=cda6b757-13a4-47ea-9929-18a3e3dec8a3","ios":"levelo://app?vid=cda6b757-13a4-47ea-9929-18a3e3dec8a3"},"vehicle_type_id":"4","last_reported":1737529695,"current_range_meters":38800,"station_id":"ce4bhe12rcd13ifvqf30","pricing_plan_id":"cebpf4jnsgd1na2vs0mg"},{"bike_id":"8e7f04d3-65ad-47a4-aea0-00bc1e348077","system_id":"levelo_inurba_marseille","lat":43.27373,"lon":5.36258,"is_reserved":false,"is_disabled":false,"rental_uris":{"android":"levelo://app?vid=8e7f04d3-65ad-47a4-aea0-00bc1e348077","ios":"levelo://app?vid=8e7f04d3-65ad-47a4-aea0-00bc1e348077"},"vehicle_type_id":"4","last_reported":1737529695,"current_range_meters":38800,"station_id":"ce4bhbh2rcd13ifvqeo0","pricing_plan_id":"cebpf4jnsgd1na2vs0mg"},{"bike_id":"cb81130e-1c32-4378-a0eb-627350e954d9","system_id":"levelo_inurba_marseille","lat":43.24072,"lon":5.37762,"is_reserved":false,"is_disabled":false,"rental_uris":{"android":"levelo://app?vid=cb81130e-1c32-4378-a0eb-627350e954d9","ios":"levelo://app?vid=cb81130e-1c32-4378-a0eb-627350e954d9"},"vehicle_type_id":"4","last_reported":1737529695,"current_range_meters":38400,"station_id":"ce4bhnp2rcd13ifvqgvg","pricing_plan_id":"cebpf4jnsgd1na2vs0mg"},{"bike_id":"0687abf3-6284-483d-a939-194ea803707e","system_id":"levelo_inurba_marseille","lat":43.30164,"lon":5.38081,"is_reserved":false,"is_disabled":false,"rental_uris":{"android":"levelo://app?vid=0687abf3-6284-483d-a939-194ea803707e","ios":"levelo://app?vid=0687abf3-6284-483d-a939-194ea803707e"},"vehicle_type_id":"4","last_reported":1737529695,"current_range_meters":38400,"station_id":"ce4bgjp2rcd13ifvqbh0","pricing_plan_id":"cebpf4jnsgd1na2vs0mg"},{"bike_id":"ce52de1c-b446-4c1d-8d5c-51966bb533e1","system_id":"levelo_inurba_marseille","lat":43.30532,"lon":5.36715,"is_reserved":false,"is_disabled":false,"rental_uris":{"android":"levelo://app?vid=ce52de1c-b446-4c1d-8d5c-51966bb533e1","ios":"levelo://app?vid=ce52de1c-b446-4c1d-8d5c-51966bb533e1"},"vehicle_type_id":"4","last_reported":1737529695,"current_range_meters":28000,"station_id":"ce4bgrp2rcd13ifvqc9g","pricing_plan_id":"cebpf4jnsgd1na2vs0mg"},{"bike_id":"7db55a91-b073-4c5e-bbde-3eaf0a58e70a","system_id":"levelo_inurba_marseille","lat":43.26676,"lon":5.38257,"is_reserved":false,"is_disabled":false,"rental_uris":{"android":"levelo://app?vid=7db55a91-b073-4c5e-bbde-3eaf0a58e70a","ios":"levelo://app?vid=7db55a91-b073-4c5e-bbde-3eaf0a58e70a"},"vehicle_type_id":"4","last_reported":1737529695,"current_range_meters":8000,"station_id":"ce4bhg92rcd13ifvqf90","pricing_plan_id":"cebpf4jnsgd1na2vs0mg"},{"bike_id":"8be60f39-a086-4763-94b5-18b873ffb015","system_id":"levelo_inurba_marseille","lat":43.30544,"lon":5.36726,"is_reserved":false,"is_disabled":false,"rental_uris":{"android":"levelo://app?vid=8be60f39-a086-4763-94b5-18b873ffb015","ios":"levelo://app?vid=8be60f39-a086-4763-94b5-18b873ffb015"},"vehicle_type_id":"4","last_reported":1737529695,"current_range_meters":30000,"station_id":"ce4bgrp2rcd13ifvqc9g","pricing_plan_id":"cebpf4jnsgd1na2vs0mg"},{"bike_id":"dfae3e73-0188-4683-9589-24d6f6a1d5af","system_id":"levelo_inurba_marseille","lat":43.25002,"lon":5.38928,"is_reserved":false,"is_disabled":false,"rental_uris":{"android":"levelo://app?vid=dfae3e73-0188-4683-9589-24d6f6a1d5af","ios":"levelo://app?vid=dfae3e73-0188-4683-9589-24d6f6a1d5af"},"vehicle_type_id":"4","last_reported":1737529695,"current_range_meters":11600,"station_id":"ce4bhgp2rcd13ifvqfd0","pricing_plan_id":"cebpf4jnsgd1na2vs0mg"},{"bike_id":"51f18ef2-87ea-47fa-bbdc-b18149212c4f","system_id":"levelo_inurba_marseille","lat":43.30812,"lon":5.38144,"is_reserved":false,"is_disabled":true,"rental_uris":{"android":"levelo://app?vid=51f18ef2-87ea-47fa-bbdc-b18149212c4f","ios":"levelo://app?vid=51f18ef2-87ea-47fa-bbdc-b18149212c4f"},"vehicle_type_id":"4","last_reported":1737529695,"current_range_meters":0,"station_id":"ce4bgt12rcd13ifvqce0","pricing_plan_id":"cebpf4jnsgd1na2vs0mg"},{"bike_id":"3d820e8e-c6f2-48ec-a860-b74a27bf9146","system_id":"levelo_inurba_marseille","lat":43.28626,"lon":5.35091,"is_reserved":false,"is_disabled":false,"rental_uris":{"android":"levelo://app?vid=3d820e8e-c6f2-48ec-a860-b74a27bf9146","ios":"levelo://app?vid=3d820e8e-c6f2-48ec-a860-b74a27bf9146"},"vehicle_type_id":"4","last_reported":1737529695,"current_range_meters":31200,"station_id":"ce4bhch2rcd13ifvqeug","pricing_plan_id":"cebpf4jnsgd1na2vs0mg"},{"bike_id":"6b30d96f-f237-432c-a2c8-c1523d3df7c1","system_id":"levelo_inurba_marseille","lat":43.29536,"lon":5.38545,"is_reserved":false,"is_disabled":true,"rental_uris":{"android":"levelo://app?vid=6b30d96f-f237-432c-a2c8-c1523d3df7c1","ios":"levelo://app?vid=6b30d96f-f237-432c-a2c8-c1523d3df7c1"},"vehicle_type_id":"4","last_reported":1737529695,"current_range_meters":0,"station_id":"ce4bgih2rcd13ifvqba0","pricing_plan_id":"cebpf4jnsgd1na2vs0mg"},{"bike_id":"1a74ffad-dbe5-4fc7-8c3c-ed6f390dda03","system_id":"levelo_inurba_marseille","lat":43.30422,"lon":5.38894,"is_reserved":false,"is_disabled":false,"rental_uris":{"android":"levelo://app?vid=1a74ffad-dbe5-4fc7-8c3c-ed6f390dda03","ios":"levelo://app?vid=1a74ffad-dbe5-4fc7-8c3c-ed6f390dda03"},"vehicle_type_id":"4","last_reported":1737529695,"current_range_meters":38800,"station_id":"ce4bgk12rcd13ifvqbi0","pricing_plan_id":"cebpf4jnsgd1na2vs0mg"},{"bike_id":"966632b3-ddbb-42a2-879d-3bf9ebee52b0","system_id":"levelo_inurba_marseille","lat":43.30592,"lon":5.39355,"is_reserved":false,"is_disabled":false,"rental_uris":{"android":"levelo://app?vid=966632b3-ddbb-42a2-879d-3bf9ebee52b0","ios":"levelo://app?vid=966632b3-ddbb-42a2-879d-3bf9ebee52b0"},"vehicle_type_id":"4","last_reported":1737529695,"current_range_meters":24800,"station_id":"ce4bh0p2rcd13ifvqd80","pricing_plan_id":"cebpf4jnsgd1na2vs0mg"},{"bike_id":"6e1433da-ca9f-4090-b658-fb877339609a","system_id":"levelo_inurba_marseille","lat":43.278183,"lon":5.407137,"is_reserved":false,"is_disabled":false,"rental_uris":{"android":"levelo://app?vid=6e1433da-ca9f-4090-b658-fb877339609a","ios":"levelo://app?vid=6e1433da-ca9f-4090-b658-fb877339609a"},"vehicle_type_id":"4","last_reported":1737529695,"current_range_meters":34800,"station_id":"ce4bhnh2rcd13ifvqgtg","pricing_plan_id":"cebpf4jnsgd1na2vs0mg"},{"bike_id":"48178648-a5cc-49a7-a582-fb3aa5589302","system_id":"levelo_inurba_marseille","lat":43.25011,"lon":5.38188,"is_reserved":false,"is_disabled":true,"rental_uris":{"android":"levelo://app?vid=48178648-a5cc-49a7-a582-fb3aa5589302","ios":"levelo://app?vid=48178648-a5cc-49a7-a582-fb3aa5589302"},"vehicle_type_id":"4","last_reported":1737529695,"current_range_meters":0,"station_id":"","pricing_plan_id":"cebpf4jnsgd1na2vs0mg"},{"bike_id":"e58f4812-b92f-4cca-b6a0-4a5d31618098","system_id":"levelo_inurba_marseille","lat":43.27926,"lon":5.39562,"is_reserved":false,"is_disabled":true,"rental_uris":{"android":"levelo://app?vid=e58f4812-b92f-4cca-b6a0-4a5d31618098","ios":"levelo://app?vid=e58f4812-b92f-4cca-b6a0-4a5d31618098"},"vehicle_type_id":"4","last_reported":1737529695,"current_range_meters":0,"station_id":"ce4bhf92rcd13ifvqf40","pricing_plan_id":"cebpf4jnsgd1na2vs0mg"},{"bike_id":"2501ae24-5703-45d3-ac01-dec581041e28","system_id":"levelo_inurba_marseille","lat":43.28655,"lon":5.36342,"is_reserved":false,"is_disabled":false,"rental_uris":{"android":"levelo://app?vid=2501ae24-5703-45d3-ac01-dec581041e28","ios":"levelo://app?vid=2501ae24-5703-45d3-ac01-dec581041e28"},"vehicle_type_id":"4","last_reported":1737529695,"current_range_meters":8800,"station_id":"ce4bhah2rcd13ifvqej0","pricing_plan_id":"cebpf4jnsgd1na2vs0mg"},{"bike_id":"741aa226-41f7-40d7-9698-9eb35a5fef23","system_id":"levelo_inurba_marseille","lat":43.25121,"lon":5.40303,"is_reserved":false,"is_disabled":false,"rental_uris":{"android":"levelo://app?vid=741aa226-41f7-40d7-9698-9eb35a5fef23","ios":"levelo://app?vid=741aa226-41f7-40d7-9698-9eb35a5fef23"},"vehicle_type_id":"4","last_reported":1737529695,"current_range_meters":22400,"station_id":"ce4bhlh2rcd13ifvqgig","pricing_plan_id":"cebpf4jnsgd1na2vs0mg"},{"bike_id":"18775a3e-ea0d-4999-9c10-11481e6258ef","system_id":"levelo_inurba_marseille","lat":43.2884,"lon":5.3585,"is_reserved":false,"is_disabled":false,"rental_uris":{"android":"levelo://app?vid=18775a3e-ea0d-4999-9c10-11481e6258ef","ios":"levelo://app?vid=18775a3e-ea0d-4999-9c10-11481e6258ef"},"vehicle_type_id":"4","last_reported":1737529695,"current_range_meters":22000,"station_id":"ce4bhb12rcd13ifvqem0","pricing_plan_id":"cebpf4jnsgd1na2vs0mg"},{"bike_id":"24afdfab-37c4-4735-92c6-d449a19a0169","system_id":"levelo_inurba_marseille","lat":43.28148,"lon":5.42655,"is_reserved":false,"is_disabled":false,"rental_uris":{"android":"levelo://app?vid=24afdfab-37c4-4735-92c6-d449a19a0169","ios":"levelo://app?vid=24afdfab-37c4-4735-92c6-d449a19a0169"},"vehicle_type_id":"4","last_reported":1737529695,"current_range_meters":36800,"station_id":"ce4bhnh2rcd13ifvqgug","pricing_plan_id":"cebpf4jnsgd1na2vs0mg"},{"bike_id":"67ad8910-98f7-4517-bd3c-c735af32743f","system_id":"levelo_inurba_marseille","lat":43.29601,"lon":5.38103,"is_reserved":false,"is_disabled":false,"rental_uris":{"android":"levelo://app?vid=67ad8910-98f7-4517-bd3c-c735af32743f","ios":"levelo://app?vid=67ad8910-98f7-4517-bd3c-c735af32743f"},"vehicle_type_id":"4","last_reported":1737529695,"current_range_meters":30800,"station_id":"ce4bgl12rcd13ifvqbo0","pricing_plan_id":"cebpf4jnsgd1na2vs0mg"},{"bike_id":"3e2413f1-be2a-4539-9db1-7ce3307c11de","system_id":"levelo_inurba_marseille","lat":43.30655,"lon":5.4009,"is_reserved":false,"is_disabled":false,"rental_uris":{"android":"levelo://app?vid=3e2413f1-be2a-4539-9db1-7ce3307c11de","ios":"levelo://app?vid=3e2413f1-be2a-4539-9db1-7ce3307c11de"},"vehicle_type_id":"4","last_reported":1737529695,"current_range_meters":34000,"station_id":"ce4bh112rcd13ifvqda0","pricing_plan_id":"cebpf4jnsgd1na2vs0mg"},{"bike_id":"57187212-c5d1-4371-a8d8-60b7f99af388","system_id":"levelo_inurba_marseille","lat":43.30359,"lon":5.41879,"is_reserved":false,"is_disabled":false,"rental_uris":{"android":"levelo://app?vid=57187212-c5d1-4371-a8d8-60b7f99af388","ios":"levelo://app?vid=57187212-c5d1-4371-a8d8-60b7f99af388"},"vehicle_type_id":"4","last_reported":1737529695,"current_range_meters":38800,"station_id":"ce4bhop2rcd13ifvqh7g","pricing_plan_id":"cebpf4jnsgd1na2vs0mg"},{"bike_id":"91fa54a2-f5cb-4c04-a2a2-02cd589ea675","system_id":"levelo_inurba_marseille","lat":43.29034,"lon":5.3863,"is_reserved":false,"is_disabled":true,"rental_uris":{"android":"levelo://app?vid=91fa54a2-f5cb-4c04-a2a2-02cd589ea675","ios":"levelo://app?vid=91fa54a2-f5cb-4c04-a2a2-02cd589ea675"},"vehicle_type_id":"4","last_reported":1737529695,"current_range_meters":8000,"station_id":"ce4bh4p2rcd13ifvqe0g","pricing_plan_id":"cebpf4jnsgd1na2vs0mg"},{"bike_id":"d5b436b2-f12b-4b14-903e-3514e55b73b3","system_id":"levelo_inurba_marseille","lat":43.28269,"lon":5.35063,"is_reserved":false,"is_disabled":false,"rental_uris":{"android":"levelo://app?vid=d5b436b2-f12b-4b14-903e-3514e55b73b3","ios":"levelo://app?vid=d5b436b2-f12b-4b14-903e-3514e55b73b3"},"vehicle_type_id":"4","last_reported":1737529695,"current_range_meters":39200,"station_id":"ce4bhbp2rcd13ifvqerg","pricing_plan_id":"cebpf4jnsgd1na2vs0mg"},{"bike_id":"08792091-c339-4bb4-9777-f04eb06c77b6","system_id":"levelo_inurba_marseille","lat":43.27987,"lon":5.4002,"is_reserved":false,"is_disabled":false,"rental_uris":{"android":"levelo://app?vid=08792091-c339-4bb4-9777-f04eb06c77b6","ios":"levelo://app?vid=08792091-c339-4bb4-9777-f04eb06c77b6"},"vehicle_type_id":"4","last_reported":1737529695,"current_range_meters":33200,"station_id":"ce4bho92rcd13ifvqh4g","pricing_plan_id":"cebpf4jnsgd1na2vs0mg"},{"bike_id":"6cfcf39b-b845-476f-837e-1bc920d87eae","system_id":"levelo_inurba_marseille","lat":43.30301,"lon":5.36886,"is_reserved":false,"is_disabled":false,"rental_uris":{"android":"levelo://app?vid=6cfcf39b-b845-476f-837e-1bc920d87eae","ios":"levelo://app?vid=6cfcf39b-b845-476f-837e-1bc920d87eae"},"vehicle_type_id":"4","last_reported":1737529695,"current_range_meters":23200,"station_id":"ce4bgqh2rcd13ifvqc5g","pricing_plan_id":"cebpf4jnsgd1na2vs0mg"},{"bike_id":"f67ca49c-7924-4b04-9e51-d24516f3aacf","system_id":"levelo_inurba_marseille","lat":43.28267,"lon":5.3506,"is_reserved":false,"is_disabled":false,"rental_uris":{"android":"levelo://app?vid=f67ca49c-7924-4b04-9e51-d24516f3aacf","ios":"levelo://app?vid=f67ca49c-7924-4b04-9e51-d24516f3aacf"},"vehicle_type_id":"4","last_reported":1737529695,"current_range_meters":28400,"station_id":"ce4bhbp2rcd13ifvqerg","pricing_plan_id":"cebpf4jnsgd1na2vs0mg"},{"bike_id":"50348d1e-afd5-4713-af14-072368523fb3","system_id":"levelo_inurba_marseille","lat":43.27492,"lon":5.42472,"is_reserved":false,"is_disabled":true,"rental_uris":{"android":"levelo://app?vid=50348d1e-afd5-4713-af14-072368523fb3","ios":"levelo://app?vid=50348d1e-afd5-4713-af14-072368523fb3"},"vehicle_type_id":"4","last_reported":1737529695,"current_range_meters":2000,"station_id":"ce4bhn92rcd13ifvqgrg","pricing_plan_id":"cebpf4jnsgd1na2vs0mg"},{"bike_id":"3a0b3f6c-7524-4b13-93b0-5b06e14843fa","system_id":"levelo_inurba_marseille","lat":43.31887,"lon":5.40743,"is_reserved":false,"is_disabled":false,"rental_uris":{"android":"levelo://app?vid=3a0b3f6c-7524-4b13-93b0-5b06e14843fa","ios":"levelo://app?vid=3a0b3f6c-7524-4b13-93b0-5b06e14843fa"},"vehicle_type_id":"4","last_reported":1737529695,"current_range_meters":18000,"station_id":"ce4bhq12rcd13ifvqhig","pricing_plan_id":"cebpf4jnsgd1na2vs0mg"},{"bike_id":"5f8e19c0-9d34-400f-8357-29490985c9f2","system_id":"levelo_inurba_marseille","lat":43.27375,"lon":5.36251,"is_reserved":false,"is_disabled":false,"rental_uris":{"android":"levelo://app?vid=5f8e19c0-9d34-400f-8357-29490985c9f2","ios":"levelo://app?vid=5f8e19c0-9d34-400f-8357-29490985c9f2"},"vehicle_type_id":"4","last_reported":1737529695,"current_range_meters":38400,"station_id":"ce4bhbh2rcd13ifvqeo0","pricing_plan_id":"cebpf4jnsgd1na2vs0mg"},{"bike_id":"948cc2b1-86df-410e-a355-b9ba7604d99c","system_id":"levelo_inurba_marseille","lat":43.28936,"lon":5.39647,"is_reserved":false,"is_disabled":false,"rental_uris":{"android":"levelo://app?vid=948cc2b1-86df-410e-a355-b9ba7604d99c","ios":"levelo://app?vid=948cc2b1-86df-410e-a355-b9ba7604d99c"},"vehicle_type_id":"4","last_reported":1737529695,"current_range_meters":31200,"station_id":"ce4bh3h2rcd13ifvqdn0","pricing_plan_id":"cebpf4jnsgd1na2vs0mg"},{"bike_id":"782a366d-5b51-4864-8e8d-a63bbed1e20d","system_id":"levelo_inurba_marseille","lat":43.25913,"lon":5.40926,"is_reserved":false,"is_disabled":false,"rental_uris":{"android":"levelo://app?vid=782a366d-5b51-4864-8e8d-a63bbed1e20d","ios":"levelo://app?vid=782a366d-5b51-4864-8e8d-a63bbed1e20d"},"vehicle_type_id":"4","last_reported":1737529695,"current_range_meters":8000,"station_id":"ce4bhm92rcd13ifvqglg","pricing_plan_id":"cebpf4jnsgd1na2vs0mg"},{"bike_id":"041da02b-9c7e-425f-8720-65c9a3555272","system_id":"levelo_inurba_marseille","lat":43.3176,"lon":5.39028,"is_reserved":false,"is_disabled":false,"rental_uris":{"android":"levelo://app?vid=041da02b-9c7e-425f-8720-65c9a3555272","ios":"levelo://app?vid=041da02b-9c7e-425f-8720-65c9a3555272"},"vehicle_type_id":"4","last_reported":1737529695,"current_range_meters":19200,"station_id":"ce4bhqp2rcd13ifvqhng","pricing_plan_id":"cebpf4jnsgd1na2vs0mg"},{"bike_id":"a546c9b0-986b-47f8-b1d7-665e2fa1229f","system_id":"levelo_inurba_marseille","lat":43.28093,"lon":5.3785,"is_reserved":false,"is_disabled":true,"rental_uris":{"android":"levelo://app?vid=a546c9b0-986b-47f8-b1d7-665e2fa1229f","ios":"levelo://app?vid=a546c9b0-986b-47f8-b1d7-665e2fa1229f"},"vehicle_type_id":"4","last_reported":1737529695,"current_range_meters":37600,"station_id":"ce4bha12rcd13ifvqee0","pricing_plan_id":"cebpf4jnsgd1na2vs0mg"},{"bike_id":"e6c698de-7c86-4de5-84ab-1185f9dff5db","system_id":"levelo_inurba_marseille","lat":43.29251,"lon":5.40158,"is_reserved":false,"is_disabled":false,"rental_uris":{"android":"levelo://app?vid=e6c698de-7c86-4de5-84ab-1185f9dff5db","ios":"levelo://app?vid=e6c698de-7c86-4de5-84ab-1185f9dff5db"},"vehicle_type_id":"4","last_reported":1737529695,"current_range_meters":20800,"station_id":"ce4bh312rcd13ifvqdk0","pricing_plan_id":"cebpf4jnsgd1na2vs0mg"},{"bike_id":"8e1d8b51-c006-49e9-90af-c6bd66e9af45","system_id":"levelo_inurba_marseille","lat":43.31695,"lon":5.4047,"is_reserved":false,"is_disabled":false,"rental_uris":{"android":"levelo://app?vid=8e1d8b51-c006-49e9-90af-c6bd66e9af45","ios":"levelo://app?vid=8e1d8b51-c006-49e9-90af-c6bd66e9af45"},"vehicle_type_id":"4","last_reported":1737529695,"current_range_meters":38800,"station_id":"ce4bh012rcd13ifvqd00","pricing_plan_id":"cebpf4jnsgd1na2vs0mg"},{"bike_id":"e7760743-a58c-4262-bea6-c4ca337337d0","system_id":"levelo_inurba_marseille","lat":43.33731,"lon":5.39197,"is_reserved":false,"is_disabled":false,"rental_uris":{"android":"levelo://app?vid=e7760743-a58c-4262-bea6-c4ca337337d0","ios":"levelo://app?vid=e7760743-a58c-4262-bea6-c4ca337337d0"},"vehicle_type_id":"4","last_reported":1737529695,"current_range_meters":18800,"station_id":"ce4bhr92rcd13ifvqhsg","pricing_plan_id":"cebpf4jnsgd1na2vs0mg"},{"bike_id":"8043540b-5a33-40b2-89c5-acd7729cdccc","system_id":"levelo_inurba_marseille","lat":43.33014,"lon":5.39033,"is_reserved":false,"is_disabled":false,"rental_uris":{"android":"levelo://app?vid=8043540b-5a33-40b2-89c5-acd7729cdccc","ios":"levelo://app?vid=8043540b-5a33-40b2-89c5-acd7729cdccc"},"vehicle_type_id":"4","last_reported":1737529695,"current_range_meters":36400,"station_id":"ce4bhr92rcd13ifvqhrg","pricing_plan_id":"cebpf4jnsgd1na2vs0mg"},{"bike_id":"dd7100dd-be0e-42a3-b01c-070bb9c830e8","system_id":"levelo_inurba_marseille","lat":43.24066,"lon":5.37765,"is_reserved":false,"is_disabled":false,"rental_uris":{"android":"levelo://app?vid=dd7100dd-be0e-42a3-b01c-070bb9c830e8","ios":"levelo://app?vid=dd7100dd-be0e-42a3-b01c-070bb9c830e8"},"vehicle_type_id":"4","last_reported":1737529695,"current_range_meters":22800,"station_id":"ce4bhnp2rcd13ifvqgvg","pricing_plan_id":"cebpf4jnsgd1na2vs0mg"},{"bike_id":"0b9b413f-7704-4860-841a-7f725dbde95d","system_id":"levelo_inurba_marseille","lat":43.25092,"lon":5.39525,"is_reserved":false,"is_disabled":true,"rental_uris":{"android":"levelo://app?vid=0b9b413f-7704-4860-841a-7f725dbde95d","ios":"levelo://app?vid=0b9b413f-7704-4860-841a-7f725dbde95d"},"vehicle_type_id":"4","last_reported":1737529695,"current_range_meters":800,"station_id":"ce4bhm12rcd13ifvqgkg","pricing_plan_id":"cebpf4jnsgd1na2vs0mg"},{"bike_id":"c57d151d-e636-4d91-adf9-2819f04f7ca4","system_id":"levelo_inurba_marseille","lat":43.279084,"lon":5.380106,"is_reserved":false,"is_disabled":true,"rental_uris":{"android":"levelo://app?vid=c57d151d-e636-4d91-adf9-2819f04f7ca4","ios":"levelo://app?vid=c57d151d-e636-4d91-adf9-2819f04f7ca4"},"vehicle_type_id":"4","last_reported":1737529695,"current_range_meters":0,"station_id":"ce4bhf92rcd13ifvqf50","pricing_plan_id":"cebpf4jnsgd1na2vs0mg"},{"bike_id":"0f081bdf-06ec-4b16-8769-afec1d097756","system_id":"levelo_inurba_marseille","lat":43.30894,"lon":5.39646,"is_reserved":false,"is_disabled":false,"rental_uris":{"android":"levelo://app?vid=0f081bdf-06ec-4b16-8769-afec1d097756","ios":"levelo://app?vid=0f081bdf-06ec-4b16-8769-afec1d097756"},"vehicle_type_id":"4","last_reported":1737529695,"current_range_meters":10800,"station_id":"ce4bh012rcd13ifvqcv0","pricing_plan_id":"cebpf4jnsgd1na2vs0mg"},{"bike_id":"29e4913b-9c16-4a50-a874-dbc1ddb78ad9","system_id":"levelo_inurba_marseille","lat":43.3254,"lon":5.41427,"is_reserved":false,"is_disabled":false,"rental_uris":{"android":"levelo://app?vid=29e4913b-9c16-4a50-a874-dbc1ddb78ad9","ios":"levelo://app?vid=29e4913b-9c16-4a50-a874-dbc1ddb78ad9"},"vehicle_type_id":"4","last_reported":1737529695,"current_range_meters":32000,"station_id":"ce4bhq12rcd13ifvqhhg","pricing_plan_id":"cebpf4jnsgd1na2vs0mg"},{"bike_id":"f6d34ec5-9a82-496d-91e1-3e7f8d04fbfb","system_id":"levelo_inurba_marseille","lat":43.29785,"lon":5.37116,"is_reserved":false,"is_disabled":false,"rental_uris":{"android":"levelo://app?vid=f6d34ec5-9a82-496d-91e1-3e7f8d04fbfb","ios":"levelo://app?vid=f6d34ec5-9a82-496d-91e1-3e7f8d04fbfb"},"vehicle_type_id":"4","last_reported":1737529695,"current_range_meters":38800,"station_id":"ce4bgop2rcd13ifvqc1g","pricing_plan_id":"cebpf4jnsgd1na2vs0mg"},{"bike_id":"f7ff9809-554a-403c-a5f6-8cd0fbc6d406","system_id":"levelo_inurba_marseille","lat":43.3065,"lon":5.40041,"is_reserved":false,"is_disabled":false,"rental_uris":{"android":"levelo://app?vid=f7ff9809-554a-403c-a5f6-8cd0fbc6d406","ios":"levelo://app?vid=f7ff9809-554a-403c-a5f6-8cd0fbc6d406"},"vehicle_type_id":"4","last_reported":1737529695,"current_range_meters":38400,"station_id":"ce4bh112rcd13ifvqda0","pricing_plan_id":"cebpf4jnsgd1na2vs0mg"},{"bike_id":"1cd05b4a-f688-43b0-b3a4-eaca2bcc4d3d","system_id":"levelo_inurba_marseille","lat":43.31349,"lon":5.36708,"is_reserved":false,"is_disabled":false,"rental_uris":{"android":"levelo://app?vid=1cd05b4a-f688-43b0-b3a4-eaca2bcc4d3d","ios":"levelo://app?vid=1cd05b4a-f688-43b0-b3a4-eaca2bcc4d3d"},"vehicle_type_id":"4","last_reported":1737529695,"current_range_meters":16000,"station_id":"ce4bgr92rcd13ifvqc6g","pricing_plan_id":"cebpf4jnsgd1na2vs0mg"},{"bike_id":"670bd003-0359-4e84-ae3b-6cfe023d8a61","system_id":"levelo_inurba_marseille","lat":43.26555,"lon":5.37302,"is_reserved":false,"is_disabled":false,"rental_uris":{"android":"levelo://app?vid=670bd003-0359-4e84-ae3b-6cfe023d8a61","ios":"levelo://app?vid=670bd003-0359-4e84-ae3b-6cfe023d8a61"},"vehicle_type_id":"4","last_reported":1737529695,"current_range_meters":27200,"station_id":"ce4bhg12rcd13ifvqf70","pricing_plan_id":"cebpf4jnsgd1na2vs0mg"},{"bike_id":"ff20a74f-9165-40db-8efa-297bc8c768de","system_id":"levelo_inurba_marseille","lat":43.29564,"lon":5.37523,"is_reserved":false,"is_disabled":false,"rental_uris":{"android":"levelo://app?vid=ff20a74f-9165-40db-8efa-297bc8c768de","ios":"levelo://app?vid=ff20a74f-9165-40db-8efa-297bc8c768de"},"vehicle_type_id":"4","last_reported":1737529695,"current_range_meters":25600,"station_id":"ce4bgh92rcd13ifvqb50","pricing_plan_id":"cebpf4jnsgd1na2vs0mg"},{"bike_id":"7292ef70-11e7-43cc-a030-9641de50f813","system_id":"levelo_inurba_marseille","lat":43.29897,"lon":5.43672,"is_reserved":false,"is_disabled":false,"rental_uris":{"android":"levelo://app?vid=7292ef70-11e7-43cc-a030-9641de50f813","ios":"levelo://app?vid=7292ef70-11e7-43cc-a030-9641de50f813"},"vehicle_type_id":"4","last_reported":1737529695,"current_range_meters":13600,"station_id":"ce4bhpp2rcd13ifvqhfg","pricing_plan_id":"cebpf4jnsgd1na2vs0mg"},{"bike_id":"2fc90e2b-7bc3-4c1c-b9a1-54e988a74917","system_id":"levelo_inurba_marseille","lat":43.279439,"lon":5.389008,"is_reserved":false,"is_disabled":true,"rental_uris":{"android":"levelo://app?vid=2fc90e2b-7bc3-4c1c-b9a1-54e988a74917","ios":"levelo://app?vid=2fc90e2b-7bc3-4c1c-b9a1-54e988a74917"},"vehicle_type_id":"4","last_reported":1737529695,"current_range_meters":30400,"station_id":"","pricing_plan_id":"cebpf4jnsgd1na2vs0mg"},{"bike_id":"6afeeefa-11c0-4f74-82c2-cb592a43a0b2","system_id":"levelo_inurba_marseille","lat":43.28151,"lon":5.42649,"is_reserved":false,"is_disabled":false,"rental_uris":{"android":"levelo://app?vid=6afeeefa-11c0-4f74-82c2-cb592a43a0b2","ios":"levelo://app?vid=6afeeefa-11c0-4f74-82c2-cb592a43a0b2"},"vehicle_type_id":"4","last_reported":1737529695,"current_range_meters":39200,"station_id":"ce4bhnh2rcd13ifvqgug","pricing_plan_id":"cebpf4jnsgd1na2vs0mg"},{"bike_id":"c7ddd3a4-15e8-495a-88c8-c9e8be4fd358","system_id":"levelo_inurba_marseille","lat":43.28637,"lon":5.35055,"is_reserved":false,"is_disabled":false,"rental_uris":{"android":"levelo://app?vid=c7ddd3a4-15e8-495a-88c8-c9e8be4fd358","ios":"levelo://app?vid=c7ddd3a4-15e8-495a-88c8-c9e8be4fd358"},"vehicle_type_id":"4","last_reported":1737529695,"current_range_meters":8000,"station_id":"ce4bhch2rcd13ifvqeug","pricing_plan_id":"cebpf4jnsgd1na2vs0mg"},{"bike_id":"6f5fb5de-7e87-4cc3-9f5c-f40b49a4c7be","system_id":"levelo_inurba_marseille","lat":43.33614,"lon":5.41037,"is_reserved":false,"is_disabled":false,"rental_uris":{"android":"levelo://app?vid=6f5fb5de-7e87-4cc3-9f5c-f40b49a4c7be","ios":"levelo://app?vid=6f5fb5de-7e87-4cc3-9f5c-f40b49a4c7be"},"vehicle_type_id":"4","last_reported":1737529695,"current_range_meters":27200,"station_id":"ce4bhqh2rcd13ifvqhmg","pricing_plan_id":"cebpf4jnsgd1na2vs0mg"},{"bike_id":"0d46af22-5228-4dfe-8b0d-06289e7db0eb","system_id":"levelo_inurba_marseille","lat":43.25492,"lon":5.37649,"is_reserved":false,"is_disabled":false,"rental_uris":{"android":"levelo://app?vid=0d46af22-5228-4dfe-8b0d-06289e7db0eb","ios":"levelo://app?vid=0d46af22-5228-4dfe-8b0d-06289e7db0eb"},"vehicle_type_id":"4","last_reported":1737529695,"current_range_meters":38000,"station_id":"ce4bhh12rcd13ifvqff0","pricing_plan_id":"cebpf4jnsgd1na2vs0mg"},{"bike_id":"6ad4ce4e-7f96-45d7-80ea-5b19a44b34c3","system_id":"levelo_inurba_marseille","lat":43.31339,"lon":5.39701,"is_reserved":false,"is_disabled":false,"rental_uris":{"android":"levelo://app?vid=6ad4ce4e-7f96-45d7-80ea-5b19a44b34c3","ios":"levelo://app?vid=6ad4ce4e-7f96-45d7-80ea-5b19a44b34c3"},"vehicle_type_id":"4","last_reported":1737529695,"current_range_meters":12800,"station_id":"ce4bgvp2rcd13ifvqcu0","pricing_plan_id":"cebpf4jnsgd1na2vs0mg"},{"bike_id":"227e78bf-cdca-4dfa-9c62-95921093e4a7","system_id":"levelo_inurba_marseille","lat":43.284201,"lon":5.349914,"is_reserved":false,"is_disabled":false,"rental_uris":{"android":"levelo://app?vid=227e78bf-cdca-4dfa-9c62-95921093e4a7","ios":"levelo://app?vid=227e78bf-cdca-4dfa-9c62-95921093e4a7"},"vehicle_type_id":"4","last_reported":1737529695,"current_range_meters":11600,"station_id":"ce4bhbh2rcd13ifvqepg","pricing_plan_id":"cebpf4jnsgd1na2vs0mg"},{"bike_id":"3fc74b94-ed11-4e63-a3db-79791383adef","system_id":"levelo_inurba_marseille","lat":43.30595,"lon":5.39356,"is_reserved":false,"is_disabled":false,"rental_uris":{"android":"levelo://app?vid=3fc74b94-ed11-4e63-a3db-79791383adef","ios":"levelo://app?vid=3fc74b94-ed11-4e63-a3db-79791383adef"},"vehicle_type_id":"4","last_reported":1737529695,"current_range_meters":26800,"station_id":"ce4bh0p2rcd13ifvqd80","pricing_plan_id":"cebpf4jnsgd1na2vs0mg"},{"bike_id":"14bf62af-c950-435b-82dd-0bca67231add","system_id":"levelo_inurba_marseille","lat":43.25719,"lon":5.41113,"is_reserved":false,"is_disabled":false,"rental_uris":{"android":"levelo://app?vid=14bf62af-c950-435b-82dd-0bca67231add","ios":"levelo://app?vid=14bf62af-c950-435b-82dd-0bca67231add"},"vehicle_type_id":"4","last_reported":1737529695,"current_range_meters":38000,"station_id":"ce4bhkp2rcd13ifvqgd0","pricing_plan_id":"cebpf4jnsgd1na2vs0mg"},{"bike_id":"509edcb3-c5bb-4913-aeae-8110c0663740","system_id":"levelo_inurba_marseille","lat":43.29563,"lon":5.39963,"is_reserved":false,"is_disabled":true,"rental_uris":{"android":"levelo://app?vid=509edcb3-c5bb-4913-aeae-8110c0663740","ios":"levelo://app?vid=509edcb3-c5bb-4913-aeae-8110c0663740"},"vehicle_type_id":"4","last_reported":1737529695,"current_range_meters":22000,"station_id":"ce4bh312rcd13ifvqdj0","pricing_plan_id":"cebpf4jnsgd1na2vs0mg"},{"bike_id":"4fba1d7e-0070-4e3d-88d9-4156c0d4f027","system_id":"levelo_inurba_marseille","lat":43.28363,"lon":5.38096,"is_reserved":false,"is_disabled":false,"rental_uris":{"android":"levelo://app?vid=4fba1d7e-0070-4e3d-88d9-4156c0d4f027","ios":"levelo://app?vid=4fba1d7e-0070-4e3d-88d9-4156c0d4f027"},"vehicle_type_id":"4","last_reported":1737529695,"current_range_meters":33200,"station_id":"ce4bh412rcd13ifvqdr0","pricing_plan_id":"cebpf4jnsgd1na2vs0mg"},{"bike_id":"f1509c1e-301c-4b7b-97b4-0841ead5fa37","system_id":"levelo_inurba_marseille","lat":43.30953,"lon":5.39042,"is_reserved":false,"is_disabled":false,"rental_uris":{"android":"levelo://app?vid=f1509c1e-301c-4b7b-97b4-0841ead5fa37","ios":"levelo://app?vid=f1509c1e-301c-4b7b-97b4-0841ead5fa37"},"vehicle_type_id":"4","last_reported":1737529695,"current_range_meters":16000,"station_id":"ce4bgup2rcd13ifvqco0","pricing_plan_id":"cebpf4jnsgd1na2vs0mg"},{"bike_id":"131fc262-d7f0-46c0-a36a-b025da916368","system_id":"levelo_inurba_marseille","lat":43.28475,"lon":5.3846,"is_reserved":false,"is_disabled":true,"rental_uris":{"android":"levelo://app?vid=131fc262-d7f0-46c0-a36a-b025da916368","ios":"levelo://app?vid=131fc262-d7f0-46c0-a36a-b025da916368"},"vehicle_type_id":"4","last_reported":1737529695,"current_range_meters":25200,"station_id":"ce4bh512rcd13ifvqe3g","pricing_plan_id":"cebpf4jnsgd1na2vs0mg"},{"bike_id":"b3184ad3-1374-4a73-9b61-531eb428b928","system_id":"levelo_inurba_marseille","lat":43.32709,"lon":5.40969,"is_reserved":false,"is_disabled":false,"rental_uris":{"android":"levelo://app?vid=b3184ad3-1374-4a73-9b61-531eb428b928","ios":"levelo://app?vid=b3184ad3-1374-4a73-9b61-531eb428b928"},"vehicle_type_id":"4","last_reported":1737529695,"current_range_meters":38000,"station_id":"ce4bhpp2rcd13ifvqhgg","pricing_plan_id":"cebpf4jnsgd1na2vs0mg"},{"bike_id":"34d4460c-2a86-4690-9dea-0c5faca166cb","system_id":"levelo_inurba_marseille","lat":43.29986,"lon":5.3891,"is_reserved":false,"is_disabled":true,"rental_uris":{"android":"levelo://app?vid=34d4460c-2a86-4690-9dea-0c5faca166cb","ios":"levelo://app?vid=34d4460c-2a86-4690-9dea-0c5faca166cb"},"vehicle_type_id":"4","last_reported":1737529695,"current_range_meters":4400,"station_id":"ce4bh392rcd13ifvqdl0","pricing_plan_id":"cebpf4jnsgd1na2vs0mg"},{"bike_id":"fbcd4685-b858-4375-937f-dfd9ecaef99e","system_id":"levelo_inurba_marseille","lat":43.29911,"lon":5.39741,"is_reserved":false,"is_disabled":false,"rental_uris":{"android":"levelo://app?vid=fbcd4685-b858-4375-937f-dfd9ecaef99e","ios":"levelo://app?vid=fbcd4685-b858-4375-937f-dfd9ecaef99e"},"vehicle_type_id":"4","last_reported":1737529695,"current_range_meters":8800,"station_id":"ce4bh0h2rcd13ifvqd50","pricing_plan_id":"cebpf4jnsgd1na2vs0mg"},{"bike_id":"a6366ad5-95b0-47b1-be2e-5bd817889eac","system_id":"levelo_inurba_marseille","lat":43.28938,"lon":5.39642,"is_reserved":false,"is_disabled":false,"rental_uris":{"android":"levelo://app?vid=a6366ad5-95b0-47b1-be2e-5bd817889eac","ios":"levelo://app?vid=a6366ad5-95b0-47b1-be2e-5bd817889eac"},"vehicle_type_id":"4","last_reported":1737529695,"current_range_meters":32000,"station_id":"ce4bh3h2rcd13ifvqdn0","pricing_plan_id":"cebpf4jnsgd1na2vs0mg"},{"bike_id":"a4b9d102-1bca-4228-a021-fb4fe829cc38","system_id":"levelo_inurba_marseille","lat":43.29866,"lon":5.39717,"is_reserved":false,"is_disabled":false,"rental_uris":{"android":"levelo://app?vid=a4b9d102-1bca-4228-a021-fb4fe829cc38","ios":"levelo://app?vid=a4b9d102-1bca-4228-a021-fb4fe829cc38"},"vehicle_type_id":"4","last_reported":1737529695,"current_range_meters":38800,"station_id":"ce4bh0h2rcd13ifvqd50","pricing_plan_id":"cebpf4jnsgd1na2vs0mg"},{"bike_id":"5954b14c-b84c-496e-95b6-f96cad1f6599","system_id":"levelo_inurba_marseille","lat":43.28642,"lon":5.36374,"is_reserved":false,"is_disabled":false,"rental_uris":{"android":"levelo://app?vid=5954b14c-b84c-496e-95b6-f96cad1f6599","ios":"levelo://app?vid=5954b14c-b84c-496e-95b6-f96cad1f6599"},"vehicle_type_id":"4","last_reported":1737529695,"current_range_meters":8400,"station_id":"ce4bhah2rcd13ifvqej0","pricing_plan_id":"cebpf4jnsgd1na2vs0mg"},{"bike_id":"22b82b59-eece-4b52-a23e-68da8e62dfeb","system_id":"levelo_inurba_marseille","lat":43.308828,"lon":5.396341,"is_reserved":false,"is_disabled":false,"rental_uris":{"android":"levelo://app?vid=22b82b59-eece-4b52-a23e-68da8e62dfeb","ios":"levelo://app?vid=22b82b59-eece-4b52-a23e-68da8e62dfeb"},"vehicle_type_id":"4","last_reported":1737529695,"current_range_meters":38800,"station_id":"ce4bh012rcd13ifvqcv0","pricing_plan_id":"cebpf4jnsgd1na2vs0mg"},{"bike_id":"0e51d70d-adc7-40ae-bcca-5564101b3c07","system_id":"levelo_inurba_marseille","lat":43.29609,"lon":5.3809,"is_reserved":false,"is_disabled":false,"rental_uris":{"android":"levelo://app?vid=0e51d70d-adc7-40ae-bcca-5564101b3c07","ios":"levelo://app?vid=0e51d70d-adc7-40ae-bcca-5564101b3c07"},"vehicle_type_id":"4","last_reported":1737529695,"current_range_meters":38800,"station_id":"ce4bgl12rcd13ifvqbo0","pricing_plan_id":"cebpf4jnsgd1na2vs0mg"},{"bike_id":"6ca67ecd-56bb-48e0-ac8e-f195b22e19d2","system_id":"levelo_inurba_marseille","lat":43.29264,"lon":5.40905,"is_reserved":false,"is_disabled":false,"rental_uris":{"android":"levelo://app?vid=6ca67ecd-56bb-48e0-ac8e-f195b22e19d2","ios":"levelo://app?vid=6ca67ecd-56bb-48e0-ac8e-f195b22e19d2"},"vehicle_type_id":"4","last_reported":1737529695,"current_range_meters":25600,"station_id":"ce4bh192rcd13ifvqdc0","pricing_plan_id":"cebpf4jnsgd1na2vs0mg"},{"bike_id":"201d9895-7e14-479b-9c2e-8a7e20caedbb","system_id":"levelo_inurba_marseille","lat":43.281,"lon":5.37848,"is_reserved":false,"is_disabled":false,"rental_uris":{"android":"levelo://app?vid=201d9895-7e14-479b-9c2e-8a7e20caedbb","ios":"levelo://app?vid=201d9895-7e14-479b-9c2e-8a7e20caedbb"},"vehicle_type_id":"4","last_reported":1737529695,"current_range_meters":38400,"station_id":"ce4bha12rcd13ifvqee0","pricing_plan_id":"cebpf4jnsgd1na2vs0mg"},{"bike_id":"8b361572-d0c9-40ce-ad08-8c97aa09f150","system_id":"levelo_inurba_marseille","lat":43.24386,"lon":5.37059,"is_reserved":false,"is_disabled":false,"rental_uris":{"android":"levelo://app?vid=8b361572-d0c9-40ce-ad08-8c97aa09f150","ios":"levelo://app?vid=8b361572-d0c9-40ce-ad08-8c97aa09f150"},"vehicle_type_id":"4","last_reported":1737529695,"current_range_meters":21600,"station_id":"ce4bhhh2rcd13ifvqfk0","pricing_plan_id":"cebpf4jnsgd1na2vs0mg"},{"bike_id":"e00eb66b-6dbe-408c-a448-5fd51eb2bb85","system_id":"levelo_inurba_marseille","lat":43.31276,"lon":5.40169,"is_reserved":false,"is_disabled":false,"rental_uris":{"android":"levelo://app?vid=e00eb66b-6dbe-408c-a448-5fd51eb2bb85","ios":"levelo://app?vid=e00eb66b-6dbe-408c-a448-5fd51eb2bb85"},"vehicle_type_id":"4","last_reported":1737529695,"current_range_meters":38800,"station_id":"ce4bh092rcd13ifvqd30","pricing_plan_id":"cebpf4jnsgd1na2vs0mg"},{"bike_id":"8c64f6dc-6720-497f-ba41-9126f840e7b0","system_id":"levelo_inurba_marseille","lat":43.312453,"lon":5.367248,"is_reserved":false,"is_disabled":false,"rental_uris":{"android":"levelo://app?vid=8c64f6dc-6720-497f-ba41-9126f840e7b0","ios":"levelo://app?vid=8c64f6dc-6720-497f-ba41-9126f840e7b0"},"vehicle_type_id":"4","last_reported":1737529695,"current_range_meters":31200,"station_id":"ce4bgl92rcd13ifvqbq0","pricing_plan_id":"cebpf4jnsgd1na2vs0mg"},{"bike_id":"1523ad92-f97a-4e32-985b-07285132063a","system_id":"levelo_inurba_marseille","lat":43.30961,"lon":5.39031,"is_reserved":false,"is_disabled":false,"rental_uris":{"android":"levelo://app?vid=1523ad92-f97a-4e32-985b-07285132063a","ios":"levelo://app?vid=1523ad92-f97a-4e32-985b-07285132063a"},"vehicle_type_id":"4","last_reported":1737529695,"current_range_meters":39200,"station_id":"ce4bgup2rcd13ifvqco0","pricing_plan_id":"cebpf4jnsgd1na2vs0mg"},{"bike_id":"301ad218-79fc-4f77-96f2-3aac2d1a8ccf","system_id":"levelo_inurba_marseille","lat":43.25923,"lon":5.39447,"is_reserved":false,"is_disabled":true,"rental_uris":{"android":"levelo://app?vid=301ad218-79fc-4f77-96f2-3aac2d1a8ccf","ios":"levelo://app?vid=301ad218-79fc-4f77-96f2-3aac2d1a8ccf"},"vehicle_type_id":"4","last_reported":1737529695,"current_range_meters":3600,"station_id":"","pricing_plan_id":"cebpf4jnsgd1na2vs0mg"},{"bike_id":"586a2980-e4c2-41d5-8aec-10c6ea4c877d","system_id":"levelo_inurba_marseille","lat":43.27926,"lon":5.39597,"is_reserved":false,"is_disabled":true,"rental_uris":{"android":"levelo://app?vid=586a2980-e4c2-41d5-8aec-10c6ea4c877d","ios":"levelo://app?vid=586a2980-e4c2-41d5-8aec-10c6ea4c877d"},"vehicle_type_id":"4","last_reported":1737529695,"current_range_meters":36800,"station_id":"ce4bhf92rcd13ifvqf40","pricing_plan_id":"cebpf4jnsgd1na2vs0mg"},{"bike_id":"c2585015-904a-4609-a64e-a02117955d78","system_id":"levelo_inurba_marseille","lat":43.313569,"lon":5.385093,"is_reserved":false,"is_disabled":false,"rental_uris":{"android":"levelo://app?vid=c2585015-904a-4609-a64e-a02117955d78","ios":"levelo://app?vid=c2585015-904a-4609-a64e-a02117955d78"},"vehicle_type_id":"4","last_reported":1737529695,"current_range_meters":19600,"station_id":"ce4bgt92rcd13ifvqcf0","pricing_plan_id":"cebpf4jnsgd1na2vs0mg"},{"bike_id":"d1ed92bf-d56d-4d9f-9a71-c9892ee82c75","system_id":"levelo_inurba_marseille","lat":43.29002,"lon":5.37829,"is_reserved":false,"is_disabled":false,"rental_uris":{"android":"levelo://app?vid=d1ed92bf-d56d-4d9f-9a71-c9892ee82c75","ios":"levelo://app?vid=d1ed92bf-d56d-4d9f-9a71-c9892ee82c75"},"vehicle_type_id":"4","last_reported":1737529695,"current_range_meters":29600,"station_id":"ce4bh9p2rcd13ifvqed0","pricing_plan_id":"cebpf4jnsgd1na2vs0mg"},{"bike_id":"f6d2f431-95e0-4902-a644-749b34dfdbf7","system_id":"levelo_inurba_marseille","lat":43.3048,"lon":5.37916,"is_reserved":false,"is_disabled":false,"rental_uris":{"android":"levelo://app?vid=f6d2f431-95e0-4902-a644-749b34dfdbf7","ios":"levelo://app?vid=f6d2f431-95e0-4902-a644-749b34dfdbf7"},"vehicle_type_id":"4","last_reported":1737529695,"current_range_meters":34000,"station_id":"ce4bgup2rcd13ifvqcn0","pricing_plan_id":"cebpf4jnsgd1na2vs0mg"},{"bike_id":"b7e76496-d67d-477e-8db4-e735910d512c","system_id":"levelo_inurba_marseille","lat":43.28706,"lon":5.37387,"is_reserved":false,"is_disabled":false,"rental_uris":{"android":"levelo://app?vid=b7e76496-d67d-477e-8db4-e735910d512c","ios":"levelo://app?vid=b7e76496-d67d-477e-8db4-e735910d512c"},"vehicle_type_id":"4","last_reported":1737529695,"current_range_meters":10800,"station_id":"ce4bh3p2rcd13ifvqdq0","pricing_plan_id":"cebpf4jnsgd1na2vs0mg"},{"bike_id":"21278822-b45f-47c8-b5ba-5a45212c8aba","system_id":"levelo_inurba_marseille","lat":43.30929,"lon":5.40158,"is_reserved":false,"is_disabled":false,"rental_uris":{"android":"levelo://app?vid=21278822-b45f-47c8-b5ba-5a45212c8aba","ios":"levelo://app?vid=21278822-b45f-47c8-b5ba-5a45212c8aba"},"vehicle_type_id":"4","last_reported":1737529695,"current_range_meters":7200,"station_id":"ce4bgvp2rcd13ifvqct0","pricing_plan_id":"cebpf4jnsgd1na2vs0mg"},{"bike_id":"a478c8e4-70f7-4330-80af-a80f08fe66b3","system_id":"levelo_inurba_marseille","lat":43.2573,"lon":5.41103,"is_reserved":false,"is_disabled":false,"rental_uris":{"android":"levelo://app?vid=a478c8e4-70f7-4330-80af-a80f08fe66b3","ios":"levelo://app?vid=a478c8e4-70f7-4330-80af-a80f08fe66b3"},"vehicle_type_id":"4","last_reported":1737529695,"current_range_meters":21600,"station_id":"ce4bhkp2rcd13ifvqgd0","pricing_plan_id":"cebpf4jnsgd1na2vs0mg"},{"bike_id":"4806a606-9d68-4dda-865e-687fe402f8eb","system_id":"levelo_inurba_marseille","lat":43.33733,"lon":5.39191,"is_reserved":false,"is_disabled":false,"rental_uris":{"android":"levelo://app?vid=4806a606-9d68-4dda-865e-687fe402f8eb","ios":"levelo://app?vid=4806a606-9d68-4dda-865e-687fe402f8eb"},"vehicle_type_id":"4","last_reported":1737529695,"current_range_meters":9200,"station_id":"ce4bhr92rcd13ifvqhsg","pricing_plan_id":"cebpf4jnsgd1na2vs0mg"},{"bike_id":"35b99832-e516-4167-b4d3-3a041a781051","system_id":"levelo_inurba_marseille","lat":43.29454,"lon":5.39765,"is_reserved":false,"is_disabled":false,"rental_uris":{"android":"levelo://app?vid=35b99832-e516-4167-b4d3-3a041a781051","ios":"levelo://app?vid=35b99832-e516-4167-b4d3-3a041a781051"},"vehicle_type_id":"4","last_reported":1737529695,"current_range_meters":8400,"station_id":"ce4bh3h2rcd13ifvqdo0","pricing_plan_id":"cebpf4jnsgd1na2vs0mg"},{"bike_id":"b834a014-a9be-4559-bbaa-15aa5f1cbaa1","system_id":"levelo_inurba_marseille","lat":43.23195,"lon":5.3555,"is_reserved":false,"is_disabled":false,"rental_uris":{"android":"levelo://app?vid=b834a014-a9be-4559-bbaa-15aa5f1cbaa1","ios":"levelo://app?vid=b834a014-a9be-4559-bbaa-15aa5f1cbaa1"},"vehicle_type_id":"4","last_reported":1737529695,"current_range_meters":35200,"station_id":"ce4bhu92rcd13ifvqi70","pricing_plan_id":"cebpf4jnsgd1na2vs0mg"},{"bike_id":"5f776b34-b727-4c57-9619-656fb56904de","system_id":"levelo_inurba_marseille","lat":43.317286,"lon":5.424003,"is_reserved":false,"is_disabled":false,"rental_uris":{"android":"levelo://app?vid=5f776b34-b727-4c57-9619-656fb56904de","ios":"levelo://app?vid=5f776b34-b727-4c57-9619-656fb56904de"},"vehicle_type_id":"4","last_reported":1737529695,"current_range_meters":36000,"station_id":"ce4bhp92rcd13ifvqhbg","pricing_plan_id":"cebpf4jnsgd1na2vs0mg"},{"bike_id":"ca0dc8e0-206b-40b7-8d43-9b4ec69057c7","system_id":"levelo_inurba_marseille","lat":43.24153,"lon":5.36421,"is_reserved":false,"is_disabled":false,"rental_uris":{"android":"levelo://app?vid=ca0dc8e0-206b-40b7-8d43-9b4ec69057c7","ios":"levelo://app?vid=ca0dc8e0-206b-40b7-8d43-9b4ec69057c7"},"vehicle_type_id":"4","last_reported":1737529695,"current_range_meters":17600,"station_id":"cpo36qri1sfpv3e86is0","pricing_plan_id":"cebpf4jnsgd1na2vs0mg"},{"bike_id":"13223e68-682f-4fe0-b26f-3591a9721d52","system_id":"levelo_inurba_marseille","lat":43.28366,"lon":5.38098,"is_reserved":false,"is_disabled":false,"rental_uris":{"android":"levelo://app?vid=13223e68-682f-4fe0-b26f-3591a9721d52","ios":"levelo://app?vid=13223e68-682f-4fe0-b26f-3591a9721d52"},"vehicle_type_id":"4","last_reported":1737529695,"current_range_meters":36000,"station_id":"ce4bh412rcd13ifvqdr0","pricing_plan_id":"cebpf4jnsgd1na2vs0mg"},{"bike_id":"6ff3890b-4ee4-40dd-9c01-ccb6adedf00e","system_id":"levelo_inurba_marseille","lat":43.28498,"lon":5.3859,"is_reserved":false,"is_disabled":false,"rental_uris":{"android":"levelo://app?vid=6ff3890b-4ee4-40dd-9c01-ccb6adedf00e","ios":"levelo://app?vid=6ff3890b-4ee4-40dd-9c01-ccb6adedf00e"},"vehicle_type_id":"4","last_reported":1737529695,"current_range_meters":37600,"station_id":"ce4bh8p2rcd13ifvqeb0","pricing_plan_id":"cebpf4jnsgd1na2vs0mg"},{"bike_id":"6b9c251d-3d9c-4fda-ad0d-227edf516238","system_id":"levelo_inurba_marseille","lat":43.29769,"lon":5.37109,"is_reserved":false,"is_disabled":false,"rental_uris":{"android":"levelo://app?vid=6b9c251d-3d9c-4fda-ad0d-227edf516238","ios":"levelo://app?vid=6b9c251d-3d9c-4fda-ad0d-227edf516238"},"vehicle_type_id":"4","last_reported":1737529695,"current_range_meters":12400,"station_id":"ce4bgop2rcd13ifvqc1g","pricing_plan_id":"cebpf4jnsgd1na2vs0mg"},{"bike_id":"d8b49f42-144a-4cb8-8172-0b5099baab4f","system_id":"levelo_inurba_marseille","lat":43.23961,"lon":5.36635,"is_reserved":false,"is_disabled":false,"rental_uris":{"android":"levelo://app?vid=d8b49f42-144a-4cb8-8172-0b5099baab4f","ios":"levelo://app?vid=d8b49f42-144a-4cb8-8172-0b5099baab4f"},"vehicle_type_id":"4","last_reported":1737529695,"current_range_meters":25600,"station_id":"ce4bhi12rcd13ifvqfp0","pricing_plan_id":"cebpf4jnsgd1na2vs0mg"},{"bike_id":"df7c011c-5cd5-4fbb-8a4e-d73dd3867dd2","system_id":"levelo_inurba_marseille","lat":43.32472,"lon":5.36576,"is_reserved":false,"is_disabled":false,"rental_uris":{"android":"levelo://app?vid=df7c011c-5cd5-4fbb-8a4e-d73dd3867dd2","ios":"levelo://app?vid=df7c011c-5cd5-4fbb-8a4e-d73dd3867dd2"},"vehicle_type_id":"4","last_reported":1737529695,"current_range_meters":38400,"station_id":"ce4bhs12rcd13ifvqhvg","pricing_plan_id":"cebpf4jnsgd1na2vs0mg"},{"bike_id":"a2b755a5-d48a-4b76-a8cf-cfa70fa51df4","system_id":"levelo_inurba_marseille","lat":43.29579,"lon":5.37521,"is_reserved":false,"is_disabled":false,"rental_uris":{"android":"levelo://app?vid=a2b755a5-d48a-4b76-a8cf-cfa70fa51df4","ios":"levelo://app?vid=a2b755a5-d48a-4b76-a8cf-cfa70fa51df4"},"vehicle_type_id":"4","last_reported":1737529695,"current_range_meters":36800,"station_id":"ce4bgh92rcd13ifvqb50","pricing_plan_id":"cebpf4jnsgd1na2vs0mg"},{"bike_id":"2e7288cd-c73b-4c1d-ba6d-5fe723dfc5b8","system_id":"levelo_inurba_marseille","lat":43.297937,"lon":5.393434,"is_reserved":false,"is_disabled":false,"rental_uris":{"android":"levelo://app?vid=2e7288cd-c73b-4c1d-ba6d-5fe723dfc5b8","ios":"levelo://app?vid=2e7288cd-c73b-4c1d-ba6d-5fe723dfc5b8"},"vehicle_type_id":"4","last_reported":1737529695,"current_range_meters":34800,"station_id":"chh1huq6cuj3fo74tm60","pricing_plan_id":"cebpf4jnsgd1na2vs0mg"},{"bike_id":"747124dd-cec1-4745-98af-46c2e9b1fccf","system_id":"levelo_inurba_marseille","lat":43.31071,"lon":5.38354,"is_reserved":false,"is_disabled":false,"rental_uris":{"android":"levelo://app?vid=747124dd-cec1-4745-98af-46c2e9b1fccf","ios":"levelo://app?vid=747124dd-cec1-4745-98af-46c2e9b1fccf"},"vehicle_type_id":"4","last_reported":1737529695,"current_range_meters":33200,"station_id":"ce4bgv92rcd13ifvqcr0","pricing_plan_id":"cebpf4jnsgd1na2vs0mg"},{"bike_id":"4e72c866-cecb-4399-a684-4c9178e1f1ce","system_id":"levelo_inurba_marseille","lat":43.29529,"lon":5.3855,"is_reserved":false,"is_disabled":false,"rental_uris":{"android":"levelo://app?vid=4e72c866-cecb-4399-a684-4c9178e1f1ce","ios":"levelo://app?vid=4e72c866-cecb-4399-a684-4c9178e1f1ce"},"vehicle_type_id":"4","last_reported":1737529695,"current_range_meters":36800,"station_id":"ce4bgih2rcd13ifvqba0","pricing_plan_id":"cebpf4jnsgd1na2vs0mg"},{"bike_id":"103762ed-7bdc-408b-b3b3-5fc137d696f7","system_id":"levelo_inurba_marseille","lat":43.28269,"lon":5.35065,"is_reserved":false,"is_disabled":false,"rental_uris":{"android":"levelo://app?vid=103762ed-7bdc-408b-b3b3-5fc137d696f7","ios":"levelo://app?vid=103762ed-7bdc-408b-b3b3-5fc137d696f7"},"vehicle_type_id":"4","last_reported":1737529695,"current_range_meters":32000,"station_id":"ce4bhbp2rcd13ifvqerg","pricing_plan_id":"cebpf4jnsgd1na2vs0mg"},{"bike_id":"2cc6f5df-1b42-4b6d-87d2-2a8900168535","system_id":"levelo_inurba_marseille","lat":43.29808,"lon":5.40415,"is_reserved":false,"is_disabled":true,"rental_uris":{"android":"levelo://app?vid=2cc6f5df-1b42-4b6d-87d2-2a8900168535","ios":"levelo://app?vid=2cc6f5df-1b42-4b6d-87d2-2a8900168535"},"vehicle_type_id":"4","last_reported":1737529695,"current_range_meters":12400,"station_id":"ce4bh112rcd13ifvqd90","pricing_plan_id":"cebpf4jnsgd1na2vs0mg"},{"bike_id":"52b24477-8bd3-4b72-ae59-39743df5fbcf","system_id":"levelo_inurba_marseille","lat":43.28581,"lon":5.395,"is_reserved":false,"is_disabled":false,"rental_uris":{"android":"levelo://app?vid=52b24477-8bd3-4b72-ae59-39743df5fbcf","ios":"levelo://app?vid=52b24477-8bd3-4b72-ae59-39743df5fbcf"},"vehicle_type_id":"4","last_reported":1737529695,"current_range_meters":38800,"station_id":"ce4bh292rcd13ifvqdg0","pricing_plan_id":"cebpf4jnsgd1na2vs0mg"},{"bike_id":"cb662706-1259-41de-8e51-a8b72ac231ab","system_id":"levelo_inurba_marseille","lat":43.30537,"lon":5.39136,"is_reserved":false,"is_disabled":false,"rental_uris":{"android":"levelo://app?vid=cb662706-1259-41de-8e51-a8b72ac231ab","ios":"levelo://app?vid=cb662706-1259-41de-8e51-a8b72ac231ab"},"vehicle_type_id":"4","last_reported":1737529695,"current_range_meters":27600,"station_id":"","pricing_plan_id":"cebpf4jnsgd1na2vs0mg"},{"bike_id":"db632f4e-ea20-4822-9a9b-cf17f0e6e809","system_id":"levelo_inurba_marseille","lat":43.29204,"lon":5.3592,"is_reserved":false,"is_disabled":false,"rental_uris":{"android":"levelo://app?vid=db632f4e-ea20-4822-9a9b-cf17f0e6e809","ios":"levelo://app?vid=db632f4e-ea20-4822-9a9b-cf17f0e6e809"},"vehicle_type_id":"4","last_reported":1737529695,"current_range_meters":38400,"station_id":"","pricing_plan_id":"cebpf4jnsgd1na2vs0mg"},{"bike_id":"c0e9edf7-38f8-48e2-b26f-322e0ae63b82","system_id":"levelo_inurba_marseille","lat":43.30472,"lon":5.37908,"is_reserved":false,"is_disabled":false,"rental_uris":{"android":"levelo://app?vid=c0e9edf7-38f8-48e2-b26f-322e0ae63b82","ios":"levelo://app?vid=c0e9edf7-38f8-48e2-b26f-322e0ae63b82"},"vehicle_type_id":"4","last_reported":1737529695,"current_range_meters":25600,"station_id":"ce4bgup2rcd13ifvqcn0","pricing_plan_id":"cebpf4jnsgd1na2vs0mg"},{"bike_id":"72afd676-a0aa-46c7-b23f-fb50bae19a9e","system_id":"levelo_inurba_marseille","lat":43.30468,"lon":5.37909,"is_reserved":false,"is_disabled":false,"rental_uris":{"android":"levelo://app?vid=72afd676-a0aa-46c7-b23f-fb50bae19a9e","ios":"levelo://app?vid=72afd676-a0aa-46c7-b23f-fb50bae19a9e"},"vehicle_type_id":"4","last_reported":1737529695,"current_range_meters":20800,"station_id":"ce4bgup2rcd13ifvqcn0","pricing_plan_id":"cebpf4jnsgd1na2vs0mg"},{"bike_id":"627bbf0b-be3d-4e81-923e-f75730693991","system_id":"levelo_inurba_marseille","lat":43.29698,"lon":5.36982,"is_reserved":false,"is_disabled":true,"rental_uris":{"android":"levelo://app?vid=627bbf0b-be3d-4e81-923e-f75730693991","ios":"levelo://app?vid=627bbf0b-be3d-4e81-923e-f75730693991"},"vehicle_type_id":"4","last_reported":1737529695,"current_range_meters":1600,"station_id":"","pricing_plan_id":"cebpf4jnsgd1na2vs0mg"},{"bike_id":"c05d17e6-8ff9-46c6-8c1e-4a317d252d9d","system_id":"levelo_inurba_marseille","lat":43.32362,"lon":5.36761,"is_reserved":false,"is_disabled":false,"rental_uris":{"android":"levelo://app?vid=c05d17e6-8ff9-46c6-8c1e-4a317d252d9d","ios":"levelo://app?vid=c05d17e6-8ff9-46c6-8c1e-4a317d252d9d"},"vehicle_type_id":"4","last_reported":1737529695,"current_range_meters":28800,"station_id":"ce4bhsh2rcd13ifvqi2g","pricing_plan_id":"cebpf4jnsgd1na2vs0mg"},{"bike_id":"1da7ad70-ab8d-4acc-81b9-b3f208a4e8b9","system_id":"levelo_inurba_marseille","lat":43.28357,"lon":5.38104,"is_reserved":false,"is_disabled":true,"rental_uris":{"android":"levelo://app?vid=1da7ad70-ab8d-4acc-81b9-b3f208a4e8b9","ios":"levelo://app?vid=1da7ad70-ab8d-4acc-81b9-b3f208a4e8b9"},"vehicle_type_id":"4","last_reported":1737529695,"current_range_meters":400,"station_id":"ce4bh412rcd13ifvqdr0","pricing_plan_id":"cebpf4jnsgd1na2vs0mg"},{"bike_id":"18b83349-4ce2-4593-b718-057565eb5d29","system_id":"levelo_inurba_marseille","lat":43.31711,"lon":5.37733,"is_reserved":false,"is_disabled":false,"rental_uris":{"android":"levelo://app?vid=18b83349-4ce2-4593-b718-057565eb5d29","ios":"levelo://app?vid=18b83349-4ce2-4593-b718-057565eb5d29"},"vehicle_type_id":"4","last_reported":1737529695,"current_range_meters":26800,"station_id":"ce4bgth2rcd13ifvqch0","pricing_plan_id":"cebpf4jnsgd1na2vs0mg"},{"bike_id":"ec9864b4-299b-47f3-ba8a-38b5cf795a7a","system_id":"levelo_inurba_marseille","lat":43.24628,"lon":5.38944,"is_reserved":false,"is_disabled":false,"rental_uris":{"android":"levelo://app?vid=ec9864b4-299b-47f3-ba8a-38b5cf795a7a","ios":"levelo://app?vid=ec9864b4-299b-47f3-ba8a-38b5cf795a7a"},"vehicle_type_id":"4","last_reported":1737529695,"current_range_meters":38000,"station_id":"ce4bhg12rcd13ifvqf60","pricing_plan_id":"cebpf4jnsgd1na2vs0mg"},{"bike_id":"64c8838d-a419-4fbb-b541-04c313872cb3","system_id":"levelo_inurba_marseille","lat":43.31694,"lon":5.40464,"is_reserved":false,"is_disabled":false,"rental_uris":{"android":"levelo://app?vid=64c8838d-a419-4fbb-b541-04c313872cb3","ios":"levelo://app?vid=64c8838d-a419-4fbb-b541-04c313872cb3"},"vehicle_type_id":"4","last_reported":1737529695,"current_range_meters":35600,"station_id":"ce4bh012rcd13ifvqd00","pricing_plan_id":"cebpf4jnsgd1na2vs0mg"},{"bike_id":"188bc35e-b96d-4353-8224-81939b718e35","system_id":"levelo_inurba_marseille","lat":43.32361,"lon":5.38885,"is_reserved":false,"is_disabled":false,"rental_uris":{"android":"levelo://app?vid=188bc35e-b96d-4353-8224-81939b718e35","ios":"levelo://app?vid=188bc35e-b96d-4353-8224-81939b718e35"},"vehicle_type_id":"4","last_reported":1737529695,"current_range_meters":27600,"station_id":"ce4bhqp2rcd13ifvqhog","pricing_plan_id":"cebpf4jnsgd1na2vs0mg"},{"bike_id":"706a0def-4a01-46bd-9bad-628e3332e548","system_id":"levelo_inurba_marseille","lat":43.29579,"lon":5.37509,"is_reserved":false,"is_disabled":false,"rental_uris":{"android":"levelo://app?vid=706a0def-4a01-46bd-9bad-628e3332e548","ios":"levelo://app?vid=706a0def-4a01-46bd-9bad-628e3332e548"},"vehicle_type_id":"4","last_reported":1737529695,"current_range_meters":38400,"station_id":"ce4bgh92rcd13ifvqb50","pricing_plan_id":"cebpf4jnsgd1na2vs0mg"},{"bike_id":"42707e4f-fc86-4055-94d3-267e0305077b","system_id":"levelo_inurba_marseille","lat":43.29855,"lon":5.36274,"is_reserved":false,"is_disabled":false,"rental_uris":{"android":"levelo://app?vid=42707e4f-fc86-4055-94d3-267e0305077b","ios":"levelo://app?vid=42707e4f-fc86-4055-94d3-267e0305077b"},"vehicle_type_id":"4","last_reported":1737529695,"current_range_meters":37600,"station_id":"ce4bgpp2rcd13ifvqc3g","pricing_plan_id":"cebpf4jnsgd1na2vs0mg"},{"bike_id":"b6577167-b2f2-4b01-b127-9fad1f3e5e5e","system_id":"levelo_inurba_marseille","lat":43.30167,"lon":5.38055,"is_reserved":false,"is_disabled":false,"rental_uris":{"android":"levelo://app?vid=b6577167-b2f2-4b01-b127-9fad1f3e5e5e","ios":"levelo://app?vid=b6577167-b2f2-4b01-b127-9fad1f3e5e5e"},"vehicle_type_id":"4","last_reported":1737529695,"current_range_meters":26800,"station_id":"ce4bgjp2rcd13ifvqbh0","pricing_plan_id":"cebpf4jnsgd1na2vs0mg"},{"bike_id":"41162eaf-1d86-4562-a41f-047ccb2288c4","system_id":"levelo_inurba_marseille","lat":43.31503,"lon":5.42966,"is_reserved":false,"is_disabled":false,"rental_uris":{"android":"levelo://app?vid=41162eaf-1d86-4562-a41f-047ccb2288c4","ios":"levelo://app?vid=41162eaf-1d86-4562-a41f-047ccb2288c4"},"vehicle_type_id":"4","last_reported":1737529695,"current_range_meters":34000,"station_id":"","pricing_plan_id":"cebpf4jnsgd1na2vs0mg"},{"bike_id":"72d213ba-d980-485b-b567-d10e2117da06","system_id":"levelo_inurba_marseille","lat":43.31481,"lon":5.37307,"is_reserved":false,"is_disabled":false,"rental_uris":{"android":"levelo://app?vid=72d213ba-d980-485b-b567-d10e2117da06","ios":"levelo://app?vid=72d213ba-d980-485b-b567-d10e2117da06"},"vehicle_type_id":"4","last_reported":1737529695,"current_range_meters":30400,"station_id":"ce4bgt12rcd13ifvqcd0","pricing_plan_id":"cebpf4jnsgd1na2vs0mg"},{"bike_id":"92b1553e-063e-4a75-8df6-139bf5f9d010","system_id":"levelo_inurba_marseille","lat":43.28154,"lon":5.42643,"is_reserved":false,"is_disabled":true,"rental_uris":{"android":"levelo://app?vid=92b1553e-063e-4a75-8df6-139bf5f9d010","ios":"levelo://app?vid=92b1553e-063e-4a75-8df6-139bf5f9d010"},"vehicle_type_id":"4","last_reported":1737529695,"current_range_meters":0,"station_id":"ce4bhnh2rcd13ifvqgug","pricing_plan_id":"cebpf4jnsgd1na2vs0mg"},{"bike_id":"03446712-7090-4bce-a587-c73094e9b031","system_id":"levelo_inurba_marseille","lat":43.2656,"lon":5.39025,"is_reserved":false,"is_disabled":false,"rental_uris":{"android":"levelo://app?vid=03446712-7090-4bce-a587-c73094e9b031","ios":"levelo://app?vid=03446712-7090-4bce-a587-c73094e9b031"},"vehicle_type_id":"4","last_reported":1737529695,"current_range_meters":22800,"station_id":"ce4bhe12rcd13ifvqf30","pricing_plan_id":"cebpf4jnsgd1na2vs0mg"},{"bike_id":"3448e7d2-a85d-47d6-ad0c-f45a0c35e35f","system_id":"levelo_inurba_marseille","lat":43.30943,"lon":5.39038,"is_reserved":false,"is_disabled":false,"rental_uris":{"android":"levelo://app?vid=3448e7d2-a85d-47d6-ad0c-f45a0c35e35f","ios":"levelo://app?vid=3448e7d2-a85d-47d6-ad0c-f45a0c35e35f"},"vehicle_type_id":"4","last_reported":1737529695,"current_range_meters":34800,"station_id":"ce4bgup2rcd13ifvqco0","pricing_plan_id":"cebpf4jnsgd1na2vs0mg"},{"bike_id":"634e500c-74ef-4cdc-830f-99b7d06c375b","system_id":"levelo_inurba_marseille","lat":43.30377,"lon":5.41861,"is_reserved":false,"is_disabled":false,"rental_uris":{"android":"levelo://app?vid=634e500c-74ef-4cdc-830f-99b7d06c375b","ios":"levelo://app?vid=634e500c-74ef-4cdc-830f-99b7d06c375b"},"vehicle_type_id":"4","last_reported":1737529695,"current_range_meters":38800,"station_id":"ce4bhop2rcd13ifvqh7g","pricing_plan_id":"cebpf4jnsgd1na2vs0mg"},{"bike_id":"332ed00f-1a13-4d8b-8b0c-d1b24118bc07","system_id":"levelo_inurba_marseille","lat":43.31506,"lon":5.38748,"is_reserved":false,"is_disabled":false,"rental_uris":{"android":"levelo://app?vid=332ed00f-1a13-4d8b-8b0c-d1b24118bc07","ios":"levelo://app?vid=332ed00f-1a13-4d8b-8b0c-d1b24118bc07"},"vehicle_type_id":"4","last_reported":1737529695,"current_range_meters":16400,"station_id":"","pricing_plan_id":"cebpf4jnsgd1na2vs0mg"},{"bike_id":"f48ad76c-78fb-4c0f-95cc-847969517611","system_id":"levelo_inurba_marseille","lat":43.29613,"lon":5.38107,"is_reserved":false,"is_disabled":false,"rental_uris":{"android":"levelo://app?vid=f48ad76c-78fb-4c0f-95cc-847969517611","ios":"levelo://app?vid=f48ad76c-78fb-4c0f-95cc-847969517611"},"vehicle_type_id":"4","last_reported":1737529695,"current_range_meters":22800,"station_id":"ce4bgl12rcd13ifvqbo0","pricing_plan_id":"cebpf4jnsgd1na2vs0mg"},{"bike_id":"daa95c34-b998-42f7-a8b9-b93b3a858a82","system_id":"levelo_inurba_marseille","lat":43.313591,"lon":5.384933,"is_reserved":false,"is_disabled":false,"rental_uris":{"android":"levelo://app?vid=daa95c34-b998-42f7-a8b9-b93b3a858a82","ios":"levelo://app?vid=daa95c34-b998-42f7-a8b9-b93b3a858a82"},"vehicle_type_id":"4","last_reported":1737529695,"current_range_meters":39200,"station_id":"ce4bgt92rcd13ifvqcf0","pricing_plan_id":"cebpf4jnsgd1na2vs0mg"},{"bike_id":"a854cf1d-b192-48ed-a485-ec4e09ea3457","system_id":"levelo_inurba_marseille","lat":43.29272,"lon":5.36841,"is_reserved":false,"is_disabled":false,"rental_uris":{"android":"levelo://app?vid=a854cf1d-b192-48ed-a485-ec4e09ea3457","ios":"levelo://app?vid=a854cf1d-b192-48ed-a485-ec4e09ea3457"},"vehicle_type_id":"4","last_reported":1737529695,"current_range_meters":34000,"station_id":"ce4bhbp2rcd13ifvqesg","pricing_plan_id":"cebpf4jnsgd1na2vs0mg"},{"bike_id":"de261717-ca35-4e92-831f-d11499afafef","system_id":"levelo_inurba_marseille","lat":43.295217,"lon":5.394023,"is_reserved":false,"is_disabled":false,"rental_uris":{"android":"levelo://app?vid=de261717-ca35-4e92-831f-d11499afafef","ios":"levelo://app?vid=de261717-ca35-4e92-831f-d11499afafef"},"vehicle_type_id":"4","last_reported":1737529695,"current_range_meters":12800,"station_id":"ce4bh292rcd13ifvqdf0","pricing_plan_id":"cebpf4jnsgd1na2vs0mg"},{"bike_id":"61e4a5be-8f04-4c3f-94ce-459a800ea6fb","system_id":"levelo_inurba_marseille","lat":43.24072,"lon":5.37767,"is_reserved":false,"is_disabled":false,"rental_uris":{"android":"levelo://app?vid=61e4a5be-8f04-4c3f-94ce-459a800ea6fb","ios":"levelo://app?vid=61e4a5be-8f04-4c3f-94ce-459a800ea6fb"},"vehicle_type_id":"4","last_reported":1737529695,"current_range_meters":22000,"station_id":"ce4bhnp2rcd13ifvqgvg","pricing_plan_id":"cebpf4jnsgd1na2vs0mg"},{"bike_id":"f5b04eba-d976-4a88-a384-7207daf1f229","system_id":"levelo_inurba_marseille","lat":43.33592,"lon":5.40975,"is_reserved":false,"is_disabled":false,"rental_uris":{"android":"levelo://app?vid=f5b04eba-d976-4a88-a384-7207daf1f229","ios":"levelo://app?vid=f5b04eba-d976-4a88-a384-7207daf1f229"},"vehicle_type_id":"4","last_reported":1737529695,"current_range_meters":27600,"station_id":"ce4bhqh2rcd13ifvqhmg","pricing_plan_id":"cebpf4jnsgd1na2vs0mg"},{"bike_id":"c2a1e131-88de-43c8-98c9-818a49e6445a","system_id":"levelo_inurba_marseille","lat":43.32472,"lon":5.36571,"is_reserved":false,"is_disabled":false,"rental_uris":{"android":"levelo://app?vid=c2a1e131-88de-43c8-98c9-818a49e6445a","ios":"levelo://app?vid=c2a1e131-88de-43c8-98c9-818a49e6445a"},"vehicle_type_id":"4","last_reported":1737529695,"current_range_meters":29600,"station_id":"ce4bhs12rcd13ifvqhvg","pricing_plan_id":"cebpf4jnsgd1na2vs0mg"},{"bike_id":"60b7d049-237a-4dbd-ad0c-436ecde1802f","system_id":"levelo_inurba_marseille","lat":43.23195,"lon":5.35555,"is_reserved":false,"is_disabled":false,"rental_uris":{"android":"levelo://app?vid=60b7d049-237a-4dbd-ad0c-436ecde1802f","ios":"levelo://app?vid=60b7d049-237a-4dbd-ad0c-436ecde1802f"},"vehicle_type_id":"4","last_reported":1737529695,"current_range_meters":17200,"station_id":"ce4bhu92rcd13ifvqi70","pricing_plan_id":"cebpf4jnsgd1na2vs0mg"},{"bike_id":"fe7011bb-5454-4247-a00a-90c1b444d493","system_id":"levelo_inurba_marseille","lat":43.239604,"lon":5.36638,"is_reserved":false,"is_disabled":false,"rental_uris":{"android":"levelo://app?vid=fe7011bb-5454-4247-a00a-90c1b444d493","ios":"levelo://app?vid=fe7011bb-5454-4247-a00a-90c1b444d493"},"vehicle_type_id":"4","last_reported":1737529695,"current_range_meters":9600,"station_id":"ce4bhi12rcd13ifvqfp0","pricing_plan_id":"cebpf4jnsgd1na2vs0mg"},{"bike_id":"de54a39c-85a2-40b1-b3e0-a69725dd3d03","system_id":"levelo_inurba_marseille","lat":43.26941,"lon":5.40255,"is_reserved":false,"is_disabled":false,"rental_uris":{"android":"levelo://app?vid=de54a39c-85a2-40b1-b3e0-a69725dd3d03","ios":"levelo://app?vid=de54a39c-85a2-40b1-b3e0-a69725dd3d03"},"vehicle_type_id":"4","last_reported":1737529695,"current_range_meters":17600,"station_id":"cjm6bp8fraef2m0cb0m0","pricing_plan_id":"cebpf4jnsgd1na2vs0mg"},{"bike_id":"75d5fc2f-d46b-4ecb-ba71-c08e0bd8a730","system_id":"levelo_inurba_marseille","lat":43.24079,"lon":5.37758,"is_reserved":false,"is_disabled":false,"rental_uris":{"android":"levelo://app?vid=75d5fc2f-d46b-4ecb-ba71-c08e0bd8a730","ios":"levelo://app?vid=75d5fc2f-d46b-4ecb-ba71-c08e0bd8a730"},"vehicle_type_id":"4","last_reported":1737529695,"current_range_meters":3600,"station_id":"ce4bhnp2rcd13ifvqgvg","pricing_plan_id":"cebpf4jnsgd1na2vs0mg"},{"bike_id":"f0b7ede6-ae3e-4357-996f-96fcff157b0f","system_id":"levelo_inurba_marseille","lat":43.32534,"lon":5.41428,"is_reserved":false,"is_disabled":false,"rental_uris":{"android":"levelo://app?vid=f0b7ede6-ae3e-4357-996f-96fcff157b0f","ios":"levelo://app?vid=f0b7ede6-ae3e-4357-996f-96fcff157b0f"},"vehicle_type_id":"4","last_reported":1737529695,"current_range_meters":28800,"station_id":"ce4bhq12rcd13ifvqhhg","pricing_plan_id":"cebpf4jnsgd1na2vs0mg"},