{"last_updated":1721657323,"ttl":30,"version":"2.2","data":{"bikes":[{"bike_id":"e8c1bcf3-e4cb-4b65-bfb7-b6ca610dabb7","system_id":"levelo_inurba_marseille","lat":43.31341,"lon":5.367098,"is_reserved":false,"is_disabled":false,"rental_uris":{"android":"levelo://app?vid=e8c1bcf3-e4cb-4b65-bfb7-b6ca610dabb7","ios":"levelo://app?vid=e8c1bcf3-e4cb-4b65-bfb7-b6ca610dabb7"},"vehicle_type_id":"4","last_reported":1721657323,"current_range_meters":31200,"station_id":"ce4bgr92rcd13ifvqc6g","pricing_plan_id":"cebpf4jnsgd1na2vs0mg"},{"bike_id":"a07d7e31-8962-4b68-ad82-ccd7d81111b3","system_id":"levelo_inurba_marseille","lat":43.31341,"lon":5.367098,"is_reserved":false,"is_disabled":false,"rental_uris":{"android":"levelo://app?vid=a07d7e31-8962-4b68-ad82-ccd7d81111b3","ios":"levelo://app?vid=a07d7e31-8962-4b68-ad82-ccd7d81111b3"},"vehicle_type_id":"4","last_reported":1721657323,"current_range_meters":24800,"station_id":"ce4bgr92rcd13ifvqc6g","pricing_plan_id":"cebpf4jnsgd1na2vs0mg"},{"bike_id":"bbecc0a7-825e-4076-8a78-6285db7e9514","system_id":"levelo_inurba_marseille","lat":43.31341,"lon":5.367098,"is_reserved":false,"is_disabled":false,"rental_uris":{"android":"levelo://app?vid=bbecc0a7-825e-4076-8a78-6285db7e9514","ios":"levelo://app?vid=bbecc0a7-825e-4076-8a78-6285db7e9514"},"vehicle_type_id":"4","last_reported":1721657323,"current_range_meters":13200,"station_id":"ce4bgr92rcd13ifvqc6g","pricing_plan_id":"cebpf4jnsgd1na2vs0mg"},{"bike_id":"1a2278eb-9f5c-4d44-bf67-640a6cb67296","system_id":"levelo_inurba_marseille","lat":43.31362,"lon":5.36715,"is_reserved":false,"is_disabled":false,"rental_uris":{"android":"levelo://app?vid=1a2278eb-9f5c-4d44-bf67-640a6cb67296","ios":"levelo://app?vid=1a2278eb-9f5c-4d44-bf67-640a6cb67296"},"vehicle_type_id":"4","last_reported":1721657323,"current_range_meters":17200,"station_id":"ce4bgr92rcd13ifvqc6g","pricing_plan_id":"cebpf4jnsgd1na2vs0mg"},{"bike_id":"870324fd-d8b7-412f-b030-7e1e8ea0da21","system_id":"levelo_inurba_marseille","lat":43.312239,"lon":5.368562,"is_reserved":false,"is_disabled":false,"rental_uris":{"android":"levelo://app?vid=870324fd-d8b7-412f-b030-7e1e8ea0da21","ios":"levelo://app?vid=870324fd-d8b7-412f-b030-7e1e8ea0da21"},"vehicle_type_id":"4","last_reported":1721657323,"current_range_meters":30000,"station_id":"ce4bgl92rcd13ifvqbq0","pricing_plan_id":"cebpf4jnsgd1na2vs0mg"},{"bike_id":"10fa87e5-c092-43be-8e98-e3b37fa06878","system_id":"levelo_inurba_marseille","lat":43.312239,"lon":5.368562,"is_reserved":false,"is_disabled":false,"rental_uris":{"android":"levelo://app?vid=10fa87e5-c092-43be-8e98-e3b37fa06878","ios":"levelo://app?vid=10fa87e5-c092-43be-8e98-e3b37fa06878"},"vehicle_type_id":"4","last_reported":1721657323,"current_range_meters":25200,"station_id":"ce4bgl92rcd13ifvqbq0","pricing_plan_id":"cebpf4jnsgd1na2vs0mg"},{"bike_id":"e146b22f-0e79-4fde-b70a-8ae141a68a95","system_id":"levelo_inurba_marseille","lat":43.312239,"lon":5.368562,"is_reserved":false,"is_disabled":false,"rental_uris":{"android":"levelo://app?vid=e146b22f-0e79-4fde-b70a-8ae141a68a95","ios":"levelo://app?vid=e146b22f-0e79-4fde-b70a-8ae141a68a95"},"vehicle_type_id":"4","last_reported":1721657323,"current_range_meters":18800,"station_id":"ce4bgl92rcd13ifvqbq0","pricing_plan_id":"cebpf4jnsgd1na2vs0mg"},{"bike_id":"df4aee2c-32c8-4342-a0af-95aa24be7421","system_id":"levelo_inurba_marseille","lat":43.312239,"lon":5.368562,"is_reserved":false,"is_disabled":false,"rental_uris":{"android":"levelo://app?vid=df4aee2c-32c8-4342-a0af-95aa24be7421","ios":"levelo://app?vid=df4aee2c-32c8-4342-a0af-95aa24be7421"},"vehicle_type_id":"4","last_reported":1721657323,"current_range_meters":12800,"station_id":"ce4bgl92rcd13ifvqbq0","pricing_plan_id":"cebpf4jnsgd1na2vs0mg"},{"bike_id":"c6dee7bf-013b-46ff-88a9-4d58ba9bf6c9","system_id":"levelo_inurba_marseille","lat":43.312239,"lon":5.368562,"is_reserved":false,"is_disabled":false,"rental_uris":{"android":"levelo://app?vid=c6dee7bf-013b-46ff-88a9-4d58ba9bf6c9","ios":"levelo://app?vid=c6dee7bf-013b-46ff-88a9-4d58ba9bf6c9"},"vehicle_type_id":"4","last_reported":1721657323,"current_range_meters":24800,"station_id":"ce4bgl92rcd13ifvqbq0","pricing_plan_id":"cebpf4jnsgd1na2vs0mg"},{"bike_id":"a2610bec-28cf-4e46-bfa7-b619ea248969","system_id":"levelo_inurba_marseille","lat":43.312239,"lon":5.368562,"is_reserved":false,"is_disabled":false,"rental_uris":{"android":"levelo://app?vid=a2610bec-28cf-4e46-bfa7-b619ea248969","ios":"levelo://app?vid=a2610bec-28cf-4e46-bfa7-b619ea248969"},"vehicle_type_id":"4","last_reported":1721657323,"current_range_meters":11600,"station_id":"ce4bgl92rcd13ifvqbq0","pricing_plan_id":"cebpf4jnsgd1na2vs0mg"},{"bike_id":"57dad6fa-d1e5-4856-87b8-f97899d2bd93","system_id":"levelo_inurba_marseille","lat":43.312239,"lon":5.368562,"is_reserved":false,"is_disabled":false,"rental_uris":{"android":"levelo://app?vid=57dad6fa-d1e5-4856-87b8-f97899d2bd93","ios":"levelo://app?vid=57dad6fa-d1e5-4856-87b8-f97899d2bd93"},"vehicle_type_id":"4","last_reported":1721657323,"current_range_meters":9200,"station_id":"ce4bgl92rcd13ifvqbq0","pricing_plan_id":"cebpf4jnsgd1na2vs0mg"},{"bike_id":"6cfdda69-f3ac-4650-9570-7c93f04c2165","system_id":"levelo_inurba_marseille","lat":43.312239,"lon":5.368562,"is_reserved":false,"is_disabled":false,"rental_uris":{"android":"levelo://app?vid=6cfdda69-f3ac-4650-9570-7c93f04c2165","ios":"levelo://app?vid=6cfdda69-f3ac-4650-9570-7c93f04c2165"},"vehicle_type_id":"4","last_reported":1721657323,"current_range_meters":13600,"station_id":"ce4bgl92rcd13ifvqbq0","pricing_plan_id":"cebpf4jnsgd1na2vs0mg"},{"bike_id":"35631806-4aeb-43d5-b9b5-6b92147814b5","system_id":"levelo_inurba_marseille","lat":43.312239,"lon":5.368562,"is_reserved":false,"is_disabled":false,"rental_uris":{"android":"levelo://app?vid=35631806-4aeb-43d5-b9b5-6b92147814b5","ios":"levelo://app?vid=35631806-4aeb-43d5-b9b5-6b92147814b5"},"vehicle_type_id":"4","last_reported":1721657323,"current_range_meters":29200,"station_id":"ce4bgl92rcd13ifvqbq0","pricing_plan_id":"cebpf4jnsgd1na2vs0mg"},{"bike_id":"8e5505f2-af98-43c9-a74b-d49f16aaf4c9","system_id":"levelo_inurba_marseille","lat":43.312239,"lon":5.368562,"is_reserved":false,"is_disabled":false,"rental_uris":{"android":"levelo://app?vid=8e5505f2-af98-43c9-a74b-d49f16aaf4c9","ios":"levelo://app?vid=8e5505f2-af98-43c9-a74b-d49f16aaf4c9"},"vehicle_type_id":"4","last_reported":1721657323,"current_range_meters":0,"station_id":"ce4bgl92rcd13ifvqbq0","pricing_plan_id":"cebpf4jnsgd1na2vs0mg"},{"bike_id":"e7b9cf41-c40f-4fe0-b171-7d24237d8dd6","system_id":"levelo_inurba_marseille","lat":43.312239,"lon":5.368562,"is_reserved":false,"is_disabled":false,"rental_uris":{"android":"levelo://app?vid=e7b9cf41-c40f-4fe0-b171-7d24237d8dd6","ios":"levelo://app?vid=e7b9cf41-c40f-4fe0-b171-7d24237d8dd6"},"vehicle_type_id":"4","last_reported":1721657323,"current_range_meters":23200,"station_id":"ce4bgl92rcd13ifvqbq0","pricing_plan_id":"cebpf4jnsgd1na2vs0mg"},{"bike_id":"0cb30a2b-0ff4-4d03-a188-6f3d119955b7","system_id":"levelo_inurba_marseille","lat":43.312239,"lon":5.368562,"is_reserved":false,"is_disabled":false,"rental_uris":{"android":"levelo://app?vid=0cb30a2b-0ff4-4d03-a188-6f3d119955b7","ios":"levelo://app?vid=0cb30a2b-0ff4-4d03-a188-6f3d119955b7"},"vehicle_type_id":"4","last_reported":1721657323,"current_range_meters":9200,"station_id":"ce4bgl92rcd13ifvqbq0","pricing_plan_id":"cebpf4jnsgd1na2vs0mg"},{"bike_id":"8d6225b2-1177-435b-b1c7-b16b0bcfaa6b","system_id":"levelo_inurba_marseille","lat":43.312239,"lon":5.368562,"is_reserved":false,"is_disabled":false,"rental_uris":{"android":"levelo://app?vid=8d6225b2-1177-435b-b1c7-b16b0bcfaa6b","ios":"levelo://app?vid=8d6225b2-1177-435b-b1c7-b16b0bcfaa6b"},"vehicle_type_id":"4","last_reported":1721657323,"current_range_meters":24000,"station_id":"ce4bgl92rcd13ifvqbq0","pricing_plan_id":"cebpf4jnsgd1na2vs0mg"},{"bike_id":"a924d8dd-6205-40aa-9fc1-e7cccb970a68","system_id":"levelo_inurba_marseille","lat":43.309076,"lon":5.368465,"is_reserved":false,"is_disabled":false,"rental_uris":{"android":"levelo://app?vid=a924d8dd-6205-40aa-9fc1-e7cccb970a68","ios":"levelo://app?vid=a924d8dd-6205-40aa-9fc1-e7cccb970a68"},"vehicle_type_id":"4","last_reported":1721657323,"current_range_meters":31600,"station_id":"ce4bgn92rcd13ifvqbvg","pricing_plan_id":"cebpf4jnsgd1na2vs0mg"},{"bike_id":"7492eb25-a75a-47cf-b856-a3baa0649b31","system_id":"levelo_inurba_marseille","lat":43.309076,"lon":5.368465,"is_reserved":false,"is_disabled":false,"rental_uris":{"android":"levelo://app?vid=7492eb25-a75a-47cf-b856-a3baa0649b31","ios":"levelo://app?vid=7492eb25-a75a-47cf-b856-a3baa0649b31"},"vehicle_type_id":"4","last_reported":1721657323,"current_range_meters":31600,"station_id":"ce4bgn92rcd13ifvqbvg","pricing_plan_id":"cebpf4jnsgd1na2vs0mg"},{"bike_id":"5dd0b09d-3601-4dda-930f-76a6f3879057","system_id":"levelo_inurba_marseille","lat":43.309076,"lon":5.368465,"is_reserved":false,"is_disabled":false,"rental_uris":{"android":"levelo://app?vid=5dd0b09d-3601-4dda-930f-76a6f3879057","ios":"levelo://app?vid=5dd0b09d-3601-4dda-930f-76a6f3879057"},"vehicle_type_id":"4","last_reported":1721657323,"current_range_meters":30400,"station_id":"ce4bgn92rcd13ifvqbvg","pricing_plan_id":"cebpf4jnsgd1na2vs0mg"},{"bike_id":"749dcd27-7b06-4222-a24d-6c7def2018fb","system_id":"levelo_inurba_marseille","lat":43.309076,"lon":5.368465,"is_reserved":false,"is_disabled":false,"rental_uris":{"android":"levelo://app?vid=749dcd27-7b06-4222-a24d-6c7def2018fb","ios":"levelo://app?vid=749dcd27-7b06-4222-a24d-6c7def2018fb"},"vehicle_type_id":"4","last_reported":1721657323,"current_range_meters":23200,"station_id":"ce4bgn92rcd13ifvqbvg","pricing_plan_id":"cebpf4jnsgd1na2vs0mg"},{"bike_id":"bfa24a7f-e064-40f4-9819-59c1b5432bfd","system_id":"levelo_inurba_marseille","lat":43.309057,"lon":5.36852,"is_reserved":false,"is_disabled":false,"rental_uris":{"android":"levelo://app?vid=bfa24a7f-e064-40f4-9819-59c1b5432bfd","ios":"levelo://app?vid=bfa24a7f-e064-40f4-9819-59c1b5432bfd"},"vehicle_type_id":"4","last_reported":1721657323,"current_range_meters":31200,"station_id":"ce4bgn92rcd13ifvqbvg","pricing_plan_id":"cebpf4jnsgd1na2vs0mg"},{"bike_id":"8a9635b5-53d9-4819-89fd-83367eca914c","system_id":"levelo_inurba_marseille","lat":43.309076,"lon":5.368465,"is_reserved":false,"is_disabled":false,"rental_uris":{"android":"levelo://app?vid=8a9635b5-53d9-4819-89fd-83367eca914c","ios":"levelo://app?vid=8a9635b5-53d9-4819-89fd-83367eca914c"},"vehicle_type_id":"4","last_reported":1721657323,"current_range_meters":22400,"station_id":"ce4bgn92rcd13ifvqbvg","pricing_plan_id":"cebpf4jnsgd1na2vs0mg"},{"bike_id":"95ec4579-152d-4215-9cf0-f1eeccff3b54","system_id":"levelo_inurba_marseille","lat":43.30905,"lon":5.36854,"is_reserved":false,"is_disabled":false,"rental_uris":{"android":"levelo://app?vid=95ec4579-152d-4215-9cf0-f1eeccff3b54","ios":"levelo://app?vid=95ec4579-152d-4215-9cf0-f1eeccff3b54"},"vehicle_type_id":"4","last_reported":1721657323,"current_range_meters":6800,"station_id":"ce4bgn92rcd13ifvqbvg","pricing_plan_id":"cebpf4jnsgd1na2vs0mg"},{"bike_id":"ebcc4def-706b-43ef-984b-40893a7ecb67","system_id":"levelo_inurba_marseille","lat":43.309039,"lon":5.371797,"is_reserved":false,"is_disabled":false,"rental_uris":{"android":"levelo://app?vid=ebcc4def-706b-43ef-984b-40893a7ecb67","ios":"levelo://app?vid=ebcc4def-706b-43ef-984b-40893a7ecb67"},"vehicle_type_id":"4","last_reported":1721657323,"current_range_meters":31200,"station_id":"ce4bguh2rcd13ifvqckg","pricing_plan_id":"cebpf4jnsgd1na2vs0mg"},{"bike_id":"0be93413-436c-4e78-9d64-761c33d6f01b","system_id":"levelo_inurba_marseille","lat":43.309039,"lon":5.371797,"is_reserved":false,"is_disabled":false,"rental_uris":{"android":"levelo://app?vid=0be93413-436c-4e78-9d64-761c33d6f01b","ios":"levelo://app?vid=0be93413-436c-4e78-9d64-761c33d6f01b"},"vehicle_type_id":"4","last_reported":1721657323,"current_range_meters":18800,"station_id":"ce4bguh2rcd13ifvqckg","pricing_plan_id":"cebpf4jnsgd1na2vs0mg"},{"bike_id":"260481be-9f2b-42e9-a7ea-9e6558bf7154","system_id":"levelo_inurba_marseille","lat":43.30537,"lon":5.367345,"is_reserved":false,"is_disabled":false,"rental_uris":{"android":"levelo://app?vid=260481be-9f2b-42e9-a7ea-9e6558bf7154","ios":"levelo://app?vid=260481be-9f2b-42e9-a7ea-9e6558bf7154"},"vehicle_type_id":"4","last_reported":1721657323,"current_range_meters":25600,"station_id":"ce4bgrp2rcd13ifvqc9g","pricing_plan_id":"cebpf4jnsgd1na2vs0mg"},{"bike_id":"12c02ca2-07b1-46a2-8f10-d2751257ea2e","system_id":"levelo_inurba_marseille","lat":43.305613,"lon":5.36542,"is_reserved":false,"is_disabled":false,"rental_uris":{"android":"levelo://app?vid=12c02ca2-07b1-46a2-8f10-d2751257ea2e","ios":"levelo://app?vid=12c02ca2-07b1-46a2-8f10-d2751257ea2e"},"vehicle_type_id":"4","last_reported":1721657323,"current_range_meters":0,"station_id":"ce4bgs12rcd13ifvqcag","pricing_plan_id":"cebpf4jnsgd1na2vs0mg"},{"bike_id":"a3ace2b4-84d1-4904-9118-dcd5db48fcab","system_id":"levelo_inurba_marseille","lat":43.305712,"lon":5.365641,"is_reserved":false,"is_disabled":false,"rental_uris":{"android":"levelo://app?vid=a3ace2b4-84d1-4904-9118-dcd5db48fcab","ios":"levelo://app?vid=a3ace2b4-84d1-4904-9118-dcd5db48fcab"},"vehicle_type_id":"4","last_reported":1721657323,"current_range_meters":2400,"station_id":"ce4bgs12rcd13ifvqcag","pricing_plan_id":"cebpf4jnsgd1na2vs0mg"},{"bike_id":"8121ddea-879d-4a08-8c24-c06337f76d7a","system_id":"levelo_inurba_marseille","lat":43.297163,"lon":5.365866,"is_reserved":false,"is_disabled":false,"rental_uris":{"android":"levelo://app?vid=8121ddea-879d-4a08-8c24-c06337f76d7a","ios":"levelo://app?vid=8121ddea-879d-4a08-8c24-c06337f76d7a"},"vehicle_type_id":"4","last_reported":1721657323,"current_range_meters":28400,"station_id":"ce4bgn12rcd13ifvqbt0","pricing_plan_id":"cebpf4jnsgd1na2vs0mg"},{"bike_id":"131d1398-ee31-4813-b637-903256968295","system_id":"levelo_inurba_marseille","lat":43.30533,"lon":5.3671,"is_reserved":false,"is_disabled":false,"rental_uris":{"android":"levelo://app?vid=131d1398-ee31-4813-b637-903256968295","ios":"levelo://app?vid=131d1398-ee31-4813-b637-903256968295"},"vehicle_type_id":"4","last_reported":1721657323,"current_range_meters":31600,"station_id":"","pricing_plan_id":"cebpf4jnsgd1na2vs0mg"},{"bike_id":"a612b256-c8ed-4559-b9c6-e4b57aed4b0c","system_id":"levelo_inurba_marseille","lat":43.305368,"lon":5.367343,"is_reserved":false,"is_disabled":false,"rental_uris":{"android":"levelo://app?vid=a612b256-c8ed-4559-b9c6-e4b57aed4b0c","ios":"levelo://app?vid=a612b256-c8ed-4559-b9c6-e4b57aed4b0c"},"vehicle_type_id":"4","last_reported":1721657323,"current_range_meters":31200,"station_id":"ce4bgrp2rcd13ifvqc9g","pricing_plan_id":"cebpf4jnsgd1na2vs0mg"},{"bike_id":"0475fc04-30a6-4927-99f5-1b025aeece76","system_id":"levelo_inurba_marseille","lat":43.315636,"lon":5.376453,"is_reserved":false,"is_disabled":false,"rental_uris":{"android":"levelo://app?vid=0475fc04-30a6-4927-99f5-1b025aeece76","ios":"levelo://app?vid=0475fc04-30a6-4927-99f5-1b025aeece76"},"vehicle_type_id":"4","last_reported":1721657323,"current_range_meters":4000,"station_id":"","pricing_plan_id":"cebpf4jnsgd1na2vs0mg"},{"bike_id":"42625468-dfe9-477b-b5c3-c911166beb90","system_id":"levelo_inurba_marseille","lat":43.305989,"lon":5.37225,"is_reserved":false,"is_disabled":false,"rental_uris":{"android":"levelo://app?vid=42625468-dfe9-477b-b5c3-c911166beb90","ios":"levelo://app?vid=42625468-dfe9-477b-b5c3-c911166beb90"},"vehicle_type_id":"4","last_reported":1721657323,"current_range_meters":21200,"station_id":"ce4bgqh2rcd13ifvqc4g","pricing_plan_id":"cebpf4jnsgd1na2vs0mg"},{"bike_id":"873fb79f-6213-4412-9c55-8379dc34e5dc","system_id":"levelo_inurba_marseille","lat":43.305989,"lon":5.37225,"is_reserved":false,"is_disabled":false,"rental_uris":{"android":"levelo://app?vid=873fb79f-6213-4412-9c55-8379dc34e5dc","ios":"levelo://app?vid=873fb79f-6213-4412-9c55-8379dc34e5dc"},"vehicle_type_id":"4","last_reported":1721657323,"current_range_meters":23200,"station_id":"ce4bgqh2rcd13ifvqc4g","pricing_plan_id":"cebpf4jnsgd1na2vs0mg"},{"bike_id":"7ac42acd-7930-4c50-8215-0526bcb9ed4c","system_id":"levelo_inurba_marseille","lat":43.31116,"lon":5.37762,"is_reserved":false,"is_disabled":false,"rental_uris":{"android":"levelo://app?vid=7ac42acd-7930-4c50-8215-0526bcb9ed4c","ios":"levelo://app?vid=7ac42acd-7930-4c50-8215-0526bcb9ed4c"},"vehicle_type_id":"4","last_reported":1721657323,"current_range_meters":29600,"station_id":"ce4bgt92rcd13ifvqcg0","pricing_plan_id":"cebpf4jnsgd1na2vs0mg"},{"bike_id":"5875a10d-3af3-459e-8918-cc4468a7a18a","system_id":"levelo_inurba_marseille","lat":43.317075,"lon":5.377367,"is_reserved":false,"is_disabled":false,"rental_uris":{"android":"levelo://app?vid=5875a10d-3af3-459e-8918-cc4468a7a18a","ios":"levelo://app?vid=5875a10d-3af3-459e-8918-cc4468a7a18a"},"vehicle_type_id":"4","last_reported":1721657323,"current_range_meters":28800,"station_id":"ce4bgth2rcd13ifvqch0","pricing_plan_id":"cebpf4jnsgd1na2vs0mg"},{"bike_id":"66dd78f8-d5b9-4355-999b-feab3a9fdf58","system_id":"levelo_inurba_marseille","lat":43.317075,"lon":5.377367,"is_reserved":false,"is_disabled":false,"rental_uris":{"android":"levelo://app?vid=66dd78f8-d5b9-4355-999b-feab3a9fdf58","ios":"levelo://app?vid=66dd78f8-d5b9-4355-999b-feab3a9fdf58"},"vehicle_type_id":"4","last_reported":1721657323,"current_range_meters":27600,"station_id":"ce4bgth2rcd13ifvqch0","pricing_plan_id":"cebpf4jnsgd1na2vs0mg"},{"bike_id":"935debec-bc12-4685-a241-6ade3b71bec0","system_id":"levelo_inurba_marseille","lat":43.31147,"lon":5.37986,"is_reserved":false,"is_disabled":false,"rental_uris":{"android":"levelo://app?vid=935debec-bc12-4685-a241-6ade3b71bec0","ios":"levelo://app?vid=935debec-bc12-4685-a241-6ade3b71bec0"},"vehicle_type_id":"4","last_reported":1721657323,"current_range_meters":4800,"station_id":"","pricing_plan_id":"cebpf4jnsgd1na2vs0mg"},{"bike_id":"de2cedee-c9ac-45eb-be51-23c9ab3341d5","system_id":"levelo_inurba_marseille","lat":43.30316,"lon":5.36889,"is_reserved":false,"is_disabled":false,"rental_uris":{"android":"levelo://app?vid=de2cedee-c9ac-45eb-be51-23c9ab3341d5","ios":"levelo://app?vid=de2cedee-c9ac-45eb-be51-23c9ab3341d5"},"vehicle_type_id":"4","last_reported":1721657323,"current_range_meters":29200,"station_id":"ce4bgqh2rcd13ifvqc5g","pricing_plan_id":"cebpf4jnsgd1na2vs0mg"},{"bike_id":"9ac74398-117e-4b7b-97ef-3f368f3510a7","system_id":"levelo_inurba_marseille","lat":43.30304,"lon":5.368987,"is_reserved":false,"is_disabled":false,"rental_uris":{"android":"levelo://app?vid=9ac74398-117e-4b7b-97ef-3f368f3510a7","ios":"levelo://app?vid=9ac74398-117e-4b7b-97ef-3f368f3510a7"},"vehicle_type_id":"4","last_reported":1721657323,"current_range_meters":24400,"station_id":"ce4bgqh2rcd13ifvqc5g","pricing_plan_id":"cebpf4jnsgd1na2vs0mg"},{"bike_id":"e9b77387-48f8-41e2-bbbb-f31aca23953e","system_id":"levelo_inurba_marseille","lat":43.304606,"lon":5.379026,"is_reserved":false,"is_disabled":false,"rental_uris":{"android":"levelo://app?vid=e9b77387-48f8-41e2-bbbb-f31aca23953e","ios":"levelo://app?vid=e9b77387-48f8-41e2-bbbb-f31aca23953e"},"vehicle_type_id":"4","last_reported":1721657323,"current_range_meters":29600,"station_id":"ce4bgup2rcd13ifvqcn0","pricing_plan_id":"cebpf4jnsgd1na2vs0mg"},{"bike_id":"aff0d771-49fa-4f12-bd43-f6036b8f0ee9","system_id":"levelo_inurba_marseille","lat":43.315289,"lon":5.380349,"is_reserved":false,"is_disabled":false,"rental_uris":{"android":"levelo://app?vid=aff0d771-49fa-4f12-bd43-f6036b8f0ee9","ios":"levelo://app?vid=aff0d771-49fa-4f12-bd43-f6036b8f0ee9"},"vehicle_type_id":"4","last_reported":1721657323,"current_range_meters":31200,"station_id":"ce4bhsp2rcd13ifvqi50","pricing_plan_id":"cebpf4jnsgd1na2vs0mg"},{"bike_id":"ca00444c-e646-4404-ac94-cbcb5cf32dae","system_id":"levelo_inurba_marseille","lat":43.315289,"lon":5.380349,"is_reserved":false,"is_disabled":false,"rental_uris":{"android":"levelo://app?vid=ca00444c-e646-4404-ac94-cbcb5cf32dae","ios":"levelo://app?vid=ca00444c-e646-4404-ac94-cbcb5cf32dae"},"vehicle_type_id":"4","last_reported":1721657323,"current_range_meters":30800,"station_id":"ce4bhsp2rcd13ifvqi50","pricing_plan_id":"cebpf4jnsgd1na2vs0mg"},{"bike_id":"c5fd7202-864d-4cdd-8acb-95b399087528","system_id":"levelo_inurba_marseille","lat":43.304606,"lon":5.379026,"is_reserved":false,"is_disabled":false,"rental_uris":{"android":"levelo://app?vid=c5fd7202-864d-4cdd-8acb-95b399087528","ios":"levelo://app?vid=c5fd7202-864d-4cdd-8acb-95b399087528"},"vehicle_type_id":"4","last_reported":1721657323,"current_range_meters":6000,"station_id":"ce4bgup2rcd13ifvqcn0","pricing_plan_id":"cebpf4jnsgd1na2vs0mg"},{"bike_id":"9ddb14e0-ec2a-49ba-881e-eb94bdf52b47","system_id":"levelo_inurba_marseille","lat":43.324771,"lon":5.36557,"is_reserved":false,"is_disabled":false,"rental_uris":{"android":"levelo://app?vid=9ddb14e0-ec2a-49ba-881e-eb94bdf52b47","ios":"levelo://app?vid=9ddb14e0-ec2a-49ba-881e-eb94bdf52b47"},"vehicle_type_id":"4","last_reported":1721657323,"current_range_meters":6400,"station_id":"ce4bhs12rcd13ifvqhvg","pricing_plan_id":"cebpf4jnsgd1na2vs0mg"},{"bike_id":"8c76f9fe-15b0-4ce4-b062-2b20e5f08005","system_id":"levelo_inurba_marseille","lat":43.308016,"lon":5.381511,"is_reserved":false,"is_disabled":false,"rental_uris":{"android":"levelo://app?vid=8c76f9fe-15b0-4ce4-b062-2b20e5f08005","ios":"levelo://app?vid=8c76f9fe-15b0-4ce4-b062-2b20e5f08005"},"vehicle_type_id":"4","last_reported":1721657323,"current_range_meters":18000,"station_id":"","pricing_plan_id":"cebpf4jnsgd1na2vs0mg"},{"bike_id":"90ec1948-25df-4ed1-aeb5-e8388a4203be","system_id":"levelo_inurba_marseille","lat":43.304606,"lon":5.379026,"is_reserved":false,"is_disabled":false,"rental_uris":{"android":"levelo://app?vid=90ec1948-25df-4ed1-aeb5-e8388a4203be","ios":"levelo://app?vid=90ec1948-25df-4ed1-aeb5-e8388a4203be"},"vehicle_type_id":"4","last_reported":1721657323,"current_range_meters":16400,"station_id":"ce4bgup2rcd13ifvqcn0","pricing_plan_id":"cebpf4jnsgd1na2vs0mg"},{"bike_id":"3314901d-37d1-43f0-a2f3-ef890030446c","system_id":"levelo_inurba_marseille","lat":43.304606,"lon":5.379026,"is_reserved":false,"is_disabled":false,"rental_uris":{"android":"levelo://app?vid=3314901d-37d1-43f0-a2f3-ef890030446c","ios":"levelo://app?vid=3314901d-37d1-43f0-a2f3-ef890030446c"},"vehicle_type_id":"4","last_reported":1721657323,"current_range_meters":31200,"station_id":"ce4bgup2rcd13ifvqcn0","pricing_plan_id":"cebpf4jnsgd1na2vs0mg"},{"bike_id":"b6fc6e75-f94f-4106-aece-58d69f1cc2c7","system_id":"levelo_inurba_marseille","lat":43.304606,"lon":5.379026,"is_reserved":false,"is_disabled":false,"rental_uris":{"android":"levelo://app?vid=b6fc6e75-f94f-4106-aece-58d69f1cc2c7","ios":"levelo://app?vid=b6fc6e75-f94f-4106-aece-58d69f1cc2c7"},"vehicle_type_id":"4","last_reported":1721657323,"current_range_meters":29600,"station_id":"ce4bgup2rcd13ifvqcn0","pricing_plan_id":"cebpf4jnsgd1na2vs0mg"},{"bike_id":"c807901e-c313-40e5-8ae1-ec6f94fbb730","system_id":"levelo_inurba_marseille","lat":43.304606,"lon":5.379026,"is_reserved":false,"is_disabled":false,"rental_uris":{"android":"levelo://app?vid=c807901e-c313-40e5-8ae1-ec6f94fbb730","ios":"levelo://app?vid=c807901e-c313-40e5-8ae1-ec6f94fbb730"},"vehicle_type_id":"4","last_reported":1721657323,"current_range_meters":24400,"station_id":"ce4bgup2rcd13ifvqcn0","pricing_plan_id":"cebpf4jnsgd1na2vs0mg"},{"bike_id":"a7280461-a2dd-4b3a-8380-a8eebcc69fcd","system_id":"levelo_inurba_marseille","lat":43.304606,"lon":5.379026,"is_reserved":false,"is_disabled":false,"rental_uris":{"android":"levelo://app?vid=a7280461-a2dd-4b3a-8380-a8eebcc69fcd","ios":"levelo://app?vid=a7280461-a2dd-4b3a-8380-a8eebcc69fcd"},"vehicle_type_id":"4","last_reported":1721657323,"current_range_meters":26400,"station_id":"ce4bgup2rcd13ifvqcn0","pricing_plan_id":"cebpf4jnsgd1na2vs0mg"},{"bike_id":"62d87ced-a761-4a8c-9ba3-2a3079769b5d","system_id":"levelo_inurba_marseille","lat":43.304606,"lon":5.379026,"is_reserved":false,"is_disabled":false,"rental_uris":{"android":"levelo://app?vid=62d87ced-a761-4a8c-9ba3-2a3079769b5d","ios":"levelo://app?vid=62d87ced-a761-4a8c-9ba3-2a3079769b5d"},"vehicle_type_id":"4","last_reported":1721657323,"current_range_meters":28400,"station_id":"ce4bgup2rcd13ifvqcn0","pricing_plan_id":"cebpf4jnsgd1na2vs0mg"},{"bike_id":"5f1d29f6-cc2b-43e3-8517-4de5696d69ce","system_id":"levelo_inurba_marseille","lat":43.304606,"lon":5.379026,"is_reserved":false,"is_disabled":false,"rental_uris":{"android":"levelo://app?vid=5f1d29f6-cc2b-43e3-8517-4de5696d69ce","ios":"levelo://app?vid=5f1d29f6-cc2b-43e3-8517-4de5696d69ce"},"vehicle_type_id":"4","last_reported":1721657323,"current_range_meters":30400,"station_id":"ce4bgup2rcd13ifvqcn0","pricing_plan_id":"cebpf4jnsgd1na2vs0mg"},{"bike_id":"14d1ecaa-7f26-4323-b8cc-dd7c7cb08f0a","system_id":"levelo_inurba_marseille","lat":43.324771,"lon":5.36557,"is_reserved":false,"is_disabled":false,"rental_uris":{"android":"levelo://app?vid=14d1ecaa-7f26-4323-b8cc-dd7c7cb08f0a","ios":"levelo://app?vid=14d1ecaa-7f26-4323-b8cc-dd7c7cb08f0a"},"vehicle_type_id":"4","last_reported":1721657323,"current_range_meters":24400,"station_id":"ce4bhs12rcd13ifvqhvg","pricing_plan_id":"cebpf4jnsgd1na2vs0mg"},{"bike_id":"d05a3c1a-4b0c-416a-a37f-e02afb9ef12e","system_id":"levelo_inurba_marseille","lat":43.304606,"lon":5.379026,"is_reserved":false,"is_disabled":false,"rental_uris":{"android":"levelo://app?vid=d05a3c1a-4b0c-416a-a37f-e02afb9ef12e","ios":"levelo://app?vid=d05a3c1a-4b0c-416a-a37f-e02afb9ef12e"},"vehicle_type_id":"4","last_reported":1721657323,"current_range_meters":31200,"station_id":"ce4bgup2rcd13ifvqcn0","pricing_plan_id":"cebpf4jnsgd1na2vs0mg"},{"bike_id":"a80134e7-f259-435f-9b6a-2835954177a1","system_id":"levelo_inurba_marseille","lat":43.304606,"lon":5.379026,"is_reserved":false,"is_disabled":false,"rental_uris":{"android":"levelo://app?vid=a80134e7-f259-435f-9b6a-2835954177a1","ios":"levelo://app?vid=a80134e7-f259-435f-9b6a-2835954177a1"},"vehicle_type_id":"4","last_reported":1721657323,"current_range_meters":28000,"station_id":"ce4bgup2rcd13ifvqcn0","pricing_plan_id":"cebpf4jnsgd1na2vs0mg"},{"bike_id":"501d5411-c949-4316-b217-9931176b4ca7","system_id":"levelo_inurba_marseille","lat":43.324771,"lon":5.36557,"is_reserved":false,"is_disabled":false,"rental_uris":{"android":"levelo://app?vid=501d5411-c949-4316-b217-9931176b4ca7","ios":"levelo://app?vid=501d5411-c949-4316-b217-9931176b4ca7"},"vehicle_type_id":"4","last_reported":1721657323,"current_range_meters":31200,"station_id":"ce4bhs12rcd13ifvqhvg","pricing_plan_id":"cebpf4jnsgd1na2vs0mg"},{"bike_id":"28b01638-de75-4596-a4c5-d39f1c20e839","system_id":"levelo_inurba_marseille","lat":43.324771,"lon":5.36557,"is_reserved":false,"is_disabled":false,"rental_uris":{"android":"levelo://app?vid=28b01638-de75-4596-a4c5-d39f1c20e839","ios":"levelo://app?vid=28b01638-de75-4596-a4c5-d39f1c20e839"},"vehicle_type_id":"4","last_reported":1721657323,"current_range_meters":21200,"station_id":"ce4bhs12rcd13ifvqhvg","pricing_plan_id":"cebpf4jnsgd1na2vs0mg"},{"bike_id":"1f4533b3-e703-403a-b03b-cd00a38d2954","system_id":"levelo_inurba_marseille","lat":43.324826,"lon":5.365734,"is_reserved":false,"is_disabled":false,"rental_uris":{"android":"levelo://app?vid=1f4533b3-e703-403a-b03b-cd00a38d2954","ios":"levelo://app?vid=1f4533b3-e703-403a-b03b-cd00a38d2954"},"vehicle_type_id":"4","last_reported":1721657323,"current_range_meters":31200,"station_id":"ce4bhs12rcd13ifvqhvg","pricing_plan_id":"cebpf4jnsgd1na2vs0mg"},{"bike_id":"5874d757-4c2b-4308-aed0-34e372a262cf","system_id":"levelo_inurba_marseille","lat":43.324771,"lon":5.36557,"is_reserved":false,"is_disabled":false,"rental_uris":{"android":"levelo://app?vid=5874d757-4c2b-4308-aed0-34e372a262cf","ios":"levelo://app?vid=5874d757-4c2b-4308-aed0-34e372a262cf"},"vehicle_type_id":"4","last_reported":1721657323,"current_range_meters":31600,"station_id":"ce4bhs12rcd13ifvqhvg","pricing_plan_id":"cebpf4jnsgd1na2vs0mg"},{"bike_id":"af0cfbf7-31f8-4439-9fed-aa322051c3de","system_id":"levelo_inurba_marseille","lat":43.304606,"lon":5.379026,"is_reserved":false,"is_disabled":false,"rental_uris":{"android":"levelo://app?vid=af0cfbf7-31f8-4439-9fed-aa322051c3de","ios":"levelo://app?vid=af0cfbf7-31f8-4439-9fed-aa322051c3de"},"vehicle_type_id":"4","last_reported":1721657323,"current_range_meters":0,"station_id":"ce4bgup2rcd13ifvqcn0","pricing_plan_id":"cebpf4jnsgd1na2vs0mg"},{"bike_id":"115af8bb-11d0-40e4-a954-6b509fa1329c","system_id":"levelo_inurba_marseille","lat":43.324771,"lon":5.36557,"is_reserved":false,"is_disabled":false,"rental_uris":{"android":"levelo://app?vid=115af8bb-11d0-40e4-a954-6b509fa1329c","ios":"levelo://app?vid=115af8bb-11d0-40e4-a954-6b509fa1329c"},"vehicle_type_id":"4","last_reported":1721657323,"current_range_meters":31200,"station_id":"ce4bhs12rcd13ifvqhvg","pricing_plan_id":"cebpf4jnsgd1na2vs0mg"},{"bike_id":"6c52e079-278d-4281-98e3-42bba20cf491","system_id":"levelo_inurba_marseille","lat":43.324771,"lon":5.36557,"is_reserved":false,"is_disabled":false,"rental_uris":{"android":"levelo://app?vid=6c52e079-278d-4281-98e3-42bba20cf491","ios":"levelo://app?vid=6c52e079-278d-4281-98e3-42bba20cf491"},"vehicle_type_id":"4","last_reported":1721657323,"current_range_meters":9200,"station_id":"ce4bhs12rcd13ifvqhvg","pricing_plan_id":"cebpf4jnsgd1na2vs0mg"},{"bike_id":"38f9f79b-6dfe-4172-a511-01eddeb2d727","system_id":"levelo_inurba_marseille","lat":43.324771,"lon":5.36557,"is_reserved":false,"is_disabled":false,"rental_uris":{"android":"levelo://app?vid=38f9f79b-6dfe-4172-a511-01eddeb2d727","ios":"levelo://app?vid=38f9f79b-6dfe-4172-a511-01eddeb2d727"},"vehicle_type_id":"4","last_reported":1721657323,"current_range_meters":31200,"station_id":"ce4bhs12rcd13ifvqhvg","pricing_plan_id":"cebpf4jnsgd1na2vs0mg"},{"bike_id":"d6877e46-9301-4a01-9f79-d92a9f4d926d","system_id":"levelo_inurba_marseille","lat":43.324771,"lon":5.36557,"is_reserved":false,"is_disabled":false,"rental_uris":{"android":"levelo://app?vid=d6877e46-9301-4a01-9f79-d92a9f4d926d","ios":"levelo://app?vid=d6877e46-9301-4a01-9f79-d92a9f4d926d"},"vehicle_type_id":"4","last_reported":1721657323,"current_range_meters":21600,"station_id":"ce4bhs12rcd13ifvqhvg","pricing_plan_id":"cebpf4jnsgd1na2vs0mg"},{"bike_id":"b6085923-b19b-4eb8-9ae3-d78bebccefe4","system_id":"levelo_inurba_marseille","lat":43.324771,"lon":5.36557,"is_reserved":false,"is_disabled":false,"rental_uris":{"android":"levelo://app?vid=b6085923-b19b-4eb8-9ae3-d78bebccefe4","ios":"levelo://app?vid=b6085923-b19b-4eb8-9ae3-d78bebccefe4"},"vehicle_type_id":"4","last_reported":1721657323,"current_range_meters":12800,"station_id":"ce4bhs12rcd13ifvqhvg","pricing_plan_id":"cebpf4jnsgd1na2vs0mg"},{"bike_id":"beb48f94-24ba-4326-8741-357e27b3188b","system_id":"levelo_inurba_marseille","lat":43.32494,"lon":5.36561,"is_reserved":false,"is_disabled":false,"rental_uris":{"android":"levelo://app?vid=beb48f94-24ba-4326-8741-357e27b3188b","ios":"levelo://app?vid=beb48f94-24ba-4326-8741-357e27b3188b"},"vehicle_type_id":"4","last_reported":1721657323,"current_range_meters":19200,"station_id":"ce4bhs12rcd13ifvqhvg","pricing_plan_id":"cebpf4jnsgd1na2vs0mg"},{"bike_id":"81e36e23-b5e2-4875-9803-5fbe2ce6ce6c","system_id":"levelo_inurba_marseille","lat":43.310804,"lon":5.38359,"is_reserved":false,"is_disabled":false,"rental_uris":{"android":"levelo://app?vid=81e36e23-b5e2-4875-9803-5fbe2ce6ce6c","ios":"levelo://app?vid=81e36e23-b5e2-4875-9803-5fbe2ce6ce6c"},"vehicle_type_id":"4","last_reported":1721657323,"current_range_meters":9200,"station_id":"ce4bgv92rcd13ifvqcr0","pricing_plan_id":"cebpf4jnsgd1na2vs0mg"},{"bike_id":"3cce9cf3-ee28-429a-9ef6-0f06f0bcfd59","system_id":"levelo_inurba_marseille","lat":43.302885,"lon":5.377015,"is_reserved":false,"is_disabled":false,"rental_uris":{"android":"levelo://app?vid=3cce9cf3-ee28-429a-9ef6-0f06f0bcfd59","ios":"levelo://app?vid=3cce9cf3-ee28-429a-9ef6-0f06f0bcfd59"},"vehicle_type_id":"4","last_reported":1721657323,"current_range_meters":27200,"station_id":"ce4bguh2rcd13ifvqcj0","pricing_plan_id":"cebpf4jnsgd1na2vs0mg"},{"bike_id":"3b275f84-e482-465b-939a-936332c9b02d","system_id":"levelo_inurba_marseille","lat":43.310804,"lon":5.38359,"is_reserved":false,"is_disabled":false,"rental_uris":{"android":"levelo://app?vid=3b275f84-e482-465b-939a-936332c9b02d","ios":"levelo://app?vid=3b275f84-e482-465b-939a-936332c9b02d"},"vehicle_type_id":"4","last_reported":1721657323,"current_range_meters":3200,"station_id":"ce4bgv92rcd13ifvqcr0","pricing_plan_id":"cebpf4jnsgd1na2vs0mg"},{"bike_id":"574e187c-29d7-49a1-a0af-09289e1c7ead","system_id":"levelo_inurba_marseille","lat":43.302784,"lon":5.377158,"is_reserved":false,"is_disabled":false,"rental_uris":{"android":"levelo://app?vid=574e187c-29d7-49a1-a0af-09289e1c7ead","ios":"levelo://app?vid=574e187c-29d7-49a1-a0af-09289e1c7ead"},"vehicle_type_id":"4","last_reported":1721657323,"current_range_meters":8400,"station_id":"ce4bguh2rcd13ifvqcj0","pricing_plan_id":"cebpf4jnsgd1na2vs0mg"},{"bike_id":"28e61dd2-4f55-41fd-83ee-430c6f192b19","system_id":"levelo_inurba_marseille","lat":43.301423,"lon":5.37399,"is_reserved":false,"is_disabled":false,"rental_uris":{"android":"levelo://app?vid=28e61dd2-4f55-41fd-83ee-430c6f192b19","ios":"levelo://app?vid=28e61dd2-4f55-41fd-83ee-430c6f192b19"},"vehicle_type_id":"4","last_reported":1721657323,"current_range_meters":11200,"station_id":"ce4bgs92rcd13ifvqcc0","pricing_plan_id":"cebpf4jnsgd1na2vs0mg"},{"bike_id":"0b529694-a374-4653-9cca-f0329aedc581","system_id":"levelo_inurba_marseille","lat":43.302784,"lon":5.377158,"is_reserved":false,"is_disabled":false,"rental_uris":{"android":"levelo://app?vid=0b529694-a374-4653-9cca-f0329aedc581","ios":"levelo://app?vid=0b529694-a374-4653-9cca-f0329aedc581"},"vehicle_type_id":"4","last_reported":1721657323,"current_range_meters":11200,"station_id":"ce4bguh2rcd13ifvqcj0","pricing_plan_id":"cebpf4jnsgd1na2vs0mg"},{"bike_id":"5fceb875-f34f-4386-b1f3-be6402eeea09","system_id":"levelo_inurba_marseille","lat":43.301429,"lon":5.37413,"is_reserved":false,"is_disabled":false,"rental_uris":{"android":"levelo://app?vid=5fceb875-f34f-4386-b1f3-be6402eeea09","ios":"levelo://app?vid=5fceb875-f34f-4386-b1f3-be6402eeea09"},"vehicle_type_id":"4","last_reported":1721657323,"current_range_meters":6800,"station_id":"ce4bgs92rcd13ifvqcc0","pricing_plan_id":"cebpf4jnsgd1na2vs0mg"},{"bike_id":"a2a0c4fc-ded0-426a-83df-13eb04096cdb","system_id":"levelo_inurba_marseille","lat":43.30606,"lon":5.38209,"is_reserved":false,"is_disabled":false,"rental_uris":{"android":"levelo://app?vid=a2a0c4fc-ded0-426a-83df-13eb04096cdb","ios":"levelo://app?vid=a2a0c4fc-ded0-426a-83df-13eb04096cdb"},"vehicle_type_id":"4","last_reported":1721657323,"current_range_meters":26800,"station_id":"","pricing_plan_id":"cebpf4jnsgd1na2vs0mg"},{"bike_id":"eeef92a3-6a7f-4d21-95d3-e4b6de129c29","system_id":"levelo_inurba_marseille","lat":43.313571,"lon":5.384829,"is_reserved":false,"is_disabled":false,"rental_uris":{"android":"levelo://app?vid=eeef92a3-6a7f-4d21-95d3-e4b6de129c29","ios":"levelo://app?vid=eeef92a3-6a7f-4d21-95d3-e4b6de129c29"},"vehicle_type_id":"4","last_reported":1721657323,"current_range_meters":3600,"station_id":"ce4bgt92rcd13ifvqcf0","pricing_plan_id":"cebpf4jnsgd1na2vs0mg"},{"bike_id":"0495e489-3d83-46ee-94ec-ac6e1a75af2f","system_id":"levelo_inurba_marseille","lat":43.299222,"lon":5.365554,"is_reserved":false,"is_disabled":false,"rental_uris":{"android":"levelo://app?vid=0495e489-3d83-46ee-94ec-ac6e1a75af2f","ios":"levelo://app?vid=0495e489-3d83-46ee-94ec-ac6e1a75af2f"},"vehicle_type_id":"4","last_reported":1721657323,"current_range_meters":18400,"station_id":"ce4bgm92rcd13ifvqbr0","pricing_plan_id":"cebpf4jnsgd1na2vs0mg"},{"bike_id":"30f68ab7-5b71-4bf7-b9fc-01f330bb9b2f","system_id":"levelo_inurba_marseille","lat":43.298433,"lon":5.362774,"is_reserved":false,"is_disabled":false,"rental_uris":{"android":"levelo://app?vid=30f68ab7-5b71-4bf7-b9fc-01f330bb9b2f","ios":"levelo://app?vid=30f68ab7-5b71-4bf7-b9fc-01f330bb9b2f"},"vehicle_type_id":"4","last_reported":1721657323,"current_range_meters":15200,"station_id":"ce4bgpp2rcd13ifvqc3g","pricing_plan_id":"cebpf4jnsgd1na2vs0mg"},{"bike_id":"799c8d42-dcd3-4db1-ba4a-88f1fe66799d","system_id":"levelo_inurba_marseille","lat":43.298433,"lon":5.362774,"is_reserved":false,"is_disabled":false,"rental_uris":{"android":"levelo://app?vid=799c8d42-dcd3-4db1-ba4a-88f1fe66799d","ios":"levelo://app?vid=799c8d42-dcd3-4db1-ba4a-88f1fe66799d"},"vehicle_type_id":"4","last_reported":1721657323,"current_range_meters":14000,"station_id":"ce4bgpp2rcd13ifvqc3g","pricing_plan_id":"cebpf4jnsgd1na2vs0mg"},{"bike_id":"0f9b5207-eee2-41fb-a76f-9a813075782c","system_id":"levelo_inurba_marseille","lat":43.298433,"lon":5.362774,"is_reserved":false,"is_disabled":false,"rental_uris":{"android":"levelo://app?vid=0f9b5207-eee2-41fb-a76f-9a813075782c","ios":"levelo://app?vid=0f9b5207-eee2-41fb-a76f-9a813075782c"},"vehicle_type_id":"4","last_reported":1721657323,"current_range_meters":2800,"station_id":"ce4bgpp2rcd13ifvqc3g","pricing_plan_id":"cebpf4jnsgd1na2vs0mg"},{"bike_id":"9c35be3f-64e8-4d77-bb3b-625217ff3d7f","system_id":"levelo_inurba_marseille","lat":43.298433,"lon":5.362774,"is_reserved":false,"is_disabled":false,"rental_uris":{"android":"levelo://app?vid=9c35be3f-64e8-4d77-bb3b-625217ff3d7f","ios":"levelo://app?vid=9c35be3f-64e8-4d77-bb3b-625217ff3d7f"},"vehicle_type_id":"4","last_reported":1721657323,"current_range_meters":0,"station_id":"ce4bgpp2rcd13ifvqc3g","pricing_plan_id":"cebpf4jnsgd1na2vs0mg"},{"bike_id":"cd6a3336-9aa0-4d1e-88d3-48a0e878ea53","system_id":"levelo_inurba_marseille","lat":43.31178,"lon":5.38715,"is_reserved":false,"is_disabled":false,"rental_uris":{"android":"levelo://app?vid=cd6a3336-9aa0-4d1e-88d3-48a0e878ea53","ios":"levelo://app?vid=cd6a3336-9aa0-4d1e-88d3-48a0e878ea53"},"vehicle_type_id":"4","last_reported":1721657323,"current_range_meters":0,"station_id":"ce4bgv12rcd13ifvqcp0","pricing_plan_id":"cebpf4jnsgd1na2vs0mg"},{"bike_id":"a69492c9-bf44-41c0-b524-bd2cc322d190","system_id":"levelo_inurba_marseille","lat":43.311722,"lon":5.387247,"is_reserved":false,"is_disabled":false,"rental_uris":{"android":"levelo://app?vid=a69492c9-bf44-41c0-b524-bd2cc322d190","ios":"levelo://app?vid=a69492c9-bf44-41c0-b524-bd2cc322d190"},"vehicle_type_id":"4","last_reported":1721657323,"current_range_meters":30800,"station_id":"ce4bgv12rcd13ifvqcp0","pricing_plan_id":"cebpf4jnsgd1na2vs0mg"},{"bike_id":"8a055b92-56a3-4244-a4b9-a6f7a0aafcd5","system_id":"levelo_inurba_marseille","lat":43.311722,"lon":5.387247,"is_reserved":false,"is_disabled":false,"rental_uris":{"android":"levelo://app?vid=8a055b92-56a3-4244-a4b9-a6f7a0aafcd5","ios":"levelo://app?vid=8a055b92-56a3-4244-a4b9-a6f7a0aafcd5"},"vehicle_type_id":"4","last_reported":1721657323,"current_range_meters":26800,"station_id":"ce4bgv12rcd13ifvqcp0","pricing_plan_id":"cebpf4jnsgd1na2vs0mg"},{"bike_id":"c2cddd9d-5091-4b95-aeaa-9587ba512701","system_id":"levelo_inurba_marseille","lat":43.311722,"lon":5.387247,"is_reserved":false,"is_disabled":false,"rental_uris":{"android":"levelo://app?vid=c2cddd9d-5091-4b95-aeaa-9587ba512701","ios":"levelo://app?vid=c2cddd9d-5091-4b95-aeaa-9587ba512701"},"vehicle_type_id":"4","last_reported":1721657323,"current_range_meters":1200,"station_id":"ce4bgv12rcd13ifvqcp0","pricing_plan_id":"cebpf4jnsgd1na2vs0mg"},{"bike_id":"64a95390-d97c-4990-9511-28a821bbdb6f","system_id":"levelo_inurba_marseille","lat":43.32287,"lon":5.38258,"is_reserved":false,"is_disabled":false,"rental_uris":{"android":"levelo://app?vid=64a95390-d97c-4990-9511-28a821bbdb6f","ios":"levelo://app?vid=64a95390-d97c-4990-9511-28a821bbdb6f"},"vehicle_type_id":"4","last_reported":1721657323,"current_range_meters":0,"station_id":"ce4bhr12rcd13ifvqhqg","pricing_plan_id":"cebpf4jnsgd1na2vs0mg"},{"bike_id":"e139f85e-7244-4310-a607-df21abf3d210","system_id":"levelo_inurba_marseille","lat":43.322852,"lon":5.382628,"is_reserved":false,"is_disabled":false,"rental_uris":{"android":"levelo://app?vid=e139f85e-7244-4310-a607-df21abf3d210","ios":"levelo://app?vid=e139f85e-7244-4310-a607-df21abf3d210"},"vehicle_type_id":"4","last_reported":1721657323,"current_range_meters":18800,"station_id":"ce4bhr12rcd13ifvqhqg","pricing_plan_id":"cebpf4jnsgd1na2vs0mg"},{"bike_id":"98130cc7-b273-4dee-89a1-15b990d570f8","system_id":"levelo_inurba_marseille","lat":43.32289,"lon":5.38267,"is_reserved":false,"is_disabled":false,"rental_uris":{"android":"levelo://app?vid=98130cc7-b273-4dee-89a1-15b990d570f8","ios":"levelo://app?vid=98130cc7-b273-4dee-89a1-15b990d570f8"},"vehicle_type_id":"4","last_reported":1721657323,"current_range_meters":12400,"station_id":"ce4bhr12rcd13ifvqhqg","pricing_plan_id":"cebpf4jnsgd1na2vs0mg"},{"bike_id":"7400a47f-23a1-45e8-8cdb-83e38fd86dbb","system_id":"levelo_inurba_marseille","lat":43.322935,"lon":5.382645,"is_reserved":false,"is_disabled":false,"rental_uris":{"android":"levelo://app?vid=7400a47f-23a1-45e8-8cdb-83e38fd86dbb","ios":"levelo://app?vid=7400a47f-23a1-45e8-8cdb-83e38fd86dbb"},"vehicle_type_id":"4","last_reported":1721657323,"current_range_meters":30800,"station_id":"ce4bhr12rcd13ifvqhqg","pricing_plan_id":"cebpf4jnsgd1na2vs0mg"},{"bike_id":"a3b12dcd-8747-4e7c-86a7-45a9149fae6b","system_id":"levelo_inurba_marseille","lat":43.32288,"lon":5.38273,"is_reserved":false,"is_disabled":false,"rental_uris":{"android":"levelo://app?vid=a3b12dcd-8747-4e7c-86a7-45a9149fae6b","ios":"levelo://app?vid=a3b12dcd-8747-4e7c-86a7-45a9149fae6b"},"vehicle_type_id":"4","last_reported":1721657323,"current_range_meters":26800,"station_id":"ce4bhr12rcd13ifvqhqg","pricing_plan_id":"cebpf4jnsgd1na2vs0mg"},{"bike_id":"09b67b86-8e69-4222-9028-36bb32cdf136","system_id":"levelo_inurba_marseille","lat":43.32289,"lon":5.38272,"is_reserved":false,"is_disabled":false,"rental_uris":{"android":"levelo://app?vid=09b67b86-8e69-4222-9028-36bb32cdf136","ios":"levelo://app?vid=09b67b86-8e69-4222-9028-36bb32cdf136"},"vehicle_type_id":"4","last_reported":1721657323,"current_range_meters":3200,"station_id":"ce4bhr12rcd13ifvqhqg","pricing_plan_id":"cebpf4jnsgd1na2vs0mg"},{"bike_id":"5698135a-4c05-4f03-9869-d363a1c79959","system_id":"levelo_inurba_marseille","lat":43.322909,"lon":5.382699,"is_reserved":false,"is_disabled":false,"rental_uris":{"android":"levelo://app?vid=5698135a-4c05-4f03-9869-d363a1c79959","ios":"levelo://app?vid=5698135a-4c05-4f03-9869-d363a1c79959"},"vehicle_type_id":"4","last_reported":1721657323,"current_range_meters":25600,"station_id":"ce4bhr12rcd13ifvqhqg","pricing_plan_id":"cebpf4jnsgd1na2vs0mg"},{"bike_id":"e6d7b8b7-d05b-41ad-a213-908a692a9d29","system_id":"levelo_inurba_marseille","lat":43.3229,"lon":5.38272,"is_reserved":false,"is_disabled":false,"rental_uris":{"android":"levelo://app?vid=e6d7b8b7-d05b-41ad-a213-908a692a9d29","ios":"levelo://app?vid=e6d7b8b7-d05b-41ad-a213-908a692a9d29"},"vehicle_type_id":"4","last_reported":1721657323,"current_range_meters":9200,"station_id":"ce4bhr12rcd13ifvqhqg","pricing_plan_id":"cebpf4jnsgd1na2vs0mg"},{"bike_id":"64f1ef29-dd87-4dd4-a776-1c9e29baed3a","system_id":"levelo_inurba_marseille","lat":43.32288,"lon":5.382784,"is_reserved":false,"is_disabled":false,"rental_uris":{"android":"levelo://app?vid=64f1ef29-dd87-4dd4-a776-1c9e29baed3a","ios":"levelo://app?vid=64f1ef29-dd87-4dd4-a776-1c9e29baed3a"},"vehicle_type_id":"4","last_reported":1721657323,"current_range_meters":25200,"station_id":"ce4bhr12rcd13ifvqhqg","pricing_plan_id":"cebpf4jnsgd1na2vs0mg"},{"bike_id":"63774387-f20f-4c25-bcd4-50bc688e6dd5","system_id":"levelo_inurba_marseille","lat":43.322879,"lon":5.382786,"is_reserved":false,"is_disabled":false,"rental_uris":{"android":"levelo://app?vid=63774387-f20f-4c25-bcd4-50bc688e6dd5","ios":"levelo://app?vid=63774387-f20f-4c25-bcd4-50bc688e6dd5"},"vehicle_type_id":"4","last_reported":1721657323,"current_range_meters":29200,"station_id":"ce4bhr12rcd13ifvqhqg","pricing_plan_id":"cebpf4jnsgd1na2vs0mg"},{"bike_id":"5b943f28-e2ff-4060-8b16-d8ce5c239b2c","system_id":"levelo_inurba_marseille","lat":43.32293,"lon":5.38274,"is_reserved":false,"is_disabled":false,"rental_uris":{"android":"levelo://app?vid=5b943f28-e2ff-4060-8b16-d8ce5c239b2c","ios":"levelo://app?vid=5b943f28-e2ff-4060-8b16-d8ce5c239b2c"},"vehicle_type_id":"4","last_reported":1721657323,"current_range_meters":17200,"station_id":"ce4bhr12rcd13ifvqhqg","pricing_plan_id":"cebpf4jnsgd1na2vs0mg"},{"bike_id":"d1524c38-272a-4647-ac5e-400258017ada","system_id":"levelo_inurba_marseille","lat":43.32296,"lon":5.38287,"is_reserved":false,"is_disabled":false,"rental_uris":{"android":"levelo://app?vid=d1524c38-272a-4647-ac5e-400258017ada","ios":"levelo://app?vid=d1524c38-272a-4647-ac5e-400258017ada"},"vehicle_type_id":"4","last_reported":1721657323,"current_range_meters":9600,"station_id":"ce4bhr12rcd13ifvqhqg","pricing_plan_id":"cebpf4jnsgd1na2vs0mg"},{"bike_id":"f6105e19-632e-4eee-a434-d99e9efbe99a","system_id":"levelo_inurba_marseille","lat":43.297163,"lon":5.365866,"is_reserved":false,"is_disabled":false,"rental_uris":{"android":"levelo://app?vid=f6105e19-632e-4eee-a434-d99e9efbe99a","ios":"levelo://app?vid=f6105e19-632e-4eee-a434-d99e9efbe99a"},"vehicle_type_id":"4","last_reported":1721657323,"current_range_meters":22400,"station_id":"ce4bgn12rcd13ifvqbt0","pricing_plan_id":"cebpf4jnsgd1na2vs0mg"},{"bike_id":"a3cc9cef-4996-4220-9fd3-d50e0baf5395","system_id":"levelo_inurba_marseille","lat":43.297163,"lon":5.365866,"is_reserved":false,"is_disabled":false,"rental_uris":{"android":"levelo://app?vid=a3cc9cef-4996-4220-9fd3-d50e0baf5395","ios":"levelo://app?vid=a3cc9cef-4996-4220-9fd3-d50e0baf5395"},"vehicle_type_id":"4","last_reported":1721657323,"current_range_meters":15600,"station_id":"ce4bgn12rcd13ifvqbt0","pricing_plan_id":"cebpf4jnsgd1na2vs0mg"},{"bike_id":"4389a21a-d92e-4c62-876b-42419f6f3e4e","system_id":"levelo_inurba_marseille","lat":43.297163,"lon":5.365866,"is_reserved":false,"is_disabled":false,"rental_uris":{"android":"levelo://app?vid=4389a21a-d92e-4c62-876b-42419f6f3e4e","ios":"levelo://app?vid=4389a21a-d92e-4c62-876b-42419f6f3e4e"},"vehicle_type_id":"4","last_reported":1721657323,"current_range_meters":22800,"station_id":"ce4bgn12rcd13ifvqbt0","pricing_plan_id":"cebpf4jnsgd1na2vs0mg"},{"bike_id":"41951e47-a325-4bee-8f0d-cf611f03709e","system_id":"levelo_inurba_marseille","lat":43.296129,"lon":5.370777,"is_reserved":false,"is_disabled":false,"rental_uris":{"android":"levelo://app?vid=41951e47-a325-4bee-8f0d-cf611f03709e","ios":"levelo://app?vid=41951e47-a325-4bee-8f0d-cf611f03709e"},"vehicle_type_id":"4","last_reported":1721657323,"current_range_meters":29200,"station_id":"ce4bgnh2rcd13ifvqc0g","pricing_plan_id":"cebpf4jnsgd1na2vs0mg"},{"bike_id":"a8b06c4e-3bba-4880-a582-96710b0531c4","system_id":"levelo_inurba_marseille","lat":43.296131,"lon":5.370773,"is_reserved":false,"is_disabled":false,"rental_uris":{"android":"levelo://app?vid=a8b06c4e-3bba-4880-a582-96710b0531c4","ios":"levelo://app?vid=a8b06c4e-3bba-4880-a582-96710b0531c4"},"vehicle_type_id":"4","last_reported":1721657323,"current_range_meters":17600,"station_id":"ce4bgnh2rcd13ifvqc0g","pricing_plan_id":"cebpf4jnsgd1na2vs0mg"},{"bike_id":"6184ca80-e333-4d85-8657-c3a0f5c58305","system_id":"levelo_inurba_marseille","lat":43.296131,"lon":5.370773,"is_reserved":false,"is_disabled":false,"rental_uris":{"android":"levelo://app?vid=6184ca80-e333-4d85-8657-c3a0f5c58305","ios":"levelo://app?vid=6184ca80-e333-4d85-8657-c3a0f5c58305"},"vehicle_type_id":"4","last_reported":1721657323,"current_range_meters":11200,"station_id":"ce4bgnh2rcd13ifvqc0g","pricing_plan_id":"cebpf4jnsgd1na2vs0mg"},{"bike_id":"442aebf2-1a75-4461-a481-e70bda4080ad","system_id":"levelo_inurba_marseille","lat":43.296131,"lon":5.370773,"is_reserved":false,"is_disabled":false,"rental_uris":{"android":"levelo://app?vid=442aebf2-1a75-4461-a481-e70bda4080ad","ios":"levelo://app?vid=442aebf2-1a75-4461-a481-e70bda4080ad"},"vehicle_type_id":"4","last_reported":1721657323,"current_range_meters":1200,"station_id":"ce4bgnh2rcd13ifvqc0g","pricing_plan_id":"cebpf4jnsgd1na2vs0mg"},{"bike_id":"9edfb9d0-8d5b-4e46-88f5-66cc5f337e89","system_id":"levelo_inurba_marseille","lat":43.297365,"lon":5.3766,"is_reserved":false,"is_disabled":false,"rental_uris":{"android":"levelo://app?vid=9edfb9d0-8d5b-4e46-88f5-66cc5f337e89","ios":"levelo://app?vid=9edfb9d0-8d5b-4e46-88f5-66cc5f337e89"},"vehicle_type_id":"4","last_reported":1721657323,"current_range_meters":31200,"station_id":"ce4bgkh2rcd13ifvqbl0","pricing_plan_id":"cebpf4jnsgd1na2vs0mg"},{"bike_id":"be022444-cb95-4356-a41a-2fbd6fa03235","system_id":"levelo_inurba_marseille","lat":43.296129,"lon":5.370777,"is_reserved":false,"is_disabled":false,"rental_uris":{"android":"levelo://app?vid=be022444-cb95-4356-a41a-2fbd6fa03235","ios":"levelo://app?vid=be022444-cb95-4356-a41a-2fbd6fa03235"},"vehicle_type_id":"4","last_reported":1721657323,"current_range_meters":5200,"station_id":"ce4bgnh2rcd13ifvqc0g","pricing_plan_id":"cebpf4jnsgd1na2vs0mg"},{"bike_id":"2c587283-23d3-4828-b3cc-4647eec0e655","system_id":"levelo_inurba_marseille","lat":43.29573,"lon":5.367355,"is_reserved":false,"is_disabled":false,"rental_uris":{"android":"levelo://app?vid=2c587283-23d3-4828-b3cc-4647eec0e655","ios":"levelo://app?vid=2c587283-23d3-4828-b3cc-4647eec0e655"},"vehicle_type_id":"4","last_reported":1721657323,"current_range_meters":18800,"station_id":"ce4bgph2rcd13ifvqc2g","pricing_plan_id":"cebpf4jnsgd1na2vs0mg"},{"bike_id":"b6d0f759-f8ef-41d5-b93f-86493357fd04","system_id":"levelo_inurba_marseille","lat":43.30945,"lon":5.38991,"is_reserved":false,"is_disabled":false,"rental_uris":{"android":"levelo://app?vid=b6d0f759-f8ef-41d5-b93f-86493357fd04","ios":"levelo://app?vid=b6d0f759-f8ef-41d5-b93f-86493357fd04"},"vehicle_type_id":"4","last_reported":1721657323,"current_range_meters":29200,"station_id":"ce4bgup2rcd13ifvqco0","pricing_plan_id":"cebpf4jnsgd1na2vs0mg"},{"bike_id":"48ba1bf7-be15-4221-9f9f-9a972179fa8a","system_id":"levelo_inurba_marseille","lat":43.29724,"lon":5.37674,"is_reserved":false,"is_disabled":false,"rental_uris":{"android":"levelo://app?vid=48ba1bf7-be15-4221-9f9f-9a972179fa8a","ios":"levelo://app?vid=48ba1bf7-be15-4221-9f9f-9a972179fa8a"},"vehicle_type_id":"4","last_reported":1721657323,"current_range_meters":31200,"station_id":"ce4bgkh2rcd13ifvqbl0","pricing_plan_id":"cebpf4jnsgd1na2vs0mg"},{"bike_id":"f217f3fc-d334-4c1d-ab2e-3e975bbce01b","system_id":"levelo_inurba_marseille","lat":43.299028,"lon":5.381509,"is_reserved":false,"is_disabled":false,"rental_uris":{"android":"levelo://app?vid=f217f3fc-d334-4c1d-ab2e-3e975bbce01b","ios":"levelo://app?vid=f217f3fc-d334-4c1d-ab2e-3e975bbce01b"},"vehicle_type_id":"4","last_reported":1721657323,"current_range_meters":0,"station_id":"ce4bgj12rcd13ifvqbc0","pricing_plan_id":"cebpf4jnsgd1na2vs0mg"},{"bike_id":"1d646153-9c3b-4d75-a1c4-996ac1a144cf","system_id":"levelo_inurba_marseille","lat":43.309589,"lon":5.390258,"is_reserved":false,"is_disabled":false,"rental_uris":{"android":"levelo://app?vid=1d646153-9c3b-4d75-a1c4-996ac1a144cf","ios":"levelo://app?vid=1d646153-9c3b-4d75-a1c4-996ac1a144cf"},"vehicle_type_id":"4","last_reported":1721657323,"current_range_meters":8400,"station_id":"ce4bgup2rcd13ifvqco0","pricing_plan_id":"cebpf4jnsgd1na2vs0mg"},{"bike_id":"9fd090c6-8ca2-42d7-b7b8-9622d52c4d3e","system_id":"levelo_inurba_marseille","lat":43.309589,"lon":5.390258,"is_reserved":false,"is_disabled":false,"rental_uris":{"android":"levelo://app?vid=9fd090c6-8ca2-42d7-b7b8-9622d52c4d3e","ios":"levelo://app?vid=9fd090c6-8ca2-42d7-b7b8-9622d52c4d3e"},"vehicle_type_id":"4","last_reported":1721657323,"current_range_meters":21200,"station_id":"ce4bgup2rcd13ifvqco0","pricing_plan_id":"cebpf4jnsgd1na2vs0mg"},{"bike_id":"7b7bd453-c900-4bcf-9fb0-3d778ddbefcb","system_id":"levelo_inurba_marseille","lat":43.309589,"lon":5.390258,"is_reserved":false,"is_disabled":false,"rental_uris":{"android":"levelo://app?vid=7b7bd453-c900-4bcf-9fb0-3d778ddbefcb","ios":"levelo://app?vid=7b7bd453-c900-4bcf-9fb0-3d778ddbefcb"},"vehicle_type_id":"4","last_reported":1721657323,"current_range_meters":0,"station_id":"ce4bgup2rcd13ifvqco0","pricing_plan_id":"cebpf4jnsgd1na2vs0mg"},{"bike_id":"c012b188-5ad6-4d74-b6f4-aa13243d37fb","system_id":"levelo_inurba_marseille","lat":43.309477,"lon":5.39033,"is_reserved":false,"is_disabled":false,"rental_uris":{"android":"levelo://app?vid=c012b188-5ad6-4d74-b6f4-aa13243d37fb","ios":"levelo://app?vid=c012b188-5ad6-4d74-b6f4-aa13243d37fb"},"vehicle_type_id":"4","last_reported":1721657323,"current_range_meters":28400,"station_id":"ce4bgup2rcd13ifvqco0","pricing_plan_id":"cebpf4jnsgd1na2vs0mg"},{"bike_id":"2982962f-5d7e-40a7-bebb-38ff02e4af92","system_id":"levelo_inurba_marseille","lat":43.309589,"lon":5.390258,"is_reserved":false,"is_disabled":false,"rental_uris":{"android":"levelo://app?vid=2982962f-5d7e-40a7-bebb-38ff02e4af92","ios":"levelo://app?vid=2982962f-5d7e-40a7-bebb-38ff02e4af92"},"vehicle_type_id":"4","last_reported":1721657323,"current_range_meters":10800,"station_id":"ce4bgup2rcd13ifvqco0","pricing_plan_id":"cebpf4jnsgd1na2vs0mg"},{"bike_id":"b1768163-fffa-4b4c-86a5-49037d35053d","system_id":"levelo_inurba_marseille","lat":43.309589,"lon":5.390258,"is_reserved":false,"is_disabled":false,"rental_uris":{"android":"levelo://app?vid=b1768163-fffa-4b4c-86a5-49037d35053d","ios":"levelo://app?vid=b1768163-fffa-4b4c-86a5-49037d35053d"},"vehicle_type_id":"4","last_reported":1721657323,"current_range_meters":2000,"station_id":"ce4bgup2rcd13ifvqco0","pricing_plan_id":"cebpf4jnsgd1na2vs0mg"},{"bike_id":"801e6b00-0205-4768-8a15-81d141452672","system_id":"levelo_inurba_marseille","lat":43.309589,"lon":5.390258,"is_reserved":false,"is_disabled":false,"rental_uris":{"android":"levelo://app?vid=801e6b00-0205-4768-8a15-81d141452672","ios":"levelo://app?vid=801e6b00-0205-4768-8a15-81d141452672"},"vehicle_type_id":"4","last_reported":1721657323,"current_range_meters":10400,"station_id":"ce4bgup2rcd13ifvqco0","pricing_plan_id":"cebpf4jnsgd1na2vs0mg"},{"bike_id":"2242cf29-3b4c-4b49-ad67-b2d4598377bb","system_id":"levelo_inurba_marseille","lat":43.309589,"lon":5.390258,"is_reserved":false,"is_disabled":false,"rental_uris":{"android":"levelo://app?vid=2242cf29-3b4c-4b49-ad67-b2d4598377bb","ios":"levelo://app?vid=2242cf29-3b4c-4b49-ad67-b2d4598377bb"},"vehicle_type_id":"4","last_reported":1721657323,"current_range_meters":12000,"station_id":"ce4bgup2rcd13ifvqco0","pricing_plan_id":"cebpf4jnsgd1na2vs0mg"},{"bike_id":"c25e8b97-fc63-461c-8725-4fe86663e82a","system_id":"levelo_inurba_marseille","lat":43.296263,"lon":5.377094,"is_reserved":false,"is_disabled":false,"rental_uris":{"android":"levelo://app?vid=c25e8b97-fc63-461c-8725-4fe86663e82a","ios":"levelo://app?vid=c25e8b97-fc63-461c-8725-4fe86663e82a"},"vehicle_type_id":"4","last_reported":1721657323,"current_range_meters":24000,"station_id":"ce4bgi92rcd13ifvqb90","pricing_plan_id":"cebpf4jnsgd1na2vs0mg"},{"bike_id":"5730097e-c8d9-4e7d-93f8-851c66005cf6","system_id":"levelo_inurba_marseille","lat":43.304274,"lon":5.388873,"is_reserved":false,"is_disabled":false,"rental_uris":{"android":"levelo://app?vid=5730097e-c8d9-4e7d-93f8-851c66005cf6","ios":"levelo://app?vid=5730097e-c8d9-4e7d-93f8-851c66005cf6"},"vehicle_type_id":"4","last_reported":1721657323,"current_range_meters":1200,"station_id":"ce4bgk12rcd13ifvqbi0","pricing_plan_id":"cebpf4jnsgd1na2vs0mg"},{"bike_id":"c9fe6d92-0fa8-4514-ac00-9ac92b67f3e1","system_id":"levelo_inurba_marseille","lat":43.304278,"lon":5.388868,"is_reserved":false,"is_disabled":false,"rental_uris":{"android":"levelo://app?vid=c9fe6d92-0fa8-4514-ac00-9ac92b67f3e1","ios":"levelo://app?vid=c9fe6d92-0fa8-4514-ac00-9ac92b67f3e1"},"vehicle_type_id":"4","last_reported":1721657323,"current_range_meters":0,"station_id":"ce4bgk12rcd13ifvqbi0","pricing_plan_id":"cebpf4jnsgd1na2vs0mg"},{"bike_id":"d08497aa-7c7e-4499-aa6d-e61237caa446","system_id":"levelo_inurba_marseille","lat":43.304278,"lon":5.388868,"is_reserved":false,"is_disabled":false,"rental_uris":{"android":"levelo://app?vid=d08497aa-7c7e-4499-aa6d-e61237caa446","ios":"levelo://app?vid=d08497aa-7c7e-4499-aa6d-e61237caa446"},"vehicle_type_id":"4","last_reported":1721657323,"current_range_meters":0,"station_id":"ce4bgk12rcd13ifvqbi0","pricing_plan_id":"cebpf4jnsgd1na2vs0mg"},{"bike_id":"8bc85a9f-73a9-4a52-9ad5-c9f6793c4123","system_id":"levelo_inurba_marseille","lat":43.296263,"lon":5.377094,"is_reserved":false,"is_disabled":false,"rental_uris":{"android":"levelo://app?vid=8bc85a9f-73a9-4a52-9ad5-c9f6793c4123","ios":"levelo://app?vid=8bc85a9f-73a9-4a52-9ad5-c9f6793c4123"},"vehicle_type_id":"4","last_reported":1721657323,"current_range_meters":12000,"station_id":"ce4bgi92rcd13ifvqb90","pricing_plan_id":"cebpf4jnsgd1na2vs0mg"},{"bike_id":"991f696d-8fca-47d8-ad1f-ac7c6da1471d","system_id":"levelo_inurba_marseille","lat":43.295748,"lon":5.37522,"is_reserved":false,"is_disabled":false,"rental_uris":{"android":"levelo://app?vid=991f696d-8fca-47d8-ad1f-ac7c6da1471d","ios":"levelo://app?vid=991f696d-8fca-47d8-ad1f-ac7c6da1471d"},"vehicle_type_id":"4","last_reported":1721657323,"current_range_meters":25200,"station_id":"ce4bgh92rcd13ifvqb50","pricing_plan_id":"cebpf4jnsgd1na2vs0mg"},{"bike_id":"775af407-cfe7-4ec8-aa83-61ed86271bf1","system_id":"levelo_inurba_marseille","lat":43.30416,"lon":5.38887,"is_reserved":false,"is_disabled":false,"rental_uris":{"android":"levelo://app?vid=775af407-cfe7-4ec8-aa83-61ed86271bf1","ios":"levelo://app?vid=775af407-cfe7-4ec8-aa83-61ed86271bf1"},"vehicle_type_id":"4","last_reported":1721657323,"current_range_meters":26400,"station_id":"","pricing_plan_id":"cebpf4jnsgd1na2vs0mg"},{"bike_id":"9c3da7a7-8971-4fd0-81ba-e85a06cd986b","system_id":"levelo_inurba_marseille","lat":43.2962,"lon":5.37723,"is_reserved":false,"is_disabled":false,"rental_uris":{"android":"levelo://app?vid=9c3da7a7-8971-4fd0-81ba-e85a06cd986b","ios":"levelo://app?vid=9c3da7a7-8971-4fd0-81ba-e85a06cd986b"},"vehicle_type_id":"4","last_reported":1721657323,"current_range_meters":19200,"station_id":"ce4bgi92rcd13ifvqb90","pricing_plan_id":"cebpf4jnsgd1na2vs0mg"},{"bike_id":"67487dce-3d3b-4366-a58d-83bdf42f9b26","system_id":"levelo_inurba_marseille","lat":43.295279,"lon":5.375048,"is_reserved":false,"is_disabled":false,"rental_uris":{"android":"levelo://app?vid=67487dce-3d3b-4366-a58d-83bdf42f9b26","ios":"levelo://app?vid=67487dce-3d3b-4366-a58d-83bdf42f9b26"},"vehicle_type_id":"4","last_reported":1721657323,"current_range_meters":26800,"station_id":"ce4bgkp2rcd13ifvqbmg","pricing_plan_id":"cebpf4jnsgd1na2vs0mg"},{"bike_id":"81b05a60-64c1-4139-9d14-8fbf63620d9a","system_id":"levelo_inurba_marseille","lat":43.299707,"lon":5.384859,"is_reserved":false,"is_disabled":false,"rental_uris":{"android":"levelo://app?vid=81b05a60-64c1-4139-9d14-8fbf63620d9a","ios":"levelo://app?vid=81b05a60-64c1-4139-9d14-8fbf63620d9a"},"vehicle_type_id":"4","last_reported":1721657323,"current_range_meters":9600,"station_id":"ce4bgj92rcd13ifvqbd0","pricing_plan_id":"cebpf4jnsgd1na2vs0mg"},{"bike_id":"92f9c968-c23a-4f01-9bbc-e20c8b92d9f9","system_id":"levelo_inurba_marseille","lat":43.32367,"lon":5.388836,"is_reserved":false,"is_disabled":false,"rental_uris":{"android":"levelo://app?vid=92f9c968-c23a-4f01-9bbc-e20c8b92d9f9","ios":"levelo://app?vid=92f9c968-c23a-4f01-9bbc-e20c8b92d9f9"},"vehicle_type_id":"4","last_reported":1721657323,"current_range_meters":10800,"station_id":"ce4bhqp2rcd13ifvqhog","pricing_plan_id":"cebpf4jnsgd1na2vs0mg"},{"bike_id":"0d8d9d26-69b3-4c04-b064-050ddff29fcc","system_id":"levelo_inurba_marseille","lat":43.325065,"lon":5.387799,"is_reserved":false,"is_disabled":false,"rental_uris":{"android":"levelo://app?vid=0d8d9d26-69b3-4c04-b064-050ddff29fcc","ios":"levelo://app?vid=0d8d9d26-69b3-4c04-b064-050ddff29fcc"},"vehicle_type_id":"4","last_reported":1721657323,"current_range_meters":1200,"station_id":"","pricing_plan_id":"cebpf4jnsgd1na2vs0mg"},{"bike_id":"70f64523-1c8a-4592-a614-bd56b35e192a","system_id":"levelo_inurba_marseille","lat":43.309589,"lon":5.390258,"is_reserved":false,"is_disabled":false,"rental_uris":{"android":"levelo://app?vid=70f64523-1c8a-4592-a614-bd56b35e192a","ios":"levelo://app?vid=70f64523-1c8a-4592-a614-bd56b35e192a"},"vehicle_type_id":"4","last_reported":1721657323,"current_range_meters":30000,"station_id":"ce4bgup2rcd13ifvqco0","pricing_plan_id":"cebpf4jnsgd1na2vs0mg"},{"bike_id":"3fbb6ba0-e3de-4b6a-90e9-5d0aed0e8d2c","system_id":"levelo_inurba_marseille","lat":43.29273,"lon":5.36853,"is_reserved":false,"is_disabled":false,"rental_uris":{"android":"levelo://app?vid=3fbb6ba0-e3de-4b6a-90e9-5d0aed0e8d2c","ios":"levelo://app?vid=3fbb6ba0-e3de-4b6a-90e9-5d0aed0e8d2c"},"vehicle_type_id":"4","last_reported":1721657323,"current_range_meters":18800,"station_id":"ce4bhbp2rcd13ifvqesg","pricing_plan_id":"cebpf4jnsgd1na2vs0mg"},{"bike_id":"9222f0d8-dbcf-4ba8-a7a2-2938baa53d4a","system_id":"levelo_inurba_marseille","lat":43.29267,"lon":5.36847,"is_reserved":false,"is_disabled":false,"rental_uris":{"android":"levelo://app?vid=9222f0d8-dbcf-4ba8-a7a2-2938baa53d4a","ios":"levelo://app?vid=9222f0d8-dbcf-4ba8-a7a2-2938baa53d4a"},"vehicle_type_id":"4","last_reported":1721657323,"current_range_meters":27600,"station_id":"ce4bhbp2rcd13ifvqesg","pricing_plan_id":"cebpf4jnsgd1na2vs0mg"},{"bike_id":"c385e8cf-f82e-4ab0-9b0e-9630d26970b5","system_id":"levelo_inurba_marseille","lat":43.332704,"lon":5.362163,"is_reserved":false,"is_disabled":false,"rental_uris":{"android":"levelo://app?vid=c385e8cf-f82e-4ab0-9b0e-9630d26970b5","ios":"levelo://app?vid=c385e8cf-f82e-4ab0-9b0e-9630d26970b5"},"vehicle_type_id":"4","last_reported":1721657323,"current_range_meters":0,"station_id":"","pricing_plan_id":"cebpf4jnsgd1na2vs0mg"},{"bike_id":"c43705e3-cbce-4151-9edd-ab65579ae54f","system_id":"levelo_inurba_marseille","lat":43.306,"lon":5.39358,"is_reserved":false,"is_disabled":false,"rental_uris":{"android":"levelo://app?vid=c43705e3-cbce-4151-9edd-ab65579ae54f","ios":"levelo://app?vid=c43705e3-cbce-4151-9edd-ab65579ae54f"},"vehicle_type_id":"4","last_reported":1721657323,"current_range_meters":18400,"station_id":"ce4bh0p2rcd13ifvqd80","pricing_plan_id":"cebpf4jnsgd1na2vs0mg"},{"bike_id":"09977b67-f733-4409-bdc2-79952b370c39","system_id":"levelo_inurba_marseille","lat":43.330968,"lon":5.38019,"is_reserved":false,"is_disabled":false,"rental_uris":{"android":"levelo://app?vid=09977b67-f733-4409-bdc2-79952b370c39","ios":"levelo://app?vid=09977b67-f733-4409-bdc2-79952b370c39"},"vehicle_type_id":"4","last_reported":1721657323,"current_range_meters":14400,"station_id":"","pricing_plan_id":"cebpf4jnsgd1na2vs0mg"},{"bike_id":"55accfe4-a7b8-4d2b-adeb-69dea0a31fb3","system_id":"levelo_inurba_marseille","lat":43.2936,"lon":5.37835,"is_reserved":false,"is_disabled":false,"rental_uris":{"android":"levelo://app?vid=55accfe4-a7b8-4d2b-adeb-69dea0a31fb3","ios":"levelo://app?vid=55accfe4-a7b8-4d2b-adeb-69dea0a31fb3"},"vehicle_type_id":"4","last_reported":1721657323,"current_range_meters":0,"station_id":"ce4bgjh2rcd13ifvqbf0","pricing_plan_id":"cebpf4jnsgd1na2vs0mg"},{"bike_id":"d5c1c234-f9c6-4da9-b103-17399e48be91","system_id":"levelo_inurba_marseille","lat":43.29373,"lon":5.37854,"is_reserved":false,"is_disabled":false,"rental_uris":{"android":"levelo://app?vid=d5c1c234-f9c6-4da9-b103-17399e48be91","ios":"levelo://app?vid=d5c1c234-f9c6-4da9-b103-17399e48be91"},"vehicle_type_id":"4","last_reported":1721657323,"current_range_meters":0,"station_id":"ce4bgjh2rcd13ifvqbf0","pricing_plan_id":"cebpf4jnsgd1na2vs0mg"},{"bike_id":"e69a3518-b01c-4815-aae4-fd6b8e830419","system_id":"levelo_inurba_marseille","lat":43.30085,"lon":5.390856,"is_reserved":false,"is_disabled":false,"rental_uris":{"android":"levelo://app?vid=e69a3518-b01c-4815-aae4-fd6b8e830419","ios":"levelo://app?vid=e69a3518-b01c-4815-aae4-fd6b8e830419"},"vehicle_type_id":"4","last_reported":1721657323,"current_range_meters":4400,"station_id":"ce4bh192rcd13ifvqdb0","pricing_plan_id":"cebpf4jnsgd1na2vs0mg"},{"bike_id":"2e385edf-cd3b-4afc-aa40-26ba00e2e58c","system_id":"levelo_inurba_marseille","lat":43.292311,"lon":5.360731,"is_reserved":false,"is_disabled":false,"rental_uris":{"android":"levelo://app?vid=2e385edf-cd3b-4afc-aa40-26ba00e2e58c","ios":"levelo://app?vid=2e385edf-cd3b-4afc-aa40-26ba00e2e58c"},"vehicle_type_id":"4","last_reported":1721657323,"current_range_meters":1200,"station_id":"ce4bhbh2rcd13ifvqeqg","pricing_plan_id":"cebpf4jnsgd1na2vs0mg"},{"bike_id":"74373536-ac94-4e9a-aad8-dc35896d226b","system_id":"levelo_inurba_marseille","lat":43.291671,"lon":5.371575,"is_reserved":false,"is_disabled":false,"rental_uris":{"android":"levelo://app?vid=74373536-ac94-4e9a-aad8-dc35896d226b","ios":"levelo://app?vid=74373536-ac94-4e9a-aad8-dc35896d226b"},"vehicle_type_id":"4","last_reported":1721657323,"current_range_meters":25600,"station_id":"ce4bha92rcd13ifvqeh0","pricing_plan_id":"cebpf4jnsgd1na2vs0mg"},{"bike_id":"9e6864ca-19b8-4e23-aa48-f37ba9ad695e","system_id":"levelo_inurba_marseille","lat":43.291994,"lon":5.357886,"is_reserved":false,"is_disabled":false,"rental_uris":{"android":"levelo://app?vid=9e6864ca-19b8-4e23-aa48-f37ba9ad695e","ios":"levelo://app?vid=9e6864ca-19b8-4e23-aa48-f37ba9ad695e"},"vehicle_type_id":"4","last_reported":1721657323,"current_range_meters":10400,"station_id":"ce4bhb12rcd13ifvqel0","pricing_plan_id":"cebpf4jnsgd1na2vs0mg"},{"bike_id":"ef97789f-3403-490e-b82f-bd58ea26d26c","system_id":"levelo_inurba_marseille","lat":43.313291,"lon":5.396838,"is_reserved":false,"is_disabled":false,"rental_uris":{"android":"levelo://app?vid=ef97789f-3403-490e-b82f-bd58ea26d26c","ios":"levelo://app?vid=ef97789f-3403-490e-b82f-bd58ea26d26c"},"vehicle_type_id":"4","last_reported":1721657323,"current_range_meters":3200,"station_id":"ce4bgvp2rcd13ifvqcu0","pricing_plan_id":"cebpf4jnsgd1na2vs0mg"},{"bike_id":"a3f39578-fa9f-47cf-97be-69f5c8bf2953","system_id":"levelo_inurba_marseille","lat":43.290319,"lon":5.375732,"is_reserved":false,"is_disabled":false,"rental_uris":{"android":"levelo://app?vid=a3f39578-fa9f-47cf-97be-69f5c8bf2953","ios":"levelo://app?vid=a3f39578-fa9f-47cf-97be-69f5c8bf2953"},"vehicle_type_id":"4","last_reported":1721657323,"current_range_meters":12000,"station_id":"ce4bh692rcd13ifvqe90","pricing_plan_id":"cebpf4jnsgd1na2vs0mg"},{"bike_id":"6592e83a-6fc5-494b-a29b-a24b2de58808","system_id":"levelo_inurba_marseille","lat":43.28946,"lon":5.36629,"is_reserved":false,"is_disabled":false,"rental_uris":{"android":"levelo://app?vid=6592e83a-6fc5-494b-a29b-a24b2de58808","ios":"levelo://app?vid=6592e83a-6fc5-494b-a29b-a24b2de58808"},"vehicle_type_id":"4","last_reported":1721657323,"current_range_meters":19200,"station_id":"ce4bhap2rcd13ifvqek0","pricing_plan_id":"cebpf4jnsgd1na2vs0mg"},{"bike_id":"9c7db638-4287-4c5f-a9c6-33e256e00b69","system_id":"levelo_inurba_marseille","lat":43.289184,"lon":5.366408,"is_reserved":false,"is_disabled":false,"rental_uris":{"android":"levelo://app?vid=9c7db638-4287-4c5f-a9c6-33e256e00b69","ios":"levelo://app?vid=9c7db638-4287-4c5f-a9c6-33e256e00b69"},"vehicle_type_id":"4","last_reported":1721657323,"current_range_meters":0,"station_id":"ce4bhap2rcd13ifvqek0","pricing_plan_id":"cebpf4jnsgd1na2vs0mg"},{"bike_id":"8663a185-2f9c-4db1-b41c-ceaecdbc8f97","system_id":"levelo_inurba_marseille","lat":43.289184,"lon":5.366408,"is_reserved":false,"is_disabled":false,"rental_uris":{"android":"levelo://app?vid=8663a185-2f9c-4db1-b41c-ceaecdbc8f97","ios":"levelo://app?vid=8663a185-2f9c-4db1-b41c-ceaecdbc8f97"},"vehicle_type_id":"4","last_reported":1721657323,"current_range_meters":14000,"station_id":"ce4bhap2rcd13ifvqek0","pricing_plan_id":"cebpf4jnsgd1na2vs0mg"},{"bike_id":"088d5eda-8c89-4503-a526-4562361341f1","system_id":"levelo_inurba_marseille","lat":43.2894,"lon":5.36633,"is_reserved":false,"is_disabled":false,"rental_uris":{"android":"levelo://app?vid=088d5eda-8c89-4503-a526-4562361341f1","ios":"levelo://app?vid=088d5eda-8c89-4503-a526-4562361341f1"},"vehicle_type_id":"4","last_reported":1721657323,"current_range_meters":0,"station_id":"ce4bhap2rcd13ifvqek0","pricing_plan_id":"cebpf4jnsgd1na2vs0mg"},{"bike_id":"df69c18f-3ee1-4a70-9b2e-33cd6ccb1d04","system_id":"levelo_inurba_marseille","lat":43.289468,"lon":5.363719,"is_reserved":false,"is_disabled":false,"rental_uris":{"android":"levelo://app?vid=df69c18f-3ee1-4a70-9b2e-33cd6ccb1d04","ios":"levelo://app?vid=df69c18f-3ee1-4a70-9b2e-33cd6ccb1d04"},"vehicle_type_id":"4","last_reported":1721657323,"current_range_meters":26800,"station_id":"ce4bhc92rcd13ifvqetg","pricing_plan_id":"cebpf4jnsgd1na2vs0mg"},{"bike_id":"5b42c3a3-b770-46af-9a4c-88efd870d782","system_id":"levelo_inurba_marseille","lat":43.289468,"lon":5.363719,"is_reserved":false,"is_disabled":false,"rental_uris":{"android":"levelo://app?vid=5b42c3a3-b770-46af-9a4c-88efd870d782","ios":"levelo://app?vid=5b42c3a3-b770-46af-9a4c-88efd870d782"},"vehicle_type_id":"4","last_reported":1721657323,"current_range_meters":2400,"station_id":"ce4bhc92rcd13ifvqetg","pricing_plan_id":"cebpf4jnsgd1na2vs0mg"},{"bike_id":"81f0628e-38de-463c-9bae-f098ed2a6c9f","system_id":"levelo_inurba_marseille","lat":43.289468,"lon":5.363719,"is_reserved":false,"is_disabled":false,"rental_uris":{"android":"levelo://app?vid=81f0628e-38de-463c-9bae-f098ed2a6c9f","ios":"levelo://app?vid=81f0628e-38de-463c-9bae-f098ed2a6c9f"},"vehicle_type_id":"4","last_reported":1721657323,"current_range_meters":11200,"station_id":"ce4bhc92rcd13ifvqetg","pricing_plan_id":"cebpf4jnsgd1na2vs0mg"},{"bike_id":"8c049c73-bcee-487c-8eed-51d5af226b6a","system_id":"levelo_inurba_marseille","lat":43.289468,"lon":5.363719,"is_reserved":false,"is_disabled":false,"rental_uris":{"android":"levelo://app?vid=8c049c73-bcee-487c-8eed-51d5af226b6a","ios":"levelo://app?vid=8c049c73-bcee-487c-8eed-51d5af226b6a"},"vehicle_type_id":"4","last_reported":1721657323,"current_range_meters":800,"station_id":"ce4bhc92rcd13ifvqetg","pricing_plan_id":"cebpf4jnsgd1na2vs0mg"},{"bike_id":"c5c90de6-e1cb-437b-b934-feef69ca292d","system_id":"levelo_inurba_marseille","lat":43.289468,"lon":5.363719,"is_reserved":false,"is_disabled":false,"rental_uris":{"android":"levelo://app?vid=c5c90de6-e1cb-437b-b934-feef69ca292d","ios":"levelo://app?vid=c5c90de6-e1cb-437b-b934-feef69ca292d"},"vehicle_type_id":"4","last_reported":1721657323,"current_range_meters":4000,"station_id":"ce4bhc92rcd13ifvqetg","pricing_plan_id":"cebpf4jnsgd1na2vs0mg"},{"bike_id":"b09bd2e6-89bc-4632-9330-22a09d7ac8f2","system_id":"levelo_inurba_marseille","lat":43.304296,"lon":5.397513,"is_reserved":false,"is_disabled":false,"rental_uris":{"android":"levelo://app?vid=b09bd2e6-89bc-4632-9330-22a09d7ac8f2","ios":"levelo://app?vid=b09bd2e6-89bc-4632-9330-22a09d7ac8f2"},"vehicle_type_id":"4","last_reported":1721657323,"current_range_meters":21200,"station_id":"ce4bh092rcd13ifvqd20","pricing_plan_id":"cebpf4jnsgd1na2vs0mg"},{"bike_id":"778ff92a-f163-4f48-8ec7-a40981b58322","system_id":"levelo_inurba_marseille","lat":43.290127,"lon":5.356255,"is_reserved":false,"is_disabled":false,"rental_uris":{"android":"levelo://app?vid=778ff92a-f163-4f48-8ec7-a40981b58322","ios":"levelo://app?vid=778ff92a-f163-4f48-8ec7-a40981b58322"},"vehicle_type_id":"4","last_reported":1721657323,"current_range_meters":14800,"station_id":"ce4bhb92rcd13ifvqen0","pricing_plan_id":"cebpf4jnsgd1na2vs0mg"},{"bike_id":"8f8001d7-924e-4003-89c5-0339554966c6","system_id":"levelo_inurba_marseille","lat":43.29004,"lon":5.35622,"is_reserved":false,"is_disabled":false,"rental_uris":{"android":"levelo://app?vid=8f8001d7-924e-4003-89c5-0339554966c6","ios":"levelo://app?vid=8f8001d7-924e-4003-89c5-0339554966c6"},"vehicle_type_id":"4","last_reported":1721657323,"current_range_meters":9600,"station_id":"ce4bhb92rcd13ifvqen0","pricing_plan_id":"cebpf4jnsgd1na2vs0mg"},{"bike_id":"21503cf7-2adc-45b2-8565-ccbaf4236188","system_id":"levelo_inurba_marseille","lat":43.29005,"lon":5.35616,"is_reserved":false,"is_disabled":false,"rental_uris":{"android":"levelo://app?vid=21503cf7-2adc-45b2-8565-ccbaf4236188","ios":"levelo://app?vid=21503cf7-2adc-45b2-8565-ccbaf4236188"},"vehicle_type_id":"4","last_reported":1721657323,"current_range_meters":9200,"station_id":"ce4bhb92rcd13ifvqen0","pricing_plan_id":"cebpf4jnsgd1na2vs0mg"},{"bike_id":"8a6fce7a-ee48-46fe-b64f-521921ffb677","system_id":"levelo_inurba_marseille","lat":43.29004,"lon":5.35616,"is_reserved":false,"is_disabled":false,"rental_uris":{"android":"levelo://app?vid=8a6fce7a-ee48-46fe-b64f-521921ffb677","ios":"levelo://app?vid=8a6fce7a-ee48-46fe-b64f-521921ffb677"},"vehicle_type_id":"4","last_reported":1721657323,"current_range_meters":2400,"station_id":"ce4bhb92rcd13ifvqen0","pricing_plan_id":"cebpf4jnsgd1na2vs0mg"},{"bike_id":"0ffef2fa-316a-4ed5-8198-5a023a1a9318","system_id":"levelo_inurba_marseille","lat":43.290103,"lon":5.356114,"is_reserved":false,"is_disabled":false,"rental_uris":{"android":"levelo://app?vid=0ffef2fa-316a-4ed5-8198-5a023a1a9318","ios":"levelo://app?vid=0ffef2fa-316a-4ed5-8198-5a023a1a9318"},"vehicle_type_id":"4","last_reported":1721657323,"current_range_meters":31200,"station_id":"ce4bhb92rcd13ifvqen0","pricing_plan_id":"cebpf4jnsgd1na2vs0mg"},{"bike_id":"03ec9a53-5274-4aba-8e3e-3ece66b510d4","system_id":"levelo_inurba_marseille","lat":43.290104,"lon":5.356111,"is_reserved":false,"is_disabled":false,"rental_uris":{"android":"levelo://app?vid=03ec9a53-5274-4aba-8e3e-3ece66b510d4","ios":"levelo://app?vid=03ec9a53-5274-4aba-8e3e-3ece66b510d4"},"vehicle_type_id":"4","last_reported":1721657323,"current_range_meters":7600,"station_id":"ce4bhb92rcd13ifvqen0","pricing_plan_id":"cebpf4jnsgd1na2vs0mg"},{"bike_id":"9bdf07f2-01b5-4b23-9251-2792b5d52d88","system_id":"levelo_inurba_marseille","lat":43.290104,"lon":5.356111,"is_reserved":false,"is_disabled":false,"rental_uris":{"android":"levelo://app?vid=9bdf07f2-01b5-4b23-9251-2792b5d52d88","ios":"levelo://app?vid=9bdf07f2-01b5-4b23-9251-2792b5d52d88"},"vehicle_type_id":"4","last_reported":1721657323,"current_range_meters":26800,"station_id":"ce4bhb92rcd13ifvqen0","pricing_plan_id":"cebpf4jnsgd1na2vs0mg"},{"bike_id":"c9e2f2fe-2bab-4a11-8a32-c4e5e66a3a58","system_id":"levelo_inurba_marseille","lat":43.295169,"lon":5.390426,"is_reserved":false,"is_disabled":false,"rental_uris":{"android":"levelo://app?vid=c9e2f2fe-2bab-4a11-8a32-c4e5e66a3a58","ios":"levelo://app?vid=c9e2f2fe-2bab-4a11-8a32-c4e5e66a3a58"},"vehicle_type_id":"4","last_reported":1721657323,"current_range_meters":20800,"station_id":"ce4bh3p2rcd13ifvqdp0","pricing_plan_id":"cebpf4jnsgd1na2vs0mg"},{"bike_id":"74af7cee-c74e-4b83-b180-a28d83747497","system_id":"levelo_inurba_marseille","lat":43.295169,"lon":5.390426,"is_reserved":false,"is_disabled":false,"rental_uris":{"android":"levelo://app?vid=74af7cee-c74e-4b83-b180-a28d83747497","ios":"levelo://app?vid=74af7cee-c74e-4b83-b180-a28d83747497"},"vehicle_type_id":"4","last_reported":1721657323,"current_range_meters":2400,"station_id":"ce4bh3p2rcd13ifvqdp0","pricing_plan_id":"cebpf4jnsgd1na2vs0mg"},{"bike_id":"b60e841f-21cc-4579-b997-2a6773d8b266","system_id":"levelo_inurba_marseille","lat":43.295169,"lon":5.390426,"is_reserved":false,"is_disabled":false,"rental_uris":{"android":"levelo://app?vid=b60e841f-21cc-4579-b997-2a6773d8b266","ios":"levelo://app?vid=b60e841f-21cc-4579-b997-2a6773d8b266"},"vehicle_type_id":"4","last_reported":1721657323,"current_range_meters":26000,"station_id":"ce4bh3p2rcd13ifvqdp0","pricing_plan_id":"cebpf4jnsgd1na2vs0mg"},{"bike_id":"7532e843-bea3-413f-b73b-3d9bd49346df","system_id":"levelo_inurba_marseille","lat":43.289741,"lon":5.378306,"is_reserved":false,"is_disabled":false,"rental_uris":{"android":"levelo://app?vid=7532e843-bea3-413f-b73b-3d9bd49346df","ios":"levelo://app?vid=7532e843-bea3-413f-b73b-3d9bd49346df"},"vehicle_type_id":"4","last_reported":1721657323,"current_range_meters":5200,"station_id":"ce4bh9p2rcd13ifvqed0","pricing_plan_id":"cebpf4jnsgd1na2vs0mg"},{"bike_id":"e3a94db4-0088-4c6c-b921-9c7de04efd17","system_id":"levelo_inurba_marseille","lat":43.330442,"lon":5.389148,"is_reserved":false,"is_disabled":false,"rental_uris":{"android":"levelo://app?vid=e3a94db4-0088-4c6c-b921-9c7de04efd17","ios":"levelo://app?vid=e3a94db4-0088-4c6c-b921-9c7de04efd17"},"vehicle_type_id":"4","last_reported":1721657323,"current_range_meters":28000,"station_id":"ce4bhr92rcd13ifvqhrg","pricing_plan_id":"cebpf4jnsgd1na2vs0mg"},{"bike_id":"db7346cb-212e-4d82-95e3-e815ab162370","system_id":"levelo_inurba_marseille","lat":43.31074,"lon":5.40089,"is_reserved":false,"is_disabled":false,"rental_uris":{"android":"levelo://app?vid=db7346cb-212e-4d82-95e3-e815ab162370","ios":"levelo://app?vid=db7346cb-212e-4d82-95e3-e815ab162370"},"vehicle_type_id":"4","last_reported":1721657323,"current_range_meters":31200,"station_id":"","pricing_plan_id":"cebpf4jnsgd1na2vs0mg"},{"bike_id":"cd0a8744-497f-4936-9998-8a2135ab3e31","system_id":"levelo_inurba_marseille","lat":43.310672,"lon":5.400888,"is_reserved":false,"is_disabled":false,"rental_uris":{"android":"levelo://app?vid=cd0a8744-497f-4936-9998-8a2135ab3e31","ios":"levelo://app?vid=cd0a8744-497f-4936-9998-8a2135ab3e31"},"vehicle_type_id":"4","last_reported":1721657323,"current_range_meters":25200,"station_id":"","pricing_plan_id":"cebpf4jnsgd1na2vs0mg"},{"bike_id":"e7a7f472-b1a3-4dbf-879f-34d5d3e08fc8","system_id":"levelo_inurba_marseille","lat":43.28856,"lon":5.358371,"is_reserved":false,"is_disabled":false,"rental_uris":{"android":"levelo://app?vid=e7a7f472-b1a3-4dbf-879f-34d5d3e08fc8","ios":"levelo://app?vid=e7a7f472-b1a3-4dbf-879f-34d5d3e08fc8"},"vehicle_type_id":"4","last_reported":1721657323,"current_range_meters":10000,"station_id":"ce4bhb12rcd13ifvqem0","pricing_plan_id":"cebpf4jnsgd1na2vs0mg"},{"bike_id":"f1bb4354-a56e-4f11-a4c5-ff361d039aa2","system_id":"levelo_inurba_marseille","lat":43.28856,"lon":5.358371,"is_reserved":false,"is_disabled":false,"rental_uris":{"android":"levelo://app?vid=f1bb4354-a56e-4f11-a4c5-ff361d039aa2","ios":"levelo://app?vid=f1bb4354-a56e-4f11-a4c5-ff361d039aa2"},"vehicle_type_id":"4","last_reported":1721657323,"current_range_meters":18400,"station_id":"ce4bhb12rcd13ifvqem0","pricing_plan_id":"cebpf4jnsgd1na2vs0mg"},{"bike_id":"8aad4b3a-5383-408e-ab3c-637816395348","system_id":"levelo_inurba_marseille","lat":43.33746,"lon":5.37455,"is_reserved":false,"is_disabled":false,"rental_uris":{"android":"levelo://app?vid=8aad4b3a-5383-408e-ab3c-637816395348","ios":"levelo://app?vid=8aad4b3a-5383-408e-ab3c-637816395348"},"vehicle_type_id":"4","last_reported":1721657323,"current_range_meters":21200,"station_id":"","pricing_plan_id":"cebpf4jnsgd1na2vs0mg"},{"bike_id":"d30176d3-57cf-4662-85ac-4d2def454fa4","system_id":"levelo_inurba_marseille","lat":43.337497,"lon":5.374523,"is_reserved":false,"is_disabled":false,"rental_uris":{"android":"levelo://app?vid=d30176d3-57cf-4662-85ac-4d2def454fa4","ios":"levelo://app?vid=d30176d3-57cf-4662-85ac-4d2def454fa4"},"vehicle_type_id":"4","last_reported":1721657323,"current_range_meters":27200,"station_id":"","pricing_plan_id":"cebpf4jnsgd1na2vs0mg"},{"bike_id":"2fa75b7e-def1-4555-95f4-25083259dc68","system_id":"levelo_inurba_marseille","lat":43.3375,"lon":5.37451,"is_reserved":false,"is_disabled":false,"rental_uris":{"android":"levelo://app?vid=2fa75b7e-def1-4555-95f4-25083259dc68","ios":"levelo://app?vid=2fa75b7e-def1-4555-95f4-25083259dc68"},"vehicle_type_id":"4","last_reported":1721657323,"current_range_meters":22000,"station_id":"","pricing_plan_id":"cebpf4jnsgd1na2vs0mg"},{"bike_id":"729da992-572f-4e25-b807-f56a27b5dd22","system_id":"levelo_inurba_marseille","lat":43.3375,"lon":5.37459,"is_reserved":false,"is_disabled":false,"rental_uris":{"android":"levelo://app?vid=729da992-572f-4e25-b807-f56a27b5dd22","ios":"levelo://app?vid=729da992-572f-4e25-b807-f56a27b5dd22"},"vehicle_type_id":"4","last_reported":1721657323,"current_range_meters":16400,"station_id":"","pricing_plan_id":"cebpf4jnsgd1na2vs0mg"},{"bike_id":"9f4f7a69-64d9-4e57-a016-472cdb89d3bd","system_id":"levelo_inurba_marseille","lat":43.33752,"lon":5.37451,"is_reserved":false,"is_disabled":false,"rental_uris":{"android":"levelo://app?vid=9f4f7a69-64d9-4e57-a016-472cdb89d3bd","ios":"levelo://app?vid=9f4f7a69-64d9-4e57-a016-472cdb89d3bd"},"vehicle_type_id":"4","last_reported":1721657323,"current_range_meters":24400,"station_id":"","pricing_plan_id":"cebpf4jnsgd1na2vs0mg"},{"bike_id":"192a866a-6f86-404d-812c-31129be9ed74","system_id":"levelo_inurba_marseille","lat":43.33755,"lon":5.37443,"is_reserved":false,"is_disabled":false,"rental_uris":{"android":"levelo://app?vid=192a866a-6f86-404d-812c-31129be9ed74","ios":"levelo://app?vid=192a866a-6f86-404d-812c-31129be9ed74"},"vehicle_type_id":"4","last_reported":1721657323,"current_range_meters":28000,"station_id":"","pricing_plan_id":"cebpf4jnsgd1na2vs0mg"},{"bike_id":"4eaef2c7-71f5-4744-ab23-cf70bd4039ee","system_id":"levelo_inurba_marseille","lat":43.33757,"lon":5.37448,"is_reserved":false,"is_disabled":false,"rental_uris":{"android":"levelo://app?vid=4eaef2c7-71f5-4744-ab23-cf70bd4039ee","ios":"levelo://app?vid=4eaef2c7-71f5-4744-ab23-cf70bd4039ee"},"vehicle_type_id":"4","last_reported":1721657323,"current_range_meters":26000,"station_id":"","pricing_plan_id":"cebpf4jnsgd1na2vs0mg"},{"bike_id":"5597d3ad-9e62-46fc-b8ff-1ca2163dbd74","system_id":"levelo_inurba_marseille","lat":43.33755,"lon":5.37483,"is_reserved":false,"is_disabled":false,"rental_uris":{"android":"levelo://app?vid=5597d3ad-9e62-46fc-b8ff-1ca2163dbd74","ios":"levelo://app?vid=5597d3ad-9e62-46fc-b8ff-1ca2163dbd74"},"vehicle_type_id":"4","last_reported":1721657323,"current_range_meters":24800,"station_id":"","pricing_plan_id":"cebpf4jnsgd1na2vs0mg"},{"bike_id":"20fb4239-4500-493e-a7dd-f02af2e05993","system_id":"levelo_inurba_marseille","lat":43.316828,"lon":5.404723,"is_reserved":false,"is_disabled":false,"rental_uris":{"android":"levelo://app?vid=20fb4239-4500-493e-a7dd-f02af2e05993","ios":"levelo://app?vid=20fb4239-4500-493e-a7dd-f02af2e05993"},"vehicle_type_id":"4","last_reported":1721657323,"current_range_meters":16000,"station_id":"ce4bh012rcd13ifvqd00","pricing_plan_id":"cebpf4jnsgd1na2vs0mg"},{"bike_id":"c4ce72ca-0e56-44bd-9174-b736aa813456","system_id":"levelo_inurba_marseille","lat":43.301117,"lon":5.398795,"is_reserved":false,"is_disabled":false,"rental_uris":{"android":"levelo://app?vid=c4ce72ca-0e56-44bd-9174-b736aa813456","ios":"levelo://app?vid=c4ce72ca-0e56-44bd-9174-b736aa813456"},"vehicle_type_id":"4","last_reported":1721657323,"current_range_meters":22400,"station_id":"ce4bh0h2rcd13ifvqd40","pricing_plan_id":"cebpf4jnsgd1na2vs0mg"},{"bike_id":"11b987f4-0495-48ca-bc3d-4047438520c0","system_id":"levelo_inurba_marseille","lat":43.301117,"lon":5.398795,"is_reserved":false,"is_disabled":false,"rental_uris":{"android":"levelo://app?vid=11b987f4-0495-48ca-bc3d-4047438520c0","ios":"levelo://app?vid=11b987f4-0495-48ca-bc3d-4047438520c0"},"vehicle_type_id":"4","last_reported":1721657323,"current_range_meters":4400,"station_id":"ce4bh0h2rcd13ifvqd40","pricing_plan_id":"cebpf4jnsgd1na2vs0mg"},{"bike_id":"af633d78-1965-4737-ae16-999ccf8dc178","system_id":"levelo_inurba_marseille","lat":43.298681,"lon":5.397225,"is_reserved":false,"is_disabled":false,"rental_uris":{"android":"levelo://app?vid=af633d78-1965-4737-ae16-999ccf8dc178","ios":"levelo://app?vid=af633d78-1965-4737-ae16-999ccf8dc178"},"vehicle_type_id":"4","last_reported":1721657323,"current_range_meters":0,"station_id":"ce4bh0h2rcd13ifvqd50","pricing_plan_id":"cebpf4jnsgd1na2vs0mg"},{"bike_id":"d6731ada-99d4-457c-b207-1e8b5ecc3af9","system_id":"levelo_inurba_marseille","lat":43.286593,"lon":5.363346,"is_reserved":false,"is_disabled":false,"rental_uris":{"android":"levelo://app?vid=d6731ada-99d4-457c-b207-1e8b5ecc3af9","ios":"levelo://app?vid=d6731ada-99d4-457c-b207-1e8b5ecc3af9"},"vehicle_type_id":"4","last_reported":1721657323,"current_range_meters":21600,"station_id":"ce4bhah2rcd13ifvqej0","pricing_plan_id":"cebpf4jnsgd1na2vs0mg"},{"bike_id":"8be8f967-f247-426b-ad85-dd9624bee7fa","system_id":"levelo_inurba_marseille","lat":43.298681,"lon":5.397225,"is_reserved":false,"is_disabled":false,"rental_uris":{"android":"levelo://app?vid=8be8f967-f247-426b-ad85-dd9624bee7fa","ios":"levelo://app?vid=8be8f967-f247-426b-ad85-dd9624bee7fa"},"vehicle_type_id":"4","last_reported":1721657323,"current_range_meters":7200,"station_id":"ce4bh0h2rcd13ifvqd50","pricing_plan_id":"cebpf4jnsgd1na2vs0mg"},{"bike_id":"eb2a5b96-94bc-46e3-952a-31edbd8cfb82","system_id":"levelo_inurba_marseille","lat":43.298681,"lon":5.397225,"is_reserved":false,"is_disabled":false,"rental_uris":{"android":"levelo://app?vid=eb2a5b96-94bc-46e3-952a-31edbd8cfb82","ios":"levelo://app?vid=eb2a5b96-94bc-46e3-952a-31edbd8cfb82"},"vehicle_type_id":"4","last_reported":1721657323,"current_range_meters":3600,"station_id":"ce4bh0h2rcd13ifvqd50","pricing_plan_id":"cebpf4jnsgd1na2vs0mg"},{"bike_id":"61081be3-500e-4a03-b13a-c68298897119","system_id":"levelo_inurba_marseille","lat":43.298681,"lon":5.397225,"is_reserved":false,"is_disabled":false,"rental_uris":{"android":"levelo://app?vid=61081be3-500e-4a03-b13a-c68298897119","ios":"levelo://app?vid=61081be3-500e-4a03-b13a-c68298897119"},"vehicle_type_id":"4","last_reported":1721657323,"current_range_meters":30800,"station_id":"ce4bh0h2rcd13ifvqd50","pricing_plan_id":"cebpf4jnsgd1na2vs0mg"},{"bike_id":"6e91fd91-a2c1-492a-9fda-d4de62a75286","system_id":"levelo_inurba_marseille","lat":43.286039,"lon":5.370679,"is_reserved":false,"is_disabled":false,"rental_uris":{"android":"levelo://app?vid=6e91fd91-a2c1-492a-9fda-d4de62a75286","ios":"levelo://app?vid=6e91fd91-a2c1-492a-9fda-d4de62a75286"},"vehicle_type_id":"4","last_reported":1721657323,"current_range_meters":9600,"station_id":"ce4bht12rcd13ifvqi60","pricing_plan_id":"cebpf4jnsgd1na2vs0mg"},{"bike_id":"190dd753-2efa-4b4c-ba88-3a928b538498","system_id":"levelo_inurba_marseille","lat":43.30257,"lon":5.40052,"is_reserved":false,"is_disabled":false,"rental_uris":{"android":"levelo://app?vid=190dd753-2efa-4b4c-ba88-3a928b538498","ios":"levelo://app?vid=190dd753-2efa-4b4c-ba88-3a928b538498"},"vehicle_type_id":"4","last_reported":1721657323,"current_range_meters":22000,"station_id":"ce4bgvh2rcd13ifvqcs0","pricing_plan_id":"cebpf4jnsgd1na2vs0mg"},{"bike_id":"cceb58ad-c78a-4d4e-9062-c05a08011d05","system_id":"levelo_inurba_marseille","lat":43.290336,"lon":5.386425,"is_reserved":false,"is_disabled":false,"rental_uris":{"android":"levelo://app?vid=cceb58ad-c78a-4d4e-9062-c05a08011d05","ios":"levelo://app?vid=cceb58ad-c78a-4d4e-9062-c05a08011d05"},"vehicle_type_id":"4","last_reported":1721657323,"current_range_meters":0,"station_id":"ce4bh4p2rcd13ifvqe0g","pricing_plan_id":"cebpf4jnsgd1na2vs0mg"},{"bike_id":"7800b4fc-ad58-4feb-a085-923e4ca57ef9","system_id":"levelo_inurba_marseille","lat":43.290336,"lon":5.386425,"is_reserved":false,"is_disabled":false,"rental_uris":{"android":"levelo://app?vid=7800b4fc-ad58-4feb-a085-923e4ca57ef9","ios":"levelo://app?vid=7800b4fc-ad58-4feb-a085-923e4ca57ef9"},"vehicle_type_id":"4","last_reported":1721657323,"current_range_meters":12800,"station_id":"ce4bh4p2rcd13ifvqe0g","pricing_plan_id":"cebpf4jnsgd1na2vs0mg"},{"bike_id":"0ad86a96-9980-469c-b0ab-5fcc57a30c93","system_id":"levelo_inurba_marseille","lat":43.316828,"lon":5.404723,"is_reserved":false,"is_disabled":false,"rental_uris":{"android":"levelo://app?vid=0ad86a96-9980-469c-b0ab-5fcc57a30c93","ios":"levelo://app?vid=0ad86a96-9980-469c-b0ab-5fcc57a30c93"},"vehicle_type_id":"4","last_reported":1721657323,"current_range_meters":21600,"station_id":"ce4bh012rcd13ifvqd00","pricing_plan_id":"cebpf4jnsgd1na2vs0mg"},{"bike_id":"2697ab78-57bb-429a-8114-4c9672fd82a5","system_id":"levelo_inurba_marseille","lat":43.316828,"lon":5.404723,"is_reserved":false,"is_disabled":false,"rental_uris":{"android":"levelo://app?vid=2697ab78-57bb-429a-8114-4c9672fd82a5","ios":"levelo://app?vid=2697ab78-57bb-429a-8114-4c9672fd82a5"},"vehicle_type_id":"4","last_reported":1721657323,"current_range_meters":4400,"station_id":"ce4bh012rcd13ifvqd00","pricing_plan_id":"cebpf4jnsgd1na2vs0mg"},{"bike_id":"841d11d0-3dfc-4eb0-9e97-d312bf968bfa","system_id":"levelo_inurba_marseille","lat":43.316821,"lon":5.404737,"is_reserved":false,"is_disabled":false,"rental_uris":{"android":"levelo://app?vid=841d11d0-3dfc-4eb0-9e97-d312bf968bfa","ios":"levelo://app?vid=841d11d0-3dfc-4eb0-9e97-d312bf968bfa"},"vehicle_type_id":"4","last_reported":1721657323,"current_range_meters":12000,"station_id":"ce4bh012rcd13ifvqd00","pricing_plan_id":"cebpf4jnsgd1na2vs0mg"},{"bike_id":"5c9f76a3-3fe1-4c2d-8f82-22274f82848f","system_id":"levelo_inurba_marseille","lat":43.284534,"lon":5.358662,"is_reserved":false,"is_disabled":false,"rental_uris":{"android":"levelo://app?vid=5c9f76a3-3fe1-4c2d-8f82-22274f82848f","ios":"levelo://app?vid=5c9f76a3-3fe1-4c2d-8f82-22274f82848f"},"vehicle_type_id":"4","last_reported":1721657323,"current_range_meters":16400,"station_id":"ce4bhah2rcd13ifvqei0","pricing_plan_id":"cebpf4jnsgd1na2vs0mg"},{"bike_id":"f5c0c354-b433-4638-9461-7b8ed5505ce1","system_id":"levelo_inurba_marseille","lat":43.284538,"lon":5.358657,"is_reserved":false,"is_disabled":false,"rental_uris":{"android":"levelo://app?vid=f5c0c354-b433-4638-9461-7b8ed5505ce1","ios":"levelo://app?vid=f5c0c354-b433-4638-9461-7b8ed5505ce1"},"vehicle_type_id":"4","last_reported":1721657323,"current_range_meters":10400,"station_id":"ce4bhah2rcd13ifvqei0","pricing_plan_id":"cebpf4jnsgd1na2vs0mg"},{"bike_id":"1991cad6-08fa-4f93-87e8-0c24f35f800c","system_id":"levelo_inurba_marseille","lat":43.294314,"lon":5.397498,"is_reserved":false,"is_disabled":false,"rental_uris":{"android":"levelo://app?vid=1991cad6-08fa-4f93-87e8-0c24f35f800c","ios":"levelo://app?vid=1991cad6-08fa-4f93-87e8-0c24f35f800c"},"vehicle_type_id":"4","last_reported":1721657323,"current_range_meters":13200,"station_id":"ce4bh3h2rcd13ifvqdo0","pricing_plan_id":"cebpf4jnsgd1na2vs0mg"},{"bike_id":"dbdf25c0-12e8-4b4f-be43-32b56fc0fda3","system_id":"levelo_inurba_marseille","lat":43.28619,"lon":5.3512,"is_reserved":false,"is_disabled":false,"rental_uris":{"android":"levelo://app?vid=dbdf25c0-12e8-4b4f-be43-32b56fc0fda3","ios":"levelo://app?vid=dbdf25c0-12e8-4b4f-be43-32b56fc0fda3"},"vehicle_type_id":"4","last_reported":1721657323,"current_range_meters":6400,"station_id":"ce4bhch2rcd13ifvqeug","pricing_plan_id":"cebpf4jnsgd1na2vs0mg"},{"bike_id":"e7742d52-9602-47d8-b20d-fd6bfc38e65b","system_id":"levelo_inurba_marseille","lat":43.285856,"lon":5.350771,"is_reserved":false,"is_disabled":false,"rental_uris":{"android":"levelo://app?vid=e7742d52-9602-47d8-b20d-fd6bfc38e65b","ios":"levelo://app?vid=e7742d52-9602-47d8-b20d-fd6bfc38e65b"},"vehicle_type_id":"4","last_reported":1721657323,"current_range_meters":19600,"station_id":"ce4bhch2rcd13ifvqeug","pricing_plan_id":"cebpf4jnsgd1na2vs0mg"},{"bike_id":"3e2a386a-7d47-4d2c-b20b-8afb5b6c7601","system_id":"levelo_inurba_marseille","lat":43.285856,"lon":5.350771,"is_reserved":false,"is_disabled":false,"rental_uris":{"android":"levelo://app?vid=3e2a386a-7d47-4d2c-b20b-8afb5b6c7601","ios":"levelo://app?vid=3e2a386a-7d47-4d2c-b20b-8afb5b6c7601"},"vehicle_type_id":"4","last_reported":1721657323,"current_range_meters":24000,"station_id":"ce4bhch2rcd13ifvqeug","pricing_plan_id":"cebpf4jnsgd1na2vs0mg"},{"bike_id":"a7f64a50-b1e4-40a3-aaae-4e05cb78ff0a","system_id":"levelo_inurba_marseille","lat":43.285856,"lon":5.350771,"is_reserved":false,"is_disabled":false,"rental_uris":{"android":"levelo://app?vid=a7f64a50-b1e4-40a3-aaae-4e05cb78ff0a","ios":"levelo://app?vid=a7f64a50-b1e4-40a3-aaae-4e05cb78ff0a"},"vehicle_type_id":"4","last_reported":1721657323,"current_range_meters":9600,"station_id":"ce4bhch2rcd13ifvqeug","pricing_plan_id":"cebpf4jnsgd1na2vs0mg"},{"bike_id":"23151d61-fb34-4843-9c4a-5a796309c21c","system_id":"levelo_inurba_marseille","lat":43.285856,"lon":5.350771,"is_reserved":false,"is_disabled":false,"rental_uris":{"android":"levelo://app?vid=23151d61-fb34-4843-9c4a-5a796309c21c","ios":"levelo://app?vid=23151d61-fb34-4843-9c4a-5a796309c21c"},"vehicle_type_id":"4","last_reported":1721657323,"current_range_meters":12000,"station_id":"ce4bhch2rcd13ifvqeug","pricing_plan_id":"cebpf4jnsgd1na2vs0mg"},{"bike_id":"7ce2d101-6a5e-4c7d-8889-2dce6c184269","system_id":"levelo_inurba_marseille","lat":43.285856,"lon":5.350771,"is_reserved":false,"is_disabled":false,"rental_uris":{"android":"levelo://app?vid=7ce2d101-6a5e-4c7d-8889-2dce6c184269","ios":"levelo://app?vid=7ce2d101-6a5e-4c7d-8889-2dce6c184269"},"vehicle_type_id":"4","last_reported":1721657323,"current_range_meters":28000,"station_id":"ce4bhch2rcd13ifvqeug","pricing_plan_id":"cebpf4jnsgd1na2vs0mg"},{"bike_id":"29e9a51a-95c5-406f-87e4-6127a5a054b4","system_id":"levelo_inurba_marseille","lat":43.285856,"lon":5.350771,"is_reserved":false,"is_disabled":false,"rental_uris":{"android":"levelo://app?vid=29e9a51a-95c5-406f-87e4-6127a5a054b4","ios":"levelo://app?vid=29e9a51a-95c5-406f-87e4-6127a5a054b4"},"vehicle_type_id":"4","last_reported":1721657323,"current_range_meters":0,"station_id":"ce4bhch2rcd13ifvqeug","pricing_plan_id":"cebpf4jnsgd1na2vs0mg"},{"bike_id":"da4e4da4-a19c-4645-92aa-dbfc325150de","system_id":"levelo_inurba_marseille","lat":43.285848,"lon":5.350787,"is_reserved":false,"is_disabled":false,"rental_uris":{"android":"levelo://app?vid=da4e4da4-a19c-4645-92aa-dbfc325150de","ios":"levelo://app?vid=da4e4da4-a19c-4645-92aa-dbfc325150de"},"vehicle_type_id":"4","last_reported":1721657323,"current_range_meters":25600,"station_id":"ce4bhch2rcd13ifvqeug","pricing_plan_id":"cebpf4jnsgd1na2vs0mg"},{"bike_id":"b332d821-f29a-4ac0-8dec-8c2c8450232b","system_id":"levelo_inurba_marseille","lat":43.285856,"lon":5.350771,"is_reserved":false,"is_disabled":false,"rental_uris":{"android":"levelo://app?vid=b332d821-f29a-4ac0-8dec-8c2c8450232b","ios":"levelo://app?vid=b332d821-f29a-4ac0-8dec-8c2c8450232b"},"vehicle_type_id":"4","last_reported":1721657323,"current_range_meters":6400,"station_id":"ce4bhch2rcd13ifvqeug","pricing_plan_id":"cebpf4jnsgd1na2vs0mg"},{"bike_id":"e5291535-43cd-4072-9083-7762706cc7ce","system_id":"levelo_inurba_marseille","lat":43.285856,"lon":5.350771,"is_reserved":false,"is_disabled":false,"rental_uris":{"android":"levelo://app?vid=e5291535-43cd-4072-9083-7762706cc7ce","ios":"levelo://app?vid=e5291535-43cd-4072-9083-7762706cc7ce"},"vehicle_type_id":"4","last_reported":1721657323,"current_range_meters":20800,"station_id":"ce4bhch2rcd13ifvqeug","pricing_plan_id":"cebpf4jnsgd1na2vs0mg"},{"bike_id":"ecf70f86-2a87-4825-98e6-42db1f69efaa","system_id":"levelo_inurba_marseille","lat":43.28679,"lon":5.386483,"is_reserved":false,"is_disabled":false,"rental_uris":{"android":"levelo://app?vid=ecf70f86-2a87-4825-98e6-42db1f69efaa","ios":"levelo://app?vid=ecf70f86-2a87-4825-98e6-42db1f69efaa"},"vehicle_type_id":"4","last_reported":1721657323,"current_range_meters":0,"station_id":"ce4bh492rcd13ifvqdug","pricing_plan_id":"cebpf4jnsgd1na2vs0mg"},{"bike_id":"cda8d0dd-5394-4c93-9b77-535a4fde548e","system_id":"levelo_inurba_marseille","lat":43.319179,"lon":5.407725,"is_reserved":false,"is_disabled":false,"rental_uris":{"android":"levelo://app?vid=cda8d0dd-5394-4c93-9b77-535a4fde548e","ios":"levelo://app?vid=cda8d0dd-5394-4c93-9b77-535a4fde548e"},"vehicle_type_id":"4","last_reported":1721657323,"current_range_meters":29200,"station_id":"ce4bhq12rcd13ifvqhig","pricing_plan_id":"cebpf4jnsgd1na2vs0mg"},{"bike_id":"8d0581f1-b781-40f0-84c9-4e45fa690f2a","system_id":"levelo_inurba_marseille","lat":43.337232,"lon":5.391829,"is_reserved":false,"is_disabled":false,"rental_uris":{"android":"levelo://app?vid=8d0581f1-b781-40f0-84c9-4e45fa690f2a","ios":"levelo://app?vid=8d0581f1-b781-40f0-84c9-4e45fa690f2a"},"vehicle_type_id":"4","last_reported":1721657323,"current_range_meters":16000,"station_id":"ce4bhr92rcd13ifvqhsg","pricing_plan_id":"cebpf4jnsgd1na2vs0mg"},{"bike_id":"c5b52362-45cf-45a0-8407-e7339c4a07c2","system_id":"levelo_inurba_marseille","lat":43.3234,"lon":5.40618,"is_reserved":false,"is_disabled":false,"rental_uris":{"android":"levelo://app?vid=c5b52362-45cf-45a0-8407-e7339c4a07c2","ios":"levelo://app?vid=c5b52362-45cf-45a0-8407-e7339c4a07c2"},"vehicle_type_id":"4","last_reported":1721657323,"current_range_meters":10400,"station_id":"ce4bhq92rcd13ifvqhjg","pricing_plan_id":"cebpf4jnsgd1na2vs0mg"},{"bike_id":"f4157c3b-8a17-4c8c-b8de-3d03e35728a0","system_id":"levelo_inurba_marseille","lat":43.33717,"lon":5.391857,"is_reserved":false,"is_disabled":false,"rental_uris":{"android":"levelo://app?vid=f4157c3b-8a17-4c8c-b8de-3d03e35728a0","ios":"levelo://app?vid=f4157c3b-8a17-4c8c-b8de-3d03e35728a0"},"vehicle_type_id":"4","last_reported":1721657323,"current_range_meters":29600,"station_id":"ce4bhr92rcd13ifvqhsg","pricing_plan_id":"cebpf4jnsgd1na2vs0mg"},{"bike_id":"e77073b4-b37c-4e98-83f1-5a3945820abf","system_id":"levelo_inurba_marseille","lat":43.337168,"lon":5.391825,"is_reserved":false,"is_disabled":false,"rental_uris":{"android":"levelo://app?vid=e77073b4-b37c-4e98-83f1-5a3945820abf","ios":"levelo://app?vid=e77073b4-b37c-4e98-83f1-5a3945820abf"},"vehicle_type_id":"4","last_reported":1721657323,"current_range_meters":25600,"station_id":"ce4bhr92rcd13ifvqhsg","pricing_plan_id":"cebpf4jnsgd1na2vs0mg"},{"bike_id":"38eae32d-5805-4b37-9f68-7b97692c7d8f","system_id":"levelo_inurba_marseille","lat":43.32335,"lon":5.40626,"is_reserved":false,"is_disabled":false,"rental_uris":{"android":"levelo://app?vid=38eae32d-5805-4b37-9f68-7b97692c7d8f","ios":"levelo://app?vid=38eae32d-5805-4b37-9f68-7b97692c7d8f"},"vehicle_type_id":"4","last_reported":1721657323,"current_range_meters":11600,"station_id":"ce4bhq92rcd13ifvqhjg","pricing_plan_id":"cebpf4jnsgd1na2vs0mg"},{"bike_id":"3d2a829e-bb79-4e68-8975-83d3bc392cd0","system_id":"levelo_inurba_marseille","lat":43.323464,"lon":5.406297,"is_reserved":false,"is_disabled":false,"rental_uris":{"android":"levelo://app?vid=3d2a829e-bb79-4e68-8975-83d3bc392cd0","ios":"levelo://app?vid=3d2a829e-bb79-4e68-8975-83d3bc392cd0"},"vehicle_type_id":"4","last_reported":1721657323,"current_range_meters":10000,"station_id":"ce4bhq92rcd13ifvqhjg","pricing_plan_id":"cebpf4jnsgd1na2vs0mg"},{"bike_id":"867719cc-093b-4e23-89c4-3f12626821d8","system_id":"levelo_inurba_marseille","lat":43.323517,"lon":5.406227,"is_reserved":false,"is_disabled":false,"rental_uris":{"android":"levelo://app?vid=867719cc-093b-4e23-89c4-3f12626821d8","ios":"levelo://app?vid=867719cc-093b-4e23-89c4-3f12626821d8"},"vehicle_type_id":"4","last_reported":1721657323,"current_range_meters":19200,"station_id":"ce4bhq92rcd13ifvqhjg","pricing_plan_id":"cebpf4jnsgd1na2vs0mg"},{"bike_id":"dd2b08c0-5cec-42c0-8d64-a5e2946a8786","system_id":"levelo_inurba_marseille","lat":43.288497,"lon":5.393089,"is_reserved":false,"is_disabled":false,"rental_uris":{"android":"levelo://app?vid=dd2b08c0-5cec-42c0-8d64-a5e2946a8786","ios":"levelo://app?vid=dd2b08c0-5cec-42c0-8d64-a5e2946a8786"},"vehicle_type_id":"4","last_reported":1721657323,"current_range_meters":7200,"station_id":"ce4bh2p2rcd13ifvqdi0","pricing_plan_id":"cebpf4jnsgd1na2vs0mg"},{"bike_id":"f9a43cc8-3e88-47c2-93a8-f61ff586b2f2","system_id":"levelo_inurba_marseille","lat":43.284386,"lon":5.349928,"is_reserved":false,"is_disabled":false,"rental_uris":{"android":"levelo://app?vid=f9a43cc8-3e88-47c2-93a8-f61ff586b2f2","ios":"levelo://app?vid=f9a43cc8-3e88-47c2-93a8-f61ff586b2f2"},"vehicle_type_id":"4","last_reported":1721657323,"current_range_meters":28000,"station_id":"ce4bhbh2rcd13ifvqepg","pricing_plan_id":"cebpf4jnsgd1na2vs0mg"},{"bike_id":"ea2f1790-d143-455e-a743-35cab750887c","system_id":"levelo_inurba_marseille","lat":43.284219,"lon":5.3497,"is_reserved":false,"is_disabled":false,"rental_uris":{"android":"levelo://app?vid=ea2f1790-d143-455e-a743-35cab750887c","ios":"levelo://app?vid=ea2f1790-d143-455e-a743-35cab750887c"},"vehicle_type_id":"4","last_reported":1721657323,"current_range_meters":22400,"station_id":"ce4bhbh2rcd13ifvqepg","pricing_plan_id":"cebpf4jnsgd1na2vs0mg"},