{"last_updated":1726261648,"ttl":30,"version":"2.2","data":{"bikes":[{"bike_id":"bc35aeaa-3e4d-43e6-9935-c8f1110a4b4c","system_id":"levelo_inurba_marseille","lat":43.30503,"lon":5.3672,"is_reserved":false,"is_disabled":false,"rental_uris":{"android":"levelo://app?vid=bc35aeaa-3e4d-43e6-9935-c8f1110a4b4c","ios":"levelo://app?vid=bc35aeaa-3e4d-43e6-9935-c8f1110a4b4c"},"vehicle_type_id":"4","last_reported":1726261648,"current_range_meters":36400,"station_id":"ce4bgrp2rcd13ifvqc9g","pricing_plan_id":"cebpf4jnsgd1na2vs0mg"},{"bike_id":"bc7c698c-70a7-4d45-8de4-c94801319b35","system_id":"levelo_inurba_marseille","lat":43.32371,"lon":5.38891,"is_reserved":false,"is_disabled":false,"rental_uris":{"android":"levelo://app?vid=bc7c698c-70a7-4d45-8de4-c94801319b35","ios":"levelo://app?vid=bc7c698c-70a7-4d45-8de4-c94801319b35"},"vehicle_type_id":"4","last_reported":1726261648,"current_range_meters":6800,"station_id":"ce4bhqp2rcd13ifvqhog","pricing_plan_id":"cebpf4jnsgd1na2vs0mg"},{"bike_id":"274e7718-f745-4284-b422-749f37b7d936","system_id":"levelo_inurba_marseille","lat":43.29933,"lon":5.37466,"is_reserved":false,"is_disabled":false,"rental_uris":{"android":"levelo://app?vid=274e7718-f745-4284-b422-749f37b7d936","ios":"levelo://app?vid=274e7718-f745-4284-b422-749f37b7d936"},"vehicle_type_id":"4","last_reported":1726261648,"current_range_meters":39200,"station_id":"ce4bgjh2rcd13ifvqbg0","pricing_plan_id":"cebpf4jnsgd1na2vs0mg"},{"bike_id":"29991268-c98d-42d8-ba79-71d63e819b9f","system_id":"levelo_inurba_marseille","lat":43.2903,"lon":5.38648,"is_reserved":false,"is_disabled":false,"rental_uris":{"android":"levelo://app?vid=29991268-c98d-42d8-ba79-71d63e819b9f","ios":"levelo://app?vid=29991268-c98d-42d8-ba79-71d63e819b9f"},"vehicle_type_id":"4","last_reported":1726261648,"current_range_meters":32000,"station_id":"ce4bh4p2rcd13ifvqe0g","pricing_plan_id":"cebpf4jnsgd1na2vs0mg"},{"bike_id":"1433cc86-19c5-4d38-a0b5-c5c087739e0a","system_id":"levelo_inurba_marseille","lat":43.22932,"lon":5.35374,"is_reserved":false,"is_disabled":false,"rental_uris":{"android":"levelo://app?vid=1433cc86-19c5-4d38-a0b5-c5c087739e0a","ios":"levelo://app?vid=1433cc86-19c5-4d38-a0b5-c5c087739e0a"},"vehicle_type_id":"4","last_reported":1726261648,"current_range_meters":28800,"station_id":"cpo3532slgdg3j2ikp40","pricing_plan_id":"cebpf4jnsgd1na2vs0mg"},{"bike_id":"67468702-002a-4df5-9012-9c567f0d2e31","system_id":"levelo_inurba_marseille","lat":43.31749,"lon":5.39019,"is_reserved":false,"is_disabled":false,"rental_uris":{"android":"levelo://app?vid=67468702-002a-4df5-9012-9c567f0d2e31","ios":"levelo://app?vid=67468702-002a-4df5-9012-9c567f0d2e31"},"vehicle_type_id":"4","last_reported":1726261648,"current_range_meters":35600,"station_id":"ce4bhqp2rcd13ifvqhng","pricing_plan_id":"cebpf4jnsgd1na2vs0mg"},{"bike_id":"083984dd-1abd-4a7d-84c6-e8ceb7b63abe","system_id":"levelo_inurba_marseille","lat":43.31097,"lon":5.3778,"is_reserved":false,"is_disabled":false,"rental_uris":{"android":"levelo://app?vid=083984dd-1abd-4a7d-84c6-e8ceb7b63abe","ios":"levelo://app?vid=083984dd-1abd-4a7d-84c6-e8ceb7b63abe"},"vehicle_type_id":"4","last_reported":1726261648,"current_range_meters":38000,"station_id":"ce4bgt92rcd13ifvqcg0","pricing_plan_id":"cebpf4jnsgd1na2vs0mg"},{"bike_id":"e802c36c-f9eb-44d1-9d56-8ce605509b44","system_id":"levelo_inurba_marseille","lat":43.3056,"lon":5.36751,"is_reserved":false,"is_disabled":false,"rental_uris":{"android":"levelo://app?vid=e802c36c-f9eb-44d1-9d56-8ce605509b44","ios":"levelo://app?vid=e802c36c-f9eb-44d1-9d56-8ce605509b44"},"vehicle_type_id":"4","last_reported":1726261648,"current_range_meters":7200,"station_id":"ce4bgrp2rcd13ifvqc9g","pricing_plan_id":"cebpf4jnsgd1na2vs0mg"},{"bike_id":"f2aab370-6e0a-414f-a9aa-b82870be9ba4","system_id":"levelo_inurba_marseille","lat":43.28611,"lon":5.35103,"is_reserved":false,"is_disabled":false,"rental_uris":{"android":"levelo://app?vid=f2aab370-6e0a-414f-a9aa-b82870be9ba4","ios":"levelo://app?vid=f2aab370-6e0a-414f-a9aa-b82870be9ba4"},"vehicle_type_id":"4","last_reported":1726261648,"current_range_meters":20000,"station_id":"ce4bhch2rcd13ifvqeug","pricing_plan_id":"cebpf4jnsgd1na2vs0mg"},{"bike_id":"6166a61b-1bba-4734-8af6-77dc5dabf546","system_id":"levelo_inurba_marseille","lat":43.320166,"lon":5.381682,"is_reserved":false,"is_disabled":false,"rental_uris":{"android":"levelo://app?vid=6166a61b-1bba-4734-8af6-77dc5dabf546","ios":"levelo://app?vid=6166a61b-1bba-4734-8af6-77dc5dabf546"},"vehicle_type_id":"4","last_reported":1726261648,"current_range_meters":39200,"station_id":"ce4bhr12rcd13ifvqhpg","pricing_plan_id":"cebpf4jnsgd1na2vs0mg"},{"bike_id":"665f7f03-0587-4cd8-b27d-1a24a411b9f1","system_id":"levelo_inurba_marseille","lat":43.29534,"lon":5.38539,"is_reserved":false,"is_disabled":false,"rental_uris":{"android":"levelo://app?vid=665f7f03-0587-4cd8-b27d-1a24a411b9f1","ios":"levelo://app?vid=665f7f03-0587-4cd8-b27d-1a24a411b9f1"},"vehicle_type_id":"4","last_reported":1726261648,"current_range_meters":21600,"station_id":"ce4bgih2rcd13ifvqba0","pricing_plan_id":"cebpf4jnsgd1na2vs0mg"},{"bike_id":"d362d51d-5366-4644-a1ab-ebb7c7522b7d","system_id":"levelo_inurba_marseille","lat":43.25827,"lon":5.39433,"is_reserved":false,"is_disabled":false,"rental_uris":{"android":"levelo://app?vid=d362d51d-5366-4644-a1ab-ebb7c7522b7d","ios":"levelo://app?vid=d362d51d-5366-4644-a1ab-ebb7c7522b7d"},"vehicle_type_id":"4","last_reported":1726261648,"current_range_meters":8400,"station_id":"ce4bhip2rcd13ifvqft0","pricing_plan_id":"cebpf4jnsgd1na2vs0mg"},{"bike_id":"c5ed8bab-12e3-4101-81bb-39350c57310d","system_id":"levelo_inurba_marseille","lat":43.24169,"lon":5.36399,"is_reserved":false,"is_disabled":false,"rental_uris":{"android":"levelo://app?vid=c5ed8bab-12e3-4101-81bb-39350c57310d","ios":"levelo://app?vid=c5ed8bab-12e3-4101-81bb-39350c57310d"},"vehicle_type_id":"4","last_reported":1726261648,"current_range_meters":36800,"station_id":"cpo36qri1sfpv3e86is0","pricing_plan_id":"cebpf4jnsgd1na2vs0mg"},{"bike_id":"57078c0b-9beb-4ca6-9619-12066e4ed91f","system_id":"levelo_inurba_marseille","lat":43.31754,"lon":5.3902,"is_reserved":false,"is_disabled":false,"rental_uris":{"android":"levelo://app?vid=57078c0b-9beb-4ca6-9619-12066e4ed91f","ios":"levelo://app?vid=57078c0b-9beb-4ca6-9619-12066e4ed91f"},"vehicle_type_id":"4","last_reported":1726261648,"current_range_meters":38800,"station_id":"ce4bhqp2rcd13ifvqhng","pricing_plan_id":"cebpf4jnsgd1na2vs0mg"},{"bike_id":"d4c7a17b-e685-4b20-8b89-17db2d6b2379","system_id":"levelo_inurba_marseille","lat":43.28001,"lon":5.40004,"is_reserved":false,"is_disabled":false,"rental_uris":{"android":"levelo://app?vid=d4c7a17b-e685-4b20-8b89-17db2d6b2379","ios":"levelo://app?vid=d4c7a17b-e685-4b20-8b89-17db2d6b2379"},"vehicle_type_id":"4","last_reported":1726261648,"current_range_meters":2000,"station_id":"ce4bho92rcd13ifvqh4g","pricing_plan_id":"cebpf4jnsgd1na2vs0mg"},{"bike_id":"784a75e2-a50d-4713-a610-f2c55e542974","system_id":"levelo_inurba_marseille","lat":43.29868,"lon":5.39724,"is_reserved":false,"is_disabled":false,"rental_uris":{"android":"levelo://app?vid=784a75e2-a50d-4713-a610-f2c55e542974","ios":"levelo://app?vid=784a75e2-a50d-4713-a610-f2c55e542974"},"vehicle_type_id":"4","last_reported":1726261648,"current_range_meters":9200,"station_id":"ce4bh0h2rcd13ifvqd50","pricing_plan_id":"cebpf4jnsgd1na2vs0mg"},{"bike_id":"4fcbe05f-c7da-43e9-afa5-80ae212b283c","system_id":"levelo_inurba_marseille","lat":43.28935,"lon":5.38381,"is_reserved":false,"is_disabled":false,"rental_uris":{"android":"levelo://app?vid=4fcbe05f-c7da-43e9-afa5-80ae212b283c","ios":"levelo://app?vid=4fcbe05f-c7da-43e9-afa5-80ae212b283c"},"vehicle_type_id":"4","last_reported":1726261648,"current_range_meters":3600,"station_id":"ce4bh612rcd13ifvqe6g","pricing_plan_id":"cebpf4jnsgd1na2vs0mg"},{"bike_id":"13ec4916-f0ea-4897-8afc-596425b42c42","system_id":"levelo_inurba_marseille","lat":43.23195,"lon":5.35553,"is_reserved":false,"is_disabled":false,"rental_uris":{"android":"levelo://app?vid=13ec4916-f0ea-4897-8afc-596425b42c42","ios":"levelo://app?vid=13ec4916-f0ea-4897-8afc-596425b42c42"},"vehicle_type_id":"4","last_reported":1726261648,"current_range_meters":30000,"station_id":"ce4bhu92rcd13ifvqi70","pricing_plan_id":"cebpf4jnsgd1na2vs0mg"},{"bike_id":"627d97e3-ccf7-42a3-85b5-4116cfb34a5e","system_id":"levelo_inurba_marseille","lat":43.28464,"lon":5.35884,"is_reserved":false,"is_disabled":false,"rental_uris":{"android":"levelo://app?vid=627d97e3-ccf7-42a3-85b5-4116cfb34a5e","ios":"levelo://app?vid=627d97e3-ccf7-42a3-85b5-4116cfb34a5e"},"vehicle_type_id":"4","last_reported":1726261648,"current_range_meters":38800,"station_id":"ce4bhah2rcd13ifvqei0","pricing_plan_id":"cebpf4jnsgd1na2vs0mg"},{"bike_id":"06c19026-5a12-406d-ae69-48c86326c003","system_id":"levelo_inurba_marseille","lat":43.26928,"lon":5.38918,"is_reserved":false,"is_disabled":false,"rental_uris":{"android":"levelo://app?vid=06c19026-5a12-406d-ae69-48c86326c003","ios":"levelo://app?vid=06c19026-5a12-406d-ae69-48c86326c003"},"vehicle_type_id":"4","last_reported":1726261648,"current_range_meters":30800,"station_id":"ce4bhhh2rcd13ifvqfl0","pricing_plan_id":"cebpf4jnsgd1na2vs0mg"},{"bike_id":"b9171616-fd99-4a75-abc0-b30d218c047a","system_id":"levelo_inurba_marseille","lat":43.28154,"lon":5.42643,"is_reserved":false,"is_disabled":false,"rental_uris":{"android":"levelo://app?vid=b9171616-fd99-4a75-abc0-b30d218c047a","ios":"levelo://app?vid=b9171616-fd99-4a75-abc0-b30d218c047a"},"vehicle_type_id":"4","last_reported":1726261648,"current_range_meters":36800,"station_id":"ce4bhnh2rcd13ifvqgug","pricing_plan_id":"cebpf4jnsgd1na2vs0mg"},{"bike_id":"3f1e932a-540c-4c5d-a4f8-ac49240977b8","system_id":"levelo_inurba_marseille","lat":43.24386,"lon":5.3706,"is_reserved":false,"is_disabled":false,"rental_uris":{"android":"levelo://app?vid=3f1e932a-540c-4c5d-a4f8-ac49240977b8","ios":"levelo://app?vid=3f1e932a-540c-4c5d-a4f8-ac49240977b8"},"vehicle_type_id":"4","last_reported":1726261648,"current_range_meters":24800,"station_id":"ce4bhhh2rcd13ifvqfk0","pricing_plan_id":"cebpf4jnsgd1na2vs0mg"},{"bike_id":"1b69e28d-b657-4802-b5dd-aa17fb5a768b","system_id":"levelo_inurba_marseille","lat":43.27139,"lon":5.42786,"is_reserved":false,"is_disabled":false,"rental_uris":{"android":"levelo://app?vid=1b69e28d-b657-4802-b5dd-aa17fb5a768b","ios":"levelo://app?vid=1b69e28d-b657-4802-b5dd-aa17fb5a768b"},"vehicle_type_id":"4","last_reported":1726261648,"current_range_meters":29600,"station_id":"","pricing_plan_id":"cebpf4jnsgd1na2vs0mg"},{"bike_id":"ced2f676-ca95-4355-b6d0-b6b9db164111","system_id":"levelo_inurba_marseille","lat":43.310799,"lon":5.38365,"is_reserved":false,"is_disabled":false,"rental_uris":{"android":"levelo://app?vid=ced2f676-ca95-4355-b6d0-b6b9db164111","ios":"levelo://app?vid=ced2f676-ca95-4355-b6d0-b6b9db164111"},"vehicle_type_id":"4","last_reported":1726261648,"current_range_meters":38400,"station_id":"ce4bgv92rcd13ifvqcr0","pricing_plan_id":"cebpf4jnsgd1na2vs0mg"},{"bike_id":"9835f768-84dc-47fe-b83e-1dbafba18f68","system_id":"levelo_inurba_marseille","lat":43.23193,"lon":5.35551,"is_reserved":false,"is_disabled":false,"rental_uris":{"android":"levelo://app?vid=9835f768-84dc-47fe-b83e-1dbafba18f68","ios":"levelo://app?vid=9835f768-84dc-47fe-b83e-1dbafba18f68"},"vehicle_type_id":"4","last_reported":1726261648,"current_range_meters":38800,"station_id":"ce4bhu92rcd13ifvqi70","pricing_plan_id":"cebpf4jnsgd1na2vs0mg"},{"bike_id":"995d3a7e-289e-4ebd-b785-9d2da426ad57","system_id":"levelo_inurba_marseille","lat":43.23203,"lon":5.35551,"is_reserved":false,"is_disabled":false,"rental_uris":{"android":"levelo://app?vid=995d3a7e-289e-4ebd-b785-9d2da426ad57","ios":"levelo://app?vid=995d3a7e-289e-4ebd-b785-9d2da426ad57"},"vehicle_type_id":"4","last_reported":1726261648,"current_range_meters":24400,"station_id":"ce4bhu92rcd13ifvqi70","pricing_plan_id":"cebpf4jnsgd1na2vs0mg"},{"bike_id":"74c67d55-8a5f-40c9-8066-d68354718f8c","system_id":"levelo_inurba_marseille","lat":43.2319,"lon":5.35556,"is_reserved":false,"is_disabled":false,"rental_uris":{"android":"levelo://app?vid=74c67d55-8a5f-40c9-8066-d68354718f8c","ios":"levelo://app?vid=74c67d55-8a5f-40c9-8066-d68354718f8c"},"vehicle_type_id":"4","last_reported":1726261648,"current_range_meters":28400,"station_id":"ce4bhu92rcd13ifvqi70","pricing_plan_id":"cebpf4jnsgd1na2vs0mg"},{"bike_id":"7fd6c56d-63ac-410d-9d96-d655d8f53637","system_id":"levelo_inurba_marseille","lat":43.31707,"lon":5.37726,"is_reserved":false,"is_disabled":false,"rental_uris":{"android":"levelo://app?vid=7fd6c56d-63ac-410d-9d96-d655d8f53637","ios":"levelo://app?vid=7fd6c56d-63ac-410d-9d96-d655d8f53637"},"vehicle_type_id":"4","last_reported":1726261648,"current_range_meters":36800,"station_id":"ce4bgth2rcd13ifvqch0","pricing_plan_id":"cebpf4jnsgd1na2vs0mg"},{"bike_id":"59e3dff8-ce95-4a6d-ac6d-15cf2c0dfbbe","system_id":"levelo_inurba_marseille","lat":43.25866,"lon":5.39901,"is_reserved":false,"is_disabled":false,"rental_uris":{"android":"levelo://app?vid=59e3dff8-ce95-4a6d-ac6d-15cf2c0dfbbe","ios":"levelo://app?vid=59e3dff8-ce95-4a6d-ac6d-15cf2c0dfbbe"},"vehicle_type_id":"4","last_reported":1726261648,"current_range_meters":23200,"station_id":"ce4bhl92rcd13ifvqghg","pricing_plan_id":"cebpf4jnsgd1na2vs0mg"},{"bike_id":"e2be0aea-67dc-4dc6-b46f-e2412631f2dd","system_id":"levelo_inurba_marseille","lat":43.25003,"lon":5.38928,"is_reserved":false,"is_disabled":false,"rental_uris":{"android":"levelo://app?vid=e2be0aea-67dc-4dc6-b46f-e2412631f2dd","ios":"levelo://app?vid=e2be0aea-67dc-4dc6-b46f-e2412631f2dd"},"vehicle_type_id":"4","last_reported":1726261648,"current_range_meters":6400,"station_id":"ce4bhgp2rcd13ifvqfd0","pricing_plan_id":"cebpf4jnsgd1na2vs0mg"},{"bike_id":"e7a0fe64-541d-459f-a7f9-26cdf17fce17","system_id":"levelo_inurba_marseille","lat":43.27182,"lon":5.40995,"is_reserved":false,"is_disabled":false,"rental_uris":{"android":"levelo://app?vid=e7a0fe64-541d-459f-a7f9-26cdf17fce17","ios":"levelo://app?vid=e7a0fe64-541d-459f-a7f9-26cdf17fce17"},"vehicle_type_id":"4","last_reported":1726261648,"current_range_meters":37600,"station_id":"ce4bhl12rcd13ifvqgf0","pricing_plan_id":"cebpf4jnsgd1na2vs0mg"},{"bike_id":"eae1865c-3aec-4d90-a9ff-d200821ea145","system_id":"levelo_inurba_marseille","lat":43.27917,"lon":5.39581,"is_reserved":false,"is_disabled":false,"rental_uris":{"android":"levelo://app?vid=eae1865c-3aec-4d90-a9ff-d200821ea145","ios":"levelo://app?vid=eae1865c-3aec-4d90-a9ff-d200821ea145"},"vehicle_type_id":"4","last_reported":1726261648,"current_range_meters":31200,"station_id":"ce4bhf92rcd13ifvqf40","pricing_plan_id":"cebpf4jnsgd1na2vs0mg"},{"bike_id":"42e51b56-d790-400e-9c05-9e98b4c8c5ad","system_id":"levelo_inurba_marseille","lat":43.24073,"lon":5.37757,"is_reserved":false,"is_disabled":false,"rental_uris":{"android":"levelo://app?vid=42e51b56-d790-400e-9c05-9e98b4c8c5ad","ios":"levelo://app?vid=42e51b56-d790-400e-9c05-9e98b4c8c5ad"},"vehicle_type_id":"4","last_reported":1726261648,"current_range_meters":14400,"station_id":"ce4bhnp2rcd13ifvqgvg","pricing_plan_id":"cebpf4jnsgd1na2vs0mg"},{"bike_id":"6267baa5-f35c-4311-91c4-71f926f47f2c","system_id":"levelo_inurba_marseille","lat":43.29746,"lon":5.37917,"is_reserved":false,"is_disabled":false,"rental_uris":{"android":"levelo://app?vid=6267baa5-f35c-4311-91c4-71f926f47f2c","ios":"levelo://app?vid=6267baa5-f35c-4311-91c4-71f926f47f2c"},"vehicle_type_id":"4","last_reported":1726261648,"current_range_meters":6400,"station_id":"","pricing_plan_id":"cebpf4jnsgd1na2vs0mg"},{"bike_id":"a0974cc8-15bf-4aba-8db0-a88db02cab58","system_id":"levelo_inurba_marseille","lat":43.29264,"lon":5.38434,"is_reserved":false,"is_disabled":false,"rental_uris":{"android":"levelo://app?vid=a0974cc8-15bf-4aba-8db0-a88db02cab58","ios":"levelo://app?vid=a0974cc8-15bf-4aba-8db0-a88db02cab58"},"vehicle_type_id":"4","last_reported":1726261648,"current_range_meters":32000,"station_id":"ce4bh692rcd13ifvqea0","pricing_plan_id":"cebpf4jnsgd1na2vs0mg"},{"bike_id":"37928800-864e-414f-936e-cd385c960d27","system_id":"levelo_inurba_marseille","lat":43.30786,"lon":5.37655,"is_reserved":false,"is_disabled":false,"rental_uris":{"android":"levelo://app?vid=37928800-864e-414f-936e-cd385c960d27","ios":"levelo://app?vid=37928800-864e-414f-936e-cd385c960d27"},"vehicle_type_id":"4","last_reported":1726261648,"current_range_meters":38000,"station_id":"ce4bgv92rcd13ifvqcq0","pricing_plan_id":"cebpf4jnsgd1na2vs0mg"},{"bike_id":"7be62f08-f1d7-4d95-8ad7-f5b2b85c40a3","system_id":"levelo_inurba_marseille","lat":43.29943,"lon":5.36556,"is_reserved":false,"is_disabled":false,"rental_uris":{"android":"levelo://app?vid=7be62f08-f1d7-4d95-8ad7-f5b2b85c40a3","ios":"levelo://app?vid=7be62f08-f1d7-4d95-8ad7-f5b2b85c40a3"},"vehicle_type_id":"4","last_reported":1726261648,"current_range_meters":8400,"station_id":"ce4bgm92rcd13ifvqbr0","pricing_plan_id":"cebpf4jnsgd1na2vs0mg"},{"bike_id":"bc688d18-0fd2-425e-bcbf-ad90f722033b","system_id":"levelo_inurba_marseille","lat":43.24648,"lon":5.38891,"is_reserved":false,"is_disabled":false,"rental_uris":{"android":"levelo://app?vid=bc688d18-0fd2-425e-bcbf-ad90f722033b","ios":"levelo://app?vid=bc688d18-0fd2-425e-bcbf-ad90f722033b"},"vehicle_type_id":"4","last_reported":1726261648,"current_range_meters":36000,"station_id":"ce4bhg12rcd13ifvqf60","pricing_plan_id":"cebpf4jnsgd1na2vs0mg"},{"bike_id":"e6bea8cd-bd1a-48c2-8a52-de5e2a98c0f4","system_id":"levelo_inurba_marseille","lat":43.2594,"lon":5.40903,"is_reserved":false,"is_disabled":false,"rental_uris":{"android":"levelo://app?vid=e6bea8cd-bd1a-48c2-8a52-de5e2a98c0f4","ios":"levelo://app?vid=e6bea8cd-bd1a-48c2-8a52-de5e2a98c0f4"},"vehicle_type_id":"4","last_reported":1726261648,"current_range_meters":36400,"station_id":"ce4bhm92rcd13ifvqglg","pricing_plan_id":"cebpf4jnsgd1na2vs0mg"},{"bike_id":"11ce11f2-c453-48ec-9a01-f794fee1e582","system_id":"levelo_inurba_marseille","lat":43.33023,"lon":5.39043,"is_reserved":false,"is_disabled":false,"rental_uris":{"android":"levelo://app?vid=11ce11f2-c453-48ec-9a01-f794fee1e582","ios":"levelo://app?vid=11ce11f2-c453-48ec-9a01-f794fee1e582"},"vehicle_type_id":"4","last_reported":1726261648,"current_range_meters":27200,"station_id":"ce4bhr92rcd13ifvqhrg","pricing_plan_id":"cebpf4jnsgd1na2vs0mg"},{"bike_id":"44f09c39-e560-4787-855a-6c24192c7f7b","system_id":"levelo_inurba_marseille","lat":43.33022,"lon":5.39039,"is_reserved":false,"is_disabled":false,"rental_uris":{"android":"levelo://app?vid=44f09c39-e560-4787-855a-6c24192c7f7b","ios":"levelo://app?vid=44f09c39-e560-4787-855a-6c24192c7f7b"},"vehicle_type_id":"4","last_reported":1726261648,"current_range_meters":24800,"station_id":"ce4bhr92rcd13ifvqhrg","pricing_plan_id":"cebpf4jnsgd1na2vs0mg"},{"bike_id":"23cfe7eb-e2bb-419a-8564-ab866b6255e0","system_id":"levelo_inurba_marseille","lat":43.2418,"lon":5.3972,"is_reserved":false,"is_disabled":false,"rental_uris":{"android":"levelo://app?vid=23cfe7eb-e2bb-419a-8564-ab866b6255e0","ios":"levelo://app?vid=23cfe7eb-e2bb-419a-8564-ab866b6255e0"},"vehicle_type_id":"4","last_reported":1726261648,"current_range_meters":38800,"station_id":"ce4bhn12rcd13ifvqgpg","pricing_plan_id":"cebpf4jnsgd1na2vs0mg"},{"bike_id":"25776695-0bda-4eee-97da-92113f024358","system_id":"levelo_inurba_marseille","lat":43.29427,"lon":5.39742,"is_reserved":false,"is_disabled":false,"rental_uris":{"android":"levelo://app?vid=25776695-0bda-4eee-97da-92113f024358","ios":"levelo://app?vid=25776695-0bda-4eee-97da-92113f024358"},"vehicle_type_id":"4","last_reported":1726261648,"current_range_meters":24000,"station_id":"ce4bh3h2rcd13ifvqdo0","pricing_plan_id":"cebpf4jnsgd1na2vs0mg"},{"bike_id":"2a089944-b1a6-45af-99d1-9b70add064d3","system_id":"levelo_inurba_marseille","lat":43.24812,"lon":5.37461,"is_reserved":false,"is_disabled":false,"rental_uris":{"android":"levelo://app?vid=2a089944-b1a6-45af-99d1-9b70add064d3","ios":"levelo://app?vid=2a089944-b1a6-45af-99d1-9b70add064d3"},"vehicle_type_id":"4","last_reported":1726261648,"current_range_meters":14800,"station_id":"ce4bhgh2rcd13ifvqfb0","pricing_plan_id":"cebpf4jnsgd1na2vs0mg"},{"bike_id":"34721204-9cc8-4128-8304-5b698c26b1e6","system_id":"levelo_inurba_marseille","lat":43.23187,"lon":5.39984,"is_reserved":false,"is_disabled":false,"rental_uris":{"android":"levelo://app?vid=34721204-9cc8-4128-8304-5b698c26b1e6","ios":"levelo://app?vid=34721204-9cc8-4128-8304-5b698c26b1e6"},"vehicle_type_id":"4","last_reported":1726261648,"current_range_meters":39200,"station_id":"ce4bhn12rcd13ifvqgqg","pricing_plan_id":"cebpf4jnsgd1na2vs0mg"},{"bike_id":"8a405b78-72cd-40ea-92f3-99b1759848ad","system_id":"levelo_inurba_marseille","lat":43.28036,"lon":5.36943,"is_reserved":false,"is_disabled":false,"rental_uris":{"android":"levelo://app?vid=8a405b78-72cd-40ea-92f3-99b1759848ad","ios":"levelo://app?vid=8a405b78-72cd-40ea-92f3-99b1759848ad"},"vehicle_type_id":"4","last_reported":1726261648,"current_range_meters":11200,"station_id":"ce4bha12rcd13ifvqef0","pricing_plan_id":"cebpf4jnsgd1na2vs0mg"},{"bike_id":"35384e9c-2903-4926-846b-dd436af2f840","system_id":"levelo_inurba_marseille","lat":43.31076,"lon":5.38349,"is_reserved":false,"is_disabled":false,"rental_uris":{"android":"levelo://app?vid=35384e9c-2903-4926-846b-dd436af2f840","ios":"levelo://app?vid=35384e9c-2903-4926-846b-dd436af2f840"},"vehicle_type_id":"4","last_reported":1726261648,"current_range_meters":37600,"station_id":"ce4bgv92rcd13ifvqcr0","pricing_plan_id":"cebpf4jnsgd1na2vs0mg"},{"bike_id":"0124e22a-940d-4592-a669-5febf603375d","system_id":"levelo_inurba_marseille","lat":43.28075,"lon":5.39661,"is_reserved":false,"is_disabled":false,"rental_uris":{"android":"levelo://app?vid=0124e22a-940d-4592-a669-5febf603375d","ios":"levelo://app?vid=0124e22a-940d-4592-a669-5febf603375d"},"vehicle_type_id":"4","last_reported":1726261648,"current_range_meters":30800,"station_id":"ce4bho12rcd13ifvqh2g","pricing_plan_id":"cebpf4jnsgd1na2vs0mg"},{"bike_id":"39b86749-80ef-4310-953b-c60370086942","system_id":"levelo_inurba_marseille","lat":43.24545,"lon":5.39525,"is_reserved":false,"is_disabled":false,"rental_uris":{"android":"levelo://app?vid=39b86749-80ef-4310-953b-c60370086942","ios":"levelo://app?vid=39b86749-80ef-4310-953b-c60370086942"},"vehicle_type_id":"4","last_reported":1726261648,"current_range_meters":28800,"station_id":"ce4bhlp2rcd13ifvqgjg","pricing_plan_id":"cebpf4jnsgd1na2vs0mg"},{"bike_id":"6a8f2f10-9a94-4930-acf4-9d3abaa17531","system_id":"levelo_inurba_marseille","lat":43.255,"lon":5.37651,"is_reserved":false,"is_disabled":false,"rental_uris":{"android":"levelo://app?vid=6a8f2f10-9a94-4930-acf4-9d3abaa17531","ios":"levelo://app?vid=6a8f2f10-9a94-4930-acf4-9d3abaa17531"},"vehicle_type_id":"4","last_reported":1726261648,"current_range_meters":35600,"station_id":"ce4bhh12rcd13ifvqff0","pricing_plan_id":"cebpf4jnsgd1na2vs0mg"},{"bike_id":"c66e6b79-9c9e-45e6-a38b-f24929cfdd6a","system_id":"levelo_inurba_marseille","lat":43.28576,"lon":5.39491,"is_reserved":false,"is_disabled":false,"rental_uris":{"android":"levelo://app?vid=c66e6b79-9c9e-45e6-a38b-f24929cfdd6a","ios":"levelo://app?vid=c66e6b79-9c9e-45e6-a38b-f24929cfdd6a"},"vehicle_type_id":"4","last_reported":1726261648,"current_range_meters":29600,"station_id":"ce4bh292rcd13ifvqdg0","pricing_plan_id":"cebpf4jnsgd1na2vs0mg"},{"bike_id":"4027a65c-aff1-4f4e-a16b-f22e41585b03","system_id":"levelo_inurba_marseille","lat":43.27202,"lon":5.39187,"is_reserved":false,"is_disabled":false,"rental_uris":{"android":"levelo://app?vid=4027a65c-aff1-4f4e-a16b-f22e41585b03","ios":"levelo://app?vid=4027a65c-aff1-4f4e-a16b-f22e41585b03"},"vehicle_type_id":"4","last_reported":1726261648,"current_range_meters":38800,"station_id":"ce4bhhp2rcd13ifvqfm0","pricing_plan_id":"cebpf4jnsgd1na2vs0mg"},{"bike_id":"148ffffa-d147-44e1-bbf1-392cc4e31e96","system_id":"levelo_inurba_marseille","lat":43.31279,"lon":5.40175,"is_reserved":false,"is_disabled":false,"rental_uris":{"android":"levelo://app?vid=148ffffa-d147-44e1-bbf1-392cc4e31e96","ios":"levelo://app?vid=148ffffa-d147-44e1-bbf1-392cc4e31e96"},"vehicle_type_id":"4","last_reported":1726261648,"current_range_meters":37600,"station_id":"ce4bh092rcd13ifvqd30","pricing_plan_id":"cebpf4jnsgd1na2vs0mg"},{"bike_id":"acb4473c-f793-440a-9c76-0eca7b03c7c3","system_id":"levelo_inurba_marseille","lat":43.27659,"lon":5.38138,"is_reserved":false,"is_disabled":false,"rental_uris":{"android":"levelo://app?vid=acb4473c-f793-440a-9c76-0eca7b03c7c3","ios":"levelo://app?vid=acb4473c-f793-440a-9c76-0eca7b03c7c3"},"vehicle_type_id":"4","last_reported":1726261648,"current_range_meters":3200,"station_id":"","pricing_plan_id":"cebpf4jnsgd1na2vs0mg"},{"bike_id":"80b0fc3e-d8e9-451d-adb7-24c5d90402b8","system_id":"levelo_inurba_marseille","lat":43.294014,"lon":5.386097,"is_reserved":false,"is_disabled":false,"rental_uris":{"android":"levelo://app?vid=80b0fc3e-d8e9-451d-adb7-24c5d90402b8","ios":"levelo://app?vid=80b0fc3e-d8e9-451d-adb7-24c5d90402b8"},"vehicle_type_id":"4","last_reported":1726261648,"current_range_meters":14800,"station_id":"ce4bh2h2rcd13ifvqdh0","pricing_plan_id":"cebpf4jnsgd1na2vs0mg"},{"bike_id":"e6c9a1d3-3ef0-440b-a649-557dc05e1ae2","system_id":"levelo_inurba_marseille","lat":43.26194,"lon":5.3745,"is_reserved":false,"is_disabled":false,"rental_uris":{"android":"levelo://app?vid=e6c9a1d3-3ef0-440b-a649-557dc05e1ae2","ios":"levelo://app?vid=e6c9a1d3-3ef0-440b-a649-557dc05e1ae2"},"vehicle_type_id":"4","last_reported":1726261648,"current_range_meters":38800,"station_id":"ce4bhgp2rcd13ifvqfc0","pricing_plan_id":"cebpf4jnsgd1na2vs0mg"},{"bike_id":"8eed21b4-4c41-4f72-9a77-ef1b6e8ca075","system_id":"levelo_inurba_marseille","lat":43.30889,"lon":5.37197,"is_reserved":false,"is_disabled":false,"rental_uris":{"android":"levelo://app?vid=8eed21b4-4c41-4f72-9a77-ef1b6e8ca075","ios":"levelo://app?vid=8eed21b4-4c41-4f72-9a77-ef1b6e8ca075"},"vehicle_type_id":"4","last_reported":1726261648,"current_range_meters":20400,"station_id":"ce4bguh2rcd13ifvqckg","pricing_plan_id":"cebpf4jnsgd1na2vs0mg"},{"bike_id":"0d9e139c-b91b-4d9a-a323-fba67f47547f","system_id":"levelo_inurba_marseille","lat":43.29005,"lon":5.35611,"is_reserved":false,"is_disabled":false,"rental_uris":{"android":"levelo://app?vid=0d9e139c-b91b-4d9a-a323-fba67f47547f","ios":"levelo://app?vid=0d9e139c-b91b-4d9a-a323-fba67f47547f"},"vehicle_type_id":"4","last_reported":1726261648,"current_range_meters":38800,"station_id":"ce4bhb92rcd13ifvqen0","pricing_plan_id":"cebpf4jnsgd1na2vs0mg"},{"bike_id":"cade2501-95bb-491a-b8de-c573db7615e8","system_id":"levelo_inurba_marseille","lat":43.27501,"lon":5.4245,"is_reserved":false,"is_disabled":false,"rental_uris":{"android":"levelo://app?vid=cade2501-95bb-491a-b8de-c573db7615e8","ios":"levelo://app?vid=cade2501-95bb-491a-b8de-c573db7615e8"},"vehicle_type_id":"4","last_reported":1726261648,"current_range_meters":26800,"station_id":"ce4bhn92rcd13ifvqgrg","pricing_plan_id":"cebpf4jnsgd1na2vs0mg"},{"bike_id":"cca28bcf-5218-415d-8f71-c19a7365d061","system_id":"levelo_inurba_marseille","lat":43.31891,"lon":5.40743,"is_reserved":false,"is_disabled":false,"rental_uris":{"android":"levelo://app?vid=cca28bcf-5218-415d-8f71-c19a7365d061","ios":"levelo://app?vid=cca28bcf-5218-415d-8f71-c19a7365d061"},"vehicle_type_id":"4","last_reported":1726261648,"current_range_meters":38400,"station_id":"ce4bhq12rcd13ifvqhig","pricing_plan_id":"cebpf4jnsgd1na2vs0mg"},{"bike_id":"c2f931ad-b5e2-4455-9c35-0703f1bd1d86","system_id":"levelo_inurba_marseille","lat":43.29517,"lon":5.39399,"is_reserved":false,"is_disabled":false,"rental_uris":{"android":"levelo://app?vid=c2f931ad-b5e2-4455-9c35-0703f1bd1d86","ios":"levelo://app?vid=c2f931ad-b5e2-4455-9c35-0703f1bd1d86"},"vehicle_type_id":"4","last_reported":1726261648,"current_range_meters":38800,"station_id":"ce4bh292rcd13ifvqdf0","pricing_plan_id":"cebpf4jnsgd1na2vs0mg"},{"bike_id":"375b9c96-334e-45b0-a33f-e5275ba3d2ad","system_id":"levelo_inurba_marseille","lat":43.23183,"lon":5.39989,"is_reserved":false,"is_disabled":false,"rental_uris":{"android":"levelo://app?vid=375b9c96-334e-45b0-a33f-e5275ba3d2ad","ios":"levelo://app?vid=375b9c96-334e-45b0-a33f-e5275ba3d2ad"},"vehicle_type_id":"4","last_reported":1726261648,"current_range_meters":16000,"station_id":"ce4bhn12rcd13ifvqgqg","pricing_plan_id":"cebpf4jnsgd1na2vs0mg"},{"bike_id":"5f6e149b-36c1-4ef7-b5d4-3fb6025a68ae","system_id":"levelo_inurba_marseille","lat":43.26211,"lon":5.37444,"is_reserved":false,"is_disabled":false,"rental_uris":{"android":"levelo://app?vid=5f6e149b-36c1-4ef7-b5d4-3fb6025a68ae","ios":"levelo://app?vid=5f6e149b-36c1-4ef7-b5d4-3fb6025a68ae"},"vehicle_type_id":"4","last_reported":1726261648,"current_range_meters":38000,"station_id":"ce4bhgp2rcd13ifvqfc0","pricing_plan_id":"cebpf4jnsgd1na2vs0mg"},{"bike_id":"eaf3218e-3b2a-4dde-9c15-99a6c4254e56","system_id":"levelo_inurba_marseille","lat":43.29898,"lon":5.43662,"is_reserved":false,"is_disabled":false,"rental_uris":{"android":"levelo://app?vid=eaf3218e-3b2a-4dde-9c15-99a6c4254e56","ios":"levelo://app?vid=eaf3218e-3b2a-4dde-9c15-99a6c4254e56"},"vehicle_type_id":"4","last_reported":1726261648,"current_range_meters":40000,"station_id":"ce4bhpp2rcd13ifvqhfg","pricing_plan_id":"cebpf4jnsgd1na2vs0mg"},{"bike_id":"578fe535-1ca5-46e4-9e6c-f0e8aa8560bc","system_id":"levelo_inurba_marseille","lat":43.32366,"lon":5.38881,"is_reserved":false,"is_disabled":false,"rental_uris":{"android":"levelo://app?vid=578fe535-1ca5-46e4-9e6c-f0e8aa8560bc","ios":"levelo://app?vid=578fe535-1ca5-46e4-9e6c-f0e8aa8560bc"},"vehicle_type_id":"4","last_reported":1726261648,"current_range_meters":14800,"station_id":"ce4bhqp2rcd13ifvqhog","pricing_plan_id":"cebpf4jnsgd1na2vs0mg"},{"bike_id":"53f825a6-59be-4b61-9ced-1f523cc7c8a0","system_id":"levelo_inurba_marseille","lat":43.303009,"lon":5.402323,"is_reserved":false,"is_disabled":false,"rental_uris":{"android":"levelo://app?vid=53f825a6-59be-4b61-9ced-1f523cc7c8a0","ios":"levelo://app?vid=53f825a6-59be-4b61-9ced-1f523cc7c8a0"},"vehicle_type_id":"4","last_reported":1726261648,"current_range_meters":38000,"station_id":"ce4bgvh2rcd13ifvqcs0","pricing_plan_id":"cebpf4jnsgd1na2vs0mg"},{"bike_id":"16ca6d91-7513-415c-9a61-5d33eb8ad677","system_id":"levelo_inurba_marseille","lat":43.22937,"lon":5.35375,"is_reserved":false,"is_disabled":false,"rental_uris":{"android":"levelo://app?vid=16ca6d91-7513-415c-9a61-5d33eb8ad677","ios":"levelo://app?vid=16ca6d91-7513-415c-9a61-5d33eb8ad677"},"vehicle_type_id":"4","last_reported":1726261648,"current_range_meters":25200,"station_id":"cpo3532slgdg3j2ikp40","pricing_plan_id":"cebpf4jnsgd1na2vs0mg"},{"bike_id":"6159fd17-4f87-4755-b1ab-388c9035499e","system_id":"levelo_inurba_marseille","lat":43.29418,"lon":5.38626,"is_reserved":false,"is_disabled":false,"rental_uris":{"android":"levelo://app?vid=6159fd17-4f87-4755-b1ab-388c9035499e","ios":"levelo://app?vid=6159fd17-4f87-4755-b1ab-388c9035499e"},"vehicle_type_id":"4","last_reported":1726261648,"current_range_meters":36400,"station_id":"ce4bh2h2rcd13ifvqdh0","pricing_plan_id":"cebpf4jnsgd1na2vs0mg"},{"bike_id":"92101611-57ac-40bd-81f9-9e6acd5327c3","system_id":"levelo_inurba_marseille","lat":43.24654,"lon":5.38894,"is_reserved":false,"is_disabled":false,"rental_uris":{"android":"levelo://app?vid=92101611-57ac-40bd-81f9-9e6acd5327c3","ios":"levelo://app?vid=92101611-57ac-40bd-81f9-9e6acd5327c3"},"vehicle_type_id":"4","last_reported":1726261648,"current_range_meters":38000,"station_id":"ce4bhg12rcd13ifvqf60","pricing_plan_id":"cebpf4jnsgd1na2vs0mg"},{"bike_id":"f9d1ac1b-87c8-4139-809a-95025296b991","system_id":"levelo_inurba_marseille","lat":43.23191,"lon":5.39981,"is_reserved":false,"is_disabled":false,"rental_uris":{"android":"levelo://app?vid=f9d1ac1b-87c8-4139-809a-95025296b991","ios":"levelo://app?vid=f9d1ac1b-87c8-4139-809a-95025296b991"},"vehicle_type_id":"4","last_reported":1726261648,"current_range_meters":38800,"station_id":"ce4bhn12rcd13ifvqgqg","pricing_plan_id":"cebpf4jnsgd1na2vs0mg"},{"bike_id":"c5465ea1-4e69-4539-880b-a7ffba1e41db","system_id":"levelo_inurba_marseille","lat":43.25726,"lon":5.41111,"is_reserved":false,"is_disabled":false,"rental_uris":{"android":"levelo://app?vid=c5465ea1-4e69-4539-880b-a7ffba1e41db","ios":"levelo://app?vid=c5465ea1-4e69-4539-880b-a7ffba1e41db"},"vehicle_type_id":"4","last_reported":1726261648,"current_range_meters":38000,"station_id":"ce4bhkp2rcd13ifvqgd0","pricing_plan_id":"cebpf4jnsgd1na2vs0mg"},{"bike_id":"f4c36463-ddf2-4e8a-90a8-c12391e72ce0","system_id":"levelo_inurba_marseille","lat":43.2827,"lon":5.3507,"is_reserved":false,"is_disabled":false,"rental_uris":{"android":"levelo://app?vid=f4c36463-ddf2-4e8a-90a8-c12391e72ce0","ios":"levelo://app?vid=f4c36463-ddf2-4e8a-90a8-c12391e72ce0"},"vehicle_type_id":"4","last_reported":1726261648,"current_range_meters":12800,"station_id":"ce4bhbp2rcd13ifvqerg","pricing_plan_id":"cebpf4jnsgd1na2vs0mg"},{"bike_id":"ce45b02b-b167-4654-b305-eb82cd566863","system_id":"levelo_inurba_marseille","lat":43.23194,"lon":5.35542,"is_reserved":false,"is_disabled":false,"rental_uris":{"android":"levelo://app?vid=ce45b02b-b167-4654-b305-eb82cd566863","ios":"levelo://app?vid=ce45b02b-b167-4654-b305-eb82cd566863"},"vehicle_type_id":"4","last_reported":1726261648,"current_range_meters":28400,"station_id":"ce4bhu92rcd13ifvqi70","pricing_plan_id":"cebpf4jnsgd1na2vs0mg"},{"bike_id":"30da0b60-75ad-4018-acc4-9459b3134afb","system_id":"levelo_inurba_marseille","lat":43.29525,"lon":5.38542,"is_reserved":false,"is_disabled":false,"rental_uris":{"android":"levelo://app?vid=30da0b60-75ad-4018-acc4-9459b3134afb","ios":"levelo://app?vid=30da0b60-75ad-4018-acc4-9459b3134afb"},"vehicle_type_id":"4","last_reported":1726261648,"current_range_meters":33600,"station_id":"ce4bgih2rcd13ifvqba0","pricing_plan_id":"cebpf4jnsgd1na2vs0mg"},{"bike_id":"43f91729-b23c-4f31-bdb2-8366483e8266","system_id":"levelo_inurba_marseille","lat":43.31271,"lon":5.40168,"is_reserved":false,"is_disabled":false,"rental_uris":{"android":"levelo://app?vid=43f91729-b23c-4f31-bdb2-8366483e8266","ios":"levelo://app?vid=43f91729-b23c-4f31-bdb2-8366483e8266"},"vehicle_type_id":"4","last_reported":1726261648,"current_range_meters":32400,"station_id":"ce4bh092rcd13ifvqd30","pricing_plan_id":"cebpf4jnsgd1na2vs0mg"},{"bike_id":"5073ac9d-6df3-45f0-9ba5-d1015aede9a9","system_id":"levelo_inurba_marseille","lat":43.3169,"lon":5.40468,"is_reserved":false,"is_disabled":false,"rental_uris":{"android":"levelo://app?vid=5073ac9d-6df3-45f0-9ba5-d1015aede9a9","ios":"levelo://app?vid=5073ac9d-6df3-45f0-9ba5-d1015aede9a9"},"vehicle_type_id":"4","last_reported":1726261648,"current_range_meters":25600,"station_id":"ce4bh012rcd13ifvqd00","pricing_plan_id":"cebpf4jnsgd1na2vs0mg"},{"bike_id":"81e09287-c37e-48bf-84ca-c74098cac04e","system_id":"levelo_inurba_marseille","lat":43.31121,"lon":5.37762,"is_reserved":false,"is_disabled":false,"rental_uris":{"android":"levelo://app?vid=81e09287-c37e-48bf-84ca-c74098cac04e","ios":"levelo://app?vid=81e09287-c37e-48bf-84ca-c74098cac04e"},"vehicle_type_id":"4","last_reported":1726261648,"current_range_meters":33600,"station_id":"ce4bgt92rcd13ifvqcg0","pricing_plan_id":"cebpf4jnsgd1na2vs0mg"},{"bike_id":"43fdcb14-ac18-4289-83f9-be7bf1bd4e28","system_id":"levelo_inurba_marseille","lat":43.29001,"lon":5.35618,"is_reserved":false,"is_disabled":false,"rental_uris":{"android":"levelo://app?vid=43fdcb14-ac18-4289-83f9-be7bf1bd4e28","ios":"levelo://app?vid=43fdcb14-ac18-4289-83f9-be7bf1bd4e28"},"vehicle_type_id":"4","last_reported":1726261648,"current_range_meters":14800,"station_id":"ce4bhb92rcd13ifvqen0","pricing_plan_id":"cebpf4jnsgd1na2vs0mg"},{"bike_id":"6c81c337-dc6b-41ae-95e1-1d8e0c8b10d2","system_id":"levelo_inurba_marseille","lat":43.27666,"lon":5.38887,"is_reserved":false,"is_disabled":false,"rental_uris":{"android":"levelo://app?vid=6c81c337-dc6b-41ae-95e1-1d8e0c8b10d2","ios":"levelo://app?vid=6c81c337-dc6b-41ae-95e1-1d8e0c8b10d2"},"vehicle_type_id":"4","last_reported":1726261648,"current_range_meters":37600,"station_id":"ce4bhi12rcd13ifvqfo0","pricing_plan_id":"cebpf4jnsgd1na2vs0mg"},{"bike_id":"9f7c4870-6891-4b0b-8ba3-cf6f401cba95","system_id":"levelo_inurba_marseille","lat":43.28854,"lon":5.35852,"is_reserved":false,"is_disabled":false,"rental_uris":{"android":"levelo://app?vid=9f7c4870-6891-4b0b-8ba3-cf6f401cba95","ios":"levelo://app?vid=9f7c4870-6891-4b0b-8ba3-cf6f401cba95"},"vehicle_type_id":"4","last_reported":1726261648,"current_range_meters":8800,"station_id":"ce4bhb12rcd13ifvqem0","pricing_plan_id":"cebpf4jnsgd1na2vs0mg"},{"bike_id":"26db0265-0a91-4c66-8aa8-67a94f7eef0d","system_id":"levelo_inurba_marseille","lat":43.26939,"lon":5.40057,"is_reserved":false,"is_disabled":false,"rental_uris":{"android":"levelo://app?vid=26db0265-0a91-4c66-8aa8-67a94f7eef0d","ios":"levelo://app?vid=26db0265-0a91-4c66-8aa8-67a94f7eef0d"},"vehicle_type_id":"4","last_reported":1726261648,"current_range_meters":20800,"station_id":"","pricing_plan_id":"cebpf4jnsgd1na2vs0mg"},{"bike_id":"9b49fc06-69dc-4375-9bc8-2ab31283d424","system_id":"levelo_inurba_marseille","lat":43.29899,"lon":5.43672,"is_reserved":false,"is_disabled":false,"rental_uris":{"android":"levelo://app?vid=9b49fc06-69dc-4375-9bc8-2ab31283d424","ios":"levelo://app?vid=9b49fc06-69dc-4375-9bc8-2ab31283d424"},"vehicle_type_id":"4","last_reported":1726261648,"current_range_meters":36400,"station_id":"ce4bhpp2rcd13ifvqhfg","pricing_plan_id":"cebpf4jnsgd1na2vs0mg"},{"bike_id":"806ed62d-3b95-4a06-bd17-b3c1161b46c0","system_id":"levelo_inurba_marseille","lat":43.25496,"lon":5.37649,"is_reserved":false,"is_disabled":false,"rental_uris":{"android":"levelo://app?vid=806ed62d-3b95-4a06-bd17-b3c1161b46c0","ios":"levelo://app?vid=806ed62d-3b95-4a06-bd17-b3c1161b46c0"},"vehicle_type_id":"4","last_reported":1726261648,"current_range_meters":38400,"station_id":"ce4bhh12rcd13ifvqff0","pricing_plan_id":"cebpf4jnsgd1na2vs0mg"},{"bike_id":"3d6b39fb-1723-4b64-8322-683d15d1c736","system_id":"levelo_inurba_marseille","lat":43.28364,"lon":5.38632,"is_reserved":false,"is_disabled":false,"rental_uris":{"android":"levelo://app?vid=3d6b39fb-1723-4b64-8322-683d15d1c736","ios":"levelo://app?vid=3d6b39fb-1723-4b64-8322-683d15d1c736"},"vehicle_type_id":"4","last_reported":1726261648,"current_range_meters":4000,"station_id":"ce4bh492rcd13ifvqdvg","pricing_plan_id":"cebpf4jnsgd1na2vs0mg"},{"bike_id":"6b780c73-d8cf-40b2-993b-3450436460ee","system_id":"levelo_inurba_marseille","lat":43.29259,"lon":5.3845,"is_reserved":false,"is_disabled":false,"rental_uris":{"android":"levelo://app?vid=6b780c73-d8cf-40b2-993b-3450436460ee","ios":"levelo://app?vid=6b780c73-d8cf-40b2-993b-3450436460ee"},"vehicle_type_id":"4","last_reported":1726261648,"current_range_meters":19200,"station_id":"ce4bh692rcd13ifvqea0","pricing_plan_id":"cebpf4jnsgd1na2vs0mg"},{"bike_id":"c7cd67a6-2f65-43e6-9e58-1489cab32866","system_id":"levelo_inurba_marseille","lat":43.24163,"lon":5.36396,"is_reserved":false,"is_disabled":false,"rental_uris":{"android":"levelo://app?vid=c7cd67a6-2f65-43e6-9e58-1489cab32866","ios":"levelo://app?vid=c7cd67a6-2f65-43e6-9e58-1489cab32866"},"vehicle_type_id":"4","last_reported":1726261648,"current_range_meters":7200,"station_id":"cpo36qri1sfpv3e86is0","pricing_plan_id":"cebpf4jnsgd1na2vs0mg"},{"bike_id":"2571781b-35fd-482e-8989-9ab27643e918","system_id":"levelo_inurba_marseille","lat":43.29268,"lon":5.38443,"is_reserved":false,"is_disabled":false,"rental_uris":{"android":"levelo://app?vid=2571781b-35fd-482e-8989-9ab27643e918","ios":"levelo://app?vid=2571781b-35fd-482e-8989-9ab27643e918"},"vehicle_type_id":"4","last_reported":1726261648,"current_range_meters":36800,"station_id":"ce4bh692rcd13ifvqea0","pricing_plan_id":"cebpf4jnsgd1na2vs0mg"},{"bike_id":"57f5eb88-52cc-441f-9282-b914e7106782","system_id":"levelo_inurba_marseille","lat":43.28032,"lon":5.36952,"is_reserved":false,"is_disabled":false,"rental_uris":{"android":"levelo://app?vid=57f5eb88-52cc-441f-9282-b914e7106782","ios":"levelo://app?vid=57f5eb88-52cc-441f-9282-b914e7106782"},"vehicle_type_id":"4","last_reported":1726261648,"current_range_meters":38800,"station_id":"ce4bha12rcd13ifvqef0","pricing_plan_id":"cebpf4jnsgd1na2vs0mg"},{"bike_id":"20779f5a-29d5-48ec-ad4d-2452ff1cf1a4","system_id":"levelo_inurba_marseille","lat":43.28937,"lon":5.3664,"is_reserved":false,"is_disabled":false,"rental_uris":{"android":"levelo://app?vid=20779f5a-29d5-48ec-ad4d-2452ff1cf1a4","ios":"levelo://app?vid=20779f5a-29d5-48ec-ad4d-2452ff1cf1a4"},"vehicle_type_id":"4","last_reported":1726261648,"current_range_meters":27600,"station_id":"ce4bhap2rcd13ifvqek0","pricing_plan_id":"cebpf4jnsgd1na2vs0mg"},{"bike_id":"2a49ee96-fd61-4354-9372-6d8fd2c217ae","system_id":"levelo_inurba_marseille","lat":43.29261,"lon":5.38436,"is_reserved":false,"is_disabled":false,"rental_uris":{"android":"levelo://app?vid=2a49ee96-fd61-4354-9372-6d8fd2c217ae","ios":"levelo://app?vid=2a49ee96-fd61-4354-9372-6d8fd2c217ae"},"vehicle_type_id":"4","last_reported":1726261648,"current_range_meters":9200,"station_id":"ce4bh692rcd13ifvqea0","pricing_plan_id":"cebpf4jnsgd1na2vs0mg"},{"bike_id":"e00d038a-00c7-4258-ab4b-259bdb081cfd","system_id":"levelo_inurba_marseille","lat":43.23201,"lon":5.35551,"is_reserved":false,"is_disabled":false,"rental_uris":{"android":"levelo://app?vid=e00d038a-00c7-4258-ab4b-259bdb081cfd","ios":"levelo://app?vid=e00d038a-00c7-4258-ab4b-259bdb081cfd"},"vehicle_type_id":"4","last_reported":1726261648,"current_range_meters":38800,"station_id":"ce4bhu92rcd13ifvqi70","pricing_plan_id":"cebpf4jnsgd1na2vs0mg"},{"bike_id":"4f847161-8733-40c0-9d1a-924c211b3057","system_id":"levelo_inurba_marseille","lat":43.23198,"lon":5.35544,"is_reserved":false,"is_disabled":false,"rental_uris":{"android":"levelo://app?vid=4f847161-8733-40c0-9d1a-924c211b3057","ios":"levelo://app?vid=4f847161-8733-40c0-9d1a-924c211b3057"},"vehicle_type_id":"4","last_reported":1726261648,"current_range_meters":38800,"station_id":"ce4bhu92rcd13ifvqi70","pricing_plan_id":"cebpf4jnsgd1na2vs0mg"},{"bike_id":"79b7950d-90c8-4e3c-a243-1a31b18cd68e","system_id":"levelo_inurba_marseille","lat":43.23969,"lon":5.36629,"is_reserved":false,"is_disabled":false,"rental_uris":{"android":"levelo://app?vid=79b7950d-90c8-4e3c-a243-1a31b18cd68e","ios":"levelo://app?vid=79b7950d-90c8-4e3c-a243-1a31b18cd68e"},"vehicle_type_id":"4","last_reported":1726261648,"current_range_meters":9200,"station_id":"ce4bhi12rcd13ifvqfp0","pricing_plan_id":"cebpf4jnsgd1na2vs0mg"},{"bike_id":"8ce4abbe-aae7-434c-b92a-9bec98856472","system_id":"levelo_inurba_marseille","lat":43.2558,"lon":5.3823,"is_reserved":false,"is_disabled":false,"rental_uris":{"android":"levelo://app?vid=8ce4abbe-aae7-434c-b92a-9bec98856472","ios":"levelo://app?vid=8ce4abbe-aae7-434c-b92a-9bec98856472"},"vehicle_type_id":"4","last_reported":1726261648,"current_range_meters":19600,"station_id":"ce4bhih2rcd13ifvqfs0","pricing_plan_id":"cebpf4jnsgd1na2vs0mg"},{"bike_id":"8cdd94dd-d1f4-4daa-8d20-0d3dfb9a99d1","system_id":"levelo_inurba_marseille","lat":43.27911,"lon":5.38015,"is_reserved":false,"is_disabled":false,"rental_uris":{"android":"levelo://app?vid=8cdd94dd-d1f4-4daa-8d20-0d3dfb9a99d1","ios":"levelo://app?vid=8cdd94dd-d1f4-4daa-8d20-0d3dfb9a99d1"},"vehicle_type_id":"4","last_reported":1726261648,"current_range_meters":14000,"station_id":"ce4bhf92rcd13ifvqf50","pricing_plan_id":"cebpf4jnsgd1na2vs0mg"},{"bike_id":"6bd1576a-e467-440f-aff2-c72956e0823a","system_id":"levelo_inurba_marseille","lat":43.30435,"lon":5.38894,"is_reserved":false,"is_disabled":false,"rental_uris":{"android":"levelo://app?vid=6bd1576a-e467-440f-aff2-c72956e0823a","ios":"levelo://app?vid=6bd1576a-e467-440f-aff2-c72956e0823a"},"vehicle_type_id":"4","last_reported":1726261648,"current_range_meters":19600,"station_id":"ce4bgk12rcd13ifvqbi0","pricing_plan_id":"cebpf4jnsgd1na2vs0mg"},{"bike_id":"dc99632a-5b6e-4d86-8a4a-1db831cc2b54","system_id":"levelo_inurba_marseille","lat":43.30284,"lon":5.37695,"is_reserved":false,"is_disabled":false,"rental_uris":{"android":"levelo://app?vid=dc99632a-5b6e-4d86-8a4a-1db831cc2b54","ios":"levelo://app?vid=dc99632a-5b6e-4d86-8a4a-1db831cc2b54"},"vehicle_type_id":"4","last_reported":1726261648,"current_range_meters":23200,"station_id":"ce4bguh2rcd13ifvqcj0","pricing_plan_id":"cebpf4jnsgd1na2vs0mg"},{"bike_id":"9e6b05d9-5b9e-4e8c-a7ed-a6aa23fe9a42","system_id":"levelo_inurba_marseille","lat":43.28616,"lon":5.35098,"is_reserved":false,"is_disabled":false,"rental_uris":{"android":"levelo://app?vid=9e6b05d9-5b9e-4e8c-a7ed-a6aa23fe9a42","ios":"levelo://app?vid=9e6b05d9-5b9e-4e8c-a7ed-a6aa23fe9a42"},"vehicle_type_id":"4","last_reported":1726261648,"current_range_meters":31200,"station_id":"ce4bhch2rcd13ifvqeug","pricing_plan_id":"cebpf4jnsgd1na2vs0mg"},{"bike_id":"e18ef51c-3647-4357-85f0-bb301c5654fc","system_id":"levelo_inurba_marseille","lat":43.23965,"lon":5.3662,"is_reserved":false,"is_disabled":false,"rental_uris":{"android":"levelo://app?vid=e18ef51c-3647-4357-85f0-bb301c5654fc","ios":"levelo://app?vid=e18ef51c-3647-4357-85f0-bb301c5654fc"},"vehicle_type_id":"4","last_reported":1726261648,"current_range_meters":19600,"station_id":"ce4bhi12rcd13ifvqfp0","pricing_plan_id":"cebpf4jnsgd1na2vs0mg"},{"bike_id":"3d78c845-f39e-4ce6-b5cf-e9fc7768b9b1","system_id":"levelo_inurba_marseille","lat":43.29514,"lon":5.3904,"is_reserved":false,"is_disabled":false,"rental_uris":{"android":"levelo://app?vid=3d78c845-f39e-4ce6-b5cf-e9fc7768b9b1","ios":"levelo://app?vid=3d78c845-f39e-4ce6-b5cf-e9fc7768b9b1"},"vehicle_type_id":"4","last_reported":1726261648,"current_range_meters":24800,"station_id":"ce4bh3p2rcd13ifvqdp0","pricing_plan_id":"cebpf4jnsgd1na2vs0mg"},{"bike_id":"7d61f96e-3af9-4905-8791-7729f86bc4f8","system_id":"levelo_inurba_marseille","lat":43.32464,"lon":5.36587,"is_reserved":false,"is_disabled":false,"rental_uris":{"android":"levelo://app?vid=7d61f96e-3af9-4905-8791-7729f86bc4f8","ios":"levelo://app?vid=7d61f96e-3af9-4905-8791-7729f86bc4f8"},"vehicle_type_id":"4","last_reported":1726261648,"current_range_meters":10000,"station_id":"ce4bhs12rcd13ifvqhvg","pricing_plan_id":"cebpf4jnsgd1na2vs0mg"},{"bike_id":"c2f97207-3c28-4fdc-982d-e06641e3926c","system_id":"levelo_inurba_marseille","lat":43.29272,"lon":5.38436,"is_reserved":false,"is_disabled":false,"rental_uris":{"android":"levelo://app?vid=c2f97207-3c28-4fdc-982d-e06641e3926c","ios":"levelo://app?vid=c2f97207-3c28-4fdc-982d-e06641e3926c"},"vehicle_type_id":"4","last_reported":1726261648,"current_range_meters":32000,"station_id":"ce4bh692rcd13ifvqea0","pricing_plan_id":"cebpf4jnsgd1na2vs0mg"},{"bike_id":"60d5bda9-f640-405a-935d-62d1314e50fa","system_id":"levelo_inurba_marseille","lat":43.23966,"lon":5.36634,"is_reserved":false,"is_disabled":false,"rental_uris":{"android":"levelo://app?vid=60d5bda9-f640-405a-935d-62d1314e50fa","ios":"levelo://app?vid=60d5bda9-f640-405a-935d-62d1314e50fa"},"vehicle_type_id":"4","last_reported":1726261648,"current_range_meters":25600,"station_id":"ce4bhi12rcd13ifvqfp0","pricing_plan_id":"cebpf4jnsgd1na2vs0mg"},{"bike_id":"8d569a04-84e8-4c81-b2ee-40bf9568ebcd","system_id":"levelo_inurba_marseille","lat":43.27989,"lon":5.40017,"is_reserved":false,"is_disabled":false,"rental_uris":{"android":"levelo://app?vid=8d569a04-84e8-4c81-b2ee-40bf9568ebcd","ios":"levelo://app?vid=8d569a04-84e8-4c81-b2ee-40bf9568ebcd"},"vehicle_type_id":"4","last_reported":1726261648,"current_range_meters":16400,"station_id":"ce4bho92rcd13ifvqh4g","pricing_plan_id":"cebpf4jnsgd1na2vs0mg"},{"bike_id":"51efaa28-be78-438d-9593-a5c65646c0fd","system_id":"levelo_inurba_marseille","lat":43.25933,"lon":5.4091,"is_reserved":false,"is_disabled":false,"rental_uris":{"android":"levelo://app?vid=51efaa28-be78-438d-9593-a5c65646c0fd","ios":"levelo://app?vid=51efaa28-be78-438d-9593-a5c65646c0fd"},"vehicle_type_id":"4","last_reported":1726261648,"current_range_meters":37600,"station_id":"ce4bhm92rcd13ifvqglg","pricing_plan_id":"cebpf4jnsgd1na2vs0mg"},{"bike_id":"f9a39468-2b08-44ae-a05f-08c1a633f6c7","system_id":"levelo_inurba_marseille","lat":43.26206,"lon":5.37447,"is_reserved":false,"is_disabled":false,"rental_uris":{"android":"levelo://app?vid=f9a39468-2b08-44ae-a05f-08c1a633f6c7","ios":"levelo://app?vid=f9a39468-2b08-44ae-a05f-08c1a633f6c7"},"vehicle_type_id":"4","last_reported":1726261648,"current_range_meters":38800,"station_id":"ce4bhgp2rcd13ifvqfc0","pricing_plan_id":"cebpf4jnsgd1na2vs0mg"},{"bike_id":"2dab5e79-19eb-4cde-b219-3fbf7d01979c","system_id":"levelo_inurba_marseille","lat":43.27568,"lon":5.38414,"is_reserved":false,"is_disabled":false,"rental_uris":{"android":"levelo://app?vid=2dab5e79-19eb-4cde-b219-3fbf7d01979c","ios":"levelo://app?vid=2dab5e79-19eb-4cde-b219-3fbf7d01979c"},"vehicle_type_id":"4","last_reported":1726261648,"current_range_meters":39200,"station_id":"ce4bhh92rcd13ifvqfi0","pricing_plan_id":"cebpf4jnsgd1na2vs0mg"},{"bike_id":"b3cc45a5-2045-4ba0-8276-a59b84a5badc","system_id":"levelo_inurba_marseille","lat":43.26927,"lon":5.38913,"is_reserved":false,"is_disabled":false,"rental_uris":{"android":"levelo://app?vid=b3cc45a5-2045-4ba0-8276-a59b84a5badc","ios":"levelo://app?vid=b3cc45a5-2045-4ba0-8276-a59b84a5badc"},"vehicle_type_id":"4","last_reported":1726261648,"current_range_meters":4000,"station_id":"ce4bhhh2rcd13ifvqfl0","pricing_plan_id":"cebpf4jnsgd1na2vs0mg"},{"bike_id":"1238613a-5efd-4b1b-b7cc-529d0a2a4cc8","system_id":"levelo_inurba_marseille","lat":43.2836,"lon":5.38628,"is_reserved":false,"is_disabled":false,"rental_uris":{"android":"levelo://app?vid=1238613a-5efd-4b1b-b7cc-529d0a2a4cc8","ios":"levelo://app?vid=1238613a-5efd-4b1b-b7cc-529d0a2a4cc8"},"vehicle_type_id":"4","last_reported":1726261648,"current_range_meters":27200,"station_id":"ce4bh492rcd13ifvqdvg","pricing_plan_id":"cebpf4jnsgd1na2vs0mg"},{"bike_id":"2b516ddd-0555-4101-9164-390b058c5056","system_id":"levelo_inurba_marseille","lat":43.31325,"lon":5.39689,"is_reserved":false,"is_disabled":false,"rental_uris":{"android":"levelo://app?vid=2b516ddd-0555-4101-9164-390b058c5056","ios":"levelo://app?vid=2b516ddd-0555-4101-9164-390b058c5056"},"vehicle_type_id":"4","last_reported":1726261648,"current_range_meters":16400,"station_id":"ce4bgvp2rcd13ifvqcu0","pricing_plan_id":"cebpf4jnsgd1na2vs0mg"},{"bike_id":"11988caa-a886-4ea2-ba8c-8dd2ae35aa45","system_id":"levelo_inurba_marseille","lat":43.26938,"lon":5.40251,"is_reserved":false,"is_disabled":false,"rental_uris":{"android":"levelo://app?vid=11988caa-a886-4ea2-ba8c-8dd2ae35aa45","ios":"levelo://app?vid=11988caa-a886-4ea2-ba8c-8dd2ae35aa45"},"vehicle_type_id":"4","last_reported":1726261648,"current_range_meters":38800,"station_id":"cjm6bp8fraef2m0cb0m0","pricing_plan_id":"cebpf4jnsgd1na2vs0mg"},{"bike_id":"71cbb578-5c4f-4bae-b5ab-3f387855ff35","system_id":"levelo_inurba_marseille","lat":43.28438,"lon":5.39185,"is_reserved":false,"is_disabled":false,"rental_uris":{"android":"levelo://app?vid=71cbb578-5c4f-4bae-b5ab-3f387855ff35","ios":"levelo://app?vid=71cbb578-5c4f-4bae-b5ab-3f387855ff35"},"vehicle_type_id":"4","last_reported":1726261648,"current_range_meters":34000,"station_id":"ce4bhoh2rcd13ifvqh5g","pricing_plan_id":"cebpf4jnsgd1na2vs0mg"},{"bike_id":"277e4ab7-d614-47bf-b1b6-1facba0197e1","system_id":"levelo_inurba_marseille","lat":43.26572,"lon":5.38997,"is_reserved":false,"is_disabled":false,"rental_uris":{"android":"levelo://app?vid=277e4ab7-d614-47bf-b1b6-1facba0197e1","ios":"levelo://app?vid=277e4ab7-d614-47bf-b1b6-1facba0197e1"},"vehicle_type_id":"4","last_reported":1726261648,"current_range_meters":26800,"station_id":"ce4bhe12rcd13ifvqf30","pricing_plan_id":"cebpf4jnsgd1na2vs0mg"},{"bike_id":"81d81b1a-742e-4e7e-9632-041d7fe88266","system_id":"levelo_inurba_marseille","lat":43.31124,"lon":5.37774,"is_reserved":false,"is_disabled":false,"rental_uris":{"android":"levelo://app?vid=81d81b1a-742e-4e7e-9632-041d7fe88266","ios":"levelo://app?vid=81d81b1a-742e-4e7e-9632-041d7fe88266"},"vehicle_type_id":"4","last_reported":1726261648,"current_range_meters":38800,"station_id":"ce4bgt92rcd13ifvqcg0","pricing_plan_id":"cebpf4jnsgd1na2vs0mg"},{"bike_id":"75c35499-0de6-41a0-acf5-7c9b58381038","system_id":"levelo_inurba_marseille","lat":43.23182,"lon":5.39984,"is_reserved":false,"is_disabled":false,"rental_uris":{"android":"levelo://app?vid=75c35499-0de6-41a0-acf5-7c9b58381038","ios":"levelo://app?vid=75c35499-0de6-41a0-acf5-7c9b58381038"},"vehicle_type_id":"4","last_reported":1726261648,"current_range_meters":38800,"station_id":"ce4bhn12rcd13ifvqgqg","pricing_plan_id":"cebpf4jnsgd1na2vs0mg"},{"bike_id":"17cb1741-91d4-496e-847e-4f35160bc07c","system_id":"levelo_inurba_marseille","lat":43.26944,"lon":5.40259,"is_reserved":false,"is_disabled":false,"rental_uris":{"android":"levelo://app?vid=17cb1741-91d4-496e-847e-4f35160bc07c","ios":"levelo://app?vid=17cb1741-91d4-496e-847e-4f35160bc07c"},"vehicle_type_id":"4","last_reported":1726261648,"current_range_meters":14000,"station_id":"cjm6bp8fraef2m0cb0m0","pricing_plan_id":"cebpf4jnsgd1na2vs0mg"},{"bike_id":"522bb05d-8a35-43e4-a3d3-8fdd99de58e0","system_id":"levelo_inurba_marseille","lat":43.24477,"lon":5.37794,"is_reserved":false,"is_disabled":false,"rental_uris":{"android":"levelo://app?vid=522bb05d-8a35-43e4-a3d3-8fdd99de58e0","ios":"levelo://app?vid=522bb05d-8a35-43e4-a3d3-8fdd99de58e0"},"vehicle_type_id":"4","last_reported":1726261648,"current_range_meters":8800,"station_id":"","pricing_plan_id":"cebpf4jnsgd1na2vs0mg"},{"bike_id":"574e5eee-0887-4493-97d1-50a9babc7f98","system_id":"levelo_inurba_marseille","lat":43.27954,"lon":5.41047,"is_reserved":false,"is_disabled":false,"rental_uris":{"android":"levelo://app?vid=574e5eee-0887-4493-97d1-50a9babc7f98","ios":"levelo://app?vid=574e5eee-0887-4493-97d1-50a9babc7f98"},"vehicle_type_id":"4","last_reported":1726261648,"current_range_meters":6400,"station_id":"ce4bhnp2rcd13ifvqh0g","pricing_plan_id":"cebpf4jnsgd1na2vs0mg"},{"bike_id":"0200e915-f816-4757-ad7c-c8320137b243","system_id":"levelo_inurba_marseille","lat":43.33022,"lon":5.39044,"is_reserved":false,"is_disabled":false,"rental_uris":{"android":"levelo://app?vid=0200e915-f816-4757-ad7c-c8320137b243","ios":"levelo://app?vid=0200e915-f816-4757-ad7c-c8320137b243"},"vehicle_type_id":"4","last_reported":1726261648,"current_range_meters":16400,"station_id":"ce4bhr92rcd13ifvqhrg","pricing_plan_id":"cebpf4jnsgd1na2vs0mg"},{"bike_id":"c0455ab4-5e8c-4f7b-9d77-314d600954dc","system_id":"levelo_inurba_marseille","lat":43.27919,"lon":5.39579,"is_reserved":false,"is_disabled":false,"rental_uris":{"android":"levelo://app?vid=c0455ab4-5e8c-4f7b-9d77-314d600954dc","ios":"levelo://app?vid=c0455ab4-5e8c-4f7b-9d77-314d600954dc"},"vehicle_type_id":"4","last_reported":1726261648,"current_range_meters":6800,"station_id":"ce4bhf92rcd13ifvqf40","pricing_plan_id":"cebpf4jnsgd1na2vs0mg"},{"bike_id":"35743b92-ae63-4db8-bc17-944d0a2ad016","system_id":"levelo_inurba_marseille","lat":43.27735,"lon":5.38367,"is_reserved":false,"is_disabled":false,"rental_uris":{"android":"levelo://app?vid=35743b92-ae63-4db8-bc17-944d0a2ad016","ios":"levelo://app?vid=35743b92-ae63-4db8-bc17-944d0a2ad016"},"vehicle_type_id":"4","last_reported":1726261648,"current_range_meters":36800,"station_id":"ce4bhh92rcd13ifvqfi0","pricing_plan_id":"cebpf4jnsgd1na2vs0mg"},{"bike_id":"91d155a1-0e95-42f4-9cf2-24e586735a13","system_id":"levelo_inurba_marseille","lat":43.33725,"lon":5.39177,"is_reserved":false,"is_disabled":false,"rental_uris":{"android":"levelo://app?vid=91d155a1-0e95-42f4-9cf2-24e586735a13","ios":"levelo://app?vid=91d155a1-0e95-42f4-9cf2-24e586735a13"},"vehicle_type_id":"4","last_reported":1726261648,"current_range_meters":27600,"station_id":"ce4bhr92rcd13ifvqhsg","pricing_plan_id":"cebpf4jnsgd1na2vs0mg"},{"bike_id":"19cb6015-d35b-4ea8-bb63-e19547cc4f55","system_id":"levelo_inurba_marseille","lat":43.31332,"lon":5.397,"is_reserved":false,"is_disabled":false,"rental_uris":{"android":"levelo://app?vid=19cb6015-d35b-4ea8-bb63-e19547cc4f55","ios":"levelo://app?vid=19cb6015-d35b-4ea8-bb63-e19547cc4f55"},"vehicle_type_id":"4","last_reported":1726261648,"current_range_meters":28800,"station_id":"ce4bgvp2rcd13ifvqcu0","pricing_plan_id":"cebpf4jnsgd1na2vs0mg"},{"bike_id":"d801c34f-7ee0-4d0b-86b0-fbc11993d083","system_id":"levelo_inurba_marseille","lat":43.31481,"lon":5.38927,"is_reserved":false,"is_disabled":false,"rental_uris":{"android":"levelo://app?vid=d801c34f-7ee0-4d0b-86b0-fbc11993d083","ios":"levelo://app?vid=d801c34f-7ee0-4d0b-86b0-fbc11993d083"},"vehicle_type_id":"4","last_reported":1726261648,"current_range_meters":3200,"station_id":"","pricing_plan_id":"cebpf4jnsgd1na2vs0mg"},{"bike_id":"ce32f603-8fbe-41ae-8a23-82f5eaf6197b","system_id":"levelo_inurba_marseille","lat":43.29536,"lon":5.38544,"is_reserved":false,"is_disabled":false,"rental_uris":{"android":"levelo://app?vid=ce32f603-8fbe-41ae-8a23-82f5eaf6197b","ios":"levelo://app?vid=ce32f603-8fbe-41ae-8a23-82f5eaf6197b"},"vehicle_type_id":"4","last_reported":1726261648,"current_range_meters":2800,"station_id":"ce4bgih2rcd13ifvqba0","pricing_plan_id":"cebpf4jnsgd1na2vs0mg"},{"bike_id":"9368e81d-9d41-40d8-9614-e043ff6b63f3","system_id":"levelo_inurba_marseille","lat":43.31363,"lon":5.3849,"is_reserved":false,"is_disabled":false,"rental_uris":{"android":"levelo://app?vid=9368e81d-9d41-40d8-9614-e043ff6b63f3","ios":"levelo://app?vid=9368e81d-9d41-40d8-9614-e043ff6b63f3"},"vehicle_type_id":"4","last_reported":1726261648,"current_range_meters":22800,"station_id":"ce4bgt92rcd13ifvqcf0","pricing_plan_id":"cebpf4jnsgd1na2vs0mg"},{"bike_id":"ded181cb-025f-494a-8c3a-2910e4fc092c","system_id":"levelo_inurba_marseille","lat":43.29422,"lon":5.3862,"is_reserved":false,"is_disabled":false,"rental_uris":{"android":"levelo://app?vid=ded181cb-025f-494a-8c3a-2910e4fc092c","ios":"levelo://app?vid=ded181cb-025f-494a-8c3a-2910e4fc092c"},"vehicle_type_id":"4","last_reported":1726261648,"current_range_meters":36800,"station_id":"ce4bh2h2rcd13ifvqdh0","pricing_plan_id":"cebpf4jnsgd1na2vs0mg"},{"bike_id":"a8408bc0-1ad0-4261-92e7-4324637d7c82","system_id":"levelo_inurba_marseille","lat":43.29002,"lon":5.35567,"is_reserved":false,"is_disabled":false,"rental_uris":{"android":"levelo://app?vid=a8408bc0-1ad0-4261-92e7-4324637d7c82","ios":"levelo://app?vid=a8408bc0-1ad0-4261-92e7-4324637d7c82"},"vehicle_type_id":"4","last_reported":1726261648,"current_range_meters":38800,"station_id":"ce4bhb92rcd13ifvqen0","pricing_plan_id":"cebpf4jnsgd1na2vs0mg"},{"bike_id":"0d9f035c-8e47-426d-8593-e2bc7f05f235","system_id":"levelo_inurba_marseille","lat":43.30428,"lon":5.36525,"is_reserved":false,"is_disabled":false,"rental_uris":{"android":"levelo://app?vid=0d9f035c-8e47-426d-8593-e2bc7f05f235","ios":"levelo://app?vid=0d9f035c-8e47-426d-8593-e2bc7f05f235"},"vehicle_type_id":"4","last_reported":1726261648,"current_range_meters":11600,"station_id":"","pricing_plan_id":"cebpf4jnsgd1na2vs0mg"},{"bike_id":"e4687fef-cd05-471c-b786-02272304b5b9","system_id":"levelo_inurba_marseille","lat":43.26212,"lon":5.37436,"is_reserved":false,"is_disabled":false,"rental_uris":{"android":"levelo://app?vid=e4687fef-cd05-471c-b786-02272304b5b9","ios":"levelo://app?vid=e4687fef-cd05-471c-b786-02272304b5b9"},"vehicle_type_id":"4","last_reported":1726261648,"current_range_meters":24800,"station_id":"ce4bhgp2rcd13ifvqfc0","pricing_plan_id":"cebpf4jnsgd1na2vs0mg"},{"bike_id":"fb1fe769-c2ae-4523-86c9-900453384f6b","system_id":"levelo_inurba_marseille","lat":43.266856,"lon":5.382715,"is_reserved":false,"is_disabled":false,"rental_uris":{"android":"levelo://app?vid=fb1fe769-c2ae-4523-86c9-900453384f6b","ios":"levelo://app?vid=fb1fe769-c2ae-4523-86c9-900453384f6b"},"vehicle_type_id":"4","last_reported":1726261648,"current_range_meters":25600,"station_id":"ce4bhg92rcd13ifvqf90","pricing_plan_id":"cebpf4jnsgd1na2vs0mg"},{"bike_id":"07fa8753-0821-4b04-962c-77b4fd87299c","system_id":"levelo_inurba_marseille","lat":43.278381,"lon":5.392044,"is_reserved":false,"is_disabled":false,"rental_uris":{"android":"levelo://app?vid=07fa8753-0821-4b04-962c-77b4fd87299c","ios":"levelo://app?vid=07fa8753-0821-4b04-962c-77b4fd87299c"},"vehicle_type_id":"4","last_reported":1726261648,"current_range_meters":36800,"station_id":"ce4bhjp2rcd13ifvqga0","pricing_plan_id":"cebpf4jnsgd1na2vs0mg"},{"bike_id":"64712d1f-4b2d-4cb5-ac24-8c714a562554","system_id":"levelo_inurba_marseille","lat":43.30893,"lon":5.37192,"is_reserved":false,"is_disabled":false,"rental_uris":{"android":"levelo://app?vid=64712d1f-4b2d-4cb5-ac24-8c714a562554","ios":"levelo://app?vid=64712d1f-4b2d-4cb5-ac24-8c714a562554"},"vehicle_type_id":"4","last_reported":1726261648,"current_range_meters":17600,"station_id":"ce4bguh2rcd13ifvqckg","pricing_plan_id":"cebpf4jnsgd1na2vs0mg"},{"bike_id":"d57407f8-bf56-4fd3-a5c0-9daedd1527be","system_id":"levelo_inurba_marseille","lat":43.31277,"lon":5.40174,"is_reserved":false,"is_disabled":false,"rental_uris":{"android":"levelo://app?vid=d57407f8-bf56-4fd3-a5c0-9daedd1527be","ios":"levelo://app?vid=d57407f8-bf56-4fd3-a5c0-9daedd1527be"},"vehicle_type_id":"4","last_reported":1726261648,"current_range_meters":9600,"station_id":"ce4bh092rcd13ifvqd30","pricing_plan_id":"cebpf4jnsgd1na2vs0mg"},{"bike_id":"552ccea4-a0ab-4fa2-9015-1ea8da64cd61","system_id":"levelo_inurba_marseille","lat":43.25577,"lon":5.38225,"is_reserved":false,"is_disabled":false,"rental_uris":{"android":"levelo://app?vid=552ccea4-a0ab-4fa2-9015-1ea8da64cd61","ios":"levelo://app?vid=552ccea4-a0ab-4fa2-9015-1ea8da64cd61"},"vehicle_type_id":"4","last_reported":1726261648,"current_range_meters":8400,"station_id":"ce4bhih2rcd13ifvqfs0","pricing_plan_id":"cebpf4jnsgd1na2vs0mg"},{"bike_id":"0f825f21-0e96-404b-b7b4-2a2e53eccb53","system_id":"levelo_inurba_marseille","lat":43.24662,"lon":5.38588,"is_reserved":false,"is_disabled":false,"rental_uris":{"android":"levelo://app?vid=0f825f21-0e96-404b-b7b4-2a2e53eccb53","ios":"levelo://app?vid=0f825f21-0e96-404b-b7b4-2a2e53eccb53"},"vehicle_type_id":"4","last_reported":1726261648,"current_range_meters":2000,"station_id":"","pricing_plan_id":"cebpf4jnsgd1na2vs0mg"},{"bike_id":"2d8dab8e-449b-4e4d-a13e-74463b2c943e","system_id":"levelo_inurba_marseille","lat":43.27618,"lon":5.36104,"is_reserved":false,"is_disabled":false,"rental_uris":{"android":"levelo://app?vid=2d8dab8e-449b-4e4d-a13e-74463b2c943e","ios":"levelo://app?vid=2d8dab8e-449b-4e4d-a13e-74463b2c943e"},"vehicle_type_id":"4","last_reported":1726261648,"current_range_meters":14800,"station_id":"ce4bgj92rcd13ifvqbe0","pricing_plan_id":"cebpf4jnsgd1na2vs0mg"},{"bike_id":"11315963-1fe8-4ba2-bad6-992c056d0508","system_id":"levelo_inurba_marseille","lat":43.31377,"lon":5.38494,"is_reserved":false,"is_disabled":false,"rental_uris":{"android":"levelo://app?vid=11315963-1fe8-4ba2-bad6-992c056d0508","ios":"levelo://app?vid=11315963-1fe8-4ba2-bad6-992c056d0508"},"vehicle_type_id":"4","last_reported":1726261648,"current_range_meters":23200,"station_id":"ce4bgt92rcd13ifvqcf0","pricing_plan_id":"cebpf4jnsgd1na2vs0mg"},{"bike_id":"7a1235e9-007e-4942-9886-cdd34a67165e","system_id":"levelo_inurba_marseille","lat":43.31713,"lon":5.43706,"is_reserved":false,"is_disabled":false,"rental_uris":{"android":"levelo://app?vid=7a1235e9-007e-4942-9886-cdd34a67165e","ios":"levelo://app?vid=7a1235e9-007e-4942-9886-cdd34a67165e"},"vehicle_type_id":"4","last_reported":1726261648,"current_range_meters":30800,"station_id":"ce4bhp92rcd13ifvqhcg","pricing_plan_id":"cebpf4jnsgd1na2vs0mg"},{"bike_id":"e32c7304-a916-43ff-8f89-a97d7e51e7d9","system_id":"levelo_inurba_marseille","lat":43.24668,"lon":5.38171,"is_reserved":false,"is_disabled":false,"rental_uris":{"android":"levelo://app?vid=e32c7304-a916-43ff-8f89-a97d7e51e7d9","ios":"levelo://app?vid=e32c7304-a916-43ff-8f89-a97d7e51e7d9"},"vehicle_type_id":"4","last_reported":1726261648,"current_range_meters":8400,"station_id":"ce4bhih2rcd13ifvqfr0","pricing_plan_id":"cebpf4jnsgd1na2vs0mg"},{"bike_id":"1bf0db5f-5142-4765-b21d-727dad3862a8","system_id":"levelo_inurba_marseille","lat":43.32485,"lon":5.36577,"is_reserved":false,"is_disabled":false,"rental_uris":{"android":"levelo://app?vid=1bf0db5f-5142-4765-b21d-727dad3862a8","ios":"levelo://app?vid=1bf0db5f-5142-4765-b21d-727dad3862a8"},"vehicle_type_id":"4","last_reported":1726261648,"current_range_meters":7200,"station_id":"ce4bhs12rcd13ifvqhvg","pricing_plan_id":"cebpf4jnsgd1na2vs0mg"},{"bike_id":"8bd5b436-6eb7-44b3-b7b2-efd620e858e4","system_id":"levelo_inurba_marseille","lat":43.31065,"lon":5.38355,"is_reserved":false,"is_disabled":false,"rental_uris":{"android":"levelo://app?vid=8bd5b436-6eb7-44b3-b7b2-efd620e858e4","ios":"levelo://app?vid=8bd5b436-6eb7-44b3-b7b2-efd620e858e4"},"vehicle_type_id":"4","last_reported":1726261648,"current_range_meters":9600,"station_id":"ce4bgv92rcd13ifvqcr0","pricing_plan_id":"cebpf4jnsgd1na2vs0mg"},{"bike_id":"60890bda-f4ae-4c89-85ba-a13d081f7967","system_id":"levelo_inurba_marseille","lat":43.30299,"lon":5.37704,"is_reserved":false,"is_disabled":false,"rental_uris":{"android":"levelo://app?vid=60890bda-f4ae-4c89-85ba-a13d081f7967","ios":"levelo://app?vid=60890bda-f4ae-4c89-85ba-a13d081f7967"},"vehicle_type_id":"4","last_reported":1726261648,"current_range_meters":24800,"station_id":"ce4bguh2rcd13ifvqcj0","pricing_plan_id":"cebpf4jnsgd1na2vs0mg"},{"bike_id":"53a2d874-293d-47cc-bdbd-a03b3468623b","system_id":"levelo_inurba_marseille","lat":43.29899,"lon":5.43665,"is_reserved":false,"is_disabled":false,"rental_uris":{"android":"levelo://app?vid=53a2d874-293d-47cc-bdbd-a03b3468623b","ios":"levelo://app?vid=53a2d874-293d-47cc-bdbd-a03b3468623b"},"vehicle_type_id":"4","last_reported":1726261648,"current_range_meters":12000,"station_id":"ce4bhpp2rcd13ifvqhfg","pricing_plan_id":"cebpf4jnsgd1na2vs0mg"},{"bike_id":"4afb8b00-be3a-4d15-9b8b-47916e625762","system_id":"levelo_inurba_marseille","lat":43.28535,"lon":5.44233,"is_reserved":false,"is_disabled":false,"rental_uris":{"android":"levelo://app?vid=4afb8b00-be3a-4d15-9b8b-47916e625762","ios":"levelo://app?vid=4afb8b00-be3a-4d15-9b8b-47916e625762"},"vehicle_type_id":"4","last_reported":1726261648,"current_range_meters":26000,"station_id":"","pricing_plan_id":"cebpf4jnsgd1na2vs0mg"},{"bike_id":"07fd60ee-19ad-432a-b83c-321f2d4b57e8","system_id":"levelo_inurba_marseille","lat":43.28699,"lon":5.3738,"is_reserved":false,"is_disabled":false,"rental_uris":{"android":"levelo://app?vid=07fd60ee-19ad-432a-b83c-321f2d4b57e8","ios":"levelo://app?vid=07fd60ee-19ad-432a-b83c-321f2d4b57e8"},"vehicle_type_id":"4","last_reported":1726261648,"current_range_meters":19600,"station_id":"ce4bh3p2rcd13ifvqdq0","pricing_plan_id":"cebpf4jnsgd1na2vs0mg"},{"bike_id":"bb7acf50-b6bc-4b2d-adf4-833abc23b24c","system_id":"levelo_inurba_marseille","lat":43.23201,"lon":5.35547,"is_reserved":false,"is_disabled":false,"rental_uris":{"android":"levelo://app?vid=bb7acf50-b6bc-4b2d-adf4-833abc23b24c","ios":"levelo://app?vid=bb7acf50-b6bc-4b2d-adf4-833abc23b24c"},"vehicle_type_id":"4","last_reported":1726261648,"current_range_meters":39200,"station_id":"ce4bhu92rcd13ifvqi70","pricing_plan_id":"cebpf4jnsgd1na2vs0mg"},{"bike_id":"bc8be1fd-7bee-49c5-817c-184bdd69b536","system_id":"levelo_inurba_marseille","lat":43.2738,"lon":5.41951,"is_reserved":false,"is_disabled":false,"rental_uris":{"android":"levelo://app?vid=bc8be1fd-7bee-49c5-817c-184bdd69b536","ios":"levelo://app?vid=bc8be1fd-7bee-49c5-817c-184bdd69b536"},"vehicle_type_id":"4","last_reported":1726261648,"current_range_meters":28400,"station_id":"","pricing_plan_id":"cebpf4jnsgd1na2vs0mg"},{"bike_id":"ca4ec1a1-d3bb-4aed-94af-89eae268f3dd","system_id":"levelo_inurba_marseille","lat":43.29263,"lon":5.38446,"is_reserved":false,"is_disabled":false,"rental_uris":{"android":"levelo://app?vid=ca4ec1a1-d3bb-4aed-94af-89eae268f3dd","ios":"levelo://app?vid=ca4ec1a1-d3bb-4aed-94af-89eae268f3dd"},"vehicle_type_id":"4","last_reported":1726261648,"current_range_meters":38800,"station_id":"ce4bh692rcd13ifvqea0","pricing_plan_id":"cebpf4jnsgd1na2vs0mg"},{"bike_id":"67d15022-cd3b-48b5-ba3a-7d7504290205","system_id":"levelo_inurba_marseille","lat":43.31121,"lon":5.37762,"is_reserved":false,"is_disabled":false,"rental_uris":{"android":"levelo://app?vid=67d15022-cd3b-48b5-ba3a-7d7504290205","ios":"levelo://app?vid=67d15022-cd3b-48b5-ba3a-7d7504290205"},"vehicle_type_id":"4","last_reported":1726261648,"current_range_meters":20400,"station_id":"ce4bgt92rcd13ifvqcg0","pricing_plan_id":"cebpf4jnsgd1na2vs0mg"},{"bike_id":"d60a5e34-444f-438b-9b1b-b44df5776e38","system_id":"levelo_inurba_marseille","lat":43.29802,"lon":5.38098,"is_reserved":false,"is_disabled":false,"rental_uris":{"android":"levelo://app?vid=d60a5e34-444f-438b-9b1b-b44df5776e38","ios":"levelo://app?vid=d60a5e34-444f-438b-9b1b-b44df5776e38"},"vehicle_type_id":"4","last_reported":1726261648,"current_range_meters":25600,"station_id":"ce4bgip2rcd13ifvqbb0","pricing_plan_id":"cebpf4jnsgd1na2vs0mg"},{"bike_id":"af1584c3-a638-4e40-8235-ffb05c784e48","system_id":"levelo_inurba_marseille","lat":43.28,"lon":5.4002,"is_reserved":false,"is_disabled":false,"rental_uris":{"android":"levelo://app?vid=af1584c3-a638-4e40-8235-ffb05c784e48","ios":"levelo://app?vid=af1584c3-a638-4e40-8235-ffb05c784e48"},"vehicle_type_id":"4","last_reported":1726261648,"current_range_meters":26000,"station_id":"ce4bho92rcd13ifvqh4g","pricing_plan_id":"cebpf4jnsgd1na2vs0mg"},{"bike_id":"5f6f15d1-ffcd-42bd-8353-baf15cef1256","system_id":"levelo_inurba_marseille","lat":43.30886,"lon":5.39645,"is_reserved":false,"is_disabled":false,"rental_uris":{"android":"levelo://app?vid=5f6f15d1-ffcd-42bd-8353-baf15cef1256","ios":"levelo://app?vid=5f6f15d1-ffcd-42bd-8353-baf15cef1256"},"vehicle_type_id":"4","last_reported":1726261648,"current_range_meters":28800,"station_id":"ce4bh012rcd13ifvqcv0","pricing_plan_id":"cebpf4jnsgd1na2vs0mg"},{"bike_id":"6da9e460-f0cd-43d6-9f6b-761aceccaf26","system_id":"levelo_inurba_marseille","lat":43.24648,"lon":5.38893,"is_reserved":false,"is_disabled":false,"rental_uris":{"android":"levelo://app?vid=6da9e460-f0cd-43d6-9f6b-761aceccaf26","ios":"levelo://app?vid=6da9e460-f0cd-43d6-9f6b-761aceccaf26"},"vehicle_type_id":"4","last_reported":1726261648,"current_range_meters":28000,"station_id":"ce4bhg12rcd13ifvqf60","pricing_plan_id":"cebpf4jnsgd1na2vs0mg"},{"bike_id":"f5ce7a0e-bae9-46bf-9de8-007491c66701","system_id":"levelo_inurba_marseille","lat":43.34147,"lon":5.40897,"is_reserved":false,"is_disabled":false,"rental_uris":{"android":"levelo://app?vid=f5ce7a0e-bae9-46bf-9de8-007491c66701","ios":"levelo://app?vid=f5ce7a0e-bae9-46bf-9de8-007491c66701"},"vehicle_type_id":"4","last_reported":1726261648,"current_range_meters":37600,"station_id":"ce4bhqh2rcd13ifvqhlg","pricing_plan_id":"cebpf4jnsgd1na2vs0mg"},{"bike_id":"a556139b-e56c-479b-b4cc-03b2112f3a29","system_id":"levelo_inurba_marseille","lat":43.2808,"lon":5.39657,"is_reserved":false,"is_disabled":false,"rental_uris":{"android":"levelo://app?vid=a556139b-e56c-479b-b4cc-03b2112f3a29","ios":"levelo://app?vid=a556139b-e56c-479b-b4cc-03b2112f3a29"},"vehicle_type_id":"4","last_reported":1726261648,"current_range_meters":9200,"station_id":"ce4bho12rcd13ifvqh2g","pricing_plan_id":"cebpf4jnsgd1na2vs0mg"},{"bike_id":"81f1a965-ff8b-4d74-9682-ff18567684f9","system_id":"levelo_inurba_marseille","lat":43.33028,"lon":5.39034,"is_reserved":false,"is_disabled":false,"rental_uris":{"android":"levelo://app?vid=81f1a965-ff8b-4d74-9682-ff18567684f9","ios":"levelo://app?vid=81f1a965-ff8b-4d74-9682-ff18567684f9"},"vehicle_type_id":"4","last_reported":1726261648,"current_range_meters":6000,"station_id":"ce4bhr92rcd13ifvqhrg","pricing_plan_id":"cebpf4jnsgd1na2vs0mg"},{"bike_id":"2d554295-41dc-4ad1-bd72-009ae02cf276","system_id":"levelo_inurba_marseille","lat":43.24072,"lon":5.37761,"is_reserved":false,"is_disabled":false,"rental_uris":{"android":"levelo://app?vid=2d554295-41dc-4ad1-bd72-009ae02cf276","ios":"levelo://app?vid=2d554295-41dc-4ad1-bd72-009ae02cf276"},"vehicle_type_id":"4","last_reported":1726261648,"current_range_meters":36800,"station_id":"ce4bhnp2rcd13ifvqgvg","pricing_plan_id":"cebpf4jnsgd1na2vs0mg"},{"bike_id":"06444ed7-cf13-4c1e-9077-801c8a8ef5c3","system_id":"levelo_inurba_marseille","lat":43.2952,"lon":5.39041,"is_reserved":false,"is_disabled":false,"rental_uris":{"android":"levelo://app?vid=06444ed7-cf13-4c1e-9077-801c8a8ef5c3","ios":"levelo://app?vid=06444ed7-cf13-4c1e-9077-801c8a8ef5c3"},"vehicle_type_id":"4","last_reported":1726261648,"current_range_meters":37600,"station_id":"ce4bh3p2rcd13ifvqdp0","pricing_plan_id":"cebpf4jnsgd1na2vs0mg"},{"bike_id":"c28ff0f1-1713-431a-bccf-4e7a21e8e39b","system_id":"levelo_inurba_marseille","lat":43.25501,"lon":5.37651,"is_reserved":false,"is_disabled":false,"rental_uris":{"android":"levelo://app?vid=c28ff0f1-1713-431a-bccf-4e7a21e8e39b","ios":"levelo://app?vid=c28ff0f1-1713-431a-bccf-4e7a21e8e39b"},"vehicle_type_id":"4","last_reported":1726261648,"current_range_meters":38800,"station_id":"ce4bhh12rcd13ifvqff0","pricing_plan_id":"cebpf4jnsgd1na2vs0mg"},{"bike_id":"0abebf1e-08a3-4d2a-bbc8-e7d0bc819487","system_id":"levelo_inurba_marseille","lat":43.29276,"lon":5.38445,"is_reserved":false,"is_disabled":false,"rental_uris":{"android":"levelo://app?vid=0abebf1e-08a3-4d2a-bbc8-e7d0bc819487","ios":"levelo://app?vid=0abebf1e-08a3-4d2a-bbc8-e7d0bc819487"},"vehicle_type_id":"4","last_reported":1726261648,"current_range_meters":4400,"station_id":"ce4bh692rcd13ifvqea0","pricing_plan_id":"cebpf4jnsgd1na2vs0mg"},{"bike_id":"eef74e6f-8247-4014-afbc-f6f8a623d03c","system_id":"levelo_inurba_marseille","lat":43.28729,"lon":5.36093,"is_reserved":false,"is_disabled":false,"rental_uris":{"android":"levelo://app?vid=eef74e6f-8247-4014-afbc-f6f8a623d03c","ios":"levelo://app?vid=eef74e6f-8247-4014-afbc-f6f8a623d03c"},"vehicle_type_id":"4","last_reported":1726261648,"current_range_meters":9600,"station_id":"cki0cbj6b192h4jlfktg","pricing_plan_id":"cebpf4jnsgd1na2vs0mg"},{"bike_id":"ffc5e4d0-2554-4da1-bc37-c3cf25c612bc","system_id":"levelo_inurba_marseille","lat":43.2955,"lon":5.39026,"is_reserved":false,"is_disabled":false,"rental_uris":{"android":"levelo://app?vid=ffc5e4d0-2554-4da1-bc37-c3cf25c612bc","ios":"levelo://app?vid=ffc5e4d0-2554-4da1-bc37-c3cf25c612bc"},"vehicle_type_id":"4","last_reported":1726261648,"current_range_meters":15200,"station_id":"ce4bh3p2rcd13ifvqdp0","pricing_plan_id":"cebpf4jnsgd1na2vs0mg"},{"bike_id":"d63b08fd-7716-422a-94e4-8f1dfff5bb11","system_id":"levelo_inurba_marseille","lat":43.28615,"lon":5.35097,"is_reserved":false,"is_disabled":false,"rental_uris":{"android":"levelo://app?vid=d63b08fd-7716-422a-94e4-8f1dfff5bb11","ios":"levelo://app?vid=d63b08fd-7716-422a-94e4-8f1dfff5bb11"},"vehicle_type_id":"4","last_reported":1726261648,"current_range_meters":37600,"station_id":"ce4bhch2rcd13ifvqeug","pricing_plan_id":"cebpf4jnsgd1na2vs0mg"},{"bike_id":"ec70d30b-37ec-4b5c-b10c-9617e30c7fa0","system_id":"levelo_inurba_marseille","lat":43.29897,"lon":5.36622,"is_reserved":false,"is_disabled":false,"rental_uris":{"android":"levelo://app?vid=ec70d30b-37ec-4b5c-b10c-9617e30c7fa0","ios":"levelo://app?vid=ec70d30b-37ec-4b5c-b10c-9617e30c7fa0"},"vehicle_type_id":"4","last_reported":1726261648,"current_range_meters":15200,"station_id":"","pricing_plan_id":"cebpf4jnsgd1na2vs0mg"},{"bike_id":"b8560249-af8e-479b-a499-fd1197a685b5","system_id":"levelo_inurba_marseille","lat":43.26031,"lon":5.37548,"is_reserved":false,"is_disabled":false,"rental_uris":{"android":"levelo://app?vid=b8560249-af8e-479b-a499-fd1197a685b5","ios":"levelo://app?vid=b8560249-af8e-479b-a499-fd1197a685b5"},"vehicle_type_id":"4","last_reported":1726261648,"current_range_meters":37600,"station_id":"ce4bhgh2rcd13ifvqfa0","pricing_plan_id":"cebpf4jnsgd1na2vs0mg"},{"bike_id":"026a8105-a313-4bd8-96fb-a8d6d1b140a9","system_id":"levelo_inurba_marseille","lat":43.23195,"lon":5.35557,"is_reserved":false,"is_disabled":false,"rental_uris":{"android":"levelo://app?vid=026a8105-a313-4bd8-96fb-a8d6d1b140a9","ios":"levelo://app?vid=026a8105-a313-4bd8-96fb-a8d6d1b140a9"},"vehicle_type_id":"4","last_reported":1726261648,"current_range_meters":38800,"station_id":"ce4bhu92rcd13ifvqi70","pricing_plan_id":"cebpf4jnsgd1na2vs0mg"},{"bike_id":"e6f63c01-b73a-4a69-80bf-ad9cb79b0cd7","system_id":"levelo_inurba_marseille","lat":43.29017,"lon":5.3813,"is_reserved":false,"is_disabled":false,"rental_uris":{"android":"levelo://app?vid=e6f63c01-b73a-4a69-80bf-ad9cb79b0cd7","ios":"levelo://app?vid=e6f63c01-b73a-4a69-80bf-ad9cb79b0cd7"},"vehicle_type_id":"4","last_reported":1726261648,"current_range_meters":27600,"station_id":"ce4bh4p2rcd13ifvqe1g","pricing_plan_id":"cebpf4jnsgd1na2vs0mg"},{"bike_id":"f13d7826-b267-4133-aa0e-251169d87a13","system_id":"levelo_inurba_marseille","lat":43.28364,"lon":5.38625,"is_reserved":false,"is_disabled":false,"rental_uris":{"android":"levelo://app?vid=f13d7826-b267-4133-aa0e-251169d87a13","ios":"levelo://app?vid=f13d7826-b267-4133-aa0e-251169d87a13"},"vehicle_type_id":"4","last_reported":1726261648,"current_range_meters":20000,"station_id":"ce4bh492rcd13ifvqdvg","pricing_plan_id":"cebpf4jnsgd1na2vs0mg"},{"bike_id":"9378e46c-90ff-48e5-9112-f5aafd156a5f","system_id":"levelo_inurba_marseille","lat":43.2955,"lon":5.42285,"is_reserved":false,"is_disabled":false,"rental_uris":{"android":"levelo://app?vid=9378e46c-90ff-48e5-9112-f5aafd156a5f","ios":"levelo://app?vid=9378e46c-90ff-48e5-9112-f5aafd156a5f"},"vehicle_type_id":"4","last_reported":1726261648,"current_range_meters":28000,"station_id":"ce4bhph2rcd13ifvqhdg","pricing_plan_id":"cebpf4jnsgd1na2vs0mg"},{"bike_id":"f13f8563-f3d0-467b-ae2c-01bf4a4cbe97","system_id":"levelo_inurba_marseille","lat":43.29529,"lon":5.38535,"is_reserved":false,"is_disabled":false,"rental_uris":{"android":"levelo://app?vid=f13f8563-f3d0-467b-ae2c-01bf4a4cbe97","ios":"levelo://app?vid=f13f8563-f3d0-467b-ae2c-01bf4a4cbe97"},"vehicle_type_id":"4","last_reported":1726261648,"current_range_meters":22000,"station_id":"ce4bgih2rcd13ifvqba0","pricing_plan_id":"cebpf4jnsgd1na2vs0mg"},{"bike_id":"51b93f73-c647-4dd9-b993-0e72de9b0462","system_id":"levelo_inurba_marseille","lat":43.28289,"lon":5.39074,"is_reserved":false,"is_disabled":false,"rental_uris":{"android":"levelo://app?vid=51b93f73-c647-4dd9-b993-0e72de9b0462","ios":"levelo://app?vid=51b93f73-c647-4dd9-b993-0e72de9b0462"},"vehicle_type_id":"4","last_reported":1726261648,"current_range_meters":32000,"station_id":"","pricing_plan_id":"cebpf4jnsgd1na2vs0mg"},{"bike_id":"12bb7073-9032-4c94-948d-b026b2803e6c","system_id":"levelo_inurba_marseille","lat":43.30882,"lon":5.39637,"is_reserved":false,"is_disabled":false,"rental_uris":{"android":"levelo://app?vid=12bb7073-9032-4c94-948d-b026b2803e6c","ios":"levelo://app?vid=12bb7073-9032-4c94-948d-b026b2803e6c"},"vehicle_type_id":"4","last_reported":1726261648,"current_range_meters":38800,"station_id":"ce4bh012rcd13ifvqcv0","pricing_plan_id":"cebpf4jnsgd1na2vs0mg"},{"bike_id":"6da1567e-54b2-49f8-9641-c25f07f02082","system_id":"levelo_inurba_marseille","lat":43.25492,"lon":5.37646,"is_reserved":false,"is_disabled":false,"rental_uris":{"android":"levelo://app?vid=6da1567e-54b2-49f8-9641-c25f07f02082","ios":"levelo://app?vid=6da1567e-54b2-49f8-9641-c25f07f02082"},"vehicle_type_id":"4","last_reported":1726261648,"current_range_meters":4400,"station_id":"ce4bhh12rcd13ifvqff0","pricing_plan_id":"cebpf4jnsgd1na2vs0mg"},{"bike_id":"e24b3e9b-187d-4683-b1a5-f02b5f483e4b","system_id":"levelo_inurba_marseille","lat":43.28616,"lon":5.35104,"is_reserved":false,"is_disabled":false,"rental_uris":{"android":"levelo://app?vid=e24b3e9b-187d-4683-b1a5-f02b5f483e4b","ios":"levelo://app?vid=e24b3e9b-187d-4683-b1a5-f02b5f483e4b"},"vehicle_type_id":"4","last_reported":1726261648,"current_range_meters":38400,"station_id":"ce4bhch2rcd13ifvqeug","pricing_plan_id":"cebpf4jnsgd1na2vs0mg"},{"bike_id":"89f59015-cb41-425e-b98d-0c620051dcf0","system_id":"levelo_inurba_marseille","lat":43.3059,"lon":5.39363,"is_reserved":false,"is_disabled":false,"rental_uris":{"android":"levelo://app?vid=89f59015-cb41-425e-b98d-0c620051dcf0","ios":"levelo://app?vid=89f59015-cb41-425e-b98d-0c620051dcf0"},"vehicle_type_id":"4","last_reported":1726261648,"current_range_meters":32800,"station_id":"ce4bh0p2rcd13ifvqd80","pricing_plan_id":"cebpf4jnsgd1na2vs0mg"},{"bike_id":"eef991f3-491b-40b9-99d7-1de70c081759","system_id":"levelo_inurba_marseille","lat":43.28672,"lon":5.3866,"is_reserved":false,"is_disabled":false,"rental_uris":{"android":"levelo://app?vid=eef991f3-491b-40b9-99d7-1de70c081759","ios":"levelo://app?vid=eef991f3-491b-40b9-99d7-1de70c081759"},"vehicle_type_id":"4","last_reported":1726261648,"current_range_meters":24000,"station_id":"ce4bh492rcd13ifvqdug","pricing_plan_id":"cebpf4jnsgd1na2vs0mg"},{"bike_id":"a71ade37-705a-48c5-8693-8659689a5617","system_id":"levelo_inurba_marseille","lat":43.24182,"lon":5.39724,"is_reserved":false,"is_disabled":false,"rental_uris":{"android":"levelo://app?vid=a71ade37-705a-48c5-8693-8659689a5617","ios":"levelo://app?vid=a71ade37-705a-48c5-8693-8659689a5617"},"vehicle_type_id":"4","last_reported":1726261648,"current_range_meters":38800,"station_id":"ce4bhn12rcd13ifvqgpg","pricing_plan_id":"cebpf4jnsgd1na2vs0mg"},{"bike_id":"61a1470d-1e7c-440e-b9c9-8df8ca37a564","system_id":"levelo_inurba_marseille","lat":43.29737,"lon":5.37681,"is_reserved":false,"is_disabled":false,"rental_uris":{"android":"levelo://app?vid=61a1470d-1e7c-440e-b9c9-8df8ca37a564","ios":"levelo://app?vid=61a1470d-1e7c-440e-b9c9-8df8ca37a564"},"vehicle_type_id":"4","last_reported":1726261648,"current_range_meters":28000,"station_id":"ce4bgkh2rcd13ifvqbl0","pricing_plan_id":"cebpf4jnsgd1na2vs0mg"},{"bike_id":"7ea4a5e4-6bb4-4764-b71b-1124b17a648c","system_id":"levelo_inurba_marseille","lat":43.27807,"lon":5.4071,"is_reserved":false,"is_disabled":false,"rental_uris":{"android":"levelo://app?vid=7ea4a5e4-6bb4-4764-b71b-1124b17a648c","ios":"levelo://app?vid=7ea4a5e4-6bb4-4764-b71b-1124b17a648c"},"vehicle_type_id":"4","last_reported":1726261648,"current_range_meters":19600,"station_id":"ce4bhnh2rcd13ifvqgtg","pricing_plan_id":"cebpf4jnsgd1na2vs0mg"},{"bike_id":"46a6b753-5b14-49df-ae63-f2aeddf712e5","system_id":"levelo_inurba_marseille","lat":43.31074,"lon":5.38348,"is_reserved":false,"is_disabled":false,"rental_uris":{"android":"levelo://app?vid=46a6b753-5b14-49df-ae63-f2aeddf712e5","ios":"levelo://app?vid=46a6b753-5b14-49df-ae63-f2aeddf712e5"},"vehicle_type_id":"4","last_reported":1726261648,"current_range_meters":38800,"station_id":"ce4bgv92rcd13ifvqcr0","pricing_plan_id":"cebpf4jnsgd1na2vs0mg"},{"bike_id":"67950061-e447-4497-b15e-bc5c5ee0128e","system_id":"levelo_inurba_marseille","lat":43.24802,"lon":5.3746,"is_reserved":false,"is_disabled":false,"rental_uris":{"android":"levelo://app?vid=67950061-e447-4497-b15e-bc5c5ee0128e","ios":"levelo://app?vid=67950061-e447-4497-b15e-bc5c5ee0128e"},"vehicle_type_id":"4","last_reported":1726261648,"current_range_meters":21600,"station_id":"ce4bhgh2rcd13ifvqfb0","pricing_plan_id":"cebpf4jnsgd1na2vs0mg"},{"bike_id":"fe7bda53-4c2f-48b9-8833-6ed8d119f5b7","system_id":"levelo_inurba_marseille","lat":43.28707,"lon":5.37387,"is_reserved":false,"is_disabled":false,"rental_uris":{"android":"levelo://app?vid=fe7bda53-4c2f-48b9-8833-6ed8d119f5b7","ios":"levelo://app?vid=fe7bda53-4c2f-48b9-8833-6ed8d119f5b7"},"vehicle_type_id":"4","last_reported":1726261648,"current_range_meters":38800,"station_id":"ce4bh3p2rcd13ifvqdq0","pricing_plan_id":"cebpf4jnsgd1na2vs0mg"},{"bike_id":"1e9ab519-e28c-400f-aecb-cbc58f39def2","system_id":"levelo_inurba_marseille","lat":43.29791,"lon":5.37895,"is_reserved":false,"is_disabled":false,"rental_uris":{"android":"levelo://app?vid=1e9ab519-e28c-400f-aecb-cbc58f39def2","ios":"levelo://app?vid=1e9ab519-e28c-400f-aecb-cbc58f39def2"},"vehicle_type_id":"4","last_reported":1726261648,"current_range_meters":6800,"station_id":"","pricing_plan_id":"cebpf4jnsgd1na2vs0mg"},{"bike_id":"b2e3c13f-e5d7-4801-ae89-c6a149b3cd8b","system_id":"levelo_inurba_marseille","lat":43.24079,"lon":5.37735,"is_reserved":false,"is_disabled":false,"rental_uris":{"android":"levelo://app?vid=b2e3c13f-e5d7-4801-ae89-c6a149b3cd8b","ios":"levelo://app?vid=b2e3c13f-e5d7-4801-ae89-c6a149b3cd8b"},"vehicle_type_id":"4","last_reported":1726261648,"current_range_meters":38000,"station_id":"ce4bhnp2rcd13ifvqgvg","pricing_plan_id":"cebpf4jnsgd1na2vs0mg"},{"bike_id":"e9f0c1b2-6c2b-4408-8ca3-3246b53f8ed7","system_id":"levelo_inurba_marseille","lat":43.23967,"lon":5.36627,"is_reserved":false,"is_disabled":false,"rental_uris":{"android":"levelo://app?vid=e9f0c1b2-6c2b-4408-8ca3-3246b53f8ed7","ios":"levelo://app?vid=e9f0c1b2-6c2b-4408-8ca3-3246b53f8ed7"},"vehicle_type_id":"4","last_reported":1726261648,"current_range_meters":31200,"station_id":"ce4bhi12rcd13ifvqfp0","pricing_plan_id":"cebpf4jnsgd1na2vs0mg"},{"bike_id":"954d2b54-362e-442e-bcaa-d17939d90e2d","system_id":"levelo_inurba_marseille","lat":43.25495,"lon":5.37653,"is_reserved":false,"is_disabled":false,"rental_uris":{"android":"levelo://app?vid=954d2b54-362e-442e-bcaa-d17939d90e2d","ios":"levelo://app?vid=954d2b54-362e-442e-bcaa-d17939d90e2d"},"vehicle_type_id":"4","last_reported":1726261648,"current_range_meters":38800,"station_id":"ce4bhh12rcd13ifvqff0","pricing_plan_id":"cebpf4jnsgd1na2vs0mg"},{"bike_id":"82dec1e1-c024-4a59-b080-1ca526441f94","system_id":"levelo_inurba_marseille","lat":43.337612,"lon":5.374504,"is_reserved":false,"is_disabled":false,"rental_uris":{"android":"levelo://app?vid=82dec1e1-c024-4a59-b080-1ca526441f94","ios":"levelo://app?vid=82dec1e1-c024-4a59-b080-1ca526441f94"},"vehicle_type_id":"4","last_reported":1726261648,"current_range_meters":12800,"station_id":"","pricing_plan_id":"cebpf4jnsgd1na2vs0mg"},{"bike_id":"02269f0e-1758-473f-8a5c-764f1ddf9ddc","system_id":"levelo_inurba_marseille","lat":43.23186,"lon":5.39984,"is_reserved":false,"is_disabled":false,"rental_uris":{"android":"levelo://app?vid=02269f0e-1758-473f-8a5c-764f1ddf9ddc","ios":"levelo://app?vid=02269f0e-1758-473f-8a5c-764f1ddf9ddc"},"vehicle_type_id":"4","last_reported":1726261648,"current_range_meters":39200,"station_id":"ce4bhn12rcd13ifvqgqg","pricing_plan_id":"cebpf4jnsgd1na2vs0mg"},{"bike_id":"baf7d0fc-eae3-4f0c-99fc-59a5573e709f","system_id":"levelo_inurba_marseille","lat":43.29854,"lon":5.36279,"is_reserved":false,"is_disabled":false,"rental_uris":{"android":"levelo://app?vid=baf7d0fc-eae3-4f0c-99fc-59a5573e709f","ios":"levelo://app?vid=baf7d0fc-eae3-4f0c-99fc-59a5573e709f"},"vehicle_type_id":"4","last_reported":1726261648,"current_range_meters":38800,"station_id":"ce4bgpp2rcd13ifvqc3g","pricing_plan_id":"cebpf4jnsgd1na2vs0mg"},{"bike_id":"22142966-f421-47f2-a5d3-b7426737eae8","system_id":"levelo_inurba_marseille","lat":43.2603,"lon":5.37546,"is_reserved":false,"is_disabled":false,"rental_uris":{"android":"levelo://app?vid=22142966-f421-47f2-a5d3-b7426737eae8","ios":"levelo://app?vid=22142966-f421-47f2-a5d3-b7426737eae8"},"vehicle_type_id":"4","last_reported":1726261648,"current_range_meters":11200,"station_id":"ce4bhgh2rcd13ifvqfa0","pricing_plan_id":"cebpf4jnsgd1na2vs0mg"},{"bike_id":"6be21217-09c4-44c6-8934-8f8f3ca988ea","system_id":"levelo_inurba_marseille","lat":43.25501,"lon":5.3765,"is_reserved":false,"is_disabled":false,"rental_uris":{"android":"levelo://app?vid=6be21217-09c4-44c6-8934-8f8f3ca988ea","ios":"levelo://app?vid=6be21217-09c4-44c6-8934-8f8f3ca988ea"},"vehicle_type_id":"4","last_reported":1726261648,"current_range_meters":25200,"station_id":"ce4bhh12rcd13ifvqff0","pricing_plan_id":"cebpf4jnsgd1na2vs0mg"},{"bike_id":"6b6c046a-871b-411e-9296-d7416ea3d933","system_id":"levelo_inurba_marseille","lat":43.29852,"lon":5.36274,"is_reserved":false,"is_disabled":false,"rental_uris":{"android":"levelo://app?vid=6b6c046a-871b-411e-9296-d7416ea3d933","ios":"levelo://app?vid=6b6c046a-871b-411e-9296-d7416ea3d933"},"vehicle_type_id":"4","last_reported":1726261648,"current_range_meters":30000,"station_id":"ce4bgpp2rcd13ifvqc3g","pricing_plan_id":"cebpf4jnsgd1na2vs0mg"},{"bike_id":"876861a5-df2e-42bf-bd52-ef748ebbb251","system_id":"levelo_inurba_marseille","lat":43.29866,"lon":5.39732,"is_reserved":false,"is_disabled":false,"rental_uris":{"android":"levelo://app?vid=876861a5-df2e-42bf-bd52-ef748ebbb251","ios":"levelo://app?vid=876861a5-df2e-42bf-bd52-ef748ebbb251"},"vehicle_type_id":"4","last_reported":1726261648,"current_range_meters":22400,"station_id":"ce4bh0h2rcd13ifvqd50","pricing_plan_id":"cebpf4jnsgd1na2vs0mg"},{"bike_id":"6761d395-6c44-4ea8-88f9-ae3beb0c5608","system_id":"levelo_inurba_marseille","lat":43.292909,"lon":5.408715,"is_reserved":false,"is_disabled":false,"rental_uris":{"android":"levelo://app?vid=6761d395-6c44-4ea8-88f9-ae3beb0c5608","ios":"levelo://app?vid=6761d395-6c44-4ea8-88f9-ae3beb0c5608"},"vehicle_type_id":"4","last_reported":1726261648,"current_range_meters":21600,"station_id":"ce4bh192rcd13ifvqdc0","pricing_plan_id":"cebpf4jnsgd1na2vs0mg"},{"bike_id":"5bcea731-d4da-414e-b204-cc827bfa12b3","system_id":"levelo_inurba_marseille","lat":43.27611,"lon":5.3612,"is_reserved":false,"is_disabled":false,"rental_uris":{"android":"levelo://app?vid=5bcea731-d4da-414e-b204-cc827bfa12b3","ios":"levelo://app?vid=5bcea731-d4da-414e-b204-cc827bfa12b3"},"vehicle_type_id":"4","last_reported":1726261648,"current_range_meters":24000,"station_id":"ce4bgj92rcd13ifvqbe0","pricing_plan_id":"cebpf4jnsgd1na2vs0mg"},{"bike_id":"87ee18d9-6125-4354-94a6-506e106cc304","system_id":"levelo_inurba_marseille","lat":43.29909,"lon":5.37471,"is_reserved":false,"is_disabled":false,"rental_uris":{"android":"levelo://app?vid=87ee18d9-6125-4354-94a6-506e106cc304","ios":"levelo://app?vid=87ee18d9-6125-4354-94a6-506e106cc304"},"vehicle_type_id":"4","last_reported":1726261648,"current_range_meters":38000,"station_id":"ce4bgjh2rcd13ifvqbg0","pricing_plan_id":"cebpf4jnsgd1na2vs0mg"},{"bike_id":"61e00977-be43-400f-99ea-3c33330f7657","system_id":"levelo_inurba_marseille","lat":43.2501,"lon":5.38916,"is_reserved":false,"is_disabled":false,"rental_uris":{"android":"levelo://app?vid=61e00977-be43-400f-99ea-3c33330f7657","ios":"levelo://app?vid=61e00977-be43-400f-99ea-3c33330f7657"},"vehicle_type_id":"4","last_reported":1726261648,"current_range_meters":24000,"station_id":"ce4bhgp2rcd13ifvqfd0","pricing_plan_id":"cebpf4jnsgd1na2vs0mg"},{"bike_id":"cf4ee9a6-65d0-4978-a1e8-f54b0d6b3aed","system_id":"levelo_inurba_marseille","lat":43.31068,"lon":5.38346,"is_reserved":false,"is_disabled":false,"rental_uris":{"android":"levelo://app?vid=cf4ee9a6-65d0-4978-a1e8-f54b0d6b3aed","ios":"levelo://app?vid=cf4ee9a6-65d0-4978-a1e8-f54b0d6b3aed"},"vehicle_type_id":"4","last_reported":1726261648,"current_range_meters":31200,"station_id":"ce4bgv92rcd13ifvqcr0","pricing_plan_id":"cebpf4jnsgd1na2vs0mg"},{"bike_id":"cc910a72-aaf8-4875-9713-44d789c240ff","system_id":"levelo_inurba_marseille","lat":43.31493,"lon":5.37268,"is_reserved":false,"is_disabled":false,"rental_uris":{"android":"levelo://app?vid=cc910a72-aaf8-4875-9713-44d789c240ff","ios":"levelo://app?vid=cc910a72-aaf8-4875-9713-44d789c240ff"},"vehicle_type_id":"4","last_reported":1726261648,"current_range_meters":38800,"station_id":"ce4bgt12rcd13ifvqcd0","pricing_plan_id":"cebpf4jnsgd1na2vs0mg"},{"bike_id":"58a2e4cb-e9f9-46da-a3c4-e66ef23535d3","system_id":"levelo_inurba_marseille","lat":43.29609,"lon":5.37726,"is_reserved":false,"is_disabled":false,"rental_uris":{"android":"levelo://app?vid=58a2e4cb-e9f9-46da-a3c4-e66ef23535d3","ios":"levelo://app?vid=58a2e4cb-e9f9-46da-a3c4-e66ef23535d3"},"vehicle_type_id":"4","last_reported":1726261648,"current_range_meters":34000,"station_id":"ce4bgi92rcd13ifvqb90","pricing_plan_id":"cebpf4jnsgd1na2vs0mg"},{"bike_id":"7cc5cc5c-b0d6-4d34-b5ca-8ffa2c1f3694","system_id":"levelo_inurba_marseille","lat":43.24806,"lon":5.37455,"is_reserved":false,"is_disabled":false,"rental_uris":{"android":"levelo://app?vid=7cc5cc5c-b0d6-4d34-b5ca-8ffa2c1f3694","ios":"levelo://app?vid=7cc5cc5c-b0d6-4d34-b5ca-8ffa2c1f3694"},"vehicle_type_id":"4","last_reported":1726261648,"current_range_meters":28400,"station_id":"ce4bhgh2rcd13ifvqfb0","pricing_plan_id":"cebpf4jnsgd1na2vs0mg"},{"bike_id":"f9076aec-56e7-4b2e-a7b1-575337aca9d5","system_id":"levelo_inurba_marseille","lat":43.24173,"lon":5.36397,"is_reserved":false,"is_disabled":false,"rental_uris":{"android":"levelo://app?vid=f9076aec-56e7-4b2e-a7b1-575337aca9d5","ios":"levelo://app?vid=f9076aec-56e7-4b2e-a7b1-575337aca9d5"},"vehicle_type_id":"4","last_reported":1726261648,"current_range_meters":36800,"station_id":"cpo36qri1sfpv3e86is0","pricing_plan_id":"cebpf4jnsgd1na2vs0mg"},{"bike_id":"2ff0cdbe-adf5-4074-9470-656ccf7f57c6","system_id":"levelo_inurba_marseille","lat":43.23187,"lon":5.39991,"is_reserved":false,"is_disabled":false,"rental_uris":{"android":"levelo://app?vid=2ff0cdbe-adf5-4074-9470-656ccf7f57c6","ios":"levelo://app?vid=2ff0cdbe-adf5-4074-9470-656ccf7f57c6"},"vehicle_type_id":"4","last_reported":1726261648,"current_range_meters":38800,"station_id":"ce4bhn12rcd13ifvqgqg","pricing_plan_id":"cebpf4jnsgd1na2vs0mg"},{"bike_id":"9da3cfc3-76e1-45aa-bd84-0cc476fb2e0c","system_id":"levelo_inurba_marseille","lat":43.2293,"lon":5.3538,"is_reserved":false,"is_disabled":false,"rental_uris":{"android":"levelo://app?vid=9da3cfc3-76e1-45aa-bd84-0cc476fb2e0c","ios":"levelo://app?vid=9da3cfc3-76e1-45aa-bd84-0cc476fb2e0c"},"vehicle_type_id":"4","last_reported":1726261648,"current_range_meters":36800,"station_id":"cpo3532slgdg3j2ikp40","pricing_plan_id":"cebpf4jnsgd1na2vs0mg"},{"bike_id":"cbe7bb80-1dc6-4180-9b27-30cd958cca91","system_id":"levelo_inurba_marseille","lat":43.24669,"lon":5.38159,"is_reserved":false,"is_disabled":false,"rental_uris":{"android":"levelo://app?vid=cbe7bb80-1dc6-4180-9b27-30cd958cca91","ios":"levelo://app?vid=cbe7bb80-1dc6-4180-9b27-30cd958cca91"},"vehicle_type_id":"4","last_reported":1726261648,"current_range_meters":24400,"station_id":"ce4bhih2rcd13ifvqfr0","pricing_plan_id":"cebpf4jnsgd1na2vs0mg"},{"bike_id":"769c1b82-23a9-4123-9f81-debd5c4531e3","system_id":"levelo_inurba_marseille","lat":43.25494,"lon":5.37651,"is_reserved":false,"is_disabled":false,"rental_uris":{"android":"levelo://app?vid=769c1b82-23a9-4123-9f81-debd5c4531e3","ios":"levelo://app?vid=769c1b82-23a9-4123-9f81-debd5c4531e3"},"vehicle_type_id":"4","last_reported":1726261648,"current_range_meters":2000,"station_id":"ce4bhh12rcd13ifvqff0","pricing_plan_id":"cebpf4jnsgd1na2vs0mg"},{"bike_id":"f08e8560-6108-4436-aeb5-073b5d54fe67","system_id":"levelo_inurba_marseille","lat":43.29529,"lon":5.38541,"is_reserved":false,"is_disabled":false,"rental_uris":{"android":"levelo://app?vid=f08e8560-6108-4436-aeb5-073b5d54fe67","ios":"levelo://app?vid=f08e8560-6108-4436-aeb5-073b5d54fe67"},"vehicle_type_id":"4","last_reported":1726261648,"current_range_meters":32000,"station_id":"ce4bgih2rcd13ifvqba0","pricing_plan_id":"cebpf4jnsgd1na2vs0mg"},{"bike_id":"3b4631f1-0e73-4449-be64-c1cdece0b434","system_id":"levelo_inurba_marseille","lat":43.28267,"lon":5.35068,"is_reserved":false,"is_disabled":false,"rental_uris":{"android":"levelo://app?vid=3b4631f1-0e73-4449-be64-c1cdece0b434","ios":"levelo://app?vid=3b4631f1-0e73-4449-be64-c1cdece0b434"},"vehicle_type_id":"4","last_reported":1726261648,"current_range_meters":39200,"station_id":"ce4bhbp2rcd13ifvqerg","pricing_plan_id":"cebpf4jnsgd1na2vs0mg"},{"bike_id":"aef09fda-9467-42e2-98fc-34612831dc7c","system_id":"levelo_inurba_marseille","lat":43.25085,"lon":5.39522,"is_reserved":false,"is_disabled":false,"rental_uris":{"android":"levelo://app?vid=aef09fda-9467-42e2-98fc-34612831dc7c","ios":"levelo://app?vid=aef09fda-9467-42e2-98fc-34612831dc7c"},"vehicle_type_id":"4","last_reported":1726261648,"current_range_meters":38800,"station_id":"ce4bhm12rcd13ifvqgkg","pricing_plan_id":"cebpf4jnsgd1na2vs0mg"},{"bike_id":"fe2aae7c-4f69-4e66-8f95-512f5c38298a","system_id":"levelo_inurba_marseille","lat":43.31329,"lon":5.39696,"is_reserved":false,"is_disabled":false,"rental_uris":{"android":"levelo://app?vid=fe2aae7c-4f69-4e66-8f95-512f5c38298a","ios":"levelo://app?vid=fe2aae7c-4f69-4e66-8f95-512f5c38298a"},"vehicle_type_id":"4","last_reported":1726261648,"current_range_meters":34000,"station_id":"ce4bgvp2rcd13ifvqcu0","pricing_plan_id":"cebpf4jnsgd1na2vs0mg"},{"bike_id":"b8ead6d4-a0dd-4799-804e-c1c5606e4feb","system_id":"levelo_inurba_marseille","lat":43.29004,"lon":5.35611,"is_reserved":false,"is_disabled":false,"rental_uris":{"android":"levelo://app?vid=b8ead6d4-a0dd-4799-804e-c1c5606e4feb","ios":"levelo://app?vid=b8ead6d4-a0dd-4799-804e-c1c5606e4feb"},"vehicle_type_id":"4","last_reported":1726261648,"current_range_meters":18800,"station_id":"ce4bhb92rcd13ifvqen0","pricing_plan_id":"cebpf4jnsgd1na2vs0mg"},{"bike_id":"1d004851-c08b-4a01-aec6-6340c8507935","system_id":"levelo_inurba_marseille","lat":43.24179,"lon":5.39723,"is_reserved":false,"is_disabled":false,"rental_uris":{"android":"levelo://app?vid=1d004851-c08b-4a01-aec6-6340c8507935","ios":"levelo://app?vid=1d004851-c08b-4a01-aec6-6340c8507935"},"vehicle_type_id":"4","last_reported":1726261648,"current_range_meters":31200,"station_id":"ce4bhn12rcd13ifvqgpg","pricing_plan_id":"cebpf4jnsgd1na2vs0mg"},{"bike_id":"f20f613d-77b3-4abc-847d-4abd98073b48","system_id":"levelo_inurba_marseille","lat":43.28621,"lon":5.35104,"is_reserved":false,"is_disabled":false,"rental_uris":{"android":"levelo://app?vid=f20f613d-77b3-4abc-847d-4abd98073b48","ios":"levelo://app?vid=f20f613d-77b3-4abc-847d-4abd98073b48"},"vehicle_type_id":"4","last_reported":1726261648,"current_range_meters":29600,"station_id":"ce4bhch2rcd13ifvqeug","pricing_plan_id":"cebpf4jnsgd1na2vs0mg"},{"bike_id":"45596ada-5947-4764-959e-e3343734d3de","system_id":"levelo_inurba_marseille","lat":43.29266,"lon":5.40901,"is_reserved":false,"is_disabled":false,"rental_uris":{"android":"levelo://app?vid=45596ada-5947-4764-959e-e3343734d3de","ios":"levelo://app?vid=45596ada-5947-4764-959e-e3343734d3de"},"vehicle_type_id":"4","last_reported":1726261648,"current_range_meters":9200,"station_id":"ce4bh192rcd13ifvqdc0","pricing_plan_id":"cebpf4jnsgd1na2vs0mg"},{"bike_id":"88e343d3-f58e-4862-a0ba-51d955f51d14","system_id":"levelo_inurba_marseille","lat":43.29035,"lon":5.35893,"is_reserved":false,"is_disabled":false,"rental_uris":{"android":"levelo://app?vid=88e343d3-f58e-4862-a0ba-51d955f51d14","ios":"levelo://app?vid=88e343d3-f58e-4862-a0ba-51d955f51d14"},"vehicle_type_id":"4","last_reported":1726261648,"current_range_meters":33600,"station_id":"ce4bha92rcd13ifvqeg0","pricing_plan_id":"cebpf4jnsgd1na2vs0mg"},{"bike_id":"14b024ec-db9b-49fd-a42f-674bfc581d85","system_id":"levelo_inurba_marseille","lat":43.2842,"lon":5.34993,"is_reserved":false,"is_disabled":false,"rental_uris":{"android":"levelo://app?vid=14b024ec-db9b-49fd-a42f-674bfc581d85","ios":"levelo://app?vid=14b024ec-db9b-49fd-a42f-674bfc581d85"},"vehicle_type_id":"4","last_reported":1726261648,"current_range_meters":29600,"station_id":"ce4bhbh2rcd13ifvqepg","pricing_plan_id":"cebpf4jnsgd1na2vs0mg"},{"bike_id":"23fa22ec-dae9-4404-b265-1b4013317991","system_id":"levelo_inurba_marseille","lat":43.28989,"lon":5.37841,"is_reserved":false,"is_disabled":false,"rental_uris":{"android":"levelo://app?vid=23fa22ec-dae9-4404-b265-1b4013317991","ios":"levelo://app?vid=23fa22ec-dae9-4404-b265-1b4013317991"},"vehicle_type_id":"4","last_reported":1726261648,"current_range_meters":38000,"station_id":"ce4bh9p2rcd13ifvqed0","pricing_plan_id":"cebpf4jnsgd1na2vs0mg"},{"bike_id":"a30f3a94-cb53-49a0-9b4c-b84d8753ec38","system_id":"levelo_inurba_marseille","lat":43.29694,"lon":5.37274,"is_reserved":false,"is_disabled":false,"rental_uris":{"android":"levelo://app?vid=a30f3a94-cb53-49a0-9b4c-b84d8753ec38","ios":"levelo://app?vid=a30f3a94-cb53-49a0-9b4c-b84d8753ec38"},"vehicle_type_id":"4","last_reported":1726261648,"current_range_meters":38800,"station_id":"ce4bgk12rcd13ifvqbj0","pricing_plan_id":"cebpf4jnsgd1na2vs0mg"},