{"last_updated":1749539458,"ttl":60,"version":"2.2","data":{"bikes":[{"bike_id":"994fbbd1-7b7a-4973-8b72-780a5cbeda75","system_id":"levelo_inurba_marseille","lat":43.28972,"lon":5.37837,"is_reserved":false,"is_disabled":true,"rental_uris":{"android":"levelo://app?vid=994fbbd1-7b7a-4973-8b72-780a5cbeda75","ios":"levelo://app?vid=994fbbd1-7b7a-4973-8b72-780a5cbeda75"},"vehicle_type_id":"4","last_reported":1749539458,"current_range_meters":2800,"station_id":"ce4bh9p2rcd13ifvqed0","pricing_plan_id":"cebpf4jnsgd1na2vs0mg"},{"bike_id":"a61242dd-8369-4520-9963-a504224e1a30","system_id":"levelo_inurba_marseille","lat":43.23134,"lon":5.40794,"is_reserved":false,"is_disabled":true,"rental_uris":{"android":"levelo://app?vid=a61242dd-8369-4520-9963-a504224e1a30","ios":"levelo://app?vid=a61242dd-8369-4520-9963-a504224e1a30"},"vehicle_type_id":"4","last_reported":1749539458,"current_range_meters":2800,"station_id":"","pricing_plan_id":"cebpf4jnsgd1na2vs0mg"},{"bike_id":"c89b7e64-e8fc-4ddb-9ea9-7d84275dca6d","system_id":"levelo_inurba_marseille","lat":43.25611,"lon":5.37674,"is_reserved":false,"is_disabled":false,"rental_uris":{"android":"levelo://app?vid=c89b7e64-e8fc-4ddb-9ea9-7d84275dca6d","ios":"levelo://app?vid=c89b7e64-e8fc-4ddb-9ea9-7d84275dca6d"},"vehicle_type_id":"4","last_reported":1749539458,"current_range_meters":2800,"station_id":"","pricing_plan_id":"cebpf4jnsgd1na2vs0mg"},{"bike_id":"a19c0046-0816-470a-9e23-a91986d62bbb","system_id":"levelo_inurba_marseille","lat":43.28489,"lon":5.38419,"is_reserved":false,"is_disabled":false,"rental_uris":{"android":"levelo://app?vid=a19c0046-0816-470a-9e23-a91986d62bbb","ios":"levelo://app?vid=a19c0046-0816-470a-9e23-a91986d62bbb"},"vehicle_type_id":"4","last_reported":1749539458,"current_range_meters":3200,"station_id":"ce4bh512rcd13ifvqe3g","pricing_plan_id":"cebpf4jnsgd1na2vs0mg"},{"bike_id":"6c4663b9-c082-453b-8e44-9efd1fedb871","system_id":"levelo_inurba_marseille","lat":43.28703,"lon":5.39999,"is_reserved":false,"is_disabled":false,"rental_uris":{"android":"levelo://app?vid=6c4663b9-c082-453b-8e44-9efd1fedb871","ios":"levelo://app?vid=6c4663b9-c082-453b-8e44-9efd1fedb871"},"vehicle_type_id":"4","last_reported":1749539458,"current_range_meters":3200,"station_id":"ce4bho92rcd13ifvqh3g","pricing_plan_id":"cebpf4jnsgd1na2vs0mg"},{"bike_id":"eabdb9d5-3ece-4218-8a07-0264360a5ead","system_id":"levelo_inurba_marseille","lat":43.31487,"lon":5.37319,"is_reserved":false,"is_disabled":false,"rental_uris":{"android":"levelo://app?vid=eabdb9d5-3ece-4218-8a07-0264360a5ead","ios":"levelo://app?vid=eabdb9d5-3ece-4218-8a07-0264360a5ead"},"vehicle_type_id":"4","last_reported":1749539458,"current_range_meters":3200,"station_id":"ce4bgt12rcd13ifvqcd0","pricing_plan_id":"cebpf4jnsgd1na2vs0mg"},{"bike_id":"5878f80c-b2bb-4352-99ea-67e3a7136bd9","system_id":"levelo_inurba_marseille","lat":43.33035,"lon":5.39046,"is_reserved":false,"is_disabled":false,"rental_uris":{"android":"levelo://app?vid=5878f80c-b2bb-4352-99ea-67e3a7136bd9","ios":"levelo://app?vid=5878f80c-b2bb-4352-99ea-67e3a7136bd9"},"vehicle_type_id":"4","last_reported":1749539458,"current_range_meters":3200,"station_id":"ce4bhr92rcd13ifvqhrg","pricing_plan_id":"cebpf4jnsgd1na2vs0mg"},{"bike_id":"ff070b99-0bfd-408f-8707-285044c8eda4","system_id":"levelo_inurba_marseille","lat":43.25579,"lon":5.38226,"is_reserved":false,"is_disabled":false,"rental_uris":{"android":"levelo://app?vid=ff070b99-0bfd-408f-8707-285044c8eda4","ios":"levelo://app?vid=ff070b99-0bfd-408f-8707-285044c8eda4"},"vehicle_type_id":"4","last_reported":1749539458,"current_range_meters":3600,"station_id":"ce4bhih2rcd13ifvqfs0","pricing_plan_id":"cebpf4jnsgd1na2vs0mg"},{"bike_id":"3905bddc-cb1f-40c0-b0b4-2d12fc62b49d","system_id":"levelo_inurba_marseille","lat":43.25936,"lon":5.40907,"is_reserved":false,"is_disabled":false,"rental_uris":{"android":"levelo://app?vid=3905bddc-cb1f-40c0-b0b4-2d12fc62b49d","ios":"levelo://app?vid=3905bddc-cb1f-40c0-b0b4-2d12fc62b49d"},"vehicle_type_id":"4","last_reported":1749539458,"current_range_meters":3600,"station_id":"ce4bhm92rcd13ifvqglg","pricing_plan_id":"cebpf4jnsgd1na2vs0mg"},{"bike_id":"8c03ec80-dc19-4c9d-b151-e0210828c13a","system_id":"levelo_inurba_marseille","lat":43.29721,"lon":5.39409,"is_reserved":false,"is_disabled":false,"rental_uris":{"android":"levelo://app?vid=8c03ec80-dc19-4c9d-b151-e0210828c13a","ios":"levelo://app?vid=8c03ec80-dc19-4c9d-b151-e0210828c13a"},"vehicle_type_id":"4","last_reported":1749539458,"current_range_meters":3600,"station_id":"","pricing_plan_id":"cebpf4jnsgd1na2vs0mg"},{"bike_id":"732689cd-1e11-4323-94ce-fac7b1a98ec0","system_id":"levelo_inurba_marseille","lat":43.31348,"lon":5.36738,"is_reserved":false,"is_disabled":false,"rental_uris":{"android":"levelo://app?vid=732689cd-1e11-4323-94ce-fac7b1a98ec0","ios":"levelo://app?vid=732689cd-1e11-4323-94ce-fac7b1a98ec0"},"vehicle_type_id":"4","last_reported":1749539458,"current_range_meters":3600,"station_id":"ce4bgr92rcd13ifvqc6g","pricing_plan_id":"cebpf4jnsgd1na2vs0mg"},{"bike_id":"276fc183-4cc1-469f-aa48-361a2bbfaa1a","system_id":"levelo_inurba_marseille","lat":43.257653,"lon":5.400062,"is_reserved":false,"is_disabled":false,"rental_uris":{"android":"levelo://app?vid=276fc183-4cc1-469f-aa48-361a2bbfaa1a","ios":"levelo://app?vid=276fc183-4cc1-469f-aa48-361a2bbfaa1a"},"vehicle_type_id":"4","last_reported":1749539458,"current_range_meters":3600,"station_id":"ce4bhkp2rcd13ifvqgd0","pricing_plan_id":"cebpf4jnsgd1na2vs0mg"},{"bike_id":"4f4c566f-174a-4b0c-a22a-75601a9c9635","system_id":"levelo_inurba_marseille","lat":43.307575,"lon":5.375144,"is_reserved":false,"is_disabled":false,"rental_uris":{"android":"levelo://app?vid=4f4c566f-174a-4b0c-a22a-75601a9c9635","ios":"levelo://app?vid=4f4c566f-174a-4b0c-a22a-75601a9c9635"},"vehicle_type_id":"4","last_reported":1749539458,"current_range_meters":4000,"station_id":"ce4bgv92rcd13ifvqcq0","pricing_plan_id":"cebpf4jnsgd1na2vs0mg"},{"bike_id":"6d691a1f-e8cc-404e-aa28-71e3fdb381f1","system_id":"levelo_inurba_marseille","lat":43.33733,"lon":5.35609,"is_reserved":false,"is_disabled":false,"rental_uris":{"android":"levelo://app?vid=6d691a1f-e8cc-404e-aa28-71e3fdb381f1","ios":"levelo://app?vid=6d691a1f-e8cc-404e-aa28-71e3fdb381f1"},"vehicle_type_id":"4","last_reported":1749539458,"current_range_meters":4000,"station_id":"","pricing_plan_id":"cebpf4jnsgd1na2vs0mg"},{"bike_id":"336a8532-ef99-485d-be29-cdcddc5a6bdb","system_id":"levelo_inurba_marseille","lat":43.241797,"lon":5.397327,"is_reserved":false,"is_disabled":false,"rental_uris":{"android":"levelo://app?vid=336a8532-ef99-485d-be29-cdcddc5a6bdb","ios":"levelo://app?vid=336a8532-ef99-485d-be29-cdcddc5a6bdb"},"vehicle_type_id":"4","last_reported":1749539458,"current_range_meters":4000,"station_id":"ce4bhn12rcd13ifvqgpg","pricing_plan_id":"cebpf4jnsgd1na2vs0mg"},{"bike_id":"80463d27-8a94-4d39-a1ce-a8cb0de50c18","system_id":"levelo_inurba_marseille","lat":43.30312,"lon":5.36878,"is_reserved":false,"is_disabled":false,"rental_uris":{"android":"levelo://app?vid=80463d27-8a94-4d39-a1ce-a8cb0de50c18","ios":"levelo://app?vid=80463d27-8a94-4d39-a1ce-a8cb0de50c18"},"vehicle_type_id":"4","last_reported":1749539458,"current_range_meters":4000,"station_id":"ce4bgqh2rcd13ifvqc5g","pricing_plan_id":"cebpf4jnsgd1na2vs0mg"},{"bike_id":"54c94be1-c0a0-480e-baf3-cde6bf247775","system_id":"levelo_inurba_marseille","lat":43.29299,"lon":5.37462,"is_reserved":false,"is_disabled":false,"rental_uris":{"android":"levelo://app?vid=54c94be1-c0a0-480e-baf3-cde6bf247775","ios":"levelo://app?vid=54c94be1-c0a0-480e-baf3-cde6bf247775"},"vehicle_type_id":"4","last_reported":1749539458,"current_range_meters":4000,"station_id":"ce4bgi12rcd13ifvqb70","pricing_plan_id":"cebpf4jnsgd1na2vs0mg"},{"bike_id":"672c6eda-30c6-41da-82ba-33fc11a95492","system_id":"levelo_inurba_marseille","lat":43.28484,"lon":5.38433,"is_reserved":false,"is_disabled":false,"rental_uris":{"android":"levelo://app?vid=672c6eda-30c6-41da-82ba-33fc11a95492","ios":"levelo://app?vid=672c6eda-30c6-41da-82ba-33fc11a95492"},"vehicle_type_id":"4","last_reported":1749539458,"current_range_meters":4400,"station_id":"ce4bh512rcd13ifvqe3g","pricing_plan_id":"cebpf4jnsgd1na2vs0mg"},{"bike_id":"3ffe1904-5549-4364-8c0b-63cb969a964e","system_id":"levelo_inurba_marseille","lat":43.27973,"lon":5.38766,"is_reserved":false,"is_disabled":false,"rental_uris":{"android":"levelo://app?vid=3ffe1904-5549-4364-8c0b-63cb969a964e","ios":"levelo://app?vid=3ffe1904-5549-4364-8c0b-63cb969a964e"},"vehicle_type_id":"4","last_reported":1749539458,"current_range_meters":4400,"station_id":"ce4bhg12rcd13ifvqf80","pricing_plan_id":"cebpf4jnsgd1na2vs0mg"},{"bike_id":"dbb15548-d4d0-43aa-b9a9-e8b494ef74fd","system_id":"levelo_inurba_marseille","lat":43.27062,"lon":5.40261,"is_reserved":false,"is_disabled":false,"rental_uris":{"android":"levelo://app?vid=dbb15548-d4d0-43aa-b9a9-e8b494ef74fd","ios":"levelo://app?vid=dbb15548-d4d0-43aa-b9a9-e8b494ef74fd"},"vehicle_type_id":"4","last_reported":1749539458,"current_range_meters":4400,"station_id":"ce4bhk92rcd13ifvqgc0","pricing_plan_id":"cebpf4jnsgd1na2vs0mg"},{"bike_id":"5cb543f8-627a-4392-8dfd-1391f785eb3c","system_id":"levelo_inurba_marseille","lat":43.2439,"lon":5.370599,"is_reserved":false,"is_disabled":false,"rental_uris":{"android":"levelo://app?vid=5cb543f8-627a-4392-8dfd-1391f785eb3c","ios":"levelo://app?vid=5cb543f8-627a-4392-8dfd-1391f785eb3c"},"vehicle_type_id":"4","last_reported":1749539458,"current_range_meters":4800,"station_id":"ce4bhhh2rcd13ifvqfk0","pricing_plan_id":"cebpf4jnsgd1na2vs0mg"},{"bike_id":"5d211b94-dd2c-407d-8170-ad48ff5eef4b","system_id":"levelo_inurba_marseille","lat":43.26784,"lon":5.39416,"is_reserved":false,"is_disabled":false,"rental_uris":{"android":"levelo://app?vid=5d211b94-dd2c-407d-8170-ad48ff5eef4b","ios":"levelo://app?vid=5d211b94-dd2c-407d-8170-ad48ff5eef4b"},"vehicle_type_id":"4","last_reported":1749539458,"current_range_meters":4800,"station_id":"ce4bhh12rcd13ifvqfg0","pricing_plan_id":"cebpf4jnsgd1na2vs0mg"},{"bike_id":"19946cad-7b22-4d35-84a2-d8c896e33ac9","system_id":"levelo_inurba_marseille","lat":43.25934,"lon":5.409,"is_reserved":false,"is_disabled":false,"rental_uris":{"android":"levelo://app?vid=19946cad-7b22-4d35-84a2-d8c896e33ac9","ios":"levelo://app?vid=19946cad-7b22-4d35-84a2-d8c896e33ac9"},"vehicle_type_id":"4","last_reported":1749539458,"current_range_meters":4800,"station_id":"ce4bhm92rcd13ifvqglg","pricing_plan_id":"cebpf4jnsgd1na2vs0mg"},{"bike_id":"ac2c9a38-3fa4-450e-a536-694b6a605ae7","system_id":"levelo_inurba_marseille","lat":43.33608,"lon":5.41035,"is_reserved":false,"is_disabled":true,"rental_uris":{"android":"levelo://app?vid=ac2c9a38-3fa4-450e-a536-694b6a605ae7","ios":"levelo://app?vid=ac2c9a38-3fa4-450e-a536-694b6a605ae7"},"vehicle_type_id":"4","last_reported":1749539458,"current_range_meters":4800,"station_id":"ce4bhqh2rcd13ifvqhmg","pricing_plan_id":"cebpf4jnsgd1na2vs0mg"},{"bike_id":"133eeca3-add3-40ed-af54-36e1f46347a0","system_id":"levelo_inurba_marseille","lat":43.254961,"lon":5.376548,"is_reserved":false,"is_disabled":false,"rental_uris":{"android":"levelo://app?vid=133eeca3-add3-40ed-af54-36e1f46347a0","ios":"levelo://app?vid=133eeca3-add3-40ed-af54-36e1f46347a0"},"vehicle_type_id":"4","last_reported":1749539458,"current_range_meters":4800,"station_id":"ce4bhh12rcd13ifvqff0","pricing_plan_id":"cebpf4jnsgd1na2vs0mg"},{"bike_id":"9b1406c9-0582-4c37-a224-6d5b1936911c","system_id":"levelo_inurba_marseille","lat":43.25934,"lon":5.40905,"is_reserved":false,"is_disabled":false,"rental_uris":{"android":"levelo://app?vid=9b1406c9-0582-4c37-a224-6d5b1936911c","ios":"levelo://app?vid=9b1406c9-0582-4c37-a224-6d5b1936911c"},"vehicle_type_id":"4","last_reported":1749539458,"current_range_meters":5600,"station_id":"ce4bhm92rcd13ifvqglg","pricing_plan_id":"cebpf4jnsgd1na2vs0mg"},{"bike_id":"8e8892df-6af4-4c39-843c-27fd263a8fcc","system_id":"levelo_inurba_marseille","lat":43.28151,"lon":5.42642,"is_reserved":false,"is_disabled":false,"rental_uris":{"android":"levelo://app?vid=8e8892df-6af4-4c39-843c-27fd263a8fcc","ios":"levelo://app?vid=8e8892df-6af4-4c39-843c-27fd263a8fcc"},"vehicle_type_id":"4","last_reported":1749539458,"current_range_meters":5600,"station_id":"ce4bhnh2rcd13ifvqgug","pricing_plan_id":"cebpf4jnsgd1na2vs0mg"},{"bike_id":"1ef37c59-3b3d-4016-85d9-222ea0d08abb","system_id":"levelo_inurba_marseille","lat":43.23965,"lon":5.3663,"is_reserved":false,"is_disabled":false,"rental_uris":{"android":"levelo://app?vid=1ef37c59-3b3d-4016-85d9-222ea0d08abb","ios":"levelo://app?vid=1ef37c59-3b3d-4016-85d9-222ea0d08abb"},"vehicle_type_id":"4","last_reported":1749539458,"current_range_meters":5600,"station_id":"ce4bhi12rcd13ifvqfp0","pricing_plan_id":"cebpf4jnsgd1na2vs0mg"},{"bike_id":"d5fe4636-8b81-43fd-8de0-8d77e82b7742","system_id":"levelo_inurba_marseille","lat":43.31248,"lon":5.36839,"is_reserved":false,"is_disabled":false,"rental_uris":{"android":"levelo://app?vid=d5fe4636-8b81-43fd-8de0-8d77e82b7742","ios":"levelo://app?vid=d5fe4636-8b81-43fd-8de0-8d77e82b7742"},"vehicle_type_id":"4","last_reported":1749539458,"current_range_meters":5600,"station_id":"ce4bgl92rcd13ifvqbq0","pricing_plan_id":"cebpf4jnsgd1na2vs0mg"},{"bike_id":"89e61be4-479c-4cec-a748-e4051ae578a2","system_id":"levelo_inurba_marseille","lat":43.32398,"lon":5.38863,"is_reserved":false,"is_disabled":false,"rental_uris":{"android":"levelo://app?vid=89e61be4-479c-4cec-a748-e4051ae578a2","ios":"levelo://app?vid=89e61be4-479c-4cec-a748-e4051ae578a2"},"vehicle_type_id":"4","last_reported":1749539458,"current_range_meters":5600,"station_id":"ce4bhqp2rcd13ifvqhog","pricing_plan_id":"cebpf4jnsgd1na2vs0mg"},{"bike_id":"39cdf7ed-89dc-4de2-aafe-6c9905ce3698","system_id":"levelo_inurba_marseille","lat":43.29773,"lon":5.36802,"is_reserved":false,"is_disabled":false,"rental_uris":{"android":"levelo://app?vid=39cdf7ed-89dc-4de2-aafe-6c9905ce3698","ios":"levelo://app?vid=39cdf7ed-89dc-4de2-aafe-6c9905ce3698"},"vehicle_type_id":"4","last_reported":1749539458,"current_range_meters":6000,"station_id":"","pricing_plan_id":"cebpf4jnsgd1na2vs0mg"},{"bike_id":"9c7cc04b-260a-4c4d-abff-ddccd152cd76","system_id":"levelo_inurba_marseille","lat":43.24995,"lon":5.38937,"is_reserved":false,"is_disabled":false,"rental_uris":{"android":"levelo://app?vid=9c7cc04b-260a-4c4d-abff-ddccd152cd76","ios":"levelo://app?vid=9c7cc04b-260a-4c4d-abff-ddccd152cd76"},"vehicle_type_id":"4","last_reported":1749539458,"current_range_meters":6000,"station_id":"ce4bhgp2rcd13ifvqfd0","pricing_plan_id":"cebpf4jnsgd1na2vs0mg"},{"bike_id":"9cd7e3b6-3a6c-4599-87c4-09cad6e5304c","system_id":"levelo_inurba_marseille","lat":43.32365,"lon":5.38881,"is_reserved":false,"is_disabled":false,"rental_uris":{"android":"levelo://app?vid=9cd7e3b6-3a6c-4599-87c4-09cad6e5304c","ios":"levelo://app?vid=9cd7e3b6-3a6c-4599-87c4-09cad6e5304c"},"vehicle_type_id":"4","last_reported":1749539458,"current_range_meters":6000,"station_id":"ce4bhqp2rcd13ifvqhog","pricing_plan_id":"cebpf4jnsgd1na2vs0mg"},{"bike_id":"582ac77a-b667-4141-93e2-bf960c47f5c4","system_id":"levelo_inurba_marseille","lat":43.25937,"lon":5.40895,"is_reserved":false,"is_disabled":false,"rental_uris":{"android":"levelo://app?vid=582ac77a-b667-4141-93e2-bf960c47f5c4","ios":"levelo://app?vid=582ac77a-b667-4141-93e2-bf960c47f5c4"},"vehicle_type_id":"4","last_reported":1749539458,"current_range_meters":6000,"station_id":"ce4bhm92rcd13ifvqglg","pricing_plan_id":"cebpf4jnsgd1na2vs0mg"},{"bike_id":"11d99533-1239-4522-b0b5-f8a3bff696e7","system_id":"levelo_inurba_marseille","lat":43.30149,"lon":5.42427,"is_reserved":false,"is_disabled":false,"rental_uris":{"android":"levelo://app?vid=11d99533-1239-4522-b0b5-f8a3bff696e7","ios":"levelo://app?vid=11d99533-1239-4522-b0b5-f8a3bff696e7"},"vehicle_type_id":"4","last_reported":1749539458,"current_range_meters":6400,"station_id":"","pricing_plan_id":"cebpf4jnsgd1na2vs0mg"},{"bike_id":"9ab5dcb2-22af-49e2-b2c1-32117ad578dc","system_id":"levelo_inurba_marseille","lat":43.29514,"lon":5.42538,"is_reserved":false,"is_disabled":false,"rental_uris":{"android":"levelo://app?vid=9ab5dcb2-22af-49e2-b2c1-32117ad578dc","ios":"levelo://app?vid=9ab5dcb2-22af-49e2-b2c1-32117ad578dc"},"vehicle_type_id":"4","last_reported":1749539458,"current_range_meters":6400,"station_id":"","pricing_plan_id":"cebpf4jnsgd1na2vs0mg"},{"bike_id":"8b4caff4-6ee7-47a5-a64f-5ccaa83c132f","system_id":"levelo_inurba_marseille","lat":43.29514,"lon":5.42561,"is_reserved":false,"is_disabled":false,"rental_uris":{"android":"levelo://app?vid=8b4caff4-6ee7-47a5-a64f-5ccaa83c132f","ios":"levelo://app?vid=8b4caff4-6ee7-47a5-a64f-5ccaa83c132f"},"vehicle_type_id":"4","last_reported":1749539458,"current_range_meters":6400,"station_id":"","pricing_plan_id":"cebpf4jnsgd1na2vs0mg"},{"bike_id":"9a59fa94-1b80-4a9c-a20a-cf20f1ce9076","system_id":"levelo_inurba_marseille","lat":43.29024,"lon":5.38134,"is_reserved":false,"is_disabled":false,"rental_uris":{"android":"levelo://app?vid=9a59fa94-1b80-4a9c-a20a-cf20f1ce9076","ios":"levelo://app?vid=9a59fa94-1b80-4a9c-a20a-cf20f1ce9076"},"vehicle_type_id":"4","last_reported":1749539458,"current_range_meters":6400,"station_id":"ce4bh4p2rcd13ifvqe1g","pricing_plan_id":"cebpf4jnsgd1na2vs0mg"},{"bike_id":"5cab8021-47c8-4131-a2c2-7572304f54a4","system_id":"levelo_inurba_marseille","lat":43.28287,"lon":5.35087,"is_reserved":false,"is_disabled":true,"rental_uris":{"android":"levelo://app?vid=5cab8021-47c8-4131-a2c2-7572304f54a4","ios":"levelo://app?vid=5cab8021-47c8-4131-a2c2-7572304f54a4"},"vehicle_type_id":"4","last_reported":1749539458,"current_range_meters":6400,"station_id":"ce4bhbp2rcd13ifvqerg","pricing_plan_id":"cebpf4jnsgd1na2vs0mg"},{"bike_id":"62bb4961-b701-40c9-b1d4-6e943835a464","system_id":"levelo_inurba_marseille","lat":43.23153,"lon":5.43703,"is_reserved":false,"is_disabled":false,"rental_uris":{"android":"levelo://app?vid=62bb4961-b701-40c9-b1d4-6e943835a464","ios":"levelo://app?vid=62bb4961-b701-40c9-b1d4-6e943835a464"},"vehicle_type_id":"4","last_reported":1749539458,"current_range_meters":12000,"station_id":"ce4bhmp2rcd13ifvqgog","pricing_plan_id":"cebpf4jnsgd1na2vs0mg"},{"bike_id":"face3f4f-ed5e-448e-97cb-093774dcb28c","system_id":"levelo_inurba_marseille","lat":43.31476,"lon":5.37299,"is_reserved":false,"is_disabled":false,"rental_uris":{"android":"levelo://app?vid=face3f4f-ed5e-448e-97cb-093774dcb28c","ios":"levelo://app?vid=face3f4f-ed5e-448e-97cb-093774dcb28c"},"vehicle_type_id":"4","last_reported":1749539458,"current_range_meters":6400,"station_id":"ce4bgt12rcd13ifvqcd0","pricing_plan_id":"cebpf4jnsgd1na2vs0mg"},{"bike_id":"47db8b15-61d8-48ed-a253-fd9909b235e4","system_id":"levelo_inurba_marseille","lat":43.2621,"lon":5.374428,"is_reserved":false,"is_disabled":false,"rental_uris":{"android":"levelo://app?vid=47db8b15-61d8-48ed-a253-fd9909b235e4","ios":"levelo://app?vid=47db8b15-61d8-48ed-a253-fd9909b235e4"},"vehicle_type_id":"4","last_reported":1749539458,"current_range_meters":6800,"station_id":"ce4bhgp2rcd13ifvqfc0","pricing_plan_id":"cebpf4jnsgd1na2vs0mg"},{"bike_id":"dd67f108-95bf-4a1e-b619-4bb77e009c5b","system_id":"levelo_inurba_marseille","lat":43.29072,"lon":5.42772,"is_reserved":false,"is_disabled":false,"rental_uris":{"android":"levelo://app?vid=dd67f108-95bf-4a1e-b619-4bb77e009c5b","ios":"levelo://app?vid=dd67f108-95bf-4a1e-b619-4bb77e009c5b"},"vehicle_type_id":"4","last_reported":1749539458,"current_range_meters":6800,"station_id":"","pricing_plan_id":"cebpf4jnsgd1na2vs0mg"},{"bike_id":"f6fee909-8c7c-482b-a8a0-a055892561e0","system_id":"levelo_inurba_marseille","lat":43.31211,"lon":5.36849,"is_reserved":false,"is_disabled":false,"rental_uris":{"android":"levelo://app?vid=f6fee909-8c7c-482b-a8a0-a055892561e0","ios":"levelo://app?vid=f6fee909-8c7c-482b-a8a0-a055892561e0"},"vehicle_type_id":"4","last_reported":1749539458,"current_range_meters":6800,"station_id":"ce4bgl92rcd13ifvqbq0","pricing_plan_id":"cebpf4jnsgd1na2vs0mg"},{"bike_id":"b627a4bc-ec3d-4a3d-b098-2cb9e5bfa8f1","system_id":"levelo_inurba_marseille","lat":43.289833,"lon":5.479113,"is_reserved":false,"is_disabled":true,"rental_uris":{"android":"levelo://app?vid=b627a4bc-ec3d-4a3d-b098-2cb9e5bfa8f1","ios":"levelo://app?vid=b627a4bc-ec3d-4a3d-b098-2cb9e5bfa8f1"},"vehicle_type_id":"4","last_reported":1749539458,"current_range_meters":6800,"station_id":"","pricing_plan_id":"cebpf4jnsgd1na2vs0mg"},{"bike_id":"0fc7e70d-f200-483b-8a1a-65f695351b4a","system_id":"levelo_inurba_marseille","lat":43.32472,"lon":5.36594,"is_reserved":false,"is_disabled":false,"rental_uris":{"android":"levelo://app?vid=0fc7e70d-f200-483b-8a1a-65f695351b4a","ios":"levelo://app?vid=0fc7e70d-f200-483b-8a1a-65f695351b4a"},"vehicle_type_id":"4","last_reported":1749539458,"current_range_meters":6800,"station_id":"ce4bhs12rcd13ifvqhvg","pricing_plan_id":"cebpf4jnsgd1na2vs0mg"},{"bike_id":"82fc53ea-b754-448b-9d14-57d0cdb48144","system_id":"levelo_inurba_marseille","lat":43.3123,"lon":5.3686,"is_reserved":false,"is_disabled":false,"rental_uris":{"android":"levelo://app?vid=82fc53ea-b754-448b-9d14-57d0cdb48144","ios":"levelo://app?vid=82fc53ea-b754-448b-9d14-57d0cdb48144"},"vehicle_type_id":"4","last_reported":1749539458,"current_range_meters":7200,"station_id":"ce4bgl92rcd13ifvqbq0","pricing_plan_id":"cebpf4jnsgd1na2vs0mg"},{"bike_id":"b4f160c4-4d49-437d-86e5-f9aed192b18d","system_id":"levelo_inurba_marseille","lat":43.29919,"lon":5.38158,"is_reserved":false,"is_disabled":false,"rental_uris":{"android":"levelo://app?vid=b4f160c4-4d49-437d-86e5-f9aed192b18d","ios":"levelo://app?vid=b4f160c4-4d49-437d-86e5-f9aed192b18d"},"vehicle_type_id":"4","last_reported":1749539458,"current_range_meters":7200,"station_id":"ce4bgj12rcd13ifvqbc0","pricing_plan_id":"cebpf4jnsgd1na2vs0mg"},{"bike_id":"41230260-2359-4710-ab51-c6e7d2660e1d","system_id":"levelo_inurba_marseille","lat":43.26784,"lon":5.39417,"is_reserved":false,"is_disabled":true,"rental_uris":{"android":"levelo://app?vid=41230260-2359-4710-ab51-c6e7d2660e1d","ios":"levelo://app?vid=41230260-2359-4710-ab51-c6e7d2660e1d"},"vehicle_type_id":"4","last_reported":1749539458,"current_range_meters":7200,"station_id":"ce4bhh12rcd13ifvqfg0","pricing_plan_id":"cebpf4jnsgd1na2vs0mg"},{"bike_id":"597949b3-5a4b-4125-a436-d8f16ad33e43","system_id":"levelo_inurba_marseille","lat":43.30176,"lon":5.366356,"is_reserved":false,"is_disabled":false,"rental_uris":{"android":"levelo://app?vid=597949b3-5a4b-4125-a436-d8f16ad33e43","ios":"levelo://app?vid=597949b3-5a4b-4125-a436-d8f16ad33e43"},"vehicle_type_id":"4","last_reported":1749539458,"current_range_meters":7200,"station_id":"ce4bgrh2rcd13ifvqc8g","pricing_plan_id":"cebpf4jnsgd1na2vs0mg"},{"bike_id":"5b0c758f-a7e0-4572-a36d-bf3b89ff84da","system_id":"levelo_inurba_marseille","lat":43.240699,"lon":5.377598,"is_reserved":false,"is_disabled":false,"rental_uris":{"android":"levelo://app?vid=5b0c758f-a7e0-4572-a36d-bf3b89ff84da","ios":"levelo://app?vid=5b0c758f-a7e0-4572-a36d-bf3b89ff84da"},"vehicle_type_id":"4","last_reported":1749539458,"current_range_meters":7200,"station_id":"","pricing_plan_id":"cebpf4jnsgd1na2vs0mg"},{"bike_id":"ee7a2e6a-3e65-41f6-b8b3-501fb42682dc","system_id":"levelo_inurba_marseille","lat":43.27559,"lon":5.38417,"is_reserved":false,"is_disabled":true,"rental_uris":{"android":"levelo://app?vid=ee7a2e6a-3e65-41f6-b8b3-501fb42682dc","ios":"levelo://app?vid=ee7a2e6a-3e65-41f6-b8b3-501fb42682dc"},"vehicle_type_id":"4","last_reported":1749539458,"current_range_meters":7200,"station_id":"ce4bhh92rcd13ifvqfi0","pricing_plan_id":"cebpf4jnsgd1na2vs0mg"},{"bike_id":"0df382d1-5a0a-43f5-8835-f560544a7e86","system_id":"levelo_inurba_marseille","lat":43.24999,"lon":5.38925,"is_reserved":false,"is_disabled":false,"rental_uris":{"android":"levelo://app?vid=0df382d1-5a0a-43f5-8835-f560544a7e86","ios":"levelo://app?vid=0df382d1-5a0a-43f5-8835-f560544a7e86"},"vehicle_type_id":"4","last_reported":1749539458,"current_range_meters":7200,"station_id":"ce4bhgp2rcd13ifvqfd0","pricing_plan_id":"cebpf4jnsgd1na2vs0mg"},{"bike_id":"2e5b7a2e-ae80-4b63-807c-0d74d0713d36","system_id":"levelo_inurba_marseille","lat":43.28438,"lon":5.34999,"is_reserved":false,"is_disabled":true,"rental_uris":{"android":"levelo://app?vid=2e5b7a2e-ae80-4b63-807c-0d74d0713d36","ios":"levelo://app?vid=2e5b7a2e-ae80-4b63-807c-0d74d0713d36"},"vehicle_type_id":"4","last_reported":1749539458,"current_range_meters":8000,"station_id":"ce4bhbh2rcd13ifvqepg","pricing_plan_id":"cebpf4jnsgd1na2vs0mg"},{"bike_id":"4617895f-ca85-44bc-947e-969d46f4f517","system_id":"levelo_inurba_marseille","lat":43.27971,"lon":5.38735,"is_reserved":false,"is_disabled":false,"rental_uris":{"android":"levelo://app?vid=4617895f-ca85-44bc-947e-969d46f4f517","ios":"levelo://app?vid=4617895f-ca85-44bc-947e-969d46f4f517"},"vehicle_type_id":"4","last_reported":1749539458,"current_range_meters":8000,"station_id":"ce4bhg12rcd13ifvqf80","pricing_plan_id":"cebpf4jnsgd1na2vs0mg"},{"bike_id":"7a286b17-17df-491a-a381-1330c2f7a715","system_id":"levelo_inurba_marseille","lat":43.29899,"lon":5.43651,"is_reserved":false,"is_disabled":false,"rental_uris":{"android":"levelo://app?vid=7a286b17-17df-491a-a381-1330c2f7a715","ios":"levelo://app?vid=7a286b17-17df-491a-a381-1330c2f7a715"},"vehicle_type_id":"4","last_reported":1749539458,"current_range_meters":8000,"station_id":"ce4bhpp2rcd13ifvqhfg","pricing_plan_id":"cebpf4jnsgd1na2vs0mg"},{"bike_id":"744fa010-b75f-4fd7-ac23-cc808ecd0bf7","system_id":"levelo_inurba_marseille","lat":43.31483,"lon":5.3731,"is_reserved":false,"is_disabled":false,"rental_uris":{"android":"levelo://app?vid=744fa010-b75f-4fd7-ac23-cc808ecd0bf7","ios":"levelo://app?vid=744fa010-b75f-4fd7-ac23-cc808ecd0bf7"},"vehicle_type_id":"4","last_reported":1749539458,"current_range_meters":8000,"station_id":"ce4bgt12rcd13ifvqcd0","pricing_plan_id":"cebpf4jnsgd1na2vs0mg"},{"bike_id":"7101e620-cc76-4028-b91a-a52aa997ec1d","system_id":"levelo_inurba_marseille","lat":43.30639,"lon":5.37376,"is_reserved":false,"is_disabled":false,"rental_uris":{"android":"levelo://app?vid=7101e620-cc76-4028-b91a-a52aa997ec1d","ios":"levelo://app?vid=7101e620-cc76-4028-b91a-a52aa997ec1d"},"vehicle_type_id":"4","last_reported":1749539458,"current_range_meters":8000,"station_id":"","pricing_plan_id":"cebpf4jnsgd1na2vs0mg"},{"bike_id":"eae7ec4a-9c05-4e5d-bf8b-5b3800e434c2","system_id":"levelo_inurba_marseille","lat":43.25937,"lon":5.4091,"is_reserved":false,"is_disabled":false,"rental_uris":{"android":"levelo://app?vid=eae7ec4a-9c05-4e5d-bf8b-5b3800e434c2","ios":"levelo://app?vid=eae7ec4a-9c05-4e5d-bf8b-5b3800e434c2"},"vehicle_type_id":"4","last_reported":1749539458,"current_range_meters":8000,"station_id":"ce4bhm92rcd13ifvqglg","pricing_plan_id":"cebpf4jnsgd1na2vs0mg"},{"bike_id":"1e81a32b-a654-4850-aaa5-a9d684742657","system_id":"levelo_inurba_marseille","lat":43.3163,"lon":5.38324,"is_reserved":false,"is_disabled":true,"rental_uris":{"android":"levelo://app?vid=1e81a32b-a654-4850-aaa5-a9d684742657","ios":"levelo://app?vid=1e81a32b-a654-4850-aaa5-a9d684742657"},"vehicle_type_id":"4","last_reported":1749539458,"current_range_meters":8400,"station_id":"","pricing_plan_id":"cebpf4jnsgd1na2vs0mg"},{"bike_id":"a88fe319-b64b-479c-8c9b-0a147e4fe4fe","system_id":"levelo_inurba_marseille","lat":43.2926,"lon":5.38456,"is_reserved":false,"is_disabled":false,"rental_uris":{"android":"levelo://app?vid=a88fe319-b64b-479c-8c9b-0a147e4fe4fe","ios":"levelo://app?vid=a88fe319-b64b-479c-8c9b-0a147e4fe4fe"},"vehicle_type_id":"4","last_reported":1749539458,"current_range_meters":8400,"station_id":"ce4bh692rcd13ifvqea0","pricing_plan_id":"cebpf4jnsgd1na2vs0mg"},{"bike_id":"6fd4cd93-a409-4da9-ad4b-b6025023458d","system_id":"levelo_inurba_marseille","lat":43.30115,"lon":5.37066,"is_reserved":false,"is_disabled":false,"rental_uris":{"android":"levelo://app?vid=6fd4cd93-a409-4da9-ad4b-b6025023458d","ios":"levelo://app?vid=6fd4cd93-a409-4da9-ad4b-b6025023458d"},"vehicle_type_id":"4","last_reported":1749539458,"current_range_meters":8800,"station_id":"","pricing_plan_id":"cebpf4jnsgd1na2vs0mg"},{"bike_id":"f20a6cf2-a4a3-4761-b0f5-a6c3be2c17e6","system_id":"levelo_inurba_marseille","lat":43.30542,"lon":5.36557,"is_reserved":false,"is_disabled":false,"rental_uris":{"android":"levelo://app?vid=f20a6cf2-a4a3-4761-b0f5-a6c3be2c17e6","ios":"levelo://app?vid=f20a6cf2-a4a3-4761-b0f5-a6c3be2c17e6"},"vehicle_type_id":"4","last_reported":1749539458,"current_range_meters":12000,"station_id":"ce4bgs12rcd13ifvqcag","pricing_plan_id":"cebpf4jnsgd1na2vs0mg"},{"bike_id":"e74b1d7d-bf9f-433e-abdc-22c21907f883","system_id":"levelo_inurba_marseille","lat":43.25911,"lon":5.40924,"is_reserved":false,"is_disabled":false,"rental_uris":{"android":"levelo://app?vid=e74b1d7d-bf9f-433e-abdc-22c21907f883","ios":"levelo://app?vid=e74b1d7d-bf9f-433e-abdc-22c21907f883"},"vehicle_type_id":"4","last_reported":1749539458,"current_range_meters":8800,"station_id":"ce4bhm92rcd13ifvqglg","pricing_plan_id":"cebpf4jnsgd1na2vs0mg"},{"bike_id":"a8fcb642-c8d4-48b7-bc7d-d92da8830f3d","system_id":"levelo_inurba_marseille","lat":43.29987,"lon":5.37168,"is_reserved":false,"is_disabled":true,"rental_uris":{"android":"levelo://app?vid=a8fcb642-c8d4-48b7-bc7d-d92da8830f3d","ios":"levelo://app?vid=a8fcb642-c8d4-48b7-bc7d-d92da8830f3d"},"vehicle_type_id":"4","last_reported":1749539458,"current_range_meters":8800,"station_id":"ce4bgr92rcd13ifvqc7g","pricing_plan_id":"cebpf4jnsgd1na2vs0mg"},{"bike_id":"35055393-59aa-400c-82f3-1df464532a80","system_id":"levelo_inurba_marseille","lat":43.31357,"lon":5.38499,"is_reserved":false,"is_disabled":false,"rental_uris":{"android":"levelo://app?vid=35055393-59aa-400c-82f3-1df464532a80","ios":"levelo://app?vid=35055393-59aa-400c-82f3-1df464532a80"},"vehicle_type_id":"4","last_reported":1749539458,"current_range_meters":8800,"station_id":"ce4bgt92rcd13ifvqcf0","pricing_plan_id":"cebpf4jnsgd1na2vs0mg"},{"bike_id":"76eab42d-a1e2-4579-b120-215a44464fc5","system_id":"levelo_inurba_marseille","lat":43.25933,"lon":5.40912,"is_reserved":false,"is_disabled":false,"rental_uris":{"android":"levelo://app?vid=76eab42d-a1e2-4579-b120-215a44464fc5","ios":"levelo://app?vid=76eab42d-a1e2-4579-b120-215a44464fc5"},"vehicle_type_id":"4","last_reported":1749539458,"current_range_meters":8800,"station_id":"ce4bhm92rcd13ifvqglg","pricing_plan_id":"cebpf4jnsgd1na2vs0mg"},{"bike_id":"da14da1f-7442-42b5-98f6-365f4fbd4c56","system_id":"levelo_inurba_marseille","lat":43.3246,"lon":5.41158,"is_reserved":false,"is_disabled":false,"rental_uris":{"android":"levelo://app?vid=da14da1f-7442-42b5-98f6-365f4fbd4c56","ios":"levelo://app?vid=da14da1f-7442-42b5-98f6-365f4fbd4c56"},"vehicle_type_id":"4","last_reported":1749539458,"current_range_meters":8800,"station_id":"","pricing_plan_id":"cebpf4jnsgd1na2vs0mg"},{"bike_id":"c09b1c1e-6d5b-4a72-8f97-eccd430a9e54","system_id":"levelo_inurba_marseille","lat":43.26677,"lon":5.38264,"is_reserved":false,"is_disabled":true,"rental_uris":{"android":"levelo://app?vid=c09b1c1e-6d5b-4a72-8f97-eccd430a9e54","ios":"levelo://app?vid=c09b1c1e-6d5b-4a72-8f97-eccd430a9e54"},"vehicle_type_id":"4","last_reported":1749539458,"current_range_meters":8800,"station_id":"ce4bhgp2rcd13ifvqfc0","pricing_plan_id":"cebpf4jnsgd1na2vs0mg"},{"bike_id":"72965e8e-e685-462f-a806-db779389f628","system_id":"levelo_inurba_marseille","lat":43.30144,"lon":5.37425,"is_reserved":false,"is_disabled":false,"rental_uris":{"android":"levelo://app?vid=72965e8e-e685-462f-a806-db779389f628","ios":"levelo://app?vid=72965e8e-e685-462f-a806-db779389f628"},"vehicle_type_id":"4","last_reported":1749539458,"current_range_meters":8800,"station_id":"ce4bgs92rcd13ifvqcc0","pricing_plan_id":"cebpf4jnsgd1na2vs0mg"},{"bike_id":"989d568b-df36-4ec1-b3b4-0955976b14ac","system_id":"levelo_inurba_marseille","lat":43.2962,"lon":5.37155,"is_reserved":false,"is_disabled":false,"rental_uris":{"android":"levelo://app?vid=989d568b-df36-4ec1-b3b4-0955976b14ac","ios":"levelo://app?vid=989d568b-df36-4ec1-b3b4-0955976b14ac"},"vehicle_type_id":"4","last_reported":1749539458,"current_range_meters":8800,"station_id":"ce4bgnh2rcd13ifvqc0g","pricing_plan_id":"cebpf4jnsgd1na2vs0mg"},{"bike_id":"d7030190-8990-4e1e-9de1-604a08fb39e2","system_id":"levelo_inurba_marseille","lat":43.30431,"lon":5.39151,"is_reserved":false,"is_disabled":false,"rental_uris":{"android":"levelo://app?vid=d7030190-8990-4e1e-9de1-604a08fb39e2","ios":"levelo://app?vid=d7030190-8990-4e1e-9de1-604a08fb39e2"},"vehicle_type_id":"4","last_reported":1749539458,"current_range_meters":9200,"station_id":"","pricing_plan_id":"cebpf4jnsgd1na2vs0mg"},{"bike_id":"2f32b755-3ca4-4102-8e33-37fff5e1ff8d","system_id":"levelo_inurba_marseille","lat":43.27138,"lon":5.40203,"is_reserved":false,"is_disabled":false,"rental_uris":{"android":"levelo://app?vid=2f32b755-3ca4-4102-8e33-37fff5e1ff8d","ios":"levelo://app?vid=2f32b755-3ca4-4102-8e33-37fff5e1ff8d"},"vehicle_type_id":"4","last_reported":1749539458,"current_range_meters":9200,"station_id":"","pricing_plan_id":"cebpf4jnsgd1na2vs0mg"},{"bike_id":"5aee6e98-5d72-4a58-8068-559ee9f9703d","system_id":"levelo_inurba_marseille","lat":43.21172,"lon":5.3509,"is_reserved":false,"is_disabled":false,"rental_uris":{"android":"levelo://app?vid=5aee6e98-5d72-4a58-8068-559ee9f9703d","ios":"levelo://app?vid=5aee6e98-5d72-4a58-8068-559ee9f9703d"},"vehicle_type_id":"4","last_reported":1749539458,"current_range_meters":9200,"station_id":"st_cvj6sg6p6f1abm77japg","pricing_plan_id":"cebpf4jnsgd1na2vs0mg"},{"bike_id":"c6382e65-4bf9-4eec-8b95-6b38cc2e6bbd","system_id":"levelo_inurba_marseille","lat":43.32364,"lon":5.38881,"is_reserved":false,"is_disabled":false,"rental_uris":{"android":"levelo://app?vid=c6382e65-4bf9-4eec-8b95-6b38cc2e6bbd","ios":"levelo://app?vid=c6382e65-4bf9-4eec-8b95-6b38cc2e6bbd"},"vehicle_type_id":"4","last_reported":1749539458,"current_range_meters":9200,"station_id":"ce4bhqp2rcd13ifvqhog","pricing_plan_id":"cebpf4jnsgd1na2vs0mg"},{"bike_id":"b917c716-764c-4d37-a337-bb31d5ca52b8","system_id":"levelo_inurba_marseille","lat":43.21231,"lon":5.3507,"is_reserved":false,"is_disabled":false,"rental_uris":{"android":"levelo://app?vid=b917c716-764c-4d37-a337-bb31d5ca52b8","ios":"levelo://app?vid=b917c716-764c-4d37-a337-bb31d5ca52b8"},"vehicle_type_id":"4","last_reported":1749539458,"current_range_meters":9200,"station_id":"","pricing_plan_id":"cebpf4jnsgd1na2vs0mg"},{"bike_id":"49b2682a-1532-4233-bf17-ad180328b43b","system_id":"levelo_inurba_marseille","lat":43.24067,"lon":5.37773,"is_reserved":false,"is_disabled":false,"rental_uris":{"android":"levelo://app?vid=49b2682a-1532-4233-bf17-ad180328b43b","ios":"levelo://app?vid=49b2682a-1532-4233-bf17-ad180328b43b"},"vehicle_type_id":"4","last_reported":1749539458,"current_range_meters":9200,"station_id":"ce4bhnp2rcd13ifvqgvg","pricing_plan_id":"cebpf4jnsgd1na2vs0mg"},{"bike_id":"b5c5feb6-5dc2-4def-b972-edd3a3322aaf","system_id":"levelo_inurba_marseille","lat":43.29163,"lon":5.37165,"is_reserved":false,"is_disabled":false,"rental_uris":{"android":"levelo://app?vid=b5c5feb6-5dc2-4def-b972-edd3a3322aaf","ios":"levelo://app?vid=b5c5feb6-5dc2-4def-b972-edd3a3322aaf"},"vehicle_type_id":"4","last_reported":1749539458,"current_range_meters":9200,"station_id":"ce4bha92rcd13ifvqeh0","pricing_plan_id":"cebpf4jnsgd1na2vs0mg"},{"bike_id":"4b9eb7f0-61d0-4628-a7e2-d737cbbeb8ac","system_id":"levelo_inurba_marseille","lat":43.25501,"lon":5.42036,"is_reserved":false,"is_disabled":false,"rental_uris":{"android":"levelo://app?vid=4b9eb7f0-61d0-4628-a7e2-d737cbbeb8ac","ios":"levelo://app?vid=4b9eb7f0-61d0-4628-a7e2-d737cbbeb8ac"},"vehicle_type_id":"4","last_reported":1749539458,"current_range_meters":9600,"station_id":"","pricing_plan_id":"cebpf4jnsgd1na2vs0mg"},{"bike_id":"2649ef45-0b6a-4349-a65a-a2f74f74f74f","system_id":"levelo_inurba_marseille","lat":43.264463,"lon":5.39224,"is_reserved":false,"is_disabled":false,"rental_uris":{"android":"levelo://app?vid=2649ef45-0b6a-4349-a65a-a2f74f74f74f","ios":"levelo://app?vid=2649ef45-0b6a-4349-a65a-a2f74f74f74f"},"vehicle_type_id":"4","last_reported":1749539458,"current_range_meters":9600,"station_id":"","pricing_plan_id":"cebpf4jnsgd1na2vs0mg"},{"bike_id":"76944e21-415a-4689-b267-8417a5454444","system_id":"levelo_inurba_marseille","lat":43.31222,"lon":5.36859,"is_reserved":false,"is_disabled":false,"rental_uris":{"android":"levelo://app?vid=76944e21-415a-4689-b267-8417a5454444","ios":"levelo://app?vid=76944e21-415a-4689-b267-8417a5454444"},"vehicle_type_id":"4","last_reported":1749539458,"current_range_meters":9600,"station_id":"ce4bgl92rcd13ifvqbq0","pricing_plan_id":"cebpf4jnsgd1na2vs0mg"},{"bike_id":"c8c4af1d-070c-484a-a3f7-babd17d99646","system_id":"levelo_inurba_marseille","lat":43.336777,"lon":5.392106,"is_reserved":false,"is_disabled":false,"rental_uris":{"android":"levelo://app?vid=c8c4af1d-070c-484a-a3f7-babd17d99646","ios":"levelo://app?vid=c8c4af1d-070c-484a-a3f7-babd17d99646"},"vehicle_type_id":"4","last_reported":1749539458,"current_range_meters":9600,"station_id":"ce4bhr92rcd13ifvqhsg","pricing_plan_id":"cebpf4jnsgd1na2vs0mg"},{"bike_id":"82be120d-595b-4301-b926-71200afa0fe4","system_id":"levelo_inurba_marseille","lat":43.29261,"lon":5.37634,"is_reserved":false,"is_disabled":false,"rental_uris":{"android":"levelo://app?vid=82be120d-595b-4301-b926-71200afa0fe4","ios":"levelo://app?vid=82be120d-595b-4301-b926-71200afa0fe4"},"vehicle_type_id":"4","last_reported":1749539458,"current_range_meters":9600,"station_id":"ce4bgi12rcd13ifvqb80","pricing_plan_id":"cebpf4jnsgd1na2vs0mg"},{"bike_id":"e84a9840-0d52-4216-a961-abf203a23d0e","system_id":"levelo_inurba_marseille","lat":43.25493,"lon":5.37649,"is_reserved":false,"is_disabled":false,"rental_uris":{"android":"levelo://app?vid=e84a9840-0d52-4216-a961-abf203a23d0e","ios":"levelo://app?vid=e84a9840-0d52-4216-a961-abf203a23d0e"},"vehicle_type_id":"4","last_reported":1749539458,"current_range_meters":9600,"station_id":"ce4bhh12rcd13ifvqff0","pricing_plan_id":"cebpf4jnsgd1na2vs0mg"},{"bike_id":"f800f7dd-3e67-4e35-8721-4206b2ba51ef","system_id":"levelo_inurba_marseille","lat":43.30947,"lon":5.3903,"is_reserved":false,"is_disabled":false,"rental_uris":{"android":"levelo://app?vid=f800f7dd-3e67-4e35-8721-4206b2ba51ef","ios":"levelo://app?vid=f800f7dd-3e67-4e35-8721-4206b2ba51ef"},"vehicle_type_id":"4","last_reported":1749539458,"current_range_meters":9600,"station_id":"ce4bgup2rcd13ifvqco0","pricing_plan_id":"cebpf4jnsgd1na2vs0mg"},{"bike_id":"e2358e1f-b642-4fc1-9915-20b828dd6d4d","system_id":"levelo_inurba_marseille","lat":43.2904,"lon":5.39958,"is_reserved":false,"is_disabled":false,"rental_uris":{"android":"levelo://app?vid=e2358e1f-b642-4fc1-9915-20b828dd6d4d","ios":"levelo://app?vid=e2358e1f-b642-4fc1-9915-20b828dd6d4d"},"vehicle_type_id":"4","last_reported":1749539458,"current_range_meters":9600,"station_id":"ce4bh392rcd13ifvqdm0","pricing_plan_id":"cebpf4jnsgd1na2vs0mg"},{"bike_id":"e3b401e7-7bff-4ca3-a248-96cf3602fef5","system_id":"levelo_inurba_marseille","lat":43.25897,"lon":5.40891,"is_reserved":false,"is_disabled":false,"rental_uris":{"android":"levelo://app?vid=e3b401e7-7bff-4ca3-a248-96cf3602fef5","ios":"levelo://app?vid=e3b401e7-7bff-4ca3-a248-96cf3602fef5"},"vehicle_type_id":"4","last_reported":1749539458,"current_range_meters":9600,"station_id":"ce4bhm92rcd13ifvqglg","pricing_plan_id":"cebpf4jnsgd1na2vs0mg"},{"bike_id":"5fa2334e-3a20-495f-97ad-0f14556e6585","system_id":"levelo_inurba_marseille","lat":43.31341,"lon":5.36733,"is_reserved":false,"is_disabled":false,"rental_uris":{"android":"levelo://app?vid=5fa2334e-3a20-495f-97ad-0f14556e6585","ios":"levelo://app?vid=5fa2334e-3a20-495f-97ad-0f14556e6585"},"vehicle_type_id":"4","last_reported":1749539458,"current_range_meters":10000,"station_id":"ce4bgr92rcd13ifvqc6g","pricing_plan_id":"cebpf4jnsgd1na2vs0mg"},{"bike_id":"b85be41e-2140-41ca-9627-a0ca198e2d51","system_id":"levelo_inurba_marseille","lat":43.31464,"lon":5.37271,"is_reserved":false,"is_disabled":false,"rental_uris":{"android":"levelo://app?vid=b85be41e-2140-41ca-9627-a0ca198e2d51","ios":"levelo://app?vid=b85be41e-2140-41ca-9627-a0ca198e2d51"},"vehicle_type_id":"4","last_reported":1749539458,"current_range_meters":10000,"station_id":"ce4bgt12rcd13ifvqcd0","pricing_plan_id":"cebpf4jnsgd1na2vs0mg"},{"bike_id":"1aa16519-d685-4976-8de7-f71f9cc62b8f","system_id":"levelo_inurba_marseille","lat":43.27759,"lon":5.42164,"is_reserved":false,"is_disabled":true,"rental_uris":{"android":"levelo://app?vid=1aa16519-d685-4976-8de7-f71f9cc62b8f","ios":"levelo://app?vid=1aa16519-d685-4976-8de7-f71f9cc62b8f"},"vehicle_type_id":"4","last_reported":1749539458,"current_range_meters":10000,"station_id":"","pricing_plan_id":"cebpf4jnsgd1na2vs0mg"},{"bike_id":"acf56c95-903d-4e41-b227-6ed213a46e8f","system_id":"levelo_inurba_marseille","lat":43.31367,"lon":5.38492,"is_reserved":false,"is_disabled":false,"rental_uris":{"android":"levelo://app?vid=acf56c95-903d-4e41-b227-6ed213a46e8f","ios":"levelo://app?vid=acf56c95-903d-4e41-b227-6ed213a46e8f"},"vehicle_type_id":"4","last_reported":1749539458,"current_range_meters":10000,"station_id":"ce4bgt92rcd13ifvqcf0","pricing_plan_id":"cebpf4jnsgd1na2vs0mg"},{"bike_id":"88113087-f0bb-4133-ab2a-bbfce1f3d99a","system_id":"levelo_inurba_marseille","lat":43.317,"lon":5.40474,"is_reserved":false,"is_disabled":true,"rental_uris":{"android":"levelo://app?vid=88113087-f0bb-4133-ab2a-bbfce1f3d99a","ios":"levelo://app?vid=88113087-f0bb-4133-ab2a-bbfce1f3d99a"},"vehicle_type_id":"4","last_reported":1749539458,"current_range_meters":10000,"station_id":"ce4bh012rcd13ifvqd00","pricing_plan_id":"cebpf4jnsgd1na2vs0mg"},{"bike_id":"f156dd16-bfc6-4d9c-8774-e71864afe86d","system_id":"levelo_inurba_marseille","lat":43.28005,"lon":5.41669,"is_reserved":false,"is_disabled":true,"rental_uris":{"android":"levelo://app?vid=f156dd16-bfc6-4d9c-8774-e71864afe86d","ios":"levelo://app?vid=f156dd16-bfc6-4d9c-8774-e71864afe86d"},"vehicle_type_id":"4","last_reported":1749539458,"current_range_meters":10000,"station_id":"ce4bho12rcd13ifvqh1g","pricing_plan_id":"cebpf4jnsgd1na2vs0mg"},{"bike_id":"62070747-744e-4e64-aa31-21064aab2932","system_id":"levelo_inurba_marseille","lat":43.32477,"lon":5.36553,"is_reserved":false,"is_disabled":false,"rental_uris":{"android":"levelo://app?vid=62070747-744e-4e64-aa31-21064aab2932","ios":"levelo://app?vid=62070747-744e-4e64-aa31-21064aab2932"},"vehicle_type_id":"4","last_reported":1749539458,"current_range_meters":10800,"station_id":"ce4bhs12rcd13ifvqhvg","pricing_plan_id":"cebpf4jnsgd1na2vs0mg"},{"bike_id":"b6285f6b-e9e7-470d-9b6d-1afe99ab71bf","system_id":"levelo_inurba_marseille","lat":43.26188,"lon":5.42071,"is_reserved":false,"is_disabled":false,"rental_uris":{"android":"levelo://app?vid=b6285f6b-e9e7-470d-9b6d-1afe99ab71bf","ios":"levelo://app?vid=b6285f6b-e9e7-470d-9b6d-1afe99ab71bf"},"vehicle_type_id":"4","last_reported":1749539458,"current_range_meters":10800,"station_id":"","pricing_plan_id":"cebpf4jnsgd1na2vs0mg"},{"bike_id":"660219bc-9f09-49e5-8bb8-0a89276755ae","system_id":"levelo_inurba_marseille","lat":43.29986,"lon":5.37167,"is_reserved":false,"is_disabled":true,"rental_uris":{"android":"levelo://app?vid=660219bc-9f09-49e5-8bb8-0a89276755ae","ios":"levelo://app?vid=660219bc-9f09-49e5-8bb8-0a89276755ae"},"vehicle_type_id":"4","last_reported":1749539458,"current_range_meters":10800,"station_id":"ce4bgr92rcd13ifvqc7g","pricing_plan_id":"cebpf4jnsgd1na2vs0mg"},{"bike_id":"6fc54af2-68f2-455a-a83f-004e9d098345","system_id":"levelo_inurba_marseille","lat":43.29579,"lon":5.3984,"is_reserved":false,"is_disabled":false,"rental_uris":{"android":"levelo://app?vid=6fc54af2-68f2-455a-a83f-004e9d098345","ios":"levelo://app?vid=6fc54af2-68f2-455a-a83f-004e9d098345"},"vehicle_type_id":"4","last_reported":1749539458,"current_range_meters":10800,"station_id":"","pricing_plan_id":"cebpf4jnsgd1na2vs0mg"},{"bike_id":"0a8405e4-9330-4790-8d37-bd57cef3d585","system_id":"levelo_inurba_marseille","lat":43.29622,"lon":5.37173,"is_reserved":false,"is_disabled":false,"rental_uris":{"android":"levelo://app?vid=0a8405e4-9330-4790-8d37-bd57cef3d585","ios":"levelo://app?vid=0a8405e4-9330-4790-8d37-bd57cef3d585"},"vehicle_type_id":"4","last_reported":1749539458,"current_range_meters":10800,"station_id":"ce4bgnh2rcd13ifvqc0g","pricing_plan_id":"cebpf4jnsgd1na2vs0mg"},{"bike_id":"effda3cc-db00-4d77-9135-179f9715a565","system_id":"levelo_inurba_marseille","lat":43.28924,"lon":5.36628,"is_reserved":false,"is_disabled":false,"rental_uris":{"android":"levelo://app?vid=effda3cc-db00-4d77-9135-179f9715a565","ios":"levelo://app?vid=effda3cc-db00-4d77-9135-179f9715a565"},"vehicle_type_id":"4","last_reported":1749539458,"current_range_meters":10800,"station_id":"ce4bhap2rcd13ifvqek0","pricing_plan_id":"cebpf4jnsgd1na2vs0mg"},{"bike_id":"8e317286-d121-41fb-88b8-5b957116b9fe","system_id":"levelo_inurba_marseille","lat":43.21195,"lon":5.35064,"is_reserved":false,"is_disabled":false,"rental_uris":{"android":"levelo://app?vid=8e317286-d121-41fb-88b8-5b957116b9fe","ios":"levelo://app?vid=8e317286-d121-41fb-88b8-5b957116b9fe"},"vehicle_type_id":"4","last_reported":1749539458,"current_range_meters":10800,"station_id":"st_cvj6sg6p6f1abm77japg","pricing_plan_id":"cebpf4jnsgd1na2vs0mg"},{"bike_id":"40d277a1-8cc5-4f77-807e-87b9f07c6ca5","system_id":"levelo_inurba_marseille","lat":43.28615,"lon":5.35103,"is_reserved":false,"is_disabled":true,"rental_uris":{"android":"levelo://app?vid=40d277a1-8cc5-4f77-807e-87b9f07c6ca5","ios":"levelo://app?vid=40d277a1-8cc5-4f77-807e-87b9f07c6ca5"},"vehicle_type_id":"4","last_reported":1749539458,"current_range_meters":10800,"station_id":"ce4bhch2rcd13ifvqeug","pricing_plan_id":"cebpf4jnsgd1na2vs0mg"},{"bike_id":"fea03510-d732-494e-a818-113e6eebaa67","system_id":"levelo_inurba_marseille","lat":43.22943,"lon":5.35378,"is_reserved":false,"is_disabled":true,"rental_uris":{"android":"levelo://app?vid=fea03510-d732-494e-a818-113e6eebaa67","ios":"levelo://app?vid=fea03510-d732-494e-a818-113e6eebaa67"},"vehicle_type_id":"4","last_reported":1749539458,"current_range_meters":10800,"station_id":"cpo3532slgdg3j2ikp40","pricing_plan_id":"cebpf4jnsgd1na2vs0mg"},{"bike_id":"c07a7351-aaaf-465f-b00c-b9ca4162fcb9","system_id":"levelo_inurba_marseille","lat":43.29267,"lon":5.37613,"is_reserved":false,"is_disabled":true,"rental_uris":{"android":"levelo://app?vid=c07a7351-aaaf-465f-b00c-b9ca4162fcb9","ios":"levelo://app?vid=c07a7351-aaaf-465f-b00c-b9ca4162fcb9"},"vehicle_type_id":"4","last_reported":1749539458,"current_range_meters":10800,"station_id":"ce4bgi12rcd13ifvqb80","pricing_plan_id":"cebpf4jnsgd1na2vs0mg"},{"bike_id":"bc6fc902-3c91-4208-80a6-cebe896f2457","system_id":"levelo_inurba_marseille","lat":43.302913,"lon":5.38978,"is_reserved":false,"is_disabled":false,"rental_uris":{"android":"levelo://app?vid=bc6fc902-3c91-4208-80a6-cebe896f2457","ios":"levelo://app?vid=bc6fc902-3c91-4208-80a6-cebe896f2457"},"vehicle_type_id":"4","last_reported":1749539458,"current_range_meters":10800,"station_id":"","pricing_plan_id":"cebpf4jnsgd1na2vs0mg"},{"bike_id":"799a81f7-17c6-468d-a848-32f1307afe19","system_id":"levelo_inurba_marseille","lat":43.30949,"lon":5.39049,"is_reserved":false,"is_disabled":false,"rental_uris":{"android":"levelo://app?vid=799a81f7-17c6-468d-a848-32f1307afe19","ios":"levelo://app?vid=799a81f7-17c6-468d-a848-32f1307afe19"},"vehicle_type_id":"4","last_reported":1749539458,"current_range_meters":10800,"station_id":"ce4bgup2rcd13ifvqco0","pricing_plan_id":"cebpf4jnsgd1na2vs0mg"},{"bike_id":"a9a9f7a0-0a38-44ad-a99d-545137a5c199","system_id":"levelo_inurba_marseille","lat":43.24073,"lon":5.3776,"is_reserved":false,"is_disabled":false,"rental_uris":{"android":"levelo://app?vid=a9a9f7a0-0a38-44ad-a99d-545137a5c199","ios":"levelo://app?vid=a9a9f7a0-0a38-44ad-a99d-545137a5c199"},"vehicle_type_id":"4","last_reported":1749539458,"current_range_meters":14400,"station_id":"ce4bhnp2rcd13ifvqgvg","pricing_plan_id":"cebpf4jnsgd1na2vs0mg"},{"bike_id":"0ca5c1a0-e310-4625-a32d-0a021a84cc09","system_id":"levelo_inurba_marseille","lat":43.30542,"lon":5.37553,"is_reserved":false,"is_disabled":false,"rental_uris":{"android":"levelo://app?vid=0ca5c1a0-e310-4625-a32d-0a021a84cc09","ios":"levelo://app?vid=0ca5c1a0-e310-4625-a32d-0a021a84cc09"},"vehicle_type_id":"4","last_reported":1749539458,"current_range_meters":11200,"station_id":"","pricing_plan_id":"cebpf4jnsgd1na2vs0mg"},{"bike_id":"2ffb5d6d-efc6-4007-9177-680a2afd86cf","system_id":"levelo_inurba_marseille","lat":43.31113,"lon":5.37761,"is_reserved":false,"is_disabled":false,"rental_uris":{"android":"levelo://app?vid=2ffb5d6d-efc6-4007-9177-680a2afd86cf","ios":"levelo://app?vid=2ffb5d6d-efc6-4007-9177-680a2afd86cf"},"vehicle_type_id":"4","last_reported":1749539458,"current_range_meters":11200,"station_id":"ce4bgt92rcd13ifvqcg0","pricing_plan_id":"cebpf4jnsgd1na2vs0mg"},{"bike_id":"a98c821e-0660-4ba3-86cc-55c06f1a4162","system_id":"levelo_inurba_marseille","lat":43.24082,"lon":5.37759,"is_reserved":false,"is_disabled":false,"rental_uris":{"android":"levelo://app?vid=a98c821e-0660-4ba3-86cc-55c06f1a4162","ios":"levelo://app?vid=a98c821e-0660-4ba3-86cc-55c06f1a4162"},"vehicle_type_id":"4","last_reported":1749539458,"current_range_meters":11600,"station_id":"ce4bhnp2rcd13ifvqgvg","pricing_plan_id":"cebpf4jnsgd1na2vs0mg"},{"bike_id":"4eada35f-a65e-4d4e-b60d-b88e9a624416","system_id":"levelo_inurba_marseille","lat":43.24385,"lon":5.37063,"is_reserved":false,"is_disabled":false,"rental_uris":{"android":"levelo://app?vid=4eada35f-a65e-4d4e-b60d-b88e9a624416","ios":"levelo://app?vid=4eada35f-a65e-4d4e-b60d-b88e9a624416"},"vehicle_type_id":"4","last_reported":1749539458,"current_range_meters":11600,"station_id":"ce4bhhh2rcd13ifvqfk0","pricing_plan_id":"cebpf4jnsgd1na2vs0mg"},{"bike_id":"c7432800-1b14-4854-84d5-dd3690953cae","system_id":"levelo_inurba_marseille","lat":43.26199,"lon":5.37457,"is_reserved":false,"is_disabled":false,"rental_uris":{"android":"levelo://app?vid=c7432800-1b14-4854-84d5-dd3690953cae","ios":"levelo://app?vid=c7432800-1b14-4854-84d5-dd3690953cae"},"vehicle_type_id":"4","last_reported":1749539458,"current_range_meters":11600,"station_id":"ce4bhgp2rcd13ifvqfc0","pricing_plan_id":"cebpf4jnsgd1na2vs0mg"},{"bike_id":"65ea561a-2be8-4848-b6da-b760b05269f7","system_id":"levelo_inurba_marseille","lat":43.31255,"lon":5.4017,"is_reserved":false,"is_disabled":false,"rental_uris":{"android":"levelo://app?vid=65ea561a-2be8-4848-b6da-b760b05269f7","ios":"levelo://app?vid=65ea561a-2be8-4848-b6da-b760b05269f7"},"vehicle_type_id":"4","last_reported":1749539458,"current_range_meters":11600,"station_id":"ce4bh092rcd13ifvqd30","pricing_plan_id":"cebpf4jnsgd1na2vs0mg"},{"bike_id":"0053f0bd-3481-4f8f-a19e-7dd7a6624507","system_id":"levelo_inurba_marseille","lat":43.29892,"lon":5.43675,"is_reserved":false,"is_disabled":false,"rental_uris":{"android":"levelo://app?vid=0053f0bd-3481-4f8f-a19e-7dd7a6624507","ios":"levelo://app?vid=0053f0bd-3481-4f8f-a19e-7dd7a6624507"},"vehicle_type_id":"4","last_reported":1749539458,"current_range_meters":11600,"station_id":"ce4bhpp2rcd13ifvqhfg","pricing_plan_id":"cebpf4jnsgd1na2vs0mg"},{"bike_id":"1aea7cfc-afca-4737-8f8d-ae60132524de","system_id":"levelo_inurba_marseille","lat":43.28793,"lon":5.39851,"is_reserved":false,"is_disabled":false,"rental_uris":{"android":"levelo://app?vid=1aea7cfc-afca-4737-8f8d-ae60132524de","ios":"levelo://app?vid=1aea7cfc-afca-4737-8f8d-ae60132524de"},"vehicle_type_id":"4","last_reported":1749539458,"current_range_meters":11600,"station_id":"","pricing_plan_id":"cebpf4jnsgd1na2vs0mg"},{"bike_id":"6d064464-dec5-46b8-98bd-56bde5fb4740","system_id":"levelo_inurba_marseille","lat":43.28994,"lon":5.35629,"is_reserved":false,"is_disabled":true,"rental_uris":{"android":"levelo://app?vid=6d064464-dec5-46b8-98bd-56bde5fb4740","ios":"levelo://app?vid=6d064464-dec5-46b8-98bd-56bde5fb4740"},"vehicle_type_id":"4","last_reported":1749539458,"current_range_meters":11600,"station_id":"ce4bhb92rcd13ifvqen0","pricing_plan_id":"cebpf4jnsgd1na2vs0mg"},{"bike_id":"0b87baf5-0191-4be3-9088-26dcf479d979","system_id":"levelo_inurba_marseille","lat":43.32481,"lon":5.36574,"is_reserved":false,"is_disabled":false,"rental_uris":{"android":"levelo://app?vid=0b87baf5-0191-4be3-9088-26dcf479d979","ios":"levelo://app?vid=0b87baf5-0191-4be3-9088-26dcf479d979"},"vehicle_type_id":"4","last_reported":1749539458,"current_range_meters":11600,"station_id":"ce4bhs12rcd13ifvqhvg","pricing_plan_id":"cebpf4jnsgd1na2vs0mg"},{"bike_id":"05d515d4-f9a4-4d33-9344-77da9a44570b","system_id":"levelo_inurba_marseille","lat":43.27618,"lon":5.36108,"is_reserved":false,"is_disabled":false,"rental_uris":{"android":"levelo://app?vid=05d515d4-f9a4-4d33-9344-77da9a44570b","ios":"levelo://app?vid=05d515d4-f9a4-4d33-9344-77da9a44570b"},"vehicle_type_id":"4","last_reported":1749539458,"current_range_meters":11600,"station_id":"ce4bgj92rcd13ifvqbe0","pricing_plan_id":"cebpf4jnsgd1na2vs0mg"},{"bike_id":"39d32260-51d5-455a-ba53-6471389bd255","system_id":"levelo_inurba_marseille","lat":43.31996,"lon":5.37643,"is_reserved":false,"is_disabled":false,"rental_uris":{"android":"levelo://app?vid=39d32260-51d5-455a-ba53-6471389bd255","ios":"levelo://app?vid=39d32260-51d5-455a-ba53-6471389bd255"},"vehicle_type_id":"4","last_reported":1749539458,"current_range_meters":11600,"station_id":"","pricing_plan_id":"cebpf4jnsgd1na2vs0mg"},{"bike_id":"0b602b86-9c91-4b76-89a4-a3531e2c7f0e","system_id":"levelo_inurba_marseille","lat":43.32357,"lon":5.38871,"is_reserved":false,"is_disabled":false,"rental_uris":{"android":"levelo://app?vid=0b602b86-9c91-4b76-89a4-a3531e2c7f0e","ios":"levelo://app?vid=0b602b86-9c91-4b76-89a4-a3531e2c7f0e"},"vehicle_type_id":"4","last_reported":1749539458,"current_range_meters":11600,"station_id":"ce4bhqp2rcd13ifvqhog","pricing_plan_id":"cebpf4jnsgd1na2vs0mg"},{"bike_id":"fd698331-8a13-47e3-b1ca-510d4bd09a00","system_id":"levelo_inurba_marseille","lat":43.303155,"lon":5.36907,"is_reserved":false,"is_disabled":false,"rental_uris":{"android":"levelo://app?vid=fd698331-8a13-47e3-b1ca-510d4bd09a00","ios":"levelo://app?vid=fd698331-8a13-47e3-b1ca-510d4bd09a00"},"vehicle_type_id":"4","last_reported":1749539458,"current_range_meters":12000,"station_id":"ce4bgqh2rcd13ifvqc5g","pricing_plan_id":"cebpf4jnsgd1na2vs0mg"},{"bike_id":"5077581b-cebb-46fc-ba69-4fa8272d4810","system_id":"levelo_inurba_marseille","lat":43.21361,"lon":5.35532,"is_reserved":false,"is_disabled":false,"rental_uris":{"android":"levelo://app?vid=5077581b-cebb-46fc-ba69-4fa8272d4810","ios":"levelo://app?vid=5077581b-cebb-46fc-ba69-4fa8272d4810"},"vehicle_type_id":"4","last_reported":1749539458,"current_range_meters":12000,"station_id":"","pricing_plan_id":"cebpf4jnsgd1na2vs0mg"},{"bike_id":"60a8540b-0b97-4e6a-b532-b4cdb1bca662","system_id":"levelo_inurba_marseille","lat":43.25881,"lon":5.388803,"is_reserved":false,"is_disabled":true,"rental_uris":{"android":"levelo://app?vid=60a8540b-0b97-4e6a-b532-b4cdb1bca662","ios":"levelo://app?vid=60a8540b-0b97-4e6a-b532-b4cdb1bca662"},"vehicle_type_id":"4","last_reported":1749539458,"current_range_meters":12000,"station_id":"","pricing_plan_id":"cebpf4jnsgd1na2vs0mg"},{"bike_id":"4497bc7b-bd64-47d5-92de-a3021c6fff2f","system_id":"levelo_inurba_marseille","lat":43.32477,"lon":5.36596,"is_reserved":false,"is_disabled":false,"rental_uris":{"android":"levelo://app?vid=4497bc7b-bd64-47d5-92de-a3021c6fff2f","ios":"levelo://app?vid=4497bc7b-bd64-47d5-92de-a3021c6fff2f"},"vehicle_type_id":"4","last_reported":1749539458,"current_range_meters":12000,"station_id":"ce4bhs12rcd13ifvqhvg","pricing_plan_id":"cebpf4jnsgd1na2vs0mg"},{"bike_id":"c63e6d1d-1a9a-4c24-9eb0-e6a241e9ef48","system_id":"levelo_inurba_marseille","lat":43.30539,"lon":5.36713,"is_reserved":false,"is_disabled":false,"rental_uris":{"android":"levelo://app?vid=c63e6d1d-1a9a-4c24-9eb0-e6a241e9ef48","ios":"levelo://app?vid=c63e6d1d-1a9a-4c24-9eb0-e6a241e9ef48"},"vehicle_type_id":"4","last_reported":1749539458,"current_range_meters":12000,"station_id":"ce4bgrp2rcd13ifvqc9g","pricing_plan_id":"cebpf4jnsgd1na2vs0mg"},{"bike_id":"5a55eb0f-0567-487e-a6a7-2cfcfc5473aa","system_id":"levelo_inurba_marseille","lat":43.33763,"lon":5.37436,"is_reserved":false,"is_disabled":false,"rental_uris":{"android":"levelo://app?vid=5a55eb0f-0567-487e-a6a7-2cfcfc5473aa","ios":"levelo://app?vid=5a55eb0f-0567-487e-a6a7-2cfcfc5473aa"},"vehicle_type_id":"4","last_reported":1749539458,"current_range_meters":12400,"station_id":"","pricing_plan_id":"cebpf4jnsgd1na2vs0mg"},{"bike_id":"ef555bdb-3115-4b1f-9398-9c76776e1204","system_id":"levelo_inurba_marseille","lat":43.26027,"lon":5.37428,"is_reserved":false,"is_disabled":false,"rental_uris":{"android":"levelo://app?vid=ef555bdb-3115-4b1f-9398-9c76776e1204","ios":"levelo://app?vid=ef555bdb-3115-4b1f-9398-9c76776e1204"},"vehicle_type_id":"4","last_reported":1749539458,"current_range_meters":12400,"station_id":"","pricing_plan_id":"cebpf4jnsgd1na2vs0mg"},{"bike_id":"e088c544-b7c3-4688-b0cb-813036bb9d12","system_id":"levelo_inurba_marseille","lat":43.26552,"lon":5.37282,"is_reserved":false,"is_disabled":false,"rental_uris":{"android":"levelo://app?vid=e088c544-b7c3-4688-b0cb-813036bb9d12","ios":"levelo://app?vid=e088c544-b7c3-4688-b0cb-813036bb9d12"},"vehicle_type_id":"4","last_reported":1749539458,"current_range_meters":12400,"station_id":"ce4bhg12rcd13ifvqf70","pricing_plan_id":"cebpf4jnsgd1na2vs0mg"},{"bike_id":"c24dbf98-89c0-45e8-b7de-be005719f9da","system_id":"levelo_inurba_marseille","lat":43.2315,"lon":5.43709,"is_reserved":false,"is_disabled":false,"rental_uris":{"android":"levelo://app?vid=c24dbf98-89c0-45e8-b7de-be005719f9da","ios":"levelo://app?vid=c24dbf98-89c0-45e8-b7de-be005719f9da"},"vehicle_type_id":"4","last_reported":1749539458,"current_range_meters":12400,"station_id":"ce4bhmp2rcd13ifvqgog","pricing_plan_id":"cebpf4jnsgd1na2vs0mg"},{"bike_id":"402b268f-51d8-4319-85da-3f411d4d5d91","system_id":"levelo_inurba_marseille","lat":43.21212,"lon":5.35054,"is_reserved":false,"is_disabled":false,"rental_uris":{"android":"levelo://app?vid=402b268f-51d8-4319-85da-3f411d4d5d91","ios":"levelo://app?vid=402b268f-51d8-4319-85da-3f411d4d5d91"},"vehicle_type_id":"4","last_reported":1749539458,"current_range_meters":12400,"station_id":"st_cvj6sg6p6f1abm77japg","pricing_plan_id":"cebpf4jnsgd1na2vs0mg"},{"bike_id":"49b39458-5ef5-4837-83a2-1348305a83ec","system_id":"levelo_inurba_marseille","lat":43.27493,"lon":5.42457,"is_reserved":false,"is_disabled":false,"rental_uris":{"android":"levelo://app?vid=49b39458-5ef5-4837-83a2-1348305a83ec","ios":"levelo://app?vid=49b39458-5ef5-4837-83a2-1348305a83ec"},"vehicle_type_id":"4","last_reported":1749539458,"current_range_meters":12400,"station_id":"ce4bhn92rcd13ifvqgrg","pricing_plan_id":"cebpf4jnsgd1na2vs0mg"},{"bike_id":"c46183ac-8cca-4cdf-a8a9-22b7c63cf27e","system_id":"levelo_inurba_marseille","lat":43.288462,"lon":5.358356,"is_reserved":false,"is_disabled":true,"rental_uris":{"android":"levelo://app?vid=c46183ac-8cca-4cdf-a8a9-22b7c63cf27e","ios":"levelo://app?vid=c46183ac-8cca-4cdf-a8a9-22b7c63cf27e"},"vehicle_type_id":"4","last_reported":1749539458,"current_range_meters":12800,"station_id":"ce4bhb12rcd13ifvqem0","pricing_plan_id":"cebpf4jnsgd1na2vs0mg"},{"bike_id":"c63f4860-73c6-489f-895c-b31b8d653c8d","system_id":"levelo_inurba_marseille","lat":43.28427,"lon":5.34985,"is_reserved":false,"is_disabled":true,"rental_uris":{"android":"levelo://app?vid=c63f4860-73c6-489f-895c-b31b8d653c8d","ios":"levelo://app?vid=c63f4860-73c6-489f-895c-b31b8d653c8d"},"vehicle_type_id":"4","last_reported":1749539458,"current_range_meters":12800,"station_id":"ce4bhbh2rcd13ifvqepg","pricing_plan_id":"cebpf4jnsgd1na2vs0mg"},{"bike_id":"23e89bac-e2bf-4e89-8e08-1f432b7a4188","system_id":"levelo_inurba_marseille","lat":43.21188,"lon":5.35085,"is_reserved":false,"is_disabled":true,"rental_uris":{"android":"levelo://app?vid=23e89bac-e2bf-4e89-8e08-1f432b7a4188","ios":"levelo://app?vid=23e89bac-e2bf-4e89-8e08-1f432b7a4188"},"vehicle_type_id":"4","last_reported":1749539458,"current_range_meters":13600,"station_id":"st_cvj6sg6p6f1abm77japg","pricing_plan_id":"cebpf4jnsgd1na2vs0mg"},{"bike_id":"183d8c2a-aed1-4daa-b67d-cfa1587d4816","system_id":"levelo_inurba_marseille","lat":43.2582,"lon":5.39436,"is_reserved":false,"is_disabled":false,"rental_uris":{"android":"levelo://app?vid=183d8c2a-aed1-4daa-b67d-cfa1587d4816","ios":"levelo://app?vid=183d8c2a-aed1-4daa-b67d-cfa1587d4816"},"vehicle_type_id":"4","last_reported":1749539458,"current_range_meters":13600,"station_id":"ce4bhip2rcd13ifvqft0","pricing_plan_id":"cebpf4jnsgd1na2vs0mg"},{"bike_id":"b7651752-8eb3-4b67-91fc-0a6e006c8d1f","system_id":"levelo_inurba_marseille","lat":43.21177,"lon":5.35082,"is_reserved":false,"is_disabled":false,"rental_uris":{"android":"levelo://app?vid=b7651752-8eb3-4b67-91fc-0a6e006c8d1f","ios":"levelo://app?vid=b7651752-8eb3-4b67-91fc-0a6e006c8d1f"},"vehicle_type_id":"4","last_reported":1749539458,"current_range_meters":13600,"station_id":"st_cvj6sg6p6f1abm77japg","pricing_plan_id":"cebpf4jnsgd1na2vs0mg"},{"bike_id":"8e401600-8bcb-4aca-a609-303bd5c43190","system_id":"levelo_inurba_marseille","lat":43.31236,"lon":5.36867,"is_reserved":false,"is_disabled":false,"rental_uris":{"android":"levelo://app?vid=8e401600-8bcb-4aca-a609-303bd5c43190","ios":"levelo://app?vid=8e401600-8bcb-4aca-a609-303bd5c43190"},"vehicle_type_id":"4","last_reported":1749539458,"current_range_meters":13600,"station_id":"ce4bgl92rcd13ifvqbq0","pricing_plan_id":"cebpf4jnsgd1na2vs0mg"},{"bike_id":"eba2c017-d17a-4eca-aa92-886ad3c19570","system_id":"levelo_inurba_marseille","lat":43.33478,"lon":5.39803,"is_reserved":false,"is_disabled":false,"rental_uris":{"android":"levelo://app?vid=eba2c017-d17a-4eca-aa92-886ad3c19570","ios":"levelo://app?vid=eba2c017-d17a-4eca-aa92-886ad3c19570"},"vehicle_type_id":"4","last_reported":1749539458,"current_range_meters":14000,"station_id":"","pricing_plan_id":"cebpf4jnsgd1na2vs0mg"},{"bike_id":"3acf3718-6604-451a-b38e-26751b0e4229","system_id":"levelo_inurba_marseille","lat":43.30946,"lon":5.39034,"is_reserved":false,"is_disabled":false,"rental_uris":{"android":"levelo://app?vid=3acf3718-6604-451a-b38e-26751b0e4229","ios":"levelo://app?vid=3acf3718-6604-451a-b38e-26751b0e4229"},"vehicle_type_id":"4","last_reported":1749539458,"current_range_meters":14000,"station_id":"ce4bgup2rcd13ifvqco0","pricing_plan_id":"cebpf4jnsgd1na2vs0mg"},{"bike_id":"456fd0fb-6b00-49e3-944b-55516afdf508","system_id":"levelo_inurba_marseille","lat":43.28266,"lon":5.35078,"is_reserved":false,"is_disabled":true,"rental_uris":{"android":"levelo://app?vid=456fd0fb-6b00-49e3-944b-55516afdf508","ios":"levelo://app?vid=456fd0fb-6b00-49e3-944b-55516afdf508"},"vehicle_type_id":"4","last_reported":1749539458,"current_range_meters":14000,"station_id":"ce4bhbp2rcd13ifvqerg","pricing_plan_id":"cebpf4jnsgd1na2vs0mg"},{"bike_id":"c224e592-2b69-407f-98e2-ed582acce3e4","system_id":"levelo_inurba_marseille","lat":43.30487,"lon":5.37904,"is_reserved":false,"is_disabled":false,"rental_uris":{"android":"levelo://app?vid=c224e592-2b69-407f-98e2-ed582acce3e4","ios":"levelo://app?vid=c224e592-2b69-407f-98e2-ed582acce3e4"},"vehicle_type_id":"4","last_reported":1749539458,"current_range_meters":14000,"station_id":"ce4bgup2rcd13ifvqcn0","pricing_plan_id":"cebpf4jnsgd1na2vs0mg"},{"bike_id":"abcd2dc9-4396-440f-85b3-9d9064401860","system_id":"levelo_inurba_marseille","lat":43.31341,"lon":5.36729,"is_reserved":false,"is_disabled":false,"rental_uris":{"android":"levelo://app?vid=abcd2dc9-4396-440f-85b3-9d9064401860","ios":"levelo://app?vid=abcd2dc9-4396-440f-85b3-9d9064401860"},"vehicle_type_id":"4","last_reported":1749539458,"current_range_meters":14000,"station_id":"","pricing_plan_id":"cebpf4jnsgd1na2vs0mg"},{"bike_id":"ca27e12a-1f2d-4cf2-be29-12a2b9ff1547","system_id":"levelo_inurba_marseille","lat":43.317203,"lon":5.423953,"is_reserved":false,"is_disabled":false,"rental_uris":{"android":"levelo://app?vid=ca27e12a-1f2d-4cf2-be29-12a2b9ff1547","ios":"levelo://app?vid=ca27e12a-1f2d-4cf2-be29-12a2b9ff1547"},"vehicle_type_id":"4","last_reported":1749539458,"current_range_meters":14000,"station_id":"ce4bhp92rcd13ifvqhbg","pricing_plan_id":"cebpf4jnsgd1na2vs0mg"},{"bike_id":"154fe73d-3435-496e-b9d6-7f8cad0c5609","system_id":"levelo_inurba_marseille","lat":43.313398,"lon":5.367223,"is_reserved":false,"is_disabled":false,"rental_uris":{"android":"levelo://app?vid=154fe73d-3435-496e-b9d6-7f8cad0c5609","ios":"levelo://app?vid=154fe73d-3435-496e-b9d6-7f8cad0c5609"},"vehicle_type_id":"4","last_reported":1749539458,"current_range_meters":14000,"station_id":"ce4bgr92rcd13ifvqc6g","pricing_plan_id":"cebpf4jnsgd1na2vs0mg"},{"bike_id":"27d2854a-d4a4-4260-816a-c770bec233ed","system_id":"levelo_inurba_marseille","lat":43.317471,"lon":5.390359,"is_reserved":false,"is_disabled":false,"rental_uris":{"android":"levelo://app?vid=27d2854a-d4a4-4260-816a-c770bec233ed","ios":"levelo://app?vid=27d2854a-d4a4-4260-816a-c770bec233ed"},"vehicle_type_id":"4","last_reported":1749539458,"current_range_meters":14400,"station_id":"ce4bhqp2rcd13ifvqhng","pricing_plan_id":"cebpf4jnsgd1na2vs0mg"},{"bike_id":"b2a55171-9e11-4eba-beeb-f2e7c5d27df2","system_id":"levelo_inurba_marseille","lat":43.21181,"lon":5.35087,"is_reserved":false,"is_disabled":false,"rental_uris":{"android":"levelo://app?vid=b2a55171-9e11-4eba-beeb-f2e7c5d27df2","ios":"levelo://app?vid=b2a55171-9e11-4eba-beeb-f2e7c5d27df2"},"vehicle_type_id":"4","last_reported":1749539458,"current_range_meters":14400,"station_id":"st_cvj6sg6p6f1abm77japg","pricing_plan_id":"cebpf4jnsgd1na2vs0mg"},{"bike_id":"e925ed2b-babc-4cf9-b75b-bac898fd5635","system_id":"levelo_inurba_marseille","lat":43.21186,"lon":5.35087,"is_reserved":false,"is_disabled":false,"rental_uris":{"android":"levelo://app?vid=e925ed2b-babc-4cf9-b75b-bac898fd5635","ios":"levelo://app?vid=e925ed2b-babc-4cf9-b75b-bac898fd5635"},"vehicle_type_id":"4","last_reported":1749539458,"current_range_meters":14400,"station_id":"st_cvj6sg6p6f1abm77japg","pricing_plan_id":"cebpf4jnsgd1na2vs0mg"},{"bike_id":"a06a5e76-7a40-4637-ae47-ceef6131d43b","system_id":"levelo_inurba_marseille","lat":43.30292,"lon":5.36982,"is_reserved":false,"is_disabled":false,"rental_uris":{"android":"levelo://app?vid=a06a5e76-7a40-4637-ae47-ceef6131d43b","ios":"levelo://app?vid=a06a5e76-7a40-4637-ae47-ceef6131d43b"},"vehicle_type_id":"4","last_reported":1749539458,"current_range_meters":14800,"station_id":"","pricing_plan_id":"cebpf4jnsgd1na2vs0mg"},{"bike_id":"bf33fda3-6885-4003-b51e-b96e59916347","system_id":"levelo_inurba_marseille","lat":43.243902,"lon":5.370943,"is_reserved":false,"is_disabled":false,"rental_uris":{"android":"levelo://app?vid=bf33fda3-6885-4003-b51e-b96e59916347","ios":"levelo://app?vid=bf33fda3-6885-4003-b51e-b96e59916347"},"vehicle_type_id":"4","last_reported":1749539458,"current_range_meters":14800,"station_id":"ce4bhhh2rcd13ifvqfk0","pricing_plan_id":"cebpf4jnsgd1na2vs0mg"},{"bike_id":"29a207e6-b15a-414d-8198-522627b7f792","system_id":"levelo_inurba_marseille","lat":43.3137,"lon":5.38509,"is_reserved":false,"is_disabled":false,"rental_uris":{"android":"levelo://app?vid=29a207e6-b15a-414d-8198-522627b7f792","ios":"levelo://app?vid=29a207e6-b15a-414d-8198-522627b7f792"},"vehicle_type_id":"4","last_reported":1749539458,"current_range_meters":14800,"station_id":"ce4bgt92rcd13ifvqcf0","pricing_plan_id":"cebpf4jnsgd1na2vs0mg"},{"bike_id":"c6830c0d-e468-46fa-b9c2-96c1aec56a2d","system_id":"levelo_inurba_marseille","lat":43.27284,"lon":5.43116,"is_reserved":false,"is_disabled":false,"rental_uris":{"android":"levelo://app?vid=c6830c0d-e468-46fa-b9c2-96c1aec56a2d","ios":"levelo://app?vid=c6830c0d-e468-46fa-b9c2-96c1aec56a2d"},"vehicle_type_id":"4","last_reported":1749539458,"current_range_meters":14800,"station_id":"","pricing_plan_id":"cebpf4jnsgd1na2vs0mg"},{"bike_id":"f71b771e-f6e0-4663-a989-109872f9949d","system_id":"levelo_inurba_marseille","lat":43.30534,"lon":5.36701,"is_reserved":false,"is_disabled":false,"rental_uris":{"android":"levelo://app?vid=f71b771e-f6e0-4663-a989-109872f9949d","ios":"levelo://app?vid=f71b771e-f6e0-4663-a989-109872f9949d"},"vehicle_type_id":"4","last_reported":1749539458,"current_range_meters":14800,"station_id":"ce4bgrp2rcd13ifvqc9g","pricing_plan_id":"cebpf4jnsgd1na2vs0mg"},{"bike_id":"bd2b5ad2-cb63-4ebf-a47c-94d133a5bb64","system_id":"levelo_inurba_marseille","lat":43.3095,"lon":5.39031,"is_reserved":false,"is_disabled":false,"rental_uris":{"android":"levelo://app?vid=bd2b5ad2-cb63-4ebf-a47c-94d133a5bb64","ios":"levelo://app?vid=bd2b5ad2-cb63-4ebf-a47c-94d133a5bb64"},"vehicle_type_id":"4","last_reported":1749539458,"current_range_meters":15200,"station_id":"ce4bgup2rcd13ifvqco0","pricing_plan_id":"cebpf4jnsgd1na2vs0mg"},{"bike_id":"f79292e4-f3c3-4e7a-bd5f-6ad7145387ef","system_id":"levelo_inurba_marseille","lat":43.27428,"lon":5.39405,"is_reserved":false,"is_disabled":true,"rental_uris":{"android":"levelo://app?vid=f79292e4-f3c3-4e7a-bd5f-6ad7145387ef","ios":"levelo://app?vid=f79292e4-f3c3-4e7a-bd5f-6ad7145387ef"},"vehicle_type_id":"4","last_reported":1749539458,"current_range_meters":15200,"station_id":"ce4bhdp2rcd13ifvqf20","pricing_plan_id":"cebpf4jnsgd1na2vs0mg"},{"bike_id":"28950090-bb48-4ee5-b2be-89836b17a854","system_id":"levelo_inurba_marseille","lat":43.25715,"lon":5.41114,"is_reserved":false,"is_disabled":false,"rental_uris":{"android":"levelo://app?vid=28950090-bb48-4ee5-b2be-89836b17a854","ios":"levelo://app?vid=28950090-bb48-4ee5-b2be-89836b17a854"},"vehicle_type_id":"4","last_reported":1749539458,"current_range_meters":15200,"station_id":"ce4bhkp2rcd13ifvqgd0","pricing_plan_id":"cebpf4jnsgd1na2vs0mg"},{"bike_id":"7fbb8cf5-f563-4c4a-90cf-1a5ac10b01c4","system_id":"levelo_inurba_marseille","lat":43.21215,"lon":5.35077,"is_reserved":false,"is_disabled":false,"rental_uris":{"android":"levelo://app?vid=7fbb8cf5-f563-4c4a-90cf-1a5ac10b01c4","ios":"levelo://app?vid=7fbb8cf5-f563-4c4a-90cf-1a5ac10b01c4"},"vehicle_type_id":"4","last_reported":1749539458,"current_range_meters":15200,"station_id":"st_cvj6sg6p6f1abm77japg","pricing_plan_id":"cebpf4jnsgd1na2vs0mg"},{"bike_id":"ec0ad91e-4eb6-466b-8e4b-380d5be20e64","system_id":"levelo_inurba_marseille","lat":43.25724,"lon":5.41083,"is_reserved":false,"is_disabled":false,"rental_uris":{"android":"levelo://app?vid=ec0ad91e-4eb6-466b-8e4b-380d5be20e64","ios":"levelo://app?vid=ec0ad91e-4eb6-466b-8e4b-380d5be20e64"},"vehicle_type_id":"4","last_reported":1749539458,"current_range_meters":15200,"station_id":"ce4bhkp2rcd13ifvqgd0","pricing_plan_id":"cebpf4jnsgd1na2vs0mg"},{"bike_id":"fc0685b8-fc6b-483e-b3c2-e1c5bc9ee111","system_id":"levelo_inurba_marseille","lat":43.26784,"lon":5.39412,"is_reserved":false,"is_disabled":false,"rental_uris":{"android":"levelo://app?vid=fc0685b8-fc6b-483e-b3c2-e1c5bc9ee111","ios":"levelo://app?vid=fc0685b8-fc6b-483e-b3c2-e1c5bc9ee111"},"vehicle_type_id":"4","last_reported":1749539458,"current_range_meters":15200,"station_id":"ce4bhh12rcd13ifvqfg0","pricing_plan_id":"cebpf4jnsgd1na2vs0mg"},{"bike_id":"407a03d3-9a1b-41f7-922a-36dbbbdf4c88","system_id":"levelo_inurba_marseille","lat":43.31997,"lon":5.38161,"is_reserved":false,"is_disabled":false,"rental_uris":{"android":"levelo://app?vid=407a03d3-9a1b-41f7-922a-36dbbbdf4c88","ios":"levelo://app?vid=407a03d3-9a1b-41f7-922a-36dbbbdf4c88"},"vehicle_type_id":"4","last_reported":1749539458,"current_range_meters":16000,"station_id":"ce4bhr12rcd13ifvqhpg","pricing_plan_id":"cebpf4jnsgd1na2vs0mg"},{"bike_id":"a7e979e5-7afa-4658-b3e7-2502946031d3","system_id":"levelo_inurba_marseille","lat":43.25516,"lon":5.42031,"is_reserved":false,"is_disabled":false,"rental_uris":{"android":"levelo://app?vid=a7e979e5-7afa-4658-b3e7-2502946031d3","ios":"levelo://app?vid=a7e979e5-7afa-4658-b3e7-2502946031d3"},"vehicle_type_id":"4","last_reported":1749539458,"current_range_meters":16000,"station_id":"","pricing_plan_id":"cebpf4jnsgd1na2vs0mg"},{"bike_id":"75732e00-b360-4046-be85-52c0df7b13a5","system_id":"levelo_inurba_marseille","lat":43.29048,"lon":5.39969,"is_reserved":false,"is_disabled":false,"rental_uris":{"android":"levelo://app?vid=75732e00-b360-4046-be85-52c0df7b13a5","ios":"levelo://app?vid=75732e00-b360-4046-be85-52c0df7b13a5"},"vehicle_type_id":"4","last_reported":1749539458,"current_range_meters":16000,"station_id":"ce4bh392rcd13ifvqdm0","pricing_plan_id":"cebpf4jnsgd1na2vs0mg"},{"bike_id":"187b0a7b-e256-4c19-9794-bb250a6c5653","system_id":"levelo_inurba_marseille","lat":43.31865,"lon":5.37946,"is_reserved":false,"is_disabled":false,"rental_uris":{"android":"levelo://app?vid=187b0a7b-e256-4c19-9794-bb250a6c5653","ios":"levelo://app?vid=187b0a7b-e256-4c19-9794-bb250a6c5653"},"vehicle_type_id":"4","last_reported":1749539458,"current_range_meters":16000,"station_id":"","pricing_plan_id":"cebpf4jnsgd1na2vs0mg"},{"bike_id":"8e02f9b8-48ec-478c-bd69-00c16273efc1","system_id":"levelo_inurba_marseille","lat":43.26678,"lon":5.38267,"is_reserved":false,"is_disabled":false,"rental_uris":{"android":"levelo://app?vid=8e02f9b8-48ec-478c-bd69-00c16273efc1","ios":"levelo://app?vid=8e02f9b8-48ec-478c-bd69-00c16273efc1"},"vehicle_type_id":"4","last_reported":1749539458,"current_range_meters":16400,"station_id":"ce4bhg92rcd13ifvqf90","pricing_plan_id":"cebpf4jnsgd1na2vs0mg"},{"bike_id":"262903a9-22b9-4b2d-96c2-2e5dbd155090","system_id":"levelo_inurba_marseille","lat":43.32483,"lon":5.36575,"is_reserved":false,"is_disabled":false,"rental_uris":{"android":"levelo://app?vid=262903a9-22b9-4b2d-96c2-2e5dbd155090","ios":"levelo://app?vid=262903a9-22b9-4b2d-96c2-2e5dbd155090"},"vehicle_type_id":"4","last_reported":1749539458,"current_range_meters":16400,"station_id":"ce4bhs12rcd13ifvqhvg","pricing_plan_id":"cebpf4jnsgd1na2vs0mg"},{"bike_id":"5478c1b4-4c7d-476f-b8e4-102490ff70cd","system_id":"levelo_inurba_marseille","lat":43.319182,"lon":5.373544,"is_reserved":false,"is_disabled":true,"rental_uris":{"android":"levelo://app?vid=5478c1b4-4c7d-476f-b8e4-102490ff70cd","ios":"levelo://app?vid=5478c1b4-4c7d-476f-b8e4-102490ff70cd"},"vehicle_type_id":"4","last_reported":1749539458,"current_range_meters":16400,"station_id":"","pricing_plan_id":"cebpf4jnsgd1na2vs0mg"},{"bike_id":"0197ce67-c2bc-4d03-bc9a-15f201693bd4","system_id":"levelo_inurba_marseille","lat":43.31751,"lon":5.39018,"is_reserved":false,"is_disabled":false,"rental_uris":{"android":"levelo://app?vid=0197ce67-c2bc-4d03-bc9a-15f201693bd4","ios":"levelo://app?vid=0197ce67-c2bc-4d03-bc9a-15f201693bd4"},"vehicle_type_id":"4","last_reported":1749539458,"current_range_meters":16400,"station_id":"ce4bhqp2rcd13ifvqhng","pricing_plan_id":"cebpf4jnsgd1na2vs0mg"},{"bike_id":"c30dbedc-c866-492b-a092-32c1ee0c1f22","system_id":"levelo_inurba_marseille","lat":43.29539,"lon":5.38557,"is_reserved":false,"is_disabled":true,"rental_uris":{"android":"levelo://app?vid=c30dbedc-c866-492b-a092-32c1ee0c1f22","ios":"levelo://app?vid=c30dbedc-c866-492b-a092-32c1ee0c1f22"},"vehicle_type_id":"4","last_reported":1749539458,"current_range_meters":16400,"station_id":"ce4bgih2rcd13ifvqba0","pricing_plan_id":"cebpf4jnsgd1na2vs0mg"},{"bike_id":"4f71eb19-4d43-4fb1-b3cd-7384c630b039","system_id":"levelo_inurba_marseille","lat":43.29286,"lon":5.37463,"is_reserved":false,"is_disabled":false,"rental_uris":{"android":"levelo://app?vid=4f71eb19-4d43-4fb1-b3cd-7384c630b039","ios":"levelo://app?vid=4f71eb19-4d43-4fb1-b3cd-7384c630b039"},"vehicle_type_id":"4","last_reported":1749539458,"current_range_meters":16400,"station_id":"ce4bgi12rcd13ifvqb70","pricing_plan_id":"cebpf4jnsgd1na2vs0mg"},{"bike_id":"1e20f032-0f6a-40b2-ad29-e4d2225496fa","system_id":"levelo_inurba_marseille","lat":43.30291,"lon":5.37061,"is_reserved":false,"is_disabled":false,"rental_uris":{"android":"levelo://app?vid=1e20f032-0f6a-40b2-ad29-e4d2225496fa","ios":"levelo://app?vid=1e20f032-0f6a-40b2-ad29-e4d2225496fa"},"vehicle_type_id":"4","last_reported":1749539458,"current_range_meters":16400,"station_id":"","pricing_plan_id":"cebpf4jnsgd1na2vs0mg"},{"bike_id":"f47be119-bfcb-4a6a-b442-d0ce0aaf9e3f","system_id":"levelo_inurba_marseille","lat":43.292541,"lon":5.409124,"is_reserved":false,"is_disabled":true,"rental_uris":{"android":"levelo://app?vid=f47be119-bfcb-4a6a-b442-d0ce0aaf9e3f","ios":"levelo://app?vid=f47be119-bfcb-4a6a-b442-d0ce0aaf9e3f"},"vehicle_type_id":"4","last_reported":1749539458,"current_range_meters":16400,"station_id":"ce4bh192rcd13ifvqdc0","pricing_plan_id":"cebpf4jnsgd1na2vs0mg"},{"bike_id":"24d99a20-1554-40cf-838b-26cbbd44a1fb","system_id":"levelo_inurba_marseille","lat":43.307885,"lon":5.381359,"is_reserved":false,"is_disabled":false,"rental_uris":{"android":"levelo://app?vid=24d99a20-1554-40cf-838b-26cbbd44a1fb","ios":"levelo://app?vid=24d99a20-1554-40cf-838b-26cbbd44a1fb"},"vehicle_type_id":"4","last_reported":1749539458,"current_range_meters":16400,"station_id":"ce4bgt12rcd13ifvqce0","pricing_plan_id":"cebpf4jnsgd1na2vs0mg"},{"bike_id":"370471c9-7bbf-4440-9450-01fa0a6bf389","system_id":"levelo_inurba_marseille","lat":43.337564,"lon":5.374531,"is_reserved":false,"is_disabled":true,"rental_uris":{"android":"levelo://app?vid=370471c9-7bbf-4440-9450-01fa0a6bf389","ios":"levelo://app?vid=370471c9-7bbf-4440-9450-01fa0a6bf389"},"vehicle_type_id":"4","last_reported":1749539458,"current_range_meters":16400,"station_id":"","pricing_plan_id":"cebpf4jnsgd1na2vs0mg"},{"bike_id":"8d40b566-02c8-4dfb-ae5f-53cce8dc604c","system_id":"levelo_inurba_marseille","lat":43.28152,"lon":5.4264,"is_reserved":false,"is_disabled":false,"rental_uris":{"android":"levelo://app?vid=8d40b566-02c8-4dfb-ae5f-53cce8dc604c","ios":"levelo://app?vid=8d40b566-02c8-4dfb-ae5f-53cce8dc604c"},"vehicle_type_id":"4","last_reported":1749539458,"current_range_meters":16400,"station_id":"ce4bhnh2rcd13ifvqgug","pricing_plan_id":"cebpf4jnsgd1na2vs0mg"},{"bike_id":"fad9b98f-1bfd-41b0-be76-c725e485d072","system_id":"levelo_inurba_marseille","lat":43.211896,"lon":5.3507,"is_reserved":false,"is_disabled":false,"rental_uris":{"android":"levelo://app?vid=fad9b98f-1bfd-41b0-be76-c725e485d072","ios":"levelo://app?vid=fad9b98f-1bfd-41b0-be76-c725e485d072"},"vehicle_type_id":"4","last_reported":1749539458,"current_range_meters":16800,"station_id":"st_cvj6sg6p6f1abm77japg","pricing_plan_id":"cebpf4jnsgd1na2vs0mg"},{"bike_id":"7c6010ad-ae88-44e4-b24b-6d8f329542f6","system_id":"levelo_inurba_marseille","lat":43.29266,"lon":5.37633,"is_reserved":false,"is_disabled":false,"rental_uris":{"android":"levelo://app?vid=7c6010ad-ae88-44e4-b24b-6d8f329542f6","ios":"levelo://app?vid=7c6010ad-ae88-44e4-b24b-6d8f329542f6"},"vehicle_type_id":"4","last_reported":1749539458,"current_range_meters":16800,"station_id":"ce4bgi12rcd13ifvqb80","pricing_plan_id":"cebpf4jnsgd1na2vs0mg"},{"bike_id":"84f5a926-1dd6-4535-b647-2764ce0ca103","system_id":"levelo_inurba_marseille","lat":43.321,"lon":5.3678,"is_reserved":false,"is_disabled":false,"rental_uris":{"android":"levelo://app?vid=84f5a926-1dd6-4535-b647-2764ce0ca103","ios":"levelo://app?vid=84f5a926-1dd6-4535-b647-2764ce0ca103"},"vehicle_type_id":"4","last_reported":1749539458,"current_range_meters":16800,"station_id":"ce4bhrh2rcd13ifvqhug","pricing_plan_id":"cebpf4jnsgd1na2vs0mg"},{"bike_id":"38f3574c-6050-4f7b-b824-25609fb7b634","system_id":"levelo_inurba_marseille","lat":43.29973,"lon":5.38505,"is_reserved":false,"is_disabled":true,"rental_uris":{"android":"levelo://app?vid=38f3574c-6050-4f7b-b824-25609fb7b634","ios":"levelo://app?vid=38f3574c-6050-4f7b-b824-25609fb7b634"},"vehicle_type_id":"4","last_reported":1749539458,"current_range_meters":16800,"station_id":"ce4bgj92rcd13ifvqbd0","pricing_plan_id":"cebpf4jnsgd1na2vs0mg"},{"bike_id":"565e4a53-66a3-4b8e-bdc8-c7829c22c38c","system_id":"levelo_inurba_marseille","lat":43.30301,"lon":5.39214,"is_reserved":false,"is_disabled":false,"rental_uris":{"android":"levelo://app?vid=565e4a53-66a3-4b8e-bdc8-c7829c22c38c","ios":"levelo://app?vid=565e4a53-66a3-4b8e-bdc8-c7829c22c38c"},"vehicle_type_id":"4","last_reported":1749539458,"current_range_meters":17600,"station_id":"ce4bgkh2rcd13ifvqbk0","pricing_plan_id":"cebpf4jnsgd1na2vs0mg"},{"bike_id":"b0f39c6b-d7da-4e83-881b-6c0b5f546bf0","system_id":"levelo_inurba_marseille","lat":43.31674,"lon":5.4049,"is_reserved":false,"is_disabled":false,"rental_uris":{"android":"levelo://app?vid=b0f39c6b-d7da-4e83-881b-6c0b5f546bf0","ios":"levelo://app?vid=b0f39c6b-d7da-4e83-881b-6c0b5f546bf0"},"vehicle_type_id":"4","last_reported":1749539458,"current_range_meters":17200,"station_id":"ce4bh012rcd13ifvqd00","pricing_plan_id":"cebpf4jnsgd1na2vs0mg"},{"bike_id":"002ad4e8-6140-4bdd-b14b-f38ee707447e","system_id":"levelo_inurba_marseille","lat":43.30987,"lon":5.38578,"is_reserved":false,"is_disabled":false,"rental_uris":{"android":"levelo://app?vid=002ad4e8-6140-4bdd-b14b-f38ee707447e","ios":"levelo://app?vid=002ad4e8-6140-4bdd-b14b-f38ee707447e"},"vehicle_type_id":"4","last_reported":1749539458,"current_range_meters":17200,"station_id":"","pricing_plan_id":"cebpf4jnsgd1na2vs0mg"},{"bike_id":"371c4004-1947-4f49-8440-b49f77b56132","system_id":"levelo_inurba_marseille","lat":43.31994,"lon":5.3815,"is_reserved":false,"is_disabled":false,"rental_uris":{"android":"levelo://app?vid=371c4004-1947-4f49-8440-b49f77b56132","ios":"levelo://app?vid=371c4004-1947-4f49-8440-b49f77b56132"},"vehicle_type_id":"4","last_reported":1749539458,"current_range_meters":17200,"station_id":"ce4bhr12rcd13ifvqhpg","pricing_plan_id":"cebpf4jnsgd1na2vs0mg"},{"bike_id":"dd0a271f-262d-4dbc-a63f-00a0de1bae4c","system_id":"levelo_inurba_marseille","lat":43.30937,"lon":5.39055,"is_reserved":false,"is_disabled":false,"rental_uris":{"android":"levelo://app?vid=dd0a271f-262d-4dbc-a63f-00a0de1bae4c","ios":"levelo://app?vid=dd0a271f-262d-4dbc-a63f-00a0de1bae4c"},"vehicle_type_id":"4","last_reported":1749539458,"current_range_meters":14000,"station_id":"ce4bgup2rcd13ifvqco0","pricing_plan_id":"cebpf4jnsgd1na2vs0mg"},{"bike_id":"c8910ef0-9b89-41f9-9493-58e182dc74d6","system_id":"levelo_inurba_marseille","lat":43.28474,"lon":5.38418,"is_reserved":false,"is_disabled":false,"rental_uris":{"android":"levelo://app?vid=c8910ef0-9b89-41f9-9493-58e182dc74d6","ios":"levelo://app?vid=c8910ef0-9b89-41f9-9493-58e182dc74d6"},"vehicle_type_id":"4","last_reported":1749539458,"current_range_meters":17200,"station_id":"ce4bh512rcd13ifvqe3g","pricing_plan_id":"cebpf4jnsgd1na2vs0mg"},{"bike_id":"821b9850-5239-4189-a2b1-e5322e55f75e","system_id":"levelo_inurba_marseille","lat":43.31347,"lon":5.36728,"is_reserved":false,"is_disabled":false,"rental_uris":{"android":"levelo://app?vid=821b9850-5239-4189-a2b1-e5322e55f75e","ios":"levelo://app?vid=821b9850-5239-4189-a2b1-e5322e55f75e"},"vehicle_type_id":"4","last_reported":1749539458,"current_range_meters":17200,"station_id":"ce4bgr92rcd13ifvqc6g","pricing_plan_id":"cebpf4jnsgd1na2vs0mg"},{"bike_id":"0d4074b4-67cb-44c1-b0f9-275fe53c1766","system_id":"levelo_inurba_marseille","lat":43.267149,"lon":5.402419,"is_reserved":false,"is_disabled":false,"rental_uris":{"android":"levelo://app?vid=0d4074b4-67cb-44c1-b0f9-275fe53c1766","ios":"levelo://app?vid=0d4074b4-67cb-44c1-b0f9-275fe53c1766"},"vehicle_type_id":"4","last_reported":1749539458,"current_range_meters":17600,"station_id":"ce4bhm92rcd13ifvqglg","pricing_plan_id":"cebpf4jnsgd1na2vs0mg"},{"bike_id":"dd811bf3-0181-407a-8576-29b1b5c691ec","system_id":"levelo_inurba_marseille","lat":43.29606,"lon":5.42719,"is_reserved":false,"is_disabled":false,"rental_uris":{"android":"levelo://app?vid=dd811bf3-0181-407a-8576-29b1b5c691ec","ios":"levelo://app?vid=dd811bf3-0181-407a-8576-29b1b5c691ec"},"vehicle_type_id":"4","last_reported":1749539458,"current_range_meters":17600,"station_id":"","pricing_plan_id":"cebpf4jnsgd1na2vs0mg"},{"bike_id":"a5b3008d-4885-415a-b7a5-954036b89bda","system_id":"levelo_inurba_marseille","lat":43.278125,"lon":5.407092,"is_reserved":false,"is_disabled":false,"rental_uris":{"android":"levelo://app?vid=a5b3008d-4885-415a-b7a5-954036b89bda","ios":"levelo://app?vid=a5b3008d-4885-415a-b7a5-954036b89bda"},"vehicle_type_id":"4","last_reported":1749539458,"current_range_meters":17600,"station_id":"ce4bhnh2rcd13ifvqgtg","pricing_plan_id":"cebpf4jnsgd1na2vs0mg"},{"bike_id":"fa185753-3794-480a-a16f-f1cd2396c7b0","system_id":"levelo_inurba_marseille","lat":43.31348,"lon":5.36724,"is_reserved":false,"is_disabled":false,"rental_uris":{"android":"levelo://app?vid=fa185753-3794-480a-a16f-f1cd2396c7b0","ios":"levelo://app?vid=fa185753-3794-480a-a16f-f1cd2396c7b0"},"vehicle_type_id":"4","last_reported":1749539458,"current_range_meters":17600,"station_id":"ce4bgr92rcd13ifvqc6g","pricing_plan_id":"cebpf4jnsgd1na2vs0mg"},{"bike_id":"6e5fbc37-0895-46dd-ba78-f3b55603fd08","system_id":"levelo_inurba_marseille","lat":43.23198,"lon":5.35543,"is_reserved":false,"is_disabled":true,"rental_uris":{"android":"levelo://app?vid=6e5fbc37-0895-46dd-ba78-f3b55603fd08","ios":"levelo://app?vid=6e5fbc37-0895-46dd-ba78-f3b55603fd08"},"vehicle_type_id":"4","last_reported":1749539458,"current_range_meters":17600,"station_id":"","pricing_plan_id":"cebpf4jnsgd1na2vs0mg"},{"bike_id":"9f2c1269-6ac5-4380-8150-829d18e0f815","system_id":"levelo_inurba_marseille","lat":43.25718,"lon":5.41114,"is_reserved":false,"is_disabled":false,"rental_uris":{"android":"levelo://app?vid=9f2c1269-6ac5-4380-8150-829d18e0f815","ios":"levelo://app?vid=9f2c1269-6ac5-4380-8150-829d18e0f815"},"vehicle_type_id":"4","last_reported":1749539458,"current_range_meters":18000,"station_id":"ce4bhkp2rcd13ifvqgd0","pricing_plan_id":"cebpf4jnsgd1na2vs0mg"},{"bike_id":"5d3016e0-312c-4b72-8484-4c5d7ec442ef","system_id":"levelo_inurba_marseille","lat":43.36833,"lon":5.34314,"is_reserved":false,"is_disabled":false,"rental_uris":{"android":"levelo://app?vid=5d3016e0-312c-4b72-8484-4c5d7ec442ef","ios":"levelo://app?vid=5d3016e0-312c-4b72-8484-4c5d7ec442ef"},"vehicle_type_id":"4","last_reported":1749539458,"current_range_meters":18000,"station_id":"","pricing_plan_id":"cebpf4jnsgd1na2vs0mg"},{"bike_id":"75cbe3d8-190d-48bb-81c3-ccfa4134cfbd","system_id":"levelo_inurba_marseille","lat":43.29038,"lon":5.37569,"is_reserved":false,"is_disabled":false,"rental_uris":{"android":"levelo://app?vid=75cbe3d8-190d-48bb-81c3-ccfa4134cfbd","ios":"levelo://app?vid=75cbe3d8-190d-48bb-81c3-ccfa4134cfbd"},"vehicle_type_id":"4","last_reported":1749539458,"current_range_meters":18000,"station_id":"ce4bh692rcd13ifvqe90","pricing_plan_id":"cebpf4jnsgd1na2vs0mg"},{"bike_id":"3d204527-9a11-4d06-9186-965ecf19d0c0","system_id":"levelo_inurba_marseille","lat":43.24171,"lon":5.39719,"is_reserved":false,"is_disabled":false,"rental_uris":{"android":"levelo://app?vid=3d204527-9a11-4d06-9186-965ecf19d0c0","ios":"levelo://app?vid=3d204527-9a11-4d06-9186-965ecf19d0c0"},"vehicle_type_id":"4","last_reported":1749539458,"current_range_meters":18000,"station_id":"ce4bhn12rcd13ifvqgpg","pricing_plan_id":"cebpf4jnsgd1na2vs0mg"},{"bike_id":"74270b3d-89a4-4e3c-976c-62373a4ee1b7","system_id":"levelo_inurba_marseille","lat":43.30548,"lon":5.36537,"is_reserved":false,"is_disabled":true,"rental_uris":{"android":"levelo://app?vid=74270b3d-89a4-4e3c-976c-62373a4ee1b7","ios":"levelo://app?vid=74270b3d-89a4-4e3c-976c-62373a4ee1b7"},"vehicle_type_id":"4","last_reported":1749539458,"current_range_meters":18800,"station_id":"","pricing_plan_id":"cebpf4jnsgd1na2vs0mg"},{"bike_id":"14c25466-563b-4fc3-b586-474a3db9c1ee","system_id":"levelo_inurba_marseille","lat":43.305302,"lon":5.367046,"is_reserved":false,"is_disabled":false,"rental_uris":{"android":"levelo://app?vid=14c25466-563b-4fc3-b586-474a3db9c1ee","ios":"levelo://app?vid=14c25466-563b-4fc3-b586-474a3db9c1ee"},"vehicle_type_id":"4","last_reported":1749539458,"current_range_meters":18800,"station_id":"ce4bgrp2rcd13ifvqc9g","pricing_plan_id":"cebpf4jnsgd1na2vs0mg"},{"bike_id":"9e375d07-8100-47a6-9701-00f510cde1eb","system_id":"levelo_inurba_marseille","lat":43.31109,"lon":5.37769,"is_reserved":false,"is_disabled":false,"rental_uris":{"android":"levelo://app?vid=9e375d07-8100-47a6-9701-00f510cde1eb","ios":"levelo://app?vid=9e375d07-8100-47a6-9701-00f510cde1eb"},"vehicle_type_id":"4","last_reported":1749539458,"current_range_meters":18800,"station_id":"ce4bgt92rcd13ifvqcg0","pricing_plan_id":"cebpf4jnsgd1na2vs0mg"},{"bike_id":"c47083a6-dba3-4535-abd2-e41382cdea23","system_id":"levelo_inurba_marseille","lat":43.25502,"lon":5.37648,"is_reserved":false,"is_disabled":false,"rental_uris":{"android":"levelo://app?vid=c47083a6-dba3-4535-abd2-e41382cdea23","ios":"levelo://app?vid=c47083a6-dba3-4535-abd2-e41382cdea23"},"vehicle_type_id":"4","last_reported":1749539458,"current_range_meters":18800,"station_id":"ce4bhh12rcd13ifvqff0","pricing_plan_id":"cebpf4jnsgd1na2vs0mg"},{"bike_id":"f6a61804-330d-4f30-8fcc-2bb88b5a7142","system_id":"levelo_inurba_marseille","lat":43.25732,"lon":5.41099,"is_reserved":false,"is_disabled":false,"rental_uris":{"android":"levelo://app?vid=f6a61804-330d-4f30-8fcc-2bb88b5a7142","ios":"levelo://app?vid=f6a61804-330d-4f30-8fcc-2bb88b5a7142"},"vehicle_type_id":"4","last_reported":1749539458,"current_range_meters":18800,"station_id":"ce4bhkp2rcd13ifvqgd0","pricing_plan_id":"cebpf4jnsgd1na2vs0mg"},{"bike_id":"ab60ef96-6af1-4dd7-a12f-40a827bbcb0e","system_id":"levelo_inurba_marseille","lat":43.27425,"lon":5.39413,"is_reserved":false,"is_disabled":false,"rental_uris":{"android":"levelo://app?vid=ab60ef96-6af1-4dd7-a12f-40a827bbcb0e","ios":"levelo://app?vid=ab60ef96-6af1-4dd7-a12f-40a827bbcb0e"},"vehicle_type_id":"4","last_reported":1749539458,"current_range_meters":18800,"station_id":"ce4bhdp2rcd13ifvqf20","pricing_plan_id":"cebpf4jnsgd1na2vs0mg"},{"bike_id":"9150832f-1128-4a1f-a7e1-4b6758f62dab","system_id":"levelo_inurba_marseille","lat":43.309245,"lon":5.40148,"is_reserved":false,"is_disabled":false,"rental_uris":{"android":"levelo://app?vid=9150832f-1128-4a1f-a7e1-4b6758f62dab","ios":"levelo://app?vid=9150832f-1128-4a1f-a7e1-4b6758f62dab"},"vehicle_type_id":"4","last_reported":1749539458,"current_range_meters":18800,"station_id":"ce4bgvp2rcd13ifvqct0","pricing_plan_id":"cebpf4jnsgd1na2vs0mg"},{"bike_id":"1acfb620-cad7-48c0-8901-d7a5b74a5b65","system_id":"levelo_inurba_marseille","lat":43.33751,"lon":5.37456,"is_reserved":false,"is_disabled":false,"rental_uris":{"android":"levelo://app?vid=1acfb620-cad7-48c0-8901-d7a5b74a5b65","ios":"levelo://app?vid=1acfb620-cad7-48c0-8901-d7a5b74a5b65"},"vehicle_type_id":"4","last_reported":1749539458,"current_range_meters":18800,"station_id":"","pricing_plan_id":"cebpf4jnsgd1na2vs0mg"},{"bike_id":"b81df567-a75a-494b-8b6c-d927dabe489c","system_id":"levelo_inurba_marseille","lat":43.290325,"lon":5.375706,"is_reserved":false,"is_disabled":false,"rental_uris":{"android":"levelo://app?vid=b81df567-a75a-494b-8b6c-d927dabe489c","ios":"levelo://app?vid=b81df567-a75a-494b-8b6c-d927dabe489c"},"vehicle_type_id":"4","last_reported":1749539458,"current_range_meters":19200,"station_id":"ce4bh692rcd13ifvqe90","pricing_plan_id":"cebpf4jnsgd1na2vs0mg"},{"bike_id":"45b83338-f318-4c80-859f-d1eebbf1569b","system_id":"levelo_inurba_marseille","lat":43.29059,"lon":5.37152,"is_reserved":false,"is_disabled":false,"rental_uris":{"android":"levelo://app?vid=45b83338-f318-4c80-859f-d1eebbf1569b","ios":"levelo://app?vid=45b83338-f318-4c80-859f-d1eebbf1569b"},"vehicle_type_id":"4","last_reported":1749539458,"current_range_meters":19200,"station_id":"ce4bh5p2rcd13ifvqe4g","pricing_plan_id":"cebpf4jnsgd1na2vs0mg"},{"bike_id":"0f600953-63f3-4d8c-bcbc-2e11c99e276d","system_id":"levelo_inurba_marseille","lat":43.25936,"lon":5.40905,"is_reserved":false,"is_disabled":false,"rental_uris":{"android":"levelo://app?vid=0f600953-63f3-4d8c-bcbc-2e11c99e276d","ios":"levelo://app?vid=0f600953-63f3-4d8c-bcbc-2e11c99e276d"},"vehicle_type_id":"4","last_reported":1749539458,"current_range_meters":19200,"station_id":"ce4bhm92rcd13ifvqglg","pricing_plan_id":"cebpf4jnsgd1na2vs0mg"},{"bike_id":"b61f65ab-7e73-4706-bd15-5bdbfb7cbb14","system_id":"levelo_inurba_marseille","lat":43.25612,"lon":5.41206,"is_reserved":false,"is_disabled":true,"rental_uris":{"android":"levelo://app?vid=b61f65ab-7e73-4706-bd15-5bdbfb7cbb14","ios":"levelo://app?vid=b61f65ab-7e73-4706-bd15-5bdbfb7cbb14"},"vehicle_type_id":"4","last_reported":1749539458,"current_range_meters":19200,"station_id":"","pricing_plan_id":"cebpf4jnsgd1na2vs0mg"},{"bike_id":"4895aea3-cb8f-40a0-979c-448b996f13e5","system_id":"levelo_inurba_marseille","lat":43.29004,"lon":5.37613,"is_reserved":false,"is_disabled":false,"rental_uris":{"android":"levelo://app?vid=4895aea3-cb8f-40a0-979c-448b996f13e5","ios":"levelo://app?vid=4895aea3-cb8f-40a0-979c-448b996f13e5"},"vehicle_type_id":"4","last_reported":1749539458,"current_range_meters":19200,"station_id":"ce4bh692rcd13ifvqe90","pricing_plan_id":"cebpf4jnsgd1na2vs0mg"},{"bike_id":"72c1ffbe-b6ca-406d-960d-a9616882f308","system_id":"levelo_inurba_marseille","lat":43.241453,"lon":5.397598,"is_reserved":false,"is_disabled":true,"rental_uris":{"android":"levelo://app?vid=72c1ffbe-b6ca-406d-960d-a9616882f308","ios":"levelo://app?vid=72c1ffbe-b6ca-406d-960d-a9616882f308"},"vehicle_type_id":"4","last_reported":1749539458,"current_range_meters":19200,"station_id":"ce4bhn12rcd13ifvqgpg","pricing_plan_id":"cebpf4jnsgd1na2vs0mg"},{"bike_id":"cff174c6-6ba3-44b0-a9d2-aee572f9c64a","system_id":"levelo_inurba_marseille","lat":43.29719,"lon":5.3612,"is_reserved":false,"is_disabled":true,"rental_uris":{"android":"levelo://app?vid=cff174c6-6ba3-44b0-a9d2-aee572f9c64a","ios":"levelo://app?vid=cff174c6-6ba3-44b0-a9d2-aee572f9c64a"},"vehicle_type_id":"4","last_reported":1749539458,"current_range_meters":19200,"station_id":"","pricing_plan_id":"cebpf4jnsgd1na2vs0mg"},{"bike_id":"1e0ef126-c61a-4ae4-a063-2efd386fd3a9","system_id":"levelo_inurba_marseille","lat":43.25584,"lon":5.3823,"is_reserved":false,"is_disabled":false,"rental_uris":{"android":"levelo://app?vid=1e0ef126-c61a-4ae4-a063-2efd386fd3a9","ios":"levelo://app?vid=1e0ef126-c61a-4ae4-a063-2efd386fd3a9"},"vehicle_type_id":"4","last_reported":1749539458,"current_range_meters":18800,"station_id":"ce4bhih2rcd13ifvqfs0","pricing_plan_id":"cebpf4jnsgd1na2vs0mg"},{"bike_id":"0a61a83d-30f6-461d-afb3-c145799620b8","system_id":"levelo_inurba_marseille","lat":43.32486,"lon":5.36586,"is_reserved":false,"is_disabled":false,"rental_uris":{"android":"levelo://app?vid=0a61a83d-30f6-461d-afb3-c145799620b8","ios":"levelo://app?vid=0a61a83d-30f6-461d-afb3-c145799620b8"},"vehicle_type_id":"4","last_reported":1749539458,"current_range_meters":19600,"station_id":"ce4bhs12rcd13ifvqhvg","pricing_plan_id":"cebpf4jnsgd1na2vs0mg"},{"bike_id":"58ec3aed-ce4e-407e-9f67-a8ebcf03f8a9","system_id":"levelo_inurba_marseille","lat":43.24167,"lon":5.39722,"is_reserved":false,"is_disabled":false,"rental_uris":{"android":"levelo://app?vid=58ec3aed-ce4e-407e-9f67-a8ebcf03f8a9","ios":"levelo://app?vid=58ec3aed-ce4e-407e-9f67-a8ebcf03f8a9"},"vehicle_type_id":"4","last_reported":1749539458,"current_range_meters":19600,"station_id":"ce4bhn12rcd13ifvqgpg","pricing_plan_id":"cebpf4jnsgd1na2vs0mg"},{"bike_id":"bf3ed09c-3d18-4219-aedb-63b181187158","system_id":"levelo_inurba_marseille","lat":43.30796,"lon":5.38162,"is_reserved":false,"is_disabled":false,"rental_uris":{"android":"levelo://app?vid=bf3ed09c-3d18-4219-aedb-63b181187158","ios":"levelo://app?vid=bf3ed09c-3d18-4219-aedb-63b181187158"},"vehicle_type_id":"4","last_reported":1749539458,"current_range_meters":19600,"station_id":"ce4bgt12rcd13ifvqce0","pricing_plan_id":"cebpf4jnsgd1na2vs0mg"},{"bike_id":"892059bb-a948-49d5-89ab-dc78266662ef","system_id":"levelo_inurba_marseille","lat":43.23157,"lon":5.43719,"is_reserved":false,"is_disabled":false,"rental_uris":{"android":"levelo://app?vid=892059bb-a948-49d5-89ab-dc78266662ef","ios":"levelo://app?vid=892059bb-a948-49d5-89ab-dc78266662ef"},"vehicle_type_id":"4","last_reported":1749539458,"current_range_meters":19600,"station_id":"ce4bhmp2rcd13ifvqgog","pricing_plan_id":"cebpf4jnsgd1na2vs0mg"},{"bike_id":"4cb78e2c-8e63-4812-81ef-1980f9de8b37","system_id":"levelo_inurba_marseille","lat":43.3239,"lon":5.38943,"is_reserved":false,"is_disabled":false,"rental_uris":{"android":"levelo://app?vid=4cb78e2c-8e63-4812-81ef-1980f9de8b37","ios":"levelo://app?vid=4cb78e2c-8e63-4812-81ef-1980f9de8b37"},"vehicle_type_id":"4","last_reported":1749539458,"current_range_meters":19600,"station_id":"","pricing_plan_id":"cebpf4jnsgd1na2vs0mg"},{"bike_id":"c24128ee-cd14-41fb-849a-bbed2f9cd4b1","system_id":"levelo_inurba_marseille","lat":43.31495,"lon":5.37302,"is_reserved":false,"is_disabled":false,"rental_uris":{"android":"levelo://app?vid=c24128ee-cd14-41fb-849a-bbed2f9cd4b1","ios":"levelo://app?vid=c24128ee-cd14-41fb-849a-bbed2f9cd4b1"},"vehicle_type_id":"4","last_reported":1749539458,"current_range_meters":19600,"station_id":"ce4bgt12rcd13ifvqcd0","pricing_plan_id":"cebpf4jnsgd1na2vs0mg"},{"bike_id":"120a4d32-9e79-46f5-b3f6-6fee08dde3da","system_id":"levelo_inurba_marseille","lat":43.23963,"lon":5.36633,"is_reserved":false,"is_disabled":false,"rental_uris":{"android":"levelo://app?vid=120a4d32-9e79-46f5-b3f6-6fee08dde3da","ios":"levelo://app?vid=120a4d32-9e79-46f5-b3f6-6fee08dde3da"},"vehicle_type_id":"4","last_reported":1749539458,"current_range_meters":19600,"station_id":"ce4bhi12rcd13ifvqfp0","pricing_plan_id":"cebpf4jnsgd1na2vs0mg"},{"bike_id":"035e1f3a-d3d4-4c3f-ba01-23ba92700bc3","system_id":"levelo_inurba_marseille","lat":43.30949,"lon":5.39065,"is_reserved":false,"is_disabled":false,"rental_uris":{"android":"levelo://app?vid=035e1f3a-d3d4-4c3f-ba01-23ba92700bc3","ios":"levelo://app?vid=035e1f3a-d3d4-4c3f-ba01-23ba92700bc3"},"vehicle_type_id":"4","last_reported":1749539458,"current_range_meters":19600,"station_id":"ce4bgup2rcd13ifvqco0","pricing_plan_id":"cebpf4jnsgd1na2vs0mg"},{"bike_id":"61c3047c-933c-413d-91fb-0a1b2df9ed6e","system_id":"levelo_inurba_marseille","lat":43.2995,"lon":5.36453,"is_reserved":false,"is_disabled":true,"rental_uris":{"android":"levelo://app?vid=61c3047c-933c-413d-91fb-0a1b2df9ed6e","ios":"levelo://app?vid=61c3047c-933c-413d-91fb-0a1b2df9ed6e"},"vehicle_type_id":"4","last_reported":1749539458,"current_range_meters":19600,"station_id":"ce4bgm92rcd13ifvqbr0","pricing_plan_id":"cebpf4jnsgd1na2vs0mg"},{"bike_id":"314bac2c-e47f-46cd-afcd-53cd84a7d142","system_id":"levelo_inurba_marseille","lat":43.27613,"lon":5.36119,"is_reserved":false,"is_disabled":true,"rental_uris":{"android":"levelo://app?vid=314bac2c-e47f-46cd-afcd-53cd84a7d142","ios":"levelo://app?vid=314bac2c-e47f-46cd-afcd-53cd84a7d142"},"vehicle_type_id":"4","last_reported":1749539458,"current_range_meters":19600,"station_id":"ce4bgj92rcd13ifvqbe0","pricing_plan_id":"cebpf4jnsgd1na2vs0mg"},{"bike_id":"e93073ab-c17c-467a-b540-f93334fc1a8a","system_id":"levelo_inurba_marseille","lat":43.21177,"lon":5.3509,"is_reserved":false,"is_disabled":true,"rental_uris":{"android":"levelo://app?vid=e93073ab-c17c-467a-b540-f93334fc1a8a","ios":"levelo://app?vid=e93073ab-c17c-467a-b540-f93334fc1a8a"},"vehicle_type_id":"4","last_reported":1749539458,"current_range_meters":19600,"station_id":"st_cvj6sg6p6f1abm77japg","pricing_plan_id":"cebpf4jnsgd1na2vs0mg"},{"bike_id":"9fed7935-0e05-4611-8412-b176c6a74123","system_id":"levelo_inurba_marseille","lat":43.31695,"lon":5.4046,"is_reserved":false,"is_disabled":false,"rental_uris":{"android":"levelo://app?vid=9fed7935-0e05-4611-8412-b176c6a74123","ios":"levelo://app?vid=9fed7935-0e05-4611-8412-b176c6a74123"},"vehicle_type_id":"4","last_reported":1749539458,"current_range_meters":20000,"station_id":"ce4bh012rcd13ifvqd00","pricing_plan_id":"cebpf4jnsgd1na2vs0mg"},{"bike_id":"79c70cb0-0106-48e9-9d56-3e4c0b1b9344","system_id":"levelo_inurba_marseille","lat":43.30921,"lon":5.40191,"is_reserved":false,"is_disabled":false,"rental_uris":{"android":"levelo://app?vid=79c70cb0-0106-48e9-9d56-3e4c0b1b9344","ios":"levelo://app?vid=79c70cb0-0106-48e9-9d56-3e4c0b1b9344"},