{"last_updated":1744405720,"ttl":60,"version":"2.2","data":{"bikes":[{"bike_id":"2e8ae877-413c-4899-8f03-94d65a22060f","system_id":"levelo_inurba_marseille","lat":43.30959,"lon":5.40126,"is_reserved":false,"is_disabled":false,"rental_uris":{"android":"levelo://app?vid=2e8ae877-413c-4899-8f03-94d65a22060f","ios":"levelo://app?vid=2e8ae877-413c-4899-8f03-94d65a22060f"},"vehicle_type_id":"4","last_reported":1744405720,"current_range_meters":2800,"station_id":"ce4bgvp2rcd13ifvqct0","pricing_plan_id":"cebpf4jnsgd1na2vs0mg"},{"bike_id":"205645ce-3c52-4613-a1f0-07d5b8b338d2","system_id":"levelo_inurba_marseille","lat":43.2857,"lon":5.39502,"is_reserved":false,"is_disabled":false,"rental_uris":{"android":"levelo://app?vid=205645ce-3c52-4613-a1f0-07d5b8b338d2","ios":"levelo://app?vid=205645ce-3c52-4613-a1f0-07d5b8b338d2"},"vehicle_type_id":"4","last_reported":1744405720,"current_range_meters":2800,"station_id":"ce4bh292rcd13ifvqdg0","pricing_plan_id":"cebpf4jnsgd1na2vs0mg"},{"bike_id":"7d287f50-257d-4a33-be28-a1e483b67174","system_id":"levelo_inurba_marseille","lat":43.31291,"lon":5.37972,"is_reserved":false,"is_disabled":false,"rental_uris":{"android":"levelo://app?vid=7d287f50-257d-4a33-be28-a1e483b67174","ios":"levelo://app?vid=7d287f50-257d-4a33-be28-a1e483b67174"},"vehicle_type_id":"4","last_reported":1744405720,"current_range_meters":2800,"station_id":"","pricing_plan_id":"cebpf4jnsgd1na2vs0mg"},{"bike_id":"a2f108d1-17f4-403a-9df9-f2d925ed8bc6","system_id":"levelo_inurba_marseille","lat":43.27829,"lon":5.39208,"is_reserved":false,"is_disabled":true,"rental_uris":{"android":"levelo://app?vid=a2f108d1-17f4-403a-9df9-f2d925ed8bc6","ios":"levelo://app?vid=a2f108d1-17f4-403a-9df9-f2d925ed8bc6"},"vehicle_type_id":"4","last_reported":1744405720,"current_range_meters":2800,"station_id":"ce4bhjp2rcd13ifvqga0","pricing_plan_id":"cebpf4jnsgd1na2vs0mg"},{"bike_id":"b3d0094b-b0ec-4270-90ed-56652ba3feed","system_id":"levelo_inurba_marseille","lat":43.23316,"lon":5.36167,"is_reserved":false,"is_disabled":false,"rental_uris":{"android":"levelo://app?vid=b3d0094b-b0ec-4270-90ed-56652ba3feed","ios":"levelo://app?vid=b3d0094b-b0ec-4270-90ed-56652ba3feed"},"vehicle_type_id":"4","last_reported":1744405720,"current_range_meters":2800,"station_id":"","pricing_plan_id":"cebpf4jnsgd1na2vs0mg"},{"bike_id":"cf5b9f69-f62c-469a-9c4b-befe7ca438c6","system_id":"levelo_inurba_marseille","lat":43.27967,"lon":5.41688,"is_reserved":false,"is_disabled":true,"rental_uris":{"android":"levelo://app?vid=cf5b9f69-f62c-469a-9c4b-befe7ca438c6","ios":"levelo://app?vid=cf5b9f69-f62c-469a-9c4b-befe7ca438c6"},"vehicle_type_id":"4","last_reported":1744405720,"current_range_meters":3200,"station_id":"ce4bho12rcd13ifvqh1g","pricing_plan_id":"cebpf4jnsgd1na2vs0mg"},{"bike_id":"c7e68575-2d3d-40e9-8b91-6a4c776ef7a6","system_id":"levelo_inurba_marseille","lat":43.2587,"lon":5.39895,"is_reserved":false,"is_disabled":false,"rental_uris":{"android":"levelo://app?vid=c7e68575-2d3d-40e9-8b91-6a4c776ef7a6","ios":"levelo://app?vid=c7e68575-2d3d-40e9-8b91-6a4c776ef7a6"},"vehicle_type_id":"4","last_reported":1744405720,"current_range_meters":3200,"station_id":"ce4bhl92rcd13ifvqghg","pricing_plan_id":"cebpf4jnsgd1na2vs0mg"},{"bike_id":"16564bc5-3bf8-4cf2-8578-c06c667d7c17","system_id":"levelo_inurba_marseille","lat":43.2942,"lon":5.38621,"is_reserved":false,"is_disabled":false,"rental_uris":{"android":"levelo://app?vid=16564bc5-3bf8-4cf2-8578-c06c667d7c17","ios":"levelo://app?vid=16564bc5-3bf8-4cf2-8578-c06c667d7c17"},"vehicle_type_id":"4","last_reported":1744405720,"current_range_meters":3200,"station_id":"ce4bh2h2rcd13ifvqdh0","pricing_plan_id":"cebpf4jnsgd1na2vs0mg"},{"bike_id":"17f7349e-6ed1-41ab-8192-6619b6aa27a8","system_id":"levelo_inurba_marseille","lat":43.25108,"lon":5.40317,"is_reserved":false,"is_disabled":false,"rental_uris":{"android":"levelo://app?vid=17f7349e-6ed1-41ab-8192-6619b6aa27a8","ios":"levelo://app?vid=17f7349e-6ed1-41ab-8192-6619b6aa27a8"},"vehicle_type_id":"4","last_reported":1744405720,"current_range_meters":800,"station_id":"ce4bhlh2rcd13ifvqgig","pricing_plan_id":"cebpf4jnsgd1na2vs0mg"},{"bike_id":"392f53ad-e8dc-49ed-9f1a-c92f9bc3d277","system_id":"levelo_inurba_marseille","lat":43.29253,"lon":5.40151,"is_reserved":false,"is_disabled":false,"rental_uris":{"android":"levelo://app?vid=392f53ad-e8dc-49ed-9f1a-c92f9bc3d277","ios":"levelo://app?vid=392f53ad-e8dc-49ed-9f1a-c92f9bc3d277"},"vehicle_type_id":"4","last_reported":1744405720,"current_range_meters":3600,"station_id":"ce4bh312rcd13ifvqdk0","pricing_plan_id":"cebpf4jnsgd1na2vs0mg"},{"bike_id":"aaf0bea2-a073-4f6c-a7b6-3956f84fd9d6","system_id":"levelo_inurba_marseille","lat":43.30017,"lon":5.3656,"is_reserved":false,"is_disabled":false,"rental_uris":{"android":"levelo://app?vid=aaf0bea2-a073-4f6c-a7b6-3956f84fd9d6","ios":"levelo://app?vid=aaf0bea2-a073-4f6c-a7b6-3956f84fd9d6"},"vehicle_type_id":"4","last_reported":1744405720,"current_range_meters":3600,"station_id":"","pricing_plan_id":"cebpf4jnsgd1na2vs0mg"},{"bike_id":"b7624377-6aa1-42b2-92d8-6c4027d45707","system_id":"levelo_inurba_marseille","lat":43.29264,"lon":5.38444,"is_reserved":false,"is_disabled":false,"rental_uris":{"android":"levelo://app?vid=b7624377-6aa1-42b2-92d8-6c4027d45707","ios":"levelo://app?vid=b7624377-6aa1-42b2-92d8-6c4027d45707"},"vehicle_type_id":"4","last_reported":1744405720,"current_range_meters":3600,"station_id":"ce4bh692rcd13ifvqea0","pricing_plan_id":"cebpf4jnsgd1na2vs0mg"},{"bike_id":"26aa85ab-9c2a-4343-9872-cdd093961751","system_id":"levelo_inurba_marseille","lat":43.25102,"lon":5.40323,"is_reserved":false,"is_disabled":false,"rental_uris":{"android":"levelo://app?vid=26aa85ab-9c2a-4343-9872-cdd093961751","ios":"levelo://app?vid=26aa85ab-9c2a-4343-9872-cdd093961751"},"vehicle_type_id":"4","last_reported":1744405720,"current_range_meters":3600,"station_id":"ce4bhlh2rcd13ifvqgig","pricing_plan_id":"cebpf4jnsgd1na2vs0mg"},{"bike_id":"15a886b8-b75e-455f-9abf-bee346b9677f","system_id":"levelo_inurba_marseille","lat":43.29276,"lon":5.40116,"is_reserved":false,"is_disabled":false,"rental_uris":{"android":"levelo://app?vid=15a886b8-b75e-455f-9abf-bee346b9677f","ios":"levelo://app?vid=15a886b8-b75e-455f-9abf-bee346b9677f"},"vehicle_type_id":"4","last_reported":1744405720,"current_range_meters":3600,"station_id":"ce4bh312rcd13ifvqdk0","pricing_plan_id":"cebpf4jnsgd1na2vs0mg"},{"bike_id":"d15a550b-ef49-4a95-9324-49a84969b834","system_id":"levelo_inurba_marseille","lat":43.29489,"lon":5.39409,"is_reserved":false,"is_disabled":false,"rental_uris":{"android":"levelo://app?vid=d15a550b-ef49-4a95-9324-49a84969b834","ios":"levelo://app?vid=d15a550b-ef49-4a95-9324-49a84969b834"},"vehicle_type_id":"4","last_reported":1744405720,"current_range_meters":3600,"station_id":"ce4bh292rcd13ifvqdf0","pricing_plan_id":"cebpf4jnsgd1na2vs0mg"},{"bike_id":"3348fd97-e68a-4408-941d-c95dbccb85d7","system_id":"levelo_inurba_marseille","lat":43.23183,"lon":5.39982,"is_reserved":false,"is_disabled":false,"rental_uris":{"android":"levelo://app?vid=3348fd97-e68a-4408-941d-c95dbccb85d7","ios":"levelo://app?vid=3348fd97-e68a-4408-941d-c95dbccb85d7"},"vehicle_type_id":"4","last_reported":1744405720,"current_range_meters":4000,"station_id":"ce4bhn12rcd13ifvqgqg","pricing_plan_id":"cebpf4jnsgd1na2vs0mg"},{"bike_id":"39e12ad0-a537-4d4f-b918-8ea60f8a4bb2","system_id":"levelo_inurba_marseille","lat":43.25734,"lon":5.41109,"is_reserved":false,"is_disabled":false,"rental_uris":{"android":"levelo://app?vid=39e12ad0-a537-4d4f-b918-8ea60f8a4bb2","ios":"levelo://app?vid=39e12ad0-a537-4d4f-b918-8ea60f8a4bb2"},"vehicle_type_id":"4","last_reported":1744405720,"current_range_meters":4000,"station_id":"ce4bhkp2rcd13ifvqgd0","pricing_plan_id":"cebpf4jnsgd1na2vs0mg"},{"bike_id":"651398ac-c70b-4ad0-95aa-14f7c75e7554","system_id":"levelo_inurba_marseille","lat":43.27984,"lon":5.41654,"is_reserved":false,"is_disabled":true,"rental_uris":{"android":"levelo://app?vid=651398ac-c70b-4ad0-95aa-14f7c75e7554","ios":"levelo://app?vid=651398ac-c70b-4ad0-95aa-14f7c75e7554"},"vehicle_type_id":"4","last_reported":1744405720,"current_range_meters":4000,"station_id":"ce4bho12rcd13ifvqh1g","pricing_plan_id":"cebpf4jnsgd1na2vs0mg"},{"bike_id":"82fba819-642b-43c5-8868-a011a2004bc2","system_id":"levelo_inurba_marseille","lat":43.28667,"lon":5.38675,"is_reserved":false,"is_disabled":false,"rental_uris":{"android":"levelo://app?vid=82fba819-642b-43c5-8868-a011a2004bc2","ios":"levelo://app?vid=82fba819-642b-43c5-8868-a011a2004bc2"},"vehicle_type_id":"4","last_reported":1744405720,"current_range_meters":4000,"station_id":"ce4bh492rcd13ifvqdug","pricing_plan_id":"cebpf4jnsgd1na2vs0mg"},{"bike_id":"ccee87b7-8970-404a-b5f0-d74dde2c6d37","system_id":"levelo_inurba_marseille","lat":43.29961,"lon":5.38503,"is_reserved":false,"is_disabled":false,"rental_uris":{"android":"levelo://app?vid=ccee87b7-8970-404a-b5f0-d74dde2c6d37","ios":"levelo://app?vid=ccee87b7-8970-404a-b5f0-d74dde2c6d37"},"vehicle_type_id":"4","last_reported":1744405720,"current_range_meters":4000,"station_id":"ce4bgj92rcd13ifvqbd0","pricing_plan_id":"cebpf4jnsgd1na2vs0mg"},{"bike_id":"9acb0c63-d119-4810-94aa-e306fdcee828","system_id":"levelo_inurba_marseille","lat":43.24164,"lon":5.36391,"is_reserved":false,"is_disabled":false,"rental_uris":{"android":"levelo://app?vid=9acb0c63-d119-4810-94aa-e306fdcee828","ios":"levelo://app?vid=9acb0c63-d119-4810-94aa-e306fdcee828"},"vehicle_type_id":"4","last_reported":1744405720,"current_range_meters":4400,"station_id":"cpo36qri1sfpv3e86is0","pricing_plan_id":"cebpf4jnsgd1na2vs0mg"},{"bike_id":"2c313ba4-0bbc-4964-8a8c-0b15efdd855c","system_id":"levelo_inurba_marseille","lat":43.31364,"lon":5.38489,"is_reserved":false,"is_disabled":false,"rental_uris":{"android":"levelo://app?vid=2c313ba4-0bbc-4964-8a8c-0b15efdd855c","ios":"levelo://app?vid=2c313ba4-0bbc-4964-8a8c-0b15efdd855c"},"vehicle_type_id":"4","last_reported":1744405720,"current_range_meters":4400,"station_id":"ce4bgt92rcd13ifvqcf0","pricing_plan_id":"cebpf4jnsgd1na2vs0mg"},{"bike_id":"f973a48a-93d7-4351-ac20-4f62d6298af7","system_id":"levelo_inurba_marseille","lat":43.25728,"lon":5.41103,"is_reserved":false,"is_disabled":false,"rental_uris":{"android":"levelo://app?vid=f973a48a-93d7-4351-ac20-4f62d6298af7","ios":"levelo://app?vid=f973a48a-93d7-4351-ac20-4f62d6298af7"},"vehicle_type_id":"4","last_reported":1744405720,"current_range_meters":4800,"station_id":"ce4bhkp2rcd13ifvqgd0","pricing_plan_id":"cebpf4jnsgd1na2vs0mg"},{"bike_id":"ee6e7faa-d71b-42ff-907a-f540ec8088af","system_id":"levelo_inurba_marseille","lat":43.27947,"lon":5.38716,"is_reserved":false,"is_disabled":false,"rental_uris":{"android":"levelo://app?vid=ee6e7faa-d71b-42ff-907a-f540ec8088af","ios":"levelo://app?vid=ee6e7faa-d71b-42ff-907a-f540ec8088af"},"vehicle_type_id":"4","last_reported":1744405720,"current_range_meters":4800,"station_id":"ce4bhg12rcd13ifvqf80","pricing_plan_id":"cebpf4jnsgd1na2vs0mg"},{"bike_id":"809a75b7-cc16-4f8d-a153-9b8f6ac0e1cf","system_id":"levelo_inurba_marseille","lat":43.30315,"lon":5.40437,"is_reserved":false,"is_disabled":false,"rental_uris":{"android":"levelo://app?vid=809a75b7-cc16-4f8d-a153-9b8f6ac0e1cf","ios":"levelo://app?vid=809a75b7-cc16-4f8d-a153-9b8f6ac0e1cf"},"vehicle_type_id":"4","last_reported":1744405720,"current_range_meters":5600,"station_id":"ce4bh012rcd13ifvqd10","pricing_plan_id":"cebpf4jnsgd1na2vs0mg"},{"bike_id":"8f7b9a5c-d862-4371-a997-9c586fbe209c","system_id":"levelo_inurba_marseille","lat":43.28035,"lon":5.36958,"is_reserved":false,"is_disabled":false,"rental_uris":{"android":"levelo://app?vid=8f7b9a5c-d862-4371-a997-9c586fbe209c","ios":"levelo://app?vid=8f7b9a5c-d862-4371-a997-9c586fbe209c"},"vehicle_type_id":"4","last_reported":1744405720,"current_range_meters":5600,"station_id":"ce4bha12rcd13ifvqef0","pricing_plan_id":"cebpf4jnsgd1na2vs0mg"},{"bike_id":"f9512e75-8c56-4b5f-8ec8-b119a822b1f5","system_id":"levelo_inurba_marseille","lat":43.283538,"lon":5.38114,"is_reserved":false,"is_disabled":false,"rental_uris":{"android":"levelo://app?vid=f9512e75-8c56-4b5f-8ec8-b119a822b1f5","ios":"levelo://app?vid=f9512e75-8c56-4b5f-8ec8-b119a822b1f5"},"vehicle_type_id":"4","last_reported":1744405720,"current_range_meters":6000,"station_id":"ce4bh412rcd13ifvqdr0","pricing_plan_id":"cebpf4jnsgd1na2vs0mg"},{"bike_id":"1f1931dc-ca45-43df-bb99-8ca2d278bd56","system_id":"levelo_inurba_marseille","lat":43.24167,"lon":5.36386,"is_reserved":false,"is_disabled":false,"rental_uris":{"android":"levelo://app?vid=1f1931dc-ca45-43df-bb99-8ca2d278bd56","ios":"levelo://app?vid=1f1931dc-ca45-43df-bb99-8ca2d278bd56"},"vehicle_type_id":"4","last_reported":1744405720,"current_range_meters":6000,"station_id":"cpo36qri1sfpv3e86is0","pricing_plan_id":"cebpf4jnsgd1na2vs0mg"},{"bike_id":"76624b63-c948-4621-9e44-12162d131d6e","system_id":"levelo_inurba_marseille","lat":43.28992,"lon":5.38634,"is_reserved":false,"is_disabled":false,"rental_uris":{"android":"levelo://app?vid=76624b63-c948-4621-9e44-12162d131d6e","ios":"levelo://app?vid=76624b63-c948-4621-9e44-12162d131d6e"},"vehicle_type_id":"4","last_reported":1744405720,"current_range_meters":6000,"station_id":"ce4bh4p2rcd13ifvqe0g","pricing_plan_id":"cebpf4jnsgd1na2vs0mg"},{"bike_id":"52436c49-e299-47c5-b1e3-54fe759a5f58","system_id":"levelo_inurba_marseille","lat":43.31376,"lon":5.38497,"is_reserved":false,"is_disabled":false,"rental_uris":{"android":"levelo://app?vid=52436c49-e299-47c5-b1e3-54fe759a5f58","ios":"levelo://app?vid=52436c49-e299-47c5-b1e3-54fe759a5f58"},"vehicle_type_id":"4","last_reported":1744405720,"current_range_meters":6000,"station_id":"ce4bgt92rcd13ifvqcf0","pricing_plan_id":"cebpf4jnsgd1na2vs0mg"},{"bike_id":"ea0922c5-4abd-4618-9143-1c5c1e740bdc","system_id":"levelo_inurba_marseille","lat":43.29029,"lon":5.38639,"is_reserved":false,"is_disabled":false,"rental_uris":{"android":"levelo://app?vid=ea0922c5-4abd-4618-9143-1c5c1e740bdc","ios":"levelo://app?vid=ea0922c5-4abd-4618-9143-1c5c1e740bdc"},"vehicle_type_id":"4","last_reported":1744405720,"current_range_meters":6400,"station_id":"ce4bh4p2rcd13ifvqe0g","pricing_plan_id":"cebpf4jnsgd1na2vs0mg"},{"bike_id":"f8764a80-8174-4814-a7db-a7223d931059","system_id":"levelo_inurba_marseille","lat":43.29365,"lon":5.3784,"is_reserved":false,"is_disabled":false,"rental_uris":{"android":"levelo://app?vid=f8764a80-8174-4814-a7db-a7223d931059","ios":"levelo://app?vid=f8764a80-8174-4814-a7db-a7223d931059"},"vehicle_type_id":"4","last_reported":1744405720,"current_range_meters":6400,"station_id":"ce4bgjh2rcd13ifvqbf0","pricing_plan_id":"cebpf4jnsgd1na2vs0mg"},{"bike_id":"b105010c-b749-48b7-8743-e65c5024e2fe","system_id":"levelo_inurba_marseille","lat":43.25124,"lon":5.40319,"is_reserved":false,"is_disabled":false,"rental_uris":{"android":"levelo://app?vid=b105010c-b749-48b7-8743-e65c5024e2fe","ios":"levelo://app?vid=b105010c-b749-48b7-8743-e65c5024e2fe"},"vehicle_type_id":"4","last_reported":1744405720,"current_range_meters":6400,"station_id":"ce4bhlh2rcd13ifvqgig","pricing_plan_id":"cebpf4jnsgd1na2vs0mg"},{"bike_id":"ebb0a9a4-d510-45ce-9285-05ab700dacea","system_id":"levelo_inurba_marseille","lat":43.28366,"lon":5.38644,"is_reserved":false,"is_disabled":false,"rental_uris":{"android":"levelo://app?vid=ebb0a9a4-d510-45ce-9285-05ab700dacea","ios":"levelo://app?vid=ebb0a9a4-d510-45ce-9285-05ab700dacea"},"vehicle_type_id":"4","last_reported":1744405720,"current_range_meters":6400,"station_id":"ce4bh492rcd13ifvqdvg","pricing_plan_id":"cebpf4jnsgd1na2vs0mg"},{"bike_id":"4ff1679e-bc8e-4761-91df-0343ca65d83d","system_id":"levelo_inurba_marseille","lat":43.24835,"lon":5.37433,"is_reserved":false,"is_disabled":false,"rental_uris":{"android":"levelo://app?vid=4ff1679e-bc8e-4761-91df-0343ca65d83d","ios":"levelo://app?vid=4ff1679e-bc8e-4761-91df-0343ca65d83d"},"vehicle_type_id":"4","last_reported":1744405720,"current_range_meters":6400,"station_id":"","pricing_plan_id":"cebpf4jnsgd1na2vs0mg"},{"bike_id":"1df21529-3a67-485d-80c3-044dca87a500","system_id":"levelo_inurba_marseille","lat":43.3137,"lon":5.38493,"is_reserved":false,"is_disabled":false,"rental_uris":{"android":"levelo://app?vid=1df21529-3a67-485d-80c3-044dca87a500","ios":"levelo://app?vid=1df21529-3a67-485d-80c3-044dca87a500"},"vehicle_type_id":"4","last_reported":1744405720,"current_range_meters":6400,"station_id":"ce4bgt92rcd13ifvqcf0","pricing_plan_id":"cebpf4jnsgd1na2vs0mg"},{"bike_id":"9b124832-5aac-48fc-ab26-489a32057271","system_id":"levelo_inurba_marseille","lat":43.25462,"lon":5.37673,"is_reserved":false,"is_disabled":true,"rental_uris":{"android":"levelo://app?vid=9b124832-5aac-48fc-ab26-489a32057271","ios":"levelo://app?vid=9b124832-5aac-48fc-ab26-489a32057271"},"vehicle_type_id":"4","last_reported":1744405720,"current_range_meters":6400,"station_id":"ce4bhh12rcd13ifvqff0","pricing_plan_id":"cebpf4jnsgd1na2vs0mg"},{"bike_id":"0c00ca95-3429-45f6-a550-7818d229058c","system_id":"levelo_inurba_marseille","lat":43.24663,"lon":5.38164,"is_reserved":false,"is_disabled":false,"rental_uris":{"android":"levelo://app?vid=0c00ca95-3429-45f6-a550-7818d229058c","ios":"levelo://app?vid=0c00ca95-3429-45f6-a550-7818d229058c"},"vehicle_type_id":"4","last_reported":1744405720,"current_range_meters":6400,"station_id":"ce4bhih2rcd13ifvqfr0","pricing_plan_id":"cebpf4jnsgd1na2vs0mg"},{"bike_id":"0bf2e17b-de76-43af-a911-86674f1ad492","system_id":"levelo_inurba_marseille","lat":43.29787,"lon":5.39328,"is_reserved":false,"is_disabled":false,"rental_uris":{"android":"levelo://app?vid=0bf2e17b-de76-43af-a911-86674f1ad492","ios":"levelo://app?vid=0bf2e17b-de76-43af-a911-86674f1ad492"},"vehicle_type_id":"4","last_reported":1744405720,"current_range_meters":6800,"station_id":"chh1huq6cuj3fo74tm60","pricing_plan_id":"cebpf4jnsgd1na2vs0mg"},{"bike_id":"e4cdfe18-db4d-470f-8ece-305d67adc9bc","system_id":"levelo_inurba_marseille","lat":43.2894,"lon":5.3664,"is_reserved":false,"is_disabled":false,"rental_uris":{"android":"levelo://app?vid=e4cdfe18-db4d-470f-8ece-305d67adc9bc","ios":"levelo://app?vid=e4cdfe18-db4d-470f-8ece-305d67adc9bc"},"vehicle_type_id":"4","last_reported":1744405720,"current_range_meters":6800,"station_id":"ce4bhap2rcd13ifvqek0","pricing_plan_id":"cebpf4jnsgd1na2vs0mg"},{"bike_id":"32726013-757e-4d24-9225-04536f20d299","system_id":"levelo_inurba_marseille","lat":43.26195,"lon":5.37451,"is_reserved":false,"is_disabled":true,"rental_uris":{"android":"levelo://app?vid=32726013-757e-4d24-9225-04536f20d299","ios":"levelo://app?vid=32726013-757e-4d24-9225-04536f20d299"},"vehicle_type_id":"4","last_reported":1744405720,"current_range_meters":6800,"station_id":"ce4bhgp2rcd13ifvqfc0","pricing_plan_id":"cebpf4jnsgd1na2vs0mg"},{"bike_id":"b01e709f-f1e2-4bd6-8f31-9d77ddf814bd","system_id":"levelo_inurba_marseille","lat":43.29418,"lon":5.38636,"is_reserved":false,"is_disabled":false,"rental_uris":{"android":"levelo://app?vid=b01e709f-f1e2-4bd6-8f31-9d77ddf814bd","ios":"levelo://app?vid=b01e709f-f1e2-4bd6-8f31-9d77ddf814bd"},"vehicle_type_id":"4","last_reported":1744405720,"current_range_meters":6800,"station_id":"ce4bh2h2rcd13ifvqdh0","pricing_plan_id":"cebpf4jnsgd1na2vs0mg"},{"bike_id":"62c1f836-7b45-44f7-9721-a260943a8081","system_id":"levelo_inurba_marseille","lat":43.27501,"lon":5.424541,"is_reserved":false,"is_disabled":false,"rental_uris":{"android":"levelo://app?vid=62c1f836-7b45-44f7-9721-a260943a8081","ios":"levelo://app?vid=62c1f836-7b45-44f7-9721-a260943a8081"},"vehicle_type_id":"4","last_reported":1744405720,"current_range_meters":6800,"station_id":"ce4bhn92rcd13ifvqgrg","pricing_plan_id":"cebpf4jnsgd1na2vs0mg"},{"bike_id":"a8827283-5cb2-4c69-8f92-cabeabffb47c","system_id":"levelo_inurba_marseille","lat":43.24158,"lon":5.36387,"is_reserved":false,"is_disabled":false,"rental_uris":{"android":"levelo://app?vid=a8827283-5cb2-4c69-8f92-cabeabffb47c","ios":"levelo://app?vid=a8827283-5cb2-4c69-8f92-cabeabffb47c"},"vehicle_type_id":"4","last_reported":1744405720,"current_range_meters":6800,"station_id":"cpo36qri1sfpv3e86is0","pricing_plan_id":"cebpf4jnsgd1na2vs0mg"},{"bike_id":"4f36f7df-764d-49e5-bc60-7829a756f723","system_id":"levelo_inurba_marseille","lat":43.29266,"lon":5.38432,"is_reserved":false,"is_disabled":false,"rental_uris":{"android":"levelo://app?vid=4f36f7df-764d-49e5-bc60-7829a756f723","ios":"levelo://app?vid=4f36f7df-764d-49e5-bc60-7829a756f723"},"vehicle_type_id":"4","last_reported":1744405720,"current_range_meters":6800,"station_id":"ce4bh692rcd13ifvqea0","pricing_plan_id":"cebpf4jnsgd1na2vs0mg"},{"bike_id":"a7b22e2e-0c80-4693-ad23-d6caf4917341","system_id":"levelo_inurba_marseille","lat":43.30877,"lon":5.37323,"is_reserved":false,"is_disabled":false,"rental_uris":{"android":"levelo://app?vid=a7b22e2e-0c80-4693-ad23-d6caf4917341","ios":"levelo://app?vid=a7b22e2e-0c80-4693-ad23-d6caf4917341"},"vehicle_type_id":"4","last_reported":1744405720,"current_range_meters":6800,"station_id":"","pricing_plan_id":"cebpf4jnsgd1na2vs0mg"},{"bike_id":"88594c4f-ae22-4efd-ac01-11a6b014e92b","system_id":"levelo_inurba_marseille","lat":43.255,"lon":5.37646,"is_reserved":false,"is_disabled":false,"rental_uris":{"android":"levelo://app?vid=88594c4f-ae22-4efd-ac01-11a6b014e92b","ios":"levelo://app?vid=88594c4f-ae22-4efd-ac01-11a6b014e92b"},"vehicle_type_id":"4","last_reported":1744405720,"current_range_meters":6800,"station_id":"ce4bhh12rcd13ifvqff0","pricing_plan_id":"cebpf4jnsgd1na2vs0mg"},{"bike_id":"4606669d-6c0a-4144-a056-b751a3804652","system_id":"levelo_inurba_marseille","lat":43.25454,"lon":5.37573,"is_reserved":false,"is_disabled":false,"rental_uris":{"android":"levelo://app?vid=4606669d-6c0a-4144-a056-b751a3804652","ios":"levelo://app?vid=4606669d-6c0a-4144-a056-b751a3804652"},"vehicle_type_id":"4","last_reported":1744405720,"current_range_meters":6800,"station_id":"","pricing_plan_id":"cebpf4jnsgd1na2vs0mg"},{"bike_id":"b3dfb2b2-c3e4-4cc3-aedd-b96d8a79bb3e","system_id":"levelo_inurba_marseille","lat":43.29265,"lon":5.38448,"is_reserved":false,"is_disabled":false,"rental_uris":{"android":"levelo://app?vid=b3dfb2b2-c3e4-4cc3-aedd-b96d8a79bb3e","ios":"levelo://app?vid=b3dfb2b2-c3e4-4cc3-aedd-b96d8a79bb3e"},"vehicle_type_id":"4","last_reported":1744405720,"current_range_meters":7200,"station_id":"ce4bh692rcd13ifvqea0","pricing_plan_id":"cebpf4jnsgd1na2vs0mg"},{"bike_id":"52cbb887-af78-4918-99a1-20cc2cb89f4c","system_id":"levelo_inurba_marseille","lat":43.28706,"lon":5.37949,"is_reserved":false,"is_disabled":false,"rental_uris":{"android":"levelo://app?vid=52cbb887-af78-4918-99a1-20cc2cb89f4c","ios":"levelo://app?vid=52cbb887-af78-4918-99a1-20cc2cb89f4c"},"vehicle_type_id":"4","last_reported":1744405720,"current_range_meters":7200,"station_id":"ce4bh9p2rcd13ifvqec0","pricing_plan_id":"cebpf4jnsgd1na2vs0mg"},{"bike_id":"a9f344a9-b5c4-4c6f-adc4-6177f6c8159a","system_id":"levelo_inurba_marseille","lat":43.32807,"lon":5.39747,"is_reserved":false,"is_disabled":false,"rental_uris":{"android":"levelo://app?vid=a9f344a9-b5c4-4c6f-adc4-6177f6c8159a","ios":"levelo://app?vid=a9f344a9-b5c4-4c6f-adc4-6177f6c8159a"},"vehicle_type_id":"4","last_reported":1744405720,"current_range_meters":7200,"station_id":"","pricing_plan_id":"cebpf4jnsgd1na2vs0mg"},{"bike_id":"e854defc-8e33-40ed-a4f3-45bab2707a87","system_id":"levelo_inurba_marseille","lat":43.30947,"lon":5.40139,"is_reserved":false,"is_disabled":false,"rental_uris":{"android":"levelo://app?vid=e854defc-8e33-40ed-a4f3-45bab2707a87","ios":"levelo://app?vid=e854defc-8e33-40ed-a4f3-45bab2707a87"},"vehicle_type_id":"4","last_reported":1744405720,"current_range_meters":7200,"station_id":"ce4bgvp2rcd13ifvqct0","pricing_plan_id":"cebpf4jnsgd1na2vs0mg"},{"bike_id":"42014425-4d51-4c28-95bd-9f7a3a1c451d","system_id":"levelo_inurba_marseille","lat":43.31073,"lon":5.38343,"is_reserved":false,"is_disabled":false,"rental_uris":{"android":"levelo://app?vid=42014425-4d51-4c28-95bd-9f7a3a1c451d","ios":"levelo://app?vid=42014425-4d51-4c28-95bd-9f7a3a1c451d"},"vehicle_type_id":"4","last_reported":1744405720,"current_range_meters":7200,"station_id":"ce4bgv92rcd13ifvqcr0","pricing_plan_id":"cebpf4jnsgd1na2vs0mg"},{"bike_id":"9e9bae14-e985-4946-9a07-f6965cc24f34","system_id":"levelo_inurba_marseille","lat":43.30427,"lon":5.39742,"is_reserved":false,"is_disabled":false,"rental_uris":{"android":"levelo://app?vid=9e9bae14-e985-4946-9a07-f6965cc24f34","ios":"levelo://app?vid=9e9bae14-e985-4946-9a07-f6965cc24f34"},"vehicle_type_id":"4","last_reported":1744405720,"current_range_meters":8000,"station_id":"ce4bh092rcd13ifvqd20","pricing_plan_id":"cebpf4jnsgd1na2vs0mg"},{"bike_id":"620eeea1-cdaa-4d4a-84b4-5a021ef2a97b","system_id":"levelo_inurba_marseille","lat":43.29404,"lon":5.38613,"is_reserved":false,"is_disabled":false,"rental_uris":{"android":"levelo://app?vid=620eeea1-cdaa-4d4a-84b4-5a021ef2a97b","ios":"levelo://app?vid=620eeea1-cdaa-4d4a-84b4-5a021ef2a97b"},"vehicle_type_id":"4","last_reported":1744405720,"current_range_meters":8000,"station_id":"ce4bh2h2rcd13ifvqdh0","pricing_plan_id":"cebpf4jnsgd1na2vs0mg"},{"bike_id":"b840bf45-0d56-4e22-a05e-e98a6ac224a8","system_id":"levelo_inurba_marseille","lat":43.27206,"lon":5.39145,"is_reserved":false,"is_disabled":false,"rental_uris":{"android":"levelo://app?vid=b840bf45-0d56-4e22-a05e-e98a6ac224a8","ios":"levelo://app?vid=b840bf45-0d56-4e22-a05e-e98a6ac224a8"},"vehicle_type_id":"4","last_reported":1744405720,"current_range_meters":8000,"station_id":"ce4bhhp2rcd13ifvqfm0","pricing_plan_id":"cebpf4jnsgd1na2vs0mg"},{"bike_id":"cb8096b6-a36c-45c5-ad90-e3784252caf4","system_id":"levelo_inurba_marseille","lat":43.27558,"lon":5.3841,"is_reserved":false,"is_disabled":false,"rental_uris":{"android":"levelo://app?vid=cb8096b6-a36c-45c5-ad90-e3784252caf4","ios":"levelo://app?vid=cb8096b6-a36c-45c5-ad90-e3784252caf4"},"vehicle_type_id":"4","last_reported":1744405720,"current_range_meters":8000,"station_id":"ce4bhh92rcd13ifvqfi0","pricing_plan_id":"cebpf4jnsgd1na2vs0mg"},{"bike_id":"424918f8-5f88-4460-8130-e88891f40869","system_id":"levelo_inurba_marseille","lat":43.24823,"lon":5.37451,"is_reserved":false,"is_disabled":false,"rental_uris":{"android":"levelo://app?vid=424918f8-5f88-4460-8130-e88891f40869","ios":"levelo://app?vid=424918f8-5f88-4460-8130-e88891f40869"},"vehicle_type_id":"4","last_reported":1744405720,"current_range_meters":8000,"station_id":"ce4bhgh2rcd13ifvqfb0","pricing_plan_id":"cebpf4jnsgd1na2vs0mg"},{"bike_id":"f6b721a1-7ab7-4c5b-932d-0f416eb30cbd","system_id":"levelo_inurba_marseille","lat":43.294191,"lon":5.386237,"is_reserved":false,"is_disabled":false,"rental_uris":{"android":"levelo://app?vid=f6b721a1-7ab7-4c5b-932d-0f416eb30cbd","ios":"levelo://app?vid=f6b721a1-7ab7-4c5b-932d-0f416eb30cbd"},"vehicle_type_id":"4","last_reported":1744405720,"current_range_meters":8000,"station_id":"ce4bh2h2rcd13ifvqdh0","pricing_plan_id":"cebpf4jnsgd1na2vs0mg"},{"bike_id":"e99f5290-1466-47b7-987b-c1ba64057cd2","system_id":"levelo_inurba_marseille","lat":43.24691,"lon":5.41205,"is_reserved":false,"is_disabled":false,"rental_uris":{"android":"levelo://app?vid=e99f5290-1466-47b7-987b-c1ba64057cd2","ios":"levelo://app?vid=e99f5290-1466-47b7-987b-c1ba64057cd2"},"vehicle_type_id":"4","last_reported":1744405720,"current_range_meters":8000,"station_id":"","pricing_plan_id":"cebpf4jnsgd1na2vs0mg"},{"bike_id":"cbced0a0-f858-4c66-9973-49a534b0e0c5","system_id":"levelo_inurba_marseille","lat":43.27984,"lon":5.38677,"is_reserved":false,"is_disabled":false,"rental_uris":{"android":"levelo://app?vid=cbced0a0-f858-4c66-9973-49a534b0e0c5","ios":"levelo://app?vid=cbced0a0-f858-4c66-9973-49a534b0e0c5"},"vehicle_type_id":"4","last_reported":1744405720,"current_range_meters":8400,"station_id":"ce4bhg12rcd13ifvqf80","pricing_plan_id":"cebpf4jnsgd1na2vs0mg"},{"bike_id":"feb05de9-3bcb-466b-8cde-a09a0eae9cb4","system_id":"levelo_inurba_marseille","lat":43.29245,"lon":5.3844,"is_reserved":false,"is_disabled":false,"rental_uris":{"android":"levelo://app?vid=feb05de9-3bcb-466b-8cde-a09a0eae9cb4","ios":"levelo://app?vid=feb05de9-3bcb-466b-8cde-a09a0eae9cb4"},"vehicle_type_id":"4","last_reported":1744405720,"current_range_meters":8400,"station_id":"ce4bh692rcd13ifvqea0","pricing_plan_id":"cebpf4jnsgd1na2vs0mg"},{"bike_id":"744d9e13-4644-4443-baa0-d58aa61dc002","system_id":"levelo_inurba_marseille","lat":43.24804,"lon":5.37459,"is_reserved":false,"is_disabled":false,"rental_uris":{"android":"levelo://app?vid=744d9e13-4644-4443-baa0-d58aa61dc002","ios":"levelo://app?vid=744d9e13-4644-4443-baa0-d58aa61dc002"},"vehicle_type_id":"4","last_reported":1744405720,"current_range_meters":8400,"station_id":"ce4bhgh2rcd13ifvqfb0","pricing_plan_id":"cebpf4jnsgd1na2vs0mg"},{"bike_id":"dee958f8-d40c-446d-a76e-03c7e8652123","system_id":"levelo_inurba_marseille","lat":43.253349,"lon":5.380594,"is_reserved":false,"is_disabled":false,"rental_uris":{"android":"levelo://app?vid=dee958f8-d40c-446d-a76e-03c7e8652123","ios":"levelo://app?vid=dee958f8-d40c-446d-a76e-03c7e8652123"},"vehicle_type_id":"4","last_reported":1744405720,"current_range_meters":8400,"station_id":"","pricing_plan_id":"cebpf4jnsgd1na2vs0mg"},{"bike_id":"3bbb74ad-d656-406a-b153-f2f275de884d","system_id":"levelo_inurba_marseille","lat":43.2756,"lon":5.38423,"is_reserved":false,"is_disabled":false,"rental_uris":{"android":"levelo://app?vid=3bbb74ad-d656-406a-b153-f2f275de884d","ios":"levelo://app?vid=3bbb74ad-d656-406a-b153-f2f275de884d"},"vehicle_type_id":"4","last_reported":1744405720,"current_range_meters":8400,"station_id":"ce4bhh92rcd13ifvqfi0","pricing_plan_id":"cebpf4jnsgd1na2vs0mg"},{"bike_id":"8a2ebe57-352f-4613-a8aa-f95ec149cfdc","system_id":"levelo_inurba_marseille","lat":43.296844,"lon":5.373041,"is_reserved":false,"is_disabled":false,"rental_uris":{"android":"levelo://app?vid=8a2ebe57-352f-4613-a8aa-f95ec149cfdc","ios":"levelo://app?vid=8a2ebe57-352f-4613-a8aa-f95ec149cfdc"},"vehicle_type_id":"4","last_reported":1744405720,"current_range_meters":8400,"station_id":"ce4bgk12rcd13ifvqbj0","pricing_plan_id":"cebpf4jnsgd1na2vs0mg"},{"bike_id":"9554236f-19ee-4def-a1c8-0876cd583100","system_id":"levelo_inurba_marseille","lat":43.29884,"lon":5.39728,"is_reserved":false,"is_disabled":false,"rental_uris":{"android":"levelo://app?vid=9554236f-19ee-4def-a1c8-0876cd583100","ios":"levelo://app?vid=9554236f-19ee-4def-a1c8-0876cd583100"},"vehicle_type_id":"4","last_reported":1744405720,"current_range_meters":8400,"station_id":"ce4bh0h2rcd13ifvqd50","pricing_plan_id":"cebpf4jnsgd1na2vs0mg"},{"bike_id":"05c69993-2243-40d3-93e8-2a4bf7364fa1","system_id":"levelo_inurba_marseille","lat":43.28669,"lon":5.38677,"is_reserved":false,"is_disabled":false,"rental_uris":{"android":"levelo://app?vid=05c69993-2243-40d3-93e8-2a4bf7364fa1","ios":"levelo://app?vid=05c69993-2243-40d3-93e8-2a4bf7364fa1"},"vehicle_type_id":"4","last_reported":1744405720,"current_range_meters":8400,"station_id":"ce4bh492rcd13ifvqdug","pricing_plan_id":"cebpf4jnsgd1na2vs0mg"},{"bike_id":"e3b68c9e-ee06-4fb3-9a2e-b44c570146a1","system_id":"levelo_inurba_marseille","lat":43.29532,"lon":5.38539,"is_reserved":false,"is_disabled":false,"rental_uris":{"android":"levelo://app?vid=e3b68c9e-ee06-4fb3-9a2e-b44c570146a1","ios":"levelo://app?vid=e3b68c9e-ee06-4fb3-9a2e-b44c570146a1"},"vehicle_type_id":"4","last_reported":1744405720,"current_range_meters":8400,"station_id":"ce4bgih2rcd13ifvqba0","pricing_plan_id":"cebpf4jnsgd1na2vs0mg"},{"bike_id":"eab6cbfa-cb8e-47d7-b0d6-226ab7facec7","system_id":"levelo_inurba_marseille","lat":43.317167,"lon":5.424121,"is_reserved":false,"is_disabled":true,"rental_uris":{"android":"levelo://app?vid=eab6cbfa-cb8e-47d7-b0d6-226ab7facec7","ios":"levelo://app?vid=eab6cbfa-cb8e-47d7-b0d6-226ab7facec7"},"vehicle_type_id":"4","last_reported":1744405720,"current_range_meters":8400,"station_id":"ce4bhp92rcd13ifvqhbg","pricing_plan_id":"cebpf4jnsgd1na2vs0mg"},{"bike_id":"820eae00-4001-4b93-98cd-bfbd5fc6ebfe","system_id":"levelo_inurba_marseille","lat":43.2681,"lon":5.40264,"is_reserved":false,"is_disabled":false,"rental_uris":{"android":"levelo://app?vid=820eae00-4001-4b93-98cd-bfbd5fc6ebfe","ios":"levelo://app?vid=820eae00-4001-4b93-98cd-bfbd5fc6ebfe"},"vehicle_type_id":"4","last_reported":1744405720,"current_range_meters":8400,"station_id":"ce501612rcd8frsf0b60","pricing_plan_id":"cebpf4jnsgd1na2vs0mg"},{"bike_id":"5f0f62f8-4da5-494c-8775-c4030ec9b1bb","system_id":"levelo_inurba_marseille","lat":43.29413,"lon":5.38623,"is_reserved":false,"is_disabled":false,"rental_uris":{"android":"levelo://app?vid=5f0f62f8-4da5-494c-8775-c4030ec9b1bb","ios":"levelo://app?vid=5f0f62f8-4da5-494c-8775-c4030ec9b1bb"},"vehicle_type_id":"4","last_reported":1744405720,"current_range_meters":8400,"station_id":"ce4bh2h2rcd13ifvqdh0","pricing_plan_id":"cebpf4jnsgd1na2vs0mg"},{"bike_id":"eaee7cab-ffaf-484d-ad23-a2807bbdb072","system_id":"levelo_inurba_marseille","lat":43.29262,"lon":5.3844,"is_reserved":false,"is_disabled":false,"rental_uris":{"android":"levelo://app?vid=eaee7cab-ffaf-484d-ad23-a2807bbdb072","ios":"levelo://app?vid=eaee7cab-ffaf-484d-ad23-a2807bbdb072"},"vehicle_type_id":"4","last_reported":1744405720,"current_range_meters":8800,"station_id":"ce4bh692rcd13ifvqea0","pricing_plan_id":"cebpf4jnsgd1na2vs0mg"},{"bike_id":"5ebb2ac6-5b3a-4fce-a265-72912648d806","system_id":"levelo_inurba_marseille","lat":43.29267,"lon":5.38432,"is_reserved":false,"is_disabled":false,"rental_uris":{"android":"levelo://app?vid=5ebb2ac6-5b3a-4fce-a265-72912648d806","ios":"levelo://app?vid=5ebb2ac6-5b3a-4fce-a265-72912648d806"},"vehicle_type_id":"4","last_reported":1744405720,"current_range_meters":8800,"station_id":"ce4bh692rcd13ifvqea0","pricing_plan_id":"cebpf4jnsgd1na2vs0mg"},{"bike_id":"e6a9ee71-9aa9-40e0-9afe-897c88fa9571","system_id":"levelo_inurba_marseille","lat":43.24175,"lon":5.36389,"is_reserved":false,"is_disabled":false,"rental_uris":{"android":"levelo://app?vid=e6a9ee71-9aa9-40e0-9afe-897c88fa9571","ios":"levelo://app?vid=e6a9ee71-9aa9-40e0-9afe-897c88fa9571"},"vehicle_type_id":"4","last_reported":1744405720,"current_range_meters":8800,"station_id":"cpo36qri1sfpv3e86is0","pricing_plan_id":"cebpf4jnsgd1na2vs0mg"},{"bike_id":"6af1af01-fb5c-4ed6-9eea-32ff29c4e6ad","system_id":"levelo_inurba_marseille","lat":43.29271,"lon":5.38452,"is_reserved":false,"is_disabled":false,"rental_uris":{"android":"levelo://app?vid=6af1af01-fb5c-4ed6-9eea-32ff29c4e6ad","ios":"levelo://app?vid=6af1af01-fb5c-4ed6-9eea-32ff29c4e6ad"},"vehicle_type_id":"4","last_reported":1744405720,"current_range_meters":9200,"station_id":"ce4bh692rcd13ifvqea0","pricing_plan_id":"cebpf4jnsgd1na2vs0mg"},{"bike_id":"eb113507-1b5d-4d7a-b91c-d596662895e6","system_id":"levelo_inurba_marseille","lat":43.2954,"lon":5.39374,"is_reserved":false,"is_disabled":false,"rental_uris":{"android":"levelo://app?vid=eb113507-1b5d-4d7a-b91c-d596662895e6","ios":"levelo://app?vid=eb113507-1b5d-4d7a-b91c-d596662895e6"},"vehicle_type_id":"4","last_reported":1744405720,"current_range_meters":9200,"station_id":"ce4bh292rcd13ifvqdf0","pricing_plan_id":"cebpf4jnsgd1na2vs0mg"},{"bike_id":"1dff8f07-6dd7-45ea-a444-7507ddb41759","system_id":"levelo_inurba_marseille","lat":43.29245,"lon":5.38413,"is_reserved":false,"is_disabled":false,"rental_uris":{"android":"levelo://app?vid=1dff8f07-6dd7-45ea-a444-7507ddb41759","ios":"levelo://app?vid=1dff8f07-6dd7-45ea-a444-7507ddb41759"},"vehicle_type_id":"4","last_reported":1744405720,"current_range_meters":9200,"station_id":"ce4bh692rcd13ifvqea0","pricing_plan_id":"cebpf4jnsgd1na2vs0mg"},{"bike_id":"f76d12dc-ebdf-46e3-89d0-897a377cfadf","system_id":"levelo_inurba_marseille","lat":43.29249,"lon":5.38439,"is_reserved":false,"is_disabled":true,"rental_uris":{"android":"levelo://app?vid=f76d12dc-ebdf-46e3-89d0-897a377cfadf","ios":"levelo://app?vid=f76d12dc-ebdf-46e3-89d0-897a377cfadf"},"vehicle_type_id":"4","last_reported":1744405720,"current_range_meters":9200,"station_id":"ce4bh692rcd13ifvqea0","pricing_plan_id":"cebpf4jnsgd1na2vs0mg"},{"bike_id":"de6ecc39-1534-4d0a-9a75-8bc5077ae536","system_id":"levelo_inurba_marseille","lat":43.25475,"lon":5.37649,"is_reserved":false,"is_disabled":false,"rental_uris":{"android":"levelo://app?vid=de6ecc39-1534-4d0a-9a75-8bc5077ae536","ios":"levelo://app?vid=de6ecc39-1534-4d0a-9a75-8bc5077ae536"},"vehicle_type_id":"4","last_reported":1744405720,"current_range_meters":9200,"station_id":"ce4bhh12rcd13ifvqff0","pricing_plan_id":"cebpf4jnsgd1na2vs0mg"},{"bike_id":"8b4c8d12-5212-410c-bdd4-63122234f668","system_id":"levelo_inurba_marseille","lat":43.2293,"lon":5.3537,"is_reserved":false,"is_disabled":false,"rental_uris":{"android":"levelo://app?vid=8b4c8d12-5212-410c-bdd4-63122234f668","ios":"levelo://app?vid=8b4c8d12-5212-410c-bdd4-63122234f668"},"vehicle_type_id":"4","last_reported":1744405720,"current_range_meters":9200,"station_id":"cpo3532slgdg3j2ikp40","pricing_plan_id":"cebpf4jnsgd1na2vs0mg"},{"bike_id":"f720b779-dab6-490b-ba7a-4f99672e7781","system_id":"levelo_inurba_marseille","lat":43.29239,"lon":5.3845,"is_reserved":false,"is_disabled":false,"rental_uris":{"android":"levelo://app?vid=f720b779-dab6-490b-ba7a-4f99672e7781","ios":"levelo://app?vid=f720b779-dab6-490b-ba7a-4f99672e7781"},"vehicle_type_id":"4","last_reported":1744405720,"current_range_meters":9600,"station_id":"ce4bh692rcd13ifvqea0","pricing_plan_id":"cebpf4jnsgd1na2vs0mg"},{"bike_id":"d8a5f16f-e402-41ff-ba4c-8496cc1e8ee2","system_id":"levelo_inurba_marseille","lat":43.283386,"lon":5.386736,"is_reserved":false,"is_disabled":false,"rental_uris":{"android":"levelo://app?vid=d8a5f16f-e402-41ff-ba4c-8496cc1e8ee2","ios":"levelo://app?vid=d8a5f16f-e402-41ff-ba4c-8496cc1e8ee2"},"vehicle_type_id":"4","last_reported":1744405720,"current_range_meters":9600,"station_id":"ce4bh492rcd13ifvqdvg","pricing_plan_id":"cebpf4jnsgd1na2vs0mg"},{"bike_id":"e9751933-edee-4513-aee8-c68c0a6d291d","system_id":"levelo_inurba_marseille","lat":43.29415,"lon":5.38632,"is_reserved":false,"is_disabled":false,"rental_uris":{"android":"levelo://app?vid=e9751933-edee-4513-aee8-c68c0a6d291d","ios":"levelo://app?vid=e9751933-edee-4513-aee8-c68c0a6d291d"},"vehicle_type_id":"4","last_reported":1744405720,"current_range_meters":9600,"station_id":"ce4bh2h2rcd13ifvqdh0","pricing_plan_id":"cebpf4jnsgd1na2vs0mg"},{"bike_id":"bac330a6-ef29-42f9-a2be-f40785cea4a5","system_id":"levelo_inurba_marseille","lat":43.29268,"lon":5.384467,"is_reserved":false,"is_disabled":false,"rental_uris":{"android":"levelo://app?vid=bac330a6-ef29-42f9-a2be-f40785cea4a5","ios":"levelo://app?vid=bac330a6-ef29-42f9-a2be-f40785cea4a5"},"vehicle_type_id":"4","last_reported":1744405720,"current_range_meters":9600,"station_id":"ce4bh692rcd13ifvqea0","pricing_plan_id":"cebpf4jnsgd1na2vs0mg"},{"bike_id":"20eb53d5-dc7b-4fbe-a6da-7e0a348438c0","system_id":"levelo_inurba_marseille","lat":43.27915,"lon":5.39588,"is_reserved":false,"is_disabled":true,"rental_uris":{"android":"levelo://app?vid=20eb53d5-dc7b-4fbe-a6da-7e0a348438c0","ios":"levelo://app?vid=20eb53d5-dc7b-4fbe-a6da-7e0a348438c0"},"vehicle_type_id":"4","last_reported":1744405720,"current_range_meters":9600,"station_id":"ce4bhf92rcd13ifvqf40","pricing_plan_id":"cebpf4jnsgd1na2vs0mg"},{"bike_id":"94455896-0f19-4fae-bd72-9879f01fcd6e","system_id":"levelo_inurba_marseille","lat":43.29531,"lon":5.42257,"is_reserved":false,"is_disabled":true,"rental_uris":{"android":"levelo://app?vid=94455896-0f19-4fae-bd72-9879f01fcd6e","ios":"levelo://app?vid=94455896-0f19-4fae-bd72-9879f01fcd6e"},"vehicle_type_id":"4","last_reported":1744405720,"current_range_meters":9600,"station_id":"ce4bhph2rcd13ifvqhdg","pricing_plan_id":"cebpf4jnsgd1na2vs0mg"},{"bike_id":"e0487cbb-6aa7-4fe8-9aa7-7b771d7aec2a","system_id":"levelo_inurba_marseille","lat":43.26227,"lon":5.40434,"is_reserved":false,"is_disabled":false,"rental_uris":{"android":"levelo://app?vid=e0487cbb-6aa7-4fe8-9aa7-7b771d7aec2a","ios":"levelo://app?vid=e0487cbb-6aa7-4fe8-9aa7-7b771d7aec2a"},"vehicle_type_id":"4","last_reported":1744405720,"current_range_meters":9600,"station_id":"ce4bhmh2rcd13ifvqgmg","pricing_plan_id":"cebpf4jnsgd1na2vs0mg"},{"bike_id":"f063dca3-e79e-4d77-ae54-1a16a2aa281d","system_id":"levelo_inurba_marseille","lat":43.24649,"lon":5.389046,"is_reserved":false,"is_disabled":false,"rental_uris":{"android":"levelo://app?vid=f063dca3-e79e-4d77-ae54-1a16a2aa281d","ios":"levelo://app?vid=f063dca3-e79e-4d77-ae54-1a16a2aa281d"},"vehicle_type_id":"4","last_reported":1744405720,"current_range_meters":9600,"station_id":"ce4bhg12rcd13ifvqf60","pricing_plan_id":"cebpf4jnsgd1na2vs0mg"},{"bike_id":"113afd11-9db6-47fb-bc1d-cd95f87b9983","system_id":"levelo_inurba_marseille","lat":43.27221,"lon":5.39181,"is_reserved":false,"is_disabled":false,"rental_uris":{"android":"levelo://app?vid=113afd11-9db6-47fb-bc1d-cd95f87b9983","ios":"levelo://app?vid=113afd11-9db6-47fb-bc1d-cd95f87b9983"},"vehicle_type_id":"4","last_reported":1744405720,"current_range_meters":10000,"station_id":"ce4bhhp2rcd13ifvqfm0","pricing_plan_id":"cebpf4jnsgd1na2vs0mg"},{"bike_id":"c3cc829e-2a6d-4775-910e-ac2ddd4d567f","system_id":"levelo_inurba_marseille","lat":43.2984,"lon":5.36269,"is_reserved":false,"is_disabled":false,"rental_uris":{"android":"levelo://app?vid=c3cc829e-2a6d-4775-910e-ac2ddd4d567f","ios":"levelo://app?vid=c3cc829e-2a6d-4775-910e-ac2ddd4d567f"},"vehicle_type_id":"4","last_reported":1744405720,"current_range_meters":10000,"station_id":"ce4bgpp2rcd13ifvqc3g","pricing_plan_id":"cebpf4jnsgd1na2vs0mg"},{"bike_id":"cc83a7aa-57a1-4769-9137-8531613b4691","system_id":"levelo_inurba_marseille","lat":43.31239,"lon":5.37284,"is_reserved":false,"is_disabled":false,"rental_uris":{"android":"levelo://app?vid=cc83a7aa-57a1-4769-9137-8531613b4691","ios":"levelo://app?vid=cc83a7aa-57a1-4769-9137-8531613b4691"},"vehicle_type_id":"4","last_reported":1744405720,"current_range_meters":10000,"station_id":"","pricing_plan_id":"cebpf4jnsgd1na2vs0mg"},{"bike_id":"3a857f2f-58ff-4261-8250-bfdb1d655252","system_id":"levelo_inurba_marseille","lat":43.29217,"lon":5.38439,"is_reserved":false,"is_disabled":false,"rental_uris":{"android":"levelo://app?vid=3a857f2f-58ff-4261-8250-bfdb1d655252","ios":"levelo://app?vid=3a857f2f-58ff-4261-8250-bfdb1d655252"},"vehicle_type_id":"4","last_reported":1744405720,"current_range_meters":10000,"station_id":"","pricing_plan_id":"cebpf4jnsgd1na2vs0mg"},{"bike_id":"5cbd6920-e86e-449a-9470-bc78d120719f","system_id":"levelo_inurba_marseille","lat":43.292676,"lon":5.384447,"is_reserved":false,"is_disabled":false,"rental_uris":{"android":"levelo://app?vid=5cbd6920-e86e-449a-9470-bc78d120719f","ios":"levelo://app?vid=5cbd6920-e86e-449a-9470-bc78d120719f"},"vehicle_type_id":"4","last_reported":1744405720,"current_range_meters":10000,"station_id":"ce4bh692rcd13ifvqea0","pricing_plan_id":"cebpf4jnsgd1na2vs0mg"},{"bike_id":"fa21bfb7-fa09-4e26-aea1-669f04b06ce8","system_id":"levelo_inurba_marseille","lat":43.29529,"lon":5.3905,"is_reserved":false,"is_disabled":false,"rental_uris":{"android":"levelo://app?vid=fa21bfb7-fa09-4e26-aea1-669f04b06ce8","ios":"levelo://app?vid=fa21bfb7-fa09-4e26-aea1-669f04b06ce8"},"vehicle_type_id":"4","last_reported":1744405720,"current_range_meters":10800,"station_id":"ce4bh3p2rcd13ifvqdp0","pricing_plan_id":"cebpf4jnsgd1na2vs0mg"},{"bike_id":"3ee02dd5-e134-4a7b-b368-7d39e7c2bfb8","system_id":"levelo_inurba_marseille","lat":43.28664,"lon":5.36359,"is_reserved":false,"is_disabled":false,"rental_uris":{"android":"levelo://app?vid=3ee02dd5-e134-4a7b-b368-7d39e7c2bfb8","ios":"levelo://app?vid=3ee02dd5-e134-4a7b-b368-7d39e7c2bfb8"},"vehicle_type_id":"4","last_reported":1744405720,"current_range_meters":10800,"station_id":"ce4bhah2rcd13ifvqej0","pricing_plan_id":"cebpf4jnsgd1na2vs0mg"},{"bike_id":"b16e3ba6-6941-4968-8bdf-cf8b8bb28c20","system_id":"levelo_inurba_marseille","lat":43.25498,"lon":5.37648,"is_reserved":false,"is_disabled":false,"rental_uris":{"android":"levelo://app?vid=b16e3ba6-6941-4968-8bdf-cf8b8bb28c20","ios":"levelo://app?vid=b16e3ba6-6941-4968-8bdf-cf8b8bb28c20"},"vehicle_type_id":"4","last_reported":1744405720,"current_range_meters":10800,"station_id":"ce4bhh12rcd13ifvqff0","pricing_plan_id":"cebpf4jnsgd1na2vs0mg"},{"bike_id":"463b41fd-37bb-48c0-a6e4-12f737a3d7cf","system_id":"levelo_inurba_marseille","lat":43.26991,"lon":5.4028,"is_reserved":false,"is_disabled":true,"rental_uris":{"android":"levelo://app?vid=463b41fd-37bb-48c0-a6e4-12f737a3d7cf","ios":"levelo://app?vid=463b41fd-37bb-48c0-a6e4-12f737a3d7cf"},"vehicle_type_id":"4","last_reported":1744405720,"current_range_meters":10800,"station_id":"cjm6bp8fraef2m0cb0m0","pricing_plan_id":"cebpf4jnsgd1na2vs0mg"},{"bike_id":"41fcc547-f15f-4157-8213-6af94cca17a4","system_id":"levelo_inurba_marseille","lat":43.29439,"lon":5.38607,"is_reserved":false,"is_disabled":false,"rental_uris":{"android":"levelo://app?vid=41fcc547-f15f-4157-8213-6af94cca17a4","ios":"levelo://app?vid=41fcc547-f15f-4157-8213-6af94cca17a4"},"vehicle_type_id":"4","last_reported":1744405720,"current_range_meters":10800,"station_id":"ce4bh2h2rcd13ifvqdh0","pricing_plan_id":"cebpf4jnsgd1na2vs0mg"},{"bike_id":"8862917b-7516-454b-9eb8-b658f0f3663d","system_id":"levelo_inurba_marseille","lat":43.29245,"lon":5.38453,"is_reserved":false,"is_disabled":false,"rental_uris":{"android":"levelo://app?vid=8862917b-7516-454b-9eb8-b658f0f3663d","ios":"levelo://app?vid=8862917b-7516-454b-9eb8-b658f0f3663d"},"vehicle_type_id":"4","last_reported":1744405720,"current_range_meters":10800,"station_id":"ce4bh692rcd13ifvqea0","pricing_plan_id":"cebpf4jnsgd1na2vs0mg"},{"bike_id":"895d25e6-f40a-4cdd-9146-0936ab5e03f9","system_id":"levelo_inurba_marseille","lat":43.25489,"lon":5.37659,"is_reserved":false,"is_disabled":false,"rental_uris":{"android":"levelo://app?vid=895d25e6-f40a-4cdd-9146-0936ab5e03f9","ios":"levelo://app?vid=895d25e6-f40a-4cdd-9146-0936ab5e03f9"},"vehicle_type_id":"4","last_reported":1744405720,"current_range_meters":10800,"station_id":"ce4bhh12rcd13ifvqff0","pricing_plan_id":"cebpf4jnsgd1na2vs0mg"},{"bike_id":"72adaa87-94dc-4774-aca0-5147bc57bd16","system_id":"levelo_inurba_marseille","lat":43.26025,"lon":5.41741,"is_reserved":false,"is_disabled":false,"rental_uris":{"android":"levelo://app?vid=72adaa87-94dc-4774-aca0-5147bc57bd16","ios":"levelo://app?vid=72adaa87-94dc-4774-aca0-5147bc57bd16"},"vehicle_type_id":"4","last_reported":1744405720,"current_range_meters":10800,"station_id":"","pricing_plan_id":"cebpf4jnsgd1na2vs0mg"},{"bike_id":"3f08cc69-711e-4264-b923-68891203ffa4","system_id":"levelo_inurba_marseille","lat":43.32285,"lon":5.38243,"is_reserved":false,"is_disabled":false,"rental_uris":{"android":"levelo://app?vid=3f08cc69-711e-4264-b923-68891203ffa4","ios":"levelo://app?vid=3f08cc69-711e-4264-b923-68891203ffa4"},"vehicle_type_id":"4","last_reported":1744405720,"current_range_meters":10800,"station_id":"ce4bhr12rcd13ifvqhqg","pricing_plan_id":"cebpf4jnsgd1na2vs0mg"},{"bike_id":"70000397-6f58-44e7-bb2d-293d11a360d9","system_id":"levelo_inurba_marseille","lat":43.25495,"lon":5.3765,"is_reserved":false,"is_disabled":false,"rental_uris":{"android":"levelo://app?vid=70000397-6f58-44e7-bb2d-293d11a360d9","ios":"levelo://app?vid=70000397-6f58-44e7-bb2d-293d11a360d9"},"vehicle_type_id":"4","last_reported":1744405720,"current_range_meters":10800,"station_id":"ce4bhh12rcd13ifvqff0","pricing_plan_id":"cebpf4jnsgd1na2vs0mg"},{"bike_id":"9b0093a9-79e0-4880-82c2-96b353b4de72","system_id":"levelo_inurba_marseille","lat":43.30323,"lon":5.40434,"is_reserved":false,"is_disabled":true,"rental_uris":{"android":"levelo://app?vid=9b0093a9-79e0-4880-82c2-96b353b4de72","ios":"levelo://app?vid=9b0093a9-79e0-4880-82c2-96b353b4de72"},"vehicle_type_id":"4","last_reported":1744405720,"current_range_meters":10800,"station_id":"ce4bh012rcd13ifvqd10","pricing_plan_id":"cebpf4jnsgd1na2vs0mg"},{"bike_id":"49187ea3-d777-461d-9d76-0a343326d075","system_id":"levelo_inurba_marseille","lat":43.29542,"lon":5.38538,"is_reserved":false,"is_disabled":false,"rental_uris":{"android":"levelo://app?vid=49187ea3-d777-461d-9d76-0a343326d075","ios":"levelo://app?vid=49187ea3-d777-461d-9d76-0a343326d075"},"vehicle_type_id":"4","last_reported":1744405720,"current_range_meters":11200,"station_id":"ce4bgih2rcd13ifvqba0","pricing_plan_id":"cebpf4jnsgd1na2vs0mg"},{"bike_id":"a46cbe90-5786-4f39-9aef-47ce0b82cebc","system_id":"levelo_inurba_marseille","lat":43.29526,"lon":5.38576,"is_reserved":false,"is_disabled":false,"rental_uris":{"android":"levelo://app?vid=a46cbe90-5786-4f39-9aef-47ce0b82cebc","ios":"levelo://app?vid=a46cbe90-5786-4f39-9aef-47ce0b82cebc"},"vehicle_type_id":"4","last_reported":1744405720,"current_range_meters":11200,"station_id":"ce4bgih2rcd13ifvqba0","pricing_plan_id":"cebpf4jnsgd1na2vs0mg"},{"bike_id":"515e38b1-efa8-477a-b6e8-19f7b6379267","system_id":"levelo_inurba_marseille","lat":43.29422,"lon":5.38647,"is_reserved":false,"is_disabled":false,"rental_uris":{"android":"levelo://app?vid=515e38b1-efa8-477a-b6e8-19f7b6379267","ios":"levelo://app?vid=515e38b1-efa8-477a-b6e8-19f7b6379267"},"vehicle_type_id":"4","last_reported":1744405720,"current_range_meters":11200,"station_id":"ce4bh2h2rcd13ifvqdh0","pricing_plan_id":"cebpf4jnsgd1na2vs0mg"},{"bike_id":"da42d415-bd3a-4d7e-8ba8-ec0cf4fb2f13","system_id":"levelo_inurba_marseille","lat":43.3095,"lon":5.39052,"is_reserved":false,"is_disabled":false,"rental_uris":{"android":"levelo://app?vid=da42d415-bd3a-4d7e-8ba8-ec0cf4fb2f13","ios":"levelo://app?vid=da42d415-bd3a-4d7e-8ba8-ec0cf4fb2f13"},"vehicle_type_id":"4","last_reported":1744405720,"current_range_meters":11200,"station_id":"ce4bgup2rcd13ifvqco0","pricing_plan_id":"cebpf4jnsgd1na2vs0mg"},{"bike_id":"536fb221-586b-4fab-83c7-32565d76ba4b","system_id":"levelo_inurba_marseille","lat":43.27972,"lon":5.3873,"is_reserved":false,"is_disabled":false,"rental_uris":{"android":"levelo://app?vid=536fb221-586b-4fab-83c7-32565d76ba4b","ios":"levelo://app?vid=536fb221-586b-4fab-83c7-32565d76ba4b"},"vehicle_type_id":"4","last_reported":1744405720,"current_range_meters":11600,"station_id":"ce4bhg12rcd13ifvqf80","pricing_plan_id":"cebpf4jnsgd1na2vs0mg"},{"bike_id":"b3d6653b-937f-48a1-98bd-7ea213ecf2f0","system_id":"levelo_inurba_marseille","lat":43.309326,"lon":5.40131,"is_reserved":false,"is_disabled":false,"rental_uris":{"android":"levelo://app?vid=b3d6653b-937f-48a1-98bd-7ea213ecf2f0","ios":"levelo://app?vid=b3d6653b-937f-48a1-98bd-7ea213ecf2f0"},"vehicle_type_id":"4","last_reported":1744405720,"current_range_meters":12000,"station_id":"ce4bgup2rcd13ifvqco0","pricing_plan_id":"cebpf4jnsgd1na2vs0mg"},{"bike_id":"d83056a7-bc1e-47b0-b485-d26f9289027b","system_id":"levelo_inurba_marseille","lat":43.29802,"lon":5.38067,"is_reserved":false,"is_disabled":false,"rental_uris":{"android":"levelo://app?vid=d83056a7-bc1e-47b0-b485-d26f9289027b","ios":"levelo://app?vid=d83056a7-bc1e-47b0-b485-d26f9289027b"},"vehicle_type_id":"4","last_reported":1744405720,"current_range_meters":12000,"station_id":"ce4bgip2rcd13ifvqbb0","pricing_plan_id":"cebpf4jnsgd1na2vs0mg"},{"bike_id":"36bfc026-b641-4b92-b329-4db9b129a5e9","system_id":"levelo_inurba_marseille","lat":43.29397,"lon":5.38627,"is_reserved":false,"is_disabled":false,"rental_uris":{"android":"levelo://app?vid=36bfc026-b641-4b92-b329-4db9b129a5e9","ios":"levelo://app?vid=36bfc026-b641-4b92-b329-4db9b129a5e9"},"vehicle_type_id":"4","last_reported":1744405720,"current_range_meters":12000,"station_id":"ce4bh2h2rcd13ifvqdh0","pricing_plan_id":"cebpf4jnsgd1na2vs0mg"},{"bike_id":"f013d591-cf71-4e4b-aaea-42b8b6448226","system_id":"levelo_inurba_marseille","lat":43.29431,"lon":5.39748,"is_reserved":false,"is_disabled":false,"rental_uris":{"android":"levelo://app?vid=f013d591-cf71-4e4b-aaea-42b8b6448226","ios":"levelo://app?vid=f013d591-cf71-4e4b-aaea-42b8b6448226"},"vehicle_type_id":"4","last_reported":1744405720,"current_range_meters":12000,"station_id":"ce4bh3h2rcd13ifvqdo0","pricing_plan_id":"cebpf4jnsgd1na2vs0mg"},{"bike_id":"e731be2c-11e9-47e9-8d2b-48cf0aa36622","system_id":"levelo_inurba_marseille","lat":43.29235,"lon":5.3844,"is_reserved":false,"is_disabled":false,"rental_uris":{"android":"levelo://app?vid=e731be2c-11e9-47e9-8d2b-48cf0aa36622","ios":"levelo://app?vid=e731be2c-11e9-47e9-8d2b-48cf0aa36622"},"vehicle_type_id":"4","last_reported":1744405720,"current_range_meters":12000,"station_id":"ce4bh692rcd13ifvqea0","pricing_plan_id":"cebpf4jnsgd1na2vs0mg"},{"bike_id":"13ed6f00-07a5-4007-b421-5243e6a76b34","system_id":"levelo_inurba_marseille","lat":43.26504,"lon":5.39529,"is_reserved":false,"is_disabled":false,"rental_uris":{"android":"levelo://app?vid=13ed6f00-07a5-4007-b421-5243e6a76b34","ios":"levelo://app?vid=13ed6f00-07a5-4007-b421-5243e6a76b34"},"vehicle_type_id":"4","last_reported":1744405720,"current_range_meters":12000,"station_id":"ce4bhi12rcd13ifvqfq0","pricing_plan_id":"cebpf4jnsgd1na2vs0mg"},{"bike_id":"4bcdcc82-d58d-4172-b626-a8c82408681c","system_id":"levelo_inurba_marseille","lat":43.31213,"lon":5.36845,"is_reserved":false,"is_disabled":true,"rental_uris":{"android":"levelo://app?vid=4bcdcc82-d58d-4172-b626-a8c82408681c","ios":"levelo://app?vid=4bcdcc82-d58d-4172-b626-a8c82408681c"},"vehicle_type_id":"4","last_reported":1744405720,"current_range_meters":12000,"station_id":"ce4bgl92rcd13ifvqbq0","pricing_plan_id":"cebpf4jnsgd1na2vs0mg"},{"bike_id":"411f282c-b696-41a4-888f-752e1134c529","system_id":"levelo_inurba_marseille","lat":43.26194,"lon":5.37449,"is_reserved":false,"is_disabled":true,"rental_uris":{"android":"levelo://app?vid=411f282c-b696-41a4-888f-752e1134c529","ios":"levelo://app?vid=411f282c-b696-41a4-888f-752e1134c529"},"vehicle_type_id":"4","last_reported":1744405720,"current_range_meters":12000,"station_id":"ce4bhgp2rcd13ifvqfc0","pricing_plan_id":"cebpf4jnsgd1na2vs0mg"},{"bike_id":"76f6ae46-bcbb-427e-8cee-b48737d41b2b","system_id":"levelo_inurba_marseille","lat":43.29974,"lon":5.38495,"is_reserved":false,"is_disabled":false,"rental_uris":{"android":"levelo://app?vid=76f6ae46-bcbb-427e-8cee-b48737d41b2b","ios":"levelo://app?vid=76f6ae46-bcbb-427e-8cee-b48737d41b2b"},"vehicle_type_id":"4","last_reported":1744405720,"current_range_meters":12000,"station_id":"ce4bgj92rcd13ifvqbd0","pricing_plan_id":"cebpf4jnsgd1na2vs0mg"},{"bike_id":"f21cce43-7e86-42c4-8a4d-3c922080ab5c","system_id":"levelo_inurba_marseille","lat":43.2895,"lon":5.36625,"is_reserved":false,"is_disabled":true,"rental_uris":{"android":"levelo://app?vid=f21cce43-7e86-42c4-8a4d-3c922080ab5c","ios":"levelo://app?vid=f21cce43-7e86-42c4-8a4d-3c922080ab5c"},"vehicle_type_id":"4","last_reported":1744405720,"current_range_meters":12400,"station_id":"ce4bhap2rcd13ifvqek0","pricing_plan_id":"cebpf4jnsgd1na2vs0mg"},{"bike_id":"a52d5a87-be36-468b-a219-b655dcd479c9","system_id":"levelo_inurba_marseille","lat":43.29513,"lon":5.38553,"is_reserved":false,"is_disabled":false,"rental_uris":{"android":"levelo://app?vid=a52d5a87-be36-468b-a219-b655dcd479c9","ios":"levelo://app?vid=a52d5a87-be36-468b-a219-b655dcd479c9"},"vehicle_type_id":"4","last_reported":1744405720,"current_range_meters":12400,"station_id":"ce4bgih2rcd13ifvqba0","pricing_plan_id":"cebpf4jnsgd1na2vs0mg"},{"bike_id":"d885adc5-16db-460e-8956-6da2742a19cd","system_id":"levelo_inurba_marseille","lat":43.3187,"lon":5.40725,"is_reserved":false,"is_disabled":false,"rental_uris":{"android":"levelo://app?vid=d885adc5-16db-460e-8956-6da2742a19cd","ios":"levelo://app?vid=d885adc5-16db-460e-8956-6da2742a19cd"},"vehicle_type_id":"4","last_reported":1744405720,"current_range_meters":12400,"station_id":"ce4bhq12rcd13ifvqhig","pricing_plan_id":"cebpf4jnsgd1na2vs0mg"},{"bike_id":"6d6dd771-88a9-4134-a819-22eb3d37a206","system_id":"levelo_inurba_marseille","lat":43.26826,"lon":5.38895,"is_reserved":false,"is_disabled":false,"rental_uris":{"android":"levelo://app?vid=6d6dd771-88a9-4134-a819-22eb3d37a206","ios":"levelo://app?vid=6d6dd771-88a9-4134-a819-22eb3d37a206"},"vehicle_type_id":"4","last_reported":1744405720,"current_range_meters":12400,"station_id":"ce4bhhh2rcd13ifvqfl0","pricing_plan_id":"cebpf4jnsgd1na2vs0mg"},{"bike_id":"8c58f2fa-99e1-41f8-bf90-9c1648b679b1","system_id":"levelo_inurba_marseille","lat":43.27308,"lon":5.41425,"is_reserved":false,"is_disabled":false,"rental_uris":{"android":"levelo://app?vid=8c58f2fa-99e1-41f8-bf90-9c1648b679b1","ios":"levelo://app?vid=8c58f2fa-99e1-41f8-bf90-9c1648b679b1"},"vehicle_type_id":"4","last_reported":1744405720,"current_range_meters":12400,"station_id":"","pricing_plan_id":"cebpf4jnsgd1na2vs0mg"},{"bike_id":"df7dcc93-da1a-4854-9050-cdf37f9f7fc2","system_id":"levelo_inurba_marseille","lat":43.29267,"lon":5.38443,"is_reserved":false,"is_disabled":false,"rental_uris":{"android":"levelo://app?vid=df7dcc93-da1a-4854-9050-cdf37f9f7fc2","ios":"levelo://app?vid=df7dcc93-da1a-4854-9050-cdf37f9f7fc2"},"vehicle_type_id":"4","last_reported":1744405720,"current_range_meters":12400,"station_id":"ce4bh692rcd13ifvqea0","pricing_plan_id":"cebpf4jnsgd1na2vs0mg"},{"bike_id":"750597eb-e194-44cb-8c79-1ffe82614dbc","system_id":"levelo_inurba_marseille","lat":43.28613,"lon":5.37063,"is_reserved":false,"is_disabled":false,"rental_uris":{"android":"levelo://app?vid=750597eb-e194-44cb-8c79-1ffe82614dbc","ios":"levelo://app?vid=750597eb-e194-44cb-8c79-1ffe82614dbc"},"vehicle_type_id":"4","last_reported":1744405720,"current_range_meters":12400,"station_id":"ce4bht12rcd13ifvqi60","pricing_plan_id":"cebpf4jnsgd1na2vs0mg"},{"bike_id":"4bfe69a6-d68b-4e37-ac82-6ebde5d6d355","system_id":"levelo_inurba_marseille","lat":43.290175,"lon":5.386361,"is_reserved":false,"is_disabled":false,"rental_uris":{"android":"levelo://app?vid=4bfe69a6-d68b-4e37-ac82-6ebde5d6d355","ios":"levelo://app?vid=4bfe69a6-d68b-4e37-ac82-6ebde5d6d355"},"vehicle_type_id":"4","last_reported":1744405720,"current_range_meters":12800,"station_id":"ce4bh4p2rcd13ifvqe0g","pricing_plan_id":"cebpf4jnsgd1na2vs0mg"},{"bike_id":"3ac73e63-1619-4c1b-a7d0-7311424e94ef","system_id":"levelo_inurba_marseille","lat":43.28942,"lon":5.37657,"is_reserved":false,"is_disabled":false,"rental_uris":{"android":"levelo://app?vid=3ac73e63-1619-4c1b-a7d0-7311424e94ef","ios":"levelo://app?vid=3ac73e63-1619-4c1b-a7d0-7311424e94ef"},"vehicle_type_id":"4","last_reported":1744405720,"current_range_meters":12800,"station_id":"","pricing_plan_id":"cebpf4jnsgd1na2vs0mg"},{"bike_id":"e1b54302-ba21-46e7-84ad-43d4c0b48e2a","system_id":"levelo_inurba_marseille","lat":43.314976,"lon":5.372999,"is_reserved":false,"is_disabled":false,"rental_uris":{"android":"levelo://app?vid=e1b54302-ba21-46e7-84ad-43d4c0b48e2a","ios":"levelo://app?vid=e1b54302-ba21-46e7-84ad-43d4c0b48e2a"},"vehicle_type_id":"4","last_reported":1744405720,"current_range_meters":12800,"station_id":"ce4bgt12rcd13ifvqcd0","pricing_plan_id":"cebpf4jnsgd1na2vs0mg"},{"bike_id":"1db3f027-3907-4a6a-880b-45e50db5828b","system_id":"levelo_inurba_marseille","lat":43.25486,"lon":5.37633,"is_reserved":false,"is_disabled":false,"rental_uris":{"android":"levelo://app?vid=1db3f027-3907-4a6a-880b-45e50db5828b","ios":"levelo://app?vid=1db3f027-3907-4a6a-880b-45e50db5828b"},"vehicle_type_id":"4","last_reported":1744405720,"current_range_meters":12800,"station_id":"ce4bhh12rcd13ifvqff0","pricing_plan_id":"cebpf4jnsgd1na2vs0mg"},{"bike_id":"4c893399-b4ed-40ed-a49f-713da320f269","system_id":"levelo_inurba_marseille","lat":43.29861,"lon":5.37841,"is_reserved":false,"is_disabled":false,"rental_uris":{"android":"levelo://app?vid=4c893399-b4ed-40ed-a49f-713da320f269","ios":"levelo://app?vid=4c893399-b4ed-40ed-a49f-713da320f269"},"vehicle_type_id":"4","last_reported":1744405720,"current_range_meters":12800,"station_id":"","pricing_plan_id":"cebpf4jnsgd1na2vs0mg"},{"bike_id":"baa94301-2739-4a37-a3ac-e89976729731","system_id":"levelo_inurba_marseille","lat":43.2953,"lon":5.38561,"is_reserved":false,"is_disabled":false,"rental_uris":{"android":"levelo://app?vid=baa94301-2739-4a37-a3ac-e89976729731","ios":"levelo://app?vid=baa94301-2739-4a37-a3ac-e89976729731"},"vehicle_type_id":"4","last_reported":1744405720,"current_range_meters":12800,"station_id":"ce4bgih2rcd13ifvqba0","pricing_plan_id":"cebpf4jnsgd1na2vs0mg"},{"bike_id":"6678e618-88e6-4af0-a351-d6104ef33e9c","system_id":"levelo_inurba_marseille","lat":43.31239,"lon":5.36864,"is_reserved":false,"is_disabled":false,"rental_uris":{"android":"levelo://app?vid=6678e618-88e6-4af0-a351-d6104ef33e9c","ios":"levelo://app?vid=6678e618-88e6-4af0-a351-d6104ef33e9c"},"vehicle_type_id":"4","last_reported":1744405720,"current_range_meters":12800,"station_id":"ce4bgl92rcd13ifvqbq0","pricing_plan_id":"cebpf4jnsgd1na2vs0mg"},{"bike_id":"9c5fcdf5-7a8b-4b89-ab84-12045833da1b","system_id":"levelo_inurba_marseille","lat":43.24681,"lon":5.38153,"is_reserved":false,"is_disabled":false,"rental_uris":{"android":"levelo://app?vid=9c5fcdf5-7a8b-4b89-ab84-12045833da1b","ios":"levelo://app?vid=9c5fcdf5-7a8b-4b89-ab84-12045833da1b"},"vehicle_type_id":"4","last_reported":1744405720,"current_range_meters":12800,"station_id":"ce4bhih2rcd13ifvqfr0","pricing_plan_id":"cebpf4jnsgd1na2vs0mg"},{"bike_id":"32512c24-e776-435e-827c-c1b5b726d1b5","system_id":"levelo_inurba_marseille","lat":43.29422,"lon":5.38629,"is_reserved":false,"is_disabled":false,"rental_uris":{"android":"levelo://app?vid=32512c24-e776-435e-827c-c1b5b726d1b5","ios":"levelo://app?vid=32512c24-e776-435e-827c-c1b5b726d1b5"},"vehicle_type_id":"4","last_reported":1744405720,"current_range_meters":13600,"station_id":"ce4bh2h2rcd13ifvqdh0","pricing_plan_id":"cebpf4jnsgd1na2vs0mg"},{"bike_id":"1d9f8ae7-f0dc-4cce-9457-b473145084e7","system_id":"levelo_inurba_marseille","lat":43.29506,"lon":5.38525,"is_reserved":false,"is_disabled":false,"rental_uris":{"android":"levelo://app?vid=1d9f8ae7-f0dc-4cce-9457-b473145084e7","ios":"levelo://app?vid=1d9f8ae7-f0dc-4cce-9457-b473145084e7"},"vehicle_type_id":"4","last_reported":1744405720,"current_range_meters":13600,"station_id":"ce4bgih2rcd13ifvqba0","pricing_plan_id":"cebpf4jnsgd1na2vs0mg"},{"bike_id":"d38e0e5e-1441-423a-9774-3196b1a1cb17","system_id":"levelo_inurba_marseille","lat":43.30015,"lon":5.40004,"is_reserved":false,"is_disabled":false,"rental_uris":{"android":"levelo://app?vid=d38e0e5e-1441-423a-9774-3196b1a1cb17","ios":"levelo://app?vid=d38e0e5e-1441-423a-9774-3196b1a1cb17"},"vehicle_type_id":"4","last_reported":1744405720,"current_range_meters":13600,"station_id":"","pricing_plan_id":"cebpf4jnsgd1na2vs0mg"},{"bike_id":"51737ed7-e52d-4dd7-9fed-d5b20966219d","system_id":"levelo_inurba_marseille","lat":43.29989,"lon":5.38491,"is_reserved":false,"is_disabled":false,"rental_uris":{"android":"levelo://app?vid=51737ed7-e52d-4dd7-9fed-d5b20966219d","ios":"levelo://app?vid=51737ed7-e52d-4dd7-9fed-d5b20966219d"},"vehicle_type_id":"4","last_reported":1744405720,"current_range_meters":13600,"station_id":"ce4bgj92rcd13ifvqbd0","pricing_plan_id":"cebpf4jnsgd1na2vs0mg"},{"bike_id":"4a0973b0-92a0-41e8-9b0d-a99e944bafe0","system_id":"levelo_inurba_marseille","lat":43.34491,"lon":5.41269,"is_reserved":false,"is_disabled":false,"rental_uris":{"android":"levelo://app?vid=4a0973b0-92a0-41e8-9b0d-a99e944bafe0","ios":"levelo://app?vid=4a0973b0-92a0-41e8-9b0d-a99e944bafe0"},"vehicle_type_id":"4","last_reported":1744405720,"current_range_meters":13600,"station_id":"","pricing_plan_id":"cebpf4jnsgd1na2vs0mg"},{"bike_id":"26152564-6f7d-44e1-b108-6a4513d82c2a","system_id":"levelo_inurba_marseille","lat":43.2943,"lon":5.3862,"is_reserved":false,"is_disabled":false,"rental_uris":{"android":"levelo://app?vid=26152564-6f7d-44e1-b108-6a4513d82c2a","ios":"levelo://app?vid=26152564-6f7d-44e1-b108-6a4513d82c2a"},"vehicle_type_id":"4","last_reported":1744405720,"current_range_meters":13600,"station_id":"ce4bh2h2rcd13ifvqdh0","pricing_plan_id":"cebpf4jnsgd1na2vs0mg"},{"bike_id":"4651fc10-fe57-460e-89c6-9ba891098581","system_id":"levelo_inurba_marseille","lat":43.24168,"lon":5.36383,"is_reserved":false,"is_disabled":false,"rental_uris":{"android":"levelo://app?vid=4651fc10-fe57-460e-89c6-9ba891098581","ios":"levelo://app?vid=4651fc10-fe57-460e-89c6-9ba891098581"},"vehicle_type_id":"4","last_reported":1744405720,"current_range_meters":13600,"station_id":"cpo36qri1sfpv3e86is0","pricing_plan_id":"cebpf4jnsgd1na2vs0mg"},{"bike_id":"db76cb04-3e62-4c98-a823-7d485279a973","system_id":"levelo_inurba_marseille","lat":43.31367,"lon":5.38493,"is_reserved":false,"is_disabled":false,"rental_uris":{"android":"levelo://app?vid=db76cb04-3e62-4c98-a823-7d485279a973","ios":"levelo://app?vid=db76cb04-3e62-4c98-a823-7d485279a973"},"vehicle_type_id":"4","last_reported":1744405720,"current_range_meters":13600,"station_id":"ce4bgt92rcd13ifvqcf0","pricing_plan_id":"cebpf4jnsgd1na2vs0mg"},{"bike_id":"27e836aa-5012-4b4c-a35c-f1a3cd78effe","system_id":"levelo_inurba_marseille","lat":43.24662,"lon":5.38156,"is_reserved":false,"is_disabled":false,"rental_uris":{"android":"levelo://app?vid=27e836aa-5012-4b4c-a35c-f1a3cd78effe","ios":"levelo://app?vid=27e836aa-5012-4b4c-a35c-f1a3cd78effe"},"vehicle_type_id":"4","last_reported":1744405720,"current_range_meters":13600,"station_id":"ce4bhih2rcd13ifvqfr0","pricing_plan_id":"cebpf4jnsgd1na2vs0mg"},{"bike_id":"16fd30b1-cad6-4fc5-9de5-c7170be035f0","system_id":"levelo_inurba_marseille","lat":43.25713,"lon":5.41098,"is_reserved":false,"is_disabled":false,"rental_uris":{"android":"levelo://app?vid=16fd30b1-cad6-4fc5-9de5-c7170be035f0","ios":"levelo://app?vid=16fd30b1-cad6-4fc5-9de5-c7170be035f0"},"vehicle_type_id":"4","last_reported":1744405720,"current_range_meters":13600,"station_id":"ce4bhkp2rcd13ifvqgd0","pricing_plan_id":"cebpf4jnsgd1na2vs0mg"},{"bike_id":"30d6eeaf-48e0-4bb4-8dbd-2632fc82b2e2","system_id":"levelo_inurba_marseille","lat":43.30791,"lon":5.43527,"is_reserved":false,"is_disabled":false,"rental_uris":{"android":"levelo://app?vid=30d6eeaf-48e0-4bb4-8dbd-2632fc82b2e2","ios":"levelo://app?vid=30d6eeaf-48e0-4bb4-8dbd-2632fc82b2e2"},"vehicle_type_id":"4","last_reported":1744405720,"current_range_meters":13600,"station_id":"ce4bhph2rcd13ifvqheg","pricing_plan_id":"cebpf4jnsgd1na2vs0mg"},{"bike_id":"777b227c-7abb-4d62-9994-ac7b6072751a","system_id":"levelo_inurba_marseille","lat":43.31113,"lon":5.37774,"is_reserved":false,"is_disabled":false,"rental_uris":{"android":"levelo://app?vid=777b227c-7abb-4d62-9994-ac7b6072751a","ios":"levelo://app?vid=777b227c-7abb-4d62-9994-ac7b6072751a"},"vehicle_type_id":"4","last_reported":1744405720,"current_range_meters":13600,"station_id":"ce4bgt92rcd13ifvqcg0","pricing_plan_id":"cebpf4jnsgd1na2vs0mg"},{"bike_id":"b54d7fd2-3ff5-4ba0-aaf9-efe73ed021f9","system_id":"levelo_inurba_marseille","lat":43.25499,"lon":5.37638,"is_reserved":false,"is_disabled":false,"rental_uris":{"android":"levelo://app?vid=b54d7fd2-3ff5-4ba0-aaf9-efe73ed021f9","ios":"levelo://app?vid=b54d7fd2-3ff5-4ba0-aaf9-efe73ed021f9"},"vehicle_type_id":"4","last_reported":1744405720,"current_range_meters":14000,"station_id":"ce4bhh12rcd13ifvqff0","pricing_plan_id":"cebpf4jnsgd1na2vs0mg"},{"bike_id":"ef291804-1477-432e-b153-82ea15725418","system_id":"levelo_inurba_marseille","lat":43.33742,"lon":5.37454,"is_reserved":false,"is_disabled":false,"rental_uris":{"android":"levelo://app?vid=ef291804-1477-432e-b153-82ea15725418","ios":"levelo://app?vid=ef291804-1477-432e-b153-82ea15725418"},"vehicle_type_id":"4","last_reported":1744405720,"current_range_meters":14000,"station_id":"","pricing_plan_id":"cebpf4jnsgd1na2vs0mg"},{"bike_id":"c693bef2-928d-434a-bb75-58cc9ede8aa2","system_id":"levelo_inurba_marseille","lat":43.25477,"lon":5.37605,"is_reserved":false,"is_disabled":false,"rental_uris":{"android":"levelo://app?vid=c693bef2-928d-434a-bb75-58cc9ede8aa2","ios":"levelo://app?vid=c693bef2-928d-434a-bb75-58cc9ede8aa2"},"vehicle_type_id":"4","last_reported":1744405720,"current_range_meters":14000,"station_id":"ce4bhh12rcd13ifvqff0","pricing_plan_id":"cebpf4jnsgd1na2vs0mg"},{"bike_id":"33ff4071-bcca-4cb6-8041-aacdb2b1d7c7","system_id":"levelo_inurba_marseille","lat":43.23194,"lon":5.35556,"is_reserved":false,"is_disabled":false,"rental_uris":{"android":"levelo://app?vid=33ff4071-bcca-4cb6-8041-aacdb2b1d7c7","ios":"levelo://app?vid=33ff4071-bcca-4cb6-8041-aacdb2b1d7c7"},"vehicle_type_id":"4","last_reported":1744405720,"current_range_meters":14000,"station_id":"ce4bhu92rcd13ifvqi70","pricing_plan_id":"cebpf4jnsgd1na2vs0mg"},{"bike_id":"18606129-1f46-4387-94fd-b9b77f87f6a9","system_id":"levelo_inurba_marseille","lat":43.23175,"lon":5.3998,"is_reserved":false,"is_disabled":false,"rental_uris":{"android":"levelo://app?vid=18606129-1f46-4387-94fd-b9b77f87f6a9","ios":"levelo://app?vid=18606129-1f46-4387-94fd-b9b77f87f6a9"},"vehicle_type_id":"4","last_reported":1744405720,"current_range_meters":14000,"station_id":"ce4bhn12rcd13ifvqgqg","pricing_plan_id":"cebpf4jnsgd1na2vs0mg"},{"bike_id":"5342c07b-6449-40f7-b66d-297ccb4be219","system_id":"levelo_inurba_marseille","lat":43.27222,"lon":5.39183,"is_reserved":false,"is_disabled":false,"rental_uris":{"android":"levelo://app?vid=5342c07b-6449-40f7-b66d-297ccb4be219","ios":"levelo://app?vid=5342c07b-6449-40f7-b66d-297ccb4be219"},"vehicle_type_id":"4","last_reported":1744405720,"current_range_meters":15200,"station_id":"ce4bhhp2rcd13ifvqfm0","pricing_plan_id":"cebpf4jnsgd1na2vs0mg"},{"bike_id":"ea448705-9acd-490d-919f-f64e522fac13","system_id":"levelo_inurba_marseille","lat":43.29048,"lon":5.37561,"is_reserved":false,"is_disabled":false,"rental_uris":{"android":"levelo://app?vid=ea448705-9acd-490d-919f-f64e522fac13","ios":"levelo://app?vid=ea448705-9acd-490d-919f-f64e522fac13"},"vehicle_type_id":"4","last_reported":1744405720,"current_range_meters":14400,"station_id":"ce4bh692rcd13ifvqe90","pricing_plan_id":"cebpf4jnsgd1na2vs0mg"},{"bike_id":"030557c9-ced9-4a18-acec-4eff8c4972ce","system_id":"levelo_inurba_marseille","lat":43.29428,"lon":5.38902,"is_reserved":false,"is_disabled":false,"rental_uris":{"android":"levelo://app?vid=030557c9-ced9-4a18-acec-4eff8c4972ce","ios":"levelo://app?vid=030557c9-ced9-4a18-acec-4eff8c4972ce"},"vehicle_type_id":"4","last_reported":1744405720,"current_range_meters":14400,"station_id":"","pricing_plan_id":"cebpf4jnsgd1na2vs0mg"},{"bike_id":"fe16989d-3d2f-445b-92ee-fd8b98b24436","system_id":"levelo_inurba_marseille","lat":43.25111,"lon":5.40321,"is_reserved":false,"is_disabled":false,"rental_uris":{"android":"levelo://app?vid=fe16989d-3d2f-445b-92ee-fd8b98b24436","ios":"levelo://app?vid=fe16989d-3d2f-445b-92ee-fd8b98b24436"},"vehicle_type_id":"4","last_reported":1744405720,"current_range_meters":14400,"station_id":"ce4bhlh2rcd13ifvqgig","pricing_plan_id":"cebpf4jnsgd1na2vs0mg"},{"bike_id":"739e641b-d585-4995-93f5-83c2194b8727","system_id":"levelo_inurba_marseille","lat":43.30423,"lon":5.41267,"is_reserved":false,"is_disabled":false,"rental_uris":{"android":"levelo://app?vid=739e641b-d585-4995-93f5-83c2194b8727","ios":"levelo://app?vid=739e641b-d585-4995-93f5-83c2194b8727"},"vehicle_type_id":"4","last_reported":1744405720,"current_range_meters":14400,"station_id":"ce4bhop2rcd13ifvqh8g","pricing_plan_id":"cebpf4jnsgd1na2vs0mg"},{"bike_id":"df5a1254-a9f6-4eca-b359-0fba72a4a21a","system_id":"levelo_inurba_marseille","lat":43.296997,"lon":5.380401,"is_reserved":false,"is_disabled":false,"rental_uris":{"android":"levelo://app?vid=df5a1254-a9f6-4eca-b359-0fba72a4a21a","ios":"levelo://app?vid=df5a1254-a9f6-4eca-b359-0fba72a4a21a"},"vehicle_type_id":"4","last_reported":1744405720,"current_range_meters":14400,"station_id":"ce4bh092rcd13ifvqd30","pricing_plan_id":"cebpf4jnsgd1na2vs0mg"},{"bike_id":"fada94ee-4770-424e-ae84-99e0a30f0067","system_id":"levelo_inurba_marseille","lat":43.24804,"lon":5.37459,"is_reserved":false,"is_disabled":false,"rental_uris":{"android":"levelo://app?vid=fada94ee-4770-424e-ae84-99e0a30f0067","ios":"levelo://app?vid=fada94ee-4770-424e-ae84-99e0a30f0067"},"vehicle_type_id":"4","last_reported":1744405720,"current_range_meters":14400,"station_id":"ce4bhgh2rcd13ifvqfb0","pricing_plan_id":"cebpf4jnsgd1na2vs0mg"},{"bike_id":"a95bd404-13c1-4b55-844f-de6272b55dd5","system_id":"levelo_inurba_marseille","lat":43.2808,"lon":5.35219,"is_reserved":false,"is_disabled":false,"rental_uris":{"android":"levelo://app?vid=a95bd404-13c1-4b55-844f-de6272b55dd5","ios":"levelo://app?vid=a95bd404-13c1-4b55-844f-de6272b55dd5"},"vehicle_type_id":"4","last_reported":1744405720,"current_range_meters":14400,"station_id":"","pricing_plan_id":"cebpf4jnsgd1na2vs0mg"},{"bike_id":"2952241a-32ec-48cd-8ddd-c2d897c25a27","system_id":"levelo_inurba_marseille","lat":43.29409,"lon":5.38628,"is_reserved":false,"is_disabled":false,"rental_uris":{"android":"levelo://app?vid=2952241a-32ec-48cd-8ddd-c2d897c25a27","ios":"levelo://app?vid=2952241a-32ec-48cd-8ddd-c2d897c25a27"},"vehicle_type_id":"4","last_reported":1744405720,"current_range_meters":14800,"station_id":"ce4bh2h2rcd13ifvqdh0","pricing_plan_id":"cebpf4jnsgd1na2vs0mg"},{"bike_id":"11ed7673-3f24-4a3c-9fcd-190be8b0e0f2","system_id":"levelo_inurba_marseille","lat":43.301575,"lon":5.391142,"is_reserved":false,"is_disabled":false,"rental_uris":{"android":"levelo://app?vid=11ed7673-3f24-4a3c-9fcd-190be8b0e0f2","ios":"levelo://app?vid=11ed7673-3f24-4a3c-9fcd-190be8b0e0f2"},"vehicle_type_id":"4","last_reported":1744405720,"current_range_meters":14800,"station_id":"ce4bgih2rcd13ifvqba0","pricing_plan_id":"cebpf4jnsgd1na2vs0mg"},{"bike_id":"77c08f5b-cdaa-450a-995a-537a84daa91d","system_id":"levelo_inurba_marseille","lat":43.25507,"lon":5.37641,"is_reserved":false,"is_disabled":false,"rental_uris":{"android":"levelo://app?vid=77c08f5b-cdaa-450a-995a-537a84daa91d","ios":"levelo://app?vid=77c08f5b-cdaa-450a-995a-537a84daa91d"},"vehicle_type_id":"4","last_reported":1744405720,"current_range_meters":14800,"station_id":"ce4bhh12rcd13ifvqff0","pricing_plan_id":"cebpf4jnsgd1na2vs0mg"},{"bike_id":"3383469d-bf04-4b83-befe-8d91b97ef6f7","system_id":"levelo_inurba_marseille","lat":43.32149,"lon":5.37943,"is_reserved":false,"is_disabled":false,"rental_uris":{"android":"levelo://app?vid=3383469d-bf04-4b83-befe-8d91b97ef6f7","ios":"levelo://app?vid=3383469d-bf04-4b83-befe-8d91b97ef6f7"},"vehicle_type_id":"4","last_reported":1744405720,"current_range_meters":14800,"station_id":"","pricing_plan_id":"cebpf4jnsgd1na2vs0mg"},{"bike_id":"88d99b2d-e118-4c68-8eaf-e7819193ec43","system_id":"levelo_inurba_marseille","lat":43.23187,"lon":5.39962,"is_reserved":false,"is_disabled":false,"rental_uris":{"android":"levelo://app?vid=88d99b2d-e118-4c68-8eaf-e7819193ec43","ios":"levelo://app?vid=88d99b2d-e118-4c68-8eaf-e7819193ec43"},"vehicle_type_id":"4","last_reported":1744405720,"current_range_meters":14800,"station_id":"ce4bhn12rcd13ifvqgqg","pricing_plan_id":"cebpf4jnsgd1na2vs0mg"},{"bike_id":"f4170ee7-5fba-46c7-8d19-f634930078a8","system_id":"levelo_inurba_marseille","lat":43.294148,"lon":5.386176,"is_reserved":false,"is_disabled":false,"rental_uris":{"android":"levelo://app?vid=f4170ee7-5fba-46c7-8d19-f634930078a8","ios":"levelo://app?vid=f4170ee7-5fba-46c7-8d19-f634930078a8"},"vehicle_type_id":"4","last_reported":1744405720,"current_range_meters":14800,"station_id":"ce4bgih2rcd13ifvqba0","pricing_plan_id":"cebpf4jnsgd1na2vs0mg"},{"bike_id":"1ff38573-ce5a-4c57-aa63-a1cc1b462464","system_id":"levelo_inurba_marseille","lat":43.33023,"lon":5.39035,"is_reserved":false,"is_disabled":false,"rental_uris":{"android":"levelo://app?vid=1ff38573-ce5a-4c57-aa63-a1cc1b462464","ios":"levelo://app?vid=1ff38573-ce5a-4c57-aa63-a1cc1b462464"},"vehicle_type_id":"4","last_reported":1744405720,"current_range_meters":15200,"station_id":"ce4bhr92rcd13ifvqhrg","pricing_plan_id":"cebpf4jnsgd1na2vs0mg"},{"bike_id":"cfa05593-02c0-4361-b7cb-d147d92b27a4","system_id":"levelo_inurba_marseille","lat":43.24169,"lon":5.36394,"is_reserved":false,"is_disabled":false,"rental_uris":{"android":"levelo://app?vid=cfa05593-02c0-4361-b7cb-d147d92b27a4","ios":"levelo://app?vid=cfa05593-02c0-4361-b7cb-d147d92b27a4"},"vehicle_type_id":"4","last_reported":1744405720,"current_range_meters":15200,"station_id":"cpo36qri1sfpv3e86is0","pricing_plan_id":"cebpf4jnsgd1na2vs0mg"},{"bike_id":"c9aa49b6-dfff-45a5-aada-a9b66a79c5ac","system_id":"levelo_inurba_marseille","lat":43.24635,"lon":5.38155,"is_reserved":false,"is_disabled":false,"rental_uris":{"android":"levelo://app?vid=c9aa49b6-dfff-45a5-aada-a9b66a79c5ac","ios":"levelo://app?vid=c9aa49b6-dfff-45a5-aada-a9b66a79c5ac"},"vehicle_type_id":"4","last_reported":1744405720,"current_range_meters":15200,"station_id":"ce4bhih2rcd13ifvqfr0","pricing_plan_id":"cebpf4jnsgd1na2vs0mg"},{"bike_id":"179c36f6-e45f-49d7-bf4c-410ea80375d2","system_id":"levelo_inurba_marseille","lat":43.28361,"lon":5.38102,"is_reserved":false,"is_disabled":false,"rental_uris":{"android":"levelo://app?vid=179c36f6-e45f-49d7-bf4c-410ea80375d2","ios":"levelo://app?vid=179c36f6-e45f-49d7-bf4c-410ea80375d2"},"vehicle_type_id":"4","last_reported":1744405720,"current_range_meters":15200,"station_id":"ce4bh412rcd13ifvqdr0","pricing_plan_id":"cebpf4jnsgd1na2vs0mg"},{"bike_id":"dd64c0e7-64e0-4f92-a620-7a2c964a0050","system_id":"levelo_inurba_marseille","lat":43.3211,"lon":5.36765,"is_reserved":false,"is_disabled":false,"rental_uris":{"android":"levelo://app?vid=dd64c0e7-64e0-4f92-a620-7a2c964a0050","ios":"levelo://app?vid=dd64c0e7-64e0-4f92-a620-7a2c964a0050"},"vehicle_type_id":"4","last_reported":1744405720,"current_range_meters":15200,"station_id":"ce4bhrh2rcd13ifvqhug","pricing_plan_id":"cebpf4jnsgd1na2vs0mg"},{"bike_id":"28ce3fc7-24e0-435f-8c79-7d026b4214a5","system_id":"levelo_inurba_marseille","lat":43.29528,"lon":5.38552,"is_reserved":false,"is_disabled":false,"rental_uris":{"android":"levelo://app?vid=28ce3fc7-24e0-435f-8c79-7d026b4214a5","ios":"levelo://app?vid=28ce3fc7-24e0-435f-8c79-7d026b4214a5"},"vehicle_type_id":"4","last_reported":1744405720,"current_range_meters":15200,"station_id":"ce4bgih2rcd13ifvqba0","pricing_plan_id":"cebpf4jnsgd1na2vs0mg"},{"bike_id":"ffc02580-49f6-44b5-89a5-2afc1a925799","system_id":"levelo_inurba_marseille","lat":43.26792,"lon":5.39405,"is_reserved":false,"is_disabled":false,"rental_uris":{"android":"levelo://app?vid=ffc02580-49f6-44b5-89a5-2afc1a925799","ios":"levelo://app?vid=ffc02580-49f6-44b5-89a5-2afc1a925799"},"vehicle_type_id":"4","last_reported":1744405720,"current_range_meters":15200,"station_id":"ce4bhh12rcd13ifvqfg0","pricing_plan_id":"cebpf4jnsgd1na2vs0mg"},{"bike_id":"9b7711b2-fbd9-4ddf-9627-ae1b14133f70","system_id":"levelo_inurba_marseille","lat":43.30954,"lon":5.3903,"is_reserved":false,"is_disabled":false,"rental_uris":{"android":"levelo://app?vid=9b7711b2-fbd9-4ddf-9627-ae1b14133f70","ios":"levelo://app?vid=9b7711b2-fbd9-4ddf-9627-ae1b14133f70"},"vehicle_type_id":"4","last_reported":1744405720,"current_range_meters":15200,"station_id":"ce4bgup2rcd13ifvqco0","pricing_plan_id":"cebpf4jnsgd1na2vs0mg"},{"bike_id":"5b77a833-8185-45c2-9fe3-07eb40df54ca","system_id":"levelo_inurba_marseille","lat":43.33995,"lon":5.38057,"is_reserved":false,"is_disabled":false,"rental_uris":{"android":"levelo://app?vid=5b77a833-8185-45c2-9fe3-07eb40df54ca","ios":"levelo://app?vid=5b77a833-8185-45c2-9fe3-07eb40df54ca"},"vehicle_type_id":"4","last_reported":1744405720,"current_range_meters":15200,"station_id":"","pricing_plan_id":"cebpf4jnsgd1na2vs0mg"},{"bike_id":"f7d1eee0-1715-419d-beac-1b98ec9e62ed","system_id":"levelo_inurba_marseille","lat":43.3095,"lon":5.39033,"is_reserved":false,"is_disabled":true,"rental_uris":{"android":"levelo://app?vid=f7d1eee0-1715-419d-beac-1b98ec9e62ed","ios":"levelo://app?vid=f7d1eee0-1715-419d-beac-1b98ec9e62ed"},"vehicle_type_id":"4","last_reported":1744405720,"current_range_meters":16000,"station_id":"ce4bgup2rcd13ifvqco0","pricing_plan_id":"cebpf4jnsgd1na2vs0mg"},{"bike_id":"787b066c-2774-46e7-9c0c-f5ee636af0a6","system_id":"levelo_inurba_marseille","lat":43.29193,"lon":5.39317,"is_reserved":false,"is_disabled":false,"rental_uris":{"android":"levelo://app?vid=787b066c-2774-46e7-9c0c-f5ee636af0a6","ios":"levelo://app?vid=787b066c-2774-46e7-9c0c-f5ee636af0a6"},"vehicle_type_id":"4","last_reported":1744405720,"current_range_meters":16000,"station_id":"ce4bh192rcd13ifvqdd0","pricing_plan_id":"cebpf4jnsgd1na2vs0mg"},{"bike_id":"b10efb6c-63de-4673-9ba6-ecc63a29dc73","system_id":"levelo_inurba_marseille","lat":43.25485,"lon":5.37623,"is_reserved":false,"is_disabled":false,"rental_uris":{"android":"levelo://app?vid=b10efb6c-63de-4673-9ba6-ecc63a29dc73","ios":"levelo://app?vid=b10efb6c-63de-4673-9ba6-ecc63a29dc73"},"vehicle_type_id":"4","last_reported":1744405720,"current_range_meters":16000,"station_id":"ce4bhh12rcd13ifvqff0","pricing_plan_id":"cebpf4jnsgd1na2vs0mg"},{"bike_id":"c09876cd-28e6-462c-99fd-41d0b43e1f46","system_id":"levelo_inurba_marseille","lat":43.31355,"lon":5.3849,"is_reserved":false,"is_disabled":false,"rental_uris":{"android":"levelo://app?vid=c09876cd-28e6-462c-99fd-41d0b43e1f46","ios":"levelo://app?vid=c09876cd-28e6-462c-99fd-41d0b43e1f46"},"vehicle_type_id":"4","last_reported":1744405720,"current_range_meters":16000,"station_id":"ce4bgt92rcd13ifvqcf0","pricing_plan_id":"cebpf4jnsgd1na2vs0mg"},{"bike_id":"0e7bf4ae-5aed-4055-a1f8-96debbb9847e","system_id":"levelo_inurba_marseille","lat":43.24168,"lon":5.36401,"is_reserved":false,"is_disabled":false,"rental_uris":{"android":"levelo://app?vid=0e7bf4ae-5aed-4055-a1f8-96debbb9847e","ios":"levelo://app?vid=0e7bf4ae-5aed-4055-a1f8-96debbb9847e"},"vehicle_type_id":"4","last_reported":1744405720,"current_range_meters":16000,"station_id":"cpo36qri1sfpv3e86is0","pricing_plan_id":"cebpf4jnsgd1na2vs0mg"},{"bike_id":"84498a92-c927-4cdd-bec3-927d0081ea09","system_id":"levelo_inurba_marseille","lat":43.27997,"lon":5.40007,"is_reserved":false,"is_disabled":false,"rental_uris":{"android":"levelo://app?vid=84498a92-c927-4cdd-bec3-927d0081ea09","ios":"levelo://app?vid=84498a92-c927-4cdd-bec3-927d0081ea09"},"vehicle_type_id":"4","last_reported":1744405720,"current_range_meters":16400,"station_id":"ce4bho92rcd13ifvqh4g","pricing_plan_id":"cebpf4jnsgd1na2vs0mg"},{"bike_id":"d8f603cd-3b83-4148-bab8-3a185ad2a59f","system_id":"levelo_inurba_marseille","lat":43.32313,"lon":5.38883,"is_reserved":false,"is_disabled":false,"rental_uris":{"android":"levelo://app?vid=d8f603cd-3b83-4148-bab8-3a185ad2a59f","ios":"levelo://app?vid=d8f603cd-3b83-4148-bab8-3a185ad2a59f"},"vehicle_type_id":"4","last_reported":1744405720,"current_range_meters":16400,"station_id":"ce4bhqp2rcd13ifvqhog","pricing_plan_id":"cebpf4jnsgd1na2vs0mg"},{"bike_id":"a6e2ecdb-fdeb-4d55-a16f-ca78fc1ab1c3","system_id":"levelo_inurba_marseille","lat":43.29207,"lon":5.39297,"is_reserved":false,"is_disabled":false,"rental_uris":{"android":"levelo://app?vid=a6e2ecdb-fdeb-4d55-a16f-ca78fc1ab1c3","ios":"levelo://app?vid=a6e2ecdb-fdeb-4d55-a16f-ca78fc1ab1c3"},"vehicle_type_id":"4","last_reported":1744405720,"current_range_meters":16400,"station_id":"ce4bh192rcd13ifvqdd0","pricing_plan_id":"cebpf4jnsgd1na2vs0mg"},{"bike_id":"503203d3-1e0d-41e7-9876-10c94ae677ff","system_id":"levelo_inurba_marseille","lat":43.32112,"lon":5.36767,"is_reserved":false,"is_disabled":false,"rental_uris":{"android":"levelo://app?vid=503203d3-1e0d-41e7-9876-10c94ae677ff","ios":"levelo://app?vid=503203d3-1e0d-41e7-9876-10c94ae677ff"},"vehicle_type_id":"4","last_reported":1744405720,"current_range_meters":16400,"station_id":"ce4bhrh2rcd13ifvqhug","pricing_plan_id":"cebpf4jnsgd1na2vs0mg"},{"bike_id":"3a272535-f857-42f0-987d-89e801fcc33e","system_id":"levelo_inurba_marseille","lat":43.29445,"lon":5.39748,"is_reserved":false,"is_disabled":false,"rental_uris":{"android":"levelo://app?vid=3a272535-f857-42f0-987d-89e801fcc33e","ios":"levelo://app?vid=3a272535-f857-42f0-987d-89e801fcc33e"},"vehicle_type_id":"4","last_reported":1744405720,"current_range_meters":16400,"station_id":"ce4bh3h2rcd13ifvqdo0","pricing_plan_id":"cebpf4jnsgd1na2vs0mg"},{"bike_id":"3be70061-155c-444a-845f-3eaff26205f7","system_id":"levelo_inurba_marseille","lat":43.27959,"lon":5.38705,"is_reserved":false,"is_disabled":false,"rental_uris":{"android":"levelo://app?vid=3be70061-155c-444a-845f-3eaff26205f7","ios":"levelo://app?vid=3be70061-155c-444a-845f-3eaff26205f7"},"vehicle_type_id":"4","last_reported":1744405720,"current_range_meters":16400,"station_id":"ce4bhg12rcd13ifvqf80","pricing_plan_id":"cebpf4jnsgd1na2vs0mg"},{"bike_id":"6a09e390-298a-47d1-8e1d-5ca0804a18ef","system_id":"levelo_inurba_marseille","lat":43.292719,"lon":5.384408,"is_reserved":false,"is_disabled":false,"rental_uris":{"android":"levelo://app?vid=6a09e390-298a-47d1-8e1d-5ca0804a18ef","ios":"levelo://app?vid=6a09e390-298a-47d1-8e1d-5ca0804a18ef"},"vehicle_type_id":"4","last_reported":1744405720,"current_range_meters":16400,"station_id":"ce4bh692rcd13ifvqea0","pricing_plan_id":"cebpf4jnsgd1na2vs0mg"},{"bike_id":"b013b1e3-df6a-4265-a55c-92aaa7ea580a","system_id":"levelo_inurba_marseille","lat":43.29437,"lon":5.38554,"is_reserved":false,"is_disabled":false,"rental_uris":{"android":"levelo://app?vid=b013b1e3-df6a-4265-a55c-92aaa7ea580a","ios":"levelo://app?vid=b013b1e3-df6a-4265-a55c-92aaa7ea580a"},"vehicle_type_id":"4","last_reported":1744405720,"current_range_meters":16400,"station_id":"","pricing_plan_id":"cebpf4jnsgd1na2vs0mg"},{"bike_id":"fa0290ae-4845-42fd-8ae9-57ffb7ee0ce9","system_id":"levelo_inurba_marseille","lat":43.29521,"lon":5.38558,"is_reserved":false,"is_disabled":false,"rental_uris":{"android":"levelo://app?vid=fa0290ae-4845-42fd-8ae9-57ffb7ee0ce9","ios":"levelo://app?vid=fa0290ae-4845-42fd-8ae9-57ffb7ee0ce9"},"vehicle_type_id":"4","last_reported":1744405720,"current_range_meters":16400,"station_id":"ce4bgih2rcd13ifvqba0","pricing_plan_id":"cebpf4jnsgd1na2vs0mg"},{"bike_id":"24d73de8-9b9d-45d5-befa-88e089d9173b","system_id":"levelo_inurba_marseille","lat":43.29877,"lon":5.38891,"is_reserved":false,"is_disabled":false,"rental_uris":{"android":"levelo://app?vid=24d73de8-9b9d-45d5-befa-88e089d9173b","ios":"levelo://app?vid=24d73de8-9b9d-45d5-befa-88e089d9173b"},"vehicle_type_id":"4","last_reported":1744405720,"current_range_meters":16800,"station_id":"ce4bh392rcd13ifvqdl0","pricing_plan_id":"cebpf4jnsgd1na2vs0mg"},{"bike_id":"2f5bc015-0a98-4a0d-a50f-f7181e1d6abe","system_id":"levelo_inurba_marseille","lat":43.2339,"lon":5.41219,"is_reserved":false,"is_disabled":false,"rental_uris":{"android":"levelo://app?vid=2f5bc015-0a98-4a0d-a50f-f7181e1d6abe","ios":"levelo://app?vid=2f5bc015-0a98-4a0d-a50f-f7181e1d6abe"},"vehicle_type_id":"4","last_reported":1744405720,"current_range_meters":16800,"station_id":"","pricing_plan_id":"cebpf4jnsgd1na2vs0mg"},{"bike_id":"85751caa-fde6-477d-bee8-5390f2da8c49","system_id":"levelo_inurba_marseille","lat":43.29098,"lon":5.38155,"is_reserved":false,"is_disabled":false,"rental_uris":{"android":"levelo://app?vid=85751caa-fde6-477d-bee8-5390f2da8c49","ios":"levelo://app?vid=85751caa-fde6-477d-bee8-5390f2da8c49"},"vehicle_type_id":"4","last_reported":1744405720,"current_range_meters":13600,"station_id":"ce4bh512rcd13ifvqe2g","pricing_plan_id":"cebpf4jnsgd1na2vs0mg"},{"bike_id":"877d5528-2b79-495b-b6f0-bff1dc60a0df","system_id":"levelo_inurba_marseille","lat":43.26937,"lon":5.40247,"is_reserved":false,"is_disabled":false,"rental_uris":{"android":"levelo://app?vid=877d5528-2b79-495b-b6f0-bff1dc60a0df","ios":"levelo://app?vid=877d5528-2b79-495b-b6f0-bff1dc60a0df"},"vehicle_type_id":"4","last_reported":1744405720,"current_range_meters":16800,"station_id":"cjm6bp8fraef2m0cb0m0","pricing_plan_id":"cebpf4jnsgd1na2vs0mg"},{"bike_id":"13422442-ef39-496d-a289-cb4c3a76811c","system_id":"levelo_inurba_marseille","lat":43.27823,"lon":5.39222,"is_reserved":false,"is_disabled":false,"rental_uris":{"android":"levelo://app?vid=13422442-ef39-496d-a289-cb4c3a76811c","ios":"levelo://app?vid=13422442-ef39-496d-a289-cb4c3a76811c"},"vehicle_type_id":"4","last_reported":1744405720,"current_range_meters":16800,"station_id":"ce4bhjp2rcd13ifvqga0","pricing_plan_id":"cebpf4jnsgd1na2vs0mg"},{"bike_id":"90cddebc-2506-42ee-9df1-36a6154dff75","system_id":"levelo_inurba_marseille","lat":43.24149,"lon":5.36413,"is_reserved":false,"is_disabled":false,"rental_uris":{"android":"levelo://app?vid=90cddebc-2506-42ee-9df1-36a6154dff75","ios":"levelo://app?vid=90cddebc-2506-42ee-9df1-36a6154dff75"},"vehicle_type_id":"4","last_reported":1744405720,"current_range_meters":16800,"station_id":"cpo36qri1sfpv3e86is0","pricing_plan_id":"cebpf4jnsgd1na2vs0mg"},{"bike_id":"f3992285-ae62-491e-8b13-04f8976dde04","system_id":"levelo_inurba_marseille","lat":43.29423,"lon":5.38612,"is_reserved":false,"is_disabled":false,"rental_uris":{"android":"levelo://app?vid=f3992285-ae62-491e-8b13-04f8976dde04","ios":"levelo://app?vid=f3992285-ae62-491e-8b13-04f8976dde04"},"vehicle_type_id":"4","last_reported":1744405720,"current_range_meters":17200,"station_id":"ce4bh2h2rcd13ifvqdh0","pricing_plan_id":"cebpf4jnsgd1na2vs0mg"},{"bike_id":"e7771090-9021-4514-b2ec-2c2b2e1210cb","system_id":"levelo_inurba_marseille","lat":43.29033,"lon":5.3864,"is_reserved":false,"is_disabled":false,"rental_uris":{"android":"levelo://app?vid=e7771090-9021-4514-b2ec-2c2b2e1210cb","ios":"levelo://app?vid=e7771090-9021-4514-b2ec-2c2b2e1210cb"},"vehicle_type_id":"4","last_reported":1744405720,"current_range_meters":17200,"station_id":"ce4bh4p2rcd13ifvqe0g","pricing_plan_id":"cebpf4jnsgd1na2vs0mg"},{"bike_id":"acf8ff1a-7021-4c24-b554-ab5541b85ca2","system_id":"levelo_inurba_marseille","lat":43.308044,"lon":5.435201,"is_reserved":false,"is_disabled":false,"rental_uris":{"android":"levelo://app?vid=acf8ff1a-7021-4c24-b554-ab5541b85ca2","ios":"levelo://app?vid=acf8ff1a-7021-4c24-b554-ab5541b85ca2"},"vehicle_type_id":"4","last_reported":1744405720,"current_range_meters":17200,"station_id":"ce4bhph2rcd13ifvqheg","pricing_plan_id":"cebpf4jnsgd1na2vs0mg"},{"bike_id":"fa2c78af-7442-435a-b59d-ecb3191bfe19","system_id":"levelo_inurba_marseille","lat":43.26574,"lon":5.37285,"is_reserved":false,"is_disabled":false,"rental_uris":{"android":"levelo://app?vid=fa2c78af-7442-435a-b59d-ecb3191bfe19","ios":"levelo://app?vid=fa2c78af-7442-435a-b59d-ecb3191bfe19"},"vehicle_type_id":"4","last_reported":1744405720,"current_range_meters":17200,"station_id":"ce4bhg12rcd13ifvqf70","pricing_plan_id":"cebpf4jnsgd1na2vs0mg"},{"bike_id":"d55b55b6-2cee-40be-9a97-8f39ec4d3068","system_id":"levelo_inurba_marseille","lat":43.29287,"lon":5.38429,"is_reserved":false,"is_disabled":false,"rental_uris":{"android":"levelo://app?vid=d55b55b6-2cee-40be-9a97-8f39ec4d3068","ios":"levelo://app?vid=d55b55b6-2cee-40be-9a97-8f39ec4d3068"},"vehicle_type_id":"4","last_reported":1744405720,"current_range_meters":17200,"station_id":"ce4bh692rcd13ifvqea0","pricing_plan_id":"cebpf4jnsgd1na2vs0mg"},{"bike_id":"bb1f11ef-eeaf-47b5-807f-48084aa7bacf","system_id":"levelo_inurba_marseille","lat":43.24071,"lon":5.37765,"is_reserved":false,"is_disabled":false,"rental_uris":{"android":"levelo://app?vid=bb1f11ef-eeaf-47b5-807f-48084aa7bacf","ios":"levelo://app?vid=bb1f11ef-eeaf-47b5-807f-48084aa7bacf"},"vehicle_type_id":"4","last_reported":1744405720,"current_range_meters":17200,"station_id":"ce4bhnp2rcd13ifvqgvg","pricing_plan_id":"cebpf4jnsgd1na2vs0mg"},{"bike_id":"719053cc-da74-46f0-a365-7d66631e6927","system_id":"levelo_inurba_marseille","lat":43.29199,"lon":5.382951,"is_reserved":false,"is_disabled":false,"rental_uris":{"android":"levelo://app?vid=719053cc-da74-46f0-a365-7d66631e6927","ios":"levelo://app?vid=719053cc-da74-46f0-a365-7d66631e6927"},"vehicle_type_id":"4","last_reported":1744405720,"current_range_meters":17200,"station_id":"ce4bh692rcd13ifvqea0","pricing_plan_id":"cebpf4jnsgd1na2vs0mg"},{"bike_id":"558336ea-aaf3-4a76-84e6-3b9c0b1873ec","system_id":"levelo_inurba_marseille","lat":43.29528,"lon":5.38543,"is_reserved":false,"is_disabled":false,"rental_uris":{"android":"levelo://app?vid=558336ea-aaf3-4a76-84e6-3b9c0b1873ec","ios":"levelo://app?vid=558336ea-aaf3-4a76-84e6-3b9c0b1873ec"},"vehicle_type_id":"4","last_reported":1744405720,"current_range_meters":17200,"station_id":"ce4bgih2rcd13ifvqba0","pricing_plan_id":"cebpf4jnsgd1na2vs0mg"},{"bike_id":"9a5f60a9-9060-4d85-8f6b-efb90811e658","system_id":"levelo_inurba_marseille","lat":43.25481,"lon":5.37673,"is_reserved":false,"is_disabled":false,"rental_uris":{"android":"levelo://app?vid=9a5f60a9-9060-4d85-8f6b-efb90811e658","ios":"levelo://app?vid=9a5f60a9-9060-4d85-8f6b-efb90811e658"},"vehicle_type_id":"4","last_reported":1744405720,"current_range_meters":17200,"station_id":"ce4bhh12rcd13ifvqff0","pricing_plan_id":"cebpf4jnsgd1na2vs0mg"},{"bike_id":"d951529d-11e9-4d2a-8711-9a29a73a9682","system_id":"levelo_inurba_marseille","lat":43.29504,"lon":5.3905,"is_reserved":false,"is_disabled":false,"rental_uris":{"android":"levelo://app?vid=d951529d-11e9-4d2a-8711-9a29a73a9682","ios":"levelo://app?vid=d951529d-11e9-4d2a-8711-9a29a73a9682"},"vehicle_type_id":"4","last_reported":1744405720,"current_range_meters":17200,"station_id":"ce4bh3p2rcd13ifvqdp0","pricing_plan_id":"cebpf4jnsgd1na2vs0mg"},{"bike_id":"2a768501-9320-4bc9-a417-15b58706b922","system_id":"levelo_inurba_marseille","lat":43.27554,"lon":5.38437,"is_reserved":false,"is_disabled":false,"rental_uris":{"android":"levelo://app?vid=2a768501-9320-4bc9-a417-15b58706b922","ios":"levelo://app?vid=2a768501-9320-4bc9-a417-15b58706b922"},"vehicle_type_id":"4","last_reported":1744405720,"current_range_meters":17200,"station_id":"ce4bhh92rcd13ifvqfi0","pricing_plan_id":"cebpf4jnsgd1na2vs0mg"},{"bike_id":"11e658d7-5493-4c9d-b7e6-9c4d3f3dd4bd","system_id":"levelo_inurba_marseille","lat":43.25496,"lon":5.37648,"is_reserved":false,"is_disabled":false,"rental_uris":{"android":"levelo://app?vid=11e658d7-5493-4c9d-b7e6-9c4d3f3dd4bd","ios":"levelo://app?vid=11e658d7-5493-4c9d-b7e6-9c4d3f3dd4bd"},"vehicle_type_id":"4","last_reported":1744405720,"current_range_meters":17600,"station_id":"ce4bhh12rcd13ifvqff0","pricing_plan_id":"cebpf4jnsgd1na2vs0mg"},{"bike_id":"8f3b927f-1e51-4d50-9830-6dac18c3af42","system_id":"levelo_inurba_marseille","lat":43.29966,"lon":5.38495,"is_reserved":false,"is_disabled":false,"rental_uris":{"android":"levelo://app?vid=8f3b927f-1e51-4d50-9830-6dac18c3af42","ios":"levelo://app?vid=8f3b927f-1e51-4d50-9830-6dac18c3af42"},"vehicle_type_id":"4","last_reported":1744405720,"current_range_meters":17600,"station_id":"ce4bgj92rcd13ifvqbd0","pricing_plan_id":"cebpf4jnsgd1na2vs0mg"},{"bike_id":"457be3cf-e1e1-4d11-8d7c-377dc0cb03e9","system_id":"levelo_inurba_marseille","lat":43.2806,"lon":5.35293,"is_reserved":false,"is_disabled":false,"rental_uris":{"android":"levelo://app?vid=457be3cf-e1e1-4d11-8d7c-377dc0cb03e9","ios":"levelo://app?vid=457be3cf-e1e1-4d11-8d7c-377dc0cb03e9"},"vehicle_type_id":"4","last_reported":1744405720,"current_range_meters":17600,"station_id":"","pricing_plan_id":"cebpf4jnsgd1na2vs0mg"},{"bike_id":"04697f1c-f402-4cec-ad92-d8e40094fc77","system_id":"levelo_inurba_marseille","lat":43.31272,"lon":5.4018,"is_reserved":false,"is_disabled":false,"rental_uris":{"android":"levelo://app?vid=04697f1c-f402-4cec-ad92-d8e40094fc77","ios":"levelo://app?vid=04697f1c-f402-4cec-ad92-d8e40094fc77"},"vehicle_type_id":"4","last_reported":1744405720,"current_range_meters":17600,"station_id":"ce4bh092rcd13ifvqd30","pricing_plan_id":"cebpf4jnsgd1na2vs0mg"},{"bike_id":"00aafc42-3d20-4f0b-ab53-b588e1d8f500","system_id":"levelo_inurba_marseille","lat":43.25482,"lon":5.37656,"is_reserved":false,"is_disabled":false,"rental_uris":{"android":"levelo://app?vid=00aafc42-3d20-4f0b-ab53-b588e1d8f500","ios":"levelo://app?vid=00aafc42-3d20-4f0b-ab53-b588e1d8f500"},"vehicle_type_id":"4","last_reported":1744405720,"current_range_meters":17600,"station_id":"ce4bhh12rcd13ifvqff0","pricing_plan_id":"cebpf4jnsgd1na2vs0mg"},{"bike_id":"2c4948ed-2521-4cb9-8a6a-0591f4f9a06a","system_id":"levelo_inurba_marseille","lat":43.31071,"lon":5.38346,"is_reserved":false,"is_disabled":false,"rental_uris":{"android":"levelo://app?vid=2c4948ed-2521-4cb9-8a6a-0591f4f9a06a","ios":"levelo://app?vid=2c4948ed-2521-4cb9-8a6a-0591f4f9a06a"},"vehicle_type_id":"4","last_reported":1744405720,"current_range_meters":17600,"station_id":"ce4bgv92rcd13ifvqcr0","pricing_plan_id":"cebpf4jnsgd1na2vs0mg"},{"bike_id":"7c7fa82a-7c9f-458c-a89e-577845bdbe80","system_id":"levelo_inurba_marseille","lat":43.29252,"lon":5.38426,"is_reserved":false,"is_disabled":false,"rental_uris":{"android":"levelo://app?vid=7c7fa82a-7c9f-458c-a89e-577845bdbe80","ios":"levelo://app?vid=7c7fa82a-7c9f-458c-a89e-577845bdbe80"},"vehicle_type_id":"4","last_reported":1744405720,"current_range_meters":17600,"station_id":"ce4bh692rcd13ifvqea0","pricing_plan_id":"cebpf4jnsgd1na2vs0mg"},{"bike_id":"ac1ac4ab-01e9-4593-93dd-dcb7b2f34489","system_id":"levelo_inurba_marseille","lat":43.29256,"lon":5.38446,"is_reserved":false,"is_disabled":false,"rental_uris":{"android":"levelo://app?vid=ac1ac4ab-01e9-4593-93dd-dcb7b2f34489","ios":"levelo://app?vid=ac1ac4ab-01e9-4593-93dd-dcb7b2f34489"},"vehicle_type_id":"4","last_reported":1744405720,"current_range_meters":17600,"station_id":"ce4bh692rcd13ifvqea0","pricing_plan_id":"cebpf4jnsgd1na2vs0mg"},{"bike_id":"d1862b2c-e49a-4253-8cb5-d4ccdbce3581","system_id":"levelo_inurba_marseille","lat":43.30604,"lon":5.39367,"is_reserved":false,"is_disabled":true,"rental_uris":{"android":"levelo://app?vid=d1862b2c-e49a-4253-8cb5-d4ccdbce3581","ios":"levelo://app?vid=d1862b2c-e49a-4253-8cb5-d4ccdbce3581"},"vehicle_type_id":"4","last_reported":1744405720,"current_range_meters":18000,"station_id":"ce4bh0p2rcd13ifvqd80","pricing_plan_id":"cebpf4jnsgd1na2vs0mg"},{"bike_id":"2351f0be-d929-4afc-a4fb-f5021211f618","system_id":"levelo_inurba_marseille","lat":43.30791,"lon":5.43524,"is_reserved":false,"is_disabled":false,"rental_uris":{"android":"levelo://app?vid=2351f0be-d929-4afc-a4fb-f5021211f618","ios":"levelo://app?vid=2351f0be-d929-4afc-a4fb-f5021211f618"},"vehicle_type_id":"4","last_reported":1744405720,"current_range_meters":18000,"station_id":"ce4bhph2rcd13ifvqheg","pricing_plan_id":"cebpf4jnsgd1na2vs0mg"},{"bike_id":"ef84b6b1-a10e-4793-947f-f0e831f07d84","system_id":"levelo_inurba_marseille","lat":43.24073,"lon":5.37761,"is_reserved":false,"is_disabled":false,"rental_uris":{"android":"levelo://app?vid=ef84b6b1-a10e-4793-947f-f0e831f07d84","ios":"levelo://app?vid=ef84b6b1-a10e-4793-947f-f0e831f07d84"},"vehicle_type_id":"4","last_reported":1744405720,"current_range_meters":18000,"station_id":"ce4bhnp2rcd13ifvqgvg","pricing_plan_id":"cebpf4jnsgd1na2vs0mg"},{"bike_id":"13da2750-fb61-4f6a-bbe6-a2c1d1b68f38","system_id":"levelo_inurba_marseille","lat":43.25504,"lon":5.37654,"is_reserved":false,"is_disabled":false,"rental_uris":{"android":"levelo://app?vid=13da2750-fb61-4f6a-bbe6-a2c1d1b68f38","ios":"levelo://app?vid=13da2750-fb61-4f6a-bbe6-a2c1d1b68f38"},"vehicle_type_id":"4","last_reported":1744405720,"current_range_meters":18000,"station_id":"ce4bhh12rcd13ifvqff0","pricing_plan_id":"cebpf4jnsgd1na2vs0mg"},{"bike_id":"96b23522-000c-40e6-adc6-3eb838a0a125","system_id":"levelo_inurba_marseille","lat":43.24069,"lon":5.37764,"is_reserved":false,"is_disabled":false,"rental_uris":{"android":"levelo://app?vid=96b23522-000c-40e6-adc6-3eb838a0a125","ios":"levelo://app?vid=96b23522-000c-40e6-adc6-3eb838a0a125"},"vehicle_type_id":"4","last_reported":1744405720,"current_range_meters":18000,"station_id":"ce4bhnp2rcd13ifvqgvg","pricing_plan_id":"cebpf4jnsgd1na2vs0mg"},{"bike_id":"03e60ad2-482f-4db6-ad4b-e0c44a248f9d","system_id":"levelo_inurba_marseille","lat":43.29535,"lon":5.38539,"is_reserved":false,"is_disabled":false,"rental_uris":{"android":"levelo://app?vid=03e60ad2-482f-4db6-ad4b-e0c44a248f9d","ios":"levelo://app?vid=03e60ad2-482f-4db6-ad4b-e0c44a248f9d"},"vehicle_type_id":"4","last_reported":1744405720,"current_range_meters":18000,"station_id":"ce4bgih2rcd13ifvqba0","pricing_plan_id":"cebpf4jnsgd1na2vs0mg"},{"bike_id":"6d5f64f1-8c0d-4e8a-8d12-78d7649cebfc","system_id":"levelo_inurba_marseille","lat":43.30912,"lon":5.3686,"is_reserved":false,"is_disabled":false,"rental_uris":{"android":"levelo://app?vid=6d5f64f1-8c0d-4e8a-8d12-78d7649cebfc","ios":"levelo://app?vid=6d5f64f1-8c0d-4e8a-8d12-78d7649cebfc"},"vehicle_type_id":"4","last_reported":1744405720,"current_range_meters":18000,"station_id":"ce4bgn92rcd13ifvqbvg","pricing_plan_id":"cebpf4jnsgd1na2vs0mg"},