{"last_updated":1685466260,"ttl":30,"version":"2.2","data":{"bikes":[{"bike_id":"0dbb4809-34b8-4588-bc70-1db5b9c34ace","system_id":"levelo_inurba_marseille","lat":43.314811,"lon":5.373103,"is_reserved":false,"is_disabled":false,"rental_uris":{"android":"levelo://app?vid=0dbb4809-34b8-4588-bc70-1db5b9c34ace","ios":"levelo://app?vid=0dbb4809-34b8-4588-bc70-1db5b9c34ace"},"vehicle_type_id":"4","last_reported":1685466260,"current_range_meters":0,"station_id":"ce4bgt12rcd13ifvqcd0","pricing_plan_id":"free"},{"bike_id":"37a85ad5-7654-4f7c-91cb-95c4eda6da41","system_id":"levelo_inurba_marseille","lat":43.31504,"lon":5.37308,"is_reserved":false,"is_disabled":false,"rental_uris":{"android":"levelo://app?vid=37a85ad5-7654-4f7c-91cb-95c4eda6da41","ios":"levelo://app?vid=37a85ad5-7654-4f7c-91cb-95c4eda6da41"},"vehicle_type_id":"4","last_reported":1685466260,"current_range_meters":0,"station_id":"ce4bgt12rcd13ifvqcd0","pricing_plan_id":"free"},{"bike_id":"f69a3f8a-adab-435a-ad98-4302ca7a3c35","system_id":"levelo_inurba_marseille","lat":43.31859,"lon":5.37316,"is_reserved":false,"is_disabled":false,"rental_uris":{"android":"levelo://app?vid=f69a3f8a-adab-435a-ad98-4302ca7a3c35","ios":"levelo://app?vid=f69a3f8a-adab-435a-ad98-4302ca7a3c35"},"vehicle_type_id":"4","last_reported":1685466260,"current_range_meters":21200,"station_id":"","pricing_plan_id":"free"},{"bike_id":"facbad27-5eda-47f2-94d9-b178d08dfa42","system_id":"levelo_inurba_marseille","lat":43.305989,"lon":5.37225,"is_reserved":false,"is_disabled":false,"rental_uris":{"android":"levelo://app?vid=facbad27-5eda-47f2-94d9-b178d08dfa42","ios":"levelo://app?vid=facbad27-5eda-47f2-94d9-b178d08dfa42"},"vehicle_type_id":"4","last_reported":1685466260,"current_range_meters":0,"station_id":"ce4bgqh2rcd13ifvqc4g","pricing_plan_id":"free"},{"bike_id":"f8603d89-e966-4ac2-b5bc-106e813a73d6","system_id":"levelo_inurba_marseille","lat":43.31119,"lon":5.37758,"is_reserved":false,"is_disabled":false,"rental_uris":{"android":"levelo://app?vid=f8603d89-e966-4ac2-b5bc-106e813a73d6","ios":"levelo://app?vid=f8603d89-e966-4ac2-b5bc-106e813a73d6"},"vehicle_type_id":"4","last_reported":1685466260,"current_range_meters":16400,"station_id":"ce4bgt92rcd13ifvqcg0","pricing_plan_id":"free"},{"bike_id":"0df700ef-95e9-4009-86fb-9e0105df5dea","system_id":"levelo_inurba_marseille","lat":43.31604,"lon":5.37887,"is_reserved":false,"is_disabled":false,"rental_uris":{"android":"levelo://app?vid=0df700ef-95e9-4009-86fb-9e0105df5dea","ios":"levelo://app?vid=0df700ef-95e9-4009-86fb-9e0105df5dea"},"vehicle_type_id":"4","last_reported":1685466260,"current_range_meters":12400,"station_id":"","pricing_plan_id":"free"},{"bike_id":"0508d2d7-0054-45e7-8b91-aaa554e231d1","system_id":"levelo_inurba_marseille","lat":43.315293,"lon":5.380349,"is_reserved":false,"is_disabled":false,"rental_uris":{"android":"levelo://app?vid=0508d2d7-0054-45e7-8b91-aaa554e231d1","ios":"levelo://app?vid=0508d2d7-0054-45e7-8b91-aaa554e231d1"},"vehicle_type_id":"4","last_reported":1685466260,"current_range_meters":16800,"station_id":"ce4bhsp2rcd13ifvqi50","pricing_plan_id":"free"},{"bike_id":"4b25b5c1-f8dc-444e-8e98-f5002a9439be","system_id":"levelo_inurba_marseille","lat":43.315293,"lon":5.380349,"is_reserved":false,"is_disabled":false,"rental_uris":{"android":"levelo://app?vid=4b25b5c1-f8dc-444e-8e98-f5002a9439be","ios":"levelo://app?vid=4b25b5c1-f8dc-444e-8e98-f5002a9439be"},"vehicle_type_id":"4","last_reported":1685466260,"current_range_meters":18800,"station_id":"ce4bhsp2rcd13ifvqi50","pricing_plan_id":"free"},{"bike_id":"43eece8a-1f2a-4d25-a008-1f4b5a54f17a","system_id":"levelo_inurba_marseille","lat":43.308012,"lon":5.381511,"is_reserved":false,"is_disabled":false,"rental_uris":{"android":"levelo://app?vid=43eece8a-1f2a-4d25-a008-1f4b5a54f17a","ios":"levelo://app?vid=43eece8a-1f2a-4d25-a008-1f4b5a54f17a"},"vehicle_type_id":"4","last_reported":1685466260,"current_range_meters":23600,"station_id":"ce4bgt12rcd13ifvqce0","pricing_plan_id":"free"},{"bike_id":"01c46267-a684-4a40-838c-192c037d55d5","system_id":"levelo_inurba_marseille","lat":43.304648,"lon":5.379173,"is_reserved":false,"is_disabled":false,"rental_uris":{"android":"levelo://app?vid=01c46267-a684-4a40-838c-192c037d55d5","ios":"levelo://app?vid=01c46267-a684-4a40-838c-192c037d55d5"},"vehicle_type_id":"4","last_reported":1685466260,"current_range_meters":0,"station_id":"ce4bgup2rcd13ifvqcn0","pricing_plan_id":"free"},{"bike_id":"e1b7e638-db54-42d5-ae85-3e1337e37665","system_id":"levelo_inurba_marseille","lat":43.31643,"lon":5.3834,"is_reserved":false,"is_disabled":false,"rental_uris":{"android":"levelo://app?vid=e1b7e638-db54-42d5-ae85-3e1337e37665","ios":"levelo://app?vid=e1b7e638-db54-42d5-ae85-3e1337e37665"},"vehicle_type_id":"4","last_reported":1685466260,"current_range_meters":17200,"station_id":"","pricing_plan_id":"free"},{"bike_id":"42d83229-1f4e-4053-8c7c-6525bcdbef32","system_id":"levelo_inurba_marseille","lat":43.31367,"lon":5.38492,"is_reserved":false,"is_disabled":false,"rental_uris":{"android":"levelo://app?vid=42d83229-1f4e-4053-8c7c-6525bcdbef32","ios":"levelo://app?vid=42d83229-1f4e-4053-8c7c-6525bcdbef32"},"vehicle_type_id":"4","last_reported":1685466260,"current_range_meters":8000,"station_id":"ce4bgt92rcd13ifvqcf0","pricing_plan_id":"free"},{"bike_id":"b6be3e91-307e-4bf8-91ec-3c16377fb283","system_id":"levelo_inurba_marseille","lat":43.313571,"lon":5.384829,"is_reserved":false,"is_disabled":false,"rental_uris":{"android":"levelo://app?vid=b6be3e91-307e-4bf8-91ec-3c16377fb283","ios":"levelo://app?vid=b6be3e91-307e-4bf8-91ec-3c16377fb283"},"vehicle_type_id":"4","last_reported":1685466260,"current_range_meters":1600,"station_id":"ce4bgt92rcd13ifvqcf0","pricing_plan_id":"free"},{"bike_id":"2f0bf0a9-c27f-4c1b-a332-7e91f1f09c83","system_id":"levelo_inurba_marseille","lat":43.29889,"lon":5.37125,"is_reserved":false,"is_disabled":false,"rental_uris":{"android":"levelo://app?vid=2f0bf0a9-c27f-4c1b-a332-7e91f1f09c83","ios":"levelo://app?vid=2f0bf0a9-c27f-4c1b-a332-7e91f1f09c83"},"vehicle_type_id":"4","last_reported":1685466260,"current_range_meters":30400,"station_id":"","pricing_plan_id":"free"},{"bike_id":"78dbbc16-897d-4734-833a-b4daa41d2930","system_id":"levelo_inurba_marseille","lat":43.299243,"lon":5.37481,"is_reserved":false,"is_disabled":false,"rental_uris":{"android":"levelo://app?vid=78dbbc16-897d-4734-833a-b4daa41d2930","ios":"levelo://app?vid=78dbbc16-897d-4734-833a-b4daa41d2930"},"vehicle_type_id":"4","last_reported":1685466260,"current_range_meters":28000,"station_id":"ce4bgjh2rcd13ifvqbg0","pricing_plan_id":"free"},{"bike_id":"4c3edd0f-36c8-49b6-9fc4-752d5f1db696","system_id":"levelo_inurba_marseille","lat":43.298433,"lon":5.362774,"is_reserved":false,"is_disabled":false,"rental_uris":{"android":"levelo://app?vid=4c3edd0f-36c8-49b6-9fc4-752d5f1db696","ios":"levelo://app?vid=4c3edd0f-36c8-49b6-9fc4-752d5f1db696"},"vehicle_type_id":"4","last_reported":1685466260,"current_range_meters":13600,"station_id":"ce4bgpp2rcd13ifvqc3g","pricing_plan_id":"free"},{"bike_id":"1b86cac0-07a3-4764-9bba-d3f4e2af5b90","system_id":"levelo_inurba_marseille","lat":43.299243,"lon":5.374807,"is_reserved":false,"is_disabled":false,"rental_uris":{"android":"levelo://app?vid=1b86cac0-07a3-4764-9bba-d3f4e2af5b90","ios":"levelo://app?vid=1b86cac0-07a3-4764-9bba-d3f4e2af5b90"},"vehicle_type_id":"4","last_reported":1685466260,"current_range_meters":30800,"station_id":"ce4bgjh2rcd13ifvqbg0","pricing_plan_id":"free"},{"bike_id":"0740302d-4514-4bda-807e-d529394ecb36","system_id":"levelo_inurba_marseille","lat":43.297794,"lon":5.370888,"is_reserved":false,"is_disabled":false,"rental_uris":{"android":"levelo://app?vid=0740302d-4514-4bda-807e-d529394ecb36","ios":"levelo://app?vid=0740302d-4514-4bda-807e-d529394ecb36"},"vehicle_type_id":"4","last_reported":1685466260,"current_range_meters":0,"station_id":"ce4bgop2rcd13ifvqc1g","pricing_plan_id":"free"},{"bike_id":"f61a1163-c1cd-4fb3-a64d-6024ac37ceb6","system_id":"levelo_inurba_marseille","lat":43.29714,"lon":5.36623,"is_reserved":false,"is_disabled":false,"rental_uris":{"android":"levelo://app?vid=f61a1163-c1cd-4fb3-a64d-6024ac37ceb6","ios":"levelo://app?vid=f61a1163-c1cd-4fb3-a64d-6024ac37ceb6"},"vehicle_type_id":"4","last_reported":1685466260,"current_range_meters":10400,"station_id":"","pricing_plan_id":"free"},{"bike_id":"91b92a01-f52b-4107-9d86-ef4b96e3f47d","system_id":"levelo_inurba_marseille","lat":43.29646,"lon":5.37444,"is_reserved":false,"is_disabled":false,"rental_uris":{"android":"levelo://app?vid=91b92a01-f52b-4107-9d86-ef4b96e3f47d","ios":"levelo://app?vid=91b92a01-f52b-4107-9d86-ef4b96e3f47d"},"vehicle_type_id":"4","last_reported":1685466260,"current_range_meters":0,"station_id":"","pricing_plan_id":"free"},{"bike_id":"5c3d77af-181e-47d9-a0b9-3f822a2fa565","system_id":"levelo_inurba_marseille","lat":43.309589,"lon":5.390258,"is_reserved":false,"is_disabled":false,"rental_uris":{"android":"levelo://app?vid=5c3d77af-181e-47d9-a0b9-3f822a2fa565","ios":"levelo://app?vid=5c3d77af-181e-47d9-a0b9-3f822a2fa565"},"vehicle_type_id":"4","last_reported":1685466260,"current_range_meters":11200,"station_id":"ce4bgup2rcd13ifvqco0","pricing_plan_id":"free"},{"bike_id":"a955b937-77a7-4fe8-bbe0-8ca892f98886","system_id":"levelo_inurba_marseille","lat":43.309589,"lon":5.390258,"is_reserved":false,"is_disabled":false,"rental_uris":{"android":"levelo://app?vid=a955b937-77a7-4fe8-bbe0-8ca892f98886","ios":"levelo://app?vid=a955b937-77a7-4fe8-bbe0-8ca892f98886"},"vehicle_type_id":"4","last_reported":1685466260,"current_range_meters":16000,"station_id":"ce4bgup2rcd13ifvqco0","pricing_plan_id":"free"},{"bike_id":"9c2c8c10-008d-4fbc-af44-5c9dd621eeac","system_id":"levelo_inurba_marseille","lat":43.309589,"lon":5.390258,"is_reserved":false,"is_disabled":false,"rental_uris":{"android":"levelo://app?vid=9c2c8c10-008d-4fbc-af44-5c9dd621eeac","ios":"levelo://app?vid=9c2c8c10-008d-4fbc-af44-5c9dd621eeac"},"vehicle_type_id":"4","last_reported":1685466260,"current_range_meters":20000,"station_id":"ce4bgup2rcd13ifvqco0","pricing_plan_id":"free"},{"bike_id":"ca979f73-b7e3-401b-b738-07104a0914cd","system_id":"levelo_inurba_marseille","lat":43.317557,"lon":5.390173,"is_reserved":false,"is_disabled":false,"rental_uris":{"android":"levelo://app?vid=ca979f73-b7e3-401b-b738-07104a0914cd","ios":"levelo://app?vid=ca979f73-b7e3-401b-b738-07104a0914cd"},"vehicle_type_id":"4","last_reported":1685466260,"current_range_meters":6400,"station_id":"ce4bhqp2rcd13ifvqhng","pricing_plan_id":"free"},{"bike_id":"820af93f-3f43-47c4-a8a9-011979a432fe","system_id":"levelo_inurba_marseille","lat":43.298037,"lon":5.381066,"is_reserved":false,"is_disabled":false,"rental_uris":{"android":"levelo://app?vid=820af93f-3f43-47c4-a8a9-011979a432fe","ios":"levelo://app?vid=820af93f-3f43-47c4-a8a9-011979a432fe"},"vehicle_type_id":"4","last_reported":1685466260,"current_range_meters":2400,"station_id":"ce4bgip2rcd13ifvqbb0","pricing_plan_id":"free"},{"bike_id":"58f6c654-2350-4b7a-ac67-9e72ffe0f340","system_id":"levelo_inurba_marseille","lat":43.299707,"lon":5.384859,"is_reserved":false,"is_disabled":false,"rental_uris":{"android":"levelo://app?vid=58f6c654-2350-4b7a-ac67-9e72ffe0f340","ios":"levelo://app?vid=58f6c654-2350-4b7a-ac67-9e72ffe0f340"},"vehicle_type_id":"4","last_reported":1685466260,"current_range_meters":0,"station_id":"ce4bgj92rcd13ifvqbd0","pricing_plan_id":"free"},{"bike_id":"61ef9aa8-7113-4070-9605-24c0085f2fe5","system_id":"levelo_inurba_marseille","lat":43.299707,"lon":5.384859,"is_reserved":false,"is_disabled":false,"rental_uris":{"android":"levelo://app?vid=61ef9aa8-7113-4070-9605-24c0085f2fe5","ios":"levelo://app?vid=61ef9aa8-7113-4070-9605-24c0085f2fe5"},"vehicle_type_id":"4","last_reported":1685466260,"current_range_meters":0,"station_id":"ce4bgj92rcd13ifvqbd0","pricing_plan_id":"free"},{"bike_id":"c2bb940f-b0b1-467e-9437-5b8f03622ad7","system_id":"levelo_inurba_marseille","lat":43.299707,"lon":5.384859,"is_reserved":false,"is_disabled":false,"rental_uris":{"android":"levelo://app?vid=c2bb940f-b0b1-467e-9437-5b8f03622ad7","ios":"levelo://app?vid=c2bb940f-b0b1-467e-9437-5b8f03622ad7"},"vehicle_type_id":"4","last_reported":1685466260,"current_range_meters":0,"station_id":"ce4bgj92rcd13ifvqbd0","pricing_plan_id":"free"},{"bike_id":"d86a8c46-240d-427f-979b-5b78cfe3b6c1","system_id":"levelo_inurba_marseille","lat":43.32365,"lon":5.38876,"is_reserved":false,"is_disabled":false,"rental_uris":{"android":"levelo://app?vid=d86a8c46-240d-427f-979b-5b78cfe3b6c1","ios":"levelo://app?vid=d86a8c46-240d-427f-979b-5b78cfe3b6c1"},"vehicle_type_id":"4","last_reported":1685466260,"current_range_meters":20800,"station_id":"ce4bhqp2rcd13ifvqhog","pricing_plan_id":"free"},{"bike_id":"cd1dc179-09ef-4347-9ad1-cadc44185dee","system_id":"levelo_inurba_marseille","lat":43.32367,"lon":5.388836,"is_reserved":false,"is_disabled":false,"rental_uris":{"android":"levelo://app?vid=cd1dc179-09ef-4347-9ad1-cadc44185dee","ios":"levelo://app?vid=cd1dc179-09ef-4347-9ad1-cadc44185dee"},"vehicle_type_id":"4","last_reported":1685466260,"current_range_meters":10000,"station_id":"ce4bhqp2rcd13ifvqhog","pricing_plan_id":"free"},{"bike_id":"fdaa9378-2bab-4dcd-ac61-bb973ffc0375","system_id":"levelo_inurba_marseille","lat":43.32364,"lon":5.38883,"is_reserved":false,"is_disabled":false,"rental_uris":{"android":"levelo://app?vid=fdaa9378-2bab-4dcd-ac61-bb973ffc0375","ios":"levelo://app?vid=fdaa9378-2bab-4dcd-ac61-bb973ffc0375"},"vehicle_type_id":"4","last_reported":1685466260,"current_range_meters":11600,"station_id":"ce4bhqp2rcd13ifvqhog","pricing_plan_id":"free"},{"bike_id":"950f3a0b-8466-40bf-8f81-5f5cf1a96632","system_id":"levelo_inurba_marseille","lat":43.32367,"lon":5.388836,"is_reserved":false,"is_disabled":false,"rental_uris":{"android":"levelo://app?vid=950f3a0b-8466-40bf-8f81-5f5cf1a96632","ios":"levelo://app?vid=950f3a0b-8466-40bf-8f81-5f5cf1a96632"},"vehicle_type_id":"4","last_reported":1685466260,"current_range_meters":4000,"station_id":"ce4bhqp2rcd13ifvqhog","pricing_plan_id":"free"},{"bike_id":"f60eb627-0ea6-40e1-bca2-a3bf41710afb","system_id":"levelo_inurba_marseille","lat":43.32361,"lon":5.38891,"is_reserved":false,"is_disabled":false,"rental_uris":{"android":"levelo://app?vid=f60eb627-0ea6-40e1-bca2-a3bf41710afb","ios":"levelo://app?vid=f60eb627-0ea6-40e1-bca2-a3bf41710afb"},"vehicle_type_id":"4","last_reported":1685466260,"current_range_meters":16000,"station_id":"ce4bhqp2rcd13ifvqhog","pricing_plan_id":"free"},{"bike_id":"00c9b202-b5b6-4f69-8084-db1f9466ee79","system_id":"levelo_inurba_marseille","lat":43.32367,"lon":5.388836,"is_reserved":false,"is_disabled":false,"rental_uris":{"android":"levelo://app?vid=00c9b202-b5b6-4f69-8084-db1f9466ee79","ios":"levelo://app?vid=00c9b202-b5b6-4f69-8084-db1f9466ee79"},"vehicle_type_id":"4","last_reported":1685466260,"current_range_meters":20800,"station_id":"ce4bhqp2rcd13ifvqhog","pricing_plan_id":"free"},{"bike_id":"019e8e5f-898c-403c-bff5-44d0c77958de","system_id":"levelo_inurba_marseille","lat":43.32367,"lon":5.388836,"is_reserved":false,"is_disabled":false,"rental_uris":{"android":"levelo://app?vid=019e8e5f-898c-403c-bff5-44d0c77958de","ios":"levelo://app?vid=019e8e5f-898c-403c-bff5-44d0c77958de"},"vehicle_type_id":"4","last_reported":1685466260,"current_range_meters":23200,"station_id":"ce4bhqp2rcd13ifvqhog","pricing_plan_id":"free"},{"bike_id":"6345f779-7590-4ebf-81b7-14a3c3a95e37","system_id":"levelo_inurba_marseille","lat":43.32366,"lon":5.38895,"is_reserved":false,"is_disabled":false,"rental_uris":{"android":"levelo://app?vid=6345f779-7590-4ebf-81b7-14a3c3a95e37","ios":"levelo://app?vid=6345f779-7590-4ebf-81b7-14a3c3a95e37"},"vehicle_type_id":"4","last_reported":1685466260,"current_range_meters":1200,"station_id":"ce4bhqp2rcd13ifvqhog","pricing_plan_id":"free"},{"bike_id":"60a2da17-2004-45e9-85eb-b49e6830fed7","system_id":"levelo_inurba_marseille","lat":43.292749,"lon":5.368402,"is_reserved":false,"is_disabled":false,"rental_uris":{"android":"levelo://app?vid=60a2da17-2004-45e9-85eb-b49e6830fed7","ios":"levelo://app?vid=60a2da17-2004-45e9-85eb-b49e6830fed7"},"vehicle_type_id":"4","last_reported":1685466260,"current_range_meters":20000,"station_id":"ce4bhbp2rcd13ifvqesg","pricing_plan_id":"free"},{"bike_id":"68a6a190-f54b-4563-a957-c7afbafdd501","system_id":"levelo_inurba_marseille","lat":43.292749,"lon":5.368402,"is_reserved":false,"is_disabled":false,"rental_uris":{"android":"levelo://app?vid=68a6a190-f54b-4563-a957-c7afbafdd501","ios":"levelo://app?vid=68a6a190-f54b-4563-a957-c7afbafdd501"},"vehicle_type_id":"4","last_reported":1685466260,"current_range_meters":1200,"station_id":"ce4bhbp2rcd13ifvqesg","pricing_plan_id":"free"},{"bike_id":"b40763d4-2162-4b67-a547-fbd4b8087c47","system_id":"levelo_inurba_marseille","lat":43.292749,"lon":5.368402,"is_reserved":false,"is_disabled":false,"rental_uris":{"android":"levelo://app?vid=b40763d4-2162-4b67-a547-fbd4b8087c47","ios":"levelo://app?vid=b40763d4-2162-4b67-a547-fbd4b8087c47"},"vehicle_type_id":"4","last_reported":1685466260,"current_range_meters":24000,"station_id":"ce4bhbp2rcd13ifvqesg","pricing_plan_id":"free"},{"bike_id":"e9edd627-5946-4759-ab8d-041e98b0659b","system_id":"levelo_inurba_marseille","lat":43.305994,"lon":5.393687,"is_reserved":false,"is_disabled":false,"rental_uris":{"android":"levelo://app?vid=e9edd627-5946-4759-ab8d-041e98b0659b","ios":"levelo://app?vid=e9edd627-5946-4759-ab8d-041e98b0659b"},"vehicle_type_id":"4","last_reported":1685466260,"current_range_meters":11600,"station_id":"ce4bh0p2rcd13ifvqd80","pricing_plan_id":"free"},{"bike_id":"dff70bd2-4ab6-42cc-baaa-01102b7831c8","system_id":"levelo_inurba_marseille","lat":43.306185,"lon":5.39387,"is_reserved":false,"is_disabled":false,"rental_uris":{"android":"levelo://app?vid=dff70bd2-4ab6-42cc-baaa-01102b7831c8","ios":"levelo://app?vid=dff70bd2-4ab6-42cc-baaa-01102b7831c8"},"vehicle_type_id":"4","last_reported":1685466260,"current_range_meters":3200,"station_id":"ce4bh0p2rcd13ifvqd80","pricing_plan_id":"free"},{"bike_id":"77013ac6-c530-4d2a-b90b-5591a8df44df","system_id":"levelo_inurba_marseille","lat":43.29388,"lon":5.37883,"is_reserved":false,"is_disabled":false,"rental_uris":{"android":"levelo://app?vid=77013ac6-c530-4d2a-b90b-5591a8df44df","ios":"levelo://app?vid=77013ac6-c530-4d2a-b90b-5591a8df44df"},"vehicle_type_id":"4","last_reported":1685466260,"current_range_meters":9200,"station_id":"","pricing_plan_id":"free"},{"bike_id":"d7a39ad4-b024-42ee-b071-56489df0d5a1","system_id":"levelo_inurba_marseille","lat":43.33231,"lon":5.3787,"is_reserved":false,"is_disabled":false,"rental_uris":{"android":"levelo://app?vid=d7a39ad4-b024-42ee-b071-56489df0d5a1","ios":"levelo://app?vid=d7a39ad4-b024-42ee-b071-56489df0d5a1"},"vehicle_type_id":"4","last_reported":1685466260,"current_range_meters":5600,"station_id":"","pricing_plan_id":"free"},{"bike_id":"eeb89fe7-af9a-43e6-87fd-259dc11e7585","system_id":"levelo_inurba_marseille","lat":43.291994,"lon":5.357886,"is_reserved":false,"is_disabled":false,"rental_uris":{"android":"levelo://app?vid=eeb89fe7-af9a-43e6-87fd-259dc11e7585","ios":"levelo://app?vid=eeb89fe7-af9a-43e6-87fd-259dc11e7585"},"vehicle_type_id":"4","last_reported":1685466260,"current_range_meters":0,"station_id":"ce4bhb12rcd13ifvqel0","pricing_plan_id":"free"},{"bike_id":"b540f8a5-b405-46b6-bc0c-16ee573e2286","system_id":"levelo_inurba_marseille","lat":43.309038,"lon":5.396546,"is_reserved":false,"is_disabled":false,"rental_uris":{"android":"levelo://app?vid=b540f8a5-b405-46b6-bc0c-16ee573e2286","ios":"levelo://app?vid=b540f8a5-b405-46b6-bc0c-16ee573e2286"},"vehicle_type_id":"4","last_reported":1685466260,"current_range_meters":22800,"station_id":"ce4bh012rcd13ifvqcv0","pricing_plan_id":"free"},{"bike_id":"a6260846-0466-4507-b257-b3a05265fd33","system_id":"levelo_inurba_marseille","lat":43.290327,"lon":5.375711,"is_reserved":false,"is_disabled":false,"rental_uris":{"android":"levelo://app?vid=a6260846-0466-4507-b257-b3a05265fd33","ios":"levelo://app?vid=a6260846-0466-4507-b257-b3a05265fd33"},"vehicle_type_id":"4","last_reported":1685466260,"current_range_meters":9600,"station_id":"ce4bh692rcd13ifvqe90","pricing_plan_id":"free"},{"bike_id":"a47dff26-340e-4c54-bcb6-72b7ea0088d2","system_id":"levelo_inurba_marseille","lat":43.294162,"lon":5.386292,"is_reserved":false,"is_disabled":false,"rental_uris":{"android":"levelo://app?vid=a47dff26-340e-4c54-bcb6-72b7ea0088d2","ios":"levelo://app?vid=a47dff26-340e-4c54-bcb6-72b7ea0088d2"},"vehicle_type_id":"4","last_reported":1685466260,"current_range_meters":14000,"station_id":"ce4bh2h2rcd13ifvqdh0","pricing_plan_id":"free"},{"bike_id":"79d21d36-5590-421a-8370-abde529e659e","system_id":"levelo_inurba_marseille","lat":43.2607,"lon":5.393983,"is_reserved":false,"is_disabled":false,"rental_uris":{"android":"levelo://app?vid=79d21d36-5590-421a-8370-abde529e659e","ios":"levelo://app?vid=79d21d36-5590-421a-8370-abde529e659e"},"vehicle_type_id":"4","last_reported":1685466260,"current_range_meters":0,"station_id":"ce4bhh92rcd13ifvqfj0","pricing_plan_id":"free"},{"bike_id":"7f7539a7-7ec3-42db-bbad-7a65658b61d9","system_id":"levelo_inurba_marseille","lat":43.29419,"lon":5.38622,"is_reserved":false,"is_disabled":false,"rental_uris":{"android":"levelo://app?vid=7f7539a7-7ec3-42db-bbad-7a65658b61d9","ios":"levelo://app?vid=7f7539a7-7ec3-42db-bbad-7a65658b61d9"},"vehicle_type_id":"4","last_reported":1685466260,"current_range_meters":0,"station_id":"ce4bh2h2rcd13ifvqdh0","pricing_plan_id":"free"},{"bike_id":"2a66703b-9bfb-4d4d-bdfa-0433cf98f136","system_id":"levelo_inurba_marseille","lat":43.290327,"lon":5.375711,"is_reserved":false,"is_disabled":false,"rental_uris":{"android":"levelo://app?vid=2a66703b-9bfb-4d4d-bdfa-0433cf98f136","ios":"levelo://app?vid=2a66703b-9bfb-4d4d-bdfa-0433cf98f136"},"vehicle_type_id":"4","last_reported":1685466260,"current_range_meters":24800,"station_id":"ce4bh692rcd13ifvqe90","pricing_plan_id":"free"},{"bike_id":"48ef0d38-20ae-4d39-b951-83526a0988f9","system_id":"levelo_inurba_marseille","lat":43.294153,"lon":5.386305,"is_reserved":false,"is_disabled":false,"rental_uris":{"android":"levelo://app?vid=48ef0d38-20ae-4d39-b951-83526a0988f9","ios":"levelo://app?vid=48ef0d38-20ae-4d39-b951-83526a0988f9"},"vehicle_type_id":"4","last_reported":1685466260,"current_range_meters":0,"station_id":"ce4bh2h2rcd13ifvqdh0","pricing_plan_id":"free"},{"bike_id":"61196788-1c0f-433b-992c-5a87ca1f09bc","system_id":"levelo_inurba_marseille","lat":43.294162,"lon":5.386292,"is_reserved":false,"is_disabled":false,"rental_uris":{"android":"levelo://app?vid=61196788-1c0f-433b-992c-5a87ca1f09bc","ios":"levelo://app?vid=61196788-1c0f-433b-992c-5a87ca1f09bc"},"vehicle_type_id":"4","last_reported":1685466260,"current_range_meters":21600,"station_id":"ce4bh2h2rcd13ifvqdh0","pricing_plan_id":"free"},{"bike_id":"156a18bf-76d1-47f8-ac0e-444853f71355","system_id":"levelo_inurba_marseille","lat":43.28952,"lon":5.36399,"is_reserved":false,"is_disabled":false,"rental_uris":{"android":"levelo://app?vid=156a18bf-76d1-47f8-ac0e-444853f71355","ios":"levelo://app?vid=156a18bf-76d1-47f8-ac0e-444853f71355"},"vehicle_type_id":"4","last_reported":1685466260,"current_range_meters":4800,"station_id":"ce4bhc92rcd13ifvqetg","pricing_plan_id":"free"},{"bike_id":"1f588b81-e605-4a48-a767-9836ba326bef","system_id":"levelo_inurba_marseille","lat":43.289468,"lon":5.363719,"is_reserved":false,"is_disabled":false,"rental_uris":{"android":"levelo://app?vid=1f588b81-e605-4a48-a767-9836ba326bef","ios":"levelo://app?vid=1f588b81-e605-4a48-a767-9836ba326bef"},"vehicle_type_id":"4","last_reported":1685466260,"current_range_meters":14800,"station_id":"ce4bhc92rcd13ifvqetg","pricing_plan_id":"free"},{"bike_id":"81df94b3-5c5b-42cb-aab0-0163befd4352","system_id":"levelo_inurba_marseille","lat":43.28934,"lon":5.36638,"is_reserved":false,"is_disabled":false,"rental_uris":{"android":"levelo://app?vid=81df94b3-5c5b-42cb-aab0-0163befd4352","ios":"levelo://app?vid=81df94b3-5c5b-42cb-aab0-0163befd4352"},"vehicle_type_id":"4","last_reported":1685466260,"current_range_meters":4800,"station_id":"ce4bhap2rcd13ifvqek0","pricing_plan_id":"free"},{"bike_id":"922a16fa-abc3-4fed-bd44-290435f132ec","system_id":"levelo_inurba_marseille","lat":43.2901,"lon":5.381269,"is_reserved":false,"is_disabled":false,"rental_uris":{"android":"levelo://app?vid=922a16fa-abc3-4fed-bd44-290435f132ec","ios":"levelo://app?vid=922a16fa-abc3-4fed-bd44-290435f132ec"},"vehicle_type_id":"4","last_reported":1685466260,"current_range_meters":1600,"station_id":"ce4bh4p2rcd13ifvqe1g","pricing_plan_id":"free"},{"bike_id":"68b670ee-ffb1-410a-8af7-d9a1de23e938","system_id":"levelo_inurba_marseille","lat":43.292642,"lon":5.384254,"is_reserved":false,"is_disabled":false,"rental_uris":{"android":"levelo://app?vid=68b670ee-ffb1-410a-8af7-d9a1de23e938","ios":"levelo://app?vid=68b670ee-ffb1-410a-8af7-d9a1de23e938"},"vehicle_type_id":"4","last_reported":1685466260,"current_range_meters":0,"station_id":"ce4bh692rcd13ifvqea0","pricing_plan_id":"free"},{"bike_id":"3b9f463b-33a8-4c02-8a5b-e3a0ee709cfd","system_id":"levelo_inurba_marseille","lat":43.29274,"lon":5.38446,"is_reserved":false,"is_disabled":false,"rental_uris":{"android":"levelo://app?vid=3b9f463b-33a8-4c02-8a5b-e3a0ee709cfd","ios":"levelo://app?vid=3b9f463b-33a8-4c02-8a5b-e3a0ee709cfd"},"vehicle_type_id":"4","last_reported":1685466260,"current_range_meters":14800,"station_id":"ce4bh692rcd13ifvqea0","pricing_plan_id":"free"},{"bike_id":"a3667436-3c52-4107-afec-ffe0c515ece9","system_id":"levelo_inurba_marseille","lat":43.292642,"lon":5.384254,"is_reserved":false,"is_disabled":false,"rental_uris":{"android":"levelo://app?vid=a3667436-3c52-4107-afec-ffe0c515ece9","ios":"levelo://app?vid=a3667436-3c52-4107-afec-ffe0c515ece9"},"vehicle_type_id":"4","last_reported":1685466260,"current_range_meters":5600,"station_id":"ce4bh692rcd13ifvqea0","pricing_plan_id":"free"},{"bike_id":"83222963-7678-4e0a-9c8a-dbda551f0aba","system_id":"levelo_inurba_marseille","lat":43.292642,"lon":5.384254,"is_reserved":false,"is_disabled":false,"rental_uris":{"android":"levelo://app?vid=83222963-7678-4e0a-9c8a-dbda551f0aba","ios":"levelo://app?vid=83222963-7678-4e0a-9c8a-dbda551f0aba"},"vehicle_type_id":"4","last_reported":1685466260,"current_range_meters":15600,"station_id":"ce4bh692rcd13ifvqea0","pricing_plan_id":"free"},{"bike_id":"b54d67d9-26ce-4e90-80ca-d69da67e5415","system_id":"levelo_inurba_marseille","lat":43.292642,"lon":5.384254,"is_reserved":false,"is_disabled":false,"rental_uris":{"android":"levelo://app?vid=b54d67d9-26ce-4e90-80ca-d69da67e5415","ios":"levelo://app?vid=b54d67d9-26ce-4e90-80ca-d69da67e5415"},"vehicle_type_id":"4","last_reported":1685466260,"current_range_meters":11600,"station_id":"ce4bh692rcd13ifvqea0","pricing_plan_id":"free"},{"bike_id":"8c29d68b-97e7-45d2-b800-55937372ab24","system_id":"levelo_inurba_marseille","lat":43.290104,"lon":5.356111,"is_reserved":false,"is_disabled":false,"rental_uris":{"android":"levelo://app?vid=8c29d68b-97e7-45d2-b800-55937372ab24","ios":"levelo://app?vid=8c29d68b-97e7-45d2-b800-55937372ab24"},"vehicle_type_id":"4","last_reported":1685466260,"current_range_meters":1600,"station_id":"ce4bhb92rcd13ifvqen0","pricing_plan_id":"free"},{"bike_id":"afb232ea-9dcb-42d9-a058-a18515442921","system_id":"levelo_inurba_marseille","lat":43.290104,"lon":5.356111,"is_reserved":false,"is_disabled":false,"rental_uris":{"android":"levelo://app?vid=afb232ea-9dcb-42d9-a058-a18515442921","ios":"levelo://app?vid=afb232ea-9dcb-42d9-a058-a18515442921"},"vehicle_type_id":"4","last_reported":1685466260,"current_range_meters":24800,"station_id":"ce4bhb92rcd13ifvqen0","pricing_plan_id":"free"},{"bike_id":"9fda4b32-966e-4aba-96ef-41f727f15bba","system_id":"levelo_inurba_marseille","lat":43.33041,"lon":5.38918,"is_reserved":false,"is_disabled":false,"rental_uris":{"android":"levelo://app?vid=9fda4b32-966e-4aba-96ef-41f727f15bba","ios":"levelo://app?vid=9fda4b32-966e-4aba-96ef-41f727f15bba"},"vehicle_type_id":"4","last_reported":1685466260,"current_range_meters":26000,"station_id":"ce4bhr92rcd13ifvqhrg","pricing_plan_id":"free"},{"bike_id":"fc3299c6-1d72-487d-ba07-6cfc0fb311dc","system_id":"levelo_inurba_marseille","lat":43.33045,"lon":5.38917,"is_reserved":false,"is_disabled":false,"rental_uris":{"android":"levelo://app?vid=fc3299c6-1d72-487d-ba07-6cfc0fb311dc","ios":"levelo://app?vid=fc3299c6-1d72-487d-ba07-6cfc0fb311dc"},"vehicle_type_id":"4","last_reported":1685466260,"current_range_meters":24000,"station_id":"ce4bhr92rcd13ifvqhrg","pricing_plan_id":"free"},{"bike_id":"e17b760b-3b7c-4e64-a8af-9d845037c413","system_id":"levelo_inurba_marseille","lat":43.33045,"lon":5.38917,"is_reserved":false,"is_disabled":false,"rental_uris":{"android":"levelo://app?vid=e17b760b-3b7c-4e64-a8af-9d845037c413","ios":"levelo://app?vid=e17b760b-3b7c-4e64-a8af-9d845037c413"},"vehicle_type_id":"4","last_reported":1685466260,"current_range_meters":28000,"station_id":"ce4bhr92rcd13ifvqhrg","pricing_plan_id":"free"},{"bike_id":"8a189623-63fb-4c2a-846b-aa33f34b5cfd","system_id":"levelo_inurba_marseille","lat":43.33043,"lon":5.38921,"is_reserved":false,"is_disabled":false,"rental_uris":{"android":"levelo://app?vid=8a189623-63fb-4c2a-846b-aa33f34b5cfd","ios":"levelo://app?vid=8a189623-63fb-4c2a-846b-aa33f34b5cfd"},"vehicle_type_id":"4","last_reported":1685466260,"current_range_meters":26000,"station_id":"ce4bhr92rcd13ifvqhrg","pricing_plan_id":"free"},{"bike_id":"60420cf4-3b82-4648-be0e-9089e403318d","system_id":"levelo_inurba_marseille","lat":43.33046,"lon":5.38919,"is_reserved":false,"is_disabled":false,"rental_uris":{"android":"levelo://app?vid=60420cf4-3b82-4648-be0e-9089e403318d","ios":"levelo://app?vid=60420cf4-3b82-4648-be0e-9089e403318d"},"vehicle_type_id":"4","last_reported":1685466260,"current_range_meters":22400,"station_id":"ce4bhr92rcd13ifvqhrg","pricing_plan_id":"free"},{"bike_id":"88c6d61e-bfd8-4f4e-92b5-f07b0605837e","system_id":"levelo_inurba_marseille","lat":43.29003,"lon":5.35618,"is_reserved":false,"is_disabled":false,"rental_uris":{"android":"levelo://app?vid=88c6d61e-bfd8-4f4e-92b5-f07b0605837e","ios":"levelo://app?vid=88c6d61e-bfd8-4f4e-92b5-f07b0605837e"},"vehicle_type_id":"4","last_reported":1685466260,"current_range_meters":1200,"station_id":"ce4bhb92rcd13ifvqen0","pricing_plan_id":"free"},{"bike_id":"214cd52b-86dc-4d7c-b8c8-656e445142b6","system_id":"levelo_inurba_marseille","lat":43.330454,"lon":5.389224,"is_reserved":false,"is_disabled":false,"rental_uris":{"android":"levelo://app?vid=214cd52b-86dc-4d7c-b8c8-656e445142b6","ios":"levelo://app?vid=214cd52b-86dc-4d7c-b8c8-656e445142b6"},"vehicle_type_id":"4","last_reported":1685466260,"current_range_meters":29600,"station_id":"","pricing_plan_id":"free"},{"bike_id":"0f131166-1ac4-462b-95af-b6eb64cf7f18","system_id":"levelo_inurba_marseille","lat":43.33044,"lon":5.38926,"is_reserved":false,"is_disabled":false,"rental_uris":{"android":"levelo://app?vid=0f131166-1ac4-462b-95af-b6eb64cf7f18","ios":"levelo://app?vid=0f131166-1ac4-462b-95af-b6eb64cf7f18"},"vehicle_type_id":"4","last_reported":1685466260,"current_range_meters":25200,"station_id":"ce4bhr92rcd13ifvqhrg","pricing_plan_id":"free"},{"bike_id":"69f87366-090d-4bc0-9758-0f42d6ed45ce","system_id":"levelo_inurba_marseille","lat":43.3305,"lon":5.38918,"is_reserved":false,"is_disabled":false,"rental_uris":{"android":"levelo://app?vid=69f87366-090d-4bc0-9758-0f42d6ed45ce","ios":"levelo://app?vid=69f87366-090d-4bc0-9758-0f42d6ed45ce"},"vehicle_type_id":"4","last_reported":1685466260,"current_range_meters":24800,"station_id":"ce4bhr92rcd13ifvqhrg","pricing_plan_id":"free"},{"bike_id":"ab12f796-137d-4e28-95ee-ac5af904c7f8","system_id":"levelo_inurba_marseille","lat":43.33042,"lon":5.38931,"is_reserved":false,"is_disabled":false,"rental_uris":{"android":"levelo://app?vid=ab12f796-137d-4e28-95ee-ac5af904c7f8","ios":"levelo://app?vid=ab12f796-137d-4e28-95ee-ac5af904c7f8"},"vehicle_type_id":"4","last_reported":1685466260,"current_range_meters":25600,"station_id":"ce4bhr92rcd13ifvqhrg","pricing_plan_id":"free"},{"bike_id":"4f7803a6-3392-44b5-aa81-dde8a03de0fc","system_id":"levelo_inurba_marseille","lat":43.3305,"lon":5.38921,"is_reserved":false,"is_disabled":false,"rental_uris":{"android":"levelo://app?vid=4f7803a6-3392-44b5-aa81-dde8a03de0fc","ios":"levelo://app?vid=4f7803a6-3392-44b5-aa81-dde8a03de0fc"},"vehicle_type_id":"4","last_reported":1685466260,"current_range_meters":16400,"station_id":"ce4bhr92rcd13ifvqhrg","pricing_plan_id":"free"},{"bike_id":"be115698-ed9e-4818-8cb1-06cf0878778d","system_id":"levelo_inurba_marseille","lat":43.291024,"lon":5.381386,"is_reserved":false,"is_disabled":false,"rental_uris":{"android":"levelo://app?vid=be115698-ed9e-4818-8cb1-06cf0878778d","ios":"levelo://app?vid=be115698-ed9e-4818-8cb1-06cf0878778d"},"vehicle_type_id":"4","last_reported":1685466260,"current_range_meters":2800,"station_id":"","pricing_plan_id":"free"},{"bike_id":"9621bc81-9bea-4441-9139-c0a5b895c855","system_id":"levelo_inurba_marseille","lat":43.290995,"lon":5.381361,"is_reserved":false,"is_disabled":false,"rental_uris":{"android":"levelo://app?vid=9621bc81-9bea-4441-9139-c0a5b895c855","ios":"levelo://app?vid=9621bc81-9bea-4441-9139-c0a5b895c855"},"vehicle_type_id":"4","last_reported":1685466260,"current_range_meters":0,"station_id":"ce4bh512rcd13ifvqe2g","pricing_plan_id":"free"},{"bike_id":"ab9c81be-0fad-4a80-90bb-a3939dcea6f0","system_id":"levelo_inurba_marseille","lat":43.295169,"lon":5.390426,"is_reserved":false,"is_disabled":false,"rental_uris":{"android":"levelo://app?vid=ab9c81be-0fad-4a80-90bb-a3939dcea6f0","ios":"levelo://app?vid=ab9c81be-0fad-4a80-90bb-a3939dcea6f0"},"vehicle_type_id":"4","last_reported":1685466260,"current_range_meters":23600,"station_id":"ce4bh3p2rcd13ifvqdp0","pricing_plan_id":"free"},{"bike_id":"25acadd9-2ab7-4d4c-9809-2ee56e5fe4b2","system_id":"levelo_inurba_marseille","lat":43.29536,"lon":5.39039,"is_reserved":false,"is_disabled":false,"rental_uris":{"android":"levelo://app?vid=25acadd9-2ab7-4d4c-9809-2ee56e5fe4b2","ios":"levelo://app?vid=25acadd9-2ab7-4d4c-9809-2ee56e5fe4b2"},"vehicle_type_id":"4","last_reported":1685466260,"current_range_meters":26400,"station_id":"ce4bh3p2rcd13ifvqdp0","pricing_plan_id":"free"},{"bike_id":"82822621-c085-4ded-8298-9262a52cc911","system_id":"levelo_inurba_marseille","lat":43.29535,"lon":5.39048,"is_reserved":false,"is_disabled":false,"rental_uris":{"android":"levelo://app?vid=82822621-c085-4ded-8298-9262a52cc911","ios":"levelo://app?vid=82822621-c085-4ded-8298-9262a52cc911"},"vehicle_type_id":"4","last_reported":1685466260,"current_range_meters":0,"station_id":"ce4bh3p2rcd13ifvqdp0","pricing_plan_id":"free"},{"bike_id":"4c9b8b38-a6d1-4494-b5a5-5d6cea1b1acc","system_id":"levelo_inurba_marseille","lat":43.295169,"lon":5.390426,"is_reserved":false,"is_disabled":false,"rental_uris":{"android":"levelo://app?vid=4c9b8b38-a6d1-4494-b5a5-5d6cea1b1acc","ios":"levelo://app?vid=4c9b8b38-a6d1-4494-b5a5-5d6cea1b1acc"},"vehicle_type_id":"4","last_reported":1685466260,"current_range_meters":5200,"station_id":"ce4bh3p2rcd13ifvqdp0","pricing_plan_id":"free"},{"bike_id":"6e8ef1ba-86be-45b3-b86e-f3e25704cf4c","system_id":"levelo_inurba_marseille","lat":43.295169,"lon":5.390426,"is_reserved":false,"is_disabled":false,"rental_uris":{"android":"levelo://app?vid=6e8ef1ba-86be-45b3-b86e-f3e25704cf4c","ios":"levelo://app?vid=6e8ef1ba-86be-45b3-b86e-f3e25704cf4c"},"vehicle_type_id":"4","last_reported":1685466260,"current_range_meters":12800,"station_id":"ce4bh3p2rcd13ifvqdp0","pricing_plan_id":"free"},{"bike_id":"141c14ea-594b-43ee-894e-8c44af1dcd73","system_id":"levelo_inurba_marseille","lat":43.33741,"lon":5.37457,"is_reserved":false,"is_disabled":false,"rental_uris":{"android":"levelo://app?vid=141c14ea-594b-43ee-894e-8c44af1dcd73","ios":"levelo://app?vid=141c14ea-594b-43ee-894e-8c44af1dcd73"},"vehicle_type_id":"4","last_reported":1685466260,"current_range_meters":28800,"station_id":"","pricing_plan_id":"free"},{"bike_id":"60365b11-ef18-42d8-96a4-e4f2839d6bb5","system_id":"levelo_inurba_marseille","lat":43.33745,"lon":5.37455,"is_reserved":false,"is_disabled":false,"rental_uris":{"android":"levelo://app?vid=60365b11-ef18-42d8-96a4-e4f2839d6bb5","ios":"levelo://app?vid=60365b11-ef18-42d8-96a4-e4f2839d6bb5"},"vehicle_type_id":"4","last_reported":1685466260,"current_range_meters":30400,"station_id":"","pricing_plan_id":"free"},{"bike_id":"556c6db1-2600-4c2b-9521-aae8453517c1","system_id":"levelo_inurba_marseille","lat":43.33747,"lon":5.37443,"is_reserved":false,"is_disabled":false,"rental_uris":{"android":"levelo://app?vid=556c6db1-2600-4c2b-9521-aae8453517c1","ios":"levelo://app?vid=556c6db1-2600-4c2b-9521-aae8453517c1"},"vehicle_type_id":"4","last_reported":1685466260,"current_range_meters":5200,"station_id":"","pricing_plan_id":"free"},{"bike_id":"61c719db-daae-4f13-b259-d05f297b4a6f","system_id":"levelo_inurba_marseille","lat":43.33756,"lon":5.37452,"is_reserved":false,"is_disabled":false,"rental_uris":{"android":"levelo://app?vid=61c719db-daae-4f13-b259-d05f297b4a6f","ios":"levelo://app?vid=61c719db-daae-4f13-b259-d05f297b4a6f"},"vehicle_type_id":"4","last_reported":1685466260,"current_range_meters":28800,"station_id":"","pricing_plan_id":"free"},{"bike_id":"6d678481-0e0b-436a-aa94-9d12fa2c91f5","system_id":"levelo_inurba_marseille","lat":43.33798,"lon":5.37439,"is_reserved":false,"is_disabled":false,"rental_uris":{"android":"levelo://app?vid=6d678481-0e0b-436a-aa94-9d12fa2c91f5","ios":"levelo://app?vid=6d678481-0e0b-436a-aa94-9d12fa2c91f5"},"vehicle_type_id":"4","last_reported":1685466260,"current_range_meters":30400,"station_id":"","pricing_plan_id":"free"},{"bike_id":"7e0c0594-e0c4-4b79-8b19-3b65a37f87f6","system_id":"levelo_inurba_marseille","lat":43.30452,"lon":5.40099,"is_reserved":false,"is_disabled":false,"rental_uris":{"android":"levelo://app?vid=7e0c0594-e0c4-4b79-8b19-3b65a37f87f6","ios":"levelo://app?vid=7e0c0594-e0c4-4b79-8b19-3b65a37f87f6"},"vehicle_type_id":"4","last_reported":1685466260,"current_range_meters":23600,"station_id":"","pricing_plan_id":"free"},{"bike_id":"e9ba4063-cfae-4208-a5b7-8c01ce70dda3","system_id":"levelo_inurba_marseille","lat":43.298681,"lon":5.397225,"is_reserved":false,"is_disabled":false,"rental_uris":{"android":"levelo://app?vid=e9ba4063-cfae-4208-a5b7-8c01ce70dda3","ios":"levelo://app?vid=e9ba4063-cfae-4208-a5b7-8c01ce70dda3"},"vehicle_type_id":"4","last_reported":1685466260,"current_range_meters":1600,"station_id":"ce4bh0h2rcd13ifvqd50","pricing_plan_id":"free"},{"bike_id":"2f67238b-6d20-4bc5-9c20-f4df7e8c5938","system_id":"levelo_inurba_marseille","lat":43.298681,"lon":5.397225,"is_reserved":false,"is_disabled":false,"rental_uris":{"android":"levelo://app?vid=2f67238b-6d20-4bc5-9c20-f4df7e8c5938","ios":"levelo://app?vid=2f67238b-6d20-4bc5-9c20-f4df7e8c5938"},"vehicle_type_id":"4","last_reported":1685466260,"current_range_meters":800,"station_id":"ce4bh0h2rcd13ifvqd50","pricing_plan_id":"free"},{"bike_id":"bdc4ec28-fb6b-40a6-9e86-3a058337aa62","system_id":"levelo_inurba_marseille","lat":43.295196,"lon":5.39397,"is_reserved":false,"is_disabled":false,"rental_uris":{"android":"levelo://app?vid=bdc4ec28-fb6b-40a6-9e86-3a058337aa62","ios":"levelo://app?vid=bdc4ec28-fb6b-40a6-9e86-3a058337aa62"},"vehicle_type_id":"4","last_reported":1685466260,"current_range_meters":11200,"station_id":"ce4bh292rcd13ifvqdf0","pricing_plan_id":"free"},{"bike_id":"42d69e10-4770-44a5-8b0a-8d1ef227156e","system_id":"levelo_inurba_marseille","lat":43.2953,"lon":5.39408,"is_reserved":false,"is_disabled":false,"rental_uris":{"android":"levelo://app?vid=42d69e10-4770-44a5-8b0a-8d1ef227156e","ios":"levelo://app?vid=42d69e10-4770-44a5-8b0a-8d1ef227156e"},"vehicle_type_id":"4","last_reported":1685466260,"current_range_meters":14400,"station_id":"ce4bh292rcd13ifvqdf0","pricing_plan_id":"free"},{"bike_id":"7fb62996-745e-4e27-8e4e-fc0bf49bcff8","system_id":"levelo_inurba_marseille","lat":43.290345,"lon":5.38646,"is_reserved":false,"is_disabled":false,"rental_uris":{"android":"levelo://app?vid=7fb62996-745e-4e27-8e4e-fc0bf49bcff8","ios":"levelo://app?vid=7fb62996-745e-4e27-8e4e-fc0bf49bcff8"},"vehicle_type_id":"4","last_reported":1685466260,"current_range_meters":0,"station_id":"ce4bh4p2rcd13ifvqe0g","pricing_plan_id":"free"},{"bike_id":"57c3fe4d-b747-4a23-b460-3388565ecd9d","system_id":"levelo_inurba_marseille","lat":43.29036,"lon":5.38655,"is_reserved":false,"is_disabled":false,"rental_uris":{"android":"levelo://app?vid=57c3fe4d-b747-4a23-b460-3388565ecd9d","ios":"levelo://app?vid=57c3fe4d-b747-4a23-b460-3388565ecd9d"},"vehicle_type_id":"4","last_reported":1685466260,"current_range_meters":10000,"station_id":"ce4bh4p2rcd13ifvqe0g","pricing_plan_id":"free"},{"bike_id":"021dfccd-cb8d-45e4-afb3-b374c9c986a0","system_id":"levelo_inurba_marseille","lat":43.290345,"lon":5.38646,"is_reserved":false,"is_disabled":false,"rental_uris":{"android":"levelo://app?vid=021dfccd-cb8d-45e4-afb3-b374c9c986a0","ios":"levelo://app?vid=021dfccd-cb8d-45e4-afb3-b374c9c986a0"},"vehicle_type_id":"4","last_reported":1685466260,"current_range_meters":2800,"station_id":"ce4bh4p2rcd13ifvqe0g","pricing_plan_id":"free"},{"bike_id":"1c754ec5-deb6-4576-83d6-2e7f4d67b8fb","system_id":"levelo_inurba_marseille","lat":43.302759,"lon":5.400793,"is_reserved":false,"is_disabled":false,"rental_uris":{"android":"levelo://app?vid=1c754ec5-deb6-4576-83d6-2e7f4d67b8fb","ios":"levelo://app?vid=1c754ec5-deb6-4576-83d6-2e7f4d67b8fb"},"vehicle_type_id":"4","last_reported":1685466260,"current_range_meters":28800,"station_id":"ce4bgvh2rcd13ifvqcs0","pricing_plan_id":"free"},{"bike_id":"962a1275-b27b-4ffd-8f7e-8ff15698030d","system_id":"levelo_inurba_marseille","lat":43.299577,"lon":5.413277,"is_reserved":false,"is_disabled":false,"rental_uris":{"android":"levelo://app?vid=962a1275-b27b-4ffd-8f7e-8ff15698030d","ios":"levelo://app?vid=962a1275-b27b-4ffd-8f7e-8ff15698030d"},"vehicle_type_id":"4","last_reported":1685466260,"current_range_meters":20400,"station_id":"ce4bhp12rcd13ifvqh9g","pricing_plan_id":"free"},{"bike_id":"b4f72e05-45f7-4642-b8a7-26456eeb076e","system_id":"levelo_inurba_marseille","lat":43.28607,"lon":5.37056,"is_reserved":false,"is_disabled":false,"rental_uris":{"android":"levelo://app?vid=b4f72e05-45f7-4642-b8a7-26456eeb076e","ios":"levelo://app?vid=b4f72e05-45f7-4642-b8a7-26456eeb076e"},"vehicle_type_id":"4","last_reported":1685466260,"current_range_meters":4800,"station_id":"ce4bht12rcd13ifvqi60","pricing_plan_id":"free"},{"bike_id":"31380d8a-1458-4757-a05b-252f693c3f5f","system_id":"levelo_inurba_marseille","lat":43.284538,"lon":5.358657,"is_reserved":false,"is_disabled":false,"rental_uris":{"android":"levelo://app?vid=31380d8a-1458-4757-a05b-252f693c3f5f","ios":"levelo://app?vid=31380d8a-1458-4757-a05b-252f693c3f5f"},"vehicle_type_id":"4","last_reported":1685466260,"current_range_meters":4000,"station_id":"ce4bhah2rcd13ifvqei0","pricing_plan_id":"free"},{"bike_id":"a01fe64d-c668-48a9-a062-ed8f28cf362e","system_id":"levelo_inurba_marseille","lat":43.284534,"lon":5.358662,"is_reserved":false,"is_disabled":false,"rental_uris":{"android":"levelo://app?vid=a01fe64d-c668-48a9-a062-ed8f28cf362e","ios":"levelo://app?vid=a01fe64d-c668-48a9-a062-ed8f28cf362e"},"vehicle_type_id":"4","last_reported":1685466260,"current_range_meters":0,"station_id":"ce4bhah2rcd13ifvqei0","pricing_plan_id":"free"},{"bike_id":"ed7cb1d1-4d82-4dd6-959b-a55d2f27850d","system_id":"levelo_inurba_marseille","lat":43.284534,"lon":5.358662,"is_reserved":false,"is_disabled":false,"rental_uris":{"android":"levelo://app?vid=ed7cb1d1-4d82-4dd6-959b-a55d2f27850d","ios":"levelo://app?vid=ed7cb1d1-4d82-4dd6-959b-a55d2f27850d"},"vehicle_type_id":"4","last_reported":1685466260,"current_range_meters":10400,"station_id":"ce4bhah2rcd13ifvqei0","pricing_plan_id":"free"},{"bike_id":"f8ed514f-b73e-439c-8783-0306ab4c690f","system_id":"levelo_inurba_marseille","lat":43.31747,"lon":5.40603,"is_reserved":false,"is_disabled":false,"rental_uris":{"android":"levelo://app?vid=f8ed514f-b73e-439c-8783-0306ab4c690f","ios":"levelo://app?vid=f8ed514f-b73e-439c-8783-0306ab4c690f"},"vehicle_type_id":"4","last_reported":1685466260,"current_range_meters":14800,"station_id":"","pricing_plan_id":"free"},{"bike_id":"ab6d9395-468c-4c68-85e7-1dde4e07f55f","system_id":"levelo_inurba_marseille","lat":43.295713,"lon":5.399639,"is_reserved":false,"is_disabled":false,"rental_uris":{"android":"levelo://app?vid=ab6d9395-468c-4c68-85e7-1dde4e07f55f","ios":"levelo://app?vid=ab6d9395-468c-4c68-85e7-1dde4e07f55f"},"vehicle_type_id":"4","last_reported":1685466260,"current_range_meters":25600,"station_id":"ce4bh312rcd13ifvqdj0","pricing_plan_id":"free"},{"bike_id":"5068eefc-e4e5-4d22-b02a-7ccdc1c24ce8","system_id":"levelo_inurba_marseille","lat":43.295713,"lon":5.399639,"is_reserved":false,"is_disabled":false,"rental_uris":{"android":"levelo://app?vid=5068eefc-e4e5-4d22-b02a-7ccdc1c24ce8","ios":"levelo://app?vid=5068eefc-e4e5-4d22-b02a-7ccdc1c24ce8"},"vehicle_type_id":"4","last_reported":1685466260,"current_range_meters":5600,"station_id":"ce4bh312rcd13ifvqdj0","pricing_plan_id":"free"},{"bike_id":"17aeca5b-0b9a-434d-9868-607083d83738","system_id":"levelo_inurba_marseille","lat":43.295713,"lon":5.399639,"is_reserved":false,"is_disabled":false,"rental_uris":{"android":"levelo://app?vid=17aeca5b-0b9a-434d-9868-607083d83738","ios":"levelo://app?vid=17aeca5b-0b9a-434d-9868-607083d83738"},"vehicle_type_id":"4","last_reported":1685466260,"current_range_meters":0,"station_id":"ce4bh312rcd13ifvqdj0","pricing_plan_id":"free"},{"bike_id":"a4196ab8-1656-45c1-8b8a-b2bc8c249ff0","system_id":"levelo_inurba_marseille","lat":43.295713,"lon":5.399639,"is_reserved":false,"is_disabled":false,"rental_uris":{"android":"levelo://app?vid=a4196ab8-1656-45c1-8b8a-b2bc8c249ff0","ios":"levelo://app?vid=a4196ab8-1656-45c1-8b8a-b2bc8c249ff0"},"vehicle_type_id":"4","last_reported":1685466260,"current_range_meters":11600,"station_id":"ce4bh312rcd13ifvqdj0","pricing_plan_id":"free"},{"bike_id":"99bb8669-4fcb-4c8e-b6e6-c1e167e91563","system_id":"levelo_inurba_marseille","lat":43.295713,"lon":5.399639,"is_reserved":false,"is_disabled":false,"rental_uris":{"android":"levelo://app?vid=99bb8669-4fcb-4c8e-b6e6-c1e167e91563","ios":"levelo://app?vid=99bb8669-4fcb-4c8e-b6e6-c1e167e91563"},"vehicle_type_id":"4","last_reported":1685466260,"current_range_meters":18800,"station_id":"ce4bh312rcd13ifvqdj0","pricing_plan_id":"free"},{"bike_id":"f595c8e3-9127-4d90-8fe5-c29ef38a5749","system_id":"levelo_inurba_marseille","lat":43.32353,"lon":5.4062,"is_reserved":false,"is_disabled":false,"rental_uris":{"android":"levelo://app?vid=f595c8e3-9127-4d90-8fe5-c29ef38a5749","ios":"levelo://app?vid=f595c8e3-9127-4d90-8fe5-c29ef38a5749"},"vehicle_type_id":"4","last_reported":1685466260,"current_range_meters":10000,"station_id":"ce4bhq92rcd13ifvqhjg","pricing_plan_id":"free"},{"bike_id":"6788bcec-f051-4fab-8cd4-df05ca82e02b","system_id":"levelo_inurba_marseille","lat":43.288501,"lon":5.393087,"is_reserved":false,"is_disabled":false,"rental_uris":{"android":"levelo://app?vid=6788bcec-f051-4fab-8cd4-df05ca82e02b","ios":"levelo://app?vid=6788bcec-f051-4fab-8cd4-df05ca82e02b"},"vehicle_type_id":"4","last_reported":1685466260,"current_range_meters":10400,"station_id":"ce4bh2p2rcd13ifvqdi0","pricing_plan_id":"free"},{"bike_id":"bfd38031-5e42-4b63-88f6-49706df99bf3","system_id":"levelo_inurba_marseille","lat":43.283498,"lon":5.380948,"is_reserved":false,"is_disabled":false,"rental_uris":{"android":"levelo://app?vid=bfd38031-5e42-4b63-88f6-49706df99bf3","ios":"levelo://app?vid=bfd38031-5e42-4b63-88f6-49706df99bf3"},"vehicle_type_id":"4","last_reported":1685466260,"current_range_meters":0,"station_id":"ce4bh412rcd13ifvqdr0","pricing_plan_id":"free"},{"bike_id":"ee55595c-a8e0-4a5d-90f6-54b086a7b8e0","system_id":"levelo_inurba_marseille","lat":43.28422,"lon":5.34978,"is_reserved":false,"is_disabled":false,"rental_uris":{"android":"levelo://app?vid=ee55595c-a8e0-4a5d-90f6-54b086a7b8e0","ios":"levelo://app?vid=ee55595c-a8e0-4a5d-90f6-54b086a7b8e0"},"vehicle_type_id":"4","last_reported":1685466260,"current_range_meters":12800,"station_id":"ce4bhbh2rcd13ifvqepg","pricing_plan_id":"free"},{"bike_id":"4c2fb9d0-4738-4df9-94fd-b72ecfbf2c12","system_id":"levelo_inurba_marseille","lat":43.2889,"lon":5.39455,"is_reserved":false,"is_disabled":false,"rental_uris":{"android":"levelo://app?vid=4c2fb9d0-4738-4df9-94fd-b72ecfbf2c12","ios":"levelo://app?vid=4c2fb9d0-4738-4df9-94fd-b72ecfbf2c12"},"vehicle_type_id":"4","last_reported":1685466260,"current_range_meters":400,"station_id":"","pricing_plan_id":"free"},{"bike_id":"e054e06f-cf26-41a2-ac77-285c1d73c91a","system_id":"levelo_inurba_marseille","lat":43.289363,"lon":5.396322,"is_reserved":false,"is_disabled":false,"rental_uris":{"android":"levelo://app?vid=e054e06f-cf26-41a2-ac77-285c1d73c91a","ios":"levelo://app?vid=e054e06f-cf26-41a2-ac77-285c1d73c91a"},"vehicle_type_id":"4","last_reported":1685466260,"current_range_meters":28400,"station_id":"ce4bh3h2rcd13ifvqdn0","pricing_plan_id":"free"},{"bike_id":"aab7a294-01e3-4d00-a7a9-3f59e81379fc","system_id":"levelo_inurba_marseille","lat":43.292724,"lon":5.401131,"is_reserved":false,"is_disabled":false,"rental_uris":{"android":"levelo://app?vid=aab7a294-01e3-4d00-a7a9-3f59e81379fc","ios":"levelo://app?vid=aab7a294-01e3-4d00-a7a9-3f59e81379fc"},"vehicle_type_id":"4","last_reported":1685466260,"current_range_meters":0,"station_id":"ce4bh312rcd13ifvqdk0","pricing_plan_id":"free"},{"bike_id":"ddcfe8f9-be96-44b5-93c4-7d2a848af3e9","system_id":"levelo_inurba_marseille","lat":43.292791,"lon":5.401125,"is_reserved":false,"is_disabled":false,"rental_uris":{"android":"levelo://app?vid=ddcfe8f9-be96-44b5-93c4-7d2a848af3e9","ios":"levelo://app?vid=ddcfe8f9-be96-44b5-93c4-7d2a848af3e9"},"vehicle_type_id":"4","last_reported":1685466260,"current_range_meters":30400,"station_id":"","pricing_plan_id":"free"},{"bike_id":"dac62806-e6be-40e6-a997-bd8b6c44433b","system_id":"levelo_inurba_marseille","lat":43.292724,"lon":5.401131,"is_reserved":false,"is_disabled":false,"rental_uris":{"android":"levelo://app?vid=dac62806-e6be-40e6-a997-bd8b6c44433b","ios":"levelo://app?vid=dac62806-e6be-40e6-a997-bd8b6c44433b"},"vehicle_type_id":"4","last_reported":1685466260,"current_range_meters":17200,"station_id":"ce4bh312rcd13ifvqdk0","pricing_plan_id":"free"},{"bike_id":"61e91549-e8e8-4306-b4aa-d927c016c1e6","system_id":"levelo_inurba_marseille","lat":43.292724,"lon":5.401131,"is_reserved":false,"is_disabled":false,"rental_uris":{"android":"levelo://app?vid=61e91549-e8e8-4306-b4aa-d927c016c1e6","ios":"levelo://app?vid=61e91549-e8e8-4306-b4aa-d927c016c1e6"},"vehicle_type_id":"4","last_reported":1685466260,"current_range_meters":19600,"station_id":"ce4bh312rcd13ifvqdk0","pricing_plan_id":"free"},{"bike_id":"99c7c67b-1031-491c-af10-80412f7256ff","system_id":"levelo_inurba_marseille","lat":43.29272,"lon":5.40123,"is_reserved":false,"is_disabled":false,"rental_uris":{"android":"levelo://app?vid=99c7c67b-1031-491c-af10-80412f7256ff","ios":"levelo://app?vid=99c7c67b-1031-491c-af10-80412f7256ff"},"vehicle_type_id":"4","last_reported":1685466260,"current_range_meters":24800,"station_id":"ce4bh312rcd13ifvqdk0","pricing_plan_id":"free"},{"bike_id":"2748d0b4-0bc0-4c6f-8da1-dad205839257","system_id":"levelo_inurba_marseille","lat":43.29276,"lon":5.40129,"is_reserved":false,"is_disabled":false,"rental_uris":{"android":"levelo://app?vid=2748d0b4-0bc0-4c6f-8da1-dad205839257","ios":"levelo://app?vid=2748d0b4-0bc0-4c6f-8da1-dad205839257"},"vehicle_type_id":"4","last_reported":1685466260,"current_range_meters":31200,"station_id":"ce4bh312rcd13ifvqdk0","pricing_plan_id":"free"},{"bike_id":"3ea6a5bb-0188-463c-a46b-7125cc794acb","system_id":"levelo_inurba_marseille","lat":43.292724,"lon":5.401131,"is_reserved":false,"is_disabled":false,"rental_uris":{"android":"levelo://app?vid=3ea6a5bb-0188-463c-a46b-7125cc794acb","ios":"levelo://app?vid=3ea6a5bb-0188-463c-a46b-7125cc794acb"},"vehicle_type_id":"4","last_reported":1685466260,"current_range_meters":30000,"station_id":"ce4bh312rcd13ifvqdk0","pricing_plan_id":"free"},{"bike_id":"e5825cb9-e28a-4538-8bc2-017403bb703b","system_id":"levelo_inurba_marseille","lat":43.29104,"lon":5.39977,"is_reserved":false,"is_disabled":false,"rental_uris":{"android":"levelo://app?vid=e5825cb9-e28a-4538-8bc2-017403bb703b","ios":"levelo://app?vid=e5825cb9-e28a-4538-8bc2-017403bb703b"},"vehicle_type_id":"4","last_reported":1685466260,"current_range_meters":10000,"station_id":"","pricing_plan_id":"free"},{"bike_id":"eabc6d0b-4d00-4bd3-b0dd-92123971a55c","system_id":"levelo_inurba_marseille","lat":43.28039,"lon":5.369297,"is_reserved":false,"is_disabled":false,"rental_uris":{"android":"levelo://app?vid=eabc6d0b-4d00-4bd3-b0dd-92123971a55c","ios":"levelo://app?vid=eabc6d0b-4d00-4bd3-b0dd-92123971a55c"},"vehicle_type_id":"4","last_reported":1685466260,"current_range_meters":800,"station_id":"ce4bha12rcd13ifvqef0","pricing_plan_id":"free"},{"bike_id":"b8c9bf89-df7f-4386-8a71-24a816915d75","system_id":"levelo_inurba_marseille","lat":43.28039,"lon":5.369297,"is_reserved":false,"is_disabled":false,"rental_uris":{"android":"levelo://app?vid=b8c9bf89-df7f-4386-8a71-24a816915d75","ios":"levelo://app?vid=b8c9bf89-df7f-4386-8a71-24a816915d75"},"vehicle_type_id":"4","last_reported":1685466260,"current_range_meters":4000,"station_id":"ce4bha12rcd13ifvqef0","pricing_plan_id":"free"},{"bike_id":"d4f74ec5-6e8e-4309-99e0-d4f966140f90","system_id":"levelo_inurba_marseille","lat":43.280382,"lon":5.369291,"is_reserved":false,"is_disabled":false,"rental_uris":{"android":"levelo://app?vid=d4f74ec5-6e8e-4309-99e0-d4f966140f90","ios":"levelo://app?vid=d4f74ec5-6e8e-4309-99e0-d4f966140f90"},"vehicle_type_id":"4","last_reported":1685466260,"current_range_meters":14000,"station_id":"ce4bha12rcd13ifvqef0","pricing_plan_id":"free"},{"bike_id":"137b8f4c-c73c-4496-94f9-c080859dd452","system_id":"levelo_inurba_marseille","lat":43.28039,"lon":5.36965,"is_reserved":false,"is_disabled":false,"rental_uris":{"android":"levelo://app?vid=137b8f4c-c73c-4496-94f9-c080859dd452","ios":"levelo://app?vid=137b8f4c-c73c-4496-94f9-c080859dd452"},"vehicle_type_id":"4","last_reported":1685466260,"current_range_meters":30000,"station_id":"ce4bha12rcd13ifvqef0","pricing_plan_id":"free"},{"bike_id":"5465de75-25de-459d-a649-e11ba97b4ae2","system_id":"levelo_inurba_marseille","lat":43.28039,"lon":5.369297,"is_reserved":false,"is_disabled":false,"rental_uris":{"android":"levelo://app?vid=5465de75-25de-459d-a649-e11ba97b4ae2","ios":"levelo://app?vid=5465de75-25de-459d-a649-e11ba97b4ae2"},"vehicle_type_id":"4","last_reported":1685466260,"current_range_meters":29600,"station_id":"ce4bha12rcd13ifvqef0","pricing_plan_id":"free"},{"bike_id":"9a8ec957-ca63-468d-bd7e-89233f24a339","system_id":"levelo_inurba_marseille","lat":43.29043,"lon":5.39952,"is_reserved":false,"is_disabled":false,"rental_uris":{"android":"levelo://app?vid=9a8ec957-ca63-468d-bd7e-89233f24a339","ios":"levelo://app?vid=9a8ec957-ca63-468d-bd7e-89233f24a339"},"vehicle_type_id":"4","last_reported":1685466260,"current_range_meters":18000,"station_id":"ce4bh392rcd13ifvqdm0","pricing_plan_id":"free"},{"bike_id":"e321b92d-34be-4106-9764-d40d6f4bbbc0","system_id":"levelo_inurba_marseille","lat":43.290452,"lon":5.399699,"is_reserved":false,"is_disabled":false,"rental_uris":{"android":"levelo://app?vid=e321b92d-34be-4106-9764-d40d6f4bbbc0","ios":"levelo://app?vid=e321b92d-34be-4106-9764-d40d6f4bbbc0"},"vehicle_type_id":"4","last_reported":1685466260,"current_range_meters":28800,"station_id":"ce4bh392rcd13ifvqdm0","pricing_plan_id":"free"},{"bike_id":"c37f0147-8787-424c-b2be-d25448a24a01","system_id":"levelo_inurba_marseille","lat":43.2963,"lon":5.40592,"is_reserved":false,"is_disabled":false,"rental_uris":{"android":"levelo://app?vid=c37f0147-8787-424c-b2be-d25448a24a01","ios":"levelo://app?vid=c37f0147-8787-424c-b2be-d25448a24a01"},"vehicle_type_id":"4","last_reported":1685466260,"current_range_meters":16000,"station_id":"ce4bh0h2rcd13ifvqd60","pricing_plan_id":"free"},{"bike_id":"76b16035-76e1-487b-965c-a26b3657ac36","system_id":"levelo_inurba_marseille","lat":43.296263,"lon":5.40601,"is_reserved":false,"is_disabled":false,"rental_uris":{"android":"levelo://app?vid=76b16035-76e1-487b-965c-a26b3657ac36","ios":"levelo://app?vid=76b16035-76e1-487b-965c-a26b3657ac36"},"vehicle_type_id":"4","last_reported":1685466260,"current_range_meters":0,"station_id":"ce4bh0h2rcd13ifvqd60","pricing_plan_id":"free"},{"bike_id":"c9e6559a-70d5-4825-9a6e-93984bb14dc2","system_id":"levelo_inurba_marseille","lat":43.296263,"lon":5.40601,"is_reserved":false,"is_disabled":false,"rental_uris":{"android":"levelo://app?vid=c9e6559a-70d5-4825-9a6e-93984bb14dc2","ios":"levelo://app?vid=c9e6559a-70d5-4825-9a6e-93984bb14dc2"},"vehicle_type_id":"4","last_reported":1685466260,"current_range_meters":28000,"station_id":"ce4bh0h2rcd13ifvqd60","pricing_plan_id":"free"},{"bike_id":"cd18200f-f498-40b2-ba7c-b763f946ce55","system_id":"levelo_inurba_marseille","lat":43.296263,"lon":5.40601,"is_reserved":false,"is_disabled":false,"rental_uris":{"android":"levelo://app?vid=cd18200f-f498-40b2-ba7c-b763f946ce55","ios":"levelo://app?vid=cd18200f-f498-40b2-ba7c-b763f946ce55"},"vehicle_type_id":"4","last_reported":1685466260,"current_range_meters":0,"station_id":"ce4bh0h2rcd13ifvqd60","pricing_plan_id":"free"},{"bike_id":"e41e6e98-21b5-4c4c-8d98-b04ac927b758","system_id":"levelo_inurba_marseille","lat":43.296263,"lon":5.40601,"is_reserved":false,"is_disabled":false,"rental_uris":{"android":"levelo://app?vid=e41e6e98-21b5-4c4c-8d98-b04ac927b758","ios":"levelo://app?vid=e41e6e98-21b5-4c4c-8d98-b04ac927b758"},"vehicle_type_id":"4","last_reported":1685466260,"current_range_meters":15600,"station_id":"ce4bh0h2rcd13ifvqd60","pricing_plan_id":"free"},{"bike_id":"c58fce97-2209-4712-aebd-2403117ace46","system_id":"levelo_inurba_marseille","lat":43.28573,"lon":5.394992,"is_reserved":false,"is_disabled":false,"rental_uris":{"android":"levelo://app?vid=c58fce97-2209-4712-aebd-2403117ace46","ios":"levelo://app?vid=c58fce97-2209-4712-aebd-2403117ace46"},"vehicle_type_id":"4","last_reported":1685466260,"current_range_meters":11600,"station_id":"ce4bh292rcd13ifvqdg0","pricing_plan_id":"free"},{"bike_id":"a96a8aca-afbe-49cf-97c8-ccc01f70ce75","system_id":"levelo_inurba_marseille","lat":43.287154,"lon":5.399979,"is_reserved":false,"is_disabled":false,"rental_uris":{"android":"levelo://app?vid=a96a8aca-afbe-49cf-97c8-ccc01f70ce75","ios":"levelo://app?vid=a96a8aca-afbe-49cf-97c8-ccc01f70ce75"},"vehicle_type_id":"4","last_reported":1685466260,"current_range_meters":3200,"station_id":"ce4bho92rcd13ifvqh3g","pricing_plan_id":"free"},{"bike_id":"770bb808-8bc1-403a-939d-6b15db5ee047","system_id":"levelo_inurba_marseille","lat":43.287154,"lon":5.399979,"is_reserved":false,"is_disabled":false,"rental_uris":{"android":"levelo://app?vid=770bb808-8bc1-403a-939d-6b15db5ee047","ios":"levelo://app?vid=770bb808-8bc1-403a-939d-6b15db5ee047"},"vehicle_type_id":"4","last_reported":1685466260,"current_range_meters":2000,"station_id":"ce4bho92rcd13ifvqh3g","pricing_plan_id":"free"},{"bike_id":"98bef2bf-d100-4f55-a262-5dfd2c722624","system_id":"levelo_inurba_marseille","lat":43.287154,"lon":5.399979,"is_reserved":false,"is_disabled":false,"rental_uris":{"android":"levelo://app?vid=98bef2bf-d100-4f55-a262-5dfd2c722624","ios":"levelo://app?vid=98bef2bf-d100-4f55-a262-5dfd2c722624"},"vehicle_type_id":"4","last_reported":1685466260,"current_range_meters":20000,"station_id":"ce4bho92rcd13ifvqh3g","pricing_plan_id":"free"},{"bike_id":"234ff75e-646e-4615-9b32-ad838e6df4f4","system_id":"levelo_inurba_marseille","lat":43.299579,"lon":5.413255,"is_reserved":false,"is_disabled":false,"rental_uris":{"android":"levelo://app?vid=234ff75e-646e-4615-9b32-ad838e6df4f4","ios":"levelo://app?vid=234ff75e-646e-4615-9b32-ad838e6df4f4"},"vehicle_type_id":"4","last_reported":1685466260,"current_range_meters":30800,"station_id":"ce4bhp12rcd13ifvqh9g","pricing_plan_id":"free"},{"bike_id":"b7212838-10e9-4664-a46a-7ae13cfc0c90","system_id":"levelo_inurba_marseille","lat":43.299579,"lon":5.413255,"is_reserved":false,"is_disabled":false,"rental_uris":{"android":"levelo://app?vid=b7212838-10e9-4664-a46a-7ae13cfc0c90","ios":"levelo://app?vid=b7212838-10e9-4664-a46a-7ae13cfc0c90"},"vehicle_type_id":"4","last_reported":1685466260,"current_range_meters":14000,"station_id":"ce4bhp12rcd13ifvqh9g","pricing_plan_id":"free"},{"bike_id":"f370cab2-4da3-4c48-8b10-e1c9e9107355","system_id":"levelo_inurba_marseille","lat":43.299577,"lon":5.413277,"is_reserved":false,"is_disabled":false,"rental_uris":{"android":"levelo://app?vid=f370cab2-4da3-4c48-8b10-e1c9e9107355","ios":"levelo://app?vid=f370cab2-4da3-4c48-8b10-e1c9e9107355"},"vehicle_type_id":"4","last_reported":1685466260,"current_range_meters":7200,"station_id":"ce4bhp12rcd13ifvqh9g","pricing_plan_id":"free"},{"bike_id":"91b35645-beb8-46cd-92a3-e8c112267d61","system_id":"levelo_inurba_marseille","lat":43.299577,"lon":5.413277,"is_reserved":false,"is_disabled":false,"rental_uris":{"android":"levelo://app?vid=91b35645-beb8-46cd-92a3-e8c112267d61","ios":"levelo://app?vid=91b35645-beb8-46cd-92a3-e8c112267d61"},"vehicle_type_id":"4","last_reported":1685466260,"current_range_meters":10000,"station_id":"ce4bhp12rcd13ifvqh9g","pricing_plan_id":"free"},{"bike_id":"587e9439-084d-4127-b9e5-8dc8ce30244a","system_id":"levelo_inurba_marseille","lat":43.29285,"lon":5.40899,"is_reserved":false,"is_disabled":false,"rental_uris":{"android":"levelo://app?vid=587e9439-084d-4127-b9e5-8dc8ce30244a","ios":"levelo://app?vid=587e9439-084d-4127-b9e5-8dc8ce30244a"},"vehicle_type_id":"4","last_reported":1685466260,"current_range_meters":12800,"station_id":"","pricing_plan_id":"free"},{"bike_id":"da1391e8-b95a-4776-8e75-106d7faae819","system_id":"levelo_inurba_marseille","lat":43.29265,"lon":5.40909,"is_reserved":false,"is_disabled":false,"rental_uris":{"android":"levelo://app?vid=da1391e8-b95a-4776-8e75-106d7faae819","ios":"levelo://app?vid=da1391e8-b95a-4776-8e75-106d7faae819"},"vehicle_type_id":"4","last_reported":1685466260,"current_range_meters":7200,"station_id":"ce4bh192rcd13ifvqdc0","pricing_plan_id":"free"},{"bike_id":"72dcc5d5-5e11-48f0-96a5-f71225c760a7","system_id":"levelo_inurba_marseille","lat":43.2927,"lon":5.40915,"is_reserved":false,"is_disabled":false,"rental_uris":{"android":"levelo://app?vid=72dcc5d5-5e11-48f0-96a5-f71225c760a7","ios":"levelo://app?vid=72dcc5d5-5e11-48f0-96a5-f71225c760a7"},"vehicle_type_id":"4","last_reported":1685466260,"current_range_meters":400,"station_id":"ce4bh192rcd13ifvqdc0","pricing_plan_id":"free"},{"bike_id":"cc8bb4b4-292b-4ff7-929f-708b681c49f6","system_id":"levelo_inurba_marseille","lat":43.29262,"lon":5.40908,"is_reserved":false,"is_disabled":false,"rental_uris":{"android":"levelo://app?vid=cc8bb4b4-292b-4ff7-929f-708b681c49f6","ios":"levelo://app?vid=cc8bb4b4-292b-4ff7-929f-708b681c49f6"},"vehicle_type_id":"4","last_reported":1685466260,"current_range_meters":18000,"station_id":"ce4bh192rcd13ifvqdc0","pricing_plan_id":"free"},{"bike_id":"0b35024b-97a8-4b82-8a04-a96730f8ff04","system_id":"levelo_inurba_marseille","lat":43.29264,"lon":5.4091,"is_reserved":false,"is_disabled":false,"rental_uris":{"android":"levelo://app?vid=0b35024b-97a8-4b82-8a04-a96730f8ff04","ios":"levelo://app?vid=0b35024b-97a8-4b82-8a04-a96730f8ff04"},"vehicle_type_id":"4","last_reported":1685466260,"current_range_meters":13600,"station_id":"ce4bh192rcd13ifvqdc0","pricing_plan_id":"free"},{"bike_id":"58b0a114-2305-480e-831a-e0eac43d8edd","system_id":"levelo_inurba_marseille","lat":43.27618,"lon":5.361009,"is_reserved":false,"is_disabled":false,"rental_uris":{"android":"levelo://app?vid=58b0a114-2305-480e-831a-e0eac43d8edd","ios":"levelo://app?vid=58b0a114-2305-480e-831a-e0eac43d8edd"},"vehicle_type_id":"4","last_reported":1685466260,"current_range_meters":10800,"station_id":"ce4bgj92rcd13ifvqbe0","pricing_plan_id":"free"},{"bike_id":"08cd6e5b-93ea-4c18-ab97-6bdb89dfe26a","system_id":"levelo_inurba_marseille","lat":43.292569,"lon":5.409107,"is_reserved":false,"is_disabled":false,"rental_uris":{"android":"levelo://app?vid=08cd6e5b-93ea-4c18-ab97-6bdb89dfe26a","ios":"levelo://app?vid=08cd6e5b-93ea-4c18-ab97-6bdb89dfe26a"},"vehicle_type_id":"4","last_reported":1685466260,"current_range_meters":4000,"station_id":"ce4bh192rcd13ifvqdc0","pricing_plan_id":"free"},{"bike_id":"8a950c9a-f8e2-462b-8c59-09cce4c31d4b","system_id":"levelo_inurba_marseille","lat":43.292571,"lon":5.409107,"is_reserved":false,"is_disabled":false,"rental_uris":{"android":"levelo://app?vid=8a950c9a-f8e2-462b-8c59-09cce4c31d4b","ios":"levelo://app?vid=8a950c9a-f8e2-462b-8c59-09cce4c31d4b"},"vehicle_type_id":"4","last_reported":1685466260,"current_range_meters":28800,"station_id":"ce4bh192rcd13ifvqdc0","pricing_plan_id":"free"},{"bike_id":"20607367-e347-4b4f-94d1-97eb93ff3678","system_id":"levelo_inurba_marseille","lat":43.292569,"lon":5.409107,"is_reserved":false,"is_disabled":false,"rental_uris":{"android":"levelo://app?vid=20607367-e347-4b4f-94d1-97eb93ff3678","ios":"levelo://app?vid=20607367-e347-4b4f-94d1-97eb93ff3678"},"vehicle_type_id":"4","last_reported":1685466260,"current_range_meters":18400,"station_id":"ce4bh192rcd13ifvqdc0","pricing_plan_id":"free"},{"bike_id":"11cea34d-9f67-41b3-9da8-2ba1bf4b6cf8","system_id":"levelo_inurba_marseille","lat":43.30382,"lon":5.41843,"is_reserved":false,"is_disabled":false,"rental_uris":{"android":"levelo://app?vid=11cea34d-9f67-41b3-9da8-2ba1bf4b6cf8","ios":"levelo://app?vid=11cea34d-9f67-41b3-9da8-2ba1bf4b6cf8"},"vehicle_type_id":"4","last_reported":1685466260,"current_range_meters":14400,"station_id":"ce4bhop2rcd13ifvqh7g","pricing_plan_id":"free"},{"bike_id":"bbfb8447-73be-47ad-90b4-e1ffedffe747","system_id":"levelo_inurba_marseille","lat":43.278401,"lon":5.392152,"is_reserved":false,"is_disabled":false,"rental_uris":{"android":"levelo://app?vid=bbfb8447-73be-47ad-90b4-e1ffedffe747","ios":"levelo://app?vid=bbfb8447-73be-47ad-90b4-e1ffedffe747"},"vehicle_type_id":"4","last_reported":1685466260,"current_range_meters":7600,"station_id":"ce4bhjp2rcd13ifvqga0","pricing_plan_id":"free"},{"bike_id":"4df6b977-18dc-4d33-bb43-9e98ed29cfe4","system_id":"levelo_inurba_marseille","lat":43.278399,"lon":5.392139,"is_reserved":false,"is_disabled":false,"rental_uris":{"android":"levelo://app?vid=4df6b977-18dc-4d33-bb43-9e98ed29cfe4","ios":"levelo://app?vid=4df6b977-18dc-4d33-bb43-9e98ed29cfe4"},"vehicle_type_id":"4","last_reported":1685466260,"current_range_meters":2400,"station_id":"ce4bhjp2rcd13ifvqga0","pricing_plan_id":"free"},{"bike_id":"dd592d52-9691-4255-9641-5bb107bdd9d2","system_id":"levelo_inurba_marseille","lat":43.27383,"lon":5.36252,"is_reserved":false,"is_disabled":false,"rental_uris":{"android":"levelo://app?vid=dd592d52-9691-4255-9641-5bb107bdd9d2","ios":"levelo://app?vid=dd592d52-9691-4255-9641-5bb107bdd9d2"},"vehicle_type_id":"4","last_reported":1685466260,"current_range_meters":19600,"station_id":"","pricing_plan_id":"free"},{"bike_id":"b283bc76-2f6f-4ed3-9e20-36739326b540","system_id":"levelo_inurba_marseille","lat":43.273613,"lon":5.362705,"is_reserved":false,"is_disabled":false,"rental_uris":{"android":"levelo://app?vid=b283bc76-2f6f-4ed3-9e20-36739326b540","ios":"levelo://app?vid=b283bc76-2f6f-4ed3-9e20-36739326b540"},"vehicle_type_id":"4","last_reported":1685466260,"current_range_meters":29200,"station_id":"ce4bhbh2rcd13ifvqeo0","pricing_plan_id":"free"},{"bike_id":"13f1de12-3bb1-49db-a14b-4fe13978fcad","system_id":"levelo_inurba_marseille","lat":43.276771,"lon":5.388799,"is_reserved":false,"is_disabled":false,"rental_uris":{"android":"levelo://app?vid=13f1de12-3bb1-49db-a14b-4fe13978fcad","ios":"levelo://app?vid=13f1de12-3bb1-49db-a14b-4fe13978fcad"},"vehicle_type_id":"4","last_reported":1685466260,"current_range_meters":6400,"station_id":"ce4bhi12rcd13ifvqfo0","pricing_plan_id":"free"},{"bike_id":"6b2fa5a6-d994-4f26-9651-d5bd6f4201dc","system_id":"levelo_inurba_marseille","lat":43.27671,"lon":5.38892,"is_reserved":false,"is_disabled":false,"rental_uris":{"android":"levelo://app?vid=6b2fa5a6-d994-4f26-9651-d5bd6f4201dc","ios":"levelo://app?vid=6b2fa5a6-d994-4f26-9651-d5bd6f4201dc"},"vehicle_type_id":"4","last_reported":1685466260,"current_range_meters":0,"station_id":"ce4bhi12rcd13ifvqfo0","pricing_plan_id":"free"},{"bike_id":"ab37376a-2ee1-4fb9-8147-f4a255eea24e","system_id":"levelo_inurba_marseille","lat":43.317121,"lon":5.423936,"is_reserved":false,"is_disabled":false,"rental_uris":{"android":"levelo://app?vid=ab37376a-2ee1-4fb9-8147-f4a255eea24e","ios":"levelo://app?vid=ab37376a-2ee1-4fb9-8147-f4a255eea24e"},"vehicle_type_id":"4","last_reported":1685466260,"current_range_meters":17200,"station_id":"ce4bhp92rcd13ifvqhbg","pricing_plan_id":"free"},{"bike_id":"271875b0-01df-4afe-bc5a-53a75f8f6e80","system_id":"levelo_inurba_marseille","lat":43.317121,"lon":5.423936,"is_reserved":false,"is_disabled":false,"rental_uris":{"android":"levelo://app?vid=271875b0-01df-4afe-bc5a-53a75f8f6e80","ios":"levelo://app?vid=271875b0-01df-4afe-bc5a-53a75f8f6e80"},"vehicle_type_id":"4","last_reported":1685466260,"current_range_meters":16800,"station_id":"ce4bhp92rcd13ifvqhbg","pricing_plan_id":"free"},{"bike_id":"c67c9c23-5505-468f-b4de-8c7dc2e6322c","system_id":"levelo_inurba_marseille","lat":43.274357,"lon":5.394194,"is_reserved":false,"is_disabled":false,"rental_uris":{"android":"levelo://app?vid=c67c9c23-5505-468f-b4de-8c7dc2e6322c","ios":"levelo://app?vid=c67c9c23-5505-468f-b4de-8c7dc2e6322c"},"vehicle_type_id":"4","last_reported":1685466260,"current_range_meters":0,"station_id":"","pricing_plan_id":"free"},{"bike_id":"d37029aa-3243-45ff-98df-c0ad28b135f1","system_id":"levelo_inurba_marseille","lat":43.30416,"lon":5.4255,"is_reserved":false,"is_disabled":false,"rental_uris":{"android":"levelo://app?vid=d37029aa-3243-45ff-98df-c0ad28b135f1","ios":"levelo://app?vid=d37029aa-3243-45ff-98df-c0ad28b135f1"},"vehicle_type_id":"4","last_reported":1685466260,"current_range_meters":22400,"station_id":"ce4bhoh2rcd13ifvqh6g","pricing_plan_id":"free"},{"bike_id":"5f0b16d0-361b-40a7-8a5c-1c0580097d3d","system_id":"levelo_inurba_marseille","lat":43.295523,"lon":5.422926,"is_reserved":false,"is_disabled":false,"rental_uris":{"android":"levelo://app?vid=5f0b16d0-361b-40a7-8a5c-1c0580097d3d","ios":"levelo://app?vid=5f0b16d0-361b-40a7-8a5c-1c0580097d3d"},"vehicle_type_id":"4","last_reported":1685466260,"current_range_meters":13600,"station_id":"ce4bhph2rcd13ifvqhdg","pricing_plan_id":"free"},{"bike_id":"30edd03d-85b1-4323-aef9-a402440cd73f","system_id":"levelo_inurba_marseille","lat":43.278128,"lon":5.407195,"is_reserved":false,"is_disabled":false,"rental_uris":{"android":"levelo://app?vid=30edd03d-85b1-4323-aef9-a402440cd73f","ios":"levelo://app?vid=30edd03d-85b1-4323-aef9-a402440cd73f"},"vehicle_type_id":"4","last_reported":1685466260,"current_range_meters":22800,"station_id":"ce4bhnh2rcd13ifvqgtg","pricing_plan_id":"free"},{"bike_id":"b45d1e35-e590-47b2-b0ba-2671e5f7d569","system_id":"levelo_inurba_marseille","lat":43.278128,"lon":5.407195,"is_reserved":false,"is_disabled":false,"rental_uris":{"android":"levelo://app?vid=b45d1e35-e590-47b2-b0ba-2671e5f7d569","ios":"levelo://app?vid=b45d1e35-e590-47b2-b0ba-2671e5f7d569"},"vehicle_type_id":"4","last_reported":1685466260,"current_range_meters":21200,"station_id":"ce4bhnh2rcd13ifvqgtg","pricing_plan_id":"free"},{"bike_id":"592eae2c-ee36-44c2-a70d-15c79e89178a","system_id":"levelo_inurba_marseille","lat":43.278128,"lon":5.407195,"is_reserved":false,"is_disabled":false,"rental_uris":{"android":"levelo://app?vid=592eae2c-ee36-44c2-a70d-15c79e89178a","ios":"levelo://app?vid=592eae2c-ee36-44c2-a70d-15c79e89178a"},"vehicle_type_id":"4","last_reported":1685466260,"current_range_meters":18800,"station_id":"ce4bhnh2rcd13ifvqgtg","pricing_plan_id":"free"},{"bike_id":"76d76a84-6d4d-4aac-8b7f-a1c31a54b8dc","system_id":"levelo_inurba_marseille","lat":43.278128,"lon":5.407195,"is_reserved":false,"is_disabled":false,"rental_uris":{"android":"levelo://app?vid=76d76a84-6d4d-4aac-8b7f-a1c31a54b8dc","ios":"levelo://app?vid=76d76a84-6d4d-4aac-8b7f-a1c31a54b8dc"},"vehicle_type_id":"4","last_reported":1685466260,"current_range_meters":26800,"station_id":"ce4bhnh2rcd13ifvqgtg","pricing_plan_id":"free"},{"bike_id":"a2357b19-0b9d-416c-856a-ca75dc526c4d","system_id":"levelo_inurba_marseille","lat":43.278128,"lon":5.407195,"is_reserved":false,"is_disabled":false,"rental_uris":{"android":"levelo://app?vid=a2357b19-0b9d-416c-856a-ca75dc526c4d","ios":"levelo://app?vid=a2357b19-0b9d-416c-856a-ca75dc526c4d"},"vehicle_type_id":"4","last_reported":1685466260,"current_range_meters":0,"station_id":"ce4bhnh2rcd13ifvqgtg","pricing_plan_id":"free"},{"bike_id":"a337d37e-3408-4993-befb-72e8e42d2974","system_id":"levelo_inurba_marseille","lat":43.278128,"lon":5.407195,"is_reserved":false,"is_disabled":false,"rental_uris":{"android":"levelo://app?vid=a337d37e-3408-4993-befb-72e8e42d2974","ios":"levelo://app?vid=a337d37e-3408-4993-befb-72e8e42d2974"},"vehicle_type_id":"4","last_reported":1685466260,"current_range_meters":5200,"station_id":"ce4bhnh2rcd13ifvqgtg","pricing_plan_id":"free"},{"bike_id":"8b0e7b5a-f959-44f7-a860-47d15cebe1ac","system_id":"levelo_inurba_marseille","lat":43.278128,"lon":5.407195,"is_reserved":false,"is_disabled":false,"rental_uris":{"android":"levelo://app?vid=8b0e7b5a-f959-44f7-a860-47d15cebe1ac","ios":"levelo://app?vid=8b0e7b5a-f959-44f7-a860-47d15cebe1ac"},"vehicle_type_id":"4","last_reported":1685466260,"current_range_meters":21600,"station_id":"ce4bhnh2rcd13ifvqgtg","pricing_plan_id":"free"},{"bike_id":"0cd3f94d-3412-4740-b150-ed4c2a327c72","system_id":"levelo_inurba_marseille","lat":43.278128,"lon":5.407195,"is_reserved":false,"is_disabled":false,"rental_uris":{"android":"levelo://app?vid=0cd3f94d-3412-4740-b150-ed4c2a327c72","ios":"levelo://app?vid=0cd3f94d-3412-4740-b150-ed4c2a327c72"},"vehicle_type_id":"4","last_reported":1685466260,"current_range_meters":17600,"station_id":"ce4bhnh2rcd13ifvqgtg","pricing_plan_id":"free"},{"bike_id":"71c35299-0632-4c72-8c23-91061c533b36","system_id":"levelo_inurba_marseille","lat":43.290104,"lon":5.356111,"is_reserved":false,"is_disabled":false,"rental_uris":{"android":"levelo://app?vid=71c35299-0632-4c72-8c23-91061c533b36","ios":"levelo://app?vid=71c35299-0632-4c72-8c23-91061c533b36"},"vehicle_type_id":"4","last_reported":1685466260,"current_range_meters":400,"station_id":"ce4bhb92rcd13ifvqen0","pricing_plan_id":"free"},{"bike_id":"cacd3ccf-9084-446a-9503-0f8d7e6671df","system_id":"levelo_inurba_marseille","lat":43.265527,"lon":5.372815,"is_reserved":false,"is_disabled":false,"rental_uris":{"android":"levelo://app?vid=cacd3ccf-9084-446a-9503-0f8d7e6671df","ios":"levelo://app?vid=cacd3ccf-9084-446a-9503-0f8d7e6671df"},"vehicle_type_id":"4","last_reported":1685466260,"current_range_meters":28800,"station_id":"ce4bhh92rcd13ifvqfh0","pricing_plan_id":"free"},{"bike_id":"97f92444-dc7f-4ac8-885e-43ac50454dc0","system_id":"levelo_inurba_marseille","lat":43.31678,"lon":5.43336,"is_reserved":false,"is_disabled":false,"rental_uris":{"android":"levelo://app?vid=97f92444-dc7f-4ac8-885e-43ac50454dc0","ios":"levelo://app?vid=97f92444-dc7f-4ac8-885e-43ac50454dc0"},"vehicle_type_id":"4","last_reported":1685466260,"current_range_meters":0,"station_id":"","pricing_plan_id":"free"},{"bike_id":"cc71c384-37e7-47c5-a164-f33472906a42","system_id":"levelo_inurba_marseille","lat":43.27996,"lon":5.416624,"is_reserved":false,"is_disabled":false,"rental_uris":{"android":"levelo://app?vid=cc71c384-37e7-47c5-a164-f33472906a42","ios":"levelo://app?vid=cc71c384-37e7-47c5-a164-f33472906a42"},"vehicle_type_id":"4","last_reported":1685466260,"current_range_meters":400,"station_id":"ce4bho12rcd13ifvqh1g","pricing_plan_id":"free"},{"bike_id":"cd153b7b-a2c5-4e7f-a27e-6cfaf1d52762","system_id":"levelo_inurba_marseille","lat":43.27996,"lon":5.416624,"is_reserved":false,"is_disabled":false,"rental_uris":{"android":"levelo://app?vid=cd153b7b-a2c5-4e7f-a27e-6cfaf1d52762","ios":"levelo://app?vid=cd153b7b-a2c5-4e7f-a27e-6cfaf1d52762"},"vehicle_type_id":"4","last_reported":1685466260,"current_range_meters":5600,"station_id":"ce4bho12rcd13ifvqh1g","pricing_plan_id":"free"},{"bike_id":"a2cbf700-a402-4c7b-b14a-c8188cc92d95","system_id":"levelo_inurba_marseille","lat":43.27996,"lon":5.416624,"is_reserved":false,"is_disabled":false,"rental_uris":{"android":"levelo://app?vid=a2cbf700-a402-4c7b-b14a-c8188cc92d95","ios":"levelo://app?vid=a2cbf700-a402-4c7b-b14a-c8188cc92d95"},"vehicle_type_id":"4","last_reported":1685466260,"current_range_meters":0,"station_id":"ce4bho12rcd13ifvqh1g","pricing_plan_id":"free"},{"bike_id":"01cb54c7-313d-484a-8e7e-74b3b01b03f7","system_id":"levelo_inurba_marseille","lat":43.27996,"lon":5.416624,"is_reserved":false,"is_disabled":false,"rental_uris":{"android":"levelo://app?vid=01cb54c7-313d-484a-8e7e-74b3b01b03f7","ios":"levelo://app?vid=01cb54c7-313d-484a-8e7e-74b3b01b03f7"},"vehicle_type_id":"4","last_reported":1685466260,"current_range_meters":6400,"station_id":"ce4bho12rcd13ifvqh1g","pricing_plan_id":"free"},{"bike_id":"6bae4111-e708-47fe-bdcb-cda9c5d201b4","system_id":"levelo_inurba_marseille","lat":43.26751,"lon":5.394135,"is_reserved":false,"is_disabled":false,"rental_uris":{"android":"levelo://app?vid=6bae4111-e708-47fe-bdcb-cda9c5d201b4","ios":"levelo://app?vid=6bae4111-e708-47fe-bdcb-cda9c5d201b4"},"vehicle_type_id":"4","last_reported":1685466260,"current_range_meters":11600,"station_id":"","pricing_plan_id":"free"},{"bike_id":"2fcc0c23-ac53-41eb-a2d4-d3336177ee7b","system_id":"levelo_inurba_marseille","lat":43.32318,"lon":5.43568,"is_reserved":false,"is_disabled":false,"rental_uris":{"android":"levelo://app?vid=2fcc0c23-ac53-41eb-a2d4-d3336177ee7b","ios":"levelo://app?vid=2fcc0c23-ac53-41eb-a2d4-d3336177ee7b"},"vehicle_type_id":"4","last_reported":1685466260,"current_range_meters":6400,"station_id":"","pricing_plan_id":"free"},{"bike_id":"88426432-41d9-4d4f-8229-30408abf5138","system_id":"levelo_inurba_marseille","lat":43.261782,"lon":5.374515,"is_reserved":false,"is_disabled":false,"rental_uris":{"android":"levelo://app?vid=88426432-41d9-4d4f-8229-30408abf5138","ios":"levelo://app?vid=88426432-41d9-4d4f-8229-30408abf5138"},"vehicle_type_id":"4","last_reported":1685466260,"current_range_meters":3200,"station_id":"ce4bhgp2rcd13ifvqfc0","pricing_plan_id":"free"},{"bike_id":"eaecc699-a494-43ea-b90c-e82058c8cbe2","system_id":"levelo_inurba_marseille","lat":43.26183,"lon":5.37444,"is_reserved":false,"is_disabled":false,"rental_uris":{"android":"levelo://app?vid=eaecc699-a494-43ea-b90c-e82058c8cbe2","ios":"levelo://app?vid=eaecc699-a494-43ea-b90c-e82058c8cbe2"},"vehicle_type_id":"4","last_reported":1685466260,"current_range_meters":30400,"station_id":"ce4bhgp2rcd13ifvqfc0","pricing_plan_id":"free"},{"bike_id":"1484fb73-ea82-4cbc-a93c-9b6c94228fc9","system_id":"levelo_inurba_marseille","lat":43.317104,"lon":5.436818,"is_reserved":false,"is_disabled":false,"rental_uris":{"android":"levelo://app?vid=1484fb73-ea82-4cbc-a93c-9b6c94228fc9","ios":"levelo://app?vid=1484fb73-ea82-4cbc-a93c-9b6c94228fc9"},"vehicle_type_id":"4","last_reported":1685466260,"current_range_meters":29600,"station_id":"ce4bhp92rcd13ifvqhcg","pricing_plan_id":"free"},{"bike_id":"f22f7e44-aa2d-4864-9c71-c3848a626538","system_id":"levelo_inurba_marseille","lat":43.271368,"lon":5.40928,"is_reserved":false,"is_disabled":false,"rental_uris":{"android":"levelo://app?vid=f22f7e44-aa2d-4864-9c71-c3848a626538","ios":"levelo://app?vid=f22f7e44-aa2d-4864-9c71-c3848a626538"},"vehicle_type_id":"4","last_reported":1685466260,"current_range_meters":28400,"station_id":"ce4bhl12rcd13ifvqgf0","pricing_plan_id":"free"},{"bike_id":"70b32f93-9c97-45c8-a909-9998bd339929","system_id":"levelo_inurba_marseille","lat":43.27175,"lon":5.40991,"is_reserved":false,"is_disabled":false,"rental_uris":{"android":"levelo://app?vid=70b32f93-9c97-45c8-a909-9998bd339929","ios":"levelo://app?vid=70b32f93-9c97-45c8-a909-9998bd339929"},"vehicle_type_id":"4","last_reported":1685466260,"current_range_meters":30000,"station_id":"","pricing_plan_id":"free"},{"bike_id":"bfa0997c-56e1-4981-a95c-bc1058211e86","system_id":"levelo_inurba_marseille","lat":43.267959,"lon":5.402687,"is_reserved":false,"is_disabled":false,"rental_uris":{"android":"levelo://app?vid=bfa0997c-56e1-4981-a95c-bc1058211e86","ios":"levelo://app?vid=bfa0997c-56e1-4981-a95c-bc1058211e86"},"vehicle_type_id":"4","last_reported":1685466260,"current_range_meters":28000,"station_id":"ce501612rcd8frsf0b60","pricing_plan_id":"free"},{"bike_id":"6b404443-757b-4b8d-9a78-a03ca59013fb","system_id":"levelo_inurba_marseille","lat":43.2592,"lon":5.37283,"is_reserved":false,"is_disabled":false,"rental_uris":{"android":"levelo://app?vid=6b404443-757b-4b8d-9a78-a03ca59013fb","ios":"levelo://app?vid=6b404443-757b-4b8d-9a78-a03ca59013fb"},"vehicle_type_id":"4","last_reported":1685466260,"current_range_meters":2000,"station_id":"","pricing_plan_id":"free"},{"bike_id":"1b861d92-74e1-4b92-9c2a-73030ebaf2fc","system_id":"levelo_inurba_marseille","lat":43.26073,"lon":5.39397,"is_reserved":false,"is_disabled":false,"rental_uris":{"android":"levelo://app?vid=1b861d92-74e1-4b92-9c2a-73030ebaf2fc","ios":"levelo://app?vid=1b861d92-74e1-4b92-9c2a-73030ebaf2fc"},"vehicle_type_id":"4","last_reported":1685466260,"current_range_meters":8000,"station_id":"ce4bhh92rcd13ifvqfj0","pricing_plan_id":"free"},{"bike_id":"c7e079d2-2ee3-440b-8f6e-04eafea7e096","system_id":"levelo_inurba_marseille","lat":43.2607,"lon":5.393983,"is_reserved":false,"is_disabled":false,"rental_uris":{"android":"levelo://app?vid=c7e079d2-2ee3-440b-8f6e-04eafea7e096","ios":"levelo://app?vid=c7e079d2-2ee3-440b-8f6e-04eafea7e096"},"vehicle_type_id":"4","last_reported":1685466260,"current_range_meters":10400,"station_id":"ce4bhh92rcd13ifvqfj0","pricing_plan_id":"free"},{"bike_id":"72810ce3-d40c-4fdb-9f6f-dfa20ae2d6af","system_id":"levelo_inurba_marseille","lat":43.2607,"lon":5.393983,"is_reserved":false,"is_disabled":false,"rental_uris":{"android":"levelo://app?vid=72810ce3-d40c-4fdb-9f6f-dfa20ae2d6af","ios":"levelo://app?vid=72810ce3-d40c-4fdb-9f6f-dfa20ae2d6af"},"vehicle_type_id":"4","last_reported":1685466260,"current_range_meters":2800,"station_id":"ce4bhh92rcd13ifvqfj0","pricing_plan_id":"free"},{"bike_id":"58441d1b-8e1f-4e05-91f0-b0a97de42ea0","system_id":"levelo_inurba_marseille","lat":43.260909,"lon":5.397591,"is_reserved":false,"is_disabled":false,"rental_uris":{"android":"levelo://app?vid=58441d1b-8e1f-4e05-91f0-b0a97de42ea0","ios":"levelo://app?vid=58441d1b-8e1f-4e05-91f0-b0a97de42ea0"},"vehicle_type_id":"4","last_reported":1685466260,"current_range_meters":23200,"station_id":"ce4bhi12rcd13ifvqfq0","pricing_plan_id":"free"},{"bike_id":"d04409f4-1b7e-4bd7-b364-b5a32bd9fa3b","system_id":"levelo_inurba_marseille","lat":43.29634,"lon":5.44171,"is_reserved":false,"is_disabled":false,"rental_uris":{"android":"levelo://app?vid=d04409f4-1b7e-4bd7-b364-b5a32bd9fa3b","ios":"levelo://app?vid=d04409f4-1b7e-4bd7-b364-b5a32bd9fa3b"},"vehicle_type_id":"4","last_reported":1685466260,"current_range_meters":25600,"station_id":"","pricing_plan_id":"free"},{"bike_id":"5a5ce047-ca23-436f-81e8-29b7ce99e453","system_id":"levelo_inurba_marseille","lat":43.29634,"lon":5.44173,"is_reserved":false,"is_disabled":false,"rental_uris":{"android":"levelo://app?vid=5a5ce047-ca23-436f-81e8-29b7ce99e453","ios":"levelo://app?vid=5a5ce047-ca23-436f-81e8-29b7ce99e453"},"vehicle_type_id":"4","last_reported":1685466260,"current_range_meters":23600,"station_id":"","pricing_plan_id":"free"},{"bike_id":"94adbb32-c73e-4f28-a104-95f5bb44bd9b","system_id":"levelo_inurba_marseille","lat":43.255756,"lon":5.382303,"is_reserved":false,"is_disabled":false,"rental_uris":{"android":"levelo://app?vid=94adbb32-c73e-4f28-a104-95f5bb44bd9b","ios":"levelo://app?vid=94adbb32-c73e-4f28-a104-95f5bb44bd9b"},"vehicle_type_id":"4","last_reported":1685466260,"current_range_meters":20000,"station_id":"ce4bhih2rcd13ifvqfs0","pricing_plan_id":"free"},{"bike_id":"8f2f99f0-724c-46a2-a42d-32addbe3318c","system_id":"levelo_inurba_marseille","lat":43.255756,"lon":5.382303,"is_reserved":false,"is_disabled":false,"rental_uris":{"android":"levelo://app?vid=8f2f99f0-724c-46a2-a42d-32addbe3318c","ios":"levelo://app?vid=8f2f99f0-724c-46a2-a42d-32addbe3318c"},"vehicle_type_id":"4","last_reported":1685466260,"current_range_meters":15600,"station_id":"ce4bhih2rcd13ifvqfs0","pricing_plan_id":"free"},{"bike_id":"35acc75c-c87e-4c8c-a65a-5c6790d709b7","system_id":"levelo_inurba_marseille","lat":43.255756,"lon":5.382303,"is_reserved":false,"is_disabled":false,"rental_uris":{"android":"levelo://app?vid=35acc75c-c87e-4c8c-a65a-5c6790d709b7","ios":"levelo://app?vid=35acc75c-c87e-4c8c-a65a-5c6790d709b7"},"vehicle_type_id":"4","last_reported":1685466260,"current_range_meters":15200,"station_id":"ce4bhih2rcd13ifvqfs0","pricing_plan_id":"free"},{"bike_id":"309e73de-12db-4535-a973-622375dc02f3","system_id":"levelo_inurba_marseille","lat":43.255756,"lon":5.382303,"is_reserved":false,"is_disabled":false,"rental_uris":{"android":"levelo://app?vid=309e73de-12db-4535-a973-622375dc02f3","ios":"levelo://app?vid=309e73de-12db-4535-a973-622375dc02f3"},"vehicle_type_id":"4","last_reported":1685466260,"current_range_meters":11200,"station_id":"ce4bhih2rcd13ifvqfs0","pricing_plan_id":"free"},{"bike_id":"4bd635f9-3758-44d5-8800-80d52c6e1bdf","system_id":"levelo_inurba_marseille","lat":43.255756,"lon":5.382303,"is_reserved":false,"is_disabled":false,"rental_uris":{"android":"levelo://app?vid=4bd635f9-3758-44d5-8800-80d52c6e1bdf","ios":"levelo://app?vid=4bd635f9-3758-44d5-8800-80d52c6e1bdf"},"vehicle_type_id":"4","last_reported":1685466260,"current_range_meters":17200,"station_id":"ce4bhih2rcd13ifvqfs0","pricing_plan_id":"free"},{"bike_id":"04a3ffc4-d3c1-4338-90f7-b28fdd4ad489","system_id":"levelo_inurba_marseille","lat":43.255756,"lon":5.382303,"is_reserved":false,"is_disabled":false,"rental_uris":{"android":"levelo://app?vid=04a3ffc4-d3c1-4338-90f7-b28fdd4ad489","ios":"levelo://app?vid=04a3ffc4-d3c1-4338-90f7-b28fdd4ad489"},"vehicle_type_id":"4","last_reported":1685466260,"current_range_meters":400,"station_id":"ce4bhih2rcd13ifvqfs0","pricing_plan_id":"free"},{"bike_id":"fa34be9e-9570-4ecb-9c1a-5506b70dfeab","system_id":"levelo_inurba_marseille","lat":43.255756,"lon":5.382303,"is_reserved":false,"is_disabled":false,"rental_uris":{"android":"levelo://app?vid=fa34be9e-9570-4ecb-9c1a-5506b70dfeab","ios":"levelo://app?vid=fa34be9e-9570-4ecb-9c1a-5506b70dfeab"},"vehicle_type_id":"4","last_reported":1685466260,"current_range_meters":12000,"station_id":"ce4bhih2rcd13ifvqfs0","pricing_plan_id":"free"},{"bike_id":"939e4bb0-70f6-4eb2-9db0-ccdbd7ad7083","system_id":"levelo_inurba_marseille","lat":43.255756,"lon":5.382303,"is_reserved":false,"is_disabled":false,"rental_uris":{"android":"levelo://app?vid=939e4bb0-70f6-4eb2-9db0-ccdbd7ad7083","ios":"levelo://app?vid=939e4bb0-70f6-4eb2-9db0-ccdbd7ad7083"},"vehicle_type_id":"4","last_reported":1685466260,"current_range_meters":26400,"station_id":"ce4bhih2rcd13ifvqfs0","pricing_plan_id":"free"},{"bike_id":"e2ee4aa9-5c76-443b-ae81-10d3c8b1bdec","system_id":"levelo_inurba_marseille","lat":43.255756,"lon":5.382303,"is_reserved":false,"is_disabled":false,"rental_uris":{"android":"levelo://app?vid=e2ee4aa9-5c76-443b-ae81-10d3c8b1bdec","ios":"levelo://app?vid=e2ee4aa9-5c76-443b-ae81-10d3c8b1bdec"},"vehicle_type_id":"4","last_reported":1685466260,"current_range_meters":31600,"station_id":"ce4bhih2rcd13ifvqfs0","pricing_plan_id":"free"},{"bike_id":"06b2d97a-29be-4af7-be34-a8d80d2cc3f5","system_id":"levelo_inurba_marseille","lat":43.25581,"lon":5.38235,"is_reserved":false,"is_disabled":false,"rental_uris":{"android":"levelo://app?vid=06b2d97a-29be-4af7-be34-a8d80d2cc3f5","ios":"levelo://app?vid=06b2d97a-29be-4af7-be34-a8d80d2cc3f5"},"vehicle_type_id":"4","last_reported":1685466260,"current_range_meters":29200,"station_id":"ce4bhih2rcd13ifvqfs0","pricing_plan_id":"free"},{"bike_id":"b8d596d4-ab74-470d-a541-c951c7743b1c","system_id":"levelo_inurba_marseille","lat":43.255756,"lon":5.382303,"is_reserved":false,"is_disabled":false,"rental_uris":{"android":"levelo://app?vid=b8d596d4-ab74-470d-a541-c951c7743b1c","ios":"levelo://app?vid=b8d596d4-ab74-470d-a541-c951c7743b1c"},"vehicle_type_id":"4","last_reported":1685466260,"current_range_meters":15200,"station_id":"ce4bhih2rcd13ifvqfs0","pricing_plan_id":"free"},{"bike_id":"8bcd3a58-2fcc-47be-866c-07219827b9dc","system_id":"levelo_inurba_marseille","lat":43.255756,"lon":5.382303,"is_reserved":false,"is_disabled":false,"rental_uris":{"android":"levelo://app?vid=8bcd3a58-2fcc-47be-866c-07219827b9dc","ios":"levelo://app?vid=8bcd3a58-2fcc-47be-866c-07219827b9dc"},"vehicle_type_id":"4","last_reported":1685466260,"current_range_meters":30400,"station_id":"ce4bhih2rcd13ifvqfs0","pricing_plan_id":"free"},{"bike_id":"4a4dc7a4-29f7-4aa0-8553-612d1c2534da","system_id":"levelo_inurba_marseille","lat":43.255756,"lon":5.382303,"is_reserved":false,"is_disabled":false,"rental_uris":{"android":"levelo://app?vid=4a4dc7a4-29f7-4aa0-8553-612d1c2534da","ios":"levelo://app?vid=4a4dc7a4-29f7-4aa0-8553-612d1c2534da"},"vehicle_type_id":"4","last_reported":1685466260,"current_range_meters":21200,"station_id":"ce4bhih2rcd13ifvqfs0","pricing_plan_id":"free"},{"bike_id":"7cb57cc4-cf08-4b00-a31c-c1120bb4079c","system_id":"levelo_inurba_marseille","lat":43.255756,"lon":5.382303,"is_reserved":false,"is_disabled":false,"rental_uris":{"android":"levelo://app?vid=7cb57cc4-cf08-4b00-a31c-c1120bb4079c","ios":"levelo://app?vid=7cb57cc4-cf08-4b00-a31c-c1120bb4079c"},"vehicle_type_id":"4","last_reported":1685466260,"current_range_meters":26400,"station_id":"ce4bhih2rcd13ifvqfs0","pricing_plan_id":"free"},{"bike_id":"645d824e-4191-40e7-8718-c877b839e43b","system_id":"levelo_inurba_marseille","lat":43.255756,"lon":5.382303,"is_reserved":false,"is_disabled":false,"rental_uris":{"android":"levelo://app?vid=645d824e-4191-40e7-8718-c877b839e43b","ios":"levelo://app?vid=645d824e-4191-40e7-8718-c877b839e43b"},"vehicle_type_id":"4","last_reported":1685466260,"current_range_meters":4800,"station_id":"ce4bhih2rcd13ifvqfs0","pricing_plan_id":"free"},{"bike_id":"0fea447f-93b0-482c-9d1c-e445ef77957e","system_id":"levelo_inurba_marseille","lat":43.25571,"lon":5.38231,"is_reserved":false,"is_disabled":false,"rental_uris":{"android":"levelo://app?vid=0fea447f-93b0-482c-9d1c-e445ef77957e","ios":"levelo://app?vid=0fea447f-93b0-482c-9d1c-e445ef77957e"},"vehicle_type_id":"4","last_reported":1685466260,"current_range_meters":25600,"station_id":"ce4bhih2rcd13ifvqfs0","pricing_plan_id":"free"},{"bike_id":"5e426e8b-1850-46ac-ad15-db31e75375f8","system_id":"levelo_inurba_marseille","lat":43.254947,"lon":5.376454,"is_reserved":false,"is_disabled":false,"rental_uris":{"android":"levelo://app?vid=5e426e8b-1850-46ac-ad15-db31e75375f8","ios":"levelo://app?vid=5e426e8b-1850-46ac-ad15-db31e75375f8"},"vehicle_type_id":"4","last_reported":1685466260,"current_range_meters":23600,"station_id":"ce4bhh12rcd13ifvqff0","pricing_plan_id":"free"},{"bike_id":"5874d857-da16-4af6-b839-be0ff7e6fce7","system_id":"levelo_inurba_marseille","lat":43.254945,"lon":5.376454,"is_reserved":false,"is_disabled":false,"rental_uris":{"android":"levelo://app?vid=5874d857-da16-4af6-b839-be0ff7e6fce7","ios":"levelo://app?vid=5874d857-da16-4af6-b839-be0ff7e6fce7"},"vehicle_type_id":"4","last_reported":1685466260,"current_range_meters":6800,"station_id":"ce4bhh12rcd13ifvqff0","pricing_plan_id":"free"},{"bike_id":"1a8b133e-9805-441b-a704-7b4fcf7a281a","system_id":"levelo_inurba_marseille","lat":43.254945,"lon":5.376454,"is_reserved":false,"is_disabled":false,"rental_uris":{"android":"levelo://app?vid=1a8b133e-9805-441b-a704-7b4fcf7a281a","ios":"levelo://app?vid=1a8b133e-9805-441b-a704-7b4fcf7a281a"},"vehicle_type_id":"4","last_reported":1685466260,"current_range_meters":22800,"station_id":"ce4bhh12rcd13ifvqff0","pricing_plan_id":"free"},{"bike_id":"58dada6d-565d-4257-892c-76ae0937db0f","system_id":"levelo_inurba_marseille","lat":43.254947,"lon":5.376454,"is_reserved":false,"is_disabled":false,"rental_uris":{"android":"levelo://app?vid=58dada6d-565d-4257-892c-76ae0937db0f","ios":"levelo://app?vid=58dada6d-565d-4257-892c-76ae0937db0f"},"vehicle_type_id":"4","last_reported":1685466260,"current_range_meters":31600,"station_id":"ce4bhh12rcd13ifvqff0","pricing_plan_id":"free"},{"bike_id":"8c83b081-7573-4f77-be88-034a21dae34c","system_id":"levelo_inurba_marseille","lat":43.254945,"lon":5.376454,"is_reserved":false,"is_disabled":false,"rental_uris":{"android":"levelo://app?vid=8c83b081-7573-4f77-be88-034a21dae34c","ios":"levelo://app?vid=8c83b081-7573-4f77-be88-034a21dae34c"},"vehicle_type_id":"4","last_reported":1685466260,"current_range_meters":1600,"station_id":"ce4bhh12rcd13ifvqff0","pricing_plan_id":"free"},{"bike_id":"4424dc67-60d1-4d9c-9e85-227a31700c5d","system_id":"levelo_inurba_marseille","lat":43.270721,"lon":5.422764,"is_reserved":false,"is_disabled":false,"rental_uris":{"android":"levelo://app?vid=4424dc67-60d1-4d9c-9e85-227a31700c5d","ios":"levelo://app?vid=4424dc67-60d1-4d9c-9e85-227a31700c5d"},"vehicle_type_id":"4","last_reported":1685466260,"current_range_meters":1600,"station_id":"ce4bhk92rcd13ifvqgb0","pricing_plan_id":"free"},{"bike_id":"0e8a0822-4b79-402c-a6fd-cb229a675d27","system_id":"levelo_inurba_marseille","lat":43.2607,"lon":5.393983,"is_reserved":false,"is_disabled":false,"rental_uris":{"android":"levelo://app?vid=0e8a0822-4b79-402c-a6fd-cb229a675d27","ios":"levelo://app?vid=0e8a0822-4b79-402c-a6fd-cb229a675d27"},"vehicle_type_id":"4","last_reported":1685466260,"current_range_meters":26000,"station_id":"ce4bhh92rcd13ifvqfj0","pricing_plan_id":"free"},{"bike_id":"2b589d0a-fd12-48dd-9a78-6ad693b04662","system_id":"levelo_inurba_marseille","lat":43.250023,"lon":5.38919,"is_reserved":false,"is_disabled":false,"rental_uris":{"android":"levelo://app?vid=2b589d0a-fd12-48dd-9a78-6ad693b04662","ios":"levelo://app?vid=2b589d0a-fd12-48dd-9a78-6ad693b04662"},"vehicle_type_id":"4","last_reported":1685466260,"current_range_meters":16000,"station_id":"ce4bhgp2rcd13ifvqfd0","pricing_plan_id":"free"},{"bike_id":"841f1318-77c5-4f4f-9060-08da964d399f","system_id":"levelo_inurba_marseille","lat":43.25713,"lon":5.41107,"is_reserved":false,"is_disabled":false,"rental_uris":{"android":"levelo://app?vid=841f1318-77c5-4f4f-9060-08da964d399f","ios":"levelo://app?vid=841f1318-77c5-4f4f-9060-08da964d399f"},"vehicle_type_id":"4","last_reported":1685466260,"current_range_meters":12000,"station_id":"","pricing_plan_id":"free"},{"bike_id":"47abf1e8-3d32-4dfa-9ce5-c756190f6bbc","system_id":"levelo_inurba_marseille","lat":43.25008,"lon":5.38913,"is_reserved":false,"is_disabled":false,"rental_uris":{"android":"levelo://app?vid=47abf1e8-3d32-4dfa-9ce5-c756190f6bbc","ios":"levelo://app?vid=47abf1e8-3d32-4dfa-9ce5-c756190f6bbc"},"vehicle_type_id":"4","last_reported":1685466260,"current_range_meters":12000,"station_id":"ce4bhgp2rcd13ifvqfd0","pricing_plan_id":"free"},{"bike_id":"3e044cc3-283c-49d0-9e12-3e315aeacbcc","system_id":"levelo_inurba_marseille","lat":43.250009,"lon":5.389195,"is_reserved":false,"is_disabled":false,"rental_uris":{"android":"levelo://app?vid=3e044cc3-283c-49d0-9e12-3e315aeacbcc","ios":"levelo://app?vid=3e044cc3-283c-49d0-9e12-3e315aeacbcc"},"vehicle_type_id":"4","last_reported":1685466260,"current_range_meters":1600,"station_id":"ce4bhgp2rcd13ifvqfd0","pricing_plan_id":"free"},{"bike_id":"a442d1b7-a048-421c-ac75-02a1e4e13d72","system_id":"levelo_inurba_marseille","lat":43.250009,"lon":5.389195,"is_reserved":false,"is_disabled":false,"rental_uris":{"android":"levelo://app?vid=a442d1b7-a048-421c-ac75-02a1e4e13d72","ios":"levelo://app?vid=a442d1b7-a048-421c-ac75-02a1e4e13d72"},"vehicle_type_id":"4","last_reported":1685466260,"current_range_meters":2800,"station_id":"ce4bhgp2rcd13ifvqfd0","pricing_plan_id":"free"},{"bike_id":"f1604e5a-4b93-4518-aa3a-d4fd11e899aa","system_id":"levelo_inurba_marseille","lat":43.250009,"lon":5.389195,"is_reserved":false,"is_disabled":false,"rental_uris":{"android":"levelo://app?vid=f1604e5a-4b93-4518-aa3a-d4fd11e899aa","ios":"levelo://app?vid=f1604e5a-4b93-4518-aa3a-d4fd11e899aa"},"vehicle_type_id":"4","last_reported":1685466260,"current_range_meters":22800,"station_id":"ce4bhgp2rcd13ifvqfd0","pricing_plan_id":"free"},{"bike_id":"5585503f-dadb-402f-b68d-1092afc5c13a","system_id":"levelo_inurba_marseille","lat":43.24813,"lon":5.37463,"is_reserved":false,"is_disabled":false,"rental_uris":{"android":"levelo://app?vid=5585503f-dadb-402f-b68d-1092afc5c13a","ios":"levelo://app?vid=5585503f-dadb-402f-b68d-1092afc5c13a"},"vehicle_type_id":"4","last_reported":1685466260,"current_range_meters":0,"station_id":"","pricing_plan_id":"free"},{"bike_id":"2d3f5614-0152-4cc0-8e44-254874858f67","system_id":"levelo_inurba_marseille","lat":43.2479,"lon":5.374457,"is_reserved":false,"is_disabled":false,"rental_uris":{"android":"levelo://app?vid=2d3f5614-0152-4cc0-8e44-254874858f67","ios":"levelo://app?vid=2d3f5614-0152-4cc0-8e44-254874858f67"},"vehicle_type_id":"4","last_reported":1685466260,"current_range_meters":27200,"station_id":"ce4bhgh2rcd13ifvqfb0","pricing_plan_id":"free"},{"bike_id":"15059753-aa37-40cf-866d-fad4bbe667e9","system_id":"levelo_inurba_marseille","lat":43.2479,"lon":5.374457,"is_reserved":false,"is_disabled":false,"rental_uris":{"android":"levelo://app?vid=15059753-aa37-40cf-866d-fad4bbe667e9","ios":"levelo://app?vid=15059753-aa37-40cf-866d-fad4bbe667e9"},"vehicle_type_id":"4","last_reported":1685466260,"current_range_meters":6800,"station_id":"ce4bhgh2rcd13ifvqfb0","pricing_plan_id":"free"},{"bike_id":"8c53b91e-3bdf-4c7f-b670-a75f2e6223cb","system_id":"levelo_inurba_marseille","lat":43.2479,"lon":5.374457,"is_reserved":false,"is_disabled":false,"rental_uris":{"android":"levelo://app?vid=8c53b91e-3bdf-4c7f-b670-a75f2e6223cb","ios":"levelo://app?vid=8c53b91e-3bdf-4c7f-b670-a75f2e6223cb"},"vehicle_type_id":"4","last_reported":1685466260,"current_range_meters":28800,"station_id":"ce4bhgh2rcd13ifvqfb0","pricing_plan_id":"free"},{"bike_id":"97f127af-1670-422a-af44-5f798f6c339d","system_id":"levelo_inurba_marseille","lat":43.2479,"lon":5.374457,"is_reserved":false,"is_disabled":false,"rental_uris":{"android":"levelo://app?vid=97f127af-1670-422a-af44-5f798f6c339d","ios":"levelo://app?vid=97f127af-1670-422a-af44-5f798f6c339d"},"vehicle_type_id":"4","last_reported":1685466260,"current_range_meters":18800,"station_id":"ce4bhgh2rcd13ifvqfb0","pricing_plan_id":"free"},{"bike_id":"d969743b-f160-4bf3-aa89-96c68ce29f1e","system_id":"levelo_inurba_marseille","lat":43.250966,"lon":5.395186,"is_reserved":false,"is_disabled":false,"rental_uris":{"android":"levelo://app?vid=d969743b-f160-4bf3-aa89-96c68ce29f1e","ios":"levelo://app?vid=d969743b-f160-4bf3-aa89-96c68ce29f1e"},"vehicle_type_id":"4","last_reported":1685466260,"current_range_meters":400,"station_id":"ce4bhm12rcd13ifvqgkg","pricing_plan_id":"free"},{"bike_id":"062d4a3c-e3cb-4cca-b4c2-eeab26d1da78","system_id":"levelo_inurba_marseille","lat":43.250966,"lon":5.395186,"is_reserved":false,"is_disabled":false,"rental_uris":{"android":"levelo://app?vid=062d4a3c-e3cb-4cca-b4c2-eeab26d1da78","ios":"levelo://app?vid=062d4a3c-e3cb-4cca-b4c2-eeab26d1da78"},"vehicle_type_id":"4","last_reported":1685466260,"current_range_meters":31600,"station_id":"ce4bhm12rcd13ifvqgkg","pricing_plan_id":"free"},{"bike_id":"deee908d-4d54-4002-9b63-a86c53210597","system_id":"levelo_inurba_marseille","lat":43.25117,"lon":5.40325,"is_reserved":false,"is_disabled":false,"rental_uris":{"android":"levelo://app?vid=deee908d-4d54-4002-9b63-a86c53210597","ios":"levelo://app?vid=deee908d-4d54-4002-9b63-a86c53210597"},