{"last_updated":1742659835,"ttl":60,"version":"2.2","data":{"bikes":[{"bike_id":"98210e5b-0ee3-4c5a-a3d8-7f6861f48e98","system_id":"levelo_inurba_marseille","lat":43.30348,"lon":5.41872,"is_reserved":false,"is_disabled":false,"rental_uris":{"android":"levelo://app?vid=98210e5b-0ee3-4c5a-a3d8-7f6861f48e98","ios":"levelo://app?vid=98210e5b-0ee3-4c5a-a3d8-7f6861f48e98"},"vehicle_type_id":"4","last_reported":1742659835,"current_range_meters":2800,"station_id":"ce4bhop2rcd13ifvqh7g","pricing_plan_id":"cebpf4jnsgd1na2vs0mg"},{"bike_id":"bd05ed93-fa39-45c5-adb7-3427d5bbb2d4","system_id":"levelo_inurba_marseille","lat":43.29733,"lon":5.37987,"is_reserved":false,"is_disabled":false,"rental_uris":{"android":"levelo://app?vid=bd05ed93-fa39-45c5-adb7-3427d5bbb2d4","ios":"levelo://app?vid=bd05ed93-fa39-45c5-adb7-3427d5bbb2d4"},"vehicle_type_id":"4","last_reported":1742659835,"current_range_meters":2800,"station_id":"","pricing_plan_id":"cebpf4jnsgd1na2vs0mg"},{"bike_id":"3dc450c2-97fe-4281-9c87-e5f0cfb8f73f","system_id":"levelo_inurba_marseille","lat":43.2848,"lon":5.38439,"is_reserved":false,"is_disabled":false,"rental_uris":{"android":"levelo://app?vid=3dc450c2-97fe-4281-9c87-e5f0cfb8f73f","ios":"levelo://app?vid=3dc450c2-97fe-4281-9c87-e5f0cfb8f73f"},"vehicle_type_id":"4","last_reported":1742659835,"current_range_meters":3200,"station_id":"ce4bh512rcd13ifvqe3g","pricing_plan_id":"cebpf4jnsgd1na2vs0mg"},{"bike_id":"9c52ffdb-fce5-40cf-b79f-0621383429c7","system_id":"levelo_inurba_marseille","lat":43.30303,"lon":5.39208,"is_reserved":false,"is_disabled":false,"rental_uris":{"android":"levelo://app?vid=9c52ffdb-fce5-40cf-b79f-0621383429c7","ios":"levelo://app?vid=9c52ffdb-fce5-40cf-b79f-0621383429c7"},"vehicle_type_id":"4","last_reported":1742659835,"current_range_meters":2800,"station_id":"ce4bgkh2rcd13ifvqbk0","pricing_plan_id":"cebpf4jnsgd1na2vs0mg"},{"bike_id":"2e7ed6fc-8aa3-4b98-acd0-b76532587780","system_id":"levelo_inurba_marseille","lat":43.29416,"lon":5.38623,"is_reserved":false,"is_disabled":false,"rental_uris":{"android":"levelo://app?vid=2e7ed6fc-8aa3-4b98-acd0-b76532587780","ios":"levelo://app?vid=2e7ed6fc-8aa3-4b98-acd0-b76532587780"},"vehicle_type_id":"4","last_reported":1742659835,"current_range_meters":2800,"station_id":"ce4bh2h2rcd13ifvqdh0","pricing_plan_id":"cebpf4jnsgd1na2vs0mg"},{"bike_id":"31cc779d-8cf2-4d8a-a75d-dc9ae611a948","system_id":"levelo_inurba_marseille","lat":43.290927,"lon":5.381232,"is_reserved":false,"is_disabled":false,"rental_uris":{"android":"levelo://app?vid=31cc779d-8cf2-4d8a-a75d-dc9ae611a948","ios":"levelo://app?vid=31cc779d-8cf2-4d8a-a75d-dc9ae611a948"},"vehicle_type_id":"4","last_reported":1742659835,"current_range_meters":3200,"station_id":"ce4bhhp2rcd13ifvqfm0","pricing_plan_id":"cebpf4jnsgd1na2vs0mg"},{"bike_id":"62bf2f5c-9819-4816-afad-4a268d7a76b8","system_id":"levelo_inurba_marseille","lat":43.24172,"lon":5.36401,"is_reserved":false,"is_disabled":true,"rental_uris":{"android":"levelo://app?vid=62bf2f5c-9819-4816-afad-4a268d7a76b8","ios":"levelo://app?vid=62bf2f5c-9819-4816-afad-4a268d7a76b8"},"vehicle_type_id":"4","last_reported":1742659835,"current_range_meters":3200,"station_id":"cpo36qri1sfpv3e86is0","pricing_plan_id":"cebpf4jnsgd1na2vs0mg"},{"bike_id":"efac479e-3a74-4e59-97a7-560f642b4ec6","system_id":"levelo_inurba_marseille","lat":43.30306,"lon":5.36888,"is_reserved":false,"is_disabled":false,"rental_uris":{"android":"levelo://app?vid=efac479e-3a74-4e59-97a7-560f642b4ec6","ios":"levelo://app?vid=efac479e-3a74-4e59-97a7-560f642b4ec6"},"vehicle_type_id":"4","last_reported":1742659835,"current_range_meters":3200,"station_id":"ce4bgqh2rcd13ifvqc5g","pricing_plan_id":"cebpf4jnsgd1na2vs0mg"},{"bike_id":"788305bd-31a7-471a-87dc-5e33686de733","system_id":"levelo_inurba_marseille","lat":43.27631,"lon":5.36109,"is_reserved":false,"is_disabled":false,"rental_uris":{"android":"levelo://app?vid=788305bd-31a7-471a-87dc-5e33686de733","ios":"levelo://app?vid=788305bd-31a7-471a-87dc-5e33686de733"},"vehicle_type_id":"4","last_reported":1742659835,"current_range_meters":3200,"station_id":"ce4bgj92rcd13ifvqbe0","pricing_plan_id":"cebpf4jnsgd1na2vs0mg"},{"bike_id":"dcfef209-f859-41d5-b682-8cde18625bd8","system_id":"levelo_inurba_marseille","lat":43.23187,"lon":5.39982,"is_reserved":false,"is_disabled":false,"rental_uris":{"android":"levelo://app?vid=dcfef209-f859-41d5-b682-8cde18625bd8","ios":"levelo://app?vid=dcfef209-f859-41d5-b682-8cde18625bd8"},"vehicle_type_id":"4","last_reported":1742659835,"current_range_meters":3200,"station_id":"ce4bhn12rcd13ifvqgqg","pricing_plan_id":"cebpf4jnsgd1na2vs0mg"},{"bike_id":"25d8bad4-3492-4aa0-b696-4b46a0263b5a","system_id":"levelo_inurba_marseille","lat":43.266318,"lon":5.372644,"is_reserved":false,"is_disabled":false,"rental_uris":{"android":"levelo://app?vid=25d8bad4-3492-4aa0-b696-4b46a0263b5a","ios":"levelo://app?vid=25d8bad4-3492-4aa0-b696-4b46a0263b5a"},"vehicle_type_id":"4","last_reported":1742659835,"current_range_meters":2800,"station_id":"ce4bhn12rcd13ifvqgqg","pricing_plan_id":"cebpf4jnsgd1na2vs0mg"},{"bike_id":"d884665b-7ad1-4e04-986d-fca69c5abc2d","system_id":"levelo_inurba_marseille","lat":43.303073,"lon":5.392158,"is_reserved":false,"is_disabled":false,"rental_uris":{"android":"levelo://app?vid=d884665b-7ad1-4e04-986d-fca69c5abc2d","ios":"levelo://app?vid=d884665b-7ad1-4e04-986d-fca69c5abc2d"},"vehicle_type_id":"4","last_reported":1742659835,"current_range_meters":0,"station_id":"ce4bhah2rcd13ifvqej0","pricing_plan_id":"cebpf4jnsgd1na2vs0mg"},{"bike_id":"17cc0ff0-d32d-4193-a09f-1da1c529fabd","system_id":"levelo_inurba_marseille","lat":43.27987,"lon":5.4001,"is_reserved":false,"is_disabled":false,"rental_uris":{"android":"levelo://app?vid=17cc0ff0-d32d-4193-a09f-1da1c529fabd","ios":"levelo://app?vid=17cc0ff0-d32d-4193-a09f-1da1c529fabd"},"vehicle_type_id":"4","last_reported":1742659835,"current_range_meters":3200,"station_id":"ce4bho92rcd13ifvqh4g","pricing_plan_id":"cebpf4jnsgd1na2vs0mg"},{"bike_id":"be85c2d3-67c2-4582-817d-f8bafa41cfaa","system_id":"levelo_inurba_marseille","lat":43.29265,"lon":5.40898,"is_reserved":false,"is_disabled":false,"rental_uris":{"android":"levelo://app?vid=be85c2d3-67c2-4582-817d-f8bafa41cfaa","ios":"levelo://app?vid=be85c2d3-67c2-4582-817d-f8bafa41cfaa"},"vehicle_type_id":"4","last_reported":1742659835,"current_range_meters":3600,"station_id":"ce4bh192rcd13ifvqdc0","pricing_plan_id":"cebpf4jnsgd1na2vs0mg"},{"bike_id":"a53e10fd-2f53-4175-abf8-b2848bb64622","system_id":"levelo_inurba_marseille","lat":43.32348,"lon":5.40611,"is_reserved":false,"is_disabled":false,"rental_uris":{"android":"levelo://app?vid=a53e10fd-2f53-4175-abf8-b2848bb64622","ios":"levelo://app?vid=a53e10fd-2f53-4175-abf8-b2848bb64622"},"vehicle_type_id":"4","last_reported":1742659835,"current_range_meters":3200,"station_id":"ce4bhq92rcd13ifvqhjg","pricing_plan_id":"cebpf4jnsgd1na2vs0mg"},{"bike_id":"b25c16cc-fcf3-4005-ae0f-e8353c1178cb","system_id":"levelo_inurba_marseille","lat":43.24692,"lon":5.38153,"is_reserved":false,"is_disabled":true,"rental_uris":{"android":"levelo://app?vid=b25c16cc-fcf3-4005-ae0f-e8353c1178cb","ios":"levelo://app?vid=b25c16cc-fcf3-4005-ae0f-e8353c1178cb"},"vehicle_type_id":"4","last_reported":1742659835,"current_range_meters":3600,"station_id":"ce4bhih2rcd13ifvqfr0","pricing_plan_id":"cebpf4jnsgd1na2vs0mg"},{"bike_id":"dc926d9a-cb29-4102-bb6a-f02afff3418c","system_id":"levelo_inurba_marseille","lat":43.28425,"lon":5.39184,"is_reserved":false,"is_disabled":false,"rental_uris":{"android":"levelo://app?vid=dc926d9a-cb29-4102-bb6a-f02afff3418c","ios":"levelo://app?vid=dc926d9a-cb29-4102-bb6a-f02afff3418c"},"vehicle_type_id":"4","last_reported":1742659835,"current_range_meters":3200,"station_id":"ce4bhoh2rcd13ifvqh5g","pricing_plan_id":"cebpf4jnsgd1na2vs0mg"},{"bike_id":"b8d209ec-e38f-4b51-af9b-747a61933b81","system_id":"levelo_inurba_marseille","lat":43.26835,"lon":5.39337,"is_reserved":false,"is_disabled":false,"rental_uris":{"android":"levelo://app?vid=b8d209ec-e38f-4b51-af9b-747a61933b81","ios":"levelo://app?vid=b8d209ec-e38f-4b51-af9b-747a61933b81"},"vehicle_type_id":"4","last_reported":1742659835,"current_range_meters":3600,"station_id":"","pricing_plan_id":"cebpf4jnsgd1na2vs0mg"},{"bike_id":"2009b3ba-fa45-4c78-91df-961865ffb7c6","system_id":"levelo_inurba_marseille","lat":43.30885,"lon":5.39647,"is_reserved":false,"is_disabled":false,"rental_uris":{"android":"levelo://app?vid=2009b3ba-fa45-4c78-91df-961865ffb7c6","ios":"levelo://app?vid=2009b3ba-fa45-4c78-91df-961865ffb7c6"},"vehicle_type_id":"4","last_reported":1742659835,"current_range_meters":3600,"station_id":"ce4bh012rcd13ifvqcv0","pricing_plan_id":"cebpf4jnsgd1na2vs0mg"},{"bike_id":"863455df-f0f4-41d7-92dd-b93b7bc50b5d","system_id":"levelo_inurba_marseille","lat":43.27979,"lon":5.4163,"is_reserved":false,"is_disabled":false,"rental_uris":{"android":"levelo://app?vid=863455df-f0f4-41d7-92dd-b93b7bc50b5d","ios":"levelo://app?vid=863455df-f0f4-41d7-92dd-b93b7bc50b5d"},"vehicle_type_id":"4","last_reported":1742659835,"current_range_meters":4000,"station_id":"ce4bho12rcd13ifvqh1g","pricing_plan_id":"cebpf4jnsgd1na2vs0mg"},{"bike_id":"2d5233dc-81df-459b-8032-ba24f7001f25","system_id":"levelo_inurba_marseille","lat":43.29796,"lon":5.40383,"is_reserved":false,"is_disabled":false,"rental_uris":{"android":"levelo://app?vid=2d5233dc-81df-459b-8032-ba24f7001f25","ios":"levelo://app?vid=2d5233dc-81df-459b-8032-ba24f7001f25"},"vehicle_type_id":"4","last_reported":1742659835,"current_range_meters":4400,"station_id":"ce4bh112rcd13ifvqd90","pricing_plan_id":"cebpf4jnsgd1na2vs0mg"},{"bike_id":"e36612a3-539f-44d7-928d-201dd28ccbbb","system_id":"levelo_inurba_marseille","lat":43.300885,"lon":5.390778,"is_reserved":false,"is_disabled":false,"rental_uris":{"android":"levelo://app?vid=e36612a3-539f-44d7-928d-201dd28ccbbb","ios":"levelo://app?vid=e36612a3-539f-44d7-928d-201dd28ccbbb"},"vehicle_type_id":"4","last_reported":1742659835,"current_range_meters":5600,"station_id":"ce4bgs92rcd13ifvqcc0","pricing_plan_id":"cebpf4jnsgd1na2vs0mg"},{"bike_id":"dc097f9c-b6fe-46d6-bcc2-1b8a5db25998","system_id":"levelo_inurba_marseille","lat":43.29056,"lon":5.39976,"is_reserved":false,"is_disabled":false,"rental_uris":{"android":"levelo://app?vid=dc097f9c-b6fe-46d6-bcc2-1b8a5db25998","ios":"levelo://app?vid=dc097f9c-b6fe-46d6-bcc2-1b8a5db25998"},"vehicle_type_id":"4","last_reported":1742659835,"current_range_meters":4800,"station_id":"","pricing_plan_id":"cebpf4jnsgd1na2vs0mg"},{"bike_id":"ffd187a2-b5ca-497e-bbb4-b5c4209d3f5d","system_id":"levelo_inurba_marseille","lat":43.27215,"lon":5.39188,"is_reserved":false,"is_disabled":false,"rental_uris":{"android":"levelo://app?vid=ffd187a2-b5ca-497e-bbb4-b5c4209d3f5d","ios":"levelo://app?vid=ffd187a2-b5ca-497e-bbb4-b5c4209d3f5d"},"vehicle_type_id":"4","last_reported":1742659835,"current_range_meters":4800,"station_id":"ce4bhhp2rcd13ifvqfm0","pricing_plan_id":"cebpf4jnsgd1na2vs0mg"},{"bike_id":"b56f1a63-20be-4ae4-be54-a106c365db93","system_id":"levelo_inurba_marseille","lat":43.29242,"lon":5.37628,"is_reserved":false,"is_disabled":false,"rental_uris":{"android":"levelo://app?vid=b56f1a63-20be-4ae4-be54-a106c365db93","ios":"levelo://app?vid=b56f1a63-20be-4ae4-be54-a106c365db93"},"vehicle_type_id":"4","last_reported":1742659835,"current_range_meters":4800,"station_id":"ce4bgi12rcd13ifvqb80","pricing_plan_id":"cebpf4jnsgd1na2vs0mg"},{"bike_id":"5598a285-a859-428b-94b8-9502fa251890","system_id":"levelo_inurba_marseille","lat":43.25588,"lon":5.38232,"is_reserved":false,"is_disabled":false,"rental_uris":{"android":"levelo://app?vid=5598a285-a859-428b-94b8-9502fa251890","ios":"levelo://app?vid=5598a285-a859-428b-94b8-9502fa251890"},"vehicle_type_id":"4","last_reported":1742659835,"current_range_meters":5600,"station_id":"ce4bhih2rcd13ifvqfs0","pricing_plan_id":"cebpf4jnsgd1na2vs0mg"},{"bike_id":"bbb4e670-acd0-4285-9513-dc896dfe7f0b","system_id":"levelo_inurba_marseille","lat":43.30869,"lon":5.3965,"is_reserved":false,"is_disabled":false,"rental_uris":{"android":"levelo://app?vid=bbb4e670-acd0-4285-9513-dc896dfe7f0b","ios":"levelo://app?vid=bbb4e670-acd0-4285-9513-dc896dfe7f0b"},"vehicle_type_id":"4","last_reported":1742659835,"current_range_meters":5600,"station_id":"ce4bh012rcd13ifvqcv0","pricing_plan_id":"cebpf4jnsgd1na2vs0mg"},{"bike_id":"e347fcd1-fecb-4bc4-8bd0-1841f88cba91","system_id":"levelo_inurba_marseille","lat":43.26063,"lon":5.39384,"is_reserved":false,"is_disabled":false,"rental_uris":{"android":"levelo://app?vid=e347fcd1-fecb-4bc4-8bd0-1841f88cba91","ios":"levelo://app?vid=e347fcd1-fecb-4bc4-8bd0-1841f88cba91"},"vehicle_type_id":"4","last_reported":1742659835,"current_range_meters":5600,"station_id":"ce4bhh92rcd13ifvqfj0","pricing_plan_id":"cebpf4jnsgd1na2vs0mg"},{"bike_id":"3ae790fb-f2b5-48a6-8139-937ebbb3db56","system_id":"levelo_inurba_marseille","lat":43.31108,"lon":5.40059,"is_reserved":false,"is_disabled":false,"rental_uris":{"android":"levelo://app?vid=3ae790fb-f2b5-48a6-8139-937ebbb3db56","ios":"levelo://app?vid=3ae790fb-f2b5-48a6-8139-937ebbb3db56"},"vehicle_type_id":"4","last_reported":1742659835,"current_range_meters":5600,"station_id":"","pricing_plan_id":"cebpf4jnsgd1na2vs0mg"},{"bike_id":"d88cea05-07f2-4b49-8251-4b7225fe0f9e","system_id":"levelo_inurba_marseille","lat":43.29541,"lon":5.37514,"is_reserved":false,"is_disabled":false,"rental_uris":{"android":"levelo://app?vid=d88cea05-07f2-4b49-8251-4b7225fe0f9e","ios":"levelo://app?vid=d88cea05-07f2-4b49-8251-4b7225fe0f9e"},"vehicle_type_id":"4","last_reported":1742659835,"current_range_meters":5600,"station_id":"ce4bgkp2rcd13ifvqbmg","pricing_plan_id":"cebpf4jnsgd1na2vs0mg"},{"bike_id":"300f6bb2-7fd0-40d1-9964-57cd9e643a3d","system_id":"levelo_inurba_marseille","lat":43.24654,"lon":5.38894,"is_reserved":false,"is_disabled":false,"rental_uris":{"android":"levelo://app?vid=300f6bb2-7fd0-40d1-9964-57cd9e643a3d","ios":"levelo://app?vid=300f6bb2-7fd0-40d1-9964-57cd9e643a3d"},"vehicle_type_id":"4","last_reported":1742659835,"current_range_meters":5600,"station_id":"ce4bhg12rcd13ifvqf60","pricing_plan_id":"cebpf4jnsgd1na2vs0mg"},{"bike_id":"71328398-9c51-4e59-9534-f208c31ab959","system_id":"levelo_inurba_marseille","lat":43.29036,"lon":5.39954,"is_reserved":false,"is_disabled":false,"rental_uris":{"android":"levelo://app?vid=71328398-9c51-4e59-9534-f208c31ab959","ios":"levelo://app?vid=71328398-9c51-4e59-9534-f208c31ab959"},"vehicle_type_id":"4","last_reported":1742659835,"current_range_meters":6000,"station_id":"ce4bh392rcd13ifvqdm0","pricing_plan_id":"cebpf4jnsgd1na2vs0mg"},{"bike_id":"0a5ae059-ac12-488d-95bb-fce940d89fd0","system_id":"levelo_inurba_marseille","lat":43.29262,"lon":5.40915,"is_reserved":false,"is_disabled":false,"rental_uris":{"android":"levelo://app?vid=0a5ae059-ac12-488d-95bb-fce940d89fd0","ios":"levelo://app?vid=0a5ae059-ac12-488d-95bb-fce940d89fd0"},"vehicle_type_id":"4","last_reported":1742659835,"current_range_meters":6000,"station_id":"ce4bh192rcd13ifvqdc0","pricing_plan_id":"cebpf4jnsgd1na2vs0mg"},{"bike_id":"2f66c452-48a3-45fc-a7d1-64a647e10a6b","system_id":"levelo_inurba_marseille","lat":43.2738,"lon":5.3625,"is_reserved":false,"is_disabled":false,"rental_uris":{"android":"levelo://app?vid=2f66c452-48a3-45fc-a7d1-64a647e10a6b","ios":"levelo://app?vid=2f66c452-48a3-45fc-a7d1-64a647e10a6b"},"vehicle_type_id":"4","last_reported":1742659835,"current_range_meters":6000,"station_id":"ce4bhbh2rcd13ifvqeo0","pricing_plan_id":"cebpf4jnsgd1na2vs0mg"},{"bike_id":"26ce4f5e-e20f-4e4c-b0fc-d65d85128c02","system_id":"levelo_inurba_marseille","lat":43.26562,"lon":5.39018,"is_reserved":false,"is_disabled":false,"rental_uris":{"android":"levelo://app?vid=26ce4f5e-e20f-4e4c-b0fc-d65d85128c02","ios":"levelo://app?vid=26ce4f5e-e20f-4e4c-b0fc-d65d85128c02"},"vehicle_type_id":"4","last_reported":1742659835,"current_range_meters":6000,"station_id":"ce4bhe12rcd13ifvqf30","pricing_plan_id":"cebpf4jnsgd1na2vs0mg"},{"bike_id":"26247666-dc43-4f8c-badb-1dca18145970","system_id":"levelo_inurba_marseille","lat":43.24052,"lon":5.37752,"is_reserved":false,"is_disabled":false,"rental_uris":{"android":"levelo://app?vid=26247666-dc43-4f8c-badb-1dca18145970","ios":"levelo://app?vid=26247666-dc43-4f8c-badb-1dca18145970"},"vehicle_type_id":"4","last_reported":1742659835,"current_range_meters":6000,"station_id":"ce4bhnp2rcd13ifvqgvg","pricing_plan_id":"cebpf4jnsgd1na2vs0mg"},{"bike_id":"bf51b785-9ea0-4685-9a9e-6395bc0ebb32","system_id":"levelo_inurba_marseille","lat":43.28082,"lon":5.39656,"is_reserved":false,"is_disabled":false,"rental_uris":{"android":"levelo://app?vid=bf51b785-9ea0-4685-9a9e-6395bc0ebb32","ios":"levelo://app?vid=bf51b785-9ea0-4685-9a9e-6395bc0ebb32"},"vehicle_type_id":"4","last_reported":1742659835,"current_range_meters":6400,"station_id":"ce4bho12rcd13ifvqh2g","pricing_plan_id":"cebpf4jnsgd1na2vs0mg"},{"bike_id":"527463a9-7cf9-462b-b20a-c7ac15f97e4b","system_id":"levelo_inurba_marseille","lat":43.29559,"lon":5.36745,"is_reserved":false,"is_disabled":true,"rental_uris":{"android":"levelo://app?vid=527463a9-7cf9-462b-b20a-c7ac15f97e4b","ios":"levelo://app?vid=527463a9-7cf9-462b-b20a-c7ac15f97e4b"},"vehicle_type_id":"4","last_reported":1742659835,"current_range_meters":6400,"station_id":"ce4bgph2rcd13ifvqc2g","pricing_plan_id":"cebpf4jnsgd1na2vs0mg"},{"bike_id":"f2febf95-7fbd-4da1-9b57-8310b0487b2d","system_id":"levelo_inurba_marseille","lat":43.28147,"lon":5.42659,"is_reserved":false,"is_disabled":false,"rental_uris":{"android":"levelo://app?vid=f2febf95-7fbd-4da1-9b57-8310b0487b2d","ios":"levelo://app?vid=f2febf95-7fbd-4da1-9b57-8310b0487b2d"},"vehicle_type_id":"4","last_reported":1742659835,"current_range_meters":6400,"station_id":"ce4bhnh2rcd13ifvqgug","pricing_plan_id":"cebpf4jnsgd1na2vs0mg"},{"bike_id":"3b88ee11-312e-4bf6-9e2d-bf1c686694d3","system_id":"levelo_inurba_marseille","lat":43.27656,"lon":5.389,"is_reserved":false,"is_disabled":false,"rental_uris":{"android":"levelo://app?vid=3b88ee11-312e-4bf6-9e2d-bf1c686694d3","ios":"levelo://app?vid=3b88ee11-312e-4bf6-9e2d-bf1c686694d3"},"vehicle_type_id":"4","last_reported":1742659835,"current_range_meters":6400,"station_id":"ce4bhi12rcd13ifvqfo0","pricing_plan_id":"cebpf4jnsgd1na2vs0mg"},{"bike_id":"4e130c3f-1e9a-4e1a-a546-fa10a03dc915","system_id":"levelo_inurba_marseille","lat":43.24688,"lon":5.38144,"is_reserved":false,"is_disabled":false,"rental_uris":{"android":"levelo://app?vid=4e130c3f-1e9a-4e1a-a546-fa10a03dc915","ios":"levelo://app?vid=4e130c3f-1e9a-4e1a-a546-fa10a03dc915"},"vehicle_type_id":"4","last_reported":1742659835,"current_range_meters":6400,"station_id":"ce4bhih2rcd13ifvqfr0","pricing_plan_id":"cebpf4jnsgd1na2vs0mg"},{"bike_id":"c5fee7ce-e99b-41d7-bf02-104474486b07","system_id":"levelo_inurba_marseille","lat":43.23197,"lon":5.35546,"is_reserved":false,"is_disabled":false,"rental_uris":{"android":"levelo://app?vid=c5fee7ce-e99b-41d7-bf02-104474486b07","ios":"levelo://app?vid=c5fee7ce-e99b-41d7-bf02-104474486b07"},"vehicle_type_id":"4","last_reported":1742659835,"current_range_meters":6800,"station_id":"ce4bhu92rcd13ifvqi70","pricing_plan_id":"cebpf4jnsgd1na2vs0mg"},{"bike_id":"20ce1cc1-7fb1-4b74-85ab-4cb14069f5f2","system_id":"levelo_inurba_marseille","lat":43.30145,"lon":5.37411,"is_reserved":false,"is_disabled":false,"rental_uris":{"android":"levelo://app?vid=20ce1cc1-7fb1-4b74-85ab-4cb14069f5f2","ios":"levelo://app?vid=20ce1cc1-7fb1-4b74-85ab-4cb14069f5f2"},"vehicle_type_id":"4","last_reported":1742659835,"current_range_meters":6800,"station_id":"ce4bgs92rcd13ifvqcc0","pricing_plan_id":"cebpf4jnsgd1na2vs0mg"},{"bike_id":"747d4c6c-efdd-4b30-9a02-37536ea556f9","system_id":"levelo_inurba_marseille","lat":43.29902,"lon":5.43666,"is_reserved":false,"is_disabled":false,"rental_uris":{"android":"levelo://app?vid=747d4c6c-efdd-4b30-9a02-37536ea556f9","ios":"levelo://app?vid=747d4c6c-efdd-4b30-9a02-37536ea556f9"},"vehicle_type_id":"4","last_reported":1742659835,"current_range_meters":6800,"station_id":"ce4bhpp2rcd13ifvqhfg","pricing_plan_id":"cebpf4jnsgd1na2vs0mg"},{"bike_id":"09af9360-3df9-461a-bb7c-94464d15693e","system_id":"levelo_inurba_marseille","lat":43.3046,"lon":5.37899,"is_reserved":false,"is_disabled":false,"rental_uris":{"android":"levelo://app?vid=09af9360-3df9-461a-bb7c-94464d15693e","ios":"levelo://app?vid=09af9360-3df9-461a-bb7c-94464d15693e"},"vehicle_type_id":"4","last_reported":1742659835,"current_range_meters":6800,"station_id":"ce4bgup2rcd13ifvqcn0","pricing_plan_id":"cebpf4jnsgd1na2vs0mg"},{"bike_id":"bdce12b5-066f-4543-b048-f1aa578b13af","system_id":"levelo_inurba_marseille","lat":43.30887,"lon":5.37194,"is_reserved":false,"is_disabled":false,"rental_uris":{"android":"levelo://app?vid=bdce12b5-066f-4543-b048-f1aa578b13af","ios":"levelo://app?vid=bdce12b5-066f-4543-b048-f1aa578b13af"},"vehicle_type_id":"4","last_reported":1742659835,"current_range_meters":6800,"station_id":"ce4bguh2rcd13ifvqckg","pricing_plan_id":"cebpf4jnsgd1na2vs0mg"},{"bike_id":"66afcf19-ec21-46e1-83fe-9134cef14611","system_id":"levelo_inurba_marseille","lat":43.27835,"lon":5.3921,"is_reserved":false,"is_disabled":false,"rental_uris":{"android":"levelo://app?vid=66afcf19-ec21-46e1-83fe-9134cef14611","ios":"levelo://app?vid=66afcf19-ec21-46e1-83fe-9134cef14611"},"vehicle_type_id":"4","last_reported":1742659835,"current_range_meters":6800,"station_id":"ce4bhjp2rcd13ifvqga0","pricing_plan_id":"cebpf4jnsgd1na2vs0mg"},{"bike_id":"1b9c305e-fdb2-405a-9088-2a75e7325c66","system_id":"levelo_inurba_marseille","lat":43.29263,"lon":5.38443,"is_reserved":false,"is_disabled":false,"rental_uris":{"android":"levelo://app?vid=1b9c305e-fdb2-405a-9088-2a75e7325c66","ios":"levelo://app?vid=1b9c305e-fdb2-405a-9088-2a75e7325c66"},"vehicle_type_id":"4","last_reported":1742659835,"current_range_meters":6800,"station_id":"ce4bh692rcd13ifvqea0","pricing_plan_id":"cebpf4jnsgd1na2vs0mg"},{"bike_id":"f00a85f1-54fa-4e47-9c73-073e8270ac2d","system_id":"levelo_inurba_marseille","lat":43.29785,"lon":5.36505,"is_reserved":false,"is_disabled":false,"rental_uris":{"android":"levelo://app?vid=f00a85f1-54fa-4e47-9c73-073e8270ac2d","ios":"levelo://app?vid=f00a85f1-54fa-4e47-9c73-073e8270ac2d"},"vehicle_type_id":"4","last_reported":1742659835,"current_range_meters":7200,"station_id":"","pricing_plan_id":"cebpf4jnsgd1na2vs0mg"},{"bike_id":"452225aa-fcb5-4892-b62c-f1c35e6fec3e","system_id":"levelo_inurba_marseille","lat":43.31709,"lon":5.43704,"is_reserved":false,"is_disabled":false,"rental_uris":{"android":"levelo://app?vid=452225aa-fcb5-4892-b62c-f1c35e6fec3e","ios":"levelo://app?vid=452225aa-fcb5-4892-b62c-f1c35e6fec3e"},"vehicle_type_id":"4","last_reported":1742659835,"current_range_meters":7200,"station_id":"ce4bhp92rcd13ifvqhcg","pricing_plan_id":"cebpf4jnsgd1na2vs0mg"},{"bike_id":"0faeda17-87f9-4308-b369-97acc6c5068b","system_id":"levelo_inurba_marseille","lat":43.24552,"lon":5.39517,"is_reserved":false,"is_disabled":false,"rental_uris":{"android":"levelo://app?vid=0faeda17-87f9-4308-b369-97acc6c5068b","ios":"levelo://app?vid=0faeda17-87f9-4308-b369-97acc6c5068b"},"vehicle_type_id":"4","last_reported":1742659835,"current_range_meters":7200,"station_id":"ce4bhlp2rcd13ifvqgjg","pricing_plan_id":"cebpf4jnsgd1na2vs0mg"},{"bike_id":"b00605e3-b50e-457e-a9d6-59adef6bb5fb","system_id":"levelo_inurba_marseille","lat":43.28152,"lon":5.42628,"is_reserved":false,"is_disabled":false,"rental_uris":{"android":"levelo://app?vid=b00605e3-b50e-457e-a9d6-59adef6bb5fb","ios":"levelo://app?vid=b00605e3-b50e-457e-a9d6-59adef6bb5fb"},"vehicle_type_id":"4","last_reported":1742659835,"current_range_meters":7200,"station_id":"ce4bhnh2rcd13ifvqgug","pricing_plan_id":"cebpf4jnsgd1na2vs0mg"},{"bike_id":"66dd6500-cee2-4ed1-babf-d3315eb39cdb","system_id":"levelo_inurba_marseille","lat":43.27209,"lon":5.39182,"is_reserved":false,"is_disabled":false,"rental_uris":{"android":"levelo://app?vid=66dd6500-cee2-4ed1-babf-d3315eb39cdb","ios":"levelo://app?vid=66dd6500-cee2-4ed1-babf-d3315eb39cdb"},"vehicle_type_id":"4","last_reported":1742659835,"current_range_meters":6400,"station_id":"ce4bhhp2rcd13ifvqfm0","pricing_plan_id":"cebpf4jnsgd1na2vs0mg"},{"bike_id":"7f475659-4631-4c31-997b-65be912ef243","system_id":"levelo_inurba_marseille","lat":43.25002,"lon":5.38922,"is_reserved":false,"is_disabled":false,"rental_uris":{"android":"levelo://app?vid=7f475659-4631-4c31-997b-65be912ef243","ios":"levelo://app?vid=7f475659-4631-4c31-997b-65be912ef243"},"vehicle_type_id":"4","last_reported":1742659835,"current_range_meters":7200,"station_id":"ce4bhgp2rcd13ifvqfd0","pricing_plan_id":"cebpf4jnsgd1na2vs0mg"},{"bike_id":"7872f180-f75b-4e9d-8f04-12e6c17037a5","system_id":"levelo_inurba_marseille","lat":43.32487,"lon":5.36565,"is_reserved":false,"is_disabled":false,"rental_uris":{"android":"levelo://app?vid=7872f180-f75b-4e9d-8f04-12e6c17037a5","ios":"levelo://app?vid=7872f180-f75b-4e9d-8f04-12e6c17037a5"},"vehicle_type_id":"4","last_reported":1742659835,"current_range_meters":7200,"station_id":"ce4bhs12rcd13ifvqhvg","pricing_plan_id":"cebpf4jnsgd1na2vs0mg"},{"bike_id":"df25dee7-0db0-41e5-b928-2fc4d2e04675","system_id":"levelo_inurba_marseille","lat":43.27069,"lon":5.42283,"is_reserved":false,"is_disabled":false,"rental_uris":{"android":"levelo://app?vid=df25dee7-0db0-41e5-b928-2fc4d2e04675","ios":"levelo://app?vid=df25dee7-0db0-41e5-b928-2fc4d2e04675"},"vehicle_type_id":"4","last_reported":1742659835,"current_range_meters":7200,"station_id":"ce4bhk92rcd13ifvqgb0","pricing_plan_id":"cebpf4jnsgd1na2vs0mg"},{"bike_id":"1bf2db16-e960-4b0a-9767-ad1b84118b84","system_id":"levelo_inurba_marseille","lat":43.31122,"lon":5.37755,"is_reserved":false,"is_disabled":false,"rental_uris":{"android":"levelo://app?vid=1bf2db16-e960-4b0a-9767-ad1b84118b84","ios":"levelo://app?vid=1bf2db16-e960-4b0a-9767-ad1b84118b84"},"vehicle_type_id":"4","last_reported":1742659835,"current_range_meters":7200,"station_id":"ce4bgt92rcd13ifvqcg0","pricing_plan_id":"cebpf4jnsgd1na2vs0mg"},{"bike_id":"b95dd8b3-8b42-4b01-a436-eb7561400e51","system_id":"levelo_inurba_marseille","lat":43.29567,"lon":5.3753,"is_reserved":false,"is_disabled":false,"rental_uris":{"android":"levelo://app?vid=b95dd8b3-8b42-4b01-a436-eb7561400e51","ios":"levelo://app?vid=b95dd8b3-8b42-4b01-a436-eb7561400e51"},"vehicle_type_id":"4","last_reported":1742659835,"current_range_meters":7200,"station_id":"ce4bgh92rcd13ifvqb50","pricing_plan_id":"cebpf4jnsgd1na2vs0mg"},{"bike_id":"276613ec-3310-44d6-ae3f-44328dd4fd15","system_id":"levelo_inurba_marseille","lat":43.25835,"lon":5.39435,"is_reserved":false,"is_disabled":false,"rental_uris":{"android":"levelo://app?vid=276613ec-3310-44d6-ae3f-44328dd4fd15","ios":"levelo://app?vid=276613ec-3310-44d6-ae3f-44328dd4fd15"},"vehicle_type_id":"4","last_reported":1742659835,"current_range_meters":8000,"station_id":"ce4bhip2rcd13ifvqft0","pricing_plan_id":"cebpf4jnsgd1na2vs0mg"},{"bike_id":"a95b6832-380b-411e-8d5c-eb6a7f4c51cb","system_id":"levelo_inurba_marseille","lat":43.29532,"lon":5.3854,"is_reserved":false,"is_disabled":true,"rental_uris":{"android":"levelo://app?vid=a95b6832-380b-411e-8d5c-eb6a7f4c51cb","ios":"levelo://app?vid=a95b6832-380b-411e-8d5c-eb6a7f4c51cb"},"vehicle_type_id":"4","last_reported":1742659835,"current_range_meters":8000,"station_id":"ce4bgih2rcd13ifvqba0","pricing_plan_id":"cebpf4jnsgd1na2vs0mg"},{"bike_id":"a3947fdf-b2de-4a9d-b5e7-853805fb887f","system_id":"levelo_inurba_marseille","lat":43.31329,"lon":5.39687,"is_reserved":false,"is_disabled":false,"rental_uris":{"android":"levelo://app?vid=a3947fdf-b2de-4a9d-b5e7-853805fb887f","ios":"levelo://app?vid=a3947fdf-b2de-4a9d-b5e7-853805fb887f"},"vehicle_type_id":"4","last_reported":1742659835,"current_range_meters":7200,"station_id":"ce4bgvp2rcd13ifvqcu0","pricing_plan_id":"cebpf4jnsgd1na2vs0mg"},{"bike_id":"551b893c-b2f0-4f1f-8a5b-06699a2a4fdc","system_id":"levelo_inurba_marseille","lat":43.31721,"lon":5.40409,"is_reserved":false,"is_disabled":false,"rental_uris":{"android":"levelo://app?vid=551b893c-b2f0-4f1f-8a5b-06699a2a4fdc","ios":"levelo://app?vid=551b893c-b2f0-4f1f-8a5b-06699a2a4fdc"},"vehicle_type_id":"4","last_reported":1742659835,"current_range_meters":8000,"station_id":"ce4bh012rcd13ifvqd00","pricing_plan_id":"cebpf4jnsgd1na2vs0mg"},{"bike_id":"34791d82-19d8-45ce-83b9-0d4f19bcc6ae","system_id":"levelo_inurba_marseille","lat":43.28157,"lon":5.42632,"is_reserved":false,"is_disabled":false,"rental_uris":{"android":"levelo://app?vid=34791d82-19d8-45ce-83b9-0d4f19bcc6ae","ios":"levelo://app?vid=34791d82-19d8-45ce-83b9-0d4f19bcc6ae"},"vehicle_type_id":"4","last_reported":1742659835,"current_range_meters":8000,"station_id":"ce4bhnh2rcd13ifvqgug","pricing_plan_id":"cebpf4jnsgd1na2vs0mg"},{"bike_id":"a0803fc7-7c01-4615-afb9-e1e35a6349e8","system_id":"levelo_inurba_marseille","lat":43.28152,"lon":5.4263,"is_reserved":false,"is_disabled":false,"rental_uris":{"android":"levelo://app?vid=a0803fc7-7c01-4615-afb9-e1e35a6349e8","ios":"levelo://app?vid=a0803fc7-7c01-4615-afb9-e1e35a6349e8"},"vehicle_type_id":"4","last_reported":1742659835,"current_range_meters":8000,"station_id":"ce4bhnh2rcd13ifvqgug","pricing_plan_id":"cebpf4jnsgd1na2vs0mg"},{"bike_id":"7a80749b-56dc-4ab1-a2d7-268dfcb799e2","system_id":"levelo_inurba_marseille","lat":43.23959,"lon":5.36631,"is_reserved":false,"is_disabled":false,"rental_uris":{"android":"levelo://app?vid=7a80749b-56dc-4ab1-a2d7-268dfcb799e2","ios":"levelo://app?vid=7a80749b-56dc-4ab1-a2d7-268dfcb799e2"},"vehicle_type_id":"4","last_reported":1742659835,"current_range_meters":8400,"station_id":"ce4bhi12rcd13ifvqfp0","pricing_plan_id":"cebpf4jnsgd1na2vs0mg"},{"bike_id":"3c2a7dcf-f6cd-4a5b-ac2d-0c447364948d","system_id":"levelo_inurba_marseille","lat":43.29642,"lon":5.37706,"is_reserved":false,"is_disabled":false,"rental_uris":{"android":"levelo://app?vid=3c2a7dcf-f6cd-4a5b-ac2d-0c447364948d","ios":"levelo://app?vid=3c2a7dcf-f6cd-4a5b-ac2d-0c447364948d"},"vehicle_type_id":"4","last_reported":1742659835,"current_range_meters":8400,"station_id":"ce4bgi92rcd13ifvqb90","pricing_plan_id":"cebpf4jnsgd1na2vs0mg"},{"bike_id":"d5d21f35-6c56-49e1-9638-f7295d4afff5","system_id":"levelo_inurba_marseille","lat":43.28732,"lon":5.36071,"is_reserved":false,"is_disabled":false,"rental_uris":{"android":"levelo://app?vid=d5d21f35-6c56-49e1-9638-f7295d4afff5","ios":"levelo://app?vid=d5d21f35-6c56-49e1-9638-f7295d4afff5"},"vehicle_type_id":"4","last_reported":1742659835,"current_range_meters":8000,"station_id":"cki0cbj6b192h4jlfktg","pricing_plan_id":"cebpf4jnsgd1na2vs0mg"},{"bike_id":"8a06863b-9b36-47c2-b6d3-7eb49ebe143c","system_id":"levelo_inurba_marseille","lat":43.303,"lon":5.37718,"is_reserved":false,"is_disabled":false,"rental_uris":{"android":"levelo://app?vid=8a06863b-9b36-47c2-b6d3-7eb49ebe143c","ios":"levelo://app?vid=8a06863b-9b36-47c2-b6d3-7eb49ebe143c"},"vehicle_type_id":"4","last_reported":1742659835,"current_range_meters":8400,"station_id":"ce4bguh2rcd13ifvqcj0","pricing_plan_id":"cebpf4jnsgd1na2vs0mg"},{"bike_id":"36276dd3-031d-4fd5-a69e-51e755d2265c","system_id":"levelo_inurba_marseille","lat":43.27677,"lon":5.38898,"is_reserved":false,"is_disabled":false,"rental_uris":{"android":"levelo://app?vid=36276dd3-031d-4fd5-a69e-51e755d2265c","ios":"levelo://app?vid=36276dd3-031d-4fd5-a69e-51e755d2265c"},"vehicle_type_id":"4","last_reported":1742659835,"current_range_meters":8400,"station_id":"ce4bhi12rcd13ifvqfo0","pricing_plan_id":"cebpf4jnsgd1na2vs0mg"},{"bike_id":"b8fd43b0-78f0-4f20-a74e-01fa10ee091a","system_id":"levelo_inurba_marseille","lat":43.23194,"lon":5.35554,"is_reserved":false,"is_disabled":false,"rental_uris":{"android":"levelo://app?vid=b8fd43b0-78f0-4f20-a74e-01fa10ee091a","ios":"levelo://app?vid=b8fd43b0-78f0-4f20-a74e-01fa10ee091a"},"vehicle_type_id":"4","last_reported":1742659835,"current_range_meters":8400,"station_id":"ce4bhu92rcd13ifvqi70","pricing_plan_id":"cebpf4jnsgd1na2vs0mg"},{"bike_id":"ce788007-0d1b-46fa-89f7-63459042afb6","system_id":"levelo_inurba_marseille","lat":43.30954,"lon":5.39023,"is_reserved":false,"is_disabled":false,"rental_uris":{"android":"levelo://app?vid=ce788007-0d1b-46fa-89f7-63459042afb6","ios":"levelo://app?vid=ce788007-0d1b-46fa-89f7-63459042afb6"},"vehicle_type_id":"4","last_reported":1742659835,"current_range_meters":8400,"station_id":"ce4bgup2rcd13ifvqco0","pricing_plan_id":"cebpf4jnsgd1na2vs0mg"},{"bike_id":"30f74d27-9970-4afa-b900-f9accdc2d04a","system_id":"levelo_inurba_marseille","lat":43.26232,"lon":5.4045,"is_reserved":false,"is_disabled":false,"rental_uris":{"android":"levelo://app?vid=30f74d27-9970-4afa-b900-f9accdc2d04a","ios":"levelo://app?vid=30f74d27-9970-4afa-b900-f9accdc2d04a"},"vehicle_type_id":"4","last_reported":1742659835,"current_range_meters":8400,"station_id":"ce4bhmh2rcd13ifvqgmg","pricing_plan_id":"cebpf4jnsgd1na2vs0mg"},{"bike_id":"5ca16d0f-e5a2-403d-9025-0831c91acf5c","system_id":"levelo_inurba_marseille","lat":43.26676,"lon":5.38261,"is_reserved":false,"is_disabled":false,"rental_uris":{"android":"levelo://app?vid=5ca16d0f-e5a2-403d-9025-0831c91acf5c","ios":"levelo://app?vid=5ca16d0f-e5a2-403d-9025-0831c91acf5c"},"vehicle_type_id":"4","last_reported":1742659835,"current_range_meters":8000,"station_id":"ce4bhg92rcd13ifvqf90","pricing_plan_id":"cebpf4jnsgd1na2vs0mg"},{"bike_id":"75dc30c6-d3e9-42a6-b592-e431bdaadc73","system_id":"levelo_inurba_marseille","lat":43.26542,"lon":5.39042,"is_reserved":false,"is_disabled":false,"rental_uris":{"android":"levelo://app?vid=75dc30c6-d3e9-42a6-b592-e431bdaadc73","ios":"levelo://app?vid=75dc30c6-d3e9-42a6-b592-e431bdaadc73"},"vehicle_type_id":"4","last_reported":1742659835,"current_range_meters":8400,"station_id":"ce4bhe12rcd13ifvqf30","pricing_plan_id":"cebpf4jnsgd1na2vs0mg"},{"bike_id":"f83d9323-974a-4b38-aad8-d35881014e84","system_id":"levelo_inurba_marseille","lat":43.27209,"lon":5.39176,"is_reserved":false,"is_disabled":false,"rental_uris":{"android":"levelo://app?vid=f83d9323-974a-4b38-aad8-d35881014e84","ios":"levelo://app?vid=f83d9323-974a-4b38-aad8-d35881014e84"},"vehicle_type_id":"4","last_reported":1742659835,"current_range_meters":8400,"station_id":"ce4bhhp2rcd13ifvqfm0","pricing_plan_id":"cebpf4jnsgd1na2vs0mg"},{"bike_id":"65b642d2-4bbc-47bd-9c36-3f213e795fd7","system_id":"levelo_inurba_marseille","lat":43.25835,"lon":5.39416,"is_reserved":false,"is_disabled":false,"rental_uris":{"android":"levelo://app?vid=65b642d2-4bbc-47bd-9c36-3f213e795fd7","ios":"levelo://app?vid=65b642d2-4bbc-47bd-9c36-3f213e795fd7"},"vehicle_type_id":"4","last_reported":1742659835,"current_range_meters":8400,"station_id":"ce4bhip2rcd13ifvqft0","pricing_plan_id":"cebpf4jnsgd1na2vs0mg"},{"bike_id":"5c7c8803-7963-4d73-adf0-9a7341c81fcc","system_id":"levelo_inurba_marseille","lat":43.23184,"lon":5.39966,"is_reserved":false,"is_disabled":false,"rental_uris":{"android":"levelo://app?vid=5c7c8803-7963-4d73-adf0-9a7341c81fcc","ios":"levelo://app?vid=5c7c8803-7963-4d73-adf0-9a7341c81fcc"},"vehicle_type_id":"4","last_reported":1742659835,"current_range_meters":8400,"station_id":"ce4bhn12rcd13ifvqgqg","pricing_plan_id":"cebpf4jnsgd1na2vs0mg"},{"bike_id":"37770b37-54fa-498e-885c-c97c71f7f5f4","system_id":"levelo_inurba_marseille","lat":43.2768,"lon":5.38908,"is_reserved":false,"is_disabled":false,"rental_uris":{"android":"levelo://app?vid=37770b37-54fa-498e-885c-c97c71f7f5f4","ios":"levelo://app?vid=37770b37-54fa-498e-885c-c97c71f7f5f4"},"vehicle_type_id":"4","last_reported":1742659835,"current_range_meters":8400,"station_id":"ce4bhi12rcd13ifvqfo0","pricing_plan_id":"cebpf4jnsgd1na2vs0mg"},{"bike_id":"98ccc432-9b2a-43af-a5bc-519131c0a420","system_id":"levelo_inurba_marseille","lat":43.24546,"lon":5.39515,"is_reserved":false,"is_disabled":false,"rental_uris":{"android":"levelo://app?vid=98ccc432-9b2a-43af-a5bc-519131c0a420","ios":"levelo://app?vid=98ccc432-9b2a-43af-a5bc-519131c0a420"},"vehicle_type_id":"4","last_reported":1742659835,"current_range_meters":8800,"station_id":"ce4bhlp2rcd13ifvqgjg","pricing_plan_id":"cebpf4jnsgd1na2vs0mg"},{"bike_id":"e1e493b8-6ddd-477f-a5c7-ce583728c84a","system_id":"levelo_inurba_marseille","lat":43.29004,"lon":5.38208,"is_reserved":false,"is_disabled":false,"rental_uris":{"android":"levelo://app?vid=e1e493b8-6ddd-477f-a5c7-ce583728c84a","ios":"levelo://app?vid=e1e493b8-6ddd-477f-a5c7-ce583728c84a"},"vehicle_type_id":"4","last_reported":1742659835,"current_range_meters":8800,"station_id":"ce4bh4p2rcd13ifvqe1g","pricing_plan_id":"cebpf4jnsgd1na2vs0mg"},{"bike_id":"11a133cc-5964-401d-b753-fd1a1af9dc85","system_id":"levelo_inurba_marseille","lat":43.30554,"lon":5.36556,"is_reserved":false,"is_disabled":false,"rental_uris":{"android":"levelo://app?vid=11a133cc-5964-401d-b753-fd1a1af9dc85","ios":"levelo://app?vid=11a133cc-5964-401d-b753-fd1a1af9dc85"},"vehicle_type_id":"4","last_reported":1742659835,"current_range_meters":12400,"station_id":"ce4bgs12rcd13ifvqcag","pricing_plan_id":"cebpf4jnsgd1na2vs0mg"},{"bike_id":"f168d197-fee5-4c16-bc0f-2e2278746297","system_id":"levelo_inurba_marseille","lat":43.27668,"lon":5.38905,"is_reserved":false,"is_disabled":false,"rental_uris":{"android":"levelo://app?vid=f168d197-fee5-4c16-bc0f-2e2278746297","ios":"levelo://app?vid=f168d197-fee5-4c16-bc0f-2e2278746297"},"vehicle_type_id":"4","last_reported":1742659835,"current_range_meters":8800,"station_id":"ce4bhi12rcd13ifvqfo0","pricing_plan_id":"cebpf4jnsgd1na2vs0mg"},{"bike_id":"8e7753b0-de98-424a-850c-a2fe3a031ad0","system_id":"levelo_inurba_marseille","lat":43.31482,"lon":5.373,"is_reserved":false,"is_disabled":false,"rental_uris":{"android":"levelo://app?vid=8e7753b0-de98-424a-850c-a2fe3a031ad0","ios":"levelo://app?vid=8e7753b0-de98-424a-850c-a2fe3a031ad0"},"vehicle_type_id":"4","last_reported":1742659835,"current_range_meters":8800,"station_id":"ce4bgt12rcd13ifvqcd0","pricing_plan_id":"cebpf4jnsgd1na2vs0mg"},{"bike_id":"0007fce5-562c-4dc0-afc3-21cf7828d9fe","system_id":"levelo_inurba_marseille","lat":43.30219,"lon":5.37323,"is_reserved":false,"is_disabled":false,"rental_uris":{"android":"levelo://app?vid=0007fce5-562c-4dc0-afc3-21cf7828d9fe","ios":"levelo://app?vid=0007fce5-562c-4dc0-afc3-21cf7828d9fe"},"vehicle_type_id":"4","last_reported":1742659835,"current_range_meters":8800,"station_id":"","pricing_plan_id":"cebpf4jnsgd1na2vs0mg"},{"bike_id":"2d09920e-6b07-4eb7-b9cf-bfb7cc6b9dbb","system_id":"levelo_inurba_marseille","lat":43.28728,"lon":5.37396,"is_reserved":false,"is_disabled":false,"rental_uris":{"android":"levelo://app?vid=2d09920e-6b07-4eb7-b9cf-bfb7cc6b9dbb","ios":"levelo://app?vid=2d09920e-6b07-4eb7-b9cf-bfb7cc6b9dbb"},"vehicle_type_id":"4","last_reported":1742659835,"current_range_meters":8800,"station_id":"ce4bh3p2rcd13ifvqdq0","pricing_plan_id":"cebpf4jnsgd1na2vs0mg"},{"bike_id":"b5fcb98a-c8d5-4f1a-a9b4-b3362af2a9c7","system_id":"levelo_inurba_marseille","lat":43.23058,"lon":5.35497,"is_reserved":false,"is_disabled":false,"rental_uris":{"android":"levelo://app?vid=b5fcb98a-c8d5-4f1a-a9b4-b3362af2a9c7","ios":"levelo://app?vid=b5fcb98a-c8d5-4f1a-a9b4-b3362af2a9c7"},"vehicle_type_id":"4","last_reported":1742659835,"current_range_meters":8800,"station_id":"cpo3342slgdg3j2ifvpg","pricing_plan_id":"cebpf4jnsgd1na2vs0mg"},{"bike_id":"eb1e99d0-ff1e-45da-88ee-87c2e70bccb4","system_id":"levelo_inurba_marseille","lat":43.27976,"lon":5.38742,"is_reserved":false,"is_disabled":false,"rental_uris":{"android":"levelo://app?vid=eb1e99d0-ff1e-45da-88ee-87c2e70bccb4","ios":"levelo://app?vid=eb1e99d0-ff1e-45da-88ee-87c2e70bccb4"},"vehicle_type_id":"4","last_reported":1742659835,"current_range_meters":8800,"station_id":"ce4bhg12rcd13ifvqf80","pricing_plan_id":"cebpf4jnsgd1na2vs0mg"},{"bike_id":"a564807e-5bd6-4a71-b02f-5054fff067f9","system_id":"levelo_inurba_marseille","lat":43.24681,"lon":5.38158,"is_reserved":false,"is_disabled":false,"rental_uris":{"android":"levelo://app?vid=a564807e-5bd6-4a71-b02f-5054fff067f9","ios":"levelo://app?vid=a564807e-5bd6-4a71-b02f-5054fff067f9"},"vehicle_type_id":"4","last_reported":1742659835,"current_range_meters":8800,"station_id":"ce4bhih2rcd13ifvqfr0","pricing_plan_id":"cebpf4jnsgd1na2vs0mg"},{"bike_id":"b8f7b42c-f763-479f-be63-3150b9c48ba3","system_id":"levelo_inurba_marseille","lat":43.26558,"lon":5.37283,"is_reserved":false,"is_disabled":false,"rental_uris":{"android":"levelo://app?vid=b8f7b42c-f763-479f-be63-3150b9c48ba3","ios":"levelo://app?vid=b8f7b42c-f763-479f-be63-3150b9c48ba3"},"vehicle_type_id":"4","last_reported":1742659835,"current_range_meters":8800,"station_id":"ce4bhg12rcd13ifvqf70","pricing_plan_id":"cebpf4jnsgd1na2vs0mg"},{"bike_id":"84f44fa9-ac79-46e0-9019-b8125ec3ae03","system_id":"levelo_inurba_marseille","lat":43.26557,"lon":5.39,"is_reserved":false,"is_disabled":false,"rental_uris":{"android":"levelo://app?vid=84f44fa9-ac79-46e0-9019-b8125ec3ae03","ios":"levelo://app?vid=84f44fa9-ac79-46e0-9019-b8125ec3ae03"},"vehicle_type_id":"4","last_reported":1742659835,"current_range_meters":8800,"station_id":"ce4bhe12rcd13ifvqf30","pricing_plan_id":"cebpf4jnsgd1na2vs0mg"},{"bike_id":"395a6abc-4d8a-435b-8e3d-758afed4d7b6","system_id":"levelo_inurba_marseille","lat":43.25578,"lon":5.3823,"is_reserved":false,"is_disabled":false,"rental_uris":{"android":"levelo://app?vid=395a6abc-4d8a-435b-8e3d-758afed4d7b6","ios":"levelo://app?vid=395a6abc-4d8a-435b-8e3d-758afed4d7b6"},"vehicle_type_id":"4","last_reported":1742659835,"current_range_meters":8800,"station_id":"ce4bhih2rcd13ifvqfs0","pricing_plan_id":"cebpf4jnsgd1na2vs0mg"},{"bike_id":"fe239f3d-5c83-42bd-8b99-e0b3f3784fb5","system_id":"levelo_inurba_marseille","lat":43.24619,"lon":5.384,"is_reserved":false,"is_disabled":false,"rental_uris":{"android":"levelo://app?vid=fe239f3d-5c83-42bd-8b99-e0b3f3784fb5","ios":"levelo://app?vid=fe239f3d-5c83-42bd-8b99-e0b3f3784fb5"},"vehicle_type_id":"4","last_reported":1742659835,"current_range_meters":8800,"station_id":"","pricing_plan_id":"cebpf4jnsgd1na2vs0mg"},{"bike_id":"09cd3a53-f843-483d-b4b6-c243b2785c45","system_id":"levelo_inurba_marseille","lat":43.2509,"lon":5.39517,"is_reserved":false,"is_disabled":false,"rental_uris":{"android":"levelo://app?vid=09cd3a53-f843-483d-b4b6-c243b2785c45","ios":"levelo://app?vid=09cd3a53-f843-483d-b4b6-c243b2785c45"},"vehicle_type_id":"4","last_reported":1742659835,"current_range_meters":9200,"station_id":"ce4bhm12rcd13ifvqgkg","pricing_plan_id":"cebpf4jnsgd1na2vs0mg"},{"bike_id":"914f86e6-5e27-46e9-a687-f2b6898ca0fe","system_id":"levelo_inurba_marseille","lat":43.26559,"lon":5.37278,"is_reserved":false,"is_disabled":false,"rental_uris":{"android":"levelo://app?vid=914f86e6-5e27-46e9-a687-f2b6898ca0fe","ios":"levelo://app?vid=914f86e6-5e27-46e9-a687-f2b6898ca0fe"},"vehicle_type_id":"4","last_reported":1742659835,"current_range_meters":9200,"station_id":"ce4bhg12rcd13ifvqf70","pricing_plan_id":"cebpf4jnsgd1na2vs0mg"},{"bike_id":"f715a61c-da85-4304-af34-4dc47aac6268","system_id":"levelo_inurba_marseille","lat":43.26931,"lon":5.40253,"is_reserved":false,"is_disabled":false,"rental_uris":{"android":"levelo://app?vid=f715a61c-da85-4304-af34-4dc47aac6268","ios":"levelo://app?vid=f715a61c-da85-4304-af34-4dc47aac6268"},"vehicle_type_id":"4","last_reported":1742659835,"current_range_meters":9200,"station_id":"cjm6bp8fraef2m0cb0m0","pricing_plan_id":"cebpf4jnsgd1na2vs0mg"},{"bike_id":"c5f44f79-cf52-4dcb-8bd2-d2dbc5c2d0bf","system_id":"levelo_inurba_marseille","lat":43.2307,"lon":5.35499,"is_reserved":false,"is_disabled":false,"rental_uris":{"android":"levelo://app?vid=c5f44f79-cf52-4dcb-8bd2-d2dbc5c2d0bf","ios":"levelo://app?vid=c5f44f79-cf52-4dcb-8bd2-d2dbc5c2d0bf"},"vehicle_type_id":"4","last_reported":1742659835,"current_range_meters":9200,"station_id":"cpo3342slgdg3j2ifvpg","pricing_plan_id":"cebpf4jnsgd1na2vs0mg"},{"bike_id":"45e271fd-40cb-4eac-8df0-9dee761adfe5","system_id":"levelo_inurba_marseille","lat":43.28357,"lon":5.38102,"is_reserved":false,"is_disabled":false,"rental_uris":{"android":"levelo://app?vid=45e271fd-40cb-4eac-8df0-9dee761adfe5","ios":"levelo://app?vid=45e271fd-40cb-4eac-8df0-9dee761adfe5"},"vehicle_type_id":"4","last_reported":1742659835,"current_range_meters":9200,"station_id":"ce4bh412rcd13ifvqdr0","pricing_plan_id":"cebpf4jnsgd1na2vs0mg"},{"bike_id":"22974a3c-2c10-4968-8643-ac5fb53e0947","system_id":"levelo_inurba_marseille","lat":43.246857,"lon":5.381553,"is_reserved":false,"is_disabled":false,"rental_uris":{"android":"levelo://app?vid=22974a3c-2c10-4968-8643-ac5fb53e0947","ios":"levelo://app?vid=22974a3c-2c10-4968-8643-ac5fb53e0947"},"vehicle_type_id":"4","last_reported":1742659835,"current_range_meters":9200,"station_id":"ce4bhih2rcd13ifvqfr0","pricing_plan_id":"cebpf4jnsgd1na2vs0mg"},{"bike_id":"592af5a9-2361-415d-8802-df60b01982cc","system_id":"levelo_inurba_marseille","lat":43.28274,"lon":5.35066,"is_reserved":false,"is_disabled":true,"rental_uris":{"android":"levelo://app?vid=592af5a9-2361-415d-8802-df60b01982cc","ios":"levelo://app?vid=592af5a9-2361-415d-8802-df60b01982cc"},"vehicle_type_id":"4","last_reported":1742659835,"current_range_meters":9200,"station_id":"ce4bhbp2rcd13ifvqerg","pricing_plan_id":"cebpf4jnsgd1na2vs0mg"},{"bike_id":"cb94ba51-1130-4a74-8f5a-d9d76a9ecfd5","system_id":"levelo_inurba_marseille","lat":43.23967,"lon":5.36628,"is_reserved":false,"is_disabled":false,"rental_uris":{"android":"levelo://app?vid=cb94ba51-1130-4a74-8f5a-d9d76a9ecfd5","ios":"levelo://app?vid=cb94ba51-1130-4a74-8f5a-d9d76a9ecfd5"},"vehicle_type_id":"4","last_reported":1742659835,"current_range_meters":9200,"station_id":"ce4bhi12rcd13ifvqfp0","pricing_plan_id":"cebpf4jnsgd1na2vs0mg"},{"bike_id":"c0159179-e3ed-4866-a4b6-7e101e7df434","system_id":"levelo_inurba_marseille","lat":43.30117,"lon":5.37416,"is_reserved":false,"is_disabled":false,"rental_uris":{"android":"levelo://app?vid=c0159179-e3ed-4866-a4b6-7e101e7df434","ios":"levelo://app?vid=c0159179-e3ed-4866-a4b6-7e101e7df434"},"vehicle_type_id":"4","last_reported":1742659835,"current_range_meters":9200,"station_id":"ce4bgs92rcd13ifvqcc0","pricing_plan_id":"cebpf4jnsgd1na2vs0mg"},{"bike_id":"3476276f-3fbc-442a-98f8-e958d3f486e8","system_id":"levelo_inurba_marseille","lat":43.26563,"lon":5.3902,"is_reserved":false,"is_disabled":false,"rental_uris":{"android":"levelo://app?vid=3476276f-3fbc-442a-98f8-e958d3f486e8","ios":"levelo://app?vid=3476276f-3fbc-442a-98f8-e958d3f486e8"},"vehicle_type_id":"4","last_reported":1742659835,"current_range_meters":9600,"station_id":"ce4bhe12rcd13ifvqf30","pricing_plan_id":"cebpf4jnsgd1na2vs0mg"},{"bike_id":"a90cac6d-25f5-4467-83f2-05609bbda941","system_id":"levelo_inurba_marseille","lat":43.27314,"lon":5.39093,"is_reserved":false,"is_disabled":false,"rental_uris":{"android":"levelo://app?vid=a90cac6d-25f5-4467-83f2-05609bbda941","ios":"levelo://app?vid=a90cac6d-25f5-4467-83f2-05609bbda941"},"vehicle_type_id":"4","last_reported":1742659835,"current_range_meters":9600,"station_id":"ce4bhgp2rcd13ifvqfe0","pricing_plan_id":"cebpf4jnsgd1na2vs0mg"},{"bike_id":"598a68e0-1d30-4a77-a087-0d5c856706a2","system_id":"levelo_inurba_marseille","lat":43.2587,"lon":5.39888,"is_reserved":false,"is_disabled":false,"rental_uris":{"android":"levelo://app?vid=598a68e0-1d30-4a77-a087-0d5c856706a2","ios":"levelo://app?vid=598a68e0-1d30-4a77-a087-0d5c856706a2"},"vehicle_type_id":"4","last_reported":1742659835,"current_range_meters":9600,"station_id":"ce4bhl92rcd13ifvqghg","pricing_plan_id":"cebpf4jnsgd1na2vs0mg"},{"bike_id":"643f5bfc-878c-4387-a79c-f4019419f1ee","system_id":"levelo_inurba_marseille","lat":43.27377,"lon":5.3625,"is_reserved":false,"is_disabled":false,"rental_uris":{"android":"levelo://app?vid=643f5bfc-878c-4387-a79c-f4019419f1ee","ios":"levelo://app?vid=643f5bfc-878c-4387-a79c-f4019419f1ee"},"vehicle_type_id":"4","last_reported":1742659835,"current_range_meters":9600,"station_id":"ce4bhbh2rcd13ifvqeo0","pricing_plan_id":"cebpf4jnsgd1na2vs0mg"},{"bike_id":"a447be07-a70b-4bed-8712-54d76da1a78d","system_id":"levelo_inurba_marseille","lat":43.28937,"lon":5.39616,"is_reserved":false,"is_disabled":false,"rental_uris":{"android":"levelo://app?vid=a447be07-a70b-4bed-8712-54d76da1a78d","ios":"levelo://app?vid=a447be07-a70b-4bed-8712-54d76da1a78d"},"vehicle_type_id":"4","last_reported":1742659835,"current_range_meters":8400,"station_id":"ce4bh3h2rcd13ifvqdn0","pricing_plan_id":"cebpf4jnsgd1na2vs0mg"},{"bike_id":"da2ad5f6-0ada-4cac-a1cd-a0584cc7c0f8","system_id":"levelo_inurba_marseille","lat":43.29551,"lon":5.37491,"is_reserved":false,"is_disabled":false,"rental_uris":{"android":"levelo://app?vid=da2ad5f6-0ada-4cac-a1cd-a0584cc7c0f8","ios":"levelo://app?vid=da2ad5f6-0ada-4cac-a1cd-a0584cc7c0f8"},"vehicle_type_id":"4","last_reported":1742659835,"current_range_meters":9600,"station_id":"ce4bgkp2rcd13ifvqbmg","pricing_plan_id":"cebpf4jnsgd1na2vs0mg"},{"bike_id":"7eca6224-5a2c-4279-beef-b32fd8b65b85","system_id":"levelo_inurba_marseille","lat":43.24551,"lon":5.39523,"is_reserved":false,"is_disabled":false,"rental_uris":{"android":"levelo://app?vid=7eca6224-5a2c-4279-beef-b32fd8b65b85","ios":"levelo://app?vid=7eca6224-5a2c-4279-beef-b32fd8b65b85"},"vehicle_type_id":"4","last_reported":1742659835,"current_range_meters":10000,"station_id":"ce4bhlp2rcd13ifvqgjg","pricing_plan_id":"cebpf4jnsgd1na2vs0mg"},{"bike_id":"8153b67f-1145-405c-b1dd-e3a2350a69a2","system_id":"levelo_inurba_marseille","lat":43.2817,"lon":5.4264,"is_reserved":false,"is_disabled":false,"rental_uris":{"android":"levelo://app?vid=8153b67f-1145-405c-b1dd-e3a2350a69a2","ios":"levelo://app?vid=8153b67f-1145-405c-b1dd-e3a2350a69a2"},"vehicle_type_id":"4","last_reported":1742659835,"current_range_meters":10000,"station_id":"ce4bhnh2rcd13ifvqgug","pricing_plan_id":"cebpf4jnsgd1na2vs0mg"},{"bike_id":"1611e791-0512-4b0f-bfc0-5ec9d54cb6da","system_id":"levelo_inurba_marseille","lat":43.23056,"lon":5.35491,"is_reserved":false,"is_disabled":false,"rental_uris":{"android":"levelo://app?vid=1611e791-0512-4b0f-bfc0-5ec9d54cb6da","ios":"levelo://app?vid=1611e791-0512-4b0f-bfc0-5ec9d54cb6da"},"vehicle_type_id":"4","last_reported":1742659835,"current_range_meters":10000,"station_id":"cpo3342slgdg3j2ifvpg","pricing_plan_id":"cebpf4jnsgd1na2vs0mg"},{"bike_id":"a347e11c-2cd1-4d70-91d7-1519614a036d","system_id":"levelo_inurba_marseille","lat":43.25081,"lon":5.39514,"is_reserved":false,"is_disabled":false,"rental_uris":{"android":"levelo://app?vid=a347e11c-2cd1-4d70-91d7-1519614a036d","ios":"levelo://app?vid=a347e11c-2cd1-4d70-91d7-1519614a036d"},"vehicle_type_id":"4","last_reported":1742659835,"current_range_meters":10000,"station_id":"ce4bhm12rcd13ifvqgkg","pricing_plan_id":"cebpf4jnsgd1na2vs0mg"},{"bike_id":"dd89ae27-2fe0-48ae-9a86-c058e65d1d1a","system_id":"levelo_inurba_marseille","lat":43.28468,"lon":5.38547,"is_reserved":false,"is_disabled":false,"rental_uris":{"android":"levelo://app?vid=dd89ae27-2fe0-48ae-9a86-c058e65d1d1a","ios":"levelo://app?vid=dd89ae27-2fe0-48ae-9a86-c058e65d1d1a"},"vehicle_type_id":"4","last_reported":1742659835,"current_range_meters":10000,"station_id":"ce4bh8p2rcd13ifvqeb0","pricing_plan_id":"cebpf4jnsgd1na2vs0mg"},{"bike_id":"8a65ab7e-e973-4002-85c1-600898cb4e4a","system_id":"levelo_inurba_marseille","lat":43.31332,"lon":5.39697,"is_reserved":false,"is_disabled":false,"rental_uris":{"android":"levelo://app?vid=8a65ab7e-e973-4002-85c1-600898cb4e4a","ios":"levelo://app?vid=8a65ab7e-e973-4002-85c1-600898cb4e4a"},"vehicle_type_id":"4","last_reported":1742659835,"current_range_meters":10000,"station_id":"ce4bgvp2rcd13ifvqcu0","pricing_plan_id":"cebpf4jnsgd1na2vs0mg"},{"bike_id":"8ed1ac19-a2dd-4532-af16-423d1df5a6d4","system_id":"levelo_inurba_marseille","lat":43.23116,"lon":5.4139,"is_reserved":false,"is_disabled":false,"rental_uris":{"android":"levelo://app?vid=8ed1ac19-a2dd-4532-af16-423d1df5a6d4","ios":"levelo://app?vid=8ed1ac19-a2dd-4532-af16-423d1df5a6d4"},"vehicle_type_id":"4","last_reported":1742659835,"current_range_meters":10000,"station_id":"","pricing_plan_id":"cebpf4jnsgd1na2vs0mg"},{"bike_id":"6a7e6ea3-0dea-4fb5-9495-8803ab0e1523","system_id":"levelo_inurba_marseille","lat":43.30482,"lon":5.37893,"is_reserved":false,"is_disabled":false,"rental_uris":{"android":"levelo://app?vid=6a7e6ea3-0dea-4fb5-9495-8803ab0e1523","ios":"levelo://app?vid=6a7e6ea3-0dea-4fb5-9495-8803ab0e1523"},"vehicle_type_id":"4","last_reported":1742659835,"current_range_meters":10800,"station_id":"ce4bgup2rcd13ifvqcn0","pricing_plan_id":"cebpf4jnsgd1na2vs0mg"},{"bike_id":"c4f89292-9fc9-4465-a81d-35a9f9b71dd4","system_id":"levelo_inurba_marseille","lat":43.28116,"lon":5.39618,"is_reserved":false,"is_disabled":false,"rental_uris":{"android":"levelo://app?vid=c4f89292-9fc9-4465-a81d-35a9f9b71dd4","ios":"levelo://app?vid=c4f89292-9fc9-4465-a81d-35a9f9b71dd4"},"vehicle_type_id":"4","last_reported":1742659835,"current_range_meters":10000,"station_id":"ce4bho12rcd13ifvqh2g","pricing_plan_id":"cebpf4jnsgd1na2vs0mg"},{"bike_id":"b86b17e6-f035-428e-9a82-d399c5269920","system_id":"levelo_inurba_marseille","lat":43.27966,"lon":5.38748,"is_reserved":false,"is_disabled":false,"rental_uris":{"android":"levelo://app?vid=b86b17e6-f035-428e-9a82-d399c5269920","ios":"levelo://app?vid=b86b17e6-f035-428e-9a82-d399c5269920"},"vehicle_type_id":"4","last_reported":1742659835,"current_range_meters":10800,"station_id":"ce4bhg12rcd13ifvqf80","pricing_plan_id":"cebpf4jnsgd1na2vs0mg"},{"bike_id":"a7a03330-0851-4e6a-8686-56aac52a54d5","system_id":"levelo_inurba_marseille","lat":43.23165,"lon":5.43701,"is_reserved":false,"is_disabled":false,"rental_uris":{"android":"levelo://app?vid=a7a03330-0851-4e6a-8686-56aac52a54d5","ios":"levelo://app?vid=a7a03330-0851-4e6a-8686-56aac52a54d5"},"vehicle_type_id":"4","last_reported":1742659835,"current_range_meters":10800,"station_id":"ce4bhmp2rcd13ifvqgog","pricing_plan_id":"cebpf4jnsgd1na2vs0mg"},{"bike_id":"16784492-6bb0-4dfd-a37c-0b309868075c","system_id":"levelo_inurba_marseille","lat":43.30628,"lon":5.36623,"is_reserved":false,"is_disabled":false,"rental_uris":{"android":"levelo://app?vid=16784492-6bb0-4dfd-a37c-0b309868075c","ios":"levelo://app?vid=16784492-6bb0-4dfd-a37c-0b309868075c"},"vehicle_type_id":"4","last_reported":1742659835,"current_range_meters":11200,"station_id":"","pricing_plan_id":"cebpf4jnsgd1na2vs0mg"},{"bike_id":"a6d069f3-8acf-45b5-8a36-4f1d0a2ae4a0","system_id":"levelo_inurba_marseille","lat":43.28349,"lon":5.38097,"is_reserved":false,"is_disabled":false,"rental_uris":{"android":"levelo://app?vid=a6d069f3-8acf-45b5-8a36-4f1d0a2ae4a0","ios":"levelo://app?vid=a6d069f3-8acf-45b5-8a36-4f1d0a2ae4a0"},"vehicle_type_id":"4","last_reported":1742659835,"current_range_meters":11200,"station_id":"ce4bh412rcd13ifvqdr0","pricing_plan_id":"cebpf4jnsgd1na2vs0mg"},{"bike_id":"4e7f5709-473e-4954-b1d7-9943cf44a747","system_id":"levelo_inurba_marseille","lat":43.29985,"lon":5.3717,"is_reserved":false,"is_disabled":false,"rental_uris":{"android":"levelo://app?vid=4e7f5709-473e-4954-b1d7-9943cf44a747","ios":"levelo://app?vid=4e7f5709-473e-4954-b1d7-9943cf44a747"},"vehicle_type_id":"4","last_reported":1742659835,"current_range_meters":11200,"station_id":"ce4bgr92rcd13ifvqc7g","pricing_plan_id":"cebpf4jnsgd1na2vs0mg"},{"bike_id":"3f3f99da-6673-441e-a5b3-6857219a400e","system_id":"levelo_inurba_marseille","lat":43.25009,"lon":5.38918,"is_reserved":false,"is_disabled":false,"rental_uris":{"android":"levelo://app?vid=3f3f99da-6673-441e-a5b3-6857219a400e","ios":"levelo://app?vid=3f3f99da-6673-441e-a5b3-6857219a400e"},"vehicle_type_id":"4","last_reported":1742659835,"current_range_meters":11200,"station_id":"ce4bhgp2rcd13ifvqfd0","pricing_plan_id":"cebpf4jnsgd1na2vs0mg"},{"bike_id":"ae2435f2-6a00-4247-92af-bc7a2c57348e","system_id":"levelo_inurba_marseille","lat":43.31335,"lon":5.397,"is_reserved":false,"is_disabled":false,"rental_uris":{"android":"levelo://app?vid=ae2435f2-6a00-4247-92af-bc7a2c57348e","ios":"levelo://app?vid=ae2435f2-6a00-4247-92af-bc7a2c57348e"},"vehicle_type_id":"4","last_reported":1742659835,"current_range_meters":11200,"station_id":"ce4bgvp2rcd13ifvqcu0","pricing_plan_id":"cebpf4jnsgd1na2vs0mg"},{"bike_id":"207a7dbb-ab99-4b0f-b90b-aaa7ac5334ec","system_id":"levelo_inurba_marseille","lat":43.29529,"lon":5.39027,"is_reserved":false,"is_disabled":false,"rental_uris":{"android":"levelo://app?vid=207a7dbb-ab99-4b0f-b90b-aaa7ac5334ec","ios":"levelo://app?vid=207a7dbb-ab99-4b0f-b90b-aaa7ac5334ec"},"vehicle_type_id":"4","last_reported":1742659835,"current_range_meters":11200,"station_id":"ce4bh3p2rcd13ifvqdp0","pricing_plan_id":"cebpf4jnsgd1na2vs0mg"},{"bike_id":"72503a27-a949-4a46-b139-c44d4f416a58","system_id":"levelo_inurba_marseille","lat":43.23182,"lon":5.35579,"is_reserved":false,"is_disabled":false,"rental_uris":{"android":"levelo://app?vid=72503a27-a949-4a46-b139-c44d4f416a58","ios":"levelo://app?vid=72503a27-a949-4a46-b139-c44d4f416a58"},"vehicle_type_id":"4","last_reported":1742659835,"current_range_meters":11600,"station_id":"ce4bhu92rcd13ifvqi70","pricing_plan_id":"cebpf4jnsgd1na2vs0mg"},{"bike_id":"23aae21a-1ee8-4544-a323-476ec541691a","system_id":"levelo_inurba_marseille","lat":43.23194,"lon":5.39972,"is_reserved":false,"is_disabled":false,"rental_uris":{"android":"levelo://app?vid=23aae21a-1ee8-4544-a323-476ec541691a","ios":"levelo://app?vid=23aae21a-1ee8-4544-a323-476ec541691a"},"vehicle_type_id":"4","last_reported":1742659835,"current_range_meters":11600,"station_id":"ce4bhn12rcd13ifvqgqg","pricing_plan_id":"cebpf4jnsgd1na2vs0mg"},{"bike_id":"d16d5ae2-a108-44f8-a226-14fecf4f3137","system_id":"levelo_inurba_marseille","lat":43.27991,"lon":5.40016,"is_reserved":false,"is_disabled":false,"rental_uris":{"android":"levelo://app?vid=d16d5ae2-a108-44f8-a226-14fecf4f3137","ios":"levelo://app?vid=d16d5ae2-a108-44f8-a226-14fecf4f3137"},"vehicle_type_id":"4","last_reported":1742659835,"current_range_meters":11600,"station_id":"ce4bho92rcd13ifvqh4g","pricing_plan_id":"cebpf4jnsgd1na2vs0mg"},{"bike_id":"c2d17b81-332c-4ea0-8daf-44fc66625efc","system_id":"levelo_inurba_marseille","lat":43.26951,"lon":5.38621,"is_reserved":false,"is_disabled":false,"rental_uris":{"android":"levelo://app?vid=c2d17b81-332c-4ea0-8daf-44fc66625efc","ios":"levelo://app?vid=c2d17b81-332c-4ea0-8daf-44fc66625efc"},"vehicle_type_id":"4","last_reported":1742659835,"current_range_meters":11600,"station_id":"ce4bhh92rcd13ifvqfh0","pricing_plan_id":"cebpf4jnsgd1na2vs0mg"},{"bike_id":"0e9ecfbb-b739-4da0-ae4f-5f93ee77a934","system_id":"levelo_inurba_marseille","lat":43.29578,"lon":5.36736,"is_reserved":false,"is_disabled":false,"rental_uris":{"android":"levelo://app?vid=0e9ecfbb-b739-4da0-ae4f-5f93ee77a934","ios":"levelo://app?vid=0e9ecfbb-b739-4da0-ae4f-5f93ee77a934"},"vehicle_type_id":"4","last_reported":1742659835,"current_range_meters":11600,"station_id":"ce4bgph2rcd13ifvqc2g","pricing_plan_id":"cebpf4jnsgd1na2vs0mg"},{"bike_id":"b77a5fb8-9ea9-4a89-aae5-03062fd01108","system_id":"levelo_inurba_marseille","lat":43.27208,"lon":5.39182,"is_reserved":false,"is_disabled":false,"rental_uris":{"android":"levelo://app?vid=b77a5fb8-9ea9-4a89-aae5-03062fd01108","ios":"levelo://app?vid=b77a5fb8-9ea9-4a89-aae5-03062fd01108"},"vehicle_type_id":"4","last_reported":1742659835,"current_range_meters":11600,"station_id":"ce4bhhp2rcd13ifvqfm0","pricing_plan_id":"cebpf4jnsgd1na2vs0mg"},{"bike_id":"f16d7570-eb0c-46af-b268-eb9ba07bf546","system_id":"levelo_inurba_marseille","lat":43.34525,"lon":5.36671,"is_reserved":false,"is_disabled":false,"rental_uris":{"android":"levelo://app?vid=f16d7570-eb0c-46af-b268-eb9ba07bf546","ios":"levelo://app?vid=f16d7570-eb0c-46af-b268-eb9ba07bf546"},"vehicle_type_id":"4","last_reported":1742659835,"current_range_meters":11600,"station_id":"","pricing_plan_id":"cebpf4jnsgd1na2vs0mg"},{"bike_id":"ba0a9964-ab62-4807-b18d-12500e496f19","system_id":"levelo_inurba_marseille","lat":43.28609,"lon":5.35116,"is_reserved":false,"is_disabled":true,"rental_uris":{"android":"levelo://app?vid=ba0a9964-ab62-4807-b18d-12500e496f19","ios":"levelo://app?vid=ba0a9964-ab62-4807-b18d-12500e496f19"},"vehicle_type_id":"4","last_reported":1742659835,"current_range_meters":11600,"station_id":"ce4bhch2rcd13ifvqeug","pricing_plan_id":"cebpf4jnsgd1na2vs0mg"},{"bike_id":"63104535-65a1-4463-aa4a-6ca45c59eba0","system_id":"levelo_inurba_marseille","lat":43.27899,"lon":5.38001,"is_reserved":false,"is_disabled":false,"rental_uris":{"android":"levelo://app?vid=63104535-65a1-4463-aa4a-6ca45c59eba0","ios":"levelo://app?vid=63104535-65a1-4463-aa4a-6ca45c59eba0"},"vehicle_type_id":"4","last_reported":1742659835,"current_range_meters":12000,"station_id":"ce4bhf92rcd13ifvqf50","pricing_plan_id":"cebpf4jnsgd1na2vs0mg"},{"bike_id":"72123cf2-9d2b-41b8-9bee-4f35b0be3549","system_id":"levelo_inurba_marseille","lat":43.23052,"lon":5.35512,"is_reserved":false,"is_disabled":true,"rental_uris":{"android":"levelo://app?vid=72123cf2-9d2b-41b8-9bee-4f35b0be3549","ios":"levelo://app?vid=72123cf2-9d2b-41b8-9bee-4f35b0be3549"},"vehicle_type_id":"4","last_reported":1742659835,"current_range_meters":12000,"station_id":"cpo3342slgdg3j2ifvpg","pricing_plan_id":"cebpf4jnsgd1na2vs0mg"},{"bike_id":"48439c09-33cc-4952-a27d-c5d028e4ffee","system_id":"levelo_inurba_marseille","lat":43.28725,"lon":5.37931,"is_reserved":false,"is_disabled":false,"rental_uris":{"android":"levelo://app?vid=48439c09-33cc-4952-a27d-c5d028e4ffee","ios":"levelo://app?vid=48439c09-33cc-4952-a27d-c5d028e4ffee"},"vehicle_type_id":"4","last_reported":1742659835,"current_range_meters":12400,"station_id":"ce4bh9p2rcd13ifvqec0","pricing_plan_id":"cebpf4jnsgd1na2vs0mg"},{"bike_id":"033c8811-f42b-4df3-8fd1-f7410abb7ead","system_id":"levelo_inurba_marseille","lat":43.273633,"lon":5.362613,"is_reserved":false,"is_disabled":false,"rental_uris":{"android":"levelo://app?vid=033c8811-f42b-4df3-8fd1-f7410abb7ead","ios":"levelo://app?vid=033c8811-f42b-4df3-8fd1-f7410abb7ead"},"vehicle_type_id":"4","last_reported":1742659835,"current_range_meters":12400,"station_id":"ce4bhbh2rcd13ifvqeo0","pricing_plan_id":"cebpf4jnsgd1na2vs0mg"},{"bike_id":"f6e542f5-bc0f-4313-a7e2-8f884a3843f7","system_id":"levelo_inurba_marseille","lat":43.29003,"lon":5.35607,"is_reserved":false,"is_disabled":false,"rental_uris":{"android":"levelo://app?vid=f6e542f5-bc0f-4313-a7e2-8f884a3843f7","ios":"levelo://app?vid=f6e542f5-bc0f-4313-a7e2-8f884a3843f7"},"vehicle_type_id":"4","last_reported":1742659835,"current_range_meters":15200,"station_id":"ce4bhb92rcd13ifvqen0","pricing_plan_id":"cebpf4jnsgd1na2vs0mg"},{"bike_id":"7d9bf2d2-5153-499c-a1fb-dcb365a9e566","system_id":"levelo_inurba_marseille","lat":43.24161,"lon":5.3971,"is_reserved":false,"is_disabled":false,"rental_uris":{"android":"levelo://app?vid=7d9bf2d2-5153-499c-a1fb-dcb365a9e566","ios":"levelo://app?vid=7d9bf2d2-5153-499c-a1fb-dcb365a9e566"},"vehicle_type_id":"4","last_reported":1742659835,"current_range_meters":12400,"station_id":"ce4bhn12rcd13ifvqgpg","pricing_plan_id":"cebpf4jnsgd1na2vs0mg"},{"bike_id":"2032e81a-8d24-4036-9cc6-bf67698b8322","system_id":"levelo_inurba_marseille","lat":43.24184,"lon":5.39733,"is_reserved":false,"is_disabled":false,"rental_uris":{"android":"levelo://app?vid=2032e81a-8d24-4036-9cc6-bf67698b8322","ios":"levelo://app?vid=2032e81a-8d24-4036-9cc6-bf67698b8322"},"vehicle_type_id":"4","last_reported":1742659835,"current_range_meters":12400,"station_id":"ce4bhn12rcd13ifvqgpg","pricing_plan_id":"cebpf4jnsgd1na2vs0mg"},{"bike_id":"93cf0f72-793c-4c82-8c8d-7d96defc34a6","system_id":"levelo_inurba_marseille","lat":43.30158,"lon":5.37413,"is_reserved":false,"is_disabled":false,"rental_uris":{"android":"levelo://app?vid=93cf0f72-793c-4c82-8c8d-7d96defc34a6","ios":"levelo://app?vid=93cf0f72-793c-4c82-8c8d-7d96defc34a6"},"vehicle_type_id":"4","last_reported":1742659835,"current_range_meters":12400,"station_id":"ce4bgs92rcd13ifvqcc0","pricing_plan_id":"cebpf4jnsgd1na2vs0mg"},{"bike_id":"443fb544-4307-4292-9224-885fc9f2a9fc","system_id":"levelo_inurba_marseille","lat":43.23192,"lon":5.35554,"is_reserved":false,"is_disabled":false,"rental_uris":{"android":"levelo://app?vid=443fb544-4307-4292-9224-885fc9f2a9fc","ios":"levelo://app?vid=443fb544-4307-4292-9224-885fc9f2a9fc"},"vehicle_type_id":"4","last_reported":1742659835,"current_range_meters":12400,"station_id":"ce4bhu92rcd13ifvqi70","pricing_plan_id":"cebpf4jnsgd1na2vs0mg"},{"bike_id":"bb2ebd34-9190-40c3-b427-a509f79ce1e9","system_id":"levelo_inurba_marseille","lat":43.27825,"lon":5.40727,"is_reserved":false,"is_disabled":false,"rental_uris":{"android":"levelo://app?vid=bb2ebd34-9190-40c3-b427-a509f79ce1e9","ios":"levelo://app?vid=bb2ebd34-9190-40c3-b427-a509f79ce1e9"},"vehicle_type_id":"4","last_reported":1742659835,"current_range_meters":12800,"station_id":"ce4bhnh2rcd13ifvqgtg","pricing_plan_id":"cebpf4jnsgd1na2vs0mg"},{"bike_id":"041746e8-f612-4f02-ba2c-e784ef31f6c4","system_id":"levelo_inurba_marseille","lat":43.23153,"lon":5.43707,"is_reserved":false,"is_disabled":false,"rental_uris":{"android":"levelo://app?vid=041746e8-f612-4f02-ba2c-e784ef31f6c4","ios":"levelo://app?vid=041746e8-f612-4f02-ba2c-e784ef31f6c4"},"vehicle_type_id":"4","last_reported":1742659835,"current_range_meters":12800,"station_id":"ce4bhmp2rcd13ifvqgog","pricing_plan_id":"cebpf4jnsgd1na2vs0mg"},{"bike_id":"af3ef180-37b0-490e-ac37-6d10a738836a","system_id":"levelo_inurba_marseille","lat":43.29903,"lon":5.43654,"is_reserved":false,"is_disabled":false,"rental_uris":{"android":"levelo://app?vid=af3ef180-37b0-490e-ac37-6d10a738836a","ios":"levelo://app?vid=af3ef180-37b0-490e-ac37-6d10a738836a"},"vehicle_type_id":"4","last_reported":1742659835,"current_range_meters":12800,"station_id":"ce4bhpp2rcd13ifvqhfg","pricing_plan_id":"cebpf4jnsgd1na2vs0mg"},{"bike_id":"0105c5cb-0603-4d1c-98c9-60f0a450d18c","system_id":"levelo_inurba_marseille","lat":43.23964,"lon":5.36633,"is_reserved":false,"is_disabled":false,"rental_uris":{"android":"levelo://app?vid=0105c5cb-0603-4d1c-98c9-60f0a450d18c","ios":"levelo://app?vid=0105c5cb-0603-4d1c-98c9-60f0a450d18c"},"vehicle_type_id":"4","last_reported":1742659835,"current_range_meters":12400,"station_id":"ce4bhi12rcd13ifvqfp0","pricing_plan_id":"cebpf4jnsgd1na2vs0mg"},{"bike_id":"76a242ff-48e1-4b74-a65a-0824cd33b3e7","system_id":"levelo_inurba_marseille","lat":43.29027,"lon":5.37557,"is_reserved":false,"is_disabled":false,"rental_uris":{"android":"levelo://app?vid=76a242ff-48e1-4b74-a65a-0824cd33b3e7","ios":"levelo://app?vid=76a242ff-48e1-4b74-a65a-0824cd33b3e7"},"vehicle_type_id":"4","last_reported":1742659835,"current_range_meters":12800,"station_id":"ce4bh692rcd13ifvqe90","pricing_plan_id":"cebpf4jnsgd1na2vs0mg"},{"bike_id":"272bd483-3c2c-49ec-b30d-44ac080cfd01","system_id":"levelo_inurba_marseille","lat":43.32345,"lon":5.40648,"is_reserved":false,"is_disabled":false,"rental_uris":{"android":"levelo://app?vid=272bd483-3c2c-49ec-b30d-44ac080cfd01","ios":"levelo://app?vid=272bd483-3c2c-49ec-b30d-44ac080cfd01"},"vehicle_type_id":"4","last_reported":1742659835,"current_range_meters":12800,"station_id":"ce4bhq92rcd13ifvqhjg","pricing_plan_id":"cebpf4jnsgd1na2vs0mg"},{"bike_id":"b31c40e2-6a54-4114-a6bc-9b6ae43fcc22","system_id":"levelo_inurba_marseille","lat":43.29778,"lon":5.36537,"is_reserved":false,"is_disabled":false,"rental_uris":{"android":"levelo://app?vid=b31c40e2-6a54-4114-a6bc-9b6ae43fcc22","ios":"levelo://app?vid=b31c40e2-6a54-4114-a6bc-9b6ae43fcc22"},"vehicle_type_id":"4","last_reported":1742659835,"current_range_meters":13600,"station_id":"ce4bgn12rcd13ifvqbt0","pricing_plan_id":"cebpf4jnsgd1na2vs0mg"},{"bike_id":"635e00f1-7672-4c20-b9a9-b9c7613e4d27","system_id":"levelo_inurba_marseille","lat":43.245356,"lon":5.373388,"is_reserved":false,"is_disabled":false,"rental_uris":{"android":"levelo://app?vid=635e00f1-7672-4c20-b9a9-b9c7613e4d27","ios":"levelo://app?vid=635e00f1-7672-4c20-b9a9-b9c7613e4d27"},"vehicle_type_id":"4","last_reported":1742659835,"current_range_meters":13600,"station_id":"ce4bhnp2rcd13ifvqgvg","pricing_plan_id":"cebpf4jnsgd1na2vs0mg"},{"bike_id":"140d1708-b02b-4f3d-8b67-ad95553b03f4","system_id":"levelo_inurba_marseille","lat":43.3015,"lon":5.37411,"is_reserved":false,"is_disabled":false,"rental_uris":{"android":"levelo://app?vid=140d1708-b02b-4f3d-8b67-ad95553b03f4","ios":"levelo://app?vid=140d1708-b02b-4f3d-8b67-ad95553b03f4"},"vehicle_type_id":"4","last_reported":1742659835,"current_range_meters":13600,"station_id":"ce4bgs92rcd13ifvqcc0","pricing_plan_id":"cebpf4jnsgd1na2vs0mg"},{"bike_id":"1233e3f9-cc4f-4976-9f0b-ad01d3882757","system_id":"levelo_inurba_marseille","lat":43.294188,"lon":5.386214,"is_reserved":false,"is_disabled":false,"rental_uris":{"android":"levelo://app?vid=1233e3f9-cc4f-4976-9f0b-ad01d3882757","ios":"levelo://app?vid=1233e3f9-cc4f-4976-9f0b-ad01d3882757"},"vehicle_type_id":"4","last_reported":1742659835,"current_range_meters":13600,"station_id":"ce4bgg92rcd13ifvqb30","pricing_plan_id":"cebpf4jnsgd1na2vs0mg"},{"bike_id":"8efbfecb-f74c-4a5d-9ad4-06e20a92410d","system_id":"levelo_inurba_marseille","lat":43.3042,"lon":5.41281,"is_reserved":false,"is_disabled":false,"rental_uris":{"android":"levelo://app?vid=8efbfecb-f74c-4a5d-9ad4-06e20a92410d","ios":"levelo://app?vid=8efbfecb-f74c-4a5d-9ad4-06e20a92410d"},"vehicle_type_id":"4","last_reported":1742659835,"current_range_meters":14000,"station_id":"ce4bhop2rcd13ifvqh8g","pricing_plan_id":"cebpf4jnsgd1na2vs0mg"},{"bike_id":"729b0037-2b7c-43ee-871c-a25bf43da53a","system_id":"levelo_inurba_marseille","lat":43.26215,"lon":5.40468,"is_reserved":false,"is_disabled":false,"rental_uris":{"android":"levelo://app?vid=729b0037-2b7c-43ee-871c-a25bf43da53a","ios":"levelo://app?vid=729b0037-2b7c-43ee-871c-a25bf43da53a"},"vehicle_type_id":"4","last_reported":1742659835,"current_range_meters":14000,"station_id":"ce4bhmh2rcd13ifvqgmg","pricing_plan_id":"cebpf4jnsgd1na2vs0mg"},{"bike_id":"5fa092c2-95ff-4810-9c47-517422895e59","system_id":"levelo_inurba_marseille","lat":43.2881,"lon":5.40014,"is_reserved":false,"is_disabled":false,"rental_uris":{"android":"levelo://app?vid=5fa092c2-95ff-4810-9c47-517422895e59","ios":"levelo://app?vid=5fa092c2-95ff-4810-9c47-517422895e59"},"vehicle_type_id":"4","last_reported":1742659835,"current_range_meters":14800,"station_id":"","pricing_plan_id":"cebpf4jnsgd1na2vs0mg"},{"bike_id":"3e799c98-2b98-4c25-9707-bc5145e6dcf1","system_id":"levelo_inurba_marseille","lat":43.25086,"lon":5.39521,"is_reserved":false,"is_disabled":false,"rental_uris":{"android":"levelo://app?vid=3e799c98-2b98-4c25-9707-bc5145e6dcf1","ios":"levelo://app?vid=3e799c98-2b98-4c25-9707-bc5145e6dcf1"},"vehicle_type_id":"4","last_reported":1742659835,"current_range_meters":14000,"station_id":"ce4bhm12rcd13ifvqgkg","pricing_plan_id":"cebpf4jnsgd1na2vs0mg"},{"bike_id":"d8878601-3ef9-4b69-ae9e-1dde88f059ac","system_id":"levelo_inurba_marseille","lat":43.24161,"lon":5.36387,"is_reserved":false,"is_disabled":false,"rental_uris":{"android":"levelo://app?vid=d8878601-3ef9-4b69-ae9e-1dde88f059ac","ios":"levelo://app?vid=d8878601-3ef9-4b69-ae9e-1dde88f059ac"},"vehicle_type_id":"4","last_reported":1742659835,"current_range_meters":14400,"station_id":"cpo36qri1sfpv3e86is0","pricing_plan_id":"cebpf4jnsgd1na2vs0mg"},{"bike_id":"7b75d449-7c71-498f-b2ce-f002530eba03","system_id":"levelo_inurba_marseille","lat":43.30144,"lon":5.3741,"is_reserved":false,"is_disabled":false,"rental_uris":{"android":"levelo://app?vid=7b75d449-7c71-498f-b2ce-f002530eba03","ios":"levelo://app?vid=7b75d449-7c71-498f-b2ce-f002530eba03"},"vehicle_type_id":"4","last_reported":1742659835,"current_range_meters":14800,"station_id":"ce4bgs92rcd13ifvqcc0","pricing_plan_id":"cebpf4jnsgd1na2vs0mg"},{"bike_id":"abca3bed-b8d8-4e83-a096-6e80b9ae0d55","system_id":"levelo_inurba_marseille","lat":43.26574,"lon":5.39009,"is_reserved":false,"is_disabled":false,"rental_uris":{"android":"levelo://app?vid=abca3bed-b8d8-4e83-a096-6e80b9ae0d55","ios":"levelo://app?vid=abca3bed-b8d8-4e83-a096-6e80b9ae0d55"},"vehicle_type_id":"4","last_reported":1742659835,"current_range_meters":14800,"station_id":"ce4bhe12rcd13ifvqf30","pricing_plan_id":"cebpf4jnsgd1na2vs0mg"},{"bike_id":"8a858ea1-7bd2-46ea-89e0-0e3881916363","system_id":"levelo_inurba_marseille","lat":43.25128,"lon":5.40334,"is_reserved":false,"is_disabled":true,"rental_uris":{"android":"levelo://app?vid=8a858ea1-7bd2-46ea-89e0-0e3881916363","ios":"levelo://app?vid=8a858ea1-7bd2-46ea-89e0-0e3881916363"},"vehicle_type_id":"4","last_reported":1742659835,"current_range_meters":14800,"station_id":"ce4bhlh2rcd13ifvqgig","pricing_plan_id":"cebpf4jnsgd1na2vs0mg"},{"bike_id":"f9397cdf-4681-4ebd-9ed2-299c0517f62e","system_id":"levelo_inurba_marseille","lat":43.3027,"lon":5.37725,"is_reserved":false,"is_disabled":false,"rental_uris":{"android":"levelo://app?vid=f9397cdf-4681-4ebd-9ed2-299c0517f62e","ios":"levelo://app?vid=f9397cdf-4681-4ebd-9ed2-299c0517f62e"},"vehicle_type_id":"4","last_reported":1742659835,"current_range_meters":14800,"station_id":"ce4bguh2rcd13ifvqcj0","pricing_plan_id":"cebpf4jnsgd1na2vs0mg"},{"bike_id":"83b2fa8f-58aa-48ec-a515-76e210cfe62a","system_id":"levelo_inurba_marseille","lat":43.2481,"lon":5.37454,"is_reserved":false,"is_disabled":false,"rental_uris":{"android":"levelo://app?vid=83b2fa8f-58aa-48ec-a515-76e210cfe62a","ios":"levelo://app?vid=83b2fa8f-58aa-48ec-a515-76e210cfe62a"},"vehicle_type_id":"4","last_reported":1742659835,"current_range_meters":14800,"station_id":"ce4bhgh2rcd13ifvqfb0","pricing_plan_id":"cebpf4jnsgd1na2vs0mg"},{"bike_id":"5d4cc92c-eafe-478c-8820-ef016b1e9d02","system_id":"levelo_inurba_marseille","lat":43.29906,"lon":5.43656,"is_reserved":false,"is_disabled":false,"rental_uris":{"android":"levelo://app?vid=5d4cc92c-eafe-478c-8820-ef016b1e9d02","ios":"levelo://app?vid=5d4cc92c-eafe-478c-8820-ef016b1e9d02"},"vehicle_type_id":"4","last_reported":1742659835,"current_range_meters":14800,"station_id":"ce4bhpp2rcd13ifvqhfg","pricing_plan_id":"cebpf4jnsgd1na2vs0mg"},{"bike_id":"a7c269ac-750b-4e61-a0a4-f774b818338f","system_id":"levelo_inurba_marseille","lat":43.28082,"lon":5.3966,"is_reserved":false,"is_disabled":false,"rental_uris":{"android":"levelo://app?vid=a7c269ac-750b-4e61-a0a4-f774b818338f","ios":"levelo://app?vid=a7c269ac-750b-4e61-a0a4-f774b818338f"},"vehicle_type_id":"4","last_reported":1742659835,"current_range_meters":14800,"station_id":"ce4bho12rcd13ifvqh2g","pricing_plan_id":"cebpf4jnsgd1na2vs0mg"},{"bike_id":"d954b141-3cee-4de0-9c29-d5babd11cd82","system_id":"levelo_inurba_marseille","lat":43.25093,"lon":5.39531,"is_reserved":false,"is_disabled":false,"rental_uris":{"android":"levelo://app?vid=d954b141-3cee-4de0-9c29-d5babd11cd82","ios":"levelo://app?vid=d954b141-3cee-4de0-9c29-d5babd11cd82"},"vehicle_type_id":"4","last_reported":1742659835,"current_range_meters":15200,"station_id":"ce4bhm12rcd13ifvqgkg","pricing_plan_id":"cebpf4jnsgd1na2vs0mg"},{"bike_id":"cb84301e-6bbb-45cc-a8a1-e98e6ea60c01","system_id":"levelo_inurba_marseille","lat":43.25117,"lon":5.40313,"is_reserved":false,"is_disabled":false,"rental_uris":{"android":"levelo://app?vid=cb84301e-6bbb-45cc-a8a1-e98e6ea60c01","ios":"levelo://app?vid=cb84301e-6bbb-45cc-a8a1-e98e6ea60c01"},"vehicle_type_id":"4","last_reported":1742659835,"current_range_meters":14400,"station_id":"ce4bhlh2rcd13ifvqgig","pricing_plan_id":"cebpf4jnsgd1na2vs0mg"},{"bike_id":"7051d748-e354-4caa-9702-afa8b6d4747c","system_id":"levelo_inurba_marseille","lat":43.29617,"lon":5.36782,"is_reserved":false,"is_disabled":false,"rental_uris":{"android":"levelo://app?vid=7051d748-e354-4caa-9702-afa8b6d4747c","ios":"levelo://app?vid=7051d748-e354-4caa-9702-afa8b6d4747c"},"vehicle_type_id":"4","last_reported":1742659835,"current_range_meters":15200,"station_id":"","pricing_plan_id":"cebpf4jnsgd1na2vs0mg"},{"bike_id":"9fca1e30-a31d-493d-bbb6-8ecf0da1bd7c","system_id":"levelo_inurba_marseille","lat":43.3016,"lon":5.38082,"is_reserved":false,"is_disabled":false,"rental_uris":{"android":"levelo://app?vid=9fca1e30-a31d-493d-bbb6-8ecf0da1bd7c","ios":"levelo://app?vid=9fca1e30-a31d-493d-bbb6-8ecf0da1bd7c"},"vehicle_type_id":"4","last_reported":1742659835,"current_range_meters":15200,"station_id":"ce4bgjp2rcd13ifvqbh0","pricing_plan_id":"cebpf4jnsgd1na2vs0mg"},{"bike_id":"54835c02-6158-4aac-b2e9-f6650d514f97","system_id":"levelo_inurba_marseille","lat":43.24065,"lon":5.37746,"is_reserved":false,"is_disabled":false,"rental_uris":{"android":"levelo://app?vid=54835c02-6158-4aac-b2e9-f6650d514f97","ios":"levelo://app?vid=54835c02-6158-4aac-b2e9-f6650d514f97"},"vehicle_type_id":"4","last_reported":1742659835,"current_range_meters":15200,"station_id":"ce4bhnp2rcd13ifvqgvg","pricing_plan_id":"cebpf4jnsgd1na2vs0mg"},{"bike_id":"751ff1ed-b498-4578-9bd4-943bf6c9d8eb","system_id":"levelo_inurba_marseille","lat":43.23211,"lon":5.35559,"is_reserved":false,"is_disabled":false,"rental_uris":{"android":"levelo://app?vid=751ff1ed-b498-4578-9bd4-943bf6c9d8eb","ios":"levelo://app?vid=751ff1ed-b498-4578-9bd4-943bf6c9d8eb"},"vehicle_type_id":"4","last_reported":1742659835,"current_range_meters":15200,"station_id":"ce4bhu92rcd13ifvqi70","pricing_plan_id":"cebpf4jnsgd1na2vs0mg"},{"bike_id":"c782ebe3-9d3d-4a53-9a08-cf586f0c7e08","system_id":"levelo_inurba_marseille","lat":43.27436,"lon":5.39393,"is_reserved":false,"is_disabled":false,"rental_uris":{"android":"levelo://app?vid=c782ebe3-9d3d-4a53-9a08-cf586f0c7e08","ios":"levelo://app?vid=c782ebe3-9d3d-4a53-9a08-cf586f0c7e08"},"vehicle_type_id":"4","last_reported":1742659835,"current_range_meters":15200,"station_id":"ce4bhdp2rcd13ifvqf20","pricing_plan_id":"cebpf4jnsgd1na2vs0mg"},{"bike_id":"00b31ba5-63d3-408c-b830-e093cfd7257b","system_id":"levelo_inurba_marseille","lat":43.29571,"lon":5.37527,"is_reserved":false,"is_disabled":false,"rental_uris":{"android":"levelo://app?vid=00b31ba5-63d3-408c-b830-e093cfd7257b","ios":"levelo://app?vid=00b31ba5-63d3-408c-b830-e093cfd7257b"},"vehicle_type_id":"4","last_reported":1742659835,"current_range_meters":15200,"station_id":"ce4bgh92rcd13ifvqb50","pricing_plan_id":"cebpf4jnsgd1na2vs0mg"},{"bike_id":"4c406a29-ee9e-4446-b3db-6d7899ff79a2","system_id":"levelo_inurba_marseille","lat":43.24169,"lon":5.36395,"is_reserved":false,"is_disabled":false,"rental_uris":{"android":"levelo://app?vid=4c406a29-ee9e-4446-b3db-6d7899ff79a2","ios":"levelo://app?vid=4c406a29-ee9e-4446-b3db-6d7899ff79a2"},"vehicle_type_id":"4","last_reported":1742659835,"current_range_meters":15200,"station_id":"cpo36qri1sfpv3e86is0","pricing_plan_id":"cebpf4jnsgd1na2vs0mg"},{"bike_id":"f0ec5cd6-f38b-470b-9c07-23f8d2d70d2a","system_id":"levelo_inurba_marseille","lat":43.25862,"lon":5.39898,"is_reserved":false,"is_disabled":false,"rental_uris":{"android":"levelo://app?vid=f0ec5cd6-f38b-470b-9c07-23f8d2d70d2a","ios":"levelo://app?vid=f0ec5cd6-f38b-470b-9c07-23f8d2d70d2a"},"vehicle_type_id":"4","last_reported":1742659835,"current_range_meters":15200,"station_id":"ce4bhl92rcd13ifvqghg","pricing_plan_id":"cebpf4jnsgd1na2vs0mg"},{"bike_id":"d27b2be2-64af-42d3-ba23-c089645b02a9","system_id":"levelo_inurba_marseille","lat":43.2917,"lon":5.37158,"is_reserved":false,"is_disabled":false,"rental_uris":{"android":"levelo://app?vid=d27b2be2-64af-42d3-ba23-c089645b02a9","ios":"levelo://app?vid=d27b2be2-64af-42d3-ba23-c089645b02a9"},"vehicle_type_id":"4","last_reported":1742659835,"current_range_meters":15200,"station_id":"ce4bha92rcd13ifvqeh0","pricing_plan_id":"cebpf4jnsgd1na2vs0mg"},{"bike_id":"f160fbe8-2553-4ae3-b49b-5277cf022880","system_id":"levelo_inurba_marseille","lat":43.30134,"lon":5.37423,"is_reserved":false,"is_disabled":false,"rental_uris":{"android":"levelo://app?vid=f160fbe8-2553-4ae3-b49b-5277cf022880","ios":"levelo://app?vid=f160fbe8-2553-4ae3-b49b-5277cf022880"},"vehicle_type_id":"4","last_reported":1742659835,"current_range_meters":16000,"station_id":"ce4bgs92rcd13ifvqcc0","pricing_plan_id":"cebpf4jnsgd1na2vs0mg"},{"bike_id":"0af74a1a-d6e1-4579-b1c6-27467ba405fe","system_id":"levelo_inurba_marseille","lat":43.29888,"lon":5.39735,"is_reserved":false,"is_disabled":true,"rental_uris":{"android":"levelo://app?vid=0af74a1a-d6e1-4579-b1c6-27467ba405fe","ios":"levelo://app?vid=0af74a1a-d6e1-4579-b1c6-27467ba405fe"},"vehicle_type_id":"4","last_reported":1742659835,"current_range_meters":16000,"station_id":"ce4bh0h2rcd13ifvqd50","pricing_plan_id":"cebpf4jnsgd1na2vs0mg"},{"bike_id":"dd5d6d06-0e34-4684-b128-c77a8d50ab86","system_id":"levelo_inurba_marseille","lat":43.3014,"lon":5.37396,"is_reserved":false,"is_disabled":false,"rental_uris":{"android":"levelo://app?vid=dd5d6d06-0e34-4684-b128-c77a8d50ab86","ios":"levelo://app?vid=dd5d6d06-0e34-4684-b128-c77a8d50ab86"},"vehicle_type_id":"4","last_reported":1742659835,"current_range_meters":16000,"station_id":"ce4bgs92rcd13ifvqcc0","pricing_plan_id":"cebpf4jnsgd1na2vs0mg"},{"bike_id":"35a0a768-901f-4999-8d36-146945ee184e","system_id":"levelo_inurba_marseille","lat":43.30309,"lon":5.36873,"is_reserved":false,"is_disabled":false,"rental_uris":{"android":"levelo://app?vid=35a0a768-901f-4999-8d36-146945ee184e","ios":"levelo://app?vid=35a0a768-901f-4999-8d36-146945ee184e"},"vehicle_type_id":"4","last_reported":1742659835,"current_range_meters":16000,"station_id":"ce4bgqh2rcd13ifvqc5g","pricing_plan_id":"cebpf4jnsgd1na2vs0mg"},{"bike_id":"a862f3a1-a1e9-4bac-96a9-493e18c93553","system_id":"levelo_inurba_marseille","lat":43.32631,"lon":5.40964,"is_reserved":false,"is_disabled":false,"rental_uris":{"android":"levelo://app?vid=a862f3a1-a1e9-4bac-96a9-493e18c93553","ios":"levelo://app?vid=a862f3a1-a1e9-4bac-96a9-493e18c93553"},"vehicle_type_id":"4","last_reported":1742659835,"current_range_meters":16000,"station_id":"ce4bhpp2rcd13ifvqhgg","pricing_plan_id":"cebpf4jnsgd1na2vs0mg"},{"bike_id":"80beaee8-2975-44c4-aa81-0c3db38fa3c3","system_id":"levelo_inurba_marseille","lat":43.27966,"lon":5.38746,"is_reserved":false,"is_disabled":false,"rental_uris":{"android":"levelo://app?vid=80beaee8-2975-44c4-aa81-0c3db38fa3c3","ios":"levelo://app?vid=80beaee8-2975-44c4-aa81-0c3db38fa3c3"},"vehicle_type_id":"4","last_reported":1742659835,"current_range_meters":16000,"station_id":"ce4bhg12rcd13ifvqf80","pricing_plan_id":"cebpf4jnsgd1na2vs0mg"},{"bike_id":"a938b95f-b787-45ba-a4e7-d825f89700a9","system_id":"levelo_inurba_marseille","lat":43.28719,"lon":5.37923,"is_reserved":false,"is_disabled":false,"rental_uris":{"android":"levelo://app?vid=a938b95f-b787-45ba-a4e7-d825f89700a9","ios":"levelo://app?vid=a938b95f-b787-45ba-a4e7-d825f89700a9"},"vehicle_type_id":"4","last_reported":1742659835,"current_range_meters":16000,"station_id":"ce4bh9p2rcd13ifvqec0","pricing_plan_id":"cebpf4jnsgd1na2vs0mg"},{"bike_id":"1561d6f7-ea54-40d0-bafd-092ca7834007","system_id":"levelo_inurba_marseille","lat":43.29718,"lon":5.37686,"is_reserved":false,"is_disabled":false,"rental_uris":{"android":"levelo://app?vid=1561d6f7-ea54-40d0-bafd-092ca7834007","ios":"levelo://app?vid=1561d6f7-ea54-40d0-bafd-092ca7834007"},"vehicle_type_id":"4","last_reported":1742659835,"current_range_meters":16000,"station_id":"ce4bgkh2rcd13ifvqbl0","pricing_plan_id":"cebpf4jnsgd1na2vs0mg"},{"bike_id":"9694aed1-f1a4-4d6f-a6e5-fb006029c59e","system_id":"levelo_inurba_marseille","lat":43.29927,"lon":5.37457,"is_reserved":false,"is_disabled":false,"rental_uris":{"android":"levelo://app?vid=9694aed1-f1a4-4d6f-a6e5-fb006029c59e","ios":"levelo://app?vid=9694aed1-f1a4-4d6f-a6e5-fb006029c59e"},"vehicle_type_id":"4","last_reported":1742659835,"current_range_meters":16000,"station_id":"ce4bgjh2rcd13ifvqbg0","pricing_plan_id":"cebpf4jnsgd1na2vs0mg"},{"bike_id":"d47c8647-452f-4088-894d-f260dd185502","system_id":"levelo_inurba_marseille","lat":43.26805,"lon":5.40266,"is_reserved":false,"is_disabled":false,"rental_uris":{"android":"levelo://app?vid=d47c8647-452f-4088-894d-f260dd185502","ios":"levelo://app?vid=d47c8647-452f-4088-894d-f260dd185502"},"vehicle_type_id":"4","last_reported":1742659835,"current_range_meters":16000,"station_id":"ce501612rcd8frsf0b60","pricing_plan_id":"cebpf4jnsgd1na2vs0mg"},{"bike_id":"07541760-82c4-4d38-b58c-85ffff07e965","system_id":"levelo_inurba_marseille","lat":43.23968,"lon":5.3662,"is_reserved":false,"is_disabled":false,"rental_uris":{"android":"levelo://app?vid=07541760-82c4-4d38-b58c-85ffff07e965","ios":"levelo://app?vid=07541760-82c4-4d38-b58c-85ffff07e965"},"vehicle_type_id":"4","last_reported":1742659835,"current_range_meters":16000,"station_id":"ce4bhi12rcd13ifvqfp0","pricing_plan_id":"cebpf4jnsgd1na2vs0mg"},{"bike_id":"fee627d6-fccd-4c70-86d9-065488f95938","system_id":"levelo_inurba_marseille","lat":43.27061,"lon":5.40262,"is_reserved":false,"is_disabled":false,"rental_uris":{"android":"levelo://app?vid=fee627d6-fccd-4c70-86d9-065488f95938","ios":"levelo://app?vid=fee627d6-fccd-4c70-86d9-065488f95938"},"vehicle_type_id":"4","last_reported":1742659835,"current_range_meters":16000,"station_id":"ce4bhk92rcd13ifvqgc0","pricing_plan_id":"cebpf4jnsgd1na2vs0mg"},{"bike_id":"196e5527-f8ec-47c9-88d8-c0c49611574a","system_id":"levelo_inurba_marseille","lat":43.23065,"lon":5.35489,"is_reserved":false,"is_disabled":false,"rental_uris":{"android":"levelo://app?vid=196e5527-f8ec-47c9-88d8-c0c49611574a","ios":"levelo://app?vid=196e5527-f8ec-47c9-88d8-c0c49611574a"},"vehicle_type_id":"4","last_reported":1742659835,"current_range_meters":16000,"station_id":"cpo3342slgdg3j2ifvpg","pricing_plan_id":"cebpf4jnsgd1na2vs0mg"},{"bike_id":"b6da0cea-b960-4652-be57-f2bb8065fb68","system_id":"levelo_inurba_marseille","lat":43.23146,"lon":5.43716,"is_reserved":false,"is_disabled":false,"rental_uris":{"android":"levelo://app?vid=b6da0cea-b960-4652-be57-f2bb8065fb68","ios":"levelo://app?vid=b6da0cea-b960-4652-be57-f2bb8065fb68"},"vehicle_type_id":"4","last_reported":1742659835,"current_range_meters":16000,"station_id":"ce4bhmp2rcd13ifvqgog","pricing_plan_id":"cebpf4jnsgd1na2vs0mg"},{"bike_id":"e41bf9f2-5cdf-4a27-9e19-85dd8eb5dce8","system_id":"levelo_inurba_marseille","lat":43.30145,"lon":5.37399,"is_reserved":false,"is_disabled":false,"rental_uris":{"android":"levelo://app?vid=e41bf9f2-5cdf-4a27-9e19-85dd8eb5dce8","ios":"levelo://app?vid=e41bf9f2-5cdf-4a27-9e19-85dd8eb5dce8"},"vehicle_type_id":"4","last_reported":1742659835,"current_range_meters":16400,"station_id":"ce4bgs92rcd13ifvqcc0","pricing_plan_id":"cebpf4jnsgd1na2vs0mg"},{"bike_id":"5f057e05-88ef-43f2-a315-beafe07070d0","system_id":"levelo_inurba_marseille","lat":43.23187,"lon":5.3997,"is_reserved":false,"is_disabled":false,"rental_uris":{"android":"levelo://app?vid=5f057e05-88ef-43f2-a315-beafe07070d0","ios":"levelo://app?vid=5f057e05-88ef-43f2-a315-beafe07070d0"},"vehicle_type_id":"4","last_reported":1742659835,"current_range_meters":16400,"station_id":"ce4bhn12rcd13ifvqgqg","pricing_plan_id":"cebpf4jnsgd1na2vs0mg"},{"bike_id":"70dda4c0-95f0-47d6-9008-96d63c3f2ca7","system_id":"levelo_inurba_marseille","lat":43.26546,"lon":5.39039,"is_reserved":false,"is_disabled":false,"rental_uris":{"android":"levelo://app?vid=70dda4c0-95f0-47d6-9008-96d63c3f2ca7","ios":"levelo://app?vid=70dda4c0-95f0-47d6-9008-96d63c3f2ca7"},"vehicle_type_id":"4","last_reported":1742659835,"current_range_meters":16400,"station_id":"ce4bhe12rcd13ifvqf30","pricing_plan_id":"cebpf4jnsgd1na2vs0mg"},{"bike_id":"313e6298-b86c-4d6f-b2cb-30f795b3a919","system_id":"levelo_inurba_marseille","lat":43.29918,"lon":5.36534,"is_reserved":false,"is_disabled":false,"rental_uris":{"android":"levelo://app?vid=313e6298-b86c-4d6f-b2cb-30f795b3a919","ios":"levelo://app?vid=313e6298-b86c-4d6f-b2cb-30f795b3a919"},"vehicle_type_id":"4","last_reported":1742659835,"current_range_meters":16400,"station_id":"ce4bgm92rcd13ifvqbr0","pricing_plan_id":"cebpf4jnsgd1na2vs0mg"},{"bike_id":"cd897869-d51d-467c-9826-c044773d3f8c","system_id":"levelo_inurba_marseille","lat":43.24159,"lon":5.3639,"is_reserved":false,"is_disabled":false,"rental_uris":{"android":"levelo://app?vid=cd897869-d51d-467c-9826-c044773d3f8c","ios":"levelo://app?vid=cd897869-d51d-467c-9826-c044773d3f8c"},"vehicle_type_id":"4","last_reported":1742659835,"current_range_meters":16400,"station_id":"cpo36qri1sfpv3e86is0","pricing_plan_id":"cebpf4jnsgd1na2vs0mg"},{"bike_id":"e89f52be-c8f1-4809-8bb4-bce082030875","system_id":"levelo_inurba_marseille","lat":43.23962,"lon":5.36631,"is_reserved":false,"is_disabled":false,"rental_uris":{"android":"levelo://app?vid=e89f52be-c8f1-4809-8bb4-bce082030875","ios":"levelo://app?vid=e89f52be-c8f1-4809-8bb4-bce082030875"},"vehicle_type_id":"4","last_reported":1742659835,"current_range_meters":16400,"station_id":"ce4bhi12rcd13ifvqfp0","pricing_plan_id":"cebpf4jnsgd1na2vs0mg"},{"bike_id":"08b38b3a-e231-44ae-a076-0a5104582bea","system_id":"levelo_inurba_marseille","lat":43.30319,"lon":5.37916,"is_reserved":false,"is_disabled":false,"rental_uris":{"android":"levelo://app?vid=08b38b3a-e231-44ae-a076-0a5104582bea","ios":"levelo://app?vid=08b38b3a-e231-44ae-a076-0a5104582bea"},"vehicle_type_id":"4","last_reported":1742659835,"current_range_meters":16400,"station_id":"","pricing_plan_id":"cebpf4jnsgd1na2vs0mg"},{"bike_id":"0edca28e-bb2a-4eed-a9fd-458177a3a120","system_id":"levelo_inurba_marseille","lat":43.29565,"lon":5.3754,"is_reserved":false,"is_disabled":false,"rental_uris":{"android":"levelo://app?vid=0edca28e-bb2a-4eed-a9fd-458177a3a120","ios":"levelo://app?vid=0edca28e-bb2a-4eed-a9fd-458177a3a120"},"vehicle_type_id":"4","last_reported":1742659835,"current_range_meters":16800,"station_id":"ce4bgh92rcd13ifvqb50","pricing_plan_id":"cebpf4jnsgd1na2vs0mg"},{"bike_id":"fbcf9fff-3ad0-4734-9761-8f0e379a1a78","system_id":"levelo_inurba_marseille","lat":43.30136,"lon":5.37406,"is_reserved":false,"is_disabled":false,"rental_uris":{"android":"levelo://app?vid=fbcf9fff-3ad0-4734-9761-8f0e379a1a78","ios":"levelo://app?vid=fbcf9fff-3ad0-4734-9761-8f0e379a1a78"},"vehicle_type_id":"4","last_reported":1742659835,"current_range_meters":16400,"station_id":"ce4bgs92rcd13ifvqcc0","pricing_plan_id":"cebpf4jnsgd1na2vs0mg"},{"bike_id":"411f319a-b6e8-48db-a813-292e7cd14006","system_id":"levelo_inurba_marseille","lat":43.28378,"lon":5.38646,"is_reserved":false,"is_disabled":false,"rental_uris":{"android":"levelo://app?vid=411f319a-b6e8-48db-a813-292e7cd14006","ios":"levelo://app?vid=411f319a-b6e8-48db-a813-292e7cd14006"},"vehicle_type_id":"4","last_reported":1742659835,"current_range_meters":16000,"station_id":"ce4bh492rcd13ifvqdvg","pricing_plan_id":"cebpf4jnsgd1na2vs0mg"},{"bike_id":"bdd85a69-2526-423f-83bc-580097d3e5b5","system_id":"levelo_inurba_marseille","lat":43.23051,"lon":5.35507,"is_reserved":false,"is_disabled":false,"rental_uris":{"android":"levelo://app?vid=bdd85a69-2526-423f-83bc-580097d3e5b5","ios":"levelo://app?vid=bdd85a69-2526-423f-83bc-580097d3e5b5"},"vehicle_type_id":"4","last_reported":1742659835,"current_range_meters":16400,"station_id":"cpo3342slgdg3j2ifvpg","pricing_plan_id":"cebpf4jnsgd1na2vs0mg"},{"bike_id":"f6cf989c-5d1f-480a-90c5-72b9e2333ed9","system_id":"levelo_inurba_marseille","lat":43.28076,"lon":5.39656,"is_reserved":false,"is_disabled":false,"rental_uris":{"android":"levelo://app?vid=f6cf989c-5d1f-480a-90c5-72b9e2333ed9","ios":"levelo://app?vid=f6cf989c-5d1f-480a-90c5-72b9e2333ed9"},"vehicle_type_id":"4","last_reported":1742659835,"current_range_meters":16800,"station_id":"ce4bho12rcd13ifvqh2g","pricing_plan_id":"cebpf4jnsgd1na2vs0mg"},{"bike_id":"dc48b248-ccee-4808-9383-7059f967375c","system_id":"levelo_inurba_marseille","lat":43.24169,"lon":5.39713,"is_reserved":false,"is_disabled":false,"rental_uris":{"android":"levelo://app?vid=dc48b248-ccee-4808-9383-7059f967375c","ios":"levelo://app?vid=dc48b248-ccee-4808-9383-7059f967375c"},"vehicle_type_id":"4","last_reported":1742659835,"current_range_meters":16400,"station_id":"ce4bhn12rcd13ifvqgpg","pricing_plan_id":"cebpf4jnsgd1na2vs0mg"},{"bike_id":"f657da43-9a05-4822-9c77-ad8671579423","system_id":"levelo_inurba_marseille","lat":43.29565,"lon":5.39959,"is_reserved":false,"is_disabled":true,"rental_uris":{"android":"levelo://app?vid=f657da43-9a05-4822-9c77-ad8671579423","ios":"levelo://app?vid=f657da43-9a05-4822-9c77-ad8671579423"},"vehicle_type_id":"4","last_reported":1742659835,"current_range_meters":16400,"station_id":"ce4bh312rcd13ifvqdj0","pricing_plan_id":"cebpf4jnsgd1na2vs0mg"},{"bike_id":"085e20e1-24dd-46ba-9eec-e5bd3698a3ef","system_id":"levelo_inurba_marseille","lat":43.31076,"lon":5.38352,"is_reserved":false,"is_disabled":false,"rental_uris":{"android":"levelo://app?vid=085e20e1-24dd-46ba-9eec-e5bd3698a3ef","ios":"levelo://app?vid=085e20e1-24dd-46ba-9eec-e5bd3698a3ef"},"vehicle_type_id":"4","last_reported":1742659835,"current_range_meters":16400,"station_id":"ce4bgv92rcd13ifvqcr0","pricing_plan_id":"cebpf4jnsgd1na2vs0mg"},{"bike_id":"e7f36315-33b7-4281-a35b-834987bb0230","system_id":"levelo_inurba_marseille","lat":43.29579,"lon":5.37522,"is_reserved":false,"is_disabled":false,"rental_uris":{"android":"levelo://app?vid=e7f36315-33b7-4281-a35b-834987bb0230","ios":"levelo://app?vid=e7f36315-33b7-4281-a35b-834987bb0230"},"vehicle_type_id":"4","last_reported":1742659835,"current_range_meters":16400,"station_id":"ce4bgh92rcd13ifvqb50","pricing_plan_id":"cebpf4jnsgd1na2vs0mg"},{"bike_id":"ef1af33f-fe72-4f41-94e9-39c463d13e22","system_id":"levelo_inurba_marseille","lat":43.29622,"lon":5.37717,"is_reserved":false,"is_disabled":false,"rental_uris":{"android":"levelo://app?vid=ef1af33f-fe72-4f41-94e9-39c463d13e22","ios":"levelo://app?vid=ef1af33f-fe72-4f41-94e9-39c463d13e22"},"vehicle_type_id":"4","last_reported":1742659835,"current_range_meters":17200,"station_id":"ce4bgi92rcd13ifvqb90","pricing_plan_id":"cebpf4jnsgd1na2vs0mg"},{"bike_id":"f8ff41b7-94c3-4164-990c-0c31908da696","system_id":"levelo_inurba_marseille","lat":43.23052,"lon":5.35501,"is_reserved":false,"is_disabled":false,"rental_uris":{"android":"levelo://app?vid=f8ff41b7-94c3-4164-990c-0c31908da696","ios":"levelo://app?vid=f8ff41b7-94c3-4164-990c-0c31908da696"},"vehicle_type_id":"4","last_reported":1742659835,"current_range_meters":16400,"station_id":"cpo3342slgdg3j2ifvpg","pricing_plan_id":"cebpf4jnsgd1na2vs0mg"},{"bike_id":"b4c129d4-c23e-4ecf-a58a-a1f7ac55acf0","system_id":"levelo_inurba_marseille","lat":43.28152,"lon":5.42642,"is_reserved":false,"is_disabled":false,"rental_uris":{"android":"levelo://app?vid=b4c129d4-c23e-4ecf-a58a-a1f7ac55acf0","ios":"levelo://app?vid=b4c129d4-c23e-4ecf-a58a-a1f7ac55acf0"},"vehicle_type_id":"4","last_reported":1742659835,"current_range_meters":16800,"station_id":"ce4bhnh2rcd13ifvqgug","pricing_plan_id":"cebpf4jnsgd1na2vs0mg"},{"bike_id":"7319a7c3-bd09-4f73-8e1c-199b32707fab","system_id":"levelo_inurba_marseille","lat":43.29688,"lon":5.36576,"is_reserved":false,"is_disabled":false,"rental_uris":{"android":"levelo://app?vid=7319a7c3-bd09-4f73-8e1c-199b32707fab","ios":"levelo://app?vid=7319a7c3-bd09-4f73-8e1c-199b32707fab"},"vehicle_type_id":"4","last_reported":1742659835,"current_range_meters":16800,"station_id":"ce4bgn12rcd13ifvqbt0","pricing_plan_id":"cebpf4jnsgd1na2vs0mg"},{"bike_id":"6171e8d5-9420-4b0e-a163-46efda627f5e","system_id":"levelo_inurba_marseille","lat":43.28722,"lon":5.36078,"is_reserved":false,"is_disabled":false,"rental_uris":{"android":"levelo://app?vid=6171e8d5-9420-4b0e-a163-46efda627f5e","ios":"levelo://app?vid=6171e8d5-9420-4b0e-a163-46efda627f5e"},"vehicle_type_id":"4","last_reported":1742659835,"current_range_meters":16800,"station_id":"cki0cbj6b192h4jlfktg","pricing_plan_id":"cebpf4jnsgd1na2vs0mg"},{"bike_id":"185fbe3b-beec-4e8d-a0fb-f3a643549f5b","system_id":"levelo_inurba_marseille","lat":43.31591,"lon":5.37184,"is_reserved":false,"is_disabled":false,"rental_uris":{"android":"levelo://app?vid=185fbe3b-beec-4e8d-a0fb-f3a643549f5b","ios":"levelo://app?vid=185fbe3b-beec-4e8d-a0fb-f3a643549f5b"},"vehicle_type_id":"4","last_reported":1742659835,"current_range_meters":16800,"station_id":"","pricing_plan_id":"cebpf4jnsgd1na2vs0mg"},{"bike_id":"9b0392c0-63f4-4a65-bc75-85417b5ebec5","system_id":"levelo_inurba_marseille","lat":43.29899,"lon":5.37468,"is_reserved":false,"is_disabled":false,"rental_uris":{"android":"levelo://app?vid=9b0392c0-63f4-4a65-bc75-85417b5ebec5","ios":"levelo://app?vid=9b0392c0-63f4-4a65-bc75-85417b5ebec5"},"vehicle_type_id":"4","last_reported":1742659835,"current_range_meters":16800,"station_id":"ce4bgjh2rcd13ifvqbg0","pricing_plan_id":"cebpf4jnsgd1na2vs0mg"},{"bike_id":"e2b68c00-ea55-4d0f-ae98-6403b351276c","system_id":"levelo_inurba_marseille","lat":43.23043,"lon":5.35484,"is_reserved":false,"is_disabled":false,"rental_uris":{"android":"levelo://app?vid=e2b68c00-ea55-4d0f-ae98-6403b351276c","ios":"levelo://app?vid=e2b68c00-ea55-4d0f-ae98-6403b351276c"},"vehicle_type_id":"4","last_reported":1742659835,"current_range_meters":16800,"station_id":"cpo3342slgdg3j2ifvpg","pricing_plan_id":"cebpf4jnsgd1na2vs0mg"},{"bike_id":"2375c37d-9250-4835-939b-f540acb8df51","system_id":"levelo_inurba_marseille","lat":43.29704,"lon":5.36613,"is_reserved":false,"is_disabled":false,"rental_uris":{"android":"levelo://app?vid=2375c37d-9250-4835-939b-f540acb8df51","ios":"levelo://app?vid=2375c37d-9250-4835-939b-f540acb8df51"},"vehicle_type_id":"4","last_reported":1742659835,"current_range_meters":16800,"station_id":"ce4bgn12rcd13ifvqbt0","pricing_plan_id":"cebpf4jnsgd1na2vs0mg"},{"bike_id":"5c223777-549b-4d09-9654-1b617afc66e4","system_id":"levelo_inurba_marseille","lat":43.29855,"lon":5.36273,"is_reserved":false,"is_disabled":false,"rental_uris":{"android":"levelo://app?vid=5c223777-549b-4d09-9654-1b617afc66e4","ios":"levelo://app?vid=5c223777-549b-4d09-9654-1b617afc66e4"},"vehicle_type_id":"4","last_reported":1742659835,"current_range_meters":16800,"station_id":"ce4bgpp2rcd13ifvqc3g","pricing_plan_id":"cebpf4jnsgd1na2vs0mg"},{"bike_id":"cbde71c9-aab8-4882-a131-e019ebf62cb9","system_id":"levelo_inurba_marseille","lat":43.3014,"lon":5.37401,"is_reserved":false,"is_disabled":false,"rental_uris":{"android":"levelo://app?vid=cbde71c9-aab8-4882-a131-e019ebf62cb9","ios":"levelo://app?vid=cbde71c9-aab8-4882-a131-e019ebf62cb9"},"vehicle_type_id":"4","last_reported":1742659835,"current_range_meters":16800,"station_id":"ce4bgs92rcd13ifvqcc0","pricing_plan_id":"cebpf4jnsgd1na2vs0mg"},{"bike_id":"b70a7dd1-1549-4122-8d42-8db2d55856b2","system_id":"levelo_inurba_marseille","lat":43.26234,"lon":5.4045,"is_reserved":false,"is_disabled":false,"rental_uris":{"android":"levelo://app?vid=b70a7dd1-1549-4122-8d42-8db2d55856b2","ios":"levelo://app?vid=b70a7dd1-1549-4122-8d42-8db2d55856b2"},"vehicle_type_id":"4","last_reported":1742659835,"current_range_meters":16800,"station_id":"ce4bhmh2rcd13ifvqgmg","pricing_plan_id":"cebpf4jnsgd1na2vs0mg"},{"bike_id":"46041066-5345-4d70-a363-3223db485684","system_id":"levelo_inurba_marseille","lat":43.28446,"lon":5.39202,"is_reserved":false,"is_disabled":false,"rental_uris":{"android":"levelo://app?vid=46041066-5345-4d70-a363-3223db485684","ios":"levelo://app?vid=46041066-5345-4d70-a363-3223db485684"},"vehicle_type_id":"4","last_reported":1742659835,"current_range_meters":16800,"station_id":"ce4bhoh2rcd13ifvqh5g","pricing_plan_id":"cebpf4jnsgd1na2vs0mg"},{"bike_id":"cd5ada68-a031-44d1-ae99-cc8b6cc2e52e","system_id":"levelo_inurba_marseille","lat":43.29711,"lon":5.36602,"is_reserved":false,"is_disabled":false,"rental_uris":{"android":"levelo://app?vid=cd5ada68-a031-44d1-ae99-cc8b6cc2e52e","ios":"levelo://app?vid=cd5ada68-a031-44d1-ae99-cc8b6cc2e52e"},"vehicle_type_id":"4","last_reported":1742659835,"current_range_meters":16800,"station_id":"ce4bgn12rcd13ifvqbt0","pricing_plan_id":"cebpf4jnsgd1na2vs0mg"},{"bike_id":"e5825993-507e-4857-acc2-83316148818b","system_id":"levelo_inurba_marseille","lat":43.30525,"lon":5.36706,"is_reserved":false,"is_disabled":false,"rental_uris":{"android":"levelo://app?vid=e5825993-507e-4857-acc2-83316148818b","ios":"levelo://app?vid=e5825993-507e-4857-acc2-83316148818b"},"vehicle_type_id":"4","last_reported":1742659835,"current_range_meters":17200,"station_id":"ce4bgrp2rcd13ifvqc9g","pricing_plan_id":"cebpf4jnsgd1na2vs0mg"},