{"last_updated":1713197285,"ttl":30,"version":"2.2","data":{"bikes":[{"bike_id":"acb1de5d-e450-4e80-b95b-e05ac7dfb13a","system_id":"levelo_inurba_marseille","lat":43.31358,"lon":5.36697,"is_reserved":false,"is_disabled":false,"rental_uris":{"android":"levelo://app?vid=acb1de5d-e450-4e80-b95b-e05ac7dfb13a","ios":"levelo://app?vid=acb1de5d-e450-4e80-b95b-e05ac7dfb13a"},"vehicle_type_id":"4","last_reported":1713197285,"current_range_meters":0,"station_id":"ce4bgr92rcd13ifvqc6g","pricing_plan_id":"cebpf4jnsgd1na2vs0mg"},{"bike_id":"47212795-6e08-4097-9f1e-606247156647","system_id":"levelo_inurba_marseille","lat":43.2479,"lon":5.374457,"is_reserved":false,"is_disabled":false,"rental_uris":{"android":"levelo://app?vid=47212795-6e08-4097-9f1e-606247156647","ios":"levelo://app?vid=47212795-6e08-4097-9f1e-606247156647"},"vehicle_type_id":"4","last_reported":1713197285,"current_range_meters":16400,"station_id":"ce4bhgh2rcd13ifvqfb0","pricing_plan_id":"cebpf4jnsgd1na2vs0mg"},{"bike_id":"5639ba56-5352-455b-a359-d31055e5d22e","system_id":"levelo_inurba_marseille","lat":43.312239,"lon":5.368562,"is_reserved":false,"is_disabled":false,"rental_uris":{"android":"levelo://app?vid=5639ba56-5352-455b-a359-d31055e5d22e","ios":"levelo://app?vid=5639ba56-5352-455b-a359-d31055e5d22e"},"vehicle_type_id":"4","last_reported":1713197285,"current_range_meters":21200,"station_id":"ce4bgl92rcd13ifvqbq0","pricing_plan_id":"cebpf4jnsgd1na2vs0mg"},{"bike_id":"dfcbcd85-81f1-47e8-b940-f76b938d6d20","system_id":"levelo_inurba_marseille","lat":43.305412,"lon":5.367042,"is_reserved":false,"is_disabled":false,"rental_uris":{"android":"levelo://app?vid=dfcbcd85-81f1-47e8-b940-f76b938d6d20","ios":"levelo://app?vid=dfcbcd85-81f1-47e8-b940-f76b938d6d20"},"vehicle_type_id":"4","last_reported":1713197285,"current_range_meters":0,"station_id":"ce4bgrp2rcd13ifvqc9g","pricing_plan_id":"cebpf4jnsgd1na2vs0mg"},{"bike_id":"b9fad171-ee6b-41c8-8cf4-37980e540953","system_id":"levelo_inurba_marseille","lat":43.28727,"lon":5.36078,"is_reserved":false,"is_disabled":false,"rental_uris":{"android":"levelo://app?vid=b9fad171-ee6b-41c8-8cf4-37980e540953","ios":"levelo://app?vid=b9fad171-ee6b-41c8-8cf4-37980e540953"},"vehicle_type_id":"4","last_reported":1713197285,"current_range_meters":26800,"station_id":"cki0cbj6b192h4jlfktg","pricing_plan_id":"cebpf4jnsgd1na2vs0mg"},{"bike_id":"e22fc16c-4127-41aa-9f1a-812f23c2ad21","system_id":"levelo_inurba_marseille","lat":43.26202,"lon":5.379299,"is_reserved":false,"is_disabled":false,"rental_uris":{"android":"levelo://app?vid=e22fc16c-4127-41aa-9f1a-812f23c2ad21","ios":"levelo://app?vid=e22fc16c-4127-41aa-9f1a-812f23c2ad21"},"vehicle_type_id":"4","last_reported":1713197285,"current_range_meters":4800,"station_id":"ce4bhjp2rcd13ifvqg90","pricing_plan_id":"cebpf4jnsgd1na2vs0mg"},{"bike_id":"71ce0f70-21af-4e89-9da9-b4fdfd89859b","system_id":"levelo_inurba_marseille","lat":43.305368,"lon":5.367343,"is_reserved":false,"is_disabled":false,"rental_uris":{"android":"levelo://app?vid=71ce0f70-21af-4e89-9da9-b4fdfd89859b","ios":"levelo://app?vid=71ce0f70-21af-4e89-9da9-b4fdfd89859b"},"vehicle_type_id":"4","last_reported":1713197285,"current_range_meters":14800,"station_id":"ce4bgrp2rcd13ifvqc9g","pricing_plan_id":"cebpf4jnsgd1na2vs0mg"},{"bike_id":"1b355285-9ad2-411e-8c14-8c62d376a242","system_id":"levelo_inurba_marseille","lat":43.305989,"lon":5.37225,"is_reserved":false,"is_disabled":false,"rental_uris":{"android":"levelo://app?vid=1b355285-9ad2-411e-8c14-8c62d376a242","ios":"levelo://app?vid=1b355285-9ad2-411e-8c14-8c62d376a242"},"vehicle_type_id":"4","last_reported":1713197285,"current_range_meters":19200,"station_id":"ce4bgqh2rcd13ifvqc4g","pricing_plan_id":"cebpf4jnsgd1na2vs0mg"},{"bike_id":"768925e6-2fbb-423c-ab9c-03edf1f3d04e","system_id":"levelo_inurba_marseille","lat":43.312609,"lon":5.401662,"is_reserved":false,"is_disabled":false,"rental_uris":{"android":"levelo://app?vid=768925e6-2fbb-423c-ab9c-03edf1f3d04e","ios":"levelo://app?vid=768925e6-2fbb-423c-ab9c-03edf1f3d04e"},"vehicle_type_id":"4","last_reported":1713197285,"current_range_meters":19600,"station_id":"ce4bh092rcd13ifvqd30","pricing_plan_id":"cebpf4jnsgd1na2vs0mg"},{"bike_id":"6d392ce3-e3ce-4d1c-b604-6a0d18fe998a","system_id":"levelo_inurba_marseille","lat":43.305989,"lon":5.37225,"is_reserved":false,"is_disabled":false,"rental_uris":{"android":"levelo://app?vid=6d392ce3-e3ce-4d1c-b604-6a0d18fe998a","ios":"levelo://app?vid=6d392ce3-e3ce-4d1c-b604-6a0d18fe998a"},"vehicle_type_id":"4","last_reported":1713197285,"current_range_meters":2400,"station_id":"ce4bgqh2rcd13ifvqc4g","pricing_plan_id":"cebpf4jnsgd1na2vs0mg"},{"bike_id":"1cf801a8-521c-479c-a410-30c31e1c4ef1","system_id":"levelo_inurba_marseille","lat":43.305989,"lon":5.37225,"is_reserved":false,"is_disabled":false,"rental_uris":{"android":"levelo://app?vid=1cf801a8-521c-479c-a410-30c31e1c4ef1","ios":"levelo://app?vid=1cf801a8-521c-479c-a410-30c31e1c4ef1"},"vehicle_type_id":"4","last_reported":1713197285,"current_range_meters":0,"station_id":"ce4bgqh2rcd13ifvqc4g","pricing_plan_id":"cebpf4jnsgd1na2vs0mg"},{"bike_id":"69fdbb61-a453-4047-9aad-85811db0522e","system_id":"levelo_inurba_marseille","lat":43.305989,"lon":5.37225,"is_reserved":false,"is_disabled":false,"rental_uris":{"android":"levelo://app?vid=69fdbb61-a453-4047-9aad-85811db0522e","ios":"levelo://app?vid=69fdbb61-a453-4047-9aad-85811db0522e"},"vehicle_type_id":"4","last_reported":1713197285,"current_range_meters":0,"station_id":"ce4bgqh2rcd13ifvqc4g","pricing_plan_id":"cebpf4jnsgd1na2vs0mg"},{"bike_id":"97082013-f9d0-46fe-8ffd-68d872785eab","system_id":"levelo_inurba_marseille","lat":43.311131,"lon":5.377651,"is_reserved":false,"is_disabled":false,"rental_uris":{"android":"levelo://app?vid=97082013-f9d0-46fe-8ffd-68d872785eab","ios":"levelo://app?vid=97082013-f9d0-46fe-8ffd-68d872785eab"},"vehicle_type_id":"4","last_reported":1713197285,"current_range_meters":15200,"station_id":"ce4bgt92rcd13ifvqcg0","pricing_plan_id":"cebpf4jnsgd1na2vs0mg"},{"bike_id":"6ca97dd6-b82f-4f77-a100-f9c2b826a00f","system_id":"levelo_inurba_marseille","lat":43.311125,"lon":5.377624,"is_reserved":false,"is_disabled":false,"rental_uris":{"android":"levelo://app?vid=6ca97dd6-b82f-4f77-a100-f9c2b826a00f","ios":"levelo://app?vid=6ca97dd6-b82f-4f77-a100-f9c2b826a00f"},"vehicle_type_id":"4","last_reported":1713197285,"current_range_meters":24400,"station_id":"ce4bgt92rcd13ifvqcg0","pricing_plan_id":"cebpf4jnsgd1na2vs0mg"},{"bike_id":"a88a978c-c203-4afe-9475-b0b50ba1c9cc","system_id":"levelo_inurba_marseille","lat":43.311131,"lon":5.377651,"is_reserved":false,"is_disabled":false,"rental_uris":{"android":"levelo://app?vid=a88a978c-c203-4afe-9475-b0b50ba1c9cc","ios":"levelo://app?vid=a88a978c-c203-4afe-9475-b0b50ba1c9cc"},"vehicle_type_id":"4","last_reported":1713197285,"current_range_meters":2800,"station_id":"ce4bgt92rcd13ifvqcg0","pricing_plan_id":"cebpf4jnsgd1na2vs0mg"},{"bike_id":"99b35410-71f0-4fc0-bc42-d47f1f7b49a4","system_id":"levelo_inurba_marseille","lat":43.305856,"lon":5.372489,"is_reserved":false,"is_disabled":false,"rental_uris":{"android":"levelo://app?vid=99b35410-71f0-4fc0-bc42-d47f1f7b49a4","ios":"levelo://app?vid=99b35410-71f0-4fc0-bc42-d47f1f7b49a4"},"vehicle_type_id":"4","last_reported":1713197285,"current_range_meters":1600,"station_id":"ce4bgqh2rcd13ifvqc4g","pricing_plan_id":"cebpf4jnsgd1na2vs0mg"},{"bike_id":"0635108c-ba61-4ae5-8120-d8e4f25e46e6","system_id":"levelo_inurba_marseille","lat":43.311125,"lon":5.377624,"is_reserved":false,"is_disabled":false,"rental_uris":{"android":"levelo://app?vid=0635108c-ba61-4ae5-8120-d8e4f25e46e6","ios":"levelo://app?vid=0635108c-ba61-4ae5-8120-d8e4f25e46e6"},"vehicle_type_id":"4","last_reported":1713197285,"current_range_meters":4400,"station_id":"ce4bgt92rcd13ifvqcg0","pricing_plan_id":"cebpf4jnsgd1na2vs0mg"},{"bike_id":"883d1b20-9004-408a-a2ed-8c758555ac1b","system_id":"levelo_inurba_marseille","lat":43.311125,"lon":5.377624,"is_reserved":false,"is_disabled":false,"rental_uris":{"android":"levelo://app?vid=883d1b20-9004-408a-a2ed-8c758555ac1b","ios":"levelo://app?vid=883d1b20-9004-408a-a2ed-8c758555ac1b"},"vehicle_type_id":"4","last_reported":1713197285,"current_range_meters":12000,"station_id":"ce4bgt92rcd13ifvqcg0","pricing_plan_id":"cebpf4jnsgd1na2vs0mg"},{"bike_id":"4e3ecd4f-9209-4789-9c2e-5d478815d4a4","system_id":"levelo_inurba_marseille","lat":43.311131,"lon":5.377651,"is_reserved":false,"is_disabled":false,"rental_uris":{"android":"levelo://app?vid=4e3ecd4f-9209-4789-9c2e-5d478815d4a4","ios":"levelo://app?vid=4e3ecd4f-9209-4789-9c2e-5d478815d4a4"},"vehicle_type_id":"4","last_reported":1713197285,"current_range_meters":18000,"station_id":"ce4bgt92rcd13ifvqcg0","pricing_plan_id":"cebpf4jnsgd1na2vs0mg"},{"bike_id":"ba35c0c4-adf1-466b-a6f3-d0186b3b1816","system_id":"levelo_inurba_marseille","lat":43.311125,"lon":5.377624,"is_reserved":false,"is_disabled":false,"rental_uris":{"android":"levelo://app?vid=ba35c0c4-adf1-466b-a6f3-d0186b3b1816","ios":"levelo://app?vid=ba35c0c4-adf1-466b-a6f3-d0186b3b1816"},"vehicle_type_id":"4","last_reported":1713197285,"current_range_meters":9200,"station_id":"ce4bgt92rcd13ifvqcg0","pricing_plan_id":"cebpf4jnsgd1na2vs0mg"},{"bike_id":"6ab2c25c-a1dd-4e2e-be15-61bd51dd5f09","system_id":"levelo_inurba_marseille","lat":43.340804,"lon":5.410219,"is_reserved":false,"is_disabled":false,"rental_uris":{"android":"levelo://app?vid=6ab2c25c-a1dd-4e2e-be15-61bd51dd5f09","ios":"levelo://app?vid=6ab2c25c-a1dd-4e2e-be15-61bd51dd5f09"},"vehicle_type_id":"4","last_reported":1713197285,"current_range_meters":20400,"station_id":"ce4bhqh2rcd13ifvqhlg","pricing_plan_id":"cebpf4jnsgd1na2vs0mg"},{"bike_id":"219f37d1-7abb-42f0-b4e0-03af6248d23d","system_id":"levelo_inurba_marseille","lat":43.307945,"lon":5.376487,"is_reserved":false,"is_disabled":false,"rental_uris":{"android":"levelo://app?vid=219f37d1-7abb-42f0-b4e0-03af6248d23d","ios":"levelo://app?vid=219f37d1-7abb-42f0-b4e0-03af6248d23d"},"vehicle_type_id":"4","last_reported":1713197285,"current_range_meters":26400,"station_id":"ce4bgv92rcd13ifvqcq0","pricing_plan_id":"cebpf4jnsgd1na2vs0mg"},{"bike_id":"3584fb14-fd26-4eaa-bd45-2b065bf0872d","system_id":"levelo_inurba_marseille","lat":43.307945,"lon":5.376487,"is_reserved":false,"is_disabled":false,"rental_uris":{"android":"levelo://app?vid=3584fb14-fd26-4eaa-bd45-2b065bf0872d","ios":"levelo://app?vid=3584fb14-fd26-4eaa-bd45-2b065bf0872d"},"vehicle_type_id":"4","last_reported":1713197285,"current_range_meters":29200,"station_id":"ce4bgv92rcd13ifvqcq0","pricing_plan_id":"cebpf4jnsgd1na2vs0mg"},{"bike_id":"34be15a2-7720-4b21-9fcc-19a2bd4e8dcf","system_id":"levelo_inurba_marseille","lat":43.307945,"lon":5.376487,"is_reserved":false,"is_disabled":false,"rental_uris":{"android":"levelo://app?vid=34be15a2-7720-4b21-9fcc-19a2bd4e8dcf","ios":"levelo://app?vid=34be15a2-7720-4b21-9fcc-19a2bd4e8dcf"},"vehicle_type_id":"4","last_reported":1713197285,"current_range_meters":12400,"station_id":"ce4bgv92rcd13ifvqcq0","pricing_plan_id":"cebpf4jnsgd1na2vs0mg"},{"bike_id":"d15726fb-70e2-47dd-a1ef-0dbf7f940749","system_id":"levelo_inurba_marseille","lat":43.317075,"lon":5.377367,"is_reserved":false,"is_disabled":false,"rental_uris":{"android":"levelo://app?vid=d15726fb-70e2-47dd-a1ef-0dbf7f940749","ios":"levelo://app?vid=d15726fb-70e2-47dd-a1ef-0dbf7f940749"},"vehicle_type_id":"4","last_reported":1713197285,"current_range_meters":11200,"station_id":"ce4bgth2rcd13ifvqch0","pricing_plan_id":"cebpf4jnsgd1na2vs0mg"},{"bike_id":"1204fdb3-44a3-454b-8231-81fda170ca08","system_id":"levelo_inurba_marseille","lat":43.311131,"lon":5.377651,"is_reserved":false,"is_disabled":false,"rental_uris":{"android":"levelo://app?vid=1204fdb3-44a3-454b-8231-81fda170ca08","ios":"levelo://app?vid=1204fdb3-44a3-454b-8231-81fda170ca08"},"vehicle_type_id":"4","last_reported":1713197285,"current_range_meters":6400,"station_id":"ce4bgt92rcd13ifvqcg0","pricing_plan_id":"cebpf4jnsgd1na2vs0mg"},{"bike_id":"b5bb3a04-66ff-4d18-999b-1d948cf03ef4","system_id":"levelo_inurba_marseille","lat":43.317075,"lon":5.377367,"is_reserved":false,"is_disabled":false,"rental_uris":{"android":"levelo://app?vid=b5bb3a04-66ff-4d18-999b-1d948cf03ef4","ios":"levelo://app?vid=b5bb3a04-66ff-4d18-999b-1d948cf03ef4"},"vehicle_type_id":"4","last_reported":1713197285,"current_range_meters":4400,"station_id":"ce4bgth2rcd13ifvqch0","pricing_plan_id":"cebpf4jnsgd1na2vs0mg"},{"bike_id":"01d8d732-b95a-4022-aa02-9beba29077b0","system_id":"levelo_inurba_marseille","lat":43.317075,"lon":5.377367,"is_reserved":false,"is_disabled":false,"rental_uris":{"android":"levelo://app?vid=01d8d732-b95a-4022-aa02-9beba29077b0","ios":"levelo://app?vid=01d8d732-b95a-4022-aa02-9beba29077b0"},"vehicle_type_id":"4","last_reported":1713197285,"current_range_meters":6800,"station_id":"ce4bgth2rcd13ifvqch0","pricing_plan_id":"cebpf4jnsgd1na2vs0mg"},{"bike_id":"ce55384d-ba2a-4edc-b131-05990d9b2533","system_id":"levelo_inurba_marseille","lat":43.311722,"lon":5.387247,"is_reserved":false,"is_disabled":false,"rental_uris":{"android":"levelo://app?vid=ce55384d-ba2a-4edc-b131-05990d9b2533","ios":"levelo://app?vid=ce55384d-ba2a-4edc-b131-05990d9b2533"},"vehicle_type_id":"4","last_reported":1713197285,"current_range_meters":2400,"station_id":"ce4bgv12rcd13ifvqcp0","pricing_plan_id":"cebpf4jnsgd1na2vs0mg"},{"bike_id":"07f5642e-373c-4100-b798-518ecf62e669","system_id":"levelo_inurba_marseille","lat":43.303046,"lon":5.368981,"is_reserved":false,"is_disabled":false,"rental_uris":{"android":"levelo://app?vid=07f5642e-373c-4100-b798-518ecf62e669","ios":"levelo://app?vid=07f5642e-373c-4100-b798-518ecf62e669"},"vehicle_type_id":"4","last_reported":1713197285,"current_range_meters":23600,"station_id":"ce4bgqh2rcd13ifvqc5g","pricing_plan_id":"cebpf4jnsgd1na2vs0mg"},{"bike_id":"44997e27-c165-41ba-841e-ed4bfc42d8a3","system_id":"levelo_inurba_marseille","lat":43.32478,"lon":5.36564,"is_reserved":false,"is_disabled":false,"rental_uris":{"android":"levelo://app?vid=44997e27-c165-41ba-841e-ed4bfc42d8a3","ios":"levelo://app?vid=44997e27-c165-41ba-841e-ed4bfc42d8a3"},"vehicle_type_id":"4","last_reported":1713197285,"current_range_meters":6800,"station_id":"","pricing_plan_id":"cebpf4jnsgd1na2vs0mg"},{"bike_id":"b1db6fd3-1258-4ecb-bda3-4e18887bce0b","system_id":"levelo_inurba_marseille","lat":43.324771,"lon":5.36557,"is_reserved":false,"is_disabled":false,"rental_uris":{"android":"levelo://app?vid=b1db6fd3-1258-4ecb-bda3-4e18887bce0b","ios":"levelo://app?vid=b1db6fd3-1258-4ecb-bda3-4e18887bce0b"},"vehicle_type_id":"4","last_reported":1713197285,"current_range_meters":0,"station_id":"ce4bhs12rcd13ifvqhvg","pricing_plan_id":"cebpf4jnsgd1na2vs0mg"},{"bike_id":"494b5a74-588a-4d6c-b48d-44ec893695a6","system_id":"levelo_inurba_marseille","lat":43.312239,"lon":5.368562,"is_reserved":false,"is_disabled":false,"rental_uris":{"android":"levelo://app?vid=494b5a74-588a-4d6c-b48d-44ec893695a6","ios":"levelo://app?vid=494b5a74-588a-4d6c-b48d-44ec893695a6"},"vehicle_type_id":"4","last_reported":1713197285,"current_range_meters":6000,"station_id":"ce4bgl92rcd13ifvqbq0","pricing_plan_id":"cebpf4jnsgd1na2vs0mg"},{"bike_id":"8aad7888-9b4d-4a75-be15-33a9a57f02d9","system_id":"levelo_inurba_marseille","lat":43.310804,"lon":5.38359,"is_reserved":false,"is_disabled":false,"rental_uris":{"android":"levelo://app?vid=8aad7888-9b4d-4a75-be15-33a9a57f02d9","ios":"levelo://app?vid=8aad7888-9b4d-4a75-be15-33a9a57f02d9"},"vehicle_type_id":"4","last_reported":1713197285,"current_range_meters":5200,"station_id":"ce4bgv92rcd13ifvqcr0","pricing_plan_id":"cebpf4jnsgd1na2vs0mg"},{"bike_id":"e77dd0a4-6236-4803-a583-fdc8152b5a4e","system_id":"levelo_inurba_marseille","lat":43.310804,"lon":5.38359,"is_reserved":false,"is_disabled":false,"rental_uris":{"android":"levelo://app?vid=e77dd0a4-6236-4803-a583-fdc8152b5a4e","ios":"levelo://app?vid=e77dd0a4-6236-4803-a583-fdc8152b5a4e"},"vehicle_type_id":"4","last_reported":1713197285,"current_range_meters":18000,"station_id":"ce4bgv92rcd13ifvqcr0","pricing_plan_id":"cebpf4jnsgd1na2vs0mg"},{"bike_id":"0d10eb1b-6f20-4fc9-891a-de16986f1a33","system_id":"levelo_inurba_marseille","lat":43.310804,"lon":5.38359,"is_reserved":false,"is_disabled":false,"rental_uris":{"android":"levelo://app?vid=0d10eb1b-6f20-4fc9-891a-de16986f1a33","ios":"levelo://app?vid=0d10eb1b-6f20-4fc9-891a-de16986f1a33"},"vehicle_type_id":"4","last_reported":1713197285,"current_range_meters":4400,"station_id":"ce4bgv92rcd13ifvqcr0","pricing_plan_id":"cebpf4jnsgd1na2vs0mg"},{"bike_id":"174ab57a-7673-41bd-af89-ae0ea6492bc4","system_id":"levelo_inurba_marseille","lat":43.310804,"lon":5.38359,"is_reserved":false,"is_disabled":false,"rental_uris":{"android":"levelo://app?vid=174ab57a-7673-41bd-af89-ae0ea6492bc4","ios":"levelo://app?vid=174ab57a-7673-41bd-af89-ae0ea6492bc4"},"vehicle_type_id":"4","last_reported":1713197285,"current_range_meters":800,"station_id":"ce4bgv92rcd13ifvqcr0","pricing_plan_id":"cebpf4jnsgd1na2vs0mg"},{"bike_id":"66f87670-68f8-4873-9e38-ad86d80c10c0","system_id":"levelo_inurba_marseille","lat":43.310804,"lon":5.38359,"is_reserved":false,"is_disabled":false,"rental_uris":{"android":"levelo://app?vid=66f87670-68f8-4873-9e38-ad86d80c10c0","ios":"levelo://app?vid=66f87670-68f8-4873-9e38-ad86d80c10c0"},"vehicle_type_id":"4","last_reported":1713197285,"current_range_meters":11600,"station_id":"ce4bgv92rcd13ifvqcr0","pricing_plan_id":"cebpf4jnsgd1na2vs0mg"},{"bike_id":"b23bc55b-9231-46ae-aa40-da758722debf","system_id":"levelo_inurba_marseille","lat":43.313571,"lon":5.384829,"is_reserved":false,"is_disabled":false,"rental_uris":{"android":"levelo://app?vid=b23bc55b-9231-46ae-aa40-da758722debf","ios":"levelo://app?vid=b23bc55b-9231-46ae-aa40-da758722debf"},"vehicle_type_id":"4","last_reported":1713197285,"current_range_meters":29600,"station_id":"ce4bgt92rcd13ifvqcf0","pricing_plan_id":"cebpf4jnsgd1na2vs0mg"},{"bike_id":"9ec4616c-37b8-40fb-bd58-07d1211193f0","system_id":"levelo_inurba_marseille","lat":43.314582,"lon":5.384216,"is_reserved":false,"is_disabled":false,"rental_uris":{"android":"levelo://app?vid=9ec4616c-37b8-40fb-bd58-07d1211193f0","ios":"levelo://app?vid=9ec4616c-37b8-40fb-bd58-07d1211193f0"},"vehicle_type_id":"4","last_reported":1713197285,"current_range_meters":0,"station_id":"","pricing_plan_id":"cebpf4jnsgd1na2vs0mg"},{"bike_id":"f69f2a7d-99d8-4836-8802-784c803e5afe","system_id":"levelo_inurba_marseille","lat":43.31998,"lon":5.38144,"is_reserved":false,"is_disabled":false,"rental_uris":{"android":"levelo://app?vid=f69f2a7d-99d8-4836-8802-784c803e5afe","ios":"levelo://app?vid=f69f2a7d-99d8-4836-8802-784c803e5afe"},"vehicle_type_id":"4","last_reported":1713197285,"current_range_meters":13200,"station_id":"ce4bhr12rcd13ifvqhpg","pricing_plan_id":"cebpf4jnsgd1na2vs0mg"},{"bike_id":"6419d330-6d47-4d68-a0f2-7a09e5a8bfc7","system_id":"levelo_inurba_marseille","lat":43.32003,"lon":5.38142,"is_reserved":false,"is_disabled":false,"rental_uris":{"android":"levelo://app?vid=6419d330-6d47-4d68-a0f2-7a09e5a8bfc7","ios":"levelo://app?vid=6419d330-6d47-4d68-a0f2-7a09e5a8bfc7"},"vehicle_type_id":"4","last_reported":1713197285,"current_range_meters":14400,"station_id":"ce4bhr12rcd13ifvqhpg","pricing_plan_id":"cebpf4jnsgd1na2vs0mg"},{"bike_id":"daa0325e-f213-47ea-b397-49e30d2b9c1d","system_id":"levelo_inurba_marseille","lat":43.31999,"lon":5.38154,"is_reserved":false,"is_disabled":false,"rental_uris":{"android":"levelo://app?vid=daa0325e-f213-47ea-b397-49e30d2b9c1d","ios":"levelo://app?vid=daa0325e-f213-47ea-b397-49e30d2b9c1d"},"vehicle_type_id":"4","last_reported":1713197285,"current_range_meters":0,"station_id":"ce4bhr12rcd13ifvqhpg","pricing_plan_id":"cebpf4jnsgd1na2vs0mg"},{"bike_id":"8fee2f22-7034-49ae-a66b-1f39b6c69af3","system_id":"levelo_inurba_marseille","lat":43.320029,"lon":5.381539,"is_reserved":false,"is_disabled":false,"rental_uris":{"android":"levelo://app?vid=8fee2f22-7034-49ae-a66b-1f39b6c69af3","ios":"levelo://app?vid=8fee2f22-7034-49ae-a66b-1f39b6c69af3"},"vehicle_type_id":"4","last_reported":1713197285,"current_range_meters":7200,"station_id":"ce4bhr12rcd13ifvqhpg","pricing_plan_id":"cebpf4jnsgd1na2vs0mg"},{"bike_id":"e1f1efaa-1ae8-444f-b52e-897bae8fc757","system_id":"levelo_inurba_marseille","lat":43.313628,"lon":5.384818,"is_reserved":false,"is_disabled":false,"rental_uris":{"android":"levelo://app?vid=e1f1efaa-1ae8-444f-b52e-897bae8fc757","ios":"levelo://app?vid=e1f1efaa-1ae8-444f-b52e-897bae8fc757"},"vehicle_type_id":"4","last_reported":1713197285,"current_range_meters":15200,"station_id":"ce4bgt92rcd13ifvqcf0","pricing_plan_id":"cebpf4jnsgd1na2vs0mg"},{"bike_id":"d454a361-5334-4b47-b65b-f3b59a2d2b2c","system_id":"levelo_inurba_marseille","lat":43.284219,"lon":5.3497,"is_reserved":false,"is_disabled":false,"rental_uris":{"android":"levelo://app?vid=d454a361-5334-4b47-b65b-f3b59a2d2b2c","ios":"levelo://app?vid=d454a361-5334-4b47-b65b-f3b59a2d2b2c"},"vehicle_type_id":"4","last_reported":1713197285,"current_range_meters":13600,"station_id":"ce4bhbh2rcd13ifvqepg","pricing_plan_id":"cebpf4jnsgd1na2vs0mg"},{"bike_id":"50cb6b4e-cd94-42db-aae1-4bd30b6ee9c8","system_id":"levelo_inurba_marseille","lat":43.31367,"lon":5.38487,"is_reserved":false,"is_disabled":false,"rental_uris":{"android":"levelo://app?vid=50cb6b4e-cd94-42db-aae1-4bd30b6ee9c8","ios":"levelo://app?vid=50cb6b4e-cd94-42db-aae1-4bd30b6ee9c8"},"vehicle_type_id":"4","last_reported":1713197285,"current_range_meters":15200,"station_id":"ce4bgt92rcd13ifvqcf0","pricing_plan_id":"cebpf4jnsgd1na2vs0mg"},{"bike_id":"2c331106-fa75-4bbb-8f11-f9bfdf01ad23","system_id":"levelo_inurba_marseille","lat":43.3137,"lon":5.38489,"is_reserved":false,"is_disabled":false,"rental_uris":{"android":"levelo://app?vid=2c331106-fa75-4bbb-8f11-f9bfdf01ad23","ios":"levelo://app?vid=2c331106-fa75-4bbb-8f11-f9bfdf01ad23"},"vehicle_type_id":"4","last_reported":1713197285,"current_range_meters":24000,"station_id":"ce4bgt92rcd13ifvqcf0","pricing_plan_id":"cebpf4jnsgd1na2vs0mg"},{"bike_id":"4faa42d4-c89f-4291-8f38-9378ebd97398","system_id":"levelo_inurba_marseille","lat":43.31377,"lon":5.3849,"is_reserved":false,"is_disabled":false,"rental_uris":{"android":"levelo://app?vid=4faa42d4-c89f-4291-8f38-9378ebd97398","ios":"levelo://app?vid=4faa42d4-c89f-4291-8f38-9378ebd97398"},"vehicle_type_id":"4","last_reported":1713197285,"current_range_meters":18000,"station_id":"ce4bgt92rcd13ifvqcf0","pricing_plan_id":"cebpf4jnsgd1na2vs0mg"},{"bike_id":"2437093b-8f4d-4bf4-bd72-345e33a0773b","system_id":"levelo_inurba_marseille","lat":43.31369,"lon":5.38493,"is_reserved":false,"is_disabled":false,"rental_uris":{"android":"levelo://app?vid=2437093b-8f4d-4bf4-bd72-345e33a0773b","ios":"levelo://app?vid=2437093b-8f4d-4bf4-bd72-345e33a0773b"},"vehicle_type_id":"4","last_reported":1713197285,"current_range_meters":14000,"station_id":"ce4bgt92rcd13ifvqcf0","pricing_plan_id":"cebpf4jnsgd1na2vs0mg"},{"bike_id":"56248aa7-746a-4024-a764-1425fa5aff30","system_id":"levelo_inurba_marseille","lat":43.31371,"lon":5.38494,"is_reserved":false,"is_disabled":false,"rental_uris":{"android":"levelo://app?vid=56248aa7-746a-4024-a764-1425fa5aff30","ios":"levelo://app?vid=56248aa7-746a-4024-a764-1425fa5aff30"},"vehicle_type_id":"4","last_reported":1713197285,"current_range_meters":1200,"station_id":"ce4bgt92rcd13ifvqcf0","pricing_plan_id":"cebpf4jnsgd1na2vs0mg"},{"bike_id":"8fbdf501-b7c0-4556-95fd-f207bd93c07f","system_id":"levelo_inurba_marseille","lat":43.31364,"lon":5.38496,"is_reserved":false,"is_disabled":false,"rental_uris":{"android":"levelo://app?vid=8fbdf501-b7c0-4556-95fd-f207bd93c07f","ios":"levelo://app?vid=8fbdf501-b7c0-4556-95fd-f207bd93c07f"},"vehicle_type_id":"4","last_reported":1713197285,"current_range_meters":10400,"station_id":"ce4bgt92rcd13ifvqcf0","pricing_plan_id":"cebpf4jnsgd1na2vs0mg"},{"bike_id":"54e9ec60-678d-410c-9b56-2fc6b28b566b","system_id":"levelo_inurba_marseille","lat":43.313571,"lon":5.384829,"is_reserved":false,"is_disabled":false,"rental_uris":{"android":"levelo://app?vid=54e9ec60-678d-410c-9b56-2fc6b28b566b","ios":"levelo://app?vid=54e9ec60-678d-410c-9b56-2fc6b28b566b"},"vehicle_type_id":"4","last_reported":1713197285,"current_range_meters":19600,"station_id":"ce4bgt92rcd13ifvqcf0","pricing_plan_id":"cebpf4jnsgd1na2vs0mg"},{"bike_id":"ad379142-8f6f-4259-9936-250eb7e0f902","system_id":"levelo_inurba_marseille","lat":43.29934,"lon":5.36551,"is_reserved":false,"is_disabled":false,"rental_uris":{"android":"levelo://app?vid=ad379142-8f6f-4259-9936-250eb7e0f902","ios":"levelo://app?vid=ad379142-8f6f-4259-9936-250eb7e0f902"},"vehicle_type_id":"4","last_reported":1713197285,"current_range_meters":0,"station_id":"ce4bgm92rcd13ifvqbr0","pricing_plan_id":"cebpf4jnsgd1na2vs0mg"},{"bike_id":"a9518349-8d14-4ebe-b19f-810ad17cfa58","system_id":"levelo_inurba_marseille","lat":43.299724,"lon":5.371829,"is_reserved":false,"is_disabled":false,"rental_uris":{"android":"levelo://app?vid=a9518349-8d14-4ebe-b19f-810ad17cfa58","ios":"levelo://app?vid=a9518349-8d14-4ebe-b19f-810ad17cfa58"},"vehicle_type_id":"4","last_reported":1713197285,"current_range_meters":1600,"station_id":"ce4bgr92rcd13ifvqc7g","pricing_plan_id":"cebpf4jnsgd1na2vs0mg"},{"bike_id":"93943f9e-b784-45ac-b311-1bf174963530","system_id":"levelo_inurba_marseille","lat":43.298433,"lon":5.362774,"is_reserved":false,"is_disabled":false,"rental_uris":{"android":"levelo://app?vid=93943f9e-b784-45ac-b311-1bf174963530","ios":"levelo://app?vid=93943f9e-b784-45ac-b311-1bf174963530"},"vehicle_type_id":"4","last_reported":1713197285,"current_range_meters":21600,"station_id":"ce4bgpp2rcd13ifvqc3g","pricing_plan_id":"cebpf4jnsgd1na2vs0mg"},{"bike_id":"7e2a82ac-f331-468c-a6b1-648a27dfcf71","system_id":"levelo_inurba_marseille","lat":43.286961,"lon":5.373785,"is_reserved":false,"is_disabled":false,"rental_uris":{"android":"levelo://app?vid=7e2a82ac-f331-468c-a6b1-648a27dfcf71","ios":"levelo://app?vid=7e2a82ac-f331-468c-a6b1-648a27dfcf71"},"vehicle_type_id":"4","last_reported":1713197285,"current_range_meters":20400,"station_id":"ce4bh3p2rcd13ifvqdq0","pricing_plan_id":"cebpf4jnsgd1na2vs0mg"},{"bike_id":"14d09183-f5ae-4c9b-9ddc-6875629c8b5a","system_id":"levelo_inurba_marseille","lat":43.299243,"lon":5.374807,"is_reserved":false,"is_disabled":false,"rental_uris":{"android":"levelo://app?vid=14d09183-f5ae-4c9b-9ddc-6875629c8b5a","ios":"levelo://app?vid=14d09183-f5ae-4c9b-9ddc-6875629c8b5a"},"vehicle_type_id":"4","last_reported":1713197285,"current_range_meters":400,"station_id":"ce4bgjh2rcd13ifvqbg0","pricing_plan_id":"cebpf4jnsgd1na2vs0mg"},{"bike_id":"53f89c44-8ae9-49c2-ad62-32e34df245f6","system_id":"levelo_inurba_marseille","lat":43.311722,"lon":5.387247,"is_reserved":false,"is_disabled":false,"rental_uris":{"android":"levelo://app?vid=53f89c44-8ae9-49c2-ad62-32e34df245f6","ios":"levelo://app?vid=53f89c44-8ae9-49c2-ad62-32e34df245f6"},"vehicle_type_id":"4","last_reported":1713197285,"current_range_meters":0,"station_id":"ce4bgv12rcd13ifvqcp0","pricing_plan_id":"cebpf4jnsgd1na2vs0mg"},{"bike_id":"4a9a818c-4cf9-4fc9-91b9-b029b1f03e81","system_id":"levelo_inurba_marseille","lat":43.311722,"lon":5.387247,"is_reserved":false,"is_disabled":false,"rental_uris":{"android":"levelo://app?vid=4a9a818c-4cf9-4fc9-91b9-b029b1f03e81","ios":"levelo://app?vid=4a9a818c-4cf9-4fc9-91b9-b029b1f03e81"},"vehicle_type_id":"4","last_reported":1713197285,"current_range_meters":20000,"station_id":"ce4bgv12rcd13ifvqcp0","pricing_plan_id":"cebpf4jnsgd1na2vs0mg"},{"bike_id":"6196240f-6309-4bcf-b00c-811ddaf09fe2","system_id":"levelo_inurba_marseille","lat":43.311722,"lon":5.387247,"is_reserved":false,"is_disabled":false,"rental_uris":{"android":"levelo://app?vid=6196240f-6309-4bcf-b00c-811ddaf09fe2","ios":"levelo://app?vid=6196240f-6309-4bcf-b00c-811ddaf09fe2"},"vehicle_type_id":"4","last_reported":1713197285,"current_range_meters":18000,"station_id":"ce4bgv12rcd13ifvqcp0","pricing_plan_id":"cebpf4jnsgd1na2vs0mg"},{"bike_id":"26d1a564-a37c-4d48-95bb-01e051329819","system_id":"levelo_inurba_marseille","lat":43.311823,"lon":5.387183,"is_reserved":false,"is_disabled":false,"rental_uris":{"android":"levelo://app?vid=26d1a564-a37c-4d48-95bb-01e051329819","ios":"levelo://app?vid=26d1a564-a37c-4d48-95bb-01e051329819"},"vehicle_type_id":"4","last_reported":1713197285,"current_range_meters":0,"station_id":"ce4bgv12rcd13ifvqcp0","pricing_plan_id":"cebpf4jnsgd1na2vs0mg"},{"bike_id":"67a165fc-7bbe-4134-bd97-e2d45ebc0413","system_id":"levelo_inurba_marseille","lat":43.297687,"lon":5.37099,"is_reserved":false,"is_disabled":false,"rental_uris":{"android":"levelo://app?vid=67a165fc-7bbe-4134-bd97-e2d45ebc0413","ios":"levelo://app?vid=67a165fc-7bbe-4134-bd97-e2d45ebc0413"},"vehicle_type_id":"4","last_reported":1713197285,"current_range_meters":0,"station_id":"ce4bgop2rcd13ifvqc1g","pricing_plan_id":"cebpf4jnsgd1na2vs0mg"},{"bike_id":"68b35661-da20-4750-9fab-577b9b88ff1d","system_id":"levelo_inurba_marseille","lat":43.297163,"lon":5.365866,"is_reserved":false,"is_disabled":false,"rental_uris":{"android":"levelo://app?vid=68b35661-da20-4750-9fab-577b9b88ff1d","ios":"levelo://app?vid=68b35661-da20-4750-9fab-577b9b88ff1d"},"vehicle_type_id":"4","last_reported":1713197285,"current_range_meters":26800,"station_id":"ce4bgn12rcd13ifvqbt0","pricing_plan_id":"cebpf4jnsgd1na2vs0mg"},{"bike_id":"0b764ea4-a576-4a66-b1be-64c5b07fb854","system_id":"levelo_inurba_marseille","lat":43.309039,"lon":5.371797,"is_reserved":false,"is_disabled":false,"rental_uris":{"android":"levelo://app?vid=0b764ea4-a576-4a66-b1be-64c5b07fb854","ios":"levelo://app?vid=0b764ea4-a576-4a66-b1be-64c5b07fb854"},"vehicle_type_id":"4","last_reported":1713197285,"current_range_meters":0,"station_id":"ce4bguh2rcd13ifvqckg","pricing_plan_id":"cebpf4jnsgd1na2vs0mg"},{"bike_id":"42db2559-be21-42c9-b6d3-d284c8a6fa7e","system_id":"levelo_inurba_marseille","lat":43.29626,"lon":5.37152,"is_reserved":false,"is_disabled":false,"rental_uris":{"android":"levelo://app?vid=42db2559-be21-42c9-b6d3-d284c8a6fa7e","ios":"levelo://app?vid=42db2559-be21-42c9-b6d3-d284c8a6fa7e"},"vehicle_type_id":"4","last_reported":1713197285,"current_range_meters":0,"station_id":"ce4bgnh2rcd13ifvqc0g","pricing_plan_id":"cebpf4jnsgd1na2vs0mg"},{"bike_id":"784159f4-a2db-4055-9409-4aab28faf886","system_id":"levelo_inurba_marseille","lat":43.29573,"lon":5.367355,"is_reserved":false,"is_disabled":false,"rental_uris":{"android":"levelo://app?vid=784159f4-a2db-4055-9409-4aab28faf886","ios":"levelo://app?vid=784159f4-a2db-4055-9409-4aab28faf886"},"vehicle_type_id":"4","last_reported":1713197285,"current_range_meters":0,"station_id":"ce4bgph2rcd13ifvqc2g","pricing_plan_id":"cebpf4jnsgd1na2vs0mg"},{"bike_id":"ebcf41cb-5816-4fce-8b37-8339f1c4b10f","system_id":"levelo_inurba_marseille","lat":43.29573,"lon":5.367355,"is_reserved":false,"is_disabled":false,"rental_uris":{"android":"levelo://app?vid=ebcf41cb-5816-4fce-8b37-8339f1c4b10f","ios":"levelo://app?vid=ebcf41cb-5816-4fce-8b37-8339f1c4b10f"},"vehicle_type_id":"4","last_reported":1713197285,"current_range_meters":12400,"station_id":"ce4bgph2rcd13ifvqc2g","pricing_plan_id":"cebpf4jnsgd1na2vs0mg"},{"bike_id":"672604c4-3bda-4a75-b602-c5636068755b","system_id":"levelo_inurba_marseille","lat":43.29573,"lon":5.367355,"is_reserved":false,"is_disabled":false,"rental_uris":{"android":"levelo://app?vid=672604c4-3bda-4a75-b602-c5636068755b","ios":"levelo://app?vid=672604c4-3bda-4a75-b602-c5636068755b"},"vehicle_type_id":"4","last_reported":1713197285,"current_range_meters":10400,"station_id":"ce4bgph2rcd13ifvqc2g","pricing_plan_id":"cebpf4jnsgd1na2vs0mg"},{"bike_id":"86a342f4-1e52-4987-9bb6-173bdecbd09f","system_id":"levelo_inurba_marseille","lat":43.29573,"lon":5.367355,"is_reserved":false,"is_disabled":false,"rental_uris":{"android":"levelo://app?vid=86a342f4-1e52-4987-9bb6-173bdecbd09f","ios":"levelo://app?vid=86a342f4-1e52-4987-9bb6-173bdecbd09f"},"vehicle_type_id":"4","last_reported":1713197285,"current_range_meters":0,"station_id":"ce4bgph2rcd13ifvqc2g","pricing_plan_id":"cebpf4jnsgd1na2vs0mg"},{"bike_id":"2f1debde-902e-4ec2-b6fe-3d50aac9f600","system_id":"levelo_inurba_marseille","lat":43.29573,"lon":5.367355,"is_reserved":false,"is_disabled":false,"rental_uris":{"android":"levelo://app?vid=2f1debde-902e-4ec2-b6fe-3d50aac9f600","ios":"levelo://app?vid=2f1debde-902e-4ec2-b6fe-3d50aac9f600"},"vehicle_type_id":"4","last_reported":1713197285,"current_range_meters":19600,"station_id":"ce4bgph2rcd13ifvqc2g","pricing_plan_id":"cebpf4jnsgd1na2vs0mg"},{"bike_id":"e8f2969e-1597-458b-a5cf-7457ee1f4dd0","system_id":"levelo_inurba_marseille","lat":43.31645,"lon":5.38976,"is_reserved":false,"is_disabled":false,"rental_uris":{"android":"levelo://app?vid=e8f2969e-1597-458b-a5cf-7457ee1f4dd0","ios":"levelo://app?vid=e8f2969e-1597-458b-a5cf-7457ee1f4dd0"},"vehicle_type_id":"4","last_reported":1713197285,"current_range_meters":0,"station_id":"","pricing_plan_id":"cebpf4jnsgd1na2vs0mg"},{"bike_id":"6e5356a1-b460-47a7-b59b-7e99a8e26eae","system_id":"levelo_inurba_marseille","lat":43.296921,"lon":5.376579,"is_reserved":false,"is_disabled":false,"rental_uris":{"android":"levelo://app?vid=6e5356a1-b460-47a7-b59b-7e99a8e26eae","ios":"levelo://app?vid=6e5356a1-b460-47a7-b59b-7e99a8e26eae"},"vehicle_type_id":"4","last_reported":1713197285,"current_range_meters":18800,"station_id":"ce4bgkh2rcd13ifvqbl0","pricing_plan_id":"cebpf4jnsgd1na2vs0mg"},{"bike_id":"b938c169-e679-4052-8586-f82fd4456b5e","system_id":"levelo_inurba_marseille","lat":43.296935,"lon":5.376544,"is_reserved":false,"is_disabled":false,"rental_uris":{"android":"levelo://app?vid=b938c169-e679-4052-8586-f82fd4456b5e","ios":"levelo://app?vid=b938c169-e679-4052-8586-f82fd4456b5e"},"vehicle_type_id":"4","last_reported":1713197285,"current_range_meters":0,"station_id":"ce4bgkh2rcd13ifvqbl0","pricing_plan_id":"cebpf4jnsgd1na2vs0mg"},{"bike_id":"d8676c2c-c498-4956-84b9-f8a43185b31d","system_id":"levelo_inurba_marseille","lat":43.299028,"lon":5.381509,"is_reserved":false,"is_disabled":false,"rental_uris":{"android":"levelo://app?vid=d8676c2c-c498-4956-84b9-f8a43185b31d","ios":"levelo://app?vid=d8676c2c-c498-4956-84b9-f8a43185b31d"},"vehicle_type_id":"4","last_reported":1713197285,"current_range_meters":15600,"station_id":"ce4bgj12rcd13ifvqbc0","pricing_plan_id":"cebpf4jnsgd1na2vs0mg"},{"bike_id":"afe5580d-1387-473d-87f8-3d27bf643232","system_id":"levelo_inurba_marseille","lat":43.29706,"lon":5.37685,"is_reserved":false,"is_disabled":false,"rental_uris":{"android":"levelo://app?vid=afe5580d-1387-473d-87f8-3d27bf643232","ios":"levelo://app?vid=afe5580d-1387-473d-87f8-3d27bf643232"},"vehicle_type_id":"4","last_reported":1713197285,"current_range_meters":2000,"station_id":"ce4bgt92rcd13ifvqcf0","pricing_plan_id":"cebpf4jnsgd1na2vs0mg"},{"bike_id":"0de838ac-5717-461f-a12e-4fb1f7a3fab5","system_id":"levelo_inurba_marseille","lat":43.298764,"lon":5.388973,"is_reserved":false,"is_disabled":false,"rental_uris":{"android":"levelo://app?vid=0de838ac-5717-461f-a12e-4fb1f7a3fab5","ios":"levelo://app?vid=0de838ac-5717-461f-a12e-4fb1f7a3fab5"},"vehicle_type_id":"4","last_reported":1713197285,"current_range_meters":23200,"station_id":"ce4bh392rcd13ifvqdl0","pricing_plan_id":"cebpf4jnsgd1na2vs0mg"},{"bike_id":"7e870ccd-29a5-4842-9cb8-5e86d41c02e3","system_id":"levelo_inurba_marseille","lat":43.30956,"lon":5.39031,"is_reserved":false,"is_disabled":false,"rental_uris":{"android":"levelo://app?vid=7e870ccd-29a5-4842-9cb8-5e86d41c02e3","ios":"levelo://app?vid=7e870ccd-29a5-4842-9cb8-5e86d41c02e3"},"vehicle_type_id":"4","last_reported":1713197285,"current_range_meters":0,"station_id":"ce4bgup2rcd13ifvqco0","pricing_plan_id":"cebpf4jnsgd1na2vs0mg"},{"bike_id":"996cab29-b3fd-4a41-836b-867a06056f06","system_id":"levelo_inurba_marseille","lat":43.312609,"lon":5.401662,"is_reserved":false,"is_disabled":false,"rental_uris":{"android":"levelo://app?vid=996cab29-b3fd-4a41-836b-867a06056f06","ios":"levelo://app?vid=996cab29-b3fd-4a41-836b-867a06056f06"},"vehicle_type_id":"4","last_reported":1713197285,"current_range_meters":0,"station_id":"ce4bh092rcd13ifvqd30","pricing_plan_id":"cebpf4jnsgd1na2vs0mg"},{"bike_id":"fa384617-2fe2-4e2f-b891-1261ce974011","system_id":"levelo_inurba_marseille","lat":43.31752,"lon":5.390167,"is_reserved":false,"is_disabled":false,"rental_uris":{"android":"levelo://app?vid=fa384617-2fe2-4e2f-b891-1261ce974011","ios":"levelo://app?vid=fa384617-2fe2-4e2f-b891-1261ce974011"},"vehicle_type_id":"4","last_reported":1713197285,"current_range_meters":0,"station_id":"ce4bhqp2rcd13ifvqhng","pricing_plan_id":"cebpf4jnsgd1na2vs0mg"},{"bike_id":"e58410ab-e309-47dd-a791-b35f6deaef8e","system_id":"levelo_inurba_marseille","lat":43.317664,"lon":5.390152,"is_reserved":false,"is_disabled":false,"rental_uris":{"android":"levelo://app?vid=e58410ab-e309-47dd-a791-b35f6deaef8e","ios":"levelo://app?vid=e58410ab-e309-47dd-a791-b35f6deaef8e"},"vehicle_type_id":"4","last_reported":1713197285,"current_range_meters":31200,"station_id":"ce4bhqp2rcd13ifvqhng","pricing_plan_id":"cebpf4jnsgd1na2vs0mg"},{"bike_id":"66426af7-2e57-4b92-bacc-bc61e2fcb7ce","system_id":"levelo_inurba_marseille","lat":43.304274,"lon":5.388873,"is_reserved":false,"is_disabled":false,"rental_uris":{"android":"levelo://app?vid=66426af7-2e57-4b92-bacc-bc61e2fcb7ce","ios":"levelo://app?vid=66426af7-2e57-4b92-bacc-bc61e2fcb7ce"},"vehicle_type_id":"4","last_reported":1713197285,"current_range_meters":7200,"station_id":"ce4bgk12rcd13ifvqbi0","pricing_plan_id":"cebpf4jnsgd1na2vs0mg"},{"bike_id":"51432a69-2ea9-4f5f-8595-3a9afb09355a","system_id":"levelo_inurba_marseille","lat":43.298037,"lon":5.381066,"is_reserved":false,"is_disabled":false,"rental_uris":{"android":"levelo://app?vid=51432a69-2ea9-4f5f-8595-3a9afb09355a","ios":"levelo://app?vid=51432a69-2ea9-4f5f-8595-3a9afb09355a"},"vehicle_type_id":"4","last_reported":1713197285,"current_range_meters":2800,"station_id":"ce4bgip2rcd13ifvqbb0","pricing_plan_id":"cebpf4jnsgd1na2vs0mg"},{"bike_id":"a15f4eee-e716-4d67-b046-3fee7406e1e8","system_id":"levelo_inurba_marseille","lat":43.298037,"lon":5.381066,"is_reserved":false,"is_disabled":false,"rental_uris":{"android":"levelo://app?vid=a15f4eee-e716-4d67-b046-3fee7406e1e8","ios":"levelo://app?vid=a15f4eee-e716-4d67-b046-3fee7406e1e8"},"vehicle_type_id":"4","last_reported":1713197285,"current_range_meters":26000,"station_id":"ce4bgip2rcd13ifvqbb0","pricing_plan_id":"cebpf4jnsgd1na2vs0mg"},{"bike_id":"02f06d4d-faa9-4254-9504-73e69bf96de1","system_id":"levelo_inurba_marseille","lat":43.304278,"lon":5.388868,"is_reserved":false,"is_disabled":false,"rental_uris":{"android":"levelo://app?vid=02f06d4d-faa9-4254-9504-73e69bf96de1","ios":"levelo://app?vid=02f06d4d-faa9-4254-9504-73e69bf96de1"},"vehicle_type_id":"4","last_reported":1713197285,"current_range_meters":18800,"station_id":"ce4bgk12rcd13ifvqbi0","pricing_plan_id":"cebpf4jnsgd1na2vs0mg"},{"bike_id":"97c251ab-0eec-4c26-9a0f-83121ce3c066","system_id":"levelo_inurba_marseille","lat":43.30422,"lon":5.38885,"is_reserved":false,"is_disabled":false,"rental_uris":{"android":"levelo://app?vid=97c251ab-0eec-4c26-9a0f-83121ce3c066","ios":"levelo://app?vid=97c251ab-0eec-4c26-9a0f-83121ce3c066"},"vehicle_type_id":"4","last_reported":1713197285,"current_range_meters":0,"station_id":"ce4bgk12rcd13ifvqbi0","pricing_plan_id":"cebpf4jnsgd1na2vs0mg"},{"bike_id":"6ea6d970-e99f-49bd-871a-a2b308aa978c","system_id":"levelo_inurba_marseille","lat":43.296263,"lon":5.377094,"is_reserved":false,"is_disabled":false,"rental_uris":{"android":"levelo://app?vid=6ea6d970-e99f-49bd-871a-a2b308aa978c","ios":"levelo://app?vid=6ea6d970-e99f-49bd-871a-a2b308aa978c"},"vehicle_type_id":"4","last_reported":1713197285,"current_range_meters":19600,"station_id":"ce4bgi92rcd13ifvqb90","pricing_plan_id":"cebpf4jnsgd1na2vs0mg"},{"bike_id":"367ceaf0-963d-498d-8bc2-bf8e58ec5b6e","system_id":"levelo_inurba_marseille","lat":43.297163,"lon":5.365866,"is_reserved":false,"is_disabled":false,"rental_uris":{"android":"levelo://app?vid=367ceaf0-963d-498d-8bc2-bf8e58ec5b6e","ios":"levelo://app?vid=367ceaf0-963d-498d-8bc2-bf8e58ec5b6e"},"vehicle_type_id":"4","last_reported":1713197285,"current_range_meters":19200,"station_id":"ce4bgn12rcd13ifvqbt0","pricing_plan_id":"cebpf4jnsgd1na2vs0mg"},{"bike_id":"8cd28dee-8017-4a21-87c5-599c775c0a54","system_id":"levelo_inurba_marseille","lat":43.29781,"lon":5.38109,"is_reserved":false,"is_disabled":false,"rental_uris":{"android":"levelo://app?vid=8cd28dee-8017-4a21-87c5-599c775c0a54","ios":"levelo://app?vid=8cd28dee-8017-4a21-87c5-599c775c0a54"},"vehicle_type_id":"4","last_reported":1713197285,"current_range_meters":0,"station_id":"ce4bgip2rcd13ifvqbb0","pricing_plan_id":"cebpf4jnsgd1na2vs0mg"},{"bike_id":"2f3a9d66-5d4b-40d5-b14e-642ffb163c46","system_id":"levelo_inurba_marseille","lat":43.304278,"lon":5.388868,"is_reserved":false,"is_disabled":false,"rental_uris":{"android":"levelo://app?vid=2f3a9d66-5d4b-40d5-b14e-642ffb163c46","ios":"levelo://app?vid=2f3a9d66-5d4b-40d5-b14e-642ffb163c46"},"vehicle_type_id":"4","last_reported":1713197285,"current_range_meters":4400,"station_id":"ce4bgk12rcd13ifvqbi0","pricing_plan_id":"cebpf4jnsgd1na2vs0mg"},{"bike_id":"38e1737c-d702-4402-be5e-761c31c3d07b","system_id":"levelo_inurba_marseille","lat":43.295748,"lon":5.37522,"is_reserved":false,"is_disabled":false,"rental_uris":{"android":"levelo://app?vid=38e1737c-d702-4402-be5e-761c31c3d07b","ios":"levelo://app?vid=38e1737c-d702-4402-be5e-761c31c3d07b"},"vehicle_type_id":"4","last_reported":1713197285,"current_range_meters":0,"station_id":"ce4bgh92rcd13ifvqb50","pricing_plan_id":"cebpf4jnsgd1na2vs0mg"},{"bike_id":"ed421b06-6a89-4986-971a-ff8776e8bd4c","system_id":"levelo_inurba_marseille","lat":43.284214,"lon":5.349706,"is_reserved":false,"is_disabled":false,"rental_uris":{"android":"levelo://app?vid=ed421b06-6a89-4986-971a-ff8776e8bd4c","ios":"levelo://app?vid=ed421b06-6a89-4986-971a-ff8776e8bd4c"},"vehicle_type_id":"4","last_reported":1713197285,"current_range_meters":2000,"station_id":"ce4bhbh2rcd13ifvqepg","pricing_plan_id":"cebpf4jnsgd1na2vs0mg"},{"bike_id":"3a32f870-73da-4f17-9633-a703a8bdf228","system_id":"levelo_inurba_marseille","lat":43.295279,"lon":5.375048,"is_reserved":false,"is_disabled":false,"rental_uris":{"android":"levelo://app?vid=3a32f870-73da-4f17-9633-a703a8bdf228","ios":"levelo://app?vid=3a32f870-73da-4f17-9633-a703a8bdf228"},"vehicle_type_id":"4","last_reported":1713197285,"current_range_meters":12400,"station_id":"ce4bgkp2rcd13ifvqbmg","pricing_plan_id":"cebpf4jnsgd1na2vs0mg"},{"bike_id":"58096138-81ed-4444-9095-1aafb6a5a1c7","system_id":"levelo_inurba_marseille","lat":43.295279,"lon":5.375048,"is_reserved":false,"is_disabled":false,"rental_uris":{"android":"levelo://app?vid=58096138-81ed-4444-9095-1aafb6a5a1c7","ios":"levelo://app?vid=58096138-81ed-4444-9095-1aafb6a5a1c7"},"vehicle_type_id":"4","last_reported":1713197285,"current_range_meters":0,"station_id":"ce4bgkp2rcd13ifvqbmg","pricing_plan_id":"cebpf4jnsgd1na2vs0mg"},{"bike_id":"c9c054eb-af10-4bea-9055-8d454c11fa9e","system_id":"levelo_inurba_marseille","lat":43.299707,"lon":5.384859,"is_reserved":false,"is_disabled":false,"rental_uris":{"android":"levelo://app?vid=c9c054eb-af10-4bea-9055-8d454c11fa9e","ios":"levelo://app?vid=c9c054eb-af10-4bea-9055-8d454c11fa9e"},"vehicle_type_id":"4","last_reported":1713197285,"current_range_meters":14400,"station_id":"ce4bgj92rcd13ifvqbd0","pricing_plan_id":"cebpf4jnsgd1na2vs0mg"},{"bike_id":"0c0d4426-9256-4e86-9216-fa32a7215d51","system_id":"levelo_inurba_marseille","lat":43.29972,"lon":5.38489,"is_reserved":false,"is_disabled":false,"rental_uris":{"android":"levelo://app?vid=0c0d4426-9256-4e86-9216-fa32a7215d51","ios":"levelo://app?vid=0c0d4426-9256-4e86-9216-fa32a7215d51"},"vehicle_type_id":"4","last_reported":1713197285,"current_range_meters":0,"station_id":"ce4bgj92rcd13ifvqbd0","pricing_plan_id":"cebpf4jnsgd1na2vs0mg"},{"bike_id":"a637fe97-e876-40d0-9e22-ec90dd1db7dc","system_id":"levelo_inurba_marseille","lat":43.299717,"lon":5.384845,"is_reserved":false,"is_disabled":false,"rental_uris":{"android":"levelo://app?vid=a637fe97-e876-40d0-9e22-ec90dd1db7dc","ios":"levelo://app?vid=a637fe97-e876-40d0-9e22-ec90dd1db7dc"},"vehicle_type_id":"4","last_reported":1713197285,"current_range_meters":12000,"station_id":"ce4bgj92rcd13ifvqbd0","pricing_plan_id":"cebpf4jnsgd1na2vs0mg"},{"bike_id":"7f86739a-23a7-4bc9-ba49-30772a59992c","system_id":"levelo_inurba_marseille","lat":43.299724,"lon":5.384848,"is_reserved":false,"is_disabled":false,"rental_uris":{"android":"levelo://app?vid=7f86739a-23a7-4bc9-ba49-30772a59992c","ios":"levelo://app?vid=7f86739a-23a7-4bc9-ba49-30772a59992c"},"vehicle_type_id":"4","last_reported":1713197285,"current_range_meters":2800,"station_id":"ce4bgj92rcd13ifvqbd0","pricing_plan_id":"cebpf4jnsgd1na2vs0mg"},{"bike_id":"56790f55-01c5-475c-ab4b-8322e8eb6360","system_id":"levelo_inurba_marseille","lat":43.299717,"lon":5.384845,"is_reserved":false,"is_disabled":false,"rental_uris":{"android":"levelo://app?vid=56790f55-01c5-475c-ab4b-8322e8eb6360","ios":"levelo://app?vid=56790f55-01c5-475c-ab4b-8322e8eb6360"},"vehicle_type_id":"4","last_reported":1713197285,"current_range_meters":6000,"station_id":"ce4bgj92rcd13ifvqbd0","pricing_plan_id":"cebpf4jnsgd1na2vs0mg"},{"bike_id":"9d35ba79-8372-4047-af0c-9014d452d0ec","system_id":"levelo_inurba_marseille","lat":43.299724,"lon":5.384848,"is_reserved":false,"is_disabled":false,"rental_uris":{"android":"levelo://app?vid=9d35ba79-8372-4047-af0c-9014d452d0ec","ios":"levelo://app?vid=9d35ba79-8372-4047-af0c-9014d452d0ec"},"vehicle_type_id":"4","last_reported":1713197285,"current_range_meters":17600,"station_id":"ce4bgj92rcd13ifvqbd0","pricing_plan_id":"cebpf4jnsgd1na2vs0mg"},{"bike_id":"cc56c29e-a898-495c-b1eb-c00602583e1c","system_id":"levelo_inurba_marseille","lat":43.32367,"lon":5.38884,"is_reserved":false,"is_disabled":false,"rental_uris":{"android":"levelo://app?vid=cc56c29e-a898-495c-b1eb-c00602583e1c","ios":"levelo://app?vid=cc56c29e-a898-495c-b1eb-c00602583e1c"},"vehicle_type_id":"4","last_reported":1713197285,"current_range_meters":0,"station_id":"ce4bhqp2rcd13ifvqhog","pricing_plan_id":"cebpf4jnsgd1na2vs0mg"},{"bike_id":"94f3bd01-e9cf-4fe5-b42f-67e0049e19e4","system_id":"levelo_inurba_marseille","lat":43.26949,"lon":5.40262,"is_reserved":false,"is_disabled":false,"rental_uris":{"android":"levelo://app?vid=94f3bd01-e9cf-4fe5-b42f-67e0049e19e4","ios":"levelo://app?vid=94f3bd01-e9cf-4fe5-b42f-67e0049e19e4"},"vehicle_type_id":"4","last_reported":1713197285,"current_range_meters":18000,"station_id":"cjm6bp8fraef2m0cb0m0","pricing_plan_id":"cebpf4jnsgd1na2vs0mg"},{"bike_id":"698412aa-10fe-4319-a8f3-4d4611862ba7","system_id":"levelo_inurba_marseille","lat":43.305989,"lon":5.37225,"is_reserved":false,"is_disabled":false,"rental_uris":{"android":"levelo://app?vid=698412aa-10fe-4319-a8f3-4d4611862ba7","ios":"levelo://app?vid=698412aa-10fe-4319-a8f3-4d4611862ba7"},"vehicle_type_id":"4","last_reported":1713197285,"current_range_meters":18800,"station_id":"ce4bgqh2rcd13ifvqc4g","pricing_plan_id":"cebpf4jnsgd1na2vs0mg"},{"bike_id":"5fa5b53c-ebb4-4a29-bd17-5eb7cfba3204","system_id":"levelo_inurba_marseille","lat":43.304096,"lon":5.425385,"is_reserved":false,"is_disabled":false,"rental_uris":{"android":"levelo://app?vid=5fa5b53c-ebb4-4a29-bd17-5eb7cfba3204","ios":"levelo://app?vid=5fa5b53c-ebb4-4a29-bd17-5eb7cfba3204"},"vehicle_type_id":"4","last_reported":1713197285,"current_range_meters":9200,"station_id":"ce4bhoh2rcd13ifvqh6g","pricing_plan_id":"cebpf4jnsgd1na2vs0mg"},{"bike_id":"7a8e3cb3-825c-45d3-8275-5140841e3e62","system_id":"levelo_inurba_marseille","lat":43.293259,"lon":5.371586,"is_reserved":false,"is_disabled":false,"rental_uris":{"android":"levelo://app?vid=7a8e3cb3-825c-45d3-8275-5140841e3e62","ios":"levelo://app?vid=7a8e3cb3-825c-45d3-8275-5140841e3e62"},"vehicle_type_id":"4","last_reported":1713197285,"current_range_meters":15600,"station_id":"ce4bgh92rcd13ifvqb40","pricing_plan_id":"cebpf4jnsgd1na2vs0mg"},{"bike_id":"2b63900e-7218-4618-8752-dd8f22fa526c","system_id":"levelo_inurba_marseille","lat":43.292749,"lon":5.368402,"is_reserved":false,"is_disabled":false,"rental_uris":{"android":"levelo://app?vid=2b63900e-7218-4618-8752-dd8f22fa526c","ios":"levelo://app?vid=2b63900e-7218-4618-8752-dd8f22fa526c"},"vehicle_type_id":"4","last_reported":1713197285,"current_range_meters":7600,"station_id":"ce4bhbp2rcd13ifvqesg","pricing_plan_id":"cebpf4jnsgd1na2vs0mg"},{"bike_id":"15d3ebd5-554a-40ee-8ce7-428ac7e90e86","system_id":"levelo_inurba_marseille","lat":43.292749,"lon":5.368402,"is_reserved":false,"is_disabled":false,"rental_uris":{"android":"levelo://app?vid=15d3ebd5-554a-40ee-8ce7-428ac7e90e86","ios":"levelo://app?vid=15d3ebd5-554a-40ee-8ce7-428ac7e90e86"},"vehicle_type_id":"4","last_reported":1713197285,"current_range_meters":0,"station_id":"ce4bhbp2rcd13ifvqesg","pricing_plan_id":"cebpf4jnsgd1na2vs0mg"},{"bike_id":"149be381-12c9-4efa-81dc-5178c21c69ae","system_id":"levelo_inurba_marseille","lat":43.285856,"lon":5.350771,"is_reserved":false,"is_disabled":false,"rental_uris":{"android":"levelo://app?vid=149be381-12c9-4efa-81dc-5178c21c69ae","ios":"levelo://app?vid=149be381-12c9-4efa-81dc-5178c21c69ae"},"vehicle_type_id":"4","last_reported":1713197285,"current_range_meters":16400,"station_id":"ce4bhch2rcd13ifvqeug","pricing_plan_id":"cebpf4jnsgd1na2vs0mg"},{"bike_id":"dedebf6a-c858-4c3f-8d0e-393c8a56ae65","system_id":"levelo_inurba_marseille","lat":43.298433,"lon":5.362774,"is_reserved":false,"is_disabled":false,"rental_uris":{"android":"levelo://app?vid=dedebf6a-c858-4c3f-8d0e-393c8a56ae65","ios":"levelo://app?vid=dedebf6a-c858-4c3f-8d0e-393c8a56ae65"},"vehicle_type_id":"4","last_reported":1713197285,"current_range_meters":6800,"station_id":"ce4bgpp2rcd13ifvqc3g","pricing_plan_id":"cebpf4jnsgd1na2vs0mg"},{"bike_id":"77025efd-1ff5-43b5-9226-610238e9d124","system_id":"levelo_inurba_marseille","lat":43.29304,"lon":5.37446,"is_reserved":false,"is_disabled":false,"rental_uris":{"android":"levelo://app?vid=77025efd-1ff5-43b5-9226-610238e9d124","ios":"levelo://app?vid=77025efd-1ff5-43b5-9226-610238e9d124"},"vehicle_type_id":"4","last_reported":1713197285,"current_range_meters":0,"station_id":"ce4bgi12rcd13ifvqb70","pricing_plan_id":"cebpf4jnsgd1na2vs0mg"},{"bike_id":"8ebf42ba-8441-4bf8-8117-f5e7970b024e","system_id":"levelo_inurba_marseille","lat":43.305994,"lon":5.393687,"is_reserved":false,"is_disabled":false,"rental_uris":{"android":"levelo://app?vid=8ebf42ba-8441-4bf8-8117-f5e7970b024e","ios":"levelo://app?vid=8ebf42ba-8441-4bf8-8117-f5e7970b024e"},"vehicle_type_id":"4","last_reported":1713197285,"current_range_meters":0,"station_id":"ce4bh0p2rcd13ifvqd80","pricing_plan_id":"cebpf4jnsgd1na2vs0mg"},{"bike_id":"e6829df4-dafa-477e-aae9-5e0ec127b720","system_id":"levelo_inurba_marseille","lat":43.302992,"lon":5.392136,"is_reserved":false,"is_disabled":false,"rental_uris":{"android":"levelo://app?vid=e6829df4-dafa-477e-aae9-5e0ec127b720","ios":"levelo://app?vid=e6829df4-dafa-477e-aae9-5e0ec127b720"},"vehicle_type_id":"4","last_reported":1713197285,"current_range_meters":24000,"station_id":"ce4bgkh2rcd13ifvqbk0","pricing_plan_id":"cebpf4jnsgd1na2vs0mg"},{"bike_id":"c0db97d8-3394-46a6-a2ae-691ae727c389","system_id":"levelo_inurba_marseille","lat":43.2936,"lon":5.37835,"is_reserved":false,"is_disabled":false,"rental_uris":{"android":"levelo://app?vid=c0db97d8-3394-46a6-a2ae-691ae727c389","ios":"levelo://app?vid=c0db97d8-3394-46a6-a2ae-691ae727c389"},"vehicle_type_id":"4","last_reported":1713197285,"current_range_meters":24800,"station_id":"ce4bgjh2rcd13ifvqbf0","pricing_plan_id":"cebpf4jnsgd1na2vs0mg"},{"bike_id":"8ee0b900-6a44-4601-921c-b006e69c8f48","system_id":"levelo_inurba_marseille","lat":43.2936,"lon":5.37835,"is_reserved":false,"is_disabled":false,"rental_uris":{"android":"levelo://app?vid=8ee0b900-6a44-4601-921c-b006e69c8f48","ios":"levelo://app?vid=8ee0b900-6a44-4601-921c-b006e69c8f48"},"vehicle_type_id":"4","last_reported":1713197285,"current_range_meters":18800,"station_id":"ce4bgjh2rcd13ifvqbf0","pricing_plan_id":"cebpf4jnsgd1na2vs0mg"},{"bike_id":"aff0f3e1-7f89-47d4-a870-0899b82cc14a","system_id":"levelo_inurba_marseille","lat":43.300852,"lon":5.390859,"is_reserved":false,"is_disabled":false,"rental_uris":{"android":"levelo://app?vid=aff0f3e1-7f89-47d4-a870-0899b82cc14a","ios":"levelo://app?vid=aff0f3e1-7f89-47d4-a870-0899b82cc14a"},"vehicle_type_id":"4","last_reported":1713197285,"current_range_meters":29600,"station_id":"ce4bh192rcd13ifvqdb0","pricing_plan_id":"cebpf4jnsgd1na2vs0mg"},{"bike_id":"6647083f-dced-4537-aad4-4ee8b136b08a","system_id":"levelo_inurba_marseille","lat":43.299717,"lon":5.384845,"is_reserved":false,"is_disabled":false,"rental_uris":{"android":"levelo://app?vid=6647083f-dced-4537-aad4-4ee8b136b08a","ios":"levelo://app?vid=6647083f-dced-4537-aad4-4ee8b136b08a"},"vehicle_type_id":"4","last_reported":1713197285,"current_range_meters":8000,"station_id":"ce4bgj92rcd13ifvqbd0","pricing_plan_id":"cebpf4jnsgd1na2vs0mg"},{"bike_id":"73e3e86a-5c17-4f7d-9202-35b60678fad0","system_id":"levelo_inurba_marseille","lat":43.292311,"lon":5.360731,"is_reserved":false,"is_disabled":false,"rental_uris":{"android":"levelo://app?vid=73e3e86a-5c17-4f7d-9202-35b60678fad0","ios":"levelo://app?vid=73e3e86a-5c17-4f7d-9202-35b60678fad0"},"vehicle_type_id":"4","last_reported":1713197285,"current_range_meters":8800,"station_id":"ce4bhbh2rcd13ifvqeqg","pricing_plan_id":"cebpf4jnsgd1na2vs0mg"},{"bike_id":"70dd161d-29cf-463c-b1b9-182f94701828","system_id":"levelo_inurba_marseille","lat":43.30096,"lon":5.39074,"is_reserved":false,"is_disabled":false,"rental_uris":{"android":"levelo://app?vid=70dd161d-29cf-463c-b1b9-182f94701828","ios":"levelo://app?vid=70dd161d-29cf-463c-b1b9-182f94701828"},"vehicle_type_id":"4","last_reported":1713197285,"current_range_meters":3200,"station_id":"ce4bh192rcd13ifvqdb0","pricing_plan_id":"cebpf4jnsgd1na2vs0mg"},{"bike_id":"a1ac3fa6-44e1-4aea-88cd-b1d5931ddd25","system_id":"levelo_inurba_marseille","lat":43.292311,"lon":5.360731,"is_reserved":false,"is_disabled":false,"rental_uris":{"android":"levelo://app?vid=a1ac3fa6-44e1-4aea-88cd-b1d5931ddd25","ios":"levelo://app?vid=a1ac3fa6-44e1-4aea-88cd-b1d5931ddd25"},"vehicle_type_id":"4","last_reported":1713197285,"current_range_meters":800,"station_id":"ce4bhbh2rcd13ifvqeqg","pricing_plan_id":"cebpf4jnsgd1na2vs0mg"},{"bike_id":"92a9e1c8-d3fc-4a54-bce3-68052fc68e91","system_id":"levelo_inurba_marseille","lat":43.292311,"lon":5.360731,"is_reserved":false,"is_disabled":false,"rental_uris":{"android":"levelo://app?vid=92a9e1c8-d3fc-4a54-bce3-68052fc68e91","ios":"levelo://app?vid=92a9e1c8-d3fc-4a54-bce3-68052fc68e91"},"vehicle_type_id":"4","last_reported":1713197285,"current_range_meters":5600,"station_id":"ce4bhbh2rcd13ifvqeqg","pricing_plan_id":"cebpf4jnsgd1na2vs0mg"},{"bike_id":"5d13f3b0-ba97-4655-8b7d-5d64af88baef","system_id":"levelo_inurba_marseille","lat":43.292311,"lon":5.360731,"is_reserved":false,"is_disabled":false,"rental_uris":{"android":"levelo://app?vid=5d13f3b0-ba97-4655-8b7d-5d64af88baef","ios":"levelo://app?vid=5d13f3b0-ba97-4655-8b7d-5d64af88baef"},"vehicle_type_id":"4","last_reported":1713197285,"current_range_meters":0,"station_id":"ce4bhbh2rcd13ifvqeqg","pricing_plan_id":"cebpf4jnsgd1na2vs0mg"},{"bike_id":"d705d738-f700-426d-a4dc-c504384f1971","system_id":"levelo_inurba_marseille","lat":43.30085,"lon":5.390856,"is_reserved":false,"is_disabled":false,"rental_uris":{"android":"levelo://app?vid=d705d738-f700-426d-a4dc-c504384f1971","ios":"levelo://app?vid=d705d738-f700-426d-a4dc-c504384f1971"},"vehicle_type_id":"4","last_reported":1713197285,"current_range_meters":17200,"station_id":"ce4bh192rcd13ifvqdb0","pricing_plan_id":"cebpf4jnsgd1na2vs0mg"},{"bike_id":"a489cc0c-3159-4d1b-bfbc-b0ccd463d738","system_id":"levelo_inurba_marseille","lat":43.292195,"lon":5.36052,"is_reserved":false,"is_disabled":false,"rental_uris":{"android":"levelo://app?vid=a489cc0c-3159-4d1b-bfbc-b0ccd463d738","ios":"levelo://app?vid=a489cc0c-3159-4d1b-bfbc-b0ccd463d738"},"vehicle_type_id":"4","last_reported":1713197285,"current_range_meters":0,"station_id":"ce4bhbh2rcd13ifvqeqg","pricing_plan_id":"cebpf4jnsgd1na2vs0mg"},{"bike_id":"76f0d047-6a9a-433a-b78e-a9a6de9bace2","system_id":"levelo_inurba_marseille","lat":43.293009,"lon":5.374584,"is_reserved":false,"is_disabled":false,"rental_uris":{"android":"levelo://app?vid=76f0d047-6a9a-433a-b78e-a9a6de9bace2","ios":"levelo://app?vid=76f0d047-6a9a-433a-b78e-a9a6de9bace2"},"vehicle_type_id":"4","last_reported":1713197285,"current_range_meters":1600,"station_id":"ce4bgi12rcd13ifvqb70","pricing_plan_id":"cebpf4jnsgd1na2vs0mg"},{"bike_id":"7f63acc2-7b72-43a3-83fa-59baea6e5874","system_id":"levelo_inurba_marseille","lat":43.298764,"lon":5.388973,"is_reserved":false,"is_disabled":false,"rental_uris":{"android":"levelo://app?vid=7f63acc2-7b72-43a3-83fa-59baea6e5874","ios":"levelo://app?vid=7f63acc2-7b72-43a3-83fa-59baea6e5874"},"vehicle_type_id":"4","last_reported":1713197285,"current_range_meters":10400,"station_id":"ce4bh392rcd13ifvqdl0","pricing_plan_id":"cebpf4jnsgd1na2vs0mg"},{"bike_id":"38fe8c83-fbba-40bb-8434-e9948f3eda74","system_id":"levelo_inurba_marseille","lat":43.291671,"lon":5.371575,"is_reserved":false,"is_disabled":false,"rental_uris":{"android":"levelo://app?vid=38fe8c83-fbba-40bb-8434-e9948f3eda74","ios":"levelo://app?vid=38fe8c83-fbba-40bb-8434-e9948f3eda74"},"vehicle_type_id":"4","last_reported":1713197285,"current_range_meters":12000,"station_id":"ce4bha92rcd13ifvqeh0","pricing_plan_id":"cebpf4jnsgd1na2vs0mg"},{"bike_id":"3ba78730-c0b9-44d5-9cbc-d8f9172ab2a5","system_id":"levelo_inurba_marseille","lat":43.307765,"lon":5.39545,"is_reserved":false,"is_disabled":false,"rental_uris":{"android":"levelo://app?vid=3ba78730-c0b9-44d5-9cbc-d8f9172ab2a5","ios":"levelo://app?vid=3ba78730-c0b9-44d5-9cbc-d8f9172ab2a5"},"vehicle_type_id":"4","last_reported":1713197285,"current_range_meters":2000,"station_id":"ce4bh012rcd13ifvqcv0","pricing_plan_id":"cebpf4jnsgd1na2vs0mg"},{"bike_id":"b3028a37-258a-4918-b809-ba06ac719514","system_id":"levelo_inurba_marseille","lat":43.291671,"lon":5.371575,"is_reserved":false,"is_disabled":false,"rental_uris":{"android":"levelo://app?vid=b3028a37-258a-4918-b809-ba06ac719514","ios":"levelo://app?vid=b3028a37-258a-4918-b809-ba06ac719514"},"vehicle_type_id":"4","last_reported":1713197285,"current_range_meters":4800,"station_id":"ce4bha92rcd13ifvqeh0","pricing_plan_id":"cebpf4jnsgd1na2vs0mg"},{"bike_id":"99e0b923-9b46-4d58-8c8a-a373afb0ec2f","system_id":"levelo_inurba_marseille","lat":43.29161,"lon":5.37151,"is_reserved":false,"is_disabled":false,"rental_uris":{"android":"levelo://app?vid=99e0b923-9b46-4d58-8c8a-a373afb0ec2f","ios":"levelo://app?vid=99e0b923-9b46-4d58-8c8a-a373afb0ec2f"},"vehicle_type_id":"4","last_reported":1713197285,"current_range_meters":400,"station_id":"ce4bha92rcd13ifvqeh0","pricing_plan_id":"cebpf4jnsgd1na2vs0mg"},{"bike_id":"1d2282c0-81e0-4668-ba61-30e9cf064580","system_id":"levelo_inurba_marseille","lat":43.291671,"lon":5.371575,"is_reserved":false,"is_disabled":false,"rental_uris":{"android":"levelo://app?vid=1d2282c0-81e0-4668-ba61-30e9cf064580","ios":"levelo://app?vid=1d2282c0-81e0-4668-ba61-30e9cf064580"},"vehicle_type_id":"4","last_reported":1713197285,"current_range_meters":1200,"station_id":"ce4bha92rcd13ifvqeh0","pricing_plan_id":"cebpf4jnsgd1na2vs0mg"},{"bike_id":"c28cb274-36ad-4ee1-a70f-a68d92957190","system_id":"levelo_inurba_marseille","lat":43.291994,"lon":5.357886,"is_reserved":false,"is_disabled":false,"rental_uris":{"android":"levelo://app?vid=c28cb274-36ad-4ee1-a70f-a68d92957190","ios":"levelo://app?vid=c28cb274-36ad-4ee1-a70f-a68d92957190"},"vehicle_type_id":"4","last_reported":1713197285,"current_range_meters":0,"station_id":"ce4bhb12rcd13ifvqel0","pricing_plan_id":"cebpf4jnsgd1na2vs0mg"},{"bike_id":"c4520cbc-45b3-45e1-8f31-902e00c154e3","system_id":"levelo_inurba_marseille","lat":43.309405,"lon":5.396415,"is_reserved":false,"is_disabled":false,"rental_uris":{"android":"levelo://app?vid=c4520cbc-45b3-45e1-8f31-902e00c154e3","ios":"levelo://app?vid=c4520cbc-45b3-45e1-8f31-902e00c154e3"},"vehicle_type_id":"4","last_reported":1713197285,"current_range_meters":0,"station_id":"ce4bgvp2rcd13ifvqcu0","pricing_plan_id":"cebpf4jnsgd1na2vs0mg"},{"bike_id":"7d5aa4f1-0918-4e3f-a831-48b9db6a922b","system_id":"levelo_inurba_marseille","lat":43.313255,"lon":5.396844,"is_reserved":false,"is_disabled":false,"rental_uris":{"android":"levelo://app?vid=7d5aa4f1-0918-4e3f-a831-48b9db6a922b","ios":"levelo://app?vid=7d5aa4f1-0918-4e3f-a831-48b9db6a922b"},"vehicle_type_id":"4","last_reported":1713197285,"current_range_meters":27600,"station_id":"ce4bgvp2rcd13ifvqcu0","pricing_plan_id":"cebpf4jnsgd1na2vs0mg"},{"bike_id":"7feeb470-3699-4605-946f-88782ae5605b","system_id":"levelo_inurba_marseille","lat":43.284534,"lon":5.358662,"is_reserved":false,"is_disabled":false,"rental_uris":{"android":"levelo://app?vid=7feeb470-3699-4605-946f-88782ae5605b","ios":"levelo://app?vid=7feeb470-3699-4605-946f-88782ae5605b"},"vehicle_type_id":"4","last_reported":1713197285,"current_range_meters":6400,"station_id":"ce4bhah2rcd13ifvqei0","pricing_plan_id":"cebpf4jnsgd1na2vs0mg"},{"bike_id":"f321609f-b3bb-48bd-b03a-1e7217eec629","system_id":"levelo_inurba_marseille","lat":43.31329,"lon":5.39687,"is_reserved":false,"is_disabled":false,"rental_uris":{"android":"levelo://app?vid=f321609f-b3bb-48bd-b03a-1e7217eec629","ios":"levelo://app?vid=f321609f-b3bb-48bd-b03a-1e7217eec629"},"vehicle_type_id":"4","last_reported":1713197285,"current_range_meters":18400,"station_id":"ce4bh9p2rcd13ifvqed0","pricing_plan_id":"cebpf4jnsgd1na2vs0mg"},{"bike_id":"a63210cf-6f6f-48fc-9d12-d91c54620c15","system_id":"levelo_inurba_marseille","lat":43.313291,"lon":5.396838,"is_reserved":false,"is_disabled":false,"rental_uris":{"android":"levelo://app?vid=a63210cf-6f6f-48fc-9d12-d91c54620c15","ios":"levelo://app?vid=a63210cf-6f6f-48fc-9d12-d91c54620c15"},"vehicle_type_id":"4","last_reported":1713197285,"current_range_meters":800,"station_id":"ce4bgvp2rcd13ifvqcu0","pricing_plan_id":"cebpf4jnsgd1na2vs0mg"},{"bike_id":"fb8809c1-130a-47c1-b7a8-ceea7e87076b","system_id":"levelo_inurba_marseille","lat":43.309038,"lon":5.396546,"is_reserved":false,"is_disabled":false,"rental_uris":{"android":"levelo://app?vid=fb8809c1-130a-47c1-b7a8-ceea7e87076b","ios":"levelo://app?vid=fb8809c1-130a-47c1-b7a8-ceea7e87076b"},"vehicle_type_id":"4","last_reported":1713197285,"current_range_meters":400,"station_id":"ce4bh012rcd13ifvqcv0","pricing_plan_id":"cebpf4jnsgd1na2vs0mg"},{"bike_id":"f64bdba5-af7f-4b69-a90f-0e73e914e37f","system_id":"levelo_inurba_marseille","lat":43.302759,"lon":5.400793,"is_reserved":false,"is_disabled":false,"rental_uris":{"android":"levelo://app?vid=f64bdba5-af7f-4b69-a90f-0e73e914e37f","ios":"levelo://app?vid=f64bdba5-af7f-4b69-a90f-0e73e914e37f"},"vehicle_type_id":"4","last_reported":1713197285,"current_range_meters":0,"station_id":"ce4bgvh2rcd13ifvqcs0","pricing_plan_id":"cebpf4jnsgd1na2vs0mg"},{"bike_id":"1cbb5e01-940d-4882-b077-d339dbb4c9d7","system_id":"levelo_inurba_marseille","lat":43.309047,"lon":5.396551,"is_reserved":false,"is_disabled":false,"rental_uris":{"android":"levelo://app?vid=1cbb5e01-940d-4882-b077-d339dbb4c9d7","ios":"levelo://app?vid=1cbb5e01-940d-4882-b077-d339dbb4c9d7"},"vehicle_type_id":"4","last_reported":1713197285,"current_range_meters":8000,"station_id":"ce4bh012rcd13ifvqcv0","pricing_plan_id":"cebpf4jnsgd1na2vs0mg"},{"bike_id":"197bfc97-72c9-490b-803c-4578c3bb8030","system_id":"levelo_inurba_marseille","lat":43.309038,"lon":5.396546,"is_reserved":false,"is_disabled":false,"rental_uris":{"android":"levelo://app?vid=197bfc97-72c9-490b-803c-4578c3bb8030","ios":"levelo://app?vid=197bfc97-72c9-490b-803c-4578c3bb8030"},"vehicle_type_id":"4","last_reported":1713197285,"current_range_meters":6000,"station_id":"ce4bh012rcd13ifvqcv0","pricing_plan_id":"cebpf4jnsgd1na2vs0mg"},{"bike_id":"04feae5f-6dd5-478a-a119-6ec8e2ed0a8c","system_id":"levelo_inurba_marseille","lat":43.313125,"lon":5.39702,"is_reserved":false,"is_disabled":false,"rental_uris":{"android":"levelo://app?vid=04feae5f-6dd5-478a-a119-6ec8e2ed0a8c","ios":"levelo://app?vid=04feae5f-6dd5-478a-a119-6ec8e2ed0a8c"},"vehicle_type_id":"4","last_reported":1713197285,"current_range_meters":10800,"station_id":"ce4bgvp2rcd13ifvqcu0","pricing_plan_id":"cebpf4jnsgd1na2vs0mg"},{"bike_id":"26a95450-996b-43f3-82ae-d005ebec6354","system_id":"levelo_inurba_marseille","lat":43.30885,"lon":5.39658,"is_reserved":false,"is_disabled":false,"rental_uris":{"android":"levelo://app?vid=26a95450-996b-43f3-82ae-d005ebec6354","ios":"levelo://app?vid=26a95450-996b-43f3-82ae-d005ebec6354"},"vehicle_type_id":"4","last_reported":1713197285,"current_range_meters":8000,"station_id":"ce4bhbh2rcd13ifvqepg","pricing_plan_id":"cebpf4jnsgd1na2vs0mg"},{"bike_id":"a69b3657-786d-48fa-9ae9-15aa4825b155","system_id":"levelo_inurba_marseille","lat":43.29529,"lon":5.385581,"is_reserved":false,"is_disabled":false,"rental_uris":{"android":"levelo://app?vid=a69b3657-786d-48fa-9ae9-15aa4825b155","ios":"levelo://app?vid=a69b3657-786d-48fa-9ae9-15aa4825b155"},"vehicle_type_id":"4","last_reported":1713197285,"current_range_meters":24000,"station_id":"ce4bgih2rcd13ifvqba0","pricing_plan_id":"cebpf4jnsgd1na2vs0mg"},{"bike_id":"87ebfac3-54a1-4c4e-b09b-2cc7e1f5041f","system_id":"levelo_inurba_marseille","lat":43.290779,"lon":5.371482,"is_reserved":false,"is_disabled":false,"rental_uris":{"android":"levelo://app?vid=87ebfac3-54a1-4c4e-b09b-2cc7e1f5041f","ios":"levelo://app?vid=87ebfac3-54a1-4c4e-b09b-2cc7e1f5041f"},"vehicle_type_id":"4","last_reported":1713197285,"current_range_meters":21200,"station_id":"ce4bh5p2rcd13ifvqe4g","pricing_plan_id":"cebpf4jnsgd1na2vs0mg"},{"bike_id":"61e52b74-d4c9-4c5e-9e0e-b8ac1072d109","system_id":"levelo_inurba_marseille","lat":43.302008,"lon":5.394694,"is_reserved":false,"is_disabled":false,"rental_uris":{"android":"levelo://app?vid=61e52b74-d4c9-4c5e-9e0e-b8ac1072d109","ios":"levelo://app?vid=61e52b74-d4c9-4c5e-9e0e-b8ac1072d109"},"vehicle_type_id":"4","last_reported":1713197285,"current_range_meters":17200,"station_id":"ce4bh0p2rcd13ifvqd70","pricing_plan_id":"cebpf4jnsgd1na2vs0mg"},{"bike_id":"77d2ac36-9a8c-430d-9544-20e6ed2dd067","system_id":"levelo_inurba_marseille","lat":43.302008,"lon":5.394694,"is_reserved":false,"is_disabled":false,"rental_uris":{"android":"levelo://app?vid=77d2ac36-9a8c-430d-9544-20e6ed2dd067","ios":"levelo://app?vid=77d2ac36-9a8c-430d-9544-20e6ed2dd067"},"vehicle_type_id":"4","last_reported":1713197285,"current_range_meters":24400,"station_id":"ce4bh0p2rcd13ifvqd70","pricing_plan_id":"cebpf4jnsgd1na2vs0mg"},{"bike_id":"4580ac4f-8794-4969-841a-72a57a8bf1c0","system_id":"levelo_inurba_marseille","lat":43.301894,"lon":5.394518,"is_reserved":false,"is_disabled":false,"rental_uris":{"android":"levelo://app?vid=4580ac4f-8794-4969-841a-72a57a8bf1c0","ios":"levelo://app?vid=4580ac4f-8794-4969-841a-72a57a8bf1c0"},"vehicle_type_id":"4","last_reported":1713197285,"current_range_meters":0,"station_id":"ce4bh0p2rcd13ifvqd70","pricing_plan_id":"cebpf4jnsgd1na2vs0mg"},{"bike_id":"ca89b5a1-0be3-4af2-94be-b1d17c602128","system_id":"levelo_inurba_marseille","lat":43.289184,"lon":5.366408,"is_reserved":false,"is_disabled":false,"rental_uris":{"android":"levelo://app?vid=ca89b5a1-0be3-4af2-94be-b1d17c602128","ios":"levelo://app?vid=ca89b5a1-0be3-4af2-94be-b1d17c602128"},"vehicle_type_id":"4","last_reported":1713197285,"current_range_meters":7600,"station_id":"ce4bhap2rcd13ifvqek0","pricing_plan_id":"cebpf4jnsgd1na2vs0mg"},{"bike_id":"6648aa15-456a-4afb-993f-2cb840d841a6","system_id":"levelo_inurba_marseille","lat":43.290624,"lon":5.359245,"is_reserved":false,"is_disabled":false,"rental_uris":{"android":"levelo://app?vid=6648aa15-456a-4afb-993f-2cb840d841a6","ios":"levelo://app?vid=6648aa15-456a-4afb-993f-2cb840d841a6"},"vehicle_type_id":"4","last_reported":1713197285,"current_range_meters":0,"station_id":"ce4bha92rcd13ifvqeg0","pricing_plan_id":"cebpf4jnsgd1na2vs0mg"},{"bike_id":"d34ad061-12ed-4470-b12d-e75fd50ae917","system_id":"levelo_inurba_marseille","lat":43.290319,"lon":5.375732,"is_reserved":false,"is_disabled":false,"rental_uris":{"android":"levelo://app?vid=d34ad061-12ed-4470-b12d-e75fd50ae917","ios":"levelo://app?vid=d34ad061-12ed-4470-b12d-e75fd50ae917"},"vehicle_type_id":"4","last_reported":1713197285,"current_range_meters":14000,"station_id":"ce4bh692rcd13ifvqe90","pricing_plan_id":"cebpf4jnsgd1na2vs0mg"},{"bike_id":"864cba95-3633-4c6b-82dd-be5099832274","system_id":"levelo_inurba_marseille","lat":43.294162,"lon":5.386292,"is_reserved":false,"is_disabled":false,"rental_uris":{"android":"levelo://app?vid=864cba95-3633-4c6b-82dd-be5099832274","ios":"levelo://app?vid=864cba95-3633-4c6b-82dd-be5099832274"},"vehicle_type_id":"4","last_reported":1713197285,"current_range_meters":10400,"station_id":"ce4bh2h2rcd13ifvqdh0","pricing_plan_id":"cebpf4jnsgd1na2vs0mg"},{"bike_id":"235490bf-0895-4ac9-a536-99691e82a258","system_id":"levelo_inurba_marseille","lat":43.294162,"lon":5.386292,"is_reserved":false,"is_disabled":false,"rental_uris":{"android":"levelo://app?vid=235490bf-0895-4ac9-a536-99691e82a258","ios":"levelo://app?vid=235490bf-0895-4ac9-a536-99691e82a258"},"vehicle_type_id":"4","last_reported":1713197285,"current_range_meters":21200,"station_id":"ce4bh2h2rcd13ifvqdh0","pricing_plan_id":"cebpf4jnsgd1na2vs0mg"},{"bike_id":"9cce8eda-6c65-49a1-bf99-788e5ca0571f","system_id":"levelo_inurba_marseille","lat":43.289184,"lon":5.366408,"is_reserved":false,"is_disabled":false,"rental_uris":{"android":"levelo://app?vid=9cce8eda-6c65-49a1-bf99-788e5ca0571f","ios":"levelo://app?vid=9cce8eda-6c65-49a1-bf99-788e5ca0571f"},"vehicle_type_id":"4","last_reported":1713197285,"current_range_meters":17600,"station_id":"ce4bhap2rcd13ifvqek0","pricing_plan_id":"cebpf4jnsgd1na2vs0mg"},{"bike_id":"2f423bb8-5ce9-4ee0-8e50-0c954ad78244","system_id":"levelo_inurba_marseille","lat":43.289184,"lon":5.366408,"is_reserved":false,"is_disabled":false,"rental_uris":{"android":"levelo://app?vid=2f423bb8-5ce9-4ee0-8e50-0c954ad78244","ios":"levelo://app?vid=2f423bb8-5ce9-4ee0-8e50-0c954ad78244"},"vehicle_type_id":"4","last_reported":1713197285,"current_range_meters":12000,"station_id":"ce4bhap2rcd13ifvqek0","pricing_plan_id":"cebpf4jnsgd1na2vs0mg"},{"bike_id":"fc2e861f-7529-44a0-8406-b1379b3ee580","system_id":"levelo_inurba_marseille","lat":43.289184,"lon":5.366408,"is_reserved":false,"is_disabled":false,"rental_uris":{"android":"levelo://app?vid=fc2e861f-7529-44a0-8406-b1379b3ee580","ios":"levelo://app?vid=fc2e861f-7529-44a0-8406-b1379b3ee580"},"vehicle_type_id":"4","last_reported":1713197285,"current_range_meters":6800,"station_id":"ce4bhap2rcd13ifvqek0","pricing_plan_id":"cebpf4jnsgd1na2vs0mg"},{"bike_id":"6dc830b5-7fe3-45cc-8e6b-673f947de719","system_id":"levelo_inurba_marseille","lat":43.289184,"lon":5.366408,"is_reserved":false,"is_disabled":false,"rental_uris":{"android":"levelo://app?vid=6dc830b5-7fe3-45cc-8e6b-673f947de719","ios":"levelo://app?vid=6dc830b5-7fe3-45cc-8e6b-673f947de719"},"vehicle_type_id":"4","last_reported":1713197285,"current_range_meters":400,"station_id":"ce4bhap2rcd13ifvqek0","pricing_plan_id":"cebpf4jnsgd1na2vs0mg"},{"bike_id":"c43db510-4bc4-4211-8ce1-dd27a2f8a327","system_id":"levelo_inurba_marseille","lat":43.298764,"lon":5.388973,"is_reserved":false,"is_disabled":false,"rental_uris":{"android":"levelo://app?vid=c43db510-4bc4-4211-8ce1-dd27a2f8a327","ios":"levelo://app?vid=c43db510-4bc4-4211-8ce1-dd27a2f8a327"},"vehicle_type_id":"4","last_reported":1713197285,"current_range_meters":23200,"station_id":"ce4bh392rcd13ifvqdl0","pricing_plan_id":"cebpf4jnsgd1na2vs0mg"},{"bike_id":"1808266d-d30b-43af-b26e-f95405754733","system_id":"levelo_inurba_marseille","lat":43.297774,"lon":5.370875,"is_reserved":false,"is_disabled":false,"rental_uris":{"android":"levelo://app?vid=1808266d-d30b-43af-b26e-f95405754733","ios":"levelo://app?vid=1808266d-d30b-43af-b26e-f95405754733"},"vehicle_type_id":"4","last_reported":1713197285,"current_range_meters":12800,"station_id":"ce4bgop2rcd13ifvqc1g","pricing_plan_id":"cebpf4jnsgd1na2vs0mg"},{"bike_id":"c6bae1a4-8157-4407-9a02-12445ee6e89d","system_id":"levelo_inurba_marseille","lat":43.290103,"lon":5.356114,"is_reserved":false,"is_disabled":false,"rental_uris":{"android":"levelo://app?vid=c6bae1a4-8157-4407-9a02-12445ee6e89d","ios":"levelo://app?vid=c6bae1a4-8157-4407-9a02-12445ee6e89d"},"vehicle_type_id":"4","last_reported":1713197285,"current_range_meters":7200,"station_id":"ce4bhb92rcd13ifvqen0","pricing_plan_id":"cebpf4jnsgd1na2vs0mg"},{"bike_id":"8adb170c-2b09-45ff-99af-b821bd92ee2d","system_id":"levelo_inurba_marseille","lat":43.29264,"lon":5.3844,"is_reserved":false,"is_disabled":false,"rental_uris":{"android":"levelo://app?vid=8adb170c-2b09-45ff-99af-b821bd92ee2d","ios":"levelo://app?vid=8adb170c-2b09-45ff-99af-b821bd92ee2d"},"vehicle_type_id":"4","last_reported":1713197285,"current_range_meters":0,"station_id":"ce4bh692rcd13ifvqea0","pricing_plan_id":"cebpf4jnsgd1na2vs0mg"},{"bike_id":"d56e016a-1ffc-49c7-9ef5-b660515fc078","system_id":"levelo_inurba_marseille","lat":43.290104,"lon":5.356111,"is_reserved":false,"is_disabled":false,"rental_uris":{"android":"levelo://app?vid=d56e016a-1ffc-49c7-9ef5-b660515fc078","ios":"levelo://app?vid=d56e016a-1ffc-49c7-9ef5-b660515fc078"},"vehicle_type_id":"4","last_reported":1713197285,"current_range_meters":13200,"station_id":"ce4bhb92rcd13ifvqen0","pricing_plan_id":"cebpf4jnsgd1na2vs0mg"},{"bike_id":"b01e5255-8fb4-45b9-a039-8fffa5e73779","system_id":"levelo_inurba_marseille","lat":43.290103,"lon":5.356114,"is_reserved":false,"is_disabled":false,"rental_uris":{"android":"levelo://app?vid=b01e5255-8fb4-45b9-a039-8fffa5e73779","ios":"levelo://app?vid=b01e5255-8fb4-45b9-a039-8fffa5e73779"},"vehicle_type_id":"4","last_reported":1713197285,"current_range_meters":14800,"station_id":"ce4bhb92rcd13ifvqen0","pricing_plan_id":"cebpf4jnsgd1na2vs0mg"},{"bike_id":"5bd4597b-ef9f-4534-9008-9d63d6394e45","system_id":"levelo_inurba_marseille","lat":43.290103,"lon":5.356114,"is_reserved":false,"is_disabled":false,"rental_uris":{"android":"levelo://app?vid=5bd4597b-ef9f-4534-9008-9d63d6394e45","ios":"levelo://app?vid=5bd4597b-ef9f-4534-9008-9d63d6394e45"},"vehicle_type_id":"4","last_reported":1713197285,"current_range_meters":16000,"station_id":"ce4bhb92rcd13ifvqen0","pricing_plan_id":"cebpf4jnsgd1na2vs0mg"},{"bike_id":"f01be096-06a5-4094-a699-2d3a8c0bfd45","system_id":"levelo_inurba_marseille","lat":43.293009,"lon":5.374584,"is_reserved":false,"is_disabled":false,"rental_uris":{"android":"levelo://app?vid=f01be096-06a5-4094-a699-2d3a8c0bfd45","ios":"levelo://app?vid=f01be096-06a5-4094-a699-2d3a8c0bfd45"},"vehicle_type_id":"4","last_reported":1713197285,"current_range_meters":0,"station_id":"ce4bgi12rcd13ifvqb70","pricing_plan_id":"cebpf4jnsgd1na2vs0mg"},{"bike_id":"8819ceb4-a45c-4950-9bd6-a06491b641c1","system_id":"levelo_inurba_marseille","lat":43.290103,"lon":5.356114,"is_reserved":false,"is_disabled":false,"rental_uris":{"android":"levelo://app?vid=8819ceb4-a45c-4950-9bd6-a06491b641c1","ios":"levelo://app?vid=8819ceb4-a45c-4950-9bd6-a06491b641c1"},"vehicle_type_id":"4","last_reported":1713197285,"current_range_meters":0,"station_id":"ce4bhb92rcd13ifvqen0","pricing_plan_id":"cebpf4jnsgd1na2vs0mg"},{"bike_id":"92af855e-1618-4c3c-bb03-bd1235a019ec","system_id":"levelo_inurba_marseille","lat":43.290103,"lon":5.356114,"is_reserved":false,"is_disabled":false,"rental_uris":{"android":"levelo://app?vid=92af855e-1618-4c3c-bb03-bd1235a019ec","ios":"levelo://app?vid=92af855e-1618-4c3c-bb03-bd1235a019ec"},"vehicle_type_id":"4","last_reported":1713197285,"current_range_meters":31200,"station_id":"ce4bhb92rcd13ifvqen0","pricing_plan_id":"cebpf4jnsgd1na2vs0mg"},{"bike_id":"4b3d159c-1cd2-40fd-b17d-3dca8174f2c1","system_id":"levelo_inurba_marseille","lat":43.291011,"lon":5.381401,"is_reserved":false,"is_disabled":false,"rental_uris":{"android":"levelo://app?vid=4b3d159c-1cd2-40fd-b17d-3dca8174f2c1","ios":"levelo://app?vid=4b3d159c-1cd2-40fd-b17d-3dca8174f2c1"},"vehicle_type_id":"4","last_reported":1713197285,"current_range_meters":9600,"station_id":"","pricing_plan_id":"cebpf4jnsgd1na2vs0mg"},{"bike_id":"dfa950e4-f28f-4fab-b617-85126b723cf7","system_id":"levelo_inurba_marseille","lat":43.290995,"lon":5.381361,"is_reserved":false,"is_disabled":false,"rental_uris":{"android":"levelo://app?vid=dfa950e4-f28f-4fab-b617-85126b723cf7","ios":"levelo://app?vid=dfa950e4-f28f-4fab-b617-85126b723cf7"},"vehicle_type_id":"4","last_reported":1713197285,"current_range_meters":0,"station_id":"ce4bh512rcd13ifvqe2g","pricing_plan_id":"cebpf4jnsgd1na2vs0mg"},{"bike_id":"b6231dc0-31a0-4bfa-a7f5-763d8f4eb899","system_id":"levelo_inurba_marseille","lat":43.295169,"lon":5.390426,"is_reserved":false,"is_disabled":false,"rental_uris":{"android":"levelo://app?vid=b6231dc0-31a0-4bfa-a7f5-763d8f4eb899","ios":"levelo://app?vid=b6231dc0-31a0-4bfa-a7f5-763d8f4eb899"},"vehicle_type_id":"4","last_reported":1713197285,"current_range_meters":14400,"station_id":"ce4bh3p2rcd13ifvqdp0","pricing_plan_id":"cebpf4jnsgd1na2vs0mg"},{"bike_id":"56ee1409-ca8d-45f1-8310-7e03349c900f","system_id":"levelo_inurba_marseille","lat":43.297815,"lon":5.393548,"is_reserved":false,"is_disabled":false,"rental_uris":{"android":"levelo://app?vid=56ee1409-ca8d-45f1-8310-7e03349c900f","ios":"levelo://app?vid=56ee1409-ca8d-45f1-8310-7e03349c900f"},"vehicle_type_id":"4","last_reported":1713197285,"current_range_meters":0,"station_id":"chh1huq6cuj3fo74tm60","pricing_plan_id":"cebpf4jnsgd1na2vs0mg"},{"bike_id":"d35ba75f-39ed-4ccd-ac0e-288aa00089e0","system_id":"levelo_inurba_marseille","lat":43.33022,"lon":5.39037,"is_reserved":false,"is_disabled":false,"rental_uris":{"android":"levelo://app?vid=d35ba75f-39ed-4ccd-ac0e-288aa00089e0","ios":"levelo://app?vid=d35ba75f-39ed-4ccd-ac0e-288aa00089e0"},"vehicle_type_id":"4","last_reported":1713197285,"current_range_meters":2000,"station_id":"ce4bhr92rcd13ifvqhrg","pricing_plan_id":"cebpf4jnsgd1na2vs0mg"},{"bike_id":"e7870f04-9946-47af-b326-e15da4a91b34","system_id":"levelo_inurba_marseille","lat":43.33025,"lon":5.39036,"is_reserved":false,"is_disabled":false,"rental_uris":{"android":"levelo://app?vid=e7870f04-9946-47af-b326-e15da4a91b34","ios":"levelo://app?vid=e7870f04-9946-47af-b326-e15da4a91b34"},"vehicle_type_id":"4","last_reported":1713197285,"current_range_meters":13200,"station_id":"ce4bhr92rcd13ifvqhrg","pricing_plan_id":"cebpf4jnsgd1na2vs0mg"},{"bike_id":"9ed4c8a3-6eb7-4317-9d95-45394ad31002","system_id":"levelo_inurba_marseille","lat":43.33025,"lon":5.39042,"is_reserved":false,"is_disabled":false,"rental_uris":{"android":"levelo://app?vid=9ed4c8a3-6eb7-4317-9d95-45394ad31002","ios":"levelo://app?vid=9ed4c8a3-6eb7-4317-9d95-45394ad31002"},"vehicle_type_id":"4","last_reported":1713197285,"current_range_meters":16000,"station_id":"ce4bhr92rcd13ifvqhrg","pricing_plan_id":"cebpf4jnsgd1na2vs0mg"},{"bike_id":"9c1c16cd-6359-46bd-aaf9-b0fc26dfc518","system_id":"levelo_inurba_marseille","lat":43.33027,"lon":5.3904,"is_reserved":false,"is_disabled":false,"rental_uris":{"android":"levelo://app?vid=9c1c16cd-6359-46bd-aaf9-b0fc26dfc518","ios":"levelo://app?vid=9c1c16cd-6359-46bd-aaf9-b0fc26dfc518"},"vehicle_type_id":"4","last_reported":1713197285,"current_range_meters":6400,"station_id":"ce4bhr92rcd13ifvqhrg","pricing_plan_id":"cebpf4jnsgd1na2vs0mg"},{"bike_id":"39de8c24-9ab8-4a1d-a519-ed5649ea9234","system_id":"levelo_inurba_marseille","lat":43.33026,"lon":5.39042,"is_reserved":false,"is_disabled":false,"rental_uris":{"android":"levelo://app?vid=39de8c24-9ab8-4a1d-a519-ed5649ea9234","ios":"levelo://app?vid=39de8c24-9ab8-4a1d-a519-ed5649ea9234"},"vehicle_type_id":"4","last_reported":1713197285,"current_range_meters":28800,"station_id":"ce4bhr92rcd13ifvqhrg","pricing_plan_id":"cebpf4jnsgd1na2vs0mg"},{"bike_id":"584a28a7-7970-4f84-9b53-1bde81997def","system_id":"levelo_inurba_marseille","lat":43.330442,"lon":5.389148,"is_reserved":false,"is_disabled":false,"rental_uris":{"android":"levelo://app?vid=584a28a7-7970-4f84-9b53-1bde81997def","ios":"levelo://app?vid=584a28a7-7970-4f84-9b53-1bde81997def"},"vehicle_type_id":"4","last_reported":1713197285,"current_range_meters":26000,"station_id":"ce4bhr92rcd13ifvqhrg","pricing_plan_id":"cebpf4jnsgd1na2vs0mg"},{"bike_id":"432fb115-a9d5-414d-9505-41fc0ad18a66","system_id":"levelo_inurba_marseille","lat":43.330442,"lon":5.389148,"is_reserved":false,"is_disabled":false,"rental_uris":{"android":"levelo://app?vid=432fb115-a9d5-414d-9505-41fc0ad18a66","ios":"levelo://app?vid=432fb115-a9d5-414d-9505-41fc0ad18a66"},"vehicle_type_id":"4","last_reported":1713197285,"current_range_meters":20000,"station_id":"ce4bhr92rcd13ifvqhrg","pricing_plan_id":"cebpf4jnsgd1na2vs0mg"},{"bike_id":"c27de58c-4d51-4d8b-804e-15754e64d2d9","system_id":"levelo_inurba_marseille","lat":43.330442,"lon":5.389148,"is_reserved":false,"is_disabled":false,"rental_uris":{"android":"levelo://app?vid=c27de58c-4d51-4d8b-804e-15754e64d2d9","ios":"levelo://app?vid=c27de58c-4d51-4d8b-804e-15754e64d2d9"},"vehicle_type_id":"4","last_reported":1713197285,"current_range_meters":0,"station_id":"ce4bhr92rcd13ifvqhrg","pricing_plan_id":"cebpf4jnsgd1na2vs0mg"},{"bike_id":"d54aa975-ce7a-4548-95a4-b86b321d58ef","system_id":"levelo_inurba_marseille","lat":43.2901,"lon":5.381269,"is_reserved":false,"is_disabled":false,"rental_uris":{"android":"levelo://app?vid=d54aa975-ce7a-4548-95a4-b86b321d58ef","ios":"levelo://app?vid=d54aa975-ce7a-4548-95a4-b86b321d58ef"},"vehicle_type_id":"4","last_reported":1713197285,"current_range_meters":28000,"station_id":"ce4bh4p2rcd13ifvqe1g","pricing_plan_id":"cebpf4jnsgd1na2vs0mg"},{"bike_id":"b5a248dc-9382-4b84-92cd-0ab3a8395d6a","system_id":"levelo_inurba_marseille","lat":43.330442,"lon":5.389148,"is_reserved":false,"is_disabled":false,"rental_uris":{"android":"levelo://app?vid=b5a248dc-9382-4b84-92cd-0ab3a8395d6a","ios":"levelo://app?vid=b5a248dc-9382-4b84-92cd-0ab3a8395d6a"},"vehicle_type_id":"4","last_reported":1713197285,"current_range_meters":22400,"station_id":"ce4bhr92rcd13ifvqhrg","pricing_plan_id":"cebpf4jnsgd1na2vs0mg"},{"bike_id":"0f660dcc-6610-4d8d-beed-5d3142f15d73","system_id":"levelo_inurba_marseille","lat":43.286961,"lon":5.373785,"is_reserved":false,"is_disabled":false,"rental_uris":{"android":"levelo://app?vid=0f660dcc-6610-4d8d-beed-5d3142f15d73","ios":"levelo://app?vid=0f660dcc-6610-4d8d-beed-5d3142f15d73"},"vehicle_type_id":"4","last_reported":1713197285,"current_range_meters":24800,"station_id":"ce4bh3p2rcd13ifvqdq0","pricing_plan_id":"cebpf4jnsgd1na2vs0mg"},{"bike_id":"c652524b-3c0d-4d3e-8832-27661ccd72ac","system_id":"levelo_inurba_marseille","lat":43.312609,"lon":5.401662,"is_reserved":false,"is_disabled":false,"rental_uris":{"android":"levelo://app?vid=c652524b-3c0d-4d3e-8832-27661ccd72ac","ios":"levelo://app?vid=c652524b-3c0d-4d3e-8832-27661ccd72ac"},"vehicle_type_id":"4","last_reported":1713197285,"current_range_meters":400,"station_id":"ce4bh092rcd13ifvqd30","pricing_plan_id":"cebpf4jnsgd1na2vs0mg"},{"bike_id":"472662c5-7afc-4a2c-9cc7-2b08c9679331","system_id":"levelo_inurba_marseille","lat":43.312609,"lon":5.401662,"is_reserved":false,"is_disabled":false,"rental_uris":{"android":"levelo://app?vid=472662c5-7afc-4a2c-9cc7-2b08c9679331","ios":"levelo://app?vid=472662c5-7afc-4a2c-9cc7-2b08c9679331"},"vehicle_type_id":"4","last_reported":1713197285,"current_range_meters":19600,"station_id":"ce4bh092rcd13ifvqd30","pricing_plan_id":"cebpf4jnsgd1na2vs0mg"},{"bike_id":"3af71f1a-a4f0-4cd7-9140-54b8d255330b","system_id":"levelo_inurba_marseille","lat":43.312609,"lon":5.401662,"is_reserved":false,"is_disabled":false,"rental_uris":{"android":"levelo://app?vid=3af71f1a-a4f0-4cd7-9140-54b8d255330b","ios":"levelo://app?vid=3af71f1a-a4f0-4cd7-9140-54b8d255330b"},"vehicle_type_id":"4","last_reported":1713197285,"current_range_meters":28000,"station_id":"ce4bh092rcd13ifvqd30","pricing_plan_id":"cebpf4jnsgd1na2vs0mg"},{"bike_id":"4ff47b45-89cb-4e7d-b7b7-cd61584444cd","system_id":"levelo_inurba_marseille","lat":43.312609,"lon":5.401662,"is_reserved":false,"is_disabled":false,"rental_uris":{"android":"levelo://app?vid=4ff47b45-89cb-4e7d-b7b7-cd61584444cd","ios":"levelo://app?vid=4ff47b45-89cb-4e7d-b7b7-cd61584444cd"},"vehicle_type_id":"4","last_reported":1713197285,"current_range_meters":8000,"station_id":"ce4bh092rcd13ifvqd30","pricing_plan_id":"cebpf4jnsgd1na2vs0mg"},{"bike_id":"a39f5224-c737-4241-b67d-2191231c077a","system_id":"levelo_inurba_marseille","lat":43.33768,"lon":5.37472,"is_reserved":false,"is_disabled":false,"rental_uris":{"android":"levelo://app?vid=a39f5224-c737-4241-b67d-2191231c077a","ios":"levelo://app?vid=a39f5224-c737-4241-b67d-2191231c077a"},"vehicle_type_id":"4","last_reported":1713197285,"current_range_meters":12000,"station_id":"","pricing_plan_id":"cebpf4jnsgd1na2vs0mg"},{"bike_id":"89b9db50-4c59-4e9a-83dc-3a25ce901caf","system_id":"levelo_inurba_marseille","lat":43.301117,"lon":5.398795,"is_reserved":false,"is_disabled":false,"rental_uris":{"android":"levelo://app?vid=89b9db50-4c59-4e9a-83dc-3a25ce901caf","ios":"levelo://app?vid=89b9db50-4c59-4e9a-83dc-3a25ce901caf"},"vehicle_type_id":"4","last_reported":1713197285,"current_range_meters":0,"station_id":"ce4bh0h2rcd13ifvqd40","pricing_plan_id":"cebpf4jnsgd1na2vs0mg"},{"bike_id":"91913476-c227-42c8-94f6-7820b53158db","system_id":"levelo_inurba_marseille","lat":43.301235,"lon":5.398621,"is_reserved":false,"is_disabled":false,"rental_uris":{"android":"levelo://app?vid=91913476-c227-42c8-94f6-7820b53158db","ios":"levelo://app?vid=91913476-c227-42c8-94f6-7820b53158db"},"vehicle_type_id":"4","last_reported":1713197285,"current_range_meters":15200,"station_id":"ce4bh0h2rcd13ifvqd40","pricing_plan_id":"cebpf4jnsgd1na2vs0mg"},{"bike_id":"1e9c2567-53bb-43df-ae16-c94e120892fe","system_id":"levelo_inurba_marseille","lat":43.301117,"lon":5.398795,"is_reserved":false,"is_disabled":false,"rental_uris":{"android":"levelo://app?vid=1e9c2567-53bb-43df-ae16-c94e120892fe","ios":"levelo://app?vid=1e9c2567-53bb-43df-ae16-c94e120892fe"},"vehicle_type_id":"4","last_reported":1713197285,"current_range_meters":0,"station_id":"ce4bh0h2rcd13ifvqd40","pricing_plan_id":"cebpf4jnsgd1na2vs0mg"},{"bike_id":"4f01c83c-bfae-445a-95d2-b27ab4c50e36","system_id":"levelo_inurba_marseille","lat":43.301117,"lon":5.398795,"is_reserved":false,"is_disabled":false,"rental_uris":{"android":"levelo://app?vid=4f01c83c-bfae-445a-95d2-b27ab4c50e36","ios":"levelo://app?vid=4f01c83c-bfae-445a-95d2-b27ab4c50e36"},"vehicle_type_id":"4","last_reported":1713197285,"current_range_meters":0,"station_id":"ce4bh0h2rcd13ifvqd40","pricing_plan_id":"cebpf4jnsgd1na2vs0mg"},{"bike_id":"2cc4a030-137e-4c13-8f4b-e7efe1d029ac","system_id":"levelo_inurba_marseille","lat":43.28727,"lon":5.36078,"is_reserved":false,"is_disabled":false,"rental_uris":{"android":"levelo://app?vid=2cc4a030-137e-4c13-8f4b-e7efe1d029ac","ios":"levelo://app?vid=2cc4a030-137e-4c13-8f4b-e7efe1d029ac"},"vehicle_type_id":"4","last_reported":1713197285,"current_range_meters":23600,"station_id":"cki0cbj6b192h4jlfktg","pricing_plan_id":"cebpf4jnsgd1na2vs0mg"},{"bike_id":"d94a64d4-18aa-4ab1-8d5f-d3b6729ba088","system_id":"levelo_inurba_marseille","lat":43.298823,"lon":5.397303,"is_reserved":false,"is_disabled":false,"rental_uris":{"android":"levelo://app?vid=d94a64d4-18aa-4ab1-8d5f-d3b6729ba088","ios":"levelo://app?vid=d94a64d4-18aa-4ab1-8d5f-d3b6729ba088"},"vehicle_type_id":"4","last_reported":1713197285,"current_range_meters":0,"station_id":"ce4bh0h2rcd13ifvqd50","pricing_plan_id":"cebpf4jnsgd1na2vs0mg"},{"bike_id":"bed8d782-e468-470f-a384-346e4452d061","system_id":"levelo_inurba_marseille","lat":43.29874,"lon":5.39726,"is_reserved":false,"is_disabled":false,"rental_uris":{"android":"levelo://app?vid=bed8d782-e468-470f-a384-346e4452d061","ios":"levelo://app?vid=bed8d782-e468-470f-a384-346e4452d061"},"vehicle_type_id":"4","last_reported":1713197285,"current_range_meters":0,"station_id":"ce4bh0h2rcd13ifvqd50","pricing_plan_id":"cebpf4jnsgd1na2vs0mg"},{"bike_id":"34cb30c9-5fbc-470d-b0c1-55c2912fb27b","system_id":"levelo_inurba_marseille","lat":43.298697,"lon":5.397261,"is_reserved":false,"is_disabled":false,"rental_uris":{"android":"levelo://app?vid=34cb30c9-5fbc-470d-b0c1-55c2912fb27b","ios":"levelo://app?vid=34cb30c9-5fbc-470d-b0c1-55c2912fb27b"},"vehicle_type_id":"4","last_reported":1713197285,"current_range_meters":0,"station_id":"ce4bh0h2rcd13ifvqd50","pricing_plan_id":"cebpf4jnsgd1na2vs0mg"},{"bike_id":"48ca527f-af86-4975-b872-05655c114d24","system_id":"levelo_inurba_marseille","lat":43.298681,"lon":5.397225,"is_reserved":false,"is_disabled":false,"rental_uris":{"android":"levelo://app?vid=48ca527f-af86-4975-b872-05655c114d24","ios":"levelo://app?vid=48ca527f-af86-4975-b872-05655c114d24"},"vehicle_type_id":"4","last_reported":1713197285,"current_range_meters":24800,"station_id":"ce4bh0h2rcd13ifvqd50","pricing_plan_id":"cebpf4jnsgd1na2vs0mg"},{"bike_id":"844a711d-bdc9-4d2d-b3e7-ac388e19a082","system_id":"levelo_inurba_marseille","lat":43.286961,"lon":5.373785,"is_reserved":false,"is_disabled":false,"rental_uris":{"android":"levelo://app?vid=844a711d-bdc9-4d2d-b3e7-ac388e19a082","ios":"levelo://app?vid=844a711d-bdc9-4d2d-b3e7-ac388e19a082"},"vehicle_type_id":"4","last_reported":1713197285,"current_range_meters":13200,"station_id":"ce4bh3p2rcd13ifvqdq0","pricing_plan_id":"cebpf4jnsgd1na2vs0mg"},{"bike_id":"44bd4da1-ac7e-4d89-8589-13edcc53d010","system_id":"levelo_inurba_marseille","lat":43.286961,"lon":5.373785,"is_reserved":false,"is_disabled":false,"rental_uris":{"android":"levelo://app?vid=44bd4da1-ac7e-4d89-8589-13edcc53d010","ios":"levelo://app?vid=44bd4da1-ac7e-4d89-8589-13edcc53d010"},"vehicle_type_id":"4","last_reported":1713197285,"current_range_meters":16000,"station_id":"ce4bh3p2rcd13ifvqdq0","pricing_plan_id":"cebpf4jnsgd1na2vs0mg"},{"bike_id":"00150cd6-7301-4c0a-8272-36efb3616aa6","system_id":"levelo_inurba_marseille","lat":43.295196,"lon":5.39397,"is_reserved":false,"is_disabled":false,"rental_uris":{"android":"levelo://app?vid=00150cd6-7301-4c0a-8272-36efb3616aa6","ios":"levelo://app?vid=00150cd6-7301-4c0a-8272-36efb3616aa6"},"vehicle_type_id":"4","last_reported":1713197285,"current_range_meters":0,"station_id":"ce4bh292rcd13ifvqdf0","pricing_plan_id":"cebpf4jnsgd1na2vs0mg"},{"bike_id":"7de4e707-5ca3-461c-8d1d-1000509cc9c0","system_id":"levelo_inurba_marseille","lat":43.295194,"lon":5.39397,"is_reserved":false,"is_disabled":false,"rental_uris":{"android":"levelo://app?vid=7de4e707-5ca3-461c-8d1d-1000509cc9c0","ios":"levelo://app?vid=7de4e707-5ca3-461c-8d1d-1000509cc9c0"},"vehicle_type_id":"4","last_reported":1713197285,"current_range_meters":6400,"station_id":"ce4bh292rcd13ifvqdf0","pricing_plan_id":"cebpf4jnsgd1na2vs0mg"},{"bike_id":"4968f72b-c01d-4269-a42a-0b03e4439f1b","system_id":"levelo_inurba_marseille","lat":43.295194,"lon":5.39397,"is_reserved":false,"is_disabled":false,"rental_uris":{"android":"levelo://app?vid=4968f72b-c01d-4269-a42a-0b03e4439f1b","ios":"levelo://app?vid=4968f72b-c01d-4269-a42a-0b03e4439f1b"},"vehicle_type_id":"4","last_reported":1713197285,"current_range_meters":4400,"station_id":"ce4bh292rcd13ifvqdf0","pricing_plan_id":"cebpf4jnsgd1na2vs0mg"},{"bike_id":"a02d1b79-182a-41d4-84f5-e68899728636","system_id":"levelo_inurba_marseille","lat":43.290336,"lon":5.386425,"is_reserved":false,"is_disabled":false,"rental_uris":{"android":"levelo://app?vid=a02d1b79-182a-41d4-84f5-e68899728636","ios":"levelo://app?vid=a02d1b79-182a-41d4-84f5-e68899728636"},"vehicle_type_id":"4","last_reported":1713197285,"current_range_meters":13600,"station_id":"ce4bh4p2rcd13ifvqe0g","pricing_plan_id":"cebpf4jnsgd1na2vs0mg"},{"bike_id":"f12668c9-cb3a-4812-b622-2667f1dce6ba","system_id":"levelo_inurba_marseille","lat":43.289307,"lon":5.38406,"is_reserved":false,"is_disabled":false,"rental_uris":{"android":"levelo://app?vid=f12668c9-cb3a-4812-b622-2667f1dce6ba","ios":"levelo://app?vid=f12668c9-cb3a-4812-b622-2667f1dce6ba"},"vehicle_type_id":"4","last_reported":1713197285,"current_range_meters":8800,"station_id":"ce4bh612rcd13ifvqe6g","pricing_plan_id":"cebpf4jnsgd1na2vs0mg"},{"bike_id":"9c0791ae-7835-45ed-a90a-43103868d14a","system_id":"levelo_inurba_marseille","lat":43.302759,"lon":5.400793,"is_reserved":false,"is_disabled":false,"rental_uris":{"android":"levelo://app?vid=9c0791ae-7835-45ed-a90a-43103868d14a","ios":"levelo://app?vid=9c0791ae-7835-45ed-a90a-43103868d14a"},"vehicle_type_id":"4","last_reported":1713197285,"current_range_meters":23600,"station_id":"ce4bgvh2rcd13ifvqcs0","pricing_plan_id":"cebpf4jnsgd1na2vs0mg"},{"bike_id":"e9cdf066-8500-4e50-a6b8-0931dd14e57d","system_id":"levelo_inurba_marseille","lat":43.290336,"lon":5.386425,"is_reserved":false,"is_disabled":false,"rental_uris":{"android":"levelo://app?vid=e9cdf066-8500-4e50-a6b8-0931dd14e57d","ios":"levelo://app?vid=e9cdf066-8500-4e50-a6b8-0931dd14e57d"},"vehicle_type_id":"4","last_reported":1713197285,"current_range_meters":3200,"station_id":"ce4bh4p2rcd13ifvqe0g","pricing_plan_id":"cebpf4jnsgd1na2vs0mg"},{"bike_id":"6efa125e-f4db-472c-938e-061e3bd7ebfe","system_id":"levelo_inurba_marseille","lat":43.289307,"lon":5.38406,"is_reserved":false,"is_disabled":false,"rental_uris":{"android":"levelo://app?vid=6efa125e-f4db-472c-938e-061e3bd7ebfe","ios":"levelo://app?vid=6efa125e-f4db-472c-938e-061e3bd7ebfe"},"vehicle_type_id":"4","last_reported":1713197285,"current_range_meters":21600,"station_id":"ce4bh612rcd13ifvqe6g","pricing_plan_id":"cebpf4jnsgd1na2vs0mg"},{"bike_id":"4ef5eeac-b310-45d4-ac62-875a35c9386d","system_id":"levelo_inurba_marseille","lat":43.30267,"lon":5.40079,"is_reserved":false,"is_disabled":false,"rental_uris":{"android":"levelo://app?vid=4ef5eeac-b310-45d4-ac62-875a35c9386d","ios":"levelo://app?vid=4ef5eeac-b310-45d4-ac62-875a35c9386d"},"vehicle_type_id":"4","last_reported":1713197285,"current_range_meters":13200,"station_id":"ce4bgvh2rcd13ifvqcs0","pricing_plan_id":"cebpf4jnsgd1na2vs0mg"},{"bike_id":"872a3a39-460b-40c8-b942-9653b8033f61","system_id":"levelo_inurba_marseille","lat":43.302759,"lon":5.400793,"is_reserved":false,"is_disabled":false,"rental_uris":{"android":"levelo://app?vid=872a3a39-460b-40c8-b942-9653b8033f61","ios":"levelo://app?vid=872a3a39-460b-40c8-b942-9653b8033f61"},"vehicle_type_id":"4","last_reported":1713197285,"current_range_meters":2000,"station_id":"ce4bgvh2rcd13ifvqcs0","pricing_plan_id":"cebpf4jnsgd1na2vs0mg"},{"bike_id":"f2b9a9e6-6a10-49dd-a575-03fcda11ee00","system_id":"levelo_inurba_marseille","lat":43.286039,"lon":5.370681,"is_reserved":false,"is_disabled":false,"rental_uris":{"android":"levelo://app?vid=f2b9a9e6-6a10-49dd-a575-03fcda11ee00","ios":"levelo://app?vid=f2b9a9e6-6a10-49dd-a575-03fcda11ee00"},"vehicle_type_id":"4","last_reported":1713197285,"current_range_meters":17200,"station_id":"ce4bht12rcd13ifvqi60","pricing_plan_id":"cebpf4jnsgd1na2vs0mg"},{"bike_id":"1134afdc-f903-4547-b026-36d3bdd74c3a","system_id":"levelo_inurba_marseille","lat":43.302759,"lon":5.400793,"is_reserved":false,"is_disabled":false,"rental_uris":{"android":"levelo://app?vid=1134afdc-f903-4547-b026-36d3bdd74c3a","ios":"levelo://app?vid=1134afdc-f903-4547-b026-36d3bdd74c3a"},"vehicle_type_id":"4","last_reported":1713197285,"current_range_meters":18400,"station_id":"ce4bgvh2rcd13ifvqcs0","pricing_plan_id":"cebpf4jnsgd1na2vs0mg"},{"bike_id":"8b186dfa-b23f-41e4-8d16-ad395a15a63c","system_id":"levelo_inurba_marseille","lat":43.286039,"lon":5.370681,"is_reserved":false,"is_disabled":false,"rental_uris":{"android":"levelo://app?vid=8b186dfa-b23f-41e4-8d16-ad395a15a63c","ios":"levelo://app?vid=8b186dfa-b23f-41e4-8d16-ad395a15a63c"},"vehicle_type_id":"4","last_reported":1713197285,"current_range_meters":12400,"station_id":"ce4bht12rcd13ifvqi60","pricing_plan_id":"cebpf4jnsgd1na2vs0mg"},{"bike_id":"1dfa0d25-86ec-4e2d-a9c6-2f52e274a61b","system_id":"levelo_inurba_marseille","lat":43.287185,"lon":5.379373,"is_reserved":false,"is_disabled":false,"rental_uris":{"android":"levelo://app?vid=1dfa0d25-86ec-4e2d-a9c6-2f52e274a61b","ios":"levelo://app?vid=1dfa0d25-86ec-4e2d-a9c6-2f52e274a61b"},"vehicle_type_id":"4","last_reported":1713197285,"current_range_meters":400,"station_id":"ce4bh9p2rcd13ifvqec0","pricing_plan_id":"cebpf4jnsgd1na2vs0mg"},{"bike_id":"051b38ef-560b-45c6-b395-8355e46f4ef1","system_id":"levelo_inurba_marseille","lat":43.287185,"lon":5.379373,"is_reserved":false,"is_disabled":false,"rental_uris":{"android":"levelo://app?vid=051b38ef-560b-45c6-b395-8355e46f4ef1","ios":"levelo://app?vid=051b38ef-560b-45c6-b395-8355e46f4ef1"},"vehicle_type_id":"4","last_reported":1713197285,"current_range_meters":15600,"station_id":"ce4bh9p2rcd13ifvqec0","pricing_plan_id":"cebpf4jnsgd1na2vs0mg"},{"bike_id":"6194edd4-c8df-415b-920f-ee530d2f755d","system_id":"levelo_inurba_marseille","lat":43.287185,"lon":5.379373,"is_reserved":false,"is_disabled":false,"rental_uris":{"android":"levelo://app?vid=6194edd4-c8df-415b-920f-ee530d2f755d","ios":"levelo://app?vid=6194edd4-c8df-415b-920f-ee530d2f755d"},"vehicle_type_id":"4","last_reported":1713197285,"current_range_meters":0,"station_id":"ce4bh9p2rcd13ifvqec0","pricing_plan_id":"cebpf4jnsgd1na2vs0mg"},{"bike_id":"9e256570-dd26-4cb8-aa91-9c31330b29e9","system_id":"levelo_inurba_marseille","lat":43.316821,"lon":5.404737,"is_reserved":false,"is_disabled":false,"rental_uris":{"android":"levelo://app?vid=9e256570-dd26-4cb8-aa91-9c31330b29e9","ios":"levelo://app?vid=9e256570-dd26-4cb8-aa91-9c31330b29e9"},"vehicle_type_id":"4","last_reported":1713197285,"current_range_meters":0,"station_id":"ce4bh012rcd13ifvqd00","pricing_plan_id":"cebpf4jnsgd1na2vs0mg"},{"bike_id":"c1a432c5-528c-4d4d-8a02-024c7b15b553","system_id":"levelo_inurba_marseille","lat":43.316821,"lon":5.404737,"is_reserved":false,"is_disabled":false,"rental_uris":{"android":"levelo://app?vid=c1a432c5-528c-4d4d-8a02-024c7b15b553","ios":"levelo://app?vid=c1a432c5-528c-4d4d-8a02-024c7b15b553"},"vehicle_type_id":"4","last_reported":1713197285,"current_range_meters":4400,"station_id":"ce4bh012rcd13ifvqd00","pricing_plan_id":"cebpf4jnsgd1na2vs0mg"},{"bike_id":"7aeac33a-fd6d-408a-8d92-1fb7b9703698","system_id":"levelo_inurba_marseille","lat":43.291994,"lon":5.392907,"is_reserved":false,"is_disabled":false,"rental_uris":{"android":"levelo://app?vid=7aeac33a-fd6d-408a-8d92-1fb7b9703698","ios":"levelo://app?vid=7aeac33a-fd6d-408a-8d92-1fb7b9703698"},"vehicle_type_id":"4","last_reported":1713197285,"current_range_meters":27200,"station_id":"ce4bh192rcd13ifvqdd0","pricing_plan_id":"cebpf4jnsgd1na2vs0mg"},{"bike_id":"9f9c7695-c5be-4a6d-856a-1e8bb6dace9e","system_id":"levelo_inurba_marseille","lat":43.291994,"lon":5.392907,"is_reserved":false,"is_disabled":false,"rental_uris":{"android":"levelo://app?vid=9f9c7695-c5be-4a6d-856a-1e8bb6dace9e","ios":"levelo://app?vid=9f9c7695-c5be-4a6d-856a-1e8bb6dace9e"},"vehicle_type_id":"4","last_reported":1713197285,"current_range_meters":5600,"station_id":"ce4bh192rcd13ifvqdd0","pricing_plan_id":"cebpf4jnsgd1na2vs0mg"},{"bike_id":"6bb9c0b6-c630-445e-beb2-df1c0b92de00","system_id":"levelo_inurba_marseille","lat":43.284538,"lon":5.358657,"is_reserved":false,"is_disabled":false,"rental_uris":{"android":"levelo://app?vid=6bb9c0b6-c630-445e-beb2-df1c0b92de00","ios":"levelo://app?vid=6bb9c0b6-c630-445e-beb2-df1c0b92de00"},"vehicle_type_id":"4","last_reported":1713197285,"current_range_meters":400,"station_id":"ce4bhah2rcd13ifvqei0","pricing_plan_id":"cebpf4jnsgd1na2vs0mg"},{"bike_id":"349ea26a-f114-4418-ae43-19577bb1fc08","system_id":"levelo_inurba_marseille","lat":43.323464,"lon":5.406297,"is_reserved":false,"is_disabled":false,"rental_uris":{"android":"levelo://app?vid=349ea26a-f114-4418-ae43-19577bb1fc08","ios":"levelo://app?vid=349ea26a-f114-4418-ae43-19577bb1fc08"},