{"last_updated":1736763022,"ttl":60,"version":"2.2","data":{"bikes":[{"bike_id":"73c91127-67e0-422f-8568-4d52dd016d1c","system_id":"levelo_inurba_marseille","lat":43.32489,"lon":5.36595,"is_reserved":false,"is_disabled":false,"rental_uris":{"android":"levelo://app?vid=73c91127-67e0-422f-8568-4d52dd016d1c","ios":"levelo://app?vid=73c91127-67e0-422f-8568-4d52dd016d1c"},"vehicle_type_id":"4","last_reported":1736763022,"current_range_meters":12800,"station_id":"ce4bhs12rcd13ifvqhvg","pricing_plan_id":"cebpf4jnsgd1na2vs0mg"},{"bike_id":"603e9aa2-2e36-4a39-aea3-018b1a0429c2","system_id":"levelo_inurba_marseille","lat":43.24077,"lon":5.37761,"is_reserved":false,"is_disabled":false,"rental_uris":{"android":"levelo://app?vid=603e9aa2-2e36-4a39-aea3-018b1a0429c2","ios":"levelo://app?vid=603e9aa2-2e36-4a39-aea3-018b1a0429c2"},"vehicle_type_id":"4","last_reported":1736763022,"current_range_meters":28800,"station_id":"ce4bhnp2rcd13ifvqgvg","pricing_plan_id":"cebpf4jnsgd1na2vs0mg"},{"bike_id":"3e2a0fc6-295e-4a34-ab81-d2a0920baf45","system_id":"levelo_inurba_marseille","lat":43.27997,"lon":5.40025,"is_reserved":false,"is_disabled":false,"rental_uris":{"android":"levelo://app?vid=3e2a0fc6-295e-4a34-ab81-d2a0920baf45","ios":"levelo://app?vid=3e2a0fc6-295e-4a34-ab81-d2a0920baf45"},"vehicle_type_id":"4","last_reported":1736763022,"current_range_meters":18800,"station_id":"ce4bho92rcd13ifvqh4g","pricing_plan_id":"cebpf4jnsgd1na2vs0mg"},{"bike_id":"acbcebf9-c541-4938-9819-ce556c78935a","system_id":"levelo_inurba_marseille","lat":43.25922,"lon":5.40897,"is_reserved":false,"is_disabled":false,"rental_uris":{"android":"levelo://app?vid=acbcebf9-c541-4938-9819-ce556c78935a","ios":"levelo://app?vid=acbcebf9-c541-4938-9819-ce556c78935a"},"vehicle_type_id":"4","last_reported":1736763022,"current_range_meters":31200,"station_id":"ce4bhm92rcd13ifvqglg","pricing_plan_id":"cebpf4jnsgd1na2vs0mg"},{"bike_id":"78cffbc6-8839-43eb-a65c-ccbdbbc93c10","system_id":"levelo_inurba_marseille","lat":43.28459,"lon":5.35891,"is_reserved":false,"is_disabled":false,"rental_uris":{"android":"levelo://app?vid=78cffbc6-8839-43eb-a65c-ccbdbbc93c10","ios":"levelo://app?vid=78cffbc6-8839-43eb-a65c-ccbdbbc93c10"},"vehicle_type_id":"4","last_reported":1736763022,"current_range_meters":29600,"station_id":"ce4bhah2rcd13ifvqei0","pricing_plan_id":"cebpf4jnsgd1na2vs0mg"},{"bike_id":"07bc85c0-570a-4eb0-bb38-55d45fa69f2b","system_id":"levelo_inurba_marseille","lat":43.31356,"lon":5.38505,"is_reserved":false,"is_disabled":false,"rental_uris":{"android":"levelo://app?vid=07bc85c0-570a-4eb0-bb38-55d45fa69f2b","ios":"levelo://app?vid=07bc85c0-570a-4eb0-bb38-55d45fa69f2b"},"vehicle_type_id":"4","last_reported":1736763022,"current_range_meters":33600,"station_id":"ce4bgt92rcd13ifvqcf0","pricing_plan_id":"cebpf4jnsgd1na2vs0mg"},{"bike_id":"73a06f76-fb63-4b48-a702-d3db82d41550","system_id":"levelo_inurba_marseille","lat":43.24669,"lon":5.38914,"is_reserved":false,"is_disabled":false,"rental_uris":{"android":"levelo://app?vid=73a06f76-fb63-4b48-a702-d3db82d41550","ios":"levelo://app?vid=73a06f76-fb63-4b48-a702-d3db82d41550"},"vehicle_type_id":"4","last_reported":1736763022,"current_range_meters":38800,"station_id":"ce4bhg12rcd13ifvqf60","pricing_plan_id":"cebpf4jnsgd1na2vs0mg"},{"bike_id":"fdd27d86-85b8-4138-8a1d-9bac2d13dd59","system_id":"levelo_inurba_marseille","lat":43.23963,"lon":5.36633,"is_reserved":false,"is_disabled":false,"rental_uris":{"android":"levelo://app?vid=fdd27d86-85b8-4138-8a1d-9bac2d13dd59","ios":"levelo://app?vid=fdd27d86-85b8-4138-8a1d-9bac2d13dd59"},"vehicle_type_id":"4","last_reported":1736763022,"current_range_meters":26800,"station_id":"ce4bhi12rcd13ifvqfp0","pricing_plan_id":"cebpf4jnsgd1na2vs0mg"},{"bike_id":"acf4a85e-fcd2-4e12-9338-42f6ec5a2f52","system_id":"levelo_inurba_marseille","lat":43.29773,"lon":5.37112,"is_reserved":false,"is_disabled":false,"rental_uris":{"android":"levelo://app?vid=acf4a85e-fcd2-4e12-9338-42f6ec5a2f52","ios":"levelo://app?vid=acf4a85e-fcd2-4e12-9338-42f6ec5a2f52"},"vehicle_type_id":"4","last_reported":1736763022,"current_range_meters":25600,"station_id":"ce4bgop2rcd13ifvqc1g","pricing_plan_id":"cebpf4jnsgd1na2vs0mg"},{"bike_id":"884fd41f-97c5-422e-9e62-1f5030d6ef6c","system_id":"levelo_inurba_marseille","lat":43.337444,"lon":5.374475,"is_reserved":false,"is_disabled":false,"rental_uris":{"android":"levelo://app?vid=884fd41f-97c5-422e-9e62-1f5030d6ef6c","ios":"levelo://app?vid=884fd41f-97c5-422e-9e62-1f5030d6ef6c"},"vehicle_type_id":"4","last_reported":1736763022,"current_range_meters":36000,"station_id":"ce4bh092rcd13ifvqd20","pricing_plan_id":"cebpf4jnsgd1na2vs0mg"},{"bike_id":"6f159896-776d-419c-ba79-7243c169a2d8","system_id":"levelo_inurba_marseille","lat":43.297934,"lon":5.38109,"is_reserved":false,"is_disabled":false,"rental_uris":{"android":"levelo://app?vid=6f159896-776d-419c-ba79-7243c169a2d8","ios":"levelo://app?vid=6f159896-776d-419c-ba79-7243c169a2d8"},"vehicle_type_id":"4","last_reported":1736763022,"current_range_meters":38800,"station_id":"ce4bgip2rcd13ifvqbb0","pricing_plan_id":"cebpf4jnsgd1na2vs0mg"},{"bike_id":"15df4899-6207-496a-8c37-ac953b2dff2b","system_id":"levelo_inurba_marseille","lat":43.30535,"lon":5.36705,"is_reserved":false,"is_disabled":false,"rental_uris":{"android":"levelo://app?vid=15df4899-6207-496a-8c37-ac953b2dff2b","ios":"levelo://app?vid=15df4899-6207-496a-8c37-ac953b2dff2b"},"vehicle_type_id":"4","last_reported":1736763022,"current_range_meters":38800,"station_id":"ce4bgrp2rcd13ifvqc9g","pricing_plan_id":"cebpf4jnsgd1na2vs0mg"},{"bike_id":"5bb5758f-37be-496e-ac0a-3712e6b43125","system_id":"levelo_inurba_marseille","lat":43.26199,"lon":5.37929,"is_reserved":false,"is_disabled":false,"rental_uris":{"android":"levelo://app?vid=5bb5758f-37be-496e-ac0a-3712e6b43125","ios":"levelo://app?vid=5bb5758f-37be-496e-ac0a-3712e6b43125"},"vehicle_type_id":"4","last_reported":1736763022,"current_range_meters":38800,"station_id":"ce4bhjp2rcd13ifvqg90","pricing_plan_id":"cebpf4jnsgd1na2vs0mg"},{"bike_id":"fbdc1be9-0896-4827-9983-8a84e7013511","system_id":"levelo_inurba_marseille","lat":43.25086,"lon":5.40364,"is_reserved":false,"is_disabled":false,"rental_uris":{"android":"levelo://app?vid=fbdc1be9-0896-4827-9983-8a84e7013511","ios":"levelo://app?vid=fbdc1be9-0896-4827-9983-8a84e7013511"},"vehicle_type_id":"4","last_reported":1736763022,"current_range_meters":37600,"station_id":"ce4bhlh2rcd13ifvqgig","pricing_plan_id":"cebpf4jnsgd1na2vs0mg"},{"bike_id":"b7c95a4d-e714-4c82-a361-002702214c95","system_id":"levelo_inurba_marseille","lat":43.28271,"lon":5.35064,"is_reserved":false,"is_disabled":false,"rental_uris":{"android":"levelo://app?vid=b7c95a4d-e714-4c82-a361-002702214c95","ios":"levelo://app?vid=b7c95a4d-e714-4c82-a361-002702214c95"},"vehicle_type_id":"4","last_reported":1736763022,"current_range_meters":32000,"station_id":"ce4bhbp2rcd13ifvqerg","pricing_plan_id":"cebpf4jnsgd1na2vs0mg"},{"bike_id":"eef7da32-c1ce-4bb8-ad34-65e94b05905f","system_id":"levelo_inurba_marseille","lat":43.26783,"lon":5.39423,"is_reserved":false,"is_disabled":false,"rental_uris":{"android":"levelo://app?vid=eef7da32-c1ce-4bb8-ad34-65e94b05905f","ios":"levelo://app?vid=eef7da32-c1ce-4bb8-ad34-65e94b05905f"},"vehicle_type_id":"4","last_reported":1736763022,"current_range_meters":32800,"station_id":"ce4bhh12rcd13ifvqfg0","pricing_plan_id":"cebpf4jnsgd1na2vs0mg"},{"bike_id":"660b2e55-75a7-43af-ad92-d6e9be442618","system_id":"levelo_inurba_marseille","lat":43.30305,"lon":5.36895,"is_reserved":false,"is_disabled":false,"rental_uris":{"android":"levelo://app?vid=660b2e55-75a7-43af-ad92-d6e9be442618","ios":"levelo://app?vid=660b2e55-75a7-43af-ad92-d6e9be442618"},"vehicle_type_id":"4","last_reported":1736763022,"current_range_meters":30800,"station_id":"ce4bgqh2rcd13ifvqc5g","pricing_plan_id":"cebpf4jnsgd1na2vs0mg"},{"bike_id":"8a0a63c5-a4ea-4b70-8b87-5cf7d310b8f8","system_id":"levelo_inurba_marseille","lat":43.30284,"lon":5.37737,"is_reserved":false,"is_disabled":false,"rental_uris":{"android":"levelo://app?vid=8a0a63c5-a4ea-4b70-8b87-5cf7d310b8f8","ios":"levelo://app?vid=8a0a63c5-a4ea-4b70-8b87-5cf7d310b8f8"},"vehicle_type_id":"4","last_reported":1736763022,"current_range_meters":17600,"station_id":"ce4bguh2rcd13ifvqcj0","pricing_plan_id":"cebpf4jnsgd1na2vs0mg"},{"bike_id":"7ef2be12-0b00-4e18-aaf8-eb20c7337086","system_id":"levelo_inurba_marseille","lat":43.27492,"lon":5.42452,"is_reserved":false,"is_disabled":false,"rental_uris":{"android":"levelo://app?vid=7ef2be12-0b00-4e18-aaf8-eb20c7337086","ios":"levelo://app?vid=7ef2be12-0b00-4e18-aaf8-eb20c7337086"},"vehicle_type_id":"4","last_reported":1736763022,"current_range_meters":16000,"station_id":"ce4bhn92rcd13ifvqgrg","pricing_plan_id":"cebpf4jnsgd1na2vs0mg"},{"bike_id":"b5c8f85c-e9ae-462e-b017-013eb2d5b68f","system_id":"levelo_inurba_marseille","lat":43.2314,"lon":5.43715,"is_reserved":false,"is_disabled":false,"rental_uris":{"android":"levelo://app?vid=b5c8f85c-e9ae-462e-b017-013eb2d5b68f","ios":"levelo://app?vid=b5c8f85c-e9ae-462e-b017-013eb2d5b68f"},"vehicle_type_id":"4","last_reported":1736763022,"current_range_meters":14400,"station_id":"ce4bhmp2rcd13ifvqgog","pricing_plan_id":"cebpf4jnsgd1na2vs0mg"},{"bike_id":"f6184cbf-c92f-4cd9-a4bc-725ea8804222","system_id":"levelo_inurba_marseille","lat":43.34157,"lon":5.4092,"is_reserved":false,"is_disabled":false,"rental_uris":{"android":"levelo://app?vid=f6184cbf-c92f-4cd9-a4bc-725ea8804222","ios":"levelo://app?vid=f6184cbf-c92f-4cd9-a4bc-725ea8804222"},"vehicle_type_id":"4","last_reported":1736763022,"current_range_meters":39200,"station_id":"ce4bhqh2rcd13ifvqhlg","pricing_plan_id":"cebpf4jnsgd1na2vs0mg"},{"bike_id":"639a3884-51cf-48bc-b586-11035b68cac1","system_id":"levelo_inurba_marseille","lat":43.27057,"lon":5.40261,"is_reserved":false,"is_disabled":true,"rental_uris":{"android":"levelo://app?vid=639a3884-51cf-48bc-b586-11035b68cac1","ios":"levelo://app?vid=639a3884-51cf-48bc-b586-11035b68cac1"},"vehicle_type_id":"4","last_reported":1736763022,"current_range_meters":1200,"station_id":"ce4bhk92rcd13ifvqgc0","pricing_plan_id":"cebpf4jnsgd1na2vs0mg"},{"bike_id":"25201559-3be6-490e-b049-639df5366fcd","system_id":"levelo_inurba_marseille","lat":43.29982,"lon":5.38512,"is_reserved":false,"is_disabled":true,"rental_uris":{"android":"levelo://app?vid=25201559-3be6-490e-b049-639df5366fcd","ios":"levelo://app?vid=25201559-3be6-490e-b049-639df5366fcd"},"vehicle_type_id":"4","last_reported":1736763022,"current_range_meters":6800,"station_id":"ce4bgj92rcd13ifvqbd0","pricing_plan_id":"cebpf4jnsgd1na2vs0mg"},{"bike_id":"9fa9af50-b1c9-4c3e-bb7d-5ab93a672243","system_id":"levelo_inurba_marseille","lat":43.336089,"lon":5.410244,"is_reserved":false,"is_disabled":false,"rental_uris":{"android":"levelo://app?vid=9fa9af50-b1c9-4c3e-bb7d-5ab93a672243","ios":"levelo://app?vid=9fa9af50-b1c9-4c3e-bb7d-5ab93a672243"},"vehicle_type_id":"4","last_reported":1736763022,"current_range_meters":39200,"station_id":"ce4bhqh2rcd13ifvqhmg","pricing_plan_id":"cebpf4jnsgd1na2vs0mg"},{"bike_id":"216aea05-d26c-41b9-9856-10436a680663","system_id":"levelo_inurba_marseille","lat":43.30888,"lon":5.39655,"is_reserved":false,"is_disabled":false,"rental_uris":{"android":"levelo://app?vid=216aea05-d26c-41b9-9856-10436a680663","ios":"levelo://app?vid=216aea05-d26c-41b9-9856-10436a680663"},"vehicle_type_id":"4","last_reported":1736763022,"current_range_meters":34000,"station_id":"ce4bh012rcd13ifvqcv0","pricing_plan_id":"cebpf4jnsgd1na2vs0mg"},{"bike_id":"2ea2c228-0940-42c6-a0d3-d8191be146e6","system_id":"levelo_inurba_marseille","lat":43.30559,"lon":5.36727,"is_reserved":false,"is_disabled":false,"rental_uris":{"android":"levelo://app?vid=2ea2c228-0940-42c6-a0d3-d8191be146e6","ios":"levelo://app?vid=2ea2c228-0940-42c6-a0d3-d8191be146e6"},"vehicle_type_id":"4","last_reported":1736763022,"current_range_meters":38800,"station_id":"ce4bgrp2rcd13ifvqc9g","pricing_plan_id":"cebpf4jnsgd1na2vs0mg"},{"bike_id":"fff8389d-6087-44cb-8fc5-14fabbfc71ae","system_id":"levelo_inurba_marseille","lat":43.30327,"lon":5.36902,"is_reserved":false,"is_disabled":false,"rental_uris":{"android":"levelo://app?vid=fff8389d-6087-44cb-8fc5-14fabbfc71ae","ios":"levelo://app?vid=fff8389d-6087-44cb-8fc5-14fabbfc71ae"},"vehicle_type_id":"4","last_reported":1736763022,"current_range_meters":10000,"station_id":"ce4bgqh2rcd13ifvqc5g","pricing_plan_id":"cebpf4jnsgd1na2vs0mg"},{"bike_id":"6a8dc65c-8c47-4239-8815-8efa2acdc338","system_id":"levelo_inurba_marseille","lat":43.28003,"lon":5.41672,"is_reserved":false,"is_disabled":true,"rental_uris":{"android":"levelo://app?vid=6a8dc65c-8c47-4239-8815-8efa2acdc338","ios":"levelo://app?vid=6a8dc65c-8c47-4239-8815-8efa2acdc338"},"vehicle_type_id":"4","last_reported":1736763022,"current_range_meters":4400,"station_id":"ce4bho12rcd13ifvqh1g","pricing_plan_id":"cebpf4jnsgd1na2vs0mg"},{"bike_id":"94d00723-79f7-443c-bc62-0c89ddbb1d1c","system_id":"levelo_inurba_marseille","lat":43.28161,"lon":5.42645,"is_reserved":false,"is_disabled":true,"rental_uris":{"android":"levelo://app?vid=94d00723-79f7-443c-bc62-0c89ddbb1d1c","ios":"levelo://app?vid=94d00723-79f7-443c-bc62-0c89ddbb1d1c"},"vehicle_type_id":"4","last_reported":1736763022,"current_range_meters":22000,"station_id":"ce4bhnh2rcd13ifvqgug","pricing_plan_id":"cebpf4jnsgd1na2vs0mg"},{"bike_id":"940aece2-a797-446d-8b67-18bd06afe715","system_id":"levelo_inurba_marseille","lat":43.25822,"lon":5.39435,"is_reserved":false,"is_disabled":false,"rental_uris":{"android":"levelo://app?vid=940aece2-a797-446d-8b67-18bd06afe715","ios":"levelo://app?vid=940aece2-a797-446d-8b67-18bd06afe715"},"vehicle_type_id":"4","last_reported":1736763022,"current_range_meters":38800,"station_id":"ce4bhip2rcd13ifvqft0","pricing_plan_id":"cebpf4jnsgd1na2vs0mg"},{"bike_id":"1d1453ac-9920-4217-9a89-34f1fcade485","system_id":"levelo_inurba_marseille","lat":43.23158,"lon":5.43715,"is_reserved":false,"is_disabled":false,"rental_uris":{"android":"levelo://app?vid=1d1453ac-9920-4217-9a89-34f1fcade485","ios":"levelo://app?vid=1d1453ac-9920-4217-9a89-34f1fcade485"},"vehicle_type_id":"4","last_reported":1736763022,"current_range_meters":8400,"station_id":"ce4bhmp2rcd13ifvqgog","pricing_plan_id":"cebpf4jnsgd1na2vs0mg"},{"bike_id":"8f924094-8611-405a-b307-e2d789c3b4e3","system_id":"levelo_inurba_marseille","lat":43.3042,"lon":5.39741,"is_reserved":false,"is_disabled":false,"rental_uris":{"android":"levelo://app?vid=8f924094-8611-405a-b307-e2d789c3b4e3","ios":"levelo://app?vid=8f924094-8611-405a-b307-e2d789c3b4e3"},"vehicle_type_id":"4","last_reported":1736763022,"current_range_meters":28000,"station_id":"ce4bh092rcd13ifvqd20","pricing_plan_id":"cebpf4jnsgd1na2vs0mg"},{"bike_id":"e35d110b-0ca6-4c99-b711-04ba364d3860","system_id":"levelo_inurba_marseille","lat":43.23194,"lon":5.35557,"is_reserved":false,"is_disabled":false,"rental_uris":{"android":"levelo://app?vid=e35d110b-0ca6-4c99-b711-04ba364d3860","ios":"levelo://app?vid=e35d110b-0ca6-4c99-b711-04ba364d3860"},"vehicle_type_id":"4","last_reported":1736763022,"current_range_meters":38000,"station_id":"ce4bhu92rcd13ifvqi70","pricing_plan_id":"cebpf4jnsgd1na2vs0mg"},{"bike_id":"148d0a7c-42d0-4872-b2d5-6ca7f7016b4c","system_id":"levelo_inurba_marseille","lat":43.24185,"lon":5.39753,"is_reserved":false,"is_disabled":false,"rental_uris":{"android":"levelo://app?vid=148d0a7c-42d0-4872-b2d5-6ca7f7016b4c","ios":"levelo://app?vid=148d0a7c-42d0-4872-b2d5-6ca7f7016b4c"},"vehicle_type_id":"4","last_reported":1736763022,"current_range_meters":33600,"station_id":"ce4bhn12rcd13ifvqgpg","pricing_plan_id":"cebpf4jnsgd1na2vs0mg"},{"bike_id":"92a16257-c803-43e8-baae-6259f92b5ff5","system_id":"levelo_inurba_marseille","lat":43.29196,"lon":5.35808,"is_reserved":false,"is_disabled":true,"rental_uris":{"android":"levelo://app?vid=92a16257-c803-43e8-baae-6259f92b5ff5","ios":"levelo://app?vid=92a16257-c803-43e8-baae-6259f92b5ff5"},"vehicle_type_id":"4","last_reported":1736763022,"current_range_meters":2000,"station_id":"ce4bhb12rcd13ifvqel0","pricing_plan_id":"cebpf4jnsgd1na2vs0mg"},{"bike_id":"a16a4938-07a9-4f64-adf2-29a7e6f8a1c3","system_id":"levelo_inurba_marseille","lat":43.29039,"lon":5.39951,"is_reserved":false,"is_disabled":false,"rental_uris":{"android":"levelo://app?vid=a16a4938-07a9-4f64-adf2-29a7e6f8a1c3","ios":"levelo://app?vid=a16a4938-07a9-4f64-adf2-29a7e6f8a1c3"},"vehicle_type_id":"4","last_reported":1736763022,"current_range_meters":38800,"station_id":"ce4bh392rcd13ifvqdm0","pricing_plan_id":"cebpf4jnsgd1na2vs0mg"},{"bike_id":"bdc80251-0036-4dec-82df-8444ddf5d68b","system_id":"levelo_inurba_marseille","lat":43.29005,"lon":5.35613,"is_reserved":false,"is_disabled":false,"rental_uris":{"android":"levelo://app?vid=bdc80251-0036-4dec-82df-8444ddf5d68b","ios":"levelo://app?vid=bdc80251-0036-4dec-82df-8444ddf5d68b"},"vehicle_type_id":"4","last_reported":1736763022,"current_range_meters":6800,"station_id":"ce4bhb92rcd13ifvqen0","pricing_plan_id":"cebpf4jnsgd1na2vs0mg"},{"bike_id":"aa9570cc-0398-438b-93cc-8658846ae209","system_id":"levelo_inurba_marseille","lat":43.33611,"lon":5.41015,"is_reserved":false,"is_disabled":false,"rental_uris":{"android":"levelo://app?vid=aa9570cc-0398-438b-93cc-8658846ae209","ios":"levelo://app?vid=aa9570cc-0398-438b-93cc-8658846ae209"},"vehicle_type_id":"4","last_reported":1736763022,"current_range_meters":32400,"station_id":"ce4bhqh2rcd13ifvqhmg","pricing_plan_id":"cebpf4jnsgd1na2vs0mg"},{"bike_id":"ecd87c67-fa67-4053-bfcf-407ce67c775a","system_id":"levelo_inurba_marseille","lat":43.29313,"lon":5.37186,"is_reserved":false,"is_disabled":true,"rental_uris":{"android":"levelo://app?vid=ecd87c67-fa67-4053-bfcf-407ce67c775a","ios":"levelo://app?vid=ecd87c67-fa67-4053-bfcf-407ce67c775a"},"vehicle_type_id":"4","last_reported":1736763022,"current_range_meters":2000,"station_id":"ce4bgh92rcd13ifvqb40","pricing_plan_id":"cebpf4jnsgd1na2vs0mg"},{"bike_id":"4536007d-0cfb-4e9d-a914-9b715b46ce6f","system_id":"levelo_inurba_marseille","lat":43.27314,"lon":5.39083,"is_reserved":false,"is_disabled":true,"rental_uris":{"android":"levelo://app?vid=4536007d-0cfb-4e9d-a914-9b715b46ce6f","ios":"levelo://app?vid=4536007d-0cfb-4e9d-a914-9b715b46ce6f"},"vehicle_type_id":"4","last_reported":1736763022,"current_range_meters":19200,"station_id":"ce4bhgp2rcd13ifvqfe0","pricing_plan_id":"cebpf4jnsgd1na2vs0mg"},{"bike_id":"6b750947-fb43-40e2-9931-495446cc2b3f","system_id":"levelo_inurba_marseille","lat":43.2293,"lon":5.35372,"is_reserved":false,"is_disabled":false,"rental_uris":{"android":"levelo://app?vid=6b750947-fb43-40e2-9931-495446cc2b3f","ios":"levelo://app?vid=6b750947-fb43-40e2-9931-495446cc2b3f"},"vehicle_type_id":"4","last_reported":1736763022,"current_range_meters":29600,"station_id":"cpo3532slgdg3j2ikp40","pricing_plan_id":"cebpf4jnsgd1na2vs0mg"},{"bike_id":"c8e997c0-8580-4d0f-8d9f-0766596381e1","system_id":"levelo_inurba_marseille","lat":43.34032,"lon":5.37552,"is_reserved":false,"is_disabled":true,"rental_uris":{"android":"levelo://app?vid=c8e997c0-8580-4d0f-8d9f-0766596381e1","ios":"levelo://app?vid=c8e997c0-8580-4d0f-8d9f-0766596381e1"},"vehicle_type_id":"4","last_reported":1736763022,"current_range_meters":0,"station_id":"","pricing_plan_id":"cebpf4jnsgd1na2vs0mg"},{"bike_id":"8382408b-c02d-4216-82fb-9e187be52d3b","system_id":"levelo_inurba_marseille","lat":43.30304,"lon":5.37736,"is_reserved":false,"is_disabled":false,"rental_uris":{"android":"levelo://app?vid=8382408b-c02d-4216-82fb-9e187be52d3b","ios":"levelo://app?vid=8382408b-c02d-4216-82fb-9e187be52d3b"},"vehicle_type_id":"4","last_reported":1736763022,"current_range_meters":24400,"station_id":"ce4bguh2rcd13ifvqcj0","pricing_plan_id":"cebpf4jnsgd1na2vs0mg"},{"bike_id":"ba5df164-d25c-4a1c-8679-1bd1a1db0642","system_id":"levelo_inurba_marseille","lat":43.33737,"lon":5.39189,"is_reserved":false,"is_disabled":false,"rental_uris":{"android":"levelo://app?vid=ba5df164-d25c-4a1c-8679-1bd1a1db0642","ios":"levelo://app?vid=ba5df164-d25c-4a1c-8679-1bd1a1db0642"},"vehicle_type_id":"4","last_reported":1736763022,"current_range_meters":19600,"station_id":"ce4bhr92rcd13ifvqhsg","pricing_plan_id":"cebpf4jnsgd1na2vs0mg"},{"bike_id":"5108b6cf-4ded-4fbc-8c1c-5e566aa11fad","system_id":"levelo_inurba_marseille","lat":43.29898,"lon":5.43657,"is_reserved":false,"is_disabled":false,"rental_uris":{"android":"levelo://app?vid=5108b6cf-4ded-4fbc-8c1c-5e566aa11fad","ios":"levelo://app?vid=5108b6cf-4ded-4fbc-8c1c-5e566aa11fad"},"vehicle_type_id":"4","last_reported":1736763022,"current_range_meters":38800,"station_id":"ce4bhpp2rcd13ifvqhfg","pricing_plan_id":"cebpf4jnsgd1na2vs0mg"},{"bike_id":"11f8911a-8720-432e-b830-8b59af40bd6e","system_id":"levelo_inurba_marseille","lat":43.30912,"lon":5.36855,"is_reserved":false,"is_disabled":false,"rental_uris":{"android":"levelo://app?vid=11f8911a-8720-432e-b830-8b59af40bd6e","ios":"levelo://app?vid=11f8911a-8720-432e-b830-8b59af40bd6e"},"vehicle_type_id":"4","last_reported":1736763022,"current_range_meters":39200,"station_id":"ce4bgn92rcd13ifvqbvg","pricing_plan_id":"cebpf4jnsgd1na2vs0mg"},{"bike_id":"5b3f1dfb-2aa0-4707-a42a-8674894db5c0","system_id":"levelo_inurba_marseille","lat":43.30531,"lon":5.36535,"is_reserved":false,"is_disabled":false,"rental_uris":{"android":"levelo://app?vid=5b3f1dfb-2aa0-4707-a42a-8674894db5c0","ios":"levelo://app?vid=5b3f1dfb-2aa0-4707-a42a-8674894db5c0"},"vehicle_type_id":"4","last_reported":1736763022,"current_range_meters":28400,"station_id":"ce4bgs12rcd13ifvqcag","pricing_plan_id":"cebpf4jnsgd1na2vs0mg"},{"bike_id":"58e504dd-3012-4e73-bb99-89945b895023","system_id":"levelo_inurba_marseille","lat":43.26217,"lon":5.37439,"is_reserved":false,"is_disabled":false,"rental_uris":{"android":"levelo://app?vid=58e504dd-3012-4e73-bb99-89945b895023","ios":"levelo://app?vid=58e504dd-3012-4e73-bb99-89945b895023"},"vehicle_type_id":"4","last_reported":1736763022,"current_range_meters":24800,"station_id":"ce4bhgp2rcd13ifvqfc0","pricing_plan_id":"cebpf4jnsgd1na2vs0mg"},{"bike_id":"7dd5dd5e-1d75-4c5b-b5b8-248a34302cca","system_id":"levelo_inurba_marseille","lat":43.30474,"lon":5.379,"is_reserved":false,"is_disabled":true,"rental_uris":{"android":"levelo://app?vid=7dd5dd5e-1d75-4c5b-b5b8-248a34302cca","ios":"levelo://app?vid=7dd5dd5e-1d75-4c5b-b5b8-248a34302cca"},"vehicle_type_id":"4","last_reported":1736763022,"current_range_meters":27200,"station_id":"ce4bgup2rcd13ifvqcn0","pricing_plan_id":"cebpf4jnsgd1na2vs0mg"},{"bike_id":"d912dc3c-ecc3-4af2-8b7b-cb91a53c7e64","system_id":"levelo_inurba_marseille","lat":43.26024,"lon":5.37577,"is_reserved":false,"is_disabled":false,"rental_uris":{"android":"levelo://app?vid=d912dc3c-ecc3-4af2-8b7b-cb91a53c7e64","ios":"levelo://app?vid=d912dc3c-ecc3-4af2-8b7b-cb91a53c7e64"},"vehicle_type_id":"4","last_reported":1736763022,"current_range_meters":38400,"station_id":"ce4bhgh2rcd13ifvqfa0","pricing_plan_id":"cebpf4jnsgd1na2vs0mg"},{"bike_id":"928b701e-1cdd-463b-b177-3c06e2621e1a","system_id":"levelo_inurba_marseille","lat":43.30281,"lon":5.37712,"is_reserved":false,"is_disabled":false,"rental_uris":{"android":"levelo://app?vid=928b701e-1cdd-463b-b177-3c06e2621e1a","ios":"levelo://app?vid=928b701e-1cdd-463b-b177-3c06e2621e1a"},"vehicle_type_id":"4","last_reported":1736763022,"current_range_meters":29600,"station_id":"ce4bguh2rcd13ifvqcj0","pricing_plan_id":"cebpf4jnsgd1na2vs0mg"},{"bike_id":"d8327471-e10e-4e1d-a46b-c43156fc0620","system_id":"levelo_inurba_marseille","lat":43.26777,"lon":5.39445,"is_reserved":false,"is_disabled":true,"rental_uris":{"android":"levelo://app?vid=d8327471-e10e-4e1d-a46b-c43156fc0620","ios":"levelo://app?vid=d8327471-e10e-4e1d-a46b-c43156fc0620"},"vehicle_type_id":"4","last_reported":1736763022,"current_range_meters":0,"station_id":"ce4bhh12rcd13ifvqfg0","pricing_plan_id":"cebpf4jnsgd1na2vs0mg"},{"bike_id":"3d7522ac-844b-485e-bcb6-cb9d23dcdd0b","system_id":"levelo_inurba_marseille","lat":43.2678,"lon":5.39421,"is_reserved":false,"is_disabled":false,"rental_uris":{"android":"levelo://app?vid=3d7522ac-844b-485e-bcb6-cb9d23dcdd0b","ios":"levelo://app?vid=3d7522ac-844b-485e-bcb6-cb9d23dcdd0b"},"vehicle_type_id":"4","last_reported":1736763022,"current_range_meters":27200,"station_id":"ce4bhh12rcd13ifvqfg0","pricing_plan_id":"cebpf4jnsgd1na2vs0mg"},{"bike_id":"8fc7977e-1ae1-429d-aab1-f2b2076fe889","system_id":"levelo_inurba_marseille","lat":43.28673,"lon":5.38664,"is_reserved":false,"is_disabled":false,"rental_uris":{"android":"levelo://app?vid=8fc7977e-1ae1-429d-aab1-f2b2076fe889","ios":"levelo://app?vid=8fc7977e-1ae1-429d-aab1-f2b2076fe889"},"vehicle_type_id":"4","last_reported":1736763022,"current_range_meters":35600,"station_id":"ce4bh492rcd13ifvqdug","pricing_plan_id":"cebpf4jnsgd1na2vs0mg"},{"bike_id":"5372dfef-da71-4e3b-8377-854fdc0e47f5","system_id":"levelo_inurba_marseille","lat":43.32496,"lon":5.36612,"is_reserved":false,"is_disabled":false,"rental_uris":{"android":"levelo://app?vid=5372dfef-da71-4e3b-8377-854fdc0e47f5","ios":"levelo://app?vid=5372dfef-da71-4e3b-8377-854fdc0e47f5"},"vehicle_type_id":"4","last_reported":1736763022,"current_range_meters":32800,"station_id":"ce4bhs12rcd13ifvqhvg","pricing_plan_id":"cebpf4jnsgd1na2vs0mg"},{"bike_id":"eba8df4c-8e39-465e-ad0d-7cbaf9b66a59","system_id":"levelo_inurba_marseille","lat":43.337444,"lon":5.374475,"is_reserved":false,"is_disabled":false,"rental_uris":{"android":"levelo://app?vid=eba8df4c-8e39-465e-ad0d-7cbaf9b66a59","ios":"levelo://app?vid=eba8df4c-8e39-465e-ad0d-7cbaf9b66a59"},"vehicle_type_id":"4","last_reported":1736763022,"current_range_meters":38800,"station_id":"","pricing_plan_id":"cebpf4jnsgd1na2vs0mg"},{"bike_id":"6ba8d844-4be9-4966-b91c-0b5bcfe6a94b","system_id":"levelo_inurba_marseille","lat":43.29176,"lon":5.37164,"is_reserved":false,"is_disabled":true,"rental_uris":{"android":"levelo://app?vid=6ba8d844-4be9-4966-b91c-0b5bcfe6a94b","ios":"levelo://app?vid=6ba8d844-4be9-4966-b91c-0b5bcfe6a94b"},"vehicle_type_id":"4","last_reported":1736763022,"current_range_meters":6400,"station_id":"ce4bha92rcd13ifvqeh0","pricing_plan_id":"cebpf4jnsgd1na2vs0mg"},{"bike_id":"0edce83f-b96e-4b0a-af3a-d85300d10ec7","system_id":"levelo_inurba_marseille","lat":43.30904,"lon":5.36874,"is_reserved":false,"is_disabled":false,"rental_uris":{"android":"levelo://app?vid=0edce83f-b96e-4b0a-af3a-d85300d10ec7","ios":"levelo://app?vid=0edce83f-b96e-4b0a-af3a-d85300d10ec7"},"vehicle_type_id":"4","last_reported":1736763022,"current_range_meters":37600,"station_id":"ce4bgn92rcd13ifvqbvg","pricing_plan_id":"cebpf4jnsgd1na2vs0mg"},{"bike_id":"ec59e75f-4997-4d92-aab0-c55a58c123b3","system_id":"levelo_inurba_marseille","lat":43.31536,"lon":5.38028,"is_reserved":false,"is_disabled":false,"rental_uris":{"android":"levelo://app?vid=ec59e75f-4997-4d92-aab0-c55a58c123b3","ios":"levelo://app?vid=ec59e75f-4997-4d92-aab0-c55a58c123b3"},"vehicle_type_id":"4","last_reported":1736763022,"current_range_meters":28800,"station_id":"ce4bhsp2rcd13ifvqi50","pricing_plan_id":"cebpf4jnsgd1na2vs0mg"},{"bike_id":"a828b86a-4570-4ea3-a237-e074df0d3c00","system_id":"levelo_inurba_marseille","lat":43.24067,"lon":5.37761,"is_reserved":false,"is_disabled":false,"rental_uris":{"android":"levelo://app?vid=a828b86a-4570-4ea3-a237-e074df0d3c00","ios":"levelo://app?vid=a828b86a-4570-4ea3-a237-e074df0d3c00"},"vehicle_type_id":"4","last_reported":1736763022,"current_range_meters":25200,"station_id":"ce4bhnp2rcd13ifvqgvg","pricing_plan_id":"cebpf4jnsgd1na2vs0mg"},{"bike_id":"426ee80e-06b0-4d0f-86a5-ea8ad64aaa11","system_id":"levelo_inurba_marseille","lat":43.28925,"lon":5.43789,"is_reserved":false,"is_disabled":false,"rental_uris":{"android":"levelo://app?vid=426ee80e-06b0-4d0f-86a5-ea8ad64aaa11","ios":"levelo://app?vid=426ee80e-06b0-4d0f-86a5-ea8ad64aaa11"},"vehicle_type_id":"4","last_reported":1736763022,"current_range_meters":9200,"station_id":"","pricing_plan_id":"cebpf4jnsgd1na2vs0mg"},{"bike_id":"d6e4ad9c-79f2-4688-909b-aa1d95c9db31","system_id":"levelo_inurba_marseille","lat":43.31365,"lon":5.38502,"is_reserved":false,"is_disabled":false,"rental_uris":{"android":"levelo://app?vid=d6e4ad9c-79f2-4688-909b-aa1d95c9db31","ios":"levelo://app?vid=d6e4ad9c-79f2-4688-909b-aa1d95c9db31"},"vehicle_type_id":"4","last_reported":1736763022,"current_range_meters":8400,"station_id":"ce4bgt92rcd13ifvqcf0","pricing_plan_id":"cebpf4jnsgd1na2vs0mg"},{"bike_id":"b29dca30-1f99-4556-8d02-1cd94cfb8ea1","system_id":"levelo_inurba_marseille","lat":43.32487,"lon":5.36553,"is_reserved":false,"is_disabled":false,"rental_uris":{"android":"levelo://app?vid=b29dca30-1f99-4556-8d02-1cd94cfb8ea1","ios":"levelo://app?vid=b29dca30-1f99-4556-8d02-1cd94cfb8ea1"},"vehicle_type_id":"4","last_reported":1736763022,"current_range_meters":10000,"station_id":"ce4bhs12rcd13ifvqhvg","pricing_plan_id":"cebpf4jnsgd1na2vs0mg"},{"bike_id":"9814023a-fbfd-430e-a624-071e90fc1982","system_id":"levelo_inurba_marseille","lat":43.27445,"lon":5.39417,"is_reserved":false,"is_disabled":false,"rental_uris":{"android":"levelo://app?vid=9814023a-fbfd-430e-a624-071e90fc1982","ios":"levelo://app?vid=9814023a-fbfd-430e-a624-071e90fc1982"},"vehicle_type_id":"4","last_reported":1736763022,"current_range_meters":27600,"station_id":"ce4bhdp2rcd13ifvqf20","pricing_plan_id":"cebpf4jnsgd1na2vs0mg"},{"bike_id":"969e27ab-5a9e-459e-9526-3b57e6f57682","system_id":"levelo_inurba_marseille","lat":43.2293,"lon":5.35379,"is_reserved":false,"is_disabled":false,"rental_uris":{"android":"levelo://app?vid=969e27ab-5a9e-459e-9526-3b57e6f57682","ios":"levelo://app?vid=969e27ab-5a9e-459e-9526-3b57e6f57682"},"vehicle_type_id":"4","last_reported":1736763022,"current_range_meters":12800,"station_id":"cpo3532slgdg3j2ikp40","pricing_plan_id":"cebpf4jnsgd1na2vs0mg"},{"bike_id":"0b6993d8-d7c7-433f-8cb7-8219979fd337","system_id":"levelo_inurba_marseille","lat":43.27419,"lon":5.39398,"is_reserved":false,"is_disabled":false,"rental_uris":{"android":"levelo://app?vid=0b6993d8-d7c7-433f-8cb7-8219979fd337","ios":"levelo://app?vid=0b6993d8-d7c7-433f-8cb7-8219979fd337"},"vehicle_type_id":"4","last_reported":1736763022,"current_range_meters":38800,"station_id":"ce4bhdp2rcd13ifvqf20","pricing_plan_id":"cebpf4jnsgd1na2vs0mg"},{"bike_id":"8b9d7012-1feb-4978-b0cb-500e1495f1b9","system_id":"levelo_inurba_marseille","lat":43.2695,"lon":5.38625,"is_reserved":false,"is_disabled":false,"rental_uris":{"android":"levelo://app?vid=8b9d7012-1feb-4978-b0cb-500e1495f1b9","ios":"levelo://app?vid=8b9d7012-1feb-4978-b0cb-500e1495f1b9"},"vehicle_type_id":"4","last_reported":1736763022,"current_range_meters":16800,"station_id":"ce4bhh92rcd13ifvqfh0","pricing_plan_id":"cebpf4jnsgd1na2vs0mg"},{"bike_id":"f4dbc556-58b0-4dfd-be99-18a51c032520","system_id":"levelo_inurba_marseille","lat":43.24161,"lon":5.39708,"is_reserved":false,"is_disabled":true,"rental_uris":{"android":"levelo://app?vid=f4dbc556-58b0-4dfd-be99-18a51c032520","ios":"levelo://app?vid=f4dbc556-58b0-4dfd-be99-18a51c032520"},"vehicle_type_id":"4","last_reported":1736763022,"current_range_meters":31200,"station_id":"ce4bhn12rcd13ifvqgpg","pricing_plan_id":"cebpf4jnsgd1na2vs0mg"},{"bike_id":"9c62e164-6cf9-4292-996f-7c2ed5673e8e","system_id":"levelo_inurba_marseille","lat":43.23958,"lon":5.36641,"is_reserved":false,"is_disabled":false,"rental_uris":{"android":"levelo://app?vid=9c62e164-6cf9-4292-996f-7c2ed5673e8e","ios":"levelo://app?vid=9c62e164-6cf9-4292-996f-7c2ed5673e8e"},"vehicle_type_id":"4","last_reported":1736763022,"current_range_meters":24800,"station_id":"ce4bhi12rcd13ifvqfp0","pricing_plan_id":"cebpf4jnsgd1na2vs0mg"},{"bike_id":"c32fbf0d-6fc9-4ebf-bd2e-6dc05bb2eb8f","system_id":"levelo_inurba_marseille","lat":43.29286,"lon":5.37438,"is_reserved":false,"is_disabled":false,"rental_uris":{"android":"levelo://app?vid=c32fbf0d-6fc9-4ebf-bd2e-6dc05bb2eb8f","ios":"levelo://app?vid=c32fbf0d-6fc9-4ebf-bd2e-6dc05bb2eb8f"},"vehicle_type_id":"4","last_reported":1736763022,"current_range_meters":16800,"station_id":"ce4bgi12rcd13ifvqb70","pricing_plan_id":"cebpf4jnsgd1na2vs0mg"},{"bike_id":"45636413-29bd-43b6-bd8b-1246eb3c7c1a","system_id":"levelo_inurba_marseille","lat":43.27117,"lon":5.38508,"is_reserved":false,"is_disabled":false,"rental_uris":{"android":"levelo://app?vid=45636413-29bd-43b6-bd8b-1246eb3c7c1a","ios":"levelo://app?vid=45636413-29bd-43b6-bd8b-1246eb3c7c1a"},"vehicle_type_id":"4","last_reported":1736763022,"current_range_meters":5600,"station_id":"","pricing_plan_id":"cebpf4jnsgd1na2vs0mg"},{"bike_id":"b43b7b34-35a8-4f3d-902b-ab77a73f48bd","system_id":"levelo_inurba_marseille","lat":43.32473,"lon":5.36593,"is_reserved":false,"is_disabled":false,"rental_uris":{"android":"levelo://app?vid=b43b7b34-35a8-4f3d-902b-ab77a73f48bd","ios":"levelo://app?vid=b43b7b34-35a8-4f3d-902b-ab77a73f48bd"},"vehicle_type_id":"4","last_reported":1736763022,"current_range_meters":11200,"station_id":"ce4bhs12rcd13ifvqhvg","pricing_plan_id":"cebpf4jnsgd1na2vs0mg"},{"bike_id":"80609ff8-7d7d-4ae2-9159-aea837c7c52b","system_id":"levelo_inurba_marseille","lat":43.239596,"lon":5.366256,"is_reserved":false,"is_disabled":false,"rental_uris":{"android":"levelo://app?vid=80609ff8-7d7d-4ae2-9159-aea837c7c52b","ios":"levelo://app?vid=80609ff8-7d7d-4ae2-9159-aea837c7c52b"},"vehicle_type_id":"4","last_reported":1736763022,"current_range_meters":38000,"station_id":"ce4bhi12rcd13ifvqfp0","pricing_plan_id":"cebpf4jnsgd1na2vs0mg"},{"bike_id":"38a88ea6-a94b-4e4b-81db-6e3ebb97fafa","system_id":"levelo_inurba_marseille","lat":43.24659,"lon":5.38148,"is_reserved":false,"is_disabled":false,"rental_uris":{"android":"levelo://app?vid=38a88ea6-a94b-4e4b-81db-6e3ebb97fafa","ios":"levelo://app?vid=38a88ea6-a94b-4e4b-81db-6e3ebb97fafa"},"vehicle_type_id":"4","last_reported":1736763022,"current_range_meters":37600,"station_id":"ce4bhih2rcd13ifvqfr0","pricing_plan_id":"cebpf4jnsgd1na2vs0mg"},{"bike_id":"d16284aa-fa71-49b9-82f2-16dc864a2eea","system_id":"levelo_inurba_marseille","lat":43.26694,"lon":5.38263,"is_reserved":false,"is_disabled":false,"rental_uris":{"android":"levelo://app?vid=d16284aa-fa71-49b9-82f2-16dc864a2eea","ios":"levelo://app?vid=d16284aa-fa71-49b9-82f2-16dc864a2eea"},"vehicle_type_id":"4","last_reported":1736763022,"current_range_meters":39200,"station_id":"ce4bhg92rcd13ifvqf90","pricing_plan_id":"cebpf4jnsgd1na2vs0mg"},{"bike_id":"82af5156-3c9f-43ad-8e6c-facb65bb17d8","system_id":"levelo_inurba_marseille","lat":43.32491,"lon":5.36598,"is_reserved":false,"is_disabled":false,"rental_uris":{"android":"levelo://app?vid=82af5156-3c9f-43ad-8e6c-facb65bb17d8","ios":"levelo://app?vid=82af5156-3c9f-43ad-8e6c-facb65bb17d8"},"vehicle_type_id":"4","last_reported":1736763022,"current_range_meters":25200,"station_id":"ce4bhs12rcd13ifvqhvg","pricing_plan_id":"cebpf4jnsgd1na2vs0mg"},{"bike_id":"ac7219cb-205d-48d3-81c3-15248b5b8d1f","system_id":"levelo_inurba_marseille","lat":43.26954,"lon":5.38652,"is_reserved":false,"is_disabled":false,"rental_uris":{"android":"levelo://app?vid=ac7219cb-205d-48d3-81c3-15248b5b8d1f","ios":"levelo://app?vid=ac7219cb-205d-48d3-81c3-15248b5b8d1f"},"vehicle_type_id":"4","last_reported":1736763022,"current_range_meters":34800,"station_id":"ce4bhh92rcd13ifvqfh0","pricing_plan_id":"cebpf4jnsgd1na2vs0mg"},{"bike_id":"73edba2c-8fcd-4e22-aa37-25696b557e27","system_id":"levelo_inurba_marseille","lat":43.29614,"lon":5.38096,"is_reserved":false,"is_disabled":false,"rental_uris":{"android":"levelo://app?vid=73edba2c-8fcd-4e22-aa37-25696b557e27","ios":"levelo://app?vid=73edba2c-8fcd-4e22-aa37-25696b557e27"},"vehicle_type_id":"4","last_reported":1736763022,"current_range_meters":36400,"station_id":"ce4bgl12rcd13ifvqbo0","pricing_plan_id":"cebpf4jnsgd1na2vs0mg"},{"bike_id":"44e50864-e2d6-40c3-b6ba-f6145b0d5eeb","system_id":"levelo_inurba_marseille","lat":43.29167,"lon":5.3716,"is_reserved":false,"is_disabled":false,"rental_uris":{"android":"levelo://app?vid=44e50864-e2d6-40c3-b6ba-f6145b0d5eeb","ios":"levelo://app?vid=44e50864-e2d6-40c3-b6ba-f6145b0d5eeb"},"vehicle_type_id":"4","last_reported":1736763022,"current_range_meters":26000,"station_id":"ce4bha92rcd13ifvqeh0","pricing_plan_id":"cebpf4jnsgd1na2vs0mg"},{"bike_id":"33f772a9-3316-47c9-ba2c-b8bb5b0473dc","system_id":"levelo_inurba_marseille","lat":43.29597,"lon":5.36741,"is_reserved":false,"is_disabled":true,"rental_uris":{"android":"levelo://app?vid=33f772a9-3316-47c9-ba2c-b8bb5b0473dc","ios":"levelo://app?vid=33f772a9-3316-47c9-ba2c-b8bb5b0473dc"},"vehicle_type_id":"4","last_reported":1736763022,"current_range_meters":38800,"station_id":"ce4bgph2rcd13ifvqc2g","pricing_plan_id":"cebpf4jnsgd1na2vs0mg"},{"bike_id":"716583e9-1525-41d6-8bd4-c3f8ee3ff197","system_id":"levelo_inurba_marseille","lat":43.27492,"lon":5.42466,"is_reserved":false,"is_disabled":false,"rental_uris":{"android":"levelo://app?vid=716583e9-1525-41d6-8bd4-c3f8ee3ff197","ios":"levelo://app?vid=716583e9-1525-41d6-8bd4-c3f8ee3ff197"},"vehicle_type_id":"4","last_reported":1736763022,"current_range_meters":29600,"station_id":"ce4bhn92rcd13ifvqgrg","pricing_plan_id":"cebpf4jnsgd1na2vs0mg"},{"bike_id":"f651011c-09df-4f8b-abec-30977567ef31","system_id":"levelo_inurba_marseille","lat":43.2621,"lon":5.37444,"is_reserved":false,"is_disabled":false,"rental_uris":{"android":"levelo://app?vid=f651011c-09df-4f8b-abec-30977567ef31","ios":"levelo://app?vid=f651011c-09df-4f8b-abec-30977567ef31"},"vehicle_type_id":"4","last_reported":1736763022,"current_range_meters":24000,"station_id":"ce4bhgp2rcd13ifvqfc0","pricing_plan_id":"cebpf4jnsgd1na2vs0mg"},{"bike_id":"9c8c0f19-6acd-4047-9b73-cd2d2daf7c61","system_id":"levelo_inurba_marseille","lat":43.3212,"lon":5.3677,"is_reserved":false,"is_disabled":false,"rental_uris":{"android":"levelo://app?vid=9c8c0f19-6acd-4047-9b73-cd2d2daf7c61","ios":"levelo://app?vid=9c8c0f19-6acd-4047-9b73-cd2d2daf7c61"},"vehicle_type_id":"4","last_reported":1736763022,"current_range_meters":18800,"station_id":"ce4bhrh2rcd13ifvqhug","pricing_plan_id":"cebpf4jnsgd1na2vs0mg"},{"bike_id":"481b9829-6c9c-4e96-a4c5-4bbef49fbc3c","system_id":"levelo_inurba_marseille","lat":43.309042,"lon":5.368446,"is_reserved":false,"is_disabled":false,"rental_uris":{"android":"levelo://app?vid=481b9829-6c9c-4e96-a4c5-4bbef49fbc3c","ios":"levelo://app?vid=481b9829-6c9c-4e96-a4c5-4bbef49fbc3c"},"vehicle_type_id":"4","last_reported":1736763022,"current_range_meters":39200,"station_id":"ce4bgn92rcd13ifvqbvg","pricing_plan_id":"cebpf4jnsgd1na2vs0mg"},{"bike_id":"fe09885e-ccb7-423c-96f2-4c024b28964e","system_id":"levelo_inurba_marseille","lat":43.30951,"lon":5.39039,"is_reserved":false,"is_disabled":false,"rental_uris":{"android":"levelo://app?vid=fe09885e-ccb7-423c-96f2-4c024b28964e","ios":"levelo://app?vid=fe09885e-ccb7-423c-96f2-4c024b28964e"},"vehicle_type_id":"4","last_reported":1736763022,"current_range_meters":6800,"station_id":"ce4bgup2rcd13ifvqco0","pricing_plan_id":"cebpf4jnsgd1na2vs0mg"},{"bike_id":"0756869f-d496-490d-b5d4-ec25e039f4fb","system_id":"levelo_inurba_marseille","lat":43.28939,"lon":5.36661,"is_reserved":false,"is_disabled":true,"rental_uris":{"android":"levelo://app?vid=0756869f-d496-490d-b5d4-ec25e039f4fb","ios":"levelo://app?vid=0756869f-d496-490d-b5d4-ec25e039f4fb"},"vehicle_type_id":"4","last_reported":1736763022,"current_range_meters":24000,"station_id":"ce4bhap2rcd13ifvqek0","pricing_plan_id":"cebpf4jnsgd1na2vs0mg"},{"bike_id":"23fa248b-a29f-4809-83a2-8dfa8df2caa7","system_id":"levelo_inurba_marseille","lat":43.27194,"lon":5.36267,"is_reserved":false,"is_disabled":false,"rental_uris":{"android":"levelo://app?vid=23fa248b-a29f-4809-83a2-8dfa8df2caa7","ios":"levelo://app?vid=23fa248b-a29f-4809-83a2-8dfa8df2caa7"},"vehicle_type_id":"4","last_reported":1736763022,"current_range_meters":37600,"station_id":"","pricing_plan_id":"cebpf4jnsgd1na2vs0mg"},{"bike_id":"dffd4391-3278-4164-8ce7-b7d56080052e","system_id":"levelo_inurba_marseille","lat":43.2973,"lon":5.37684,"is_reserved":false,"is_disabled":false,"rental_uris":{"android":"levelo://app?vid=dffd4391-3278-4164-8ce7-b7d56080052e","ios":"levelo://app?vid=dffd4391-3278-4164-8ce7-b7d56080052e"},"vehicle_type_id":"4","last_reported":1736763022,"current_range_meters":32400,"station_id":"ce4bgkh2rcd13ifvqbl0","pricing_plan_id":"cebpf4jnsgd1na2vs0mg"},{"bike_id":"066fc890-cce1-4b7e-a941-320c51e991c9","system_id":"levelo_inurba_marseille","lat":43.23962,"lon":5.36621,"is_reserved":false,"is_disabled":false,"rental_uris":{"android":"levelo://app?vid=066fc890-cce1-4b7e-a941-320c51e991c9","ios":"levelo://app?vid=066fc890-cce1-4b7e-a941-320c51e991c9"},"vehicle_type_id":"4","last_reported":1736763022,"current_range_meters":12800,"station_id":"ce4bhi12rcd13ifvqfp0","pricing_plan_id":"cebpf4jnsgd1na2vs0mg"},{"bike_id":"fdd78bd3-f1eb-4702-950f-df9340684b68","system_id":"levelo_inurba_marseille","lat":43.30308,"lon":5.36897,"is_reserved":false,"is_disabled":false,"rental_uris":{"android":"levelo://app?vid=fdd78bd3-f1eb-4702-950f-df9340684b68","ios":"levelo://app?vid=fdd78bd3-f1eb-4702-950f-df9340684b68"},"vehicle_type_id":"4","last_reported":1736763022,"current_range_meters":30400,"station_id":"ce4bgqh2rcd13ifvqc5g","pricing_plan_id":"cebpf4jnsgd1na2vs0mg"},{"bike_id":"c5e011b5-3ec1-4dfb-b3d1-b25cf4454153","system_id":"levelo_inurba_marseille","lat":43.30901,"lon":5.36855,"is_reserved":false,"is_disabled":false,"rental_uris":{"android":"levelo://app?vid=c5e011b5-3ec1-4dfb-b3d1-b25cf4454153","ios":"levelo://app?vid=c5e011b5-3ec1-4dfb-b3d1-b25cf4454153"},"vehicle_type_id":"4","last_reported":1736763022,"current_range_meters":28400,"station_id":"ce4bgn92rcd13ifvqbvg","pricing_plan_id":"cebpf4jnsgd1na2vs0mg"},{"bike_id":"83b93c8b-d0ca-4584-a975-e1964e9afcc9","system_id":"levelo_inurba_marseille","lat":43.29069,"lon":5.37146,"is_reserved":false,"is_disabled":false,"rental_uris":{"android":"levelo://app?vid=83b93c8b-d0ca-4584-a975-e1964e9afcc9","ios":"levelo://app?vid=83b93c8b-d0ca-4584-a975-e1964e9afcc9"},"vehicle_type_id":"4","last_reported":1736763022,"current_range_meters":28400,"station_id":"ce4bh5p2rcd13ifvqe4g","pricing_plan_id":"cebpf4jnsgd1na2vs0mg"},{"bike_id":"a3ab978e-8dbf-4f4c-acee-64151095a46e","system_id":"levelo_inurba_marseille","lat":43.28492,"lon":5.38566,"is_reserved":false,"is_disabled":false,"rental_uris":{"android":"levelo://app?vid=a3ab978e-8dbf-4f4c-acee-64151095a46e","ios":"levelo://app?vid=a3ab978e-8dbf-4f4c-acee-64151095a46e"},"vehicle_type_id":"4","last_reported":1736763022,"current_range_meters":39200,"station_id":"ce4bh8p2rcd13ifvqeb0","pricing_plan_id":"cebpf4jnsgd1na2vs0mg"},{"bike_id":"51bb6953-dea8-4e82-96bf-52696267905f","system_id":"levelo_inurba_marseille","lat":43.23062,"lon":5.35505,"is_reserved":false,"is_disabled":true,"rental_uris":{"android":"levelo://app?vid=51bb6953-dea8-4e82-96bf-52696267905f","ios":"levelo://app?vid=51bb6953-dea8-4e82-96bf-52696267905f"},"vehicle_type_id":"4","last_reported":1736763022,"current_range_meters":13600,"station_id":"cpo3342slgdg3j2ifvpg","pricing_plan_id":"cebpf4jnsgd1na2vs0mg"},{"bike_id":"4e71e5ec-1e90-4b63-9152-6a9ea80e2150","system_id":"levelo_inurba_marseille","lat":43.23149,"lon":5.4374,"is_reserved":false,"is_disabled":false,"rental_uris":{"android":"levelo://app?vid=4e71e5ec-1e90-4b63-9152-6a9ea80e2150","ios":"levelo://app?vid=4e71e5ec-1e90-4b63-9152-6a9ea80e2150"},"vehicle_type_id":"4","last_reported":1736763022,"current_range_meters":16400,"station_id":"ce4bhmp2rcd13ifvqgog","pricing_plan_id":"cebpf4jnsgd1na2vs0mg"},{"bike_id":"697c0a33-e8a3-4893-bc01-c44ca5d914a9","system_id":"levelo_inurba_marseille","lat":43.27393,"lon":5.39515,"is_reserved":false,"is_disabled":false,"rental_uris":{"android":"levelo://app?vid=697c0a33-e8a3-4893-bc01-c44ca5d914a9","ios":"levelo://app?vid=697c0a33-e8a3-4893-bc01-c44ca5d914a9"},"vehicle_type_id":"4","last_reported":1736763022,"current_range_meters":22800,"station_id":"ce4bhdp2rcd13ifvqf20","pricing_plan_id":"cebpf4jnsgd1na2vs0mg"},{"bike_id":"dc388f0e-5ba4-4401-b2b7-3e59da087469","system_id":"levelo_inurba_marseille","lat":43.28608,"lon":5.35118,"is_reserved":false,"is_disabled":false,"rental_uris":{"android":"levelo://app?vid=dc388f0e-5ba4-4401-b2b7-3e59da087469","ios":"levelo://app?vid=dc388f0e-5ba4-4401-b2b7-3e59da087469"},"vehicle_type_id":"4","last_reported":1736763022,"current_range_meters":12400,"station_id":"ce4bhch2rcd13ifvqeug","pricing_plan_id":"cebpf4jnsgd1na2vs0mg"},{"bike_id":"f14fc7d0-a70c-464a-87ed-32e6fe0585a4","system_id":"levelo_inurba_marseille","lat":43.28468,"lon":5.35888,"is_reserved":false,"is_disabled":false,"rental_uris":{"android":"levelo://app?vid=f14fc7d0-a70c-464a-87ed-32e6fe0585a4","ios":"levelo://app?vid=f14fc7d0-a70c-464a-87ed-32e6fe0585a4"},"vehicle_type_id":"4","last_reported":1736763022,"current_range_meters":19600,"station_id":"ce4bhah2rcd13ifvqei0","pricing_plan_id":"cebpf4jnsgd1na2vs0mg"},{"bike_id":"50c67084-341b-43bf-812a-a38db4c86efa","system_id":"levelo_inurba_marseille","lat":43.30169,"lon":5.3664,"is_reserved":false,"is_disabled":false,"rental_uris":{"android":"levelo://app?vid=50c67084-341b-43bf-812a-a38db4c86efa","ios":"levelo://app?vid=50c67084-341b-43bf-812a-a38db4c86efa"},"vehicle_type_id":"4","last_reported":1736763022,"current_range_meters":38800,"station_id":"ce4bgrh2rcd13ifvqc8g","pricing_plan_id":"cebpf4jnsgd1na2vs0mg"},{"bike_id":"0ddcad5f-3f06-409a-8373-bdaf129946e8","system_id":"levelo_inurba_marseille","lat":43.311756,"lon":5.387117,"is_reserved":false,"is_disabled":true,"rental_uris":{"android":"levelo://app?vid=0ddcad5f-3f06-409a-8373-bdaf129946e8","ios":"levelo://app?vid=0ddcad5f-3f06-409a-8373-bdaf129946e8"},"vehicle_type_id":"4","last_reported":1736763022,"current_range_meters":38800,"station_id":"ce4bgv12rcd13ifvqcp0","pricing_plan_id":"cebpf4jnsgd1na2vs0mg"},{"bike_id":"c84c60ce-c7f6-42eb-bb3c-f11a697bd396","system_id":"levelo_inurba_marseille","lat":43.29975,"lon":5.38498,"is_reserved":false,"is_disabled":true,"rental_uris":{"android":"levelo://app?vid=c84c60ce-c7f6-42eb-bb3c-f11a697bd396","ios":"levelo://app?vid=c84c60ce-c7f6-42eb-bb3c-f11a697bd396"},"vehicle_type_id":"4","last_reported":1736763022,"current_range_meters":38800,"station_id":"ce4bgj92rcd13ifvqbd0","pricing_plan_id":"cebpf4jnsgd1na2vs0mg"},{"bike_id":"6cdb3ea9-b7ba-4023-a807-7f68a561054e","system_id":"levelo_inurba_marseille","lat":43.30156,"lon":5.38088,"is_reserved":false,"is_disabled":false,"rental_uris":{"android":"levelo://app?vid=6cdb3ea9-b7ba-4023-a807-7f68a561054e","ios":"levelo://app?vid=6cdb3ea9-b7ba-4023-a807-7f68a561054e"},"vehicle_type_id":"4","last_reported":1736763022,"current_range_meters":35200,"station_id":"ce4bgjp2rcd13ifvqbh0","pricing_plan_id":"cebpf4jnsgd1na2vs0mg"},{"bike_id":"5e689390-3db4-4cc3-9a62-a1682f9dbaf3","system_id":"levelo_inurba_marseille","lat":43.28271,"lon":5.3508,"is_reserved":false,"is_disabled":false,"rental_uris":{"android":"levelo://app?vid=5e689390-3db4-4cc3-9a62-a1682f9dbaf3","ios":"levelo://app?vid=5e689390-3db4-4cc3-9a62-a1682f9dbaf3"},"vehicle_type_id":"4","last_reported":1736763022,"current_range_meters":32000,"station_id":"ce4bhbp2rcd13ifvqerg","pricing_plan_id":"cebpf4jnsgd1na2vs0mg"},{"bike_id":"bb2c6734-3bde-49c2-b205-412e6ed0ca55","system_id":"levelo_inurba_marseille","lat":43.239588,"lon":5.36637,"is_reserved":false,"is_disabled":false,"rental_uris":{"android":"levelo://app?vid=bb2c6734-3bde-49c2-b205-412e6ed0ca55","ios":"levelo://app?vid=bb2c6734-3bde-49c2-b205-412e6ed0ca55"},"vehicle_type_id":"4","last_reported":1736763022,"current_range_meters":36800,"station_id":"ce4bhi12rcd13ifvqfp0","pricing_plan_id":"cebpf4jnsgd1na2vs0mg"},{"bike_id":"b55bad1f-ac87-4b3e-aeb0-eb44d902eff4","system_id":"levelo_inurba_marseille","lat":43.23145,"lon":5.43721,"is_reserved":false,"is_disabled":true,"rental_uris":{"android":"levelo://app?vid=b55bad1f-ac87-4b3e-aeb0-eb44d902eff4","ios":"levelo://app?vid=b55bad1f-ac87-4b3e-aeb0-eb44d902eff4"},"vehicle_type_id":"4","last_reported":1736763022,"current_range_meters":16800,"station_id":"ce4bhmp2rcd13ifvqgog","pricing_plan_id":"cebpf4jnsgd1na2vs0mg"},{"bike_id":"d4a1c371-336e-4a9f-bd59-f2cfc71fd153","system_id":"levelo_inurba_marseille","lat":43.24073,"lon":5.37751,"is_reserved":false,"is_disabled":false,"rental_uris":{"android":"levelo://app?vid=d4a1c371-336e-4a9f-bd59-f2cfc71fd153","ios":"levelo://app?vid=d4a1c371-336e-4a9f-bd59-f2cfc71fd153"},"vehicle_type_id":"4","last_reported":1736763022,"current_range_meters":22400,"station_id":"ce4bhnp2rcd13ifvqgvg","pricing_plan_id":"cebpf4jnsgd1na2vs0mg"},{"bike_id":"f311b7c7-b04c-43f7-a555-f4a8fbf1f55a","system_id":"levelo_inurba_marseille","lat":43.3253,"lon":5.41433,"is_reserved":false,"is_disabled":false,"rental_uris":{"android":"levelo://app?vid=f311b7c7-b04c-43f7-a555-f4a8fbf1f55a","ios":"levelo://app?vid=f311b7c7-b04c-43f7-a555-f4a8fbf1f55a"},"vehicle_type_id":"4","last_reported":1736763022,"current_range_meters":24400,"station_id":"ce4bhq12rcd13ifvqhhg","pricing_plan_id":"cebpf4jnsgd1na2vs0mg"},{"bike_id":"c1c51f67-6348-4482-a3d4-31704cefaf37","system_id":"levelo_inurba_marseille","lat":43.28624,"lon":5.35104,"is_reserved":false,"is_disabled":false,"rental_uris":{"android":"levelo://app?vid=c1c51f67-6348-4482-a3d4-31704cefaf37","ios":"levelo://app?vid=c1c51f67-6348-4482-a3d4-31704cefaf37"},"vehicle_type_id":"4","last_reported":1736763022,"current_range_meters":34000,"station_id":"ce4bhch2rcd13ifvqeug","pricing_plan_id":"cebpf4jnsgd1na2vs0mg"},{"bike_id":"9145f1a0-0520-40dd-b33d-c7d196d639f2","system_id":"levelo_inurba_marseille","lat":43.31621,"lon":5.3776,"is_reserved":false,"is_disabled":false,"rental_uris":{"android":"levelo://app?vid=9145f1a0-0520-40dd-b33d-c7d196d639f2","ios":"levelo://app?vid=9145f1a0-0520-40dd-b33d-c7d196d639f2"},"vehicle_type_id":"4","last_reported":1736763022,"current_range_meters":30800,"station_id":"ce4bgth2rcd13ifvqch0","pricing_plan_id":"cebpf4jnsgd1na2vs0mg"},{"bike_id":"322399c8-b9e9-43a7-a0a7-e9daaffb0dcd","system_id":"levelo_inurba_marseille","lat":43.2509,"lon":5.39505,"is_reserved":false,"is_disabled":false,"rental_uris":{"android":"levelo://app?vid=322399c8-b9e9-43a7-a0a7-e9daaffb0dcd","ios":"levelo://app?vid=322399c8-b9e9-43a7-a0a7-e9daaffb0dcd"},"vehicle_type_id":"4","last_reported":1736763022,"current_range_meters":9200,"station_id":"ce4bhm12rcd13ifvqgkg","pricing_plan_id":"cebpf4jnsgd1na2vs0mg"},{"bike_id":"15365823-2b34-4222-9a47-5db4c69503e5","system_id":"levelo_inurba_marseille","lat":43.26958,"lon":5.38618,"is_reserved":false,"is_disabled":false,"rental_uris":{"android":"levelo://app?vid=15365823-2b34-4222-9a47-5db4c69503e5","ios":"levelo://app?vid=15365823-2b34-4222-9a47-5db4c69503e5"},"vehicle_type_id":"4","last_reported":1736763022,"current_range_meters":32000,"station_id":"ce4bhh92rcd13ifvqfh0","pricing_plan_id":"cebpf4jnsgd1na2vs0mg"},{"bike_id":"e5c826d2-6376-42fd-af40-df54dd21440b","system_id":"levelo_inurba_marseille","lat":43.29008,"lon":5.35617,"is_reserved":false,"is_disabled":false,"rental_uris":{"android":"levelo://app?vid=e5c826d2-6376-42fd-af40-df54dd21440b","ios":"levelo://app?vid=e5c826d2-6376-42fd-af40-df54dd21440b"},"vehicle_type_id":"4","last_reported":1736763022,"current_range_meters":17200,"station_id":"ce4bhb92rcd13ifvqen0","pricing_plan_id":"cebpf4jnsgd1na2vs0mg"},{"bike_id":"a77e0ec4-5fc1-4a37-82fc-0c2c8e9d8654","system_id":"levelo_inurba_marseille","lat":43.24161,"lon":5.3641,"is_reserved":false,"is_disabled":false,"rental_uris":{"android":"levelo://app?vid=a77e0ec4-5fc1-4a37-82fc-0c2c8e9d8654","ios":"levelo://app?vid=a77e0ec4-5fc1-4a37-82fc-0c2c8e9d8654"},"vehicle_type_id":"4","last_reported":1736763022,"current_range_meters":25600,"station_id":"cpo36qri1sfpv3e86is0","pricing_plan_id":"cebpf4jnsgd1na2vs0mg"},{"bike_id":"43d1392c-f8d8-4498-8ddc-43615aba88c5","system_id":"levelo_inurba_marseille","lat":43.27964,"lon":5.38697,"is_reserved":false,"is_disabled":false,"rental_uris":{"android":"levelo://app?vid=43d1392c-f8d8-4498-8ddc-43615aba88c5","ios":"levelo://app?vid=43d1392c-f8d8-4498-8ddc-43615aba88c5"},"vehicle_type_id":"4","last_reported":1736763022,"current_range_meters":8000,"station_id":"ce4bhg12rcd13ifvqf80","pricing_plan_id":"cebpf4jnsgd1na2vs0mg"},{"bike_id":"a754abf4-87cb-4915-a97f-0b4d0e8971f5","system_id":"levelo_inurba_marseille","lat":43.28613,"lon":5.35114,"is_reserved":false,"is_disabled":false,"rental_uris":{"android":"levelo://app?vid=a754abf4-87cb-4915-a97f-0b4d0e8971f5","ios":"levelo://app?vid=a754abf4-87cb-4915-a97f-0b4d0e8971f5"},"vehicle_type_id":"4","last_reported":1736763022,"current_range_meters":33600,"station_id":"ce4bhch2rcd13ifvqeug","pricing_plan_id":"cebpf4jnsgd1na2vs0mg"},{"bike_id":"b51b8509-c21e-40ac-802b-edd56e55cdd0","system_id":"levelo_inurba_marseille","lat":43.3034,"lon":5.41877,"is_reserved":false,"is_disabled":true,"rental_uris":{"android":"levelo://app?vid=b51b8509-c21e-40ac-802b-edd56e55cdd0","ios":"levelo://app?vid=b51b8509-c21e-40ac-802b-edd56e55cdd0"},"vehicle_type_id":"4","last_reported":1736763022,"current_range_meters":24400,"station_id":"ce4bhop2rcd13ifvqh7g","pricing_plan_id":"cebpf4jnsgd1na2vs0mg"},{"bike_id":"b8cd2a8f-d435-4f84-881a-729309f99dac","system_id":"levelo_inurba_marseille","lat":43.34155,"lon":5.40897,"is_reserved":false,"is_disabled":false,"rental_uris":{"android":"levelo://app?vid=b8cd2a8f-d435-4f84-881a-729309f99dac","ios":"levelo://app?vid=b8cd2a8f-d435-4f84-881a-729309f99dac"},"vehicle_type_id":"4","last_reported":1736763022,"current_range_meters":25200,"station_id":"ce4bhqh2rcd13ifvqhlg","pricing_plan_id":"cebpf4jnsgd1na2vs0mg"},{"bike_id":"ad889db7-64ad-47f0-b63b-ba5468c4a1e6","system_id":"levelo_inurba_marseille","lat":43.29001,"lon":5.35618,"is_reserved":false,"is_disabled":false,"rental_uris":{"android":"levelo://app?vid=ad889db7-64ad-47f0-b63b-ba5468c4a1e6","ios":"levelo://app?vid=ad889db7-64ad-47f0-b63b-ba5468c4a1e6"},"vehicle_type_id":"4","last_reported":1736763022,"current_range_meters":20000,"station_id":"ce4bhb92rcd13ifvqen0","pricing_plan_id":"cebpf4jnsgd1na2vs0mg"},{"bike_id":"78fc2529-851e-44ea-9e17-e5a76c9197b1","system_id":"levelo_inurba_marseille","lat":43.29742,"lon":5.3769,"is_reserved":false,"is_disabled":true,"rental_uris":{"android":"levelo://app?vid=78fc2529-851e-44ea-9e17-e5a76c9197b1","ios":"levelo://app?vid=78fc2529-851e-44ea-9e17-e5a76c9197b1"},"vehicle_type_id":"4","last_reported":1736763022,"current_range_meters":38000,"station_id":"ce4bgkh2rcd13ifvqbl0","pricing_plan_id":"cebpf4jnsgd1na2vs0mg"},{"bike_id":"759d91c5-2392-48f6-8f2b-fc1cfd9b9ecd","system_id":"levelo_inurba_marseille","lat":43.282721,"lon":5.350713,"is_reserved":false,"is_disabled":true,"rental_uris":{"android":"levelo://app?vid=759d91c5-2392-48f6-8f2b-fc1cfd9b9ecd","ios":"levelo://app?vid=759d91c5-2392-48f6-8f2b-fc1cfd9b9ecd"},"vehicle_type_id":"4","last_reported":1736763022,"current_range_meters":25600,"station_id":"ce4bhbp2rcd13ifvqerg","pricing_plan_id":"cebpf4jnsgd1na2vs0mg"},{"bike_id":"ebc55eb9-194f-4e99-8e23-b42fca6cc43d","system_id":"levelo_inurba_marseille","lat":43.27656,"lon":5.38902,"is_reserved":false,"is_disabled":false,"rental_uris":{"android":"levelo://app?vid=ebc55eb9-194f-4e99-8e23-b42fca6cc43d","ios":"levelo://app?vid=ebc55eb9-194f-4e99-8e23-b42fca6cc43d"},"vehicle_type_id":"4","last_reported":1736763022,"current_range_meters":39200,"station_id":"ce4bhi12rcd13ifvqfo0","pricing_plan_id":"cebpf4jnsgd1na2vs0mg"},{"bike_id":"4df89c5f-ad35-4858-8e73-2c663853f2e7","system_id":"levelo_inurba_marseille","lat":43.27491,"lon":5.42463,"is_reserved":false,"is_disabled":true,"rental_uris":{"android":"levelo://app?vid=4df89c5f-ad35-4858-8e73-2c663853f2e7","ios":"levelo://app?vid=4df89c5f-ad35-4858-8e73-2c663853f2e7"},"vehicle_type_id":"4","last_reported":1736763022,"current_range_meters":0,"station_id":"ce4bhn92rcd13ifvqgrg","pricing_plan_id":"cebpf4jnsgd1na2vs0mg"},{"bike_id":"d1e84e6c-637d-40bc-9e66-fc9aeffccf04","system_id":"levelo_inurba_marseille","lat":43.29001,"lon":5.35617,"is_reserved":false,"is_disabled":false,"rental_uris":{"android":"levelo://app?vid=d1e84e6c-637d-40bc-9e66-fc9aeffccf04","ios":"levelo://app?vid=d1e84e6c-637d-40bc-9e66-fc9aeffccf04"},"vehicle_type_id":"4","last_reported":1736763022,"current_range_meters":17600,"station_id":"ce4bhb92rcd13ifvqen0","pricing_plan_id":"cebpf4jnsgd1na2vs0mg"},{"bike_id":"6dc4ea23-26cd-479f-b112-c90a8de3bc27","system_id":"levelo_inurba_marseille","lat":43.30086,"lon":5.37442,"is_reserved":false,"is_disabled":false,"rental_uris":{"android":"levelo://app?vid=6dc4ea23-26cd-479f-b112-c90a8de3bc27","ios":"levelo://app?vid=6dc4ea23-26cd-479f-b112-c90a8de3bc27"},"vehicle_type_id":"4","last_reported":1736763022,"current_range_meters":35600,"station_id":"ce4bgs92rcd13ifvqcc0","pricing_plan_id":"cebpf4jnsgd1na2vs0mg"},{"bike_id":"f66c614d-25ca-4c95-9026-7e0a9d67e580","system_id":"levelo_inurba_marseille","lat":43.29004,"lon":5.35624,"is_reserved":false,"is_disabled":false,"rental_uris":{"android":"levelo://app?vid=f66c614d-25ca-4c95-9026-7e0a9d67e580","ios":"levelo://app?vid=f66c614d-25ca-4c95-9026-7e0a9d67e580"},"vehicle_type_id":"4","last_reported":1736763022,"current_range_meters":20400,"station_id":"ce4bhb92rcd13ifvqen0","pricing_plan_id":"cebpf4jnsgd1na2vs0mg"},{"bike_id":"81894d57-6961-4ca9-8a73-3302ecbe940c","system_id":"levelo_inurba_marseille","lat":43.24818,"lon":5.37452,"is_reserved":false,"is_disabled":false,"rental_uris":{"android":"levelo://app?vid=81894d57-6961-4ca9-8a73-3302ecbe940c","ios":"levelo://app?vid=81894d57-6961-4ca9-8a73-3302ecbe940c"},"vehicle_type_id":"4","last_reported":1736763022,"current_range_meters":9600,"station_id":"ce4bhgh2rcd13ifvqfb0","pricing_plan_id":"cebpf4jnsgd1na2vs0mg"},{"bike_id":"ef7fc16d-a8c0-4169-92cf-88496d36f3d9","system_id":"levelo_inurba_marseille","lat":43.30955,"lon":5.390367,"is_reserved":false,"is_disabled":false,"rental_uris":{"android":"levelo://app?vid=ef7fc16d-a8c0-4169-92cf-88496d36f3d9","ios":"levelo://app?vid=ef7fc16d-a8c0-4169-92cf-88496d36f3d9"},"vehicle_type_id":"4","last_reported":1736763022,"current_range_meters":34000,"station_id":"ce4bgup2rcd13ifvqco0","pricing_plan_id":"cebpf4jnsgd1na2vs0mg"},{"bike_id":"45324790-abcf-4a91-8b9e-6b7c17eae013","system_id":"levelo_inurba_marseille","lat":43.27362,"lon":5.3625,"is_reserved":false,"is_disabled":false,"rental_uris":{"android":"levelo://app?vid=45324790-abcf-4a91-8b9e-6b7c17eae013","ios":"levelo://app?vid=45324790-abcf-4a91-8b9e-6b7c17eae013"},"vehicle_type_id":"4","last_reported":1736763022,"current_range_meters":9600,"station_id":"ce4bhbh2rcd13ifvqeo0","pricing_plan_id":"cebpf4jnsgd1na2vs0mg"},{"bike_id":"0056f550-9894-4c1c-b471-e9ebf0db9503","system_id":"levelo_inurba_marseille","lat":43.24068,"lon":5.37771,"is_reserved":false,"is_disabled":false,"rental_uris":{"android":"levelo://app?vid=0056f550-9894-4c1c-b471-e9ebf0db9503","ios":"levelo://app?vid=0056f550-9894-4c1c-b471-e9ebf0db9503"},"vehicle_type_id":"4","last_reported":1736763022,"current_range_meters":38800,"station_id":"ce4bhnp2rcd13ifvqgvg","pricing_plan_id":"cebpf4jnsgd1na2vs0mg"},{"bike_id":"595c2c81-768b-4a33-9074-c12e9f79dba3","system_id":"levelo_inurba_marseille","lat":43.2981,"lon":5.38095,"is_reserved":false,"is_disabled":false,"rental_uris":{"android":"levelo://app?vid=595c2c81-768b-4a33-9074-c12e9f79dba3","ios":"levelo://app?vid=595c2c81-768b-4a33-9074-c12e9f79dba3"},"vehicle_type_id":"4","last_reported":1736763022,"current_range_meters":37600,"station_id":"ce4bgip2rcd13ifvqbb0","pricing_plan_id":"cebpf4jnsgd1na2vs0mg"},{"bike_id":"ec433f4a-bbda-4b1a-ae77-a7481e2e67ed","system_id":"levelo_inurba_marseille","lat":43.27364,"lon":5.36248,"is_reserved":false,"is_disabled":false,"rental_uris":{"android":"levelo://app?vid=ec433f4a-bbda-4b1a-ae77-a7481e2e67ed","ios":"levelo://app?vid=ec433f4a-bbda-4b1a-ae77-a7481e2e67ed"},"vehicle_type_id":"4","last_reported":1736763022,"current_range_meters":19200,"station_id":"ce4bhbh2rcd13ifvqeo0","pricing_plan_id":"cebpf4jnsgd1na2vs0mg"},{"bike_id":"7abc0742-0d6a-40d7-8137-deb5e8e48177","system_id":"levelo_inurba_marseille","lat":43.25079,"lon":5.3952,"is_reserved":false,"is_disabled":false,"rental_uris":{"android":"levelo://app?vid=7abc0742-0d6a-40d7-8137-deb5e8e48177","ios":"levelo://app?vid=7abc0742-0d6a-40d7-8137-deb5e8e48177"},"vehicle_type_id":"4","last_reported":1736763022,"current_range_meters":36800,"station_id":"ce4bhm12rcd13ifvqgkg","pricing_plan_id":"cebpf4jnsgd1na2vs0mg"},{"bike_id":"e052c135-0f06-4100-812a-ad35a67ecc1d","system_id":"levelo_inurba_marseille","lat":43.28943,"lon":5.36404,"is_reserved":false,"is_disabled":false,"rental_uris":{"android":"levelo://app?vid=e052c135-0f06-4100-812a-ad35a67ecc1d","ios":"levelo://app?vid=e052c135-0f06-4100-812a-ad35a67ecc1d"},"vehicle_type_id":"4","last_reported":1736763022,"current_range_meters":39200,"station_id":"ce4bhc92rcd13ifvqetg","pricing_plan_id":"cebpf4jnsgd1na2vs0mg"},{"bike_id":"fed252d4-8a96-4918-8909-8c985d1de4fb","system_id":"levelo_inurba_marseille","lat":43.32466,"lon":5.36596,"is_reserved":false,"is_disabled":false,"rental_uris":{"android":"levelo://app?vid=fed252d4-8a96-4918-8909-8c985d1de4fb","ios":"levelo://app?vid=fed252d4-8a96-4918-8909-8c985d1de4fb"},"vehicle_type_id":"4","last_reported":1736763022,"current_range_meters":24800,"station_id":"ce4bhs12rcd13ifvqhvg","pricing_plan_id":"cebpf4jnsgd1na2vs0mg"},{"bike_id":"1ff4d6af-d168-4206-80a1-8f85ab0c0a00","system_id":"levelo_inurba_marseille","lat":43.25865,"lon":5.39903,"is_reserved":false,"is_disabled":false,"rental_uris":{"android":"levelo://app?vid=1ff4d6af-d168-4206-80a1-8f85ab0c0a00","ios":"levelo://app?vid=1ff4d6af-d168-4206-80a1-8f85ab0c0a00"},"vehicle_type_id":"4","last_reported":1736763022,"current_range_meters":8800,"station_id":"ce4bhl92rcd13ifvqghg","pricing_plan_id":"cebpf4jnsgd1na2vs0mg"},{"bike_id":"55e10a13-573c-4876-a3f3-1d7244726716","system_id":"levelo_inurba_marseille","lat":43.2482,"lon":5.37453,"is_reserved":false,"is_disabled":false,"rental_uris":{"android":"levelo://app?vid=55e10a13-573c-4876-a3f3-1d7244726716","ios":"levelo://app?vid=55e10a13-573c-4876-a3f3-1d7244726716"},"vehicle_type_id":"4","last_reported":1736763022,"current_range_meters":39200,"station_id":"ce4bhgh2rcd13ifvqfb0","pricing_plan_id":"cebpf4jnsgd1na2vs0mg"},{"bike_id":"86abeea7-c434-4e10-8df8-12c24097eeb0","system_id":"levelo_inurba_marseille","lat":43.30422,"lon":5.39747,"is_reserved":false,"is_disabled":true,"rental_uris":{"android":"levelo://app?vid=86abeea7-c434-4e10-8df8-12c24097eeb0","ios":"levelo://app?vid=86abeea7-c434-4e10-8df8-12c24097eeb0"},"vehicle_type_id":"4","last_reported":1736763022,"current_range_meters":38400,"station_id":"ce4bh092rcd13ifvqd20","pricing_plan_id":"cebpf4jnsgd1na2vs0mg"},{"bike_id":"03bca436-08ee-4d85-a374-8843818c5ed9","system_id":"levelo_inurba_marseille","lat":43.24166,"lon":5.39742,"is_reserved":false,"is_disabled":false,"rental_uris":{"android":"levelo://app?vid=03bca436-08ee-4d85-a374-8843818c5ed9","ios":"levelo://app?vid=03bca436-08ee-4d85-a374-8843818c5ed9"},"vehicle_type_id":"4","last_reported":1736763022,"current_range_meters":24400,"station_id":"ce4bhn12rcd13ifvqgpg","pricing_plan_id":"cebpf4jnsgd1na2vs0mg"},{"bike_id":"a20d02fe-2159-492e-ad8f-4df68f524ed8","system_id":"levelo_inurba_marseille","lat":43.28964,"lon":5.37841,"is_reserved":false,"is_disabled":false,"rental_uris":{"android":"levelo://app?vid=a20d02fe-2159-492e-ad8f-4df68f524ed8","ios":"levelo://app?vid=a20d02fe-2159-492e-ad8f-4df68f524ed8"},"vehicle_type_id":"4","last_reported":1736763022,"current_range_meters":24400,"station_id":"ce4bh9p2rcd13ifvqed0","pricing_plan_id":"cebpf4jnsgd1na2vs0mg"},{"bike_id":"6a22576e-69a3-4d0e-9b9e-651926c7013d","system_id":"levelo_inurba_marseille","lat":43.2749,"lon":5.42456,"is_reserved":false,"is_disabled":false,"rental_uris":{"android":"levelo://app?vid=6a22576e-69a3-4d0e-9b9e-651926c7013d","ios":"levelo://app?vid=6a22576e-69a3-4d0e-9b9e-651926c7013d"},"vehicle_type_id":"4","last_reported":1736763022,"current_range_meters":18800,"station_id":"ce4bhn92rcd13ifvqgrg","pricing_plan_id":"cebpf4jnsgd1na2vs0mg"},{"bike_id":"beb1ed99-132f-47c4-80ac-9aef94117257","system_id":"levelo_inurba_marseille","lat":43.27492,"lon":5.42466,"is_reserved":false,"is_disabled":false,"rental_uris":{"android":"levelo://app?vid=beb1ed99-132f-47c4-80ac-9aef94117257","ios":"levelo://app?vid=beb1ed99-132f-47c4-80ac-9aef94117257"},"vehicle_type_id":"4","last_reported":1736763022,"current_range_meters":27600,"station_id":"ce4bhn92rcd13ifvqgrg","pricing_plan_id":"cebpf4jnsgd1na2vs0mg"},{"bike_id":"b8890b39-ab71-4655-a527-68606f251f13","system_id":"levelo_inurba_marseille","lat":43.24088,"lon":5.37758,"is_reserved":false,"is_disabled":true,"rental_uris":{"android":"levelo://app?vid=b8890b39-ab71-4655-a527-68606f251f13","ios":"levelo://app?vid=b8890b39-ab71-4655-a527-68606f251f13"},"vehicle_type_id":"4","last_reported":1736763022,"current_range_meters":36800,"station_id":"ce4bhnp2rcd13ifvqgvg","pricing_plan_id":"cebpf4jnsgd1na2vs0mg"},{"bike_id":"d56e318a-8a18-40b2-b654-b309052e84af","system_id":"levelo_inurba_marseille","lat":43.29003,"lon":5.35617,"is_reserved":false,"is_disabled":false,"rental_uris":{"android":"levelo://app?vid=d56e318a-8a18-40b2-b654-b309052e84af","ios":"levelo://app?vid=d56e318a-8a18-40b2-b654-b309052e84af"},"vehicle_type_id":"4","last_reported":1736763022,"current_range_meters":30400,"station_id":"ce4bhb92rcd13ifvqen0","pricing_plan_id":"cebpf4jnsgd1na2vs0mg"},{"bike_id":"c7a817d3-63e5-4652-8814-98e74bb31058","system_id":"levelo_inurba_marseille","lat":43.2396,"lon":5.36647,"is_reserved":false,"is_disabled":false,"rental_uris":{"android":"levelo://app?vid=c7a817d3-63e5-4652-8814-98e74bb31058","ios":"levelo://app?vid=c7a817d3-63e5-4652-8814-98e74bb31058"},"vehicle_type_id":"4","last_reported":1736763022,"current_range_meters":36400,"station_id":"ce4bhi12rcd13ifvqfp0","pricing_plan_id":"cebpf4jnsgd1na2vs0mg"},{"bike_id":"488e5d3f-7080-456a-8875-7f1a5dce4fa1","system_id":"levelo_inurba_marseille","lat":43.30125,"lon":5.38806,"is_reserved":false,"is_disabled":true,"rental_uris":{"android":"levelo://app?vid=488e5d3f-7080-456a-8875-7f1a5dce4fa1","ios":"levelo://app?vid=488e5d3f-7080-456a-8875-7f1a5dce4fa1"},"vehicle_type_id":"4","last_reported":1736763022,"current_range_meters":28400,"station_id":"ce4bghh2rcd13ifvqb60","pricing_plan_id":"cebpf4jnsgd1na2vs0mg"},{"bike_id":"d9511595-185a-4a3e-a81b-0634ec2f8091","system_id":"levelo_inurba_marseille","lat":43.284,"lon":5.34984,"is_reserved":false,"is_disabled":false,"rental_uris":{"android":"levelo://app?vid=d9511595-185a-4a3e-a81b-0634ec2f8091","ios":"levelo://app?vid=d9511595-185a-4a3e-a81b-0634ec2f8091"},"vehicle_type_id":"4","last_reported":1736763022,"current_range_meters":26800,"station_id":"ce4bhbh2rcd13ifvqepg","pricing_plan_id":"cebpf4jnsgd1na2vs0mg"},{"bike_id":"295bd26f-64bb-4f9a-b1ce-9227768f18ec","system_id":"levelo_inurba_marseille","lat":43.29168,"lon":5.37136,"is_reserved":false,"is_disabled":true,"rental_uris":{"android":"levelo://app?vid=295bd26f-64bb-4f9a-b1ce-9227768f18ec","ios":"levelo://app?vid=295bd26f-64bb-4f9a-b1ce-9227768f18ec"},"vehicle_type_id":"4","last_reported":1736763022,"current_range_meters":29600,"station_id":"ce4bha92rcd13ifvqeh0","pricing_plan_id":"cebpf4jnsgd1na2vs0mg"},{"bike_id":"b383f705-ed0b-4546-a01d-4f1756188ac6","system_id":"levelo_inurba_marseille","lat":43.28462,"lon":5.35887,"is_reserved":false,"is_disabled":false,"rental_uris":{"android":"levelo://app?vid=b383f705-ed0b-4546-a01d-4f1756188ac6","ios":"levelo://app?vid=b383f705-ed0b-4546-a01d-4f1756188ac6"},"vehicle_type_id":"4","last_reported":1736763022,"current_range_meters":38400,"station_id":"ce4bhah2rcd13ifvqei0","pricing_plan_id":"cebpf4jnsgd1na2vs0mg"},{"bike_id":"1bff2bac-4883-4019-adbe-2dc598af8aad","system_id":"levelo_inurba_marseille","lat":43.27426,"lon":5.39409,"is_reserved":false,"is_disabled":false,"rental_uris":{"android":"levelo://app?vid=1bff2bac-4883-4019-adbe-2dc598af8aad","ios":"levelo://app?vid=1bff2bac-4883-4019-adbe-2dc598af8aad"},"vehicle_type_id":"4","last_reported":1736763022,"current_range_meters":22400,"station_id":"ce4bhdp2rcd13ifvqf20","pricing_plan_id":"cebpf4jnsgd1na2vs0mg"},{"bike_id":"ae29e0de-7b5a-45d6-ace3-313c5e88010a","system_id":"levelo_inurba_marseille","lat":43.27989,"lon":5.41689,"is_reserved":false,"is_disabled":true,"rental_uris":{"android":"levelo://app?vid=ae29e0de-7b5a-45d6-ace3-313c5e88010a","ios":"levelo://app?vid=ae29e0de-7b5a-45d6-ace3-313c5e88010a"},"vehicle_type_id":"4","last_reported":1736763022,"current_range_meters":0,"station_id":"ce4bho12rcd13ifvqh1g","pricing_plan_id":"cebpf4jnsgd1na2vs0mg"},{"bike_id":"572f0254-11cf-4ef2-b3f9-66737ed8298a","system_id":"levelo_inurba_marseille","lat":43.28432,"lon":5.35009,"is_reserved":false,"is_disabled":true,"rental_uris":{"android":"levelo://app?vid=572f0254-11cf-4ef2-b3f9-66737ed8298a","ios":"levelo://app?vid=572f0254-11cf-4ef2-b3f9-66737ed8298a"},"vehicle_type_id":"4","last_reported":1736763022,"current_range_meters":0,"station_id":"ce4bhbh2rcd13ifvqepg","pricing_plan_id":"cebpf4jnsgd1na2vs0mg"},{"bike_id":"5e762b1b-b8de-4f44-8971-339a5eccc653","system_id":"levelo_inurba_marseille","lat":43.25924,"lon":5.40906,"is_reserved":false,"is_disabled":false,"rental_uris":{"android":"levelo://app?vid=5e762b1b-b8de-4f44-8971-339a5eccc653","ios":"levelo://app?vid=5e762b1b-b8de-4f44-8971-339a5eccc653"},"vehicle_type_id":"4","last_reported":1736763022,"current_range_meters":24000,"station_id":"ce4bhm92rcd13ifvqglg","pricing_plan_id":"cebpf4jnsgd1na2vs0mg"},{"bike_id":"432c3ea1-bacd-4bf6-9280-5777e35950d9","system_id":"levelo_inurba_marseille","lat":43.29379,"lon":5.37851,"is_reserved":false,"is_disabled":false,"rental_uris":{"android":"levelo://app?vid=432c3ea1-bacd-4bf6-9280-5777e35950d9","ios":"levelo://app?vid=432c3ea1-bacd-4bf6-9280-5777e35950d9"},"vehicle_type_id":"4","last_reported":1736763022,"current_range_meters":39200,"station_id":"ce4bgjh2rcd13ifvqbf0","pricing_plan_id":"cebpf4jnsgd1na2vs0mg"},{"bike_id":"c4fc0863-b0fb-4807-8008-82e187e36bd7","system_id":"levelo_inurba_marseille","lat":43.30541,"lon":5.36536,"is_reserved":false,"is_disabled":false,"rental_uris":{"android":"levelo://app?vid=c4fc0863-b0fb-4807-8008-82e187e36bd7","ios":"levelo://app?vid=c4fc0863-b0fb-4807-8008-82e187e36bd7"},"vehicle_type_id":"4","last_reported":1736763022,"current_range_meters":22400,"station_id":"ce4bgs12rcd13ifvqcag","pricing_plan_id":"cebpf4jnsgd1na2vs0mg"},{"bike_id":"136c61aa-a244-4f82-9113-620a348666ce","system_id":"levelo_inurba_marseille","lat":43.27561,"lon":5.38436,"is_reserved":false,"is_disabled":true,"rental_uris":{"android":"levelo://app?vid=136c61aa-a244-4f82-9113-620a348666ce","ios":"levelo://app?vid=136c61aa-a244-4f82-9113-620a348666ce"},"vehicle_type_id":"4","last_reported":1736763022,"current_range_meters":25600,"station_id":"ce4bhh92rcd13ifvqfi0","pricing_plan_id":"cebpf4jnsgd1na2vs0mg"},{"bike_id":"42ecc464-da44-487e-b0da-d25d9d2043d6","system_id":"levelo_inurba_marseille","lat":43.25725,"lon":5.41098,"is_reserved":false,"is_disabled":false,"rental_uris":{"android":"levelo://app?vid=42ecc464-da44-487e-b0da-d25d9d2043d6","ios":"levelo://app?vid=42ecc464-da44-487e-b0da-d25d9d2043d6"},"vehicle_type_id":"4","last_reported":1736763022,"current_range_meters":38800,"station_id":"ce4bhkp2rcd13ifvqgd0","pricing_plan_id":"cebpf4jnsgd1na2vs0mg"},{"bike_id":"6e27e273-45e9-4030-b6e3-376b4ba37e56","system_id":"levelo_inurba_marseille","lat":43.28938,"lon":5.39639,"is_reserved":false,"is_disabled":false,"rental_uris":{"android":"levelo://app?vid=6e27e273-45e9-4030-b6e3-376b4ba37e56","ios":"levelo://app?vid=6e27e273-45e9-4030-b6e3-376b4ba37e56"},"vehicle_type_id":"4","last_reported":1736763022,"current_range_meters":38000,"station_id":"ce4bh3h2rcd13ifvqdn0","pricing_plan_id":"cebpf4jnsgd1na2vs0mg"},{"bike_id":"a478a841-cbdb-4200-b90b-0e8d51eef500","system_id":"levelo_inurba_marseille","lat":43.29877,"lon":5.36296,"is_reserved":false,"is_disabled":false,"rental_uris":{"android":"levelo://app?vid=a478a841-cbdb-4200-b90b-0e8d51eef500","ios":"levelo://app?vid=a478a841-cbdb-4200-b90b-0e8d51eef500"},"vehicle_type_id":"4","last_reported":1736763022,"current_range_meters":35600,"station_id":"ce4bgpp2rcd13ifvqc3g","pricing_plan_id":"cebpf4jnsgd1na2vs0mg"},{"bike_id":"65e8b99d-cb00-44f8-a57f-7740743f51e0","system_id":"levelo_inurba_marseille","lat":43.25026,"lon":5.38847,"is_reserved":false,"is_disabled":true,"rental_uris":{"android":"levelo://app?vid=65e8b99d-cb00-44f8-a57f-7740743f51e0","ios":"levelo://app?vid=65e8b99d-cb00-44f8-a57f-7740743f51e0"},"vehicle_type_id":"4","last_reported":1736763022,"current_range_meters":24800,"station_id":"ce4bhgp2rcd13ifvqfd0","pricing_plan_id":"cebpf4jnsgd1na2vs0mg"},{"bike_id":"e7bed24c-76b8-4bfe-8ea5-51efa81df6c2","system_id":"levelo_inurba_marseille","lat":43.27486,"lon":5.42465,"is_reserved":false,"is_disabled":true,"rental_uris":{"android":"levelo://app?vid=e7bed24c-76b8-4bfe-8ea5-51efa81df6c2","ios":"levelo://app?vid=e7bed24c-76b8-4bfe-8ea5-51efa81df6c2"},"vehicle_type_id":"4","last_reported":1736763022,"current_range_meters":0,"station_id":"ce4bhn92rcd13ifvqgrg","pricing_plan_id":"cebpf4jnsgd1na2vs0mg"},{"bike_id":"6717d6af-ad98-48cb-9ab4-95e77c0c6da7","system_id":"levelo_inurba_marseille","lat":43.3135,"lon":5.36723,"is_reserved":false,"is_disabled":false,"rental_uris":{"android":"levelo://app?vid=6717d6af-ad98-48cb-9ab4-95e77c0c6da7","ios":"levelo://app?vid=6717d6af-ad98-48cb-9ab4-95e77c0c6da7"},"vehicle_type_id":"4","last_reported":1736763022,"current_range_meters":29600,"station_id":"ce4bgr92rcd13ifvqc6g","pricing_plan_id":"cebpf4jnsgd1na2vs0mg"},{"bike_id":"3db2fa11-1dd9-4dc9-ae46-77da55522d93","system_id":"levelo_inurba_marseille","lat":43.25107,"lon":5.40326,"is_reserved":false,"is_disabled":true,"rental_uris":{"android":"levelo://app?vid=3db2fa11-1dd9-4dc9-ae46-77da55522d93","ios":"levelo://app?vid=3db2fa11-1dd9-4dc9-ae46-77da55522d93"},"vehicle_type_id":"4","last_reported":1736763022,"current_range_meters":0,"station_id":"ce4bhlh2rcd13ifvqgig","pricing_plan_id":"cebpf4jnsgd1na2vs0mg"},{"bike_id":"b477bac1-0063-4386-a827-0fff025da40a","system_id":"levelo_inurba_marseille","lat":43.33598,"lon":5.41016,"is_reserved":false,"is_disabled":false,"rental_uris":{"android":"levelo://app?vid=b477bac1-0063-4386-a827-0fff025da40a","ios":"levelo://app?vid=b477bac1-0063-4386-a827-0fff025da40a"},"vehicle_type_id":"4","last_reported":1736763022,"current_range_meters":38800,"station_id":"ce4bhqh2rcd13ifvqhmg","pricing_plan_id":"cebpf4jnsgd1na2vs0mg"},{"bike_id":"e7a47303-7a8f-48fc-8faf-8ee5311a54e3","system_id":"levelo_inurba_marseille","lat":43.28936,"lon":5.36633,"is_reserved":false,"is_disabled":false,"rental_uris":{"android":"levelo://app?vid=e7a47303-7a8f-48fc-8faf-8ee5311a54e3","ios":"levelo://app?vid=e7a47303-7a8f-48fc-8faf-8ee5311a54e3"},"vehicle_type_id":"4","last_reported":1736763022,"current_range_meters":21600,"station_id":"ce4bhap2rcd13ifvqek0","pricing_plan_id":"cebpf4jnsgd1na2vs0mg"},{"bike_id":"e7d60e9d-6edf-4643-8519-ea99151aa9a5","system_id":"levelo_inurba_marseille","lat":43.29179,"lon":5.37146,"is_reserved":false,"is_disabled":false,"rental_uris":{"android":"levelo://app?vid=e7d60e9d-6edf-4643-8519-ea99151aa9a5","ios":"levelo://app?vid=e7d60e9d-6edf-4643-8519-ea99151aa9a5"},"vehicle_type_id":"4","last_reported":1736763022,"current_range_meters":35200,"station_id":"ce4bha92rcd13ifvqeh0","pricing_plan_id":"cebpf4jnsgd1na2vs0mg"},{"bike_id":"b704bf42-2bc7-4506-b669-8ca7a3330fef","system_id":"levelo_inurba_marseille","lat":43.28161,"lon":5.42621,"is_reserved":false,"is_disabled":true,"rental_uris":{"android":"levelo://app?vid=b704bf42-2bc7-4506-b669-8ca7a3330fef","ios":"levelo://app?vid=b704bf42-2bc7-4506-b669-8ca7a3330fef"},"vehicle_type_id":"4","last_reported":1736763022,"current_range_meters":25200,"station_id":"ce4bhnh2rcd13ifvqgug","pricing_plan_id":"cebpf4jnsgd1na2vs0mg"},{"bike_id":"fce02c72-fa01-449e-8f72-a8530913b962","system_id":"levelo_inurba_marseille","lat":43.304759,"lon":5.379123,"is_reserved":false,"is_disabled":false,"rental_uris":{"android":"levelo://app?vid=fce02c72-fa01-449e-8f72-a8530913b962","ios":"levelo://app?vid=fce02c72-fa01-449e-8f72-a8530913b962"},"vehicle_type_id":"4","last_reported":1736763022,"current_range_meters":38800,"station_id":"ce4bgup2rcd13ifvqcn0","pricing_plan_id":"cebpf4jnsgd1na2vs0mg"},{"bike_id":"73b4cf95-366f-4270-9320-716ca0d81968","system_id":"levelo_inurba_marseille","lat":43.29033,"lon":5.39959,"is_reserved":false,"is_disabled":false,"rental_uris":{"android":"levelo://app?vid=73b4cf95-366f-4270-9320-716ca0d81968","ios":"levelo://app?vid=73b4cf95-366f-4270-9320-716ca0d81968"},"vehicle_type_id":"4","last_reported":1736763022,"current_range_meters":37600,"station_id":"ce4bh392rcd13ifvqdm0","pricing_plan_id":"cebpf4jnsgd1na2vs0mg"},{"bike_id":"220b7080-ea0a-4c6c-99f0-45be01eafe90","system_id":"levelo_inurba_marseille","lat":43.29551,"lon":5.4228,"is_reserved":false,"is_disabled":false,"rental_uris":{"android":"levelo://app?vid=220b7080-ea0a-4c6c-99f0-45be01eafe90","ios":"levelo://app?vid=220b7080-ea0a-4c6c-99f0-45be01eafe90"},"vehicle_type_id":"4","last_reported":1736763022,"current_range_meters":27600,"station_id":"ce4bhph2rcd13ifvqhdg","pricing_plan_id":"cebpf4jnsgd1na2vs0mg"},{"bike_id":"99992ce0-e13f-4dee-95af-06d78d23df51","system_id":"levelo_inurba_marseille","lat":43.25934,"lon":5.40884,"is_reserved":false,"is_disabled":false,"rental_uris":{"android":"levelo://app?vid=99992ce0-e13f-4dee-95af-06d78d23df51","ios":"levelo://app?vid=99992ce0-e13f-4dee-95af-06d78d23df51"},"vehicle_type_id":"4","last_reported":1736763022,"current_range_meters":12800,"station_id":"ce4bhm92rcd13ifvqglg","pricing_plan_id":"cebpf4jnsgd1na2vs0mg"},{"bike_id":"f62a7ed4-7c80-4ed8-9568-a4dea62069d1","system_id":"levelo_inurba_marseille","lat":43.28072,"lon":5.39664,"is_reserved":false,"is_disabled":false,"rental_uris":{"android":"levelo://app?vid=f62a7ed4-7c80-4ed8-9568-a4dea62069d1","ios":"levelo://app?vid=f62a7ed4-7c80-4ed8-9568-a4dea62069d1"},"vehicle_type_id":"4","last_reported":1736763022,"current_range_meters":28800,"station_id":"ce4bho12rcd13ifvqh2g","pricing_plan_id":"cebpf4jnsgd1na2vs0mg"},{"bike_id":"333a08e8-2df9-4051-8809-a1d8783306b3","system_id":"levelo_inurba_marseille","lat":43.30459,"lon":5.37905,"is_reserved":false,"is_disabled":true,"rental_uris":{"android":"levelo://app?vid=333a08e8-2df9-4051-8809-a1d8783306b3","ios":"levelo://app?vid=333a08e8-2df9-4051-8809-a1d8783306b3"},"vehicle_type_id":"4","last_reported":1736763022,"current_range_meters":800,"station_id":"ce4bgup2rcd13ifvqcn0","pricing_plan_id":"cebpf4jnsgd1na2vs0mg"},{"bike_id":"ab5106f8-9059-4776-adcb-76ac24a9e045","system_id":"levelo_inurba_marseille","lat":43.30455,"lon":5.37914,"is_reserved":false,"is_disabled":false,"rental_uris":{"android":"levelo://app?vid=ab5106f8-9059-4776-adcb-76ac24a9e045","ios":"levelo://app?vid=ab5106f8-9059-4776-adcb-76ac24a9e045"},"vehicle_type_id":"4","last_reported":1736763022,"current_range_meters":16000,"station_id":"ce4bgup2rcd13ifvqcn0","pricing_plan_id":"cebpf4jnsgd1na2vs0mg"},{"bike_id":"0e19202f-6922-49da-ae77-73894f707993","system_id":"levelo_inurba_marseille","lat":43.26946,"lon":5.38645,"is_reserved":false,"is_disabled":false,"rental_uris":{"android":"levelo://app?vid=0e19202f-6922-49da-ae77-73894f707993","ios":"levelo://app?vid=0e19202f-6922-49da-ae77-73894f707993"},"vehicle_type_id":"4","last_reported":1736763022,"current_range_meters":38800,"station_id":"ce4bhh92rcd13ifvqfh0","pricing_plan_id":"cebpf4jnsgd1na2vs0mg"},{"bike_id":"d42aab63-4108-4300-bb76-e14a653ba056","system_id":"levelo_inurba_marseille","lat":43.28002,"lon":5.40008,"is_reserved":false,"is_disabled":true,"rental_uris":{"android":"levelo://app?vid=d42aab63-4108-4300-bb76-e14a653ba056","ios":"levelo://app?vid=d42aab63-4108-4300-bb76-e14a653ba056"},"vehicle_type_id":"4","last_reported":1736763022,"current_range_meters":36000,"station_id":"","pricing_plan_id":"cebpf4jnsgd1na2vs0mg"},{"bike_id":"1c386431-e3c2-4c9c-aa66-f49939c1313f","system_id":"levelo_inurba_marseille","lat":43.30152,"lon":5.38086,"is_reserved":false,"is_disabled":false,"rental_uris":{"android":"levelo://app?vid=1c386431-e3c2-4c9c-aa66-f49939c1313f","ios":"levelo://app?vid=1c386431-e3c2-4c9c-aa66-f49939c1313f"},"vehicle_type_id":"4","last_reported":1736763022,"current_range_meters":38400,"station_id":"ce4bgjp2rcd13ifvqbh0","pricing_plan_id":"cebpf4jnsgd1na2vs0mg"},{"bike_id":"66c74e61-5f94-4d34-8844-39c7d31204c9","system_id":"levelo_inurba_marseille","lat":43.24191,"lon":5.39732,"is_reserved":false,"is_disabled":false,"rental_uris":{"android":"levelo://app?vid=66c74e61-5f94-4d34-8844-39c7d31204c9","ios":"levelo://app?vid=66c74e61-5f94-4d34-8844-39c7d31204c9"},"vehicle_type_id":"4","last_reported":1736763022,"current_range_meters":28000,"station_id":"ce4bhn12rcd13ifvqgpg","pricing_plan_id":"cebpf4jnsgd1na2vs0mg"},{"bike_id":"31240ca4-9f64-4406-9c52-14b4354e548c","system_id":"levelo_inurba_marseille","lat":43.28609,"lon":5.3512,"is_reserved":false,"is_disabled":false,"rental_uris":{"android":"levelo://app?vid=31240ca4-9f64-4406-9c52-14b4354e548c","ios":"levelo://app?vid=31240ca4-9f64-4406-9c52-14b4354e548c"},"vehicle_type_id":"4","last_reported":1736763022,"current_range_meters":33600,"station_id":"ce4bhch2rcd13ifvqeug","pricing_plan_id":"cebpf4jnsgd1na2vs0mg"},{"bike_id":"089a04ef-15a2-4c09-98ee-41fc60bacc6d","system_id":"levelo_inurba_marseille","lat":43.32485,"lon":5.36617,"is_reserved":false,"is_disabled":false,"rental_uris":{"android":"levelo://app?vid=089a04ef-15a2-4c09-98ee-41fc60bacc6d","ios":"levelo://app?vid=089a04ef-15a2-4c09-98ee-41fc60bacc6d"},"vehicle_type_id":"4","last_reported":1736763022,"current_range_meters":38400,"station_id":"ce4bhs12rcd13ifvqhvg","pricing_plan_id":"cebpf4jnsgd1na2vs0mg"},{"bike_id":"d9b042e2-bbf3-47bf-851f-426caf4d0e01","system_id":"levelo_inurba_marseille","lat":43.248134,"lon":5.374555,"is_reserved":false,"is_disabled":false,"rental_uris":{"android":"levelo://app?vid=d9b042e2-bbf3-47bf-851f-426caf4d0e01","ios":"levelo://app?vid=d9b042e2-bbf3-47bf-851f-426caf4d0e01"},"vehicle_type_id":"4","last_reported":1736763022,"current_range_meters":34800,"station_id":"ce4bhgh2rcd13ifvqfb0","pricing_plan_id":"cebpf4jnsgd1na2vs0mg"},{"bike_id":"712fb1ac-a49b-4a1d-bf83-b2682dda137c","system_id":"levelo_inurba_marseille","lat":43.30592,"lon":5.37204,"is_reserved":false,"is_disabled":false,"rental_uris":{"android":"levelo://app?vid=712fb1ac-a49b-4a1d-bf83-b2682dda137c","ios":"levelo://app?vid=712fb1ac-a49b-4a1d-bf83-b2682dda137c"},"vehicle_type_id":"4","last_reported":1736763022,"current_range_meters":36000,"station_id":"ce4bgqh2rcd13ifvqc4g","pricing_plan_id":"cebpf4jnsgd1na2vs0mg"},{"bike_id":"bfcdf0d0-847f-448b-8076-7de4dc1815c7","system_id":"levelo_inurba_marseille","lat":43.27492,"lon":5.42461,"is_reserved":false,"is_disabled":false,"rental_uris":{"android":"levelo://app?vid=bfcdf0d0-847f-448b-8076-7de4dc1815c7","ios":"levelo://app?vid=bfcdf0d0-847f-448b-8076-7de4dc1815c7"},"vehicle_type_id":"4","last_reported":1736763022,"current_range_meters":30800,"station_id":"ce4bho92rcd13ifvqh4g","pricing_plan_id":"cebpf4jnsgd1na2vs0mg"},{"bike_id":"bf04dc7a-7224-490c-bc38-5af3b2bbe3ac","system_id":"levelo_inurba_marseille","lat":43.29259,"lon":5.40907,"is_reserved":false,"is_disabled":false,"rental_uris":{"android":"levelo://app?vid=bf04dc7a-7224-490c-bc38-5af3b2bbe3ac","ios":"levelo://app?vid=bf04dc7a-7224-490c-bc38-5af3b2bbe3ac"},"vehicle_type_id":"4","last_reported":1736763022,"current_range_meters":26800,"station_id":"ce4bh192rcd13ifvqdc0","pricing_plan_id":"cebpf4jnsgd1na2vs0mg"},{"bike_id":"5f2cf356-122a-4d24-85ba-e38bc4612223","system_id":"levelo_inurba_marseille","lat":43.255664,"lon":5.382554,"is_reserved":false,"is_disabled":false,"rental_uris":{"android":"levelo://app?vid=5f2cf356-122a-4d24-85ba-e38bc4612223","ios":"levelo://app?vid=5f2cf356-122a-4d24-85ba-e38bc4612223"},"vehicle_type_id":"4","last_reported":1736763022,"current_range_meters":25600,"station_id":"ce4bhih2rcd13ifvqfs0","pricing_plan_id":"cebpf4jnsgd1na2vs0mg"},{"bike_id":"2ef3a583-2af2-4fbb-84f1-ea34fae96d7d","system_id":"levelo_inurba_marseille","lat":43.26225,"lon":5.37448,"is_reserved":false,"is_disabled":false,"rental_uris":{"android":"levelo://app?vid=2ef3a583-2af2-4fbb-84f1-ea34fae96d7d","ios":"levelo://app?vid=2ef3a583-2af2-4fbb-84f1-ea34fae96d7d"},"vehicle_type_id":"4","last_reported":1736763022,"current_range_meters":31200,"station_id":"ce4bhgp2rcd13ifvqfc0","pricing_plan_id":"cebpf4jnsgd1na2vs0mg"},{"bike_id":"98a5776b-0152-4025-b510-a28a82d459a9","system_id":"levelo_inurba_marseille","lat":43.29282,"lon":5.40123,"is_reserved":false,"is_disabled":false,"rental_uris":{"android":"levelo://app?vid=98a5776b-0152-4025-b510-a28a82d459a9","ios":"levelo://app?vid=98a5776b-0152-4025-b510-a28a82d459a9"},"vehicle_type_id":"4","last_reported":1736763022,"current_range_meters":36400,"station_id":"ce4bh312rcd13ifvqdk0","pricing_plan_id":"cebpf4jnsgd1na2vs0mg"},{"bike_id":"11f01b7b-c2a8-40ef-b67d-696681ee9c7f","system_id":"levelo_inurba_marseille","lat":43.30595,"lon":5.37221,"is_reserved":false,"is_disabled":false,"rental_uris":{"android":"levelo://app?vid=11f01b7b-c2a8-40ef-b67d-696681ee9c7f","ios":"levelo://app?vid=11f01b7b-c2a8-40ef-b67d-696681ee9c7f"},"vehicle_type_id":"4","last_reported":1736763022,"current_range_meters":35200,"station_id":"ce4bgqh2rcd13ifvqc4g","pricing_plan_id":"cebpf4jnsgd1na2vs0mg"},{"bike_id":"3b0c7591-c1f3-412f-9181-cb82602a89ed","system_id":"levelo_inurba_marseille","lat":43.24807,"lon":5.37473,"is_reserved":false,"is_disabled":true,"rental_uris":{"android":"levelo://app?vid=3b0c7591-c1f3-412f-9181-cb82602a89ed","ios":"levelo://app?vid=3b0c7591-c1f3-412f-9181-cb82602a89ed"},"vehicle_type_id":"4","last_reported":1736763022,"current_range_meters":10000,"station_id":"ce4bhgh2rcd13ifvqfb0","pricing_plan_id":"cebpf4jnsgd1na2vs0mg"},{"bike_id":"53654f10-da2f-4d3b-b20c-72333b05ffaf","system_id":"levelo_inurba_marseille","lat":43.2406,"lon":5.37772,"is_reserved":false,"is_disabled":false,"rental_uris":{"android":"levelo://app?vid=53654f10-da2f-4d3b-b20c-72333b05ffaf","ios":"levelo://app?vid=53654f10-da2f-4d3b-b20c-72333b05ffaf"},"vehicle_type_id":"4","last_reported":1736763022,"current_range_meters":17600,"station_id":"ce4bhnp2rcd13ifvqgvg","pricing_plan_id":"cebpf4jnsgd1na2vs0mg"},{"bike_id":"bb9e99ce-48a1-4551-a814-d1c67643e278","system_id":"levelo_inurba_marseille","lat":43.23155,"lon":5.43711,"is_reserved":false,"is_disabled":true,"rental_uris":{"android":"levelo://app?vid=bb9e99ce-48a1-4551-a814-d1c67643e278","ios":"levelo://app?vid=bb9e99ce-48a1-4551-a814-d1c67643e278"},"vehicle_type_id":"4","last_reported":1736763022,"current_range_meters":0,"station_id":"ce4bhmp2rcd13ifvqgog","pricing_plan_id":"cebpf4jnsgd1na2vs0mg"},{"bike_id":"16833343-c45a-4aeb-bf79-1be93a70c331","system_id":"levelo_inurba_marseille","lat":43.324792,"lon":5.365719,"is_reserved":false,"is_disabled":false,"rental_uris":{"android":"levelo://app?vid=16833343-c45a-4aeb-bf79-1be93a70c331","ios":"levelo://app?vid=16833343-c45a-4aeb-bf79-1be93a70c331"},"vehicle_type_id":"4","last_reported":1736763022,"current_range_meters":38000,"station_id":"ce4bhs12rcd13ifvqhvg","pricing_plan_id":"cebpf4jnsgd1na2vs0mg"},{"bike_id":"321f52aa-ed5c-4bda-899e-0735b049a6ab","system_id":"levelo_inurba_marseille","lat":43.337444,"lon":5.374475,"is_reserved":false,"is_disabled":false,"rental_uris":{"android":"levelo://app?vid=321f52aa-ed5c-4bda-899e-0735b049a6ab","ios":"levelo://app?vid=321f52aa-ed5c-4bda-899e-0735b049a6ab"},"vehicle_type_id":"4","last_reported":1736763022,"current_range_meters":16800,"station_id":"","pricing_plan_id":"cebpf4jnsgd1na2vs0mg"},{"bike_id":"41922604-c7b8-4e93-9da5-3903771d7233","system_id":"levelo_inurba_marseille","lat":43.24818,"lon":5.37468,"is_reserved":false,"is_disabled":false,"rental_uris":{"android":"levelo://app?vid=41922604-c7b8-4e93-9da5-3903771d7233","ios":"levelo://app?vid=41922604-c7b8-4e93-9da5-3903771d7233"},"vehicle_type_id":"4","last_reported":1736763022,"current_range_meters":27600,"station_id":"ce4bhgh2rcd13ifvqfb0","pricing_plan_id":"cebpf4jnsgd1na2vs0mg"},{"bike_id":"c327d484-c524-4142-9386-6268c4e1d223","system_id":"levelo_inurba_marseille","lat":43.25573,"lon":5.3826,"is_reserved":false,"is_disabled":false,"rental_uris":{"android":"levelo://app?vid=c327d484-c524-4142-9386-6268c4e1d223","ios":"levelo://app?vid=c327d484-c524-4142-9386-6268c4e1d223"},"vehicle_type_id":"4","last_reported":1736763022,"current_range_meters":20400,"station_id":"ce4bhih2rcd13ifvqfs0","pricing_plan_id":"cebpf4jnsgd1na2vs0mg"},{"bike_id":"7b4baf74-6543-4e07-a2f0-567da6624c28","system_id":"levelo_inurba_marseille","lat":43.31371,"lon":5.36711,"is_reserved":false,"is_disabled":false,"rental_uris":{"android":"levelo://app?vid=7b4baf74-6543-4e07-a2f0-567da6624c28","ios":"levelo://app?vid=7b4baf74-6543-4e07-a2f0-567da6624c28"},"vehicle_type_id":"4","last_reported":1736763022,"current_range_meters":32400,"station_id":"ce4bgr92rcd13ifvqc6g","pricing_plan_id":"cebpf4jnsgd1na2vs0mg"},{"bike_id":"37ef9dae-3045-4c9a-8403-f38fac7f6b1a","system_id":"levelo_inurba_marseille","lat":43.29037,"lon":5.39963,"is_reserved":false,"is_disabled":false,"rental_uris":{"android":"levelo://app?vid=37ef9dae-3045-4c9a-8403-f38fac7f6b1a","ios":"levelo://app?vid=37ef9dae-3045-4c9a-8403-f38fac7f6b1a"},"vehicle_type_id":"4","last_reported":1736763022,"current_range_meters":39200,"station_id":"ce4bh392rcd13ifvqdm0","pricing_plan_id":"cebpf4jnsgd1na2vs0mg"},{"bike_id":"e472d994-f65f-4f46-888f-c26644e6cd18","system_id":"levelo_inurba_marseille","lat":43.30133,"lon":5.37419,"is_reserved":false,"is_disabled":false,"rental_uris":{"android":"levelo://app?vid=e472d994-f65f-4f46-888f-c26644e6cd18","ios":"levelo://app?vid=e472d994-f65f-4f46-888f-c26644e6cd18"},"vehicle_type_id":"4","last_reported":1736763022,"current_range_meters":25200,"station_id":"ce4bgs92rcd13ifvqcc0","pricing_plan_id":"cebpf4jnsgd1na2vs0mg"},{"bike_id":"6f8d5613-68e8-453b-9903-0b6c2da05e2d","system_id":"levelo_inurba_marseille","lat":43.24168,"lon":5.36399,"is_reserved":false,"is_disabled":false,"rental_uris":{"android":"levelo://app?vid=6f8d5613-68e8-453b-9903-0b6c2da05e2d","ios":"levelo://app?vid=6f8d5613-68e8-453b-9903-0b6c2da05e2d"},"vehicle_type_id":"4","last_reported":1736763022,"current_range_meters":32400,"station_id":"cpo36qri1sfpv3e86is0","pricing_plan_id":"cebpf4jnsgd1na2vs0mg"},{"bike_id":"04d788bf-6a1e-4994-a7a2-ad85dcb4ea1c","system_id":"levelo_inurba_marseille","lat":43.26677,"lon":5.38281,"is_reserved":false,"is_disabled":false,"rental_uris":{"android":"levelo://app?vid=04d788bf-6a1e-4994-a7a2-ad85dcb4ea1c","ios":"levelo://app?vid=04d788bf-6a1e-4994-a7a2-ad85dcb4ea1c"},"vehicle_type_id":"4","last_reported":1736763022,"current_range_meters":39200,"station_id":"ce4bhg92rcd13ifvqf90","pricing_plan_id":"cebpf4jnsgd1na2vs0mg"},{"bike_id":"255cc0c6-67fd-4ee3-b6f8-109d99a3cfea","system_id":"levelo_inurba_marseille","lat":43.28845,"lon":5.35848,"is_reserved":false,"is_disabled":false,"rental_uris":{"android":"levelo://app?vid=255cc0c6-67fd-4ee3-b6f8-109d99a3cfea","ios":"levelo://app?vid=255cc0c6-67fd-4ee3-b6f8-109d99a3cfea"},"vehicle_type_id":"4","last_reported":1736763022,"current_range_meters":29600,"station_id":"ce4bhb12rcd13ifvqem0","pricing_plan_id":"cebpf4jnsgd1na2vs0mg"},{"bike_id":"2130fc74-9dbc-4976-b04b-ed38d5ae8110","system_id":"levelo_inurba_marseille","lat":43.24093,"lon":5.37746,"is_reserved":false,"is_disabled":false,"rental_uris":{"android":"levelo://app?vid=2130fc74-9dbc-4976-b04b-ed38d5ae8110","ios":"levelo://app?vid=2130fc74-9dbc-4976-b04b-ed38d5ae8110"},"vehicle_type_id":"4","last_reported":1736763022,"current_range_meters":36800,"station_id":"ce4bhnp2rcd13ifvqgvg","pricing_plan_id":"cebpf4jnsgd1na2vs0mg"},{"bike_id":"3fe1c7ab-6535-4a87-a5c5-4dc2bdd2f69f","system_id":"levelo_inurba_marseille","lat":43.30907,"lon":5.36879,"is_reserved":false,"is_disabled":false,"rental_uris":{"android":"levelo://app?vid=3fe1c7ab-6535-4a87-a5c5-4dc2bdd2f69f","ios":"levelo://app?vid=3fe1c7ab-6535-4a87-a5c5-4dc2bdd2f69f"},"vehicle_type_id":"4","last_reported":1736763022,"current_range_meters":39200,"station_id":"ce4bgn92rcd13ifvqbvg","pricing_plan_id":"cebpf4jnsgd1na2vs0mg"},{"bike_id":"85603f95-286b-4848-8682-ec6ae6094237","system_id":"levelo_inurba_marseille","lat":43.27068,"lon":5.40274,"is_reserved":false,"is_disabled":true,"rental_uris":{"android":"levelo://app?vid=85603f95-286b-4848-8682-ec6ae6094237","ios":"levelo://app?vid=85603f95-286b-4848-8682-ec6ae6094237"},"vehicle_type_id":"4","last_reported":1736763022,"current_range_meters":4400,"station_id":"ce4bhk92rcd13ifvqgc0","pricing_plan_id":"cebpf4jnsgd1na2vs0mg"},{"bike_id":"55178c83-e8c1-42d0-85eb-2ae9bbbd47cf","system_id":"levelo_inurba_marseille","lat":43.23186,"lon":5.35568,"is_reserved":false,"is_disabled":false,"rental_uris":{"android":"levelo://app?vid=55178c83-e8c1-42d0-85eb-2ae9bbbd47cf","ios":"levelo://app?vid=55178c83-e8c1-42d0-85eb-2ae9bbbd47cf"},"vehicle_type_id":"4","last_reported":1736763022,"current_range_meters":38400,"station_id":"ce4bhu92rcd13ifvqi70","pricing_plan_id":"cebpf4jnsgd1na2vs0mg"},{"bike_id":"7e485f51-6818-4a44-84a2-c0e3905c8e99","system_id":"levelo_inurba_marseille","lat":43.29632,"lon":5.37169,"is_reserved":false,"is_disabled":false,"rental_uris":{"android":"levelo://app?vid=7e485f51-6818-4a44-84a2-c0e3905c8e99","ios":"levelo://app?vid=7e485f51-6818-4a44-84a2-c0e3905c8e99"},"vehicle_type_id":"4","last_reported":1736763022,"current_range_meters":37600,"station_id":"ce4bgnh2rcd13ifvqc0g","pricing_plan_id":"cebpf4jnsgd1na2vs0mg"},{"bike_id":"8b88170d-e695-4530-8583-a66b3ec41a93","system_id":"levelo_inurba_marseille","lat":43.33625,"lon":5.41004,"is_reserved":false,"is_disabled":true,"rental_uris":{"android":"levelo://app?vid=8b88170d-e695-4530-8583-a66b3ec41a93","ios":"levelo://app?vid=8b88170d-e695-4530-8583-a66b3ec41a93"},"vehicle_type_id":"4","last_reported":1736763022,"current_range_meters":5600,"station_id":"ce4bhqh2rcd13ifvqhmg","pricing_plan_id":"cebpf4jnsgd1na2vs0mg"},{"bike_id":"9ae7b343-addb-40ac-b457-d3a9cab06b2f","system_id":"levelo_inurba_marseille","lat":43.30416,"lon":5.39747,"is_reserved":false,"is_disabled":false,"rental_uris":{"android":"levelo://app?vid=9ae7b343-addb-40ac-b457-d3a9cab06b2f","ios":"levelo://app?vid=9ae7b343-addb-40ac-b457-d3a9cab06b2f"},"vehicle_type_id":"4","last_reported":1736763022,"current_range_meters":38800,"station_id":"ce4bh092rcd13ifvqd20","pricing_plan_id":"cebpf4jnsgd1na2vs0mg"},{"bike_id":"290eeea9-84aa-44c8-9faf-f7b301687dfa","system_id":"levelo_inurba_marseille","lat":43.24182,"lon":5.39728,"is_reserved":false,"is_disabled":false,"rental_uris":{"android":"levelo://app?vid=290eeea9-84aa-44c8-9faf-f7b301687dfa","ios":"levelo://app?vid=290eeea9-84aa-44c8-9faf-f7b301687dfa"},"vehicle_type_id":"4","last_reported":1736763022,"current_range_meters":18800,"station_id":"ce4bhn12rcd13ifvqgpg","pricing_plan_id":"cebpf4jnsgd1na2vs0mg"},{"bike_id":"a4ff37b7-68f1-48c9-ad5d-1b48e017db3a","system_id":"levelo_inurba_marseille","lat":43.27496,"lon":5.42468,"is_reserved":false,"is_disabled":false,"rental_uris":{"android":"levelo://app?vid=a4ff37b7-68f1-48c9-ad5d-1b48e017db3a","ios":"levelo://app?vid=a4ff37b7-68f1-48c9-ad5d-1b48e017db3a"},"vehicle_type_id":"4","last_reported":1736763022,"current_range_meters":38000,"station_id":"ce4bhn92rcd13ifvqgrg","pricing_plan_id":"cebpf4jnsgd1na2vs0mg"},{"bike_id":"d1fabc58-caf7-4d51-a0b7-5178e822a4f7","system_id":"levelo_inurba_marseille","lat":43.2971,"lon":5.37722,"is_reserved":false,"is_disabled":false,"rental_uris":{"android":"levelo://app?vid=d1fabc58-caf7-4d51-a0b7-5178e822a4f7","ios":"levelo://app?vid=d1fabc58-caf7-4d51-a0b7-5178e822a4f7"},"vehicle_type_id":"4","last_reported":1736763022,"current_range_meters":38800,"station_id":"ce4bgkh2rcd13ifvqbl0","pricing_plan_id":"cebpf4jnsgd1na2vs0mg"},{"bike_id":"19192bb3-f286-41ed-8d29-704554e42cbb","system_id":"levelo_inurba_marseille","lat":43.24998,"lon":5.40421,"is_reserved":false,"is_disabled":false,"rental_uris":{"android":"levelo://app?vid=19192bb3-f286-41ed-8d29-704554e42cbb","ios":"levelo://app?vid=19192bb3-f286-41ed-8d29-704554e42cbb"},"vehicle_type_id":"4","last_reported":1736763022,"current_range_meters":27600,"station_id":"","pricing_plan_id":"cebpf4jnsgd1na2vs0mg"},{"bike_id":"615a8105-b137-4bc1-bde3-fbaaa249b939","system_id":"levelo_inurba_marseille","lat":43.26058,"lon":5.39407,"is_reserved":false,"is_disabled":false,"rental_uris":{"android":"levelo://app?vid=615a8105-b137-4bc1-bde3-fbaaa249b939","ios":"levelo://app?vid=615a8105-b137-4bc1-bde3-fbaaa249b939"},"vehicle_type_id":"4","last_reported":1736763022,"current_range_meters":38800,"station_id":"ce4bhh92rcd13ifvqfj0","pricing_plan_id":"cebpf4jnsgd1na2vs0mg"},{"bike_id":"b59dbad1-17bf-4265-83bb-5b9a77efb1a1","system_id":"levelo_inurba_marseille","lat":43.33779,"lon":5.37496,"is_reserved":false,"is_disabled":false,"rental_uris":{"android":"levelo://app?vid=b59dbad1-17bf-4265-83bb-5b9a77efb1a1","ios":"levelo://app?vid=b59dbad1-17bf-4265-83bb-5b9a77efb1a1"},"vehicle_type_id":"4","last_reported":1736763022,"current_range_meters":20400,"station_id":"","pricing_plan_id":"cebpf4jnsgd1na2vs0mg"},{"bike_id":"377730c6-0336-4c78-9c46-cdee41ff19a9","system_id":"levelo_inurba_marseille","lat":43.27944,"lon":5.41104,"is_reserved":false,"is_disabled":true,"rental_uris":{"android":"levelo://app?vid=377730c6-0336-4c78-9c46-cdee41ff19a9","ios":"levelo://app?vid=377730c6-0336-4c78-9c46-cdee41ff19a9"},"vehicle_type_id":"4","last_reported":1736763022,"current_range_meters":0,"station_id":"ce4bhnp2rcd13ifvqh0g","pricing_plan_id":"cebpf4jnsgd1na2vs0mg"},{"bike_id":"e769f2fc-ab0c-4669-90da-e1ea8b26d705","system_id":"levelo_inurba_marseille","lat":43.30411,"lon":5.41296,"is_reserved":false,"is_disabled":false,"rental_uris":{"android":"levelo://app?vid=e769f2fc-ab0c-4669-90da-e1ea8b26d705","ios":"levelo://app?vid=e769f2fc-ab0c-4669-90da-e1ea8b26d705"},"vehicle_type_id":"4","last_reported":1736763022,"current_range_meters":38000,"station_id":"ce4bhop2rcd13ifvqh8g","pricing_plan_id":"cebpf4jnsgd1na2vs0mg"},{"bike_id":"1a1bbce5-7b4d-4365-9610-075b8edac38a","system_id":"levelo_inurba_marseille","lat":43.27622,"lon":5.36127,"is_reserved":false,"is_disabled":true,"rental_uris":{"android":"levelo://app?vid=1a1bbce5-7b4d-4365-9610-075b8edac38a","ios":"levelo://app?vid=1a1bbce5-7b4d-4365-9610-075b8edac38a"},"vehicle_type_id":"4","last_reported":1736763022,"current_range_meters":38800,"station_id":"ce4bgj92rcd13ifvqbe0","pricing_plan_id":"cebpf4jnsgd1na2vs0mg"},{"bike_id":"a0afca61-36a2-4cf4-b8ff-19bb746ad61a","system_id":"levelo_inurba_marseille","lat":43.28457,"lon":5.35887,"is_reserved":false,"is_disabled":false,"rental_uris":{"android":"levelo://app?vid=a0afca61-36a2-4cf4-b8ff-19bb746ad61a","ios":"levelo://app?vid=a0afca61-36a2-4cf4-b8ff-19bb746ad61a"},"vehicle_type_id":"4","last_reported":1736763022,"current_range_meters":28400,"station_id":"ce4bhah2rcd13ifvqei0","pricing_plan_id":"cebpf4jnsgd1na2vs0mg"},{"bike_id":"266859f2-18fe-482a-8c9f-5bdad982c716","system_id":"levelo_inurba_marseille","lat":43.27943,"lon":5.4109,"is_reserved":false,"is_disabled":true,"rental_uris":{"android":"levelo://app?vid=266859f2-18fe-482a-8c9f-5bdad982c716","ios":"levelo://app?vid=266859f2-18fe-482a-8c9f-5bdad982c716"},"vehicle_type_id":"4","last_reported":1736763022,"current_range_meters":0,"station_id":"ce4bhnp2rcd13ifvqh0g","pricing_plan_id":"cebpf4jnsgd1na2vs0mg"},{"bike_id":"60a8af81-97f0-4936-81a1-ac96e335a75e","system_id":"levelo_inurba_marseille","lat":43.31231,"lon":5.36864,"is_reserved":false,"is_disabled":false,"rental_uris":{"android":"levelo://app?vid=60a8af81-97f0-4936-81a1-ac96e335a75e","ios":"levelo://app?vid=60a8af81-97f0-4936-81a1-ac96e335a75e"},"vehicle_type_id":"4","last_reported":1736763022,"current_range_meters":39200,"station_id":"ce4bgl92rcd13ifvqbq0","pricing_plan_id":"cebpf4jnsgd1na2vs0mg"},