{"last_updated":1750868019,"ttl":60,"version":"2.2","data":{"bikes":[{"bike_id":"3da29fb8-fc97-44c6-b9ac-31dd456b2fd4","system_id":"levelo_inurba_marseille","lat":43.33771,"lon":5.37424,"is_reserved":false,"is_disabled":true,"rental_uris":{"android":"levelo://app?vid=3da29fb8-fc97-44c6-b9ac-31dd456b2fd4","ios":"levelo://app?vid=3da29fb8-fc97-44c6-b9ac-31dd456b2fd4"},"vehicle_type_id":"4","last_reported":1750868019,"current_range_meters":0,"station_id":"","pricing_plan_id":"cebpf4jnsgd1na2vs0mg"},{"bike_id":"01861ad8-a8d7-4be6-816e-651927c87584","system_id":"levelo_inurba_marseille","lat":43.33751,"lon":5.37456,"is_reserved":false,"is_disabled":true,"rental_uris":{"android":"levelo://app?vid=01861ad8-a8d7-4be6-816e-651927c87584","ios":"levelo://app?vid=01861ad8-a8d7-4be6-816e-651927c87584"},"vehicle_type_id":"4","last_reported":1750868019,"current_range_meters":0,"station_id":"","pricing_plan_id":"cebpf4jnsgd1na2vs0mg"},{"bike_id":"8c6de0c1-9eaf-4c18-8155-d956789067ae","system_id":"levelo_inurba_marseille","lat":43.27964,"lon":5.44243,"is_reserved":false,"is_disabled":true,"rental_uris":{"android":"levelo://app?vid=8c6de0c1-9eaf-4c18-8155-d956789067ae","ios":"levelo://app?vid=8c6de0c1-9eaf-4c18-8155-d956789067ae"},"vehicle_type_id":"4","last_reported":1750868019,"current_range_meters":0,"station_id":"","pricing_plan_id":"cebpf4jnsgd1na2vs0mg"},{"bike_id":"01a7b5de-cbb0-45f6-b552-105157f7a511","system_id":"levelo_inurba_marseille","lat":43.23864,"lon":5.43065,"is_reserved":false,"is_disabled":true,"rental_uris":{"android":"levelo://app?vid=01a7b5de-cbb0-45f6-b552-105157f7a511","ios":"levelo://app?vid=01a7b5de-cbb0-45f6-b552-105157f7a511"},"vehicle_type_id":"4","last_reported":1750868019,"current_range_meters":0,"station_id":"","pricing_plan_id":"cebpf4jnsgd1na2vs0mg"},{"bike_id":"f0a1d594-9817-42ab-a8d6-aea4947e8858","system_id":"levelo_inurba_marseille","lat":43.288329,"lon":5.434368,"is_reserved":false,"is_disabled":true,"rental_uris":{"android":"levelo://app?vid=f0a1d594-9817-42ab-a8d6-aea4947e8858","ios":"levelo://app?vid=f0a1d594-9817-42ab-a8d6-aea4947e8858"},"vehicle_type_id":"4","last_reported":1750868019,"current_range_meters":0,"station_id":"","pricing_plan_id":"cebpf4jnsgd1na2vs0mg"},{"bike_id":"62a493c7-4534-4419-ad43-0582de34a72a","system_id":"levelo_inurba_marseille","lat":43.21366,"lon":5.355183,"is_reserved":false,"is_disabled":true,"rental_uris":{"android":"levelo://app?vid=62a493c7-4534-4419-ad43-0582de34a72a","ios":"levelo://app?vid=62a493c7-4534-4419-ad43-0582de34a72a"},"vehicle_type_id":"4","last_reported":1750868019,"current_range_meters":0,"station_id":"","pricing_plan_id":"cebpf4jnsgd1na2vs0mg"},{"bike_id":"85c58f10-925d-4344-b389-09267487a6fc","system_id":"levelo_inurba_marseille","lat":43.21129,"lon":5.41894,"is_reserved":false,"is_disabled":true,"rental_uris":{"android":"levelo://app?vid=85c58f10-925d-4344-b389-09267487a6fc","ios":"levelo://app?vid=85c58f10-925d-4344-b389-09267487a6fc"},"vehicle_type_id":"4","last_reported":1750868019,"current_range_meters":0,"station_id":"","pricing_plan_id":"cebpf4jnsgd1na2vs0mg"},{"bike_id":"a9e5e555-fdaf-49c0-b286-f0f2659b17d0","system_id":"levelo_inurba_marseille","lat":43.28298,"lon":5.43253,"is_reserved":false,"is_disabled":true,"rental_uris":{"android":"levelo://app?vid=a9e5e555-fdaf-49c0-b286-f0f2659b17d0","ios":"levelo://app?vid=a9e5e555-fdaf-49c0-b286-f0f2659b17d0"},"vehicle_type_id":"4","last_reported":1750868019,"current_range_meters":0,"station_id":"","pricing_plan_id":"cebpf4jnsgd1na2vs0mg"},{"bike_id":"139d47bd-ff87-42d8-a4c6-89da4be6f80c","system_id":"levelo_inurba_marseille","lat":43.27964,"lon":5.44228,"is_reserved":false,"is_disabled":true,"rental_uris":{"android":"levelo://app?vid=139d47bd-ff87-42d8-a4c6-89da4be6f80c","ios":"levelo://app?vid=139d47bd-ff87-42d8-a4c6-89da4be6f80c"},"vehicle_type_id":"4","last_reported":1750868019,"current_range_meters":0,"station_id":"","pricing_plan_id":"cebpf4jnsgd1na2vs0mg"},{"bike_id":"5c4c21e3-0f2f-4bc6-8d31-f41d7813bc60","system_id":"levelo_inurba_marseille","lat":43.25345,"lon":5.38203,"is_reserved":false,"is_disabled":true,"rental_uris":{"android":"levelo://app?vid=5c4c21e3-0f2f-4bc6-8d31-f41d7813bc60","ios":"levelo://app?vid=5c4c21e3-0f2f-4bc6-8d31-f41d7813bc60"},"vehicle_type_id":"4","last_reported":1750868019,"current_range_meters":0,"station_id":"","pricing_plan_id":"cebpf4jnsgd1na2vs0mg"},{"bike_id":"a147e67d-e0b1-425e-bbda-ae9524df353e","system_id":"levelo_inurba_marseille","lat":43.337485,"lon":5.374613,"is_reserved":false,"is_disabled":true,"rental_uris":{"android":"levelo://app?vid=a147e67d-e0b1-425e-bbda-ae9524df353e","ios":"levelo://app?vid=a147e67d-e0b1-425e-bbda-ae9524df353e"},"vehicle_type_id":"4","last_reported":1750868019,"current_range_meters":0,"station_id":"","pricing_plan_id":"cebpf4jnsgd1na2vs0mg"},{"bike_id":"4d064f95-6dcb-4234-9e98-7c70fbb74351","system_id":"levelo_inurba_marseille","lat":43.337444,"lon":5.374475,"is_reserved":false,"is_disabled":true,"rental_uris":{"android":"levelo://app?vid=4d064f95-6dcb-4234-9e98-7c70fbb74351","ios":"levelo://app?vid=4d064f95-6dcb-4234-9e98-7c70fbb74351"},"vehicle_type_id":"4","last_reported":1750868019,"current_range_meters":0,"station_id":"","pricing_plan_id":"cebpf4jnsgd1na2vs0mg"},{"bike_id":"d6609b4f-333b-43c1-9ebe-8726f5e76e88","system_id":"levelo_inurba_marseille","lat":43.337444,"lon":5.374475,"is_reserved":false,"is_disabled":true,"rental_uris":{"android":"levelo://app?vid=d6609b4f-333b-43c1-9ebe-8726f5e76e88","ios":"levelo://app?vid=d6609b4f-333b-43c1-9ebe-8726f5e76e88"},"vehicle_type_id":"4","last_reported":1750868019,"current_range_meters":0,"station_id":"","pricing_plan_id":"cebpf4jnsgd1na2vs0mg"},{"bike_id":"9cb193d0-906b-4ac2-85c5-eea810b1d20f","system_id":"levelo_inurba_marseille","lat":43.29374,"lon":5.42953,"is_reserved":false,"is_disabled":true,"rental_uris":{"android":"levelo://app?vid=9cb193d0-906b-4ac2-85c5-eea810b1d20f","ios":"levelo://app?vid=9cb193d0-906b-4ac2-85c5-eea810b1d20f"},"vehicle_type_id":"4","last_reported":1750868019,"current_range_meters":0,"station_id":"","pricing_plan_id":"cebpf4jnsgd1na2vs0mg"},{"bike_id":"bd17737b-22d2-4e4f-88e8-4eb661d864c4","system_id":"levelo_inurba_marseille","lat":43.2917,"lon":5.46068,"is_reserved":false,"is_disabled":true,"rental_uris":{"android":"levelo://app?vid=bd17737b-22d2-4e4f-88e8-4eb661d864c4","ios":"levelo://app?vid=bd17737b-22d2-4e4f-88e8-4eb661d864c4"},"vehicle_type_id":"4","last_reported":1750868019,"current_range_meters":0,"station_id":"","pricing_plan_id":"cebpf4jnsgd1na2vs0mg"},{"bike_id":"9d3724b1-0dc8-4689-9d6a-55005a9503cb","system_id":"levelo_inurba_marseille","lat":43.2862,"lon":5.4282,"is_reserved":false,"is_disabled":true,"rental_uris":{"android":"levelo://app?vid=9d3724b1-0dc8-4689-9d6a-55005a9503cb","ios":"levelo://app?vid=9d3724b1-0dc8-4689-9d6a-55005a9503cb"},"vehicle_type_id":"4","last_reported":1750868019,"current_range_meters":0,"station_id":"","pricing_plan_id":"cebpf4jnsgd1na2vs0mg"},{"bike_id":"17f2bf91-421e-46bd-a761-71a4f27295fd","system_id":"levelo_inurba_marseille","lat":43.238439,"lon":5.430672,"is_reserved":false,"is_disabled":true,"rental_uris":{"android":"levelo://app?vid=17f2bf91-421e-46bd-a761-71a4f27295fd","ios":"levelo://app?vid=17f2bf91-421e-46bd-a761-71a4f27295fd"},"vehicle_type_id":"4","last_reported":1750868019,"current_range_meters":0,"station_id":"","pricing_plan_id":"cebpf4jnsgd1na2vs0mg"},{"bike_id":"3d07ef76-af52-42e0-81f1-5f4963c9ee29","system_id":"levelo_inurba_marseille","lat":43.29474,"lon":5.43833,"is_reserved":false,"is_disabled":true,"rental_uris":{"android":"levelo://app?vid=3d07ef76-af52-42e0-81f1-5f4963c9ee29","ios":"levelo://app?vid=3d07ef76-af52-42e0-81f1-5f4963c9ee29"},"vehicle_type_id":"4","last_reported":1750868019,"current_range_meters":0,"station_id":"","pricing_plan_id":"cebpf4jnsgd1na2vs0mg"},{"bike_id":"c93db101-f8af-4618-afd5-485ed972c403","system_id":"levelo_inurba_marseille","lat":43.29802,"lon":5.38095,"is_reserved":false,"is_disabled":true,"rental_uris":{"android":"levelo://app?vid=c93db101-f8af-4618-afd5-485ed972c403","ios":"levelo://app?vid=c93db101-f8af-4618-afd5-485ed972c403"},"vehicle_type_id":"4","last_reported":1750868019,"current_range_meters":0,"station_id":"ce4bgip2rcd13ifvqbb0","pricing_plan_id":"cebpf4jnsgd1na2vs0mg"},{"bike_id":"1fa01b59-d100-4c92-9beb-e6022eed14d2","system_id":"levelo_inurba_marseille","lat":43.30551,"lon":5.36698,"is_reserved":false,"is_disabled":true,"rental_uris":{"android":"levelo://app?vid=1fa01b59-d100-4c92-9beb-e6022eed14d2","ios":"levelo://app?vid=1fa01b59-d100-4c92-9beb-e6022eed14d2"},"vehicle_type_id":"4","last_reported":1750868019,"current_range_meters":0,"station_id":"ce4bgrp2rcd13ifvqc9g","pricing_plan_id":"cebpf4jnsgd1na2vs0mg"},{"bike_id":"fd09ed72-cacc-4d78-98a0-f994913a3e98","system_id":"levelo_inurba_marseille","lat":43.30945,"lon":5.401364,"is_reserved":false,"is_disabled":true,"rental_uris":{"android":"levelo://app?vid=fd09ed72-cacc-4d78-98a0-f994913a3e98","ios":"levelo://app?vid=fd09ed72-cacc-4d78-98a0-f994913a3e98"},"vehicle_type_id":"4","last_reported":1750868019,"current_range_meters":0,"station_id":"ce4bgvp2rcd13ifvqct0","pricing_plan_id":"cebpf4jnsgd1na2vs0mg"},{"bike_id":"42fb32bf-afe5-4354-af76-7cb8d67ab20d","system_id":"levelo_inurba_marseille","lat":43.30594,"lon":5.39356,"is_reserved":false,"is_disabled":true,"rental_uris":{"android":"levelo://app?vid=42fb32bf-afe5-4354-af76-7cb8d67ab20d","ios":"levelo://app?vid=42fb32bf-afe5-4354-af76-7cb8d67ab20d"},"vehicle_type_id":"4","last_reported":1750868019,"current_range_meters":0,"station_id":"ce4bh0p2rcd13ifvqd80","pricing_plan_id":"cebpf4jnsgd1na2vs0mg"},{"bike_id":"eb5735ea-81d3-4069-95ec-05aebb596d7d","system_id":"levelo_inurba_marseille","lat":43.28577,"lon":5.39491,"is_reserved":false,"is_disabled":true,"rental_uris":{"android":"levelo://app?vid=eb5735ea-81d3-4069-95ec-05aebb596d7d","ios":"levelo://app?vid=eb5735ea-81d3-4069-95ec-05aebb596d7d"},"vehicle_type_id":"4","last_reported":1750868019,"current_range_meters":0,"station_id":"ce4bh292rcd13ifvqdg0","pricing_plan_id":"cebpf4jnsgd1na2vs0mg"},{"bike_id":"a1714acd-cc3c-4b73-9a6d-7a5e108080eb","system_id":"levelo_inurba_marseille","lat":43.2903,"lon":5.38129,"is_reserved":false,"is_disabled":true,"rental_uris":{"android":"levelo://app?vid=a1714acd-cc3c-4b73-9a6d-7a5e108080eb","ios":"levelo://app?vid=a1714acd-cc3c-4b73-9a6d-7a5e108080eb"},"vehicle_type_id":"4","last_reported":1750868019,"current_range_meters":0,"station_id":"ce4bh4p2rcd13ifvqe1g","pricing_plan_id":"cebpf4jnsgd1na2vs0mg"},{"bike_id":"f963a6a5-4ea3-4156-81ae-f315ff59a323","system_id":"levelo_inurba_marseille","lat":43.29006,"lon":5.35608,"is_reserved":false,"is_disabled":true,"rental_uris":{"android":"levelo://app?vid=f963a6a5-4ea3-4156-81ae-f315ff59a323","ios":"levelo://app?vid=f963a6a5-4ea3-4156-81ae-f315ff59a323"},"vehicle_type_id":"4","last_reported":1750868019,"current_range_meters":0,"station_id":"ce4bhb92rcd13ifvqen0","pricing_plan_id":"cebpf4jnsgd1na2vs0mg"},{"bike_id":"ebcb3503-a19b-41ed-902e-d207cffdba45","system_id":"levelo_inurba_marseille","lat":43.231517,"lon":5.437172,"is_reserved":false,"is_disabled":true,"rental_uris":{"android":"levelo://app?vid=ebcb3503-a19b-41ed-902e-d207cffdba45","ios":"levelo://app?vid=ebcb3503-a19b-41ed-902e-d207cffdba45"},"vehicle_type_id":"4","last_reported":1750868019,"current_range_meters":0,"station_id":"ce4bhmp2rcd13ifvqgog","pricing_plan_id":"cebpf4jnsgd1na2vs0mg"},{"bike_id":"940f5dd4-b69f-43b3-9dc1-640120cb1f77","system_id":"levelo_inurba_marseille","lat":43.231303,"lon":5.437343,"is_reserved":false,"is_disabled":true,"rental_uris":{"android":"levelo://app?vid=940f5dd4-b69f-43b3-9dc1-640120cb1f77","ios":"levelo://app?vid=940f5dd4-b69f-43b3-9dc1-640120cb1f77"},"vehicle_type_id":"4","last_reported":1750868019,"current_range_meters":0,"station_id":"ce4bhmp2rcd13ifvqgog","pricing_plan_id":"cebpf4jnsgd1na2vs0mg"},{"bike_id":"d09ea2f3-8742-4f77-8c55-d722fa6f3487","system_id":"levelo_inurba_marseille","lat":43.24062,"lon":5.37752,"is_reserved":false,"is_disabled":true,"rental_uris":{"android":"levelo://app?vid=d09ea2f3-8742-4f77-8c55-d722fa6f3487","ios":"levelo://app?vid=d09ea2f3-8742-4f77-8c55-d722fa6f3487"},"vehicle_type_id":"4","last_reported":1750868019,"current_range_meters":0,"station_id":"ce4bhnp2rcd13ifvqgvg","pricing_plan_id":"cebpf4jnsgd1na2vs0mg"},{"bike_id":"72b8a5cf-8163-443c-bc23-4a97eb05e7cd","system_id":"levelo_inurba_marseille","lat":43.28693,"lon":5.39992,"is_reserved":false,"is_disabled":true,"rental_uris":{"android":"levelo://app?vid=72b8a5cf-8163-443c-bc23-4a97eb05e7cd","ios":"levelo://app?vid=72b8a5cf-8163-443c-bc23-4a97eb05e7cd"},"vehicle_type_id":"4","last_reported":1750868019,"current_range_meters":0,"station_id":"ce4bho92rcd13ifvqh3g","pricing_plan_id":"cebpf4jnsgd1na2vs0mg"},{"bike_id":"3755d9be-f95a-4d88-a243-8e251b3ff0a4","system_id":"levelo_inurba_marseille","lat":43.24168,"lon":5.36397,"is_reserved":false,"is_disabled":true,"rental_uris":{"android":"levelo://app?vid=3755d9be-f95a-4d88-a243-8e251b3ff0a4","ios":"levelo://app?vid=3755d9be-f95a-4d88-a243-8e251b3ff0a4"},"vehicle_type_id":"4","last_reported":1750868019,"current_range_meters":0,"station_id":"cpo36qri1sfpv3e86is0","pricing_plan_id":"cebpf4jnsgd1na2vs0mg"},{"bike_id":"f5da160a-fcce-420b-a4a7-3ec109140929","system_id":"levelo_inurba_marseille","lat":43.28496,"lon":5.38561,"is_reserved":false,"is_disabled":true,"rental_uris":{"android":"levelo://app?vid=f5da160a-fcce-420b-a4a7-3ec109140929","ios":"levelo://app?vid=f5da160a-fcce-420b-a4a7-3ec109140929"},"vehicle_type_id":"4","last_reported":1750868019,"current_range_meters":400,"station_id":"ce4bh8p2rcd13ifvqeb0","pricing_plan_id":"cebpf4jnsgd1na2vs0mg"},{"bike_id":"7ead28b0-8216-4da8-827b-2a98220311c7","system_id":"levelo_inurba_marseille","lat":43.27372,"lon":5.36253,"is_reserved":false,"is_disabled":true,"rental_uris":{"android":"levelo://app?vid=7ead28b0-8216-4da8-827b-2a98220311c7","ios":"levelo://app?vid=7ead28b0-8216-4da8-827b-2a98220311c7"},"vehicle_type_id":"4","last_reported":1750868019,"current_range_meters":400,"station_id":"ce4bhbh2rcd13ifvqeo0","pricing_plan_id":"cebpf4jnsgd1na2vs0mg"},{"bike_id":"315b8240-f10a-4641-bd42-60df9a9117aa","system_id":"levelo_inurba_marseille","lat":43.24546,"lon":5.39518,"is_reserved":false,"is_disabled":true,"rental_uris":{"android":"levelo://app?vid=315b8240-f10a-4641-bd42-60df9a9117aa","ios":"levelo://app?vid=315b8240-f10a-4641-bd42-60df9a9117aa"},"vehicle_type_id":"4","last_reported":1750868019,"current_range_meters":400,"station_id":"ce4bhlp2rcd13ifvqgjg","pricing_plan_id":"cebpf4jnsgd1na2vs0mg"},{"bike_id":"b17b6606-336a-4606-9b65-af139c49de26","system_id":"levelo_inurba_marseille","lat":43.25661,"lon":5.42721,"is_reserved":false,"is_disabled":true,"rental_uris":{"android":"levelo://app?vid=b17b6606-336a-4606-9b65-af139c49de26","ios":"levelo://app?vid=b17b6606-336a-4606-9b65-af139c49de26"},"vehicle_type_id":"4","last_reported":1750868019,"current_range_meters":800,"station_id":"","pricing_plan_id":"cebpf4jnsgd1na2vs0mg"},{"bike_id":"d864170a-979d-4f3a-a97d-c98d4dd85de3","system_id":"levelo_inurba_marseille","lat":43.28114,"lon":5.35183,"is_reserved":false,"is_disabled":true,"rental_uris":{"android":"levelo://app?vid=d864170a-979d-4f3a-a97d-c98d4dd85de3","ios":"levelo://app?vid=d864170a-979d-4f3a-a97d-c98d4dd85de3"},"vehicle_type_id":"4","last_reported":1750868019,"current_range_meters":800,"station_id":"","pricing_plan_id":"cebpf4jnsgd1na2vs0mg"},{"bike_id":"9dca5bb0-159f-4025-93af-2db3a62fb898","system_id":"levelo_inurba_marseille","lat":43.29574,"lon":5.37524,"is_reserved":false,"is_disabled":true,"rental_uris":{"android":"levelo://app?vid=9dca5bb0-159f-4025-93af-2db3a62fb898","ios":"levelo://app?vid=9dca5bb0-159f-4025-93af-2db3a62fb898"},"vehicle_type_id":"4","last_reported":1750868019,"current_range_meters":800,"station_id":"ce4bgh92rcd13ifvqb50","pricing_plan_id":"cebpf4jnsgd1na2vs0mg"},{"bike_id":"78dc0742-7dd0-48da-bfeb-842210c2e0bf","system_id":"levelo_inurba_marseille","lat":43.31381,"lon":5.38487,"is_reserved":false,"is_disabled":true,"rental_uris":{"android":"levelo://app?vid=78dc0742-7dd0-48da-bfeb-842210c2e0bf","ios":"levelo://app?vid=78dc0742-7dd0-48da-bfeb-842210c2e0bf"},"vehicle_type_id":"4","last_reported":1750868019,"current_range_meters":800,"station_id":"ce4bgt92rcd13ifvqcf0","pricing_plan_id":"cebpf4jnsgd1na2vs0mg"},{"bike_id":"83c483a4-ecbd-4cf8-9633-12a545a97439","system_id":"levelo_inurba_marseille","lat":43.28271,"lon":5.35075,"is_reserved":false,"is_disabled":true,"rental_uris":{"android":"levelo://app?vid=83c483a4-ecbd-4cf8-9633-12a545a97439","ios":"levelo://app?vid=83c483a4-ecbd-4cf8-9633-12a545a97439"},"vehicle_type_id":"4","last_reported":1750868019,"current_range_meters":800,"station_id":"ce4bhbp2rcd13ifvqerg","pricing_plan_id":"cebpf4jnsgd1na2vs0mg"},{"bike_id":"e32466a2-2c94-4db6-abe3-c36e1c0847fe","system_id":"levelo_inurba_marseille","lat":43.23188,"lon":5.39992,"is_reserved":false,"is_disabled":true,"rental_uris":{"android":"levelo://app?vid=e32466a2-2c94-4db6-abe3-c36e1c0847fe","ios":"levelo://app?vid=e32466a2-2c94-4db6-abe3-c36e1c0847fe"},"vehicle_type_id":"4","last_reported":1750868019,"current_range_meters":800,"station_id":"ce4bhn12rcd13ifvqgqg","pricing_plan_id":"cebpf4jnsgd1na2vs0mg"},{"bike_id":"c6522850-19ad-47db-b327-74206e4409cd","system_id":"levelo_inurba_marseille","lat":43.30421,"lon":5.4128,"is_reserved":false,"is_disabled":true,"rental_uris":{"android":"levelo://app?vid=c6522850-19ad-47db-b327-74206e4409cd","ios":"levelo://app?vid=c6522850-19ad-47db-b327-74206e4409cd"},"vehicle_type_id":"4","last_reported":1750868019,"current_range_meters":800,"station_id":"ce4bhop2rcd13ifvqh8g","pricing_plan_id":"cebpf4jnsgd1na2vs0mg"},{"bike_id":"e24123b1-3d4e-4c4f-a5da-a7c4c3d3075a","system_id":"levelo_inurba_marseille","lat":43.31076,"lon":5.38346,"is_reserved":false,"is_disabled":true,"rental_uris":{"android":"levelo://app?vid=e24123b1-3d4e-4c4f-a5da-a7c4c3d3075a","ios":"levelo://app?vid=e24123b1-3d4e-4c4f-a5da-a7c4c3d3075a"},"vehicle_type_id":"4","last_reported":1750868019,"current_range_meters":1200,"station_id":"ce4bgv92rcd13ifvqcr0","pricing_plan_id":"cebpf4jnsgd1na2vs0mg"},{"bike_id":"6f87d298-2f67-4ceb-8cf7-8ff681985d6d","system_id":"levelo_inurba_marseille","lat":43.30129,"lon":5.39853,"is_reserved":false,"is_disabled":true,"rental_uris":{"android":"levelo://app?vid=6f87d298-2f67-4ceb-8cf7-8ff681985d6d","ios":"levelo://app?vid=6f87d298-2f67-4ceb-8cf7-8ff681985d6d"},"vehicle_type_id":"4","last_reported":1750868019,"current_range_meters":1200,"station_id":"ce4bh0h2rcd13ifvqd40","pricing_plan_id":"cebpf4jnsgd1na2vs0mg"},{"bike_id":"64e35fec-cf54-4a43-87c3-e658e91e6a0c","system_id":"levelo_inurba_marseille","lat":43.29267,"lon":5.38447,"is_reserved":false,"is_disabled":true,"rental_uris":{"android":"levelo://app?vid=64e35fec-cf54-4a43-87c3-e658e91e6a0c","ios":"levelo://app?vid=64e35fec-cf54-4a43-87c3-e658e91e6a0c"},"vehicle_type_id":"4","last_reported":1750868019,"current_range_meters":1200,"station_id":"ce4bh692rcd13ifvqea0","pricing_plan_id":"cebpf4jnsgd1na2vs0mg"},{"bike_id":"58eaf5a9-32c2-4dbc-b66c-b56943d1145e","system_id":"levelo_inurba_marseille","lat":43.27904,"lon":5.39598,"is_reserved":false,"is_disabled":true,"rental_uris":{"android":"levelo://app?vid=58eaf5a9-32c2-4dbc-b66c-b56943d1145e","ios":"levelo://app?vid=58eaf5a9-32c2-4dbc-b66c-b56943d1145e"},"vehicle_type_id":"4","last_reported":1750868019,"current_range_meters":1200,"station_id":"ce4bhf92rcd13ifvqf40","pricing_plan_id":"cebpf4jnsgd1na2vs0mg"},{"bike_id":"cd822d1c-73f4-4710-9228-2b9885ae9ee1","system_id":"levelo_inurba_marseille","lat":43.27568,"lon":5.38438,"is_reserved":false,"is_disabled":true,"rental_uris":{"android":"levelo://app?vid=cd822d1c-73f4-4710-9228-2b9885ae9ee1","ios":"levelo://app?vid=cd822d1c-73f4-4710-9228-2b9885ae9ee1"},"vehicle_type_id":"4","last_reported":1750868019,"current_range_meters":1200,"station_id":"ce4bhh92rcd13ifvqfi0","pricing_plan_id":"cebpf4jnsgd1na2vs0mg"},{"bike_id":"91e45673-8be5-451a-ba8d-377b22062a25","system_id":"levelo_inurba_marseille","lat":43.28167,"lon":5.42653,"is_reserved":false,"is_disabled":true,"rental_uris":{"android":"levelo://app?vid=91e45673-8be5-451a-ba8d-377b22062a25","ios":"levelo://app?vid=91e45673-8be5-451a-ba8d-377b22062a25"},"vehicle_type_id":"4","last_reported":1750868019,"current_range_meters":1200,"station_id":"ce4bhnh2rcd13ifvqgug","pricing_plan_id":"cebpf4jnsgd1na2vs0mg"},{"bike_id":"45f54f61-99b2-4a5e-a6aa-41e252486eeb","system_id":"levelo_inurba_marseille","lat":43.22795,"lon":5.34948,"is_reserved":false,"is_disabled":true,"rental_uris":{"android":"levelo://app?vid=45f54f61-99b2-4a5e-a6aa-41e252486eeb","ios":"levelo://app?vid=45f54f61-99b2-4a5e-a6aa-41e252486eeb"},"vehicle_type_id":"4","last_reported":1750868019,"current_range_meters":1600,"station_id":"","pricing_plan_id":"cebpf4jnsgd1na2vs0mg"},{"bike_id":"bd4b5ae5-66d7-464a-b28c-f3970eac0eca","system_id":"levelo_inurba_marseille","lat":43.298065,"lon":5.38112,"is_reserved":false,"is_disabled":true,"rental_uris":{"android":"levelo://app?vid=bd4b5ae5-66d7-464a-b28c-f3970eac0eca","ios":"levelo://app?vid=bd4b5ae5-66d7-464a-b28c-f3970eac0eca"},"vehicle_type_id":"4","last_reported":1750868019,"current_range_meters":1600,"station_id":"ce4bgip2rcd13ifvqbb0","pricing_plan_id":"cebpf4jnsgd1na2vs0mg"},{"bike_id":"ac1670e6-ab14-42b0-9d5d-f294625d31fc","system_id":"levelo_inurba_marseille","lat":43.298035,"lon":5.381086,"is_reserved":false,"is_disabled":true,"rental_uris":{"android":"levelo://app?vid=ac1670e6-ab14-42b0-9d5d-f294625d31fc","ios":"levelo://app?vid=ac1670e6-ab14-42b0-9d5d-f294625d31fc"},"vehicle_type_id":"4","last_reported":1750868019,"current_range_meters":1600,"station_id":"ce4bgip2rcd13ifvqbb0","pricing_plan_id":"cebpf4jnsgd1na2vs0mg"},{"bike_id":"eb46ddf2-86a8-4bf3-a942-54f90fde805a","system_id":"levelo_inurba_marseille","lat":43.27616,"lon":5.36106,"is_reserved":false,"is_disabled":true,"rental_uris":{"android":"levelo://app?vid=eb46ddf2-86a8-4bf3-a942-54f90fde805a","ios":"levelo://app?vid=eb46ddf2-86a8-4bf3-a942-54f90fde805a"},"vehicle_type_id":"4","last_reported":1750868019,"current_range_meters":1600,"station_id":"ce4bgj92rcd13ifvqbe0","pricing_plan_id":"cebpf4jnsgd1na2vs0mg"},{"bike_id":"2733fd74-2507-48a3-ada5-315601fa89a4","system_id":"levelo_inurba_marseille","lat":43.29975,"lon":5.37182,"is_reserved":false,"is_disabled":false,"rental_uris":{"android":"levelo://app?vid=2733fd74-2507-48a3-ada5-315601fa89a4","ios":"levelo://app?vid=2733fd74-2507-48a3-ada5-315601fa89a4"},"vehicle_type_id":"4","last_reported":1750868019,"current_range_meters":1600,"station_id":"ce4bgr92rcd13ifvqc7g","pricing_plan_id":"cebpf4jnsgd1na2vs0mg"},{"bike_id":"3a79b071-3d8e-428a-8cfb-1e55e459c053","system_id":"levelo_inurba_marseille","lat":43.28272,"lon":5.35077,"is_reserved":false,"is_disabled":true,"rental_uris":{"android":"levelo://app?vid=3a79b071-3d8e-428a-8cfb-1e55e459c053","ios":"levelo://app?vid=3a79b071-3d8e-428a-8cfb-1e55e459c053"},"vehicle_type_id":"4","last_reported":1750868019,"current_range_meters":1600,"station_id":"ce4bhbp2rcd13ifvqerg","pricing_plan_id":"cebpf4jnsgd1na2vs0mg"},{"bike_id":"d20108bc-5e0d-497d-b596-da1f08e08613","system_id":"levelo_inurba_marseille","lat":43.2827,"lon":5.35063,"is_reserved":false,"is_disabled":true,"rental_uris":{"android":"levelo://app?vid=d20108bc-5e0d-497d-b596-da1f08e08613","ios":"levelo://app?vid=d20108bc-5e0d-497d-b596-da1f08e08613"},"vehicle_type_id":"4","last_reported":1750868019,"current_range_meters":1600,"station_id":"ce4bhbp2rcd13ifvqerg","pricing_plan_id":"cebpf4jnsgd1na2vs0mg"},{"bike_id":"29fe74e2-22f5-4f4e-b2cb-458f9c78324a","system_id":"levelo_inurba_marseille","lat":43.29066,"lon":5.371567,"is_reserved":false,"is_disabled":false,"rental_uris":{"android":"levelo://app?vid=29fe74e2-22f5-4f4e-b2cb-458f9c78324a","ios":"levelo://app?vid=29fe74e2-22f5-4f4e-b2cb-458f9c78324a"},"vehicle_type_id":"4","last_reported":1750868019,"current_range_meters":2000,"station_id":"ce4bh5p2rcd13ifvqe4g","pricing_plan_id":"cebpf4jnsgd1na2vs0mg"},{"bike_id":"083be5f1-fe85-4310-9056-6fb9f36fddaf","system_id":"levelo_inurba_marseille","lat":43.272064,"lon":5.391779,"is_reserved":false,"is_disabled":true,"rental_uris":{"android":"levelo://app?vid=083be5f1-fe85-4310-9056-6fb9f36fddaf","ios":"levelo://app?vid=083be5f1-fe85-4310-9056-6fb9f36fddaf"},"vehicle_type_id":"4","last_reported":1750868019,"current_range_meters":2000,"station_id":"ce4bhhp2rcd13ifvqfm0","pricing_plan_id":"cebpf4jnsgd1na2vs0mg"},{"bike_id":"f15c84bd-e06e-4e9f-ac31-e625e3137889","system_id":"levelo_inurba_marseille","lat":43.25578,"lon":5.38237,"is_reserved":false,"is_disabled":true,"rental_uris":{"android":"levelo://app?vid=f15c84bd-e06e-4e9f-ac31-e625e3137889","ios":"levelo://app?vid=f15c84bd-e06e-4e9f-ac31-e625e3137889"},"vehicle_type_id":"4","last_reported":1750868019,"current_range_meters":2000,"station_id":"ce4bhih2rcd13ifvqfs0","pricing_plan_id":"cebpf4jnsgd1na2vs0mg"},{"bike_id":"6a6390f5-0e97-45e3-ad38-31ff51d621a8","system_id":"levelo_inurba_marseille","lat":43.27835,"lon":5.39214,"is_reserved":false,"is_disabled":true,"rental_uris":{"android":"levelo://app?vid=6a6390f5-0e97-45e3-ad38-31ff51d621a8","ios":"levelo://app?vid=6a6390f5-0e97-45e3-ad38-31ff51d621a8"},"vehicle_type_id":"4","last_reported":1750868019,"current_range_meters":2000,"station_id":"ce4bhjp2rcd13ifvqga0","pricing_plan_id":"cebpf4jnsgd1na2vs0mg"},{"bike_id":"ecb4cfb7-eda7-4a0e-9082-b4b62a3a0d2d","system_id":"levelo_inurba_marseille","lat":43.31073,"lon":5.38355,"is_reserved":false,"is_disabled":false,"rental_uris":{"android":"levelo://app?vid=ecb4cfb7-eda7-4a0e-9082-b4b62a3a0d2d","ios":"levelo://app?vid=ecb4cfb7-eda7-4a0e-9082-b4b62a3a0d2d"},"vehicle_type_id":"4","last_reported":1750868019,"current_range_meters":2800,"station_id":"ce4bgv92rcd13ifvqcr0","pricing_plan_id":"cebpf4jnsgd1na2vs0mg"},{"bike_id":"a5d79080-a6aa-4099-8a8a-78b5ccc535ba","system_id":"levelo_inurba_marseille","lat":43.27377,"lon":5.36256,"is_reserved":false,"is_disabled":false,"rental_uris":{"android":"levelo://app?vid=a5d79080-a6aa-4099-8a8a-78b5ccc535ba","ios":"levelo://app?vid=a5d79080-a6aa-4099-8a8a-78b5ccc535ba"},"vehicle_type_id":"4","last_reported":1750868019,"current_range_meters":2800,"station_id":"ce4bhbh2rcd13ifvqeo0","pricing_plan_id":"cebpf4jnsgd1na2vs0mg"},{"bike_id":"b0473c98-6d49-49bf-9999-d88ead8fc22f","system_id":"levelo_inurba_marseille","lat":43.284119,"lon":5.349782,"is_reserved":false,"is_disabled":false,"rental_uris":{"android":"levelo://app?vid=b0473c98-6d49-49bf-9999-d88ead8fc22f","ios":"levelo://app?vid=b0473c98-6d49-49bf-9999-d88ead8fc22f"},"vehicle_type_id":"4","last_reported":1750868019,"current_range_meters":2800,"station_id":"ce4bhbh2rcd13ifvqepg","pricing_plan_id":"cebpf4jnsgd1na2vs0mg"},{"bike_id":"6a756ede-deea-433f-825b-8b628b44f97b","system_id":"levelo_inurba_marseille","lat":43.28483,"lon":5.38553,"is_reserved":false,"is_disabled":false,"rental_uris":{"android":"levelo://app?vid=6a756ede-deea-433f-825b-8b628b44f97b","ios":"levelo://app?vid=6a756ede-deea-433f-825b-8b628b44f97b"},"vehicle_type_id":"4","last_reported":1750868019,"current_range_meters":3200,"station_id":"ce4bh8p2rcd13ifvqeb0","pricing_plan_id":"cebpf4jnsgd1na2vs0mg"},{"bike_id":"465d2323-f97d-48b0-a820-bc5fa54ae0fa","system_id":"levelo_inurba_marseille","lat":43.2838,"lon":5.45995,"is_reserved":false,"is_disabled":false,"rental_uris":{"android":"levelo://app?vid=465d2323-f97d-48b0-a820-bc5fa54ae0fa","ios":"levelo://app?vid=465d2323-f97d-48b0-a820-bc5fa54ae0fa"},"vehicle_type_id":"4","last_reported":1750868019,"current_range_meters":3600,"station_id":"","pricing_plan_id":"cebpf4jnsgd1na2vs0mg"},{"bike_id":"106a18bf-1e18-48b1-a019-66650297ceaf","system_id":"levelo_inurba_marseille","lat":43.30534,"lon":5.3729,"is_reserved":false,"is_disabled":false,"rental_uris":{"android":"levelo://app?vid=106a18bf-1e18-48b1-a019-66650297ceaf","ios":"levelo://app?vid=106a18bf-1e18-48b1-a019-66650297ceaf"},"vehicle_type_id":"4","last_reported":1750868019,"current_range_meters":3600,"station_id":"","pricing_plan_id":"cebpf4jnsgd1na2vs0mg"},{"bike_id":"b532d533-5095-4bad-8382-456c729475de","system_id":"levelo_inurba_marseille","lat":43.29555,"lon":5.42293,"is_reserved":false,"is_disabled":false,"rental_uris":{"android":"levelo://app?vid=b532d533-5095-4bad-8382-456c729475de","ios":"levelo://app?vid=b532d533-5095-4bad-8382-456c729475de"},"vehicle_type_id":"4","last_reported":1750868019,"current_range_meters":3600,"station_id":"ce4bhph2rcd13ifvqhdg","pricing_plan_id":"cebpf4jnsgd1na2vs0mg"},{"bike_id":"e127ef7e-24d3-4248-81fa-66c5e7c3e582","system_id":"levelo_inurba_marseille","lat":43.29624,"lon":5.37718,"is_reserved":false,"is_disabled":false,"rental_uris":{"android":"levelo://app?vid=e127ef7e-24d3-4248-81fa-66c5e7c3e582","ios":"levelo://app?vid=e127ef7e-24d3-4248-81fa-66c5e7c3e582"},"vehicle_type_id":"4","last_reported":1750868019,"current_range_meters":4000,"station_id":"ce4bgi92rcd13ifvqb90","pricing_plan_id":"cebpf4jnsgd1na2vs0mg"},{"bike_id":"0484a9a6-a754-4988-84f0-d8ecb2c787c8","system_id":"levelo_inurba_marseille","lat":43.24386,"lon":5.3706,"is_reserved":false,"is_disabled":false,"rental_uris":{"android":"levelo://app?vid=0484a9a6-a754-4988-84f0-d8ecb2c787c8","ios":"levelo://app?vid=0484a9a6-a754-4988-84f0-d8ecb2c787c8"},"vehicle_type_id":"4","last_reported":1750868019,"current_range_meters":4400,"station_id":"ce4bhhh2rcd13ifvqfk0","pricing_plan_id":"cebpf4jnsgd1na2vs0mg"},{"bike_id":"f333bcb3-17e0-43f1-847f-eb3d745e3e41","system_id":"levelo_inurba_marseille","lat":43.29337,"lon":5.42818,"is_reserved":false,"is_disabled":false,"rental_uris":{"android":"levelo://app?vid=f333bcb3-17e0-43f1-847f-eb3d745e3e41","ios":"levelo://app?vid=f333bcb3-17e0-43f1-847f-eb3d745e3e41"},"vehicle_type_id":"4","last_reported":1750868019,"current_range_meters":4800,"station_id":"","pricing_plan_id":"cebpf4jnsgd1na2vs0mg"},{"bike_id":"d647d82e-58fb-4efa-913b-7b5c87759cda","system_id":"levelo_inurba_marseille","lat":43.269814,"lon":5.399049,"is_reserved":false,"is_disabled":false,"rental_uris":{"android":"levelo://app?vid=d647d82e-58fb-4efa-913b-7b5c87759cda","ios":"levelo://app?vid=d647d82e-58fb-4efa-913b-7b5c87759cda"},"vehicle_type_id":"4","last_reported":1750868019,"current_range_meters":4800,"station_id":"","pricing_plan_id":"cebpf4jnsgd1na2vs0mg"},{"bike_id":"8d4f8b5c-8f38-4ba8-b6a6-a810a119a57d","system_id":"levelo_inurba_marseille","lat":43.2511,"lon":5.40322,"is_reserved":false,"is_disabled":false,"rental_uris":{"android":"levelo://app?vid=8d4f8b5c-8f38-4ba8-b6a6-a810a119a57d","ios":"levelo://app?vid=8d4f8b5c-8f38-4ba8-b6a6-a810a119a57d"},"vehicle_type_id":"4","last_reported":1750868019,"current_range_meters":4800,"station_id":"ce4bhlh2rcd13ifvqgig","pricing_plan_id":"cebpf4jnsgd1na2vs0mg"},{"bike_id":"5899ef52-6b74-40a9-9aeb-cb7b08072491","system_id":"levelo_inurba_marseille","lat":43.27996,"lon":5.41675,"is_reserved":false,"is_disabled":false,"rental_uris":{"android":"levelo://app?vid=5899ef52-6b74-40a9-9aeb-cb7b08072491","ios":"levelo://app?vid=5899ef52-6b74-40a9-9aeb-cb7b08072491"},"vehicle_type_id":"4","last_reported":1750868019,"current_range_meters":4800,"station_id":"ce4bho12rcd13ifvqh1g","pricing_plan_id":"cebpf4jnsgd1na2vs0mg"},{"bike_id":"a944377e-caba-4716-9de1-67484cd2c85f","system_id":"levelo_inurba_marseille","lat":43.28373,"lon":5.38621,"is_reserved":false,"is_disabled":false,"rental_uris":{"android":"levelo://app?vid=a944377e-caba-4716-9de1-67484cd2c85f","ios":"levelo://app?vid=a944377e-caba-4716-9de1-67484cd2c85f"},"vehicle_type_id":"4","last_reported":1750868019,"current_range_meters":5600,"station_id":"ce4bh492rcd13ifvqdvg","pricing_plan_id":"cebpf4jnsgd1na2vs0mg"},{"bike_id":"df7cdb49-9672-4bb0-bc89-b05b90e2346f","system_id":"levelo_inurba_marseille","lat":43.27375,"lon":5.36263,"is_reserved":false,"is_disabled":false,"rental_uris":{"android":"levelo://app?vid=df7cdb49-9672-4bb0-bc89-b05b90e2346f","ios":"levelo://app?vid=df7cdb49-9672-4bb0-bc89-b05b90e2346f"},"vehicle_type_id":"4","last_reported":1750868019,"current_range_meters":5600,"station_id":"ce4bhbh2rcd13ifvqeo0","pricing_plan_id":"cebpf4jnsgd1na2vs0mg"},{"bike_id":"eead2a29-6a36-4870-b211-5920e6094107","system_id":"levelo_inurba_marseille","lat":43.258257,"lon":5.394382,"is_reserved":false,"is_disabled":false,"rental_uris":{"android":"levelo://app?vid=eead2a29-6a36-4870-b211-5920e6094107","ios":"levelo://app?vid=eead2a29-6a36-4870-b211-5920e6094107"},"vehicle_type_id":"4","last_reported":1750868019,"current_range_meters":5600,"station_id":"ce4bhip2rcd13ifvqft0","pricing_plan_id":"cebpf4jnsgd1na2vs0mg"},{"bike_id":"805c1695-b689-4754-affb-537154c026bb","system_id":"levelo_inurba_marseille","lat":43.28813,"lon":5.36669,"is_reserved":false,"is_disabled":false,"rental_uris":{"android":"levelo://app?vid=805c1695-b689-4754-affb-537154c026bb","ios":"levelo://app?vid=805c1695-b689-4754-affb-537154c026bb"},"vehicle_type_id":"4","last_reported":1750868019,"current_range_meters":6000,"station_id":"","pricing_plan_id":"cebpf4jnsgd1na2vs0mg"},{"bike_id":"156180f5-90cc-42ff-bbc5-56e5f3104370","system_id":"levelo_inurba_marseille","lat":43.23854,"lon":5.430384,"is_reserved":false,"is_disabled":false,"rental_uris":{"android":"levelo://app?vid=156180f5-90cc-42ff-bbc5-56e5f3104370","ios":"levelo://app?vid=156180f5-90cc-42ff-bbc5-56e5f3104370"},"vehicle_type_id":"4","last_reported":1750868019,"current_range_meters":6000,"station_id":"","pricing_plan_id":"cebpf4jnsgd1na2vs0mg"},{"bike_id":"bf1f49ce-2175-486e-87f8-3348237d0389","system_id":"levelo_inurba_marseille","lat":43.28269,"lon":5.35068,"is_reserved":false,"is_disabled":false,"rental_uris":{"android":"levelo://app?vid=bf1f49ce-2175-486e-87f8-3348237d0389","ios":"levelo://app?vid=bf1f49ce-2175-486e-87f8-3348237d0389"},"vehicle_type_id":"4","last_reported":1750868019,"current_range_meters":6000,"station_id":"ce4bhbp2rcd13ifvqerg","pricing_plan_id":"cebpf4jnsgd1na2vs0mg"},{"bike_id":"560609ca-e259-43fb-901b-a3a574a191aa","system_id":"levelo_inurba_marseille","lat":43.28,"lon":5.41665,"is_reserved":false,"is_disabled":false,"rental_uris":{"android":"levelo://app?vid=560609ca-e259-43fb-901b-a3a574a191aa","ios":"levelo://app?vid=560609ca-e259-43fb-901b-a3a574a191aa"},"vehicle_type_id":"4","last_reported":1750868019,"current_range_meters":6000,"station_id":"ce4bho12rcd13ifvqh1g","pricing_plan_id":"cebpf4jnsgd1na2vs0mg"},{"bike_id":"48d2adc7-5eb2-4d5c-8615-5aa4a562e9f2","system_id":"levelo_inurba_marseille","lat":43.230614,"lon":5.354878,"is_reserved":false,"is_disabled":false,"rental_uris":{"android":"levelo://app?vid=48d2adc7-5eb2-4d5c-8615-5aa4a562e9f2","ios":"levelo://app?vid=48d2adc7-5eb2-4d5c-8615-5aa4a562e9f2"},"vehicle_type_id":"4","last_reported":1750868019,"current_range_meters":6400,"station_id":"cpo3342slgdg3j2ifvpg","pricing_plan_id":"cebpf4jnsgd1na2vs0mg"},{"bike_id":"35f50917-1839-45b0-863d-8e9bfe5bc1ac","system_id":"levelo_inurba_marseille","lat":43.29191,"lon":5.35811,"is_reserved":false,"is_disabled":false,"rental_uris":{"android":"levelo://app?vid=35f50917-1839-45b0-863d-8e9bfe5bc1ac","ios":"levelo://app?vid=35f50917-1839-45b0-863d-8e9bfe5bc1ac"},"vehicle_type_id":"4","last_reported":1750868019,"current_range_meters":7200,"station_id":"ce4bhb12rcd13ifvqel0","pricing_plan_id":"cebpf4jnsgd1na2vs0mg"},{"bike_id":"aaa107d4-05ce-464e-a72f-54f1b647c0c5","system_id":"levelo_inurba_marseille","lat":43.25469,"lon":5.37665,"is_reserved":false,"is_disabled":false,"rental_uris":{"android":"levelo://app?vid=aaa107d4-05ce-464e-a72f-54f1b647c0c5","ios":"levelo://app?vid=aaa107d4-05ce-464e-a72f-54f1b647c0c5"},"vehicle_type_id":"4","last_reported":1750868019,"current_range_meters":7200,"station_id":"ce4bhh12rcd13ifvqff0","pricing_plan_id":"cebpf4jnsgd1na2vs0mg"},{"bike_id":"0a2888b0-11ac-40d2-a7f5-f1e7bfef2dee","system_id":"levelo_inurba_marseille","lat":43.23198,"lon":5.35551,"is_reserved":false,"is_disabled":false,"rental_uris":{"android":"levelo://app?vid=0a2888b0-11ac-40d2-a7f5-f1e7bfef2dee","ios":"levelo://app?vid=0a2888b0-11ac-40d2-a7f5-f1e7bfef2dee"},"vehicle_type_id":"4","last_reported":1750868019,"current_range_meters":7200,"station_id":"ce4bhu92rcd13ifvqi70","pricing_plan_id":"cebpf4jnsgd1na2vs0mg"},{"bike_id":"e3b8881f-767f-4f2b-b0e6-a815db1e9e49","system_id":"levelo_inurba_marseille","lat":43.28268,"lon":5.35067,"is_reserved":false,"is_disabled":false,"rental_uris":{"android":"levelo://app?vid=e3b8881f-767f-4f2b-b0e6-a815db1e9e49","ios":"levelo://app?vid=e3b8881f-767f-4f2b-b0e6-a815db1e9e49"},"vehicle_type_id":"4","last_reported":1750868019,"current_range_meters":8000,"station_id":"ce4bhbp2rcd13ifvqerg","pricing_plan_id":"cebpf4jnsgd1na2vs0mg"},{"bike_id":"0c1d73e4-53fc-4730-84a5-cffb49fc64c5","system_id":"levelo_inurba_marseille","lat":43.29618,"lon":5.37743,"is_reserved":false,"is_disabled":false,"rental_uris":{"android":"levelo://app?vid=0c1d73e4-53fc-4730-84a5-cffb49fc64c5","ios":"levelo://app?vid=0c1d73e4-53fc-4730-84a5-cffb49fc64c5"},"vehicle_type_id":"4","last_reported":1750868019,"current_range_meters":8400,"station_id":"ce4bgi92rcd13ifvqb90","pricing_plan_id":"cebpf4jnsgd1na2vs0mg"},{"bike_id":"16895485-a651-40a0-af49-328209481472","system_id":"levelo_inurba_marseille","lat":43.239612,"lon":5.366319,"is_reserved":false,"is_disabled":false,"rental_uris":{"android":"levelo://app?vid=16895485-a651-40a0-af49-328209481472","ios":"levelo://app?vid=16895485-a651-40a0-af49-328209481472"},"vehicle_type_id":"4","last_reported":1750868019,"current_range_meters":8400,"station_id":"ce4bhi12rcd13ifvqfp0","pricing_plan_id":"cebpf4jnsgd1na2vs0mg"},{"bike_id":"007df699-0b89-45ba-9ead-768b2fda4243","system_id":"levelo_inurba_marseille","lat":43.25814,"lon":5.3942,"is_reserved":false,"is_disabled":false,"rental_uris":{"android":"levelo://app?vid=007df699-0b89-45ba-9ead-768b2fda4243","ios":"levelo://app?vid=007df699-0b89-45ba-9ead-768b2fda4243"},"vehicle_type_id":"4","last_reported":1750868019,"current_range_meters":8400,"station_id":"ce4bhip2rcd13ifvqft0","pricing_plan_id":"cebpf4jnsgd1na2vs0mg"},{"bike_id":"37e0ff9d-a8de-4088-a164-75282686d41d","system_id":"levelo_inurba_marseille","lat":43.33749,"lon":5.374481,"is_reserved":false,"is_disabled":false,"rental_uris":{"android":"levelo://app?vid=37e0ff9d-a8de-4088-a164-75282686d41d","ios":"levelo://app?vid=37e0ff9d-a8de-4088-a164-75282686d41d"},"vehicle_type_id":"4","last_reported":1750868019,"current_range_meters":8800,"station_id":"","pricing_plan_id":"cebpf4jnsgd1na2vs0mg"},{"bike_id":"cc2a0edb-6bac-4b00-bf6b-29f94d60c42e","system_id":"levelo_inurba_marseille","lat":43.28141,"lon":5.35154,"is_reserved":false,"is_disabled":false,"rental_uris":{"android":"levelo://app?vid=cc2a0edb-6bac-4b00-bf6b-29f94d60c42e","ios":"levelo://app?vid=cc2a0edb-6bac-4b00-bf6b-29f94d60c42e"},"vehicle_type_id":"4","last_reported":1750868019,"current_range_meters":8800,"station_id":"","pricing_plan_id":"cebpf4jnsgd1na2vs0mg"},{"bike_id":"11ebf4fb-e752-44af-81e3-7d28e8eee9cc","system_id":"levelo_inurba_marseille","lat":43.28105,"lon":5.43207,"is_reserved":false,"is_disabled":false,"rental_uris":{"android":"levelo://app?vid=11ebf4fb-e752-44af-81e3-7d28e8eee9cc","ios":"levelo://app?vid=11ebf4fb-e752-44af-81e3-7d28e8eee9cc"},"vehicle_type_id":"4","last_reported":1750868019,"current_range_meters":8800,"station_id":"","pricing_plan_id":"cebpf4jnsgd1na2vs0mg"},{"bike_id":"7c3f6852-4f29-42a9-a8c1-e2b82bb43fcf","system_id":"levelo_inurba_marseille","lat":43.29262,"lon":5.42654,"is_reserved":false,"is_disabled":false,"rental_uris":{"android":"levelo://app?vid=7c3f6852-4f29-42a9-a8c1-e2b82bb43fcf","ios":"levelo://app?vid=7c3f6852-4f29-42a9-a8c1-e2b82bb43fcf"},"vehicle_type_id":"4","last_reported":1750868019,"current_range_meters":8800,"station_id":"","pricing_plan_id":"cebpf4jnsgd1na2vs0mg"},{"bike_id":"e31929d5-7f41-4133-9111-12a0c9237fde","system_id":"levelo_inurba_marseille","lat":43.23194,"lon":5.35556,"is_reserved":false,"is_disabled":false,"rental_uris":{"android":"levelo://app?vid=e31929d5-7f41-4133-9111-12a0c9237fde","ios":"levelo://app?vid=e31929d5-7f41-4133-9111-12a0c9237fde"},"vehicle_type_id":"4","last_reported":1750868019,"current_range_meters":8800,"station_id":"ce4bhu92rcd13ifvqi70","pricing_plan_id":"cebpf4jnsgd1na2vs0mg"},{"bike_id":"b2b2c10c-bbe1-4d83-86ef-09ba864e6a16","system_id":"levelo_inurba_marseille","lat":43.29626,"lon":5.377105,"is_reserved":false,"is_disabled":false,"rental_uris":{"android":"levelo://app?vid=b2b2c10c-bbe1-4d83-86ef-09ba864e6a16","ios":"levelo://app?vid=b2b2c10c-bbe1-4d83-86ef-09ba864e6a16"},"vehicle_type_id":"4","last_reported":1750868019,"current_range_meters":9200,"station_id":"","pricing_plan_id":"cebpf4jnsgd1na2vs0mg"},{"bike_id":"68b9fc45-a456-468f-bf1b-5ed473d562bd","system_id":"levelo_inurba_marseille","lat":43.2842,"lon":5.34994,"is_reserved":false,"is_disabled":false,"rental_uris":{"android":"levelo://app?vid=68b9fc45-a456-468f-bf1b-5ed473d562bd","ios":"levelo://app?vid=68b9fc45-a456-468f-bf1b-5ed473d562bd"},"vehicle_type_id":"4","last_reported":1750868019,"current_range_meters":9200,"station_id":"ce4bhbh2rcd13ifvqepg","pricing_plan_id":"cebpf4jnsgd1na2vs0mg"},{"bike_id":"364a7bbd-fdd6-4754-826a-7e6d4e00305f","system_id":"levelo_inurba_marseille","lat":43.26208,"lon":5.37448,"is_reserved":false,"is_disabled":false,"rental_uris":{"android":"levelo://app?vid=364a7bbd-fdd6-4754-826a-7e6d4e00305f","ios":"levelo://app?vid=364a7bbd-fdd6-4754-826a-7e6d4e00305f"},"vehicle_type_id":"4","last_reported":1750868019,"current_range_meters":9200,"station_id":"ce4bhgp2rcd13ifvqfc0","pricing_plan_id":"cebpf4jnsgd1na2vs0mg"},{"bike_id":"ffe79540-d43f-48fe-bdcf-959ecd89aaa1","system_id":"levelo_inurba_marseille","lat":43.26211,"lon":5.37442,"is_reserved":false,"is_disabled":false,"rental_uris":{"android":"levelo://app?vid=ffe79540-d43f-48fe-bdcf-959ecd89aaa1","ios":"levelo://app?vid=ffe79540-d43f-48fe-bdcf-959ecd89aaa1"},"vehicle_type_id":"4","last_reported":1750868019,"current_range_meters":9600,"station_id":"ce4bhgp2rcd13ifvqfc0","pricing_plan_id":"cebpf4jnsgd1na2vs0mg"},{"bike_id":"9e0fc24e-9310-473d-b97e-c9b3ecaa845e","system_id":"levelo_inurba_marseille","lat":43.31534,"lon":5.38036,"is_reserved":false,"is_disabled":false,"rental_uris":{"android":"levelo://app?vid=9e0fc24e-9310-473d-b97e-c9b3ecaa845e","ios":"levelo://app?vid=9e0fc24e-9310-473d-b97e-c9b3ecaa845e"},"vehicle_type_id":"4","last_reported":1750868019,"current_range_meters":9600,"station_id":"ce4bhsp2rcd13ifvqi50","pricing_plan_id":"cebpf4jnsgd1na2vs0mg"},{"bike_id":"244048fd-1a37-432f-9293-b5f8f36638be","system_id":"levelo_inurba_marseille","lat":43.23205,"lon":5.35554,"is_reserved":false,"is_disabled":false,"rental_uris":{"android":"levelo://app?vid=244048fd-1a37-432f-9293-b5f8f36638be","ios":"levelo://app?vid=244048fd-1a37-432f-9293-b5f8f36638be"},"vehicle_type_id":"4","last_reported":1750868019,"current_range_meters":9600,"station_id":"ce4bhu92rcd13ifvqi70","pricing_plan_id":"cebpf4jnsgd1na2vs0mg"},{"bike_id":"32cf20b4-64eb-4411-b10a-4d5cb0204059","system_id":"levelo_inurba_marseille","lat":43.24169,"lon":5.363972,"is_reserved":false,"is_disabled":false,"rental_uris":{"android":"levelo://app?vid=32cf20b4-64eb-4411-b10a-4d5cb0204059","ios":"levelo://app?vid=32cf20b4-64eb-4411-b10a-4d5cb0204059"},"vehicle_type_id":"4","last_reported":1750868019,"current_range_meters":9600,"station_id":"cpo36qri1sfpv3e86is0","pricing_plan_id":"cebpf4jnsgd1na2vs0mg"},{"bike_id":"51b217be-9488-41c1-b083-6d728251b280","system_id":"levelo_inurba_marseille","lat":43.24327,"lon":5.36882,"is_reserved":false,"is_disabled":false,"rental_uris":{"android":"levelo://app?vid=51b217be-9488-41c1-b083-6d728251b280","ios":"levelo://app?vid=51b217be-9488-41c1-b083-6d728251b280"},"vehicle_type_id":"4","last_reported":1750868019,"current_range_meters":10000,"station_id":"","pricing_plan_id":"cebpf4jnsgd1na2vs0mg"},{"bike_id":"9262fb67-6b0b-4ecf-a5a6-81ae0d6ddc12","system_id":"levelo_inurba_marseille","lat":43.2958,"lon":5.37519,"is_reserved":false,"is_disabled":false,"rental_uris":{"android":"levelo://app?vid=9262fb67-6b0b-4ecf-a5a6-81ae0d6ddc12","ios":"levelo://app?vid=9262fb67-6b0b-4ecf-a5a6-81ae0d6ddc12"},"vehicle_type_id":"4","last_reported":1750868019,"current_range_meters":10000,"station_id":"ce4bgh92rcd13ifvqb50","pricing_plan_id":"cebpf4jnsgd1na2vs0mg"},{"bike_id":"048367a8-2b91-4c51-9b6f-b273db43aad0","system_id":"levelo_inurba_marseille","lat":43.29299,"lon":5.37465,"is_reserved":false,"is_disabled":false,"rental_uris":{"android":"levelo://app?vid=048367a8-2b91-4c51-9b6f-b273db43aad0","ios":"levelo://app?vid=048367a8-2b91-4c51-9b6f-b273db43aad0"},"vehicle_type_id":"4","last_reported":1750868019,"current_range_meters":10000,"station_id":"ce4bgi12rcd13ifvqb70","pricing_plan_id":"cebpf4jnsgd1na2vs0mg"},{"bike_id":"c8a26be2-38d6-44f8-94e0-8a8b2133b8ed","system_id":"levelo_inurba_marseille","lat":43.28408,"lon":5.34981,"is_reserved":false,"is_disabled":false,"rental_uris":{"android":"levelo://app?vid=c8a26be2-38d6-44f8-94e0-8a8b2133b8ed","ios":"levelo://app?vid=c8a26be2-38d6-44f8-94e0-8a8b2133b8ed"},"vehicle_type_id":"4","last_reported":1750868019,"current_range_meters":10000,"station_id":"ce4bhbh2rcd13ifvqepg","pricing_plan_id":"cebpf4jnsgd1na2vs0mg"},{"bike_id":"2f120339-8330-4539-8cd2-cf6dc6375085","system_id":"levelo_inurba_marseille","lat":43.28615,"lon":5.35104,"is_reserved":false,"is_disabled":false,"rental_uris":{"android":"levelo://app?vid=2f120339-8330-4539-8cd2-cf6dc6375085","ios":"levelo://app?vid=2f120339-8330-4539-8cd2-cf6dc6375085"},"vehicle_type_id":"4","last_reported":1750868019,"current_range_meters":10000,"station_id":"ce4bhch2rcd13ifvqeug","pricing_plan_id":"cebpf4jnsgd1na2vs0mg"},{"bike_id":"dbfb2b4d-f467-42b8-bdec-0c1e515fa89f","system_id":"levelo_inurba_marseille","lat":43.29895,"lon":5.4366,"is_reserved":false,"is_disabled":false,"rental_uris":{"android":"levelo://app?vid=dbfb2b4d-f467-42b8-bdec-0c1e515fa89f","ios":"levelo://app?vid=dbfb2b4d-f467-42b8-bdec-0c1e515fa89f"},"vehicle_type_id":"4","last_reported":1750868019,"current_range_meters":10000,"station_id":"ce4bhpp2rcd13ifvqhfg","pricing_plan_id":"cebpf4jnsgd1na2vs0mg"},{"bike_id":"35b14479-4a4d-4383-83de-c7fea66894b3","system_id":"levelo_inurba_marseille","lat":43.299047,"lon":5.436694,"is_reserved":false,"is_disabled":false,"rental_uris":{"android":"levelo://app?vid=35b14479-4a4d-4383-83de-c7fea66894b3","ios":"levelo://app?vid=35b14479-4a4d-4383-83de-c7fea66894b3"},"vehicle_type_id":"4","last_reported":1750868019,"current_range_meters":10000,"station_id":"ce4bhpp2rcd13ifvqhfg","pricing_plan_id":"cebpf4jnsgd1na2vs0mg"},{"bike_id":"4871833d-9f39-40f1-9d21-0e9a1fff775e","system_id":"levelo_inurba_marseille","lat":43.23061,"lon":5.35493,"is_reserved":false,"is_disabled":false,"rental_uris":{"android":"levelo://app?vid=4871833d-9f39-40f1-9d21-0e9a1fff775e","ios":"levelo://app?vid=4871833d-9f39-40f1-9d21-0e9a1fff775e"},"vehicle_type_id":"4","last_reported":1750868019,"current_range_meters":10000,"station_id":"cpo3342slgdg3j2ifvpg","pricing_plan_id":"cebpf4jnsgd1na2vs0mg"},{"bike_id":"af112b62-19de-41d4-b8d7-e14d0172315d","system_id":"levelo_inurba_marseille","lat":43.32718,"lon":5.39228,"is_reserved":false,"is_disabled":false,"rental_uris":{"android":"levelo://app?vid=af112b62-19de-41d4-b8d7-e14d0172315d","ios":"levelo://app?vid=af112b62-19de-41d4-b8d7-e14d0172315d"},"vehicle_type_id":"4","last_reported":1750868019,"current_range_meters":10800,"station_id":"","pricing_plan_id":"cebpf4jnsgd1na2vs0mg"},{"bike_id":"88bc5367-6513-4333-831b-e351b8b423e6","system_id":"levelo_inurba_marseille","lat":43.31272,"lon":5.40173,"is_reserved":false,"is_disabled":false,"rental_uris":{"android":"levelo://app?vid=88bc5367-6513-4333-831b-e351b8b423e6","ios":"levelo://app?vid=88bc5367-6513-4333-831b-e351b8b423e6"},"vehicle_type_id":"4","last_reported":1750868019,"current_range_meters":10800,"station_id":"ce4bh092rcd13ifvqd30","pricing_plan_id":"cebpf4jnsgd1na2vs0mg"},{"bike_id":"3987f272-0a0c-49fc-805b-14b6c6e90418","system_id":"levelo_inurba_marseille","lat":43.282737,"lon":5.35081,"is_reserved":false,"is_disabled":false,"rental_uris":{"android":"levelo://app?vid=3987f272-0a0c-49fc-805b-14b6c6e90418","ios":"levelo://app?vid=3987f272-0a0c-49fc-805b-14b6c6e90418"},"vehicle_type_id":"4","last_reported":1750868019,"current_range_meters":10800,"station_id":"ce4bhbp2rcd13ifvqerg","pricing_plan_id":"cebpf4jnsgd1na2vs0mg"},{"bike_id":"07794057-ba4d-45a2-870a-244898808f3e","system_id":"levelo_inurba_marseille","lat":43.262137,"lon":5.374423,"is_reserved":false,"is_disabled":false,"rental_uris":{"android":"levelo://app?vid=07794057-ba4d-45a2-870a-244898808f3e","ios":"levelo://app?vid=07794057-ba4d-45a2-870a-244898808f3e"},"vehicle_type_id":"4","last_reported":1750868019,"current_range_meters":10800,"station_id":"ce4bhgp2rcd13ifvqfc0","pricing_plan_id":"cebpf4jnsgd1na2vs0mg"},{"bike_id":"bfc7807e-6951-4c17-928b-0b7606c77080","system_id":"levelo_inurba_marseille","lat":43.23962,"lon":5.36626,"is_reserved":false,"is_disabled":false,"rental_uris":{"android":"levelo://app?vid=bfc7807e-6951-4c17-928b-0b7606c77080","ios":"levelo://app?vid=bfc7807e-6951-4c17-928b-0b7606c77080"},"vehicle_type_id":"4","last_reported":1750868019,"current_range_meters":10800,"station_id":"ce4bhi12rcd13ifvqfp0","pricing_plan_id":"cebpf4jnsgd1na2vs0mg"},{"bike_id":"9a518954-4025-421b-9462-580c985818f2","system_id":"levelo_inurba_marseille","lat":43.31498,"lon":5.38835,"is_reserved":false,"is_disabled":false,"rental_uris":{"android":"levelo://app?vid=9a518954-4025-421b-9462-580c985818f2","ios":"levelo://app?vid=9a518954-4025-421b-9462-580c985818f2"},"vehicle_type_id":"4","last_reported":1750868019,"current_range_meters":11200,"station_id":"","pricing_plan_id":"cebpf4jnsgd1na2vs0mg"},{"bike_id":"420ec0d6-b2e3-4031-81b0-71d0e655de4d","system_id":"levelo_inurba_marseille","lat":43.26234,"lon":5.37444,"is_reserved":false,"is_disabled":false,"rental_uris":{"android":"levelo://app?vid=420ec0d6-b2e3-4031-81b0-71d0e655de4d","ios":"levelo://app?vid=420ec0d6-b2e3-4031-81b0-71d0e655de4d"},"vehicle_type_id":"4","last_reported":1750868019,"current_range_meters":11200,"station_id":"ce4bhgp2rcd13ifvqfc0","pricing_plan_id":"cebpf4jnsgd1na2vs0mg"},{"bike_id":"dae9cb00-5124-48f2-884e-91670c2bab32","system_id":"levelo_inurba_marseille","lat":43.2621,"lon":5.37444,"is_reserved":false,"is_disabled":false,"rental_uris":{"android":"levelo://app?vid=dae9cb00-5124-48f2-884e-91670c2bab32","ios":"levelo://app?vid=dae9cb00-5124-48f2-884e-91670c2bab32"},"vehicle_type_id":"4","last_reported":1750868019,"current_range_meters":11200,"station_id":"ce4bhgp2rcd13ifvqfc0","pricing_plan_id":"cebpf4jnsgd1na2vs0mg"},{"bike_id":"65925455-8eb8-4593-8fe6-dfe06dfbd569","system_id":"levelo_inurba_marseille","lat":43.27184,"lon":5.40988,"is_reserved":false,"is_disabled":false,"rental_uris":{"android":"levelo://app?vid=65925455-8eb8-4593-8fe6-dfe06dfbd569","ios":"levelo://app?vid=65925455-8eb8-4593-8fe6-dfe06dfbd569"},"vehicle_type_id":"4","last_reported":1750868019,"current_range_meters":11200,"station_id":"ce4bhl12rcd13ifvqgf0","pricing_plan_id":"cebpf4jnsgd1na2vs0mg"},{"bike_id":"85aebb63-1277-49af-91e5-22f2d655e266","system_id":"levelo_inurba_marseille","lat":43.29896,"lon":5.4368,"is_reserved":false,"is_disabled":false,"rental_uris":{"android":"levelo://app?vid=85aebb63-1277-49af-91e5-22f2d655e266","ios":"levelo://app?vid=85aebb63-1277-49af-91e5-22f2d655e266"},"vehicle_type_id":"4","last_reported":1750868019,"current_range_meters":11200,"station_id":"ce4bhpp2rcd13ifvqhfg","pricing_plan_id":"cebpf4jnsgd1na2vs0mg"},{"bike_id":"23a576b0-f308-4af9-a856-c356c821e9fe","system_id":"levelo_inurba_marseille","lat":43.25181,"lon":5.40702,"is_reserved":false,"is_disabled":false,"rental_uris":{"android":"levelo://app?vid=23a576b0-f308-4af9-a856-c356c821e9fe","ios":"levelo://app?vid=23a576b0-f308-4af9-a856-c356c821e9fe"},"vehicle_type_id":"4","last_reported":1750868019,"current_range_meters":11600,"station_id":"","pricing_plan_id":"cebpf4jnsgd1na2vs0mg"},{"bike_id":"26a14eba-87a9-47b8-9607-30bd0042d428","system_id":"levelo_inurba_marseille","lat":43.31469,"lon":5.39411,"is_reserved":false,"is_disabled":false,"rental_uris":{"android":"levelo://app?vid=26a14eba-87a9-47b8-9607-30bd0042d428","ios":"levelo://app?vid=26a14eba-87a9-47b8-9607-30bd0042d428"},"vehicle_type_id":"4","last_reported":1750868019,"current_range_meters":11600,"station_id":"","pricing_plan_id":"cebpf4jnsgd1na2vs0mg"},{"bike_id":"62b0860c-20ba-46cf-970c-257249d702e8","system_id":"levelo_inurba_marseille","lat":43.31119,"lon":5.37762,"is_reserved":false,"is_disabled":false,"rental_uris":{"android":"levelo://app?vid=62b0860c-20ba-46cf-970c-257249d702e8","ios":"levelo://app?vid=62b0860c-20ba-46cf-970c-257249d702e8"},"vehicle_type_id":"4","last_reported":1750868019,"current_range_meters":11600,"station_id":"ce4bgt92rcd13ifvqcg0","pricing_plan_id":"cebpf4jnsgd1na2vs0mg"},{"bike_id":"5c51868b-70c7-499e-91c7-33ea9927806f","system_id":"levelo_inurba_marseille","lat":43.295746,"lon":5.39956,"is_reserved":false,"is_disabled":false,"rental_uris":{"android":"levelo://app?vid=5c51868b-70c7-499e-91c7-33ea9927806f","ios":"levelo://app?vid=5c51868b-70c7-499e-91c7-33ea9927806f"},"vehicle_type_id":"4","last_reported":1750868019,"current_range_meters":11600,"station_id":"ce4bh312rcd13ifvqdj0","pricing_plan_id":"cebpf4jnsgd1na2vs0mg"},{"bike_id":"4c80593a-90f9-490c-8924-777e5fb94566","system_id":"levelo_inurba_marseille","lat":43.28667,"lon":5.38661,"is_reserved":false,"is_disabled":false,"rental_uris":{"android":"levelo://app?vid=4c80593a-90f9-490c-8924-777e5fb94566","ios":"levelo://app?vid=4c80593a-90f9-490c-8924-777e5fb94566"},"vehicle_type_id":"4","last_reported":1750868019,"current_range_meters":11600,"station_id":"ce4bh492rcd13ifvqdug","pricing_plan_id":"cebpf4jnsgd1na2vs0mg"},{"bike_id":"17162de7-8865-4aca-9da5-ef00ff6ab942","system_id":"levelo_inurba_marseille","lat":43.2603,"lon":5.37545,"is_reserved":false,"is_disabled":false,"rental_uris":{"android":"levelo://app?vid=17162de7-8865-4aca-9da5-ef00ff6ab942","ios":"levelo://app?vid=17162de7-8865-4aca-9da5-ef00ff6ab942"},"vehicle_type_id":"4","last_reported":1750868019,"current_range_meters":11600,"station_id":"ce4bhgh2rcd13ifvqfa0","pricing_plan_id":"cebpf4jnsgd1na2vs0mg"},{"bike_id":"3f7ea014-6fcb-46b3-bdf3-f88b5c96cd0f","system_id":"levelo_inurba_marseille","lat":43.24567,"lon":5.37336,"is_reserved":false,"is_disabled":false,"rental_uris":{"android":"levelo://app?vid=3f7ea014-6fcb-46b3-bdf3-f88b5c96cd0f","ios":"levelo://app?vid=3f7ea014-6fcb-46b3-bdf3-f88b5c96cd0f"},"vehicle_type_id":"4","last_reported":1750868019,"current_range_meters":12000,"station_id":"","pricing_plan_id":"cebpf4jnsgd1na2vs0mg"},{"bike_id":"5eee8925-0941-460b-a942-18fcb70bac7c","system_id":"levelo_inurba_marseille","lat":43.27264,"lon":5.40078,"is_reserved":false,"is_disabled":false,"rental_uris":{"android":"levelo://app?vid=5eee8925-0941-460b-a942-18fcb70bac7c","ios":"levelo://app?vid=5eee8925-0941-460b-a942-18fcb70bac7c"},"vehicle_type_id":"4","last_reported":1750868019,"current_range_meters":12400,"station_id":"","pricing_plan_id":"cebpf4jnsgd1na2vs0mg"},{"bike_id":"4360c865-6118-4248-97f3-cd9b349fea00","system_id":"levelo_inurba_marseille","lat":43.30785,"lon":5.37646,"is_reserved":false,"is_disabled":false,"rental_uris":{"android":"levelo://app?vid=4360c865-6118-4248-97f3-cd9b349fea00","ios":"levelo://app?vid=4360c865-6118-4248-97f3-cd9b349fea00"},"vehicle_type_id":"4","last_reported":1750868019,"current_range_meters":12400,"station_id":"ce4bgv92rcd13ifvqcq0","pricing_plan_id":"cebpf4jnsgd1na2vs0mg"},{"bike_id":"0b0dbaa0-0693-4f01-ab1d-852d3ea88167","system_id":"levelo_inurba_marseille","lat":43.30256,"lon":5.40074,"is_reserved":false,"is_disabled":false,"rental_uris":{"android":"levelo://app?vid=0b0dbaa0-0693-4f01-ab1d-852d3ea88167","ios":"levelo://app?vid=0b0dbaa0-0693-4f01-ab1d-852d3ea88167"},"vehicle_type_id":"4","last_reported":1750868019,"current_range_meters":12400,"station_id":"ce4bgvh2rcd13ifvqcs0","pricing_plan_id":"cebpf4jnsgd1na2vs0mg"},{"bike_id":"9cd9822c-fc3d-41ba-8b08-1ce3817af118","system_id":"levelo_inurba_marseille","lat":43.29005,"lon":5.35611,"is_reserved":false,"is_disabled":false,"rental_uris":{"android":"levelo://app?vid=9cd9822c-fc3d-41ba-8b08-1ce3817af118","ios":"levelo://app?vid=9cd9822c-fc3d-41ba-8b08-1ce3817af118"},"vehicle_type_id":"4","last_reported":1750868019,"current_range_meters":12400,"station_id":"ce4bhb92rcd13ifvqen0","pricing_plan_id":"cebpf4jnsgd1na2vs0mg"},{"bike_id":"b4072df8-6b35-423f-bd81-99cbe557938c","system_id":"levelo_inurba_marseille","lat":43.28151,"lon":5.42647,"is_reserved":false,"is_disabled":false,"rental_uris":{"android":"levelo://app?vid=b4072df8-6b35-423f-bd81-99cbe557938c","ios":"levelo://app?vid=b4072df8-6b35-423f-bd81-99cbe557938c"},"vehicle_type_id":"4","last_reported":1750868019,"current_range_meters":12400,"station_id":"ce4bhnh2rcd13ifvqgug","pricing_plan_id":"cebpf4jnsgd1na2vs0mg"},{"bike_id":"441e2f39-7054-4744-894b-72ac8474531d","system_id":"levelo_inurba_marseille","lat":43.211906,"lon":5.350711,"is_reserved":false,"is_disabled":false,"rental_uris":{"android":"levelo://app?vid=441e2f39-7054-4744-894b-72ac8474531d","ios":"levelo://app?vid=441e2f39-7054-4744-894b-72ac8474531d"},"vehicle_type_id":"4","last_reported":1750868019,"current_range_meters":12400,"station_id":"st_cvj6sg6p6f1abm77japg","pricing_plan_id":"cebpf4jnsgd1na2vs0mg"},{"bike_id":"b6b861fa-fd27-43ad-89fb-4be1a264be92","system_id":"levelo_inurba_marseille","lat":43.24841,"lon":5.39147,"is_reserved":false,"is_disabled":false,"rental_uris":{"android":"levelo://app?vid=b6b861fa-fd27-43ad-89fb-4be1a264be92","ios":"levelo://app?vid=b6b861fa-fd27-43ad-89fb-4be1a264be92"},"vehicle_type_id":"4","last_reported":1750868019,"current_range_meters":12800,"station_id":"","pricing_plan_id":"cebpf4jnsgd1na2vs0mg"},{"bike_id":"73003e5e-1157-4cf0-aafe-d13c75118280","system_id":"levelo_inurba_marseille","lat":43.3337,"lon":5.3963,"is_reserved":false,"is_disabled":false,"rental_uris":{"android":"levelo://app?vid=73003e5e-1157-4cf0-aafe-d13c75118280","ios":"levelo://app?vid=73003e5e-1157-4cf0-aafe-d13c75118280"},"vehicle_type_id":"4","last_reported":1750868019,"current_range_meters":12800,"station_id":"","pricing_plan_id":"cebpf4jnsgd1na2vs0mg"},{"bike_id":"ab27ffc9-2825-45ee-ace3-336b0c867e5a","system_id":"levelo_inurba_marseille","lat":43.27379,"lon":5.36263,"is_reserved":false,"is_disabled":false,"rental_uris":{"android":"levelo://app?vid=ab27ffc9-2825-45ee-ace3-336b0c867e5a","ios":"levelo://app?vid=ab27ffc9-2825-45ee-ace3-336b0c867e5a"},"vehicle_type_id":"4","last_reported":1750868019,"current_range_meters":12800,"station_id":"ce4bhbh2rcd13ifvqeo0","pricing_plan_id":"cebpf4jnsgd1na2vs0mg"},{"bike_id":"cb710f8d-30f6-4b48-b945-4bf1b209fa6c","system_id":"levelo_inurba_marseille","lat":43.28423,"lon":5.34981,"is_reserved":false,"is_disabled":false,"rental_uris":{"android":"levelo://app?vid=cb710f8d-30f6-4b48-b945-4bf1b209fa6c","ios":"levelo://app?vid=cb710f8d-30f6-4b48-b945-4bf1b209fa6c"},"vehicle_type_id":"4","last_reported":1750868019,"current_range_meters":12800,"station_id":"ce4bhbh2rcd13ifvqepg","pricing_plan_id":"cebpf4jnsgd1na2vs0mg"},{"bike_id":"011225fa-7b22-4707-ac5e-5f950661cdc6","system_id":"levelo_inurba_marseille","lat":43.24066,"lon":5.3776,"is_reserved":false,"is_disabled":false,"rental_uris":{"android":"levelo://app?vid=011225fa-7b22-4707-ac5e-5f950661cdc6","ios":"levelo://app?vid=011225fa-7b22-4707-ac5e-5f950661cdc6"},"vehicle_type_id":"4","last_reported":1750868019,"current_range_meters":12800,"station_id":"ce4bhnp2rcd13ifvqgvg","pricing_plan_id":"cebpf4jnsgd1na2vs0mg"},{"bike_id":"eadc4879-54be-4fe2-856c-25fd5c834415","system_id":"levelo_inurba_marseille","lat":43.232,"lon":5.35538,"is_reserved":false,"is_disabled":false,"rental_uris":{"android":"levelo://app?vid=eadc4879-54be-4fe2-856c-25fd5c834415","ios":"levelo://app?vid=eadc4879-54be-4fe2-856c-25fd5c834415"},"vehicle_type_id":"4","last_reported":1750868019,"current_range_meters":12800,"station_id":"ce4bhu92rcd13ifvqi70","pricing_plan_id":"cebpf4jnsgd1na2vs0mg"},{"bike_id":"8aa2fe90-7f46-4295-b20a-bb0b13f2b718","system_id":"levelo_inurba_marseille","lat":43.27383,"lon":5.36256,"is_reserved":false,"is_disabled":false,"rental_uris":{"android":"levelo://app?vid=8aa2fe90-7f46-4295-b20a-bb0b13f2b718","ios":"levelo://app?vid=8aa2fe90-7f46-4295-b20a-bb0b13f2b718"},"vehicle_type_id":"4","last_reported":1750868019,"current_range_meters":13600,"station_id":"ce4bhbh2rcd13ifvqeo0","pricing_plan_id":"cebpf4jnsgd1na2vs0mg"},{"bike_id":"aa732736-4e26-463a-8b0f-41a9b54eebd8","system_id":"levelo_inurba_marseille","lat":43.286228,"lon":5.350917,"is_reserved":false,"is_disabled":false,"rental_uris":{"android":"levelo://app?vid=aa732736-4e26-463a-8b0f-41a9b54eebd8","ios":"levelo://app?vid=aa732736-4e26-463a-8b0f-41a9b54eebd8"},"vehicle_type_id":"4","last_reported":1750868019,"current_range_meters":13600,"station_id":"ce4bhch2rcd13ifvqeug","pricing_plan_id":"cebpf4jnsgd1na2vs0mg"},{"bike_id":"ab23c9e6-8cd7-4cf8-8991-c0bff4737f86","system_id":"levelo_inurba_marseille","lat":43.24389,"lon":5.37056,"is_reserved":false,"is_disabled":false,"rental_uris":{"android":"levelo://app?vid=ab23c9e6-8cd7-4cf8-8991-c0bff4737f86","ios":"levelo://app?vid=ab23c9e6-8cd7-4cf8-8991-c0bff4737f86"},"vehicle_type_id":"4","last_reported":1750868019,"current_range_meters":13600,"station_id":"ce4bhhh2rcd13ifvqfk0","pricing_plan_id":"cebpf4jnsgd1na2vs0mg"},{"bike_id":"a8f35c45-a7c3-437a-9355-b31982431bd0","system_id":"levelo_inurba_marseille","lat":43.255766,"lon":5.382349,"is_reserved":false,"is_disabled":false,"rental_uris":{"android":"levelo://app?vid=a8f35c45-a7c3-437a-9355-b31982431bd0","ios":"levelo://app?vid=a8f35c45-a7c3-437a-9355-b31982431bd0"},"vehicle_type_id":"4","last_reported":1750868019,"current_range_meters":13600,"station_id":"ce4bhih2rcd13ifvqfs0","pricing_plan_id":"cebpf4jnsgd1na2vs0mg"},{"bike_id":"8dfc8bd6-ce60-41c0-acf4-fbdac92663d9","system_id":"levelo_inurba_marseille","lat":43.23194,"lon":5.3555,"is_reserved":false,"is_disabled":false,"rental_uris":{"android":"levelo://app?vid=8dfc8bd6-ce60-41c0-acf4-fbdac92663d9","ios":"levelo://app?vid=8dfc8bd6-ce60-41c0-acf4-fbdac92663d9"},"vehicle_type_id":"4","last_reported":1750868019,"current_range_meters":13600,"station_id":"ce4bhu92rcd13ifvqi70","pricing_plan_id":"cebpf4jnsgd1na2vs0mg"},{"bike_id":"e2f5b300-4a63-4778-aada-c29a8a0ea1e8","system_id":"levelo_inurba_marseille","lat":43.32824,"lon":5.39189,"is_reserved":false,"is_disabled":false,"rental_uris":{"android":"levelo://app?vid=e2f5b300-4a63-4778-aada-c29a8a0ea1e8","ios":"levelo://app?vid=e2f5b300-4a63-4778-aada-c29a8a0ea1e8"},"vehicle_type_id":"4","last_reported":1750868019,"current_range_meters":14000,"station_id":"","pricing_plan_id":"cebpf4jnsgd1na2vs0mg"},{"bike_id":"4001f6dc-e5d7-4a58-9fe9-427f15268908","system_id":"levelo_inurba_marseille","lat":43.291958,"lon":5.358041,"is_reserved":false,"is_disabled":false,"rental_uris":{"android":"levelo://app?vid=4001f6dc-e5d7-4a58-9fe9-427f15268908","ios":"levelo://app?vid=4001f6dc-e5d7-4a58-9fe9-427f15268908"},"vehicle_type_id":"4","last_reported":1750868019,"current_range_meters":14000,"station_id":"ce4bhb12rcd13ifvqel0","pricing_plan_id":"cebpf4jnsgd1na2vs0mg"},{"bike_id":"76063b03-8189-462b-bfa7-75bf94d44138","system_id":"levelo_inurba_marseille","lat":43.23058,"lon":5.354875,"is_reserved":false,"is_disabled":false,"rental_uris":{"android":"levelo://app?vid=76063b03-8189-462b-bfa7-75bf94d44138","ios":"levelo://app?vid=76063b03-8189-462b-bfa7-75bf94d44138"},"vehicle_type_id":"4","last_reported":1750868019,"current_range_meters":14000,"station_id":"cpo3342slgdg3j2ifvpg","pricing_plan_id":"cebpf4jnsgd1na2vs0mg"},{"bike_id":"5b0059f2-5a2a-41ce-b903-1f956adfdd24","system_id":"levelo_inurba_marseille","lat":43.29794,"lon":5.43558,"is_reserved":false,"is_disabled":false,"rental_uris":{"android":"levelo://app?vid=5b0059f2-5a2a-41ce-b903-1f956adfdd24","ios":"levelo://app?vid=5b0059f2-5a2a-41ce-b903-1f956adfdd24"},"vehicle_type_id":"4","last_reported":1750868019,"current_range_meters":14400,"station_id":"","pricing_plan_id":"cebpf4jnsgd1na2vs0mg"},{"bike_id":"0dd72a48-6924-4515-be13-ea6bb5193597","system_id":"levelo_inurba_marseille","lat":43.28405,"lon":5.34996,"is_reserved":false,"is_disabled":false,"rental_uris":{"android":"levelo://app?vid=0dd72a48-6924-4515-be13-ea6bb5193597","ios":"levelo://app?vid=0dd72a48-6924-4515-be13-ea6bb5193597"},"vehicle_type_id":"4","last_reported":1750868019,"current_range_meters":14400,"station_id":"ce4bhbh2rcd13ifvqepg","pricing_plan_id":"cebpf4jnsgd1na2vs0mg"},{"bike_id":"9b8be277-ab0e-4923-93d8-769b11e4cdb7","system_id":"levelo_inurba_marseille","lat":43.28055,"lon":5.38459,"is_reserved":false,"is_disabled":false,"rental_uris":{"android":"levelo://app?vid=9b8be277-ab0e-4923-93d8-769b11e4cdb7","ios":"levelo://app?vid=9b8be277-ab0e-4923-93d8-769b11e4cdb7"},"vehicle_type_id":"4","last_reported":1750868019,"current_range_meters":14800,"station_id":"","pricing_plan_id":"cebpf4jnsgd1na2vs0mg"},{"bike_id":"999358c1-ca11-4e82-a992-73b8d2972254","system_id":"levelo_inurba_marseille","lat":43.301465,"lon":5.374224,"is_reserved":false,"is_disabled":false,"rental_uris":{"android":"levelo://app?vid=999358c1-ca11-4e82-a992-73b8d2972254","ios":"levelo://app?vid=999358c1-ca11-4e82-a992-73b8d2972254"},"vehicle_type_id":"4","last_reported":1750868019,"current_range_meters":14800,"station_id":"ce4bgi92rcd13ifvqb90","pricing_plan_id":"cebpf4jnsgd1na2vs0mg"},{"bike_id":"a780639a-4ca1-4605-af9e-42a7389d9d25","system_id":"levelo_inurba_marseille","lat":43.285728,"lon":5.39498,"is_reserved":false,"is_disabled":false,"rental_uris":{"android":"levelo://app?vid=a780639a-4ca1-4605-af9e-42a7389d9d25","ios":"levelo://app?vid=a780639a-4ca1-4605-af9e-42a7389d9d25"},"vehicle_type_id":"4","last_reported":1750868019,"current_range_meters":14800,"station_id":"ce4bh292rcd13ifvqdg0","pricing_plan_id":"cebpf4jnsgd1na2vs0mg"},{"bike_id":"c7b96b91-37b8-4237-b5b1-23af5b4ad9e3","system_id":"levelo_inurba_marseille","lat":43.25583,"lon":5.38233,"is_reserved":false,"is_disabled":false,"rental_uris":{"android":"levelo://app?vid=c7b96b91-37b8-4237-b5b1-23af5b4ad9e3","ios":"levelo://app?vid=c7b96b91-37b8-4237-b5b1-23af5b4ad9e3"},"vehicle_type_id":"4","last_reported":1750868019,"current_range_meters":14800,"station_id":"ce4bhih2rcd13ifvqfs0","pricing_plan_id":"cebpf4jnsgd1na2vs0mg"},{"bike_id":"d7a01746-9cd6-42c1-82fd-af92a8198193","system_id":"levelo_inurba_marseille","lat":43.23179,"lon":5.39995,"is_reserved":false,"is_disabled":false,"rental_uris":{"android":"levelo://app?vid=d7a01746-9cd6-42c1-82fd-af92a8198193","ios":"levelo://app?vid=d7a01746-9cd6-42c1-82fd-af92a8198193"},"vehicle_type_id":"4","last_reported":1750868019,"current_range_meters":14800,"station_id":"ce4bhn12rcd13ifvqgqg","pricing_plan_id":"cebpf4jnsgd1na2vs0mg"},{"bike_id":"43463159-663c-47dc-ba90-fe1de823f6ca","system_id":"levelo_inurba_marseille","lat":43.22936,"lon":5.35379,"is_reserved":false,"is_disabled":false,"rental_uris":{"android":"levelo://app?vid=43463159-663c-47dc-ba90-fe1de823f6ca","ios":"levelo://app?vid=43463159-663c-47dc-ba90-fe1de823f6ca"},"vehicle_type_id":"4","last_reported":1750868019,"current_range_meters":14800,"station_id":"cpo3532slgdg3j2ikp40","pricing_plan_id":"cebpf4jnsgd1na2vs0mg"},{"bike_id":"56cb657f-bf1e-4027-853a-67789c0198bc","system_id":"levelo_inurba_marseille","lat":43.276292,"lon":5.361235,"is_reserved":false,"is_disabled":false,"rental_uris":{"android":"levelo://app?vid=56cb657f-bf1e-4027-853a-67789c0198bc","ios":"levelo://app?vid=56cb657f-bf1e-4027-853a-67789c0198bc"},"vehicle_type_id":"4","last_reported":1750868019,"current_range_meters":15200,"station_id":"ce4bgj92rcd13ifvqbe0","pricing_plan_id":"cebpf4jnsgd1na2vs0mg"},{"bike_id":"6d41fd2a-bcd0-4ee4-9af3-138b9e8fcac9","system_id":"levelo_inurba_marseille","lat":43.28267,"lon":5.35063,"is_reserved":false,"is_disabled":false,"rental_uris":{"android":"levelo://app?vid=6d41fd2a-bcd0-4ee4-9af3-138b9e8fcac9","ios":"levelo://app?vid=6d41fd2a-bcd0-4ee4-9af3-138b9e8fcac9"},"vehicle_type_id":"4","last_reported":1750868019,"current_range_meters":15200,"station_id":"ce4bhbp2rcd13ifvqerg","pricing_plan_id":"cebpf4jnsgd1na2vs0mg"},{"bike_id":"173a59f8-3515-47cd-8726-804fc8e9a63a","system_id":"levelo_inurba_marseille","lat":43.280015,"lon":5.416649,"is_reserved":false,"is_disabled":false,"rental_uris":{"android":"levelo://app?vid=173a59f8-3515-47cd-8726-804fc8e9a63a","ios":"levelo://app?vid=173a59f8-3515-47cd-8726-804fc8e9a63a"},"vehicle_type_id":"4","last_reported":1750868019,"current_range_meters":15200,"station_id":"ce4bho12rcd13ifvqh1g","pricing_plan_id":"cebpf4jnsgd1na2vs0mg"},{"bike_id":"0871c3e6-e8f1-4c1c-8436-754e80582f8b","system_id":"levelo_inurba_marseille","lat":43.28941,"lon":5.35712,"is_reserved":false,"is_disabled":false,"rental_uris":{"android":"levelo://app?vid=0871c3e6-e8f1-4c1c-8436-754e80582f8b","ios":"levelo://app?vid=0871c3e6-e8f1-4c1c-8436-754e80582f8b"},"vehicle_type_id":"4","last_reported":1750868019,"current_range_meters":16000,"station_id":"","pricing_plan_id":"cebpf4jnsgd1na2vs0mg"},{"bike_id":"83d64502-1fc6-4760-a2e0-8853a567ee49","system_id":"levelo_inurba_marseille","lat":43.331743,"lon":5.410473,"is_reserved":false,"is_disabled":false,"rental_uris":{"android":"levelo://app?vid=83d64502-1fc6-4760-a2e0-8853a567ee49","ios":"levelo://app?vid=83d64502-1fc6-4760-a2e0-8853a567ee49"},"vehicle_type_id":"4","last_reported":1750868019,"current_range_meters":16000,"station_id":"","pricing_plan_id":"cebpf4jnsgd1na2vs0mg"},{"bike_id":"871746e7-a217-4f0e-b254-2f8459277963","system_id":"levelo_inurba_marseille","lat":43.27377,"lon":5.36261,"is_reserved":false,"is_disabled":false,"rental_uris":{"android":"levelo://app?vid=871746e7-a217-4f0e-b254-2f8459277963","ios":"levelo://app?vid=871746e7-a217-4f0e-b254-2f8459277963"},"vehicle_type_id":"4","last_reported":1750868019,"current_range_meters":16000,"station_id":"ce4bhbh2rcd13ifvqeo0","pricing_plan_id":"cebpf4jnsgd1na2vs0mg"},{"bike_id":"0d78e0a1-60f5-4275-a85b-68455ab26961","system_id":"levelo_inurba_marseille","lat":43.32325,"lon":5.40617,"is_reserved":false,"is_disabled":false,"rental_uris":{"android":"levelo://app?vid=0d78e0a1-60f5-4275-a85b-68455ab26961","ios":"levelo://app?vid=0d78e0a1-60f5-4275-a85b-68455ab26961"},"vehicle_type_id":"4","last_reported":1750868019,"current_range_meters":16000,"station_id":"ce4bhq92rcd13ifvqhjg","pricing_plan_id":"cebpf4jnsgd1na2vs0mg"},{"bike_id":"81f770e2-c8d2-4cc0-9803-7c95f7ad9e60","system_id":"levelo_inurba_marseille","lat":43.304993,"lon":5.373435,"is_reserved":false,"is_disabled":false,"rental_uris":{"android":"levelo://app?vid=81f770e2-c8d2-4cc0-9803-7c95f7ad9e60","ios":"levelo://app?vid=81f770e2-c8d2-4cc0-9803-7c95f7ad9e60"},"vehicle_type_id":"4","last_reported":1750868019,"current_range_meters":16400,"station_id":"","pricing_plan_id":"cebpf4jnsgd1na2vs0mg"},{"bike_id":"29061dc8-b9f6-4d17-b1f7-bec06850c176","system_id":"levelo_inurba_marseille","lat":43.29304,"lon":5.37451,"is_reserved":false,"is_disabled":false,"rental_uris":{"android":"levelo://app?vid=29061dc8-b9f6-4d17-b1f7-bec06850c176","ios":"levelo://app?vid=29061dc8-b9f6-4d17-b1f7-bec06850c176"},"vehicle_type_id":"4","last_reported":1750868019,"current_range_meters":16400,"station_id":"ce4bgi12rcd13ifvqb70","pricing_plan_id":"cebpf4jnsgd1na2vs0mg"},{"bike_id":"ccf0acda-cbbc-41ad-9bc3-182fa112099f","system_id":"levelo_inurba_marseille","lat":43.29897,"lon":5.4367,"is_reserved":false,"is_disabled":false,"rental_uris":{"android":"levelo://app?vid=ccf0acda-cbbc-41ad-9bc3-182fa112099f","ios":"levelo://app?vid=ccf0acda-cbbc-41ad-9bc3-182fa112099f"},"vehicle_type_id":"4","last_reported":1750868019,"current_range_meters":16400,"station_id":"ce4bhpp2rcd13ifvqhfg","pricing_plan_id":"cebpf4jnsgd1na2vs0mg"},{"bike_id":"e4463e21-c0d0-4a48-80f8-2e34e960b2b1","system_id":"levelo_inurba_marseille","lat":43.25049,"lon":5.416454,"is_reserved":false,"is_disabled":false,"rental_uris":{"android":"levelo://app?vid=e4463e21-c0d0-4a48-80f8-2e34e960b2b1","ios":"levelo://app?vid=e4463e21-c0d0-4a48-80f8-2e34e960b2b1"},"vehicle_type_id":"4","last_reported":1750868019,"current_range_meters":16800,"station_id":"","pricing_plan_id":"cebpf4jnsgd1na2vs0mg"},{"bike_id":"75e16631-0d38-4ee8-b531-24d523c933be","system_id":"levelo_inurba_marseille","lat":43.31956,"lon":5.40822,"is_reserved":false,"is_disabled":false,"rental_uris":{"android":"levelo://app?vid=75e16631-0d38-4ee8-b531-24d523c933be","ios":"levelo://app?vid=75e16631-0d38-4ee8-b531-24d523c933be"},"vehicle_type_id":"4","last_reported":1750868019,"current_range_meters":16800,"station_id":"","pricing_plan_id":"cebpf4jnsgd1na2vs0mg"},{"bike_id":"5b99423b-a680-4ced-b7f0-ceb9fc75c186","system_id":"levelo_inurba_marseille","lat":43.27364,"lon":5.3625,"is_reserved":false,"is_disabled":false,"rental_uris":{"android":"levelo://app?vid=5b99423b-a680-4ced-b7f0-ceb9fc75c186","ios":"levelo://app?vid=5b99423b-a680-4ced-b7f0-ceb9fc75c186"},"vehicle_type_id":"4","last_reported":1750868019,"current_range_meters":16800,"station_id":"ce4bhbh2rcd13ifvqeo0","pricing_plan_id":"cebpf4jnsgd1na2vs0mg"},{"bike_id":"65292dd6-04e9-43fc-8875-698ec8ff714b","system_id":"levelo_inurba_marseille","lat":43.27381,"lon":5.3625,"is_reserved":false,"is_disabled":false,"rental_uris":{"android":"levelo://app?vid=65292dd6-04e9-43fc-8875-698ec8ff714b","ios":"levelo://app?vid=65292dd6-04e9-43fc-8875-698ec8ff714b"},"vehicle_type_id":"4","last_reported":1750868019,"current_range_meters":16800,"station_id":"ce4bhbh2rcd13ifvqeo0","pricing_plan_id":"cebpf4jnsgd1na2vs0mg"},{"bike_id":"12884000-b74f-45c9-a93e-3d8bc614cd6b","system_id":"levelo_inurba_marseille","lat":43.28416,"lon":5.34982,"is_reserved":false,"is_disabled":false,"rental_uris":{"android":"levelo://app?vid=12884000-b74f-45c9-a93e-3d8bc614cd6b","ios":"levelo://app?vid=12884000-b74f-45c9-a93e-3d8bc614cd6b"},"vehicle_type_id":"4","last_reported":1750868019,"current_range_meters":16800,"station_id":"ce4bhbh2rcd13ifvqepg","pricing_plan_id":"cebpf4jnsgd1na2vs0mg"},{"bike_id":"3b3af149-0e2f-40a9-a045-1040a0c577d6","system_id":"levelo_inurba_marseille","lat":43.23182,"lon":5.39985,"is_reserved":false,"is_disabled":false,"rental_uris":{"android":"levelo://app?vid=3b3af149-0e2f-40a9-a045-1040a0c577d6","ios":"levelo://app?vid=3b3af149-0e2f-40a9-a045-1040a0c577d6"},"vehicle_type_id":"4","last_reported":1750868019,"current_range_meters":16800,"station_id":"ce4bhn12rcd13ifvqgqg","pricing_plan_id":"cebpf4jnsgd1na2vs0mg"},{"bike_id":"2a91f26a-e4d5-463d-a77f-9f0d79bd2daf","system_id":"levelo_inurba_marseille","lat":43.23191,"lon":5.35549,"is_reserved":false,"is_disabled":false,"rental_uris":{"android":"levelo://app?vid=2a91f26a-e4d5-463d-a77f-9f0d79bd2daf","ios":"levelo://app?vid=2a91f26a-e4d5-463d-a77f-9f0d79bd2daf"},"vehicle_type_id":"4","last_reported":1750868019,"current_range_meters":16800,"station_id":"ce4bhu92rcd13ifvqi70","pricing_plan_id":"cebpf4jnsgd1na2vs0mg"},{"bike_id":"15b2721a-3664-49e1-9877-261c08daeef5","system_id":"levelo_inurba_marseille","lat":43.21199,"lon":5.35083,"is_reserved":false,"is_disabled":false,"rental_uris":{"android":"levelo://app?vid=15b2721a-3664-49e1-9877-261c08daeef5","ios":"levelo://app?vid=15b2721a-3664-49e1-9877-261c08daeef5"},"vehicle_type_id":"4","last_reported":1750868019,"current_range_meters":16800,"station_id":"st_cvj6sg6p6f1abm77japg","pricing_plan_id":"cebpf4jnsgd1na2vs0mg"},{"bike_id":"de0f7c2b-5974-4035-a240-8ed367c0e3f3","system_id":"levelo_inurba_marseille","lat":43.31976,"lon":5.37617,"is_reserved":false,"is_disabled":false,"rental_uris":{"android":"levelo://app?vid=de0f7c2b-5974-4035-a240-8ed367c0e3f3","ios":"levelo://app?vid=de0f7c2b-5974-4035-a240-8ed367c0e3f3"},"vehicle_type_id":"4","last_reported":1750868019,"current_range_meters":17200,"station_id":"","pricing_plan_id":"cebpf4jnsgd1na2vs0mg"},{"bike_id":"dddd3211-5a5e-431d-bef1-070c5ef0cfdc","system_id":"levelo_inurba_marseille","lat":43.29979,"lon":5.37182,"is_reserved":false,"is_disabled":false,"rental_uris":{"android":"levelo://app?vid=dddd3211-5a5e-431d-bef1-070c5ef0cfdc","ios":"levelo://app?vid=dddd3211-5a5e-431d-bef1-070c5ef0cfdc"},"vehicle_type_id":"4","last_reported":1750868019,"current_range_meters":17200,"station_id":"ce4bgr92rcd13ifvqc7g","pricing_plan_id":"cebpf4jnsgd1na2vs0mg"},{"bike_id":"2e0b4d00-5c54-47d7-ae7a-bf6c699c1a7e","system_id":"levelo_inurba_marseille","lat":43.27375,"lon":5.36258,"is_reserved":false,"is_disabled":false,"rental_uris":{"android":"levelo://app?vid=2e0b4d00-5c54-47d7-ae7a-bf6c699c1a7e","ios":"levelo://app?vid=2e0b4d00-5c54-47d7-ae7a-bf6c699c1a7e"},"vehicle_type_id":"4","last_reported":1750868019,"current_range_meters":17200,"station_id":"ce4bhbh2rcd13ifvqeo0","pricing_plan_id":"cebpf4jnsgd1na2vs0mg"},{"bike_id":"d20bf403-51de-4acc-9e5e-ea1de4e00fff","system_id":"levelo_inurba_marseille","lat":43.28417,"lon":5.34985,"is_reserved":false,"is_disabled":false,"rental_uris":{"android":"levelo://app?vid=d20bf403-51de-4acc-9e5e-ea1de4e00fff","ios":"levelo://app?vid=d20bf403-51de-4acc-9e5e-ea1de4e00fff"},"vehicle_type_id":"4","last_reported":1750868019,"current_range_meters":17200,"station_id":"ce4bhbh2rcd13ifvqepg","pricing_plan_id":"cebpf4jnsgd1na2vs0mg"},{"bike_id":"08666696-0716-449d-8627-dd68076d8274","system_id":"levelo_inurba_marseille","lat":43.28427,"lon":5.34989,"is_reserved":false,"is_disabled":false,"rental_uris":{"android":"levelo://app?vid=08666696-0716-449d-8627-dd68076d8274","ios":"levelo://app?vid=08666696-0716-449d-8627-dd68076d8274"},"vehicle_type_id":"4","last_reported":1750868019,"current_range_meters":17200,"station_id":"ce4bhbh2rcd13ifvqepg","pricing_plan_id":"cebpf4jnsgd1na2vs0mg"},{"bike_id":"1a3cc525-2338-4c8e-a7e4-30bf7af52bea","system_id":"levelo_inurba_marseille","lat":43.26216,"lon":5.37436,"is_reserved":false,"is_disabled":false,"rental_uris":{"android":"levelo://app?vid=1a3cc525-2338-4c8e-a7e4-30bf7af52bea","ios":"levelo://app?vid=1a3cc525-2338-4c8e-a7e4-30bf7af52bea"},"vehicle_type_id":"4","last_reported":1750868019,"current_range_meters":17200,"station_id":"ce4bhgp2rcd13ifvqfc0","pricing_plan_id":"cebpf4jnsgd1na2vs0mg"},{"bike_id":"9c8225b7-2c75-4566-b3e0-ae439eaef4a8","system_id":"levelo_inurba_marseille","lat":43.27989,"lon":5.41646,"is_reserved":false,"is_disabled":false,"rental_uris":{"android":"levelo://app?vid=9c8225b7-2c75-4566-b3e0-ae439eaef4a8","ios":"levelo://app?vid=9c8225b7-2c75-4566-b3e0-ae439eaef4a8"},"vehicle_type_id":"4","last_reported":1750868019,"current_range_meters":17200,"station_id":"ce4bho12rcd13ifvqh1g","pricing_plan_id":"cebpf4jnsgd1na2vs0mg"},{"bike_id":"70a87e8b-7ad1-4bdf-b181-5e2fc38709cd","system_id":"levelo_inurba_marseille","lat":43.29899,"lon":5.43657,"is_reserved":false,"is_disabled":false,"rental_uris":{"android":"levelo://app?vid=70a87e8b-7ad1-4bdf-b181-5e2fc38709cd","ios":"levelo://app?vid=70a87e8b-7ad1-4bdf-b181-5e2fc38709cd"},"vehicle_type_id":"4","last_reported":1750868019,"current_range_meters":17200,"station_id":"ce4bhpp2rcd13ifvqhfg","pricing_plan_id":"cebpf4jnsgd1na2vs0mg"},{"bike_id":"b4e69efd-2590-4114-ae91-50a43031ad7a","system_id":"levelo_inurba_marseille","lat":43.31038,"lon":5.37886,"is_reserved":false,"is_disabled":false,"rental_uris":{"android":"levelo://app?vid=b4e69efd-2590-4114-ae91-50a43031ad7a","ios":"levelo://app?vid=b4e69efd-2590-4114-ae91-50a43031ad7a"},"vehicle_type_id":"4","last_reported":1750868019,"current_range_meters":17600,"station_id":"","pricing_plan_id":"cebpf4jnsgd1na2vs0mg"},{"bike_id":"9eef2323-f181-4fc2-b748-09d868340ecc","system_id":"levelo_inurba_marseille","lat":43.28695,"lon":5.35063,"is_reserved":false,"is_disabled":false,"rental_uris":{"android":"levelo://app?vid=9eef2323-f181-4fc2-b748-09d868340ecc","ios":"levelo://app?vid=9eef2323-f181-4fc2-b748-09d868340ecc"},"vehicle_type_id":"4","last_reported":1750868019,"current_range_meters":17600,"station_id":"ce4bhch2rcd13ifvqeug","pricing_plan_id":"cebpf4jnsgd1na2vs0mg"},{"bike_id":"4b6cae39-bd9a-4618-88af-f7942a48538e","system_id":"levelo_inurba_marseille","lat":43.26573,"lon":5.39,"is_reserved":false,"is_disabled":false,"rental_uris":{"android":"levelo://app?vid=4b6cae39-bd9a-4618-88af-f7942a48538e","ios":"levelo://app?vid=4b6cae39-bd9a-4618-88af-f7942a48538e"},"vehicle_type_id":"4","last_reported":1750868019,"current_range_meters":17600,"station_id":"ce4bhe12rcd13ifvqf30","pricing_plan_id":"cebpf4jnsgd1na2vs0mg"},{"bike_id":"16f1ee3a-adec-426b-848e-406eb86c03c2","system_id":"levelo_inurba_marseille","lat":43.28148,"lon":5.42648,"is_reserved":false,"is_disabled":false,"rental_uris":{"android":"levelo://app?vid=16f1ee3a-adec-426b-848e-406eb86c03c2","ios":"levelo://app?vid=16f1ee3a-adec-426b-848e-406eb86c03c2"},"vehicle_type_id":"4","last_reported":1750868019,"current_range_meters":17600,"station_id":"ce4bhnh2rcd13ifvqgug","pricing_plan_id":"cebpf4jnsgd1na2vs0mg"},{"bike_id":"03dc21a3-9e19-418e-bec4-f4be330f736d","system_id":"levelo_inurba_marseille","lat":43.33024,"lon":5.39047,"is_reserved":false,"is_disabled":false,"rental_uris":{"android":"levelo://app?vid=03dc21a3-9e19-418e-bec4-f4be330f736d","ios":"levelo://app?vid=03dc21a3-9e19-418e-bec4-f4be330f736d"},"vehicle_type_id":"4","last_reported":1750868019,"current_range_meters":17600,"station_id":"ce4bhr92rcd13ifvqhrg","pricing_plan_id":"cebpf4jnsgd1na2vs0mg"},{"bike_id":"4bfbc974-5d25-43c1-81e3-3f38970b7e0d","system_id":"levelo_inurba_marseille","lat":43.21188,"lon":5.35069,"is_reserved":false,"is_disabled":false,"rental_uris":{"android":"levelo://app?vid=4bfbc974-5d25-43c1-81e3-3f38970b7e0d","ios":"levelo://app?vid=4bfbc974-5d25-43c1-81e3-3f38970b7e0d"},"vehicle_type_id":"4","last_reported":1750868019,"current_range_meters":17600,"station_id":"st_cvj6sg6p6f1abm77japg","pricing_plan_id":"cebpf4jnsgd1na2vs0mg"},{"bike_id":"4b8da722-ee9e-48a4-a5e5-3a8a10364708","system_id":"levelo_inurba_marseille","lat":43.31225,"lon":5.37815,"is_reserved":false,"is_disabled":false,"rental_uris":{"android":"levelo://app?vid=4b8da722-ee9e-48a4-a5e5-3a8a10364708","ios":"levelo://app?vid=4b8da722-ee9e-48a4-a5e5-3a8a10364708"},"vehicle_type_id":"4","last_reported":1750868019,"current_range_meters":18000,"station_id":"","pricing_plan_id":"cebpf4jnsgd1na2vs0mg"},{"bike_id":"c3d951ea-3701-4d76-8e41-09648beae56a","system_id":"levelo_inurba_marseille","lat":43.248606,"lon":5.373589,"is_reserved":false,"is_disabled":false,"rental_uris":{"android":"levelo://app?vid=c3d951ea-3701-4d76-8e41-09648beae56a","ios":"levelo://app?vid=c3d951ea-3701-4d76-8e41-09648beae56a"},"vehicle_type_id":"4","last_reported":1750868019,"current_range_meters":18000,"station_id":"","pricing_plan_id":"cebpf4jnsgd1na2vs0mg"},{"bike_id":"eb47095a-2b2e-478b-aeac-0b73e2938fa7","system_id":"levelo_inurba_marseille","lat":43.22509,"lon":5.34788,"is_reserved":false,"is_disabled":false,"rental_uris":{"android":"levelo://app?vid=eb47095a-2b2e-478b-aeac-0b73e2938fa7","ios":"levelo://app?vid=eb47095a-2b2e-478b-aeac-0b73e2938fa7"},"vehicle_type_id":"4","last_reported":1750868019,"current_range_meters":18000,"station_id":"","pricing_plan_id":"cebpf4jnsgd1na2vs0mg"},{"bike_id":"c86d264e-e6a9-4696-a44b-00fbd257fe8c","system_id":"levelo_inurba_marseille","lat":43.284233,"lon":5.349978,"is_reserved":false,"is_disabled":false,"rental_uris":{"android":"levelo://app?vid=c86d264e-e6a9-4696-a44b-00fbd257fe8c","ios":"levelo://app?vid=c86d264e-e6a9-4696-a44b-00fbd257fe8c"},"vehicle_type_id":"4","last_reported":1750868019,"current_range_meters":18000,"station_id":"ce4bhbh2rcd13ifvqepg","pricing_plan_id":"cebpf4jnsgd1na2vs0mg"},{"bike_id":"bdc5d3f2-1ff3-4c06-ad56-df4b589ddd4c","system_id":"levelo_inurba_marseille","lat":43.2481,"lon":5.37456,"is_reserved":false,"is_disabled":false,"rental_uris":{"android":"levelo://app?vid=bdc5d3f2-1ff3-4c06-ad56-df4b589ddd4c","ios":"levelo://app?vid=bdc5d3f2-1ff3-4c06-ad56-df4b589ddd4c"},"vehicle_type_id":"4","last_reported":1750868019,"current_range_meters":18000,"station_id":"ce4bhgh2rcd13ifvqfb0","pricing_plan_id":"cebpf4jnsgd1na2vs0mg"},{"bike_id":"4c4beeda-5e20-4ae3-8293-6689e8c2daa4","system_id":"levelo_inurba_marseille","lat":43.254936,"lon":5.376556,"is_reserved":false,"is_disabled":false,"rental_uris":{"android":"levelo://app?vid=4c4beeda-5e20-4ae3-8293-6689e8c2daa4","ios":"levelo://app?vid=4c4beeda-5e20-4ae3-8293-6689e8c2daa4"},"vehicle_type_id":"4","last_reported":1750868019,"current_range_meters":18000,"station_id":"ce4bhh12rcd13ifvqff0","pricing_plan_id":"cebpf4jnsgd1na2vs0mg"},{"bike_id":"2fde9df2-29d4-445f-baf5-6a6b42c6689d","system_id":"levelo_inurba_marseille","lat":43.271795,"lon":5.409928,"is_reserved":false,"is_disabled":false,"rental_uris":{"android":"levelo://app?vid=2fde9df2-29d4-445f-baf5-6a6b42c6689d","ios":"levelo://app?vid=2fde9df2-29d4-445f-baf5-6a6b42c6689d"},"vehicle_type_id":"4","last_reported":1750868019,"current_range_meters":18000,"station_id":"ce4bhl12rcd13ifvqgf0","pricing_plan_id":"cebpf4jnsgd1na2vs0mg"},{"bike_id":"b935579a-e9d3-4ccf-a111-a22b8dbf997d","system_id":"levelo_inurba_marseille","lat":43.21188,"lon":5.35072,"is_reserved":false,"is_disabled":false,"rental_uris":{"android":"levelo://app?vid=b935579a-e9d3-4ccf-a111-a22b8dbf997d","ios":"levelo://app?vid=b935579a-e9d3-4ccf-a111-a22b8dbf997d"},"vehicle_type_id":"4","last_reported":1750868019,"current_range_meters":18000,"station_id":"st_cvj6sg6p6f1abm77japg","pricing_plan_id":"cebpf4jnsgd1na2vs0mg"},{"bike_id":"f47876d7-9c85-474e-92c5-7a242e08b67c","system_id":"levelo_inurba_marseille","lat":43.30571,"lon":5.37577,"is_reserved":false,"is_disabled":false,"rental_uris":{"android":"levelo://app?vid=f47876d7-9c85-474e-92c5-7a242e08b67c","ios":"levelo://app?vid=f47876d7-9c85-474e-92c5-7a242e08b67c"},"vehicle_type_id":"4","last_reported":1750868019,"current_range_meters":18800,"station_id":"","pricing_plan_id":"cebpf4jnsgd1na2vs0mg"},{"bike_id":"37c44160-f71f-4c0f-83d3-768bd2958cf3","system_id":"levelo_inurba_marseille","lat":43.28418,"lon":5.37512,"is_reserved":false,"is_disabled":false,"rental_uris":{"android":"levelo://app?vid=37c44160-f71f-4c0f-83d3-768bd2958cf3","ios":"levelo://app?vid=37c44160-f71f-4c0f-83d3-768bd2958cf3"},"vehicle_type_id":"4","last_reported":1750868019,"current_range_meters":18800,"station_id":"ce4bh412rcd13ifvqds0","pricing_plan_id":"cebpf4jnsgd1na2vs0mg"},{"bike_id":"414d9bfa-97ec-4194-a3a3-27c9e14d3638","system_id":"levelo_inurba_marseille","lat":43.28277,"lon":5.35082,"is_reserved":false,"is_disabled":false,"rental_uris":{"android":"levelo://app?vid=414d9bfa-97ec-4194-a3a3-27c9e14d3638","ios":"levelo://app?vid=414d9bfa-97ec-4194-a3a3-27c9e14d3638"},"vehicle_type_id":"4","last_reported":1750868019,"current_range_meters":18800,"station_id":"ce4bhbp2rcd13ifvqerg","pricing_plan_id":"cebpf4jnsgd1na2vs0mg"},{"bike_id":"7b079504-00bc-44c8-aca5-c0951db08526","system_id":"levelo_inurba_marseille","lat":43.26553,"lon":5.3906,"is_reserved":false,"is_disabled":false,"rental_uris":{"android":"levelo://app?vid=7b079504-00bc-44c8-aca5-c0951db08526","ios":"levelo://app?vid=7b079504-00bc-44c8-aca5-c0951db08526"},"vehicle_type_id":"4","last_reported":1750868019,"current_range_meters":18800,"station_id":"ce4bhe12rcd13ifvqf30","pricing_plan_id":"cebpf4jnsgd1na2vs0mg"},{"bike_id":"18e69da0-da66-42f2-854c-820ed38d27f7","system_id":"levelo_inurba_marseille","lat":43.267846,"lon":5.394171,"is_reserved":false,"is_disabled":false,"rental_uris":{"android":"levelo://app?vid=18e69da0-da66-42f2-854c-820ed38d27f7","ios":"levelo://app?vid=18e69da0-da66-42f2-854c-820ed38d27f7"},"vehicle_type_id":"4","last_reported":1750868019,"current_range_meters":18800,"station_id":"ce4bhh12rcd13ifvqfg0","pricing_plan_id":"cebpf4jnsgd1na2vs0mg"},{"bike_id":"50f84df9-4cd1-4b2d-b317-b470e2a3dee3","system_id":"levelo_inurba_marseille","lat":43.28167,"lon":5.42635,"is_reserved":false,"is_disabled":false,"rental_uris":{"android":"levelo://app?vid=50f84df9-4cd1-4b2d-b317-b470e2a3dee3","ios":"levelo://app?vid=50f84df9-4cd1-4b2d-b317-b470e2a3dee3"},"vehicle_type_id":"4","last_reported":1750868019,"current_range_meters":18800,"station_id":"ce4bhnh2rcd13ifvqgug","pricing_plan_id":"cebpf4jnsgd1na2vs0mg"},{"bike_id":"f1695973-e89c-4c07-842e-d785e6c34567","system_id":"levelo_inurba_marseille","lat":43.31079,"lon":5.40112,"is_reserved":false,"is_disabled":false,"rental_uris":{"android":"levelo://app?vid=f1695973-e89c-4c07-842e-d785e6c34567","ios":"levelo://app?vid=f1695973-e89c-4c07-842e-d785e6c34567"},"vehicle_type_id":"4","last_reported":1750868019,"current_range_meters":19200,"station_id":"","pricing_plan_id":"cebpf4jnsgd1na2vs0mg"},{"bike_id":"2b95c614-e1fd-4eac-a284-bfb8b159ed4b","system_id":"levelo_inurba_marseille","lat":43.27067,"lon":5.422862,"is_reserved":false,"is_disabled":false,"rental_uris":{"android":"levelo://app?vid=2b95c614-e1fd-4eac-a284-bfb8b159ed4b","ios":"levelo://app?vid=2b95c614-e1fd-4eac-a284-bfb8b159ed4b"},"vehicle_type_id":"4","last_reported":1750868019,"current_range_meters":19200,"station_id":"","pricing_plan_id":"cebpf4jnsgd1na2vs0mg"},{"bike_id":"2689ebc2-bd44-47a9-be1f-800e3f8dc59f","system_id":"levelo_inurba_marseille","lat":43.306519,"lon":5.401002,"is_reserved":false,"is_disabled":false,"rental_uris":{"android":"levelo://app?vid=2689ebc2-bd44-47a9-be1f-800e3f8dc59f","ios":"levelo://app?vid=2689ebc2-bd44-47a9-be1f-800e3f8dc59f"},"vehicle_type_id":"4","last_reported":1750868019,"current_range_meters":19200,"station_id":"ce4bh112rcd13ifvqda0","pricing_plan_id":"cebpf4jnsgd1na2vs0mg"},{"bike_id":"c7b63e7b-3e80-4969-b6d8-5184f56ed7aa","system_id":"levelo_inurba_marseille","lat":43.28264,"lon":5.35057,"is_reserved":false,"is_disabled":false,"rental_uris":{"android":"levelo://app?vid=c7b63e7b-3e80-4969-b6d8-5184f56ed7aa","ios":"levelo://app?vid=c7b63e7b-3e80-4969-b6d8-5184f56ed7aa"},"vehicle_type_id":"4","last_reported":1750868019,"current_range_meters":19200,"station_id":"ce4bhbp2rcd13ifvqerg","pricing_plan_id":"cebpf4jnsgd1na2vs0mg"},{"bike_id":"c2902f55-c855-48e1-b351-16b0f0aba8c1","system_id":"levelo_inurba_marseille","lat":43.28628,"lon":5.35095,"is_reserved":false,"is_disabled":false,"rental_uris":{"android":"levelo://app?vid=c2902f55-c855-48e1-b351-16b0f0aba8c1","ios":"levelo://app?vid=c2902f55-c855-48e1-b351-16b0f0aba8c1"},"vehicle_type_id":"4","last_reported":1750868019,"current_range_meters":19200,"station_id":"ce4bhch2rcd13ifvqeug","pricing_plan_id":"cebpf4jnsgd1na2vs0mg"},{"bike_id":"a12417ec-bd6d-424b-bf98-c5c6e382fbcd","system_id":"levelo_inurba_marseille","lat":43.23223,"lon":5.35516,"is_reserved":false,"is_disabled":false,"rental_uris":{"android":"levelo://app?vid=a12417ec-bd6d-424b-bf98-c5c6e382fbcd","ios":"levelo://app?vid=a12417ec-bd6d-424b-bf98-c5c6e382fbcd"},"vehicle_type_id":"4","last_reported":1750868019,"current_range_meters":19200,"station_id":"ce4bhu92rcd13ifvqi70","pricing_plan_id":"cebpf4jnsgd1na2vs0mg"},{"bike_id":"ee739a73-b8d3-4e42-8ddc-82c5d9809095","system_id":"levelo_inurba_marseille","lat":43.269316,"lon":5.402405,"is_reserved":false,"is_disabled":false,"rental_uris":{"android":"levelo://app?vid=ee739a73-b8d3-4e42-8ddc-82c5d9809095","ios":"levelo://app?vid=ee739a73-b8d3-4e42-8ddc-82c5d9809095"},"vehicle_type_id":"4","last_reported":1750868019,"current_range_meters":19200,"station_id":"cjm6bp8fraef2m0cb0m0","pricing_plan_id":"cebpf4jnsgd1na2vs0mg"},{"bike_id":"ef749440-15d0-43b7-abc5-c6f8a6c3384c","system_id":"levelo_inurba_marseille","lat":43.21195,"lon":5.3507,"is_reserved":false,"is_disabled":false,"rental_uris":{"android":"levelo://app?vid=ef749440-15d0-43b7-abc5-c6f8a6c3384c","ios":"levelo://app?vid=ef749440-15d0-43b7-abc5-c6f8a6c3384c"},"vehicle_type_id":"4","last_reported":1750868019,"current_range_meters":19200,"station_id":"st_cvj6sg6p6f1abm77japg","pricing_plan_id":"cebpf4jnsgd1na2vs0mg"},{"bike_id":"40d1ae84-9bb5-4ea9-83e6-72071f5c1939","system_id":"levelo_inurba_marseille","lat":43.29912,"lon":5.37646,"is_reserved":false,"is_disabled":false,"rental_uris":{"android":"levelo://app?vid=40d1ae84-9bb5-4ea9-83e6-72071f5c1939","ios":"levelo://app?vid=40d1ae84-9bb5-4ea9-83e6-72071f5c1939"},"vehicle_type_id":"4","last_reported":1750868019,"current_range_meters":19600,"station_id":"","pricing_plan_id":"cebpf4jnsgd1na2vs0mg"},{"bike_id":"7955c207-4f12-4121-b9a1-09bcb47367b2","system_id":"levelo_inurba_marseille","lat":43.28463,"lon":5.459766,"is_reserved":false,"is_disabled":false,"rental_uris":{"android":"levelo://app?vid=7955c207-4f12-4121-b9a1-09bcb47367b2","ios":"levelo://app?vid=7955c207-4f12-4121-b9a1-09bcb47367b2"},"vehicle_type_id":"4","last_reported":1750868019,"current_range_meters":19600,"station_id":"","pricing_plan_id":"cebpf4jnsgd1na2vs0mg"},{"bike_id":"930cbb38-3f58-4760-926e-ef7908d05967","system_id":"levelo_inurba_marseille","lat":43.28411,"lon":5.37521,"is_reserved":false,"is_disabled":false,"rental_uris":{"android":"levelo://app?vid=930cbb38-3f58-4760-926e-ef7908d05967","ios":"levelo://app?vid=930cbb38-3f58-4760-926e-ef7908d05967"},"vehicle_type_id":"4","last_reported":1750868019,"current_range_meters":19600,"station_id":"ce4bh412rcd13ifvqds0","pricing_plan_id":"cebpf4jnsgd1na2vs0mg"},{"bike_id":"534fbef2-dbe5-41cc-935b-d2235e96d817","system_id":"levelo_inurba_marseille","lat":43.28665,"lon":5.36341,"is_reserved":false,"is_disabled":false,"rental_uris":{"android":"levelo://app?vid=534fbef2-dbe5-41cc-935b-d2235e96d817","ios":"levelo://app?vid=534fbef2-dbe5-41cc-935b-d2235e96d817"},"vehicle_type_id":"4","last_reported":1750868019,"current_range_meters":19600,"station_id":"ce4bhah2rcd13ifvqej0","pricing_plan_id":"cebpf4jnsgd1na2vs0mg"},{"bike_id":"af7f5b30-4ee7-44dd-99dc-d3f19e47f0d3","system_id":"levelo_inurba_marseille","lat":43.29004,"lon":5.35624,"is_reserved":false,"is_disabled":false,"rental_uris":{"android":"levelo://app?vid=af7f5b30-4ee7-44dd-99dc-d3f19e47f0d3","ios":"levelo://app?vid=af7f5b30-4ee7-44dd-99dc-d3f19e47f0d3"},"vehicle_type_id":"4","last_reported":1750868019,"current_range_meters":19600,"station_id":"ce4bhb92rcd13ifvqen0","pricing_plan_id":"cebpf4jnsgd1na2vs0mg"},{"bike_id":"74da29d3-656b-486e-99bf-4eb4e23b9b35","system_id":"levelo_inurba_marseille","lat":43.2655,"lon":5.37288,"is_reserved":false,"is_disabled":false,"rental_uris":{"android":"levelo://app?vid=74da29d3-656b-486e-99bf-4eb4e23b9b35","ios":"levelo://app?vid=74da29d3-656b-486e-99bf-4eb4e23b9b35"},"vehicle_type_id":"4","last_reported":1750868019,"current_range_meters":19600,"station_id":"ce4bhg12rcd13ifvqf70","pricing_plan_id":"cebpf4jnsgd1na2vs0mg"},{"bike_id":"d05edab7-f30d-4e7a-bc93-3002a9d6152c","system_id":"levelo_inurba_marseille","lat":43.239598,"lon":5.366255,"is_reserved":false,"is_disabled":false,"rental_uris":{"android":"levelo://app?vid=d05edab7-f30d-4e7a-bc93-3002a9d6152c","ios":"levelo://app?vid=d05edab7-f30d-4e7a-bc93-3002a9d6152c"},"vehicle_type_id":"4","last_reported":1750868019,"current_range_meters":19600,"station_id":"ce4bhi12rcd13ifvqfp0","pricing_plan_id":"cebpf4jnsgd1na2vs0mg"},{"bike_id":"569de636-7886-4b8f-840a-70773fb67af5","system_id":"levelo_inurba_marseille","lat":43.27216,"lon":5.40969,"is_reserved":false,"is_disabled":false,"rental_uris":{"android":"levelo://app?vid=569de636-7886-4b8f-840a-70773fb67af5","ios":"levelo://app?vid=569de636-7886-4b8f-840a-70773fb67af5"},"vehicle_type_id":"4","last_reported":1750868019,"current_range_meters":20000,"station_id":"","pricing_plan_id":"cebpf4jnsgd1na2vs0mg"},{"bike_id":"5a65bdf4-48cf-4f74-a526-7aaf2db87c2b","system_id":"levelo_inurba_marseille","lat":43.28945,"lon":5.36639,"is_reserved":false,"is_disabled":false,"rental_uris":{"android":"levelo://app?vid=5a65bdf4-48cf-4f74-a526-7aaf2db87c2b","ios":"levelo://app?vid=5a65bdf4-48cf-4f74-a526-7aaf2db87c2b"},"vehicle_type_id":"4","last_reported":1750868019,"current_range_meters":20000,"station_id":"ce4bhap2rcd13ifvqek0","pricing_plan_id":"cebpf4jnsgd1na2vs0mg"},{"bike_id":"973fcb8a-ed2e-4080-853e-4546cebd3426","system_id":"levelo_inurba_marseille","lat":43.2862,"lon":5.351,"is_reserved":false,"is_disabled":false,"rental_uris":{"android":"levelo://app?vid=973fcb8a-ed2e-4080-853e-4546cebd3426","ios":"levelo://app?vid=973fcb8a-ed2e-4080-853e-4546cebd3426"},"vehicle_type_id":"4","last_reported":1750868019,"current_range_meters":20000,"station_id":"ce4bhch2rcd13ifvqeug","pricing_plan_id":"cebpf4jnsgd1na2vs0mg"},{"bike_id":"6cb680b6-7776-492c-a456-720c3587f32a","system_id":"levelo_inurba_marseille","lat":43.2991,"lon":5.43685,"is_reserved":false,"is_disabled":false,"rental_uris":{"android":"levelo://app?vid=6cb680b6-7776-492c-a456-720c3587f32a","ios":"levelo://app?vid=6cb680b6-7776-492c-a456-720c3587f32a"},"vehicle_type_id":"4","last_reported":1750868019,"current_range_meters":20000,"station_id":"ce4bhpp2rcd13ifvqhfg","pricing_plan_id":"cebpf4jnsgd1na2vs0mg"},{"bike_id":"a79643d7-e308-4ace-b9fb-2552ca02f0c0","system_id":"levelo_inurba_marseille","lat":43.33023,"lon":5.39034,"is_reserved":false,"is_disabled":false,"rental_uris":{"android":"levelo://app?vid=a79643d7-e308-4ace-b9fb-2552ca02f0c0","ios":"levelo://app?vid=a79643d7-e308-4ace-b9fb-2552ca02f0c0"},"vehicle_type_id":"4","last_reported":1750868019,"current_range_meters":20000,"station_id":"ce4bhr92rcd13ifvqhrg","pricing_plan_id":"cebpf4jnsgd1na2vs0mg"},{"bike_id":"781c78f2-7834-483e-9f12-c462021cb5e6","system_id":"levelo_inurba_marseille","lat":43.24165,"lon":5.36398,"is_reserved":false,"is_disabled":false,"rental_uris":{"android":"levelo://app?vid=781c78f2-7834-483e-9f12-c462021cb5e6","ios":"levelo://app?vid=781c78f2-7834-483e-9f12-c462021cb5e6"},"vehicle_type_id":"4","last_reported":1750868019,"current_range_meters":20000,"station_id":"cpo36qri1sfpv3e86is0","pricing_plan_id":"cebpf4jnsgd1na2vs0mg"},{"bike_id":"6141e520-a156-40cb-a033-d756af7d7a62","system_id":"levelo_inurba_marseille","lat":43.211995,"lon":5.350558,"is_reserved":false,"is_disabled":false,"rental_uris":{"android":"levelo://app?vid=6141e520-a156-40cb-a033-d756af7d7a62","ios":"levelo://app?vid=6141e520-a156-40cb-a033-d756af7d7a62"},"vehicle_type_id":"4","last_reported":1750868019,"current_range_meters":20000,"station_id":"st_cvj6sg6p6f1abm77japg","pricing_plan_id":"cebpf4jnsgd1na2vs0mg"},{"bike_id":"1a500985-c816-4d83-a038-4a629f10a813","system_id":"levelo_inurba_marseille","lat":43.211928,"lon":5.350748,"is_reserved":false,"is_disabled":false,"rental_uris":{"android":"levelo://app?vid=1a500985-c816-4d83-a038-4a629f10a813","ios":"levelo://app?vid=1a500985-c816-4d83-a038-4a629f10a813"},"vehicle_type_id":"4","last_reported":1750868019,"current_range_meters":20000,"station_id":"st_cvj6sg6p6f1abm77japg","pricing_plan_id":"cebpf4jnsgd1na2vs0mg"},{"bike_id":"2071ff3f-536a-4747-9e50-d85d0e60def3","system_id":"levelo_inurba_marseille","lat":43.2119,"lon":5.35073,"is_reserved":false,"is_disabled":false,"rental_uris":{"android":"levelo://app?vid=2071ff3f-536a-4747-9e50-d85d0e60def3","ios":"levelo://app?vid=2071ff3f-536a-4747-9e50-d85d0e60def3"},"vehicle_type_id":"4","last_reported":1750868019,"current_range_meters":20400,"station_id":"","pricing_plan_id":"cebpf4jnsgd1na2vs0mg"},{"bike_id":"d565ec36-c103-42db-b30a-02c479395322","system_id":"levelo_inurba_marseille","lat":43.294142,"lon":5.428637,"is_reserved":false,"is_disabled":false,"rental_uris":{"android":"levelo://app?vid=d565ec36-c103-42db-b30a-02c479395322","ios":"levelo://app?vid=d565ec36-c103-42db-b30a-02c479395322"},"vehicle_type_id":"4","last_reported":1750868019,"current_range_meters":20400,"station_id":"","pricing_plan_id":"cebpf4jnsgd1na2vs0mg"},{"bike_id":"382b3014-5f9a-4e06-bc5f-ab0aea20c5e0","system_id":"levelo_inurba_marseille","lat":43.30117,"lon":5.36591,"is_reserved":false,"is_disabled":false,"rental_uris":{"android":"levelo://app?vid=382b3014-5f9a-4e06-bc5f-ab0aea20c5e0","ios":"levelo://app?vid=382b3014-5f9a-4e06-bc5f-ab0aea20c5e0"},