{"last_updated":1702523247,"ttl":30,"version":"2.2","data":{"bikes":[{"bike_id":"ce1fe5e0-8402-4458-a049-ee0416312f0d","system_id":"levelo_inurba_marseille","lat":43.314811,"lon":5.373103,"is_reserved":false,"is_disabled":false,"rental_uris":{"android":"levelo://app?vid=ce1fe5e0-8402-4458-a049-ee0416312f0d","ios":"levelo://app?vid=ce1fe5e0-8402-4458-a049-ee0416312f0d"},"vehicle_type_id":"4","last_reported":1702523247,"current_range_meters":28400,"station_id":"ce4bgt12rcd13ifvqcd0","pricing_plan_id":"free"},{"bike_id":"6957b6cd-c87d-470c-8998-d05b3e2d1c73","system_id":"levelo_inurba_marseille","lat":43.309039,"lon":5.371797,"is_reserved":false,"is_disabled":false,"rental_uris":{"android":"levelo://app?vid=6957b6cd-c87d-470c-8998-d05b3e2d1c73","ios":"levelo://app?vid=6957b6cd-c87d-470c-8998-d05b3e2d1c73"},"vehicle_type_id":"4","last_reported":1702523247,"current_range_meters":26800,"station_id":"ce4bguh2rcd13ifvqckg","pricing_plan_id":"free"},{"bike_id":"3f8b821f-e430-4a35-bf14-f8b6e777ea11","system_id":"levelo_inurba_marseille","lat":43.313939,"lon":5.375306,"is_reserved":false,"is_disabled":false,"rental_uris":{"android":"levelo://app?vid=3f8b821f-e430-4a35-bf14-f8b6e777ea11","ios":"levelo://app?vid=3f8b821f-e430-4a35-bf14-f8b6e777ea11"},"vehicle_type_id":"4","last_reported":1702523247,"current_range_meters":5600,"station_id":"","pricing_plan_id":"free"},{"bike_id":"955e4ab2-16e5-44e8-a986-a2f50ff96c06","system_id":"levelo_inurba_marseille","lat":43.305382,"lon":5.365389,"is_reserved":false,"is_disabled":false,"rental_uris":{"android":"levelo://app?vid=955e4ab2-16e5-44e8-a986-a2f50ff96c06","ios":"levelo://app?vid=955e4ab2-16e5-44e8-a986-a2f50ff96c06"},"vehicle_type_id":"4","last_reported":1702523247,"current_range_meters":24800,"station_id":"","pricing_plan_id":"free"},{"bike_id":"aa4b0b83-aa93-4c62-9e93-ad0a501ad28c","system_id":"levelo_inurba_marseille","lat":43.305989,"lon":5.37225,"is_reserved":false,"is_disabled":false,"rental_uris":{"android":"levelo://app?vid=aa4b0b83-aa93-4c62-9e93-ad0a501ad28c","ios":"levelo://app?vid=aa4b0b83-aa93-4c62-9e93-ad0a501ad28c"},"vehicle_type_id":"4","last_reported":1702523247,"current_range_meters":26800,"station_id":"ce4bgqh2rcd13ifvqc4g","pricing_plan_id":"free"},{"bike_id":"72e106e1-0bc3-4e27-a270-63a77598ff60","system_id":"levelo_inurba_marseille","lat":43.311131,"lon":5.377651,"is_reserved":false,"is_disabled":false,"rental_uris":{"android":"levelo://app?vid=72e106e1-0bc3-4e27-a270-63a77598ff60","ios":"levelo://app?vid=72e106e1-0bc3-4e27-a270-63a77598ff60"},"vehicle_type_id":"4","last_reported":1702523247,"current_range_meters":29200,"station_id":"ce4bgt92rcd13ifvqcg0","pricing_plan_id":"free"},{"bike_id":"94b30c82-8822-437b-a338-324ce421355c","system_id":"levelo_inurba_marseille","lat":43.311125,"lon":5.377624,"is_reserved":false,"is_disabled":false,"rental_uris":{"android":"levelo://app?vid=94b30c82-8822-437b-a338-324ce421355c","ios":"levelo://app?vid=94b30c82-8822-437b-a338-324ce421355c"},"vehicle_type_id":"4","last_reported":1702523247,"current_range_meters":27600,"station_id":"ce4bgt92rcd13ifvqcg0","pricing_plan_id":"free"},{"bike_id":"c007ab80-c099-4918-be17-3d4adef11cad","system_id":"levelo_inurba_marseille","lat":43.311125,"lon":5.377624,"is_reserved":false,"is_disabled":false,"rental_uris":{"android":"levelo://app?vid=c007ab80-c099-4918-be17-3d4adef11cad","ios":"levelo://app?vid=c007ab80-c099-4918-be17-3d4adef11cad"},"vehicle_type_id":"4","last_reported":1702523247,"current_range_meters":31200,"station_id":"ce4bgt92rcd13ifvqcg0","pricing_plan_id":"free"},{"bike_id":"5fb00d7f-411d-4d9b-aff1-79627335c7ac","system_id":"levelo_inurba_marseille","lat":43.307841,"lon":5.376482,"is_reserved":false,"is_disabled":false,"rental_uris":{"android":"levelo://app?vid=5fb00d7f-411d-4d9b-aff1-79627335c7ac","ios":"levelo://app?vid=5fb00d7f-411d-4d9b-aff1-79627335c7ac"},"vehicle_type_id":"4","last_reported":1702523247,"current_range_meters":27600,"station_id":"ce4bgv92rcd13ifvqcq0","pricing_plan_id":"free"},{"bike_id":"dc68debd-6203-4696-b9a5-55eea857c5a0","system_id":"levelo_inurba_marseille","lat":43.31714,"lon":5.37695,"is_reserved":false,"is_disabled":false,"rental_uris":{"android":"levelo://app?vid=dc68debd-6203-4696-b9a5-55eea857c5a0","ios":"levelo://app?vid=dc68debd-6203-4696-b9a5-55eea857c5a0"},"vehicle_type_id":"4","last_reported":1702523247,"current_range_meters":21200,"station_id":"ce4bgth2rcd13ifvqch0","pricing_plan_id":"free"},{"bike_id":"0885d377-ef62-4853-ad00-4571f901fd9f","system_id":"levelo_inurba_marseille","lat":43.30782,"lon":5.37653,"is_reserved":false,"is_disabled":false,"rental_uris":{"android":"levelo://app?vid=0885d377-ef62-4853-ad00-4571f901fd9f","ios":"levelo://app?vid=0885d377-ef62-4853-ad00-4571f901fd9f"},"vehicle_type_id":"4","last_reported":1702523247,"current_range_meters":28400,"station_id":"ce4bgv92rcd13ifvqcq0","pricing_plan_id":"free"},{"bike_id":"cd354860-34c6-4054-850a-3645947bc4c3","system_id":"levelo_inurba_marseille","lat":43.31697,"lon":5.37742,"is_reserved":false,"is_disabled":false,"rental_uris":{"android":"levelo://app?vid=cd354860-34c6-4054-850a-3645947bc4c3","ios":"levelo://app?vid=cd354860-34c6-4054-850a-3645947bc4c3"},"vehicle_type_id":"4","last_reported":1702523247,"current_range_meters":30800,"station_id":"ce4bgth2rcd13ifvqch0","pricing_plan_id":"free"},{"bike_id":"d8f5150b-ef1d-43ff-b55f-57d4a2eba966","system_id":"levelo_inurba_marseille","lat":43.315303,"lon":5.380237,"is_reserved":false,"is_disabled":false,"rental_uris":{"android":"levelo://app?vid=d8f5150b-ef1d-43ff-b55f-57d4a2eba966","ios":"levelo://app?vid=d8f5150b-ef1d-43ff-b55f-57d4a2eba966"},"vehicle_type_id":"4","last_reported":1702523247,"current_range_meters":15600,"station_id":"ce4bhsp2rcd13ifvqi50","pricing_plan_id":"free"},{"bike_id":"81bd0fa4-0462-4c0e-b45d-e3b550d8b0e9","system_id":"levelo_inurba_marseille","lat":43.315293,"lon":5.380349,"is_reserved":false,"is_disabled":false,"rental_uris":{"android":"levelo://app?vid=81bd0fa4-0462-4c0e-b45d-e3b550d8b0e9","ios":"levelo://app?vid=81bd0fa4-0462-4c0e-b45d-e3b550d8b0e9"},"vehicle_type_id":"4","last_reported":1702523247,"current_range_meters":14400,"station_id":"ce4bhsp2rcd13ifvqi50","pricing_plan_id":"free"},{"bike_id":"227b454f-cbfd-4a97-b4c2-968569f53a3b","system_id":"levelo_inurba_marseille","lat":43.315293,"lon":5.380349,"is_reserved":false,"is_disabled":false,"rental_uris":{"android":"levelo://app?vid=227b454f-cbfd-4a97-b4c2-968569f53a3b","ios":"levelo://app?vid=227b454f-cbfd-4a97-b4c2-968569f53a3b"},"vehicle_type_id":"4","last_reported":1702523247,"current_range_meters":26400,"station_id":"ce4bhsp2rcd13ifvqi50","pricing_plan_id":"free"},{"bike_id":"36c815c8-09ff-4011-9e99-aefc3395879e","system_id":"levelo_inurba_marseille","lat":43.308012,"lon":5.381511,"is_reserved":false,"is_disabled":false,"rental_uris":{"android":"levelo://app?vid=36c815c8-09ff-4011-9e99-aefc3395879e","ios":"levelo://app?vid=36c815c8-09ff-4011-9e99-aefc3395879e"},"vehicle_type_id":"4","last_reported":1702523247,"current_range_meters":14000,"station_id":"ce4bgt12rcd13ifvqce0","pricing_plan_id":"free"},{"bike_id":"c456afe1-eb7c-40ba-8fd3-208f3dcd6406","system_id":"levelo_inurba_marseille","lat":43.304606,"lon":5.379026,"is_reserved":false,"is_disabled":false,"rental_uris":{"android":"levelo://app?vid=c456afe1-eb7c-40ba-8fd3-208f3dcd6406","ios":"levelo://app?vid=c456afe1-eb7c-40ba-8fd3-208f3dcd6406"},"vehicle_type_id":"4","last_reported":1702523247,"current_range_meters":26000,"station_id":"ce4bgup2rcd13ifvqcn0","pricing_plan_id":"free"},{"bike_id":"b795cd07-df6b-4c4c-8507-2dcae79f9bad","system_id":"levelo_inurba_marseille","lat":43.30462,"lon":5.378967,"is_reserved":false,"is_disabled":false,"rental_uris":{"android":"levelo://app?vid=b795cd07-df6b-4c4c-8507-2dcae79f9bad","ios":"levelo://app?vid=b795cd07-df6b-4c4c-8507-2dcae79f9bad"},"vehicle_type_id":"4","last_reported":1702523247,"current_range_meters":0,"station_id":"ce4bgup2rcd13ifvqcn0","pricing_plan_id":"free"},{"bike_id":"8c6d566c-fd2c-4a1e-b0f3-9e4cf2d76ecc","system_id":"levelo_inurba_marseille","lat":43.319989,"lon":5.381477,"is_reserved":false,"is_disabled":false,"rental_uris":{"android":"levelo://app?vid=8c6d566c-fd2c-4a1e-b0f3-9e4cf2d76ecc","ios":"levelo://app?vid=8c6d566c-fd2c-4a1e-b0f3-9e4cf2d76ecc"},"vehicle_type_id":"4","last_reported":1702523247,"current_range_meters":7200,"station_id":"ce4bhr12rcd13ifvqhpg","pricing_plan_id":"free"},{"bike_id":"0a956dae-9fb6-40fc-b61a-5bb393e9a4f8","system_id":"levelo_inurba_marseille","lat":43.319959,"lon":5.381534,"is_reserved":false,"is_disabled":false,"rental_uris":{"android":"levelo://app?vid=0a956dae-9fb6-40fc-b61a-5bb393e9a4f8","ios":"levelo://app?vid=0a956dae-9fb6-40fc-b61a-5bb393e9a4f8"},"vehicle_type_id":"4","last_reported":1702523247,"current_range_meters":31200,"station_id":"ce4bhr12rcd13ifvqhpg","pricing_plan_id":"free"},{"bike_id":"41037219-91ff-45ce-b2d6-c53389d12989","system_id":"levelo_inurba_marseille","lat":43.313571,"lon":5.384829,"is_reserved":false,"is_disabled":false,"rental_uris":{"android":"levelo://app?vid=41037219-91ff-45ce-b2d6-c53389d12989","ios":"levelo://app?vid=41037219-91ff-45ce-b2d6-c53389d12989"},"vehicle_type_id":"4","last_reported":1702523247,"current_range_meters":30400,"station_id":"ce4bgt92rcd13ifvqcf0","pricing_plan_id":"free"},{"bike_id":"44e6df4e-899b-4c8f-be75-3e14f7574c68","system_id":"levelo_inurba_marseille","lat":43.299724,"lon":5.371829,"is_reserved":false,"is_disabled":false,"rental_uris":{"android":"levelo://app?vid=44e6df4e-899b-4c8f-be75-3e14f7574c68","ios":"levelo://app?vid=44e6df4e-899b-4c8f-be75-3e14f7574c68"},"vehicle_type_id":"4","last_reported":1702523247,"current_range_meters":26800,"station_id":"ce4bgr92rcd13ifvqc7g","pricing_plan_id":"free"},{"bike_id":"62c4f95f-ec48-4f8f-96b5-1da2ba2b0a34","system_id":"levelo_inurba_marseille","lat":43.311609,"lon":5.386894,"is_reserved":false,"is_disabled":false,"rental_uris":{"android":"levelo://app?vid=62c4f95f-ec48-4f8f-96b5-1da2ba2b0a34","ios":"levelo://app?vid=62c4f95f-ec48-4f8f-96b5-1da2ba2b0a34"},"vehicle_type_id":"4","last_reported":1702523247,"current_range_meters":11600,"station_id":"ce4bgv12rcd13ifvqcp0","pricing_plan_id":"free"},{"bike_id":"77a6c46d-d898-4e4f-8846-efa91689c7f0","system_id":"levelo_inurba_marseille","lat":43.302006,"lon":5.38065,"is_reserved":false,"is_disabled":false,"rental_uris":{"android":"levelo://app?vid=77a6c46d-d898-4e4f-8846-efa91689c7f0","ios":"levelo://app?vid=77a6c46d-d898-4e4f-8846-efa91689c7f0"},"vehicle_type_id":"4","last_reported":1702523247,"current_range_meters":0,"station_id":"","pricing_plan_id":"free"},{"bike_id":"681da060-ab5d-4ba9-a12d-8dbea438dc0a","system_id":"levelo_inurba_marseille","lat":43.31177,"lon":5.387069,"is_reserved":false,"is_disabled":false,"rental_uris":{"android":"levelo://app?vid=681da060-ab5d-4ba9-a12d-8dbea438dc0a","ios":"levelo://app?vid=681da060-ab5d-4ba9-a12d-8dbea438dc0a"},"vehicle_type_id":"4","last_reported":1702523247,"current_range_meters":28000,"station_id":"ce4bgv12rcd13ifvqcp0","pricing_plan_id":"free"},{"bike_id":"20fd4646-f8aa-47b3-9cea-15c5a29e280d","system_id":"levelo_inurba_marseille","lat":43.311702,"lon":5.387101,"is_reserved":false,"is_disabled":false,"rental_uris":{"android":"levelo://app?vid=20fd4646-f8aa-47b3-9cea-15c5a29e280d","ios":"levelo://app?vid=20fd4646-f8aa-47b3-9cea-15c5a29e280d"},"vehicle_type_id":"4","last_reported":1702523247,"current_range_meters":31600,"station_id":"ce4bgv12rcd13ifvqcp0","pricing_plan_id":"free"},{"bike_id":"75a4af66-12de-4fd2-b915-1addc661f6a6","system_id":"levelo_inurba_marseille","lat":43.311722,"lon":5.387247,"is_reserved":false,"is_disabled":false,"rental_uris":{"android":"levelo://app?vid=75a4af66-12de-4fd2-b915-1addc661f6a6","ios":"levelo://app?vid=75a4af66-12de-4fd2-b915-1addc661f6a6"},"vehicle_type_id":"4","last_reported":1702523247,"current_range_meters":27200,"station_id":"ce4bgv12rcd13ifvqcp0","pricing_plan_id":"free"},{"bike_id":"1c9c228c-5954-4155-a104-2a72ed6d3f0b","system_id":"levelo_inurba_marseille","lat":43.32287,"lon":5.382728,"is_reserved":false,"is_disabled":false,"rental_uris":{"android":"levelo://app?vid=1c9c228c-5954-4155-a104-2a72ed6d3f0b","ios":"levelo://app?vid=1c9c228c-5954-4155-a104-2a72ed6d3f0b"},"vehicle_type_id":"4","last_reported":1702523247,"current_range_meters":26400,"station_id":"ce4bhr12rcd13ifvqhqg","pricing_plan_id":"free"},{"bike_id":"659a38c5-092d-469d-acdb-90f2143cb397","system_id":"levelo_inurba_marseille","lat":43.328267,"lon":5.366764,"is_reserved":false,"is_disabled":false,"rental_uris":{"android":"levelo://app?vid=659a38c5-092d-469d-acdb-90f2143cb397","ios":"levelo://app?vid=659a38c5-092d-469d-acdb-90f2143cb397"},"vehicle_type_id":"4","last_reported":1702523247,"current_range_meters":30400,"station_id":"ce4bhs92rcd13ifvqi0g","pricing_plan_id":"free"},{"bike_id":"bc06b289-dab8-4815-820b-662dd218c477","system_id":"levelo_inurba_marseille","lat":43.328289,"lon":5.36679,"is_reserved":false,"is_disabled":false,"rental_uris":{"android":"levelo://app?vid=bc06b289-dab8-4815-820b-662dd218c477","ios":"levelo://app?vid=bc06b289-dab8-4815-820b-662dd218c477"},"vehicle_type_id":"4","last_reported":1702523247,"current_range_meters":30800,"station_id":"ce4bhs92rcd13ifvqi0g","pricing_plan_id":"free"},{"bike_id":"cbc11d14-9f41-4b34-8edf-188c262dbf4e","system_id":"levelo_inurba_marseille","lat":43.32837,"lon":5.36664,"is_reserved":false,"is_disabled":false,"rental_uris":{"android":"levelo://app?vid=cbc11d14-9f41-4b34-8edf-188c262dbf4e","ios":"levelo://app?vid=cbc11d14-9f41-4b34-8edf-188c262dbf4e"},"vehicle_type_id":"4","last_reported":1702523247,"current_range_meters":31200,"station_id":"ce4bhs92rcd13ifvqi0g","pricing_plan_id":"free"},{"bike_id":"5a517fc2-0a9a-4b33-99c0-e320e3872aaa","system_id":"levelo_inurba_marseille","lat":43.297163,"lon":5.365866,"is_reserved":false,"is_disabled":false,"rental_uris":{"android":"levelo://app?vid=5a517fc2-0a9a-4b33-99c0-e320e3872aaa","ios":"levelo://app?vid=5a517fc2-0a9a-4b33-99c0-e320e3872aaa"},"vehicle_type_id":"4","last_reported":1702523247,"current_range_meters":26400,"station_id":"ce4bgn12rcd13ifvqbt0","pricing_plan_id":"free"},{"bike_id":"06ae4597-233a-4e6a-9751-a6c018fee089","system_id":"levelo_inurba_marseille","lat":43.296935,"lon":5.376544,"is_reserved":false,"is_disabled":false,"rental_uris":{"android":"levelo://app?vid=06ae4597-233a-4e6a-9751-a6c018fee089","ios":"levelo://app?vid=06ae4597-233a-4e6a-9751-a6c018fee089"},"vehicle_type_id":"4","last_reported":1702523247,"current_range_meters":30400,"station_id":"ce4bgkh2rcd13ifvqbl0","pricing_plan_id":"free"},{"bike_id":"1f731f79-da92-4bc7-b21b-0abd1ee03930","system_id":"levelo_inurba_marseille","lat":43.317557,"lon":5.390173,"is_reserved":false,"is_disabled":false,"rental_uris":{"android":"levelo://app?vid=1f731f79-da92-4bc7-b21b-0abd1ee03930","ios":"levelo://app?vid=1f731f79-da92-4bc7-b21b-0abd1ee03930"},"vehicle_type_id":"4","last_reported":1702523247,"current_range_meters":29200,"station_id":"ce4bhqp2rcd13ifvqhng","pricing_plan_id":"free"},{"bike_id":"c840002a-d80a-40b4-a65f-1d4c04eabb61","system_id":"levelo_inurba_marseille","lat":43.31761,"lon":5.390168,"is_reserved":false,"is_disabled":false,"rental_uris":{"android":"levelo://app?vid=c840002a-d80a-40b4-a65f-1d4c04eabb61","ios":"levelo://app?vid=c840002a-d80a-40b4-a65f-1d4c04eabb61"},"vehicle_type_id":"4","last_reported":1702523247,"current_range_meters":8400,"station_id":"ce4bhqp2rcd13ifvqhng","pricing_plan_id":"free"},{"bike_id":"e7a8392c-2b97-4b48-a1cf-90719d8edf12","system_id":"levelo_inurba_marseille","lat":43.304274,"lon":5.388873,"is_reserved":false,"is_disabled":false,"rental_uris":{"android":"levelo://app?vid=e7a8392c-2b97-4b48-a1cf-90719d8edf12","ios":"levelo://app?vid=e7a8392c-2b97-4b48-a1cf-90719d8edf12"},"vehicle_type_id":"4","last_reported":1702523247,"current_range_meters":27600,"station_id":"ce4bgk12rcd13ifvqbi0","pricing_plan_id":"free"},{"bike_id":"f2dcd806-167f-4aab-a825-30f416fc47f1","system_id":"levelo_inurba_marseille","lat":43.297872,"lon":5.381086,"is_reserved":false,"is_disabled":false,"rental_uris":{"android":"levelo://app?vid=f2dcd806-167f-4aab-a825-30f416fc47f1","ios":"levelo://app?vid=f2dcd806-167f-4aab-a825-30f416fc47f1"},"vehicle_type_id":"4","last_reported":1702523247,"current_range_meters":0,"station_id":"","pricing_plan_id":"free"},{"bike_id":"ef76321a-9b04-47b4-92de-d682e9f5920f","system_id":"levelo_inurba_marseille","lat":43.32358,"lon":5.38885,"is_reserved":false,"is_disabled":false,"rental_uris":{"android":"levelo://app?vid=ef76321a-9b04-47b4-92de-d682e9f5920f","ios":"levelo://app?vid=ef76321a-9b04-47b4-92de-d682e9f5920f"},"vehicle_type_id":"4","last_reported":1702523247,"current_range_meters":31200,"station_id":"ce4bhqp2rcd13ifvqhog","pricing_plan_id":"free"},{"bike_id":"dc01d294-5e1b-433f-878e-eb8a914aadd8","system_id":"levelo_inurba_marseille","lat":43.32367,"lon":5.388836,"is_reserved":false,"is_disabled":false,"rental_uris":{"android":"levelo://app?vid=dc01d294-5e1b-433f-878e-eb8a914aadd8","ios":"levelo://app?vid=dc01d294-5e1b-433f-878e-eb8a914aadd8"},"vehicle_type_id":"4","last_reported":1702523247,"current_range_meters":29200,"station_id":"ce4bhqp2rcd13ifvqhog","pricing_plan_id":"free"},{"bike_id":"8ab9895a-c9b8-42e7-a73a-c3d8ad10cfa2","system_id":"levelo_inurba_marseille","lat":43.323641,"lon":5.388853,"is_reserved":false,"is_disabled":false,"rental_uris":{"android":"levelo://app?vid=8ab9895a-c9b8-42e7-a73a-c3d8ad10cfa2","ios":"levelo://app?vid=8ab9895a-c9b8-42e7-a73a-c3d8ad10cfa2"},"vehicle_type_id":"4","last_reported":1702523247,"current_range_meters":30000,"station_id":"ce4bhqp2rcd13ifvqhog","pricing_plan_id":"free"},{"bike_id":"29437c84-0c58-47b0-85c3-f4d6a2abdc71","system_id":"levelo_inurba_marseille","lat":43.32366,"lon":5.38884,"is_reserved":false,"is_disabled":false,"rental_uris":{"android":"levelo://app?vid=29437c84-0c58-47b0-85c3-f4d6a2abdc71","ios":"levelo://app?vid=29437c84-0c58-47b0-85c3-f4d6a2abdc71"},"vehicle_type_id":"4","last_reported":1702523247,"current_range_meters":30400,"station_id":"ce4bhqp2rcd13ifvqhog","pricing_plan_id":"free"},{"bike_id":"03f6119d-7ba1-4608-b75b-b20f3efbdaef","system_id":"levelo_inurba_marseille","lat":43.323678,"lon":5.388843,"is_reserved":false,"is_disabled":false,"rental_uris":{"android":"levelo://app?vid=03f6119d-7ba1-4608-b75b-b20f3efbdaef","ios":"levelo://app?vid=03f6119d-7ba1-4608-b75b-b20f3efbdaef"},"vehicle_type_id":"4","last_reported":1702523247,"current_range_meters":13200,"station_id":"ce4bhqp2rcd13ifvqhog","pricing_plan_id":"free"},{"bike_id":"18e8fec3-c034-486d-b65b-5c2605e3f3ab","system_id":"levelo_inurba_marseille","lat":43.32366,"lon":5.38888,"is_reserved":false,"is_disabled":false,"rental_uris":{"android":"levelo://app?vid=18e8fec3-c034-486d-b65b-5c2605e3f3ab","ios":"levelo://app?vid=18e8fec3-c034-486d-b65b-5c2605e3f3ab"},"vehicle_type_id":"4","last_reported":1702523247,"current_range_meters":13600,"station_id":"ce4bhqp2rcd13ifvqhog","pricing_plan_id":"free"},{"bike_id":"ce76d10b-c74d-4423-a096-85ccbae156c0","system_id":"levelo_inurba_marseille","lat":43.309038,"lon":5.396546,"is_reserved":false,"is_disabled":false,"rental_uris":{"android":"levelo://app?vid=ce76d10b-c74d-4423-a096-85ccbae156c0","ios":"levelo://app?vid=ce76d10b-c74d-4423-a096-85ccbae156c0"},"vehicle_type_id":"4","last_reported":1702523247,"current_range_meters":28400,"station_id":"ce4bh012rcd13ifvqcv0","pricing_plan_id":"free"},{"bike_id":"a8a1f81a-fa80-4bb3-806a-5773eb6bd4da","system_id":"levelo_inurba_marseille","lat":43.309047,"lon":5.396551,"is_reserved":false,"is_disabled":false,"rental_uris":{"android":"levelo://app?vid=a8a1f81a-fa80-4bb3-806a-5773eb6bd4da","ios":"levelo://app?vid=a8a1f81a-fa80-4bb3-806a-5773eb6bd4da"},"vehicle_type_id":"4","last_reported":1702523247,"current_range_meters":28000,"station_id":"ce4bh012rcd13ifvqcv0","pricing_plan_id":"free"},{"bike_id":"09922085-2c97-4122-833b-37ecb4470bbd","system_id":"levelo_inurba_marseille","lat":43.29196,"lon":5.35803,"is_reserved":false,"is_disabled":false,"rental_uris":{"android":"levelo://app?vid=09922085-2c97-4122-833b-37ecb4470bbd","ios":"levelo://app?vid=09922085-2c97-4122-833b-37ecb4470bbd"},"vehicle_type_id":"4","last_reported":1702523247,"current_range_meters":24800,"station_id":"ce4bhb12rcd13ifvqel0","pricing_plan_id":"free"},{"bike_id":"2a54657b-ca11-485d-b42f-eeaeba72a652","system_id":"levelo_inurba_marseille","lat":43.309038,"lon":5.396546,"is_reserved":false,"is_disabled":false,"rental_uris":{"android":"levelo://app?vid=2a54657b-ca11-485d-b42f-eeaeba72a652","ios":"levelo://app?vid=2a54657b-ca11-485d-b42f-eeaeba72a652"},"vehicle_type_id":"4","last_reported":1702523247,"current_range_meters":26800,"station_id":"ce4bh012rcd13ifvqcv0","pricing_plan_id":"free"},{"bike_id":"35330b65-e4f2-480b-a4c3-6f1d43391cbb","system_id":"levelo_inurba_marseille","lat":43.2919,"lon":5.35806,"is_reserved":false,"is_disabled":false,"rental_uris":{"android":"levelo://app?vid=35330b65-e4f2-480b-a4c3-6f1d43391cbb","ios":"levelo://app?vid=35330b65-e4f2-480b-a4c3-6f1d43391cbb"},"vehicle_type_id":"4","last_reported":1702523247,"current_range_meters":30000,"station_id":"ce4bhb12rcd13ifvqel0","pricing_plan_id":"free"},{"bike_id":"9913e388-91dd-4956-bf7f-ef589009be3f","system_id":"levelo_inurba_marseille","lat":43.309038,"lon":5.396546,"is_reserved":false,"is_disabled":false,"rental_uris":{"android":"levelo://app?vid=9913e388-91dd-4956-bf7f-ef589009be3f","ios":"levelo://app?vid=9913e388-91dd-4956-bf7f-ef589009be3f"},"vehicle_type_id":"4","last_reported":1702523247,"current_range_meters":28000,"station_id":"ce4bh012rcd13ifvqcv0","pricing_plan_id":"free"},{"bike_id":"aa528d82-51fc-4b35-9aca-368f4beafae4","system_id":"levelo_inurba_marseille","lat":43.29529,"lon":5.385581,"is_reserved":false,"is_disabled":false,"rental_uris":{"android":"levelo://app?vid=aa528d82-51fc-4b35-9aca-368f4beafae4","ios":"levelo://app?vid=aa528d82-51fc-4b35-9aca-368f4beafae4"},"vehicle_type_id":"4","last_reported":1702523247,"current_range_meters":22800,"station_id":"ce4bgih2rcd13ifvqba0","pricing_plan_id":"free"},{"bike_id":"f554f45e-91cd-40e1-ac9f-276bec7cef9c","system_id":"levelo_inurba_marseille","lat":43.290624,"lon":5.359245,"is_reserved":false,"is_disabled":false,"rental_uris":{"android":"levelo://app?vid=f554f45e-91cd-40e1-ac9f-276bec7cef9c","ios":"levelo://app?vid=f554f45e-91cd-40e1-ac9f-276bec7cef9c"},"vehicle_type_id":"4","last_reported":1702523247,"current_range_meters":30400,"station_id":"ce4bha92rcd13ifvqeg0","pricing_plan_id":"free"},{"bike_id":"c84be106-7d77-4039-b765-8b8d9b7d2bcf","system_id":"levelo_inurba_marseille","lat":43.304296,"lon":5.397513,"is_reserved":false,"is_disabled":false,"rental_uris":{"android":"levelo://app?vid=c84be106-7d77-4039-b765-8b8d9b7d2bcf","ios":"levelo://app?vid=c84be106-7d77-4039-b765-8b8d9b7d2bcf"},"vehicle_type_id":"4","last_reported":1702523247,"current_range_meters":29600,"station_id":"ce4bh092rcd13ifvqd20","pricing_plan_id":"free"},{"bike_id":"07f670d0-374a-4b81-b8b0-158fd4af9fa0","system_id":"levelo_inurba_marseille","lat":43.33043,"lon":5.3892,"is_reserved":false,"is_disabled":false,"rental_uris":{"android":"levelo://app?vid=07f670d0-374a-4b81-b8b0-158fd4af9fa0","ios":"levelo://app?vid=07f670d0-374a-4b81-b8b0-158fd4af9fa0"},"vehicle_type_id":"4","last_reported":1702523247,"current_range_meters":11600,"station_id":"ce4bhr92rcd13ifvqhrg","pricing_plan_id":"free"},{"bike_id":"b23ba7b9-7c32-4573-8dfe-335fc2f2ea1f","system_id":"levelo_inurba_marseille","lat":43.29006,"lon":5.35613,"is_reserved":false,"is_disabled":false,"rental_uris":{"android":"levelo://app?vid=b23ba7b9-7c32-4573-8dfe-335fc2f2ea1f","ios":"levelo://app?vid=b23ba7b9-7c32-4573-8dfe-335fc2f2ea1f"},"vehicle_type_id":"4","last_reported":1702523247,"current_range_meters":30000,"station_id":"ce4bhb92rcd13ifvqen0","pricing_plan_id":"free"},{"bike_id":"1e57ccf9-0de7-4c7d-8ba3-54e291355af8","system_id":"levelo_inurba_marseille","lat":43.290104,"lon":5.356111,"is_reserved":false,"is_disabled":false,"rental_uris":{"android":"levelo://app?vid=1e57ccf9-0de7-4c7d-8ba3-54e291355af8","ios":"levelo://app?vid=1e57ccf9-0de7-4c7d-8ba3-54e291355af8"},"vehicle_type_id":"4","last_reported":1702523247,"current_range_meters":24800,"station_id":"ce4bhb92rcd13ifvqen0","pricing_plan_id":"free"},{"bike_id":"55555d71-0871-4793-bf64-e64148c7ff51","system_id":"levelo_inurba_marseille","lat":43.29796,"lon":5.393515,"is_reserved":false,"is_disabled":false,"rental_uris":{"android":"levelo://app?vid=55555d71-0871-4793-bf64-e64148c7ff51","ios":"levelo://app?vid=55555d71-0871-4793-bf64-e64148c7ff51"},"vehicle_type_id":"4","last_reported":1702523247,"current_range_meters":29200,"station_id":"chh1huq6cuj3fo74tm60","pricing_plan_id":"free"},{"bike_id":"134d6bb2-d743-4a28-b626-45985aec7c8d","system_id":"levelo_inurba_marseille","lat":43.29788,"lon":5.39363,"is_reserved":false,"is_disabled":false,"rental_uris":{"android":"levelo://app?vid=134d6bb2-d743-4a28-b626-45985aec7c8d","ios":"levelo://app?vid=134d6bb2-d743-4a28-b626-45985aec7c8d"},"vehicle_type_id":"4","last_reported":1702523247,"current_range_meters":31200,"station_id":"chh1huq6cuj3fo74tm60","pricing_plan_id":"free"},{"bike_id":"6aca6444-bfbc-4b36-84d2-07052f52c57c","system_id":"levelo_inurba_marseille","lat":43.28856,"lon":5.358371,"is_reserved":false,"is_disabled":false,"rental_uris":{"android":"levelo://app?vid=6aca6444-bfbc-4b36-84d2-07052f52c57c","ios":"levelo://app?vid=6aca6444-bfbc-4b36-84d2-07052f52c57c"},"vehicle_type_id":"4","last_reported":1702523247,"current_range_meters":23600,"station_id":"ce4bhb12rcd13ifvqem0","pricing_plan_id":"free"},{"bike_id":"50b34c41-6329-42cd-bb8f-00b47b64e200","system_id":"levelo_inurba_marseille","lat":43.28856,"lon":5.358371,"is_reserved":false,"is_disabled":false,"rental_uris":{"android":"levelo://app?vid=50b34c41-6329-42cd-bb8f-00b47b64e200","ios":"levelo://app?vid=50b34c41-6329-42cd-bb8f-00b47b64e200"},"vehicle_type_id":"4","last_reported":1702523247,"current_range_meters":26000,"station_id":"ce4bhb12rcd13ifvqem0","pricing_plan_id":"free"},{"bike_id":"1dfb7e36-e9db-4c5c-b9f4-a203d31bef22","system_id":"levelo_inurba_marseille","lat":43.288527,"lon":5.358438,"is_reserved":false,"is_disabled":false,"rental_uris":{"android":"levelo://app?vid=1dfb7e36-e9db-4c5c-b9f4-a203d31bef22","ios":"levelo://app?vid=1dfb7e36-e9db-4c5c-b9f4-a203d31bef22"},"vehicle_type_id":"4","last_reported":1702523247,"current_range_meters":30000,"station_id":"ce4bhb12rcd13ifvqem0","pricing_plan_id":"free"},{"bike_id":"1d88f152-c389-457d-9cdb-ccac5543e642","system_id":"levelo_inurba_marseille","lat":43.28856,"lon":5.358371,"is_reserved":false,"is_disabled":false,"rental_uris":{"android":"levelo://app?vid=1d88f152-c389-457d-9cdb-ccac5543e642","ios":"levelo://app?vid=1d88f152-c389-457d-9cdb-ccac5543e642"},"vehicle_type_id":"4","last_reported":1702523247,"current_range_meters":29600,"station_id":"ce4bhb12rcd13ifvqem0","pricing_plan_id":"free"},{"bike_id":"5380e1e3-68f1-47ec-a365-7b1f2ead3390","system_id":"levelo_inurba_marseille","lat":43.28856,"lon":5.358371,"is_reserved":false,"is_disabled":false,"rental_uris":{"android":"levelo://app?vid=5380e1e3-68f1-47ec-a365-7b1f2ead3390","ios":"levelo://app?vid=5380e1e3-68f1-47ec-a365-7b1f2ead3390"},"vehicle_type_id":"4","last_reported":1702523247,"current_range_meters":21200,"station_id":"ce4bhb12rcd13ifvqem0","pricing_plan_id":"free"},{"bike_id":"bd97a17a-1ea0-46ea-afaa-09c9f87a1c8f","system_id":"levelo_inurba_marseille","lat":43.309283,"lon":5.401428,"is_reserved":false,"is_disabled":false,"rental_uris":{"android":"levelo://app?vid=bd97a17a-1ea0-46ea-afaa-09c9f87a1c8f","ios":"levelo://app?vid=bd97a17a-1ea0-46ea-afaa-09c9f87a1c8f"},"vehicle_type_id":"4","last_reported":1702523247,"current_range_meters":12800,"station_id":"ce4bgvp2rcd13ifvqct0","pricing_plan_id":"free"},{"bike_id":"dadf45d6-8f84-48ea-aabc-df72c4ca5a08","system_id":"levelo_inurba_marseille","lat":43.309244,"lon":5.401425,"is_reserved":false,"is_disabled":false,"rental_uris":{"android":"levelo://app?vid=dadf45d6-8f84-48ea-aabc-df72c4ca5a08","ios":"levelo://app?vid=dadf45d6-8f84-48ea-aabc-df72c4ca5a08"},"vehicle_type_id":"4","last_reported":1702523247,"current_range_meters":18400,"station_id":"ce4bgvp2rcd13ifvqct0","pricing_plan_id":"free"},{"bike_id":"9fd979ac-45cc-43ac-b7b6-05f005d8c405","system_id":"levelo_inurba_marseille","lat":43.309371,"lon":5.401449,"is_reserved":false,"is_disabled":false,"rental_uris":{"android":"levelo://app?vid=9fd979ac-45cc-43ac-b7b6-05f005d8c405","ios":"levelo://app?vid=9fd979ac-45cc-43ac-b7b6-05f005d8c405"},"vehicle_type_id":"4","last_reported":1702523247,"current_range_meters":28800,"station_id":"ce4bgvp2rcd13ifvqct0","pricing_plan_id":"free"},{"bike_id":"8e5989c4-39ad-492a-ac56-19da236cc2af","system_id":"levelo_inurba_marseille","lat":43.30642,"lon":5.401031,"is_reserved":false,"is_disabled":false,"rental_uris":{"android":"levelo://app?vid=8e5989c4-39ad-492a-ac56-19da236cc2af","ios":"levelo://app?vid=8e5989c4-39ad-492a-ac56-19da236cc2af"},"vehicle_type_id":"4","last_reported":1702523247,"current_range_meters":27600,"station_id":"ce4bh112rcd13ifvqda0","pricing_plan_id":"free"},{"bike_id":"d1401e11-55bb-4e68-8553-4ee05204b2df","system_id":"levelo_inurba_marseille","lat":43.337641,"lon":5.374314,"is_reserved":false,"is_disabled":false,"rental_uris":{"android":"levelo://app?vid=d1401e11-55bb-4e68-8553-4ee05204b2df","ios":"levelo://app?vid=d1401e11-55bb-4e68-8553-4ee05204b2df"},"vehicle_type_id":"4","last_reported":1702523247,"current_range_meters":29600,"station_id":"","pricing_plan_id":"free"},{"bike_id":"fa23bc4c-3492-4ba5-ab13-c42e18316583","system_id":"levelo_inurba_marseille","lat":43.337606,"lon":5.37495,"is_reserved":false,"is_disabled":false,"rental_uris":{"android":"levelo://app?vid=fa23bc4c-3492-4ba5-ab13-c42e18316583","ios":"levelo://app?vid=fa23bc4c-3492-4ba5-ab13-c42e18316583"},"vehicle_type_id":"4","last_reported":1702523247,"current_range_meters":31200,"station_id":"","pricing_plan_id":"free"},{"bike_id":"231d751e-291e-46d6-ac3e-5aee5ff318e4","system_id":"levelo_inurba_marseille","lat":43.301117,"lon":5.398795,"is_reserved":false,"is_disabled":false,"rental_uris":{"android":"levelo://app?vid=231d751e-291e-46d6-ac3e-5aee5ff318e4","ios":"levelo://app?vid=231d751e-291e-46d6-ac3e-5aee5ff318e4"},"vehicle_type_id":"4","last_reported":1702523247,"current_range_meters":26400,"station_id":"ce4bh0h2rcd13ifvqd40","pricing_plan_id":"free"},{"bike_id":"7db32a75-cf8b-40c5-94e8-51513f855953","system_id":"levelo_inurba_marseille","lat":43.301117,"lon":5.398795,"is_reserved":false,"is_disabled":false,"rental_uris":{"android":"levelo://app?vid=7db32a75-cf8b-40c5-94e8-51513f855953","ios":"levelo://app?vid=7db32a75-cf8b-40c5-94e8-51513f855953"},"vehicle_type_id":"4","last_reported":1702523247,"current_range_meters":25600,"station_id":"ce4bh0h2rcd13ifvqd40","pricing_plan_id":"free"},{"bike_id":"bd9bea79-ea35-4390-828e-f00e8a958191","system_id":"levelo_inurba_marseille","lat":43.301117,"lon":5.398795,"is_reserved":false,"is_disabled":false,"rental_uris":{"android":"levelo://app?vid=bd9bea79-ea35-4390-828e-f00e8a958191","ios":"levelo://app?vid=bd9bea79-ea35-4390-828e-f00e8a958191"},"vehicle_type_id":"4","last_reported":1702523247,"current_range_meters":26800,"station_id":"ce4bh0h2rcd13ifvqd40","pricing_plan_id":"free"},{"bike_id":"bb34842f-3d9e-4806-9e00-fb81e690fb99","system_id":"levelo_inurba_marseille","lat":43.28727,"lon":5.36078,"is_reserved":false,"is_disabled":false,"rental_uris":{"android":"levelo://app?vid=bb34842f-3d9e-4806-9e00-fb81e690fb99","ios":"levelo://app?vid=bb34842f-3d9e-4806-9e00-fb81e690fb99"},"vehicle_type_id":"4","last_reported":1702523247,"current_range_meters":30000,"station_id":"cki0cbj6b192h4jlfktg","pricing_plan_id":"free"},{"bike_id":"2a854f5b-d5f5-45dd-b14d-054026bd6d3f","system_id":"levelo_inurba_marseille","lat":43.28727,"lon":5.36078,"is_reserved":false,"is_disabled":false,"rental_uris":{"android":"levelo://app?vid=2a854f5b-d5f5-45dd-b14d-054026bd6d3f","ios":"levelo://app?vid=2a854f5b-d5f5-45dd-b14d-054026bd6d3f"},"vehicle_type_id":"4","last_reported":1702523247,"current_range_meters":30000,"station_id":"cki0cbj6b192h4jlfktg","pricing_plan_id":"free"},{"bike_id":"f0d70e3a-0236-4546-99a7-bae9167c0494","system_id":"levelo_inurba_marseille","lat":43.28727,"lon":5.36078,"is_reserved":false,"is_disabled":false,"rental_uris":{"android":"levelo://app?vid=f0d70e3a-0236-4546-99a7-bae9167c0494","ios":"levelo://app?vid=f0d70e3a-0236-4546-99a7-bae9167c0494"},"vehicle_type_id":"4","last_reported":1702523247,"current_range_meters":31200,"station_id":"cki0cbj6b192h4jlfktg","pricing_plan_id":"free"},{"bike_id":"d26d58e1-6968-4755-a5df-fa3aa7d263a0","system_id":"levelo_inurba_marseille","lat":43.28727,"lon":5.36078,"is_reserved":false,"is_disabled":false,"rental_uris":{"android":"levelo://app?vid=d26d58e1-6968-4755-a5df-fa3aa7d263a0","ios":"levelo://app?vid=d26d58e1-6968-4755-a5df-fa3aa7d263a0"},"vehicle_type_id":"4","last_reported":1702523247,"current_range_meters":27600,"station_id":"cki0cbj6b192h4jlfktg","pricing_plan_id":"free"},{"bike_id":"1a99aa28-6b0a-4e12-a67c-d2e5d77ae6dc","system_id":"levelo_inurba_marseille","lat":43.286593,"lon":5.363346,"is_reserved":false,"is_disabled":false,"rental_uris":{"android":"levelo://app?vid=1a99aa28-6b0a-4e12-a67c-d2e5d77ae6dc","ios":"levelo://app?vid=1a99aa28-6b0a-4e12-a67c-d2e5d77ae6dc"},"vehicle_type_id":"4","last_reported":1702523247,"current_range_meters":31200,"station_id":"ce4bhah2rcd13ifvqej0","pricing_plan_id":"free"},{"bike_id":"43a01618-fad8-4f32-9f65-b1ac47441789","system_id":"levelo_inurba_marseille","lat":43.302759,"lon":5.400793,"is_reserved":false,"is_disabled":false,"rental_uris":{"android":"levelo://app?vid=43a01618-fad8-4f32-9f65-b1ac47441789","ios":"levelo://app?vid=43a01618-fad8-4f32-9f65-b1ac47441789"},"vehicle_type_id":"4","last_reported":1702523247,"current_range_meters":28800,"station_id":"ce4bgvh2rcd13ifvqcs0","pricing_plan_id":"free"},{"bike_id":"825a0708-3267-4eb9-96ed-c210373c7a25","system_id":"levelo_inurba_marseille","lat":43.302759,"lon":5.400793,"is_reserved":false,"is_disabled":false,"rental_uris":{"android":"levelo://app?vid=825a0708-3267-4eb9-96ed-c210373c7a25","ios":"levelo://app?vid=825a0708-3267-4eb9-96ed-c210373c7a25"},"vehicle_type_id":"4","last_reported":1702523247,"current_range_meters":26000,"station_id":"ce4bgvh2rcd13ifvqcs0","pricing_plan_id":"free"},{"bike_id":"53295331-3172-49ee-bc83-1dd12732c371","system_id":"levelo_inurba_marseille","lat":43.302759,"lon":5.400793,"is_reserved":false,"is_disabled":false,"rental_uris":{"android":"levelo://app?vid=53295331-3172-49ee-bc83-1dd12732c371","ios":"levelo://app?vid=53295331-3172-49ee-bc83-1dd12732c371"},"vehicle_type_id":"4","last_reported":1702523247,"current_range_meters":29200,"station_id":"ce4bgvh2rcd13ifvqcs0","pricing_plan_id":"free"},{"bike_id":"68118964-51c0-4a7e-b4e3-e3932c229872","system_id":"levelo_inurba_marseille","lat":43.302759,"lon":5.400793,"is_reserved":false,"is_disabled":false,"rental_uris":{"android":"levelo://app?vid=68118964-51c0-4a7e-b4e3-e3932c229872","ios":"levelo://app?vid=68118964-51c0-4a7e-b4e3-e3932c229872"},"vehicle_type_id":"4","last_reported":1702523247,"current_range_meters":26400,"station_id":"ce4bgvh2rcd13ifvqcs0","pricing_plan_id":"free"},{"bike_id":"3fd6d764-233f-46c5-80ae-4807922dc31c","system_id":"levelo_inurba_marseille","lat":43.286039,"lon":5.370679,"is_reserved":false,"is_disabled":false,"rental_uris":{"android":"levelo://app?vid=3fd6d764-233f-46c5-80ae-4807922dc31c","ios":"levelo://app?vid=3fd6d764-233f-46c5-80ae-4807922dc31c"},"vehicle_type_id":"4","last_reported":1702523247,"current_range_meters":30800,"station_id":"ce4bht12rcd13ifvqi60","pricing_plan_id":"free"},{"bike_id":"5dc10632-1838-4b46-a105-042f318474fa","system_id":"levelo_inurba_marseille","lat":43.286039,"lon":5.370681,"is_reserved":false,"is_disabled":false,"rental_uris":{"android":"levelo://app?vid=5dc10632-1838-4b46-a105-042f318474fa","ios":"levelo://app?vid=5dc10632-1838-4b46-a105-042f318474fa"},"vehicle_type_id":"4","last_reported":1702523247,"current_range_meters":18000,"station_id":"ce4bht12rcd13ifvqi60","pricing_plan_id":"free"},{"bike_id":"68557702-ab8a-4176-a4ca-191a9de3cd13","system_id":"levelo_inurba_marseille","lat":43.287184,"lon":5.37937,"is_reserved":false,"is_disabled":false,"rental_uris":{"android":"levelo://app?vid=68557702-ab8a-4176-a4ca-191a9de3cd13","ios":"levelo://app?vid=68557702-ab8a-4176-a4ca-191a9de3cd13"},"vehicle_type_id":"4","last_reported":1702523247,"current_range_meters":25200,"station_id":"ce4bh9p2rcd13ifvqec0","pricing_plan_id":"free"},{"bike_id":"8fe41910-b6aa-4d09-bd31-6fb49e9c2863","system_id":"levelo_inurba_marseille","lat":43.317036,"lon":5.404728,"is_reserved":false,"is_disabled":false,"rental_uris":{"android":"levelo://app?vid=8fe41910-b6aa-4d09-bd31-6fb49e9c2863","ios":"levelo://app?vid=8fe41910-b6aa-4d09-bd31-6fb49e9c2863"},"vehicle_type_id":"4","last_reported":1702523247,"current_range_meters":19600,"station_id":"ce4bh012rcd13ifvqd00","pricing_plan_id":"free"},{"bike_id":"900e39d0-35f6-4506-9e04-d3711ac52b25","system_id":"levelo_inurba_marseille","lat":43.291994,"lon":5.392907,"is_reserved":false,"is_disabled":false,"rental_uris":{"android":"levelo://app?vid=900e39d0-35f6-4506-9e04-d3711ac52b25","ios":"levelo://app?vid=900e39d0-35f6-4506-9e04-d3711ac52b25"},"vehicle_type_id":"4","last_reported":1702523247,"current_range_meters":27600,"station_id":"ce4bh192rcd13ifvqdd0","pricing_plan_id":"free"},{"bike_id":"83479b9e-f975-4df3-a4f8-95be3cb3a1c1","system_id":"levelo_inurba_marseille","lat":43.284538,"lon":5.358657,"is_reserved":false,"is_disabled":false,"rental_uris":{"android":"levelo://app?vid=83479b9e-f975-4df3-a4f8-95be3cb3a1c1","ios":"levelo://app?vid=83479b9e-f975-4df3-a4f8-95be3cb3a1c1"},"vehicle_type_id":"4","last_reported":1702523247,"current_range_meters":31200,"station_id":"ce4bhah2rcd13ifvqei0","pricing_plan_id":"free"},{"bike_id":"3899df10-ce12-4c75-aa57-6c64ad9af40e","system_id":"levelo_inurba_marseille","lat":43.284538,"lon":5.358657,"is_reserved":false,"is_disabled":false,"rental_uris":{"android":"levelo://app?vid=3899df10-ce12-4c75-aa57-6c64ad9af40e","ios":"levelo://app?vid=3899df10-ce12-4c75-aa57-6c64ad9af40e"},"vehicle_type_id":"4","last_reported":1702523247,"current_range_meters":29600,"station_id":"ce4bhah2rcd13ifvqei0","pricing_plan_id":"free"},{"bike_id":"8b3edb80-ecc7-4562-9a2f-4eb613348686","system_id":"levelo_inurba_marseille","lat":43.284538,"lon":5.358657,"is_reserved":false,"is_disabled":false,"rental_uris":{"android":"levelo://app?vid=8b3edb80-ecc7-4562-9a2f-4eb613348686","ios":"levelo://app?vid=8b3edb80-ecc7-4562-9a2f-4eb613348686"},"vehicle_type_id":"4","last_reported":1702523247,"current_range_meters":26800,"station_id":"ce4bhah2rcd13ifvqei0","pricing_plan_id":"free"},{"bike_id":"43c93775-da66-47d5-8311-e21ccdc64de3","system_id":"levelo_inurba_marseille","lat":43.284538,"lon":5.358657,"is_reserved":false,"is_disabled":false,"rental_uris":{"android":"levelo://app?vid=43c93775-da66-47d5-8311-e21ccdc64de3","ios":"levelo://app?vid=43c93775-da66-47d5-8311-e21ccdc64de3"},"vehicle_type_id":"4","last_reported":1702523247,"current_range_meters":30800,"station_id":"ce4bhah2rcd13ifvqei0","pricing_plan_id":"free"},{"bike_id":"3ffb2319-e132-4c3f-b035-da2508c8dccc","system_id":"levelo_inurba_marseille","lat":43.294314,"lon":5.397498,"is_reserved":false,"is_disabled":false,"rental_uris":{"android":"levelo://app?vid=3ffb2319-e132-4c3f-b035-da2508c8dccc","ios":"levelo://app?vid=3ffb2319-e132-4c3f-b035-da2508c8dccc"},"vehicle_type_id":"4","last_reported":1702523247,"current_range_meters":30400,"station_id":"ce4bh3h2rcd13ifvqdo0","pricing_plan_id":"free"},{"bike_id":"0f8e7e3f-ea8c-481a-915b-7d371f2f1e15","system_id":"levelo_inurba_marseille","lat":43.284538,"lon":5.358657,"is_reserved":false,"is_disabled":false,"rental_uris":{"android":"levelo://app?vid=0f8e7e3f-ea8c-481a-915b-7d371f2f1e15","ios":"levelo://app?vid=0f8e7e3f-ea8c-481a-915b-7d371f2f1e15"},"vehicle_type_id":"4","last_reported":1702523247,"current_range_meters":24400,"station_id":"ce4bhah2rcd13ifvqei0","pricing_plan_id":"free"},{"bike_id":"ca031547-cfb3-4b2b-bc50-11b7481bd43b","system_id":"levelo_inurba_marseille","lat":43.284534,"lon":5.358662,"is_reserved":false,"is_disabled":false,"rental_uris":{"android":"levelo://app?vid=ca031547-cfb3-4b2b-bc50-11b7481bd43b","ios":"levelo://app?vid=ca031547-cfb3-4b2b-bc50-11b7481bd43b"},"vehicle_type_id":"4","last_reported":1702523247,"current_range_meters":29200,"station_id":"ce4bhah2rcd13ifvqei0","pricing_plan_id":"free"},{"bike_id":"a7c15c2e-a01e-4dab-9588-2757d6870823","system_id":"levelo_inurba_marseille","lat":43.284123,"lon":5.375171,"is_reserved":false,"is_disabled":false,"rental_uris":{"android":"levelo://app?vid=a7c15c2e-a01e-4dab-9588-2757d6870823","ios":"levelo://app?vid=a7c15c2e-a01e-4dab-9588-2757d6870823"},"vehicle_type_id":"4","last_reported":1702523247,"current_range_meters":30400,"station_id":"ce4bh412rcd13ifvqds0","pricing_plan_id":"free"},{"bike_id":"762b0592-333e-420d-ad45-c7066346f521","system_id":"levelo_inurba_marseille","lat":43.284103,"lon":5.37509,"is_reserved":false,"is_disabled":false,"rental_uris":{"android":"levelo://app?vid=762b0592-333e-420d-ad45-c7066346f521","ios":"levelo://app?vid=762b0592-333e-420d-ad45-c7066346f521"},"vehicle_type_id":"4","last_reported":1702523247,"current_range_meters":29600,"station_id":"ce4bh412rcd13ifvqds0","pricing_plan_id":"free"},{"bike_id":"fdc862be-a3ba-4e53-897a-03534ec78efc","system_id":"levelo_inurba_marseille","lat":43.295713,"lon":5.399639,"is_reserved":false,"is_disabled":false,"rental_uris":{"android":"levelo://app?vid=fdc862be-a3ba-4e53-897a-03534ec78efc","ios":"levelo://app?vid=fdc862be-a3ba-4e53-897a-03534ec78efc"},"vehicle_type_id":"4","last_reported":1702523247,"current_range_meters":27600,"station_id":"ce4bh312rcd13ifvqdj0","pricing_plan_id":"free"},{"bike_id":"9031ee4e-5dec-48c9-b287-be74aa80005d","system_id":"levelo_inurba_marseille","lat":43.319179,"lon":5.407725,"is_reserved":false,"is_disabled":false,"rental_uris":{"android":"levelo://app?vid=9031ee4e-5dec-48c9-b287-be74aa80005d","ios":"levelo://app?vid=9031ee4e-5dec-48c9-b287-be74aa80005d"},"vehicle_type_id":"4","last_reported":1702523247,"current_range_meters":26800,"station_id":"ce4bhq12rcd13ifvqhig","pricing_plan_id":"free"},{"bike_id":"d42c0b02-cd55-44d9-8e86-820835e7be64","system_id":"levelo_inurba_marseille","lat":43.323464,"lon":5.406297,"is_reserved":false,"is_disabled":false,"rental_uris":{"android":"levelo://app?vid=d42c0b02-cd55-44d9-8e86-820835e7be64","ios":"levelo://app?vid=d42c0b02-cd55-44d9-8e86-820835e7be64"},"vehicle_type_id":"4","last_reported":1702523247,"current_range_meters":30400,"station_id":"ce4bhq92rcd13ifvqhjg","pricing_plan_id":"free"},{"bike_id":"14030a2d-f1a2-4925-86e2-9f7986ad362f","system_id":"levelo_inurba_marseille","lat":43.282754,"lon":5.350519,"is_reserved":false,"is_disabled":false,"rental_uris":{"android":"levelo://app?vid=14030a2d-f1a2-4925-86e2-9f7986ad362f","ios":"levelo://app?vid=14030a2d-f1a2-4925-86e2-9f7986ad362f"},"vehicle_type_id":"4","last_reported":1702523247,"current_range_meters":28400,"station_id":"ce4bhbp2rcd13ifvqerg","pricing_plan_id":"free"},{"bike_id":"ff13163c-7f82-4167-aae9-d772a15eabfc","system_id":"levelo_inurba_marseille","lat":43.282744,"lon":5.350533,"is_reserved":false,"is_disabled":false,"rental_uris":{"android":"levelo://app?vid=ff13163c-7f82-4167-aae9-d772a15eabfc","ios":"levelo://app?vid=ff13163c-7f82-4167-aae9-d772a15eabfc"},"vehicle_type_id":"4","last_reported":1702523247,"current_range_meters":26800,"station_id":"ce4bhbp2rcd13ifvqerg","pricing_plan_id":"free"},{"bike_id":"407b4c07-f353-4943-9b22-bf6398ea4edb","system_id":"levelo_inurba_marseille","lat":43.283502,"lon":5.386471,"is_reserved":false,"is_disabled":false,"rental_uris":{"android":"levelo://app?vid=407b4c07-f353-4943-9b22-bf6398ea4edb","ios":"levelo://app?vid=407b4c07-f353-4943-9b22-bf6398ea4edb"},"vehicle_type_id":"4","last_reported":1702523247,"current_range_meters":30400,"station_id":"ce4bh492rcd13ifvqdvg","pricing_plan_id":"free"},{"bike_id":"5c3195f6-352c-40da-ad54-1b047e8385b7","system_id":"levelo_inurba_marseille","lat":43.28038,"lon":5.3694,"is_reserved":false,"is_disabled":false,"rental_uris":{"android":"levelo://app?vid=5c3195f6-352c-40da-ad54-1b047e8385b7","ios":"levelo://app?vid=5c3195f6-352c-40da-ad54-1b047e8385b7"},"vehicle_type_id":"4","last_reported":1702523247,"current_range_meters":31200,"station_id":"ce4bha12rcd13ifvqef0","pricing_plan_id":"free"},{"bike_id":"2d54fb07-2eee-40f1-9cf1-a2808a2d326c","system_id":"levelo_inurba_marseille","lat":43.280382,"lon":5.369291,"is_reserved":false,"is_disabled":false,"rental_uris":{"android":"levelo://app?vid=2d54fb07-2eee-40f1-9cf1-a2808a2d326c","ios":"levelo://app?vid=2d54fb07-2eee-40f1-9cf1-a2808a2d326c"},"vehicle_type_id":"4","last_reported":1702523247,"current_range_meters":31200,"station_id":"ce4bha12rcd13ifvqef0","pricing_plan_id":"free"},{"bike_id":"c8c5cff7-36d7-498a-b8bd-01aa079975ac","system_id":"levelo_inurba_marseille","lat":43.281044,"lon":5.378308,"is_reserved":false,"is_disabled":false,"rental_uris":{"android":"levelo://app?vid=c8c5cff7-36d7-498a-b8bd-01aa079975ac","ios":"levelo://app?vid=c8c5cff7-36d7-498a-b8bd-01aa079975ac"},"vehicle_type_id":"4","last_reported":1702523247,"current_range_meters":31200,"station_id":"ce4bha12rcd13ifvqee0","pricing_plan_id":"free"},{"bike_id":"5407d63a-9900-4fbe-ab2a-75f5ea0683f0","system_id":"levelo_inurba_marseille","lat":43.281044,"lon":5.378308,"is_reserved":false,"is_disabled":false,"rental_uris":{"android":"levelo://app?vid=5407d63a-9900-4fbe-ab2a-75f5ea0683f0","ios":"levelo://app?vid=5407d63a-9900-4fbe-ab2a-75f5ea0683f0"},"vehicle_type_id":"4","last_reported":1702523247,"current_range_meters":28400,"station_id":"ce4bha12rcd13ifvqee0","pricing_plan_id":"free"},{"bike_id":"5bf41c44-bdfb-44dc-8b9e-a230a88043e1","system_id":"levelo_inurba_marseille","lat":43.28573,"lon":5.394992,"is_reserved":false,"is_disabled":false,"rental_uris":{"android":"levelo://app?vid=5bf41c44-bdfb-44dc-8b9e-a230a88043e1","ios":"levelo://app?vid=5bf41c44-bdfb-44dc-8b9e-a230a88043e1"},"vehicle_type_id":"4","last_reported":1702523247,"current_range_meters":28800,"station_id":"ce4bh292rcd13ifvqdg0","pricing_plan_id":"free"},{"bike_id":"53e3ad93-c484-4049-b446-8c685425dedd","system_id":"levelo_inurba_marseille","lat":43.326605,"lon":5.409903,"is_reserved":false,"is_disabled":false,"rental_uris":{"android":"levelo://app?vid=53e3ad93-c484-4049-b446-8c685425dedd","ios":"levelo://app?vid=53e3ad93-c484-4049-b446-8c685425dedd"},"vehicle_type_id":"4","last_reported":1702523247,"current_range_meters":26400,"station_id":"ce4bhpp2rcd13ifvqhgg","pricing_plan_id":"free"},{"bike_id":"ff39fbc8-3a6b-418e-8ead-856993a6d477","system_id":"levelo_inurba_marseille","lat":43.326605,"lon":5.409903,"is_reserved":false,"is_disabled":false,"rental_uris":{"android":"levelo://app?vid=ff39fbc8-3a6b-418e-8ead-856993a6d477","ios":"levelo://app?vid=ff39fbc8-3a6b-418e-8ead-856993a6d477"},"vehicle_type_id":"4","last_reported":1702523247,"current_range_meters":26400,"station_id":"ce4bhpp2rcd13ifvqhgg","pricing_plan_id":"free"},{"bike_id":"991997b1-c923-49d1-8fdf-e06a7a482ddd","system_id":"levelo_inurba_marseille","lat":43.304188,"lon":5.412904,"is_reserved":false,"is_disabled":false,"rental_uris":{"android":"levelo://app?vid=991997b1-c923-49d1-8fdf-e06a7a482ddd","ios":"levelo://app?vid=991997b1-c923-49d1-8fdf-e06a7a482ddd"},"vehicle_type_id":"4","last_reported":1702523247,"current_range_meters":28400,"station_id":"ce4bhop2rcd13ifvqh8g","pricing_plan_id":"free"},{"bike_id":"daf9038f-640f-43bd-8785-7b70f55c5990","system_id":"levelo_inurba_marseille","lat":43.287154,"lon":5.399979,"is_reserved":false,"is_disabled":false,"rental_uris":{"android":"levelo://app?vid=daf9038f-640f-43bd-8785-7b70f55c5990","ios":"levelo://app?vid=daf9038f-640f-43bd-8785-7b70f55c5990"},"vehicle_type_id":"4","last_reported":1702523247,"current_range_meters":26400,"station_id":"ce4bho92rcd13ifvqh3g","pricing_plan_id":"free"},{"bike_id":"0ee73de2-2bbb-44e8-a446-c5857dc8dd35","system_id":"levelo_inurba_marseille","lat":43.292571,"lon":5.409107,"is_reserved":false,"is_disabled":false,"rental_uris":{"android":"levelo://app?vid=0ee73de2-2bbb-44e8-a446-c5857dc8dd35","ios":"levelo://app?vid=0ee73de2-2bbb-44e8-a446-c5857dc8dd35"},"vehicle_type_id":"4","last_reported":1702523247,"current_range_meters":30800,"station_id":"ce4bh192rcd13ifvqdc0","pricing_plan_id":"free"},{"bike_id":"41878be8-5525-4b88-958b-6b1fe5000c03","system_id":"levelo_inurba_marseille","lat":43.292569,"lon":5.409107,"is_reserved":false,"is_disabled":false,"rental_uris":{"android":"levelo://app?vid=41878be8-5525-4b88-958b-6b1fe5000c03","ios":"levelo://app?vid=41878be8-5525-4b88-958b-6b1fe5000c03"},"vehicle_type_id":"4","last_reported":1702523247,"current_range_meters":29600,"station_id":"ce4bh192rcd13ifvqdc0","pricing_plan_id":"free"},{"bike_id":"a937fae0-9bc1-42a9-a7d1-93d3eaca7aa6","system_id":"levelo_inurba_marseille","lat":43.292569,"lon":5.409107,"is_reserved":false,"is_disabled":false,"rental_uris":{"android":"levelo://app?vid=a937fae0-9bc1-42a9-a7d1-93d3eaca7aa6","ios":"levelo://app?vid=a937fae0-9bc1-42a9-a7d1-93d3eaca7aa6"},"vehicle_type_id":"4","last_reported":1702523247,"current_range_meters":26400,"station_id":"ce4bh192rcd13ifvqdc0","pricing_plan_id":"free"},{"bike_id":"b17b3073-f001-47b0-8ca9-ccb2216d00ad","system_id":"levelo_inurba_marseille","lat":43.292569,"lon":5.409107,"is_reserved":false,"is_disabled":false,"rental_uris":{"android":"levelo://app?vid=b17b3073-f001-47b0-8ca9-ccb2216d00ad","ios":"levelo://app?vid=b17b3073-f001-47b0-8ca9-ccb2216d00ad"},"vehicle_type_id":"4","last_reported":1702523247,"current_range_meters":30000,"station_id":"ce4bh192rcd13ifvqdc0","pricing_plan_id":"free"},{"bike_id":"359fb6df-e61b-45e7-95a6-2a3959446907","system_id":"levelo_inurba_marseille","lat":43.276184,"lon":5.361144,"is_reserved":false,"is_disabled":false,"rental_uris":{"android":"levelo://app?vid=359fb6df-e61b-45e7-95a6-2a3959446907","ios":"levelo://app?vid=359fb6df-e61b-45e7-95a6-2a3959446907"},"vehicle_type_id":"4","last_reported":1702523247,"current_range_meters":29200,"station_id":"ce4bgj92rcd13ifvqbe0","pricing_plan_id":"free"},{"bike_id":"c016e672-b4d7-49b9-b38f-69fd9e1cf7ed","system_id":"levelo_inurba_marseille","lat":43.325243,"lon":5.414326,"is_reserved":false,"is_disabled":false,"rental_uris":{"android":"levelo://app?vid=c016e672-b4d7-49b9-b38f-69fd9e1cf7ed","ios":"levelo://app?vid=c016e672-b4d7-49b9-b38f-69fd9e1cf7ed"},"vehicle_type_id":"4","last_reported":1702523247,"current_range_meters":19600,"station_id":"ce4bhq12rcd13ifvqhhg","pricing_plan_id":"free"},{"bike_id":"74973e57-6a7e-4011-8d5e-0912c55eb2aa","system_id":"levelo_inurba_marseille","lat":43.35094,"lon":5.3681,"is_reserved":false,"is_disabled":false,"rental_uris":{"android":"levelo://app?vid=74973e57-6a7e-4011-8d5e-0912c55eb2aa","ios":"levelo://app?vid=74973e57-6a7e-4011-8d5e-0912c55eb2aa"},"vehicle_type_id":"4","last_reported":1702523247,"current_range_meters":0,"station_id":"","pricing_plan_id":"free"},{"bike_id":"880aa1c5-8b19-4862-ae8e-55a3060b0ba9","system_id":"levelo_inurba_marseille","lat":43.280784,"lon":5.396622,"is_reserved":false,"is_disabled":false,"rental_uris":{"android":"levelo://app?vid=880aa1c5-8b19-4862-ae8e-55a3060b0ba9","ios":"levelo://app?vid=880aa1c5-8b19-4862-ae8e-55a3060b0ba9"},"vehicle_type_id":"4","last_reported":1702523247,"current_range_meters":31200,"station_id":"ce4bho12rcd13ifvqh2g","pricing_plan_id":"free"},{"bike_id":"bce467dd-ec9d-4e5c-b2cf-647d61a30a92","system_id":"levelo_inurba_marseille","lat":43.278401,"lon":5.392152,"is_reserved":false,"is_disabled":false,"rental_uris":{"android":"levelo://app?vid=bce467dd-ec9d-4e5c-b2cf-647d61a30a92","ios":"levelo://app?vid=bce467dd-ec9d-4e5c-b2cf-647d61a30a92"},"vehicle_type_id":"4","last_reported":1702523247,"current_range_meters":26400,"station_id":"ce4bhjp2rcd13ifvqga0","pricing_plan_id":"free"},{"bike_id":"95999ca3-6ed8-4d64-9c6d-96ed6ed03926","system_id":"levelo_inurba_marseille","lat":43.273613,"lon":5.362705,"is_reserved":false,"is_disabled":false,"rental_uris":{"android":"levelo://app?vid=95999ca3-6ed8-4d64-9c6d-96ed6ed03926","ios":"levelo://app?vid=95999ca3-6ed8-4d64-9c6d-96ed6ed03926"},"vehicle_type_id":"4","last_reported":1702523247,"current_range_meters":30000,"station_id":"ce4bhbh2rcd13ifvqeo0","pricing_plan_id":"free"},{"bike_id":"80b510a4-8911-4fa9-ba69-61e3cd3b82dd","system_id":"levelo_inurba_marseille","lat":43.275625,"lon":5.384392,"is_reserved":false,"is_disabled":false,"rental_uris":{"android":"levelo://app?vid=80b510a4-8911-4fa9-ba69-61e3cd3b82dd","ios":"levelo://app?vid=80b510a4-8911-4fa9-ba69-61e3cd3b82dd"},"vehicle_type_id":"4","last_reported":1702523247,"current_range_meters":26800,"station_id":"ce4bhh92rcd13ifvqfi0","pricing_plan_id":"free"},{"bike_id":"f121e83a-1d91-4e3f-be43-9284c610fa09","system_id":"levelo_inurba_marseille","lat":43.275625,"lon":5.384392,"is_reserved":false,"is_disabled":false,"rental_uris":{"android":"levelo://app?vid=f121e83a-1d91-4e3f-be43-9284c610fa09","ios":"levelo://app?vid=f121e83a-1d91-4e3f-be43-9284c610fa09"},"vehicle_type_id":"4","last_reported":1702523247,"current_range_meters":25200,"station_id":"ce4bhh92rcd13ifvqfi0","pricing_plan_id":"free"},{"bike_id":"c43133fd-8e3e-45e1-b477-6e734edb290c","system_id":"levelo_inurba_marseille","lat":43.33608,"lon":5.410283,"is_reserved":false,"is_disabled":false,"rental_uris":{"android":"levelo://app?vid=c43133fd-8e3e-45e1-b477-6e734edb290c","ios":"levelo://app?vid=c43133fd-8e3e-45e1-b477-6e734edb290c"},"vehicle_type_id":"4","last_reported":1702523247,"current_range_meters":30800,"station_id":"ce4bhqh2rcd13ifvqhmg","pricing_plan_id":"free"},{"bike_id":"fa983061-5134-4d54-8ae6-e419c0aa537c","system_id":"levelo_inurba_marseille","lat":43.336148,"lon":5.410349,"is_reserved":false,"is_disabled":false,"rental_uris":{"android":"levelo://app?vid=fa983061-5134-4d54-8ae6-e419c0aa537c","ios":"levelo://app?vid=fa983061-5134-4d54-8ae6-e419c0aa537c"},"vehicle_type_id":"4","last_reported":1702523247,"current_range_meters":13200,"station_id":"ce4bhqh2rcd13ifvqhmg","pricing_plan_id":"free"},{"bike_id":"1052ae52-7418-439c-9a13-56ea0baee506","system_id":"levelo_inurba_marseille","lat":43.336148,"lon":5.410349,"is_reserved":false,"is_disabled":false,"rental_uris":{"android":"levelo://app?vid=1052ae52-7418-439c-9a13-56ea0baee506","ios":"levelo://app?vid=1052ae52-7418-439c-9a13-56ea0baee506"},"vehicle_type_id":"4","last_reported":1702523247,"current_range_meters":31200,"station_id":"ce4bhqh2rcd13ifvqhmg","pricing_plan_id":"free"},{"bike_id":"20c1baef-db95-422b-9a73-9290c9241570","system_id":"levelo_inurba_marseille","lat":43.279952,"lon":5.400085,"is_reserved":false,"is_disabled":false,"rental_uris":{"android":"levelo://app?vid=20c1baef-db95-422b-9a73-9290c9241570","ios":"levelo://app?vid=20c1baef-db95-422b-9a73-9290c9241570"},"vehicle_type_id":"4","last_reported":1702523247,"current_range_meters":15600,"station_id":"ce4bho92rcd13ifvqh4g","pricing_plan_id":"free"},{"bike_id":"79650ebc-967e-4d1c-81ae-bc942d9248c1","system_id":"levelo_inurba_marseille","lat":43.279975,"lon":5.40009,"is_reserved":false,"is_disabled":false,"rental_uris":{"android":"levelo://app?vid=79650ebc-967e-4d1c-81ae-bc942d9248c1","ios":"levelo://app?vid=79650ebc-967e-4d1c-81ae-bc942d9248c1"},"vehicle_type_id":"4","last_reported":1702523247,"current_range_meters":24800,"station_id":"ce4bho92rcd13ifvqh4g","pricing_plan_id":"free"},{"bike_id":"7b1fa29e-caff-4f67-96a3-110a1ff97aa7","system_id":"levelo_inurba_marseille","lat":43.31725,"lon":5.42394,"is_reserved":false,"is_disabled":false,"rental_uris":{"android":"levelo://app?vid=7b1fa29e-caff-4f67-96a3-110a1ff97aa7","ios":"levelo://app?vid=7b1fa29e-caff-4f67-96a3-110a1ff97aa7"},"vehicle_type_id":"4","last_reported":1702523247,"current_range_meters":20800,"station_id":"ce4bhp92rcd13ifvqhbg","pricing_plan_id":"free"},{"bike_id":"6161d674-6206-475b-bc2f-d94e3f80d335","system_id":"levelo_inurba_marseille","lat":43.317121,"lon":5.423936,"is_reserved":false,"is_disabled":false,"rental_uris":{"android":"levelo://app?vid=6161d674-6206-475b-bc2f-d94e3f80d335","ios":"levelo://app?vid=6161d674-6206-475b-bc2f-d94e3f80d335"},"vehicle_type_id":"4","last_reported":1702523247,"current_range_meters":28800,"station_id":"ce4bhp92rcd13ifvqhbg","pricing_plan_id":"free"},{"bike_id":"800bce67-be39-4ae9-a103-d9ca33d8cd2f","system_id":"levelo_inurba_marseille","lat":43.310785,"lon":5.424305,"is_reserved":false,"is_disabled":false,"rental_uris":{"android":"levelo://app?vid=800bce67-be39-4ae9-a103-d9ca33d8cd2f","ios":"levelo://app?vid=800bce67-be39-4ae9-a103-d9ca33d8cd2f"},"vehicle_type_id":"4","last_reported":1702523247,"current_range_meters":28000,"station_id":"ce4bhp92rcd13ifvqhag","pricing_plan_id":"free"},{"bike_id":"fdfea060-a937-4f92-8430-8f650d233de2","system_id":"levelo_inurba_marseille","lat":43.317121,"lon":5.423936,"is_reserved":false,"is_disabled":false,"rental_uris":{"android":"levelo://app?vid=fdfea060-a937-4f92-8430-8f650d233de2","ios":"levelo://app?vid=fdfea060-a937-4f92-8430-8f650d233de2"},"vehicle_type_id":"4","last_reported":1702523247,"current_range_meters":28800,"station_id":"ce4bhp92rcd13ifvqhbg","pricing_plan_id":"free"},{"bike_id":"55f8cf7b-a384-4860-b1f5-075034029351","system_id":"levelo_inurba_marseille","lat":43.317127,"lon":5.424047,"is_reserved":false,"is_disabled":false,"rental_uris":{"android":"levelo://app?vid=55f8cf7b-a384-4860-b1f5-075034029351","ios":"levelo://app?vid=55f8cf7b-a384-4860-b1f5-075034029351"},"vehicle_type_id":"4","last_reported":1702523247,"current_range_meters":22800,"station_id":"ce4bhp92rcd13ifvqhbg","pricing_plan_id":"free"},{"bike_id":"b1c028eb-0fe1-4afa-b35c-b9783a0e9537","system_id":"levelo_inurba_marseille","lat":43.31723,"lon":5.42405,"is_reserved":false,"is_disabled":false,"rental_uris":{"android":"levelo://app?vid=b1c028eb-0fe1-4afa-b35c-b9783a0e9537","ios":"levelo://app?vid=b1c028eb-0fe1-4afa-b35c-b9783a0e9537"},"vehicle_type_id":"4","last_reported":1702523247,"current_range_meters":0,"station_id":"ce4bhp92rcd13ifvqhbg","pricing_plan_id":"free"},{"bike_id":"ceded0a8-b6c8-4c13-8e17-994a5c22e158","system_id":"levelo_inurba_marseille","lat":43.340804,"lon":5.410219,"is_reserved":false,"is_disabled":false,"rental_uris":{"android":"levelo://app?vid=ceded0a8-b6c8-4c13-8e17-994a5c22e158","ios":"levelo://app?vid=ceded0a8-b6c8-4c13-8e17-994a5c22e158"},"vehicle_type_id":"4","last_reported":1702523247,"current_range_meters":28000,"station_id":"ce4bhqh2rcd13ifvqhlg","pricing_plan_id":"free"},{"bike_id":"735a48c3-eb5d-4627-ac05-6da9b77b047f","system_id":"levelo_inurba_marseille","lat":43.340804,"lon":5.410219,"is_reserved":false,"is_disabled":false,"rental_uris":{"android":"levelo://app?vid=735a48c3-eb5d-4627-ac05-6da9b77b047f","ios":"levelo://app?vid=735a48c3-eb5d-4627-ac05-6da9b77b047f"},"vehicle_type_id":"4","last_reported":1702523247,"current_range_meters":28400,"station_id":"ce4bhqh2rcd13ifvqhlg","pricing_plan_id":"free"},{"bike_id":"3ca2c2d2-99b0-4aa6-a05d-e30f02e6a7fb","system_id":"levelo_inurba_marseille","lat":43.27588,"lon":5.39495,"is_reserved":false,"is_disabled":false,"rental_uris":{"android":"levelo://app?vid=3ca2c2d2-99b0-4aa6-a05d-e30f02e6a7fb","ios":"levelo://app?vid=3ca2c2d2-99b0-4aa6-a05d-e30f02e6a7fb"},"vehicle_type_id":"4","last_reported":1702523247,"current_range_meters":12800,"station_id":"","pricing_plan_id":"free"},{"bike_id":"a5268966-18d9-4d6f-b2e9-dfbde0c50fef","system_id":"levelo_inurba_marseille","lat":43.274103,"lon":5.394016,"is_reserved":false,"is_disabled":false,"rental_uris":{"android":"levelo://app?vid=a5268966-18d9-4d6f-b2e9-dfbde0c50fef","ios":"levelo://app?vid=a5268966-18d9-4d6f-b2e9-dfbde0c50fef"},"vehicle_type_id":"4","last_reported":1702523247,"current_range_meters":30000,"station_id":"ce4bhdp2rcd13ifvqf20","pricing_plan_id":"free"},{"bike_id":"bcb5db2f-8bfd-4a96-80c5-4e038682ef0d","system_id":"levelo_inurba_marseille","lat":43.273129,"lon":5.390725,"is_reserved":false,"is_disabled":false,"rental_uris":{"android":"levelo://app?vid=bcb5db2f-8bfd-4a96-80c5-4e038682ef0d","ios":"levelo://app?vid=bcb5db2f-8bfd-4a96-80c5-4e038682ef0d"},"vehicle_type_id":"4","last_reported":1702523247,"current_range_meters":16800,"station_id":"ce4bhgp2rcd13ifvqfe0","pricing_plan_id":"free"},{"bike_id":"74463467-0624-473e-a82f-ba3dae00c526","system_id":"levelo_inurba_marseille","lat":43.30414,"lon":5.42539,"is_reserved":false,"is_disabled":false,"rental_uris":{"android":"levelo://app?vid=74463467-0624-473e-a82f-ba3dae00c526","ios":"levelo://app?vid=74463467-0624-473e-a82f-ba3dae00c526"},"vehicle_type_id":"4","last_reported":1702523247,"current_range_meters":0,"station_id":"ce4bhoh2rcd13ifvqh6g","pricing_plan_id":"free"},{"bike_id":"9cbcb1df-fed0-41ab-8c8f-91ffd45f5cfa","system_id":"levelo_inurba_marseille","lat":43.304088,"lon":5.425388,"is_reserved":false,"is_disabled":false,"rental_uris":{"android":"levelo://app?vid=9cbcb1df-fed0-41ab-8c8f-91ffd45f5cfa","ios":"levelo://app?vid=9cbcb1df-fed0-41ab-8c8f-91ffd45f5cfa"},"vehicle_type_id":"4","last_reported":1702523247,"current_range_meters":17600,"station_id":"ce4bhoh2rcd13ifvqh6g","pricing_plan_id":"free"},{"bike_id":"f24842c9-86a0-47e5-beb1-29d6f71a0a0b","system_id":"levelo_inurba_marseille","lat":43.295523,"lon":5.422926,"is_reserved":false,"is_disabled":false,"rental_uris":{"android":"levelo://app?vid=f24842c9-86a0-47e5-beb1-29d6f71a0a0b","ios":"levelo://app?vid=f24842c9-86a0-47e5-beb1-29d6f71a0a0b"},"vehicle_type_id":"4","last_reported":1702523247,"current_range_meters":28000,"station_id":"ce4bhph2rcd13ifvqhdg","pricing_plan_id":"free"},{"bike_id":"21cd849d-d21e-4908-819b-2fc71912a061","system_id":"levelo_inurba_marseille","lat":43.295511,"lon":5.422926,"is_reserved":false,"is_disabled":false,"rental_uris":{"android":"levelo://app?vid=21cd849d-d21e-4908-819b-2fc71912a061","ios":"levelo://app?vid=21cd849d-d21e-4908-819b-2fc71912a061"},"vehicle_type_id":"4","last_reported":1702523247,"current_range_meters":29600,"station_id":"ce4bhph2rcd13ifvqhdg","pricing_plan_id":"free"},{"bike_id":"efd07f44-bad2-4db2-bac2-d01b2d8df1cb","system_id":"levelo_inurba_marseille","lat":43.295511,"lon":5.422926,"is_reserved":false,"is_disabled":false,"rental_uris":{"android":"levelo://app?vid=efd07f44-bad2-4db2-bac2-d01b2d8df1cb","ios":"levelo://app?vid=efd07f44-bad2-4db2-bac2-d01b2d8df1cb"},"vehicle_type_id":"4","last_reported":1702523247,"current_range_meters":27200,"station_id":"ce4bhph2rcd13ifvqhdg","pricing_plan_id":"free"},{"bike_id":"8ab7bcd5-c7dc-4257-a2fb-116bdd628321","system_id":"levelo_inurba_marseille","lat":43.278148,"lon":5.407072,"is_reserved":false,"is_disabled":false,"rental_uris":{"android":"levelo://app?vid=8ab7bcd5-c7dc-4257-a2fb-116bdd628321","ios":"levelo://app?vid=8ab7bcd5-c7dc-4257-a2fb-116bdd628321"},"vehicle_type_id":"4","last_reported":1702523247,"current_range_meters":17600,"station_id":"ce4bhnh2rcd13ifvqgtg","pricing_plan_id":"free"},{"bike_id":"4390bffd-7c0b-4706-b12e-4a9031cdebaa","system_id":"levelo_inurba_marseille","lat":43.278128,"lon":5.407195,"is_reserved":false,"is_disabled":false,"rental_uris":{"android":"levelo://app?vid=4390bffd-7c0b-4706-b12e-4a9031cdebaa","ios":"levelo://app?vid=4390bffd-7c0b-4706-b12e-4a9031cdebaa"},"vehicle_type_id":"4","last_reported":1702523247,"current_range_meters":28400,"station_id":"ce4bhnh2rcd13ifvqgtg","pricing_plan_id":"free"},{"bike_id":"5b626053-f3b3-4a39-8e59-d93a232fcae0","system_id":"levelo_inurba_marseille","lat":43.278128,"lon":5.407195,"is_reserved":false,"is_disabled":false,"rental_uris":{"android":"levelo://app?vid=5b626053-f3b3-4a39-8e59-d93a232fcae0","ios":"levelo://app?vid=5b626053-f3b3-4a39-8e59-d93a232fcae0"},"vehicle_type_id":"4","last_reported":1702523247,"current_range_meters":29600,"station_id":"ce4bhnh2rcd13ifvqgtg","pricing_plan_id":"free"},{"bike_id":"5821cd01-7346-414d-b49a-d556c7d46491","system_id":"levelo_inurba_marseille","lat":43.269467,"lon":5.386439,"is_reserved":false,"is_disabled":false,"rental_uris":{"android":"levelo://app?vid=5821cd01-7346-414d-b49a-d556c7d46491","ios":"levelo://app?vid=5821cd01-7346-414d-b49a-d556c7d46491"},"vehicle_type_id":"4","last_reported":1702523247,"current_range_meters":29200,"station_id":"ce4bhh92rcd13ifvqfh0","pricing_plan_id":"free"},{"bike_id":"480011b9-f9d2-4fdf-9b1c-aeac6f9eef67","system_id":"levelo_inurba_marseille","lat":43.26948,"lon":5.38626,"is_reserved":false,"is_disabled":false,"rental_uris":{"android":"levelo://app?vid=480011b9-f9d2-4fdf-9b1c-aeac6f9eef67","ios":"levelo://app?vid=480011b9-f9d2-4fdf-9b1c-aeac6f9eef67"},"vehicle_type_id":"4","last_reported":1702523247,"current_range_meters":30000,"station_id":"ce4bhh92rcd13ifvqfh0","pricing_plan_id":"free"},{"bike_id":"13aeab0c-5fc7-4a70-9d35-9a78d4004e35","system_id":"levelo_inurba_marseille","lat":43.279465,"lon":5.410561,"is_reserved":false,"is_disabled":false,"rental_uris":{"android":"levelo://app?vid=13aeab0c-5fc7-4a70-9d35-9a78d4004e35","ios":"levelo://app?vid=13aeab0c-5fc7-4a70-9d35-9a78d4004e35"},"vehicle_type_id":"4","last_reported":1702523247,"current_range_meters":4400,"station_id":"ce4bhnp2rcd13ifvqh0g","pricing_plan_id":"free"},{"bike_id":"2f954a71-a24d-4218-8131-98337f69cd1b","system_id":"levelo_inurba_marseille","lat":43.27946,"lon":5.410405,"is_reserved":false,"is_disabled":false,"rental_uris":{"android":"levelo://app?vid=2f954a71-a24d-4218-8131-98337f69cd1b","ios":"levelo://app?vid=2f954a71-a24d-4218-8131-98337f69cd1b"},"vehicle_type_id":"4","last_reported":1702523247,"current_range_meters":12000,"station_id":"ce4bhnp2rcd13ifvqh0g","pricing_plan_id":"free"},{"bike_id":"34b4316b-f345-45de-af70-0c64bb215ce6","system_id":"levelo_inurba_marseille","lat":43.269319,"lon":5.389397,"is_reserved":false,"is_disabled":false,"rental_uris":{"android":"levelo://app?vid=34b4316b-f345-45de-af70-0c64bb215ce6","ios":"levelo://app?vid=34b4316b-f345-45de-af70-0c64bb215ce6"},"vehicle_type_id":"4","last_reported":1702523247,"current_range_meters":15200,"station_id":"ce4bhhh2rcd13ifvqfl0","pricing_plan_id":"free"},{"bike_id":"fee91fa2-5868-42fc-8e40-ea18a86e9560","system_id":"levelo_inurba_marseille","lat":43.265714,"lon":5.372891,"is_reserved":false,"is_disabled":false,"rental_uris":{"android":"levelo://app?vid=fee91fa2-5868-42fc-8e40-ea18a86e9560","ios":"levelo://app?vid=fee91fa2-5868-42fc-8e40-ea18a86e9560"},"vehicle_type_id":"4","last_reported":1702523247,"current_range_meters":28000,"station_id":"ce4bhg12rcd13ifvqf70","pricing_plan_id":"free"},{"bike_id":"cb25c8bf-e4ee-4d5d-bae9-3b58e7e9abcd","system_id":"levelo_inurba_marseille","lat":43.26556,"lon":5.37286,"is_reserved":false,"is_disabled":false,"rental_uris":{"android":"levelo://app?vid=cb25c8bf-e4ee-4d5d-bae9-3b58e7e9abcd","ios":"levelo://app?vid=cb25c8bf-e4ee-4d5d-bae9-3b58e7e9abcd"},"vehicle_type_id":"4","last_reported":1702523247,"current_range_meters":30000,"station_id":"ce4bhg12rcd13ifvqf70","pricing_plan_id":"free"},{"bike_id":"fa580f02-b807-4437-8699-633f96b3f41e","system_id":"levelo_inurba_marseille","lat":43.267966,"lon":5.393976,"is_reserved":false,"is_disabled":false,"rental_uris":{"android":"levelo://app?vid=fa580f02-b807-4437-8699-633f96b3f41e","ios":"levelo://app?vid=fa580f02-b807-4437-8699-633f96b3f41e"},"vehicle_type_id":"4","last_reported":1702523247,"current_range_meters":30000,"station_id":"ce4bhh12rcd13ifvqfg0","pricing_plan_id":"free"},{"bike_id":"458a8e7f-8cc0-45b9-b69c-e092f9b5a641","system_id":"levelo_inurba_marseille","lat":43.267966,"lon":5.393976,"is_reserved":false,"is_disabled":false,"rental_uris":{"android":"levelo://app?vid=458a8e7f-8cc0-45b9-b69c-e092f9b5a641","ios":"levelo://app?vid=458a8e7f-8cc0-45b9-b69c-e092f9b5a641"},"vehicle_type_id":"4","last_reported":1702523247,"current_range_meters":28800,"station_id":"ce4bhh12rcd13ifvqfg0","pricing_plan_id":"free"},{"bike_id":"af2968c9-3858-4920-90e1-be7507fc4cd7","system_id":"levelo_inurba_marseille","lat":43.307997,"lon":5.435173,"is_reserved":false,"is_disabled":false,"rental_uris":{"android":"levelo://app?vid=af2968c9-3858-4920-90e1-be7507fc4cd7","ios":"levelo://app?vid=af2968c9-3858-4920-90e1-be7507fc4cd7"},"vehicle_type_id":"4","last_reported":1702523247,"current_range_meters":20800,"station_id":"ce4bhph2rcd13ifvqheg","pricing_plan_id":"free"},{"bike_id":"cff10f6f-3673-4b24-8e98-ebb9bbc181ab","system_id":"levelo_inurba_marseille","lat":43.308051,"lon":5.43527,"is_reserved":false,"is_disabled":false,"rental_uris":{"android":"levelo://app?vid=cff10f6f-3673-4b24-8e98-ebb9bbc181ab","ios":"levelo://app?vid=cff10f6f-3673-4b24-8e98-ebb9bbc181ab"},"vehicle_type_id":"4","last_reported":1702523247,"current_range_meters":28000,"station_id":"ce4bhph2rcd13ifvqheg","pricing_plan_id":"free"},{"bike_id":"3f232a0b-f328-4a7c-9376-5d1041aa79e5","system_id":"levelo_inurba_marseille","lat":43.307997,"lon":5.435234,"is_reserved":false,"is_disabled":false,"rental_uris":{"android":"levelo://app?vid=3f232a0b-f328-4a7c-9376-5d1041aa79e5","ios":"levelo://app?vid=3f232a0b-f328-4a7c-9376-5d1041aa79e5"},"vehicle_type_id":"4","last_reported":1702523247,"current_range_meters":29200,"station_id":"ce4bhph2rcd13ifvqheg","pricing_plan_id":"free"},{"bike_id":"9c0e73bc-0807-403f-9cb2-b8f89e5e148c","system_id":"levelo_inurba_marseille","lat":43.265655,"lon":5.390102,"is_reserved":false,"is_disabled":false,"rental_uris":{"android":"levelo://app?vid=9c0e73bc-0807-403f-9cb2-b8f89e5e148c","ios":"levelo://app?vid=9c0e73bc-0807-403f-9cb2-b8f89e5e148c"},"vehicle_type_id":"4","last_reported":1702523247,"current_range_meters":28400,"station_id":"ce4bhe12rcd13ifvqf30","pricing_plan_id":"free"},{"bike_id":"6b72352b-562f-40ce-8cc6-a9f44a39dd11","system_id":"levelo_inurba_marseille","lat":43.265569,"lon":5.390047,"is_reserved":false,"is_disabled":false,"rental_uris":{"android":"levelo://app?vid=6b72352b-562f-40ce-8cc6-a9f44a39dd11","ios":"levelo://app?vid=6b72352b-562f-40ce-8cc6-a9f44a39dd11"},"vehicle_type_id":"4","last_reported":1702523247,"current_range_meters":16400,"station_id":"ce4bhe12rcd13ifvqf30","pricing_plan_id":"free"},{"bike_id":"74aa75cc-540d-493f-9f44-d4d00cdc5059","system_id":"levelo_inurba_marseille","lat":43.26189,"lon":5.37444,"is_reserved":false,"is_disabled":false,"rental_uris":{"android":"levelo://app?vid=74aa75cc-540d-493f-9f44-d4d00cdc5059","ios":"levelo://app?vid=74aa75cc-540d-493f-9f44-d4d00cdc5059"},"vehicle_type_id":"4","last_reported":1702523247,"current_range_meters":30400,"station_id":"ce4bhgp2rcd13ifvqfc0","pricing_plan_id":"free"},{"bike_id":"4f487e36-00dc-42e1-bb73-139c0266d0c1","system_id":"levelo_inurba_marseille","lat":43.271368,"lon":5.40928,"is_reserved":false,"is_disabled":false,"rental_uris":{"android":"levelo://app?vid=4f487e36-00dc-42e1-bb73-139c0266d0c1","ios":"levelo://app?vid=4f487e36-00dc-42e1-bb73-139c0266d0c1"},"vehicle_type_id":"4","last_reported":1702523247,"current_range_meters":28800,"station_id":"ce4bhl12rcd13ifvqgf0","pricing_plan_id":"free"},{"bike_id":"d3a95d80-aad5-4f0e-bd06-ef04b82f37bb","system_id":"levelo_inurba_marseille","lat":43.26202,"lon":5.379299,"is_reserved":false,"is_disabled":false,"rental_uris":{"android":"levelo://app?vid=d3a95d80-aad5-4f0e-bd06-ef04b82f37bb","ios":"levelo://app?vid=d3a95d80-aad5-4f0e-bd06-ef04b82f37bb"},"vehicle_type_id":"4","last_reported":1702523247,"current_range_meters":9200,"station_id":"ce4bhjp2rcd13ifvqg90","pricing_plan_id":"free"},{"bike_id":"d7c68083-de0d-4032-884a-e4511850567b","system_id":"levelo_inurba_marseille","lat":43.26202,"lon":5.379299,"is_reserved":false,"is_disabled":false,"rental_uris":{"android":"levelo://app?vid=d7c68083-de0d-4032-884a-e4511850567b","ios":"levelo://app?vid=d7c68083-de0d-4032-884a-e4511850567b"},"vehicle_type_id":"4","last_reported":1702523247,"current_range_meters":31600,"station_id":"ce4bhjp2rcd13ifvqg90","pricing_plan_id":"free"},{"bike_id":"293b0fd3-65b1-42bb-807b-a77a51ee2260","system_id":"levelo_inurba_marseille","lat":43.271388,"lon":5.409269,"is_reserved":false,"is_disabled":false,"rental_uris":{"android":"levelo://app?vid=293b0fd3-65b1-42bb-807b-a77a51ee2260","ios":"levelo://app?vid=293b0fd3-65b1-42bb-807b-a77a51ee2260"},"vehicle_type_id":"4","last_reported":1702523247,"current_range_meters":30000,"station_id":"ce4bhl12rcd13ifvqgf0","pricing_plan_id":"free"},{"bike_id":"96dd960e-9e5f-4ba8-a693-12d87ec3b4a9","system_id":"levelo_inurba_marseille","lat":43.271388,"lon":5.409269,"is_reserved":false,"is_disabled":false,"rental_uris":{"android":"levelo://app?vid=96dd960e-9e5f-4ba8-a693-12d87ec3b4a9","ios":"levelo://app?vid=96dd960e-9e5f-4ba8-a693-12d87ec3b4a9"},"vehicle_type_id":"4","last_reported":1702523247,"current_range_meters":30400,"station_id":"ce4bhl12rcd13ifvqgf0","pricing_plan_id":"free"},{"bike_id":"3100a520-43ba-49b5-b022-5661f082c39e","system_id":"levelo_inurba_marseille","lat":43.271388,"lon":5.409269,"is_reserved":false,"is_disabled":false,"rental_uris":{"android":"levelo://app?vid=3100a520-43ba-49b5-b022-5661f082c39e","ios":"levelo://app?vid=3100a520-43ba-49b5-b022-5661f082c39e"},"vehicle_type_id":"4","last_reported":1702523247,"current_range_meters":24400,"station_id":"ce4bhl12rcd13ifvqgf0","pricing_plan_id":"free"},{"bike_id":"f26caec4-39f2-4730-a41b-b6bc9b4a2be6","system_id":"levelo_inurba_marseille","lat":43.267959,"lon":5.402685,"is_reserved":false,"is_disabled":false,"rental_uris":{"android":"levelo://app?vid=f26caec4-39f2-4730-a41b-b6bc9b4a2be6","ios":"levelo://app?vid=f26caec4-39f2-4730-a41b-b6bc9b4a2be6"},"vehicle_type_id":"4","last_reported":1702523247,"current_range_meters":22000,"station_id":"ce501612rcd8frsf0b60","pricing_plan_id":"free"},{"bike_id":"3b3ce763-90e8-4e69-820b-3004a0854853","system_id":"levelo_inurba_marseille","lat":43.267959,"lon":5.402687,"is_reserved":false,"is_disabled":false,"rental_uris":{"android":"levelo://app?vid=3b3ce763-90e8-4e69-820b-3004a0854853","ios":"levelo://app?vid=3b3ce763-90e8-4e69-820b-3004a0854853"},"vehicle_type_id":"4","last_reported":1702523247,"current_range_meters":28000,"station_id":"ce501612rcd8frsf0b60","pricing_plan_id":"free"},{"bike_id":"237634d4-2d23-479f-935b-09427197b407","system_id":"levelo_inurba_marseille","lat":43.27078,"lon":5.40952,"is_reserved":false,"is_disabled":false,"rental_uris":{"android":"levelo://app?vid=237634d4-2d23-479f-935b-09427197b407","ios":"levelo://app?vid=237634d4-2d23-479f-935b-09427197b407"},"vehicle_type_id":"4","last_reported":1702523247,"current_range_meters":8400,"station_id":"","pricing_plan_id":"free"},{"bike_id":"4ec71661-c1e3-4c3b-a17d-3fefed6d4370","system_id":"levelo_inurba_marseille","lat":43.29904,"lon":5.43659,"is_reserved":false,"is_disabled":false,"rental_uris":{"android":"levelo://app?vid=4ec71661-c1e3-4c3b-a17d-3fefed6d4370","ios":"levelo://app?vid=4ec71661-c1e3-4c3b-a17d-3fefed6d4370"},"vehicle_type_id":"4","last_reported":1702523247,"current_range_meters":17200,"station_id":"ce4bhpp2rcd13ifvqhfg","pricing_plan_id":"free"},{"bike_id":"f860f387-f2ce-4d8f-830e-bd8a0d08dbe2","system_id":"levelo_inurba_marseille","lat":43.298768,"lon":5.43643,"is_reserved":false,"is_disabled":false,"rental_uris":{"android":"levelo://app?vid=f860f387-f2ce-4d8f-830e-bd8a0d08dbe2","ios":"levelo://app?vid=f860f387-f2ce-4d8f-830e-bd8a0d08dbe2"},"vehicle_type_id":"4","last_reported":1702523247,"current_range_meters":26800,"station_id":"ce4bhpp2rcd13ifvqhfg","pricing_plan_id":"free"},{"bike_id":"38a4a3ac-b01c-43e0-abb4-5a012521fc8c","system_id":"levelo_inurba_marseille","lat":43.298768,"lon":5.43643,"is_reserved":false,"is_disabled":false,"rental_uris":{"android":"levelo://app?vid=38a4a3ac-b01c-43e0-abb4-5a012521fc8c","ios":"levelo://app?vid=38a4a3ac-b01c-43e0-abb4-5a012521fc8c"},"vehicle_type_id":"4","last_reported":1702523247,"current_range_meters":31200,"station_id":"ce4bhpp2rcd13ifvqhfg","pricing_plan_id":"free"},{"bike_id":"9818b3a9-0aee-4725-bea5-4826825109e4","system_id":"levelo_inurba_marseille","lat":43.281548,"lon":5.42643,"is_reserved":false,"is_disabled":false,"rental_uris":{"android":"levelo://app?vid=9818b3a9-0aee-4725-bea5-4826825109e4","ios":"levelo://app?vid=9818b3a9-0aee-4725-bea5-4826825109e4"},"vehicle_type_id":"4","last_reported":1702523247,"current_range_meters":29200,"station_id":"ce4bhnh2rcd13ifvqgug","pricing_plan_id":"free"},{"bike_id":"89f090d1-02e6-4ed1-950a-6f917dc6929a","system_id":"levelo_inurba_marseille","lat":43.281548,"lon":5.42643,"is_reserved":false,"is_disabled":false,"rental_uris":{"android":"levelo://app?vid=89f090d1-02e6-4ed1-950a-6f917dc6929a","ios":"levelo://app?vid=89f090d1-02e6-4ed1-950a-6f917dc6929a"},"vehicle_type_id":"4","last_reported":1702523247,"current_range_meters":31200,"station_id":"ce4bhnh2rcd13ifvqgug","pricing_plan_id":"free"},{"bike_id":"90dd1de4-f108-4a51-959d-09fe5b551bc7","system_id":"levelo_inurba_marseille","lat":43.281548,"lon":5.42643,"is_reserved":false,"is_disabled":false,"rental_uris":{"android":"levelo://app?vid=90dd1de4-f108-4a51-959d-09fe5b551bc7","ios":"levelo://app?vid=90dd1de4-f108-4a51-959d-09fe5b551bc7"},"vehicle_type_id":"4","last_reported":1702523247,"current_range_meters":28800,"station_id":"ce4bhnh2rcd13ifvqgug","pricing_plan_id":"free"},{"bike_id":"04d2e7a8-d99a-4a76-a1d0-bb409b1c97df","system_id":"levelo_inurba_marseille","lat":43.2607,"lon":5.393983,"is_reserved":false,"is_disabled":false,"rental_uris":{"android":"levelo://app?vid=04d2e7a8-d99a-4a76-a1d0-bb409b1c97df","ios":"levelo://app?vid=04d2e7a8-d99a-4a76-a1d0-bb409b1c97df"},"vehicle_type_id":"4","last_reported":1702523247,"current_range_meters":26800,"station_id":"ce4bhh92rcd13ifvqfj0","pricing_plan_id":"free"},{"bike_id":"03338a7d-17f5-468f-8bb9-120576f5c2be","system_id":"levelo_inurba_marseille","lat":43.2607,"lon":5.393983,"is_reserved":false,"is_disabled":false,"rental_uris":{"android":"levelo://app?vid=03338a7d-17f5-468f-8bb9-120576f5c2be","ios":"levelo://app?vid=03338a7d-17f5-468f-8bb9-120576f5c2be"},"vehicle_type_id":"4","last_reported":1702523247,"current_range_meters":30000,"station_id":"ce4bhh92rcd13ifvqfj0","pricing_plan_id":"free"},{"bike_id":"139a7b0f-d716-4a89-a8df-8cb0192f7033","system_id":"levelo_inurba_marseille","lat":43.275028,"lon":5.424534,"is_reserved":false,"is_disabled":false,"rental_uris":{"android":"levelo://app?vid=139a7b0f-d716-4a89-a8df-8cb0192f7033","ios":"levelo://app?vid=139a7b0f-d716-4a89-a8df-8cb0192f7033"},"vehicle_type_id":"4","last_reported":1702523247,"current_range_meters":27600,"station_id":"ce4bhn92rcd13ifvqgrg","pricing_plan_id":"free"},{"bike_id":"353927a9-cb05-4cbf-86bb-70fbbaad8f8f","system_id":"levelo_inurba_marseille","lat":43.258224,"lon":5.394369,"is_reserved":false,"is_disabled":false,"rental_uris":{"android":"levelo://app?vid=353927a9-cb05-4cbf-86bb-70fbbaad8f8f","ios":"levelo://app?vid=353927a9-cb05-4cbf-86bb-70fbbaad8f8f"},"vehicle_type_id":"4","last_reported":1702523247,"current_range_meters":28800,"station_id":"ce4bhip2rcd13ifvqft0","pricing_plan_id":"free"},{"bike_id":"21f1fc67-fe69-4f9c-8ac6-ca5ebd21edc5","system_id":"levelo_inurba_marseille","lat":43.258658,"lon":5.398935,"is_reserved":false,"is_disabled":false,"rental_uris":{"android":"levelo://app?vid=21f1fc67-fe69-4f9c-8ac6-ca5ebd21edc5","ios":"levelo://app?vid=21f1fc67-fe69-4f9c-8ac6-ca5ebd21edc5"},"vehicle_type_id":"4","last_reported":1702523247,"current_range_meters":26800,"station_id":"ce4bhl92rcd13ifvqghg","pricing_plan_id":"free"},{"bike_id":"69ff6680-51ba-4fb6-bcd3-e47fa46192a8","system_id":"levelo_inurba_marseille","lat":43.25865,"lon":5.39902,"is_reserved":false,"is_disabled":false,"rental_uris":{"android":"levelo://app?vid=69ff6680-51ba-4fb6-bcd3-e47fa46192a8","ios":"levelo://app?vid=69ff6680-51ba-4fb6-bcd3-e47fa46192a8"},"vehicle_type_id":"4","last_reported":1702523247,"current_range_meters":12800,"station_id":"ce4bhl92rcd13ifvqghg","pricing_plan_id":"free"},{"bike_id":"b3778f4b-17a5-414d-a355-5d6709a05873","system_id":"levelo_inurba_marseille","lat":43.25399,"lon":5.38278,"is_reserved":false,"is_disabled":false,"rental_uris":{"android":"levelo://app?vid=b3778f4b-17a5-414d-a355-5d6709a05873","ios":"levelo://app?vid=b3778f4b-17a5-414d-a355-5d6709a05873"},"vehicle_type_id":"4","last_reported":1702523247,"current_range_meters":22400,"station_id":"","pricing_plan_id":"free"},{"bike_id":"17984f3e-40b2-426c-b775-5a35ad8504fc","system_id":"levelo_inurba_marseille","lat":43.25928,"lon":5.40906,"is_reserved":false,"is_disabled":false,"rental_uris":{"android":"levelo://app?vid=17984f3e-40b2-426c-b775-5a35ad8504fc","ios":"levelo://app?vid=17984f3e-40b2-426c-b775-5a35ad8504fc"},"vehicle_type_id":"4","last_reported":1702523247,"current_range_meters":31200,"station_id":"ce4bhm92rcd13ifvqglg","pricing_plan_id":"free"},{"bike_id":"a8e20f3c-56a3-473c-a768-733a19fc879c","system_id":"levelo_inurba_marseille","lat":43.257079,"lon":5.411051,"is_reserved":false,"is_disabled":false,"rental_uris":{"android":"levelo://app?vid=a8e20f3c-56a3-473c-a768-733a19fc879c","ios":"levelo://app?vid=a8e20f3c-56a3-473c-a768-733a19fc879c"},"vehicle_type_id":"4","last_reported":1702523247,"current_range_meters":29200,"station_id":"ce4bhkp2rcd13ifvqgd0","pricing_plan_id":"free"},{"bike_id":"4609f49a-f338-428d-89d6-a5d7ed19bdbf","system_id":"levelo_inurba_marseille","lat":43.250009,"lon":5.389195,"is_reserved":false,"is_disabled":false,"rental_uris":{"android":"levelo://app?vid=4609f49a-f338-428d-89d6-a5d7ed19bdbf","ios":"levelo://app?vid=4609f49a-f338-428d-89d6-a5d7ed19bdbf"},"vehicle_type_id":"4","last_reported":1702523247,"current_range_meters":31200,"station_id":"ce4bhgp2rcd13ifvqfd0","pricing_plan_id":"free"},{"bike_id":"0814e704-e92e-4a90-93ad-cae2dff2da75","system_id":"levelo_inurba_marseille","lat":43.250009,"lon":5.389195,"is_reserved":false,"is_disabled":false,"rental_uris":{"android":"levelo://app?vid=0814e704-e92e-4a90-93ad-cae2dff2da75","ios":"levelo://app?vid=0814e704-e92e-4a90-93ad-cae2dff2da75"},"vehicle_type_id":"4","last_reported":1702523247,"current_range_meters":28800,"station_id":"ce4bhgp2rcd13ifvqfd0","pricing_plan_id":"free"},{"bike_id":"24c3afac-e3f6-4ac8-b6cc-1a7bcf5555cc","system_id":"levelo_inurba_marseille","lat":43.250023,"lon":5.38919,"is_reserved":false,"is_disabled":false,"rental_uris":{"android":"levelo://app?vid=24c3afac-e3f6-4ac8-b6cc-1a7bcf5555cc","ios":"levelo://app?vid=24c3afac-e3f6-4ac8-b6cc-1a7bcf5555cc"},"vehicle_type_id":"4","last_reported":1702523247,"current_range_meters":30800,"station_id":"ce4bhgp2rcd13ifvqfd0","pricing_plan_id":"free"},{"bike_id":"2b9e1e9c-7578-4bd4-a9ff-18548941acfc","system_id":"levelo_inurba_marseille","lat":43.2479,"lon":5.374457,"is_reserved":false,"is_disabled":false,"rental_uris":{"android":"levelo://app?vid=2b9e1e9c-7578-4bd4-a9ff-18548941acfc","ios":"levelo://app?vid=2b9e1e9c-7578-4bd4-a9ff-18548941acfc"},"vehicle_type_id":"4","last_reported":1702523247,"current_range_meters":31200,"station_id":"ce4bhgh2rcd13ifvqfb0","pricing_plan_id":"free"},{"bike_id":"74883750-c496-4779-9474-fd5991bc8d0f","system_id":"levelo_inurba_marseille","lat":43.2479,"lon":5.374457,"is_reserved":false,"is_disabled":false,"rental_uris":{"android":"levelo://app?vid=74883750-c496-4779-9474-fd5991bc8d0f","ios":"levelo://app?vid=74883750-c496-4779-9474-fd5991bc8d0f"},"vehicle_type_id":"4","last_reported":1702523247,"current_range_meters":0,"station_id":"ce4bhgh2rcd13ifvqfb0","pricing_plan_id":"free"},{"bike_id":"53b0a577-ba57-453d-a775-17a8f32cdd14","system_id":"levelo_inurba_marseille","lat":43.2479,"lon":5.374457,"is_reserved":false,"is_disabled":false,"rental_uris":{"android":"levelo://app?vid=53b0a577-ba57-453d-a775-17a8f32cdd14","ios":"levelo://app?vid=53b0a577-ba57-453d-a775-17a8f32cdd14"},"vehicle_type_id":"4","last_reported":1702523247,"current_range_meters":26000,"station_id":"ce4bhgh2rcd13ifvqfb0","pricing_plan_id":"free"},{"bike_id":"5cae2298-3e03-42c1-bf24-6a636c501b6f","system_id":"levelo_inurba_marseille","lat":43.2479,"lon":5.374457,"is_reserved":false,"is_disabled":false,"rental_uris":{"android":"levelo://app?vid=5cae2298-3e03-42c1-bf24-6a636c501b6f","ios":"levelo://app?vid=5cae2298-3e03-42c1-bf24-6a636c501b6f"},"vehicle_type_id":"4","last_reported":1702523247,"current_range_meters":2000,"station_id":"ce4bhgh2rcd13ifvqfb0","pricing_plan_id":"free"},{"bike_id":"665491de-a2a8-4144-a748-ce95312daad7","system_id":"levelo_inurba_marseille","lat":43.25087,"lon":5.39505,"is_reserved":false,"is_disabled":false,"rental_uris":{"android":"levelo://app?vid=665491de-a2a8-4144-a748-ce95312daad7","ios":"levelo://app?vid=665491de-a2a8-4144-a748-ce95312daad7"},"vehicle_type_id":"4","last_reported":1702523247,"current_range_meters":13600,"station_id":"ce4bhm12rcd13ifvqgkg","pricing_plan_id":"free"},{"bike_id":"dc118269-ea24-4acd-9418-28f82ac9c150","system_id":"levelo_inurba_marseille","lat":43.25102,"lon":5.403214,"is_reserved":false,"is_disabled":false,"rental_uris":{"android":"levelo://app?vid=dc118269-ea24-4acd-9418-28f82ac9c150","ios":"levelo://app?vid=dc118269-ea24-4acd-9418-28f82ac9c150"},"vehicle_type_id":"4","last_reported":1702523247,"current_range_meters":26000,"station_id":"ce4bhlh2rcd13ifvqgig","pricing_plan_id":"free"},{"bike_id":"982faf0f-dae9-432c-a928-7379db9153b5","system_id":"levelo_inurba_marseille","lat":43.25113,"lon":5.403204,"is_reserved":false,"is_disabled":false,"rental_uris":{"android":"levelo://app?vid=982faf0f-dae9-432c-a928-7379db9153b5","ios":"levelo://app?vid=982faf0f-dae9-432c-a928-7379db9153b5"},"vehicle_type_id":"4","last_reported":1702523247,"current_range_meters":26800,"station_id":"ce4bhlh2rcd13ifvqgig","pricing_plan_id":"free"},{"bike_id":"f61707de-c839-47df-b06d-a3b8de53d564","system_id":"levelo_inurba_marseille","lat":43.25108,"lon":5.4033,"is_reserved":false,"is_disabled":false,"rental_uris":{"android":"levelo://app?vid=f61707de-c839-47df-b06d-a3b8de53d564","ios":"levelo://app?vid=f61707de-c839-47df-b06d-a3b8de53d564"},"vehicle_type_id":"4","last_reported":1702523247,"current_range_meters":30800,"station_id":"ce4bhlh2rcd13ifvqgig","pricing_plan_id":"free"},{"bike_id":"215c9b75-e235-4d68-9eee-1d1363ed0011","system_id":"levelo_inurba_marseille","lat":43.240746,"lon":5.377593,"is_reserved":false,"is_disabled":false,"rental_uris":{"android":"levelo://app?vid=215c9b75-e235-4d68-9eee-1d1363ed0011","ios":"levelo://app?vid=215c9b75-e235-4d68-9eee-1d1363ed0011"},"vehicle_type_id":"4","last_reported":1702523247,"current_range_meters":22400,"station_id":"ce4bhnp2rcd13ifvqgvg","pricing_plan_id":"free"},{"bike_id":"d1e4ffa3-0a0a-4153-b85c-71ae60bb1e49","system_id":"levelo_inurba_marseille","lat":43.24071,"lon":5.37757,"is_reserved":false,"is_disabled":false,"rental_uris":{"android":"levelo://app?vid=d1e4ffa3-0a0a-4153-b85c-71ae60bb1e49","ios":"levelo://app?vid=d1e4ffa3-0a0a-4153-b85c-71ae60bb1e49"},"vehicle_type_id":"4","last_reported":1702523247,"current_range_meters":23600,"station_id":"ce4bhnp2rcd13ifvqgvg","pricing_plan_id":"free"},{"bike_id":"ce1a6af6-9aa9-466e-8989-a8038703f282","system_id":"levelo_inurba_marseille","lat":43.239588,"lon":5.366238,"is_reserved":false,"is_disabled":false,"rental_uris":{"android":"levelo://app?vid=ce1a6af6-9aa9-466e-8989-a8038703f282","ios":"levelo://app?vid=ce1a6af6-9aa9-466e-8989-a8038703f282"},"vehicle_type_id":"4","last_reported":1702523247,"current_range_meters":23200,"station_id":"ce4bhi12rcd13ifvqfp0","pricing_plan_id":"free"},{"bike_id":"825265e1-f294-4e04-ac72-2c431a6af408","system_id":"levelo_inurba_marseille","lat":43.239588,"lon":5.366238,"is_reserved":false,"is_disabled":false,"rental_uris":{"android":"levelo://app?vid=825265e1-f294-4e04-ac72-2c431a6af408","ios":"levelo://app?vid=825265e1-f294-4e04-ac72-2c431a6af408"},"vehicle_type_id":"4","last_reported":1702523247,"current_range_meters":30800,"station_id":"ce4bhi12rcd13ifvqfp0","pricing_plan_id":"free"},{"bike_id":"9af76f9c-24ab-48cd-a884-2f55b135e3d5","system_id":"levelo_inurba_marseille","lat":43.239588,"lon":5.366238,"is_reserved":false,"is_disabled":false,"rental_uris":{"android":"levelo://app?vid=9af76f9c-24ab-48cd-a884-2f55b135e3d5","ios":"levelo://app?vid=9af76f9c-24ab-48cd-a884-2f55b135e3d5"},"vehicle_type_id":"4","last_reported":1702523247,"current_range_meters":25200,"station_id":"ce4bhi12rcd13ifvqfp0","pricing_plan_id":"free"},{"bike_id":"d2de9bcc-0a4a-4f92-a74d-96a33e79b929","system_id":"levelo_inurba_marseille","lat":43.239588,"lon":5.366238,"is_reserved":false,"is_disabled":false,"rental_uris":{"android":"levelo://app?vid=d2de9bcc-0a4a-4f92-a74d-96a33e79b929","ios":"levelo://app?vid=d2de9bcc-0a4a-4f92-a74d-96a33e79b929"},"vehicle_type_id":"4","last_reported":1702523247,"current_range_meters":31200,"station_id":"ce4bhi12rcd13ifvqfp0","pricing_plan_id":"free"},{"bike_id":"6319c87f-71db-4e16-88ff-997c6b137b73","system_id":"levelo_inurba_marseille","lat":43.239588,"lon":5.366238,"is_reserved":false,"is_disabled":false,"rental_uris":{"android":"levelo://app?vid=6319c87f-71db-4e16-88ff-997c6b137b73","ios":"levelo://app?vid=6319c87f-71db-4e16-88ff-997c6b137b73"},"vehicle_type_id":"4","last_reported":1702523247,"current_range_meters":30000,"station_id":"ce4bhi12rcd13ifvqfp0","pricing_plan_id":"free"},{"bike_id":"1a11021d-6d42-4b34-88b2-d10245b35442","system_id":"levelo_inurba_marseille","lat":43.239588,"lon":5.366238,"is_reserved":false,"is_disabled":false,"rental_uris":{"android":"levelo://app?vid=1a11021d-6d42-4b34-88b2-d10245b35442","ios":"levelo://app?vid=1a11021d-6d42-4b34-88b2-d10245b35442"},"vehicle_type_id":"4","last_reported":1702523247,"current_range_meters":28400,"station_id":"ce4bhi12rcd13ifvqfp0","pricing_plan_id":"free"},{"bike_id":"708e0811-e309-4ac8-b94d-8fd0999b98bf","system_id":"levelo_inurba_marseille","lat":43.241748,"lon":5.397132,"is_reserved":false,"is_disabled":false,"rental_uris":{"android":"levelo://app?vid=708e0811-e309-4ac8-b94d-8fd0999b98bf","ios":"levelo://app?vid=708e0811-e309-4ac8-b94d-8fd0999b98bf"},"vehicle_type_id":"4","last_reported":1702523247,"current_range_meters":18400,"station_id":"ce4bhn12rcd13ifvqgpg","pricing_plan_id":"free"},{"bike_id":"089568fd-e936-4c31-a2a6-ab09f2b4391b","system_id":"levelo_inurba_marseille","lat":43.231794,"lon":5.400052,"is_reserved":false,"is_disabled":false,"rental_uris":{"android":"levelo://app?vid=089568fd-e936-4c31-a2a6-ab09f2b4391b","ios":"levelo://app?vid=089568fd-e936-4c31-a2a6-ab09f2b4391b"},"vehicle_type_id":"4","last_reported":1702523247,"current_range_meters":30400,"station_id":"ce4bhn12rcd13ifvqgqg","pricing_plan_id":"free"},{"bike_id":"28cf0186-3129-4448-9e8f-8fa9860365e7","system_id":"levelo_inurba_marseille","lat":43.231794,"lon":5.400052,"is_reserved":false,"is_disabled":false,"rental_uris":{"android":"levelo://app?vid=28cf0186-3129-4448-9e8f-8fa9860365e7","ios":"levelo://app?vid=28cf0186-3129-4448-9e8f-8fa9860365e7"},"vehicle_type_id":"4","last_reported":1702523247,"current_range_meters":17600,"station_id":"ce4bhn12rcd13ifvqgqg","pricing_plan_id":"free"},{"bike_id":"e9e13da5-814b-4e04-963f-f688451db439","system_id":"levelo_inurba_marseille","lat":43.231793,"lon":5.400044,"is_reserved":false,"is_disabled":false,"rental_uris":{"android":"levelo://app?vid=e9e13da5-814b-4e04-963f-f688451db439","ios":"levelo://app?vid=e9e13da5-814b-4e04-963f-f688451db439"},"vehicle_type_id":"4","last_reported":1702523247,"current_range_meters":30000,"station_id":"ce4bhn12rcd13ifvqgqg","pricing_plan_id":"free"},{"bike_id":"2b605040-44f0-4665-aefa-dbb05f50f601","system_id":"levelo_inurba_marseille","lat":43.231793,"lon":5.400044,"is_reserved":false,"is_disabled":false,"rental_uris":{"android":"levelo://app?vid=2b605040-44f0-4665-aefa-dbb05f50f601","ios":"levelo://app?vid=2b605040-44f0-4665-aefa-dbb05f50f601"},"vehicle_type_id":"4","last_reported":1702523247,"current_range_meters":30400,"station_id":"ce4bhn12rcd13ifvqgqg","pricing_plan_id":"free"},{"bike_id":"c66ca343-0c27-4535-baf6-7afe3f4ae09f","system_id":"levelo_inurba_marseille","lat":43.231794,"lon":5.400052,"is_reserved":false,"is_disabled":false,"rental_uris":{"android":"levelo://app?vid=c66ca343-0c27-4535-baf6-7afe3f4ae09f","ios":"levelo://app?vid=c66ca343-0c27-4535-baf6-7afe3f4ae09f"},"vehicle_type_id":"4","last_reported":1702523247,"current_range_meters":28000,"station_id":"ce4bhn12rcd13ifvqgqg","pricing_plan_id":"free"},{"bike_id":"976b51c7-50e5-4a1e-9623-472378627f57","system_id":"levelo_inurba_marseille","lat":43.231794,"lon":5.400052,"is_reserved":false,"is_disabled":false,"rental_uris":{"android":"levelo://app?vid=976b51c7-50e5-4a1e-9623-472378627f57","ios":"levelo://app?vid=976b51c7-50e5-4a1e-9623-472378627f57"},"vehicle_type_id":"4","last_reported":1702523247,"current_range_meters":30400,"station_id":"ce4bhn12rcd13ifvqgqg","pricing_plan_id":"free"},{"bike_id":"7686f611-5aad-4e08-8e3f-9126375d30b8","system_id":"levelo_inurba_marseille","lat":43.231794,"lon":5.400052,"is_reserved":false,"is_disabled":false,"rental_uris":{"android":"levelo://app?vid=7686f611-5aad-4e08-8e3f-9126375d30b8","ios":"levelo://app?vid=7686f611-5aad-4e08-8e3f-9126375d30b8"},"vehicle_type_id":"4","last_reported":1702523247,"current_range_meters":23600,"station_id":"ce4bhn12rcd13ifvqgqg","pricing_plan_id":"free"},{"bike_id":"46e85755-7f44-4770-9e69-88e3e5d2d0d4","system_id":"levelo_inurba_marseille","lat":43.231794,"lon":5.400052,"is_reserved":false,"is_disabled":false,"rental_uris":{"android":"levelo://app?vid=46e85755-7f44-4770-9e69-88e3e5d2d0d4","ios":"levelo://app?vid=46e85755-7f44-4770-9e69-88e3e5d2d0d4"},"vehicle_type_id":"4","last_reported":1702523247,"current_range_meters":19200,"station_id":"ce4bhn12rcd13ifvqgqg","pricing_plan_id":"free"},{"bike_id":"8ee48730-c114-4df0-ba54-1702dd3d192f","system_id":"levelo_inurba_marseille","lat":43.231794,"lon":5.400052,"is_reserved":false,"is_disabled":false,"rental_uris":{"android":"levelo://app?vid=8ee48730-c114-4df0-ba54-1702dd3d192f","ios":"levelo://app?vid=8ee48730-c114-4df0-ba54-1702dd3d192f"},"vehicle_type_id":"4","last_reported":1702523247,"current_range_meters":6800,"station_id":"ce4bhn12rcd13ifvqgqg","pricing_plan_id":"free"},{"bike_id":"990ccaad-9f0a-47ec-be4c-6b474a893de3","system_id":"levelo_inurba_marseille","lat":43.231793,"lon":5.400044,"is_reserved":false,"is_disabled":false,"rental_uris":{"android":"levelo://app?vid=990ccaad-9f0a-47ec-be4c-6b474a893de3","ios":"levelo://app?vid=990ccaad-9f0a-47ec-be4c-6b474a893de3"},"vehicle_type_id":"4","last_reported":1702523247,"current_range_meters":31200,"station_id":"ce4bhn12rcd13ifvqgqg","pricing_plan_id":"free"},{"bike_id":"a70842cf-3cdd-4227-8996-9e4cdf55219b","system_id":"levelo_inurba_marseille","lat":43.231793,"lon":5.400044,"is_reserved":false,"is_disabled":false,"rental_uris":{"android":"levelo://app?vid=a70842cf-3cdd-4227-8996-9e4cdf55219b","ios":"levelo://app?vid=a70842cf-3cdd-4227-8996-9e4cdf55219b"},"vehicle_type_id":"4","last_reported":1702523247,"current_range_meters":29200,"station_id":"ce4bhn12rcd13ifvqgqg","pricing_plan_id":"free"},{"bike_id":"b5e4fe9e-d152-47d1-ab48-f60ff93db450","system_id":"levelo_inurba_marseille","lat":43.231793,"lon":5.400044,"is_reserved":false,"is_disabled":false,"rental_uris":{"android":"levelo://app?vid=b5e4fe9e-d152-47d1-ab48-f60ff93db450","ios":"levelo://app?vid=b5e4fe9e-d152-47d1-ab48-f60ff93db450"},"vehicle_type_id":"4","last_reported":1702523247,"current_range_meters":31200,"station_id":"ce4bhn12rcd13ifvqgqg","pricing_plan_id":"free"},{"bike_id":"5d66a1e1-407e-43b7-8a1f-b43437a90341","system_id":"levelo_inurba_marseille","lat":43.231794,"lon":5.400052,"is_reserved":false,"is_disabled":false,"rental_uris":{"android":"levelo://app?vid=5d66a1e1-407e-43b7-8a1f-b43437a90341","ios":"levelo://app?vid=5d66a1e1-407e-43b7-8a1f-b43437a90341"},"vehicle_type_id":"4","last_reported":1702523247,"current_range_meters":31600,"station_id":"ce4bhn12rcd13ifvqgqg","pricing_plan_id":"free"},{"bike_id":"488995f1-5a8c-4082-a3c5-475b61d123ab","system_id":"levelo_inurba_marseille","lat":43.231793,"lon":5.400044,"is_reserved":false,"is_disabled":false,"rental_uris":{"android":"levelo://app?vid=488995f1-5a8c-4082-a3c5-475b61d123ab","ios":"levelo://app?vid=488995f1-5a8c-4082-a3c5-475b61d123ab"},"vehicle_type_id":"4","last_reported":1702523247,"current_range_meters":21200,"station_id":"ce4bhn12rcd13ifvqgqg","pricing_plan_id":"free"},{"bike_id":"c7667cbb-4ebc-4ff0-8cc3-d90f64a1a989","system_id":"levelo_inurba_marseille","lat":43.231562,"lon":5.436933,"is_reserved":false,"is_disabled":false,"rental_uris":{"android":"levelo://app?vid=c7667cbb-4ebc-4ff0-8cc3-d90f64a1a989","ios":"levelo://app?vid=c7667cbb-4ebc-4ff0-8cc3-d90f64a1a989"},"vehicle_type_id":"4","last_reported":1702523247,"current_range_meters":20800,"station_id":"ce4bhmp2rcd13ifvqgog","pricing_plan_id":"free"}]}}