{"last_updated":1758291002,"ttl":60,"version":"2.2","data":{"bikes":[{"bike_id":"95437ba2-a13a-49a5-b0b3-88d049d7950a","system_id":"levelo_inurba_marseille","lat":43.28939,"lon":5.36635,"is_reserved":false,"is_disabled":false,"rental_uris":{"android":"levelo://app?vid=95437ba2-a13a-49a5-b0b3-88d049d7950a","ios":"levelo://app?vid=95437ba2-a13a-49a5-b0b3-88d049d7950a"},"vehicle_type_id":"4","last_reported":1758291002,"current_range_meters":2800,"station_id":"ce4bhap2rcd13ifvqek0","pricing_plan_id":"cebpf4jnsgd1na2vs0mg"},{"bike_id":"2cc00c73-cacb-428d-8309-bdaf96fa210a","system_id":"levelo_inurba_marseille","lat":43.289362,"lon":5.366373,"is_reserved":false,"is_disabled":false,"rental_uris":{"android":"levelo://app?vid=2cc00c73-cacb-428d-8309-bdaf96fa210a","ios":"levelo://app?vid=2cc00c73-cacb-428d-8309-bdaf96fa210a"},"vehicle_type_id":"4","last_reported":1758291002,"current_range_meters":2800,"station_id":"ce4bhap2rcd13ifvqek0","pricing_plan_id":"cebpf4jnsgd1na2vs0mg"},{"bike_id":"6291cbec-bf88-4bb0-9ca5-401fb9258430","system_id":"levelo_inurba_marseille","lat":43.227823,"lon":5.349715,"is_reserved":false,"is_disabled":false,"rental_uris":{"android":"levelo://app?vid=6291cbec-bf88-4bb0-9ca5-401fb9258430","ios":"levelo://app?vid=6291cbec-bf88-4bb0-9ca5-401fb9258430"},"vehicle_type_id":"4","last_reported":1758291002,"current_range_meters":2800,"station_id":"","pricing_plan_id":"cebpf4jnsgd1na2vs0mg"},{"bike_id":"2b0f7965-1473-4857-b7d6-e89cb879fc26","system_id":"levelo_inurba_marseille","lat":43.31181,"lon":5.36855,"is_reserved":false,"is_disabled":false,"rental_uris":{"android":"levelo://app?vid=2b0f7965-1473-4857-b7d6-e89cb879fc26","ios":"levelo://app?vid=2b0f7965-1473-4857-b7d6-e89cb879fc26"},"vehicle_type_id":"4","last_reported":1758291002,"current_range_meters":2800,"station_id":"ce4bgl92rcd13ifvqbq0","pricing_plan_id":"cebpf4jnsgd1na2vs0mg"},{"bike_id":"b8a62bbd-cba9-4714-ac5e-8015b0a02f61","system_id":"levelo_inurba_marseille","lat":43.26203,"lon":5.3744,"is_reserved":false,"is_disabled":false,"rental_uris":{"android":"levelo://app?vid=b8a62bbd-cba9-4714-ac5e-8015b0a02f61","ios":"levelo://app?vid=b8a62bbd-cba9-4714-ac5e-8015b0a02f61"},"vehicle_type_id":"4","last_reported":1758291002,"current_range_meters":3200,"station_id":"ce4bhgp2rcd13ifvqfc0","pricing_plan_id":"cebpf4jnsgd1na2vs0mg"},{"bike_id":"ff90fded-d098-4d61-aab2-acacc2c55acd","system_id":"levelo_inurba_marseille","lat":43.28462,"lon":5.35896,"is_reserved":false,"is_disabled":false,"rental_uris":{"android":"levelo://app?vid=ff90fded-d098-4d61-aab2-acacc2c55acd","ios":"levelo://app?vid=ff90fded-d098-4d61-aab2-acacc2c55acd"},"vehicle_type_id":"4","last_reported":1758291002,"current_range_meters":3200,"station_id":"ce4bhah2rcd13ifvqei0","pricing_plan_id":"cebpf4jnsgd1na2vs0mg"},{"bike_id":"303ed4e1-0d69-44de-8d69-b49d3870ada0","system_id":"levelo_inurba_marseille","lat":43.2862,"lon":5.35107,"is_reserved":false,"is_disabled":false,"rental_uris":{"android":"levelo://app?vid=303ed4e1-0d69-44de-8d69-b49d3870ada0","ios":"levelo://app?vid=303ed4e1-0d69-44de-8d69-b49d3870ada0"},"vehicle_type_id":"4","last_reported":1758291002,"current_range_meters":3200,"station_id":"ce4bhch2rcd13ifvqeug","pricing_plan_id":"cebpf4jnsgd1na2vs0mg"},{"bike_id":"31bf1f57-16e9-4005-a02e-cc42c5c0ad73","system_id":"levelo_inurba_marseille","lat":43.2656,"lon":5.37286,"is_reserved":false,"is_disabled":false,"rental_uris":{"android":"levelo://app?vid=31bf1f57-16e9-4005-a02e-cc42c5c0ad73","ios":"levelo://app?vid=31bf1f57-16e9-4005-a02e-cc42c5c0ad73"},"vehicle_type_id":"4","last_reported":1758291002,"current_range_meters":3600,"station_id":"ce4bhg12rcd13ifvqf70","pricing_plan_id":"cebpf4jnsgd1na2vs0mg"},{"bike_id":"059c0ba7-1dcb-4f29-8d05-6060640937cc","system_id":"levelo_inurba_marseille","lat":43.31774,"lon":5.36855,"is_reserved":false,"is_disabled":false,"rental_uris":{"android":"levelo://app?vid=059c0ba7-1dcb-4f29-8d05-6060640937cc","ios":"levelo://app?vid=059c0ba7-1dcb-4f29-8d05-6060640937cc"},"vehicle_type_id":"4","last_reported":1758291002,"current_range_meters":3600,"station_id":"","pricing_plan_id":"cebpf4jnsgd1na2vs0mg"},{"bike_id":"010fd887-3471-43a2-ae3e-540b2cc9c262","system_id":"levelo_inurba_marseille","lat":43.31172,"lon":5.38705,"is_reserved":false,"is_disabled":false,"rental_uris":{"android":"levelo://app?vid=010fd887-3471-43a2-ae3e-540b2cc9c262","ios":"levelo://app?vid=010fd887-3471-43a2-ae3e-540b2cc9c262"},"vehicle_type_id":"4","last_reported":1758291002,"current_range_meters":3600,"station_id":"ce4bgv12rcd13ifvqcp0","pricing_plan_id":"cebpf4jnsgd1na2vs0mg"},{"bike_id":"05932256-4366-4bd2-8d69-782712747484","system_id":"levelo_inurba_marseille","lat":43.22554,"lon":5.41627,"is_reserved":false,"is_disabled":false,"rental_uris":{"android":"levelo://app?vid=05932256-4366-4bd2-8d69-782712747484","ios":"levelo://app?vid=05932256-4366-4bd2-8d69-782712747484"},"vehicle_type_id":"4","last_reported":1758291002,"current_range_meters":3600,"station_id":"st_d2o4gvlbi1j2169b742g","pricing_plan_id":"cebpf4jnsgd1na2vs0mg"},{"bike_id":"3def095d-c502-4c7b-a4a9-c7f1ef66ee00","system_id":"levelo_inurba_marseille","lat":43.28421,"lon":5.34978,"is_reserved":false,"is_disabled":false,"rental_uris":{"android":"levelo://app?vid=3def095d-c502-4c7b-a4a9-c7f1ef66ee00","ios":"levelo://app?vid=3def095d-c502-4c7b-a4a9-c7f1ef66ee00"},"vehicle_type_id":"4","last_reported":1758291002,"current_range_meters":3600,"station_id":"ce4bhbh2rcd13ifvqepg","pricing_plan_id":"cebpf4jnsgd1na2vs0mg"},{"bike_id":"67d70ad3-efca-42cd-b410-89e44cdae1cb","system_id":"levelo_inurba_marseille","lat":43.29931,"lon":5.36515,"is_reserved":false,"is_disabled":false,"rental_uris":{"android":"levelo://app?vid=67d70ad3-efca-42cd-b410-89e44cdae1cb","ios":"levelo://app?vid=67d70ad3-efca-42cd-b410-89e44cdae1cb"},"vehicle_type_id":"4","last_reported":1758291002,"current_range_meters":4000,"station_id":"ce4bgm92rcd13ifvqbr0","pricing_plan_id":"cebpf4jnsgd1na2vs0mg"},{"bike_id":"b920e75c-4087-4d0b-8a09-d693270e24d7","system_id":"levelo_inurba_marseille","lat":43.29057,"lon":5.35911,"is_reserved":false,"is_disabled":false,"rental_uris":{"android":"levelo://app?vid=b920e75c-4087-4d0b-8a09-d693270e24d7","ios":"levelo://app?vid=b920e75c-4087-4d0b-8a09-d693270e24d7"},"vehicle_type_id":"4","last_reported":1758291002,"current_range_meters":4000,"station_id":"ce4bha92rcd13ifvqeg0","pricing_plan_id":"cebpf4jnsgd1na2vs0mg"},{"bike_id":"38306836-7e43-4f39-aaa0-72b8c0ae7d3c","system_id":"levelo_inurba_marseille","lat":43.23188,"lon":5.39976,"is_reserved":false,"is_disabled":false,"rental_uris":{"android":"levelo://app?vid=38306836-7e43-4f39-aaa0-72b8c0ae7d3c","ios":"levelo://app?vid=38306836-7e43-4f39-aaa0-72b8c0ae7d3c"},"vehicle_type_id":"4","last_reported":1758291002,"current_range_meters":4000,"station_id":"ce4bhn12rcd13ifvqgqg","pricing_plan_id":"cebpf4jnsgd1na2vs0mg"},{"bike_id":"6d927206-3030-4a60-9097-b3c153b6a12e","system_id":"levelo_inurba_marseille","lat":43.32352,"lon":5.36735,"is_reserved":false,"is_disabled":false,"rental_uris":{"android":"levelo://app?vid=6d927206-3030-4a60-9097-b3c153b6a12e","ios":"levelo://app?vid=6d927206-3030-4a60-9097-b3c153b6a12e"},"vehicle_type_id":"4","last_reported":1758291002,"current_range_meters":4400,"station_id":"ce4bhsh2rcd13ifvqi2g","pricing_plan_id":"cebpf4jnsgd1na2vs0mg"},{"bike_id":"2e8e6b2a-06cb-4b92-9191-678654382d69","system_id":"levelo_inurba_marseille","lat":43.29025,"lon":5.38644,"is_reserved":false,"is_disabled":false,"rental_uris":{"android":"levelo://app?vid=2e8e6b2a-06cb-4b92-9191-678654382d69","ios":"levelo://app?vid=2e8e6b2a-06cb-4b92-9191-678654382d69"},"vehicle_type_id":"4","last_reported":1758291002,"current_range_meters":4400,"station_id":"ce4bh4p2rcd13ifvqe0g","pricing_plan_id":"cebpf4jnsgd1na2vs0mg"},{"bike_id":"6161a34a-6723-4b01-ad19-d21a5ee5c000","system_id":"levelo_inurba_marseille","lat":43.27615,"lon":5.36105,"is_reserved":false,"is_disabled":false,"rental_uris":{"android":"levelo://app?vid=6161a34a-6723-4b01-ad19-d21a5ee5c000","ios":"levelo://app?vid=6161a34a-6723-4b01-ad19-d21a5ee5c000"},"vehicle_type_id":"4","last_reported":1758291002,"current_range_meters":4400,"station_id":"ce4bgj92rcd13ifvqbe0","pricing_plan_id":"cebpf4jnsgd1na2vs0mg"},{"bike_id":"ed4be8db-d249-426e-8c6d-cb8cd1451305","system_id":"levelo_inurba_marseille","lat":43.286602,"lon":5.386652,"is_reserved":false,"is_disabled":false,"rental_uris":{"android":"levelo://app?vid=ed4be8db-d249-426e-8c6d-cb8cd1451305","ios":"levelo://app?vid=ed4be8db-d249-426e-8c6d-cb8cd1451305"},"vehicle_type_id":"4","last_reported":1758291002,"current_range_meters":4400,"station_id":"ce4bh492rcd13ifvqdug","pricing_plan_id":"cebpf4jnsgd1na2vs0mg"},{"bike_id":"579291d9-4a9d-4c81-adb6-8db6c565920a","system_id":"levelo_inurba_marseille","lat":43.3237,"lon":5.38898,"is_reserved":false,"is_disabled":false,"rental_uris":{"android":"levelo://app?vid=579291d9-4a9d-4c81-adb6-8db6c565920a","ios":"levelo://app?vid=579291d9-4a9d-4c81-adb6-8db6c565920a"},"vehicle_type_id":"4","last_reported":1758291002,"current_range_meters":4400,"station_id":"ce4bhqp2rcd13ifvqhog","pricing_plan_id":"cebpf4jnsgd1na2vs0mg"},{"bike_id":"4753981a-52b2-4b7d-8c02-9e34c950cc2f","system_id":"levelo_inurba_marseille","lat":43.22559,"lon":5.41623,"is_reserved":false,"is_disabled":false,"rental_uris":{"android":"levelo://app?vid=4753981a-52b2-4b7d-8c02-9e34c950cc2f","ios":"levelo://app?vid=4753981a-52b2-4b7d-8c02-9e34c950cc2f"},"vehicle_type_id":"4","last_reported":1758291002,"current_range_meters":4800,"station_id":"st_d2o4gvlbi1j2169b742g","pricing_plan_id":"cebpf4jnsgd1na2vs0mg"},{"bike_id":"508cfa7a-e3f0-4e89-a5c4-6f3a9d52eeca","system_id":"levelo_inurba_marseille","lat":43.28938,"lon":5.36639,"is_reserved":false,"is_disabled":false,"rental_uris":{"android":"levelo://app?vid=508cfa7a-e3f0-4e89-a5c4-6f3a9d52eeca","ios":"levelo://app?vid=508cfa7a-e3f0-4e89-a5c4-6f3a9d52eeca"},"vehicle_type_id":"4","last_reported":1758291002,"current_range_meters":4800,"station_id":"ce4bhap2rcd13ifvqek0","pricing_plan_id":"cebpf4jnsgd1na2vs0mg"},{"bike_id":"880103b7-44a9-4e50-a09e-60cb718d3d8c","system_id":"levelo_inurba_marseille","lat":43.28704,"lon":5.37387,"is_reserved":false,"is_disabled":false,"rental_uris":{"android":"levelo://app?vid=880103b7-44a9-4e50-a09e-60cb718d3d8c","ios":"levelo://app?vid=880103b7-44a9-4e50-a09e-60cb718d3d8c"},"vehicle_type_id":"4","last_reported":1758291002,"current_range_meters":4800,"station_id":"ce4bh3p2rcd13ifvqdq0","pricing_plan_id":"cebpf4jnsgd1na2vs0mg"},{"bike_id":"7b51a36e-d3c1-400a-a130-b00f35dc0b10","system_id":"levelo_inurba_marseille","lat":43.225343,"lon":5.348357,"is_reserved":false,"is_disabled":false,"rental_uris":{"android":"levelo://app?vid=7b51a36e-d3c1-400a-a130-b00f35dc0b10","ios":"levelo://app?vid=7b51a36e-d3c1-400a-a130-b00f35dc0b10"},"vehicle_type_id":"4","last_reported":1758291002,"current_range_meters":4800,"station_id":"","pricing_plan_id":"cebpf4jnsgd1na2vs0mg"},{"bike_id":"aabc4d8b-3d0c-4e2d-8930-dcfa92d0016c","system_id":"levelo_inurba_marseille","lat":43.29521,"lon":5.39024,"is_reserved":false,"is_disabled":false,"rental_uris":{"android":"levelo://app?vid=aabc4d8b-3d0c-4e2d-8930-dcfa92d0016c","ios":"levelo://app?vid=aabc4d8b-3d0c-4e2d-8930-dcfa92d0016c"},"vehicle_type_id":"4","last_reported":1758291002,"current_range_meters":4400,"station_id":"ce4bh3p2rcd13ifvqdp0","pricing_plan_id":"cebpf4jnsgd1na2vs0mg"},{"bike_id":"45afe5f4-5cbe-49c2-a913-33c967100178","system_id":"levelo_inurba_marseille","lat":43.29776,"lon":5.380931,"is_reserved":false,"is_disabled":false,"rental_uris":{"android":"levelo://app?vid=45afe5f4-5cbe-49c2-a913-33c967100178","ios":"levelo://app?vid=45afe5f4-5cbe-49c2-a913-33c967100178"},"vehicle_type_id":"4","last_reported":1758291002,"current_range_meters":4800,"station_id":"","pricing_plan_id":"cebpf4jnsgd1na2vs0mg"},{"bike_id":"da641bcd-d877-4eac-b1d2-48d091076338","system_id":"levelo_inurba_marseille","lat":43.29196,"lon":5.39325,"is_reserved":false,"is_disabled":false,"rental_uris":{"android":"levelo://app?vid=da641bcd-d877-4eac-b1d2-48d091076338","ios":"levelo://app?vid=da641bcd-d877-4eac-b1d2-48d091076338"},"vehicle_type_id":"4","last_reported":1758291002,"current_range_meters":5600,"station_id":"ce4bh192rcd13ifvqdd0","pricing_plan_id":"cebpf4jnsgd1na2vs0mg"},{"bike_id":"aed238a1-3beb-46d1-85fc-ab4bb3243244","system_id":"levelo_inurba_marseille","lat":43.21752,"lon":5.346,"is_reserved":false,"is_disabled":false,"rental_uris":{"android":"levelo://app?vid=aed238a1-3beb-46d1-85fc-ab4bb3243244","ios":"levelo://app?vid=aed238a1-3beb-46d1-85fc-ab4bb3243244"},"vehicle_type_id":"4","last_reported":1758291002,"current_range_meters":5600,"station_id":"st_cvj6r9ubvosntc0bgbag","pricing_plan_id":"cebpf4jnsgd1na2vs0mg"},{"bike_id":"7918c8ea-f7f4-4157-b837-0cbefe2a77c9","system_id":"levelo_inurba_marseille","lat":43.27505,"lon":5.42436,"is_reserved":false,"is_disabled":true,"rental_uris":{"android":"levelo://app?vid=7918c8ea-f7f4-4157-b837-0cbefe2a77c9","ios":"levelo://app?vid=7918c8ea-f7f4-4157-b837-0cbefe2a77c9"},"vehicle_type_id":"4","last_reported":1758291002,"current_range_meters":6000,"station_id":"ce4bhn92rcd13ifvqgrg","pricing_plan_id":"cebpf4jnsgd1na2vs0mg"},{"bike_id":"f8cba178-9c1f-48dc-9b81-77fd395d75b9","system_id":"levelo_inurba_marseille","lat":43.2418,"lon":5.39735,"is_reserved":false,"is_disabled":false,"rental_uris":{"android":"levelo://app?vid=f8cba178-9c1f-48dc-9b81-77fd395d75b9","ios":"levelo://app?vid=f8cba178-9c1f-48dc-9b81-77fd395d75b9"},"vehicle_type_id":"4","last_reported":1758291002,"current_range_meters":6000,"station_id":"ce4bhn12rcd13ifvqgpg","pricing_plan_id":"cebpf4jnsgd1na2vs0mg"},{"bike_id":"05940397-7f92-40cf-886d-5dd0614b20c2","system_id":"levelo_inurba_marseille","lat":43.27673,"lon":5.38869,"is_reserved":false,"is_disabled":false,"rental_uris":{"android":"levelo://app?vid=05940397-7f92-40cf-886d-5dd0614b20c2","ios":"levelo://app?vid=05940397-7f92-40cf-886d-5dd0614b20c2"},"vehicle_type_id":"4","last_reported":1758291002,"current_range_meters":6000,"station_id":"ce4bhi12rcd13ifvqfo0","pricing_plan_id":"cebpf4jnsgd1na2vs0mg"},{"bike_id":"7745eab8-3d48-4349-b863-861b7cc7cbd1","system_id":"levelo_inurba_marseille","lat":43.290054,"lon":5.381405,"is_reserved":false,"is_disabled":false,"rental_uris":{"android":"levelo://app?vid=7745eab8-3d48-4349-b863-861b7cc7cbd1","ios":"levelo://app?vid=7745eab8-3d48-4349-b863-861b7cc7cbd1"},"vehicle_type_id":"4","last_reported":1758291002,"current_range_meters":6400,"station_id":"","pricing_plan_id":"cebpf4jnsgd1na2vs0mg"},{"bike_id":"665d3578-830a-45c6-b9d7-38ed9a600913","system_id":"levelo_inurba_marseille","lat":43.29065,"lon":5.37146,"is_reserved":false,"is_disabled":false,"rental_uris":{"android":"levelo://app?vid=665d3578-830a-45c6-b9d7-38ed9a600913","ios":"levelo://app?vid=665d3578-830a-45c6-b9d7-38ed9a600913"},"vehicle_type_id":"4","last_reported":1758291002,"current_range_meters":6000,"station_id":"ce4bh5p2rcd13ifvqe4g","pricing_plan_id":"cebpf4jnsgd1na2vs0mg"},{"bike_id":"afcefb5d-fb18-44d9-bacc-9d87f58b7cf0","system_id":"levelo_inurba_marseille","lat":43.30323,"lon":5.40431,"is_reserved":false,"is_disabled":false,"rental_uris":{"android":"levelo://app?vid=afcefb5d-fb18-44d9-bacc-9d87f58b7cf0","ios":"levelo://app?vid=afcefb5d-fb18-44d9-bacc-9d87f58b7cf0"},"vehicle_type_id":"4","last_reported":1758291002,"current_range_meters":6000,"station_id":"ce4bh012rcd13ifvqd10","pricing_plan_id":"cebpf4jnsgd1na2vs0mg"},{"bike_id":"3b9818e2-8cf0-474a-add0-303ebf5c9f0a","system_id":"levelo_inurba_marseille","lat":43.22538,"lon":5.34813,"is_reserved":false,"is_disabled":false,"rental_uris":{"android":"levelo://app?vid=3b9818e2-8cf0-474a-add0-303ebf5c9f0a","ios":"levelo://app?vid=3b9818e2-8cf0-474a-add0-303ebf5c9f0a"},"vehicle_type_id":"4","last_reported":1758291002,"current_range_meters":6800,"station_id":"","pricing_plan_id":"cebpf4jnsgd1na2vs0mg"},{"bike_id":"791152f5-1ec4-4c2c-a2c8-1f7f299e45c1","system_id":"levelo_inurba_marseille","lat":43.279113,"lon":5.39581,"is_reserved":false,"is_disabled":false,"rental_uris":{"android":"levelo://app?vid=791152f5-1ec4-4c2c-a2c8-1f7f299e45c1","ios":"levelo://app?vid=791152f5-1ec4-4c2c-a2c8-1f7f299e45c1"},"vehicle_type_id":"4","last_reported":1758291002,"current_range_meters":6800,"station_id":"ce4bhf92rcd13ifvqf40","pricing_plan_id":"cebpf4jnsgd1na2vs0mg"},{"bike_id":"8ce3378c-c99e-4dab-a24b-93593b1b2654","system_id":"levelo_inurba_marseille","lat":43.29932,"lon":5.36496,"is_reserved":false,"is_disabled":false,"rental_uris":{"android":"levelo://app?vid=8ce3378c-c99e-4dab-a24b-93593b1b2654","ios":"levelo://app?vid=8ce3378c-c99e-4dab-a24b-93593b1b2654"},"vehicle_type_id":"4","last_reported":1758291002,"current_range_meters":6800,"station_id":"ce4bgm92rcd13ifvqbr0","pricing_plan_id":"cebpf4jnsgd1na2vs0mg"},{"bike_id":"ccd44948-7c00-492e-b618-36105a29ab8f","system_id":"levelo_inurba_marseille","lat":43.32663,"lon":5.40986,"is_reserved":false,"is_disabled":true,"rental_uris":{"android":"levelo://app?vid=ccd44948-7c00-492e-b618-36105a29ab8f","ios":"levelo://app?vid=ccd44948-7c00-492e-b618-36105a29ab8f"},"vehicle_type_id":"4","last_reported":1758291002,"current_range_meters":6800,"station_id":"ce4bhpp2rcd13ifvqhgg","pricing_plan_id":"cebpf4jnsgd1na2vs0mg"},{"bike_id":"edb1af07-fb94-4cc0-90b3-4cdd6ff6992c","system_id":"levelo_inurba_marseille","lat":43.29531,"lon":5.39382,"is_reserved":false,"is_disabled":false,"rental_uris":{"android":"levelo://app?vid=edb1af07-fb94-4cc0-90b3-4cdd6ff6992c","ios":"levelo://app?vid=edb1af07-fb94-4cc0-90b3-4cdd6ff6992c"},"vehicle_type_id":"4","last_reported":1758291002,"current_range_meters":6800,"station_id":"ce4bh292rcd13ifvqdf0","pricing_plan_id":"cebpf4jnsgd1na2vs0mg"},{"bike_id":"13809a39-d19e-45e3-adbc-be41c9d08119","system_id":"levelo_inurba_marseille","lat":43.22925,"lon":5.35371,"is_reserved":false,"is_disabled":false,"rental_uris":{"android":"levelo://app?vid=13809a39-d19e-45e3-adbc-be41c9d08119","ios":"levelo://app?vid=13809a39-d19e-45e3-adbc-be41c9d08119"},"vehicle_type_id":"4","last_reported":1758291002,"current_range_meters":6800,"station_id":"cpo3532slgdg3j2ikp40","pricing_plan_id":"cebpf4jnsgd1na2vs0mg"},{"bike_id":"7be8407c-e2c1-4139-a51c-132653ed839d","system_id":"levelo_inurba_marseille","lat":43.31296,"lon":5.36708,"is_reserved":false,"is_disabled":false,"rental_uris":{"android":"levelo://app?vid=7be8407c-e2c1-4139-a51c-132653ed839d","ios":"levelo://app?vid=7be8407c-e2c1-4139-a51c-132653ed839d"},"vehicle_type_id":"4","last_reported":1758291002,"current_range_meters":6800,"station_id":"ce4bgr92rcd13ifvqc6g","pricing_plan_id":"cebpf4jnsgd1na2vs0mg"},{"bike_id":"5c11be7d-ca24-4dcd-848f-6ea9fbcfe498","system_id":"levelo_inurba_marseille","lat":43.29907,"lon":5.38164,"is_reserved":false,"is_disabled":false,"rental_uris":{"android":"levelo://app?vid=5c11be7d-ca24-4dcd-848f-6ea9fbcfe498","ios":"levelo://app?vid=5c11be7d-ca24-4dcd-848f-6ea9fbcfe498"},"vehicle_type_id":"4","last_reported":1758291002,"current_range_meters":6800,"station_id":"ce4bgj12rcd13ifvqbc0","pricing_plan_id":"cebpf4jnsgd1na2vs0mg"},{"bike_id":"4a80d183-a44c-40a7-b1d1-b8a60ff64efa","system_id":"levelo_inurba_marseille","lat":43.29084,"lon":5.38126,"is_reserved":false,"is_disabled":false,"rental_uris":{"android":"levelo://app?vid=4a80d183-a44c-40a7-b1d1-b8a60ff64efa","ios":"levelo://app?vid=4a80d183-a44c-40a7-b1d1-b8a60ff64efa"},"vehicle_type_id":"4","last_reported":1758291002,"current_range_meters":7200,"station_id":"ce4bh512rcd13ifvqe2g","pricing_plan_id":"cebpf4jnsgd1na2vs0mg"},{"bike_id":"f5b5c905-8f4e-4eb9-8867-f4bfb55d8c57","system_id":"levelo_inurba_marseille","lat":43.27433,"lon":5.39423,"is_reserved":false,"is_disabled":false,"rental_uris":{"android":"levelo://app?vid=f5b5c905-8f4e-4eb9-8867-f4bfb55d8c57","ios":"levelo://app?vid=f5b5c905-8f4e-4eb9-8867-f4bfb55d8c57"},"vehicle_type_id":"4","last_reported":1758291002,"current_range_meters":7200,"station_id":"ce4bhdp2rcd13ifvqf20","pricing_plan_id":"cebpf4jnsgd1na2vs0mg"},{"bike_id":"b03963e7-f165-473d-a43d-a68e09ff2d96","system_id":"levelo_inurba_marseille","lat":43.25678,"lon":5.41926,"is_reserved":false,"is_disabled":false,"rental_uris":{"android":"levelo://app?vid=b03963e7-f165-473d-a43d-a68e09ff2d96","ios":"levelo://app?vid=b03963e7-f165-473d-a43d-a68e09ff2d96"},"vehicle_type_id":"4","last_reported":1758291002,"current_range_meters":7200,"station_id":"","pricing_plan_id":"cebpf4jnsgd1na2vs0mg"},{"bike_id":"d9298556-90ff-4ad7-9fa0-effdff9b99a5","system_id":"levelo_inurba_marseille","lat":43.26207,"lon":5.37433,"is_reserved":false,"is_disabled":false,"rental_uris":{"android":"levelo://app?vid=d9298556-90ff-4ad7-9fa0-effdff9b99a5","ios":"levelo://app?vid=d9298556-90ff-4ad7-9fa0-effdff9b99a5"},"vehicle_type_id":"4","last_reported":1758291002,"current_range_meters":8000,"station_id":"ce4bhgp2rcd13ifvqfc0","pricing_plan_id":"cebpf4jnsgd1na2vs0mg"},{"bike_id":"e485a987-30d0-4949-b02c-74ffe1a7469a","system_id":"levelo_inurba_marseille","lat":43.28013,"lon":5.39983,"is_reserved":false,"is_disabled":false,"rental_uris":{"android":"levelo://app?vid=e485a987-30d0-4949-b02c-74ffe1a7469a","ios":"levelo://app?vid=e485a987-30d0-4949-b02c-74ffe1a7469a"},"vehicle_type_id":"4","last_reported":1758291002,"current_range_meters":8000,"station_id":"ce4bho92rcd13ifvqh4g","pricing_plan_id":"cebpf4jnsgd1na2vs0mg"},{"bike_id":"ae7345ce-a445-45d8-8ea3-bfc452ada776","system_id":"levelo_inurba_marseille","lat":43.26211,"lon":5.37459,"is_reserved":false,"is_disabled":false,"rental_uris":{"android":"levelo://app?vid=ae7345ce-a445-45d8-8ea3-bfc452ada776","ios":"levelo://app?vid=ae7345ce-a445-45d8-8ea3-bfc452ada776"},"vehicle_type_id":"4","last_reported":1758291002,"current_range_meters":8000,"station_id":"ce4bhgp2rcd13ifvqfc0","pricing_plan_id":"cebpf4jnsgd1na2vs0mg"},{"bike_id":"51428e52-933e-4637-b90d-db6123d52fef","system_id":"levelo_inurba_marseille","lat":43.2984,"lon":5.3627,"is_reserved":false,"is_disabled":false,"rental_uris":{"android":"levelo://app?vid=51428e52-933e-4637-b90d-db6123d52fef","ios":"levelo://app?vid=51428e52-933e-4637-b90d-db6123d52fef"},"vehicle_type_id":"4","last_reported":1758291002,"current_range_meters":8000,"station_id":"ce4bgpp2rcd13ifvqc3g","pricing_plan_id":"cebpf4jnsgd1na2vs0mg"},{"bike_id":"458acb7c-ad6c-45dc-826c-8158cb71ee06","system_id":"levelo_inurba_marseille","lat":43.28274,"lon":5.35065,"is_reserved":false,"is_disabled":false,"rental_uris":{"android":"levelo://app?vid=458acb7c-ad6c-45dc-826c-8158cb71ee06","ios":"levelo://app?vid=458acb7c-ad6c-45dc-826c-8158cb71ee06"},"vehicle_type_id":"4","last_reported":1758291002,"current_range_meters":8000,"station_id":"ce4bhbp2rcd13ifvqerg","pricing_plan_id":"cebpf4jnsgd1na2vs0mg"},{"bike_id":"cd4b4410-8151-41df-9f27-d7ca0b127810","system_id":"levelo_inurba_marseille","lat":43.2826,"lon":5.35063,"is_reserved":false,"is_disabled":false,"rental_uris":{"android":"levelo://app?vid=cd4b4410-8151-41df-9f27-d7ca0b127810","ios":"levelo://app?vid=cd4b4410-8151-41df-9f27-d7ca0b127810"},"vehicle_type_id":"4","last_reported":1758291002,"current_range_meters":8000,"station_id":"ce4bhbp2rcd13ifvqerg","pricing_plan_id":"cebpf4jnsgd1na2vs0mg"},{"bike_id":"75221e43-ff31-4e4d-985f-2c33a55c3968","system_id":"levelo_inurba_marseille","lat":43.29629,"lon":5.40596,"is_reserved":false,"is_disabled":false,"rental_uris":{"android":"levelo://app?vid=75221e43-ff31-4e4d-985f-2c33a55c3968","ios":"levelo://app?vid=75221e43-ff31-4e4d-985f-2c33a55c3968"},"vehicle_type_id":"4","last_reported":1758291002,"current_range_meters":8000,"station_id":"ce4bh0h2rcd13ifvqd60","pricing_plan_id":"cebpf4jnsgd1na2vs0mg"},{"bike_id":"36c3191c-4328-4eae-bf85-7efd18082c6f","system_id":"levelo_inurba_marseille","lat":43.30528,"lon":5.3673,"is_reserved":false,"is_disabled":false,"rental_uris":{"android":"levelo://app?vid=36c3191c-4328-4eae-bf85-7efd18082c6f","ios":"levelo://app?vid=36c3191c-4328-4eae-bf85-7efd18082c6f"},"vehicle_type_id":"4","last_reported":1758291002,"current_range_meters":8400,"station_id":"ce4bgrp2rcd13ifvqc9g","pricing_plan_id":"cebpf4jnsgd1na2vs0mg"},{"bike_id":"78722850-e7a8-4fad-bd58-6469a5499bb5","system_id":"levelo_inurba_marseille","lat":43.30352,"lon":5.41874,"is_reserved":false,"is_disabled":false,"rental_uris":{"android":"levelo://app?vid=78722850-e7a8-4fad-bd58-6469a5499bb5","ios":"levelo://app?vid=78722850-e7a8-4fad-bd58-6469a5499bb5"},"vehicle_type_id":"4","last_reported":1758291002,"current_range_meters":8400,"station_id":"ce4bhop2rcd13ifvqh7g","pricing_plan_id":"cebpf4jnsgd1na2vs0mg"},{"bike_id":"1428d9ad-1854-4216-9c8e-fcfc3d697db5","system_id":"levelo_inurba_marseille","lat":43.31332,"lon":5.39702,"is_reserved":false,"is_disabled":false,"rental_uris":{"android":"levelo://app?vid=1428d9ad-1854-4216-9c8e-fcfc3d697db5","ios":"levelo://app?vid=1428d9ad-1854-4216-9c8e-fcfc3d697db5"},"vehicle_type_id":"4","last_reported":1758291002,"current_range_meters":8400,"station_id":"ce4bgvp2rcd13ifvqcu0","pricing_plan_id":"cebpf4jnsgd1na2vs0mg"},{"bike_id":"405f7bc7-f721-4f9d-847e-2b9edb89ec2a","system_id":"levelo_inurba_marseille","lat":43.24632,"lon":5.43138,"is_reserved":false,"is_disabled":false,"rental_uris":{"android":"levelo://app?vid=405f7bc7-f721-4f9d-847e-2b9edb89ec2a","ios":"levelo://app?vid=405f7bc7-f721-4f9d-847e-2b9edb89ec2a"},"vehicle_type_id":"4","last_reported":1758291002,"current_range_meters":8400,"station_id":"st_d2m6c4gdas8pm72e190g","pricing_plan_id":"cebpf4jnsgd1na2vs0mg"},{"bike_id":"cf90a0ec-f77c-4f8a-a143-d80c08d4cc4e","system_id":"levelo_inurba_marseille","lat":43.29931,"lon":5.36535,"is_reserved":false,"is_disabled":false,"rental_uris":{"android":"levelo://app?vid=cf90a0ec-f77c-4f8a-a143-d80c08d4cc4e","ios":"levelo://app?vid=cf90a0ec-f77c-4f8a-a143-d80c08d4cc4e"},"vehicle_type_id":"4","last_reported":1758291002,"current_range_meters":8400,"station_id":"ce4bgm92rcd13ifvqbr0","pricing_plan_id":"cebpf4jnsgd1na2vs0mg"},{"bike_id":"f71a2861-ef80-4381-8758-4412ed577c73","system_id":"levelo_inurba_marseille","lat":43.26194,"lon":5.37449,"is_reserved":false,"is_disabled":false,"rental_uris":{"android":"levelo://app?vid=f71a2861-ef80-4381-8758-4412ed577c73","ios":"levelo://app?vid=f71a2861-ef80-4381-8758-4412ed577c73"},"vehicle_type_id":"4","last_reported":1758291002,"current_range_meters":8400,"station_id":"ce4bhgp2rcd13ifvqfc0","pricing_plan_id":"cebpf4jnsgd1na2vs0mg"},{"bike_id":"c7bdcbe3-da83-4417-b0b0-729660a0bbe5","system_id":"levelo_inurba_marseille","lat":43.28257,"lon":5.35062,"is_reserved":false,"is_disabled":false,"rental_uris":{"android":"levelo://app?vid=c7bdcbe3-da83-4417-b0b0-729660a0bbe5","ios":"levelo://app?vid=c7bdcbe3-da83-4417-b0b0-729660a0bbe5"},"vehicle_type_id":"4","last_reported":1758291002,"current_range_meters":8400,"station_id":"ce4bhbp2rcd13ifvqerg","pricing_plan_id":"cebpf4jnsgd1na2vs0mg"},{"bike_id":"cf66592a-d8fa-4c6c-9927-5d7a9fef5026","system_id":"levelo_inurba_marseille","lat":43.26274,"lon":5.39821,"is_reserved":false,"is_disabled":false,"rental_uris":{"android":"levelo://app?vid=cf66592a-d8fa-4c6c-9927-5d7a9fef5026","ios":"levelo://app?vid=cf66592a-d8fa-4c6c-9927-5d7a9fef5026"},"vehicle_type_id":"4","last_reported":1758291002,"current_range_meters":8400,"station_id":"","pricing_plan_id":"cebpf4jnsgd1na2vs0mg"},{"bike_id":"7cc8afb7-aa9e-471c-ac62-f3f50273db81","system_id":"levelo_inurba_marseille","lat":43.28265,"lon":5.35063,"is_reserved":false,"is_disabled":false,"rental_uris":{"android":"levelo://app?vid=7cc8afb7-aa9e-471c-ac62-f3f50273db81","ios":"levelo://app?vid=7cc8afb7-aa9e-471c-ac62-f3f50273db81"},"vehicle_type_id":"4","last_reported":1758291002,"current_range_meters":8400,"station_id":"ce4bhbp2rcd13ifvqerg","pricing_plan_id":"cebpf4jnsgd1na2vs0mg"},{"bike_id":"56a4f75d-eaf2-44b4-aa02-4a439b19699b","system_id":"levelo_inurba_marseille","lat":43.33798,"lon":5.37426,"is_reserved":false,"is_disabled":false,"rental_uris":{"android":"levelo://app?vid=56a4f75d-eaf2-44b4-aa02-4a439b19699b","ios":"levelo://app?vid=56a4f75d-eaf2-44b4-aa02-4a439b19699b"},"vehicle_type_id":"4","last_reported":1758291002,"current_range_meters":8800,"station_id":"","pricing_plan_id":"cebpf4jnsgd1na2vs0mg"},{"bike_id":"cbba2608-3bb3-4b0f-9ec6-5492bb9f9fab","system_id":"levelo_inurba_marseille","lat":43.2416,"lon":5.36398,"is_reserved":false,"is_disabled":false,"rental_uris":{"android":"levelo://app?vid=cbba2608-3bb3-4b0f-9ec6-5492bb9f9fab","ios":"levelo://app?vid=cbba2608-3bb3-4b0f-9ec6-5492bb9f9fab"},"vehicle_type_id":"4","last_reported":1758291002,"current_range_meters":8800,"station_id":"cpo36qri1sfpv3e86is0","pricing_plan_id":"cebpf4jnsgd1na2vs0mg"},{"bike_id":"6dafa70f-dccc-418f-a0fc-1d8508362979","system_id":"levelo_inurba_marseille","lat":43.30924,"lon":5.36857,"is_reserved":false,"is_disabled":false,"rental_uris":{"android":"levelo://app?vid=6dafa70f-dccc-418f-a0fc-1d8508362979","ios":"levelo://app?vid=6dafa70f-dccc-418f-a0fc-1d8508362979"},"vehicle_type_id":"4","last_reported":1758291002,"current_range_meters":9200,"station_id":"","pricing_plan_id":"cebpf4jnsgd1na2vs0mg"},{"bike_id":"848da313-04c6-49b7-b945-1ae4be20aeaa","system_id":"levelo_inurba_marseille","lat":43.28265,"lon":5.35062,"is_reserved":false,"is_disabled":false,"rental_uris":{"android":"levelo://app?vid=848da313-04c6-49b7-b945-1ae4be20aeaa","ios":"levelo://app?vid=848da313-04c6-49b7-b945-1ae4be20aeaa"},"vehicle_type_id":"4","last_reported":1758291002,"current_range_meters":9200,"station_id":"ce4bhbp2rcd13ifvqerg","pricing_plan_id":"cebpf4jnsgd1na2vs0mg"},{"bike_id":"7f940c2e-be1a-4575-ae92-1d56d2875531","system_id":"levelo_inurba_marseille","lat":43.286112,"lon":5.370649,"is_reserved":false,"is_disabled":false,"rental_uris":{"android":"levelo://app?vid=7f940c2e-be1a-4575-ae92-1d56d2875531","ios":"levelo://app?vid=7f940c2e-be1a-4575-ae92-1d56d2875531"},"vehicle_type_id":"4","last_reported":1758291002,"current_range_meters":9200,"station_id":"ce4bht12rcd13ifvqi60","pricing_plan_id":"cebpf4jnsgd1na2vs0mg"},{"bike_id":"d9167cdd-c5c0-43c1-8c4c-8f61912254bc","system_id":"levelo_inurba_marseille","lat":43.293,"lon":5.37457,"is_reserved":false,"is_disabled":false,"rental_uris":{"android":"levelo://app?vid=d9167cdd-c5c0-43c1-8c4c-8f61912254bc","ios":"levelo://app?vid=d9167cdd-c5c0-43c1-8c4c-8f61912254bc"},"vehicle_type_id":"4","last_reported":1758291002,"current_range_meters":8800,"station_id":"ce4bgi12rcd13ifvqb70","pricing_plan_id":"cebpf4jnsgd1na2vs0mg"},{"bike_id":"a8a06401-6f29-41c2-90c2-12e182d22fee","system_id":"levelo_inurba_marseille","lat":43.30096,"lon":5.39074,"is_reserved":false,"is_disabled":false,"rental_uris":{"android":"levelo://app?vid=a8a06401-6f29-41c2-90c2-12e182d22fee","ios":"levelo://app?vid=a8a06401-6f29-41c2-90c2-12e182d22fee"},"vehicle_type_id":"4","last_reported":1758291002,"current_range_meters":9200,"station_id":"ce4bh192rcd13ifvqdb0","pricing_plan_id":"cebpf4jnsgd1na2vs0mg"},{"bike_id":"42323a1a-489c-43cb-90ae-c675b27444d5","system_id":"levelo_inurba_marseille","lat":43.21649,"lon":5.34347,"is_reserved":false,"is_disabled":false,"rental_uris":{"android":"levelo://app?vid=42323a1a-489c-43cb-90ae-c675b27444d5","ios":"levelo://app?vid=42323a1a-489c-43cb-90ae-c675b27444d5"},"vehicle_type_id":"4","last_reported":1758291002,"current_range_meters":9200,"station_id":"","pricing_plan_id":"cebpf4jnsgd1na2vs0mg"},{"bike_id":"80a9a218-f77f-42ce-8136-b0dceb9fc366","system_id":"levelo_inurba_marseille","lat":43.267867,"lon":5.394102,"is_reserved":false,"is_disabled":true,"rental_uris":{"android":"levelo://app?vid=80a9a218-f77f-42ce-8136-b0dceb9fc366","ios":"levelo://app?vid=80a9a218-f77f-42ce-8136-b0dceb9fc366"},"vehicle_type_id":"4","last_reported":1758291002,"current_range_meters":9600,"station_id":"ce4bhh12rcd13ifvqfg0","pricing_plan_id":"cebpf4jnsgd1na2vs0mg"},{"bike_id":"cad97885-b582-49b2-8b83-0a6c3d079fc6","system_id":"levelo_inurba_marseille","lat":43.297018,"lon":5.365873,"is_reserved":false,"is_disabled":false,"rental_uris":{"android":"levelo://app?vid=cad97885-b582-49b2-8b83-0a6c3d079fc6","ios":"levelo://app?vid=cad97885-b582-49b2-8b83-0a6c3d079fc6"},"vehicle_type_id":"4","last_reported":1758291002,"current_range_meters":9600,"station_id":"ce4bgn12rcd13ifvqbt0","pricing_plan_id":"cebpf4jnsgd1na2vs0mg"},{"bike_id":"b4083a1d-dead-4bdf-976f-eaa3a7a9df87","system_id":"levelo_inurba_marseille","lat":43.25336,"lon":5.42166,"is_reserved":false,"is_disabled":false,"rental_uris":{"android":"levelo://app?vid=b4083a1d-dead-4bdf-976f-eaa3a7a9df87","ios":"levelo://app?vid=b4083a1d-dead-4bdf-976f-eaa3a7a9df87"},"vehicle_type_id":"4","last_reported":1758291002,"current_range_meters":9600,"station_id":"st_d2m65c5bi1j21697t3ng","pricing_plan_id":"cebpf4jnsgd1na2vs0mg"},{"bike_id":"a723ab1b-11ce-491f-a8f5-8ada0603da7e","system_id":"levelo_inurba_marseille","lat":43.23184,"lon":5.39993,"is_reserved":false,"is_disabled":false,"rental_uris":{"android":"levelo://app?vid=a723ab1b-11ce-491f-a8f5-8ada0603da7e","ios":"levelo://app?vid=a723ab1b-11ce-491f-a8f5-8ada0603da7e"},"vehicle_type_id":"4","last_reported":1758291002,"current_range_meters":9600,"station_id":"ce4bhn12rcd13ifvqgqg","pricing_plan_id":"cebpf4jnsgd1na2vs0mg"},{"bike_id":"c03db5d6-931c-41e0-bfa5-6550a106fb99","system_id":"levelo_inurba_marseille","lat":43.23285,"lon":5.36033,"is_reserved":false,"is_disabled":false,"rental_uris":{"android":"levelo://app?vid=c03db5d6-931c-41e0-bfa5-6550a106fb99","ios":"levelo://app?vid=c03db5d6-931c-41e0-bfa5-6550a106fb99"},"vehicle_type_id":"4","last_reported":1758291002,"current_range_meters":9600,"station_id":"","pricing_plan_id":"cebpf4jnsgd1na2vs0mg"},{"bike_id":"9164afb6-115a-443a-bfd9-f26170207b3d","system_id":"levelo_inurba_marseille","lat":43.27964,"lon":5.38731,"is_reserved":false,"is_disabled":false,"rental_uris":{"android":"levelo://app?vid=9164afb6-115a-443a-bfd9-f26170207b3d","ios":"levelo://app?vid=9164afb6-115a-443a-bfd9-f26170207b3d"},"vehicle_type_id":"4","last_reported":1758291002,"current_range_meters":9600,"station_id":"ce4bhg12rcd13ifvqf80","pricing_plan_id":"cebpf4jnsgd1na2vs0mg"},{"bike_id":"e91f48b0-6048-4072-96bc-af338c09373c","system_id":"levelo_inurba_marseille","lat":43.28405,"lon":5.34985,"is_reserved":false,"is_disabled":false,"rental_uris":{"android":"levelo://app?vid=e91f48b0-6048-4072-96bc-af338c09373c","ios":"levelo://app?vid=e91f48b0-6048-4072-96bc-af338c09373c"},"vehicle_type_id":"4","last_reported":1758291002,"current_range_meters":9600,"station_id":"ce4bhbh2rcd13ifvqepg","pricing_plan_id":"cebpf4jnsgd1na2vs0mg"},{"bike_id":"be9ee84b-9ec1-497c-800c-5907ad1418ae","system_id":"levelo_inurba_marseille","lat":43.22563,"lon":5.41627,"is_reserved":false,"is_disabled":false,"rental_uris":{"android":"levelo://app?vid=be9ee84b-9ec1-497c-800c-5907ad1418ae","ios":"levelo://app?vid=be9ee84b-9ec1-497c-800c-5907ad1418ae"},"vehicle_type_id":"4","last_reported":1758291002,"current_range_meters":9600,"station_id":"st_d2o4gvlbi1j2169b742g","pricing_plan_id":"cebpf4jnsgd1na2vs0mg"},{"bike_id":"e6f8489d-fe42-4015-a82c-b604c2c8b33e","system_id":"levelo_inurba_marseille","lat":43.29795,"lon":5.36682,"is_reserved":false,"is_disabled":false,"rental_uris":{"android":"levelo://app?vid=e6f8489d-fe42-4015-a82c-b604c2c8b33e","ios":"levelo://app?vid=e6f8489d-fe42-4015-a82c-b604c2c8b33e"},"vehicle_type_id":"4","last_reported":1758291002,"current_range_meters":9600,"station_id":"","pricing_plan_id":"cebpf4jnsgd1na2vs0mg"},{"bike_id":"336e1e65-5f24-4827-9cd9-7a1d241f21db","system_id":"levelo_inurba_marseille","lat":43.32371,"lon":5.36736,"is_reserved":false,"is_disabled":false,"rental_uris":{"android":"levelo://app?vid=336e1e65-5f24-4827-9cd9-7a1d241f21db","ios":"levelo://app?vid=336e1e65-5f24-4827-9cd9-7a1d241f21db"},"vehicle_type_id":"4","last_reported":1758291002,"current_range_meters":9600,"station_id":"ce4bhsh2rcd13ifvqi2g","pricing_plan_id":"cebpf4jnsgd1na2vs0mg"},{"bike_id":"a4faa1fd-62ee-404a-aff8-b79ea6b6b5d2","system_id":"levelo_inurba_marseille","lat":43.32986,"lon":5.39245,"is_reserved":false,"is_disabled":false,"rental_uris":{"android":"levelo://app?vid=a4faa1fd-62ee-404a-aff8-b79ea6b6b5d2","ios":"levelo://app?vid=a4faa1fd-62ee-404a-aff8-b79ea6b6b5d2"},"vehicle_type_id":"4","last_reported":1758291002,"current_range_meters":10000,"station_id":"","pricing_plan_id":"cebpf4jnsgd1na2vs0mg"},{"bike_id":"9ca78103-0c31-4af4-97c8-53c2146ca599","system_id":"levelo_inurba_marseille","lat":43.231962,"lon":5.355556,"is_reserved":false,"is_disabled":false,"rental_uris":{"android":"levelo://app?vid=9ca78103-0c31-4af4-97c8-53c2146ca599","ios":"levelo://app?vid=9ca78103-0c31-4af4-97c8-53c2146ca599"},"vehicle_type_id":"4","last_reported":1758291002,"current_range_meters":10000,"station_id":"","pricing_plan_id":"cebpf4jnsgd1na2vs0mg"},{"bike_id":"0ae2d2cc-805c-47a7-bd7e-28f3ea87c342","system_id":"levelo_inurba_marseille","lat":43.2888,"lon":5.4251,"is_reserved":false,"is_disabled":false,"rental_uris":{"android":"levelo://app?vid=0ae2d2cc-805c-47a7-bd7e-28f3ea87c342","ios":"levelo://app?vid=0ae2d2cc-805c-47a7-bd7e-28f3ea87c342"},"vehicle_type_id":"4","last_reported":1758291002,"current_range_meters":10000,"station_id":"","pricing_plan_id":"cebpf4jnsgd1na2vs0mg"},{"bike_id":"e9eaa975-eeb4-48d9-8ba6-e2c2038fdfe7","system_id":"levelo_inurba_marseille","lat":43.29936,"lon":5.36534,"is_reserved":false,"is_disabled":false,"rental_uris":{"android":"levelo://app?vid=e9eaa975-eeb4-48d9-8ba6-e2c2038fdfe7","ios":"levelo://app?vid=e9eaa975-eeb4-48d9-8ba6-e2c2038fdfe7"},"vehicle_type_id":"4","last_reported":1758291002,"current_range_meters":10800,"station_id":"ce4bgm92rcd13ifvqbr0","pricing_plan_id":"cebpf4jnsgd1na2vs0mg"},{"bike_id":"b894f5d0-4b53-42f8-a283-9f859921cf47","system_id":"levelo_inurba_marseille","lat":43.298127,"lon":5.417095,"is_reserved":false,"is_disabled":false,"rental_uris":{"android":"levelo://app?vid=b894f5d0-4b53-42f8-a283-9f859921cf47","ios":"levelo://app?vid=b894f5d0-4b53-42f8-a283-9f859921cf47"},"vehicle_type_id":"4","last_reported":1758291002,"current_range_meters":10800,"station_id":"","pricing_plan_id":"cebpf4jnsgd1na2vs0mg"},{"bike_id":"e942f984-8fe7-48d1-8f04-3806656b9996","system_id":"levelo_inurba_marseille","lat":43.33635,"lon":5.37937,"is_reserved":false,"is_disabled":false,"rental_uris":{"android":"levelo://app?vid=e942f984-8fe7-48d1-8f04-3806656b9996","ios":"levelo://app?vid=e942f984-8fe7-48d1-8f04-3806656b9996"},"vehicle_type_id":"4","last_reported":1758291002,"current_range_meters":10800,"station_id":"","pricing_plan_id":"cebpf4jnsgd1na2vs0mg"},{"bike_id":"1a35b52a-c9df-460c-8016-0ac6499b0c5a","system_id":"levelo_inurba_marseille","lat":43.32484,"lon":5.36562,"is_reserved":false,"is_disabled":false,"rental_uris":{"android":"levelo://app?vid=1a35b52a-c9df-460c-8016-0ac6499b0c5a","ios":"levelo://app?vid=1a35b52a-c9df-460c-8016-0ac6499b0c5a"},"vehicle_type_id":"4","last_reported":1758291002,"current_range_meters":10800,"station_id":"ce4bhs12rcd13ifvqhvg","pricing_plan_id":"cebpf4jnsgd1na2vs0mg"},{"bike_id":"86c037cc-1e23-4303-832e-55fcc3d8aeb0","system_id":"levelo_inurba_marseille","lat":43.30418,"lon":5.39763,"is_reserved":false,"is_disabled":false,"rental_uris":{"android":"levelo://app?vid=86c037cc-1e23-4303-832e-55fcc3d8aeb0","ios":"levelo://app?vid=86c037cc-1e23-4303-832e-55fcc3d8aeb0"},"vehicle_type_id":"4","last_reported":1758291002,"current_range_meters":10800,"station_id":"ce4bh092rcd13ifvqd20","pricing_plan_id":"cebpf4jnsgd1na2vs0mg"},{"bike_id":"22f0687d-25d3-4094-9c4a-293a61e189a6","system_id":"levelo_inurba_marseille","lat":43.2463,"lon":5.39626,"is_reserved":false,"is_disabled":true,"rental_uris":{"android":"levelo://app?vid=22f0687d-25d3-4094-9c4a-293a61e189a6","ios":"levelo://app?vid=22f0687d-25d3-4094-9c4a-293a61e189a6"},"vehicle_type_id":"4","last_reported":1758291002,"current_range_meters":10800,"station_id":"","pricing_plan_id":"cebpf4jnsgd1na2vs0mg"},{"bike_id":"019f6d9a-67ec-4b4b-b391-6ab0c561abb8","system_id":"levelo_inurba_marseille","lat":43.323622,"lon":5.36753,"is_reserved":false,"is_disabled":false,"rental_uris":{"android":"levelo://app?vid=019f6d9a-67ec-4b4b-b391-6ab0c561abb8","ios":"levelo://app?vid=019f6d9a-67ec-4b4b-b391-6ab0c561abb8"},"vehicle_type_id":"4","last_reported":1758291002,"current_range_meters":10800,"station_id":"ce4bhsh2rcd13ifvqi2g","pricing_plan_id":"cebpf4jnsgd1na2vs0mg"},{"bike_id":"2c8cde4e-e74d-413e-be0e-b5682cc66e37","system_id":"levelo_inurba_marseille","lat":43.28666,"lon":5.36348,"is_reserved":false,"is_disabled":false,"rental_uris":{"android":"levelo://app?vid=2c8cde4e-e74d-413e-be0e-b5682cc66e37","ios":"levelo://app?vid=2c8cde4e-e74d-413e-be0e-b5682cc66e37"},"vehicle_type_id":"4","last_reported":1758291002,"current_range_meters":10800,"station_id":"ce4bhah2rcd13ifvqej0","pricing_plan_id":"cebpf4jnsgd1na2vs0mg"},{"bike_id":"93adfef7-aeaa-4a4f-bf38-e122b1e85228","system_id":"levelo_inurba_marseille","lat":43.28709,"lon":5.3737,"is_reserved":false,"is_disabled":false,"rental_uris":{"android":"levelo://app?vid=93adfef7-aeaa-4a4f-bf38-e122b1e85228","ios":"levelo://app?vid=93adfef7-aeaa-4a4f-bf38-e122b1e85228"},"vehicle_type_id":"4","last_reported":1758291002,"current_range_meters":11200,"station_id":"ce4bh3p2rcd13ifvqdq0","pricing_plan_id":"cebpf4jnsgd1na2vs0mg"},{"bike_id":"9e697b52-e90e-4556-8bb5-22453ec71083","system_id":"levelo_inurba_marseille","lat":43.30797,"lon":5.38139,"is_reserved":false,"is_disabled":false,"rental_uris":{"android":"levelo://app?vid=9e697b52-e90e-4556-8bb5-22453ec71083","ios":"levelo://app?vid=9e697b52-e90e-4556-8bb5-22453ec71083"},"vehicle_type_id":"4","last_reported":1758291002,"current_range_meters":11200,"station_id":"ce4bgt12rcd13ifvqce0","pricing_plan_id":"cebpf4jnsgd1na2vs0mg"},{"bike_id":"e8dae9a5-2841-49d9-b572-94d735628ab9","system_id":"levelo_inurba_marseille","lat":43.33728,"lon":5.39186,"is_reserved":false,"is_disabled":false,"rental_uris":{"android":"levelo://app?vid=e8dae9a5-2841-49d9-b572-94d735628ab9","ios":"levelo://app?vid=e8dae9a5-2841-49d9-b572-94d735628ab9"},"vehicle_type_id":"4","last_reported":1758291002,"current_range_meters":11200,"station_id":"ce4bhr92rcd13ifvqhsg","pricing_plan_id":"cebpf4jnsgd1na2vs0mg"},{"bike_id":"f0096600-92aa-4924-bb18-5264d5c849ad","system_id":"levelo_inurba_marseille","lat":43.29261,"lon":5.40917,"is_reserved":false,"is_disabled":false,"rental_uris":{"android":"levelo://app?vid=f0096600-92aa-4924-bb18-5264d5c849ad","ios":"levelo://app?vid=f0096600-92aa-4924-bb18-5264d5c849ad"},"vehicle_type_id":"4","last_reported":1758291002,"current_range_meters":11200,"station_id":"ce4bh192rcd13ifvqdc0","pricing_plan_id":"cebpf4jnsgd1na2vs0mg"},{"bike_id":"9f984833-d79d-4ae7-b6e2-8e6bfb0d2f2d","system_id":"levelo_inurba_marseille","lat":43.23198,"lon":5.35547,"is_reserved":false,"is_disabled":false,"rental_uris":{"android":"levelo://app?vid=9f984833-d79d-4ae7-b6e2-8e6bfb0d2f2d","ios":"levelo://app?vid=9f984833-d79d-4ae7-b6e2-8e6bfb0d2f2d"},"vehicle_type_id":"4","last_reported":1758291002,"current_range_meters":11200,"station_id":"ce4bhu92rcd13ifvqi70","pricing_plan_id":"cebpf4jnsgd1na2vs0mg"},{"bike_id":"9712ddb0-57d6-45e7-a9a0-012666ba07a0","system_id":"levelo_inurba_marseille","lat":43.21746,"lon":5.34605,"is_reserved":false,"is_disabled":false,"rental_uris":{"android":"levelo://app?vid=9712ddb0-57d6-45e7-a9a0-012666ba07a0","ios":"levelo://app?vid=9712ddb0-57d6-45e7-a9a0-012666ba07a0"},"vehicle_type_id":"4","last_reported":1758291002,"current_range_meters":11200,"station_id":"st_cvj6r9ubvosntc0bgbag","pricing_plan_id":"cebpf4jnsgd1na2vs0mg"},{"bike_id":"ed20f1d8-bc72-415d-8a8f-af83da4fa7d9","system_id":"levelo_inurba_marseille","lat":43.33483,"lon":5.36243,"is_reserved":false,"is_disabled":false,"rental_uris":{"android":"levelo://app?vid=ed20f1d8-bc72-415d-8a8f-af83da4fa7d9","ios":"levelo://app?vid=ed20f1d8-bc72-415d-8a8f-af83da4fa7d9"},"vehicle_type_id":"4","last_reported":1758291002,"current_range_meters":11200,"station_id":"","pricing_plan_id":"cebpf4jnsgd1na2vs0mg"},{"bike_id":"5abd5005-6e1a-4e4a-8cf1-5135d482aac9","system_id":"levelo_inurba_marseille","lat":43.33738,"lon":5.39182,"is_reserved":false,"is_disabled":false,"rental_uris":{"android":"levelo://app?vid=5abd5005-6e1a-4e4a-8cf1-5135d482aac9","ios":"levelo://app?vid=5abd5005-6e1a-4e4a-8cf1-5135d482aac9"},"vehicle_type_id":"4","last_reported":1758291002,"current_range_meters":11200,"station_id":"ce4bhr92rcd13ifvqhsg","pricing_plan_id":"cebpf4jnsgd1na2vs0mg"},{"bike_id":"ce1882dc-ebcb-489d-bc1a-98bbca60e700","system_id":"levelo_inurba_marseille","lat":43.22564,"lon":5.416,"is_reserved":false,"is_disabled":false,"rental_uris":{"android":"levelo://app?vid=ce1882dc-ebcb-489d-bc1a-98bbca60e700","ios":"levelo://app?vid=ce1882dc-ebcb-489d-bc1a-98bbca60e700"},"vehicle_type_id":"4","last_reported":1758291002,"current_range_meters":11200,"station_id":"st_d2o4gvlbi1j2169b742g","pricing_plan_id":"cebpf4jnsgd1na2vs0mg"},{"bike_id":"f9418cc9-c64d-43d9-9060-3aeedd69cdee","system_id":"levelo_inurba_marseille","lat":43.33086,"lon":5.37863,"is_reserved":false,"is_disabled":false,"rental_uris":{"android":"levelo://app?vid=f9418cc9-c64d-43d9-9060-3aeedd69cdee","ios":"levelo://app?vid=f9418cc9-c64d-43d9-9060-3aeedd69cdee"},"vehicle_type_id":"4","last_reported":1758291002,"current_range_meters":11200,"station_id":"","pricing_plan_id":"cebpf4jnsgd1na2vs0mg"},{"bike_id":"95a62c10-7ca9-4348-809a-c3089ad076d3","system_id":"levelo_inurba_marseille","lat":43.299,"lon":5.39732,"is_reserved":false,"is_disabled":true,"rental_uris":{"android":"levelo://app?vid=95a62c10-7ca9-4348-809a-c3089ad076d3","ios":"levelo://app?vid=95a62c10-7ca9-4348-809a-c3089ad076d3"},"vehicle_type_id":"4","last_reported":1758291002,"current_range_meters":11600,"station_id":"ce4bh0h2rcd13ifvqd50","pricing_plan_id":"cebpf4jnsgd1na2vs0mg"},{"bike_id":"faf625d9-abb9-41be-920a-fdcce32b4988","system_id":"levelo_inurba_marseille","lat":43.289753,"lon":5.378409,"is_reserved":false,"is_disabled":false,"rental_uris":{"android":"levelo://app?vid=faf625d9-abb9-41be-920a-fdcce32b4988","ios":"levelo://app?vid=faf625d9-abb9-41be-920a-fdcce32b4988"},"vehicle_type_id":"4","last_reported":1758291002,"current_range_meters":11600,"station_id":"ce4bh9p2rcd13ifvqed0","pricing_plan_id":"cebpf4jnsgd1na2vs0mg"},{"bike_id":"c677aedd-748f-4382-8655-dd2fab1afa82","system_id":"levelo_inurba_marseille","lat":43.30537,"lon":5.36696,"is_reserved":false,"is_disabled":false,"rental_uris":{"android":"levelo://app?vid=c677aedd-748f-4382-8655-dd2fab1afa82","ios":"levelo://app?vid=c677aedd-748f-4382-8655-dd2fab1afa82"},"vehicle_type_id":"4","last_reported":1758291002,"current_range_meters":11600,"station_id":"ce4bgrp2rcd13ifvqc9g","pricing_plan_id":"cebpf4jnsgd1na2vs0mg"},{"bike_id":"025e47d6-0f7d-4b14-bb44-97326c3be504","system_id":"levelo_inurba_marseille","lat":43.23194,"lon":5.35553,"is_reserved":false,"is_disabled":false,"rental_uris":{"android":"levelo://app?vid=025e47d6-0f7d-4b14-bb44-97326c3be504","ios":"levelo://app?vid=025e47d6-0f7d-4b14-bb44-97326c3be504"},"vehicle_type_id":"4","last_reported":1758291002,"current_range_meters":11600,"station_id":"ce4bhu92rcd13ifvqi70","pricing_plan_id":"cebpf4jnsgd1na2vs0mg"},{"bike_id":"cc48539f-3363-44f7-9041-3eea5291a9db","system_id":"levelo_inurba_marseille","lat":43.212,"lon":5.35076,"is_reserved":false,"is_disabled":true,"rental_uris":{"android":"levelo://app?vid=cc48539f-3363-44f7-9041-3eea5291a9db","ios":"levelo://app?vid=cc48539f-3363-44f7-9041-3eea5291a9db"},"vehicle_type_id":"4","last_reported":1758291002,"current_range_meters":11600,"station_id":"","pricing_plan_id":"cebpf4jnsgd1na2vs0mg"},{"bike_id":"756d0fc9-6f3d-43ee-b594-a6c3884bef76","system_id":"levelo_inurba_marseille","lat":43.24804,"lon":5.37451,"is_reserved":false,"is_disabled":false,"rental_uris":{"android":"levelo://app?vid=756d0fc9-6f3d-43ee-b594-a6c3884bef76","ios":"levelo://app?vid=756d0fc9-6f3d-43ee-b594-a6c3884bef76"},"vehicle_type_id":"4","last_reported":1758291002,"current_range_meters":12000,"station_id":"ce4bhgh2rcd13ifvqfb0","pricing_plan_id":"cebpf4jnsgd1na2vs0mg"},{"bike_id":"fb78ea42-e26f-45b3-a617-d3474b811b72","system_id":"levelo_inurba_marseille","lat":43.29888,"lon":5.37915,"is_reserved":false,"is_disabled":false,"rental_uris":{"android":"levelo://app?vid=fb78ea42-e26f-45b3-a617-d3474b811b72","ios":"levelo://app?vid=fb78ea42-e26f-45b3-a617-d3474b811b72"},"vehicle_type_id":"4","last_reported":1758291002,"current_range_meters":12000,"station_id":"","pricing_plan_id":"cebpf4jnsgd1na2vs0mg"},{"bike_id":"129693f1-bec1-405c-a566-241911c46a01","system_id":"levelo_inurba_marseille","lat":43.27992,"lon":5.36505,"is_reserved":false,"is_disabled":false,"rental_uris":{"android":"levelo://app?vid=129693f1-bec1-405c-a566-241911c46a01","ios":"levelo://app?vid=129693f1-bec1-405c-a566-241911c46a01"},"vehicle_type_id":"4","last_reported":1758291002,"current_range_meters":12000,"station_id":"","pricing_plan_id":"cebpf4jnsgd1na2vs0mg"},{"bike_id":"82cc0363-f017-4dcf-b925-fc405e11cadf","system_id":"levelo_inurba_marseille","lat":43.28838,"lon":5.3586,"is_reserved":false,"is_disabled":false,"rental_uris":{"android":"levelo://app?vid=82cc0363-f017-4dcf-b925-fc405e11cadf","ios":"levelo://app?vid=82cc0363-f017-4dcf-b925-fc405e11cadf"},"vehicle_type_id":"4","last_reported":1758291002,"current_range_meters":12000,"station_id":"ce4bhb12rcd13ifvqem0","pricing_plan_id":"cebpf4jnsgd1na2vs0mg"},{"bike_id":"c627b34a-8e81-4438-af3b-4fd0aab1c160","system_id":"levelo_inurba_marseille","lat":43.29601,"lon":5.36048,"is_reserved":false,"is_disabled":false,"rental_uris":{"android":"levelo://app?vid=c627b34a-8e81-4438-af3b-4fd0aab1c160","ios":"levelo://app?vid=c627b34a-8e81-4438-af3b-4fd0aab1c160"},"vehicle_type_id":"4","last_reported":1758291002,"current_range_meters":12000,"station_id":"","pricing_plan_id":"cebpf4jnsgd1na2vs0mg"},{"bike_id":"9187b442-3e61-412e-bc50-23bee4e2404e","system_id":"levelo_inurba_marseille","lat":43.30213,"lon":5.39913,"is_reserved":false,"is_disabled":false,"rental_uris":{"android":"levelo://app?vid=9187b442-3e61-412e-bc50-23bee4e2404e","ios":"levelo://app?vid=9187b442-3e61-412e-bc50-23bee4e2404e"},"vehicle_type_id":"4","last_reported":1758291002,"current_range_meters":12000,"station_id":"ce4bgvh2rcd13ifvqcs0","pricing_plan_id":"cebpf4jnsgd1na2vs0mg"},{"bike_id":"0b46d83f-20b5-4ec6-8e36-d61e3f88673f","system_id":"levelo_inurba_marseille","lat":43.2847,"lon":5.35883,"is_reserved":false,"is_disabled":false,"rental_uris":{"android":"levelo://app?vid=0b46d83f-20b5-4ec6-8e36-d61e3f88673f","ios":"levelo://app?vid=0b46d83f-20b5-4ec6-8e36-d61e3f88673f"},"vehicle_type_id":"4","last_reported":1758291002,"current_range_meters":12000,"station_id":"ce4bhah2rcd13ifvqei0","pricing_plan_id":"cebpf4jnsgd1na2vs0mg"},{"bike_id":"d98ef090-c901-436e-8630-2f76ac811b49","system_id":"levelo_inurba_marseille","lat":43.21749,"lon":5.346,"is_reserved":false,"is_disabled":false,"rental_uris":{"android":"levelo://app?vid=d98ef090-c901-436e-8630-2f76ac811b49","ios":"levelo://app?vid=d98ef090-c901-436e-8630-2f76ac811b49"},"vehicle_type_id":"4","last_reported":1758291002,"current_range_meters":12000,"station_id":"st_cvj6r9ubvosntc0bgbag","pricing_plan_id":"cebpf4jnsgd1na2vs0mg"},{"bike_id":"a4f9843f-ea8e-45f8-b814-3b6a01dd959b","system_id":"levelo_inurba_marseille","lat":43.2306,"lon":5.35495,"is_reserved":false,"is_disabled":false,"rental_uris":{"android":"levelo://app?vid=a4f9843f-ea8e-45f8-b814-3b6a01dd959b","ios":"levelo://app?vid=a4f9843f-ea8e-45f8-b814-3b6a01dd959b"},"vehicle_type_id":"4","last_reported":1758291002,"current_range_meters":12400,"station_id":"cpo3342slgdg3j2ifvpg","pricing_plan_id":"cebpf4jnsgd1na2vs0mg"},{"bike_id":"b77f55c1-d2ac-47bc-834c-65a85839e2b3","system_id":"levelo_inurba_marseille","lat":43.28264,"lon":5.35049,"is_reserved":false,"is_disabled":false,"rental_uris":{"android":"levelo://app?vid=b77f55c1-d2ac-47bc-834c-65a85839e2b3","ios":"levelo://app?vid=b77f55c1-d2ac-47bc-834c-65a85839e2b3"},"vehicle_type_id":"4","last_reported":1758291002,"current_range_meters":12400,"station_id":"ce4bhbp2rcd13ifvqerg","pricing_plan_id":"cebpf4jnsgd1na2vs0mg"},{"bike_id":"73b62859-e033-4d54-b5a7-2e7d81ae10ae","system_id":"levelo_inurba_marseille","lat":43.28276,"lon":5.35071,"is_reserved":false,"is_disabled":false,"rental_uris":{"android":"levelo://app?vid=73b62859-e033-4d54-b5a7-2e7d81ae10ae","ios":"levelo://app?vid=73b62859-e033-4d54-b5a7-2e7d81ae10ae"},"vehicle_type_id":"4","last_reported":1758291002,"current_range_meters":12400,"station_id":"ce4bhbp2rcd13ifvqerg","pricing_plan_id":"cebpf4jnsgd1na2vs0mg"},{"bike_id":"c1e61a10-e8f1-480e-b598-93665249f0ce","system_id":"levelo_inurba_marseille","lat":43.28612,"lon":5.35101,"is_reserved":false,"is_disabled":false,"rental_uris":{"android":"levelo://app?vid=c1e61a10-e8f1-480e-b598-93665249f0ce","ios":"levelo://app?vid=c1e61a10-e8f1-480e-b598-93665249f0ce"},"vehicle_type_id":"4","last_reported":1758291002,"current_range_meters":12400,"station_id":"ce4bhch2rcd13ifvqeug","pricing_plan_id":"cebpf4jnsgd1na2vs0mg"},{"bike_id":"0e84bab3-811d-41d9-a3ac-b1d35251d7b6","system_id":"levelo_inurba_marseille","lat":43.284088,"lon":5.349876,"is_reserved":false,"is_disabled":false,"rental_uris":{"android":"levelo://app?vid=0e84bab3-811d-41d9-a3ac-b1d35251d7b6","ios":"levelo://app?vid=0e84bab3-811d-41d9-a3ac-b1d35251d7b6"},"vehicle_type_id":"4","last_reported":1758291002,"current_range_meters":12800,"station_id":"ce4bhbh2rcd13ifvqepg","pricing_plan_id":"cebpf4jnsgd1na2vs0mg"},{"bike_id":"85b2f184-eabf-4304-911c-4aaceb0860d6","system_id":"levelo_inurba_marseille","lat":43.32346,"lon":5.36705,"is_reserved":false,"is_disabled":false,"rental_uris":{"android":"levelo://app?vid=85b2f184-eabf-4304-911c-4aaceb0860d6","ios":"levelo://app?vid=85b2f184-eabf-4304-911c-4aaceb0860d6"},"vehicle_type_id":"4","last_reported":1758291002,"current_range_meters":12800,"station_id":"","pricing_plan_id":"cebpf4jnsgd1na2vs0mg"},{"bike_id":"ca250de3-5a8d-4a00-93a4-cb783b385e4d","system_id":"levelo_inurba_marseille","lat":43.21752,"lon":5.34604,"is_reserved":false,"is_disabled":false,"rental_uris":{"android":"levelo://app?vid=ca250de3-5a8d-4a00-93a4-cb783b385e4d","ios":"levelo://app?vid=ca250de3-5a8d-4a00-93a4-cb783b385e4d"},"vehicle_type_id":"4","last_reported":1758291002,"current_range_meters":12800,"station_id":"st_cvj6r9ubvosntc0bgbag","pricing_plan_id":"cebpf4jnsgd1na2vs0mg"},{"bike_id":"74af45e8-68ad-402d-9309-9c11252e3c46","system_id":"levelo_inurba_marseille","lat":43.25513,"lon":5.37621,"is_reserved":false,"is_disabled":false,"rental_uris":{"android":"levelo://app?vid=74af45e8-68ad-402d-9309-9c11252e3c46","ios":"levelo://app?vid=74af45e8-68ad-402d-9309-9c11252e3c46"},"vehicle_type_id":"4","last_reported":1758291002,"current_range_meters":12800,"station_id":"ce4bhh12rcd13ifvqff0","pricing_plan_id":"cebpf4jnsgd1na2vs0mg"},{"bike_id":"af3a9b08-acb0-4398-b9c1-4d14de384455","system_id":"levelo_inurba_marseille","lat":43.24169,"lon":5.36396,"is_reserved":false,"is_disabled":false,"rental_uris":{"android":"levelo://app?vid=af3a9b08-acb0-4398-b9c1-4d14de384455","ios":"levelo://app?vid=af3a9b08-acb0-4398-b9c1-4d14de384455"},"vehicle_type_id":"4","last_reported":1758291002,"current_range_meters":12800,"station_id":"cpo36qri1sfpv3e86is0","pricing_plan_id":"cebpf4jnsgd1na2vs0mg"},{"bike_id":"bf6e6d27-c09e-4725-9fbc-20073fd5a515","system_id":"levelo_inurba_marseille","lat":43.289376,"lon":5.396214,"is_reserved":false,"is_disabled":false,"rental_uris":{"android":"levelo://app?vid=bf6e6d27-c09e-4725-9fbc-20073fd5a515","ios":"levelo://app?vid=bf6e6d27-c09e-4725-9fbc-20073fd5a515"},"vehicle_type_id":"4","last_reported":1758291002,"current_range_meters":12800,"station_id":"","pricing_plan_id":"cebpf4jnsgd1na2vs0mg"},{"bike_id":"0960e3dd-c358-4474-bd10-8223758e1f6b","system_id":"levelo_inurba_marseille","lat":43.296996,"lon":5.376855,"is_reserved":false,"is_disabled":false,"rental_uris":{"android":"levelo://app?vid=0960e3dd-c358-4474-bd10-8223758e1f6b","ios":"levelo://app?vid=0960e3dd-c358-4474-bd10-8223758e1f6b"},"vehicle_type_id":"4","last_reported":1758291002,"current_range_meters":12800,"station_id":"","pricing_plan_id":"cebpf4jnsgd1na2vs0mg"},{"bike_id":"3f8d6986-b5d2-4b59-88c3-aaac0c6a1e0d","system_id":"levelo_inurba_marseille","lat":43.314893,"lon":5.373108,"is_reserved":false,"is_disabled":false,"rental_uris":{"android":"levelo://app?vid=3f8d6986-b5d2-4b59-88c3-aaac0c6a1e0d","ios":"levelo://app?vid=3f8d6986-b5d2-4b59-88c3-aaac0c6a1e0d"},"vehicle_type_id":"4","last_reported":1758291002,"current_range_meters":12800,"station_id":"ce4bgt12rcd13ifvqcd0","pricing_plan_id":"cebpf4jnsgd1na2vs0mg"},{"bike_id":"c0bb6840-9330-4f31-ba2e-96e9443bdd16","system_id":"levelo_inurba_marseille","lat":43.33029,"lon":5.39029,"is_reserved":false,"is_disabled":false,"rental_uris":{"android":"levelo://app?vid=c0bb6840-9330-4f31-ba2e-96e9443bdd16","ios":"levelo://app?vid=c0bb6840-9330-4f31-ba2e-96e9443bdd16"},"vehicle_type_id":"4","last_reported":1758291002,"current_range_meters":12800,"station_id":"ce4bhr92rcd13ifvqhrg","pricing_plan_id":"cebpf4jnsgd1na2vs0mg"},{"bike_id":"f49e90b5-bcd9-4473-95e9-02d0d79ae71e","system_id":"levelo_inurba_marseille","lat":43.28405,"lon":5.34981,"is_reserved":false,"is_disabled":false,"rental_uris":{"android":"levelo://app?vid=f49e90b5-bcd9-4473-95e9-02d0d79ae71e","ios":"levelo://app?vid=f49e90b5-bcd9-4473-95e9-02d0d79ae71e"},"vehicle_type_id":"4","last_reported":1758291002,"current_range_meters":13600,"station_id":"ce4bhbh2rcd13ifvqepg","pricing_plan_id":"cebpf4jnsgd1na2vs0mg"},{"bike_id":"6dc49f8f-31b8-485c-b489-e3fd253e6676","system_id":"levelo_inurba_marseille","lat":43.333009,"lon":5.410255,"is_reserved":false,"is_disabled":true,"rental_uris":{"android":"levelo://app?vid=6dc49f8f-31b8-485c-b489-e3fd253e6676","ios":"levelo://app?vid=6dc49f8f-31b8-485c-b489-e3fd253e6676"},"vehicle_type_id":"4","last_reported":1758291002,"current_range_meters":13600,"station_id":"","pricing_plan_id":"cebpf4jnsgd1na2vs0mg"},{"bike_id":"1ed89962-0337-49e3-9327-e17dd5c5c0c5","system_id":"levelo_inurba_marseille","lat":43.23194,"lon":5.35552,"is_reserved":false,"is_disabled":false,"rental_uris":{"android":"levelo://app?vid=1ed89962-0337-49e3-9327-e17dd5c5c0c5","ios":"levelo://app?vid=1ed89962-0337-49e3-9327-e17dd5c5c0c5"},"vehicle_type_id":"4","last_reported":1758291002,"current_range_meters":13600,"station_id":"ce4bhu92rcd13ifvqi70","pricing_plan_id":"cebpf4jnsgd1na2vs0mg"},{"bike_id":"28cd6176-5fce-489e-a8d4-781d0b69f5d8","system_id":"levelo_inurba_marseille","lat":43.28407,"lon":5.34982,"is_reserved":false,"is_disabled":false,"rental_uris":{"android":"levelo://app?vid=28cd6176-5fce-489e-a8d4-781d0b69f5d8","ios":"levelo://app?vid=28cd6176-5fce-489e-a8d4-781d0b69f5d8"},"vehicle_type_id":"4","last_reported":1758291002,"current_range_meters":13600,"station_id":"ce4bhbh2rcd13ifvqepg","pricing_plan_id":"cebpf4jnsgd1na2vs0mg"},{"bike_id":"c09e259c-f503-4824-814b-f4f335740d66","system_id":"levelo_inurba_marseille","lat":43.27668,"lon":5.38894,"is_reserved":false,"is_disabled":true,"rental_uris":{"android":"levelo://app?vid=c09e259c-f503-4824-814b-f4f335740d66","ios":"levelo://app?vid=c09e259c-f503-4824-814b-f4f335740d66"},"vehicle_type_id":"4","last_reported":1758291002,"current_range_meters":14000,"station_id":"ce4bhi12rcd13ifvqfo0","pricing_plan_id":"cebpf4jnsgd1na2vs0mg"},{"bike_id":"2d451c7b-cc83-474c-b2f4-9e5abfc44532","system_id":"levelo_inurba_marseille","lat":43.28279,"lon":5.35041,"is_reserved":false,"is_disabled":false,"rental_uris":{"android":"levelo://app?vid=2d451c7b-cc83-474c-b2f4-9e5abfc44532","ios":"levelo://app?vid=2d451c7b-cc83-474c-b2f4-9e5abfc44532"},"vehicle_type_id":"4","last_reported":1758291002,"current_range_meters":14000,"station_id":"ce4bhbp2rcd13ifvqerg","pricing_plan_id":"cebpf4jnsgd1na2vs0mg"},{"bike_id":"4e5c2e97-6c61-4332-9672-f5a53881b0d1","system_id":"levelo_inurba_marseille","lat":43.28468,"lon":5.35885,"is_reserved":false,"is_disabled":true,"rental_uris":{"android":"levelo://app?vid=4e5c2e97-6c61-4332-9672-f5a53881b0d1","ios":"levelo://app?vid=4e5c2e97-6c61-4332-9672-f5a53881b0d1"},"vehicle_type_id":"4","last_reported":1758291002,"current_range_meters":14400,"station_id":"ce4bhah2rcd13ifvqei0","pricing_plan_id":"cebpf4jnsgd1na2vs0mg"},{"bike_id":"9c2812d7-b941-4f84-a75a-1cd694fdab9b","system_id":"levelo_inurba_marseille","lat":43.29262,"lon":5.3844,"is_reserved":false,"is_disabled":false,"rental_uris":{"android":"levelo://app?vid=9c2812d7-b941-4f84-a75a-1cd694fdab9b","ios":"levelo://app?vid=9c2812d7-b941-4f84-a75a-1cd694fdab9b"},"vehicle_type_id":"4","last_reported":1758291002,"current_range_meters":14400,"station_id":"ce4bh692rcd13ifvqea0","pricing_plan_id":"cebpf4jnsgd1na2vs0mg"},{"bike_id":"931664d9-a1f9-4b23-9426-5b3082bf7d09","system_id":"levelo_inurba_marseille","lat":43.30925,"lon":5.40137,"is_reserved":false,"is_disabled":true,"rental_uris":{"android":"levelo://app?vid=931664d9-a1f9-4b23-9426-5b3082bf7d09","ios":"levelo://app?vid=931664d9-a1f9-4b23-9426-5b3082bf7d09"},"vehicle_type_id":"4","last_reported":1758291002,"current_range_meters":14400,"station_id":"ce4bgvp2rcd13ifvqct0","pricing_plan_id":"cebpf4jnsgd1na2vs0mg"},{"bike_id":"bc948571-9836-4de5-a533-eea92c0eff2f","system_id":"levelo_inurba_marseille","lat":43.284654,"lon":5.358831,"is_reserved":false,"is_disabled":false,"rental_uris":{"android":"levelo://app?vid=bc948571-9836-4de5-a533-eea92c0eff2f","ios":"levelo://app?vid=bc948571-9836-4de5-a533-eea92c0eff2f"},"vehicle_type_id":"4","last_reported":1758291002,"current_range_meters":14400,"station_id":"ce4bhah2rcd13ifvqei0","pricing_plan_id":"cebpf4jnsgd1na2vs0mg"},{"bike_id":"9c0693b2-33f4-40d9-85fa-754a770a9d54","system_id":"levelo_inurba_marseille","lat":43.295188,"lon":5.390328,"is_reserved":false,"is_disabled":false,"rental_uris":{"android":"levelo://app?vid=9c0693b2-33f4-40d9-85fa-754a770a9d54","ios":"levelo://app?vid=9c0693b2-33f4-40d9-85fa-754a770a9d54"},"vehicle_type_id":"4","last_reported":1758291002,"current_range_meters":14400,"station_id":"ce4bh312rcd13ifvqdj0","pricing_plan_id":"cebpf4jnsgd1na2vs0mg"},{"bike_id":"67eb8721-b3b8-4086-9ffc-60ca7e1b0555","system_id":"levelo_inurba_marseille","lat":43.28413,"lon":5.34967,"is_reserved":false,"is_disabled":false,"rental_uris":{"android":"levelo://app?vid=67eb8721-b3b8-4086-9ffc-60ca7e1b0555","ios":"levelo://app?vid=67eb8721-b3b8-4086-9ffc-60ca7e1b0555"},"vehicle_type_id":"4","last_reported":1758291002,"current_range_meters":14400,"station_id":"ce4bhbh2rcd13ifvqepg","pricing_plan_id":"cebpf4jnsgd1na2vs0mg"},{"bike_id":"4ce55898-3696-4576-9f91-f80e87f1386f","system_id":"levelo_inurba_marseille","lat":43.29436,"lon":5.39754,"is_reserved":false,"is_disabled":false,"rental_uris":{"android":"levelo://app?vid=4ce55898-3696-4576-9f91-f80e87f1386f","ios":"levelo://app?vid=4ce55898-3696-4576-9f91-f80e87f1386f"},"vehicle_type_id":"4","last_reported":1758291002,"current_range_meters":14800,"station_id":"ce4bh3h2rcd13ifvqdo0","pricing_plan_id":"cebpf4jnsgd1na2vs0mg"},{"bike_id":"518eef5b-9e3c-4b06-94a9-56e70af9d262","system_id":"levelo_inurba_marseille","lat":43.30803,"lon":5.38153,"is_reserved":false,"is_disabled":true,"rental_uris":{"android":"levelo://app?vid=518eef5b-9e3c-4b06-94a9-56e70af9d262","ios":"levelo://app?vid=518eef5b-9e3c-4b06-94a9-56e70af9d262"},"vehicle_type_id":"4","last_reported":1758291002,"current_range_meters":14800,"station_id":"ce4bgt12rcd13ifvqce0","pricing_plan_id":"cebpf4jnsgd1na2vs0mg"},{"bike_id":"f85a8c4d-f9d0-4136-9b57-8bfb28db950c","system_id":"levelo_inurba_marseille","lat":43.31897,"lon":5.37448,"is_reserved":false,"is_disabled":false,"rental_uris":{"android":"levelo://app?vid=f85a8c4d-f9d0-4136-9b57-8bfb28db950c","ios":"levelo://app?vid=f85a8c4d-f9d0-4136-9b57-8bfb28db950c"},"vehicle_type_id":"4","last_reported":1758291002,"current_range_meters":15200,"station_id":"","pricing_plan_id":"cebpf4jnsgd1na2vs0mg"},{"bike_id":"e8d54df5-c4c1-4b1d-8011-6225bc73f6f6","system_id":"levelo_inurba_marseille","lat":43.286078,"lon":5.370622,"is_reserved":false,"is_disabled":false,"rental_uris":{"android":"levelo://app?vid=e8d54df5-c4c1-4b1d-8011-6225bc73f6f6","ios":"levelo://app?vid=e8d54df5-c4c1-4b1d-8011-6225bc73f6f6"},"vehicle_type_id":"4","last_reported":1758291002,"current_range_meters":15200,"station_id":"ce4bht12rcd13ifvqi60","pricing_plan_id":"cebpf4jnsgd1na2vs0mg"},{"bike_id":"181471db-9a56-47f7-aff6-efac05048ea8","system_id":"levelo_inurba_marseille","lat":43.29888,"lon":5.39721,"is_reserved":false,"is_disabled":false,"rental_uris":{"android":"levelo://app?vid=181471db-9a56-47f7-aff6-efac05048ea8","ios":"levelo://app?vid=181471db-9a56-47f7-aff6-efac05048ea8"},"vehicle_type_id":"4","last_reported":1758291002,"current_range_meters":15200,"station_id":"ce4bh0h2rcd13ifvqd50","pricing_plan_id":"cebpf4jnsgd1na2vs0mg"},{"bike_id":"438ead59-de14-4fa0-a61d-03a70a4122ae","system_id":"levelo_inurba_marseille","lat":43.97277,"lon":4.89139,"is_reserved":false,"is_disabled":true,"rental_uris":{"android":"levelo://app?vid=438ead59-de14-4fa0-a61d-03a70a4122ae","ios":"levelo://app?vid=438ead59-de14-4fa0-a61d-03a70a4122ae"},"vehicle_type_id":"4","last_reported":1758291002,"current_range_meters":15200,"station_id":"","pricing_plan_id":"cebpf4jnsgd1na2vs0mg"},{"bike_id":"5ee5ed8e-e382-49b5-a1cd-4debf6217c67","system_id":"levelo_inurba_marseille","lat":43.28615,"lon":5.35093,"is_reserved":false,"is_disabled":false,"rental_uris":{"android":"levelo://app?vid=5ee5ed8e-e382-49b5-a1cd-4debf6217c67","ios":"levelo://app?vid=5ee5ed8e-e382-49b5-a1cd-4debf6217c67"},"vehicle_type_id":"4","last_reported":1758291002,"current_range_meters":15200,"station_id":"ce4bhch2rcd13ifvqeug","pricing_plan_id":"cebpf4jnsgd1na2vs0mg"},{"bike_id":"e9438751-8a4e-4e9b-bc0b-5c98bc1025bb","system_id":"levelo_inurba_marseille","lat":43.29881,"lon":5.38896,"is_reserved":false,"is_disabled":false,"rental_uris":{"android":"levelo://app?vid=e9438751-8a4e-4e9b-bc0b-5c98bc1025bb","ios":"levelo://app?vid=e9438751-8a4e-4e9b-bc0b-5c98bc1025bb"},"vehicle_type_id":"4","last_reported":1758291002,"current_range_meters":16000,"station_id":"ce4bh392rcd13ifvqdl0","pricing_plan_id":"cebpf4jnsgd1na2vs0mg"},{"bike_id":"b1aea033-d9a7-44a7-8a23-2e263bbc1dee","system_id":"levelo_inurba_marseille","lat":43.30487,"lon":5.36656,"is_reserved":false,"is_disabled":false,"rental_uris":{"android":"levelo://app?vid=b1aea033-d9a7-44a7-8a23-2e263bbc1dee","ios":"levelo://app?vid=b1aea033-d9a7-44a7-8a23-2e263bbc1dee"},"vehicle_type_id":"4","last_reported":1758291002,"current_range_meters":16000,"station_id":"","pricing_plan_id":"cebpf4jnsgd1na2vs0mg"},{"bike_id":"fe3c8197-e557-4fcb-b72e-1bb544671131","system_id":"levelo_inurba_marseille","lat":43.307922,"lon":5.381444,"is_reserved":false,"is_disabled":false,"rental_uris":{"android":"levelo://app?vid=fe3c8197-e557-4fcb-b72e-1bb544671131","ios":"levelo://app?vid=fe3c8197-e557-4fcb-b72e-1bb544671131"},"vehicle_type_id":"4","last_reported":1758291002,"current_range_meters":16000,"station_id":"ce4bgt12rcd13ifvqce0","pricing_plan_id":"cebpf4jnsgd1na2vs0mg"},{"bike_id":"bf31957d-71b2-4cad-b061-fdbaaa32e6f9","system_id":"levelo_inurba_marseille","lat":43.29263,"lon":5.37587,"is_reserved":false,"is_disabled":true,"rental_uris":{"android":"levelo://app?vid=bf31957d-71b2-4cad-b061-fdbaaa32e6f9","ios":"levelo://app?vid=bf31957d-71b2-4cad-b061-fdbaaa32e6f9"},"vehicle_type_id":"4","last_reported":1758291002,"current_range_meters":16000,"station_id":"ce4bgi12rcd13ifvqb80","pricing_plan_id":"cebpf4jnsgd1na2vs0mg"},{"bike_id":"291b4e3e-56d6-44b9-8d7c-6ba733401415","system_id":"levelo_inurba_marseille","lat":43.2416,"lon":5.36384,"is_reserved":false,"is_disabled":false,"rental_uris":{"android":"levelo://app?vid=291b4e3e-56d6-44b9-8d7c-6ba733401415","ios":"levelo://app?vid=291b4e3e-56d6-44b9-8d7c-6ba733401415"},"vehicle_type_id":"4","last_reported":1758291002,"current_range_meters":16000,"station_id":"cpo36qri1sfpv3e86is0","pricing_plan_id":"cebpf4jnsgd1na2vs0mg"},{"bike_id":"6ce2fa60-477b-4ea8-901d-2ca6ba86d4f5","system_id":"levelo_inurba_marseille","lat":43.258086,"lon":5.394328,"is_reserved":false,"is_disabled":false,"rental_uris":{"android":"levelo://app?vid=6ce2fa60-477b-4ea8-901d-2ca6ba86d4f5","ios":"levelo://app?vid=6ce2fa60-477b-4ea8-901d-2ca6ba86d4f5"},"vehicle_type_id":"4","last_reported":1758291002,"current_range_meters":16000,"station_id":"ce4bhip2rcd13ifvqft0","pricing_plan_id":"cebpf4jnsgd1na2vs0mg"},{"bike_id":"c4706891-6ce1-4440-91ff-a3ecf2ff007e","system_id":"levelo_inurba_marseille","lat":43.26374,"lon":5.40075,"is_reserved":false,"is_disabled":false,"rental_uris":{"android":"levelo://app?vid=c4706891-6ce1-4440-91ff-a3ecf2ff007e","ios":"levelo://app?vid=c4706891-6ce1-4440-91ff-a3ecf2ff007e"},"vehicle_type_id":"4","last_reported":1758291002,"current_range_meters":16400,"station_id":"","pricing_plan_id":"cebpf4jnsgd1na2vs0mg"},{"bike_id":"045fc711-cb0d-4507-8189-1d77f097d9bd","system_id":"levelo_inurba_marseille","lat":43.25869,"lon":5.39898,"is_reserved":false,"is_disabled":false,"rental_uris":{"android":"levelo://app?vid=045fc711-cb0d-4507-8189-1d77f097d9bd","ios":"levelo://app?vid=045fc711-cb0d-4507-8189-1d77f097d9bd"},"vehicle_type_id":"4","last_reported":1758291002,"current_range_meters":16400,"station_id":"ce4bhl92rcd13ifvqghg","pricing_plan_id":"cebpf4jnsgd1na2vs0mg"},{"bike_id":"df0199ee-ab4f-48ab-bbe9-404b970e49dc","system_id":"levelo_inurba_marseille","lat":43.29023,"lon":5.37155,"is_reserved":false,"is_disabled":true,"rental_uris":{"android":"levelo://app?vid=df0199ee-ab4f-48ab-bbe9-404b970e49dc","ios":"levelo://app?vid=df0199ee-ab4f-48ab-bbe9-404b970e49dc"},"vehicle_type_id":"4","last_reported":1758291002,"current_range_meters":16400,"station_id":"ce4bh5p2rcd13ifvqe4g","pricing_plan_id":"cebpf4jnsgd1na2vs0mg"},{"bike_id":"ce4825de-6bf4-4d37-88c3-484e2fe14d78","system_id":"levelo_inurba_marseille","lat":43.27371,"lon":5.36254,"is_reserved":false,"is_disabled":false,"rental_uris":{"android":"levelo://app?vid=ce4825de-6bf4-4d37-88c3-484e2fe14d78","ios":"levelo://app?vid=ce4825de-6bf4-4d37-88c3-484e2fe14d78"},"vehicle_type_id":"4","last_reported":1758291002,"current_range_meters":16400,"station_id":"ce4bhbh2rcd13ifvqeo0","pricing_plan_id":"cebpf4jnsgd1na2vs0mg"},{"bike_id":"e15defbe-6cef-442b-8251-64deaefc7e00","system_id":"levelo_inurba_marseille","lat":43.29182,"lon":5.35809,"is_reserved":false,"is_disabled":false,"rental_uris":{"android":"levelo://app?vid=e15defbe-6cef-442b-8251-64deaefc7e00","ios":"levelo://app?vid=e15defbe-6cef-442b-8251-64deaefc7e00"},"vehicle_type_id":"4","last_reported":1758291002,"current_range_meters":16800,"station_id":"ce4bhb12rcd13ifvqel0","pricing_plan_id":"cebpf4jnsgd1na2vs0mg"},{"bike_id":"743f766c-d5df-4f6f-827c-e89cfd457845","system_id":"levelo_inurba_marseille","lat":43.2826,"lon":5.35067,"is_reserved":false,"is_disabled":false,"rental_uris":{"android":"levelo://app?vid=743f766c-d5df-4f6f-827c-e89cfd457845","ios":"levelo://app?vid=743f766c-d5df-4f6f-827c-e89cfd457845"},"vehicle_type_id":"4","last_reported":1758291002,"current_range_meters":16800,"station_id":"ce4bhbp2rcd13ifvqerg","pricing_plan_id":"cebpf4jnsgd1na2vs0mg"},{"bike_id":"8c5440f0-6901-4283-96a4-181fb96c87ed","system_id":"levelo_inurba_marseille","lat":43.29035,"lon":5.399609,"is_reserved":false,"is_disabled":true,"rental_uris":{"android":"levelo://app?vid=8c5440f0-6901-4283-96a4-181fb96c87ed","ios":"levelo://app?vid=8c5440f0-6901-4283-96a4-181fb96c87ed"},"vehicle_type_id":"4","last_reported":1758291002,"current_range_meters":16800,"station_id":"ce4bh392rcd13ifvqdm0","pricing_plan_id":"cebpf4jnsgd1na2vs0mg"},{"bike_id":"22209ed9-4ccc-4331-b976-ec48cb2bbdf0","system_id":"levelo_inurba_marseille","lat":43.30605,"lon":5.37225,"is_reserved":false,"is_disabled":false,"rental_uris":{"android":"levelo://app?vid=22209ed9-4ccc-4331-b976-ec48cb2bbdf0","ios":"levelo://app?vid=22209ed9-4ccc-4331-b976-ec48cb2bbdf0"},"vehicle_type_id":"4","last_reported":1758291002,"current_range_meters":16800,"station_id":"ce4bgqh2rcd13ifvqc4g","pricing_plan_id":"cebpf4jnsgd1na2vs0mg"},{"bike_id":"4199a78e-e024-4aa0-add5-bfe6d6531bc4","system_id":"levelo_inurba_marseille","lat":43.2417,"lon":5.36388,"is_reserved":false,"is_disabled":false,"rental_uris":{"android":"levelo://app?vid=4199a78e-e024-4aa0-add5-bfe6d6531bc4","ios":"levelo://app?vid=4199a78e-e024-4aa0-add5-bfe6d6531bc4"},"vehicle_type_id":"4","last_reported":1758291002,"current_range_meters":16800,"station_id":"cpo36qri1sfpv3e86is0","pricing_plan_id":"cebpf4jnsgd1na2vs0mg"},{"bike_id":"d9cc3272-5c94-44da-a320-628237c788e6","system_id":"levelo_inurba_marseille","lat":43.30807,"lon":5.38147,"is_reserved":false,"is_disabled":false,"rental_uris":{"android":"levelo://app?vid=d9cc3272-5c94-44da-a320-628237c788e6","ios":"levelo://app?vid=d9cc3272-5c94-44da-a320-628237c788e6"},"vehicle_type_id":"4","last_reported":1758291002,"current_range_meters":16800,"station_id":"ce4bgt12rcd13ifvqce0","pricing_plan_id":"cebpf4jnsgd1na2vs0mg"},{"bike_id":"393483e3-7683-4116-a5e4-443a848e57f2","system_id":"levelo_inurba_marseille","lat":43.2737,"lon":5.36255,"is_reserved":false,"is_disabled":false,"rental_uris":{"android":"levelo://app?vid=393483e3-7683-4116-a5e4-443a848e57f2","ios":"levelo://app?vid=393483e3-7683-4116-a5e4-443a848e57f2"},"vehicle_type_id":"4","last_reported":1758291002,"current_range_meters":16800,"station_id":"ce4bhbh2rcd13ifvqeo0","pricing_plan_id":"cebpf4jnsgd1na2vs0mg"},{"bike_id":"03508a06-49b2-4ad2-9c3f-7dca06de5892","system_id":"levelo_inurba_marseille","lat":43.30253,"lon":5.40056,"is_reserved":false,"is_disabled":false,"rental_uris":{"android":"levelo://app?vid=03508a06-49b2-4ad2-9c3f-7dca06de5892","ios":"levelo://app?vid=03508a06-49b2-4ad2-9c3f-7dca06de5892"},"vehicle_type_id":"4","last_reported":1758291002,"current_range_meters":16800,"station_id":"ce4bgvh2rcd13ifvqcs0","pricing_plan_id":"cebpf4jnsgd1na2vs0mg"},{"bike_id":"19be7a14-0333-49fe-8335-d57f7ac286b8","system_id":"levelo_inurba_marseille","lat":43.25717,"lon":5.411,"is_reserved":false,"is_disabled":false,"rental_uris":{"android":"levelo://app?vid=19be7a14-0333-49fe-8335-d57f7ac286b8","ios":"levelo://app?vid=19be7a14-0333-49fe-8335-d57f7ac286b8"},"vehicle_type_id":"4","last_reported":1758291002,"current_range_meters":17200,"station_id":"ce4bhkp2rcd13ifvqgd0","pricing_plan_id":"cebpf4jnsgd1na2vs0mg"},{"bike_id":"8b3c1bb1-e3a1-43a9-8904-bfd6e05d3085","system_id":"levelo_inurba_marseille","lat":43.28262,"lon":5.3506,"is_reserved":false,"is_disabled":false,"rental_uris":{"android":"levelo://app?vid=8b3c1bb1-e3a1-43a9-8904-bfd6e05d3085","ios":"levelo://app?vid=8b3c1bb1-e3a1-43a9-8904-bfd6e05d3085"},"vehicle_type_id":"4","last_reported":1758291002,"current_range_meters":16800,"station_id":"ce4bhbp2rcd13ifvqerg","pricing_plan_id":"cebpf4jnsgd1na2vs0mg"},{"bike_id":"835975a0-27c7-47e7-bc1c-b8ba0b505127","system_id":"levelo_inurba_marseille","lat":43.32564,"lon":5.37839,"is_reserved":false,"is_disabled":false,"rental_uris":{"android":"levelo://app?vid=835975a0-27c7-47e7-bc1c-b8ba0b505127","ios":"levelo://app?vid=835975a0-27c7-47e7-bc1c-b8ba0b505127"},"vehicle_type_id":"4","last_reported":1758291002,"current_range_meters":16800,"station_id":"","pricing_plan_id":"cebpf4jnsgd1na2vs0mg"},{"bike_id":"10993eba-3e8f-4b45-af28-ca38b7eeb884","system_id":"levelo_inurba_marseille","lat":43.26497,"lon":5.3953,"is_reserved":false,"is_disabled":false,"rental_uris":{"android":"levelo://app?vid=10993eba-3e8f-4b45-af28-ca38b7eeb884","ios":"levelo://app?vid=10993eba-3e8f-4b45-af28-ca38b7eeb884"},"vehicle_type_id":"4","last_reported":1758291002,"current_range_meters":16800,"station_id":"ce4bhi12rcd13ifvqfq0","pricing_plan_id":"cebpf4jnsgd1na2vs0mg"},{"bike_id":"01f6f52a-0f6b-4538-89d0-821b5be9cc51","system_id":"levelo_inurba_marseille","lat":43.244404,"lon":5.371819,"is_reserved":false,"is_disabled":false,"rental_uris":{"android":"levelo://app?vid=01f6f52a-0f6b-4538-89d0-821b5be9cc51","ios":"levelo://app?vid=01f6f52a-0f6b-4538-89d0-821b5be9cc51"},"vehicle_type_id":"4","last_reported":1758291002,"current_range_meters":17200,"station_id":"ce4bhhh2rcd13ifvqfk0","pricing_plan_id":"cebpf4jnsgd1na2vs0mg"},{"bike_id":"96507329-2880-46a8-8381-94c43398d8e1","system_id":"levelo_inurba_marseille","lat":43.32092,"lon":5.36793,"is_reserved":false,"is_disabled":false,"rental_uris":{"android":"levelo://app?vid=96507329-2880-46a8-8381-94c43398d8e1","ios":"levelo://app?vid=96507329-2880-46a8-8381-94c43398d8e1"},"vehicle_type_id":"4","last_reported":1758291002,"current_range_meters":17200,"station_id":"ce4bhrh2rcd13ifvqhug","pricing_plan_id":"cebpf4jnsgd1na2vs0mg"},{"bike_id":"7f1be994-af2d-4c9a-807a-220e9a43367d","system_id":"levelo_inurba_marseille","lat":43.229295,"lon":5.3537,"is_reserved":false,"is_disabled":false,"rental_uris":{"android":"levelo://app?vid=7f1be994-af2d-4c9a-807a-220e9a43367d","ios":"levelo://app?vid=7f1be994-af2d-4c9a-807a-220e9a43367d"},"vehicle_type_id":"4","last_reported":1758291002,"current_range_meters":17200,"station_id":"cpo3532slgdg3j2ikp40","pricing_plan_id":"cebpf4jnsgd1na2vs0mg"},{"bike_id":"9793c943-3072-4085-9126-cce0446bf3a8","system_id":"levelo_inurba_marseille","lat":43.25343,"lon":5.42151,"is_reserved":false,"is_disabled":false,"rental_uris":{"android":"levelo://app?vid=9793c943-3072-4085-9126-cce0446bf3a8","ios":"levelo://app?vid=9793c943-3072-4085-9126-cce0446bf3a8"},"vehicle_type_id":"4","last_reported":1758291002,"current_range_meters":17200,"station_id":"st_d2m65c5bi1j21697t3ng","pricing_plan_id":"cebpf4jnsgd1na2vs0mg"},{"bike_id":"9419ed86-7e04-49ed-9879-7b0739ad0b2d","system_id":"levelo_inurba_marseille","lat":43.28267,"lon":5.35051,"is_reserved":false,"is_disabled":false,"rental_uris":{"android":"levelo://app?vid=9419ed86-7e04-49ed-9879-7b0739ad0b2d","ios":"levelo://app?vid=9419ed86-7e04-49ed-9879-7b0739ad0b2d"},"vehicle_type_id":"4","last_reported":1758291002,"current_range_meters":17200,"station_id":"ce4bhbp2rcd13ifvqerg","pricing_plan_id":"cebpf4jnsgd1na2vs0mg"},{"bike_id":"3a52b1c1-b6d1-44a4-92dd-86846d563ddb","system_id":"levelo_inurba_marseille","lat":43.29929,"lon":5.36526,"is_reserved":false,"is_disabled":false,"rental_uris":{"android":"levelo://app?vid=3a52b1c1-b6d1-44a4-92dd-86846d563ddb","ios":"levelo://app?vid=3a52b1c1-b6d1-44a4-92dd-86846d563ddb"},"vehicle_type_id":"4","last_reported":1758291002,"current_range_meters":17200,"station_id":"ce4bgm92rcd13ifvqbr0","pricing_plan_id":"cebpf4jnsgd1na2vs0mg"},{"bike_id":"2aa8a1a7-f511-485a-9ed8-1a5370056f9d","system_id":"levelo_inurba_marseille","lat":43.29899,"lon":5.43665,"is_reserved":false,"is_disabled":false,"rental_uris":{"android":"levelo://app?vid=2aa8a1a7-f511-485a-9ed8-1a5370056f9d","ios":"levelo://app?vid=2aa8a1a7-f511-485a-9ed8-1a5370056f9d"},"vehicle_type_id":"4","last_reported":1758291002,"current_range_meters":17200,"station_id":"ce4bhpp2rcd13ifvqhfg","pricing_plan_id":"cebpf4jnsgd1na2vs0mg"},{"bike_id":"43d57fd4-047e-4ac8-97e5-ec9b96239472","system_id":"levelo_inurba_marseille","lat":43.32946,"lon":5.39101,"is_reserved":false,"is_disabled":false,"rental_uris":{"android":"levelo://app?vid=43d57fd4-047e-4ac8-97e5-ec9b96239472","ios":"levelo://app?vid=43d57fd4-047e-4ac8-97e5-ec9b96239472"},"vehicle_type_id":"4","last_reported":1758291002,"current_range_meters":17200,"station_id":"","pricing_plan_id":"cebpf4jnsgd1na2vs0mg"},{"bike_id":"0dde0a8f-d591-44e6-b567-6a37674e588a","system_id":"levelo_inurba_marseille","lat":43.297106,"lon":5.376959,"is_reserved":false,"is_disabled":false,"rental_uris":{"android":"levelo://app?vid=0dde0a8f-d591-44e6-b567-6a37674e588a","ios":"levelo://app?vid=0dde0a8f-d591-44e6-b567-6a37674e588a"},"vehicle_type_id":"4","last_reported":1758291002,"current_range_meters":17200,"station_id":"ce4bgkh2rcd13ifvqbl0","pricing_plan_id":"cebpf4jnsgd1na2vs0mg"},{"bike_id":"b381943f-958e-47e2-80c0-8a04639d2dcc","system_id":"levelo_inurba_marseille","lat":43.29201,"lon":5.3579,"is_reserved":false,"is_disabled":false,"rental_uris":{"android":"levelo://app?vid=b381943f-958e-47e2-80c0-8a04639d2dcc","ios":"levelo://app?vid=b381943f-958e-47e2-80c0-8a04639d2dcc"},"vehicle_type_id":"4","last_reported":1758291002,"current_range_meters":16800,"station_id":"ce4bhb12rcd13ifvqel0","pricing_plan_id":"cebpf4jnsgd1na2vs0mg"},{"bike_id":"18ee6c0b-455c-4048-9730-ff21dfdf35df","system_id":"levelo_inurba_marseille","lat":43.22567,"lon":5.41623,"is_reserved":false,"is_disabled":false,"rental_uris":{"android":"levelo://app?vid=18ee6c0b-455c-4048-9730-ff21dfdf35df","ios":"levelo://app?vid=18ee6c0b-455c-4048-9730-ff21dfdf35df"},"vehicle_type_id":"4","last_reported":1758291002,"current_range_meters":17600,"station_id":"st_d2o4gvlbi1j2169b742g","pricing_plan_id":"cebpf4jnsgd1na2vs0mg"},{"bike_id":"46bb0d16-d452-4e67-8ebb-7c6f5e89c56e","system_id":"levelo_inurba_marseille","lat":43.28271,"lon":5.35049,"is_reserved":false,"is_disabled":false,"rental_uris":{"android":"levelo://app?vid=46bb0d16-d452-4e67-8ebb-7c6f5e89c56e","ios":"levelo://app?vid=46bb0d16-d452-4e67-8ebb-7c6f5e89c56e"},"vehicle_type_id":"4","last_reported":1758291002,"current_range_meters":17600,"station_id":"ce4bhbp2rcd13ifvqerg","pricing_plan_id":"cebpf4jnsgd1na2vs0mg"},{"bike_id":"af0490b6-c1c9-4895-8a15-568d23e0a730","system_id":"levelo_inurba_marseille","lat":43.2807,"lon":5.40776,"is_reserved":false,"is_disabled":false,"rental_uris":{"android":"levelo://app?vid=af0490b6-c1c9-4895-8a15-568d23e0a730","ios":"levelo://app?vid=af0490b6-c1c9-4895-8a15-568d23e0a730"},"vehicle_type_id":"4","last_reported":1758291002,"current_range_meters":17600,"station_id":"","pricing_plan_id":"cebpf4jnsgd1na2vs0mg"},{"bike_id":"a9743bb2-1568-4e16-927e-acd26159a665","system_id":"levelo_inurba_marseille","lat":43.28284,"lon":5.35063,"is_reserved":false,"is_disabled":false,"rental_uris":{"android":"levelo://app?vid=a9743bb2-1568-4e16-927e-acd26159a665","ios":"levelo://app?vid=a9743bb2-1568-4e16-927e-acd26159a665"},"vehicle_type_id":"4","last_reported":1758291002,"current_range_meters":17600,"station_id":"ce4bhbp2rcd13ifvqerg","pricing_plan_id":"cebpf4jnsgd1na2vs0mg"},{"bike_id":"d6032f4b-9e0c-4226-9e2b-b8a3e1060fa5","system_id":"levelo_inurba_marseille","lat":43.26562,"lon":5.39004,"is_reserved":false,"is_disabled":false,"rental_uris":{"android":"levelo://app?vid=d6032f4b-9e0c-4226-9e2b-b8a3e1060fa5","ios":"levelo://app?vid=d6032f4b-9e0c-4226-9e2b-b8a3e1060fa5"},"vehicle_type_id":"4","last_reported":1758291002,"current_range_meters":17600,"station_id":"ce4bhe12rcd13ifvqf30","pricing_plan_id":"cebpf4jnsgd1na2vs0mg"},{"bike_id":"11f5b791-38b6-4186-ab5f-78582d4b3460","system_id":"levelo_inurba_marseille","lat":43.23059,"lon":5.3548,"is_reserved":false,"is_disabled":false,"rental_uris":{"android":"levelo://app?vid=11f5b791-38b6-4186-ab5f-78582d4b3460","ios":"levelo://app?vid=11f5b791-38b6-4186-ab5f-78582d4b3460"},"vehicle_type_id":"4","last_reported":1758291002,"current_range_meters":17600,"station_id":"cpo3342slgdg3j2ifvpg","pricing_plan_id":"cebpf4jnsgd1na2vs0mg"},{"bike_id":"55d1bc08-fd54-4a82-afc7-2adcaa7b1c4e","system_id":"levelo_inurba_marseille","lat":43.30038,"lon":5.37646,"is_reserved":false,"is_disabled":false,"rental_uris":{"android":"levelo://app?vid=55d1bc08-fd54-4a82-afc7-2adcaa7b1c4e","ios":"levelo://app?vid=55d1bc08-fd54-4a82-afc7-2adcaa7b1c4e"},"vehicle_type_id":"4","last_reported":1758291002,"current_range_meters":17600,"station_id":"","pricing_plan_id":"cebpf4jnsgd1na2vs0mg"},{"bike_id":"30279a9d-e63a-446d-b6bf-61f4c5913911","system_id":"levelo_inurba_marseille","lat":43.28422,"lon":5.35001,"is_reserved":false,"is_disabled":false,"rental_uris":{"android":"levelo://app?vid=30279a9d-e63a-446d-b6bf-61f4c5913911","ios":"levelo://app?vid=30279a9d-e63a-446d-b6bf-61f4c5913911"},"vehicle_type_id":"4","last_reported":1758291002,"current_range_meters":17600,"station_id":"ce4bhbh2rcd13ifvqepg","pricing_plan_id":"cebpf4jnsgd1na2vs0mg"},{"bike_id":"2b7aad12-c921-4948-8c00-562d0c7b48ba","system_id":"levelo_inurba_marseille","lat":43.29624,"lon":5.37166,"is_reserved":false,"is_disabled":false,"rental_uris":{"android":"levelo://app?vid=2b7aad12-c921-4948-8c00-562d0c7b48ba","ios":"levelo://app?vid=2b7aad12-c921-4948-8c00-562d0c7b48ba"},"vehicle_type_id":"4","last_reported":1758291002,"current_range_meters":17600,"station_id":"ce4bgnh2rcd13ifvqc0g","pricing_plan_id":"cebpf4jnsgd1na2vs0mg"},{"bike_id":"61d282c6-d59e-4f5a-bc69-010755230bf9","system_id":"levelo_inurba_marseille","lat":43.27414,"lon":5.39405,"is_reserved":false,"is_disabled":false,"rental_uris":{"android":"levelo://app?vid=61d282c6-d59e-4f5a-bc69-010755230bf9","ios":"levelo://app?vid=61d282c6-d59e-4f5a-bc69-010755230bf9"},"vehicle_type_id":"4","last_reported":1758291002,"current_range_meters":18000,"station_id":"ce4bhdp2rcd13ifvqf20","pricing_plan_id":"cebpf4jnsgd1na2vs0mg"},{"bike_id":"b810ec46-97ab-4356-95f9-0c9d02506d5a","system_id":"levelo_inurba_marseille","lat":43.24458,"lon":5.39039,"is_reserved":false,"is_disabled":false,"rental_uris":{"android":"levelo://app?vid=b810ec46-97ab-4356-95f9-0c9d02506d5a","ios":"levelo://app?vid=b810ec46-97ab-4356-95f9-0c9d02506d5a"},"vehicle_type_id":"4","last_reported":1758291002,"current_range_meters":18000,"station_id":"","pricing_plan_id":"cebpf4jnsgd1na2vs0mg"},{"bike_id":"105b7b8d-61ae-4a95-a0d5-8ecca83f7685","system_id":"levelo_inurba_marseille","lat":43.28695,"lon":5.37388,"is_reserved":false,"is_disabled":false,"rental_uris":{"android":"levelo://app?vid=105b7b8d-61ae-4a95-a0d5-8ecca83f7685","ios":"levelo://app?vid=105b7b8d-61ae-4a95-a0d5-8ecca83f7685"},"vehicle_type_id":"4","last_reported":1758291002,"current_range_meters":18000,"station_id":"ce4bh3p2rcd13ifvqdq0","pricing_plan_id":"cebpf4jnsgd1na2vs0mg"},{"bike_id":"13eb3edd-9f60-4741-ac45-2e7c3cc7d73c","system_id":"levelo_inurba_marseille","lat":43.28422,"lon":5.34977,"is_reserved":false,"is_disabled":false,"rental_uris":{"android":"levelo://app?vid=13eb3edd-9f60-4741-ac45-2e7c3cc7d73c","ios":"levelo://app?vid=13eb3edd-9f60-4741-ac45-2e7c3cc7d73c"},"vehicle_type_id":"4","last_reported":1758291002,"current_range_meters":18000,"station_id":"ce4bhbh2rcd13ifvqepg","pricing_plan_id":"cebpf4jnsgd1na2vs0mg"},{"bike_id":"92fcd53f-6854-4cc0-8454-b3a9b71f0daa","system_id":"levelo_inurba_marseille","lat":43.28416,"lon":5.34973,"is_reserved":false,"is_disabled":false,"rental_uris":{"android":"levelo://app?vid=92fcd53f-6854-4cc0-8454-b3a9b71f0daa","ios":"levelo://app?vid=92fcd53f-6854-4cc0-8454-b3a9b71f0daa"},"vehicle_type_id":"4","last_reported":1758291002,"current_range_meters":18000,"station_id":"ce4bhbh2rcd13ifvqepg","pricing_plan_id":"cebpf4jnsgd1na2vs0mg"},{"bike_id":"05ca0aa0-5596-4971-a0c3-94e65df6bd50","system_id":"levelo_inurba_marseille","lat":43.22552,"lon":5.41628,"is_reserved":false,"is_disabled":false,"rental_uris":{"android":"levelo://app?vid=05ca0aa0-5596-4971-a0c3-94e65df6bd50","ios":"levelo://app?vid=05ca0aa0-5596-4971-a0c3-94e65df6bd50"},"vehicle_type_id":"4","last_reported":1758291002,"current_range_meters":18000,"station_id":"st_d2o4gvlbi1j2169b742g","pricing_plan_id":"cebpf4jnsgd1na2vs0mg"},{"bike_id":"cf6753ae-f6ad-4897-b2f9-21e5f3820fa3","system_id":"levelo_inurba_marseille","lat":43.27372,"lon":5.36259,"is_reserved":false,"is_disabled":false,"rental_uris":{"android":"levelo://app?vid=cf6753ae-f6ad-4897-b2f9-21e5f3820fa3","ios":"levelo://app?vid=cf6753ae-f6ad-4897-b2f9-21e5f3820fa3"},"vehicle_type_id":"4","last_reported":1758291002,"current_range_meters":18000,"station_id":"ce4bhbh2rcd13ifvqeo0","pricing_plan_id":"cebpf4jnsgd1na2vs0mg"},{"bike_id":"0f7caa9f-1d1a-40d7-9b4a-2f8720e63681","system_id":"levelo_inurba_marseille","lat":43.308485,"lon":5.375108,"is_reserved":false,"is_disabled":false,"rental_uris":{"android":"levelo://app?vid=0f7caa9f-1d1a-40d7-9b4a-2f8720e63681","ios":"levelo://app?vid=0f7caa9f-1d1a-40d7-9b4a-2f8720e63681"},"vehicle_type_id":"4","last_reported":1758291002,"current_range_meters":18800,"station_id":"","pricing_plan_id":"cebpf4jnsgd1na2vs0mg"},{"bike_id":"97cc2687-1023-4245-beda-b900fb6d83ae","system_id":"levelo_inurba_marseille","lat":43.2806,"lon":5.39625,"is_reserved":false,"is_disabled":false,"rental_uris":{"android":"levelo://app?vid=97cc2687-1023-4245-beda-b900fb6d83ae","ios":"levelo://app?vid=97cc2687-1023-4245-beda-b900fb6d83ae"},"vehicle_type_id":"4","last_reported":1758291002,"current_range_meters":18800,"station_id":"ce4bho12rcd13ifvqh2g","pricing_plan_id":"cebpf4jnsgd1na2vs0mg"},{"bike_id":"016479c8-adb3-4e9f-91ab-63dde4601175","system_id":"levelo_inurba_marseille","lat":43.29787,"lon":5.38079,"is_reserved":false,"is_disabled":true,"rental_uris":{"android":"levelo://app?vid=016479c8-adb3-4e9f-91ab-63dde4601175","ios":"levelo://app?vid=016479c8-adb3-4e9f-91ab-63dde4601175"},"vehicle_type_id":"4","last_reported":1758291002,"current_range_meters":18800,"station_id":"ce4bgip2rcd13ifvqbb0","pricing_plan_id":"cebpf4jnsgd1na2vs0mg"},{"bike_id":"0127ffc8-7bb9-4e49-b7a0-bbf8fde64480","system_id":"levelo_inurba_marseille","lat":43.28849,"lon":5.35854,"is_reserved":false,"is_disabled":false,"rental_uris":{"android":"levelo://app?vid=0127ffc8-7bb9-4e49-b7a0-bbf8fde64480","ios":"levelo://app?vid=0127ffc8-7bb9-4e49-b7a0-bbf8fde64480"},"vehicle_type_id":"4","last_reported":1758291002,"current_range_meters":18800,"station_id":"ce4bhb12rcd13ifvqem0","pricing_plan_id":"cebpf4jnsgd1na2vs0mg"},{"bike_id":"5b3c2ce5-4e45-46c3-8c9c-bdcb04566ed3","system_id":"levelo_inurba_marseille","lat":43.31167,"lon":5.38707,"is_reserved":false,"is_disabled":false,"rental_uris":{"android":"levelo://app?vid=5b3c2ce5-4e45-46c3-8c9c-bdcb04566ed3","ios":"levelo://app?vid=5b3c2ce5-4e45-46c3-8c9c-bdcb04566ed3"},"vehicle_type_id":"4","last_reported":1758291002,"current_range_meters":18800,"station_id":"ce4bgv12rcd13ifvqcp0","pricing_plan_id":"cebpf4jnsgd1na2vs0mg"},{"bike_id":"2a00cb84-e9e6-4781-804d-0494d7480777","system_id":"levelo_inurba_marseille","lat":43.22548,"lon":5.41633,"is_reserved":false,"is_disabled":false,"rental_uris":{"android":"levelo://app?vid=2a00cb84-e9e6-4781-804d-0494d7480777","ios":"levelo://app?vid=2a00cb84-e9e6-4781-804d-0494d7480777"},"vehicle_type_id":"4","last_reported":1758291002,"current_range_meters":19200,"station_id":"st_d2o4gvlbi1j2169b742g","pricing_plan_id":"cebpf4jnsgd1na2vs0mg"},{"bike_id":"e4e83c66-16cc-48c7-b54c-43f49776a830","system_id":"levelo_inurba_marseille","lat":43.2306,"lon":5.35484,"is_reserved":false,"is_disabled":false,"rental_uris":{"android":"levelo://app?vid=e4e83c66-16cc-48c7-b54c-43f49776a830","ios":"levelo://app?vid=e4e83c66-16cc-48c7-b54c-43f49776a830"},"vehicle_type_id":"4","last_reported":1758291002,"current_range_meters":19200,"station_id":"cpo3342slgdg3j2ifvpg","pricing_plan_id":"cebpf4jnsgd1na2vs0mg"},{"bike_id":"2c734c36-442f-468e-ab47-e34ad5183e32","system_id":"levelo_inurba_marseille","lat":43.25772,"lon":5.41047,"is_reserved":false,"is_disabled":false,"rental_uris":{"android":"levelo://app?vid=2c734c36-442f-468e-ab47-e34ad5183e32","ios":"levelo://app?vid=2c734c36-442f-468e-ab47-e34ad5183e32"},"vehicle_type_id":"4","last_reported":1758291002,"current_range_meters":19200,"station_id":"","pricing_plan_id":"cebpf4jnsgd1na2vs0mg"},{"bike_id":"cdf542d3-5766-4ddb-b72a-1a21146c21ae","system_id":"levelo_inurba_marseille","lat":43.32366,"lon":5.38878,"is_reserved":false,"is_disabled":false,"rental_uris":{"android":"levelo://app?vid=cdf542d3-5766-4ddb-b72a-1a21146c21ae","ios":"levelo://app?vid=cdf542d3-5766-4ddb-b72a-1a21146c21ae"},"vehicle_type_id":"4","last_reported":1758291002,"current_range_meters":19200,"station_id":"ce4bhqp2rcd13ifvqhog","pricing_plan_id":"cebpf4jnsgd1na2vs0mg"},{"bike_id":"d2da0e69-29c5-4f67-a602-cb7150e5c2d0","system_id":"levelo_inurba_marseille","lat":43.26806,"lon":5.40276,"is_reserved":false,"is_disabled":false,"rental_uris":{"android":"levelo://app?vid=d2da0e69-29c5-4f67-a602-cb7150e5c2d0","ios":"levelo://app?vid=d2da0e69-29c5-4f67-a602-cb7150e5c2d0"},"vehicle_type_id":"4","last_reported":1758291002,"current_range_meters":19200,"station_id":"ce501612rcd8frsf0b60","pricing_plan_id":"cebpf4jnsgd1na2vs0mg"},{"bike_id":"cc3204da-b8bd-4e7e-8bb8-3a560633fe2a","system_id":"levelo_inurba_marseille","lat":43.30133,"lon":5.39851,"is_reserved":false,"is_disabled":false,"rental_uris":{"android":"levelo://app?vid=cc3204da-b8bd-4e7e-8bb8-3a560633fe2a","ios":"levelo://app?vid=cc3204da-b8bd-4e7e-8bb8-3a560633fe2a"},"vehicle_type_id":"4","last_reported":1758291002,"current_range_meters":19200,"station_id":"ce4bh0h2rcd13ifvqd40","pricing_plan_id":"cebpf4jnsgd1na2vs0mg"},{"bike_id":"69255e40-2c7e-4515-acf9-da6320c5cb06","system_id":"levelo_inurba_marseille","lat":43.26224,"lon":5.40454,"is_reserved":false,"is_disabled":false,"rental_uris":{"android":"levelo://app?vid=69255e40-2c7e-4515-acf9-da6320c5cb06","ios":"levelo://app?vid=69255e40-2c7e-4515-acf9-da6320c5cb06"},"vehicle_type_id":"4","last_reported":1758291002,"current_range_meters":19200,"station_id":"ce4bhmh2rcd13ifvqgmg","pricing_plan_id":"cebpf4jnsgd1na2vs0mg"},{"bike_id":"40847c7b-6921-4437-9239-af2638162524","system_id":"levelo_inurba_marseille","lat":43.24162,"lon":5.36384,"is_reserved":false,"is_disabled":false,"rental_uris":{"android":"levelo://app?vid=40847c7b-6921-4437-9239-af2638162524","ios":"levelo://app?vid=40847c7b-6921-4437-9239-af2638162524"},"vehicle_type_id":"4","last_reported":1758291002,"current_range_meters":19200,"station_id":"cpo36qri1sfpv3e86is0","pricing_plan_id":"cebpf4jnsgd1na2vs0mg"},{"bike_id":"b05ab237-5916-46ac-a2fb-5139a54b4b22","system_id":"levelo_inurba_marseille","lat":43.2417,"lon":5.36388,"is_reserved":false,"is_disabled":false,"rental_uris":{"android":"levelo://app?vid=b05ab237-5916-46ac-a2fb-5139a54b4b22","ios":"levelo://app?vid=b05ab237-5916-46ac-a2fb-5139a54b4b22"},"vehicle_type_id":"4","last_reported":1758291002,"current_range_meters":19200,"station_id":"cpo36qri1sfpv3e86is0","pricing_plan_id":"cebpf4jnsgd1na2vs0mg"},{"bike_id":"0fb288f4-910e-466f-a905-9345379e580d","system_id":"levelo_inurba_marseille","lat":43.2736,"lon":5.36248,"is_reserved":false,"is_disabled":false,"rental_uris":{"android":"levelo://app?vid=0fb288f4-910e-466f-a905-9345379e580d","ios":"levelo://app?vid=0fb288f4-910e-466f-a905-9345379e580d"},"vehicle_type_id":"4","last_reported":1758291002,"current_range_meters":19200,"station_id":"ce4bhbh2rcd13ifvqeo0","pricing_plan_id":"cebpf4jnsgd1na2vs0mg"},{"bike_id":"8e047761-4cb2-4fa7-920f-ce3feb6390f9","system_id":"levelo_inurba_marseille","lat":43.33786,"lon":5.37455,"is_reserved":false,"is_disabled":false,"rental_uris":{"android":"levelo://app?vid=8e047761-4cb2-4fa7-920f-ce3feb6390f9","ios":"levelo://app?vid=8e047761-4cb2-4fa7-920f-ce3feb6390f9"},"vehicle_type_id":"4","last_reported":1758291002,"current_range_meters":19200,"station_id":"","pricing_plan_id":"cebpf4jnsgd1na2vs0mg"},{"bike_id":"7e84b83d-c96d-4938-8abe-4463c787aca6","system_id":"levelo_inurba_marseille","lat":43.28024,"lon":5.36937,"is_reserved":false,"is_disabled":false,"rental_uris":{"android":"levelo://app?vid=7e84b83d-c96d-4938-8abe-4463c787aca6","ios":"levelo://app?vid=7e84b83d-c96d-4938-8abe-4463c787aca6"},"vehicle_type_id":"4","last_reported":1758291002,"current_range_meters":19200,"station_id":"ce4bha12rcd13ifvqef0","pricing_plan_id":"cebpf4jnsgd1na2vs0mg"},{"bike_id":"fbfb026b-e17d-43b3-b78b-2da9ce3e8e4a","system_id":"levelo_inurba_marseille","lat":43.29903,"lon":5.43672,"is_reserved":false,"is_disabled":false,"rental_uris":{"android":"levelo://app?vid=fbfb026b-e17d-43b3-b78b-2da9ce3e8e4a","ios":"levelo://app?vid=fbfb026b-e17d-43b3-b78b-2da9ce3e8e4a"},"vehicle_type_id":"4","last_reported":1758291002,"current_range_meters":19200,"station_id":"ce4bhpp2rcd13ifvqhfg","pricing_plan_id":"cebpf4jnsgd1na2vs0mg"},{"bike_id":"a07a513e-e5a9-4481-8592-d991379bc662","system_id":"levelo_inurba_marseille","lat":43.337536,"lon":5.374536,"is_reserved":false,"is_disabled":false,"rental_uris":{"android":"levelo://app?vid=a07a513e-e5a9-4481-8592-d991379bc662","ios":"levelo://app?vid=a07a513e-e5a9-4481-8592-d991379bc662"},"vehicle_type_id":"4","last_reported":1758291002,"current_range_meters":19200,"station_id":"","pricing_plan_id":"cebpf4jnsgd1na2vs0mg"},{"bike_id":"5a3eeb47-7567-4cb4-bd5d-9cc2df0f08f7","system_id":"levelo_inurba_marseille","lat":43.30433,"lon":5.39741,"is_reserved":false,"is_disabled":false,"rental_uris":{"android":"levelo://app?vid=5a3eeb47-7567-4cb4-bd5d-9cc2df0f08f7","ios":"levelo://app?vid=5a3eeb47-7567-4cb4-bd5d-9cc2df0f08f7"},"vehicle_type_id":"4","last_reported":1758291002,"current_range_meters":19600,"station_id":"ce4bh092rcd13ifvqd20","pricing_plan_id":"cebpf4jnsgd1na2vs0mg"},{"bike_id":"68adab37-f5ad-4072-b58a-fe6c68285ca6","system_id":"levelo_inurba_marseille","lat":43.30597,"lon":5.37641,"is_reserved":false,"is_disabled":false,"rental_uris":{"android":"levelo://app?vid=68adab37-f5ad-4072-b58a-fe6c68285ca6","ios":"levelo://app?vid=68adab37-f5ad-4072-b58a-fe6c68285ca6"},"vehicle_type_id":"4","last_reported":1758291002,"current_range_meters":19600,"station_id":"","pricing_plan_id":"cebpf4jnsgd1na2vs0mg"},{"bike_id":"210b2c3c-2436-4ac2-b422-b6572b96181b","system_id":"levelo_inurba_marseille","lat":43.27375,"lon":5.3626,"is_reserved":false,"is_disabled":false,"rental_uris":{"android":"levelo://app?vid=210b2c3c-2436-4ac2-b422-b6572b96181b","ios":"levelo://app?vid=210b2c3c-2436-4ac2-b422-b6572b96181b"},"vehicle_type_id":"4","last_reported":1758291002,"current_range_meters":19600,"station_id":"ce4bhbh2rcd13ifvqeo0","pricing_plan_id":"cebpf4jnsgd1na2vs0mg"},{"bike_id":"e26424ca-8e61-4792-8c48-17cb93dcbe5a","system_id":"levelo_inurba_marseille","lat":43.29837,"lon":5.37653,"is_reserved":false,"is_disabled":false,"rental_uris":{"android":"levelo://app?vid=e26424ca-8e61-4792-8c48-17cb93dcbe5a","ios":"levelo://app?vid=e26424ca-8e61-4792-8c48-17cb93dcbe5a"},"vehicle_type_id":"4","last_reported":1758291002,"current_range_meters":19600,"station_id":"","pricing_plan_id":"cebpf4jnsgd1na2vs0mg"},{"bike_id":"03f4b9bd-5a52-4e56-873b-4c5c5206a0b9","system_id":"levelo_inurba_marseille","lat":43.255686,"lon":5.376466,"is_reserved":false,"is_disabled":false,"rental_uris":{"android":"levelo://app?vid=03f4b9bd-5a52-4e56-873b-4c5c5206a0b9","ios":"levelo://app?vid=03f4b9bd-5a52-4e56-873b-4c5c5206a0b9"},"vehicle_type_id":"4","last_reported":1758291002,"current_range_meters":19600,"station_id":"ce4bhh12rcd13ifvqff0","pricing_plan_id":"cebpf4jnsgd1na2vs0mg"},{"bike_id":"1d6512d2-0abe-496f-b56b-70823fb272b1","system_id":"levelo_inurba_marseille","lat":43.30183,"lon":5.36595,"is_reserved":false,"is_disabled":false,"rental_uris":{"android":"levelo://app?vid=1d6512d2-0abe-496f-b56b-70823fb272b1","ios":"levelo://app?vid=1d6512d2-0abe-496f-b56b-70823fb272b1"},"vehicle_type_id":"4","last_reported":1758291002,"current_range_meters":19600,"station_id":"ce4bgrh2rcd13ifvqc8g","pricing_plan_id":"cebpf4jnsgd1na2vs0mg"},{"bike_id":"7f98c735-4ecb-4cb4-a82e-5148b4a98595","system_id":"levelo_inurba_marseille","lat":43.31485,"lon":5.37305,"is_reserved":false,"is_disabled":false,"rental_uris":{"android":"levelo://app?vid=7f98c735-4ecb-4cb4-a82e-5148b4a98595","ios":"levelo://app?vid=7f98c735-4ecb-4cb4-a82e-5148b4a98595"},"vehicle_type_id":"4","last_reported":1758291002,"current_range_meters":19600,"station_id":"ce4bgt12rcd13ifvqcd0","pricing_plan_id":"cebpf4jnsgd1na2vs0mg"},{"bike_id":"7c7c0989-cfd5-48c7-9319-3904f1aa29bd","system_id":"levelo_inurba_marseille","lat":43.239647,"lon":5.3663,"is_reserved":false,"is_disabled":false,"rental_uris":{"android":"levelo://app?vid=7c7c0989-cfd5-48c7-9319-3904f1aa29bd","ios":"levelo://app?vid=7c7c0989-cfd5-48c7-9319-3904f1aa29bd"},"vehicle_type_id":"4","last_reported":1758291002,"current_range_meters":19600,"station_id":"ce4bhi12rcd13ifvqfp0","pricing_plan_id":"cebpf4jnsgd1na2vs0mg"},{"bike_id":"b12e3845-436f-49da-8d23-43a076ead0b1","system_id":"levelo_inurba_marseille","lat":43.261881,"lon":5.374519,"is_reserved":false,"is_disabled":false,"rental_uris":{"android":"levelo://app?vid=b12e3845-436f-49da-8d23-43a076ead0b1","ios":"levelo://app?vid=b12e3845-436f-49da-8d23-43a076ead0b1"},