{"last_updated":1705608450,"ttl":30,"version":"2.2","data":{"bikes":[{"bike_id":"beafa07d-ca7f-43b9-8ea4-b5f46a63eb12","system_id":"levelo_inurba_marseille","lat":43.31341,"lon":5.367098,"is_reserved":false,"is_disabled":false,"rental_uris":{"android":"levelo://app?vid=beafa07d-ca7f-43b9-8ea4-b5f46a63eb12","ios":"levelo://app?vid=beafa07d-ca7f-43b9-8ea4-b5f46a63eb12"},"vehicle_type_id":"4","last_reported":1705608450,"current_range_meters":26000,"station_id":"ce4bgr92rcd13ifvqc6g","pricing_plan_id":"free"},{"bike_id":"75f7b05e-414d-4207-b6b2-477aa7d291d7","system_id":"levelo_inurba_marseille","lat":43.312239,"lon":5.368562,"is_reserved":false,"is_disabled":false,"rental_uris":{"android":"levelo://app?vid=75f7b05e-414d-4207-b6b2-477aa7d291d7","ios":"levelo://app?vid=75f7b05e-414d-4207-b6b2-477aa7d291d7"},"vehicle_type_id":"4","last_reported":1705608450,"current_range_meters":30000,"station_id":"ce4bgl92rcd13ifvqbq0","pricing_plan_id":"free"},{"bike_id":"2526205f-aedb-49db-bcaa-835aa5890a89","system_id":"levelo_inurba_marseille","lat":43.312239,"lon":5.368562,"is_reserved":false,"is_disabled":false,"rental_uris":{"android":"levelo://app?vid=2526205f-aedb-49db-bcaa-835aa5890a89","ios":"levelo://app?vid=2526205f-aedb-49db-bcaa-835aa5890a89"},"vehicle_type_id":"4","last_reported":1705608450,"current_range_meters":24000,"station_id":"ce4bgl92rcd13ifvqbq0","pricing_plan_id":"free"},{"bike_id":"70c083cb-2255-4767-82ca-9ebfd40ac5a8","system_id":"levelo_inurba_marseille","lat":43.312239,"lon":5.368562,"is_reserved":false,"is_disabled":false,"rental_uris":{"android":"levelo://app?vid=70c083cb-2255-4767-82ca-9ebfd40ac5a8","ios":"levelo://app?vid=70c083cb-2255-4767-82ca-9ebfd40ac5a8"},"vehicle_type_id":"4","last_reported":1705608450,"current_range_meters":6000,"station_id":"ce4bgl92rcd13ifvqbq0","pricing_plan_id":"free"},{"bike_id":"902ac2d4-aedc-4a7a-8594-a855028052ec","system_id":"levelo_inurba_marseille","lat":43.312253,"lon":5.3687,"is_reserved":false,"is_disabled":false,"rental_uris":{"android":"levelo://app?vid=902ac2d4-aedc-4a7a-8594-a855028052ec","ios":"levelo://app?vid=902ac2d4-aedc-4a7a-8594-a855028052ec"},"vehicle_type_id":"4","last_reported":1705608450,"current_range_meters":0,"station_id":"ce4bgl92rcd13ifvqbq0","pricing_plan_id":"free"},{"bike_id":"3c0dff93-15d3-405a-a254-999f845743b8","system_id":"levelo_inurba_marseille","lat":43.312239,"lon":5.368562,"is_reserved":false,"is_disabled":false,"rental_uris":{"android":"levelo://app?vid=3c0dff93-15d3-405a-a254-999f845743b8","ios":"levelo://app?vid=3c0dff93-15d3-405a-a254-999f845743b8"},"vehicle_type_id":"4","last_reported":1705608450,"current_range_meters":0,"station_id":"ce4bgl92rcd13ifvqbq0","pricing_plan_id":"free"},{"bike_id":"ea013bc2-7b64-4b9c-bcc0-8eb9f231680f","system_id":"levelo_inurba_marseille","lat":43.309076,"lon":5.368465,"is_reserved":false,"is_disabled":false,"rental_uris":{"android":"levelo://app?vid=ea013bc2-7b64-4b9c-bcc0-8eb9f231680f","ios":"levelo://app?vid=ea013bc2-7b64-4b9c-bcc0-8eb9f231680f"},"vehicle_type_id":"4","last_reported":1705608450,"current_range_meters":1200,"station_id":"ce4bgn92rcd13ifvqbvg","pricing_plan_id":"free"},{"bike_id":"f5761892-e61b-4cf0-a1d6-cab2e094b8ec","system_id":"levelo_inurba_marseille","lat":43.309076,"lon":5.368465,"is_reserved":false,"is_disabled":false,"rental_uris":{"android":"levelo://app?vid=f5761892-e61b-4cf0-a1d6-cab2e094b8ec","ios":"levelo://app?vid=f5761892-e61b-4cf0-a1d6-cab2e094b8ec"},"vehicle_type_id":"4","last_reported":1705608450,"current_range_meters":22000,"station_id":"ce4bgn92rcd13ifvqbvg","pricing_plan_id":"free"},{"bike_id":"359a4d05-219f-4312-9c15-a26d8df92fa3","system_id":"levelo_inurba_marseille","lat":43.30902,"lon":5.368434,"is_reserved":false,"is_disabled":false,"rental_uris":{"android":"levelo://app?vid=359a4d05-219f-4312-9c15-a26d8df92fa3","ios":"levelo://app?vid=359a4d05-219f-4312-9c15-a26d8df92fa3"},"vehicle_type_id":"4","last_reported":1705608450,"current_range_meters":30000,"station_id":"ce4bgn92rcd13ifvqbvg","pricing_plan_id":"free"},{"bike_id":"bdeb0438-bfe3-4562-91e3-8d67a00a1d8d","system_id":"levelo_inurba_marseille","lat":43.309039,"lon":5.371797,"is_reserved":false,"is_disabled":false,"rental_uris":{"android":"levelo://app?vid=bdeb0438-bfe3-4562-91e3-8d67a00a1d8d","ios":"levelo://app?vid=bdeb0438-bfe3-4562-91e3-8d67a00a1d8d"},"vehicle_type_id":"4","last_reported":1705608450,"current_range_meters":6400,"station_id":"ce4bguh2rcd13ifvqckg","pricing_plan_id":"free"},{"bike_id":"5f838d90-cace-47c8-a8c2-671dc5a298a6","system_id":"levelo_inurba_marseille","lat":43.308887,"lon":5.37202,"is_reserved":false,"is_disabled":false,"rental_uris":{"android":"levelo://app?vid=5f838d90-cace-47c8-a8c2-671dc5a298a6","ios":"levelo://app?vid=5f838d90-cace-47c8-a8c2-671dc5a298a6"},"vehicle_type_id":"4","last_reported":1705608450,"current_range_meters":8400,"station_id":"ce4bguh2rcd13ifvqckg","pricing_plan_id":"free"},{"bike_id":"83c93a3b-01c5-46eb-b57d-4f69501e0ca9","system_id":"levelo_inurba_marseille","lat":43.305989,"lon":5.37225,"is_reserved":false,"is_disabled":false,"rental_uris":{"android":"levelo://app?vid=83c93a3b-01c5-46eb-b57d-4f69501e0ca9","ios":"levelo://app?vid=83c93a3b-01c5-46eb-b57d-4f69501e0ca9"},"vehicle_type_id":"4","last_reported":1705608450,"current_range_meters":11200,"station_id":"ce4bgqh2rcd13ifvqc4g","pricing_plan_id":"free"},{"bike_id":"10c68ca9-8f33-43bc-b541-f63617357760","system_id":"levelo_inurba_marseille","lat":43.311125,"lon":5.377624,"is_reserved":false,"is_disabled":false,"rental_uris":{"android":"levelo://app?vid=10c68ca9-8f33-43bc-b541-f63617357760","ios":"levelo://app?vid=10c68ca9-8f33-43bc-b541-f63617357760"},"vehicle_type_id":"4","last_reported":1705608450,"current_range_meters":0,"station_id":"ce4bgt92rcd13ifvqcg0","pricing_plan_id":"free"},{"bike_id":"abf892c7-535a-4cb7-9f6a-a8836755e27e","system_id":"levelo_inurba_marseille","lat":43.311131,"lon":5.377651,"is_reserved":false,"is_disabled":false,"rental_uris":{"android":"levelo://app?vid=abf892c7-535a-4cb7-9f6a-a8836755e27e","ios":"levelo://app?vid=abf892c7-535a-4cb7-9f6a-a8836755e27e"},"vehicle_type_id":"4","last_reported":1705608450,"current_range_meters":24400,"station_id":"ce4bgt92rcd13ifvqcg0","pricing_plan_id":"free"},{"bike_id":"f7fc4fc2-9b84-48fc-95ad-c44d36acdf14","system_id":"levelo_inurba_marseille","lat":43.311125,"lon":5.377624,"is_reserved":false,"is_disabled":false,"rental_uris":{"android":"levelo://app?vid=f7fc4fc2-9b84-48fc-95ad-c44d36acdf14","ios":"levelo://app?vid=f7fc4fc2-9b84-48fc-95ad-c44d36acdf14"},"vehicle_type_id":"4","last_reported":1705608450,"current_range_meters":2000,"station_id":"ce4bgt92rcd13ifvqcg0","pricing_plan_id":"free"},{"bike_id":"c3672da3-84fa-4d13-901b-8cfe6838604c","system_id":"levelo_inurba_marseille","lat":43.307945,"lon":5.376487,"is_reserved":false,"is_disabled":false,"rental_uris":{"android":"levelo://app?vid=c3672da3-84fa-4d13-901b-8cfe6838604c","ios":"levelo://app?vid=c3672da3-84fa-4d13-901b-8cfe6838604c"},"vehicle_type_id":"4","last_reported":1705608450,"current_range_meters":28000,"station_id":"ce4bgv92rcd13ifvqcq0","pricing_plan_id":"free"},{"bike_id":"789a854d-e5f3-441b-89bd-58492a221995","system_id":"levelo_inurba_marseille","lat":43.307945,"lon":5.376487,"is_reserved":false,"is_disabled":false,"rental_uris":{"android":"levelo://app?vid=789a854d-e5f3-441b-89bd-58492a221995","ios":"levelo://app?vid=789a854d-e5f3-441b-89bd-58492a221995"},"vehicle_type_id":"4","last_reported":1705608450,"current_range_meters":19200,"station_id":"ce4bgv92rcd13ifvqcq0","pricing_plan_id":"free"},{"bike_id":"819b1a40-d6df-482f-82e8-64b53a316ad6","system_id":"levelo_inurba_marseille","lat":43.316892,"lon":5.377492,"is_reserved":false,"is_disabled":false,"rental_uris":{"android":"levelo://app?vid=819b1a40-d6df-482f-82e8-64b53a316ad6","ios":"levelo://app?vid=819b1a40-d6df-482f-82e8-64b53a316ad6"},"vehicle_type_id":"4","last_reported":1705608450,"current_range_meters":13600,"station_id":"ce4bgth2rcd13ifvqch0","pricing_plan_id":"free"},{"bike_id":"38e197e8-976f-4841-ab72-5eafb8f88779","system_id":"levelo_inurba_marseille","lat":43.317075,"lon":5.377367,"is_reserved":false,"is_disabled":false,"rental_uris":{"android":"levelo://app?vid=38e197e8-976f-4841-ab72-5eafb8f88779","ios":"levelo://app?vid=38e197e8-976f-4841-ab72-5eafb8f88779"},"vehicle_type_id":"4","last_reported":1705608450,"current_range_meters":16800,"station_id":"ce4bgth2rcd13ifvqch0","pricing_plan_id":"free"},{"bike_id":"3dd67bc6-5da4-4b95-a8b3-30d2c806b834","system_id":"levelo_inurba_marseille","lat":43.303046,"lon":5.368981,"is_reserved":false,"is_disabled":false,"rental_uris":{"android":"levelo://app?vid=3dd67bc6-5da4-4b95-a8b3-30d2c806b834","ios":"levelo://app?vid=3dd67bc6-5da4-4b95-a8b3-30d2c806b834"},"vehicle_type_id":"4","last_reported":1705608450,"current_range_meters":25200,"station_id":"ce4bgqh2rcd13ifvqc5g","pricing_plan_id":"free"},{"bike_id":"8fe56f1a-3635-4fc0-8af4-d535c916fad6","system_id":"levelo_inurba_marseille","lat":43.303046,"lon":5.368981,"is_reserved":false,"is_disabled":false,"rental_uris":{"android":"levelo://app?vid=8fe56f1a-3635-4fc0-8af4-d535c916fad6","ios":"levelo://app?vid=8fe56f1a-3635-4fc0-8af4-d535c916fad6"},"vehicle_type_id":"4","last_reported":1705608450,"current_range_meters":28800,"station_id":"ce4bgqh2rcd13ifvqc5g","pricing_plan_id":"free"},{"bike_id":"15c787c0-c09d-4fdb-9d13-006f6c96b22d","system_id":"levelo_inurba_marseille","lat":43.315288,"lon":5.380324,"is_reserved":false,"is_disabled":false,"rental_uris":{"android":"levelo://app?vid=15c787c0-c09d-4fdb-9d13-006f6c96b22d","ios":"levelo://app?vid=15c787c0-c09d-4fdb-9d13-006f6c96b22d"},"vehicle_type_id":"4","last_reported":1705608450,"current_range_meters":16800,"station_id":"ce4bhsp2rcd13ifvqi50","pricing_plan_id":"free"},{"bike_id":"693a20ef-299b-400b-b843-cb1fa3826088","system_id":"levelo_inurba_marseille","lat":43.301939,"lon":5.366286,"is_reserved":false,"is_disabled":false,"rental_uris":{"android":"levelo://app?vid=693a20ef-299b-400b-b843-cb1fa3826088","ios":"levelo://app?vid=693a20ef-299b-400b-b843-cb1fa3826088"},"vehicle_type_id":"4","last_reported":1705608450,"current_range_meters":27200,"station_id":"ce4bgrh2rcd13ifvqc8g","pricing_plan_id":"free"},{"bike_id":"1ec0874a-7e57-4734-98ff-7a107ae5d874","system_id":"levelo_inurba_marseille","lat":43.301939,"lon":5.366286,"is_reserved":false,"is_disabled":false,"rental_uris":{"android":"levelo://app?vid=1ec0874a-7e57-4734-98ff-7a107ae5d874","ios":"levelo://app?vid=1ec0874a-7e57-4734-98ff-7a107ae5d874"},"vehicle_type_id":"4","last_reported":1705608450,"current_range_meters":8800,"station_id":"ce4bgrh2rcd13ifvqc8g","pricing_plan_id":"free"},{"bike_id":"7cfdef8e-b6dc-4f1d-8560-dfa66a0be6d6","system_id":"levelo_inurba_marseille","lat":43.301939,"lon":5.366286,"is_reserved":false,"is_disabled":false,"rental_uris":{"android":"levelo://app?vid=7cfdef8e-b6dc-4f1d-8560-dfa66a0be6d6","ios":"levelo://app?vid=7cfdef8e-b6dc-4f1d-8560-dfa66a0be6d6"},"vehicle_type_id":"4","last_reported":1705608450,"current_range_meters":12800,"station_id":"ce4bgrh2rcd13ifvqc8g","pricing_plan_id":"free"},{"bike_id":"e3aaedc1-5fef-4ed1-b885-a4c510020134","system_id":"levelo_inurba_marseille","lat":43.301939,"lon":5.366286,"is_reserved":false,"is_disabled":false,"rental_uris":{"android":"levelo://app?vid=e3aaedc1-5fef-4ed1-b885-a4c510020134","ios":"levelo://app?vid=e3aaedc1-5fef-4ed1-b885-a4c510020134"},"vehicle_type_id":"4","last_reported":1705608450,"current_range_meters":16000,"station_id":"ce4bgrh2rcd13ifvqc8g","pricing_plan_id":"free"},{"bike_id":"fe39033a-bd44-47ae-9f18-28d18453d8f8","system_id":"levelo_inurba_marseille","lat":43.301939,"lon":5.366286,"is_reserved":false,"is_disabled":false,"rental_uris":{"android":"levelo://app?vid=fe39033a-bd44-47ae-9f18-28d18453d8f8","ios":"levelo://app?vid=fe39033a-bd44-47ae-9f18-28d18453d8f8"},"vehicle_type_id":"4","last_reported":1705608450,"current_range_meters":0,"station_id":"ce4bgrh2rcd13ifvqc8g","pricing_plan_id":"free"},{"bike_id":"a498c348-ea1b-4543-9c5a-89d444fb323c","system_id":"levelo_inurba_marseille","lat":43.301939,"lon":5.366286,"is_reserved":false,"is_disabled":false,"rental_uris":{"android":"levelo://app?vid=a498c348-ea1b-4543-9c5a-89d444fb323c","ios":"levelo://app?vid=a498c348-ea1b-4543-9c5a-89d444fb323c"},"vehicle_type_id":"4","last_reported":1705608450,"current_range_meters":26000,"station_id":"ce4bgrh2rcd13ifvqc8g","pricing_plan_id":"free"},{"bike_id":"c7616f8a-31ab-4793-a6fd-faa94f2fda71","system_id":"levelo_inurba_marseille","lat":43.30814,"lon":5.38151,"is_reserved":false,"is_disabled":false,"rental_uris":{"android":"levelo://app?vid=c7616f8a-31ab-4793-a6fd-faa94f2fda71","ios":"levelo://app?vid=c7616f8a-31ab-4793-a6fd-faa94f2fda71"},"vehicle_type_id":"4","last_reported":1705608450,"current_range_meters":0,"station_id":"ce4bgt12rcd13ifvqce0","pricing_plan_id":"free"},{"bike_id":"5b64fc61-9d8a-4417-8499-b631f4082cd0","system_id":"levelo_inurba_marseille","lat":43.308012,"lon":5.381511,"is_reserved":false,"is_disabled":false,"rental_uris":{"android":"levelo://app?vid=5b64fc61-9d8a-4417-8499-b631f4082cd0","ios":"levelo://app?vid=5b64fc61-9d8a-4417-8499-b631f4082cd0"},"vehicle_type_id":"4","last_reported":1705608450,"current_range_meters":0,"station_id":"ce4bgt12rcd13ifvqce0","pricing_plan_id":"free"},{"bike_id":"ee90a8e1-2bb1-4f8a-a3c2-60b4e25d9ed5","system_id":"levelo_inurba_marseille","lat":43.308012,"lon":5.381511,"is_reserved":false,"is_disabled":false,"rental_uris":{"android":"levelo://app?vid=ee90a8e1-2bb1-4f8a-a3c2-60b4e25d9ed5","ios":"levelo://app?vid=ee90a8e1-2bb1-4f8a-a3c2-60b4e25d9ed5"},"vehicle_type_id":"4","last_reported":1705608450,"current_range_meters":22000,"station_id":"ce4bgt12rcd13ifvqce0","pricing_plan_id":"free"},{"bike_id":"afdbec6d-2c12-4908-addc-2b2bc981b747","system_id":"levelo_inurba_marseille","lat":43.308012,"lon":5.381511,"is_reserved":false,"is_disabled":false,"rental_uris":{"android":"levelo://app?vid=afdbec6d-2c12-4908-addc-2b2bc981b747","ios":"levelo://app?vid=afdbec6d-2c12-4908-addc-2b2bc981b747"},"vehicle_type_id":"4","last_reported":1705608450,"current_range_meters":4800,"station_id":"ce4bgt12rcd13ifvqce0","pricing_plan_id":"free"},{"bike_id":"3df9199e-a291-4ee9-8644-638b8e601f58","system_id":"levelo_inurba_marseille","lat":43.308012,"lon":5.381511,"is_reserved":false,"is_disabled":false,"rental_uris":{"android":"levelo://app?vid=3df9199e-a291-4ee9-8644-638b8e601f58","ios":"levelo://app?vid=3df9199e-a291-4ee9-8644-638b8e601f58"},"vehicle_type_id":"4","last_reported":1705608450,"current_range_meters":13600,"station_id":"ce4bgt12rcd13ifvqce0","pricing_plan_id":"free"},{"bike_id":"89a91384-2d71-4341-855c-da67e2084936","system_id":"levelo_inurba_marseille","lat":43.308012,"lon":5.381511,"is_reserved":false,"is_disabled":false,"rental_uris":{"android":"levelo://app?vid=89a91384-2d71-4341-855c-da67e2084936","ios":"levelo://app?vid=89a91384-2d71-4341-855c-da67e2084936"},"vehicle_type_id":"4","last_reported":1705608450,"current_range_meters":11600,"station_id":"ce4bgt12rcd13ifvqce0","pricing_plan_id":"free"},{"bike_id":"cc506409-5890-48e7-a0dc-cc1f478f0673","system_id":"levelo_inurba_marseille","lat":43.308012,"lon":5.381511,"is_reserved":false,"is_disabled":false,"rental_uris":{"android":"levelo://app?vid=cc506409-5890-48e7-a0dc-cc1f478f0673","ios":"levelo://app?vid=cc506409-5890-48e7-a0dc-cc1f478f0673"},"vehicle_type_id":"4","last_reported":1705608450,"current_range_meters":14400,"station_id":"ce4bgt12rcd13ifvqce0","pricing_plan_id":"free"},{"bike_id":"51d3d74e-c459-4dfd-ba8b-cb4dd4701236","system_id":"levelo_inurba_marseille","lat":43.308012,"lon":5.381511,"is_reserved":false,"is_disabled":false,"rental_uris":{"android":"levelo://app?vid=51d3d74e-c459-4dfd-ba8b-cb4dd4701236","ios":"levelo://app?vid=51d3d74e-c459-4dfd-ba8b-cb4dd4701236"},"vehicle_type_id":"4","last_reported":1705608450,"current_range_meters":14800,"station_id":"ce4bgt12rcd13ifvqce0","pricing_plan_id":"free"},{"bike_id":"71a126c7-b719-426c-b069-4af1d4a5ba47","system_id":"levelo_inurba_marseille","lat":43.32473,"lon":5.365797,"is_reserved":false,"is_disabled":false,"rental_uris":{"android":"levelo://app?vid=71a126c7-b719-426c-b069-4af1d4a5ba47","ios":"levelo://app?vid=71a126c7-b719-426c-b069-4af1d4a5ba47"},"vehicle_type_id":"4","last_reported":1705608450,"current_range_meters":5600,"station_id":"ce4bhs12rcd13ifvqhvg","pricing_plan_id":"free"},{"bike_id":"d00b74c2-3359-4d71-b409-cabe2be70921","system_id":"levelo_inurba_marseille","lat":43.304617,"lon":5.379146,"is_reserved":false,"is_disabled":false,"rental_uris":{"android":"levelo://app?vid=d00b74c2-3359-4d71-b409-cabe2be70921","ios":"levelo://app?vid=d00b74c2-3359-4d71-b409-cabe2be70921"},"vehicle_type_id":"4","last_reported":1705608450,"current_range_meters":13600,"station_id":"","pricing_plan_id":"free"},{"bike_id":"3cb5ad2b-e743-4194-9d67-007686b421e8","system_id":"levelo_inurba_marseille","lat":43.32478,"lon":5.36578,"is_reserved":false,"is_disabled":false,"rental_uris":{"android":"levelo://app?vid=3cb5ad2b-e743-4194-9d67-007686b421e8","ios":"levelo://app?vid=3cb5ad2b-e743-4194-9d67-007686b421e8"},"vehicle_type_id":"4","last_reported":1705608450,"current_range_meters":14800,"station_id":"ce4bhs12rcd13ifvqhvg","pricing_plan_id":"free"},{"bike_id":"2179bf7d-2ef3-478f-ab07-0d1474ed1fd2","system_id":"levelo_inurba_marseille","lat":43.324876,"lon":5.36581,"is_reserved":false,"is_disabled":false,"rental_uris":{"android":"levelo://app?vid=2179bf7d-2ef3-478f-ab07-0d1474ed1fd2","ios":"levelo://app?vid=2179bf7d-2ef3-478f-ab07-0d1474ed1fd2"},"vehicle_type_id":"4","last_reported":1705608450,"current_range_meters":9600,"station_id":"ce4bhs12rcd13ifvqhvg","pricing_plan_id":"free"},{"bike_id":"d655f5bb-ed30-48d1-8fea-b10c22e797ad","system_id":"levelo_inurba_marseille","lat":43.324771,"lon":5.36557,"is_reserved":false,"is_disabled":false,"rental_uris":{"android":"levelo://app?vid=d655f5bb-ed30-48d1-8fea-b10c22e797ad","ios":"levelo://app?vid=d655f5bb-ed30-48d1-8fea-b10c22e797ad"},"vehicle_type_id":"4","last_reported":1705608450,"current_range_meters":24400,"station_id":"ce4bhs12rcd13ifvqhvg","pricing_plan_id":"free"},{"bike_id":"d340943f-086a-45de-8c45-d3e6cdf62ef6","system_id":"levelo_inurba_marseille","lat":43.301429,"lon":5.37413,"is_reserved":false,"is_disabled":false,"rental_uris":{"android":"levelo://app?vid=d340943f-086a-45de-8c45-d3e6cdf62ef6","ios":"levelo://app?vid=d340943f-086a-45de-8c45-d3e6cdf62ef6"},"vehicle_type_id":"4","last_reported":1705608450,"current_range_meters":1600,"station_id":"ce4bgs92rcd13ifvqcc0","pricing_plan_id":"free"},{"bike_id":"e9c1a3c1-146c-408b-8ffc-fc26d013a171","system_id":"levelo_inurba_marseille","lat":43.30274,"lon":5.37711,"is_reserved":false,"is_disabled":false,"rental_uris":{"android":"levelo://app?vid=e9c1a3c1-146c-408b-8ffc-fc26d013a171","ios":"levelo://app?vid=e9c1a3c1-146c-408b-8ffc-fc26d013a171"},"vehicle_type_id":"4","last_reported":1705608450,"current_range_meters":7200,"station_id":"","pricing_plan_id":"free"},{"bike_id":"2200c8c5-2419-4eb5-b913-cfff868d749d","system_id":"levelo_inurba_marseille","lat":43.319935,"lon":5.381699,"is_reserved":false,"is_disabled":false,"rental_uris":{"android":"levelo://app?vid=2200c8c5-2419-4eb5-b913-cfff868d749d","ios":"levelo://app?vid=2200c8c5-2419-4eb5-b913-cfff868d749d"},"vehicle_type_id":"4","last_reported":1705608450,"current_range_meters":4000,"station_id":"ce4bhr12rcd13ifvqhpg","pricing_plan_id":"free"},{"bike_id":"07f07333-9230-4ac3-8054-fbf1bcd195b8","system_id":"levelo_inurba_marseille","lat":43.299222,"lon":5.365554,"is_reserved":false,"is_disabled":false,"rental_uris":{"android":"levelo://app?vid=07f07333-9230-4ac3-8054-fbf1bcd195b8","ios":"levelo://app?vid=07f07333-9230-4ac3-8054-fbf1bcd195b8"},"vehicle_type_id":"4","last_reported":1705608450,"current_range_meters":7600,"station_id":"ce4bgm92rcd13ifvqbr0","pricing_plan_id":"free"},{"bike_id":"57207db1-9ebb-4560-8028-2b68cd4d0034","system_id":"levelo_inurba_marseille","lat":43.299724,"lon":5.371829,"is_reserved":false,"is_disabled":false,"rental_uris":{"android":"levelo://app?vid=57207db1-9ebb-4560-8028-2b68cd4d0034","ios":"levelo://app?vid=57207db1-9ebb-4560-8028-2b68cd4d0034"},"vehicle_type_id":"4","last_reported":1705608450,"current_range_meters":7200,"station_id":"ce4bgr92rcd13ifvqc7g","pricing_plan_id":"free"},{"bike_id":"c3a5dfc7-5e44-4209-90ff-4d46ce9f810e","system_id":"levelo_inurba_marseille","lat":43.30083,"lon":5.37699,"is_reserved":false,"is_disabled":false,"rental_uris":{"android":"levelo://app?vid=c3a5dfc7-5e44-4209-90ff-4d46ce9f810e","ios":"levelo://app?vid=c3a5dfc7-5e44-4209-90ff-4d46ce9f810e"},"vehicle_type_id":"4","last_reported":1705608450,"current_range_meters":20400,"station_id":"","pricing_plan_id":"free"},{"bike_id":"a327edcd-5dcd-4e2e-8c2d-0fb21d55ff2e","system_id":"levelo_inurba_marseille","lat":43.299243,"lon":5.37481,"is_reserved":false,"is_disabled":false,"rental_uris":{"android":"levelo://app?vid=a327edcd-5dcd-4e2e-8c2d-0fb21d55ff2e","ios":"levelo://app?vid=a327edcd-5dcd-4e2e-8c2d-0fb21d55ff2e"},"vehicle_type_id":"4","last_reported":1705608450,"current_range_meters":26800,"station_id":"ce4bgjh2rcd13ifvqbg0","pricing_plan_id":"free"},{"bike_id":"d734ecd7-5256-41de-b9da-c6ba57332841","system_id":"levelo_inurba_marseille","lat":43.305383,"lon":5.38418,"is_reserved":false,"is_disabled":false,"rental_uris":{"android":"levelo://app?vid=d734ecd7-5256-41de-b9da-c6ba57332841","ios":"levelo://app?vid=d734ecd7-5256-41de-b9da-c6ba57332841"},"vehicle_type_id":"4","last_reported":1705608450,"current_range_meters":0,"station_id":"ce4bgg92rcd13ifvqb30","pricing_plan_id":"free"},{"bike_id":"d8a6e841-c3b3-49d8-a903-a1d50f205cf3","system_id":"levelo_inurba_marseille","lat":43.298433,"lon":5.362774,"is_reserved":false,"is_disabled":false,"rental_uris":{"android":"levelo://app?vid=d8a6e841-c3b3-49d8-a903-a1d50f205cf3","ios":"levelo://app?vid=d8a6e841-c3b3-49d8-a903-a1d50f205cf3"},"vehicle_type_id":"4","last_reported":1705608450,"current_range_meters":27200,"station_id":"ce4bgpp2rcd13ifvqc3g","pricing_plan_id":"free"},{"bike_id":"2391ef3f-718c-495c-b8c0-3c96bef9130e","system_id":"levelo_inurba_marseille","lat":43.299243,"lon":5.374807,"is_reserved":false,"is_disabled":false,"rental_uris":{"android":"levelo://app?vid=2391ef3f-718c-495c-b8c0-3c96bef9130e","ios":"levelo://app?vid=2391ef3f-718c-495c-b8c0-3c96bef9130e"},"vehicle_type_id":"4","last_reported":1705608450,"current_range_meters":20000,"station_id":"ce4bgjh2rcd13ifvqbg0","pricing_plan_id":"free"},{"bike_id":"43234f38-cd5e-4cdb-b59d-273b0af073a5","system_id":"levelo_inurba_marseille","lat":43.311722,"lon":5.387247,"is_reserved":false,"is_disabled":false,"rental_uris":{"android":"levelo://app?vid=43234f38-cd5e-4cdb-b59d-273b0af073a5","ios":"levelo://app?vid=43234f38-cd5e-4cdb-b59d-273b0af073a5"},"vehicle_type_id":"4","last_reported":1705608450,"current_range_meters":24400,"station_id":"ce4bgv12rcd13ifvqcp0","pricing_plan_id":"free"},{"bike_id":"3cd34e9e-0f91-4f51-b8b2-8fb4de1beb89","system_id":"levelo_inurba_marseille","lat":43.311722,"lon":5.387247,"is_reserved":false,"is_disabled":false,"rental_uris":{"android":"levelo://app?vid=3cd34e9e-0f91-4f51-b8b2-8fb4de1beb89","ios":"levelo://app?vid=3cd34e9e-0f91-4f51-b8b2-8fb4de1beb89"},"vehicle_type_id":"4","last_reported":1705608450,"current_range_meters":30400,"station_id":"ce4bgv12rcd13ifvqcp0","pricing_plan_id":"free"},{"bike_id":"4a98507c-1ca0-4b34-85b9-628ca3e154c9","system_id":"levelo_inurba_marseille","lat":43.311722,"lon":5.387247,"is_reserved":false,"is_disabled":false,"rental_uris":{"android":"levelo://app?vid=4a98507c-1ca0-4b34-85b9-628ca3e154c9","ios":"levelo://app?vid=4a98507c-1ca0-4b34-85b9-628ca3e154c9"},"vehicle_type_id":"4","last_reported":1705608450,"current_range_meters":7600,"station_id":"ce4bgv12rcd13ifvqcp0","pricing_plan_id":"free"},{"bike_id":"09e91849-0782-4b28-8abd-3427653343c5","system_id":"levelo_inurba_marseille","lat":43.311722,"lon":5.387247,"is_reserved":false,"is_disabled":false,"rental_uris":{"android":"levelo://app?vid=09e91849-0782-4b28-8abd-3427653343c5","ios":"levelo://app?vid=09e91849-0782-4b28-8abd-3427653343c5"},"vehicle_type_id":"4","last_reported":1705608450,"current_range_meters":0,"station_id":"ce4bgv12rcd13ifvqcp0","pricing_plan_id":"free"},{"bike_id":"d5f85722-1a6d-4569-8942-1a9d851cf8a7","system_id":"levelo_inurba_marseille","lat":43.311722,"lon":5.387247,"is_reserved":false,"is_disabled":false,"rental_uris":{"android":"levelo://app?vid=d5f85722-1a6d-4569-8942-1a9d851cf8a7","ios":"levelo://app?vid=d5f85722-1a6d-4569-8942-1a9d851cf8a7"},"vehicle_type_id":"4","last_reported":1705608450,"current_range_meters":23600,"station_id":"ce4bgv12rcd13ifvqcp0","pricing_plan_id":"free"},{"bike_id":"093844bb-5f36-4586-b841-5afaa6ec61ce","system_id":"levelo_inurba_marseille","lat":43.297774,"lon":5.370875,"is_reserved":false,"is_disabled":false,"rental_uris":{"android":"levelo://app?vid=093844bb-5f36-4586-b841-5afaa6ec61ce","ios":"levelo://app?vid=093844bb-5f36-4586-b841-5afaa6ec61ce"},"vehicle_type_id":"4","last_reported":1705608450,"current_range_meters":25600,"station_id":"ce4bgop2rcd13ifvqc1g","pricing_plan_id":"free"},{"bike_id":"afe2d6ba-ebda-4981-9104-c77037901f05","system_id":"levelo_inurba_marseille","lat":43.322872,"lon":5.382756,"is_reserved":false,"is_disabled":false,"rental_uris":{"android":"levelo://app?vid=afe2d6ba-ebda-4981-9104-c77037901f05","ios":"levelo://app?vid=afe2d6ba-ebda-4981-9104-c77037901f05"},"vehicle_type_id":"4","last_reported":1705608450,"current_range_meters":10000,"station_id":"ce4bhr12rcd13ifvqhqg","pricing_plan_id":"free"},{"bike_id":"4845401d-8788-4800-be14-6d63122bfc72","system_id":"levelo_inurba_marseille","lat":43.32287,"lon":5.38265,"is_reserved":false,"is_disabled":false,"rental_uris":{"android":"levelo://app?vid=4845401d-8788-4800-be14-6d63122bfc72","ios":"levelo://app?vid=4845401d-8788-4800-be14-6d63122bfc72"},"vehicle_type_id":"4","last_reported":1705608450,"current_range_meters":6400,"station_id":"ce4bhr12rcd13ifvqhqg","pricing_plan_id":"free"},{"bike_id":"c59e915a-05cb-49b2-8b19-dcae4465ebcc","system_id":"levelo_inurba_marseille","lat":43.322901,"lon":5.38264,"is_reserved":false,"is_disabled":false,"rental_uris":{"android":"levelo://app?vid=c59e915a-05cb-49b2-8b19-dcae4465ebcc","ios":"levelo://app?vid=c59e915a-05cb-49b2-8b19-dcae4465ebcc"},"vehicle_type_id":"4","last_reported":1705608450,"current_range_meters":29600,"station_id":"ce4bhr12rcd13ifvqhqg","pricing_plan_id":"free"},{"bike_id":"01c07e62-fecd-4d4e-969e-613f4f56109f","system_id":"levelo_inurba_marseille","lat":43.32293,"lon":5.38262,"is_reserved":false,"is_disabled":false,"rental_uris":{"android":"levelo://app?vid=01c07e62-fecd-4d4e-969e-613f4f56109f","ios":"levelo://app?vid=01c07e62-fecd-4d4e-969e-613f4f56109f"},"vehicle_type_id":"4","last_reported":1705608450,"current_range_meters":8800,"station_id":"ce4bhr12rcd13ifvqhqg","pricing_plan_id":"free"},{"bike_id":"34c8b400-5074-46e3-aa02-f5d274dfaa4f","system_id":"levelo_inurba_marseille","lat":43.32292,"lon":5.38264,"is_reserved":false,"is_disabled":false,"rental_uris":{"android":"levelo://app?vid=34c8b400-5074-46e3-aa02-f5d274dfaa4f","ios":"levelo://app?vid=34c8b400-5074-46e3-aa02-f5d274dfaa4f"},"vehicle_type_id":"4","last_reported":1705608450,"current_range_meters":9600,"station_id":"ce4bhr12rcd13ifvqhqg","pricing_plan_id":"free"},{"bike_id":"aa1b3cf4-5953-466c-a16f-697ec5cccb4c","system_id":"levelo_inurba_marseille","lat":43.32287,"lon":5.382746,"is_reserved":false,"is_disabled":false,"rental_uris":{"android":"levelo://app?vid=aa1b3cf4-5953-466c-a16f-697ec5cccb4c","ios":"levelo://app?vid=aa1b3cf4-5953-466c-a16f-697ec5cccb4c"},"vehicle_type_id":"4","last_reported":1705608450,"current_range_meters":8400,"station_id":"ce4bhr12rcd13ifvqhqg","pricing_plan_id":"free"},{"bike_id":"510e4003-ad50-4182-a4bb-6da1b111fff5","system_id":"levelo_inurba_marseille","lat":43.322872,"lon":5.382756,"is_reserved":false,"is_disabled":false,"rental_uris":{"android":"levelo://app?vid=510e4003-ad50-4182-a4bb-6da1b111fff5","ios":"levelo://app?vid=510e4003-ad50-4182-a4bb-6da1b111fff5"},"vehicle_type_id":"4","last_reported":1705608450,"current_range_meters":18400,"station_id":"ce4bhr12rcd13ifvqhqg","pricing_plan_id":"free"},{"bike_id":"6da9db5a-42ba-4fa8-afc9-4fdbb45498c1","system_id":"levelo_inurba_marseille","lat":43.32821,"lon":5.366781,"is_reserved":false,"is_disabled":false,"rental_uris":{"android":"levelo://app?vid=6da9db5a-42ba-4fa8-afc9-4fdbb45498c1","ios":"levelo://app?vid=6da9db5a-42ba-4fa8-afc9-4fdbb45498c1"},"vehicle_type_id":"4","last_reported":1705608450,"current_range_meters":7600,"station_id":"ce4bhs92rcd13ifvqi0g","pricing_plan_id":"free"},{"bike_id":"13f3b9ed-f83f-409e-a1a0-5cc3bfd11ea6","system_id":"levelo_inurba_marseille","lat":43.32823,"lon":5.3668,"is_reserved":false,"is_disabled":false,"rental_uris":{"android":"levelo://app?vid=13f3b9ed-f83f-409e-a1a0-5cc3bfd11ea6","ios":"levelo://app?vid=13f3b9ed-f83f-409e-a1a0-5cc3bfd11ea6"},"vehicle_type_id":"4","last_reported":1705608450,"current_range_meters":24000,"station_id":"ce4bhs92rcd13ifvqi0g","pricing_plan_id":"free"},{"bike_id":"b3d1df88-d8ad-420f-822b-89111e75191e","system_id":"levelo_inurba_marseille","lat":43.328259,"lon":5.366804,"is_reserved":false,"is_disabled":false,"rental_uris":{"android":"levelo://app?vid=b3d1df88-d8ad-420f-822b-89111e75191e","ios":"levelo://app?vid=b3d1df88-d8ad-420f-822b-89111e75191e"},"vehicle_type_id":"4","last_reported":1705608450,"current_range_meters":2400,"station_id":"ce4bhs92rcd13ifvqi0g","pricing_plan_id":"free"},{"bike_id":"ea0178f3-2c6b-4af6-b062-91b0b8dde1df","system_id":"levelo_inurba_marseille","lat":43.32826,"lon":5.36682,"is_reserved":false,"is_disabled":false,"rental_uris":{"android":"levelo://app?vid=ea0178f3-2c6b-4af6-b062-91b0b8dde1df","ios":"levelo://app?vid=ea0178f3-2c6b-4af6-b062-91b0b8dde1df"},"vehicle_type_id":"4","last_reported":1705608450,"current_range_meters":30000,"station_id":"ce4bhs92rcd13ifvqi0g","pricing_plan_id":"free"},{"bike_id":"6b4ea496-3016-42db-af64-ba8beb6e73fc","system_id":"levelo_inurba_marseille","lat":43.328371,"lon":5.366909,"is_reserved":false,"is_disabled":false,"rental_uris":{"android":"levelo://app?vid=6b4ea496-3016-42db-af64-ba8beb6e73fc","ios":"levelo://app?vid=6b4ea496-3016-42db-af64-ba8beb6e73fc"},"vehicle_type_id":"4","last_reported":1705608450,"current_range_meters":19200,"station_id":"ce4bhs92rcd13ifvqi0g","pricing_plan_id":"free"},{"bike_id":"85cedcff-9e9a-415d-8415-195178ea3cb7","system_id":"levelo_inurba_marseille","lat":43.328269,"lon":5.366811,"is_reserved":false,"is_disabled":false,"rental_uris":{"android":"levelo://app?vid=85cedcff-9e9a-415d-8415-195178ea3cb7","ios":"levelo://app?vid=85cedcff-9e9a-415d-8415-195178ea3cb7"},"vehicle_type_id":"4","last_reported":1705608450,"current_range_meters":14800,"station_id":"ce4bhs92rcd13ifvqi0g","pricing_plan_id":"free"},{"bike_id":"2849c95b-f1a6-402d-aac7-80ea81f2feb2","system_id":"levelo_inurba_marseille","lat":43.328276,"lon":5.366749,"is_reserved":false,"is_disabled":false,"rental_uris":{"android":"levelo://app?vid=2849c95b-f1a6-402d-aac7-80ea81f2feb2","ios":"levelo://app?vid=2849c95b-f1a6-402d-aac7-80ea81f2feb2"},"vehicle_type_id":"4","last_reported":1705608450,"current_range_meters":29200,"station_id":"ce4bhs92rcd13ifvqi0g","pricing_plan_id":"free"},{"bike_id":"1782ad4d-7cbc-4ac0-af82-b65688e9d34c","system_id":"levelo_inurba_marseille","lat":43.328371,"lon":5.366909,"is_reserved":false,"is_disabled":false,"rental_uris":{"android":"levelo://app?vid=1782ad4d-7cbc-4ac0-af82-b65688e9d34c","ios":"levelo://app?vid=1782ad4d-7cbc-4ac0-af82-b65688e9d34c"},"vehicle_type_id":"4","last_reported":1705608450,"current_range_meters":21200,"station_id":"ce4bhs92rcd13ifvqi0g","pricing_plan_id":"free"},{"bike_id":"641739e6-19de-47df-9491-35da26c3c9da","system_id":"levelo_inurba_marseille","lat":43.328371,"lon":5.366909,"is_reserved":false,"is_disabled":false,"rental_uris":{"android":"levelo://app?vid=641739e6-19de-47df-9491-35da26c3c9da","ios":"levelo://app?vid=641739e6-19de-47df-9491-35da26c3c9da"},"vehicle_type_id":"4","last_reported":1705608450,"current_range_meters":23200,"station_id":"ce4bhs92rcd13ifvqi0g","pricing_plan_id":"free"},{"bike_id":"88638e12-da12-4596-b7e2-600ab2f62219","system_id":"levelo_inurba_marseille","lat":43.328371,"lon":5.366909,"is_reserved":false,"is_disabled":false,"rental_uris":{"android":"levelo://app?vid=88638e12-da12-4596-b7e2-600ab2f62219","ios":"levelo://app?vid=88638e12-da12-4596-b7e2-600ab2f62219"},"vehicle_type_id":"4","last_reported":1705608450,"current_range_meters":4800,"station_id":"ce4bhs92rcd13ifvqi0g","pricing_plan_id":"free"},{"bike_id":"bae0e6ef-8eeb-485a-a054-bea3431d2035","system_id":"levelo_inurba_marseille","lat":43.328371,"lon":5.366909,"is_reserved":false,"is_disabled":false,"rental_uris":{"android":"levelo://app?vid=bae0e6ef-8eeb-485a-a054-bea3431d2035","ios":"levelo://app?vid=bae0e6ef-8eeb-485a-a054-bea3431d2035"},"vehicle_type_id":"4","last_reported":1705608450,"current_range_meters":13200,"station_id":"ce4bhs92rcd13ifvqi0g","pricing_plan_id":"free"},{"bike_id":"02f97db8-1e1e-4f38-89f3-11868234f7c3","system_id":"levelo_inurba_marseille","lat":43.32831,"lon":5.366808,"is_reserved":false,"is_disabled":false,"rental_uris":{"android":"levelo://app?vid=02f97db8-1e1e-4f38-89f3-11868234f7c3","ios":"levelo://app?vid=02f97db8-1e1e-4f38-89f3-11868234f7c3"},"vehicle_type_id":"4","last_reported":1705608450,"current_range_meters":12400,"station_id":"ce4bhs92rcd13ifvqi0g","pricing_plan_id":"free"},{"bike_id":"4d7aa436-d024-4c37-ac49-d26c20db48a7","system_id":"levelo_inurba_marseille","lat":43.29718,"lon":5.36604,"is_reserved":false,"is_disabled":false,"rental_uris":{"android":"levelo://app?vid=4d7aa436-d024-4c37-ac49-d26c20db48a7","ios":"levelo://app?vid=4d7aa436-d024-4c37-ac49-d26c20db48a7"},"vehicle_type_id":"4","last_reported":1705608450,"current_range_meters":28800,"station_id":"ce4bgn12rcd13ifvqbt0","pricing_plan_id":"free"},{"bike_id":"a53b6dde-9c97-4a96-897c-ee7f9265222d","system_id":"levelo_inurba_marseille","lat":43.328371,"lon":5.366909,"is_reserved":false,"is_disabled":false,"rental_uris":{"android":"levelo://app?vid=a53b6dde-9c97-4a96-897c-ee7f9265222d","ios":"levelo://app?vid=a53b6dde-9c97-4a96-897c-ee7f9265222d"},"vehicle_type_id":"4","last_reported":1705608450,"current_range_meters":16400,"station_id":"ce4bhs92rcd13ifvqi0g","pricing_plan_id":"free"},{"bike_id":"0cd85974-e845-4ebf-aa36-3950ad3faa20","system_id":"levelo_inurba_marseille","lat":43.29716,"lon":5.36606,"is_reserved":false,"is_disabled":false,"rental_uris":{"android":"levelo://app?vid=0cd85974-e845-4ebf-aa36-3950ad3faa20","ios":"levelo://app?vid=0cd85974-e845-4ebf-aa36-3950ad3faa20"},"vehicle_type_id":"4","last_reported":1705608450,"current_range_meters":20400,"station_id":"ce4bgn12rcd13ifvqbt0","pricing_plan_id":"free"},{"bike_id":"94ecc3b5-b1cf-43dc-8825-b1c9bef028a2","system_id":"levelo_inurba_marseille","lat":43.29716,"lon":5.36599,"is_reserved":false,"is_disabled":false,"rental_uris":{"android":"levelo://app?vid=94ecc3b5-b1cf-43dc-8825-b1c9bef028a2","ios":"levelo://app?vid=94ecc3b5-b1cf-43dc-8825-b1c9bef028a2"},"vehicle_type_id":"4","last_reported":1705608450,"current_range_meters":6400,"station_id":"ce4bgn12rcd13ifvqbt0","pricing_plan_id":"free"},{"bike_id":"7a5cfd19-67b5-4404-837f-9d2597d5b4a4","system_id":"levelo_inurba_marseille","lat":43.32834,"lon":5.36682,"is_reserved":false,"is_disabled":false,"rental_uris":{"android":"levelo://app?vid=7a5cfd19-67b5-4404-837f-9d2597d5b4a4","ios":"levelo://app?vid=7a5cfd19-67b5-4404-837f-9d2597d5b4a4"},"vehicle_type_id":"4","last_reported":1705608450,"current_range_meters":8800,"station_id":"ce4bhs92rcd13ifvqi0g","pricing_plan_id":"free"},{"bike_id":"9ff00ca9-45b8-4c3f-92fe-7c8bf69e3966","system_id":"levelo_inurba_marseille","lat":43.29712,"lon":5.36606,"is_reserved":false,"is_disabled":false,"rental_uris":{"android":"levelo://app?vid=9ff00ca9-45b8-4c3f-92fe-7c8bf69e3966","ios":"levelo://app?vid=9ff00ca9-45b8-4c3f-92fe-7c8bf69e3966"},"vehicle_type_id":"4","last_reported":1705608450,"current_range_meters":9600,"station_id":"ce4bgn12rcd13ifvqbt0","pricing_plan_id":"free"},{"bike_id":"38082c03-fac1-44d3-a79f-5142b4a113a9","system_id":"levelo_inurba_marseille","lat":43.328373,"lon":5.366902,"is_reserved":false,"is_disabled":false,"rental_uris":{"android":"levelo://app?vid=38082c03-fac1-44d3-a79f-5142b4a113a9","ios":"levelo://app?vid=38082c03-fac1-44d3-a79f-5142b4a113a9"},"vehicle_type_id":"4","last_reported":1705608450,"current_range_meters":18000,"station_id":"ce4bhs92rcd13ifvqi0g","pricing_plan_id":"free"},{"bike_id":"522573b3-f1bf-4893-bef3-9ac94c010af3","system_id":"levelo_inurba_marseille","lat":43.297163,"lon":5.365866,"is_reserved":false,"is_disabled":false,"rental_uris":{"android":"levelo://app?vid=522573b3-f1bf-4893-bef3-9ac94c010af3","ios":"levelo://app?vid=522573b3-f1bf-4893-bef3-9ac94c010af3"},"vehicle_type_id":"4","last_reported":1705608450,"current_range_meters":25200,"station_id":"ce4bgn12rcd13ifvqbt0","pricing_plan_id":"free"},{"bike_id":"2bc19b04-af01-4148-a60d-8d19cefc4c26","system_id":"levelo_inurba_marseille","lat":43.297163,"lon":5.365866,"is_reserved":false,"is_disabled":false,"rental_uris":{"android":"levelo://app?vid=2bc19b04-af01-4148-a60d-8d19cefc4c26","ios":"levelo://app?vid=2bc19b04-af01-4148-a60d-8d19cefc4c26"},"vehicle_type_id":"4","last_reported":1705608450,"current_range_meters":16800,"station_id":"ce4bgn12rcd13ifvqbt0","pricing_plan_id":"free"},{"bike_id":"0e232123-5188-4ca4-aec7-aefc96af6dca","system_id":"levelo_inurba_marseille","lat":43.295828,"lon":5.3674,"is_reserved":false,"is_disabled":false,"rental_uris":{"android":"levelo://app?vid=0e232123-5188-4ca4-aec7-aefc96af6dca","ios":"levelo://app?vid=0e232123-5188-4ca4-aec7-aefc96af6dca"},"vehicle_type_id":"4","last_reported":1705608450,"current_range_meters":23200,"station_id":"ce4bgph2rcd13ifvqc2g","pricing_plan_id":"free"},{"bike_id":"7646b908-1010-4aca-887d-9fbed40ab023","system_id":"levelo_inurba_marseille","lat":43.29584,"lon":5.36797,"is_reserved":false,"is_disabled":false,"rental_uris":{"android":"levelo://app?vid=7646b908-1010-4aca-887d-9fbed40ab023","ios":"levelo://app?vid=7646b908-1010-4aca-887d-9fbed40ab023"},"vehicle_type_id":"4","last_reported":1705608450,"current_range_meters":20400,"station_id":"","pricing_plan_id":"free"},{"bike_id":"a23428f5-0511-4fe8-a245-c6ae45ef3b07","system_id":"levelo_inurba_marseille","lat":43.309589,"lon":5.390258,"is_reserved":false,"is_disabled":false,"rental_uris":{"android":"levelo://app?vid=a23428f5-0511-4fe8-a245-c6ae45ef3b07","ios":"levelo://app?vid=a23428f5-0511-4fe8-a245-c6ae45ef3b07"},"vehicle_type_id":"4","last_reported":1705608450,"current_range_meters":28400,"station_id":"ce4bgup2rcd13ifvqco0","pricing_plan_id":"free"},{"bike_id":"986d08bb-3947-40d3-b2ab-e75d58963874","system_id":"levelo_inurba_marseille","lat":43.317557,"lon":5.390173,"is_reserved":false,"is_disabled":false,"rental_uris":{"android":"levelo://app?vid=986d08bb-3947-40d3-b2ab-e75d58963874","ios":"levelo://app?vid=986d08bb-3947-40d3-b2ab-e75d58963874"},"vehicle_type_id":"4","last_reported":1705608450,"current_range_meters":23200,"station_id":"ce4bhqp2rcd13ifvqhng","pricing_plan_id":"free"},{"bike_id":"d81fcc2d-ba65-4a7d-b1a6-7f5e8793578f","system_id":"levelo_inurba_marseille","lat":43.31754,"lon":5.39017,"is_reserved":false,"is_disabled":false,"rental_uris":{"android":"levelo://app?vid=d81fcc2d-ba65-4a7d-b1a6-7f5e8793578f","ios":"levelo://app?vid=d81fcc2d-ba65-4a7d-b1a6-7f5e8793578f"},"vehicle_type_id":"4","last_reported":1705608450,"current_range_meters":22000,"station_id":"ce4bhqp2rcd13ifvqhng","pricing_plan_id":"free"},{"bike_id":"a0758ead-1c6b-4eda-8725-6bf980bf382e","system_id":"levelo_inurba_marseille","lat":43.3176,"lon":5.39023,"is_reserved":false,"is_disabled":false,"rental_uris":{"android":"levelo://app?vid=a0758ead-1c6b-4eda-8725-6bf980bf382e","ios":"levelo://app?vid=a0758ead-1c6b-4eda-8725-6bf980bf382e"},"vehicle_type_id":"4","last_reported":1705608450,"current_range_meters":4800,"station_id":"ce4bhqp2rcd13ifvqhng","pricing_plan_id":"free"},{"bike_id":"5207ad6a-68b7-4d7d-b4ca-bc3ba0bb42b6","system_id":"levelo_inurba_marseille","lat":43.304274,"lon":5.388873,"is_reserved":false,"is_disabled":false,"rental_uris":{"android":"levelo://app?vid=5207ad6a-68b7-4d7d-b4ca-bc3ba0bb42b6","ios":"levelo://app?vid=5207ad6a-68b7-4d7d-b4ca-bc3ba0bb42b6"},"vehicle_type_id":"4","last_reported":1705608450,"current_range_meters":10400,"station_id":"ce4bgk12rcd13ifvqbi0","pricing_plan_id":"free"},{"bike_id":"89f91060-d2fa-4012-8586-e6aabe92c206","system_id":"levelo_inurba_marseille","lat":43.298037,"lon":5.381066,"is_reserved":false,"is_disabled":false,"rental_uris":{"android":"levelo://app?vid=89f91060-d2fa-4012-8586-e6aabe92c206","ios":"levelo://app?vid=89f91060-d2fa-4012-8586-e6aabe92c206"},"vehicle_type_id":"4","last_reported":1705608450,"current_range_meters":400,"station_id":"ce4bgip2rcd13ifvqbb0","pricing_plan_id":"free"},{"bike_id":"56aa0301-c5fe-4899-8cfd-032db59c62a0","system_id":"levelo_inurba_marseille","lat":43.304274,"lon":5.388873,"is_reserved":false,"is_disabled":false,"rental_uris":{"android":"levelo://app?vid=56aa0301-c5fe-4899-8cfd-032db59c62a0","ios":"levelo://app?vid=56aa0301-c5fe-4899-8cfd-032db59c62a0"},"vehicle_type_id":"4","last_reported":1705608450,"current_range_meters":0,"station_id":"ce4bgk12rcd13ifvqbi0","pricing_plan_id":"free"},{"bike_id":"187ec4ce-2d01-4eec-a300-d76a6ee2f47f","system_id":"levelo_inurba_marseille","lat":43.298037,"lon":5.381066,"is_reserved":false,"is_disabled":false,"rental_uris":{"android":"levelo://app?vid=187ec4ce-2d01-4eec-a300-d76a6ee2f47f","ios":"levelo://app?vid=187ec4ce-2d01-4eec-a300-d76a6ee2f47f"},"vehicle_type_id":"4","last_reported":1705608450,"current_range_meters":29200,"station_id":"ce4bgip2rcd13ifvqbb0","pricing_plan_id":"free"},{"bike_id":"722fea26-b103-40f8-ad3f-321cd9a5ffd9","system_id":"levelo_inurba_marseille","lat":43.298037,"lon":5.381066,"is_reserved":false,"is_disabled":false,"rental_uris":{"android":"levelo://app?vid=722fea26-b103-40f8-ad3f-321cd9a5ffd9","ios":"levelo://app?vid=722fea26-b103-40f8-ad3f-321cd9a5ffd9"},"vehicle_type_id":"4","last_reported":1705608450,"current_range_meters":30400,"station_id":"ce4bgip2rcd13ifvqbb0","pricing_plan_id":"free"},{"bike_id":"73e79637-9782-4dfe-9207-392f4e2ea989","system_id":"levelo_inurba_marseille","lat":43.304278,"lon":5.388868,"is_reserved":false,"is_disabled":false,"rental_uris":{"android":"levelo://app?vid=73e79637-9782-4dfe-9207-392f4e2ea989","ios":"levelo://app?vid=73e79637-9782-4dfe-9207-392f4e2ea989"},"vehicle_type_id":"4","last_reported":1705608450,"current_range_meters":0,"station_id":"ce4bgk12rcd13ifvqbi0","pricing_plan_id":"free"},{"bike_id":"173889dc-62a8-49ea-b607-733eee51bbf5","system_id":"levelo_inurba_marseille","lat":43.304278,"lon":5.388868,"is_reserved":false,"is_disabled":false,"rental_uris":{"android":"levelo://app?vid=173889dc-62a8-49ea-b607-733eee51bbf5","ios":"levelo://app?vid=173889dc-62a8-49ea-b607-733eee51bbf5"},"vehicle_type_id":"4","last_reported":1705608450,"current_range_meters":400,"station_id":"ce4bgk12rcd13ifvqbi0","pricing_plan_id":"free"},{"bike_id":"e5beb220-abb0-4c70-a10a-68b40538caaf","system_id":"levelo_inurba_marseille","lat":43.296263,"lon":5.377094,"is_reserved":false,"is_disabled":false,"rental_uris":{"android":"levelo://app?vid=e5beb220-abb0-4c70-a10a-68b40538caaf","ios":"levelo://app?vid=e5beb220-abb0-4c70-a10a-68b40538caaf"},"vehicle_type_id":"4","last_reported":1705608450,"current_range_meters":28400,"station_id":"ce4bgi92rcd13ifvqb90","pricing_plan_id":"free"},{"bike_id":"09c0acfd-277c-4885-b248-a4fb1dfb08d4","system_id":"levelo_inurba_marseille","lat":43.298037,"lon":5.381066,"is_reserved":false,"is_disabled":false,"rental_uris":{"android":"levelo://app?vid=09c0acfd-277c-4885-b248-a4fb1dfb08d4","ios":"levelo://app?vid=09c0acfd-277c-4885-b248-a4fb1dfb08d4"},"vehicle_type_id":"4","last_reported":1705608450,"current_range_meters":15200,"station_id":"ce4bgip2rcd13ifvqbb0","pricing_plan_id":"free"},{"bike_id":"2a3ade40-e8f6-45ff-b3aa-97abf9b4f4a1","system_id":"levelo_inurba_marseille","lat":43.299724,"lon":5.384848,"is_reserved":false,"is_disabled":false,"rental_uris":{"android":"levelo://app?vid=2a3ade40-e8f6-45ff-b3aa-97abf9b4f4a1","ios":"levelo://app?vid=2a3ade40-e8f6-45ff-b3aa-97abf9b4f4a1"},"vehicle_type_id":"4","last_reported":1705608450,"current_range_meters":16800,"station_id":"ce4bgj92rcd13ifvqbd0","pricing_plan_id":"free"},{"bike_id":"3f1ac6a1-e676-4499-a5d3-78914f1d8f7e","system_id":"levelo_inurba_marseille","lat":43.32369,"lon":5.38866,"is_reserved":false,"is_disabled":false,"rental_uris":{"android":"levelo://app?vid=3f1ac6a1-e676-4499-a5d3-78914f1d8f7e","ios":"levelo://app?vid=3f1ac6a1-e676-4499-a5d3-78914f1d8f7e"},"vehicle_type_id":"4","last_reported":1705608450,"current_range_meters":7200,"station_id":"ce4bhqp2rcd13ifvqhog","pricing_plan_id":"free"},{"bike_id":"ae329723-b6cd-4f52-99af-83cccf370dd2","system_id":"levelo_inurba_marseille","lat":43.32369,"lon":5.388745,"is_reserved":false,"is_disabled":false,"rental_uris":{"android":"levelo://app?vid=ae329723-b6cd-4f52-99af-83cccf370dd2","ios":"levelo://app?vid=ae329723-b6cd-4f52-99af-83cccf370dd2"},"vehicle_type_id":"4","last_reported":1705608450,"current_range_meters":5200,"station_id":"ce4bhqp2rcd13ifvqhog","pricing_plan_id":"free"},{"bike_id":"76d2d8d7-8638-4213-9d68-910604c565ee","system_id":"levelo_inurba_marseille","lat":43.32369,"lon":5.38875,"is_reserved":false,"is_disabled":false,"rental_uris":{"android":"levelo://app?vid=76d2d8d7-8638-4213-9d68-910604c565ee","ios":"levelo://app?vid=76d2d8d7-8638-4213-9d68-910604c565ee"},"vehicle_type_id":"4","last_reported":1705608450,"current_range_meters":800,"station_id":"ce4bhqp2rcd13ifvqhog","pricing_plan_id":"free"},{"bike_id":"48d01839-1c06-4604-a1d2-ae1f8bd3df35","system_id":"levelo_inurba_marseille","lat":43.32371,"lon":5.38874,"is_reserved":false,"is_disabled":false,"rental_uris":{"android":"levelo://app?vid=48d01839-1c06-4604-a1d2-ae1f8bd3df35","ios":"levelo://app?vid=48d01839-1c06-4604-a1d2-ae1f8bd3df35"},"vehicle_type_id":"4","last_reported":1705608450,"current_range_meters":9200,"station_id":"ce4bhqp2rcd13ifvqhog","pricing_plan_id":"free"},{"bike_id":"d589db7f-f7c3-4eba-9c81-55f7aee0fc32","system_id":"levelo_inurba_marseille","lat":43.32364,"lon":5.38881,"is_reserved":false,"is_disabled":false,"rental_uris":{"android":"levelo://app?vid=d589db7f-f7c3-4eba-9c81-55f7aee0fc32","ios":"levelo://app?vid=d589db7f-f7c3-4eba-9c81-55f7aee0fc32"},"vehicle_type_id":"4","last_reported":1705608450,"current_range_meters":22000,"station_id":"ce4bhqp2rcd13ifvqhog","pricing_plan_id":"free"},{"bike_id":"e488bc27-b4bd-4ecb-9994-ebd8743b5676","system_id":"levelo_inurba_marseille","lat":43.3237,"lon":5.38876,"is_reserved":false,"is_disabled":false,"rental_uris":{"android":"levelo://app?vid=e488bc27-b4bd-4ecb-9994-ebd8743b5676","ios":"levelo://app?vid=e488bc27-b4bd-4ecb-9994-ebd8743b5676"},"vehicle_type_id":"4","last_reported":1705608450,"current_range_meters":12000,"station_id":"ce4bhqp2rcd13ifvqhog","pricing_plan_id":"free"},{"bike_id":"455dcc68-a660-415d-93de-0649d55b906b","system_id":"levelo_inurba_marseille","lat":43.32366,"lon":5.3888,"is_reserved":false,"is_disabled":false,"rental_uris":{"android":"levelo://app?vid=455dcc68-a660-415d-93de-0649d55b906b","ios":"levelo://app?vid=455dcc68-a660-415d-93de-0649d55b906b"},"vehicle_type_id":"4","last_reported":1705608450,"current_range_meters":26800,"station_id":"","pricing_plan_id":"free"},{"bike_id":"73c990ec-843c-4470-94da-4e5dcac1cddb","system_id":"levelo_inurba_marseille","lat":43.323652,"lon":5.388832,"is_reserved":false,"is_disabled":false,"rental_uris":{"android":"levelo://app?vid=73c990ec-843c-4470-94da-4e5dcac1cddb","ios":"levelo://app?vid=73c990ec-843c-4470-94da-4e5dcac1cddb"},"vehicle_type_id":"4","last_reported":1705608450,"current_range_meters":3600,"station_id":"ce4bhqp2rcd13ifvqhog","pricing_plan_id":"free"},{"bike_id":"0bfd4e67-2f41-4ad0-88ae-f2544a59b7c7","system_id":"levelo_inurba_marseille","lat":43.32375,"lon":5.38876,"is_reserved":false,"is_disabled":false,"rental_uris":{"android":"levelo://app?vid=0bfd4e67-2f41-4ad0-88ae-f2544a59b7c7","ios":"levelo://app?vid=0bfd4e67-2f41-4ad0-88ae-f2544a59b7c7"},"vehicle_type_id":"4","last_reported":1705608450,"current_range_meters":18000,"station_id":"ce4bhqp2rcd13ifvqhog","pricing_plan_id":"free"},{"bike_id":"b7beb6a5-b030-4fe2-a25b-ee6b5b88bebb","system_id":"levelo_inurba_marseille","lat":43.323688,"lon":5.388857,"is_reserved":false,"is_disabled":false,"rental_uris":{"android":"levelo://app?vid=b7beb6a5-b030-4fe2-a25b-ee6b5b88bebb","ios":"levelo://app?vid=b7beb6a5-b030-4fe2-a25b-ee6b5b88bebb"},"vehicle_type_id":"4","last_reported":1705608450,"current_range_meters":26800,"station_id":"ce4bhqp2rcd13ifvqhog","pricing_plan_id":"free"},{"bike_id":"2ec4001f-5cf2-4614-bbfc-ffc6c5b765c3","system_id":"levelo_inurba_marseille","lat":43.32369,"lon":5.38887,"is_reserved":false,"is_disabled":false,"rental_uris":{"android":"levelo://app?vid=2ec4001f-5cf2-4614-bbfc-ffc6c5b765c3","ios":"levelo://app?vid=2ec4001f-5cf2-4614-bbfc-ffc6c5b765c3"},"vehicle_type_id":"4","last_reported":1705608450,"current_range_meters":19200,"station_id":"ce4bhqp2rcd13ifvqhog","pricing_plan_id":"free"},{"bike_id":"af98006d-7710-4bad-bd65-ca84555ee6f9","system_id":"levelo_inurba_marseille","lat":43.29601,"lon":5.381084,"is_reserved":false,"is_disabled":false,"rental_uris":{"android":"levelo://app?vid=af98006d-7710-4bad-bd65-ca84555ee6f9","ios":"levelo://app?vid=af98006d-7710-4bad-bd65-ca84555ee6f9"},"vehicle_type_id":"4","last_reported":1705608450,"current_range_meters":10000,"station_id":"ce4bgl12rcd13ifvqbo0","pricing_plan_id":"free"},{"bike_id":"0fb959d9-8aeb-46c4-a596-89a0dbeb3f24","system_id":"levelo_inurba_marseille","lat":43.29322,"lon":5.371747,"is_reserved":false,"is_disabled":false,"rental_uris":{"android":"levelo://app?vid=0fb959d9-8aeb-46c4-a596-89a0dbeb3f24","ios":"levelo://app?vid=0fb959d9-8aeb-46c4-a596-89a0dbeb3f24"},"vehicle_type_id":"4","last_reported":1705608450,"current_range_meters":20800,"station_id":"ce4bgh92rcd13ifvqb40","pricing_plan_id":"free"},{"bike_id":"a6afc5a6-db3f-4076-959f-5df8c8cfd109","system_id":"levelo_inurba_marseille","lat":43.29308,"lon":5.37181,"is_reserved":false,"is_disabled":false,"rental_uris":{"android":"levelo://app?vid=a6afc5a6-db3f-4076-959f-5df8c8cfd109","ios":"levelo://app?vid=a6afc5a6-db3f-4076-959f-5df8c8cfd109"},"vehicle_type_id":"4","last_reported":1705608450,"current_range_meters":18400,"station_id":"ce4bgh92rcd13ifvqb40","pricing_plan_id":"free"},{"bike_id":"f4e42955-3ba4-4186-afef-19de6a7d1ade","system_id":"levelo_inurba_marseille","lat":43.292749,"lon":5.368402,"is_reserved":false,"is_disabled":false,"rental_uris":{"android":"levelo://app?vid=f4e42955-3ba4-4186-afef-19de6a7d1ade","ios":"levelo://app?vid=f4e42955-3ba4-4186-afef-19de6a7d1ade"},"vehicle_type_id":"4","last_reported":1705608450,"current_range_meters":2400,"station_id":"ce4bhbp2rcd13ifvqesg","pricing_plan_id":"free"},{"bike_id":"08d8d74d-1ae2-4309-854f-0695f7823f7e","system_id":"levelo_inurba_marseille","lat":43.292749,"lon":5.368402,"is_reserved":false,"is_disabled":false,"rental_uris":{"android":"levelo://app?vid=08d8d74d-1ae2-4309-854f-0695f7823f7e","ios":"levelo://app?vid=08d8d74d-1ae2-4309-854f-0695f7823f7e"},"vehicle_type_id":"4","last_reported":1705608450,"current_range_meters":2800,"station_id":"ce4bhbp2rcd13ifvqesg","pricing_plan_id":"free"},{"bike_id":"653514eb-a432-4a04-a863-cb354a5b61f5","system_id":"levelo_inurba_marseille","lat":43.292749,"lon":5.368402,"is_reserved":false,"is_disabled":false,"rental_uris":{"android":"levelo://app?vid=653514eb-a432-4a04-a863-cb354a5b61f5","ios":"levelo://app?vid=653514eb-a432-4a04-a863-cb354a5b61f5"},"vehicle_type_id":"4","last_reported":1705608450,"current_range_meters":15600,"station_id":"ce4bhbp2rcd13ifvqesg","pricing_plan_id":"free"},{"bike_id":"cfc10172-33c1-4d74-a496-898c08692852","system_id":"levelo_inurba_marseille","lat":43.292749,"lon":5.368402,"is_reserved":false,"is_disabled":false,"rental_uris":{"android":"levelo://app?vid=cfc10172-33c1-4d74-a496-898c08692852","ios":"levelo://app?vid=cfc10172-33c1-4d74-a496-898c08692852"},"vehicle_type_id":"4","last_reported":1705608450,"current_range_meters":0,"station_id":"ce4bhbp2rcd13ifvqesg","pricing_plan_id":"free"},{"bike_id":"0e2901cf-4c1b-464c-a3e1-6d66e4d301f7","system_id":"levelo_inurba_marseille","lat":43.293009,"lon":5.374584,"is_reserved":false,"is_disabled":false,"rental_uris":{"android":"levelo://app?vid=0e2901cf-4c1b-464c-a3e1-6d66e4d301f7","ios":"levelo://app?vid=0e2901cf-4c1b-464c-a3e1-6d66e4d301f7"},"vehicle_type_id":"4","last_reported":1705608450,"current_range_meters":16800,"station_id":"ce4bgi12rcd13ifvqb70","pricing_plan_id":"free"},{"bike_id":"5d21b640-ea4e-46b7-8591-6d7e8383479d","system_id":"levelo_inurba_marseille","lat":43.293009,"lon":5.374584,"is_reserved":false,"is_disabled":false,"rental_uris":{"android":"levelo://app?vid=5d21b640-ea4e-46b7-8591-6d7e8383479d","ios":"levelo://app?vid=5d21b640-ea4e-46b7-8591-6d7e8383479d"},"vehicle_type_id":"4","last_reported":1705608450,"current_range_meters":26400,"station_id":"ce4bgi12rcd13ifvqb70","pricing_plan_id":"free"},{"bike_id":"e2ed33aa-9f9f-4b2b-b807-412a910edca8","system_id":"levelo_inurba_marseille","lat":43.305807,"lon":5.393423,"is_reserved":false,"is_disabled":false,"rental_uris":{"android":"levelo://app?vid=e2ed33aa-9f9f-4b2b-b807-412a910edca8","ios":"levelo://app?vid=e2ed33aa-9f9f-4b2b-b807-412a910edca8"},"vehicle_type_id":"4","last_reported":1705608450,"current_range_meters":0,"station_id":"ce4bh0p2rcd13ifvqd80","pricing_plan_id":"free"},{"bike_id":"c6ba842a-0d77-4908-ace4-8a63cf0272ba","system_id":"levelo_inurba_marseille","lat":43.293009,"lon":5.374584,"is_reserved":false,"is_disabled":false,"rental_uris":{"android":"levelo://app?vid=c6ba842a-0d77-4908-ace4-8a63cf0272ba","ios":"levelo://app?vid=c6ba842a-0d77-4908-ace4-8a63cf0272ba"},"vehicle_type_id":"4","last_reported":1705608450,"current_range_meters":13200,"station_id":"ce4bgi12rcd13ifvqb70","pricing_plan_id":"free"},{"bike_id":"7512f9af-c4f9-4c4e-9759-95eceddcc9c1","system_id":"levelo_inurba_marseille","lat":43.293009,"lon":5.374584,"is_reserved":false,"is_disabled":false,"rental_uris":{"android":"levelo://app?vid=7512f9af-c4f9-4c4e-9759-95eceddcc9c1","ios":"levelo://app?vid=7512f9af-c4f9-4c4e-9759-95eceddcc9c1"},"vehicle_type_id":"4","last_reported":1705608450,"current_range_meters":27200,"station_id":"ce4bgi12rcd13ifvqb70","pricing_plan_id":"free"},{"bike_id":"3c4061da-8789-4029-ae3f-76f72667857b","system_id":"levelo_inurba_marseille","lat":43.293009,"lon":5.374584,"is_reserved":false,"is_disabled":false,"rental_uris":{"android":"levelo://app?vid=3c4061da-8789-4029-ae3f-76f72667857b","ios":"levelo://app?vid=3c4061da-8789-4029-ae3f-76f72667857b"},"vehicle_type_id":"4","last_reported":1705608450,"current_range_meters":18800,"station_id":"ce4bgi12rcd13ifvqb70","pricing_plan_id":"free"},{"bike_id":"1bc578a9-d0e2-4227-b657-f34ee0004048","system_id":"levelo_inurba_marseille","lat":43.293009,"lon":5.374584,"is_reserved":false,"is_disabled":false,"rental_uris":{"android":"levelo://app?vid=1bc578a9-d0e2-4227-b657-f34ee0004048","ios":"levelo://app?vid=1bc578a9-d0e2-4227-b657-f34ee0004048"},"vehicle_type_id":"4","last_reported":1705608450,"current_range_meters":17200,"station_id":"ce4bgi12rcd13ifvqb70","pricing_plan_id":"free"},{"bike_id":"cd1e5ca5-87a8-4fb3-b56e-7cff37fd81d9","system_id":"levelo_inurba_marseille","lat":43.293009,"lon":5.374584,"is_reserved":false,"is_disabled":false,"rental_uris":{"android":"levelo://app?vid=cd1e5ca5-87a8-4fb3-b56e-7cff37fd81d9","ios":"levelo://app?vid=cd1e5ca5-87a8-4fb3-b56e-7cff37fd81d9"},"vehicle_type_id":"4","last_reported":1705608450,"current_range_meters":3200,"station_id":"ce4bgi12rcd13ifvqb70","pricing_plan_id":"free"},{"bike_id":"09fa9e64-ce3f-404a-939b-3322a52d1c08","system_id":"levelo_inurba_marseille","lat":43.293009,"lon":5.374584,"is_reserved":false,"is_disabled":false,"rental_uris":{"android":"levelo://app?vid=09fa9e64-ce3f-404a-939b-3322a52d1c08","ios":"levelo://app?vid=09fa9e64-ce3f-404a-939b-3322a52d1c08"},"vehicle_type_id":"4","last_reported":1705608450,"current_range_meters":8000,"station_id":"ce4bgi12rcd13ifvqb70","pricing_plan_id":"free"},{"bike_id":"86dc12c6-a2be-42bf-80c5-db3ee816047a","system_id":"levelo_inurba_marseille","lat":43.293009,"lon":5.374584,"is_reserved":false,"is_disabled":false,"rental_uris":{"android":"levelo://app?vid=86dc12c6-a2be-42bf-80c5-db3ee816047a","ios":"levelo://app?vid=86dc12c6-a2be-42bf-80c5-db3ee816047a"},"vehicle_type_id":"4","last_reported":1705608450,"current_range_meters":5200,"station_id":"ce4bgi12rcd13ifvqb70","pricing_plan_id":"free"},{"bike_id":"ad75cd49-5e86-4bdc-a486-0c1462df9621","system_id":"levelo_inurba_marseille","lat":43.305365,"lon":5.393477,"is_reserved":false,"is_disabled":false,"rental_uris":{"android":"levelo://app?vid=ad75cd49-5e86-4bdc-a486-0c1462df9621","ios":"levelo://app?vid=ad75cd49-5e86-4bdc-a486-0c1462df9621"},"vehicle_type_id":"4","last_reported":1705608450,"current_range_meters":2000,"station_id":"","pricing_plan_id":"free"},{"bike_id":"2419e4a8-5368-4528-9750-6ea567619e4e","system_id":"levelo_inurba_marseille","lat":43.303002,"lon":5.392142,"is_reserved":false,"is_disabled":false,"rental_uris":{"android":"levelo://app?vid=2419e4a8-5368-4528-9750-6ea567619e4e","ios":"levelo://app?vid=2419e4a8-5368-4528-9750-6ea567619e4e"},"vehicle_type_id":"4","last_reported":1705608450,"current_range_meters":3600,"station_id":"ce4bgkh2rcd13ifvqbk0","pricing_plan_id":"free"},{"bike_id":"ff8745ab-90ee-4cf6-920f-22f80debe4a4","system_id":"levelo_inurba_marseille","lat":43.303002,"lon":5.392142,"is_reserved":false,"is_disabled":false,"rental_uris":{"android":"levelo://app?vid=ff8745ab-90ee-4cf6-920f-22f80debe4a4","ios":"levelo://app?vid=ff8745ab-90ee-4cf6-920f-22f80debe4a4"},"vehicle_type_id":"4","last_reported":1705608450,"current_range_meters":800,"station_id":"ce4bgkh2rcd13ifvqbk0","pricing_plan_id":"free"},{"bike_id":"3430e308-3be9-4509-9141-b028d4f13f7f","system_id":"levelo_inurba_marseille","lat":43.2936,"lon":5.37835,"is_reserved":false,"is_disabled":false,"rental_uris":{"android":"levelo://app?vid=3430e308-3be9-4509-9141-b028d4f13f7f","ios":"levelo://app?vid=3430e308-3be9-4509-9141-b028d4f13f7f"},"vehicle_type_id":"4","last_reported":1705608450,"current_range_meters":6000,"station_id":"ce4bgjh2rcd13ifvqbf0","pricing_plan_id":"free"},{"bike_id":"8faf9049-bf84-4fc4-a671-3ca3a71f8a2e","system_id":"levelo_inurba_marseille","lat":43.292311,"lon":5.360731,"is_reserved":false,"is_disabled":false,"rental_uris":{"android":"levelo://app?vid=8faf9049-bf84-4fc4-a671-3ca3a71f8a2e","ios":"levelo://app?vid=8faf9049-bf84-4fc4-a671-3ca3a71f8a2e"},"vehicle_type_id":"4","last_reported":1705608450,"current_range_meters":22400,"station_id":"ce4bhbh2rcd13ifvqeqg","pricing_plan_id":"free"},{"bike_id":"08a44cd7-0ce0-4959-b051-17b998e9c14a","system_id":"levelo_inurba_marseille","lat":43.291675,"lon":5.371583,"is_reserved":false,"is_disabled":false,"rental_uris":{"android":"levelo://app?vid=08a44cd7-0ce0-4959-b051-17b998e9c14a","ios":"levelo://app?vid=08a44cd7-0ce0-4959-b051-17b998e9c14a"},"vehicle_type_id":"4","last_reported":1705608450,"current_range_meters":18800,"station_id":"ce4bha92rcd13ifvqeh0","pricing_plan_id":"free"},{"bike_id":"332fea0f-d9ae-4b58-8b5d-8645fcef4605","system_id":"levelo_inurba_marseille","lat":43.298764,"lon":5.388973,"is_reserved":false,"is_disabled":false,"rental_uris":{"android":"levelo://app?vid=332fea0f-d9ae-4b58-8b5d-8645fcef4605","ios":"levelo://app?vid=332fea0f-d9ae-4b58-8b5d-8645fcef4605"},"vehicle_type_id":"4","last_reported":1705608450,"current_range_meters":11600,"station_id":"ce4bh392rcd13ifvqdl0","pricing_plan_id":"free"},{"bike_id":"46c064f2-92a6-421d-b7d8-08fbffb39c7b","system_id":"levelo_inurba_marseille","lat":43.291677,"lon":5.371547,"is_reserved":false,"is_disabled":false,"rental_uris":{"android":"levelo://app?vid=46c064f2-92a6-421d-b7d8-08fbffb39c7b","ios":"levelo://app?vid=46c064f2-92a6-421d-b7d8-08fbffb39c7b"},"vehicle_type_id":"4","last_reported":1705608450,"current_range_meters":0,"station_id":"ce4bha92rcd13ifvqeh0","pricing_plan_id":"free"},{"bike_id":"302df6db-12d3-4f23-9609-59e6ec45ae52","system_id":"levelo_inurba_marseille","lat":43.291671,"lon":5.371575,"is_reserved":false,"is_disabled":false,"rental_uris":{"android":"levelo://app?vid=302df6db-12d3-4f23-9609-59e6ec45ae52","ios":"levelo://app?vid=302df6db-12d3-4f23-9609-59e6ec45ae52"},"vehicle_type_id":"4","last_reported":1705608450,"current_range_meters":30000,"station_id":"ce4bha92rcd13ifvqeh0","pricing_plan_id":"free"},{"bike_id":"a9024de0-0081-46eb-8271-58fc6ec0525b","system_id":"levelo_inurba_marseille","lat":43.291646,"lon":5.371689,"is_reserved":false,"is_disabled":false,"rental_uris":{"android":"levelo://app?vid=a9024de0-0081-46eb-8271-58fc6ec0525b","ios":"levelo://app?vid=a9024de0-0081-46eb-8271-58fc6ec0525b"},"vehicle_type_id":"4","last_reported":1705608450,"current_range_meters":4000,"station_id":"ce4bha92rcd13ifvqeh0","pricing_plan_id":"free"},{"bike_id":"b9abe1dc-c623-4ad6-aebe-aaa7b4a3e2c9","system_id":"levelo_inurba_marseille","lat":43.291675,"lon":5.371583,"is_reserved":false,"is_disabled":false,"rental_uris":{"android":"levelo://app?vid=b9abe1dc-c623-4ad6-aebe-aaa7b4a3e2c9","ios":"levelo://app?vid=b9abe1dc-c623-4ad6-aebe-aaa7b4a3e2c9"},"vehicle_type_id":"4","last_reported":1705608450,"current_range_meters":28000,"station_id":"ce4bha92rcd13ifvqeh0","pricing_plan_id":"free"},{"bike_id":"4c6b8085-8590-4f08-ad5a-0ff31570db80","system_id":"levelo_inurba_marseille","lat":43.2916,"lon":5.37168,"is_reserved":false,"is_disabled":false,"rental_uris":{"android":"levelo://app?vid=4c6b8085-8590-4f08-ad5a-0ff31570db80","ios":"levelo://app?vid=4c6b8085-8590-4f08-ad5a-0ff31570db80"},"vehicle_type_id":"4","last_reported":1705608450,"current_range_meters":14800,"station_id":"ce4bha92rcd13ifvqeh0","pricing_plan_id":"free"},{"bike_id":"ddd4d454-ea90-414c-97d8-42dcd032f391","system_id":"levelo_inurba_marseille","lat":43.291994,"lon":5.357886,"is_reserved":false,"is_disabled":false,"rental_uris":{"android":"levelo://app?vid=ddd4d454-ea90-414c-97d8-42dcd032f391","ios":"levelo://app?vid=ddd4d454-ea90-414c-97d8-42dcd032f391"},"vehicle_type_id":"4","last_reported":1705608450,"current_range_meters":11600,"station_id":"ce4bhb12rcd13ifvqel0","pricing_plan_id":"free"},{"bike_id":"213609db-390e-4c47-8f10-73bc26c2381e","system_id":"levelo_inurba_marseille","lat":43.31328,"lon":5.39687,"is_reserved":false,"is_disabled":false,"rental_uris":{"android":"levelo://app?vid=213609db-390e-4c47-8f10-73bc26c2381e","ios":"levelo://app?vid=213609db-390e-4c47-8f10-73bc26c2381e"},"vehicle_type_id":"4","last_reported":1705608450,"current_range_meters":3600,"station_id":"ce4bgvp2rcd13ifvqcu0","pricing_plan_id":"free"},{"bike_id":"0d2ac790-bf0e-4d0f-afac-94e23fec1e7b","system_id":"levelo_inurba_marseille","lat":43.308857,"lon":5.396403,"is_reserved":false,"is_disabled":false,"rental_uris":{"android":"levelo://app?vid=0d2ac790-bf0e-4d0f-afac-94e23fec1e7b","ios":"levelo://app?vid=0d2ac790-bf0e-4d0f-afac-94e23fec1e7b"},"vehicle_type_id":"4","last_reported":1705608450,"current_range_meters":7600,"station_id":"ce4bh012rcd13ifvqcv0","pricing_plan_id":"free"},{"bike_id":"3004f8da-b963-44a9-8675-da1ebb54d03c","system_id":"levelo_inurba_marseille","lat":43.308854,"lon":5.396427,"is_reserved":false,"is_disabled":false,"rental_uris":{"android":"levelo://app?vid=3004f8da-b963-44a9-8675-da1ebb54d03c","ios":"levelo://app?vid=3004f8da-b963-44a9-8675-da1ebb54d03c"},"vehicle_type_id":"4","last_reported":1705608450,"current_range_meters":25200,"station_id":"ce4bh012rcd13ifvqcv0","pricing_plan_id":"free"},{"bike_id":"d77a5bb5-6454-4a6b-a351-466b0d80fb3b","system_id":"levelo_inurba_marseille","lat":43.309038,"lon":5.396546,"is_reserved":false,"is_disabled":false,"rental_uris":{"android":"levelo://app?vid=d77a5bb5-6454-4a6b-a351-466b0d80fb3b","ios":"levelo://app?vid=d77a5bb5-6454-4a6b-a351-466b0d80fb3b"},"vehicle_type_id":"4","last_reported":1705608450,"current_range_meters":16800,"station_id":"ce4bh012rcd13ifvqcv0","pricing_plan_id":"free"},{"bike_id":"9d009762-8c58-41fe-a183-c357a039094f","system_id":"levelo_inurba_marseille","lat":43.309038,"lon":5.396546,"is_reserved":false,"is_disabled":false,"rental_uris":{"android":"levelo://app?vid=9d009762-8c58-41fe-a183-c357a039094f","ios":"levelo://app?vid=9d009762-8c58-41fe-a183-c357a039094f"},"vehicle_type_id":"4","last_reported":1705608450,"current_range_meters":0,"station_id":"ce4bh012rcd13ifvqcv0","pricing_plan_id":"free"},{"bike_id":"8cde4aaa-77e2-47be-ba44-0e16707ae91a","system_id":"levelo_inurba_marseille","lat":43.309038,"lon":5.396546,"is_reserved":false,"is_disabled":false,"rental_uris":{"android":"levelo://app?vid=8cde4aaa-77e2-47be-ba44-0e16707ae91a","ios":"levelo://app?vid=8cde4aaa-77e2-47be-ba44-0e16707ae91a"},"vehicle_type_id":"4","last_reported":1705608450,"current_range_meters":0,"station_id":"ce4bh012rcd13ifvqcv0","pricing_plan_id":"free"},{"bike_id":"3d585b65-7d64-40b4-8062-7664ab1c329f","system_id":"levelo_inurba_marseille","lat":43.295399,"lon":5.38545,"is_reserved":false,"is_disabled":false,"rental_uris":{"android":"levelo://app?vid=3d585b65-7d64-40b4-8062-7664ab1c329f","ios":"levelo://app?vid=3d585b65-7d64-40b4-8062-7664ab1c329f"},"vehicle_type_id":"4","last_reported":1705608450,"current_range_meters":0,"station_id":"ce4bgih2rcd13ifvqba0","pricing_plan_id":"free"},{"bike_id":"afe6269e-d6ee-4227-8b00-a9e48a97b694","system_id":"levelo_inurba_marseille","lat":43.29536,"lon":5.38552,"is_reserved":false,"is_disabled":false,"rental_uris":{"android":"levelo://app?vid=afe6269e-d6ee-4227-8b00-a9e48a97b694","ios":"levelo://app?vid=afe6269e-d6ee-4227-8b00-a9e48a97b694"},"vehicle_type_id":"4","last_reported":1705608450,"current_range_meters":0,"station_id":"ce4bgih2rcd13ifvqba0","pricing_plan_id":"free"},{"bike_id":"0120f1a1-62cc-4d41-8b8a-eb02a891b6e6","system_id":"levelo_inurba_marseille","lat":43.290779,"lon":5.371482,"is_reserved":false,"is_disabled":false,"rental_uris":{"android":"levelo://app?vid=0120f1a1-62cc-4d41-8b8a-eb02a891b6e6","ios":"levelo://app?vid=0120f1a1-62cc-4d41-8b8a-eb02a891b6e6"},"vehicle_type_id":"4","last_reported":1705608450,"current_range_meters":30400,"station_id":"ce4bh5p2rcd13ifvqe4g","pricing_plan_id":"free"},{"bike_id":"421e85ec-e21a-4d55-9296-7feecba310d9","system_id":"levelo_inurba_marseille","lat":43.290779,"lon":5.371482,"is_reserved":false,"is_disabled":false,"rental_uris":{"android":"levelo://app?vid=421e85ec-e21a-4d55-9296-7feecba310d9","ios":"levelo://app?vid=421e85ec-e21a-4d55-9296-7feecba310d9"},"vehicle_type_id":"4","last_reported":1705608450,"current_range_meters":20400,"station_id":"ce4bh5p2rcd13ifvqe4g","pricing_plan_id":"free"},{"bike_id":"0599bc9d-4078-4109-b807-20b2412ed5e0","system_id":"levelo_inurba_marseille","lat":43.290779,"lon":5.371482,"is_reserved":false,"is_disabled":false,"rental_uris":{"android":"levelo://app?vid=0599bc9d-4078-4109-b807-20b2412ed5e0","ios":"levelo://app?vid=0599bc9d-4078-4109-b807-20b2412ed5e0"},"vehicle_type_id":"4","last_reported":1705608450,"current_range_meters":0,"station_id":"ce4bh5p2rcd13ifvqe4g","pricing_plan_id":"free"},{"bike_id":"688b0771-a00e-4c49-8ff1-348a7e81da48","system_id":"levelo_inurba_marseille","lat":43.302008,"lon":5.394694,"is_reserved":false,"is_disabled":false,"rental_uris":{"android":"levelo://app?vid=688b0771-a00e-4c49-8ff1-348a7e81da48","ios":"levelo://app?vid=688b0771-a00e-4c49-8ff1-348a7e81da48"},"vehicle_type_id":"4","last_reported":1705608450,"current_range_meters":8400,"station_id":"ce4bh0p2rcd13ifvqd70","pricing_plan_id":"free"},{"bike_id":"95c03b3e-fcc8-462a-8c9a-a339badefa89","system_id":"levelo_inurba_marseille","lat":43.290631,"lon":5.359244,"is_reserved":false,"is_disabled":false,"rental_uris":{"android":"levelo://app?vid=95c03b3e-fcc8-462a-8c9a-a339badefa89","ios":"levelo://app?vid=95c03b3e-fcc8-462a-8c9a-a339badefa89"},"vehicle_type_id":"4","last_reported":1705608450,"current_range_meters":15600,"station_id":"ce4bha92rcd13ifvqeg0","pricing_plan_id":"free"},{"bike_id":"98bec463-93ef-44bc-b001-2bfb99a33a51","system_id":"levelo_inurba_marseille","lat":43.290631,"lon":5.359244,"is_reserved":false,"is_disabled":false,"rental_uris":{"android":"levelo://app?vid=98bec463-93ef-44bc-b001-2bfb99a33a51","ios":"levelo://app?vid=98bec463-93ef-44bc-b001-2bfb99a33a51"},"vehicle_type_id":"4","last_reported":1705608450,"current_range_meters":4000,"station_id":"ce4bha92rcd13ifvqeg0","pricing_plan_id":"free"},{"bike_id":"9031fe27-1151-4f5d-8a85-1c6aad33c7cf","system_id":"levelo_inurba_marseille","lat":43.290631,"lon":5.359244,"is_reserved":false,"is_disabled":false,"rental_uris":{"android":"levelo://app?vid=9031fe27-1151-4f5d-8a85-1c6aad33c7cf","ios":"levelo://app?vid=9031fe27-1151-4f5d-8a85-1c6aad33c7cf"},"vehicle_type_id":"4","last_reported":1705608450,"current_range_meters":12800,"station_id":"ce4bha92rcd13ifvqeg0","pricing_plan_id":"free"},{"bike_id":"e209eef7-191d-4cc3-8737-a005f58c16b2","system_id":"levelo_inurba_marseille","lat":43.29423,"lon":5.38615,"is_reserved":false,"is_disabled":false,"rental_uris":{"android":"levelo://app?vid=e209eef7-191d-4cc3-8737-a005f58c16b2","ios":"levelo://app?vid=e209eef7-191d-4cc3-8737-a005f58c16b2"},"vehicle_type_id":"4","last_reported":1705608450,"current_range_meters":0,"station_id":"ce4bh2h2rcd13ifvqdh0","pricing_plan_id":"free"},{"bike_id":"86d959af-06b9-4980-a4a3-e9fb0d8f9646","system_id":"levelo_inurba_marseille","lat":43.294153,"lon":5.386305,"is_reserved":false,"is_disabled":false,"rental_uris":{"android":"levelo://app?vid=86d959af-06b9-4980-a4a3-e9fb0d8f9646","ios":"levelo://app?vid=86d959af-06b9-4980-a4a3-e9fb0d8f9646"},"vehicle_type_id":"4","last_reported":1705608450,"current_range_meters":4800,"station_id":"ce4bh2h2rcd13ifvqdh0","pricing_plan_id":"free"},{"bike_id":"1356e342-72f1-4195-af3f-61405049bf6d","system_id":"levelo_inurba_marseille","lat":43.289474,"lon":5.36637,"is_reserved":false,"is_disabled":false,"rental_uris":{"android":"levelo://app?vid=1356e342-72f1-4195-af3f-61405049bf6d","ios":"levelo://app?vid=1356e342-72f1-4195-af3f-61405049bf6d"},"vehicle_type_id":"4","last_reported":1705608450,"current_range_meters":0,"station_id":"ce4bhap2rcd13ifvqek0","pricing_plan_id":"free"},{"bike_id":"cca6c99e-bc80-49e1-afe4-1d9a511877d2","system_id":"levelo_inurba_marseille","lat":43.294153,"lon":5.386305,"is_reserved":false,"is_disabled":false,"rental_uris":{"android":"levelo://app?vid=cca6c99e-bc80-49e1-afe4-1d9a511877d2","ios":"levelo://app?vid=cca6c99e-bc80-49e1-afe4-1d9a511877d2"},"vehicle_type_id":"4","last_reported":1705608450,"current_range_meters":20800,"station_id":"ce4bh2h2rcd13ifvqdh0","pricing_plan_id":"free"},{"bike_id":"043a8d83-1724-4e76-9ba9-008f5b388f49","system_id":"levelo_inurba_marseille","lat":43.289184,"lon":5.366408,"is_reserved":false,"is_disabled":false,"rental_uris":{"android":"levelo://app?vid=043a8d83-1724-4e76-9ba9-008f5b388f49","ios":"levelo://app?vid=043a8d83-1724-4e76-9ba9-008f5b388f49"},"vehicle_type_id":"4","last_reported":1705608450,"current_range_meters":800,"station_id":"ce4bhap2rcd13ifvqek0","pricing_plan_id":"free"},{"bike_id":"7f922c0e-0c07-41b9-862b-196267bc2589","system_id":"levelo_inurba_marseille","lat":43.289184,"lon":5.366408,"is_reserved":false,"is_disabled":false,"rental_uris":{"android":"levelo://app?vid=7f922c0e-0c07-41b9-862b-196267bc2589","ios":"levelo://app?vid=7f922c0e-0c07-41b9-862b-196267bc2589"},"vehicle_type_id":"4","last_reported":1705608450,"current_range_meters":9600,"station_id":"ce4bhap2rcd13ifvqek0","pricing_plan_id":"free"},{"bike_id":"8a2838c4-c54a-4101-b803-7ac0702a632f","system_id":"levelo_inurba_marseille","lat":43.289184,"lon":5.366408,"is_reserved":false,"is_disabled":false,"rental_uris":{"android":"levelo://app?vid=8a2838c4-c54a-4101-b803-7ac0702a632f","ios":"levelo://app?vid=8a2838c4-c54a-4101-b803-7ac0702a632f"},"vehicle_type_id":"4","last_reported":1705608450,"current_range_meters":0,"station_id":"ce4bhap2rcd13ifvqek0","pricing_plan_id":"free"},{"bike_id":"555eced7-04d1-4b9a-abec-c7dca0a01873","system_id":"levelo_inurba_marseille","lat":43.289184,"lon":5.366408,"is_reserved":false,"is_disabled":false,"rental_uris":{"android":"levelo://app?vid=555eced7-04d1-4b9a-abec-c7dca0a01873","ios":"levelo://app?vid=555eced7-04d1-4b9a-abec-c7dca0a01873"},"vehicle_type_id":"4","last_reported":1705608450,"current_range_meters":26800,"station_id":"ce4bhap2rcd13ifvqek0","pricing_plan_id":"free"},{"bike_id":"2c551d93-311e-456f-9bbf-df3fd1ae5236","system_id":"levelo_inurba_marseille","lat":43.289184,"lon":5.366408,"is_reserved":false,"is_disabled":false,"rental_uris":{"android":"levelo://app?vid=2c551d93-311e-456f-9bbf-df3fd1ae5236","ios":"levelo://app?vid=2c551d93-311e-456f-9bbf-df3fd1ae5236"},"vehicle_type_id":"4","last_reported":1705608450,"current_range_meters":26400,"station_id":"ce4bhap2rcd13ifvqek0","pricing_plan_id":"free"},{"bike_id":"0992cecd-0ebb-4850-846e-72325fc5903b","system_id":"levelo_inurba_marseille","lat":43.28942,"lon":5.36387,"is_reserved":false,"is_disabled":false,"rental_uris":{"android":"levelo://app?vid=0992cecd-0ebb-4850-846e-72325fc5903b","ios":"levelo://app?vid=0992cecd-0ebb-4850-846e-72325fc5903b"},"vehicle_type_id":"4","last_reported":1705608450,"current_range_meters":0,"station_id":"ce4bhc92rcd13ifvqetg","pricing_plan_id":"free"},{"bike_id":"ec55dc29-bb55-4a7c-83f2-6e988bcb5b16","system_id":"levelo_inurba_marseille","lat":43.289184,"lon":5.366408,"is_reserved":false,"is_disabled":false,"rental_uris":{"android":"levelo://app?vid=ec55dc29-bb55-4a7c-83f2-6e988bcb5b16","ios":"levelo://app?vid=ec55dc29-bb55-4a7c-83f2-6e988bcb5b16"},"vehicle_type_id":"4","last_reported":1705608450,"current_range_meters":20000,"station_id":"ce4bhap2rcd13ifvqek0","pricing_plan_id":"free"},{"bike_id":"661f1c1b-2d52-4ddf-9298-2f84ec32139d","system_id":"levelo_inurba_marseille","lat":43.289468,"lon":5.363719,"is_reserved":false,"is_disabled":false,"rental_uris":{"android":"levelo://app?vid=661f1c1b-2d52-4ddf-9298-2f84ec32139d","ios":"levelo://app?vid=661f1c1b-2d52-4ddf-9298-2f84ec32139d"},"vehicle_type_id":"4","last_reported":1705608450,"current_range_meters":0,"station_id":"ce4bhc92rcd13ifvqetg","pricing_plan_id":"free"},{"bike_id":"4120f14f-22ad-4d7f-92ce-a819de3eeccc","system_id":"levelo_inurba_marseille","lat":43.292644,"lon":5.384257,"is_reserved":false,"is_disabled":false,"rental_uris":{"android":"levelo://app?vid=4120f14f-22ad-4d7f-92ce-a819de3eeccc","ios":"levelo://app?vid=4120f14f-22ad-4d7f-92ce-a819de3eeccc"},"vehicle_type_id":"4","last_reported":1705608450,"current_range_meters":2400,"station_id":"ce4bh692rcd13ifvqea0","pricing_plan_id":"free"},{"bike_id":"3f578b4f-d66d-48e3-a7da-22de8286c97a","system_id":"levelo_inurba_marseille","lat":43.292644,"lon":5.384257,"is_reserved":false,"is_disabled":false,"rental_uris":{"android":"levelo://app?vid=3f578b4f-d66d-48e3-a7da-22de8286c97a","ios":"levelo://app?vid=3f578b4f-d66d-48e3-a7da-22de8286c97a"},"vehicle_type_id":"4","last_reported":1705608450,"current_range_meters":0,"station_id":"ce4bh692rcd13ifvqea0","pricing_plan_id":"free"},{"bike_id":"be8b7313-d664-499c-a9fa-404f85f59a6d","system_id":"levelo_inurba_marseille","lat":43.304296,"lon":5.397513,"is_reserved":false,"is_disabled":false,"rental_uris":{"android":"levelo://app?vid=be8b7313-d664-499c-a9fa-404f85f59a6d","ios":"levelo://app?vid=be8b7313-d664-499c-a9fa-404f85f59a6d"},"vehicle_type_id":"4","last_reported":1705608450,"current_range_meters":6400,"station_id":"ce4bh092rcd13ifvqd20","pricing_plan_id":"free"},{"bike_id":"b9f564b9-2b1d-42a9-ba5f-664167e2e0a8","system_id":"levelo_inurba_marseille","lat":43.292644,"lon":5.384257,"is_reserved":false,"is_disabled":false,"rental_uris":{"android":"levelo://app?vid=b9f564b9-2b1d-42a9-ba5f-664167e2e0a8","ios":"levelo://app?vid=b9f564b9-2b1d-42a9-ba5f-664167e2e0a8"},"vehicle_type_id":"4","last_reported":1705608450,"current_range_meters":20000,"station_id":"ce4bh692rcd13ifvqea0","pricing_plan_id":"free"},{"bike_id":"2c3312c9-0c34-44ed-a915-3a795ef386f4","system_id":"levelo_inurba_marseille","lat":43.29264,"lon":5.38441,"is_reserved":false,"is_disabled":false,"rental_uris":{"android":"levelo://app?vid=2c3312c9-0c34-44ed-a915-3a795ef386f4","ios":"levelo://app?vid=2c3312c9-0c34-44ed-a915-3a795ef386f4"},"vehicle_type_id":"4","last_reported":1705608450,"current_range_meters":13600,"station_id":"ce4bh692rcd13ifvqea0","pricing_plan_id":"free"},{"bike_id":"3a321751-2ee9-44e9-bfb7-cc17b2e889d1","system_id":"levelo_inurba_marseille","lat":43.29265,"lon":5.38444,"is_reserved":false,"is_disabled":false,"rental_uris":{"android":"levelo://app?vid=3a321751-2ee9-44e9-bfb7-cc17b2e889d1","ios":"levelo://app?vid=3a321751-2ee9-44e9-bfb7-cc17b2e889d1"},"vehicle_type_id":"4","last_reported":1705608450,"current_range_meters":0,"station_id":"ce4bh692rcd13ifvqea0","pricing_plan_id":"free"},{"bike_id":"e3eed71c-bd2a-4097-8593-4d54c06dbbab","system_id":"levelo_inurba_marseille","lat":43.29264,"lon":5.38442,"is_reserved":false,"is_disabled":false,"rental_uris":{"android":"levelo://app?vid=e3eed71c-bd2a-4097-8593-4d54c06dbbab","ios":"levelo://app?vid=e3eed71c-bd2a-4097-8593-4d54c06dbbab"},"vehicle_type_id":"4","last_reported":1705608450,"current_range_meters":11200,"station_id":"ce4bh692rcd13ifvqea0","pricing_plan_id":"free"},{"bike_id":"b57d7227-4e3f-4de4-92c1-9f60f2c3280f","system_id":"levelo_inurba_marseille","lat":43.292644,"lon":5.384257,"is_reserved":false,"is_disabled":false,"rental_uris":{"android":"levelo://app?vid=b57d7227-4e3f-4de4-92c1-9f60f2c3280f","ios":"levelo://app?vid=b57d7227-4e3f-4de4-92c1-9f60f2c3280f"},"vehicle_type_id":"4","last_reported":1705608450,"current_range_meters":12400,"station_id":"ce4bh692rcd13ifvqea0","pricing_plan_id":"free"},{"bike_id":"073e3d6c-67b2-43d8-9a08-8bd93aff8647","system_id":"levelo_inurba_marseille","lat":43.290104,"lon":5.356111,"is_reserved":false,"is_disabled":false,"rental_uris":{"android":"levelo://app?vid=073e3d6c-67b2-43d8-9a08-8bd93aff8647","ios":"levelo://app?vid=073e3d6c-67b2-43d8-9a08-8bd93aff8647"},"vehicle_type_id":"4","last_reported":1705608450,"current_range_meters":28800,"station_id":"ce4bhb92rcd13ifvqen0","pricing_plan_id":"free"},{"bike_id":"1352c823-ab6b-432f-a165-ac42b9f2d957","system_id":"levelo_inurba_marseille","lat":43.290103,"lon":5.356114,"is_reserved":false,"is_disabled":false,"rental_uris":{"android":"levelo://app?vid=1352c823-ab6b-432f-a165-ac42b9f2d957","ios":"levelo://app?vid=1352c823-ab6b-432f-a165-ac42b9f2d957"},"vehicle_type_id":"4","last_reported":1705608450,"current_range_meters":8400,"station_id":"ce4bhb92rcd13ifvqen0","pricing_plan_id":"free"},{"bike_id":"f42e7899-bc2a-4d51-b223-64c7ca7a0680","system_id":"levelo_inurba_marseille","lat":43.29008,"lon":5.35608,"is_reserved":false,"is_disabled":false,"rental_uris":{"android":"levelo://app?vid=f42e7899-bc2a-4d51-b223-64c7ca7a0680","ios":"levelo://app?vid=f42e7899-bc2a-4d51-b223-64c7ca7a0680"},"vehicle_type_id":"4","last_reported":1705608450,"current_range_meters":3200,"station_id":"ce4bhb92rcd13ifvqen0","pricing_plan_id":"free"},{"bike_id":"ca7e8357-57c3-4ee5-a9f1-11c5184d0ee3","system_id":"levelo_inurba_marseille","lat":43.29005,"lon":5.35605,"is_reserved":false,"is_disabled":false,"rental_uris":{"android":"levelo://app?vid=ca7e8357-57c3-4ee5-a9f1-11c5184d0ee3","ios":"levelo://app?vid=ca7e8357-57c3-4ee5-a9f1-11c5184d0ee3"},"vehicle_type_id":"4","last_reported":1705608450,"current_range_meters":15200,"station_id":"ce4bhb92rcd13ifvqen0","pricing_plan_id":"free"},{"bike_id":"747b98b7-8562-41f6-84c4-e056f67d9a9c","system_id":"levelo_inurba_marseille","lat":43.290103,"lon":5.356114,"is_reserved":false,"is_disabled":false,"rental_uris":{"android":"levelo://app?vid=747b98b7-8562-41f6-84c4-e056f67d9a9c","ios":"levelo://app?vid=747b98b7-8562-41f6-84c4-e056f67d9a9c"},"vehicle_type_id":"4","last_reported":1705608450,"current_range_meters":2800,"station_id":"ce4bhb92rcd13ifvqen0","pricing_plan_id":"free"},{"bike_id":"46dea2b7-cc72-4552-90fb-e0c7134b4e46","system_id":"levelo_inurba_marseille","lat":43.290104,"lon":5.356111,"is_reserved":false,"is_disabled":false,"rental_uris":{"android":"levelo://app?vid=46dea2b7-cc72-4552-90fb-e0c7134b4e46","ios":"levelo://app?vid=46dea2b7-cc72-4552-90fb-e0c7134b4e46"},"vehicle_type_id":"4","last_reported":1705608450,"current_range_meters":4000,"station_id":"ce4bhb92rcd13ifvqen0","pricing_plan_id":"free"},{"bike_id":"8c11a107-10fa-4bc9-8aaa-1a9471e69d16","system_id":"levelo_inurba_marseille","lat":43.290995,"lon":5.381361,"is_reserved":false,"is_disabled":false,"rental_uris":{"android":"levelo://app?vid=8c11a107-10fa-4bc9-8aaa-1a9471e69d16","ios":"levelo://app?vid=8c11a107-10fa-4bc9-8aaa-1a9471e69d16"},"vehicle_type_id":"4","last_reported":1705608450,"current_range_meters":24400,"station_id":"ce4bh512rcd13ifvqe2g","pricing_plan_id":"free"},{"bike_id":"424137c9-fc72-4def-b616-bdeb67674b59","system_id":"levelo_inurba_marseille","lat":43.290995,"lon":5.381361,"is_reserved":false,"is_disabled":false,"rental_uris":{"android":"levelo://app?vid=424137c9-fc72-4def-b616-bdeb67674b59","ios":"levelo://app?vid=424137c9-fc72-4def-b616-bdeb67674b59"},"vehicle_type_id":"4","last_reported":1705608450,"current_range_meters":31200,"station_id":"ce4bh512rcd13ifvqe2g","pricing_plan_id":"free"},{"bike_id":"f0ceb732-976c-45d8-b403-49a3668a32ba","system_id":"levelo_inurba_marseille","lat":43.29793,"lon":5.393317,"is_reserved":false,"is_disabled":false,"rental_uris":{"android":"levelo://app?vid=f0ceb732-976c-45d8-b403-49a3668a32ba","ios":"levelo://app?vid=f0ceb732-976c-45d8-b403-49a3668a32ba"},"vehicle_type_id":"4","last_reported":1705608450,"current_range_meters":13600,"station_id":"chh1huq6cuj3fo74tm60","pricing_plan_id":"free"},{"bike_id":"ebcf3440-ed4a-428f-a3c1-963566c1977a","system_id":"levelo_inurba_marseille","lat":43.28987,"lon":5.378243,"is_reserved":false,"is_disabled":false,"rental_uris":{"android":"levelo://app?vid=ebcf3440-ed4a-428f-a3c1-963566c1977a","ios":"levelo://app?vid=ebcf3440-ed4a-428f-a3c1-963566c1977a"},"vehicle_type_id":"4","last_reported":1705608450,"current_range_meters":0,"station_id":"ce4bh9p2rcd13ifvqed0","pricing_plan_id":"free"},{"bike_id":"43292b05-bcb4-4003-bf47-8854c57a1d60","system_id":"levelo_inurba_marseille","lat":43.295169,"lon":5.390426,"is_reserved":false,"is_disabled":false,"rental_uris":{"android":"levelo://app?vid=43292b05-bcb4-4003-bf47-8854c57a1d60","ios":"levelo://app?vid=43292b05-bcb4-4003-bf47-8854c57a1d60"},"vehicle_type_id":"4","last_reported":1705608450,"current_range_meters":0,"station_id":"ce4bh3p2rcd13ifvqdp0","pricing_plan_id":"free"},{"bike_id":"c1ab5cce-9277-4a55-b5f0-4d3174d399b1","system_id":"levelo_inurba_marseille","lat":43.295169,"lon":5.390426,"is_reserved":false,"is_disabled":false,"rental_uris":{"android":"levelo://app?vid=c1ab5cce-9277-4a55-b5f0-4d3174d399b1","ios":"levelo://app?vid=c1ab5cce-9277-4a55-b5f0-4d3174d399b1"},"vehicle_type_id":"4","last_reported":1705608450,"current_range_meters":19600,"station_id":"ce4bh3p2rcd13ifvqdp0","pricing_plan_id":"free"},{"bike_id":"e6f8c567-142c-4e0c-b27f-96103a7669be","system_id":"levelo_inurba_marseille","lat":43.330442,"lon":5.389148,"is_reserved":false,"is_disabled":false,"rental_uris":{"android":"levelo://app?vid=e6f8c567-142c-4e0c-b27f-96103a7669be","ios":"levelo://app?vid=e6f8c567-142c-4e0c-b27f-96103a7669be"},"vehicle_type_id":"4","last_reported":1705608450,"current_range_meters":21600,"station_id":"ce4bhr92rcd13ifvqhrg","pricing_plan_id":"free"},{"bike_id":"032ab1f7-a406-4e66-b5c8-0c1d8f0b810c","system_id":"levelo_inurba_marseille","lat":43.330442,"lon":5.389148,"is_reserved":false,"is_disabled":false,"rental_uris":{"android":"levelo://app?vid=032ab1f7-a406-4e66-b5c8-0c1d8f0b810c","ios":"levelo://app?vid=032ab1f7-a406-4e66-b5c8-0c1d8f0b810c"},"vehicle_type_id":"4","last_reported":1705608450,"current_range_meters":1200,"station_id":"ce4bhr92rcd13ifvqhrg","pricing_plan_id":"free"},{"bike_id":"3c6cd8da-dbcd-4568-a57b-a4874ba428f8","system_id":"levelo_inurba_marseille","lat":43.330442,"lon":5.389148,"is_reserved":false,"is_disabled":false,"rental_uris":{"android":"levelo://app?vid=3c6cd8da-dbcd-4568-a57b-a4874ba428f8","ios":"levelo://app?vid=3c6cd8da-dbcd-4568-a57b-a4874ba428f8"},"vehicle_type_id":"4","last_reported":1705608450,"current_range_meters":18400,"station_id":"ce4bhr92rcd13ifvqhrg","pricing_plan_id":"free"},{"bike_id":"c4c1a8fb-9c1f-44ab-afcd-5d539332ffb6","system_id":"levelo_inurba_marseille","lat":43.33023,"lon":5.39042,"is_reserved":false,"is_disabled":false,"rental_uris":{"android":"levelo://app?vid=c4c1a8fb-9c1f-44ab-afcd-5d539332ffb6","ios":"levelo://app?vid=c4c1a8fb-9c1f-44ab-afcd-5d539332ffb6"},"vehicle_type_id":"4","last_reported":1705608450,"current_range_meters":22400,"station_id":"ce4bhr92rcd13ifvqhrg","pricing_plan_id":"free"},{"bike_id":"ee49ddb1-ce74-4103-8bec-faabf648a4b3","system_id":"levelo_inurba_marseille","lat":43.2901,"lon":5.381269,"is_reserved":false,"is_disabled":false,"rental_uris":{"android":"levelo://app?vid=ee49ddb1-ce74-4103-8bec-faabf648a4b3","ios":"levelo://app?vid=ee49ddb1-ce74-4103-8bec-faabf648a4b3"},"vehicle_type_id":"4","last_reported":1705608450,"current_range_meters":5200,"station_id":"ce4bh4p2rcd13ifvqe1g","pricing_plan_id":"free"},{"bike_id":"59d5b6d6-192d-440e-8c03-c55e203d0183","system_id":"levelo_inurba_marseille","lat":43.29019,"lon":5.38151,"is_reserved":false,"is_disabled":false,"rental_uris":{"android":"levelo://app?vid=59d5b6d6-192d-440e-8c03-c55e203d0183","ios":"levelo://app?vid=59d5b6d6-192d-440e-8c03-c55e203d0183"},"vehicle_type_id":"4","last_reported":1705608450,"current_range_meters":0,"station_id":"ce4bh4p2rcd13ifvqe1g","pricing_plan_id":"free"},{"bike_id":"77037a61-cc76-45d5-923b-e3bc37647b0d","system_id":"levelo_inurba_marseille","lat":43.28856,"lon":5.358371,"is_reserved":false,"is_disabled":false,"rental_uris":{"android":"levelo://app?vid=77037a61-cc76-45d5-923b-e3bc37647b0d","ios":"levelo://app?vid=77037a61-cc76-45d5-923b-e3bc37647b0d"},"vehicle_type_id":"4","last_reported":1705608450,"current_range_meters":26400,"station_id":"ce4bhb12rcd13ifvqem0","pricing_plan_id":"free"},{"bike_id":"6623b972-b2b8-4c9e-8b05-9b8181603808","system_id":"levelo_inurba_marseille","lat":43.28856,"lon":5.358371,"is_reserved":false,"is_disabled":false,"rental_uris":{"android":"levelo://app?vid=6623b972-b2b8-4c9e-8b05-9b8181603808","ios":"levelo://app?vid=6623b972-b2b8-4c9e-8b05-9b8181603808"},"vehicle_type_id":"4","last_reported":1705608450,"current_range_meters":10000,"station_id":"ce4bhb12rcd13ifvqem0","pricing_plan_id":"free"},{"bike_id":"518341f3-1f8e-4340-8bca-7a2415b96b1c","system_id":"levelo_inurba_marseille","lat":43.28856,"lon":5.358371,"is_reserved":false,"is_disabled":false,"rental_uris":{"android":"levelo://app?vid=518341f3-1f8e-4340-8bca-7a2415b96b1c","ios":"levelo://app?vid=518341f3-1f8e-4340-8bca-7a2415b96b1c"},"vehicle_type_id":"4","last_reported":1705608450,"current_range_meters":25200,"station_id":"ce4bhb12rcd13ifvqem0","pricing_plan_id":"free"},{"bike_id":"51e5a9f1-8119-4d03-ac5a-9b9149de3312","system_id":"levelo_inurba_marseille","lat":43.290336,"lon":5.386425,"is_reserved":false,"is_disabled":false,"rental_uris":{"android":"levelo://app?vid=51e5a9f1-8119-4d03-ac5a-9b9149de3312","ios":"levelo://app?vid=51e5a9f1-8119-4d03-ac5a-9b9149de3312"},"vehicle_type_id":"4","last_reported":1705608450,"current_range_meters":20800,"station_id":"ce4bh4p2rcd13ifvqe0g","pricing_plan_id":"free"},{"bike_id":"2ddbd7d6-274d-4fd2-b86e-7165c5b8cac3","system_id":"levelo_inurba_marseille","lat":43.30938,"lon":5.40135,"is_reserved":false,"is_disabled":false,"rental_uris":{"android":"levelo://app?vid=2ddbd7d6-274d-4fd2-b86e-7165c5b8cac3","ios":"levelo://app?vid=2ddbd7d6-274d-4fd2-b86e-7165c5b8cac3"},"vehicle_type_id":"4","last_reported":1705608450,"current_range_meters":0,"station_id":"ce4bgvp2rcd13ifvqct0","pricing_plan_id":"free"},{"bike_id":"99166403-6eba-4591-82d0-5ea93819bd81","system_id":"levelo_inurba_marseille","lat":43.312609,"lon":5.401662,"is_reserved":false,"is_disabled":false,"rental_uris":{"android":"levelo://app?vid=99166403-6eba-4591-82d0-5ea93819bd81","ios":"levelo://app?vid=99166403-6eba-4591-82d0-5ea93819bd81"},"vehicle_type_id":"4","last_reported":1705608450,"current_range_meters":0,"station_id":"ce4bh092rcd13ifvqd30","pricing_plan_id":"free"},{"bike_id":"c273cb8e-881d-4208-8604-e1ef6e5be63f","system_id":"levelo_inurba_marseille","lat":43.309316,"lon":5.401379,"is_reserved":false,"is_disabled":false,"rental_uris":{"android":"levelo://app?vid=c273cb8e-881d-4208-8604-e1ef6e5be63f","ios":"levelo://app?vid=c273cb8e-881d-4208-8604-e1ef6e5be63f"},"vehicle_type_id":"4","last_reported":1705608450,"current_range_meters":0,"station_id":"ce4bgvp2rcd13ifvqct0","pricing_plan_id":"free"},{"bike_id":"95b94328-b316-4d4e-9d50-27fce67cb70d","system_id":"levelo_inurba_marseille","lat":43.312609,"lon":5.401662,"is_reserved":false,"is_disabled":false,"rental_uris":{"android":"levelo://app?vid=95b94328-b316-4d4e-9d50-27fce67cb70d","ios":"levelo://app?vid=95b94328-b316-4d4e-9d50-27fce67cb70d"},"vehicle_type_id":"4","last_reported":1705608450,"current_range_meters":17600,"station_id":"ce4bh092rcd13ifvqd30","pricing_plan_id":"free"},{"bike_id":"c496d243-a591-4661-bcc9-76957c64ef7d","system_id":"levelo_inurba_marseille","lat":43.312609,"lon":5.401662,"is_reserved":false,"is_disabled":false,"rental_uris":{"android":"levelo://app?vid=c496d243-a591-4661-bcc9-76957c64ef7d","ios":"levelo://app?vid=c496d243-a591-4661-bcc9-76957c64ef7d"},"vehicle_type_id":"4","last_reported":1705608450,"current_range_meters":5600,"station_id":"ce4bh092rcd13ifvqd30","pricing_plan_id":"free"},{"bike_id":"8cea661b-0b29-40c2-8649-57daa541d8d5","system_id":"levelo_inurba_marseille","lat":43.312609,"lon":5.401662,"is_reserved":false,"is_disabled":false,"rental_uris":{"android":"levelo://app?vid=8cea661b-0b29-40c2-8649-57daa541d8d5","ios":"levelo://app?vid=8cea661b-0b29-40c2-8649-57daa541d8d5"},"vehicle_type_id":"4","last_reported":1705608450,"current_range_meters":15600,"station_id":"ce4bh092rcd13ifvqd30","pricing_plan_id":"free"},{"bike_id":"e2feb5f0-56bd-4604-9ddd-d57cb3fb6234","system_id":"levelo_inurba_marseille","lat":43.312609,"lon":5.401662,"is_reserved":false,"is_disabled":false,"rental_uris":{"android":"levelo://app?vid=e2feb5f0-56bd-4604-9ddd-d57cb3fb6234","ios":"levelo://app?vid=e2feb5f0-56bd-4604-9ddd-d57cb3fb6234"},"vehicle_type_id":"4","last_reported":1705608450,"current_range_meters":13200,"station_id":"ce4bh092rcd13ifvqd30","pricing_plan_id":"free"},{"bike_id":"15a5853c-9e78-489a-bfcb-7f37cd323e4c","system_id":"levelo_inurba_marseille","lat":43.312609,"lon":5.401662,"is_reserved":false,"is_disabled":false,"rental_uris":{"android":"levelo://app?vid=15a5853c-9e78-489a-bfcb-7f37cd323e4c","ios":"levelo://app?vid=15a5853c-9e78-489a-bfcb-7f37cd323e4c"},"vehicle_type_id":"4","last_reported":1705608450,"current_range_meters":15200,"station_id":"ce4bh092rcd13ifvqd30","pricing_plan_id":"free"},{"bike_id":"bbbb54fe-2562-497c-874e-effe5d33d6de","system_id":"levelo_inurba_marseille","lat":43.309371,"lon":5.401449,"is_reserved":false,"is_disabled":false,"rental_uris":{"android":"levelo://app?vid=bbbb54fe-2562-497c-874e-effe5d33d6de","ios":"levelo://app?vid=bbbb54fe-2562-497c-874e-effe5d33d6de"},"vehicle_type_id":"4","last_reported":1705608450,"current_range_meters":22400,"station_id":"ce4bgvp2rcd13ifvqct0","pricing_plan_id":"free"},{"bike_id":"75b5c782-a2c8-4e03-b554-93bfd9e73f45","system_id":"levelo_inurba_marseille","lat":43.31272,"lon":5.4018,"is_reserved":false,"is_disabled":false,"rental_uris":{"android":"levelo://app?vid=75b5c782-a2c8-4e03-b554-93bfd9e73f45","ios":"levelo://app?vid=75b5c782-a2c8-4e03-b554-93bfd9e73f45"},"vehicle_type_id":"4","last_reported":1705608450,"current_range_meters":0,"station_id":"ce4bh092rcd13ifvqd30","pricing_plan_id":"free"},{"bike_id":"63098865-f764-4a81-a2cc-f11b7da5dedb","system_id":"levelo_inurba_marseille","lat":43.309371,"lon":5.401449,"is_reserved":false,"is_disabled":false,"rental_uris":{"android":"levelo://app?vid=63098865-f764-4a81-a2cc-f11b7da5dedb","ios":"levelo://app?vid=63098865-f764-4a81-a2cc-f11b7da5dedb"},"vehicle_type_id":"4","last_reported":1705608450,"current_range_meters":2400,"station_id":"ce4bgvp2rcd13ifvqct0","pricing_plan_id":"free"},{"bike_id":"6a8f9508-be3e-4e5b-a984-ecf8bace107c","system_id":"levelo_inurba_marseille","lat":43.309371,"lon":5.401449,"is_reserved":false,"is_disabled":false,"rental_uris":{"android":"levelo://app?vid=6a8f9508-be3e-4e5b-a984-ecf8bace107c","ios":"levelo://app?vid=6a8f9508-be3e-4e5b-a984-ecf8bace107c"},"vehicle_type_id":"4","last_reported":1705608450,"current_range_meters":18800,"station_id":"ce4bgvp2rcd13ifvqct0","pricing_plan_id":"free"},{"bike_id":"e161d81f-198f-4b38-9ddc-d7554579c5e4","system_id":"levelo_inurba_marseille","lat":43.30932,"lon":5.40151,"is_reserved":false,"is_disabled":false,"rental_uris":{"android":"levelo://app?vid=e161d81f-198f-4b38-9ddc-d7554579c5e4","ios":"levelo://app?vid=e161d81f-198f-4b38-9ddc-d7554579c5e4"},"vehicle_type_id":"4","last_reported":1705608450,"current_range_meters":18800,"station_id":"ce4bgvp2rcd13ifvqct0","pricing_plan_id":"free"},{"bike_id":"fc0997e5-9e2f-4d6a-a00c-f4819d51bd06","system_id":"levelo_inurba_marseille","lat":43.309371,"lon":5.401449,"is_reserved":false,"is_disabled":false,"rental_uris":{"android":"levelo://app?vid=fc0997e5-9e2f-4d6a-a00c-f4819d51bd06","ios":"levelo://app?vid=fc0997e5-9e2f-4d6a-a00c-f4819d51bd06"},"vehicle_type_id":"4","last_reported":1705608450,"current_range_meters":2800,"station_id":"ce4bgvp2rcd13ifvqct0","pricing_plan_id":"free"},{"bike_id":"03119f6e-fee5-4b59-8f59-5ee413bdb007","system_id":"levelo_inurba_marseille","lat":43.30639,"lon":5.40078,"is_reserved":false,"is_disabled":false,"rental_uris":{"android":"levelo://app?vid=03119f6e-fee5-4b59-8f59-5ee413bdb007","ios":"levelo://app?vid=03119f6e-fee5-4b59-8f59-5ee413bdb007"},"vehicle_type_id":"4","last_reported":1705608450,"current_range_meters":15200,"station_id":"ce4bh112rcd13ifvqda0","pricing_plan_id":"free"},{"bike_id":"c8faf80b-7211-41fa-9912-e232b0725047","system_id":"levelo_inurba_marseille","lat":43.312609,"lon":5.401662,"is_reserved":false,"is_disabled":false,"rental_uris":{"android":"levelo://app?vid=c8faf80b-7211-41fa-9912-e232b0725047","ios":"levelo://app?vid=c8faf80b-7211-41fa-9912-e232b0725047"},"vehicle_type_id":"4","last_reported":1705608450,"current_range_meters":22800,"station_id":"ce4bh092rcd13ifvqd30","pricing_plan_id":"free"},{"bike_id":"f3936204-17ae-4922-9f0f-5b1b3dc0e6e1","system_id":"levelo_inurba_marseille","lat":43.30148,"lon":5.39833,"is_reserved":false,"is_disabled":false,"rental_uris":{"android":"levelo://app?vid=f3936204-17ae-4922-9f0f-5b1b3dc0e6e1","ios":"levelo://app?vid=f3936204-17ae-4922-9f0f-5b1b3dc0e6e1"},"vehicle_type_id":"4","last_reported":1705608450,"current_range_meters":12800,"station_id":"","pricing_plan_id":"free"},{"bike_id":"a8938490-5a09-44e2-b7a0-a27f7e4ec9bb","system_id":"levelo_inurba_marseille","lat":43.306486,"lon":5.400892,"is_reserved":false,"is_disabled":false,"rental_uris":{"android":"levelo://app?vid=a8938490-5a09-44e2-b7a0-a27f7e4ec9bb","ios":"levelo://app?vid=a8938490-5a09-44e2-b7a0-a27f7e4ec9bb"},"vehicle_type_id":"4","last_reported":1705608450,"current_range_meters":12400,"station_id":"ce4bh112rcd13ifvqda0","pricing_plan_id":"free"},{"bike_id":"cc1cb9a4-3b7d-47fa-aa99-d7243b6ed6f9","system_id":"levelo_inurba_marseille","lat":43.306412,"lon":5.401035,"is_reserved":false,"is_disabled":false,"rental_uris":{"android":"levelo://app?vid=cc1cb9a4-3b7d-47fa-aa99-d7243b6ed6f9","ios":"levelo://app?vid=cc1cb9a4-3b7d-47fa-aa99-d7243b6ed6f9"},"vehicle_type_id":"4","last_reported":1705608450,"current_range_meters":28000,"station_id":"ce4bh112rcd13ifvqda0","pricing_plan_id":"free"},{"bike_id":"a99bfca6-1497-4f59-abc5-eabfee658404","system_id":"levelo_inurba_marseille","lat":43.3065,"lon":5.40091,"is_reserved":false,"is_disabled":false,"rental_uris":{"android":"levelo://app?vid=a99bfca6-1497-4f59-abc5-eabfee658404","ios":"levelo://app?vid=a99bfca6-1497-4f59-abc5-eabfee658404"},"vehicle_type_id":"4","last_reported":1705608450,"current_range_meters":29600,"station_id":"ce4bh112rcd13ifvqda0","pricing_plan_id":"free"},{"bike_id":"521e1d6b-7ec2-4c19-84fb-a626402a127b","system_id":"levelo_inurba_marseille","lat":43.30647,"lon":5.4009,"is_reserved":false,"is_disabled":false,"rental_uris":{"android":"levelo://app?vid=521e1d6b-7ec2-4c19-84fb-a626402a127b","ios":"levelo://app?vid=521e1d6b-7ec2-4c19-84fb-a626402a127b"},"vehicle_type_id":"4","last_reported":1705608450,"current_range_meters":18400,"station_id":"ce4bh112rcd13ifvqda0","pricing_plan_id":"free"},{"bike_id":"3a2159f4-03e5-4ba5-9fe4-ace3635dee8b","system_id":"levelo_inurba_marseille","lat":43.306412,"lon":5.401035,"is_reserved":false,"is_disabled":false,"rental_uris":{"android":"levelo://app?vid=3a2159f4-03e5-4ba5-9fe4-ace3635dee8b","ios":"levelo://app?vid=3a2159f4-03e5-4ba5-9fe4-ace3635dee8b"},"vehicle_type_id":"4","last_reported":1705608450,"current_range_meters":0,"station_id":"ce4bh112rcd13ifvqda0","pricing_plan_id":"free"},{"bike_id":"8a50b6fa-8a9b-4993-8f53-82d76c592bc2","system_id":"levelo_inurba_marseille","lat":43.306412,"lon":5.400924,"is_reserved":false,"is_disabled":false,"rental_uris":{"android":"levelo://app?vid=8a50b6fa-8a9b-4993-8f53-82d76c592bc2","ios":"levelo://app?vid=8a50b6fa-8a9b-4993-8f53-82d76c592bc2"},"vehicle_type_id":"4","last_reported":1705608450,"current_range_meters":24800,"station_id":"ce4bh112rcd13ifvqda0","pricing_plan_id":"free"},{"bike_id":"c57e2f53-a9b7-43c4-acf9-ec8e47c3b0be","system_id":"levelo_inurba_marseille","lat":43.306412,"lon":5.401035,"is_reserved":false,"is_disabled":false,"rental_uris":{"android":"levelo://app?vid=c57e2f53-a9b7-43c4-acf9-ec8e47c3b0be","ios":"levelo://app?vid=c57e2f53-a9b7-43c4-acf9-ec8e47c3b0be"},"vehicle_type_id":"4","last_reported":1705608450,"current_range_meters":0,"station_id":"ce4bh112rcd13ifvqda0","pricing_plan_id":"free"},{"bike_id":"e02518cc-9e14-4767-accd-b073534fc357","system_id":"levelo_inurba_marseille","lat":43.290779,"lon":5.371482,"is_reserved":false,"is_disabled":false,"rental_uris":{"android":"levelo://app?vid=e02518cc-9e14-4767-accd-b073534fc357","ios":"levelo://app?vid=e02518cc-9e14-4767-accd-b073534fc357"},"vehicle_type_id":"4","last_reported":1705608450,"current_range_meters":30000,"station_id":"ce4bh5p2rcd13ifvqe4g","pricing_plan_id":"free"},{"bike_id":"5872a29a-1728-4e3a-aa62-32662dd88151","system_id":"levelo_inurba_marseille","lat":43.301117,"lon":5.398795,"is_reserved":false,"is_disabled":false,"rental_uris":{"android":"levelo://app?vid=5872a29a-1728-4e3a-aa62-32662dd88151","ios":"levelo://app?vid=5872a29a-1728-4e3a-aa62-32662dd88151"},"vehicle_type_id":"4","last_reported":1705608450,"current_range_meters":22800,"station_id":"ce4bh0h2rcd13ifvqd40","pricing_plan_id":"free"},{"bike_id":"c0a3b9a9-b871-414e-a538-2cf277432209","system_id":"levelo_inurba_marseille","lat":43.30137,"lon":5.398694,"is_reserved":false,"is_disabled":false,"rental_uris":{"android":"levelo://app?vid=c0a3b9a9-b871-414e-a538-2cf277432209","ios":"levelo://app?vid=c0a3b9a9-b871-414e-a538-2cf277432209"},"vehicle_type_id":"4","last_reported":1705608450,"current_range_meters":20000,"station_id":"ce4bh0h2rcd13ifvqd40","pricing_plan_id":"free"},