{"last_updated":1774808791,"ttl":60,"version":"2.2","data":{"bikes":[{"bike_id":"49888a67-1f70-4912-95d0-5787fae70dbf","system_id":"levelo_inurba_marseille","lat":43.24969,"lon":5.40526,"is_reserved":false,"is_disabled":false,"rental_uris":{"android":"levelo://app?vid=49888a67-1f70-4912-95d0-5787fae70dbf","ios":"levelo://app?vid=49888a67-1f70-4912-95d0-5787fae70dbf"},"vehicle_type_id":"4","last_reported":1774808792,"current_range_meters":2800,"station_id":"st_d2ngiaodas8pm72gd1h0","pricing_plan_id":"cebpf4jnsgd1na2vs0mg"},{"bike_id":"42ac2f6b-68e9-415e-abf4-d533376356a8","system_id":"levelo_inurba_marseille","lat":43.29534,"lon":5.38654,"is_reserved":false,"is_disabled":false,"rental_uris":{"android":"levelo://app?vid=42ac2f6b-68e9-415e-abf4-d533376356a8","ios":"levelo://app?vid=42ac2f6b-68e9-415e-abf4-d533376356a8"},"vehicle_type_id":"4","last_reported":1774808792,"current_range_meters":2800,"station_id":"","pricing_plan_id":"cebpf4jnsgd1na2vs0mg"},{"bike_id":"1a7fb594-fd28-4248-9991-4acd93df2a8c","system_id":"levelo_inurba_marseille","lat":43.29959,"lon":5.38527,"is_reserved":false,"is_disabled":false,"rental_uris":{"android":"levelo://app?vid=1a7fb594-fd28-4248-9991-4acd93df2a8c","ios":"levelo://app?vid=1a7fb594-fd28-4248-9991-4acd93df2a8c"},"vehicle_type_id":"4","last_reported":1774808792,"current_range_meters":2800,"station_id":"ce4bgj92rcd13ifvqbd0","pricing_plan_id":"cebpf4jnsgd1na2vs0mg"},{"bike_id":"c26ece64-6cbd-4eef-8650-174002bd185b","system_id":"levelo_inurba_marseille","lat":43.22561,"lon":5.41621,"is_reserved":false,"is_disabled":false,"rental_uris":{"android":"levelo://app?vid=c26ece64-6cbd-4eef-8650-174002bd185b","ios":"levelo://app?vid=c26ece64-6cbd-4eef-8650-174002bd185b"},"vehicle_type_id":"4","last_reported":1774808792,"current_range_meters":2800,"station_id":"st_d2o4gvlbi1j2169b742g","pricing_plan_id":"cebpf4jnsgd1na2vs0mg"},{"bike_id":"7f29d5f4-61f8-4ab2-970a-2cb1e357ed88","system_id":"levelo_inurba_marseille","lat":43.28661,"lon":5.36354,"is_reserved":false,"is_disabled":false,"rental_uris":{"android":"levelo://app?vid=7f29d5f4-61f8-4ab2-970a-2cb1e357ed88","ios":"levelo://app?vid=7f29d5f4-61f8-4ab2-970a-2cb1e357ed88"},"vehicle_type_id":"4","last_reported":1774808792,"current_range_meters":2800,"station_id":"ce4bhah2rcd13ifvqej0","pricing_plan_id":"cebpf4jnsgd1na2vs0mg"},{"bike_id":"7131c911-7534-4c04-bf14-b1b966f7e65e","system_id":"levelo_inurba_marseille","lat":43.25574,"lon":5.38222,"is_reserved":false,"is_disabled":false,"rental_uris":{"android":"levelo://app?vid=7131c911-7534-4c04-bf14-b1b966f7e65e","ios":"levelo://app?vid=7131c911-7534-4c04-bf14-b1b966f7e65e"},"vehicle_type_id":"4","last_reported":1774808792,"current_range_meters":2800,"station_id":"ce4bhih2rcd13ifvqfs0","pricing_plan_id":"cebpf4jnsgd1na2vs0mg"},{"bike_id":"1fb2674a-e2e8-46fd-a889-90d100d467e8","system_id":"levelo_inurba_marseille","lat":43.28696,"lon":5.37392,"is_reserved":false,"is_disabled":false,"rental_uris":{"android":"levelo://app?vid=1fb2674a-e2e8-46fd-a889-90d100d467e8","ios":"levelo://app?vid=1fb2674a-e2e8-46fd-a889-90d100d467e8"},"vehicle_type_id":"4","last_reported":1774808792,"current_range_meters":2800,"station_id":"ce4bh3p2rcd13ifvqdq0","pricing_plan_id":"cebpf4jnsgd1na2vs0mg"},{"bike_id":"47b7b901-4676-4661-9e62-e7c0e993c9d9","system_id":"levelo_inurba_marseille","lat":43.29546,"lon":5.38706,"is_reserved":false,"is_disabled":false,"rental_uris":{"android":"levelo://app?vid=47b7b901-4676-4661-9e62-e7c0e993c9d9","ios":"levelo://app?vid=47b7b901-4676-4661-9e62-e7c0e993c9d9"},"vehicle_type_id":"4","last_reported":1774808792,"current_range_meters":3200,"station_id":"","pricing_plan_id":"cebpf4jnsgd1na2vs0mg"},{"bike_id":"c8e3f134-bd1d-4bd8-925f-75061382b49c","system_id":"levelo_inurba_marseille","lat":43.2954,"lon":5.38652,"is_reserved":false,"is_disabled":false,"rental_uris":{"android":"levelo://app?vid=c8e3f134-bd1d-4bd8-925f-75061382b49c","ios":"levelo://app?vid=c8e3f134-bd1d-4bd8-925f-75061382b49c"},"vehicle_type_id":"4","last_reported":1774808792,"current_range_meters":3200,"station_id":"","pricing_plan_id":"cebpf4jnsgd1na2vs0mg"},{"bike_id":"9d541d79-4ffe-4413-a30e-1214bca085d7","system_id":"levelo_inurba_marseille","lat":43.29439,"lon":5.39754,"is_reserved":false,"is_disabled":false,"rental_uris":{"android":"levelo://app?vid=9d541d79-4ffe-4413-a30e-1214bca085d7","ios":"levelo://app?vid=9d541d79-4ffe-4413-a30e-1214bca085d7"},"vehicle_type_id":"4","last_reported":1774808792,"current_range_meters":3200,"station_id":"ce4bh3h2rcd13ifvqdo0","pricing_plan_id":"cebpf4jnsgd1na2vs0mg"},{"bike_id":"f057f137-0cac-4b50-91e6-948f8581886d","system_id":"levelo_inurba_marseille","lat":43.24798,"lon":5.38101,"is_reserved":false,"is_disabled":false,"rental_uris":{"android":"levelo://app?vid=f057f137-0cac-4b50-91e6-948f8581886d","ios":"levelo://app?vid=f057f137-0cac-4b50-91e6-948f8581886d"},"vehicle_type_id":"4","last_reported":1774808792,"current_range_meters":3200,"station_id":"","pricing_plan_id":"cebpf4jnsgd1na2vs0mg"},{"bike_id":"07f80e43-fb47-44d0-a0d9-ef8abee5c944","system_id":"levelo_inurba_marseille","lat":43.22586,"lon":5.41658,"is_reserved":false,"is_disabled":false,"rental_uris":{"android":"levelo://app?vid=07f80e43-fb47-44d0-a0d9-ef8abee5c944","ios":"levelo://app?vid=07f80e43-fb47-44d0-a0d9-ef8abee5c944"},"vehicle_type_id":"4","last_reported":1774808792,"current_range_meters":3200,"station_id":"st_d2o4gvlbi1j2169b742g","pricing_plan_id":"cebpf4jnsgd1na2vs0mg"},{"bike_id":"44e6ef2e-f582-4dae-8b58-95600b73b872","system_id":"levelo_inurba_marseille","lat":43.33528,"lon":5.37451,"is_reserved":false,"is_disabled":false,"rental_uris":{"android":"levelo://app?vid=44e6ef2e-f582-4dae-8b58-95600b73b872","ios":"levelo://app?vid=44e6ef2e-f582-4dae-8b58-95600b73b872"},"vehicle_type_id":"4","last_reported":1774808792,"current_range_meters":3200,"station_id":"st_d46tts09ee8s73dlu43g","pricing_plan_id":"cebpf4jnsgd1na2vs0mg"},{"bike_id":"9dd280d1-9a8a-456e-90d9-a6e88fee84ff","system_id":"levelo_inurba_marseille","lat":43.29379,"lon":5.37879,"is_reserved":false,"is_disabled":false,"rental_uris":{"android":"levelo://app?vid=9dd280d1-9a8a-456e-90d9-a6e88fee84ff","ios":"levelo://app?vid=9dd280d1-9a8a-456e-90d9-a6e88fee84ff"},"vehicle_type_id":"4","last_reported":1774808792,"current_range_meters":3200,"station_id":"ce4bgjh2rcd13ifvqbf0","pricing_plan_id":"cebpf4jnsgd1na2vs0mg"},{"bike_id":"803ca2fe-e233-43fd-9249-0a0522adb3b0","system_id":"levelo_inurba_marseille","lat":43.27946,"lon":5.41051,"is_reserved":false,"is_disabled":false,"rental_uris":{"android":"levelo://app?vid=803ca2fe-e233-43fd-9249-0a0522adb3b0","ios":"levelo://app?vid=803ca2fe-e233-43fd-9249-0a0522adb3b0"},"vehicle_type_id":"4","last_reported":1774808792,"current_range_meters":3200,"station_id":"ce4bhnp2rcd13ifvqh0g","pricing_plan_id":"cebpf4jnsgd1na2vs0mg"},{"bike_id":"f37f9101-62fa-4713-a9c6-cd5dc94ba0b0","system_id":"levelo_inurba_marseille","lat":43.27318,"lon":5.39082,"is_reserved":false,"is_disabled":false,"rental_uris":{"android":"levelo://app?vid=f37f9101-62fa-4713-a9c6-cd5dc94ba0b0","ios":"levelo://app?vid=f37f9101-62fa-4713-a9c6-cd5dc94ba0b0"},"vehicle_type_id":"4","last_reported":1774808792,"current_range_meters":3200,"station_id":"ce4bhgp2rcd13ifvqfe0","pricing_plan_id":"cebpf4jnsgd1na2vs0mg"},{"bike_id":"cc9d52d4-4d9a-4e4a-bcc8-a354b3d5c07c","system_id":"levelo_inurba_marseille","lat":43.2417,"lon":5.36402,"is_reserved":false,"is_disabled":false,"rental_uris":{"android":"levelo://app?vid=cc9d52d4-4d9a-4e4a-bcc8-a354b3d5c07c","ios":"levelo://app?vid=cc9d52d4-4d9a-4e4a-bcc8-a354b3d5c07c"},"vehicle_type_id":"4","last_reported":1774808792,"current_range_meters":3200,"station_id":"cpo36qri1sfpv3e86is0","pricing_plan_id":"cebpf4jnsgd1na2vs0mg"},{"bike_id":"80ad1176-7e15-4e9c-ae83-2fc76b9d1a73","system_id":"levelo_inurba_marseille","lat":43.24388,"lon":5.37079,"is_reserved":false,"is_disabled":true,"rental_uris":{"android":"levelo://app?vid=80ad1176-7e15-4e9c-ae83-2fc76b9d1a73","ios":"levelo://app?vid=80ad1176-7e15-4e9c-ae83-2fc76b9d1a73"},"vehicle_type_id":"4","last_reported":1774808792,"current_range_meters":3200,"station_id":"ce4bhhh2rcd13ifvqfk0","pricing_plan_id":"cebpf4jnsgd1na2vs0mg"},{"bike_id":"290afd09-0584-4963-a797-1ed96debbdfe","system_id":"levelo_inurba_marseille","lat":43.21199,"lon":5.35127,"is_reserved":false,"is_disabled":false,"rental_uris":{"android":"levelo://app?vid=290afd09-0584-4963-a797-1ed96debbdfe","ios":"levelo://app?vid=290afd09-0584-4963-a797-1ed96debbdfe"},"vehicle_type_id":"4","last_reported":1774808792,"current_range_meters":3600,"station_id":"st_cvj6sg6p6f1abm77japg","pricing_plan_id":"cebpf4jnsgd1na2vs0mg"},{"bike_id":"907ad386-d8e2-473d-95d6-81a93b71b191","system_id":"levelo_inurba_marseille","lat":43.25559,"lon":5.38242,"is_reserved":false,"is_disabled":false,"rental_uris":{"android":"levelo://app?vid=907ad386-d8e2-473d-95d6-81a93b71b191","ios":"levelo://app?vid=907ad386-d8e2-473d-95d6-81a93b71b191"},"vehicle_type_id":"4","last_reported":1774808792,"current_range_meters":3600,"station_id":"ce4bhih2rcd13ifvqfs0","pricing_plan_id":"cebpf4jnsgd1na2vs0mg"},{"bike_id":"b6993027-358e-45ef-80aa-036d800d393f","system_id":"levelo_inurba_marseille","lat":43.31188,"lon":5.3873,"is_reserved":false,"is_disabled":true,"rental_uris":{"android":"levelo://app?vid=b6993027-358e-45ef-80aa-036d800d393f","ios":"levelo://app?vid=b6993027-358e-45ef-80aa-036d800d393f"},"vehicle_type_id":"4","last_reported":1774808792,"current_range_meters":3600,"station_id":"ce4bgv12rcd13ifvqcp0","pricing_plan_id":"cebpf4jnsgd1na2vs0mg"},{"bike_id":"446c0570-a148-40d5-b8d2-cd5cee05d6f3","system_id":"levelo_inurba_marseille","lat":43.21752,"lon":5.346,"is_reserved":false,"is_disabled":false,"rental_uris":{"android":"levelo://app?vid=446c0570-a148-40d5-b8d2-cd5cee05d6f3","ios":"levelo://app?vid=446c0570-a148-40d5-b8d2-cd5cee05d6f3"},"vehicle_type_id":"4","last_reported":1774808792,"current_range_meters":3600,"station_id":"st_cvj6r9ubvosntc0bgbag","pricing_plan_id":"cebpf4jnsgd1na2vs0mg"},{"bike_id":"899c9f36-9b83-4ce9-bd7d-0f95dd541b6a","system_id":"levelo_inurba_marseille","lat":43.32357,"lon":5.36744,"is_reserved":false,"is_disabled":false,"rental_uris":{"android":"levelo://app?vid=899c9f36-9b83-4ce9-bd7d-0f95dd541b6a","ios":"levelo://app?vid=899c9f36-9b83-4ce9-bd7d-0f95dd541b6a"},"vehicle_type_id":"4","last_reported":1774808792,"current_range_meters":3600,"station_id":"ce4bhsh2rcd13ifvqi2g","pricing_plan_id":"cebpf4jnsgd1na2vs0mg"},{"bike_id":"65842c34-1926-4038-8e71-3d208fd8368b","system_id":"levelo_inurba_marseille","lat":43.27929,"lon":5.38726,"is_reserved":false,"is_disabled":false,"rental_uris":{"android":"levelo://app?vid=65842c34-1926-4038-8e71-3d208fd8368b","ios":"levelo://app?vid=65842c34-1926-4038-8e71-3d208fd8368b"},"vehicle_type_id":"4","last_reported":1774808792,"current_range_meters":3600,"station_id":"","pricing_plan_id":"cebpf4jnsgd1na2vs0mg"},{"bike_id":"1c82571e-2b58-4f53-8c28-30cef4bd806c","system_id":"levelo_inurba_marseille","lat":43.2841,"lon":5.37518,"is_reserved":false,"is_disabled":false,"rental_uris":{"android":"levelo://app?vid=1c82571e-2b58-4f53-8c28-30cef4bd806c","ios":"levelo://app?vid=1c82571e-2b58-4f53-8c28-30cef4bd806c"},"vehicle_type_id":"4","last_reported":1774808792,"current_range_meters":3600,"station_id":"ce4bh412rcd13ifvqds0","pricing_plan_id":"cebpf4jnsgd1na2vs0mg"},{"bike_id":"f8d401ea-d032-4e17-b855-b6e19a8fece9","system_id":"levelo_inurba_marseille","lat":43.21759,"lon":5.3461,"is_reserved":false,"is_disabled":false,"rental_uris":{"android":"levelo://app?vid=f8d401ea-d032-4e17-b855-b6e19a8fece9","ios":"levelo://app?vid=f8d401ea-d032-4e17-b855-b6e19a8fece9"},"vehicle_type_id":"4","last_reported":1774808792,"current_range_meters":3600,"station_id":"st_cvj6r9ubvosntc0bgbag","pricing_plan_id":"cebpf4jnsgd1na2vs0mg"},{"bike_id":"2194c3e1-98f8-47bc-a8ab-c697b71e9c69","system_id":"levelo_inurba_marseille","lat":43.24543,"lon":5.39544,"is_reserved":false,"is_disabled":false,"rental_uris":{"android":"levelo://app?vid=2194c3e1-98f8-47bc-a8ab-c697b71e9c69","ios":"levelo://app?vid=2194c3e1-98f8-47bc-a8ab-c697b71e9c69"},"vehicle_type_id":"4","last_reported":1774808792,"current_range_meters":3600,"station_id":"ce4bhlp2rcd13ifvqgjg","pricing_plan_id":"cebpf4jnsgd1na2vs0mg"},{"bike_id":"d3072164-5c43-4020-ab56-450bf7287703","system_id":"levelo_inurba_marseille","lat":43.2417,"lon":5.36394,"is_reserved":false,"is_disabled":false,"rental_uris":{"android":"levelo://app?vid=d3072164-5c43-4020-ab56-450bf7287703","ios":"levelo://app?vid=d3072164-5c43-4020-ab56-450bf7287703"},"vehicle_type_id":"4","last_reported":1774808792,"current_range_meters":3600,"station_id":"cpo36qri1sfpv3e86is0","pricing_plan_id":"cebpf4jnsgd1na2vs0mg"},{"bike_id":"34c6ce22-869d-4547-b7bc-9ba18b8261b8","system_id":"levelo_inurba_marseille","lat":43.23781,"lon":5.36635,"is_reserved":false,"is_disabled":false,"rental_uris":{"android":"levelo://app?vid=34c6ce22-869d-4547-b7bc-9ba18b8261b8","ios":"levelo://app?vid=34c6ce22-869d-4547-b7bc-9ba18b8261b8"},"vehicle_type_id":"4","last_reported":1774808792,"current_range_meters":3600,"station_id":"st_d3nk18o9ro0c73en2l3g","pricing_plan_id":"cebpf4jnsgd1na2vs0mg"},{"bike_id":"3ff24676-23bf-45ec-b0f9-26c82beab495","system_id":"levelo_inurba_marseille","lat":43.24649,"lon":5.38155,"is_reserved":false,"is_disabled":false,"rental_uris":{"android":"levelo://app?vid=3ff24676-23bf-45ec-b0f9-26c82beab495","ios":"levelo://app?vid=3ff24676-23bf-45ec-b0f9-26c82beab495"},"vehicle_type_id":"4","last_reported":1774808792,"current_range_meters":3600,"station_id":"ce4bhih2rcd13ifvqfr0","pricing_plan_id":"cebpf4jnsgd1na2vs0mg"},{"bike_id":"fcc33071-6baa-4d95-87cc-a141be704516","system_id":"levelo_inurba_marseille","lat":43.24083,"lon":5.37758,"is_reserved":false,"is_disabled":false,"rental_uris":{"android":"levelo://app?vid=fcc33071-6baa-4d95-87cc-a141be704516","ios":"levelo://app?vid=fcc33071-6baa-4d95-87cc-a141be704516"},"vehicle_type_id":"4","last_reported":1774808792,"current_range_meters":3600,"station_id":"ce4bhnp2rcd13ifvqgvg","pricing_plan_id":"cebpf4jnsgd1na2vs0mg"},{"bike_id":"2e53549b-d158-45c8-8445-9251670f6964","system_id":"levelo_inurba_marseille","lat":43.27679,"lon":5.38908,"is_reserved":false,"is_disabled":false,"rental_uris":{"android":"levelo://app?vid=2e53549b-d158-45c8-8445-9251670f6964","ios":"levelo://app?vid=2e53549b-d158-45c8-8445-9251670f6964"},"vehicle_type_id":"4","last_reported":1774808792,"current_range_meters":3600,"station_id":"ce4bhi12rcd13ifvqfo0","pricing_plan_id":"cebpf4jnsgd1na2vs0mg"},{"bike_id":"3bfd3405-2889-46a5-9d35-e5ef055a1311","system_id":"levelo_inurba_marseille","lat":43.28938,"lon":5.38392,"is_reserved":false,"is_disabled":false,"rental_uris":{"android":"levelo://app?vid=3bfd3405-2889-46a5-9d35-e5ef055a1311","ios":"levelo://app?vid=3bfd3405-2889-46a5-9d35-e5ef055a1311"},"vehicle_type_id":"4","last_reported":1774808792,"current_range_meters":4000,"station_id":"ce4bh612rcd13ifvqe6g","pricing_plan_id":"cebpf4jnsgd1na2vs0mg"},{"bike_id":"f5885509-58fd-4d4c-978e-0471d9854836","system_id":"levelo_inurba_marseille","lat":43.24071,"lon":5.37755,"is_reserved":false,"is_disabled":false,"rental_uris":{"android":"levelo://app?vid=f5885509-58fd-4d4c-978e-0471d9854836","ios":"levelo://app?vid=f5885509-58fd-4d4c-978e-0471d9854836"},"vehicle_type_id":"4","last_reported":1774808792,"current_range_meters":4000,"station_id":"ce4bhnp2rcd13ifvqgvg","pricing_plan_id":"cebpf4jnsgd1na2vs0mg"},{"bike_id":"1bebdd87-eb20-43f1-8d96-9fdb37cf655b","system_id":"levelo_inurba_marseille","lat":43.2953,"lon":5.38667,"is_reserved":false,"is_disabled":false,"rental_uris":{"android":"levelo://app?vid=1bebdd87-eb20-43f1-8d96-9fdb37cf655b","ios":"levelo://app?vid=1bebdd87-eb20-43f1-8d96-9fdb37cf655b"},"vehicle_type_id":"4","last_reported":1774808792,"current_range_meters":4000,"station_id":"","pricing_plan_id":"cebpf4jnsgd1na2vs0mg"},{"bike_id":"68faed55-3f97-409b-b762-1045a6fca166","system_id":"levelo_inurba_marseille","lat":43.26202,"lon":5.37932,"is_reserved":false,"is_disabled":false,"rental_uris":{"android":"levelo://app?vid=68faed55-3f97-409b-b762-1045a6fca166","ios":"levelo://app?vid=68faed55-3f97-409b-b762-1045a6fca166"},"vehicle_type_id":"4","last_reported":1774808792,"current_range_meters":4000,"station_id":"ce4bhjp2rcd13ifvqg90","pricing_plan_id":"cebpf4jnsgd1na2vs0mg"},{"bike_id":"caa60e7b-4945-442a-8ac3-cea368c222a6","system_id":"levelo_inurba_marseille","lat":43.28835,"lon":5.3587,"is_reserved":false,"is_disabled":false,"rental_uris":{"android":"levelo://app?vid=caa60e7b-4945-442a-8ac3-cea368c222a6","ios":"levelo://app?vid=caa60e7b-4945-442a-8ac3-cea368c222a6"},"vehicle_type_id":"4","last_reported":1774808792,"current_range_meters":4000,"station_id":"ce4bhb12rcd13ifvqem0","pricing_plan_id":"cebpf4jnsgd1na2vs0mg"},{"bike_id":"0eb43837-96b1-46ac-a378-613a8f8ea6b3","system_id":"levelo_inurba_marseille","lat":43.27667,"lon":5.38882,"is_reserved":false,"is_disabled":false,"rental_uris":{"android":"levelo://app?vid=0eb43837-96b1-46ac-a378-613a8f8ea6b3","ios":"levelo://app?vid=0eb43837-96b1-46ac-a378-613a8f8ea6b3"},"vehicle_type_id":"4","last_reported":1774808792,"current_range_meters":4000,"station_id":"ce4bhi12rcd13ifvqfo0","pricing_plan_id":"cebpf4jnsgd1na2vs0mg"},{"bike_id":"9bc0b937-b0d9-43c5-9555-6ff47bb13b73","system_id":"levelo_inurba_marseille","lat":43.33144,"lon":5.37785,"is_reserved":false,"is_disabled":false,"rental_uris":{"android":"levelo://app?vid=9bc0b937-b0d9-43c5-9555-6ff47bb13b73","ios":"levelo://app?vid=9bc0b937-b0d9-43c5-9555-6ff47bb13b73"},"vehicle_type_id":"4","last_reported":1774808792,"current_range_meters":4000,"station_id":"","pricing_plan_id":"cebpf4jnsgd1na2vs0mg"},{"bike_id":"9c90e154-1ad6-4039-8066-16f77ee3b88c","system_id":"levelo_inurba_marseille","lat":43.29535,"lon":5.38654,"is_reserved":false,"is_disabled":false,"rental_uris":{"android":"levelo://app?vid=9c90e154-1ad6-4039-8066-16f77ee3b88c","ios":"levelo://app?vid=9c90e154-1ad6-4039-8066-16f77ee3b88c"},"vehicle_type_id":"4","last_reported":1774808792,"current_range_meters":4000,"station_id":"","pricing_plan_id":"cebpf4jnsgd1na2vs0mg"},{"bike_id":"8399e8e3-4169-460b-9809-3496770fe497","system_id":"levelo_inurba_marseille","lat":43.31982,"lon":5.3815,"is_reserved":false,"is_disabled":false,"rental_uris":{"android":"levelo://app?vid=8399e8e3-4169-460b-9809-3496770fe497","ios":"levelo://app?vid=8399e8e3-4169-460b-9809-3496770fe497"},"vehicle_type_id":"4","last_reported":1774808792,"current_range_meters":4000,"station_id":"ce4bhr12rcd13ifvqhpg","pricing_plan_id":"cebpf4jnsgd1na2vs0mg"},{"bike_id":"15404836-e496-462d-beda-465529607d47","system_id":"levelo_inurba_marseille","lat":43.2937,"lon":5.37853,"is_reserved":false,"is_disabled":false,"rental_uris":{"android":"levelo://app?vid=15404836-e496-462d-beda-465529607d47","ios":"levelo://app?vid=15404836-e496-462d-beda-465529607d47"},"vehicle_type_id":"4","last_reported":1774808792,"current_range_meters":4000,"station_id":"ce4bgjh2rcd13ifvqbf0","pricing_plan_id":"cebpf4jnsgd1na2vs0mg"},{"bike_id":"9857ce4a-85f4-4046-923b-1187a37b5fd2","system_id":"levelo_inurba_marseille","lat":43.26362,"lon":5.41081,"is_reserved":false,"is_disabled":false,"rental_uris":{"android":"levelo://app?vid=9857ce4a-85f4-4046-923b-1187a37b5fd2","ios":"levelo://app?vid=9857ce4a-85f4-4046-923b-1187a37b5fd2"},"vehicle_type_id":"4","last_reported":1774808792,"current_range_meters":4000,"station_id":"st_d4e5ca6na9uc73bfl5fg","pricing_plan_id":"cebpf4jnsgd1na2vs0mg"},{"bike_id":"b31225dd-1abd-4fbd-bc2b-cf2c2b59beed","system_id":"levelo_inurba_marseille","lat":43.29617,"lon":5.37713,"is_reserved":false,"is_disabled":false,"rental_uris":{"android":"levelo://app?vid=b31225dd-1abd-4fbd-bc2b-cf2c2b59beed","ios":"levelo://app?vid=b31225dd-1abd-4fbd-bc2b-cf2c2b59beed"},"vehicle_type_id":"4","last_reported":1774808792,"current_range_meters":4400,"station_id":"ce4bgi92rcd13ifvqb90","pricing_plan_id":"cebpf4jnsgd1na2vs0mg"},{"bike_id":"b1e731c5-a019-40fb-b94c-b458e0eddb64","system_id":"levelo_inurba_marseille","lat":43.23764,"lon":5.38533,"is_reserved":false,"is_disabled":false,"rental_uris":{"android":"levelo://app?vid=b1e731c5-a019-40fb-b94c-b458e0eddb64","ios":"levelo://app?vid=b1e731c5-a019-40fb-b94c-b458e0eddb64"},"vehicle_type_id":"4","last_reported":1774808792,"current_range_meters":4400,"station_id":"","pricing_plan_id":"cebpf4jnsgd1na2vs0mg"},{"bike_id":"5d490b95-0f21-4f16-b6a0-c5beac32f58f","system_id":"levelo_inurba_marseille","lat":43.30959,"lon":5.3903,"is_reserved":false,"is_disabled":true,"rental_uris":{"android":"levelo://app?vid=5d490b95-0f21-4f16-b6a0-c5beac32f58f","ios":"levelo://app?vid=5d490b95-0f21-4f16-b6a0-c5beac32f58f"},"vehicle_type_id":"4","last_reported":1774808792,"current_range_meters":4400,"station_id":"ce4bgup2rcd13ifvqco0","pricing_plan_id":"cebpf4jnsgd1na2vs0mg"},{"bike_id":"6b878577-919d-422e-a1af-59bda2525fa1","system_id":"levelo_inurba_marseille","lat":43.27815,"lon":5.40712,"is_reserved":false,"is_disabled":false,"rental_uris":{"android":"levelo://app?vid=6b878577-919d-422e-a1af-59bda2525fa1","ios":"levelo://app?vid=6b878577-919d-422e-a1af-59bda2525fa1"},"vehicle_type_id":"4","last_reported":1774808792,"current_range_meters":4400,"station_id":"ce4bhnh2rcd13ifvqgtg","pricing_plan_id":"cebpf4jnsgd1na2vs0mg"},{"bike_id":"0f7b5188-959a-4314-a6d6-e68fbc14d44c","system_id":"levelo_inurba_marseille","lat":43.31226,"lon":5.36872,"is_reserved":false,"is_disabled":false,"rental_uris":{"android":"levelo://app?vid=0f7b5188-959a-4314-a6d6-e68fbc14d44c","ios":"levelo://app?vid=0f7b5188-959a-4314-a6d6-e68fbc14d44c"},"vehicle_type_id":"4","last_reported":1774808792,"current_range_meters":4400,"station_id":"ce4bgl92rcd13ifvqbq0","pricing_plan_id":"cebpf4jnsgd1na2vs0mg"},{"bike_id":"c3995828-b159-42d2-a77a-bbb14f5a79ca","system_id":"levelo_inurba_marseille","lat":43.27562,"lon":5.38423,"is_reserved":false,"is_disabled":false,"rental_uris":{"android":"levelo://app?vid=c3995828-b159-42d2-a77a-bbb14f5a79ca","ios":"levelo://app?vid=c3995828-b159-42d2-a77a-bbb14f5a79ca"},"vehicle_type_id":"4","last_reported":1774808792,"current_range_meters":4400,"station_id":"ce4bhh92rcd13ifvqfi0","pricing_plan_id":"cebpf4jnsgd1na2vs0mg"},{"bike_id":"5228593b-f41f-4b93-8705-559ca7d2f063","system_id":"levelo_inurba_marseille","lat":43.31275,"lon":5.37806,"is_reserved":false,"is_disabled":false,"rental_uris":{"android":"levelo://app?vid=5228593b-f41f-4b93-8705-559ca7d2f063","ios":"levelo://app?vid=5228593b-f41f-4b93-8705-559ca7d2f063"},"vehicle_type_id":"4","last_reported":1774808792,"current_range_meters":4400,"station_id":"","pricing_plan_id":"cebpf4jnsgd1na2vs0mg"},{"bike_id":"6587a626-029e-444d-ac85-9bbbba671b87","system_id":"levelo_inurba_marseille","lat":43.27372,"lon":5.36262,"is_reserved":false,"is_disabled":false,"rental_uris":{"android":"levelo://app?vid=6587a626-029e-444d-ac85-9bbbba671b87","ios":"levelo://app?vid=6587a626-029e-444d-ac85-9bbbba671b87"},"vehicle_type_id":"4","last_reported":1774808792,"current_range_meters":4400,"station_id":"ce4bhbh2rcd13ifvqeo0","pricing_plan_id":"cebpf4jnsgd1na2vs0mg"},{"bike_id":"f6fd1ca3-60e1-4284-8246-73f0df9abb16","system_id":"levelo_inurba_marseille","lat":43.2534,"lon":5.42175,"is_reserved":false,"is_disabled":false,"rental_uris":{"android":"levelo://app?vid=f6fd1ca3-60e1-4284-8246-73f0df9abb16","ios":"levelo://app?vid=f6fd1ca3-60e1-4284-8246-73f0df9abb16"},"vehicle_type_id":"4","last_reported":1774808792,"current_range_meters":4400,"station_id":"st_d2m65c5bi1j21697t3ng","pricing_plan_id":"cebpf4jnsgd1na2vs0mg"},{"bike_id":"67c1c6e6-4211-4250-be02-a52880e1c23a","system_id":"levelo_inurba_marseille","lat":43.26524,"lon":5.40735,"is_reserved":false,"is_disabled":false,"rental_uris":{"android":"levelo://app?vid=67c1c6e6-4211-4250-be02-a52880e1c23a","ios":"levelo://app?vid=67c1c6e6-4211-4250-be02-a52880e1c23a"},"vehicle_type_id":"4","last_reported":1774808792,"current_range_meters":4400,"station_id":"","pricing_plan_id":"cebpf4jnsgd1na2vs0mg"},{"bike_id":"88af6038-cb27-40e5-8f53-7f4fc435bb60","system_id":"levelo_inurba_marseille","lat":43.31274,"lon":5.40175,"is_reserved":false,"is_disabled":false,"rental_uris":{"android":"levelo://app?vid=88af6038-cb27-40e5-8f53-7f4fc435bb60","ios":"levelo://app?vid=88af6038-cb27-40e5-8f53-7f4fc435bb60"},"vehicle_type_id":"4","last_reported":1774808792,"current_range_meters":4400,"station_id":"ce4bh092rcd13ifvqd30","pricing_plan_id":"cebpf4jnsgd1na2vs0mg"},{"bike_id":"2c76498e-1409-4d1d-aa11-912dd68ff926","system_id":"levelo_inurba_marseille","lat":43.28537,"lon":5.44108,"is_reserved":false,"is_disabled":false,"rental_uris":{"android":"levelo://app?vid=2c76498e-1409-4d1d-aa11-912dd68ff926","ios":"levelo://app?vid=2c76498e-1409-4d1d-aa11-912dd68ff926"},"vehicle_type_id":"4","last_reported":1774808792,"current_range_meters":4800,"station_id":"st_d3j3df2ikq2c7380ej80","pricing_plan_id":"cebpf4jnsgd1na2vs0mg"},{"bike_id":"44b061ea-ac90-4ccb-8d43-7cab8ff1f0e0","system_id":"levelo_inurba_marseille","lat":43.26057,"lon":5.39366,"is_reserved":false,"is_disabled":false,"rental_uris":{"android":"levelo://app?vid=44b061ea-ac90-4ccb-8d43-7cab8ff1f0e0","ios":"levelo://app?vid=44b061ea-ac90-4ccb-8d43-7cab8ff1f0e0"},"vehicle_type_id":"4","last_reported":1774808792,"current_range_meters":4800,"station_id":"ce4bhh92rcd13ifvqfj0","pricing_plan_id":"cebpf4jnsgd1na2vs0mg"},{"bike_id":"92cb4986-12bc-44d4-ad49-496427bf2b45","system_id":"levelo_inurba_marseille","lat":43.28557,"lon":5.4414,"is_reserved":false,"is_disabled":false,"rental_uris":{"android":"levelo://app?vid=92cb4986-12bc-44d4-ad49-496427bf2b45","ios":"levelo://app?vid=92cb4986-12bc-44d4-ad49-496427bf2b45"},"vehicle_type_id":"4","last_reported":1774808792,"current_range_meters":4800,"station_id":"st_d3j3df2ikq2c7380ej80","pricing_plan_id":"cebpf4jnsgd1na2vs0mg"},{"bike_id":"9e385910-d196-42f8-b678-ec50b050a12e","system_id":"levelo_inurba_marseille","lat":43.3117,"lon":5.38718,"is_reserved":false,"is_disabled":false,"rental_uris":{"android":"levelo://app?vid=9e385910-d196-42f8-b678-ec50b050a12e","ios":"levelo://app?vid=9e385910-d196-42f8-b678-ec50b050a12e"},"vehicle_type_id":"4","last_reported":1774808792,"current_range_meters":4800,"station_id":"ce4bgv12rcd13ifvqcp0","pricing_plan_id":"cebpf4jnsgd1na2vs0mg"},{"bike_id":"5f99b7e3-d8c3-4c53-96ba-688de3a18650","system_id":"levelo_inurba_marseille","lat":43.30242,"lon":5.40079,"is_reserved":false,"is_disabled":false,"rental_uris":{"android":"levelo://app?vid=5f99b7e3-d8c3-4c53-96ba-688de3a18650","ios":"levelo://app?vid=5f99b7e3-d8c3-4c53-96ba-688de3a18650"},"vehicle_type_id":"4","last_reported":1774808792,"current_range_meters":4800,"station_id":"ce4bgvh2rcd13ifvqcs0","pricing_plan_id":"cebpf4jnsgd1na2vs0mg"},{"bike_id":"76201515-ae70-408c-82ba-b2d7c39b0327","system_id":"levelo_inurba_marseille","lat":43.25122,"lon":5.40336,"is_reserved":false,"is_disabled":false,"rental_uris":{"android":"levelo://app?vid=76201515-ae70-408c-82ba-b2d7c39b0327","ios":"levelo://app?vid=76201515-ae70-408c-82ba-b2d7c39b0327"},"vehicle_type_id":"4","last_reported":1774808792,"current_range_meters":4800,"station_id":"ce4bhlh2rcd13ifvqgig","pricing_plan_id":"cebpf4jnsgd1na2vs0mg"},{"bike_id":"ce4bb8b5-8a16-4588-8ca5-c266a05621c6","system_id":"levelo_inurba_marseille","lat":43.23897,"lon":5.3755,"is_reserved":false,"is_disabled":false,"rental_uris":{"android":"levelo://app?vid=ce4bb8b5-8a16-4588-8ca5-c266a05621c6","ios":"levelo://app?vid=ce4bb8b5-8a16-4588-8ca5-c266a05621c6"},"vehicle_type_id":"4","last_reported":1774808792,"current_range_meters":4800,"station_id":"","pricing_plan_id":"cebpf4jnsgd1na2vs0mg"},{"bike_id":"7c88f0c1-78b1-4ff8-ad2f-f9357b093faf","system_id":"levelo_inurba_marseille","lat":43.24938,"lon":5.40494,"is_reserved":false,"is_disabled":false,"rental_uris":{"android":"levelo://app?vid=7c88f0c1-78b1-4ff8-ad2f-f9357b093faf","ios":"levelo://app?vid=7c88f0c1-78b1-4ff8-ad2f-f9357b093faf"},"vehicle_type_id":"4","last_reported":1774808792,"current_range_meters":4800,"station_id":"st_d2ngiaodas8pm72gd1h0","pricing_plan_id":"cebpf4jnsgd1na2vs0mg"},{"bike_id":"49440f96-ba95-4c66-9233-2b71a0d8f44e","system_id":"levelo_inurba_marseille","lat":43.2122,"lon":5.35068,"is_reserved":false,"is_disabled":true,"rental_uris":{"android":"levelo://app?vid=49440f96-ba95-4c66-9233-2b71a0d8f44e","ios":"levelo://app?vid=49440f96-ba95-4c66-9233-2b71a0d8f44e"},"vehicle_type_id":"4","last_reported":1774808792,"current_range_meters":4800,"station_id":"st_cvj6sg6p6f1abm77japg","pricing_plan_id":"cebpf4jnsgd1na2vs0mg"},{"bike_id":"02f24484-d422-40d6-996e-505884b43ff9","system_id":"levelo_inurba_marseille","lat":43.2455,"lon":5.39529,"is_reserved":false,"is_disabled":false,"rental_uris":{"android":"levelo://app?vid=02f24484-d422-40d6-996e-505884b43ff9","ios":"levelo://app?vid=02f24484-d422-40d6-996e-505884b43ff9"},"vehicle_type_id":"4","last_reported":1774808792,"current_range_meters":5600,"station_id":"ce4bhlp2rcd13ifvqgjg","pricing_plan_id":"cebpf4jnsgd1na2vs0mg"},{"bike_id":"1b52061f-2407-41b6-9fde-eceac5ab1e54","system_id":"levelo_inurba_marseille","lat":43.21185,"lon":5.3508,"is_reserved":false,"is_disabled":false,"rental_uris":{"android":"levelo://app?vid=1b52061f-2407-41b6-9fde-eceac5ab1e54","ios":"levelo://app?vid=1b52061f-2407-41b6-9fde-eceac5ab1e54"},"vehicle_type_id":"4","last_reported":1774808792,"current_range_meters":5600,"station_id":"st_cvj6sg6p6f1abm77japg","pricing_plan_id":"cebpf4jnsgd1na2vs0mg"},{"bike_id":"13ee3437-7496-48ca-915d-637411bda3d3","system_id":"levelo_inurba_marseille","lat":43.30887,"lon":5.39664,"is_reserved":false,"is_disabled":false,"rental_uris":{"android":"levelo://app?vid=13ee3437-7496-48ca-915d-637411bda3d3","ios":"levelo://app?vid=13ee3437-7496-48ca-915d-637411bda3d3"},"vehicle_type_id":"4","last_reported":1774808792,"current_range_meters":5600,"station_id":"ce4bh012rcd13ifvqcv0","pricing_plan_id":"cebpf4jnsgd1na2vs0mg"},{"bike_id":"a754c0a5-5311-488c-b0f0-45f3643ff815","system_id":"levelo_inurba_marseille","lat":43.2847,"lon":5.35912,"is_reserved":false,"is_disabled":false,"rental_uris":{"android":"levelo://app?vid=a754c0a5-5311-488c-b0f0-45f3643ff815","ios":"levelo://app?vid=a754c0a5-5311-488c-b0f0-45f3643ff815"},"vehicle_type_id":"4","last_reported":1774808792,"current_range_meters":5600,"station_id":"ce4bhah2rcd13ifvqei0","pricing_plan_id":"cebpf4jnsgd1na2vs0mg"},{"bike_id":"06bc0e41-8288-4aad-80d5-8ff642775aeb","system_id":"levelo_inurba_marseille","lat":43.28099,"lon":5.37832,"is_reserved":false,"is_disabled":false,"rental_uris":{"android":"levelo://app?vid=06bc0e41-8288-4aad-80d5-8ff642775aeb","ios":"levelo://app?vid=06bc0e41-8288-4aad-80d5-8ff642775aeb"},"vehicle_type_id":"4","last_reported":1774808792,"current_range_meters":5600,"station_id":"ce4bha12rcd13ifvqee0","pricing_plan_id":"cebpf4jnsgd1na2vs0mg"},{"bike_id":"3bfb3cb6-1c30-4493-b8fb-b4ed48ae29de","system_id":"levelo_inurba_marseille","lat":43.2655,"lon":5.37279,"is_reserved":false,"is_disabled":false,"rental_uris":{"android":"levelo://app?vid=3bfb3cb6-1c30-4493-b8fb-b4ed48ae29de","ios":"levelo://app?vid=3bfb3cb6-1c30-4493-b8fb-b4ed48ae29de"},"vehicle_type_id":"4","last_reported":1774808792,"current_range_meters":5600,"station_id":"ce4bhg12rcd13ifvqf70","pricing_plan_id":"cebpf4jnsgd1na2vs0mg"},{"bike_id":"9222b7cc-5cb7-4048-a1df-b610bdcd2230","system_id":"levelo_inurba_marseille","lat":43.28074,"lon":5.39659,"is_reserved":false,"is_disabled":false,"rental_uris":{"android":"levelo://app?vid=9222b7cc-5cb7-4048-a1df-b610bdcd2230","ios":"levelo://app?vid=9222b7cc-5cb7-4048-a1df-b610bdcd2230"},"vehicle_type_id":"4","last_reported":1774808792,"current_range_meters":5600,"station_id":"ce4bho12rcd13ifvqh2g","pricing_plan_id":"cebpf4jnsgd1na2vs0mg"},{"bike_id":"2f2b1d2c-1be4-402e-a839-6d84d3bfb79f","system_id":"levelo_inurba_marseille","lat":43.28424,"lon":5.34976,"is_reserved":false,"is_disabled":false,"rental_uris":{"android":"levelo://app?vid=2f2b1d2c-1be4-402e-a839-6d84d3bfb79f","ios":"levelo://app?vid=2f2b1d2c-1be4-402e-a839-6d84d3bfb79f"},"vehicle_type_id":"4","last_reported":1774808792,"current_range_meters":5600,"station_id":"ce4bhbh2rcd13ifvqepg","pricing_plan_id":"cebpf4jnsgd1na2vs0mg"},{"bike_id":"dd53e447-889e-4b25-b7f7-eee2bc059db2","system_id":"levelo_inurba_marseille","lat":43.22553,"lon":5.41631,"is_reserved":false,"is_disabled":false,"rental_uris":{"android":"levelo://app?vid=dd53e447-889e-4b25-b7f7-eee2bc059db2","ios":"levelo://app?vid=dd53e447-889e-4b25-b7f7-eee2bc059db2"},"vehicle_type_id":"4","last_reported":1774808792,"current_range_meters":5600,"station_id":"st_d2o4gvlbi1j2169b742g","pricing_plan_id":"cebpf4jnsgd1na2vs0mg"},{"bike_id":"ab1291b4-d3cd-4716-85ac-dee7716419f7","system_id":"levelo_inurba_marseille","lat":43.29758,"lon":5.42816,"is_reserved":false,"is_disabled":false,"rental_uris":{"android":"levelo://app?vid=ab1291b4-d3cd-4716-85ac-dee7716419f7","ios":"levelo://app?vid=ab1291b4-d3cd-4716-85ac-dee7716419f7"},"vehicle_type_id":"4","last_reported":1774808792,"current_range_meters":6000,"station_id":"st_d3md5207bmas73dh9klg","pricing_plan_id":"cebpf4jnsgd1na2vs0mg"},{"bike_id":"0f430097-8d5e-4a5a-9147-4fc5e40a362e","system_id":"levelo_inurba_marseille","lat":43.33538,"lon":5.37453,"is_reserved":false,"is_disabled":false,"rental_uris":{"android":"levelo://app?vid=0f430097-8d5e-4a5a-9147-4fc5e40a362e","ios":"levelo://app?vid=0f430097-8d5e-4a5a-9147-4fc5e40a362e"},"vehicle_type_id":"4","last_reported":1774808792,"current_range_meters":6000,"station_id":"st_d46tts09ee8s73dlu43g","pricing_plan_id":"cebpf4jnsgd1na2vs0mg"},{"bike_id":"dd747372-2cba-48f0-a00a-9ec9ff8991e8","system_id":"levelo_inurba_marseille","lat":43.29936,"lon":5.37461,"is_reserved":false,"is_disabled":false,"rental_uris":{"android":"levelo://app?vid=dd747372-2cba-48f0-a00a-9ec9ff8991e8","ios":"levelo://app?vid=dd747372-2cba-48f0-a00a-9ec9ff8991e8"},"vehicle_type_id":"4","last_reported":1774808792,"current_range_meters":6000,"station_id":"ce4bgjh2rcd13ifvqbg0","pricing_plan_id":"cebpf4jnsgd1na2vs0mg"},{"bike_id":"d0eed567-65f1-4e79-a8a4-01256c3b54d9","system_id":"levelo_inurba_marseille","lat":43.28623,"lon":5.39512,"is_reserved":false,"is_disabled":false,"rental_uris":{"android":"levelo://app?vid=d0eed567-65f1-4e79-a8a4-01256c3b54d9","ios":"levelo://app?vid=d0eed567-65f1-4e79-a8a4-01256c3b54d9"},"vehicle_type_id":"4","last_reported":1774808792,"current_range_meters":6000,"station_id":"","pricing_plan_id":"cebpf4jnsgd1na2vs0mg"},{"bike_id":"baf7c004-e890-47af-ba3f-3dcb4a5e4db3","system_id":"levelo_inurba_marseille","lat":43.24631,"lon":5.38926,"is_reserved":false,"is_disabled":false,"rental_uris":{"android":"levelo://app?vid=baf7c004-e890-47af-ba3f-3dcb4a5e4db3","ios":"levelo://app?vid=baf7c004-e890-47af-ba3f-3dcb4a5e4db3"},"vehicle_type_id":"4","last_reported":1774808792,"current_range_meters":6000,"station_id":"ce4bhg12rcd13ifvqf60","pricing_plan_id":"cebpf4jnsgd1na2vs0mg"},{"bike_id":"f31d687b-f39f-4799-a123-ec0aec4b625b","system_id":"levelo_inurba_marseille","lat":43.30603,"lon":5.37143,"is_reserved":false,"is_disabled":true,"rental_uris":{"android":"levelo://app?vid=f31d687b-f39f-4799-a123-ec0aec4b625b","ios":"levelo://app?vid=f31d687b-f39f-4799-a123-ec0aec4b625b"},"vehicle_type_id":"4","last_reported":1774808792,"current_range_meters":6000,"station_id":"","pricing_plan_id":"cebpf4jnsgd1na2vs0mg"},{"bike_id":"a29faabf-0aeb-4033-8055-66d6e75b75ec","system_id":"levelo_inurba_marseille","lat":43.29851,"lon":5.36286,"is_reserved":false,"is_disabled":false,"rental_uris":{"android":"levelo://app?vid=a29faabf-0aeb-4033-8055-66d6e75b75ec","ios":"levelo://app?vid=a29faabf-0aeb-4033-8055-66d6e75b75ec"},"vehicle_type_id":"4","last_reported":1774808792,"current_range_meters":6000,"station_id":"ce4bgpp2rcd13ifvqc3g","pricing_plan_id":"cebpf4jnsgd1na2vs0mg"},{"bike_id":"9be5b936-b312-4e80-a794-0c9e24312fd0","system_id":"levelo_inurba_marseille","lat":43.29514,"lon":5.37439,"is_reserved":false,"is_disabled":false,"rental_uris":{"android":"levelo://app?vid=9be5b936-b312-4e80-a794-0c9e24312fd0","ios":"levelo://app?vid=9be5b936-b312-4e80-a794-0c9e24312fd0"},"vehicle_type_id":"4","last_reported":1774808792,"current_range_meters":6000,"station_id":"ce4bgkp2rcd13ifvqbmg","pricing_plan_id":"cebpf4jnsgd1na2vs0mg"},{"bike_id":"3fcfb2c6-ea79-4061-8560-c0ab3b58201a","system_id":"levelo_inurba_marseille","lat":43.30538,"lon":5.36705,"is_reserved":false,"is_disabled":false,"rental_uris":{"android":"levelo://app?vid=3fcfb2c6-ea79-4061-8560-c0ab3b58201a","ios":"levelo://app?vid=3fcfb2c6-ea79-4061-8560-c0ab3b58201a"},"vehicle_type_id":"4","last_reported":1774808792,"current_range_meters":6000,"station_id":"ce4bgrp2rcd13ifvqc9g","pricing_plan_id":"cebpf4jnsgd1na2vs0mg"},{"bike_id":"56603236-0b6d-44e6-924a-3489e7c8fead","system_id":"levelo_inurba_marseille","lat":43.25736,"lon":5.38706,"is_reserved":false,"is_disabled":false,"rental_uris":{"android":"levelo://app?vid=56603236-0b6d-44e6-924a-3489e7c8fead","ios":"levelo://app?vid=56603236-0b6d-44e6-924a-3489e7c8fead"},"vehicle_type_id":"4","last_reported":1774808792,"current_range_meters":6000,"station_id":"","pricing_plan_id":"cebpf4jnsgd1na2vs0mg"},{"bike_id":"a05f14a1-4e5f-4602-8854-acc12ec16d5d","system_id":"levelo_inurba_marseille","lat":43.26796,"lon":5.39425,"is_reserved":false,"is_disabled":false,"rental_uris":{"android":"levelo://app?vid=a05f14a1-4e5f-4602-8854-acc12ec16d5d","ios":"levelo://app?vid=a05f14a1-4e5f-4602-8854-acc12ec16d5d"},"vehicle_type_id":"4","last_reported":1774808792,"current_range_meters":6000,"station_id":"ce4bhh12rcd13ifvqfg0","pricing_plan_id":"cebpf4jnsgd1na2vs0mg"},{"bike_id":"659ccfdf-569f-4f01-84dd-6c9bbfa33ac4","system_id":"levelo_inurba_marseille","lat":43.23771,"lon":5.36625,"is_reserved":false,"is_disabled":false,"rental_uris":{"android":"levelo://app?vid=659ccfdf-569f-4f01-84dd-6c9bbfa33ac4","ios":"levelo://app?vid=659ccfdf-569f-4f01-84dd-6c9bbfa33ac4"},"vehicle_type_id":"4","last_reported":1774808792,"current_range_meters":6000,"station_id":"st_d3nk18o9ro0c73en2l3g","pricing_plan_id":"cebpf4jnsgd1na2vs0mg"},{"bike_id":"21fb97b6-639e-4bec-90aa-c8edf8b5f975","system_id":"levelo_inurba_marseille","lat":43.2861,"lon":5.35111,"is_reserved":false,"is_disabled":false,"rental_uris":{"android":"levelo://app?vid=21fb97b6-639e-4bec-90aa-c8edf8b5f975","ios":"levelo://app?vid=21fb97b6-639e-4bec-90aa-c8edf8b5f975"},"vehicle_type_id":"4","last_reported":1774808792,"current_range_meters":6000,"station_id":"ce4bhch2rcd13ifvqeug","pricing_plan_id":"cebpf4jnsgd1na2vs0mg"},{"bike_id":"eb39795b-cac6-4623-bdba-72d20e86753b","system_id":"levelo_inurba_marseille","lat":43.28463,"lon":5.3589,"is_reserved":false,"is_disabled":false,"rental_uris":{"android":"levelo://app?vid=eb39795b-cac6-4623-bdba-72d20e86753b","ios":"levelo://app?vid=eb39795b-cac6-4623-bdba-72d20e86753b"},"vehicle_type_id":"4","last_reported":1774808792,"current_range_meters":6000,"station_id":"ce4bhah2rcd13ifvqei0","pricing_plan_id":"cebpf4jnsgd1na2vs0mg"},{"bike_id":"b8394b2d-a1de-4bd2-9f24-92a64dcc9e4c","system_id":"levelo_inurba_marseille","lat":43.29533,"lon":5.38548,"is_reserved":false,"is_disabled":false,"rental_uris":{"android":"levelo://app?vid=b8394b2d-a1de-4bd2-9f24-92a64dcc9e4c","ios":"levelo://app?vid=b8394b2d-a1de-4bd2-9f24-92a64dcc9e4c"},"vehicle_type_id":"4","last_reported":1774808792,"current_range_meters":6000,"station_id":"","pricing_plan_id":"cebpf4jnsgd1na2vs0mg"},{"bike_id":"71a44c2a-b5fa-4989-91b9-9bead61d4c3e","system_id":"levelo_inurba_marseille","lat":43.23892,"lon":5.37467,"is_reserved":false,"is_disabled":false,"rental_uris":{"android":"levelo://app?vid=71a44c2a-b5fa-4989-91b9-9bead61d4c3e","ios":"levelo://app?vid=71a44c2a-b5fa-4989-91b9-9bead61d4c3e"},"vehicle_type_id":"4","last_reported":1774808792,"current_range_meters":6400,"station_id":"st_d6sm7csbq4hs73f8fpjg","pricing_plan_id":"cebpf4jnsgd1na2vs0mg"},{"bike_id":"22f19f3e-ab21-460a-b2f5-d0c6d4cfe337","system_id":"levelo_inurba_marseille","lat":43.26243,"lon":5.40474,"is_reserved":false,"is_disabled":false,"rental_uris":{"android":"levelo://app?vid=22f19f3e-ab21-460a-b2f5-d0c6d4cfe337","ios":"levelo://app?vid=22f19f3e-ab21-460a-b2f5-d0c6d4cfe337"},"vehicle_type_id":"4","last_reported":1774808792,"current_range_meters":6400,"station_id":"ce4bhmh2rcd13ifvqgmg","pricing_plan_id":"cebpf4jnsgd1na2vs0mg"},{"bike_id":"aff6d9ee-ac5e-465c-afa5-f8f00de22510","system_id":"levelo_inurba_marseille","lat":43.29436,"lon":5.39779,"is_reserved":false,"is_disabled":false,"rental_uris":{"android":"levelo://app?vid=aff6d9ee-ac5e-465c-afa5-f8f00de22510","ios":"levelo://app?vid=aff6d9ee-ac5e-465c-afa5-f8f00de22510"},"vehicle_type_id":"4","last_reported":1774808792,"current_range_meters":6400,"station_id":"ce4bh3h2rcd13ifvqdo0","pricing_plan_id":"cebpf4jnsgd1na2vs0mg"},{"bike_id":"2d0fdc3d-338a-4727-826c-caea44a0cbfa","system_id":"levelo_inurba_marseille","lat":43.29828,"lon":5.44072,"is_reserved":false,"is_disabled":false,"rental_uris":{"android":"levelo://app?vid=2d0fdc3d-338a-4727-826c-caea44a0cbfa","ios":"levelo://app?vid=2d0fdc3d-338a-4727-826c-caea44a0cbfa"},"vehicle_type_id":"4","last_reported":1774808792,"current_range_meters":6400,"station_id":"st_d3jp68qikq2c7381ktn0","pricing_plan_id":"cebpf4jnsgd1na2vs0mg"},{"bike_id":"b7ab0452-5ce4-413a-beb0-4e909253350f","system_id":"levelo_inurba_marseille","lat":43.31172,"lon":5.38724,"is_reserved":false,"is_disabled":false,"rental_uris":{"android":"levelo://app?vid=b7ab0452-5ce4-413a-beb0-4e909253350f","ios":"levelo://app?vid=b7ab0452-5ce4-413a-beb0-4e909253350f"},"vehicle_type_id":"4","last_reported":1774808792,"current_range_meters":6400,"station_id":"ce4bgv12rcd13ifvqcp0","pricing_plan_id":"cebpf4jnsgd1na2vs0mg"},{"bike_id":"907ae532-aa61-4b3c-af67-14218d0cabb0","system_id":"levelo_inurba_marseille","lat":43.24829,"lon":5.37466,"is_reserved":false,"is_disabled":false,"rental_uris":{"android":"levelo://app?vid=907ae532-aa61-4b3c-af67-14218d0cabb0","ios":"levelo://app?vid=907ae532-aa61-4b3c-af67-14218d0cabb0"},"vehicle_type_id":"4","last_reported":1774808792,"current_range_meters":6400,"station_id":"ce4bhgh2rcd13ifvqfb0","pricing_plan_id":"cebpf4jnsgd1na2vs0mg"},{"bike_id":"5dc7a0c1-467a-4151-97ef-a8a655c4f7a5","system_id":"levelo_inurba_marseille","lat":43.28486,"lon":5.48398,"is_reserved":false,"is_disabled":false,"rental_uris":{"android":"levelo://app?vid=5dc7a0c1-467a-4151-97ef-a8a655c4f7a5","ios":"levelo://app?vid=5dc7a0c1-467a-4151-97ef-a8a655c4f7a5"},"vehicle_type_id":"4","last_reported":1774808792,"current_range_meters":6400,"station_id":"","pricing_plan_id":"cebpf4jnsgd1na2vs0mg"},{"bike_id":"06ee5aa4-3afd-47a3-ae85-dab4995d4568","system_id":"levelo_inurba_marseille","lat":43.2823,"lon":5.39059,"is_reserved":false,"is_disabled":false,"rental_uris":{"android":"levelo://app?vid=06ee5aa4-3afd-47a3-ae85-dab4995d4568","ios":"levelo://app?vid=06ee5aa4-3afd-47a3-ae85-dab4995d4568"},"vehicle_type_id":"4","last_reported":1774808792,"current_range_meters":6400,"station_id":"ce4bhn92rcd13ifvqgsg","pricing_plan_id":"cebpf4jnsgd1na2vs0mg"},{"bike_id":"9003f206-df6c-4bb7-a89f-61f5d0943a25","system_id":"levelo_inurba_marseille","lat":43.29962,"lon":5.38489,"is_reserved":false,"is_disabled":false,"rental_uris":{"android":"levelo://app?vid=9003f206-df6c-4bb7-a89f-61f5d0943a25","ios":"levelo://app?vid=9003f206-df6c-4bb7-a89f-61f5d0943a25"},"vehicle_type_id":"4","last_reported":1774808792,"current_range_meters":6400,"station_id":"ce4bgj92rcd13ifvqbd0","pricing_plan_id":"cebpf4jnsgd1na2vs0mg"},{"bike_id":"990a1a75-d66f-4c5f-a156-69cf04cb241d","system_id":"levelo_inurba_marseille","lat":43.29037,"lon":5.3866,"is_reserved":false,"is_disabled":false,"rental_uris":{"android":"levelo://app?vid=990a1a75-d66f-4c5f-a156-69cf04cb241d","ios":"levelo://app?vid=990a1a75-d66f-4c5f-a156-69cf04cb241d"},"vehicle_type_id":"4","last_reported":1774808792,"current_range_meters":6400,"station_id":"ce4bh4p2rcd13ifvqe0g","pricing_plan_id":"cebpf4jnsgd1na2vs0mg"},{"bike_id":"ad8ed4c8-17f3-42fc-a282-8d09f7195506","system_id":"levelo_inurba_marseille","lat":43.32333,"lon":5.40999,"is_reserved":false,"is_disabled":false,"rental_uris":{"android":"levelo://app?vid=ad8ed4c8-17f3-42fc-a282-8d09f7195506","ios":"levelo://app?vid=ad8ed4c8-17f3-42fc-a282-8d09f7195506"},"vehicle_type_id":"4","last_reported":1774808792,"current_range_meters":6400,"station_id":"","pricing_plan_id":"cebpf4jnsgd1na2vs0mg"},{"bike_id":"efc93f42-f699-4082-8389-17c6dc4915e6","system_id":"levelo_inurba_marseille","lat":43.29013,"lon":5.38125,"is_reserved":false,"is_disabled":false,"rental_uris":{"android":"levelo://app?vid=efc93f42-f699-4082-8389-17c6dc4915e6","ios":"levelo://app?vid=efc93f42-f699-4082-8389-17c6dc4915e6"},"vehicle_type_id":"4","last_reported":1774808792,"current_range_meters":6400,"station_id":"ce4bh4p2rcd13ifvqe1g","pricing_plan_id":"cebpf4jnsgd1na2vs0mg"},{"bike_id":"86158243-0de7-41f0-b955-e75f48e85b06","system_id":"levelo_inurba_marseille","lat":43.302592,"lon":5.400803,"is_reserved":false,"is_disabled":false,"rental_uris":{"android":"levelo://app?vid=86158243-0de7-41f0-b955-e75f48e85b06","ios":"levelo://app?vid=86158243-0de7-41f0-b955-e75f48e85b06"},"vehicle_type_id":"4","last_reported":1774808792,"current_range_meters":6400,"station_id":"ce4bgt92rcd13ifvqcg0","pricing_plan_id":"cebpf4jnsgd1na2vs0mg"},{"bike_id":"440d6573-668f-40af-9e3d-0f463f239629","system_id":"levelo_inurba_marseille","lat":43.28466,"lon":5.35897,"is_reserved":false,"is_disabled":false,"rental_uris":{"android":"levelo://app?vid=440d6573-668f-40af-9e3d-0f463f239629","ios":"levelo://app?vid=440d6573-668f-40af-9e3d-0f463f239629"},"vehicle_type_id":"4","last_reported":1774808792,"current_range_meters":6400,"station_id":"ce4bhah2rcd13ifvqei0","pricing_plan_id":"cebpf4jnsgd1na2vs0mg"},{"bike_id":"dc815f27-42c2-49c9-9aa7-01b56ffa580a","system_id":"levelo_inurba_marseille","lat":43.2761,"lon":5.36137,"is_reserved":false,"is_disabled":false,"rental_uris":{"android":"levelo://app?vid=dc815f27-42c2-49c9-9aa7-01b56ffa580a","ios":"levelo://app?vid=dc815f27-42c2-49c9-9aa7-01b56ffa580a"},"vehicle_type_id":"4","last_reported":1774808792,"current_range_meters":6400,"station_id":"ce4bgj92rcd13ifvqbe0","pricing_plan_id":"cebpf4jnsgd1na2vs0mg"},{"bike_id":"22de67e1-b112-41ea-8ecd-3ce01238a932","system_id":"levelo_inurba_marseille","lat":43.23081,"lon":5.35483,"is_reserved":false,"is_disabled":false,"rental_uris":{"android":"levelo://app?vid=22de67e1-b112-41ea-8ecd-3ce01238a932","ios":"levelo://app?vid=22de67e1-b112-41ea-8ecd-3ce01238a932"},"vehicle_type_id":"4","last_reported":1774808792,"current_range_meters":6400,"station_id":"cpo3342slgdg3j2ifvpg","pricing_plan_id":"cebpf4jnsgd1na2vs0mg"},{"bike_id":"7428ac1e-f4bd-4036-b85a-93e3baea27a5","system_id":"levelo_inurba_marseille","lat":43.26775,"lon":5.39427,"is_reserved":false,"is_disabled":false,"rental_uris":{"android":"levelo://app?vid=7428ac1e-f4bd-4036-b85a-93e3baea27a5","ios":"levelo://app?vid=7428ac1e-f4bd-4036-b85a-93e3baea27a5"},"vehicle_type_id":"4","last_reported":1774808792,"current_range_meters":6400,"station_id":"ce4bhh12rcd13ifvqfg0","pricing_plan_id":"cebpf4jnsgd1na2vs0mg"},{"bike_id":"943c9e3a-9b1c-4b0a-8ffa-f1a5298b847a","system_id":"levelo_inurba_marseille","lat":43.28463,"lon":5.35882,"is_reserved":false,"is_disabled":false,"rental_uris":{"android":"levelo://app?vid=943c9e3a-9b1c-4b0a-8ffa-f1a5298b847a","ios":"levelo://app?vid=943c9e3a-9b1c-4b0a-8ffa-f1a5298b847a"},"vehicle_type_id":"4","last_reported":1774808792,"current_range_meters":6400,"station_id":"ce4bhah2rcd13ifvqei0","pricing_plan_id":"cebpf4jnsgd1na2vs0mg"},{"bike_id":"57d6f507-d78c-4ad7-b805-3d7d95261abb","system_id":"levelo_inurba_marseille","lat":43.27814,"lon":5.40711,"is_reserved":false,"is_disabled":false,"rental_uris":{"android":"levelo://app?vid=57d6f507-d78c-4ad7-b805-3d7d95261abb","ios":"levelo://app?vid=57d6f507-d78c-4ad7-b805-3d7d95261abb"},"vehicle_type_id":"4","last_reported":1774808792,"current_range_meters":6800,"station_id":"ce4bhnh2rcd13ifvqgtg","pricing_plan_id":"cebpf4jnsgd1na2vs0mg"},{"bike_id":"c3ad9aae-2095-478f-b355-43899e698b74","system_id":"levelo_inurba_marseille","lat":43.29531,"lon":5.38666,"is_reserved":false,"is_disabled":false,"rental_uris":{"android":"levelo://app?vid=c3ad9aae-2095-478f-b355-43899e698b74","ios":"levelo://app?vid=c3ad9aae-2095-478f-b355-43899e698b74"},"vehicle_type_id":"4","last_reported":1774808792,"current_range_meters":6800,"station_id":"","pricing_plan_id":"cebpf4jnsgd1na2vs0mg"},{"bike_id":"09f2281d-f1d0-43be-9569-e4a88fb5b27b","system_id":"levelo_inurba_marseille","lat":43.24944,"lon":5.40494,"is_reserved":false,"is_disabled":false,"rental_uris":{"android":"levelo://app?vid=09f2281d-f1d0-43be-9569-e4a88fb5b27b","ios":"levelo://app?vid=09f2281d-f1d0-43be-9569-e4a88fb5b27b"},"vehicle_type_id":"4","last_reported":1774808792,"current_range_meters":6800,"station_id":"st_d2ngiaodas8pm72gd1h0","pricing_plan_id":"cebpf4jnsgd1na2vs0mg"},{"bike_id":"345872dc-6cdd-47db-a22e-41d392ca5071","system_id":"levelo_inurba_marseille","lat":43.29544,"lon":5.42295,"is_reserved":false,"is_disabled":false,"rental_uris":{"android":"levelo://app?vid=345872dc-6cdd-47db-a22e-41d392ca5071","ios":"levelo://app?vid=345872dc-6cdd-47db-a22e-41d392ca5071"},"vehicle_type_id":"4","last_reported":1774808792,"current_range_meters":6800,"station_id":"ce4bhph2rcd13ifvqhdg","pricing_plan_id":"cebpf4jnsgd1na2vs0mg"},{"bike_id":"2457fc1b-679d-4a71-90e9-ad408ab6ed9d","system_id":"levelo_inurba_marseille","lat":43.33269,"lon":5.37919,"is_reserved":false,"is_disabled":false,"rental_uris":{"android":"levelo://app?vid=2457fc1b-679d-4a71-90e9-ad408ab6ed9d","ios":"levelo://app?vid=2457fc1b-679d-4a71-90e9-ad408ab6ed9d"},"vehicle_type_id":"4","last_reported":1774808792,"current_range_meters":6800,"station_id":"","pricing_plan_id":"cebpf4jnsgd1na2vs0mg"},{"bike_id":"2cb2fac0-f8b0-456d-aa3c-89b44b007830","system_id":"levelo_inurba_marseille","lat":43.24664,"lon":5.38169,"is_reserved":false,"is_disabled":false,"rental_uris":{"android":"levelo://app?vid=2cb2fac0-f8b0-456d-aa3c-89b44b007830","ios":"levelo://app?vid=2cb2fac0-f8b0-456d-aa3c-89b44b007830"},"vehicle_type_id":"4","last_reported":1774808792,"current_range_meters":6800,"station_id":"ce4bhih2rcd13ifvqfr0","pricing_plan_id":"cebpf4jnsgd1na2vs0mg"},{"bike_id":"90aaae4f-4bea-44a9-9991-726dd88eccf2","system_id":"levelo_inurba_marseille","lat":43.23361,"lon":5.412,"is_reserved":false,"is_disabled":true,"rental_uris":{"android":"levelo://app?vid=90aaae4f-4bea-44a9-9991-726dd88eccf2","ios":"levelo://app?vid=90aaae4f-4bea-44a9-9991-726dd88eccf2"},"vehicle_type_id":"4","last_reported":1774808792,"current_range_meters":6800,"station_id":"","pricing_plan_id":"cebpf4jnsgd1na2vs0mg"},{"bike_id":"791cfeb9-4831-456b-aeba-16146a1f13ce","system_id":"levelo_inurba_marseille","lat":43.29021,"lon":5.38642,"is_reserved":false,"is_disabled":false,"rental_uris":{"android":"levelo://app?vid=791cfeb9-4831-456b-aeba-16146a1f13ce","ios":"levelo://app?vid=791cfeb9-4831-456b-aeba-16146a1f13ce"},"vehicle_type_id":"4","last_reported":1774808792,"current_range_meters":6800,"station_id":"ce4bh4p2rcd13ifvqe0g","pricing_plan_id":"cebpf4jnsgd1na2vs0mg"},{"bike_id":"c609aa61-79d9-47bd-b7b7-62d640d7b9ef","system_id":"levelo_inurba_marseille","lat":43.26538,"lon":5.37295,"is_reserved":false,"is_disabled":true,"rental_uris":{"android":"levelo://app?vid=c609aa61-79d9-47bd-b7b7-62d640d7b9ef","ios":"levelo://app?vid=c609aa61-79d9-47bd-b7b7-62d640d7b9ef"},"vehicle_type_id":"4","last_reported":1774808792,"current_range_meters":6800,"station_id":"ce4bhg12rcd13ifvqf70","pricing_plan_id":"cebpf4jnsgd1na2vs0mg"},{"bike_id":"b8bf157e-659b-4230-b7a5-7abce9abcca2","system_id":"levelo_inurba_marseille","lat":43.24752,"lon":5.38164,"is_reserved":false,"is_disabled":false,"rental_uris":{"android":"levelo://app?vid=b8bf157e-659b-4230-b7a5-7abce9abcca2","ios":"levelo://app?vid=b8bf157e-659b-4230-b7a5-7abce9abcca2"},"vehicle_type_id":"4","last_reported":1774808792,"current_range_meters":6800,"station_id":"","pricing_plan_id":"cebpf4jnsgd1na2vs0mg"},{"bike_id":"65d5af6b-cacc-40ed-bb61-074708425bfc","system_id":"levelo_inurba_marseille","lat":43.27489,"lon":5.38377,"is_reserved":false,"is_disabled":false,"rental_uris":{"android":"levelo://app?vid=65d5af6b-cacc-40ed-bb61-074708425bfc","ios":"levelo://app?vid=65d5af6b-cacc-40ed-bb61-074708425bfc"},"vehicle_type_id":"4","last_reported":1774808792,"current_range_meters":6800,"station_id":"","pricing_plan_id":"cebpf4jnsgd1na2vs0mg"},{"bike_id":"c7455337-418f-4584-b005-28037aae8e12","system_id":"levelo_inurba_marseille","lat":43.28527,"lon":5.44138,"is_reserved":false,"is_disabled":false,"rental_uris":{"android":"levelo://app?vid=c7455337-418f-4584-b005-28037aae8e12","ios":"levelo://app?vid=c7455337-418f-4584-b005-28037aae8e12"},"vehicle_type_id":"4","last_reported":1774808792,"current_range_meters":6800,"station_id":"st_d3j3df2ikq2c7380ej80","pricing_plan_id":"cebpf4jnsgd1na2vs0mg"},{"bike_id":"56ed71d3-4f24-4bcb-9e63-f10b7aa4866e","system_id":"levelo_inurba_marseille","lat":43.28409,"lon":5.34971,"is_reserved":false,"is_disabled":false,"rental_uris":{"android":"levelo://app?vid=56ed71d3-4f24-4bcb-9e63-f10b7aa4866e","ios":"levelo://app?vid=56ed71d3-4f24-4bcb-9e63-f10b7aa4866e"},"vehicle_type_id":"4","last_reported":1774808792,"current_range_meters":6800,"station_id":"ce4bhbh2rcd13ifvqepg","pricing_plan_id":"cebpf4jnsgd1na2vs0mg"},{"bike_id":"fe46a177-f80a-4d69-b2ae-915d23543f7e","system_id":"levelo_inurba_marseille","lat":43.30349,"lon":5.41861,"is_reserved":false,"is_disabled":false,"rental_uris":{"android":"levelo://app?vid=fe46a177-f80a-4d69-b2ae-915d23543f7e","ios":"levelo://app?vid=fe46a177-f80a-4d69-b2ae-915d23543f7e"},"vehicle_type_id":"4","last_reported":1774808792,"current_range_meters":6800,"station_id":"ce4bhop2rcd13ifvqh7g","pricing_plan_id":"cebpf4jnsgd1na2vs0mg"},{"bike_id":"b41a87b1-597a-4152-9739-c4817c08f6ab","system_id":"levelo_inurba_marseille","lat":43.32662,"lon":5.4099,"is_reserved":false,"is_disabled":false,"rental_uris":{"android":"levelo://app?vid=b41a87b1-597a-4152-9739-c4817c08f6ab","ios":"levelo://app?vid=b41a87b1-597a-4152-9739-c4817c08f6ab"},"vehicle_type_id":"4","last_reported":1774808792,"current_range_meters":6800,"station_id":"ce4bhpp2rcd13ifvqhgg","pricing_plan_id":"cebpf4jnsgd1na2vs0mg"},{"bike_id":"8291faaf-9299-4c17-bd32-1a91a7c30ee5","system_id":"levelo_inurba_marseille","lat":43.23965,"lon":5.3665,"is_reserved":false,"is_disabled":false,"rental_uris":{"android":"levelo://app?vid=8291faaf-9299-4c17-bd32-1a91a7c30ee5","ios":"levelo://app?vid=8291faaf-9299-4c17-bd32-1a91a7c30ee5"},"vehicle_type_id":"4","last_reported":1774808792,"current_range_meters":6800,"station_id":"ce4bhi12rcd13ifvqfp0","pricing_plan_id":"cebpf4jnsgd1na2vs0mg"},{"bike_id":"1e193ed4-2194-4db4-8282-742477f05b7e","system_id":"levelo_inurba_marseille","lat":43.3266,"lon":5.40991,"is_reserved":false,"is_disabled":false,"rental_uris":{"android":"levelo://app?vid=1e193ed4-2194-4db4-8282-742477f05b7e","ios":"levelo://app?vid=1e193ed4-2194-4db4-8282-742477f05b7e"},"vehicle_type_id":"4","last_reported":1774808792,"current_range_meters":6800,"station_id":"ce4bhpp2rcd13ifvqhgg","pricing_plan_id":"cebpf4jnsgd1na2vs0mg"},{"bike_id":"ac1d55f0-81a6-4ee6-a492-e62942743297","system_id":"levelo_inurba_marseille","lat":43.2656,"lon":5.37286,"is_reserved":false,"is_disabled":false,"rental_uris":{"android":"levelo://app?vid=ac1d55f0-81a6-4ee6-a492-e62942743297","ios":"levelo://app?vid=ac1d55f0-81a6-4ee6-a492-e62942743297"},"vehicle_type_id":"4","last_reported":1774808792,"current_range_meters":6800,"station_id":"ce4bhg12rcd13ifvqf70","pricing_plan_id":"cebpf4jnsgd1na2vs0mg"},{"bike_id":"031ad41e-a4c5-4964-898f-80e711debfb0","system_id":"levelo_inurba_marseille","lat":43.28268,"lon":5.35074,"is_reserved":false,"is_disabled":false,"rental_uris":{"android":"levelo://app?vid=031ad41e-a4c5-4964-898f-80e711debfb0","ios":"levelo://app?vid=031ad41e-a4c5-4964-898f-80e711debfb0"},"vehicle_type_id":"4","last_reported":1774808792,"current_range_meters":6800,"station_id":"ce4bhbp2rcd13ifvqerg","pricing_plan_id":"cebpf4jnsgd1na2vs0mg"},{"bike_id":"860407bc-513f-4910-b3a0-87ea13c637b1","system_id":"levelo_inurba_marseille","lat":43.2854,"lon":5.44118,"is_reserved":false,"is_disabled":false,"rental_uris":{"android":"levelo://app?vid=860407bc-513f-4910-b3a0-87ea13c637b1","ios":"levelo://app?vid=860407bc-513f-4910-b3a0-87ea13c637b1"},"vehicle_type_id":"4","last_reported":1774808792,"current_range_meters":7200,"station_id":"st_d3j3df2ikq2c7380ej80","pricing_plan_id":"cebpf4jnsgd1na2vs0mg"},{"bike_id":"2de38fd0-4d56-4129-8633-4ee1741a5e1b","system_id":"levelo_inurba_marseille","lat":43.21202,"lon":5.35082,"is_reserved":false,"is_disabled":false,"rental_uris":{"android":"levelo://app?vid=2de38fd0-4d56-4129-8633-4ee1741a5e1b","ios":"levelo://app?vid=2de38fd0-4d56-4129-8633-4ee1741a5e1b"},"vehicle_type_id":"4","last_reported":1774808792,"current_range_meters":7200,"station_id":"st_cvj6sg6p6f1abm77japg","pricing_plan_id":"cebpf4jnsgd1na2vs0mg"},{"bike_id":"3f200426-1eba-4d5e-acb1-a1a43666133b","system_id":"levelo_inurba_marseille","lat":43.21186,"lon":5.35081,"is_reserved":false,"is_disabled":false,"rental_uris":{"android":"levelo://app?vid=3f200426-1eba-4d5e-acb1-a1a43666133b","ios":"levelo://app?vid=3f200426-1eba-4d5e-acb1-a1a43666133b"},"vehicle_type_id":"4","last_reported":1774808792,"current_range_meters":7200,"station_id":"st_cvj6sg6p6f1abm77japg","pricing_plan_id":"cebpf4jnsgd1na2vs0mg"},{"bike_id":"855896c7-1d47-46c5-847f-925777f9ad5c","system_id":"levelo_inurba_marseille","lat":43.29968,"lon":5.385,"is_reserved":false,"is_disabled":true,"rental_uris":{"android":"levelo://app?vid=855896c7-1d47-46c5-847f-925777f9ad5c","ios":"levelo://app?vid=855896c7-1d47-46c5-847f-925777f9ad5c"},"vehicle_type_id":"4","last_reported":1774808792,"current_range_meters":7200,"station_id":"ce4bgj92rcd13ifvqbd0","pricing_plan_id":"cebpf4jnsgd1na2vs0mg"},{"bike_id":"83c421a9-58a3-4017-9a24-08613107f879","system_id":"levelo_inurba_marseille","lat":43.30143,"lon":5.39867,"is_reserved":false,"is_disabled":true,"rental_uris":{"android":"levelo://app?vid=83c421a9-58a3-4017-9a24-08613107f879","ios":"levelo://app?vid=83c421a9-58a3-4017-9a24-08613107f879"},"vehicle_type_id":"4","last_reported":1774808792,"current_range_meters":7200,"station_id":"ce4bh0h2rcd13ifvqd40","pricing_plan_id":"cebpf4jnsgd1na2vs0mg"},{"bike_id":"a51fda02-3d55-4588-8f9e-9aae3d21e201","system_id":"levelo_inurba_marseille","lat":43.24182,"lon":5.36407,"is_reserved":false,"is_disabled":false,"rental_uris":{"android":"levelo://app?vid=a51fda02-3d55-4588-8f9e-9aae3d21e201","ios":"levelo://app?vid=a51fda02-3d55-4588-8f9e-9aae3d21e201"},"vehicle_type_id":"4","last_reported":1774808792,"current_range_meters":7200,"station_id":"cpo36qri1sfpv3e86is0","pricing_plan_id":"cebpf4jnsgd1na2vs0mg"},{"bike_id":"4ac14f0a-8998-4748-8ce6-4e2830778449","system_id":"levelo_inurba_marseille","lat":43.28941,"lon":5.36627,"is_reserved":false,"is_disabled":false,"rental_uris":{"android":"levelo://app?vid=4ac14f0a-8998-4748-8ce6-4e2830778449","ios":"levelo://app?vid=4ac14f0a-8998-4748-8ce6-4e2830778449"},"vehicle_type_id":"4","last_reported":1774808792,"current_range_meters":7200,"station_id":"ce4bhap2rcd13ifvqek0","pricing_plan_id":"cebpf4jnsgd1na2vs0mg"},{"bike_id":"32a7a92c-b34f-4be3-bc6d-bf21d2e60027","system_id":"levelo_inurba_marseille","lat":43.32745,"lon":5.36645,"is_reserved":false,"is_disabled":true,"rental_uris":{"android":"levelo://app?vid=32a7a92c-b34f-4be3-bc6d-bf21d2e60027","ios":"levelo://app?vid=32a7a92c-b34f-4be3-bc6d-bf21d2e60027"},"vehicle_type_id":"4","last_reported":1774808792,"current_range_meters":7200,"station_id":"","pricing_plan_id":"cebpf4jnsgd1na2vs0mg"},{"bike_id":"8ebdddeb-65fa-4a6a-a7a1-243a6f4f1f0d","system_id":"levelo_inurba_marseille","lat":43.30425,"lon":5.39744,"is_reserved":false,"is_disabled":true,"rental_uris":{"android":"levelo://app?vid=8ebdddeb-65fa-4a6a-a7a1-243a6f4f1f0d","ios":"levelo://app?vid=8ebdddeb-65fa-4a6a-a7a1-243a6f4f1f0d"},"vehicle_type_id":"4","last_reported":1774808792,"current_range_meters":7200,"station_id":"ce4bh092rcd13ifvqd20","pricing_plan_id":"cebpf4jnsgd1na2vs0mg"},{"bike_id":"bfddc201-8f4a-483c-9f8e-b5162374e5bb","system_id":"levelo_inurba_marseille","lat":43.29077,"lon":5.43088,"is_reserved":false,"is_disabled":false,"rental_uris":{"android":"levelo://app?vid=bfddc201-8f4a-483c-9f8e-b5162374e5bb","ios":"levelo://app?vid=bfddc201-8f4a-483c-9f8e-b5162374e5bb"},"vehicle_type_id":"4","last_reported":1774808792,"current_range_meters":7200,"station_id":"","pricing_plan_id":"cebpf4jnsgd1na2vs0mg"},{"bike_id":"25a215c0-6185-4988-a946-459e463e94c2","system_id":"levelo_inurba_marseille","lat":43.28613,"lon":5.35098,"is_reserved":false,"is_disabled":false,"rental_uris":{"android":"levelo://app?vid=25a215c0-6185-4988-a946-459e463e94c2","ios":"levelo://app?vid=25a215c0-6185-4988-a946-459e463e94c2"},"vehicle_type_id":"4","last_reported":1774808792,"current_range_meters":7200,"station_id":"ce4bhch2rcd13ifvqeug","pricing_plan_id":"cebpf4jnsgd1na2vs0mg"},{"bike_id":"a64d95de-8cdd-4e07-956a-ae66f0205dba","system_id":"levelo_inurba_marseille","lat":43.2843,"lon":5.35008,"is_reserved":false,"is_disabled":false,"rental_uris":{"android":"levelo://app?vid=a64d95de-8cdd-4e07-956a-ae66f0205dba","ios":"levelo://app?vid=a64d95de-8cdd-4e07-956a-ae66f0205dba"},"vehicle_type_id":"4","last_reported":1774808792,"current_range_meters":7200,"station_id":"ce4bhbh2rcd13ifvqepg","pricing_plan_id":"cebpf4jnsgd1na2vs0mg"},{"bike_id":"18b329dd-ef61-4ee9-a44d-c3b749706483","system_id":"levelo_inurba_marseille","lat":43.28724,"lon":5.36102,"is_reserved":false,"is_disabled":false,"rental_uris":{"android":"levelo://app?vid=18b329dd-ef61-4ee9-a44d-c3b749706483","ios":"levelo://app?vid=18b329dd-ef61-4ee9-a44d-c3b749706483"},"vehicle_type_id":"4","last_reported":1774808792,"current_range_meters":7200,"station_id":"cki0cbj6b192h4jlfktg","pricing_plan_id":"cebpf4jnsgd1na2vs0mg"},{"bike_id":"76cca9fd-3b26-4efa-8c42-95d1d95d54d2","system_id":"levelo_inurba_marseille","lat":43.31197,"lon":5.38752,"is_reserved":false,"is_disabled":false,"rental_uris":{"android":"levelo://app?vid=76cca9fd-3b26-4efa-8c42-95d1d95d54d2","ios":"levelo://app?vid=76cca9fd-3b26-4efa-8c42-95d1d95d54d2"},"vehicle_type_id":"4","last_reported":1774808792,"current_range_meters":7200,"station_id":"ce4bgv12rcd13ifvqcp0","pricing_plan_id":"cebpf4jnsgd1na2vs0mg"},{"bike_id":"492ca8d4-1b25-45ca-83e2-1102f5af00ab","system_id":"levelo_inurba_marseille","lat":43.270705,"lon":5.42274,"is_reserved":false,"is_disabled":false,"rental_uris":{"android":"levelo://app?vid=492ca8d4-1b25-45ca-83e2-1102f5af00ab","ios":"levelo://app?vid=492ca8d4-1b25-45ca-83e2-1102f5af00ab"},"vehicle_type_id":"4","last_reported":1774808792,"current_range_meters":7200,"station_id":"ce4bhk92rcd13ifvqgb0","pricing_plan_id":"cebpf4jnsgd1na2vs0mg"},{"bike_id":"319bdd7e-2cc5-41f3-b533-df94cbc5aecb","system_id":"levelo_inurba_marseille","lat":43.3025,"lon":5.40061,"is_reserved":false,"is_disabled":false,"rental_uris":{"android":"levelo://app?vid=319bdd7e-2cc5-41f3-b533-df94cbc5aecb","ios":"levelo://app?vid=319bdd7e-2cc5-41f3-b533-df94cbc5aecb"},"vehicle_type_id":"4","last_reported":1774808792,"current_range_meters":7200,"station_id":"ce4bgvh2rcd13ifvqcs0","pricing_plan_id":"cebpf4jnsgd1na2vs0mg"},{"bike_id":"4809f61d-3dbb-4874-b89f-9de968e84a8a","system_id":"levelo_inurba_marseille","lat":43.28941,"lon":5.36633,"is_reserved":false,"is_disabled":false,"rental_uris":{"android":"levelo://app?vid=4809f61d-3dbb-4874-b89f-9de968e84a8a","ios":"levelo://app?vid=4809f61d-3dbb-4874-b89f-9de968e84a8a"},"vehicle_type_id":"4","last_reported":1774808792,"current_range_meters":7200,"station_id":"ce4bhap2rcd13ifvqek0","pricing_plan_id":"cebpf4jnsgd1na2vs0mg"},{"bike_id":"8b9653e9-0cd1-4b04-9fdf-0cafa9a7188c","system_id":"levelo_inurba_marseille","lat":43.25867,"lon":5.39897,"is_reserved":false,"is_disabled":false,"rental_uris":{"android":"levelo://app?vid=8b9653e9-0cd1-4b04-9fdf-0cafa9a7188c","ios":"levelo://app?vid=8b9653e9-0cd1-4b04-9fdf-0cafa9a7188c"},"vehicle_type_id":"4","last_reported":1774808792,"current_range_meters":7200,"station_id":"ce4bhl92rcd13ifvqghg","pricing_plan_id":"cebpf4jnsgd1na2vs0mg"},{"bike_id":"024d4670-487f-4b72-8198-15e0b78ce5e6","system_id":"levelo_inurba_marseille","lat":43.29003,"lon":5.35607,"is_reserved":false,"is_disabled":false,"rental_uris":{"android":"levelo://app?vid=024d4670-487f-4b72-8198-15e0b78ce5e6","ios":"levelo://app?vid=024d4670-487f-4b72-8198-15e0b78ce5e6"},"vehicle_type_id":"4","last_reported":1774808792,"current_range_meters":7200,"station_id":"ce4bhb92rcd13ifvqen0","pricing_plan_id":"cebpf4jnsgd1na2vs0mg"},{"bike_id":"49c8d86f-f60c-404f-92c3-829ac70a64b7","system_id":"levelo_inurba_marseille","lat":43.29018,"lon":5.38124,"is_reserved":false,"is_disabled":false,"rental_uris":{"android":"levelo://app?vid=49c8d86f-f60c-404f-92c3-829ac70a64b7","ios":"levelo://app?vid=49c8d86f-f60c-404f-92c3-829ac70a64b7"},"vehicle_type_id":"4","last_reported":1774808792,"current_range_meters":7200,"station_id":"ce4bh4p2rcd13ifvqe1g","pricing_plan_id":"cebpf4jnsgd1na2vs0mg"},{"bike_id":"084b5983-e802-433c-b10b-2748ae39f02e","system_id":"levelo_inurba_marseille","lat":43.21747,"lon":5.346,"is_reserved":false,"is_disabled":false,"rental_uris":{"android":"levelo://app?vid=084b5983-e802-433c-b10b-2748ae39f02e","ios":"levelo://app?vid=084b5983-e802-433c-b10b-2748ae39f02e"},"vehicle_type_id":"4","last_reported":1774808792,"current_range_meters":7200,"station_id":"st_cvj6r9ubvosntc0bgbag","pricing_plan_id":"cebpf4jnsgd1na2vs0mg"},{"bike_id":"6dd85ea7-57fd-40b5-9acc-09101e2a8697","system_id":"levelo_inurba_marseille","lat":43.22566,"lon":5.41628,"is_reserved":false,"is_disabled":false,"rental_uris":{"android":"levelo://app?vid=6dd85ea7-57fd-40b5-9acc-09101e2a8697","ios":"levelo://app?vid=6dd85ea7-57fd-40b5-9acc-09101e2a8697"},"vehicle_type_id":"4","last_reported":1774808792,"current_range_meters":7200,"station_id":"st_d2o4gvlbi1j2169b742g","pricing_plan_id":"cebpf4jnsgd1na2vs0mg"},{"bike_id":"96acd173-0372-4115-b94b-d2d184430b78","system_id":"levelo_inurba_marseille","lat":43.27945,"lon":5.4105,"is_reserved":false,"is_disabled":false,"rental_uris":{"android":"levelo://app?vid=96acd173-0372-4115-b94b-d2d184430b78","ios":"levelo://app?vid=96acd173-0372-4115-b94b-d2d184430b78"},"vehicle_type_id":"4","last_reported":1774808792,"current_range_meters":7200,"station_id":"ce4bhnp2rcd13ifvqh0g","pricing_plan_id":"cebpf4jnsgd1na2vs0mg"},{"bike_id":"1e277aa3-56f0-4d5c-afb5-54d03e53ef89","system_id":"levelo_inurba_marseille","lat":43.29361,"lon":5.38334,"is_reserved":false,"is_disabled":false,"rental_uris":{"android":"levelo://app?vid=1e277aa3-56f0-4d5c-afb5-54d03e53ef89","ios":"levelo://app?vid=1e277aa3-56f0-4d5c-afb5-54d03e53ef89"},"vehicle_type_id":"4","last_reported":1774808792,"current_range_meters":8000,"station_id":"","pricing_plan_id":"cebpf4jnsgd1na2vs0mg"},{"bike_id":"aeca9453-ce08-40c1-8c68-c50a96f12fa4","system_id":"levelo_inurba_marseille","lat":43.2863,"lon":5.35104,"is_reserved":false,"is_disabled":false,"rental_uris":{"android":"levelo://app?vid=aeca9453-ce08-40c1-8c68-c50a96f12fa4","ios":"levelo://app?vid=aeca9453-ce08-40c1-8c68-c50a96f12fa4"},"vehicle_type_id":"4","last_reported":1774808792,"current_range_meters":8000,"station_id":"ce4bhch2rcd13ifvqeug","pricing_plan_id":"cebpf4jnsgd1na2vs0mg"},{"bike_id":"8b21ac48-466c-4ed6-92ae-f569a5a73ca9","system_id":"levelo_inurba_marseille","lat":43.28475,"lon":5.48394,"is_reserved":false,"is_disabled":false,"rental_uris":{"android":"levelo://app?vid=8b21ac48-466c-4ed6-92ae-f569a5a73ca9","ios":"levelo://app?vid=8b21ac48-466c-4ed6-92ae-f569a5a73ca9"},"vehicle_type_id":"4","last_reported":1774808792,"current_range_meters":8000,"station_id":"","pricing_plan_id":"cebpf4jnsgd1na2vs0mg"},{"bike_id":"b236f643-53ba-43fa-b29d-c90773116eb2","system_id":"levelo_inurba_marseille","lat":43.24475,"lon":5.42545,"is_reserved":false,"is_disabled":false,"rental_uris":{"android":"levelo://app?vid=b236f643-53ba-43fa-b29d-c90773116eb2","ios":"levelo://app?vid=b236f643-53ba-43fa-b29d-c90773116eb2"},"vehicle_type_id":"4","last_reported":1774808792,"current_range_meters":8000,"station_id":"st_d4a3vfp97mjs738cd8kg","pricing_plan_id":"cebpf4jnsgd1na2vs0mg"},{"bike_id":"f9606047-6649-413b-af42-16d9b44d4046","system_id":"levelo_inurba_marseille","lat":43.25826,"lon":5.39409,"is_reserved":false,"is_disabled":false,"rental_uris":{"android":"levelo://app?vid=f9606047-6649-413b-af42-16d9b44d4046","ios":"levelo://app?vid=f9606047-6649-413b-af42-16d9b44d4046"},"vehicle_type_id":"4","last_reported":1774808792,"current_range_meters":8000,"station_id":"ce4bhip2rcd13ifvqft0","pricing_plan_id":"cebpf4jnsgd1na2vs0mg"},{"bike_id":"851eaa3e-6728-4d60-b29b-644ab4baeabc","system_id":"levelo_inurba_marseille","lat":43.28001,"lon":5.39169,"is_reserved":false,"is_disabled":false,"rental_uris":{"android":"levelo://app?vid=851eaa3e-6728-4d60-b29b-644ab4baeabc","ios":"levelo://app?vid=851eaa3e-6728-4d60-b29b-644ab4baeabc"},"vehicle_type_id":"4","last_reported":1774808792,"current_range_meters":8000,"station_id":"ce4bhn92rcd13ifvqgsg","pricing_plan_id":"cebpf4jnsgd1na2vs0mg"},{"bike_id":"db8ef000-0e95-46db-a22e-6c21eb8c132d","system_id":"levelo_inurba_marseille","lat":43.23388,"lon":5.41218,"is_reserved":false,"is_disabled":false,"rental_uris":{"android":"levelo://app?vid=db8ef000-0e95-46db-a22e-6c21eb8c132d","ios":"levelo://app?vid=db8ef000-0e95-46db-a22e-6c21eb8c132d"},"vehicle_type_id":"4","last_reported":1774808792,"current_range_meters":8000,"station_id":"","pricing_plan_id":"cebpf4jnsgd1na2vs0mg"},{"bike_id":"1322a4a2-def5-4fe3-a647-3b999c70c193","system_id":"levelo_inurba_marseille","lat":43.25067,"lon":5.395,"is_reserved":false,"is_disabled":false,"rental_uris":{"android":"levelo://app?vid=1322a4a2-def5-4fe3-a647-3b999c70c193","ios":"levelo://app?vid=1322a4a2-def5-4fe3-a647-3b999c70c193"},"vehicle_type_id":"4","last_reported":1774808792,"current_range_meters":8000,"station_id":"ce4bhm12rcd13ifvqgkg","pricing_plan_id":"cebpf4jnsgd1na2vs0mg"},{"bike_id":"7448b7b3-912b-4a27-b213-db0177a710eb","system_id":"levelo_inurba_marseille","lat":43.23905,"lon":5.37444,"is_reserved":false,"is_disabled":false,"rental_uris":{"android":"levelo://app?vid=7448b7b3-912b-4a27-b213-db0177a710eb","ios":"levelo://app?vid=7448b7b3-912b-4a27-b213-db0177a710eb"},"vehicle_type_id":"4","last_reported":1774808792,"current_range_meters":8000,"station_id":"st_d6sm7csbq4hs73f8fpjg","pricing_plan_id":"cebpf4jnsgd1na2vs0mg"},{"bike_id":"bd5cbf56-8589-4e6e-ad8f-c6ec7f102449","system_id":"levelo_inurba_marseille","lat":43.28689,"lon":5.37397,"is_reserved":false,"is_disabled":false,"rental_uris":{"android":"levelo://app?vid=bd5cbf56-8589-4e6e-ad8f-c6ec7f102449","ios":"levelo://app?vid=bd5cbf56-8589-4e6e-ad8f-c6ec7f102449"},"vehicle_type_id":"4","last_reported":1774808792,"current_range_meters":8400,"station_id":"ce4bh3p2rcd13ifvqdq0","pricing_plan_id":"cebpf4jnsgd1na2vs0mg"},{"bike_id":"fee6536c-6c89-4ab2-a4dc-f8491ca403ba","system_id":"levelo_inurba_marseille","lat":43.24996,"lon":5.38923,"is_reserved":false,"is_disabled":false,"rental_uris":{"android":"levelo://app?vid=fee6536c-6c89-4ab2-a4dc-f8491ca403ba","ios":"levelo://app?vid=fee6536c-6c89-4ab2-a4dc-f8491ca403ba"},"vehicle_type_id":"4","last_reported":1774808792,"current_range_meters":8400,"station_id":"ce4bhgp2rcd13ifvqfd0","pricing_plan_id":"cebpf4jnsgd1na2vs0mg"},{"bike_id":"034efc94-72f8-4b34-bec5-85cadcd16e18","system_id":"levelo_inurba_marseille","lat":43.2743,"lon":5.39414,"is_reserved":false,"is_disabled":false,"rental_uris":{"android":"levelo://app?vid=034efc94-72f8-4b34-bec5-85cadcd16e18","ios":"levelo://app?vid=034efc94-72f8-4b34-bec5-85cadcd16e18"},"vehicle_type_id":"4","last_reported":1774808792,"current_range_meters":8400,"station_id":"ce4bhdp2rcd13ifvqf20","pricing_plan_id":"cebpf4jnsgd1na2vs0mg"},{"bike_id":"c72328fb-6650-4ee3-9677-c8c59256751a","system_id":"levelo_inurba_marseille","lat":43.30307,"lon":5.39235,"is_reserved":false,"is_disabled":false,"rental_uris":{"android":"levelo://app?vid=c72328fb-6650-4ee3-9677-c8c59256751a","ios":"levelo://app?vid=c72328fb-6650-4ee3-9677-c8c59256751a"},"vehicle_type_id":"4","last_reported":1774808792,"current_range_meters":8400,"station_id":"ce4bgkh2rcd13ifvqbk0","pricing_plan_id":"cebpf4jnsgd1na2vs0mg"},{"bike_id":"f66113de-f3fb-4667-a759-f56810ed7f83","system_id":"levelo_inurba_marseille","lat":43.23893,"lon":5.37669,"is_reserved":false,"is_disabled":false,"rental_uris":{"android":"levelo://app?vid=f66113de-f3fb-4667-a759-f56810ed7f83","ios":"levelo://app?vid=f66113de-f3fb-4667-a759-f56810ed7f83"},"vehicle_type_id":"4","last_reported":1774808792,"current_range_meters":8400,"station_id":"","pricing_plan_id":"cebpf4jnsgd1na2vs0mg"},{"bike_id":"2c31328c-5726-415d-95f2-75fed7236581","system_id":"levelo_inurba_marseille","lat":43.303128,"lon":5.368721,"is_reserved":false,"is_disabled":false,"rental_uris":{"android":"levelo://app?vid=2c31328c-5726-415d-95f2-75fed7236581","ios":"levelo://app?vid=2c31328c-5726-415d-95f2-75fed7236581"},"vehicle_type_id":"4","last_reported":1774808792,"current_range_meters":8400,"station_id":"ce4bgqh2rcd13ifvqc5g","pricing_plan_id":"cebpf4jnsgd1na2vs0mg"},{"bike_id":"5d0cb7eb-e36d-49b9-bf33-706ee6e071de","system_id":"levelo_inurba_marseille","lat":43.287018,"lon":5.39987,"is_reserved":false,"is_disabled":false,"rental_uris":{"android":"levelo://app?vid=5d0cb7eb-e36d-49b9-bf33-706ee6e071de","ios":"levelo://app?vid=5d0cb7eb-e36d-49b9-bf33-706ee6e071de"},"vehicle_type_id":"4","last_reported":1774808792,"current_range_meters":8400,"station_id":"ce4bho92rcd13ifvqh3g","pricing_plan_id":"cebpf4jnsgd1na2vs0mg"},{"bike_id":"2806c744-432f-4b93-b461-4453c281e532","system_id":"levelo_inurba_marseille","lat":43.2952,"lon":5.39028,"is_reserved":false,"is_disabled":true,"rental_uris":{"android":"levelo://app?vid=2806c744-432f-4b93-b461-4453c281e532","ios":"levelo://app?vid=2806c744-432f-4b93-b461-4453c281e532"},"vehicle_type_id":"4","last_reported":1774808792,"current_range_meters":8400,"station_id":"ce4bh3p2rcd13ifvqdp0","pricing_plan_id":"cebpf4jnsgd1na2vs0mg"},{"bike_id":"b4dd00eb-e494-45a6-9b0b-914f0da4cc47","system_id":"levelo_inurba_marseille","lat":43.31171,"lon":5.36883,"is_reserved":false,"is_disabled":false,"rental_uris":{"android":"levelo://app?vid=b4dd00eb-e494-45a6-9b0b-914f0da4cc47","ios":"levelo://app?vid=b4dd00eb-e494-45a6-9b0b-914f0da4cc47"},"vehicle_type_id":"4","last_reported":1774808792,"current_range_meters":8400,"station_id":"","pricing_plan_id":"cebpf4jnsgd1na2vs0mg"},{"bike_id":"4263df33-1587-4e6f-90b2-85dabcc21251","system_id":"levelo_inurba_marseille","lat":43.31444,"lon":5.39294,"is_reserved":false,"is_disabled":false,"rental_uris":{"android":"levelo://app?vid=4263df33-1587-4e6f-90b2-85dabcc21251","ios":"levelo://app?vid=4263df33-1587-4e6f-90b2-85dabcc21251"},"vehicle_type_id":"4","last_reported":1774808792,"current_range_meters":8400,"station_id":"","pricing_plan_id":"cebpf4jnsgd1na2vs0mg"},{"bike_id":"48c12b74-6f3a-40a8-94b3-e62be28f6fcf","system_id":"levelo_inurba_marseille","lat":43.32357,"lon":5.36738,"is_reserved":false,"is_disabled":false,"rental_uris":{"android":"levelo://app?vid=48c12b74-6f3a-40a8-94b3-e62be28f6fcf","ios":"levelo://app?vid=48c12b74-6f3a-40a8-94b3-e62be28f6fcf"},"vehicle_type_id":"4","last_reported":1774808792,"current_range_meters":8400,"station_id":"ce4bhsh2rcd13ifvqi2g","pricing_plan_id":"cebpf4jnsgd1na2vs0mg"},{"bike_id":"abfabc00-fcd7-4a3f-92b6-e2d23e51a002","system_id":"levelo_inurba_marseille","lat":43.25125,"lon":5.40319,"is_reserved":false,"is_disabled":false,"rental_uris":{"android":"levelo://app?vid=abfabc00-fcd7-4a3f-92b6-e2d23e51a002","ios":"levelo://app?vid=abfabc00-fcd7-4a3f-92b6-e2d23e51a002"},"vehicle_type_id":"4","last_reported":1774808792,"current_range_meters":8400,"station_id":"ce4bhlh2rcd13ifvqgig","pricing_plan_id":"cebpf4jnsgd1na2vs0mg"},{"bike_id":"8efaf94a-553c-4be0-aacc-a876b10b3ac1","system_id":"levelo_inurba_marseille","lat":43.32356,"lon":5.36755,"is_reserved":false,"is_disabled":false,"rental_uris":{"android":"levelo://app?vid=8efaf94a-553c-4be0-aacc-a876b10b3ac1","ios":"levelo://app?vid=8efaf94a-553c-4be0-aacc-a876b10b3ac1"},"vehicle_type_id":"4","last_reported":1774808792,"current_range_meters":8400,"station_id":"ce4bhsh2rcd13ifvqi2g","pricing_plan_id":"cebpf4jnsgd1na2vs0mg"},{"bike_id":"06fa9c00-d59d-438e-9dbe-bb0f09cb7ca2","system_id":"levelo_inurba_marseille","lat":43.23189,"lon":5.35546,"is_reserved":false,"is_disabled":false,"rental_uris":{"android":"levelo://app?vid=06fa9c00-d59d-438e-9dbe-bb0f09cb7ca2","ios":"levelo://app?vid=06fa9c00-d59d-438e-9dbe-bb0f09cb7ca2"},"vehicle_type_id":"4","last_reported":1774808792,"current_range_meters":8400,"station_id":"ce4bhu92rcd13ifvqi70","pricing_plan_id":"cebpf4jnsgd1na2vs0mg"},{"bike_id":"ba481b47-1e62-47f3-9d06-b30ab0e65b34","system_id":"levelo_inurba_marseille","lat":43.24458,"lon":5.42545,"is_reserved":false,"is_disabled":false,"rental_uris":{"android":"levelo://app?vid=ba481b47-1e62-47f3-9d06-b30ab0e65b34","ios":"levelo://app?vid=ba481b47-1e62-47f3-9d06-b30ab0e65b34"},"vehicle_type_id":"4","last_reported":1774808792,"current_range_meters":8400,"station_id":"st_d4a3vfp97mjs738cd8kg","pricing_plan_id":"cebpf4jnsgd1na2vs0mg"},{"bike_id":"f65f9ba1-6303-4d94-8334-3ce721a50aca","system_id":"levelo_inurba_marseille","lat":43.25837,"lon":5.39428,"is_reserved":false,"is_disabled":false,"rental_uris":{"android":"levelo://app?vid=f65f9ba1-6303-4d94-8334-3ce721a50aca","ios":"levelo://app?vid=f65f9ba1-6303-4d94-8334-3ce721a50aca"},"vehicle_type_id":"4","last_reported":1774808792,"current_range_meters":8400,"station_id":"ce4bhip2rcd13ifvqft0","pricing_plan_id":"cebpf4jnsgd1na2vs0mg"},{"bike_id":"aa77f550-e4b1-4b77-9856-a11e7c77859c","system_id":"levelo_inurba_marseille","lat":43.29319,"lon":5.37488,"is_reserved":false,"is_disabled":false,"rental_uris":{"android":"levelo://app?vid=aa77f550-e4b1-4b77-9856-a11e7c77859c","ios":"levelo://app?vid=aa77f550-e4b1-4b77-9856-a11e7c77859c"},"vehicle_type_id":"4","last_reported":1774808792,"current_range_meters":8400,"station_id":"ce4bgi12rcd13ifvqb70","pricing_plan_id":"cebpf4jnsgd1na2vs0mg"},{"bike_id":"dace812d-b1bd-4d8e-9f03-42b3e0c73c20","system_id":"levelo_inurba_marseille","lat":43.26589,"lon":5.39046,"is_reserved":false,"is_disabled":false,"rental_uris":{"android":"levelo://app?vid=dace812d-b1bd-4d8e-9f03-42b3e0c73c20","ios":"levelo://app?vid=dace812d-b1bd-4d8e-9f03-42b3e0c73c20"},"vehicle_type_id":"4","last_reported":1774808792,"current_range_meters":8800,"station_id":"ce4bhe12rcd13ifvqf30","pricing_plan_id":"cebpf4jnsgd1na2vs0mg"},{"bike_id":"d0cda7c1-30bd-4222-8053-6b58a2f3a08b","system_id":"levelo_inurba_marseille","lat":43.29038,"lon":5.38647,"is_reserved":false,"is_disabled":false,"rental_uris":{"android":"levelo://app?vid=d0cda7c1-30bd-4222-8053-6b58a2f3a08b","ios":"levelo://app?vid=d0cda7c1-30bd-4222-8053-6b58a2f3a08b"},"vehicle_type_id":"4","last_reported":1774808792,"current_range_meters":8800,"station_id":"ce4bh4p2rcd13ifvqe0g","pricing_plan_id":"cebpf4jnsgd1na2vs0mg"},{"bike_id":"2afbec2b-a06e-4e33-9eed-368850ffcbbc","system_id":"levelo_inurba_marseille","lat":43.28441,"lon":5.37527,"is_reserved":false,"is_disabled":false,"rental_uris":{"android":"levelo://app?vid=2afbec2b-a06e-4e33-9eed-368850ffcbbc","ios":"levelo://app?vid=2afbec2b-a06e-4e33-9eed-368850ffcbbc"},"vehicle_type_id":"4","last_reported":1774808792,"current_range_meters":8800,"station_id":"ce4bh412rcd13ifvqds0","pricing_plan_id":"cebpf4jnsgd1na2vs0mg"},{"bike_id":"d7af4a16-c24d-42e0-8dcb-9c2da17fba3c","system_id":"levelo_inurba_marseille","lat":43.29581,"lon":5.36747,"is_reserved":false,"is_disabled":false,"rental_uris":{"android":"levelo://app?vid=d7af4a16-c24d-42e0-8dcb-9c2da17fba3c","ios":"levelo://app?vid=d7af4a16-c24d-42e0-8dcb-9c2da17fba3c"},"vehicle_type_id":"4","last_reported":1774808792,"current_range_meters":8800,"station_id":"ce4bgph2rcd13ifvqc2g","pricing_plan_id":"cebpf4jnsgd1na2vs0mg"},{"bike_id":"e7748134-61a0-40ea-8c74-d4dd3b6d234d","system_id":"levelo_inurba_marseille","lat":43.23819,"lon":5.36636,"is_reserved":false,"is_disabled":false,"rental_uris":{"android":"levelo://app?vid=e7748134-61a0-40ea-8c74-d4dd3b6d234d","ios":"levelo://app?vid=e7748134-61a0-40ea-8c74-d4dd3b6d234d"},"vehicle_type_id":"4","last_reported":1774808792,"current_range_meters":8800,"station_id":"st_d3nk18o9ro0c73en2l3g","pricing_plan_id":"cebpf4jnsgd1na2vs0mg"},{"bike_id":"827f0319-0581-4a2b-8c54-b73e8666701a","system_id":"levelo_inurba_marseille","lat":43.30294,"lon":5.39225,"is_reserved":false,"is_disabled":false,"rental_uris":{"android":"levelo://app?vid=827f0319-0581-4a2b-8c54-b73e8666701a","ios":"levelo://app?vid=827f0319-0581-4a2b-8c54-b73e8666701a"},"vehicle_type_id":"4","last_reported":1774808792,"current_range_meters":8800,"station_id":"ce4bgkh2rcd13ifvqbk0","pricing_plan_id":"cebpf4jnsgd1na2vs0mg"},{"bike_id":"238f9b98-c095-4fa4-bba5-47396b3d6b05","system_id":"levelo_inurba_marseille","lat":43.30951,"lon":5.39027,"is_reserved":false,"is_disabled":false,"rental_uris":{"android":"levelo://app?vid=238f9b98-c095-4fa4-bba5-47396b3d6b05","ios":"levelo://app?vid=238f9b98-c095-4fa4-bba5-47396b3d6b05"},"vehicle_type_id":"4","last_reported":1774808792,"current_range_meters":8800,"station_id":"ce4bgup2rcd13ifvqco0","pricing_plan_id":"cebpf4jnsgd1na2vs0mg"},{"bike_id":"b1cbf460-56cf-47f4-9cfc-cba147627bd7","system_id":"levelo_inurba_marseille","lat":43.21203,"lon":5.35102,"is_reserved":false,"is_disabled":false,"rental_uris":{"android":"levelo://app?vid=b1cbf460-56cf-47f4-9cfc-cba147627bd7","ios":"levelo://app?vid=b1cbf460-56cf-47f4-9cfc-cba147627bd7"},"vehicle_type_id":"4","last_reported":1774808792,"current_range_meters":8800,"station_id":"st_cvj6sg6p6f1abm77japg","pricing_plan_id":"cebpf4jnsgd1na2vs0mg"},{"bike_id":"8eb433e2-99ff-4186-9b79-fd6535098fae","system_id":"levelo_inurba_marseille","lat":43.22543,"lon":5.34842,"is_reserved":false,"is_disabled":false,"rental_uris":{"android":"levelo://app?vid=8eb433e2-99ff-4186-9b79-fd6535098fae","ios":"levelo://app?vid=8eb433e2-99ff-4186-9b79-fd6535098fae"},"vehicle_type_id":"4","last_reported":1774808792,"current_range_meters":8800,"station_id":"","pricing_plan_id":"cebpf4jnsgd1na2vs0mg"},{"bike_id":"73eb2552-7b27-4e3e-936a-2dc4c2a07c41","system_id":"levelo_inurba_marseille","lat":43.337444,"lon":5.374475,"is_reserved":false,"is_disabled":false,"rental_uris":{"android":"levelo://app?vid=73eb2552-7b27-4e3e-936a-2dc4c2a07c41","ios":"levelo://app?vid=73eb2552-7b27-4e3e-936a-2dc4c2a07c41"},"vehicle_type_id":"4","last_reported":1774808792,"current_range_meters":8800,"station_id":"","pricing_plan_id":"cebpf4jnsgd1na2vs0mg"},{"bike_id":"ffe03ff3-adc2-40d1-8efe-4ce795ab3944","system_id":"levelo_inurba_marseille","lat":43.28639,"lon":5.35109,"is_reserved":false,"is_disabled":false,"rental_uris":{"android":"levelo://app?vid=ffe03ff3-adc2-40d1-8efe-4ce795ab3944","ios":"levelo://app?vid=ffe03ff3-adc2-40d1-8efe-4ce795ab3944"},"vehicle_type_id":"4","last_reported":1774808792,"current_range_meters":8800,"station_id":"ce4bhch2rcd13ifvqeug","pricing_plan_id":"cebpf4jnsgd1na2vs0mg"},{"bike_id":"1b42944a-8e9d-43e4-8c02-34640e302b7a","system_id":"levelo_inurba_marseille","lat":43.29883,"lon":5.389,"is_reserved":false,"is_disabled":true,"rental_uris":{"android":"levelo://app?vid=1b42944a-8e9d-43e4-8c02-34640e302b7a","ios":"levelo://app?vid=1b42944a-8e9d-43e4-8c02-34640e302b7a"},"vehicle_type_id":"4","last_reported":1774808792,"current_range_meters":8800,"station_id":"ce4bh392rcd13ifvqdl0","pricing_plan_id":"cebpf4jnsgd1na2vs0mg"},{"bike_id":"6d189367-b1da-46a7-b7d8-cc2f6c5c510a","system_id":"levelo_inurba_marseille","lat":43.24075,"lon":5.3775,"is_reserved":false,"is_disabled":false,"rental_uris":{"android":"levelo://app?vid=6d189367-b1da-46a7-b7d8-cc2f6c5c510a","ios":"levelo://app?vid=6d189367-b1da-46a7-b7d8-cc2f6c5c510a"},"vehicle_type_id":"4","last_reported":1774808792,"current_range_meters":8800,"station_id":"ce4bhnp2rcd13ifvqgvg","pricing_plan_id":"cebpf4jnsgd1na2vs0mg"},{"bike_id":"59ff4e54-6e7f-45a9-9127-3338899bd397","system_id":"levelo_inurba_marseille","lat":43.29018,"lon":5.3813,"is_reserved":false,"is_disabled":false,"rental_uris":{"android":"levelo://app?vid=59ff4e54-6e7f-45a9-9127-3338899bd397","ios":"levelo://app?vid=59ff4e54-6e7f-45a9-9127-3338899bd397"},"vehicle_type_id":"4","last_reported":1774808792,"current_range_meters":8800,"station_id":"ce4bh4p2rcd13ifvqe1g","pricing_plan_id":"cebpf4jnsgd1na2vs0mg"},{"bike_id":"397278e0-440c-401a-b00e-94a337b5111d","system_id":"levelo_inurba_marseille","lat":43.28527,"lon":5.44104,"is_reserved":false,"is_disabled":false,"rental_uris":{"android":"levelo://app?vid=397278e0-440c-401a-b00e-94a337b5111d","ios":"levelo://app?vid=397278e0-440c-401a-b00e-94a337b5111d"},"vehicle_type_id":"4","last_reported":1774808792,"current_range_meters":8800,"station_id":"st_d3j3df2ikq2c7380ej80","pricing_plan_id":"cebpf4jnsgd1na2vs0mg"},{"bike_id":"360cc1bb-ea03-4ff2-ae19-1fc21079e50c","system_id":"levelo_inurba_marseille","lat":43.21189,"lon":5.35052,"is_reserved":false,"is_disabled":false,"rental_uris":{"android":"levelo://app?vid=360cc1bb-ea03-4ff2-ae19-1fc21079e50c","ios":"levelo://app?vid=360cc1bb-ea03-4ff2-ae19-1fc21079e50c"},"vehicle_type_id":"4","last_reported":1774808792,"current_range_meters":8800,"station_id":"st_cvj6sg6p6f1abm77japg","pricing_plan_id":"cebpf4jnsgd1na2vs0mg"},{"bike_id":"356dbe8f-e6c3-4ec4-971b-62394c826748","system_id":"levelo_inurba_marseille","lat":43.29259,"lon":5.40935,"is_reserved":false,"is_disabled":false,"rental_uris":{"android":"levelo://app?vid=356dbe8f-e6c3-4ec4-971b-62394c826748","ios":"levelo://app?vid=356dbe8f-e6c3-4ec4-971b-62394c826748"},"vehicle_type_id":"4","last_reported":1774808792,"current_range_meters":8800,"station_id":"ce4bh192rcd13ifvqdc0","pricing_plan_id":"cebpf4jnsgd1na2vs0mg"},{"bike_id":"436a14e6-8c4f-48b5-acc8-deed1975664e","system_id":"levelo_inurba_marseille","lat":43.28405,"lon":5.34964,"is_reserved":false,"is_disabled":false,"rental_uris":{"android":"levelo://app?vid=436a14e6-8c4f-48b5-acc8-deed1975664e","ios":"levelo://app?vid=436a14e6-8c4f-48b5-acc8-deed1975664e"},"vehicle_type_id":"4","last_reported":1774808792,"current_range_meters":8800,"station_id":"ce4bhbh2rcd13ifvqepg","pricing_plan_id":"cebpf4jnsgd1na2vs0mg"},{"bike_id":"4096f1c8-965c-46e3-8095-e2b3f08129e2","system_id":"levelo_inurba_marseille","lat":43.31199,"lon":5.36889,"is_reserved":false,"is_disabled":false,"rental_uris":{"android":"levelo://app?vid=4096f1c8-965c-46e3-8095-e2b3f08129e2","ios":"levelo://app?vid=4096f1c8-965c-46e3-8095-e2b3f08129e2"},"vehicle_type_id":"4","last_reported":1774808792,"current_range_meters":8800,"station_id":"ce4bgl92rcd13ifvqbq0","pricing_plan_id":"cebpf4jnsgd1na2vs0mg"},{"bike_id":"eb1230f0-c5e4-4dc8-b0e6-2e79cb351ed4","system_id":"levelo_inurba_marseille","lat":43.23094,"lon":5.35505,"is_reserved":false,"is_disabled":false,"rental_uris":{"android":"levelo://app?vid=eb1230f0-c5e4-4dc8-b0e6-2e79cb351ed4","ios":"levelo://app?vid=eb1230f0-c5e4-4dc8-b0e6-2e79cb351ed4"},"vehicle_type_id":"4","last_reported":1774808792,"current_range_meters":8800,"station_id":"cpo3342slgdg3j2ifvpg","pricing_plan_id":"cebpf4jnsgd1na2vs0mg"},{"bike_id":"519eedef-6932-45e6-ac97-7cffa418bbb1","system_id":"levelo_inurba_marseille","lat":43.30884,"lon":5.39636,"is_reserved":false,"is_disabled":false,"rental_uris":{"android":"levelo://app?vid=519eedef-6932-45e6-ac97-7cffa418bbb1","ios":"levelo://app?vid=519eedef-6932-45e6-ac97-7cffa418bbb1"},"vehicle_type_id":"4","last_reported":1774808792,"current_range_meters":8800,"station_id":"ce4bh012rcd13ifvqcv0","pricing_plan_id":"cebpf4jnsgd1na2vs0mg"},{"bike_id":"a5f60354-d9e1-451c-b2fd-1e5a78b6de02","system_id":"levelo_inurba_marseille","lat":43.29891,"lon":5.39726,"is_reserved":false,"is_disabled":false,"rental_uris":{"android":"levelo://app?vid=a5f60354-d9e1-451c-b2fd-1e5a78b6de02","ios":"levelo://app?vid=a5f60354-d9e1-451c-b2fd-1e5a78b6de02"},"vehicle_type_id":"4","last_reported":1774808792,"current_range_meters":8800,"station_id":"ce4bh0h2rcd13ifvqd50","pricing_plan_id":"cebpf4jnsgd1na2vs0mg"},{"bike_id":"3a26e9dc-aa67-4ee0-b027-1891b4d5a5ad","system_id":"levelo_inurba_marseille","lat":43.26869,"lon":5.39474,"is_reserved":false,"is_disabled":false,"rental_uris":{"android":"levelo://app?vid=3a26e9dc-aa67-4ee0-b027-1891b4d5a5ad","ios":"levelo://app?vid=3a26e9dc-aa67-4ee0-b027-1891b4d5a5ad"},"vehicle_type_id":"4","last_reported":1774808792,"current_range_meters":8800,"station_id":"","pricing_plan_id":"cebpf4jnsgd1na2vs0mg"},{"bike_id":"aea41b74-0875-4007-a8fe-66599b4e59e6","system_id":"levelo_inurba_marseille","lat":43.28887,"lon":5.45704,"is_reserved":false,"is_disabled":false,"rental_uris":{"android":"levelo://app?vid=aea41b74-0875-4007-a8fe-66599b4e59e6","ios":"levelo://app?vid=aea41b74-0875-4007-a8fe-66599b4e59e6"},"vehicle_type_id":"4","last_reported":1774808792,"current_range_meters":8800,"station_id":"","pricing_plan_id":"cebpf4jnsgd1na2vs0mg"},{"bike_id":"61f4c268-b85f-4822-8269-b56eeefb0830","system_id":"levelo_inurba_marseille","lat":43.28943,"lon":5.38397,"is_reserved":false,"is_disabled":false,"rental_uris":{"android":"levelo://app?vid=61f4c268-b85f-4822-8269-b56eeefb0830","ios":"levelo://app?vid=61f4c268-b85f-4822-8269-b56eeefb0830"},"vehicle_type_id":"4","last_reported":1774808792,"current_range_meters":8800,"station_id":"ce4bh612rcd13ifvqe6g","pricing_plan_id":"cebpf4jnsgd1na2vs0mg"},{"bike_id":"446a3c3c-3e0a-4bf9-8ce3-2ab4c663eafd","system_id":"levelo_inurba_marseille","lat":43.24162,"lon":5.36411,"is_reserved":false,"is_disabled":false,"rental_uris":{"android":"levelo://app?vid=446a3c3c-3e0a-4bf9-8ce3-2ab4c663eafd","ios":"levelo://app?vid=446a3c3c-3e0a-4bf9-8ce3-2ab4c663eafd"},"vehicle_type_id":"4","last_reported":1774808792,"current_range_meters":8800,"station_id":"cpo36qri1sfpv3e86is0","pricing_plan_id":"cebpf4jnsgd1na2vs0mg"},{"bike_id":"3f1514de-8400-4465-af37-3ae00d4855d9","system_id":"levelo_inurba_marseille","lat":43.27998,"lon":5.41663,"is_reserved":false,"is_disabled":false,"rental_uris":{"android":"levelo://app?vid=3f1514de-8400-4465-af37-3ae00d4855d9","ios":"levelo://app?vid=3f1514de-8400-4465-af37-3ae00d4855d9"},"vehicle_type_id":"4","last_reported":1774808792,"current_range_meters":8800,"station_id":"ce4bho12rcd13ifvqh1g","pricing_plan_id":"cebpf4jnsgd1na2vs0mg"},{"bike_id":"13849d37-af4c-433a-aec5-b4a52781bd5b","system_id":"levelo_inurba_marseille","lat":43.30645,"lon":5.40075,"is_reserved":false,"is_disabled":false,"rental_uris":{"android":"levelo://app?vid=13849d37-af4c-433a-aec5-b4a52781bd5b","ios":"levelo://app?vid=13849d37-af4c-433a-aec5-b4a52781bd5b"},"vehicle_type_id":"4","last_reported":1774808792,"current_range_meters":9200,"station_id":"ce4bh112rcd13ifvqda0","pricing_plan_id":"cebpf4jnsgd1na2vs0mg"},{"bike_id":"cd1393ea-e931-4166-a63f-14e3bcaa8904","system_id":"levelo_inurba_marseille","lat":43.29975,"lon":5.38532,"is_reserved":false,"is_disabled":false,"rental_uris":{"android":"levelo://app?vid=cd1393ea-e931-4166-a63f-14e3bcaa8904","ios":"levelo://app?vid=cd1393ea-e931-4166-a63f-14e3bcaa8904"},"vehicle_type_id":"4","last_reported":1774808792,"current_range_meters":9200,"station_id":"ce4bgj92rcd13ifvqbd0","pricing_plan_id":"cebpf4jnsgd1na2vs0mg"},{"bike_id":"53110675-e2e8-439f-b733-501832057a6e","system_id":"levelo_inurba_marseille","lat":43.28416,"lon":5.34991,"is_reserved":false,"is_disabled":false,"rental_uris":{"android":"levelo://app?vid=53110675-e2e8-439f-b733-501832057a6e","ios":"levelo://app?vid=53110675-e2e8-439f-b733-501832057a6e"},"vehicle_type_id":"4","last_reported":1774808792,"current_range_meters":9200,"station_id":"ce4bhbh2rcd13ifvqepg","pricing_plan_id":"cebpf4jnsgd1na2vs0mg"},{"bike_id":"05f9bb45-8809-4205-b9e3-1f1e967f85de","system_id":"levelo_inurba_marseille","lat":43.28627,"lon":5.3507,"is_reserved":false,"is_disabled":false,"rental_uris":{"android":"levelo://app?vid=05f9bb45-8809-4205-b9e3-1f1e967f85de","ios":"levelo://app?vid=05f9bb45-8809-4205-b9e3-1f1e967f85de"},"vehicle_type_id":"4","last_reported":1774808792,"current_range_meters":9200,"station_id":"ce4bhch2rcd13ifvqeug","pricing_plan_id":"cebpf4jnsgd1na2vs0mg"},{"bike_id":"8b26d475-adfb-43a5-b19c-caf4f104de28","system_id":"levelo_inurba_marseille","lat":43.23056,"lon":5.35523,"is_reserved":false,"is_disabled":false,"rental_uris":{"android":"levelo://app?vid=8b26d475-adfb-43a5-b19c-caf4f104de28","ios":"levelo://app?vid=8b26d475-adfb-43a5-b19c-caf4f104de28"},"vehicle_type_id":"4","last_reported":1774808792,"current_range_meters":9200,"station_id":"cpo3342slgdg3j2ifvpg","pricing_plan_id":"cebpf4jnsgd1na2vs0mg"},{"bike_id":"e559e66e-296f-4357-96f0-e4ca20d1e35d","system_id":"levelo_inurba_marseille","lat":43.28629,"lon":5.35124,"is_reserved":false,"is_disabled":false,"rental_uris":{"android":"levelo://app?vid=e559e66e-296f-4357-96f0-e4ca20d1e35d","ios":"levelo://app?vid=e559e66e-296f-4357-96f0-e4ca20d1e35d"},"vehicle_type_id":"4","last_reported":1774808792,"current_range_meters":9200,"station_id":"ce4bhch2rcd13ifvqeug","pricing_plan_id":"cebpf4jnsgd1na2vs0mg"},{"bike_id":"10f001e3-1b5e-4722-bd6e-1cdc4b551001","system_id":"levelo_inurba_marseille","lat":43.28406,"lon":5.34992,"is_reserved":false,"is_disabled":false,"rental_uris":{"android":"levelo://app?vid=10f001e3-1b5e-4722-bd6e-1cdc4b551001","ios":"levelo://app?vid=10f001e3-1b5e-4722-bd6e-1cdc4b551001"},"vehicle_type_id":"4","last_reported":1774808792,"current_range_meters":9200,"station_id":"ce4bhbh2rcd13ifvqepg","pricing_plan_id":"cebpf4jnsgd1na2vs0mg"},{"bike_id":"b159cfdc-4e3d-42c0-b5ef-43f4122d544b","system_id":"levelo_inurba_marseille","lat":43.31366,"lon":5.36708,"is_reserved":false,"is_disabled":false,"rental_uris":{"android":"levelo://app?vid=b159cfdc-4e3d-42c0-b5ef-43f4122d544b","ios":"levelo://app?vid=b159cfdc-4e3d-42c0-b5ef-43f4122d544b"},"vehicle_type_id":"4","last_reported":1774808792,"current_range_meters":9200,"station_id":"ce4bgr92rcd13ifvqc6g","pricing_plan_id":"cebpf4jnsgd1na2vs0mg"},{"bike_id":"01095b3d-90a6-498c-9936-5c0313abdcd7","system_id":"levelo_inurba_marseille","lat":43.21191,"lon":5.35086,"is_reserved":false,"is_disabled":false,"rental_uris":{"android":"levelo://app?vid=01095b3d-90a6-498c-9936-5c0313abdcd7","ios":"levelo://app?vid=01095b3d-90a6-498c-9936-5c0313abdcd7"},"vehicle_type_id":"4","last_reported":1774808792,"current_range_meters":9200,"station_id":"st_cvj6sg6p6f1abm77japg","pricing_plan_id":"cebpf4jnsgd1na2vs0mg"},{"bike_id":"a9c71e26-ee36-4aed-bfc1-c01bc20ab0da","system_id":"levelo_inurba_marseille","lat":43.28925,"lon":5.38406,"is_reserved":false,"is_disabled":false,"rental_uris":{"android":"levelo://app?vid=a9c71e26-ee36-4aed-bfc1-c01bc20ab0da","ios":"levelo://app?vid=a9c71e26-ee36-4aed-bfc1-c01bc20ab0da"},"vehicle_type_id":"4","last_reported":1774808792,"current_range_meters":9200,"station_id":"ce4bh612rcd13ifvqe6g","pricing_plan_id":"cebpf4jnsgd1na2vs0mg"},{"bike_id":"e9697157-df6b-450c-8cca-29631c385438","system_id":"levelo_inurba_marseille","lat":43.29307,"lon":5.37154,"is_reserved":false,"is_disabled":false,"rental_uris":{"android":"levelo://app?vid=e9697157-df6b-450c-8cca-29631c385438","ios":"levelo://app?vid=e9697157-df6b-450c-8cca-29631c385438"},"vehicle_type_id":"4","last_reported":1774808792,"current_range_meters":9200,"station_id":"ce4bgh92rcd13ifvqb40","pricing_plan_id":"cebpf4jnsgd1na2vs0mg"},{"bike_id":"8de278e2-e816-48b7-b9f8-61d77c6dddb0","system_id":"levelo_inurba_marseille","lat":43.23963,"lon":5.36638,"is_reserved":false,"is_disabled":false,"rental_uris":{"android":"levelo://app?vid=8de278e2-e816-48b7-b9f8-61d77c6dddb0","ios":"levelo://app?vid=8de278e2-e816-48b7-b9f8-61d77c6dddb0"},"vehicle_type_id":"4","last_reported":1774808792,"current_range_meters":9200,"station_id":"ce4bhi12rcd13ifvqfp0","pricing_plan_id":"cebpf4jnsgd1na2vs0mg"},{"bike_id":"3e14eafa-0254-4f03-9b87-b8a8c3b3ca65","system_id":"levelo_inurba_marseille","lat":43.2848,"lon":5.48379,"is_reserved":false,"is_disabled":false,"rental_uris":{"android":"levelo://app?vid=3e14eafa-0254-4f03-9b87-b8a8c3b3ca65","ios":"levelo://app?vid=3e14eafa-0254-4f03-9b87-b8a8c3b3ca65"},"vehicle_type_id":"4","last_reported":1774808792,"current_range_meters":9200,"station_id":"","pricing_plan_id":"cebpf4jnsgd1na2vs0mg"},{"bike_id":"c5dd0f77-9702-496a-87d1-340e467508b5","system_id":"levelo_inurba_marseille","lat":43.30605,"lon":5.37206,"is_reserved":false,"is_disabled":false,"rental_uris":{"android":"levelo://app?vid=c5dd0f77-9702-496a-87d1-340e467508b5","ios":"levelo://app?vid=c5dd0f77-9702-496a-87d1-340e467508b5"},"vehicle_type_id":"4","last_reported":1774808792,"current_range_meters":9200,"station_id":"ce4bgqh2rcd13ifvqc4g","pricing_plan_id":"cebpf4jnsgd1na2vs0mg"},{"bike_id":"aa096f04-9bc4-4c84-b180-63b983513b22","system_id":"levelo_inurba_marseille","lat":43.32506,"lon":5.3832,"is_reserved":false,"is_disabled":false,"rental_uris":{"android":"levelo://app?vid=aa096f04-9bc4-4c84-b180-63b983513b22","ios":"levelo://app?vid=aa096f04-9bc4-4c84-b180-63b983513b22"},"vehicle_type_id":"4","last_reported":1774808792,"current_range_meters":9200,"station_id":"st_d4asgbiv49dc73anf9m0","pricing_plan_id":"cebpf4jnsgd1na2vs0mg"},{"bike_id":"2d0339ae-a28d-4b4a-ad64-3281fc972f68","system_id":"levelo_inurba_marseille","lat":43.28936,"lon":5.38421,"is_reserved":false,"is_disabled":false,"rental_uris":{"android":"levelo://app?vid=2d0339ae-a28d-4b4a-ad64-3281fc972f68","ios":"levelo://app?vid=2d0339ae-a28d-4b4a-ad64-3281fc972f68"},"vehicle_type_id":"4","last_reported":1774808792,"current_range_meters":9200,"station_id":"ce4bh612rcd13ifvqe6g","pricing_plan_id":"cebpf4jnsgd1na2vs0mg"},{"bike_id":"be3c91b6-ebe2-4717-9306-1bbab530e339","system_id":"levelo_inurba_marseille","lat":43.2919,"lon":5.39322,"is_reserved":false,"is_disabled":false,"rental_uris":{"android":"levelo://app?vid=be3c91b6-ebe2-4717-9306-1bbab530e339","ios":"levelo://app?vid=be3c91b6-ebe2-4717-9306-1bbab530e339"},"vehicle_type_id":"4","last_reported":1774808792,"current_range_meters":9200,"station_id":"ce4bh192rcd13ifvqdd0","pricing_plan_id":"cebpf4jnsgd1na2vs0mg"},{"bike_id":"c448a442-30a4-4284-b827-ae08009e43b4","system_id":"levelo_inurba_marseille","lat":43.29591,"lon":5.38123,"is_reserved":false,"is_disabled":true,"rental_uris":{"android":"levelo://app?vid=c448a442-30a4-4284-b827-ae08009e43b4","ios":"levelo://app?vid=c448a442-30a4-4284-b827-ae08009e43b4"},"vehicle_type_id":"4","last_reported":1774808792,"current_range_meters":9200,"station_id":"ce4bgl12rcd13ifvqbo0","pricing_plan_id":"cebpf4jnsgd1na2vs0mg"},{"bike_id":"a1b99340-7662-4720-bb44-4c4cd35b3def","system_id":"levelo_inurba_marseille","lat":43.27938,"lon":5.41045,"is_reserved":false,"is_disabled":false,"rental_uris":{"android":"levelo://app?vid=a1b99340-7662-4720-bb44-4c4cd35b3def","ios":"levelo://app?vid=a1b99340-7662-4720-bb44-4c4cd35b3def"},"vehicle_type_id":"4","last_reported":1774808792,"current_range_meters":9200,"station_id":"ce4bhnp2rcd13ifvqh0g","pricing_plan_id":"cebpf4jnsgd1na2vs0mg"},{"bike_id":"5f1a297c-01eb-46bd-af35-511921964f6c","system_id":"levelo_inurba_marseille","lat":43.28792,"lon":5.35994,"is_reserved":false,"is_disabled":false,"rental_uris":{"android":"levelo://app?vid=5f1a297c-01eb-46bd-af35-511921964f6c","ios":"levelo://app?vid=5f1a297c-01eb-46bd-af35-511921964f6c"},"vehicle_type_id":"4","last_reported":1774808792,"current_range_meters":9200,"station_id":"","pricing_plan_id":"cebpf4jnsgd1na2vs0mg"},