{"last_updated":1726942257,"ttl":30,"version":"2.2","data":{"bikes":[{"bike_id":"fd84f170-c075-4570-a556-c5e617e29406","system_id":"levelo_inurba_marseille","lat":43.28283,"lon":5.40897,"is_reserved":false,"is_disabled":false,"rental_uris":{"android":"levelo://app?vid=fd84f170-c075-4570-a556-c5e617e29406","ios":"levelo://app?vid=fd84f170-c075-4570-a556-c5e617e29406"},"vehicle_type_id":"4","last_reported":1726942257,"current_range_meters":20400,"station_id":"","pricing_plan_id":"cebpf4jnsgd1na2vs0mg"},{"bike_id":"5a54b612-489f-4fbe-8501-cb9fd58c10d6","system_id":"levelo_inurba_marseille","lat":43.28,"lon":5.40024,"is_reserved":false,"is_disabled":false,"rental_uris":{"android":"levelo://app?vid=5a54b612-489f-4fbe-8501-cb9fd58c10d6","ios":"levelo://app?vid=5a54b612-489f-4fbe-8501-cb9fd58c10d6"},"vehicle_type_id":"4","last_reported":1726942257,"current_range_meters":38800,"station_id":"ce4bho92rcd13ifvqh4g","pricing_plan_id":"cebpf4jnsgd1na2vs0mg"},{"bike_id":"3fce4728-d154-4923-987f-9461279dce26","system_id":"levelo_inurba_marseille","lat":43.24805,"lon":5.37456,"is_reserved":false,"is_disabled":false,"rental_uris":{"android":"levelo://app?vid=3fce4728-d154-4923-987f-9461279dce26","ios":"levelo://app?vid=3fce4728-d154-4923-987f-9461279dce26"},"vehicle_type_id":"4","last_reported":1726942257,"current_range_meters":38800,"station_id":"ce4bhgh2rcd13ifvqfb0","pricing_plan_id":"cebpf4jnsgd1na2vs0mg"},{"bike_id":"8722cf0f-2c27-4567-b922-fc29a89cd2ec","system_id":"levelo_inurba_marseille","lat":43.30259,"lon":5.4008,"is_reserved":false,"is_disabled":false,"rental_uris":{"android":"levelo://app?vid=8722cf0f-2c27-4567-b922-fc29a89cd2ec","ios":"levelo://app?vid=8722cf0f-2c27-4567-b922-fc29a89cd2ec"},"vehicle_type_id":"4","last_reported":1726942257,"current_range_meters":19600,"station_id":"ce4bgvh2rcd13ifvqcs0","pricing_plan_id":"cebpf4jnsgd1na2vs0mg"},{"bike_id":"da10bea0-cb0c-4c78-ba36-17d78f57309f","system_id":"levelo_inurba_marseille","lat":43.29042,"lon":5.39963,"is_reserved":false,"is_disabled":false,"rental_uris":{"android":"levelo://app?vid=da10bea0-cb0c-4c78-ba36-17d78f57309f","ios":"levelo://app?vid=da10bea0-cb0c-4c78-ba36-17d78f57309f"},"vehicle_type_id":"4","last_reported":1726942257,"current_range_meters":26000,"station_id":"ce4bh392rcd13ifvqdm0","pricing_plan_id":"cebpf4jnsgd1na2vs0mg"},{"bike_id":"f361e036-0176-470f-b60f-f2a2c5c0df88","system_id":"levelo_inurba_marseille","lat":43.31359,"lon":5.38503,"is_reserved":false,"is_disabled":false,"rental_uris":{"android":"levelo://app?vid=f361e036-0176-470f-b60f-f2a2c5c0df88","ios":"levelo://app?vid=f361e036-0176-470f-b60f-f2a2c5c0df88"},"vehicle_type_id":"4","last_reported":1726942257,"current_range_meters":38800,"station_id":"ce4bgt92rcd13ifvqcf0","pricing_plan_id":"cebpf4jnsgd1na2vs0mg"},{"bike_id":"c0993040-99f3-4e65-8495-c15b103ad0e7","system_id":"levelo_inurba_marseille","lat":43.32367,"lon":5.38886,"is_reserved":false,"is_disabled":false,"rental_uris":{"android":"levelo://app?vid=c0993040-99f3-4e65-8495-c15b103ad0e7","ios":"levelo://app?vid=c0993040-99f3-4e65-8495-c15b103ad0e7"},"vehicle_type_id":"4","last_reported":1726942257,"current_range_meters":8000,"station_id":"ce4bhqp2rcd13ifvqhog","pricing_plan_id":"cebpf4jnsgd1na2vs0mg"},{"bike_id":"15b66b13-a457-4378-900f-3e8da7c1f9c4","system_id":"levelo_inurba_marseille","lat":43.28425,"lon":5.37523,"is_reserved":false,"is_disabled":false,"rental_uris":{"android":"levelo://app?vid=15b66b13-a457-4378-900f-3e8da7c1f9c4","ios":"levelo://app?vid=15b66b13-a457-4378-900f-3e8da7c1f9c4"},"vehicle_type_id":"4","last_reported":1726942257,"current_range_meters":38800,"station_id":"ce4bh412rcd13ifvqds0","pricing_plan_id":"cebpf4jnsgd1na2vs0mg"},{"bike_id":"9cabe17d-502a-4d87-9801-27c23cddee48","system_id":"levelo_inurba_marseille","lat":43.28607,"lon":5.37061,"is_reserved":false,"is_disabled":false,"rental_uris":{"android":"levelo://app?vid=9cabe17d-502a-4d87-9801-27c23cddee48","ios":"levelo://app?vid=9cabe17d-502a-4d87-9801-27c23cddee48"},"vehicle_type_id":"4","last_reported":1726942257,"current_range_meters":26800,"station_id":"ce4bht12rcd13ifvqi60","pricing_plan_id":"cebpf4jnsgd1na2vs0mg"},{"bike_id":"cb7eb709-d138-48b8-96d4-86e8b8aa8b32","system_id":"levelo_inurba_marseille","lat":43.337444,"lon":5.374475,"is_reserved":false,"is_disabled":false,"rental_uris":{"android":"levelo://app?vid=cb7eb709-d138-48b8-96d4-86e8b8aa8b32","ios":"levelo://app?vid=cb7eb709-d138-48b8-96d4-86e8b8aa8b32"},"vehicle_type_id":"4","last_reported":1726942257,"current_range_meters":38800,"station_id":"","pricing_plan_id":"cebpf4jnsgd1na2vs0mg"},{"bike_id":"c45dd15b-1eea-4f3d-9158-01ac46c000f6","system_id":"levelo_inurba_marseille","lat":43.29415,"lon":5.3863,"is_reserved":false,"is_disabled":false,"rental_uris":{"android":"levelo://app?vid=c45dd15b-1eea-4f3d-9158-01ac46c000f6","ios":"levelo://app?vid=c45dd15b-1eea-4f3d-9158-01ac46c000f6"},"vehicle_type_id":"4","last_reported":1726942257,"current_range_meters":20400,"station_id":"ce4bh2h2rcd13ifvqdh0","pricing_plan_id":"cebpf4jnsgd1na2vs0mg"},{"bike_id":"9ba798fb-f74e-491b-a78c-71df116dbf10","system_id":"levelo_inurba_marseille","lat":43.3088,"lon":5.39643,"is_reserved":false,"is_disabled":false,"rental_uris":{"android":"levelo://app?vid=9ba798fb-f74e-491b-a78c-71df116dbf10","ios":"levelo://app?vid=9ba798fb-f74e-491b-a78c-71df116dbf10"},"vehicle_type_id":"4","last_reported":1726942257,"current_range_meters":23200,"station_id":"ce4bh012rcd13ifvqcv0","pricing_plan_id":"cebpf4jnsgd1na2vs0mg"},{"bike_id":"7740f99f-4af0-45b4-a944-e512b5ab03d0","system_id":"levelo_inurba_marseille","lat":43.28947,"lon":5.36386,"is_reserved":false,"is_disabled":false,"rental_uris":{"android":"levelo://app?vid=7740f99f-4af0-45b4-a944-e512b5ab03d0","ios":"levelo://app?vid=7740f99f-4af0-45b4-a944-e512b5ab03d0"},"vehicle_type_id":"4","last_reported":1726942257,"current_range_meters":8400,"station_id":"ce4bh692rcd13ifvqea0","pricing_plan_id":"cebpf4jnsgd1na2vs0mg"},{"bike_id":"b99a7b7b-075e-430a-851a-bd251d468ade","system_id":"levelo_inurba_marseille","lat":43.29226,"lon":5.36053,"is_reserved":false,"is_disabled":false,"rental_uris":{"android":"levelo://app?vid=b99a7b7b-075e-430a-851a-bd251d468ade","ios":"levelo://app?vid=b99a7b7b-075e-430a-851a-bd251d468ade"},"vehicle_type_id":"4","last_reported":1726942257,"current_range_meters":35600,"station_id":"ce4bhbh2rcd13ifvqeqg","pricing_plan_id":"cebpf4jnsgd1na2vs0mg"},{"bike_id":"98f7907b-3f11-46b7-a87c-c7222bd7137e","system_id":"levelo_inurba_marseille","lat":43.279004,"lon":5.380156,"is_reserved":false,"is_disabled":false,"rental_uris":{"android":"levelo://app?vid=98f7907b-3f11-46b7-a87c-c7222bd7137e","ios":"levelo://app?vid=98f7907b-3f11-46b7-a87c-c7222bd7137e"},"vehicle_type_id":"4","last_reported":1726942257,"current_range_meters":8000,"station_id":"ce4bhf92rcd13ifvqf50","pricing_plan_id":"cebpf4jnsgd1na2vs0mg"},{"bike_id":"3f3a1968-161c-4281-9dac-b1f6f3f79cd0","system_id":"levelo_inurba_marseille","lat":43.27488,"lon":5.42459,"is_reserved":false,"is_disabled":false,"rental_uris":{"android":"levelo://app?vid=3f3a1968-161c-4281-9dac-b1f6f3f79cd0","ios":"levelo://app?vid=3f3a1968-161c-4281-9dac-b1f6f3f79cd0"},"vehicle_type_id":"4","last_reported":1726942257,"current_range_meters":20800,"station_id":"ce4bhn92rcd13ifvqgrg","pricing_plan_id":"cebpf4jnsgd1na2vs0mg"},{"bike_id":"57642c0b-49f2-43bf-b323-076defe8b709","system_id":"levelo_inurba_marseille","lat":43.29038,"lon":5.39967,"is_reserved":false,"is_disabled":false,"rental_uris":{"android":"levelo://app?vid=57642c0b-49f2-43bf-b323-076defe8b709","ios":"levelo://app?vid=57642c0b-49f2-43bf-b323-076defe8b709"},"vehicle_type_id":"4","last_reported":1726942257,"current_range_meters":30800,"station_id":"ce4bh392rcd13ifvqdm0","pricing_plan_id":"cebpf4jnsgd1na2vs0mg"},{"bike_id":"13c41d2c-c5c9-4b25-8316-b32a443f1632","system_id":"levelo_inurba_marseille","lat":43.26954,"lon":5.38627,"is_reserved":false,"is_disabled":false,"rental_uris":{"android":"levelo://app?vid=13c41d2c-c5c9-4b25-8316-b32a443f1632","ios":"levelo://app?vid=13c41d2c-c5c9-4b25-8316-b32a443f1632"},"vehicle_type_id":"4","last_reported":1726942257,"current_range_meters":6000,"station_id":"ce4bhh92rcd13ifvqfh0","pricing_plan_id":"cebpf4jnsgd1na2vs0mg"},{"bike_id":"0c3713ed-378a-4b64-8b99-41bcb6b9dfe4","system_id":"levelo_inurba_marseille","lat":43.28351,"lon":5.38105,"is_reserved":false,"is_disabled":false,"rental_uris":{"android":"levelo://app?vid=0c3713ed-378a-4b64-8b99-41bcb6b9dfe4","ios":"levelo://app?vid=0c3713ed-378a-4b64-8b99-41bcb6b9dfe4"},"vehicle_type_id":"4","last_reported":1726942257,"current_range_meters":33200,"station_id":"ce4bh412rcd13ifvqdr0","pricing_plan_id":"cebpf4jnsgd1na2vs0mg"},{"bike_id":"0a1da413-7129-43a7-8829-0ef13e362581","system_id":"levelo_inurba_marseille","lat":43.31365,"lon":5.38493,"is_reserved":false,"is_disabled":false,"rental_uris":{"android":"levelo://app?vid=0a1da413-7129-43a7-8829-0ef13e362581","ios":"levelo://app?vid=0a1da413-7129-43a7-8829-0ef13e362581"},"vehicle_type_id":"4","last_reported":1726942257,"current_range_meters":38800,"station_id":"ce4bgt92rcd13ifvqcf0","pricing_plan_id":"cebpf4jnsgd1na2vs0mg"},{"bike_id":"eab90788-d366-4b34-8d5b-22ac1b62ca89","system_id":"levelo_inurba_marseille","lat":43.29797,"lon":5.38097,"is_reserved":false,"is_disabled":false,"rental_uris":{"android":"levelo://app?vid=eab90788-d366-4b34-8d5b-22ac1b62ca89","ios":"levelo://app?vid=eab90788-d366-4b34-8d5b-22ac1b62ca89"},"vehicle_type_id":"4","last_reported":1726942257,"current_range_meters":27600,"station_id":"ce4bgip2rcd13ifvqbb0","pricing_plan_id":"cebpf4jnsgd1na2vs0mg"},{"bike_id":"ecf5fb6d-70d4-4f52-84dd-6e415f275525","system_id":"levelo_inurba_marseille","lat":43.326596,"lon":5.409949,"is_reserved":false,"is_disabled":false,"rental_uris":{"android":"levelo://app?vid=ecf5fb6d-70d4-4f52-84dd-6e415f275525","ios":"levelo://app?vid=ecf5fb6d-70d4-4f52-84dd-6e415f275525"},"vehicle_type_id":"4","last_reported":1726942257,"current_range_meters":3200,"station_id":"ce4bhqh2rcd13ifvqhmg","pricing_plan_id":"cebpf4jnsgd1na2vs0mg"},{"bike_id":"0059b9d0-0404-4a3d-a66d-836dd6460a8b","system_id":"levelo_inurba_marseille","lat":43.29007,"lon":5.356204,"is_reserved":false,"is_disabled":false,"rental_uris":{"android":"levelo://app?vid=0059b9d0-0404-4a3d-a66d-836dd6460a8b","ios":"levelo://app?vid=0059b9d0-0404-4a3d-a66d-836dd6460a8b"},"vehicle_type_id":"4","last_reported":1726942257,"current_range_meters":36800,"station_id":"ce4bhb92rcd13ifvqen0","pricing_plan_id":"cebpf4jnsgd1na2vs0mg"},{"bike_id":"feef65fd-70ed-4c2a-ab1c-62060f564852","system_id":"levelo_inurba_marseille","lat":43.26689,"lon":5.38277,"is_reserved":false,"is_disabled":false,"rental_uris":{"android":"levelo://app?vid=feef65fd-70ed-4c2a-ab1c-62060f564852","ios":"levelo://app?vid=feef65fd-70ed-4c2a-ab1c-62060f564852"},"vehicle_type_id":"4","last_reported":1726942257,"current_range_meters":24800,"station_id":"ce4bhg92rcd13ifvqf90","pricing_plan_id":"cebpf4jnsgd1na2vs0mg"},{"bike_id":"4d6f48aa-84cd-4173-b9e7-3555c4face75","system_id":"levelo_inurba_marseille","lat":43.27202,"lon":5.39189,"is_reserved":false,"is_disabled":false,"rental_uris":{"android":"levelo://app?vid=4d6f48aa-84cd-4173-b9e7-3555c4face75","ios":"levelo://app?vid=4d6f48aa-84cd-4173-b9e7-3555c4face75"},"vehicle_type_id":"4","last_reported":1726942257,"current_range_meters":21600,"station_id":"ce4bhhp2rcd13ifvqfm0","pricing_plan_id":"cebpf4jnsgd1na2vs0mg"},{"bike_id":"2abfd0da-52ff-49fd-a5cb-a8f4dd818089","system_id":"levelo_inurba_marseille","lat":43.28158,"lon":5.42653,"is_reserved":false,"is_disabled":false,"rental_uris":{"android":"levelo://app?vid=2abfd0da-52ff-49fd-a5cb-a8f4dd818089","ios":"levelo://app?vid=2abfd0da-52ff-49fd-a5cb-a8f4dd818089"},"vehicle_type_id":"4","last_reported":1726942257,"current_range_meters":38400,"station_id":"ce4bhnh2rcd13ifvqgug","pricing_plan_id":"cebpf4jnsgd1na2vs0mg"},{"bike_id":"edfb1ff5-b81b-4225-8da9-100a9115b1e3","system_id":"levelo_inurba_marseille","lat":43.29735,"lon":5.36561,"is_reserved":false,"is_disabled":false,"rental_uris":{"android":"levelo://app?vid=edfb1ff5-b81b-4225-8da9-100a9115b1e3","ios":"levelo://app?vid=edfb1ff5-b81b-4225-8da9-100a9115b1e3"},"vehicle_type_id":"4","last_reported":1726942257,"current_range_meters":7200,"station_id":"","pricing_plan_id":"cebpf4jnsgd1na2vs0mg"},{"bike_id":"b412eb73-b449-4fc2-9caa-1149ef7bd037","system_id":"levelo_inurba_marseille","lat":43.24073,"lon":5.37768,"is_reserved":false,"is_disabled":false,"rental_uris":{"android":"levelo://app?vid=b412eb73-b449-4fc2-9caa-1149ef7bd037","ios":"levelo://app?vid=b412eb73-b449-4fc2-9caa-1149ef7bd037"},"vehicle_type_id":"4","last_reported":1726942257,"current_range_meters":38800,"station_id":"ce4bhnp2rcd13ifvqgvg","pricing_plan_id":"cebpf4jnsgd1na2vs0mg"},{"bike_id":"f0cc0278-0ec3-48fd-be4f-460c4ad4eb0e","system_id":"levelo_inurba_marseille","lat":43.27999,"lon":5.41674,"is_reserved":false,"is_disabled":false,"rental_uris":{"android":"levelo://app?vid=f0cc0278-0ec3-48fd-be4f-460c4ad4eb0e","ios":"levelo://app?vid=f0cc0278-0ec3-48fd-be4f-460c4ad4eb0e"},"vehicle_type_id":"4","last_reported":1726942257,"current_range_meters":17200,"station_id":"ce4bho12rcd13ifvqh1g","pricing_plan_id":"cebpf4jnsgd1na2vs0mg"},{"bike_id":"e4f79511-a0f2-4db6-b264-7929c40d9e58","system_id":"levelo_inurba_marseille","lat":43.27911,"lon":5.38011,"is_reserved":false,"is_disabled":false,"rental_uris":{"android":"levelo://app?vid=e4f79511-a0f2-4db6-b264-7929c40d9e58","ios":"levelo://app?vid=e4f79511-a0f2-4db6-b264-7929c40d9e58"},"vehicle_type_id":"4","last_reported":1726942257,"current_range_meters":4800,"station_id":"ce4bhf92rcd13ifvqf50","pricing_plan_id":"cebpf4jnsgd1na2vs0mg"},{"bike_id":"ff5f0c15-4dac-491a-a801-1eb354fb0f5a","system_id":"levelo_inurba_marseille","lat":43.29307,"lon":5.37178,"is_reserved":false,"is_disabled":false,"rental_uris":{"android":"levelo://app?vid=ff5f0c15-4dac-491a-a801-1eb354fb0f5a","ios":"levelo://app?vid=ff5f0c15-4dac-491a-a801-1eb354fb0f5a"},"vehicle_type_id":"4","last_reported":1726942257,"current_range_meters":30000,"station_id":"ce4bgh92rcd13ifvqb40","pricing_plan_id":"cebpf4jnsgd1na2vs0mg"},{"bike_id":"a81353a8-e97f-435a-abf0-e190bf661920","system_id":"levelo_inurba_marseille","lat":43.29578,"lon":5.37507,"is_reserved":false,"is_disabled":false,"rental_uris":{"android":"levelo://app?vid=a81353a8-e97f-435a-abf0-e190bf661920","ios":"levelo://app?vid=a81353a8-e97f-435a-abf0-e190bf661920"},"vehicle_type_id":"4","last_reported":1726942257,"current_range_meters":10800,"station_id":"ce4bgh92rcd13ifvqb50","pricing_plan_id":"cebpf4jnsgd1na2vs0mg"},{"bike_id":"77fa9dd2-8bae-4ee2-a6a0-78a3c4573472","system_id":"levelo_inurba_marseille","lat":43.30336,"lon":5.40448,"is_reserved":false,"is_disabled":false,"rental_uris":{"android":"levelo://app?vid=77fa9dd2-8bae-4ee2-a6a0-78a3c4573472","ios":"levelo://app?vid=77fa9dd2-8bae-4ee2-a6a0-78a3c4573472"},"vehicle_type_id":"4","last_reported":1726942257,"current_range_meters":38800,"station_id":"ce4bh012rcd13ifvqd10","pricing_plan_id":"cebpf4jnsgd1na2vs0mg"},{"bike_id":"5ef95789-8336-4ee9-8607-22f9136a2f9a","system_id":"levelo_inurba_marseille","lat":43.24069,"lon":5.37753,"is_reserved":false,"is_disabled":false,"rental_uris":{"android":"levelo://app?vid=5ef95789-8336-4ee9-8607-22f9136a2f9a","ios":"levelo://app?vid=5ef95789-8336-4ee9-8607-22f9136a2f9a"},"vehicle_type_id":"4","last_reported":1726942257,"current_range_meters":30800,"station_id":"ce4bhnp2rcd13ifvqgvg","pricing_plan_id":"cebpf4jnsgd1na2vs0mg"},{"bike_id":"3af56387-c0a9-406d-b9ab-767e425be036","system_id":"levelo_inurba_marseille","lat":43.25496,"lon":5.37651,"is_reserved":false,"is_disabled":false,"rental_uris":{"android":"levelo://app?vid=3af56387-c0a9-406d-b9ab-767e425be036","ios":"levelo://app?vid=3af56387-c0a9-406d-b9ab-767e425be036"},"vehicle_type_id":"4","last_reported":1726942257,"current_range_meters":30000,"station_id":"ce4bhh12rcd13ifvqff0","pricing_plan_id":"cebpf4jnsgd1na2vs0mg"},{"bike_id":"8e52ea6d-a901-4ea4-97e6-8e5c0686b89e","system_id":"levelo_inurba_marseille","lat":43.30953,"lon":5.39041,"is_reserved":false,"is_disabled":false,"rental_uris":{"android":"levelo://app?vid=8e52ea6d-a901-4ea4-97e6-8e5c0686b89e","ios":"levelo://app?vid=8e52ea6d-a901-4ea4-97e6-8e5c0686b89e"},"vehicle_type_id":"4","last_reported":1726942257,"current_range_meters":17600,"station_id":"ce4bgup2rcd13ifvqco0","pricing_plan_id":"cebpf4jnsgd1na2vs0mg"},{"bike_id":"8bd4e5d8-cc1e-4ef0-8f18-da6009cb88c3","system_id":"levelo_inurba_marseille","lat":43.305267,"lon":5.384223,"is_reserved":false,"is_disabled":false,"rental_uris":{"android":"levelo://app?vid=8bd4e5d8-cc1e-4ef0-8f18-da6009cb88c3","ios":"levelo://app?vid=8bd4e5d8-cc1e-4ef0-8f18-da6009cb88c3"},"vehicle_type_id":"4","last_reported":1726942257,"current_range_meters":28800,"station_id":"ce4bgg92rcd13ifvqb30","pricing_plan_id":"cebpf4jnsgd1na2vs0mg"},{"bike_id":"5a906720-3d1e-4fcf-80e0-d3d05a7e7f77","system_id":"levelo_inurba_marseille","lat":43.31714,"lon":5.43709,"is_reserved":false,"is_disabled":false,"rental_uris":{"android":"levelo://app?vid=5a906720-3d1e-4fcf-80e0-d3d05a7e7f77","ios":"levelo://app?vid=5a906720-3d1e-4fcf-80e0-d3d05a7e7f77"},"vehicle_type_id":"4","last_reported":1726942257,"current_range_meters":6000,"station_id":"ce4bhp92rcd13ifvqhcg","pricing_plan_id":"cebpf4jnsgd1na2vs0mg"},{"bike_id":"33de1f1c-1f31-4678-9cdd-638439837ec3","system_id":"levelo_inurba_marseille","lat":43.24806,"lon":5.37459,"is_reserved":false,"is_disabled":false,"rental_uris":{"android":"levelo://app?vid=33de1f1c-1f31-4678-9cdd-638439837ec3","ios":"levelo://app?vid=33de1f1c-1f31-4678-9cdd-638439837ec3"},"vehicle_type_id":"4","last_reported":1726942257,"current_range_meters":38800,"station_id":"ce4bhgh2rcd13ifvqfb0","pricing_plan_id":"cebpf4jnsgd1na2vs0mg"},{"bike_id":"c6ffee5b-2759-486b-b546-3f36451a1c4b","system_id":"levelo_inurba_marseille","lat":43.33018,"lon":5.39044,"is_reserved":false,"is_disabled":false,"rental_uris":{"android":"levelo://app?vid=c6ffee5b-2759-486b-b546-3f36451a1c4b","ios":"levelo://app?vid=c6ffee5b-2759-486b-b546-3f36451a1c4b"},"vehicle_type_id":"4","last_reported":1726942257,"current_range_meters":25600,"station_id":"ce4bhr92rcd13ifvqhrg","pricing_plan_id":"cebpf4jnsgd1na2vs0mg"},{"bike_id":"236fba40-7a15-4e31-93c5-7d109a209186","system_id":"levelo_inurba_marseille","lat":43.30131,"lon":5.38779,"is_reserved":false,"is_disabled":false,"rental_uris":{"android":"levelo://app?vid=236fba40-7a15-4e31-93c5-7d109a209186","ios":"levelo://app?vid=236fba40-7a15-4e31-93c5-7d109a209186"},"vehicle_type_id":"4","last_reported":1726942257,"current_range_meters":4000,"station_id":"ce4bghh2rcd13ifvqb60","pricing_plan_id":"cebpf4jnsgd1na2vs0mg"},{"bike_id":"9e8fcd9a-57be-4b10-a1e1-047e6906712b","system_id":"levelo_inurba_marseille","lat":43.30354,"lon":5.41878,"is_reserved":false,"is_disabled":false,"rental_uris":{"android":"levelo://app?vid=9e8fcd9a-57be-4b10-a1e1-047e6906712b","ios":"levelo://app?vid=9e8fcd9a-57be-4b10-a1e1-047e6906712b"},"vehicle_type_id":"4","last_reported":1726942257,"current_range_meters":29600,"station_id":"ce4bhop2rcd13ifvqh7g","pricing_plan_id":"cebpf4jnsgd1na2vs0mg"},{"bike_id":"386d7d39-d9a0-4f2f-9dfa-7b382234f940","system_id":"levelo_inurba_marseille","lat":43.23197,"lon":5.35559,"is_reserved":false,"is_disabled":false,"rental_uris":{"android":"levelo://app?vid=386d7d39-d9a0-4f2f-9dfa-7b382234f940","ios":"levelo://app?vid=386d7d39-d9a0-4f2f-9dfa-7b382234f940"},"vehicle_type_id":"4","last_reported":1726942257,"current_range_meters":19200,"station_id":"ce4bhu92rcd13ifvqi70","pricing_plan_id":"cebpf4jnsgd1na2vs0mg"},{"bike_id":"5419b1bf-d37c-4076-a34c-52ede101758e","system_id":"levelo_inurba_marseille","lat":43.337444,"lon":5.374475,"is_reserved":false,"is_disabled":false,"rental_uris":{"android":"levelo://app?vid=5419b1bf-d37c-4076-a34c-52ede101758e","ios":"levelo://app?vid=5419b1bf-d37c-4076-a34c-52ede101758e"},"vehicle_type_id":"4","last_reported":1726942257,"current_range_meters":32000,"station_id":"","pricing_plan_id":"cebpf4jnsgd1na2vs0mg"},{"bike_id":"f6017c0b-44e6-43b4-847b-bad2c95ee510","system_id":"levelo_inurba_marseille","lat":43.30825,"lon":5.39647,"is_reserved":false,"is_disabled":false,"rental_uris":{"android":"levelo://app?vid=f6017c0b-44e6-43b4-847b-bad2c95ee510","ios":"levelo://app?vid=f6017c0b-44e6-43b4-847b-bad2c95ee510"},"vehicle_type_id":"4","last_reported":1726942257,"current_range_meters":36000,"station_id":"ce4bho92rcd13ifvqh3g","pricing_plan_id":"cebpf4jnsgd1na2vs0mg"},{"bike_id":"c25a97fb-7e92-4344-b180-4e3943f557c9","system_id":"levelo_inurba_marseille","lat":43.2997,"lon":5.38494,"is_reserved":false,"is_disabled":false,"rental_uris":{"android":"levelo://app?vid=c25a97fb-7e92-4344-b180-4e3943f557c9","ios":"levelo://app?vid=c25a97fb-7e92-4344-b180-4e3943f557c9"},"vehicle_type_id":"4","last_reported":1726942257,"current_range_meters":33600,"station_id":"ce4bgj92rcd13ifvqbd0","pricing_plan_id":"cebpf4jnsgd1na2vs0mg"},{"bike_id":"4367d57d-0b8f-48b4-8f0f-5c7b33284696","system_id":"levelo_inurba_marseille","lat":43.29725,"lon":5.37692,"is_reserved":false,"is_disabled":false,"rental_uris":{"android":"levelo://app?vid=4367d57d-0b8f-48b4-8f0f-5c7b33284696","ios":"levelo://app?vid=4367d57d-0b8f-48b4-8f0f-5c7b33284696"},"vehicle_type_id":"4","last_reported":1726942257,"current_range_meters":39200,"station_id":"ce4bgkh2rcd13ifvqbl0","pricing_plan_id":"cebpf4jnsgd1na2vs0mg"},{"bike_id":"6e2fd8fb-799c-468d-a60b-38d2bf81aa37","system_id":"levelo_inurba_marseille","lat":43.23957,"lon":5.36635,"is_reserved":false,"is_disabled":false,"rental_uris":{"android":"levelo://app?vid=6e2fd8fb-799c-468d-a60b-38d2bf81aa37","ios":"levelo://app?vid=6e2fd8fb-799c-468d-a60b-38d2bf81aa37"},"vehicle_type_id":"4","last_reported":1726942257,"current_range_meters":38000,"station_id":"ce4bhi12rcd13ifvqfp0","pricing_plan_id":"cebpf4jnsgd1na2vs0mg"},{"bike_id":"653c94bc-21d0-486a-8f31-2849c647602a","system_id":"levelo_inurba_marseille","lat":43.3059,"lon":5.39366,"is_reserved":false,"is_disabled":false,"rental_uris":{"android":"levelo://app?vid=653c94bc-21d0-486a-8f31-2849c647602a","ios":"levelo://app?vid=653c94bc-21d0-486a-8f31-2849c647602a"},"vehicle_type_id":"4","last_reported":1726942257,"current_range_meters":33600,"station_id":"ce4bh0p2rcd13ifvqd80","pricing_plan_id":"cebpf4jnsgd1na2vs0mg"},{"bike_id":"7ccc499f-63f1-4a72-b7c8-4b3b2437d268","system_id":"levelo_inurba_marseille","lat":43.25005,"lon":5.38917,"is_reserved":false,"is_disabled":false,"rental_uris":{"android":"levelo://app?vid=7ccc499f-63f1-4a72-b7c8-4b3b2437d268","ios":"levelo://app?vid=7ccc499f-63f1-4a72-b7c8-4b3b2437d268"},"vehicle_type_id":"4","last_reported":1726942257,"current_range_meters":27200,"station_id":"ce4bhgp2rcd13ifvqfd0","pricing_plan_id":"cebpf4jnsgd1na2vs0mg"},{"bike_id":"f5e936e9-5f18-4e78-bcb6-3f406bee1ae0","system_id":"levelo_inurba_marseille","lat":43.273712,"lon":5.407752,"is_reserved":false,"is_disabled":false,"rental_uris":{"android":"levelo://app?vid=f5e936e9-5f18-4e78-bcb6-3f406bee1ae0","ios":"levelo://app?vid=f5e936e9-5f18-4e78-bcb6-3f406bee1ae0"},"vehicle_type_id":"4","last_reported":1726942257,"current_range_meters":22800,"station_id":"ce4bgh92rcd13ifvqb40","pricing_plan_id":"cebpf4jnsgd1na2vs0mg"},{"bike_id":"149779fc-bc45-458a-857f-33707eedaf6a","system_id":"levelo_inurba_marseille","lat":43.2319,"lon":5.35557,"is_reserved":false,"is_disabled":false,"rental_uris":{"android":"levelo://app?vid=149779fc-bc45-458a-857f-33707eedaf6a","ios":"levelo://app?vid=149779fc-bc45-458a-857f-33707eedaf6a"},"vehicle_type_id":"4","last_reported":1726942257,"current_range_meters":19600,"station_id":"ce4bhu92rcd13ifvqi70","pricing_plan_id":"cebpf4jnsgd1na2vs0mg"},{"bike_id":"0fc90c1d-6f05-42ce-a37f-447bed330141","system_id":"levelo_inurba_marseille","lat":43.29635,"lon":5.40597,"is_reserved":false,"is_disabled":false,"rental_uris":{"android":"levelo://app?vid=0fc90c1d-6f05-42ce-a37f-447bed330141","ios":"levelo://app?vid=0fc90c1d-6f05-42ce-a37f-447bed330141"},"vehicle_type_id":"4","last_reported":1726942257,"current_range_meters":11200,"station_id":"ce4bh0h2rcd13ifvqd60","pricing_plan_id":"cebpf4jnsgd1na2vs0mg"},{"bike_id":"934341f6-7c37-479f-ba54-4e3f80df07bb","system_id":"levelo_inurba_marseille","lat":43.30211,"lon":5.39462,"is_reserved":false,"is_disabled":false,"rental_uris":{"android":"levelo://app?vid=934341f6-7c37-479f-ba54-4e3f80df07bb","ios":"levelo://app?vid=934341f6-7c37-479f-ba54-4e3f80df07bb"},"vehicle_type_id":"4","last_reported":1726942257,"current_range_meters":8400,"station_id":"ce4bh0p2rcd13ifvqd70","pricing_plan_id":"cebpf4jnsgd1na2vs0mg"},{"bike_id":"106b1fa3-3be1-4215-88e3-9821bd2041be","system_id":"levelo_inurba_marseille","lat":43.29582,"lon":5.3674,"is_reserved":false,"is_disabled":false,"rental_uris":{"android":"levelo://app?vid=106b1fa3-3be1-4215-88e3-9821bd2041be","ios":"levelo://app?vid=106b1fa3-3be1-4215-88e3-9821bd2041be"},"vehicle_type_id":"4","last_reported":1726942257,"current_range_meters":28800,"station_id":"ce4bgi92rcd13ifvqb90","pricing_plan_id":"cebpf4jnsgd1na2vs0mg"},{"bike_id":"47647d5c-e275-479e-915e-50b703622fc8","system_id":"levelo_inurba_marseille","lat":43.24814,"lon":5.37459,"is_reserved":false,"is_disabled":false,"rental_uris":{"android":"levelo://app?vid=47647d5c-e275-479e-915e-50b703622fc8","ios":"levelo://app?vid=47647d5c-e275-479e-915e-50b703622fc8"},"vehicle_type_id":"4","last_reported":1726942257,"current_range_meters":38800,"station_id":"ce4bhgh2rcd13ifvqfb0","pricing_plan_id":"cebpf4jnsgd1na2vs0mg"},{"bike_id":"604c9531-be4f-4974-bfe2-bd7828d7386f","system_id":"levelo_inurba_marseille","lat":43.29896,"lon":5.43682,"is_reserved":false,"is_disabled":false,"rental_uris":{"android":"levelo://app?vid=604c9531-be4f-4974-bfe2-bd7828d7386f","ios":"levelo://app?vid=604c9531-be4f-4974-bfe2-bd7828d7386f"},"vehicle_type_id":"4","last_reported":1726942257,"current_range_meters":22800,"station_id":"ce4bhpp2rcd13ifvqhfg","pricing_plan_id":"cebpf4jnsgd1na2vs0mg"},{"bike_id":"af4a0abc-2eed-4f5e-a755-726544ef52dc","system_id":"levelo_inurba_marseille","lat":43.26553,"lon":5.37289,"is_reserved":false,"is_disabled":false,"rental_uris":{"android":"levelo://app?vid=af4a0abc-2eed-4f5e-a755-726544ef52dc","ios":"levelo://app?vid=af4a0abc-2eed-4f5e-a755-726544ef52dc"},"vehicle_type_id":"4","last_reported":1726942257,"current_range_meters":4800,"station_id":"ce4bhg12rcd13ifvqf70","pricing_plan_id":"cebpf4jnsgd1na2vs0mg"},{"bike_id":"9832c302-3166-43a5-a7e0-ee08981cae72","system_id":"levelo_inurba_marseille","lat":43.254913,"lon":5.376452,"is_reserved":false,"is_disabled":false,"rental_uris":{"android":"levelo://app?vid=9832c302-3166-43a5-a7e0-ee08981cae72","ios":"levelo://app?vid=9832c302-3166-43a5-a7e0-ee08981cae72"},"vehicle_type_id":"4","last_reported":1726942257,"current_range_meters":6400,"station_id":"ce4bhh12rcd13ifvqff0","pricing_plan_id":"cebpf4jnsgd1na2vs0mg"},{"bike_id":"22a881f6-4cdb-4066-8340-387e2c39226b","system_id":"levelo_inurba_marseille","lat":43.30518,"lon":5.37199,"is_reserved":false,"is_disabled":false,"rental_uris":{"android":"levelo://app?vid=22a881f6-4cdb-4066-8340-387e2c39226b","ios":"levelo://app?vid=22a881f6-4cdb-4066-8340-387e2c39226b"},"vehicle_type_id":"4","last_reported":1726942257,"current_range_meters":22800,"station_id":"ce4bgl92rcd13ifvqbq0","pricing_plan_id":"cebpf4jnsgd1na2vs0mg"},{"bike_id":"a8d42cf3-65fd-4e73-93d7-47142c435399","system_id":"levelo_inurba_marseille","lat":43.34387,"lon":5.40841,"is_reserved":false,"is_disabled":false,"rental_uris":{"android":"levelo://app?vid=a8d42cf3-65fd-4e73-93d7-47142c435399","ios":"levelo://app?vid=a8d42cf3-65fd-4e73-93d7-47142c435399"},"vehicle_type_id":"4","last_reported":1726942257,"current_range_meters":25600,"station_id":"","pricing_plan_id":"cebpf4jnsgd1na2vs0mg"},{"bike_id":"849c7cfa-5417-4c90-b2f4-b838da753689","system_id":"levelo_inurba_marseille","lat":43.29261,"lon":5.38435,"is_reserved":false,"is_disabled":false,"rental_uris":{"android":"levelo://app?vid=849c7cfa-5417-4c90-b2f4-b838da753689","ios":"levelo://app?vid=849c7cfa-5417-4c90-b2f4-b838da753689"},"vehicle_type_id":"4","last_reported":1726942257,"current_range_meters":9200,"station_id":"ce4bh692rcd13ifvqea0","pricing_plan_id":"cebpf4jnsgd1na2vs0mg"},{"bike_id":"eb0e566e-7d71-4cc0-bc76-de33a9fd73a8","system_id":"levelo_inurba_marseille","lat":43.23199,"lon":5.3555,"is_reserved":false,"is_disabled":false,"rental_uris":{"android":"levelo://app?vid=eb0e566e-7d71-4cc0-bc76-de33a9fd73a8","ios":"levelo://app?vid=eb0e566e-7d71-4cc0-bc76-de33a9fd73a8"},"vehicle_type_id":"4","last_reported":1726942257,"current_range_meters":38800,"station_id":"ce4bhu92rcd13ifvqi70","pricing_plan_id":"cebpf4jnsgd1na2vs0mg"},{"bike_id":"4e0feace-3f7e-4ee3-bd39-aa38991f70fb","system_id":"levelo_inurba_marseille","lat":43.24071,"lon":5.37747,"is_reserved":false,"is_disabled":false,"rental_uris":{"android":"levelo://app?vid=4e0feace-3f7e-4ee3-bd39-aa38991f70fb","ios":"levelo://app?vid=4e0feace-3f7e-4ee3-bd39-aa38991f70fb"},"vehicle_type_id":"4","last_reported":1726942257,"current_range_meters":38800,"station_id":"ce4bhnp2rcd13ifvqgvg","pricing_plan_id":"cebpf4jnsgd1na2vs0mg"},{"bike_id":"fff5914d-be52-4f6d-80a5-7db261dca0d7","system_id":"levelo_inurba_marseille","lat":43.30426,"lon":5.39751,"is_reserved":false,"is_disabled":false,"rental_uris":{"android":"levelo://app?vid=fff5914d-be52-4f6d-80a5-7db261dca0d7","ios":"levelo://app?vid=fff5914d-be52-4f6d-80a5-7db261dca0d7"},"vehicle_type_id":"4","last_reported":1726942257,"current_range_meters":38800,"station_id":"ce4bh092rcd13ifvqd20","pricing_plan_id":"cebpf4jnsgd1na2vs0mg"},{"bike_id":"c90889c6-4c61-48f2-b140-89043e514d7b","system_id":"levelo_inurba_marseille","lat":43.25945,"lon":5.40903,"is_reserved":false,"is_disabled":false,"rental_uris":{"android":"levelo://app?vid=c90889c6-4c61-48f2-b140-89043e514d7b","ios":"levelo://app?vid=c90889c6-4c61-48f2-b140-89043e514d7b"},"vehicle_type_id":"4","last_reported":1726942257,"current_range_meters":6000,"station_id":"ce4bhm92rcd13ifvqglg","pricing_plan_id":"cebpf4jnsgd1na2vs0mg"},{"bike_id":"c4977462-3998-45ba-abd8-5decb0a2b41c","system_id":"levelo_inurba_marseille","lat":43.27498,"lon":5.42452,"is_reserved":false,"is_disabled":false,"rental_uris":{"android":"levelo://app?vid=c4977462-3998-45ba-abd8-5decb0a2b41c","ios":"levelo://app?vid=c4977462-3998-45ba-abd8-5decb0a2b41c"},"vehicle_type_id":"4","last_reported":1726942257,"current_range_meters":10800,"station_id":"ce4bhn92rcd13ifvqgrg","pricing_plan_id":"cebpf4jnsgd1na2vs0mg"},{"bike_id":"5d991e98-79d5-4dc0-9a6a-d2306ad42c9d","system_id":"levelo_inurba_marseille","lat":43.29545,"lon":5.42275,"is_reserved":false,"is_disabled":false,"rental_uris":{"android":"levelo://app?vid=5d991e98-79d5-4dc0-9a6a-d2306ad42c9d","ios":"levelo://app?vid=5d991e98-79d5-4dc0-9a6a-d2306ad42c9d"},"vehicle_type_id":"4","last_reported":1726942257,"current_range_meters":22400,"station_id":"ce4bhph2rcd13ifvqhdg","pricing_plan_id":"cebpf4jnsgd1na2vs0mg"},{"bike_id":"73d4778d-6f43-4e25-a233-6bd307dd6072","system_id":"levelo_inurba_marseille","lat":43.30246,"lon":5.400744,"is_reserved":false,"is_disabled":false,"rental_uris":{"android":"levelo://app?vid=73d4778d-6f43-4e25-a233-6bd307dd6072","ios":"levelo://app?vid=73d4778d-6f43-4e25-a233-6bd307dd6072"},"vehicle_type_id":"4","last_reported":1726942257,"current_range_meters":5600,"station_id":"ce4bgvh2rcd13ifvqcs0","pricing_plan_id":"cebpf4jnsgd1na2vs0mg"},{"bike_id":"92f276cc-a712-4ee1-9375-00618af0288f","system_id":"levelo_inurba_marseille","lat":43.26938,"lon":5.40249,"is_reserved":false,"is_disabled":false,"rental_uris":{"android":"levelo://app?vid=92f276cc-a712-4ee1-9375-00618af0288f","ios":"levelo://app?vid=92f276cc-a712-4ee1-9375-00618af0288f"},"vehicle_type_id":"4","last_reported":1726942257,"current_range_meters":38800,"station_id":"cjm6bp8fraef2m0cb0m0","pricing_plan_id":"cebpf4jnsgd1na2vs0mg"},{"bike_id":"7b9dd459-340b-4978-bfb0-6c163a5263e8","system_id":"levelo_inurba_marseille","lat":43.23196,"lon":5.35551,"is_reserved":false,"is_disabled":false,"rental_uris":{"android":"levelo://app?vid=7b9dd459-340b-4978-bfb0-6c163a5263e8","ios":"levelo://app?vid=7b9dd459-340b-4978-bfb0-6c163a5263e8"},"vehicle_type_id":"4","last_reported":1726942257,"current_range_meters":38800,"station_id":"ce4bhu92rcd13ifvqi70","pricing_plan_id":"cebpf4jnsgd1na2vs0mg"},{"bike_id":"a6866deb-30cb-49ce-bf23-66108413f6ec","system_id":"levelo_inurba_marseille","lat":43.27385,"lon":5.36258,"is_reserved":false,"is_disabled":false,"rental_uris":{"android":"levelo://app?vid=a6866deb-30cb-49ce-bf23-66108413f6ec","ios":"levelo://app?vid=a6866deb-30cb-49ce-bf23-66108413f6ec"},"vehicle_type_id":"4","last_reported":1726942257,"current_range_meters":2000,"station_id":"ce4bhbh2rcd13ifvqeo0","pricing_plan_id":"cebpf4jnsgd1na2vs0mg"},{"bike_id":"1e79ee3a-0464-4f51-8dd6-5294b46d0023","system_id":"levelo_inurba_marseille","lat":43.31355,"lon":5.38499,"is_reserved":false,"is_disabled":false,"rental_uris":{"android":"levelo://app?vid=1e79ee3a-0464-4f51-8dd6-5294b46d0023","ios":"levelo://app?vid=1e79ee3a-0464-4f51-8dd6-5294b46d0023"},"vehicle_type_id":"4","last_reported":1726942257,"current_range_meters":25600,"station_id":"ce4bgt92rcd13ifvqcf0","pricing_plan_id":"cebpf4jnsgd1na2vs0mg"},{"bike_id":"c7a0b96c-2691-41ff-a70c-498356104889","system_id":"levelo_inurba_marseille","lat":43.29844,"lon":5.36277,"is_reserved":false,"is_disabled":false,"rental_uris":{"android":"levelo://app?vid=c7a0b96c-2691-41ff-a70c-498356104889","ios":"levelo://app?vid=c7a0b96c-2691-41ff-a70c-498356104889"},"vehicle_type_id":"4","last_reported":1726942257,"current_range_meters":10800,"station_id":"ce4bgpp2rcd13ifvqc3g","pricing_plan_id":"cebpf4jnsgd1na2vs0mg"},{"bike_id":"71aa8592-ddf7-4343-aed4-c00d3433340f","system_id":"levelo_inurba_marseille","lat":43.337444,"lon":5.374475,"is_reserved":false,"is_disabled":false,"rental_uris":{"android":"levelo://app?vid=71aa8592-ddf7-4343-aed4-c00d3433340f","ios":"levelo://app?vid=71aa8592-ddf7-4343-aed4-c00d3433340f"},"vehicle_type_id":"4","last_reported":1726942257,"current_range_meters":35200,"station_id":"","pricing_plan_id":"cebpf4jnsgd1na2vs0mg"},{"bike_id":"3740c6df-06cd-419b-9ae6-b8d9e5eff548","system_id":"levelo_inurba_marseille","lat":43.2753,"lon":5.40935,"is_reserved":false,"is_disabled":false,"rental_uris":{"android":"levelo://app?vid=3740c6df-06cd-419b-9ae6-b8d9e5eff548","ios":"levelo://app?vid=3740c6df-06cd-419b-9ae6-b8d9e5eff548"},"vehicle_type_id":"4","last_reported":1726942257,"current_range_meters":16800,"station_id":"","pricing_plan_id":"cebpf4jnsgd1na2vs0mg"},{"bike_id":"dde6e198-2d4b-449a-9654-31311b80a78a","system_id":"levelo_inurba_marseille","lat":43.29022,"lon":5.3815,"is_reserved":false,"is_disabled":false,"rental_uris":{"android":"levelo://app?vid=dde6e198-2d4b-449a-9654-31311b80a78a","ios":"levelo://app?vid=dde6e198-2d4b-449a-9654-31311b80a78a"},"vehicle_type_id":"4","last_reported":1726942257,"current_range_meters":19600,"station_id":"ce4bh4p2rcd13ifvqe1g","pricing_plan_id":"cebpf4jnsgd1na2vs0mg"},{"bike_id":"307889fa-78ae-4dc0-bfcc-4a6f02486619","system_id":"levelo_inurba_marseille","lat":43.29008,"lon":5.35614,"is_reserved":false,"is_disabled":false,"rental_uris":{"android":"levelo://app?vid=307889fa-78ae-4dc0-bfcc-4a6f02486619","ios":"levelo://app?vid=307889fa-78ae-4dc0-bfcc-4a6f02486619"},"vehicle_type_id":"4","last_reported":1726942257,"current_range_meters":38800,"station_id":"ce4bhb92rcd13ifvqen0","pricing_plan_id":"cebpf4jnsgd1na2vs0mg"},{"bike_id":"69e87ad1-6813-43d1-9e13-95c60e03a938","system_id":"levelo_inurba_marseille","lat":43.29556,"lon":5.42297,"is_reserved":false,"is_disabled":false,"rental_uris":{"android":"levelo://app?vid=69e87ad1-6813-43d1-9e13-95c60e03a938","ios":"levelo://app?vid=69e87ad1-6813-43d1-9e13-95c60e03a938"},"vehicle_type_id":"4","last_reported":1726942257,"current_range_meters":5600,"station_id":"ce4bhph2rcd13ifvqhdg","pricing_plan_id":"cebpf4jnsgd1na2vs0mg"},{"bike_id":"031c7f84-a43a-4deb-9b43-a573dd4a878e","system_id":"levelo_inurba_marseille","lat":43.30541,"lon":5.36642,"is_reserved":false,"is_disabled":false,"rental_uris":{"android":"levelo://app?vid=031c7f84-a43a-4deb-9b43-a573dd4a878e","ios":"levelo://app?vid=031c7f84-a43a-4deb-9b43-a573dd4a878e"},"vehicle_type_id":"4","last_reported":1726942257,"current_range_meters":30000,"station_id":"","pricing_plan_id":"cebpf4jnsgd1na2vs0mg"},{"bike_id":"caa37c63-ebbb-41fe-90fb-6586e13cf299","system_id":"levelo_inurba_marseille","lat":43.28662,"lon":5.36347,"is_reserved":false,"is_disabled":false,"rental_uris":{"android":"levelo://app?vid=caa37c63-ebbb-41fe-90fb-6586e13cf299","ios":"levelo://app?vid=caa37c63-ebbb-41fe-90fb-6586e13cf299"},"vehicle_type_id":"4","last_reported":1726942257,"current_range_meters":6800,"station_id":"ce4bhah2rcd13ifvqej0","pricing_plan_id":"cebpf4jnsgd1na2vs0mg"},{"bike_id":"3c46ac7b-16ca-413b-b9b8-fb71d41f0fe5","system_id":"levelo_inurba_marseille","lat":43.2927,"lon":5.38439,"is_reserved":false,"is_disabled":false,"rental_uris":{"android":"levelo://app?vid=3c46ac7b-16ca-413b-b9b8-fb71d41f0fe5","ios":"levelo://app?vid=3c46ac7b-16ca-413b-b9b8-fb71d41f0fe5"},"vehicle_type_id":"4","last_reported":1726942257,"current_range_meters":38800,"station_id":"ce4bh692rcd13ifvqea0","pricing_plan_id":"cebpf4jnsgd1na2vs0mg"},{"bike_id":"e0bac363-233d-45d2-b196-44d9a79cfd30","system_id":"levelo_inurba_marseille","lat":43.292545,"lon":5.384377,"is_reserved":false,"is_disabled":false,"rental_uris":{"android":"levelo://app?vid=e0bac363-233d-45d2-b196-44d9a79cfd30","ios":"levelo://app?vid=e0bac363-233d-45d2-b196-44d9a79cfd30"},"vehicle_type_id":"4","last_reported":1726942257,"current_range_meters":31200,"station_id":"ce4bh292rcd13ifvqdg0","pricing_plan_id":"cebpf4jnsgd1na2vs0mg"},{"bike_id":"19b556c9-610f-4b60-8b4a-e300c7ceb95b","system_id":"levelo_inurba_marseille","lat":43.27369,"lon":5.36261,"is_reserved":false,"is_disabled":false,"rental_uris":{"android":"levelo://app?vid=19b556c9-610f-4b60-8b4a-e300c7ceb95b","ios":"levelo://app?vid=19b556c9-610f-4b60-8b4a-e300c7ceb95b"},"vehicle_type_id":"4","last_reported":1726942257,"current_range_meters":25200,"station_id":"ce4bhbh2rcd13ifvqeo0","pricing_plan_id":"cebpf4jnsgd1na2vs0mg"},{"bike_id":"7d8b29c8-12de-43fc-9e45-e336fb55107a","system_id":"levelo_inurba_marseille","lat":43.27915,"lon":5.39574,"is_reserved":false,"is_disabled":false,"rental_uris":{"android":"levelo://app?vid=7d8b29c8-12de-43fc-9e45-e336fb55107a","ios":"levelo://app?vid=7d8b29c8-12de-43fc-9e45-e336fb55107a"},"vehicle_type_id":"4","last_reported":1726942257,"current_range_meters":35600,"station_id":"ce4bhf92rcd13ifvqf40","pricing_plan_id":"cebpf4jnsgd1na2vs0mg"},{"bike_id":"61b52872-49f7-45ce-97a3-d6920ea4256c","system_id":"levelo_inurba_marseille","lat":43.30689,"lon":5.37497,"is_reserved":false,"is_disabled":false,"rental_uris":{"android":"levelo://app?vid=61b52872-49f7-45ce-97a3-d6920ea4256c","ios":"levelo://app?vid=61b52872-49f7-45ce-97a3-d6920ea4256c"},"vehicle_type_id":"4","last_reported":1726942257,"current_range_meters":38400,"station_id":"ce4bgqh2rcd13ifvqc4g","pricing_plan_id":"cebpf4jnsgd1na2vs0mg"},{"bike_id":"23622b76-f1f4-4c2b-97a4-90992b0e3eaf","system_id":"levelo_inurba_marseille","lat":43.27943,"lon":5.410444,"is_reserved":false,"is_disabled":false,"rental_uris":{"android":"levelo://app?vid=23622b76-f1f4-4c2b-97a4-90992b0e3eaf","ios":"levelo://app?vid=23622b76-f1f4-4c2b-97a4-90992b0e3eaf"},"vehicle_type_id":"4","last_reported":1726942257,"current_range_meters":29600,"station_id":"ce4bhnp2rcd13ifvqh0g","pricing_plan_id":"cebpf4jnsgd1na2vs0mg"},{"bike_id":"b41f5a57-1ec4-4bdd-8fc2-8dec6933d63a","system_id":"levelo_inurba_marseille","lat":43.2668,"lon":5.38271,"is_reserved":false,"is_disabled":false,"rental_uris":{"android":"levelo://app?vid=b41f5a57-1ec4-4bdd-8fc2-8dec6933d63a","ios":"levelo://app?vid=b41f5a57-1ec4-4bdd-8fc2-8dec6933d63a"},"vehicle_type_id":"4","last_reported":1726942257,"current_range_meters":4000,"station_id":"ce4bhg92rcd13ifvqf90","pricing_plan_id":"cebpf4jnsgd1na2vs0mg"},{"bike_id":"751146ed-28e6-47e8-9dcb-cdc404204273","system_id":"levelo_inurba_marseille","lat":43.25722,"lon":5.41114,"is_reserved":false,"is_disabled":false,"rental_uris":{"android":"levelo://app?vid=751146ed-28e6-47e8-9dcb-cdc404204273","ios":"levelo://app?vid=751146ed-28e6-47e8-9dcb-cdc404204273"},"vehicle_type_id":"4","last_reported":1726942257,"current_range_meters":38000,"station_id":"ce4bhkp2rcd13ifvqgd0","pricing_plan_id":"cebpf4jnsgd1na2vs0mg"},{"bike_id":"22eeb536-04ca-4a78-985d-130469ee37b2","system_id":"levelo_inurba_marseille","lat":43.29025,"lon":5.38645,"is_reserved":false,"is_disabled":false,"rental_uris":{"android":"levelo://app?vid=22eeb536-04ca-4a78-985d-130469ee37b2","ios":"levelo://app?vid=22eeb536-04ca-4a78-985d-130469ee37b2"},"vehicle_type_id":"4","last_reported":1726942257,"current_range_meters":8400,"station_id":"ce4bh4p2rcd13ifvqe0g","pricing_plan_id":"cebpf4jnsgd1na2vs0mg"},{"bike_id":"4f6cd953-65f5-4d4f-a052-70118d864e1d","system_id":"levelo_inurba_marseille","lat":43.29896,"lon":5.43671,"is_reserved":false,"is_disabled":false,"rental_uris":{"android":"levelo://app?vid=4f6cd953-65f5-4d4f-a052-70118d864e1d","ios":"levelo://app?vid=4f6cd953-65f5-4d4f-a052-70118d864e1d"},"vehicle_type_id":"4","last_reported":1726942257,"current_range_meters":7200,"station_id":"ce4bhpp2rcd13ifvqhfg","pricing_plan_id":"cebpf4jnsgd1na2vs0mg"},{"bike_id":"c79a100c-32d0-4717-8d78-489544640e5a","system_id":"levelo_inurba_marseille","lat":43.29304,"lon":5.37181,"is_reserved":false,"is_disabled":false,"rental_uris":{"android":"levelo://app?vid=c79a100c-32d0-4717-8d78-489544640e5a","ios":"levelo://app?vid=c79a100c-32d0-4717-8d78-489544640e5a"},"vehicle_type_id":"4","last_reported":1726942257,"current_range_meters":12400,"station_id":"ce4bgh92rcd13ifvqb40","pricing_plan_id":"cebpf4jnsgd1na2vs0mg"},{"bike_id":"742fe014-1f5e-499c-bbc5-66a0cbb87904","system_id":"levelo_inurba_marseille","lat":43.23195,"lon":5.35566,"is_reserved":false,"is_disabled":false,"rental_uris":{"android":"levelo://app?vid=742fe014-1f5e-499c-bbc5-66a0cbb87904","ios":"levelo://app?vid=742fe014-1f5e-499c-bbc5-66a0cbb87904"},"vehicle_type_id":"4","last_reported":1726942257,"current_range_meters":37600,"station_id":"ce4bhu92rcd13ifvqi70","pricing_plan_id":"cebpf4jnsgd1na2vs0mg"},{"bike_id":"577d5b42-0a9e-453b-8d50-ea20b279a46e","system_id":"levelo_inurba_marseille","lat":43.28418,"lon":5.37515,"is_reserved":false,"is_disabled":false,"rental_uris":{"android":"levelo://app?vid=577d5b42-0a9e-453b-8d50-ea20b279a46e","ios":"levelo://app?vid=577d5b42-0a9e-453b-8d50-ea20b279a46e"},"vehicle_type_id":"4","last_reported":1726942257,"current_range_meters":38800,"station_id":"ce4bh412rcd13ifvqds0","pricing_plan_id":"cebpf4jnsgd1na2vs0mg"},{"bike_id":"33cca566-8ba0-4236-8ec8-0bc819455fe5","system_id":"levelo_inurba_marseille","lat":43.286182,"lon":5.350985,"is_reserved":false,"is_disabled":false,"rental_uris":{"android":"levelo://app?vid=33cca566-8ba0-4236-8ec8-0bc819455fe5","ios":"levelo://app?vid=33cca566-8ba0-4236-8ec8-0bc819455fe5"},"vehicle_type_id":"4","last_reported":1726942257,"current_range_meters":5600,"station_id":"ce4bhb12rcd13ifvqel0","pricing_plan_id":"cebpf4jnsgd1na2vs0mg"},{"bike_id":"207dc604-b664-45e6-a41c-944c294efce0","system_id":"levelo_inurba_marseille","lat":43.304901,"lon":5.398636,"is_reserved":false,"is_disabled":false,"rental_uris":{"android":"levelo://app?vid=207dc604-b664-45e6-a41c-944c294efce0","ios":"levelo://app?vid=207dc604-b664-45e6-a41c-944c294efce0"},"vehicle_type_id":"4","last_reported":1726942257,"current_range_meters":8800,"station_id":"ce4bh092rcd13ifvqd20","pricing_plan_id":"cebpf4jnsgd1na2vs0mg"},{"bike_id":"5c63dd1a-dd80-4fc3-b4eb-5997bb31d7b5","system_id":"levelo_inurba_marseille","lat":43.32543,"lon":5.41436,"is_reserved":false,"is_disabled":false,"rental_uris":{"android":"levelo://app?vid=5c63dd1a-dd80-4fc3-b4eb-5997bb31d7b5","ios":"levelo://app?vid=5c63dd1a-dd80-4fc3-b4eb-5997bb31d7b5"},"vehicle_type_id":"4","last_reported":1726942257,"current_range_meters":38800,"station_id":"ce4bhq12rcd13ifvqhhg","pricing_plan_id":"cebpf4jnsgd1na2vs0mg"},{"bike_id":"19b12a6e-9b8e-4e4b-9336-b291b77b07c5","system_id":"levelo_inurba_marseille","lat":43.31897,"lon":5.4073,"is_reserved":false,"is_disabled":false,"rental_uris":{"android":"levelo://app?vid=19b12a6e-9b8e-4e4b-9336-b291b77b07c5","ios":"levelo://app?vid=19b12a6e-9b8e-4e4b-9336-b291b77b07c5"},"vehicle_type_id":"4","last_reported":1726942257,"current_range_meters":24800,"station_id":"ce4bhq12rcd13ifvqhig","pricing_plan_id":"cebpf4jnsgd1na2vs0mg"},{"bike_id":"f74941be-f473-4ce7-9230-0799526567ae","system_id":"levelo_inurba_marseille","lat":43.2319,"lon":5.35548,"is_reserved":false,"is_disabled":false,"rental_uris":{"android":"levelo://app?vid=f74941be-f473-4ce7-9230-0799526567ae","ios":"levelo://app?vid=f74941be-f473-4ce7-9230-0799526567ae"},"vehicle_type_id":"4","last_reported":1726942257,"current_range_meters":38800,"station_id":"ce4bhu92rcd13ifvqi70","pricing_plan_id":"cebpf4jnsgd1na2vs0mg"},{"bike_id":"a2d0d5fe-f635-4227-87ea-d232f9a2c2ff","system_id":"levelo_inurba_marseille","lat":43.29304,"lon":5.37171,"is_reserved":false,"is_disabled":false,"rental_uris":{"android":"levelo://app?vid=a2d0d5fe-f635-4227-87ea-d232f9a2c2ff","ios":"levelo://app?vid=a2d0d5fe-f635-4227-87ea-d232f9a2c2ff"},"vehicle_type_id":"4","last_reported":1726942257,"current_range_meters":12400,"station_id":"ce4bgh92rcd13ifvqb40","pricing_plan_id":"cebpf4jnsgd1na2vs0mg"},{"bike_id":"cb6f560f-fb9b-4c9b-ae6d-1a5fc356cdb9","system_id":"levelo_inurba_marseille","lat":43.29941,"lon":5.365574,"is_reserved":false,"is_disabled":false,"rental_uris":{"android":"levelo://app?vid=cb6f560f-fb9b-4c9b-ae6d-1a5fc356cdb9","ios":"levelo://app?vid=cb6f560f-fb9b-4c9b-ae6d-1a5fc356cdb9"},"vehicle_type_id":"4","last_reported":1726942257,"current_range_meters":38800,"station_id":"ce4bgm92rcd13ifvqbr0","pricing_plan_id":"cebpf4jnsgd1na2vs0mg"},{"bike_id":"aa04b590-b7cd-41b6-9838-e66d4f2fdf7e","system_id":"levelo_inurba_marseille","lat":43.29708,"lon":5.36615,"is_reserved":false,"is_disabled":false,"rental_uris":{"android":"levelo://app?vid=aa04b590-b7cd-41b6-9838-e66d4f2fdf7e","ios":"levelo://app?vid=aa04b590-b7cd-41b6-9838-e66d4f2fdf7e"},"vehicle_type_id":"4","last_reported":1726942257,"current_range_meters":38800,"station_id":"ce4bgn12rcd13ifvqbt0","pricing_plan_id":"cebpf4jnsgd1na2vs0mg"},{"bike_id":"9492ffaa-020c-42dd-b2a1-b78654fce2d5","system_id":"levelo_inurba_marseille","lat":43.29276,"lon":5.36844,"is_reserved":false,"is_disabled":false,"rental_uris":{"android":"levelo://app?vid=9492ffaa-020c-42dd-b2a1-b78654fce2d5","ios":"levelo://app?vid=9492ffaa-020c-42dd-b2a1-b78654fce2d5"},"vehicle_type_id":"4","last_reported":1726942257,"current_range_meters":29600,"station_id":"ce4bhbp2rcd13ifvqesg","pricing_plan_id":"cebpf4jnsgd1na2vs0mg"},{"bike_id":"88050332-70ab-4c43-9a44-62333b76219f","system_id":"levelo_inurba_marseille","lat":43.31331,"lon":5.39694,"is_reserved":false,"is_disabled":false,"rental_uris":{"android":"levelo://app?vid=88050332-70ab-4c43-9a44-62333b76219f","ios":"levelo://app?vid=88050332-70ab-4c43-9a44-62333b76219f"},"vehicle_type_id":"4","last_reported":1726942257,"current_range_meters":24400,"station_id":"ce4bgvp2rcd13ifvqcu0","pricing_plan_id":"cebpf4jnsgd1na2vs0mg"},{"bike_id":"cc5d2db1-3474-4702-9049-f78d8a6324b1","system_id":"levelo_inurba_marseille","lat":43.275726,"lon":5.384286,"is_reserved":false,"is_disabled":false,"rental_uris":{"android":"levelo://app?vid=cc5d2db1-3474-4702-9049-f78d8a6324b1","ios":"levelo://app?vid=cc5d2db1-3474-4702-9049-f78d8a6324b1"},"vehicle_type_id":"4","last_reported":1726942257,"current_range_meters":9600,"station_id":"ce4bhh92rcd13ifvqfi0","pricing_plan_id":"cebpf4jnsgd1na2vs0mg"},{"bike_id":"c864bbde-e317-41fc-ba52-68b532d7b608","system_id":"levelo_inurba_marseille","lat":43.30474,"lon":5.37911,"is_reserved":false,"is_disabled":false,"rental_uris":{"android":"levelo://app?vid=c864bbde-e317-41fc-ba52-68b532d7b608","ios":"levelo://app?vid=c864bbde-e317-41fc-ba52-68b532d7b608"},"vehicle_type_id":"4","last_reported":1726942257,"current_range_meters":6800,"station_id":"ce4bgup2rcd13ifvqcn0","pricing_plan_id":"cebpf4jnsgd1na2vs0mg"},{"bike_id":"fb2b63d9-4a26-4602-9a57-d2caab531ee7","system_id":"levelo_inurba_marseille","lat":43.33717,"lon":5.39187,"is_reserved":false,"is_disabled":false,"rental_uris":{"android":"levelo://app?vid=fb2b63d9-4a26-4602-9a57-d2caab531ee7","ios":"levelo://app?vid=fb2b63d9-4a26-4602-9a57-d2caab531ee7"},"vehicle_type_id":"4","last_reported":1726942257,"current_range_meters":37600,"station_id":"ce4bhr92rcd13ifvqhsg","pricing_plan_id":"cebpf4jnsgd1na2vs0mg"},{"bike_id":"2562c3d0-98a4-49cd-92ee-aaac2236f1c8","system_id":"levelo_inurba_marseille","lat":43.28265,"lon":5.35064,"is_reserved":false,"is_disabled":false,"rental_uris":{"android":"levelo://app?vid=2562c3d0-98a4-49cd-92ee-aaac2236f1c8","ios":"levelo://app?vid=2562c3d0-98a4-49cd-92ee-aaac2236f1c8"},"vehicle_type_id":"4","last_reported":1726942257,"current_range_meters":8000,"station_id":"ce4bhbp2rcd13ifvqerg","pricing_plan_id":"cebpf4jnsgd1na2vs0mg"},{"bike_id":"8026415e-2050-43ce-a4ce-72fe71dbde5f","system_id":"levelo_inurba_marseille","lat":43.27209,"lon":5.39181,"is_reserved":false,"is_disabled":false,"rental_uris":{"android":"levelo://app?vid=8026415e-2050-43ce-a4ce-72fe71dbde5f","ios":"levelo://app?vid=8026415e-2050-43ce-a4ce-72fe71dbde5f"},"vehicle_type_id":"4","last_reported":1726942257,"current_range_meters":9600,"station_id":"ce4bhhp2rcd13ifvqfm0","pricing_plan_id":"cebpf4jnsgd1na2vs0mg"},{"bike_id":"f9a09fe4-8794-4ce5-aa55-fc35c7a537e2","system_id":"levelo_inurba_marseille","lat":43.28673,"lon":5.38656,"is_reserved":false,"is_disabled":false,"rental_uris":{"android":"levelo://app?vid=f9a09fe4-8794-4ce5-aa55-fc35c7a537e2","ios":"levelo://app?vid=f9a09fe4-8794-4ce5-aa55-fc35c7a537e2"},"vehicle_type_id":"4","last_reported":1726942257,"current_range_meters":11200,"station_id":"ce4bh492rcd13ifvqdug","pricing_plan_id":"cebpf4jnsgd1na2vs0mg"},{"bike_id":"c3cdabc2-6103-41f4-aa4e-92c707b95b47","system_id":"levelo_inurba_marseille","lat":43.29422,"lon":5.38616,"is_reserved":false,"is_disabled":false,"rental_uris":{"android":"levelo://app?vid=c3cdabc2-6103-41f4-aa4e-92c707b95b47","ios":"levelo://app?vid=c3cdabc2-6103-41f4-aa4e-92c707b95b47"},"vehicle_type_id":"4","last_reported":1726942257,"current_range_meters":18000,"station_id":"ce4bh2h2rcd13ifvqdh0","pricing_plan_id":"cebpf4jnsgd1na2vs0mg"},{"bike_id":"ac433075-cea9-4f92-b444-ccd3e0887e60","system_id":"levelo_inurba_marseille","lat":43.29025,"lon":5.38643,"is_reserved":false,"is_disabled":false,"rental_uris":{"android":"levelo://app?vid=ac433075-cea9-4f92-b444-ccd3e0887e60","ios":"levelo://app?vid=ac433075-cea9-4f92-b444-ccd3e0887e60"},"vehicle_type_id":"4","last_reported":1726942257,"current_range_meters":38800,"station_id":"ce4bh4p2rcd13ifvqe0g","pricing_plan_id":"cebpf4jnsgd1na2vs0mg"},{"bike_id":"31bd69f3-6555-49a2-89ef-94c49549cfb5","system_id":"levelo_inurba_marseille","lat":43.2658,"lon":5.3902,"is_reserved":false,"is_disabled":false,"rental_uris":{"android":"levelo://app?vid=31bd69f3-6555-49a2-89ef-94c49549cfb5","ios":"levelo://app?vid=31bd69f3-6555-49a2-89ef-94c49549cfb5"},"vehicle_type_id":"4","last_reported":1726942257,"current_range_meters":12800,"station_id":"ce4bhi12rcd13ifvqfq0","pricing_plan_id":"cebpf4jnsgd1na2vs0mg"},{"bike_id":"fa690805-233a-4a70-a9f3-33f1b67cdb1f","system_id":"levelo_inurba_marseille","lat":43.32296,"lon":5.38275,"is_reserved":false,"is_disabled":false,"rental_uris":{"android":"levelo://app?vid=fa690805-233a-4a70-a9f3-33f1b67cdb1f","ios":"levelo://app?vid=fa690805-233a-4a70-a9f3-33f1b67cdb1f"},"vehicle_type_id":"4","last_reported":1726942257,"current_range_meters":10800,"station_id":"ce4bhr12rcd13ifvqhqg","pricing_plan_id":"cebpf4jnsgd1na2vs0mg"},{"bike_id":"897f19b8-7bd8-4a46-b9b4-dbafaea756fb","system_id":"levelo_inurba_marseille","lat":43.24814,"lon":5.37464,"is_reserved":false,"is_disabled":false,"rental_uris":{"android":"levelo://app?vid=897f19b8-7bd8-4a46-b9b4-dbafaea756fb","ios":"levelo://app?vid=897f19b8-7bd8-4a46-b9b4-dbafaea756fb"},"vehicle_type_id":"4","last_reported":1726942257,"current_range_meters":38800,"station_id":"ce4bhgh2rcd13ifvqfb0","pricing_plan_id":"cebpf4jnsgd1na2vs0mg"},{"bike_id":"e92c245e-a57b-4795-9f95-96c3af0f6eb6","system_id":"levelo_inurba_marseille","lat":43.2872,"lon":5.36097,"is_reserved":false,"is_disabled":false,"rental_uris":{"android":"levelo://app?vid=e92c245e-a57b-4795-9f95-96c3af0f6eb6","ios":"levelo://app?vid=e92c245e-a57b-4795-9f95-96c3af0f6eb6"},"vehicle_type_id":"4","last_reported":1726942257,"current_range_meters":8800,"station_id":"cki0cbj6b192h4jlfktg","pricing_plan_id":"cebpf4jnsgd1na2vs0mg"},{"bike_id":"7e3d5989-e399-4d69-b5a0-8879588f1b0d","system_id":"levelo_inurba_marseille","lat":43.27208,"lon":5.39187,"is_reserved":false,"is_disabled":false,"rental_uris":{"android":"levelo://app?vid=7e3d5989-e399-4d69-b5a0-8879588f1b0d","ios":"levelo://app?vid=7e3d5989-e399-4d69-b5a0-8879588f1b0d"},"vehicle_type_id":"4","last_reported":1726942257,"current_range_meters":37600,"station_id":"ce4bhhp2rcd13ifvqfm0","pricing_plan_id":"cebpf4jnsgd1na2vs0mg"},{"bike_id":"716f07ae-c32a-4cb1-9661-c039e55fa02f","system_id":"levelo_inurba_marseille","lat":43.2992,"lon":5.38554,"is_reserved":false,"is_disabled":false,"rental_uris":{"android":"levelo://app?vid=716f07ae-c32a-4cb1-9661-c039e55fa02f","ios":"levelo://app?vid=716f07ae-c32a-4cb1-9661-c039e55fa02f"},"vehicle_type_id":"4","last_reported":1726942257,"current_range_meters":16400,"station_id":"ce4bh392rcd13ifvqdl0","pricing_plan_id":"cebpf4jnsgd1na2vs0mg"},{"bike_id":"6848eaef-e105-41c0-aef8-e554bca30f99","system_id":"levelo_inurba_marseille","lat":43.31532,"lon":5.38039,"is_reserved":false,"is_disabled":false,"rental_uris":{"android":"levelo://app?vid=6848eaef-e105-41c0-aef8-e554bca30f99","ios":"levelo://app?vid=6848eaef-e105-41c0-aef8-e554bca30f99"},"vehicle_type_id":"4","last_reported":1726942257,"current_range_meters":9600,"station_id":"ce4bhsp2rcd13ifvqi50","pricing_plan_id":"cebpf4jnsgd1na2vs0mg"},{"bike_id":"b2763354-ec6c-4733-8de6-6c4493759ae9","system_id":"levelo_inurba_marseille","lat":43.2906,"lon":5.40161,"is_reserved":false,"is_disabled":false,"rental_uris":{"android":"levelo://app?vid=b2763354-ec6c-4733-8de6-6c4493759ae9","ios":"levelo://app?vid=b2763354-ec6c-4733-8de6-6c4493759ae9"},"vehicle_type_id":"4","last_reported":1726942257,"current_range_meters":12400,"station_id":"","pricing_plan_id":"cebpf4jnsgd1na2vs0mg"},{"bike_id":"521c60df-d310-4e8c-ae0d-b007dd347ddd","system_id":"levelo_inurba_marseille","lat":43.27132,"lon":5.39204,"is_reserved":false,"is_disabled":false,"rental_uris":{"android":"levelo://app?vid=521c60df-d310-4e8c-ae0d-b007dd347ddd","ios":"levelo://app?vid=521c60df-d310-4e8c-ae0d-b007dd347ddd"},"vehicle_type_id":"4","last_reported":1726942257,"current_range_meters":19200,"station_id":"ce4bhhp2rcd13ifvqfm0","pricing_plan_id":"cebpf4jnsgd1na2vs0mg"},{"bike_id":"b73efefe-d4a3-473b-bafa-f11d6c4a6246","system_id":"levelo_inurba_marseille","lat":43.309081,"lon":5.368445,"is_reserved":false,"is_disabled":false,"rental_uris":{"android":"levelo://app?vid=b73efefe-d4a3-473b-bafa-f11d6c4a6246","ios":"levelo://app?vid=b73efefe-d4a3-473b-bafa-f11d6c4a6246"},"vehicle_type_id":"4","last_reported":1726942257,"current_range_meters":38000,"station_id":"ce4bgn92rcd13ifvqbvg","pricing_plan_id":"cebpf4jnsgd1na2vs0mg"},{"bike_id":"e31de2a4-85fb-467d-a504-2f3cf4294688","system_id":"levelo_inurba_marseille","lat":43.25819,"lon":5.39437,"is_reserved":false,"is_disabled":false,"rental_uris":{"android":"levelo://app?vid=e31de2a4-85fb-467d-a504-2f3cf4294688","ios":"levelo://app?vid=e31de2a4-85fb-467d-a504-2f3cf4294688"},"vehicle_type_id":"4","last_reported":1726942257,"current_range_meters":8800,"station_id":"ce4bhip2rcd13ifvqft0","pricing_plan_id":"cebpf4jnsgd1na2vs0mg"},{"bike_id":"ebf8970a-67b9-4016-af4e-bf163c87b298","system_id":"levelo_inurba_marseille","lat":43.25809,"lon":5.39412,"is_reserved":false,"is_disabled":false,"rental_uris":{"android":"levelo://app?vid=ebf8970a-67b9-4016-af4e-bf163c87b298","ios":"levelo://app?vid=ebf8970a-67b9-4016-af4e-bf163c87b298"},"vehicle_type_id":"4","last_reported":1726942257,"current_range_meters":36000,"station_id":"ce4bhip2rcd13ifvqft0","pricing_plan_id":"cebpf4jnsgd1na2vs0mg"},{"bike_id":"51ecefa1-80f3-4ed8-b057-611aa28b8f51","system_id":"levelo_inurba_marseille","lat":43.30137,"lon":5.38774,"is_reserved":false,"is_disabled":false,"rental_uris":{"android":"levelo://app?vid=51ecefa1-80f3-4ed8-b057-611aa28b8f51","ios":"levelo://app?vid=51ecefa1-80f3-4ed8-b057-611aa28b8f51"},"vehicle_type_id":"4","last_reported":1726942257,"current_range_meters":8000,"station_id":"ce4bghh2rcd13ifvqb60","pricing_plan_id":"cebpf4jnsgd1na2vs0mg"},{"bike_id":"2b40b9d7-323b-4207-b2de-d3cf4cff3e1f","system_id":"levelo_inurba_marseille","lat":43.23197,"lon":5.35552,"is_reserved":false,"is_disabled":false,"rental_uris":{"android":"levelo://app?vid=2b40b9d7-323b-4207-b2de-d3cf4cff3e1f","ios":"levelo://app?vid=2b40b9d7-323b-4207-b2de-d3cf4cff3e1f"},"vehicle_type_id":"4","last_reported":1726942257,"current_range_meters":19600,"station_id":"ce4bhu92rcd13ifvqi70","pricing_plan_id":"cebpf4jnsgd1na2vs0mg"},{"bike_id":"2ec26158-e872-418f-86cb-89db48234da4","system_id":"levelo_inurba_marseille","lat":43.29032,"lon":5.38653,"is_reserved":false,"is_disabled":false,"rental_uris":{"android":"levelo://app?vid=2ec26158-e872-418f-86cb-89db48234da4","ios":"levelo://app?vid=2ec26158-e872-418f-86cb-89db48234da4"},"vehicle_type_id":"4","last_reported":1726942257,"current_range_meters":39200,"station_id":"ce4bh4p2rcd13ifvqe0g","pricing_plan_id":"cebpf4jnsgd1na2vs0mg"},{"bike_id":"ca3f69b5-e097-4438-a299-8e6d3cb8bf1b","system_id":"levelo_inurba_marseille","lat":43.323334,"lon":5.406286,"is_reserved":false,"is_disabled":false,"rental_uris":{"android":"levelo://app?vid=ca3f69b5-e097-4438-a299-8e6d3cb8bf1b","ios":"levelo://app?vid=ca3f69b5-e097-4438-a299-8e6d3cb8bf1b"},"vehicle_type_id":"4","last_reported":1726942257,"current_range_meters":8000,"station_id":"ce4bhq92rcd13ifvqhjg","pricing_plan_id":"cebpf4jnsgd1na2vs0mg"},{"bike_id":"9357628b-9c3d-4d91-8a99-dfab3c210b1d","system_id":"levelo_inurba_marseille","lat":43.28616,"lon":5.37062,"is_reserved":false,"is_disabled":false,"rental_uris":{"android":"levelo://app?vid=9357628b-9c3d-4d91-8a99-dfab3c210b1d","ios":"levelo://app?vid=9357628b-9c3d-4d91-8a99-dfab3c210b1d"},"vehicle_type_id":"4","last_reported":1726942257,"current_range_meters":17200,"station_id":"ce4bht12rcd13ifvqi60","pricing_plan_id":"cebpf4jnsgd1na2vs0mg"},{"bike_id":"884428b4-5233-4949-a792-cd6d3975c064","system_id":"levelo_inurba_marseille","lat":43.28851,"lon":5.35849,"is_reserved":false,"is_disabled":false,"rental_uris":{"android":"levelo://app?vid=884428b4-5233-4949-a792-cd6d3975c064","ios":"levelo://app?vid=884428b4-5233-4949-a792-cd6d3975c064"},"vehicle_type_id":"4","last_reported":1726942257,"current_range_meters":11600,"station_id":"ce4bhb12rcd13ifvqem0","pricing_plan_id":"cebpf4jnsgd1na2vs0mg"},{"bike_id":"9ad326c7-d6b5-4933-b616-c0c2d0ed5ed5","system_id":"levelo_inurba_marseille","lat":43.28919,"lon":5.38399,"is_reserved":false,"is_disabled":false,"rental_uris":{"android":"levelo://app?vid=9ad326c7-d6b5-4933-b616-c0c2d0ed5ed5","ios":"levelo://app?vid=9ad326c7-d6b5-4933-b616-c0c2d0ed5ed5"},"vehicle_type_id":"4","last_reported":1726942257,"current_range_meters":3200,"station_id":"ce4bh612rcd13ifvqe6g","pricing_plan_id":"cebpf4jnsgd1na2vs0mg"},{"bike_id":"a0678a5a-b87f-46f3-8b67-c79e5aba56c3","system_id":"levelo_inurba_marseille","lat":43.302969,"lon":5.392234,"is_reserved":false,"is_disabled":false,"rental_uris":{"android":"levelo://app?vid=a0678a5a-b87f-46f3-8b67-c79e5aba56c3","ios":"levelo://app?vid=a0678a5a-b87f-46f3-8b67-c79e5aba56c3"},"vehicle_type_id":"4","last_reported":1726942257,"current_range_meters":4000,"station_id":"ce4bgkh2rcd13ifvqbk0","pricing_plan_id":"cebpf4jnsgd1na2vs0mg"},{"bike_id":"4c5cb36f-22ce-4d40-9cf3-32761e13b3ba","system_id":"levelo_inurba_marseille","lat":43.28263,"lon":5.35073,"is_reserved":false,"is_disabled":false,"rental_uris":{"android":"levelo://app?vid=4c5cb36f-22ce-4d40-9cf3-32761e13b3ba","ios":"levelo://app?vid=4c5cb36f-22ce-4d40-9cf3-32761e13b3ba"},"vehicle_type_id":"4","last_reported":1726942257,"current_range_meters":2000,"station_id":"ce4bhbp2rcd13ifvqerg","pricing_plan_id":"cebpf4jnsgd1na2vs0mg"},{"bike_id":"2c6482fe-b8a6-47a4-b2a7-112d12d04ffd","system_id":"levelo_inurba_marseille","lat":43.30951,"lon":5.39039,"is_reserved":false,"is_disabled":false,"rental_uris":{"android":"levelo://app?vid=2c6482fe-b8a6-47a4-b2a7-112d12d04ffd","ios":"levelo://app?vid=2c6482fe-b8a6-47a4-b2a7-112d12d04ffd"},"vehicle_type_id":"4","last_reported":1726942257,"current_range_meters":38800,"station_id":"ce4bgup2rcd13ifvqco0","pricing_plan_id":"cebpf4jnsgd1na2vs0mg"},{"bike_id":"31444d97-ada7-4c14-9ccc-e8d8f546def7","system_id":"levelo_inurba_marseille","lat":43.26934,"lon":5.36668,"is_reserved":false,"is_disabled":false,"rental_uris":{"android":"levelo://app?vid=31444d97-ada7-4c14-9ccc-e8d8f546def7","ios":"levelo://app?vid=31444d97-ada7-4c14-9ccc-e8d8f546def7"},"vehicle_type_id":"4","last_reported":1726942257,"current_range_meters":8400,"station_id":"","pricing_plan_id":"cebpf4jnsgd1na2vs0mg"},{"bike_id":"e4db4e82-6b2d-49a2-8ab4-fe18c3562149","system_id":"levelo_inurba_marseille","lat":43.30948,"lon":5.39029,"is_reserved":false,"is_disabled":false,"rental_uris":{"android":"levelo://app?vid=e4db4e82-6b2d-49a2-8ab4-fe18c3562149","ios":"levelo://app?vid=e4db4e82-6b2d-49a2-8ab4-fe18c3562149"},"vehicle_type_id":"4","last_reported":1726942257,"current_range_meters":28400,"station_id":"ce4bgup2rcd13ifvqco0","pricing_plan_id":"cebpf4jnsgd1na2vs0mg"},{"bike_id":"00e0643f-7a78-4f02-b8f3-81efc74c2338","system_id":"levelo_inurba_marseille","lat":43.291757,"lon":5.392119,"is_reserved":false,"is_disabled":false,"rental_uris":{"android":"levelo://app?vid=00e0643f-7a78-4f02-b8f3-81efc74c2338","ios":"levelo://app?vid=00e0643f-7a78-4f02-b8f3-81efc74c2338"},"vehicle_type_id":"4","last_reported":1726942257,"current_range_meters":8400,"station_id":"","pricing_plan_id":"cebpf4jnsgd1na2vs0mg"},{"bike_id":"78ae2fdf-e877-4b8c-851b-0c136fb972bf","system_id":"levelo_inurba_marseille","lat":43.27811,"lon":5.40717,"is_reserved":false,"is_disabled":false,"rental_uris":{"android":"levelo://app?vid=78ae2fdf-e877-4b8c-851b-0c136fb972bf","ios":"levelo://app?vid=78ae2fdf-e877-4b8c-851b-0c136fb972bf"},"vehicle_type_id":"4","last_reported":1726942257,"current_range_meters":8000,"station_id":"ce4bhnh2rcd13ifvqgtg","pricing_plan_id":"cebpf4jnsgd1na2vs0mg"},{"bike_id":"a61f4754-1cc1-4adf-b82d-04828c1f3c67","system_id":"levelo_inurba_marseille","lat":43.269504,"lon":5.386255,"is_reserved":false,"is_disabled":false,"rental_uris":{"android":"levelo://app?vid=a61f4754-1cc1-4adf-b82d-04828c1f3c67","ios":"levelo://app?vid=a61f4754-1cc1-4adf-b82d-04828c1f3c67"},"vehicle_type_id":"4","last_reported":1726942257,"current_range_meters":32400,"station_id":"ce4bguh2rcd13ifvqcj0","pricing_plan_id":"cebpf4jnsgd1na2vs0mg"},{"bike_id":"cf97a3c1-2f9e-4a68-9546-03353d923a37","system_id":"levelo_inurba_marseille","lat":43.30215,"lon":5.39475,"is_reserved":false,"is_disabled":false,"rental_uris":{"android":"levelo://app?vid=cf97a3c1-2f9e-4a68-9546-03353d923a37","ios":"levelo://app?vid=cf97a3c1-2f9e-4a68-9546-03353d923a37"},"vehicle_type_id":"4","last_reported":1726942257,"current_range_meters":38800,"station_id":"ce4bh0p2rcd13ifvqd70","pricing_plan_id":"cebpf4jnsgd1na2vs0mg"},{"bike_id":"a213a4e4-e5e5-43fc-967f-b7b4b6442064","system_id":"levelo_inurba_marseille","lat":43.260537,"lon":5.393949,"is_reserved":false,"is_disabled":false,"rental_uris":{"android":"levelo://app?vid=a213a4e4-e5e5-43fc-967f-b7b4b6442064","ios":"levelo://app?vid=a213a4e4-e5e5-43fc-967f-b7b4b6442064"},"vehicle_type_id":"4","last_reported":1726942257,"current_range_meters":34800,"station_id":"ce4bhh92rcd13ifvqfj0","pricing_plan_id":"cebpf4jnsgd1na2vs0mg"},{"bike_id":"ecd87928-9ce4-40b2-bd15-1cb3e0aae524","system_id":"levelo_inurba_marseille","lat":43.24169,"lon":5.36398,"is_reserved":false,"is_disabled":false,"rental_uris":{"android":"levelo://app?vid=ecd87928-9ce4-40b2-bd15-1cb3e0aae524","ios":"levelo://app?vid=ecd87928-9ce4-40b2-bd15-1cb3e0aae524"},"vehicle_type_id":"4","last_reported":1726942257,"current_range_meters":37600,"station_id":"cpo36qri1sfpv3e86is0","pricing_plan_id":"cebpf4jnsgd1na2vs0mg"},{"bike_id":"d323bc23-4105-4d98-87ab-fb3899c88f8a","system_id":"levelo_inurba_marseille","lat":43.23194,"lon":5.35551,"is_reserved":false,"is_disabled":false,"rental_uris":{"android":"levelo://app?vid=d323bc23-4105-4d98-87ab-fb3899c88f8a","ios":"levelo://app?vid=d323bc23-4105-4d98-87ab-fb3899c88f8a"},"vehicle_type_id":"4","last_reported":1726942257,"current_range_meters":36400,"station_id":"ce4bhu92rcd13ifvqi70","pricing_plan_id":"cebpf4jnsgd1na2vs0mg"},{"bike_id":"a95491f4-5ffb-470d-943d-1a4ab34cd6b4","system_id":"levelo_inurba_marseille","lat":43.28699,"lon":5.3739,"is_reserved":false,"is_disabled":false,"rental_uris":{"android":"levelo://app?vid=a95491f4-5ffb-470d-943d-1a4ab34cd6b4","ios":"levelo://app?vid=a95491f4-5ffb-470d-943d-1a4ab34cd6b4"},"vehicle_type_id":"4","last_reported":1726942257,"current_range_meters":33200,"station_id":"ce4bh3p2rcd13ifvqdq0","pricing_plan_id":"cebpf4jnsgd1na2vs0mg"},{"bike_id":"2e9e8870-9866-4392-a80c-f91b9741c058","system_id":"levelo_inurba_marseille","lat":43.303047,"lon":5.368943,"is_reserved":false,"is_disabled":false,"rental_uris":{"android":"levelo://app?vid=2e9e8870-9866-4392-a80c-f91b9741c058","ios":"levelo://app?vid=2e9e8870-9866-4392-a80c-f91b9741c058"},"vehicle_type_id":"4","last_reported":1726942257,"current_range_meters":15200,"station_id":"ce4bgqh2rcd13ifvqc5g","pricing_plan_id":"cebpf4jnsgd1na2vs0mg"},{"bike_id":"56a3f965-4928-4290-8c7a-af669e4f4cb5","system_id":"levelo_inurba_marseille","lat":43.2871,"lon":5.37953,"is_reserved":false,"is_disabled":false,"rental_uris":{"android":"levelo://app?vid=56a3f965-4928-4290-8c7a-af669e4f4cb5","ios":"levelo://app?vid=56a3f965-4928-4290-8c7a-af669e4f4cb5"},"vehicle_type_id":"4","last_reported":1726942257,"current_range_meters":38800,"station_id":"ce4bh9p2rcd13ifvqec0","pricing_plan_id":"cebpf4jnsgd1na2vs0mg"},{"bike_id":"5de90350-eece-4dc9-8c24-5e5f8a365ac4","system_id":"levelo_inurba_marseille","lat":43.30805,"lon":5.43524,"is_reserved":false,"is_disabled":false,"rental_uris":{"android":"levelo://app?vid=5de90350-eece-4dc9-8c24-5e5f8a365ac4","ios":"levelo://app?vid=5de90350-eece-4dc9-8c24-5e5f8a365ac4"},"vehicle_type_id":"4","last_reported":1726942257,"current_range_meters":24000,"station_id":"ce4bhph2rcd13ifvqheg","pricing_plan_id":"cebpf4jnsgd1na2vs0mg"},{"bike_id":"33d6ff2c-e9ab-420e-9dd7-bcdb5d1a399f","system_id":"levelo_inurba_marseille","lat":43.31721,"lon":5.43714,"is_reserved":false,"is_disabled":false,"rental_uris":{"android":"levelo://app?vid=33d6ff2c-e9ab-420e-9dd7-bcdb5d1a399f","ios":"levelo://app?vid=33d6ff2c-e9ab-420e-9dd7-bcdb5d1a399f"},"vehicle_type_id":"4","last_reported":1726942257,"current_range_meters":38800,"station_id":"ce4bhp92rcd13ifvqhcg","pricing_plan_id":"cebpf4jnsgd1na2vs0mg"},{"bike_id":"0f1cd8e4-d975-48fe-b50e-a8602d13d3d8","system_id":"levelo_inurba_marseille","lat":43.2957,"lon":5.37518,"is_reserved":false,"is_disabled":false,"rental_uris":{"android":"levelo://app?vid=0f1cd8e4-d975-48fe-b50e-a8602d13d3d8","ios":"levelo://app?vid=0f1cd8e4-d975-48fe-b50e-a8602d13d3d8"},"vehicle_type_id":"4","last_reported":1726942257,"current_range_meters":36800,"station_id":"ce4bgh92rcd13ifvqb50","pricing_plan_id":"cebpf4jnsgd1na2vs0mg"},{"bike_id":"c7348667-014d-4592-83fc-5772197b3a5d","system_id":"levelo_inurba_marseille","lat":43.30182,"lon":5.36609,"is_reserved":false,"is_disabled":false,"rental_uris":{"android":"levelo://app?vid=c7348667-014d-4592-83fc-5772197b3a5d","ios":"levelo://app?vid=c7348667-014d-4592-83fc-5772197b3a5d"},"vehicle_type_id":"4","last_reported":1726942257,"current_range_meters":12800,"station_id":"ce4bgrh2rcd13ifvqc8g","pricing_plan_id":"cebpf4jnsgd1na2vs0mg"},{"bike_id":"62e07f60-2ab2-4989-b082-9264a715ae9a","system_id":"levelo_inurba_marseille","lat":43.25508,"lon":5.37654,"is_reserved":false,"is_disabled":false,"rental_uris":{"android":"levelo://app?vid=62e07f60-2ab2-4989-b082-9264a715ae9a","ios":"levelo://app?vid=62e07f60-2ab2-4989-b082-9264a715ae9a"},"vehicle_type_id":"4","last_reported":1726942257,"current_range_meters":6400,"station_id":"ce4bhh12rcd13ifvqff0","pricing_plan_id":"cebpf4jnsgd1na2vs0mg"},{"bike_id":"b3be407b-7cb4-437a-a703-75754320de30","system_id":"levelo_inurba_marseille","lat":43.25494,"lon":5.3765,"is_reserved":false,"is_disabled":false,"rental_uris":{"android":"levelo://app?vid=b3be407b-7cb4-437a-a703-75754320de30","ios":"levelo://app?vid=b3be407b-7cb4-437a-a703-75754320de30"},"vehicle_type_id":"4","last_reported":1726942257,"current_range_meters":30000,"station_id":"ce4bhh12rcd13ifvqff0","pricing_plan_id":"cebpf4jnsgd1na2vs0mg"},{"bike_id":"32ecd4a5-6a6e-4685-ae24-d272b98d1ca3","system_id":"levelo_inurba_marseille","lat":43.23958,"lon":5.36625,"is_reserved":false,"is_disabled":false,"rental_uris":{"android":"levelo://app?vid=32ecd4a5-6a6e-4685-ae24-d272b98d1ca3","ios":"levelo://app?vid=32ecd4a5-6a6e-4685-ae24-d272b98d1ca3"},"vehicle_type_id":"4","last_reported":1726942257,"current_range_meters":8000,"station_id":"ce4bhi12rcd13ifvqfp0","pricing_plan_id":"cebpf4jnsgd1na2vs0mg"},{"bike_id":"5e78fb85-e163-454f-b47f-06d0c000c116","system_id":"levelo_inurba_marseille","lat":43.29157,"lon":5.38613,"is_reserved":false,"is_disabled":false,"rental_uris":{"android":"levelo://app?vid=5e78fb85-e163-454f-b47f-06d0c000c116","ios":"levelo://app?vid=5e78fb85-e163-454f-b47f-06d0c000c116"},"vehicle_type_id":"4","last_reported":1726942257,"current_range_meters":19200,"station_id":"","pricing_plan_id":"cebpf4jnsgd1na2vs0mg"},{"bike_id":"828f2ccc-9226-4551-966e-e685b3b665d4","system_id":"levelo_inurba_marseille","lat":43.24805,"lon":5.37457,"is_reserved":false,"is_disabled":false,"rental_uris":{"android":"levelo://app?vid=828f2ccc-9226-4551-966e-e685b3b665d4","ios":"levelo://app?vid=828f2ccc-9226-4551-966e-e685b3b665d4"},"vehicle_type_id":"4","last_reported":1726942257,"current_range_meters":38800,"station_id":"ce4bhgh2rcd13ifvqfb0","pricing_plan_id":"cebpf4jnsgd1na2vs0mg"},{"bike_id":"ca65a08b-f195-42b7-b3e8-843d6037cb7f","system_id":"levelo_inurba_marseille","lat":43.27048,"lon":5.40263,"is_reserved":false,"is_disabled":false,"rental_uris":{"android":"levelo://app?vid=ca65a08b-f195-42b7-b3e8-843d6037cb7f","ios":"levelo://app?vid=ca65a08b-f195-42b7-b3e8-843d6037cb7f"},"vehicle_type_id":"4","last_reported":1726942257,"current_range_meters":23200,"station_id":"ce4bhk92rcd13ifvqgc0","pricing_plan_id":"cebpf4jnsgd1na2vs0mg"},{"bike_id":"417b67da-5db6-4939-bc85-d17f1a193753","system_id":"levelo_inurba_marseille","lat":43.27908,"lon":5.38016,"is_reserved":false,"is_disabled":false,"rental_uris":{"android":"levelo://app?vid=417b67da-5db6-4939-bc85-d17f1a193753","ios":"levelo://app?vid=417b67da-5db6-4939-bc85-d17f1a193753"},"vehicle_type_id":"4","last_reported":1726942257,"current_range_meters":17600,"station_id":"ce4bhf92rcd13ifvqf50","pricing_plan_id":"cebpf4jnsgd1na2vs0mg"},{"bike_id":"bcbe6095-74c6-4e6a-9235-6041481bec8a","system_id":"levelo_inurba_marseille","lat":43.23186,"lon":5.39981,"is_reserved":false,"is_disabled":false,"rental_uris":{"android":"levelo://app?vid=bcbe6095-74c6-4e6a-9235-6041481bec8a","ios":"levelo://app?vid=bcbe6095-74c6-4e6a-9235-6041481bec8a"},"vehicle_type_id":"4","last_reported":1726942257,"current_range_meters":11200,"station_id":"ce4bhn12rcd13ifvqgqg","pricing_plan_id":"cebpf4jnsgd1na2vs0mg"},{"bike_id":"307c3d0f-d2ef-4e94-bd40-386f285c692b","system_id":"levelo_inurba_marseille","lat":43.24179,"lon":5.39724,"is_reserved":false,"is_disabled":false,"rental_uris":{"android":"levelo://app?vid=307c3d0f-d2ef-4e94-bd40-386f285c692b","ios":"levelo://app?vid=307c3d0f-d2ef-4e94-bd40-386f285c692b"},"vehicle_type_id":"4","last_reported":1726942257,"current_range_meters":19600,"station_id":"ce4bhn12rcd13ifvqgpg","pricing_plan_id":"cebpf4jnsgd1na2vs0mg"},{"bike_id":"da2713a2-6928-4531-bdd8-42c9caac36c9","system_id":"levelo_inurba_marseille","lat":43.31996,"lon":5.38164,"is_reserved":false,"is_disabled":false,"rental_uris":{"android":"levelo://app?vid=da2713a2-6928-4531-bdd8-42c9caac36c9","ios":"levelo://app?vid=da2713a2-6928-4531-bdd8-42c9caac36c9"},"vehicle_type_id":"4","last_reported":1726942257,"current_range_meters":9200,"station_id":"ce4bhr12rcd13ifvqhpg","pricing_plan_id":"cebpf4jnsgd1na2vs0mg"},{"bike_id":"fe284325-4082-46d9-a106-2f8195a3846b","system_id":"levelo_inurba_marseille","lat":43.26491,"lon":5.39543,"is_reserved":false,"is_disabled":false,"rental_uris":{"android":"levelo://app?vid=fe284325-4082-46d9-a106-2f8195a3846b","ios":"levelo://app?vid=fe284325-4082-46d9-a106-2f8195a3846b"},"vehicle_type_id":"4","last_reported":1726942257,"current_range_meters":38800,"station_id":"ce4bhi12rcd13ifvqfq0","pricing_plan_id":"cebpf4jnsgd1na2vs0mg"},{"bike_id":"d4bd7f09-6354-4ed3-937a-cb90bc66037f","system_id":"levelo_inurba_marseille","lat":43.28939,"lon":5.36641,"is_reserved":false,"is_disabled":false,"rental_uris":{"android":"levelo://app?vid=d4bd7f09-6354-4ed3-937a-cb90bc66037f","ios":"levelo://app?vid=d4bd7f09-6354-4ed3-937a-cb90bc66037f"},"vehicle_type_id":"4","last_reported":1726942257,"current_range_meters":27200,"station_id":"ce4bhap2rcd13ifvqek0","pricing_plan_id":"cebpf4jnsgd1na2vs0mg"},{"bike_id":"4d8a28ba-f61f-463e-a79a-90488d227c99","system_id":"levelo_inurba_marseille","lat":43.27904,"lon":5.38021,"is_reserved":false,"is_disabled":false,"rental_uris":{"android":"levelo://app?vid=4d8a28ba-f61f-463e-a79a-90488d227c99","ios":"levelo://app?vid=4d8a28ba-f61f-463e-a79a-90488d227c99"},"vehicle_type_id":"4","last_reported":1726942257,"current_range_meters":3600,"station_id":"ce4bhf92rcd13ifvqf50","pricing_plan_id":"cebpf4jnsgd1na2vs0mg"},{"bike_id":"0a32c723-e14e-4b56-b678-ff2f11bafce6","system_id":"levelo_inurba_marseille","lat":43.29569,"lon":5.39985,"is_reserved":false,"is_disabled":false,"rental_uris":{"android":"levelo://app?vid=0a32c723-e14e-4b56-b678-ff2f11bafce6","ios":"levelo://app?vid=0a32c723-e14e-4b56-b678-ff2f11bafce6"},"vehicle_type_id":"4","last_reported":1726942257,"current_range_meters":6400,"station_id":"ce4bh312rcd13ifvqdj0","pricing_plan_id":"cebpf4jnsgd1na2vs0mg"},{"bike_id":"6b796181-0ebf-4eda-8d28-37b5466d19ec","system_id":"levelo_inurba_marseille","lat":43.30911,"lon":5.36847,"is_reserved":false,"is_disabled":false,"rental_uris":{"android":"levelo://app?vid=6b796181-0ebf-4eda-8d28-37b5466d19ec","ios":"levelo://app?vid=6b796181-0ebf-4eda-8d28-37b5466d19ec"},"vehicle_type_id":"4","last_reported":1726942257,"current_range_meters":16800,"station_id":"ce4bgn92rcd13ifvqbvg","pricing_plan_id":"cebpf4jnsgd1na2vs0mg"},{"bike_id":"86e8dec2-068c-4b6a-b1d6-b0b6b819612f","system_id":"levelo_inurba_marseille","lat":43.29096,"lon":5.38139,"is_reserved":false,"is_disabled":false,"rental_uris":{"android":"levelo://app?vid=86e8dec2-068c-4b6a-b1d6-b0b6b819612f","ios":"levelo://app?vid=86e8dec2-068c-4b6a-b1d6-b0b6b819612f"},"vehicle_type_id":"4","last_reported":1726942257,"current_range_meters":36800,"station_id":"ce4bh512rcd13ifvqe2g","pricing_plan_id":"cebpf4jnsgd1na2vs0mg"},{"bike_id":"f4a4aedc-aa29-477f-88c8-3584a04547ee","system_id":"levelo_inurba_marseille","lat":43.309448,"lon":5.390554,"is_reserved":false,"is_disabled":false,"rental_uris":{"android":"levelo://app?vid=f4a4aedc-aa29-477f-88c8-3584a04547ee","ios":"levelo://app?vid=f4a4aedc-aa29-477f-88c8-3584a04547ee"},"vehicle_type_id":"4","last_reported":1726942257,"current_range_meters":36800,"station_id":"ce4bgup2rcd13ifvqco0","pricing_plan_id":"cebpf4jnsgd1na2vs0mg"},{"bike_id":"71745df1-8511-42d1-b236-94ecb1109e61","system_id":"levelo_inurba_marseille","lat":43.2924,"lon":5.38253,"is_reserved":false,"is_disabled":false,"rental_uris":{"android":"levelo://app?vid=71745df1-8511-42d1-b236-94ecb1109e61","ios":"levelo://app?vid=71745df1-8511-42d1-b236-94ecb1109e61"},"vehicle_type_id":"4","last_reported":1726942257,"current_range_meters":33200,"station_id":"","pricing_plan_id":"cebpf4jnsgd1na2vs0mg"},{"bike_id":"fa8ea7c3-dc58-436b-a96f-ea6d4bd3ca0b","system_id":"levelo_inurba_marseille","lat":43.24072,"lon":5.37763,"is_reserved":false,"is_disabled":false,"rental_uris":{"android":"levelo://app?vid=fa8ea7c3-dc58-436b-a96f-ea6d4bd3ca0b","ios":"levelo://app?vid=fa8ea7c3-dc58-436b-a96f-ea6d4bd3ca0b"},"vehicle_type_id":"4","last_reported":1726942257,"current_range_meters":38800,"station_id":"ce4bhnp2rcd13ifvqgvg","pricing_plan_id":"cebpf4jnsgd1na2vs0mg"},{"bike_id":"a6d3d07d-d21d-411a-98ee-3209e13f71ea","system_id":"levelo_inurba_marseille","lat":43.286957,"lon":5.373939,"is_reserved":false,"is_disabled":false,"rental_uris":{"android":"levelo://app?vid=a6d3d07d-d21d-411a-98ee-3209e13f71ea","ios":"levelo://app?vid=a6d3d07d-d21d-411a-98ee-3209e13f71ea"},"vehicle_type_id":"4","last_reported":1726942257,"current_range_meters":6400,"station_id":"ce4bh3p2rcd13ifvqdq0","pricing_plan_id":"cebpf4jnsgd1na2vs0mg"},{"bike_id":"886a8442-a36e-427a-8eb5-e7e9d3050969","system_id":"levelo_inurba_marseille","lat":43.30913,"lon":5.36844,"is_reserved":false,"is_disabled":false,"rental_uris":{"android":"levelo://app?vid=886a8442-a36e-427a-8eb5-e7e9d3050969","ios":"levelo://app?vid=886a8442-a36e-427a-8eb5-e7e9d3050969"},"vehicle_type_id":"4","last_reported":1726942257,"current_range_meters":5600,"station_id":"ce4bgn92rcd13ifvqbvg","pricing_plan_id":"cebpf4jnsgd1na2vs0mg"},{"bike_id":"8f8e3cce-368a-41c1-a70f-f128c313d95c","system_id":"levelo_inurba_marseille","lat":43.28609,"lon":5.37061,"is_reserved":false,"is_disabled":false,"rental_uris":{"android":"levelo://app?vid=8f8e3cce-368a-41c1-a70f-f128c313d95c","ios":"levelo://app?vid=8f8e3cce-368a-41c1-a70f-f128c313d95c"},"vehicle_type_id":"4","last_reported":1726942257,"current_range_meters":6800,"station_id":"ce4bht12rcd13ifvqi60","pricing_plan_id":"cebpf4jnsgd1na2vs0mg"},{"bike_id":"a4e77788-da88-48ac-a844-44783d3ba9af","system_id":"levelo_inurba_marseille","lat":43.29936,"lon":5.36557,"is_reserved":false,"is_disabled":false,"rental_uris":{"android":"levelo://app?vid=a4e77788-da88-48ac-a844-44783d3ba9af","ios":"levelo://app?vid=a4e77788-da88-48ac-a844-44783d3ba9af"},"vehicle_type_id":"4","last_reported":1726942257,"current_range_meters":38800,"station_id":"ce4bgm92rcd13ifvqbr0","pricing_plan_id":"cebpf4jnsgd1na2vs0mg"},{"bike_id":"22e4a15e-6041-4c71-b288-1c12c69d262d","system_id":"levelo_inurba_marseille","lat":43.33723,"lon":5.39188,"is_reserved":false,"is_disabled":false,"rental_uris":{"android":"levelo://app?vid=22e4a15e-6041-4c71-b288-1c12c69d262d","ios":"levelo://app?vid=22e4a15e-6041-4c71-b288-1c12c69d262d"},"vehicle_type_id":"4","last_reported":1726942257,"current_range_meters":11600,"station_id":"ce4bhr92rcd13ifvqhsg","pricing_plan_id":"cebpf4jnsgd1na2vs0mg"},{"bike_id":"c5d3a046-6bd7-4d7b-af21-c3e4cb98efd0","system_id":"levelo_inurba_marseille","lat":43.23962,"lon":5.36625,"is_reserved":false,"is_disabled":false,"rental_uris":{"android":"levelo://app?vid=c5d3a046-6bd7-4d7b-af21-c3e4cb98efd0","ios":"levelo://app?vid=c5d3a046-6bd7-4d7b-af21-c3e4cb98efd0"},"vehicle_type_id":"4","last_reported":1726942257,"current_range_meters":20000,"station_id":"ce4bhi12rcd13ifvqfp0","pricing_plan_id":"cebpf4jnsgd1na2vs0mg"},{"bike_id":"74d2fcf6-0b06-4a74-9795-e41f482f2ded","system_id":"levelo_inurba_marseille","lat":43.308935,"lon":5.371882,"is_reserved":false,"is_disabled":false,"rental_uris":{"android":"levelo://app?vid=74d2fcf6-0b06-4a74-9795-e41f482f2ded","ios":"levelo://app?vid=74d2fcf6-0b06-4a74-9795-e41f482f2ded"},"vehicle_type_id":"4","last_reported":1726942257,"current_range_meters":17600,"station_id":"ce4bguh2rcd13ifvqckg","pricing_plan_id":"cebpf4jnsgd1na2vs0mg"},{"bike_id":"1e6150d9-4e30-4a8b-9480-a209923c34a8","system_id":"levelo_inurba_marseille","lat":43.30195,"lon":5.36604,"is_reserved":false,"is_disabled":false,"rental_uris":{"android":"levelo://app?vid=1e6150d9-4e30-4a8b-9480-a209923c34a8","ios":"levelo://app?vid=1e6150d9-4e30-4a8b-9480-a209923c34a8"},"vehicle_type_id":"4","last_reported":1726942257,"current_range_meters":38800,"station_id":"ce4bgrh2rcd13ifvqc8g","pricing_plan_id":"cebpf4jnsgd1na2vs0mg"},{"bike_id":"05938825-2740-4907-bd01-3d283617a1c6","system_id":"levelo_inurba_marseille","lat":43.32354,"lon":5.44014,"is_reserved":false,"is_disabled":false,"rental_uris":{"android":"levelo://app?vid=05938825-2740-4907-bd01-3d283617a1c6","ios":"levelo://app?vid=05938825-2740-4907-bd01-3d283617a1c6"},"vehicle_type_id":"4","last_reported":1726942257,"current_range_meters":6400,"station_id":"","pricing_plan_id":"cebpf4jnsgd1na2vs0mg"},{"bike_id":"a500ef3c-b73d-49b0-b266-e089748c9380","system_id":"levelo_inurba_marseille","lat":43.28696,"lon":5.37389,"is_reserved":false,"is_disabled":false,"rental_uris":{"android":"levelo://app?vid=a500ef3c-b73d-49b0-b266-e089748c9380","ios":"levelo://app?vid=a500ef3c-b73d-49b0-b266-e089748c9380"},"vehicle_type_id":"4","last_reported":1726942257,"current_range_meters":4400,"station_id":"ce4bh3p2rcd13ifvqdq0","pricing_plan_id":"cebpf4jnsgd1na2vs0mg"},{"bike_id":"6c49d7fc-28d4-430a-a652-7d35afd8384c","system_id":"levelo_inurba_marseille","lat":43.299,"lon":5.43671,"is_reserved":false,"is_disabled":false,"rental_uris":{"android":"levelo://app?vid=6c49d7fc-28d4-430a-a652-7d35afd8384c","ios":"levelo://app?vid=6c49d7fc-28d4-430a-a652-7d35afd8384c"},"vehicle_type_id":"4","last_reported":1726942257,"current_range_meters":6000,"station_id":"ce4bhpp2rcd13ifvqhfg","pricing_plan_id":"cebpf4jnsgd1na2vs0mg"},{"bike_id":"6f73fd7c-ce11-4346-9372-0100c9aec334","system_id":"levelo_inurba_marseille","lat":43.29137,"lon":5.3703,"is_reserved":false,"is_disabled":false,"rental_uris":{"android":"levelo://app?vid=6f73fd7c-ce11-4346-9372-0100c9aec334","ios":"levelo://app?vid=6f73fd7c-ce11-4346-9372-0100c9aec334"},"vehicle_type_id":"4","last_reported":1726942257,"current_range_meters":6800,"station_id":"","pricing_plan_id":"cebpf4jnsgd1na2vs0mg"},{"bike_id":"4ca7479c-102f-44d0-bbc6-05dbf2b8a829","system_id":"levelo_inurba_marseille","lat":43.29522,"lon":5.3905,"is_reserved":false,"is_disabled":false,"rental_uris":{"android":"levelo://app?vid=4ca7479c-102f-44d0-bbc6-05dbf2b8a829","ios":"levelo://app?vid=4ca7479c-102f-44d0-bbc6-05dbf2b8a829"},"vehicle_type_id":"4","last_reported":1726942257,"current_range_meters":8400,"station_id":"ce4bh3p2rcd13ifvqdp0","pricing_plan_id":"cebpf4jnsgd1na2vs0mg"},{"bike_id":"2dfc1741-1cc6-4fd5-8596-7ad52e07b644","system_id":"levelo_inurba_marseille","lat":43.33022,"lon":5.39047,"is_reserved":false,"is_disabled":false,"rental_uris":{"android":"levelo://app?vid=2dfc1741-1cc6-4fd5-8596-7ad52e07b644","ios":"levelo://app?vid=2dfc1741-1cc6-4fd5-8596-7ad52e07b644"},"vehicle_type_id":"4","last_reported":1726942257,"current_range_meters":34000,"station_id":"ce4bhr92rcd13ifvqhrg","pricing_plan_id":"cebpf4jnsgd1na2vs0mg"},{"bike_id":"9ab22753-36f4-43b7-ba96-16011976d8df","system_id":"levelo_inurba_marseille","lat":43.30542,"lon":5.365588,"is_reserved":false,"is_disabled":false,"rental_uris":{"android":"levelo://app?vid=9ab22753-36f4-43b7-ba96-16011976d8df","ios":"levelo://app?vid=9ab22753-36f4-43b7-ba96-16011976d8df"},"vehicle_type_id":"4","last_reported":1726942257,"current_range_meters":16000,"station_id":"ce4bgk12rcd13ifvqbj0","pricing_plan_id":"cebpf4jnsgd1na2vs0mg"},{"bike_id":"231df590-15eb-4c0a-bdf6-dddd3cb861cb","system_id":"levelo_inurba_marseille","lat":43.337444,"lon":5.374475,"is_reserved":false,"is_disabled":false,"rental_uris":{"android":"levelo://app?vid=231df590-15eb-4c0a-bdf6-dddd3cb861cb","ios":"levelo://app?vid=231df590-15eb-4c0a-bdf6-dddd3cb861cb"},"vehicle_type_id":"4","last_reported":1726942257,"current_range_meters":30000,"station_id":"","pricing_plan_id":"cebpf4jnsgd1na2vs0mg"},{"bike_id":"3c610389-beae-4651-bc0b-6daf80d19c77","system_id":"levelo_inurba_marseille","lat":43.24181,"lon":5.39724,"is_reserved":false,"is_disabled":false,"rental_uris":{"android":"levelo://app?vid=3c610389-beae-4651-bc0b-6daf80d19c77","ios":"levelo://app?vid=3c610389-beae-4651-bc0b-6daf80d19c77"},"vehicle_type_id":"4","last_reported":1726942257,"current_range_meters":22000,"station_id":"ce4bhn12rcd13ifvqgpg","pricing_plan_id":"cebpf4jnsgd1na2vs0mg"},{"bike_id":"3b211465-5030-4ebd-b5e2-78bdfeebc435","system_id":"levelo_inurba_marseille","lat":43.33721,"lon":5.39183,"is_reserved":false,"is_disabled":false,"rental_uris":{"android":"levelo://app?vid=3b211465-5030-4ebd-b5e2-78bdfeebc435","ios":"levelo://app?vid=3b211465-5030-4ebd-b5e2-78bdfeebc435"},"vehicle_type_id":"4","last_reported":1726942257,"current_range_meters":30800,"station_id":"ce4bhr92rcd13ifvqhsg","pricing_plan_id":"cebpf4jnsgd1na2vs0mg"},{"bike_id":"46473f8f-ac7c-4362-aee2-7e052a1ed8fc","system_id":"levelo_inurba_marseille","lat":43.23191,"lon":5.35555,"is_reserved":false,"is_disabled":false,"rental_uris":{"android":"levelo://app?vid=46473f8f-ac7c-4362-aee2-7e052a1ed8fc","ios":"levelo://app?vid=46473f8f-ac7c-4362-aee2-7e052a1ed8fc"},"vehicle_type_id":"4","last_reported":1726942257,"current_range_meters":16000,"station_id":"ce4bhu92rcd13ifvqi70","pricing_plan_id":"cebpf4jnsgd1na2vs0mg"},{"bike_id":"497a258c-61fd-443c-b361-a3b7574e468d","system_id":"levelo_inurba_marseille","lat":43.23191,"lon":5.35558,"is_reserved":false,"is_disabled":false,"rental_uris":{"android":"levelo://app?vid=497a258c-61fd-443c-b361-a3b7574e468d","ios":"levelo://app?vid=497a258c-61fd-443c-b361-a3b7574e468d"},"vehicle_type_id":"4","last_reported":1726942257,"current_range_meters":38800,"station_id":"ce4bhu92rcd13ifvqi70","pricing_plan_id":"cebpf4jnsgd1na2vs0mg"},{"bike_id":"3e156987-96e3-48ad-8746-0582637bdaa1","system_id":"levelo_inurba_marseille","lat":43.29898,"lon":5.43672,"is_reserved":false,"is_disabled":false,"rental_uris":{"android":"levelo://app?vid=3e156987-96e3-48ad-8746-0582637bdaa1","ios":"levelo://app?vid=3e156987-96e3-48ad-8746-0582637bdaa1"},"vehicle_type_id":"4","last_reported":1726942257,"current_range_meters":27200,"station_id":"ce4bhpp2rcd13ifvqhfg","pricing_plan_id":"cebpf4jnsgd1na2vs0mg"},{"bike_id":"4f55dfde-9c0f-40d5-95f6-d5b6a864023d","system_id":"levelo_inurba_marseille","lat":43.29241,"lon":5.39734,"is_reserved":false,"is_disabled":false,"rental_uris":{"android":"levelo://app?vid=4f55dfde-9c0f-40d5-95f6-d5b6a864023d","ios":"levelo://app?vid=4f55dfde-9c0f-40d5-95f6-d5b6a864023d"},"vehicle_type_id":"4","last_reported":1726942257,"current_range_meters":36800,"station_id":"","pricing_plan_id":"cebpf4jnsgd1na2vs0mg"},{"bike_id":"f33978aa-82c9-4e63-b7e4-fc80bfc5921d","system_id":"levelo_inurba_marseille","lat":43.29792,"lon":5.38093,"is_reserved":false,"is_disabled":false,"rental_uris":{"android":"levelo://app?vid=f33978aa-82c9-4e63-b7e4-fc80bfc5921d","ios":"levelo://app?vid=f33978aa-82c9-4e63-b7e4-fc80bfc5921d"},"vehicle_type_id":"4","last_reported":1726942257,"current_range_meters":8400,"station_id":"ce4bgip2rcd13ifvqbb0","pricing_plan_id":"cebpf4jnsgd1na2vs0mg"},{"bike_id":"dc45d8da-c2a4-4008-be1f-cb5ab029580e","system_id":"levelo_inurba_marseille","lat":43.24805,"lon":5.37461,"is_reserved":false,"is_disabled":false,"rental_uris":{"android":"levelo://app?vid=dc45d8da-c2a4-4008-be1f-cb5ab029580e","ios":"levelo://app?vid=dc45d8da-c2a4-4008-be1f-cb5ab029580e"},"vehicle_type_id":"4","last_reported":1726942257,"current_range_meters":38800,"station_id":"ce4bhgh2rcd13ifvqfb0","pricing_plan_id":"cebpf4jnsgd1na2vs0mg"},{"bike_id":"a5f61324-fc40-4791-8f54-aa5fb2c99733","system_id":"levelo_inurba_marseille","lat":43.292999,"lon":5.368383,"is_reserved":false,"is_disabled":false,"rental_uris":{"android":"levelo://app?vid=a5f61324-fc40-4791-8f54-aa5fb2c99733","ios":"levelo://app?vid=a5f61324-fc40-4791-8f54-aa5fb2c99733"},"vehicle_type_id":"4","last_reported":1726942257,"current_range_meters":28000,"station_id":"ce4bhbp2rcd13ifvqesg","pricing_plan_id":"cebpf4jnsgd1na2vs0mg"},{"bike_id":"41ec47b9-c5cc-4e48-b062-8e281ec9bcab","system_id":"levelo_inurba_marseille","lat":43.32536,"lon":5.41437,"is_reserved":false,"is_disabled":false,"rental_uris":{"android":"levelo://app?vid=41ec47b9-c5cc-4e48-b062-8e281ec9bcab","ios":"levelo://app?vid=41ec47b9-c5cc-4e48-b062-8e281ec9bcab"},"vehicle_type_id":"4","last_reported":1726942257,"current_range_meters":19600,"station_id":"ce4bhq12rcd13ifvqhhg","pricing_plan_id":"cebpf4jnsgd1na2vs0mg"},{"bike_id":"692a0de5-bba0-407a-99ff-e7e47a3ee1eb","system_id":"levelo_inurba_marseille","lat":43.26958,"lon":5.38626,"is_reserved":false,"is_disabled":false,"rental_uris":{"android":"levelo://app?vid=692a0de5-bba0-407a-99ff-e7e47a3ee1eb","ios":"levelo://app?vid=692a0de5-bba0-407a-99ff-e7e47a3ee1eb"},"vehicle_type_id":"4","last_reported":1726942257,"current_range_meters":20000,"station_id":"ce4bhh92rcd13ifvqfh0","pricing_plan_id":"cebpf4jnsgd1na2vs0mg"},{"bike_id":"ffedd531-7770-4d3a-886f-c848135d5fe1","system_id":"levelo_inurba_marseille","lat":43.29623,"lon":5.37709,"is_reserved":false,"is_disabled":false,"rental_uris":{"android":"levelo://app?vid=ffedd531-7770-4d3a-886f-c848135d5fe1","ios":"levelo://app?vid=ffedd531-7770-4d3a-886f-c848135d5fe1"},"vehicle_type_id":"4","last_reported":1726942257,"current_range_meters":24000,"station_id":"ce4bgi92rcd13ifvqb90","pricing_plan_id":"cebpf4jnsgd1na2vs0mg"},{"bike_id":"a33a48e8-d5ed-4ad9-83ff-f5f50010c4f2","system_id":"levelo_inurba_marseille","lat":43.28104,"lon":5.37847,"is_reserved":false,"is_disabled":false,"rental_uris":{"android":"levelo://app?vid=a33a48e8-d5ed-4ad9-83ff-f5f50010c4f2","ios":"levelo://app?vid=a33a48e8-d5ed-4ad9-83ff-f5f50010c4f2"},"vehicle_type_id":"4","last_reported":1726942257,"current_range_meters":32000,"station_id":"ce4bha12rcd13ifvqee0","pricing_plan_id":"cebpf4jnsgd1na2vs0mg"},{"bike_id":"46fc0e26-b635-4197-b299-af6bb0cf4e30","system_id":"levelo_inurba_marseille","lat":43.306366,"lon":5.400964,"is_reserved":false,"is_disabled":false,"rental_uris":{"android":"levelo://app?vid=46fc0e26-b635-4197-b299-af6bb0cf4e30","ios":"levelo://app?vid=46fc0e26-b635-4197-b299-af6bb0cf4e30"},"vehicle_type_id":"4","last_reported":1726942257,"current_range_meters":16000,"station_id":"ce4bh112rcd13ifvqda0","pricing_plan_id":"cebpf4jnsgd1na2vs0mg"},{"bike_id":"107c6dc6-542f-4d5a-af57-76bdd63a3fa5","system_id":"levelo_inurba_marseille","lat":43.2808,"lon":5.39658,"is_reserved":false,"is_disabled":false,"rental_uris":{"android":"levelo://app?vid=107c6dc6-542f-4d5a-af57-76bdd63a3fa5","ios":"levelo://app?vid=107c6dc6-542f-4d5a-af57-76bdd63a3fa5"},"vehicle_type_id":"4","last_reported":1726942257,"current_range_meters":22800,"station_id":"ce4bho12rcd13ifvqh2g","pricing_plan_id":"cebpf4jnsgd1na2vs0mg"},{"bike_id":"5cae9e69-0ec6-4fe0-90f4-d5f61e230544","system_id":"levelo_inurba_marseille","lat":43.29417,"lon":5.38623,"is_reserved":false,"is_disabled":false,"rental_uris":{"android":"levelo://app?vid=5cae9e69-0ec6-4fe0-90f4-d5f61e230544","ios":"levelo://app?vid=5cae9e69-0ec6-4fe0-90f4-d5f61e230544"},"vehicle_type_id":"4","last_reported":1726942257,"current_range_meters":20400,"station_id":"ce4bh2h2rcd13ifvqdh0","pricing_plan_id":"cebpf4jnsgd1na2vs0mg"},{"bike_id":"53881499-6f36-4f42-8317-208461db06cd","system_id":"levelo_inurba_marseille","lat":43.29275,"lon":5.38437,"is_reserved":false,"is_disabled":false,"rental_uris":{"android":"levelo://app?vid=53881499-6f36-4f42-8317-208461db06cd","ios":"levelo://app?vid=53881499-6f36-4f42-8317-208461db06cd"},"vehicle_type_id":"4","last_reported":1726942257,"current_range_meters":9200,"station_id":"ce4bh692rcd13ifvqea0","pricing_plan_id":"cebpf4jnsgd1na2vs0mg"},{"bike_id":"b6df009d-c7b8-4569-ade3-d9fe78143879","system_id":"levelo_inurba_marseille","lat":43.26553,"lon":5.37286,"is_reserved":false,"is_disabled":false,"rental_uris":{"android":"levelo://app?vid=b6df009d-c7b8-4569-ade3-d9fe78143879","ios":"levelo://app?vid=b6df009d-c7b8-4569-ade3-d9fe78143879"},"vehicle_type_id":"4","last_reported":1726942257,"current_range_meters":6000,"station_id":"ce4bhg12rcd13ifvqf70","pricing_plan_id":"cebpf4jnsgd1na2vs0mg"},{"bike_id":"740e3d89-f393-4930-94d0-e65b0493665a","system_id":"levelo_inurba_marseille","lat":43.23194,"lon":5.35553,"is_reserved":false,"is_disabled":false,"rental_uris":{"android":"levelo://app?vid=740e3d89-f393-4930-94d0-e65b0493665a","ios":"levelo://app?vid=740e3d89-f393-4930-94d0-e65b0493665a"},"vehicle_type_id":"4","last_reported":1726942257,"current_range_meters":3600,"station_id":"ce4bhu92rcd13ifvqi70","pricing_plan_id":"cebpf4jnsgd1na2vs0mg"},{"bike_id":"a58d559e-931b-47df-90f3-dc7a0851938d","system_id":"levelo_inurba_marseille","lat":43.29375,"lon":5.37846,"is_reserved":false,"is_disabled":false,"rental_uris":{"android":"levelo://app?vid=a58d559e-931b-47df-90f3-dc7a0851938d","ios":"levelo://app?vid=a58d559e-931b-47df-90f3-dc7a0851938d"},"vehicle_type_id":"4","last_reported":1726942257,"current_range_meters":1600,"station_id":"ce4bgjh2rcd13ifvqbf0","pricing_plan_id":"cebpf4jnsgd1na2vs0mg"},{"bike_id":"2347817f-e20e-4496-af0e-1f65e3ba6aef","system_id":"levelo_inurba_marseille","lat":43.32116,"lon":5.3677,"is_reserved":false,"is_disabled":false,"rental_uris":{"android":"levelo://app?vid=2347817f-e20e-4496-af0e-1f65e3ba6aef","ios":"levelo://app?vid=2347817f-e20e-4496-af0e-1f65e3ba6aef"},"vehicle_type_id":"4","last_reported":1726942257,"current_range_meters":6000,"station_id":"","pricing_plan_id":"cebpf4jnsgd1na2vs0mg"},{"bike_id":"027f4c6d-ee7f-4841-b5b0-5709eb7ee65a","system_id":"levelo_inurba_marseille","lat":43.29223,"lon":5.39935,"is_reserved":false,"is_disabled":false,"rental_uris":{"android":"levelo://app?vid=027f4c6d-ee7f-4841-b5b0-5709eb7ee65a","ios":"levelo://app?vid=027f4c6d-ee7f-4841-b5b0-5709eb7ee65a"},"vehicle_type_id":"4","last_reported":1726942257,"current_range_meters":6000,"station_id":"ce4bh192rcd13ifvqdc0","pricing_plan_id":"cebpf4jnsgd1na2vs0mg"},{"bike_id":"f4d206ec-8d18-444a-a4a3-af9efb4008d4","system_id":"levelo_inurba_marseille","lat":43.30183,"lon":5.3662,"is_reserved":false,"is_disabled":false,"rental_uris":{"android":"levelo://app?vid=f4d206ec-8d18-444a-a4a3-af9efb4008d4","ios":"levelo://app?vid=f4d206ec-8d18-444a-a4a3-af9efb4008d4"},"vehicle_type_id":"4","last_reported":1726942257,"current_range_meters":17600,"station_id":"ce4bgrh2rcd13ifvqc8g","pricing_plan_id":"cebpf4jnsgd1na2vs0mg"},{"bike_id":"20f457ce-7bf3-42fa-8c3e-9bd9cc41532e","system_id":"levelo_inurba_marseille","lat":43.264494,"lon":5.343641,"is_reserved":false,"is_disabled":false,"rental_uris":{"android":"levelo://app?vid=20f457ce-7bf3-42fa-8c3e-9bd9cc41532e","ios":"levelo://app?vid=20f457ce-7bf3-42fa-8c3e-9bd9cc41532e"},"vehicle_type_id":"4","last_reported":1726942257,"current_range_meters":30400,"station_id":"ce4bhbh2rcd13ifvqeo0","pricing_plan_id":"cebpf4jnsgd1na2vs0mg"},{"bike_id":"f44d65f3-62ec-4592-b689-a8ea4cc01411","system_id":"levelo_inurba_marseille","lat":43.27901,"lon":5.38019,"is_reserved":false,"is_disabled":false,"rental_uris":{"android":"levelo://app?vid=f44d65f3-62ec-4592-b689-a8ea4cc01411","ios":"levelo://app?vid=f44d65f3-62ec-4592-b689-a8ea4cc01411"},"vehicle_type_id":"4","last_reported":1726942257,"current_range_meters":33600,"station_id":"ce4bhf92rcd13ifvqf50","pricing_plan_id":"cebpf4jnsgd1na2vs0mg"},{"bike_id":"8b9587bf-57cd-4683-85eb-2e12d6fa0042","system_id":"levelo_inurba_marseille","lat":43.26208,"lon":5.3793,"is_reserved":false,"is_disabled":false,"rental_uris":{"android":"levelo://app?vid=8b9587bf-57cd-4683-85eb-2e12d6fa0042","ios":"levelo://app?vid=8b9587bf-57cd-4683-85eb-2e12d6fa0042"},"vehicle_type_id":"4","last_reported":1726942257,"current_range_meters":9200,"station_id":"ce4bhjp2rcd13ifvqg90","pricing_plan_id":"cebpf4jnsgd1na2vs0mg"},{"bike_id":"76546013-2e1f-474c-ad3c-5bca0b943861","system_id":"levelo_inurba_marseille","lat":43.245884,"lon":5.388302,"is_reserved":false,"is_disabled":false,"rental_uris":{"android":"levelo://app?vid=76546013-2e1f-474c-ad3c-5bca0b943861","ios":"levelo://app?vid=76546013-2e1f-474c-ad3c-5bca0b943861"},"vehicle_type_id":"4","last_reported":1726942257,"current_range_meters":11600,"station_id":"ce4bhg12rcd13ifvqf60","pricing_plan_id":"cebpf4jnsgd1na2vs0mg"},{"bike_id":"103d9d72-b62d-4f17-be6d-add359102dc4","system_id":"levelo_inurba_marseille","lat":43.29029,"lon":5.3865,"is_reserved":false,"is_disabled":false,"rental_uris":{"android":"levelo://app?vid=103d9d72-b62d-4f17-be6d-add359102dc4","ios":"levelo://app?vid=103d9d72-b62d-4f17-be6d-add359102dc4"},"vehicle_type_id":"4","last_reported":1726942257,"current_range_meters":38800,"station_id":"ce4bh4p2rcd13ifvqe0g","pricing_plan_id":"cebpf4jnsgd1na2vs0mg"},{"bike_id":"35bb4644-ab32-4c57-a227-3b3c8379c9df","system_id":"levelo_inurba_marseille","lat":43.295197,"lon":5.394072,"is_reserved":false,"is_disabled":false,"rental_uris":{"android":"levelo://app?vid=35bb4644-ab32-4c57-a227-3b3c8379c9df","ios":"levelo://app?vid=35bb4644-ab32-4c57-a227-3b3c8379c9df"},"vehicle_type_id":"4","last_reported":1726942257,"current_range_meters":6400,"station_id":"ce4bhpp2rcd13ifvqhfg","pricing_plan_id":"cebpf4jnsgd1na2vs0mg"},{"bike_id":"08e1ea90-29aa-4fd2-b097-8b49ce43be10","system_id":"levelo_inurba_marseille","lat":43.2694,"lon":5.3864,"is_reserved":false,"is_disabled":false,"rental_uris":{"android":"levelo://app?vid=08e1ea90-29aa-4fd2-b097-8b49ce43be10","ios":"levelo://app?vid=08e1ea90-29aa-4fd2-b097-8b49ce43be10"},"vehicle_type_id":"4","last_reported":1726942257,"current_range_meters":36800,"station_id":"ce4bhh92rcd13ifvqfh0","pricing_plan_id":"cebpf4jnsgd1na2vs0mg"},{"bike_id":"26499122-8dc7-4897-8293-22c7155c42fc","system_id":"levelo_inurba_marseille","lat":43.28662,"lon":5.36355,"is_reserved":false,"is_disabled":false,"rental_uris":{"android":"levelo://app?vid=26499122-8dc7-4897-8293-22c7155c42fc","ios":"levelo://app?vid=26499122-8dc7-4897-8293-22c7155c42fc"},"vehicle_type_id":"4","last_reported":1726942257,"current_range_meters":20800,"station_id":"ce4bhah2rcd13ifvqej0","pricing_plan_id":"cebpf4jnsgd1na2vs0mg"},{"bike_id":"29d48565-4a6c-4ac7-990b-13ce4c9e4bf6","system_id":"levelo_inurba_marseille","lat":43.27836,"lon":5.39216,"is_reserved":false,"is_disabled":false,"rental_uris":{"android":"levelo://app?vid=29d48565-4a6c-4ac7-990b-13ce4c9e4bf6","ios":"levelo://app?vid=29d48565-4a6c-4ac7-990b-13ce4c9e4bf6"},"vehicle_type_id":"4","last_reported":1726942257,"current_range_meters":31200,"station_id":"ce4bhjp2rcd13ifvqga0","pricing_plan_id":"cebpf4jnsgd1na2vs0mg"},{"bike_id":"234bc735-0c75-41e4-bdc9-00ac65415b80","system_id":"levelo_inurba_marseille","lat":43.29522,"lon":5.39045,"is_reserved":false,"is_disabled":false,"rental_uris":{"android":"levelo://app?vid=234bc735-0c75-41e4-bdc9-00ac65415b80","ios":"levelo://app?vid=234bc735-0c75-41e4-bdc9-00ac65415b80"},"vehicle_type_id":"4","last_reported":1726942257,"current_range_meters":21600,"station_id":"ce4bh3p2rcd13ifvqdp0","pricing_plan_id":"cebpf4jnsgd1na2vs0mg"},{"bike_id":"f5f048b4-9d4a-4df4-976f-aad067a5b1fa","system_id":"levelo_inurba_marseille","lat":43.29606,"lon":5.38111,"is_reserved":false,"is_disabled":false,"rental_uris":{"android":"levelo://app?vid=f5f048b4-9d4a-4df4-976f-aad067a5b1fa","ios":"levelo://app?vid=f5f048b4-9d4a-4df4-976f-aad067a5b1fa"},"vehicle_type_id":"4","last_reported":1726942257,"current_range_meters":20000,"station_id":"ce4bgl12rcd13ifvqbo0","pricing_plan_id":"cebpf4jnsgd1na2vs0mg"},