{"last_updated":1731078575,"ttl":60,"version":"2.2","data":{"bikes":[{"bike_id":"c44d8fae-c9b0-4954-84e0-d52cee8b002e","system_id":"levelo_inurba_marseille","lat":43.30806,"lon":5.38173,"is_reserved":false,"is_disabled":false,"rental_uris":{"android":"levelo://app?vid=c44d8fae-c9b0-4954-84e0-d52cee8b002e","ios":"levelo://app?vid=c44d8fae-c9b0-4954-84e0-d52cee8b002e"},"vehicle_type_id":"4","last_reported":1731078575,"current_range_meters":12400,"station_id":"ce4bgt12rcd13ifvqce0","pricing_plan_id":"cebpf4jnsgd1na2vs0mg"},{"bike_id":"a701767f-3b35-40d0-a9f9-d819e5360a1b","system_id":"levelo_inurba_marseille","lat":43.296112,"lon":5.381282,"is_reserved":false,"is_disabled":false,"rental_uris":{"android":"levelo://app?vid=a701767f-3b35-40d0-a9f9-d819e5360a1b","ios":"levelo://app?vid=a701767f-3b35-40d0-a9f9-d819e5360a1b"},"vehicle_type_id":"4","last_reported":1731078575,"current_range_meters":12800,"station_id":"ce4bgl12rcd13ifvqbo0","pricing_plan_id":"cebpf4jnsgd1na2vs0mg"},{"bike_id":"c2e15428-d2ba-434b-9f47-55afdd0f856a","system_id":"levelo_inurba_marseille","lat":43.28265,"lon":5.35078,"is_reserved":false,"is_disabled":false,"rental_uris":{"android":"levelo://app?vid=c2e15428-d2ba-434b-9f47-55afdd0f856a","ios":"levelo://app?vid=c2e15428-d2ba-434b-9f47-55afdd0f856a"},"vehicle_type_id":"4","last_reported":1731078575,"current_range_meters":22400,"station_id":"ce4bhbp2rcd13ifvqerg","pricing_plan_id":"cebpf4jnsgd1na2vs0mg"},{"bike_id":"50acb78d-907c-4335-958f-fa62e97de57b","system_id":"levelo_inurba_marseille","lat":43.30716,"lon":5.39543,"is_reserved":false,"is_disabled":false,"rental_uris":{"android":"levelo://app?vid=50acb78d-907c-4335-958f-fa62e97de57b","ios":"levelo://app?vid=50acb78d-907c-4335-958f-fa62e97de57b"},"vehicle_type_id":"4","last_reported":1731078575,"current_range_meters":36000,"station_id":"","pricing_plan_id":"cebpf4jnsgd1na2vs0mg"},{"bike_id":"7f774ae5-6cb7-4c53-91e0-4e9519e7a5f3","system_id":"levelo_inurba_marseille","lat":43.31726,"lon":5.42386,"is_reserved":false,"is_disabled":false,"rental_uris":{"android":"levelo://app?vid=7f774ae5-6cb7-4c53-91e0-4e9519e7a5f3","ios":"levelo://app?vid=7f774ae5-6cb7-4c53-91e0-4e9519e7a5f3"},"vehicle_type_id":"4","last_reported":1731078575,"current_range_meters":30400,"station_id":"ce4bhp92rcd13ifvqhbg","pricing_plan_id":"cebpf4jnsgd1na2vs0mg"},{"bike_id":"3f8e9100-8f64-42ec-b328-73d6145177de","system_id":"levelo_inurba_marseille","lat":43.337444,"lon":5.374475,"is_reserved":false,"is_disabled":false,"rental_uris":{"android":"levelo://app?vid=3f8e9100-8f64-42ec-b328-73d6145177de","ios":"levelo://app?vid=3f8e9100-8f64-42ec-b328-73d6145177de"},"vehicle_type_id":"4","last_reported":1731078575,"current_range_meters":20800,"station_id":"","pricing_plan_id":"cebpf4jnsgd1na2vs0mg"},{"bike_id":"41dc0cdc-e2a3-4364-9502-e92dd8e24227","system_id":"levelo_inurba_marseille","lat":43.31352,"lon":5.36717,"is_reserved":false,"is_disabled":false,"rental_uris":{"android":"levelo://app?vid=41dc0cdc-e2a3-4364-9502-e92dd8e24227","ios":"levelo://app?vid=41dc0cdc-e2a3-4364-9502-e92dd8e24227"},"vehicle_type_id":"4","last_reported":1731078575,"current_range_meters":12400,"station_id":"ce4bgr92rcd13ifvqc6g","pricing_plan_id":"cebpf4jnsgd1na2vs0mg"},{"bike_id":"85ec6972-2474-4903-af30-b7a390d3db72","system_id":"levelo_inurba_marseille","lat":43.26199,"lon":5.37459,"is_reserved":false,"is_disabled":false,"rental_uris":{"android":"levelo://app?vid=85ec6972-2474-4903-af30-b7a390d3db72","ios":"levelo://app?vid=85ec6972-2474-4903-af30-b7a390d3db72"},"vehicle_type_id":"4","last_reported":1731078575,"current_range_meters":35200,"station_id":"ce4bhgp2rcd13ifvqfc0","pricing_plan_id":"cebpf4jnsgd1na2vs0mg"},{"bike_id":"c88f1b31-dd3c-4e82-a81a-152198c83c26","system_id":"levelo_inurba_marseille","lat":43.31224,"lon":5.36863,"is_reserved":false,"is_disabled":false,"rental_uris":{"android":"levelo://app?vid=c88f1b31-dd3c-4e82-a81a-152198c83c26","ios":"levelo://app?vid=c88f1b31-dd3c-4e82-a81a-152198c83c26"},"vehicle_type_id":"4","last_reported":1731078575,"current_range_meters":8800,"station_id":"ce4bgl92rcd13ifvqbq0","pricing_plan_id":"cebpf4jnsgd1na2vs0mg"},{"bike_id":"d4ddc17c-a5a4-4ba9-ad4a-e9f523b267da","system_id":"levelo_inurba_marseille","lat":43.30141,"lon":5.37424,"is_reserved":false,"is_disabled":false,"rental_uris":{"android":"levelo://app?vid=d4ddc17c-a5a4-4ba9-ad4a-e9f523b267da","ios":"levelo://app?vid=d4ddc17c-a5a4-4ba9-ad4a-e9f523b267da"},"vehicle_type_id":"4","last_reported":1731078575,"current_range_meters":4400,"station_id":"ce4bgs92rcd13ifvqcc0","pricing_plan_id":"cebpf4jnsgd1na2vs0mg"},{"bike_id":"be299b25-8580-47c7-8060-3a86535bf236","system_id":"levelo_inurba_marseille","lat":43.2694,"lon":5.40257,"is_reserved":false,"is_disabled":false,"rental_uris":{"android":"levelo://app?vid=be299b25-8580-47c7-8060-3a86535bf236","ios":"levelo://app?vid=be299b25-8580-47c7-8060-3a86535bf236"},"vehicle_type_id":"4","last_reported":1731078575,"current_range_meters":8400,"station_id":"cjm6bp8fraef2m0cb0m0","pricing_plan_id":"cebpf4jnsgd1na2vs0mg"},{"bike_id":"504e5d62-7828-485f-b5c5-e0859c494a6c","system_id":"levelo_inurba_marseille","lat":43.32488,"lon":5.36576,"is_reserved":false,"is_disabled":false,"rental_uris":{"android":"levelo://app?vid=504e5d62-7828-485f-b5c5-e0859c494a6c","ios":"levelo://app?vid=504e5d62-7828-485f-b5c5-e0859c494a6c"},"vehicle_type_id":"4","last_reported":1731078575,"current_range_meters":36400,"station_id":"ce4bhs12rcd13ifvqhvg","pricing_plan_id":"cebpf4jnsgd1na2vs0mg"},{"bike_id":"e29a0183-58c0-470a-a10e-606cd91916c2","system_id":"levelo_inurba_marseille","lat":43.31755,"lon":5.39018,"is_reserved":false,"is_disabled":false,"rental_uris":{"android":"levelo://app?vid=e29a0183-58c0-470a-a10e-606cd91916c2","ios":"levelo://app?vid=e29a0183-58c0-470a-a10e-606cd91916c2"},"vehicle_type_id":"4","last_reported":1731078575,"current_range_meters":19600,"station_id":"ce4bhqp2rcd13ifvqhng","pricing_plan_id":"cebpf4jnsgd1na2vs0mg"},{"bike_id":"7d27be3d-cf50-46c1-9635-5e6b16c3509b","system_id":"levelo_inurba_marseille","lat":43.27057,"lon":5.40258,"is_reserved":false,"is_disabled":false,"rental_uris":{"android":"levelo://app?vid=7d27be3d-cf50-46c1-9635-5e6b16c3509b","ios":"levelo://app?vid=7d27be3d-cf50-46c1-9635-5e6b16c3509b"},"vehicle_type_id":"4","last_reported":1731078575,"current_range_meters":16800,"station_id":"ce4bhk92rcd13ifvqgc0","pricing_plan_id":"cebpf4jnsgd1na2vs0mg"},{"bike_id":"e22b98a5-9773-4f71-85ed-e74c4dff6249","system_id":"levelo_inurba_marseille","lat":43.30538,"lon":5.36711,"is_reserved":false,"is_disabled":false,"rental_uris":{"android":"levelo://app?vid=e22b98a5-9773-4f71-85ed-e74c4dff6249","ios":"levelo://app?vid=e22b98a5-9773-4f71-85ed-e74c4dff6249"},"vehicle_type_id":"4","last_reported":1731078575,"current_range_meters":32800,"station_id":"ce4bgrp2rcd13ifvqc9g","pricing_plan_id":"cebpf4jnsgd1na2vs0mg"},{"bike_id":"60ef739c-6be2-4cf1-9565-3bc41133efa0","system_id":"levelo_inurba_marseille","lat":43.29634,"lon":5.40592,"is_reserved":false,"is_disabled":false,"rental_uris":{"android":"levelo://app?vid=60ef739c-6be2-4cf1-9565-3bc41133efa0","ios":"levelo://app?vid=60ef739c-6be2-4cf1-9565-3bc41133efa0"},"vehicle_type_id":"4","last_reported":1731078575,"current_range_meters":3200,"station_id":"ce4bh0h2rcd13ifvqd60","pricing_plan_id":"cebpf4jnsgd1na2vs0mg"},{"bike_id":"1a92279e-1152-4bb1-a030-ac5c06a6a547","system_id":"levelo_inurba_marseille","lat":43.30797,"lon":5.43527,"is_reserved":false,"is_disabled":false,"rental_uris":{"android":"levelo://app?vid=1a92279e-1152-4bb1-a030-ac5c06a6a547","ios":"levelo://app?vid=1a92279e-1152-4bb1-a030-ac5c06a6a547"},"vehicle_type_id":"4","last_reported":1731078575,"current_range_meters":17200,"station_id":"ce4bhph2rcd13ifvqheg","pricing_plan_id":"cebpf4jnsgd1na2vs0mg"},{"bike_id":"31b98d3b-c005-4002-a588-d1f83877dd2e","system_id":"levelo_inurba_marseille","lat":43.27559,"lon":5.38425,"is_reserved":false,"is_disabled":false,"rental_uris":{"android":"levelo://app?vid=31b98d3b-c005-4002-a588-d1f83877dd2e","ios":"levelo://app?vid=31b98d3b-c005-4002-a588-d1f83877dd2e"},"vehicle_type_id":"4","last_reported":1731078575,"current_range_meters":9600,"station_id":"ce4bhh92rcd13ifvqfi0","pricing_plan_id":"cebpf4jnsgd1na2vs0mg"},{"bike_id":"be6de5f5-70b8-4e62-b539-d24821b02350","system_id":"levelo_inurba_marseille","lat":43.26033,"lon":5.37546,"is_reserved":false,"is_disabled":false,"rental_uris":{"android":"levelo://app?vid=be6de5f5-70b8-4e62-b539-d24821b02350","ios":"levelo://app?vid=be6de5f5-70b8-4e62-b539-d24821b02350"},"vehicle_type_id":"4","last_reported":1731078575,"current_range_meters":6000,"station_id":"ce4bhgh2rcd13ifvqfa0","pricing_plan_id":"cebpf4jnsgd1na2vs0mg"},{"bike_id":"3d32f789-a044-47cc-8444-b1887a88a83f","system_id":"levelo_inurba_marseille","lat":43.30547,"lon":5.36728,"is_reserved":false,"is_disabled":false,"rental_uris":{"android":"levelo://app?vid=3d32f789-a044-47cc-8444-b1887a88a83f","ios":"levelo://app?vid=3d32f789-a044-47cc-8444-b1887a88a83f"},"vehicle_type_id":"4","last_reported":1731078575,"current_range_meters":38000,"station_id":"ce4bgrp2rcd13ifvqc9g","pricing_plan_id":"cebpf4jnsgd1na2vs0mg"},{"bike_id":"5e2f3290-0907-4f7d-b8b1-2dc4f4ad3be9","system_id":"levelo_inurba_marseille","lat":43.28935,"lon":5.36639,"is_reserved":false,"is_disabled":false,"rental_uris":{"android":"levelo://app?vid=5e2f3290-0907-4f7d-b8b1-2dc4f4ad3be9","ios":"levelo://app?vid=5e2f3290-0907-4f7d-b8b1-2dc4f4ad3be9"},"vehicle_type_id":"4","last_reported":1731078575,"current_range_meters":23200,"station_id":"ce4bhap2rcd13ifvqek0","pricing_plan_id":"cebpf4jnsgd1na2vs0mg"},{"bike_id":"d257c73d-ecde-46a1-bfc6-c9611d437f9a","system_id":"levelo_inurba_marseille","lat":43.26934,"lon":5.38922,"is_reserved":false,"is_disabled":false,"rental_uris":{"android":"levelo://app?vid=d257c73d-ecde-46a1-bfc6-c9611d437f9a","ios":"levelo://app?vid=d257c73d-ecde-46a1-bfc6-c9611d437f9a"},"vehicle_type_id":"4","last_reported":1731078575,"current_range_meters":10800,"station_id":"ce4bhhh2rcd13ifvqfl0","pricing_plan_id":"cebpf4jnsgd1na2vs0mg"},{"bike_id":"f8fca314-7e03-4112-805d-c492539db163","system_id":"levelo_inurba_marseille","lat":43.30948,"lon":5.39034,"is_reserved":false,"is_disabled":false,"rental_uris":{"android":"levelo://app?vid=f8fca314-7e03-4112-805d-c492539db163","ios":"levelo://app?vid=f8fca314-7e03-4112-805d-c492539db163"},"vehicle_type_id":"4","last_reported":1731078575,"current_range_meters":38800,"station_id":"ce4bgup2rcd13ifvqco0","pricing_plan_id":"cebpf4jnsgd1na2vs0mg"},{"bike_id":"59c84980-bc12-48f2-81dd-37efd030f265","system_id":"levelo_inurba_marseille","lat":43.31761,"lon":5.39008,"is_reserved":false,"is_disabled":false,"rental_uris":{"android":"levelo://app?vid=59c84980-bc12-48f2-81dd-37efd030f265","ios":"levelo://app?vid=59c84980-bc12-48f2-81dd-37efd030f265"},"vehicle_type_id":"4","last_reported":1731078575,"current_range_meters":4000,"station_id":"ce4bhqp2rcd13ifvqhng","pricing_plan_id":"cebpf4jnsgd1na2vs0mg"},{"bike_id":"22c2910c-c395-401a-9c60-3a72ab53ce1d","system_id":"levelo_inurba_marseille","lat":43.26548,"lon":5.39502,"is_reserved":false,"is_disabled":false,"rental_uris":{"android":"levelo://app?vid=22c2910c-c395-401a-9c60-3a72ab53ce1d","ios":"levelo://app?vid=22c2910c-c395-401a-9c60-3a72ab53ce1d"},"vehicle_type_id":"4","last_reported":1731078575,"current_range_meters":30800,"station_id":"ce4bhh12rcd13ifvqfg0","pricing_plan_id":"cebpf4jnsgd1na2vs0mg"},{"bike_id":"f4ef053d-e709-4411-bdd9-de1d0f41e46f","system_id":"levelo_inurba_marseille","lat":43.2293,"lon":5.35374,"is_reserved":false,"is_disabled":false,"rental_uris":{"android":"levelo://app?vid=f4ef053d-e709-4411-bdd9-de1d0f41e46f","ios":"levelo://app?vid=f4ef053d-e709-4411-bdd9-de1d0f41e46f"},"vehicle_type_id":"4","last_reported":1731078575,"current_range_meters":38800,"station_id":"cpo3532slgdg3j2ikp40","pricing_plan_id":"cebpf4jnsgd1na2vs0mg"},{"bike_id":"7b28e8d2-008b-42bf-8db3-b456cc7125ae","system_id":"levelo_inurba_marseille","lat":43.31336,"lon":5.39693,"is_reserved":false,"is_disabled":false,"rental_uris":{"android":"levelo://app?vid=7b28e8d2-008b-42bf-8db3-b456cc7125ae","ios":"levelo://app?vid=7b28e8d2-008b-42bf-8db3-b456cc7125ae"},"vehicle_type_id":"4","last_reported":1731078575,"current_range_meters":38400,"station_id":"ce4bgvp2rcd13ifvqcu0","pricing_plan_id":"cebpf4jnsgd1na2vs0mg"},{"bike_id":"33e2e127-b1c0-4156-80b5-b675713f59cd","system_id":"levelo_inurba_marseille","lat":43.25581,"lon":5.38239,"is_reserved":false,"is_disabled":false,"rental_uris":{"android":"levelo://app?vid=33e2e127-b1c0-4156-80b5-b675713f59cd","ios":"levelo://app?vid=33e2e127-b1c0-4156-80b5-b675713f59cd"},"vehicle_type_id":"4","last_reported":1731078575,"current_range_meters":38800,"station_id":"ce4bhih2rcd13ifvqfs0","pricing_plan_id":"cebpf4jnsgd1na2vs0mg"},{"bike_id":"c1e63e8f-6393-457b-aefe-d5974e6a8229","system_id":"levelo_inurba_marseille","lat":43.29245,"lon":5.38441,"is_reserved":false,"is_disabled":false,"rental_uris":{"android":"levelo://app?vid=c1e63e8f-6393-457b-aefe-d5974e6a8229","ios":"levelo://app?vid=c1e63e8f-6393-457b-aefe-d5974e6a8229"},"vehicle_type_id":"4","last_reported":1731078575,"current_range_meters":4400,"station_id":"ce4bh692rcd13ifvqea0","pricing_plan_id":"cebpf4jnsgd1na2vs0mg"},{"bike_id":"707defd1-f536-4b0b-8df9-45bced001472","system_id":"levelo_inurba_marseille","lat":43.31335,"lon":5.39697,"is_reserved":false,"is_disabled":false,"rental_uris":{"android":"levelo://app?vid=707defd1-f536-4b0b-8df9-45bced001472","ios":"levelo://app?vid=707defd1-f536-4b0b-8df9-45bced001472"},"vehicle_type_id":"4","last_reported":1731078575,"current_range_meters":25200,"station_id":"ce4bgvp2rcd13ifvqcu0","pricing_plan_id":"cebpf4jnsgd1na2vs0mg"},{"bike_id":"655b5eff-2174-4207-a582-59b57192878e","system_id":"levelo_inurba_marseille","lat":43.25585,"lon":5.38229,"is_reserved":false,"is_disabled":false,"rental_uris":{"android":"levelo://app?vid=655b5eff-2174-4207-a582-59b57192878e","ios":"levelo://app?vid=655b5eff-2174-4207-a582-59b57192878e"},"vehicle_type_id":"4","last_reported":1731078575,"current_range_meters":26000,"station_id":"ce4bhih2rcd13ifvqfs0","pricing_plan_id":"cebpf4jnsgd1na2vs0mg"},{"bike_id":"cb9df839-e00f-4428-af35-f37fd3417b9b","system_id":"levelo_inurba_marseille","lat":43.25866,"lon":5.39896,"is_reserved":false,"is_disabled":false,"rental_uris":{"android":"levelo://app?vid=cb9df839-e00f-4428-af35-f37fd3417b9b","ios":"levelo://app?vid=cb9df839-e00f-4428-af35-f37fd3417b9b"},"vehicle_type_id":"4","last_reported":1731078575,"current_range_meters":32800,"station_id":"ce4bhl92rcd13ifvqghg","pricing_plan_id":"cebpf4jnsgd1na2vs0mg"},{"bike_id":"ca10a5c3-f3ce-4f91-8de9-8bcbe8db6bbe","system_id":"levelo_inurba_marseille","lat":43.24354,"lon":5.38592,"is_reserved":false,"is_disabled":false,"rental_uris":{"android":"levelo://app?vid=ca10a5c3-f3ce-4f91-8de9-8bcbe8db6bbe","ios":"levelo://app?vid=ca10a5c3-f3ce-4f91-8de9-8bcbe8db6bbe"},"vehicle_type_id":"4","last_reported":1731078575,"current_range_meters":27600,"station_id":"","pricing_plan_id":"cebpf4jnsgd1na2vs0mg"},{"bike_id":"8d7e5922-664a-4a28-aea6-8506137867d9","system_id":"levelo_inurba_marseille","lat":43.26214,"lon":5.37449,"is_reserved":false,"is_disabled":false,"rental_uris":{"android":"levelo://app?vid=8d7e5922-664a-4a28-aea6-8506137867d9","ios":"levelo://app?vid=8d7e5922-664a-4a28-aea6-8506137867d9"},"vehicle_type_id":"4","last_reported":1731078575,"current_range_meters":18800,"station_id":"ce4bhgp2rcd13ifvqfc0","pricing_plan_id":"cebpf4jnsgd1na2vs0mg"},{"bike_id":"0f9189da-7281-44e1-bbd8-749cb29cbd04","system_id":"levelo_inurba_marseille","lat":43.27666,"lon":5.38883,"is_reserved":false,"is_disabled":false,"rental_uris":{"android":"levelo://app?vid=0f9189da-7281-44e1-bbd8-749cb29cbd04","ios":"levelo://app?vid=0f9189da-7281-44e1-bbd8-749cb29cbd04"},"vehicle_type_id":"4","last_reported":1731078575,"current_range_meters":9600,"station_id":"ce4bhi12rcd13ifvqfo0","pricing_plan_id":"cebpf4jnsgd1na2vs0mg"},{"bike_id":"5bad3fac-cc83-4e6c-bb3a-f50d1ed51eb6","system_id":"levelo_inurba_marseille","lat":43.26791,"lon":5.39413,"is_reserved":false,"is_disabled":false,"rental_uris":{"android":"levelo://app?vid=5bad3fac-cc83-4e6c-bb3a-f50d1ed51eb6","ios":"levelo://app?vid=5bad3fac-cc83-4e6c-bb3a-f50d1ed51eb6"},"vehicle_type_id":"4","last_reported":1731078575,"current_range_meters":27600,"station_id":"ce4bhh12rcd13ifvqfg0","pricing_plan_id":"cebpf4jnsgd1na2vs0mg"},{"bike_id":"752651c4-a78f-490d-9417-d70f462458b7","system_id":"levelo_inurba_marseille","lat":43.23186,"lon":5.39991,"is_reserved":false,"is_disabled":false,"rental_uris":{"android":"levelo://app?vid=752651c4-a78f-490d-9417-d70f462458b7","ios":"levelo://app?vid=752651c4-a78f-490d-9417-d70f462458b7"},"vehicle_type_id":"4","last_reported":1731078575,"current_range_meters":33600,"station_id":"ce4bhn12rcd13ifvqgqg","pricing_plan_id":"cebpf4jnsgd1na2vs0mg"},{"bike_id":"b8fdd341-0697-41ca-82c9-e4253415f4e6","system_id":"levelo_inurba_marseille","lat":43.23055,"lon":5.35495,"is_reserved":false,"is_disabled":false,"rental_uris":{"android":"levelo://app?vid=b8fdd341-0697-41ca-82c9-e4253415f4e6","ios":"levelo://app?vid=b8fdd341-0697-41ca-82c9-e4253415f4e6"},"vehicle_type_id":"4","last_reported":1731078575,"current_range_meters":36800,"station_id":"cpo3342slgdg3j2ifvpg","pricing_plan_id":"cebpf4jnsgd1na2vs0mg"},{"bike_id":"9b96d1a7-1bb0-4837-8ce5-5f6325109a7b","system_id":"levelo_inurba_marseille","lat":43.23185,"lon":5.39986,"is_reserved":false,"is_disabled":false,"rental_uris":{"android":"levelo://app?vid=9b96d1a7-1bb0-4837-8ce5-5f6325109a7b","ios":"levelo://app?vid=9b96d1a7-1bb0-4837-8ce5-5f6325109a7b"},"vehicle_type_id":"4","last_reported":1731078575,"current_range_meters":39200,"station_id":"ce4bhn12rcd13ifvqgqg","pricing_plan_id":"cebpf4jnsgd1na2vs0mg"},{"bike_id":"9c361617-d0e7-43a6-82a1-61487c603bda","system_id":"levelo_inurba_marseille","lat":43.319989,"lon":5.405572,"is_reserved":false,"is_disabled":false,"rental_uris":{"android":"levelo://app?vid=9c361617-d0e7-43a6-82a1-61487c603bda","ios":"levelo://app?vid=9c361617-d0e7-43a6-82a1-61487c603bda"},"vehicle_type_id":"4","last_reported":1731078575,"current_range_meters":11200,"station_id":"ce4bh092rcd13ifvqd30","pricing_plan_id":"cebpf4jnsgd1na2vs0mg"},{"bike_id":"29fb43a8-68d6-44a9-ba72-df6c847d3385","system_id":"levelo_inurba_marseille","lat":43.24083,"lon":5.3776,"is_reserved":false,"is_disabled":false,"rental_uris":{"android":"levelo://app?vid=29fb43a8-68d6-44a9-ba72-df6c847d3385","ios":"levelo://app?vid=29fb43a8-68d6-44a9-ba72-df6c847d3385"},"vehicle_type_id":"4","last_reported":1731078575,"current_range_meters":8000,"station_id":"ce4bhnp2rcd13ifvqgvg","pricing_plan_id":"cebpf4jnsgd1na2vs0mg"},{"bike_id":"ffa6a709-cf7b-41fd-acb6-77573eab6973","system_id":"levelo_inurba_marseille","lat":43.32489,"lon":5.36572,"is_reserved":false,"is_disabled":false,"rental_uris":{"android":"levelo://app?vid=ffa6a709-cf7b-41fd-acb6-77573eab6973","ios":"levelo://app?vid=ffa6a709-cf7b-41fd-acb6-77573eab6973"},"vehicle_type_id":"4","last_reported":1731078575,"current_range_meters":12800,"station_id":"ce4bhs12rcd13ifvqhvg","pricing_plan_id":"cebpf4jnsgd1na2vs0mg"},{"bike_id":"b1700aa0-3731-4428-954e-04be2fab37c2","system_id":"levelo_inurba_marseille","lat":43.30878,"lon":5.3719,"is_reserved":false,"is_disabled":false,"rental_uris":{"android":"levelo://app?vid=b1700aa0-3731-4428-954e-04be2fab37c2","ios":"levelo://app?vid=b1700aa0-3731-4428-954e-04be2fab37c2"},"vehicle_type_id":"4","last_reported":1731078575,"current_range_meters":38400,"station_id":"ce4bguh2rcd13ifvqckg","pricing_plan_id":"cebpf4jnsgd1na2vs0mg"},{"bike_id":"8c326b26-9203-4a12-8c49-2dc336785955","system_id":"levelo_inurba_marseille","lat":43.29533,"lon":5.38541,"is_reserved":false,"is_disabled":false,"rental_uris":{"android":"levelo://app?vid=8c326b26-9203-4a12-8c49-2dc336785955","ios":"levelo://app?vid=8c326b26-9203-4a12-8c49-2dc336785955"},"vehicle_type_id":"4","last_reported":1731078575,"current_range_meters":18000,"station_id":"ce4bgih2rcd13ifvqba0","pricing_plan_id":"cebpf4jnsgd1na2vs0mg"},{"bike_id":"bb734a49-fff9-4217-9a09-aa4166e9165f","system_id":"levelo_inurba_marseille","lat":43.28076,"lon":5.39649,"is_reserved":false,"is_disabled":false,"rental_uris":{"android":"levelo://app?vid=bb734a49-fff9-4217-9a09-aa4166e9165f","ios":"levelo://app?vid=bb734a49-fff9-4217-9a09-aa4166e9165f"},"vehicle_type_id":"4","last_reported":1731078575,"current_range_meters":12800,"station_id":"ce4bho12rcd13ifvqh2g","pricing_plan_id":"cebpf4jnsgd1na2vs0mg"},{"bike_id":"5efb774f-5711-46fd-9c07-be5d9b0b7589","system_id":"levelo_inurba_marseille","lat":43.28435,"lon":5.39201,"is_reserved":false,"is_disabled":false,"rental_uris":{"android":"levelo://app?vid=5efb774f-5711-46fd-9c07-be5d9b0b7589","ios":"levelo://app?vid=5efb774f-5711-46fd-9c07-be5d9b0b7589"},"vehicle_type_id":"4","last_reported":1731078575,"current_range_meters":10800,"station_id":"ce4bhoh2rcd13ifvqh5g","pricing_plan_id":"cebpf4jnsgd1na2vs0mg"},{"bike_id":"4a3bf642-8c4e-4ee5-b2e6-6c060a175f0b","system_id":"levelo_inurba_marseille","lat":43.29872,"lon":5.39729,"is_reserved":false,"is_disabled":false,"rental_uris":{"android":"levelo://app?vid=4a3bf642-8c4e-4ee5-b2e6-6c060a175f0b","ios":"levelo://app?vid=4a3bf642-8c4e-4ee5-b2e6-6c060a175f0b"},"vehicle_type_id":"4","last_reported":1731078575,"current_range_meters":400,"station_id":"ce4bh0h2rcd13ifvqd50","pricing_plan_id":"cebpf4jnsgd1na2vs0mg"},{"bike_id":"9cd61166-46c1-44cc-a08c-a9e57f007666","system_id":"levelo_inurba_marseille","lat":43.29599,"lon":5.38087,"is_reserved":false,"is_disabled":false,"rental_uris":{"android":"levelo://app?vid=9cd61166-46c1-44cc-a08c-a9e57f007666","ios":"levelo://app?vid=9cd61166-46c1-44cc-a08c-a9e57f007666"},"vehicle_type_id":"4","last_reported":1731078575,"current_range_meters":24400,"station_id":"ce4bgl12rcd13ifvqbo0","pricing_plan_id":"cebpf4jnsgd1na2vs0mg"},{"bike_id":"68c6762b-05ee-48c4-9dc7-979b7701dbea","system_id":"levelo_inurba_marseille","lat":43.28156,"lon":5.42638,"is_reserved":false,"is_disabled":false,"rental_uris":{"android":"levelo://app?vid=68c6762b-05ee-48c4-9dc7-979b7701dbea","ios":"levelo://app?vid=68c6762b-05ee-48c4-9dc7-979b7701dbea"},"vehicle_type_id":"4","last_reported":1731078575,"current_range_meters":22400,"station_id":"ce4bhnh2rcd13ifvqgug","pricing_plan_id":"cebpf4jnsgd1na2vs0mg"},{"bike_id":"0e306ee8-d925-41d1-b49a-1978dbf1f3ae","system_id":"levelo_inurba_marseille","lat":43.29928,"lon":5.37479,"is_reserved":false,"is_disabled":false,"rental_uris":{"android":"levelo://app?vid=0e306ee8-d925-41d1-b49a-1978dbf1f3ae","ios":"levelo://app?vid=0e306ee8-d925-41d1-b49a-1978dbf1f3ae"},"vehicle_type_id":"4","last_reported":1731078575,"current_range_meters":36400,"station_id":"ce4bgjh2rcd13ifvqbg0","pricing_plan_id":"cebpf4jnsgd1na2vs0mg"},{"bike_id":"ac1ceaa2-30d9-46ba-979d-5486e08ff315","system_id":"levelo_inurba_marseille","lat":43.31707,"lon":5.43704,"is_reserved":false,"is_disabled":false,"rental_uris":{"android":"levelo://app?vid=ac1ceaa2-30d9-46ba-979d-5486e08ff315","ios":"levelo://app?vid=ac1ceaa2-30d9-46ba-979d-5486e08ff315"},"vehicle_type_id":"4","last_reported":1731078575,"current_range_meters":11200,"station_id":"ce4bhp92rcd13ifvqhcg","pricing_plan_id":"cebpf4jnsgd1na2vs0mg"},{"bike_id":"84734344-4100-498f-90db-13a43f921e51","system_id":"levelo_inurba_marseille","lat":43.29621,"lon":5.37152,"is_reserved":false,"is_disabled":false,"rental_uris":{"android":"levelo://app?vid=84734344-4100-498f-90db-13a43f921e51","ios":"levelo://app?vid=84734344-4100-498f-90db-13a43f921e51"},"vehicle_type_id":"4","last_reported":1731078575,"current_range_meters":28800,"station_id":"ce4bgnh2rcd13ifvqc0g","pricing_plan_id":"cebpf4jnsgd1na2vs0mg"},{"bike_id":"82bcb5cc-eff7-40fa-ae6c-a3c17f56dccf","system_id":"levelo_inurba_marseille","lat":43.31999,"lon":5.38171,"is_reserved":false,"is_disabled":false,"rental_uris":{"android":"levelo://app?vid=82bcb5cc-eff7-40fa-ae6c-a3c17f56dccf","ios":"levelo://app?vid=82bcb5cc-eff7-40fa-ae6c-a3c17f56dccf"},"vehicle_type_id":"4","last_reported":1731078575,"current_range_meters":15200,"station_id":"ce4bhr12rcd13ifvqhpg","pricing_plan_id":"cebpf4jnsgd1na2vs0mg"},{"bike_id":"2e7a99c4-bb49-4d11-b5ea-bbbe88aeab49","system_id":"levelo_inurba_marseille","lat":43.32487,"lon":5.36573,"is_reserved":false,"is_disabled":false,"rental_uris":{"android":"levelo://app?vid=2e7a99c4-bb49-4d11-b5ea-bbbe88aeab49","ios":"levelo://app?vid=2e7a99c4-bb49-4d11-b5ea-bbbe88aeab49"},"vehicle_type_id":"4","last_reported":1731078575,"current_range_meters":38800,"station_id":"ce4bhs12rcd13ifvqhvg","pricing_plan_id":"cebpf4jnsgd1na2vs0mg"},{"bike_id":"a77d95f8-1237-461c-b90c-b3583a177300","system_id":"levelo_inurba_marseille","lat":43.2919,"lon":5.39331,"is_reserved":false,"is_disabled":false,"rental_uris":{"android":"levelo://app?vid=a77d95f8-1237-461c-b90c-b3583a177300","ios":"levelo://app?vid=a77d95f8-1237-461c-b90c-b3583a177300"},"vehicle_type_id":"4","last_reported":1731078575,"current_range_meters":37600,"station_id":"ce4bh192rcd13ifvqdd0","pricing_plan_id":"cebpf4jnsgd1na2vs0mg"},{"bike_id":"95e9535c-bad6-427a-84b3-4be9ba1fccf8","system_id":"levelo_inurba_marseille","lat":43.30526,"lon":5.3672,"is_reserved":false,"is_disabled":false,"rental_uris":{"android":"levelo://app?vid=95e9535c-bad6-427a-84b3-4be9ba1fccf8","ios":"levelo://app?vid=95e9535c-bad6-427a-84b3-4be9ba1fccf8"},"vehicle_type_id":"4","last_reported":1731078575,"current_range_meters":6000,"station_id":"ce4bgrp2rcd13ifvqc9g","pricing_plan_id":"cebpf4jnsgd1na2vs0mg"},{"bike_id":"a8b2228a-d066-4a90-b10a-4a4e0f9f43f2","system_id":"levelo_inurba_marseille","lat":43.26488,"lon":5.39548,"is_reserved":false,"is_disabled":false,"rental_uris":{"android":"levelo://app?vid=a8b2228a-d066-4a90-b10a-4a4e0f9f43f2","ios":"levelo://app?vid=a8b2228a-d066-4a90-b10a-4a4e0f9f43f2"},"vehicle_type_id":"4","last_reported":1731078575,"current_range_meters":34000,"station_id":"ce4bhi12rcd13ifvqfq0","pricing_plan_id":"cebpf4jnsgd1na2vs0mg"},{"bike_id":"c68419ae-5304-473c-904a-721cc7490645","system_id":"levelo_inurba_marseille","lat":43.26556,"lon":5.37283,"is_reserved":false,"is_disabled":false,"rental_uris":{"android":"levelo://app?vid=c68419ae-5304-473c-904a-721cc7490645","ios":"levelo://app?vid=c68419ae-5304-473c-904a-721cc7490645"},"vehicle_type_id":"4","last_reported":1731078575,"current_range_meters":26000,"station_id":"ce4bhg12rcd13ifvqf70","pricing_plan_id":"cebpf4jnsgd1na2vs0mg"},{"bike_id":"b4a9b982-0d09-4959-9186-3153c383a403","system_id":"levelo_inurba_marseille","lat":43.23966,"lon":5.3663,"is_reserved":false,"is_disabled":false,"rental_uris":{"android":"levelo://app?vid=b4a9b982-0d09-4959-9186-3153c383a403","ios":"levelo://app?vid=b4a9b982-0d09-4959-9186-3153c383a403"},"vehicle_type_id":"4","last_reported":1731078575,"current_range_meters":20000,"station_id":"ce4bhi12rcd13ifvqfp0","pricing_plan_id":"cebpf4jnsgd1na2vs0mg"},{"bike_id":"f2b88fdd-2e0b-4b5e-888c-35155555732c","system_id":"levelo_inurba_marseille","lat":43.31998,"lon":5.38148,"is_reserved":false,"is_disabled":false,"rental_uris":{"android":"levelo://app?vid=f2b88fdd-2e0b-4b5e-888c-35155555732c","ios":"levelo://app?vid=f2b88fdd-2e0b-4b5e-888c-35155555732c"},"vehicle_type_id":"4","last_reported":1731078575,"current_range_meters":36400,"station_id":"ce4bhr12rcd13ifvqhpg","pricing_plan_id":"cebpf4jnsgd1na2vs0mg"},{"bike_id":"274ce2af-4f8d-4135-b226-7cd5d8711fca","system_id":"levelo_inurba_marseille","lat":43.26676,"lon":5.38271,"is_reserved":false,"is_disabled":false,"rental_uris":{"android":"levelo://app?vid=274ce2af-4f8d-4135-b226-7cd5d8711fca","ios":"levelo://app?vid=274ce2af-4f8d-4135-b226-7cd5d8711fca"},"vehicle_type_id":"4","last_reported":1731078575,"current_range_meters":38000,"station_id":"ce4bhg92rcd13ifvqf90","pricing_plan_id":"cebpf4jnsgd1na2vs0mg"},{"bike_id":"fad64bc2-9777-4321-9805-768084ba3143","system_id":"levelo_inurba_marseille","lat":43.29158,"lon":5.3716,"is_reserved":false,"is_disabled":false,"rental_uris":{"android":"levelo://app?vid=fad64bc2-9777-4321-9805-768084ba3143","ios":"levelo://app?vid=fad64bc2-9777-4321-9805-768084ba3143"},"vehicle_type_id":"4","last_reported":1731078575,"current_range_meters":38800,"station_id":"ce4bha92rcd13ifvqeh0","pricing_plan_id":"cebpf4jnsgd1na2vs0mg"},{"bike_id":"d3608781-7a95-4a80-9c45-48f596cb3e4b","system_id":"levelo_inurba_marseille","lat":43.33742,"lon":5.37453,"is_reserved":false,"is_disabled":false,"rental_uris":{"android":"levelo://app?vid=d3608781-7a95-4a80-9c45-48f596cb3e4b","ios":"levelo://app?vid=d3608781-7a95-4a80-9c45-48f596cb3e4b"},"vehicle_type_id":"4","last_reported":1731078575,"current_range_meters":18800,"station_id":"","pricing_plan_id":"cebpf4jnsgd1na2vs0mg"},{"bike_id":"065cc511-f6c2-41de-9ebc-8db637bb7c30","system_id":"levelo_inurba_marseille","lat":43.30141,"lon":5.37415,"is_reserved":false,"is_disabled":false,"rental_uris":{"android":"levelo://app?vid=065cc511-f6c2-41de-9ebc-8db637bb7c30","ios":"levelo://app?vid=065cc511-f6c2-41de-9ebc-8db637bb7c30"},"vehicle_type_id":"4","last_reported":1731078575,"current_range_meters":36800,"station_id":"ce4bgs92rcd13ifvqcc0","pricing_plan_id":"cebpf4jnsgd1na2vs0mg"},{"bike_id":"67e31844-8240-44da-9db6-82adcbf7b9a3","system_id":"levelo_inurba_marseille","lat":43.28701,"lon":5.39987,"is_reserved":false,"is_disabled":false,"rental_uris":{"android":"levelo://app?vid=67e31844-8240-44da-9db6-82adcbf7b9a3","ios":"levelo://app?vid=67e31844-8240-44da-9db6-82adcbf7b9a3"},"vehicle_type_id":"4","last_reported":1731078575,"current_range_meters":30800,"station_id":"ce4bho92rcd13ifvqh3g","pricing_plan_id":"cebpf4jnsgd1na2vs0mg"},{"bike_id":"319fd376-89aa-470d-b030-d573ff0139e4","system_id":"levelo_inurba_marseille","lat":43.30791,"lon":5.37649,"is_reserved":false,"is_disabled":false,"rental_uris":{"android":"levelo://app?vid=319fd376-89aa-470d-b030-d573ff0139e4","ios":"levelo://app?vid=319fd376-89aa-470d-b030-d573ff0139e4"},"vehicle_type_id":"4","last_reported":1731078575,"current_range_meters":36000,"station_id":"ce4bgv92rcd13ifvqcq0","pricing_plan_id":"cebpf4jnsgd1na2vs0mg"},{"bike_id":"04cd3841-a84b-4b91-bc27-bb10f63e2a0f","system_id":"levelo_inurba_marseille","lat":43.26802,"lon":5.40263,"is_reserved":false,"is_disabled":false,"rental_uris":{"android":"levelo://app?vid=04cd3841-a84b-4b91-bc27-bb10f63e2a0f","ios":"levelo://app?vid=04cd3841-a84b-4b91-bc27-bb10f63e2a0f"},"vehicle_type_id":"4","last_reported":1731078575,"current_range_meters":28000,"station_id":"ce501612rcd8frsf0b60","pricing_plan_id":"cebpf4jnsgd1na2vs0mg"},{"bike_id":"781005c8-e92d-4538-ad39-54fa82b03703","system_id":"levelo_inurba_marseille","lat":43.30292,"lon":5.37707,"is_reserved":false,"is_disabled":false,"rental_uris":{"android":"levelo://app?vid=781005c8-e92d-4538-ad39-54fa82b03703","ios":"levelo://app?vid=781005c8-e92d-4538-ad39-54fa82b03703"},"vehicle_type_id":"4","last_reported":1731078575,"current_range_meters":38800,"station_id":"ce4bguh2rcd13ifvqcj0","pricing_plan_id":"cebpf4jnsgd1na2vs0mg"},{"bike_id":"d8dcd920-e2b1-4f08-a8ed-d7102ff3c30b","system_id":"levelo_inurba_marseille","lat":43.31751,"lon":5.39024,"is_reserved":false,"is_disabled":false,"rental_uris":{"android":"levelo://app?vid=d8dcd920-e2b1-4f08-a8ed-d7102ff3c30b","ios":"levelo://app?vid=d8dcd920-e2b1-4f08-a8ed-d7102ff3c30b"},"vehicle_type_id":"4","last_reported":1731078575,"current_range_meters":12400,"station_id":"ce4bhqp2rcd13ifvqhng","pricing_plan_id":"cebpf4jnsgd1na2vs0mg"},{"bike_id":"fe266465-df48-4a87-8567-271aceff1359","system_id":"levelo_inurba_marseille","lat":43.27812,"lon":5.40716,"is_reserved":false,"is_disabled":false,"rental_uris":{"android":"levelo://app?vid=fe266465-df48-4a87-8567-271aceff1359","ios":"levelo://app?vid=fe266465-df48-4a87-8567-271aceff1359"},"vehicle_type_id":"4","last_reported":1731078575,"current_range_meters":27200,"station_id":"ce4bhnh2rcd13ifvqgtg","pricing_plan_id":"cebpf4jnsgd1na2vs0mg"},{"bike_id":"29824cde-4cdc-4355-9b22-a5922a403deb","system_id":"levelo_inurba_marseille","lat":43.337444,"lon":5.374475,"is_reserved":false,"is_disabled":false,"rental_uris":{"android":"levelo://app?vid=29824cde-4cdc-4355-9b22-a5922a403deb","ios":"levelo://app?vid=29824cde-4cdc-4355-9b22-a5922a403deb"},"vehicle_type_id":"4","last_reported":1731078575,"current_range_meters":38000,"station_id":"","pricing_plan_id":"cebpf4jnsgd1na2vs0mg"},{"bike_id":"8b03156e-cd0c-47f1-a907-b31b0fdecac4","system_id":"levelo_inurba_marseille","lat":43.31234,"lon":5.36844,"is_reserved":false,"is_disabled":false,"rental_uris":{"android":"levelo://app?vid=8b03156e-cd0c-47f1-a907-b31b0fdecac4","ios":"levelo://app?vid=8b03156e-cd0c-47f1-a907-b31b0fdecac4"},"vehicle_type_id":"4","last_reported":1731078575,"current_range_meters":30000,"station_id":"ce4bgl92rcd13ifvqbq0","pricing_plan_id":"cebpf4jnsgd1na2vs0mg"},{"bike_id":"eccb9bf1-4a0c-4df5-8229-bf46f21c4329","system_id":"levelo_inurba_marseille","lat":43.31717,"lon":5.42407,"is_reserved":false,"is_disabled":false,"rental_uris":{"android":"levelo://app?vid=eccb9bf1-4a0c-4df5-8229-bf46f21c4329","ios":"levelo://app?vid=eccb9bf1-4a0c-4df5-8229-bf46f21c4329"},"vehicle_type_id":"4","last_reported":1731078575,"current_range_meters":37600,"station_id":"ce4bhp92rcd13ifvqhbg","pricing_plan_id":"cebpf4jnsgd1na2vs0mg"},{"bike_id":"ef288286-229d-4b9a-a189-8d61840dcffb","system_id":"levelo_inurba_marseille","lat":43.2319,"lon":5.35552,"is_reserved":false,"is_disabled":false,"rental_uris":{"android":"levelo://app?vid=ef288286-229d-4b9a-a189-8d61840dcffb","ios":"levelo://app?vid=ef288286-229d-4b9a-a189-8d61840dcffb"},"vehicle_type_id":"4","last_reported":1731078575,"current_range_meters":38000,"station_id":"ce4bhu92rcd13ifvqi70","pricing_plan_id":"cebpf4jnsgd1na2vs0mg"},{"bike_id":"68a16cb1-5aff-45bf-9786-11e01f81ed1f","system_id":"levelo_inurba_marseille","lat":43.26211,"lon":5.37444,"is_reserved":false,"is_disabled":false,"rental_uris":{"android":"levelo://app?vid=68a16cb1-5aff-45bf-9786-11e01f81ed1f","ios":"levelo://app?vid=68a16cb1-5aff-45bf-9786-11e01f81ed1f"},"vehicle_type_id":"4","last_reported":1731078575,"current_range_meters":37600,"station_id":"ce4bhgp2rcd13ifvqfc0","pricing_plan_id":"cebpf4jnsgd1na2vs0mg"},{"bike_id":"cb840506-fc64-4fb3-ac5c-c5a532d2fcdc","system_id":"levelo_inurba_marseille","lat":43.28935,"lon":5.36402,"is_reserved":false,"is_disabled":false,"rental_uris":{"android":"levelo://app?vid=cb840506-fc64-4fb3-ac5c-c5a532d2fcdc","ios":"levelo://app?vid=cb840506-fc64-4fb3-ac5c-c5a532d2fcdc"},"vehicle_type_id":"4","last_reported":1731078575,"current_range_meters":38800,"station_id":"ce4bhc92rcd13ifvqetg","pricing_plan_id":"cebpf4jnsgd1na2vs0mg"},{"bike_id":"3c58f83c-7679-45ef-8548-140af7498d36","system_id":"levelo_inurba_marseille","lat":43.29198,"lon":5.39328,"is_reserved":false,"is_disabled":false,"rental_uris":{"android":"levelo://app?vid=3c58f83c-7679-45ef-8548-140af7498d36","ios":"levelo://app?vid=3c58f83c-7679-45ef-8548-140af7498d36"},"vehicle_type_id":"4","last_reported":1731078575,"current_range_meters":9600,"station_id":"ce4bh192rcd13ifvqdd0","pricing_plan_id":"cebpf4jnsgd1na2vs0mg"},{"bike_id":"ad688e82-3a20-418c-8ea0-53545a55bdfa","system_id":"levelo_inurba_marseille","lat":43.289343,"lon":5.3639,"is_reserved":false,"is_disabled":false,"rental_uris":{"android":"levelo://app?vid=ad688e82-3a20-418c-8ea0-53545a55bdfa","ios":"levelo://app?vid=ad688e82-3a20-418c-8ea0-53545a55bdfa"},"vehicle_type_id":"4","last_reported":1731078575,"current_range_meters":20400,"station_id":"ce4bhc92rcd13ifvqetg","pricing_plan_id":"cebpf4jnsgd1na2vs0mg"},{"bike_id":"87aab627-0f86-4693-aea1-8a46d1a5989f","system_id":"levelo_inurba_marseille","lat":43.25859,"lon":5.39907,"is_reserved":false,"is_disabled":false,"rental_uris":{"android":"levelo://app?vid=87aab627-0f86-4693-aea1-8a46d1a5989f","ios":"levelo://app?vid=87aab627-0f86-4693-aea1-8a46d1a5989f"},"vehicle_type_id":"4","last_reported":1731078575,"current_range_meters":35600,"station_id":"ce4bhl92rcd13ifvqghg","pricing_plan_id":"cebpf4jnsgd1na2vs0mg"},{"bike_id":"45421d28-9850-4beb-9674-e7f78c23d387","system_id":"levelo_inurba_marseille","lat":43.30778,"lon":5.37647,"is_reserved":false,"is_disabled":false,"rental_uris":{"android":"levelo://app?vid=45421d28-9850-4beb-9674-e7f78c23d387","ios":"levelo://app?vid=45421d28-9850-4beb-9674-e7f78c23d387"},"vehicle_type_id":"4","last_reported":1731078575,"current_range_meters":12400,"station_id":"ce4bgv92rcd13ifvqcq0","pricing_plan_id":"cebpf4jnsgd1na2vs0mg"},{"bike_id":"38ca6de4-26b0-46d3-a0d0-1413359ab40d","system_id":"levelo_inurba_marseille","lat":43.31711,"lon":5.43713,"is_reserved":false,"is_disabled":false,"rental_uris":{"android":"levelo://app?vid=38ca6de4-26b0-46d3-a0d0-1413359ab40d","ios":"levelo://app?vid=38ca6de4-26b0-46d3-a0d0-1413359ab40d"},"vehicle_type_id":"4","last_reported":1731078575,"current_range_meters":31200,"station_id":"ce4bhp92rcd13ifvqhcg","pricing_plan_id":"cebpf4jnsgd1na2vs0mg"},{"bike_id":"12ab8a2b-bf2e-44a7-8096-67ee8e37b5b1","system_id":"levelo_inurba_marseille","lat":43.26941,"lon":5.40246,"is_reserved":false,"is_disabled":false,"rental_uris":{"android":"levelo://app?vid=12ab8a2b-bf2e-44a7-8096-67ee8e37b5b1","ios":"levelo://app?vid=12ab8a2b-bf2e-44a7-8096-67ee8e37b5b1"},"vehicle_type_id":"4","last_reported":1731078575,"current_range_meters":38800,"station_id":"cjm6bp8fraef2m0cb0m0","pricing_plan_id":"cebpf4jnsgd1na2vs0mg"},{"bike_id":"841c9df1-f0db-4c1b-b9a9-575f56c5769d","system_id":"levelo_inurba_marseille","lat":43.29199,"lon":5.39326,"is_reserved":false,"is_disabled":false,"rental_uris":{"android":"levelo://app?vid=841c9df1-f0db-4c1b-b9a9-575f56c5769d","ios":"levelo://app?vid=841c9df1-f0db-4c1b-b9a9-575f56c5769d"},"vehicle_type_id":"4","last_reported":1731078575,"current_range_meters":37600,"station_id":"ce4bh192rcd13ifvqdd0","pricing_plan_id":"cebpf4jnsgd1na2vs0mg"},{"bike_id":"7ff978fd-e612-4c49-9fd4-6e34bc706487","system_id":"levelo_inurba_marseille","lat":43.30251,"lon":5.40061,"is_reserved":false,"is_disabled":false,"rental_uris":{"android":"levelo://app?vid=7ff978fd-e612-4c49-9fd4-6e34bc706487","ios":"levelo://app?vid=7ff978fd-e612-4c49-9fd4-6e34bc706487"},"vehicle_type_id":"4","last_reported":1731078575,"current_range_meters":14400,"station_id":"ce4bgvh2rcd13ifvqcs0","pricing_plan_id":"cebpf4jnsgd1na2vs0mg"},{"bike_id":"8faa22dc-5f3c-4af6-b84b-f554e09d6313","system_id":"levelo_inurba_marseille","lat":43.337444,"lon":5.374475,"is_reserved":false,"is_disabled":false,"rental_uris":{"android":"levelo://app?vid=8faa22dc-5f3c-4af6-b84b-f554e09d6313","ios":"levelo://app?vid=8faa22dc-5f3c-4af6-b84b-f554e09d6313"},"vehicle_type_id":"4","last_reported":1731078575,"current_range_meters":37600,"station_id":"","pricing_plan_id":"cebpf4jnsgd1na2vs0mg"},{"bike_id":"22a21434-6031-47be-8568-25c2979ed55a","system_id":"levelo_inurba_marseille","lat":43.28464,"lon":5.35889,"is_reserved":false,"is_disabled":false,"rental_uris":{"android":"levelo://app?vid=22a21434-6031-47be-8568-25c2979ed55a","ios":"levelo://app?vid=22a21434-6031-47be-8568-25c2979ed55a"},"vehicle_type_id":"4","last_reported":1731078575,"current_range_meters":36400,"station_id":"ce4bhah2rcd13ifvqei0","pricing_plan_id":"cebpf4jnsgd1na2vs0mg"},{"bike_id":"c6b01c5a-5849-4435-b282-b8fad7a1f461","system_id":"levelo_inurba_marseille","lat":43.28347,"lon":5.3811,"is_reserved":false,"is_disabled":false,"rental_uris":{"android":"levelo://app?vid=c6b01c5a-5849-4435-b282-b8fad7a1f461","ios":"levelo://app?vid=c6b01c5a-5849-4435-b282-b8fad7a1f461"},"vehicle_type_id":"4","last_reported":1731078575,"current_range_meters":27200,"station_id":"ce4bh412rcd13ifvqdr0","pricing_plan_id":"cebpf4jnsgd1na2vs0mg"},{"bike_id":"a2383761-2a5f-454b-9f3c-d7e8372af7c6","system_id":"levelo_inurba_marseille","lat":43.28917,"lon":5.38398,"is_reserved":false,"is_disabled":false,"rental_uris":{"android":"levelo://app?vid=a2383761-2a5f-454b-9f3c-d7e8372af7c6","ios":"levelo://app?vid=a2383761-2a5f-454b-9f3c-d7e8372af7c6"},"vehicle_type_id":"4","last_reported":1731078575,"current_range_meters":14400,"station_id":"ce4bh612rcd13ifvqe6g","pricing_plan_id":"cebpf4jnsgd1na2vs0mg"},{"bike_id":"e52ae572-e9bf-48de-99b0-aec892a5dd2a","system_id":"levelo_inurba_marseille","lat":43.31322,"lon":5.39693,"is_reserved":false,"is_disabled":false,"rental_uris":{"android":"levelo://app?vid=e52ae572-e9bf-48de-99b0-aec892a5dd2a","ios":"levelo://app?vid=e52ae572-e9bf-48de-99b0-aec892a5dd2a"},"vehicle_type_id":"4","last_reported":1731078575,"current_range_meters":38800,"station_id":"ce4bgvp2rcd13ifvqcu0","pricing_plan_id":"cebpf4jnsgd1na2vs0mg"},{"bike_id":"ab3052a4-897c-4002-9043-dbd4e3dfb3e0","system_id":"levelo_inurba_marseille","lat":43.30277,"lon":5.37711,"is_reserved":false,"is_disabled":false,"rental_uris":{"android":"levelo://app?vid=ab3052a4-897c-4002-9043-dbd4e3dfb3e0","ios":"levelo://app?vid=ab3052a4-897c-4002-9043-dbd4e3dfb3e0"},"vehicle_type_id":"4","last_reported":1731078575,"current_range_meters":37600,"station_id":"ce4bguh2rcd13ifvqcj0","pricing_plan_id":"cebpf4jnsgd1na2vs0mg"},{"bike_id":"7c919a5a-41a9-48ba-af91-29d9150449ce","system_id":"levelo_inurba_marseille","lat":43.29919,"lon":5.37472,"is_reserved":false,"is_disabled":false,"rental_uris":{"android":"levelo://app?vid=7c919a5a-41a9-48ba-af91-29d9150449ce","ios":"levelo://app?vid=7c919a5a-41a9-48ba-af91-29d9150449ce"},"vehicle_type_id":"4","last_reported":1731078575,"current_range_meters":36400,"station_id":"ce4bgjh2rcd13ifvqbg0","pricing_plan_id":"cebpf4jnsgd1na2vs0mg"},{"bike_id":"3d2c0aea-d9d6-4b43-bff8-79ccf2350d6d","system_id":"levelo_inurba_marseille","lat":43.30121,"lon":5.39854,"is_reserved":false,"is_disabled":false,"rental_uris":{"android":"levelo://app?vid=3d2c0aea-d9d6-4b43-bff8-79ccf2350d6d","ios":"levelo://app?vid=3d2c0aea-d9d6-4b43-bff8-79ccf2350d6d"},"vehicle_type_id":"4","last_reported":1731078575,"current_range_meters":26000,"station_id":"ce4bh0h2rcd13ifvqd40","pricing_plan_id":"cebpf4jnsgd1na2vs0mg"},{"bike_id":"9c7bfd48-60b7-40bf-bd5b-3a3ac1346faf","system_id":"levelo_inurba_marseille","lat":43.2694,"lon":5.40248,"is_reserved":false,"is_disabled":false,"rental_uris":{"android":"levelo://app?vid=9c7bfd48-60b7-40bf-bd5b-3a3ac1346faf","ios":"levelo://app?vid=9c7bfd48-60b7-40bf-bd5b-3a3ac1346faf"},"vehicle_type_id":"4","last_reported":1731078575,"current_range_meters":2800,"station_id":"cjm6bp8fraef2m0cb0m0","pricing_plan_id":"cebpf4jnsgd1na2vs0mg"},{"bike_id":"c7022000-40bb-4946-aca4-3a5058fa7b80","system_id":"levelo_inurba_marseille","lat":43.26597,"lon":5.37302,"is_reserved":false,"is_disabled":false,"rental_uris":{"android":"levelo://app?vid=c7022000-40bb-4946-aca4-3a5058fa7b80","ios":"levelo://app?vid=c7022000-40bb-4946-aca4-3a5058fa7b80"},"vehicle_type_id":"4","last_reported":1731078575,"current_range_meters":8800,"station_id":"ce4bhg12rcd13ifvqf70","pricing_plan_id":"cebpf4jnsgd1na2vs0mg"},{"bike_id":"eefd0687-4492-41ad-9368-b877bab02ae1","system_id":"levelo_inurba_marseille","lat":43.31229,"lon":5.36857,"is_reserved":false,"is_disabled":false,"rental_uris":{"android":"levelo://app?vid=eefd0687-4492-41ad-9368-b877bab02ae1","ios":"levelo://app?vid=eefd0687-4492-41ad-9368-b877bab02ae1"},"vehicle_type_id":"4","last_reported":1731078575,"current_range_meters":38400,"station_id":"ce4bgl92rcd13ifvqbq0","pricing_plan_id":"cebpf4jnsgd1na2vs0mg"},{"bike_id":"6bbe3f1c-a12b-4b0d-9b91-a5c7de629161","system_id":"levelo_inurba_marseille","lat":43.29579,"lon":5.36738,"is_reserved":false,"is_disabled":false,"rental_uris":{"android":"levelo://app?vid=6bbe3f1c-a12b-4b0d-9b91-a5c7de629161","ios":"levelo://app?vid=6bbe3f1c-a12b-4b0d-9b91-a5c7de629161"},"vehicle_type_id":"4","last_reported":1731078575,"current_range_meters":16000,"station_id":"ce4bgph2rcd13ifvqc2g","pricing_plan_id":"cebpf4jnsgd1na2vs0mg"},{"bike_id":"9cac0d1d-52d1-4be4-b090-753e72c0d7ce","system_id":"levelo_inurba_marseille","lat":43.31488,"lon":5.373075,"is_reserved":false,"is_disabled":false,"rental_uris":{"android":"levelo://app?vid=9cac0d1d-52d1-4be4-b090-753e72c0d7ce","ios":"levelo://app?vid=9cac0d1d-52d1-4be4-b090-753e72c0d7ce"},"vehicle_type_id":"4","last_reported":1731078575,"current_range_meters":11200,"station_id":"ce4bgt12rcd13ifvqcd0","pricing_plan_id":"cebpf4jnsgd1na2vs0mg"},{"bike_id":"1f3ba906-6e07-4370-b207-43e1aae1c14a","system_id":"levelo_inurba_marseille","lat":43.313482,"lon":5.36721,"is_reserved":false,"is_disabled":false,"rental_uris":{"android":"levelo://app?vid=1f3ba906-6e07-4370-b207-43e1aae1c14a","ios":"levelo://app?vid=1f3ba906-6e07-4370-b207-43e1aae1c14a"},"vehicle_type_id":"4","last_reported":1731078575,"current_range_meters":11600,"station_id":"ce4bgr92rcd13ifvqc6g","pricing_plan_id":"cebpf4jnsgd1na2vs0mg"},{"bike_id":"9f1a2b52-d0db-4b32-a1c0-d123a0ac6fc1","system_id":"levelo_inurba_marseille","lat":43.3086,"lon":5.40098,"is_reserved":false,"is_disabled":false,"rental_uris":{"android":"levelo://app?vid=9f1a2b52-d0db-4b32-a1c0-d123a0ac6fc1","ios":"levelo://app?vid=9f1a2b52-d0db-4b32-a1c0-d123a0ac6fc1"},"vehicle_type_id":"4","last_reported":1731078575,"current_range_meters":25600,"station_id":"ce4bgvp2rcd13ifvqct0","pricing_plan_id":"cebpf4jnsgd1na2vs0mg"},{"bike_id":"abf4169e-b822-401f-87de-0f4b08bdff45","system_id":"levelo_inurba_marseille","lat":43.28452,"lon":5.358681,"is_reserved":false,"is_disabled":false,"rental_uris":{"android":"levelo://app?vid=abf4169e-b822-401f-87de-0f4b08bdff45","ios":"levelo://app?vid=abf4169e-b822-401f-87de-0f4b08bdff45"},"vehicle_type_id":"4","last_reported":1731078575,"current_range_meters":19600,"station_id":"ce4bhah2rcd13ifvqei0","pricing_plan_id":"cebpf4jnsgd1na2vs0mg"},{"bike_id":"d6fdae69-642e-4d84-a8fd-edeb75ed0ef4","system_id":"levelo_inurba_marseille","lat":43.22932,"lon":5.35376,"is_reserved":false,"is_disabled":false,"rental_uris":{"android":"levelo://app?vid=d6fdae69-642e-4d84-a8fd-edeb75ed0ef4","ios":"levelo://app?vid=d6fdae69-642e-4d84-a8fd-edeb75ed0ef4"},"vehicle_type_id":"4","last_reported":1731078575,"current_range_meters":38800,"station_id":"cpo3532slgdg3j2ikp40","pricing_plan_id":"cebpf4jnsgd1na2vs0mg"},{"bike_id":"25e39cf0-1794-4fc8-86ed-72a4bf6293f4","system_id":"levelo_inurba_marseille","lat":43.29705,"lon":5.3658,"is_reserved":false,"is_disabled":false,"rental_uris":{"android":"levelo://app?vid=25e39cf0-1794-4fc8-86ed-72a4bf6293f4","ios":"levelo://app?vid=25e39cf0-1794-4fc8-86ed-72a4bf6293f4"},"vehicle_type_id":"4","last_reported":1731078575,"current_range_meters":2000,"station_id":"ce4bgn12rcd13ifvqbt0","pricing_plan_id":"cebpf4jnsgd1na2vs0mg"},{"bike_id":"bdc2614c-f690-4a70-b4fe-4ce04e111f7f","system_id":"levelo_inurba_marseille","lat":43.31363,"lon":5.36703,"is_reserved":false,"is_disabled":false,"rental_uris":{"android":"levelo://app?vid=bdc2614c-f690-4a70-b4fe-4ce04e111f7f","ios":"levelo://app?vid=bdc2614c-f690-4a70-b4fe-4ce04e111f7f"},"vehicle_type_id":"4","last_reported":1731078575,"current_range_meters":38800,"station_id":"ce4bgr92rcd13ifvqc6g","pricing_plan_id":"cebpf4jnsgd1na2vs0mg"},{"bike_id":"4c51030c-903e-4c57-854e-18f4db2e2e89","system_id":"levelo_inurba_marseille","lat":43.3031,"lon":5.39202,"is_reserved":false,"is_disabled":false,"rental_uris":{"android":"levelo://app?vid=4c51030c-903e-4c57-854e-18f4db2e2e89","ios":"levelo://app?vid=4c51030c-903e-4c57-854e-18f4db2e2e89"},"vehicle_type_id":"4","last_reported":1731078575,"current_range_meters":14000,"station_id":"ce4bgkh2rcd13ifvqbk0","pricing_plan_id":"cebpf4jnsgd1na2vs0mg"},{"bike_id":"86d64521-d332-4842-b4fb-5fa4820d8c81","system_id":"levelo_inurba_marseille","lat":43.337444,"lon":5.374475,"is_reserved":false,"is_disabled":false,"rental_uris":{"android":"levelo://app?vid=86d64521-d332-4842-b4fb-5fa4820d8c81","ios":"levelo://app?vid=86d64521-d332-4842-b4fb-5fa4820d8c81"},"vehicle_type_id":"4","last_reported":1731078575,"current_range_meters":37600,"station_id":"","pricing_plan_id":"cebpf4jnsgd1na2vs0mg"},{"bike_id":"3cca4360-327d-4342-ad9f-d14004516ffb","system_id":"levelo_inurba_marseille","lat":43.24803,"lon":5.37464,"is_reserved":false,"is_disabled":false,"rental_uris":{"android":"levelo://app?vid=3cca4360-327d-4342-ad9f-d14004516ffb","ios":"levelo://app?vid=3cca4360-327d-4342-ad9f-d14004516ffb"},"vehicle_type_id":"4","last_reported":1731078575,"current_range_meters":18800,"station_id":"ce4bhgh2rcd13ifvqfb0","pricing_plan_id":"cebpf4jnsgd1na2vs0mg"},{"bike_id":"516fd39d-7578-49d1-bf84-850c48ca7346","system_id":"levelo_inurba_marseille","lat":43.28453,"lon":5.35888,"is_reserved":false,"is_disabled":false,"rental_uris":{"android":"levelo://app?vid=516fd39d-7578-49d1-bf84-850c48ca7346","ios":"levelo://app?vid=516fd39d-7578-49d1-bf84-850c48ca7346"},"vehicle_type_id":"4","last_reported":1731078575,"current_range_meters":6400,"station_id":"ce4bhah2rcd13ifvqei0","pricing_plan_id":"cebpf4jnsgd1na2vs0mg"},{"bike_id":"bc1124c3-6344-405c-89bb-711ee5ab8f44","system_id":"levelo_inurba_marseille","lat":43.31314,"lon":5.39702,"is_reserved":false,"is_disabled":false,"rental_uris":{"android":"levelo://app?vid=bc1124c3-6344-405c-89bb-711ee5ab8f44","ios":"levelo://app?vid=bc1124c3-6344-405c-89bb-711ee5ab8f44"},"vehicle_type_id":"4","last_reported":1731078575,"current_range_meters":37600,"station_id":"ce4bgvp2rcd13ifvqcu0","pricing_plan_id":"cebpf4jnsgd1na2vs0mg"},{"bike_id":"bde08989-23ea-4b54-bef5-ef219bd6bfde","system_id":"levelo_inurba_marseille","lat":43.25501,"lon":5.37655,"is_reserved":false,"is_disabled":false,"rental_uris":{"android":"levelo://app?vid=bde08989-23ea-4b54-bef5-ef219bd6bfde","ios":"levelo://app?vid=bde08989-23ea-4b54-bef5-ef219bd6bfde"},"vehicle_type_id":"4","last_reported":1731078575,"current_range_meters":38800,"station_id":"ce4bhh12rcd13ifvqff0","pricing_plan_id":"cebpf4jnsgd1na2vs0mg"},{"bike_id":"85159692-0694-450a-85e0-3c7616576346","system_id":"levelo_inurba_marseille","lat":43.30544,"lon":5.36543,"is_reserved":false,"is_disabled":false,"rental_uris":{"android":"levelo://app?vid=85159692-0694-450a-85e0-3c7616576346","ios":"levelo://app?vid=85159692-0694-450a-85e0-3c7616576346"},"vehicle_type_id":"4","last_reported":1731078575,"current_range_meters":28000,"station_id":"ce4bgs12rcd13ifvqcag","pricing_plan_id":"cebpf4jnsgd1na2vs0mg"},{"bike_id":"448d3bf9-78cb-439a-a23b-0e48f1b89013","system_id":"levelo_inurba_marseille","lat":43.32361,"lon":5.38877,"is_reserved":false,"is_disabled":false,"rental_uris":{"android":"levelo://app?vid=448d3bf9-78cb-439a-a23b-0e48f1b89013","ios":"levelo://app?vid=448d3bf9-78cb-439a-a23b-0e48f1b89013"},"vehicle_type_id":"4","last_reported":1731078575,"current_range_meters":16400,"station_id":"ce4bhqp2rcd13ifvqhog","pricing_plan_id":"cebpf4jnsgd1na2vs0mg"},{"bike_id":"55ad821a-6410-4ae9-8091-ff0defe1a4c1","system_id":"levelo_inurba_marseille","lat":43.29418,"lon":5.38618,"is_reserved":false,"is_disabled":false,"rental_uris":{"android":"levelo://app?vid=55ad821a-6410-4ae9-8091-ff0defe1a4c1","ios":"levelo://app?vid=55ad821a-6410-4ae9-8091-ff0defe1a4c1"},"vehicle_type_id":"4","last_reported":1731078575,"current_range_meters":20000,"station_id":"ce4bh2h2rcd13ifvqdh0","pricing_plan_id":"cebpf4jnsgd1na2vs0mg"},{"bike_id":"e6764491-0022-499f-be8b-b972412c0009","system_id":"levelo_inurba_marseille","lat":43.27809,"lon":5.40712,"is_reserved":false,"is_disabled":false,"rental_uris":{"android":"levelo://app?vid=e6764491-0022-499f-be8b-b972412c0009","ios":"levelo://app?vid=e6764491-0022-499f-be8b-b972412c0009"},"vehicle_type_id":"4","last_reported":1731078575,"current_range_meters":2000,"station_id":"ce4bhnh2rcd13ifvqgtg","pricing_plan_id":"cebpf4jnsgd1na2vs0mg"},{"bike_id":"cbce48b0-a8cf-40c1-900b-3647d9e2f5fd","system_id":"levelo_inurba_marseille","lat":43.27676,"lon":5.38919,"is_reserved":false,"is_disabled":false,"rental_uris":{"android":"levelo://app?vid=cbce48b0-a8cf-40c1-900b-3647d9e2f5fd","ios":"levelo://app?vid=cbce48b0-a8cf-40c1-900b-3647d9e2f5fd"},"vehicle_type_id":"4","last_reported":1731078575,"current_range_meters":25200,"station_id":"ce4bhi12rcd13ifvqfo0","pricing_plan_id":"cebpf4jnsgd1na2vs0mg"},{"bike_id":"30c759a2-6df1-49dd-8b4a-2f09b3c85fab","system_id":"levelo_inurba_marseille","lat":43.28117,"lon":5.37833,"is_reserved":false,"is_disabled":false,"rental_uris":{"android":"levelo://app?vid=30c759a2-6df1-49dd-8b4a-2f09b3c85fab","ios":"levelo://app?vid=30c759a2-6df1-49dd-8b4a-2f09b3c85fab"},"vehicle_type_id":"4","last_reported":1731078575,"current_range_meters":27600,"station_id":"ce4bha12rcd13ifvqee0","pricing_plan_id":"cebpf4jnsgd1na2vs0mg"},{"bike_id":"73ab35f1-bfdb-4678-85b3-28a9d7db8a08","system_id":"levelo_inurba_marseille","lat":43.28396,"lon":5.34992,"is_reserved":false,"is_disabled":false,"rental_uris":{"android":"levelo://app?vid=73ab35f1-bfdb-4678-85b3-28a9d7db8a08","ios":"levelo://app?vid=73ab35f1-bfdb-4678-85b3-28a9d7db8a08"},"vehicle_type_id":"4","last_reported":1731078575,"current_range_meters":38800,"station_id":"ce4bhbh2rcd13ifvqepg","pricing_plan_id":"cebpf4jnsgd1na2vs0mg"},{"bike_id":"07c9af65-805c-469d-aa55-80ed91b67d78","system_id":"levelo_inurba_marseille","lat":43.29009,"lon":5.35613,"is_reserved":false,"is_disabled":false,"rental_uris":{"android":"levelo://app?vid=07c9af65-805c-469d-aa55-80ed91b67d78","ios":"levelo://app?vid=07c9af65-805c-469d-aa55-80ed91b67d78"},"vehicle_type_id":"4","last_reported":1731078575,"current_range_meters":6400,"station_id":"ce4bhb92rcd13ifvqen0","pricing_plan_id":"cebpf4jnsgd1na2vs0mg"},{"bike_id":"4f6128d8-e871-40a0-be04-821c5a2691a8","system_id":"levelo_inurba_marseille","lat":43.29557,"lon":5.4229,"is_reserved":false,"is_disabled":false,"rental_uris":{"android":"levelo://app?vid=4f6128d8-e871-40a0-be04-821c5a2691a8","ios":"levelo://app?vid=4f6128d8-e871-40a0-be04-821c5a2691a8"},"vehicle_type_id":"4","last_reported":1731078575,"current_range_meters":28400,"station_id":"ce4bhph2rcd13ifvqhdg","pricing_plan_id":"cebpf4jnsgd1na2vs0mg"},{"bike_id":"f6762cfa-9682-44e6-ab14-e1186ac13749","system_id":"levelo_inurba_marseille","lat":43.30142,"lon":5.37419,"is_reserved":false,"is_disabled":false,"rental_uris":{"android":"levelo://app?vid=f6762cfa-9682-44e6-ab14-e1186ac13749","ios":"levelo://app?vid=f6762cfa-9682-44e6-ab14-e1186ac13749"},"vehicle_type_id":"4","last_reported":1731078575,"current_range_meters":6000,"station_id":"ce4bgs92rcd13ifvqcc0","pricing_plan_id":"cebpf4jnsgd1na2vs0mg"},{"bike_id":"7fc30109-231e-43de-a1dd-8deb3c30d0a6","system_id":"levelo_inurba_marseille","lat":43.29916,"lon":5.37462,"is_reserved":false,"is_disabled":false,"rental_uris":{"android":"levelo://app?vid=7fc30109-231e-43de-a1dd-8deb3c30d0a6","ios":"levelo://app?vid=7fc30109-231e-43de-a1dd-8deb3c30d0a6"},"vehicle_type_id":"4","last_reported":1731078575,"current_range_meters":36400,"station_id":"ce4bgjh2rcd13ifvqbg0","pricing_plan_id":"cebpf4jnsgd1na2vs0mg"},{"bike_id":"a0d9d5ae-de17-4341-bed9-edfa4e4e8139","system_id":"levelo_inurba_marseille","lat":43.299683,"lon":5.384788,"is_reserved":false,"is_disabled":false,"rental_uris":{"android":"levelo://app?vid=a0d9d5ae-de17-4341-bed9-edfa4e4e8139","ios":"levelo://app?vid=a0d9d5ae-de17-4341-bed9-edfa4e4e8139"},"vehicle_type_id":"4","last_reported":1731078575,"current_range_meters":7200,"station_id":"ce4bgj92rcd13ifvqbd0","pricing_plan_id":"cebpf4jnsgd1na2vs0mg"},{"bike_id":"a975bb62-7939-4950-8ec2-893f06aa4b49","system_id":"levelo_inurba_marseille","lat":43.30148,"lon":5.37423,"is_reserved":false,"is_disabled":false,"rental_uris":{"android":"levelo://app?vid=a975bb62-7939-4950-8ec2-893f06aa4b49","ios":"levelo://app?vid=a975bb62-7939-4950-8ec2-893f06aa4b49"},"vehicle_type_id":"4","last_reported":1731078575,"current_range_meters":12400,"station_id":"ce4bgs92rcd13ifvqcc0","pricing_plan_id":"cebpf4jnsgd1na2vs0mg"},{"bike_id":"82ec2319-0d8b-4ef6-aead-a056bf055651","system_id":"levelo_inurba_marseille","lat":43.29266,"lon":5.3844,"is_reserved":false,"is_disabled":false,"rental_uris":{"android":"levelo://app?vid=82ec2319-0d8b-4ef6-aead-a056bf055651","ios":"levelo://app?vid=82ec2319-0d8b-4ef6-aead-a056bf055651"},"vehicle_type_id":"4","last_reported":1731078575,"current_range_meters":23200,"station_id":"ce4bh692rcd13ifvqea0","pricing_plan_id":"cebpf4jnsgd1na2vs0mg"},{"bike_id":"ff72051d-7e8f-46d3-bc5a-ce8f35154003","system_id":"levelo_inurba_marseille","lat":43.28618,"lon":5.35105,"is_reserved":false,"is_disabled":false,"rental_uris":{"android":"levelo://app?vid=ff72051d-7e8f-46d3-bc5a-ce8f35154003","ios":"levelo://app?vid=ff72051d-7e8f-46d3-bc5a-ce8f35154003"},"vehicle_type_id":"4","last_reported":1731078575,"current_range_meters":38800,"station_id":"ce4bhch2rcd13ifvqeug","pricing_plan_id":"cebpf4jnsgd1na2vs0mg"},{"bike_id":"99e03d11-763b-4e9c-ba9a-0c9a2185b360","system_id":"levelo_inurba_marseille","lat":43.32484,"lon":5.3657,"is_reserved":false,"is_disabled":false,"rental_uris":{"android":"levelo://app?vid=99e03d11-763b-4e9c-ba9a-0c9a2185b360","ios":"levelo://app?vid=99e03d11-763b-4e9c-ba9a-0c9a2185b360"},"vehicle_type_id":"4","last_reported":1731078575,"current_range_meters":36400,"station_id":"ce4bhs12rcd13ifvqhvg","pricing_plan_id":"cebpf4jnsgd1na2vs0mg"},{"bike_id":"1d7c7472-07e9-478e-9770-7d1bbe4b462d","system_id":"levelo_inurba_marseille","lat":43.33747,"lon":5.37471,"is_reserved":false,"is_disabled":false,"rental_uris":{"android":"levelo://app?vid=1d7c7472-07e9-478e-9770-7d1bbe4b462d","ios":"levelo://app?vid=1d7c7472-07e9-478e-9770-7d1bbe4b462d"},"vehicle_type_id":"4","last_reported":1731078575,"current_range_meters":36000,"station_id":"","pricing_plan_id":"cebpf4jnsgd1na2vs0mg"},{"bike_id":"7523d551-6c6b-4056-8b9d-907021a21a00","system_id":"levelo_inurba_marseille","lat":43.31359,"lon":5.36708,"is_reserved":false,"is_disabled":false,"rental_uris":{"android":"levelo://app?vid=7523d551-6c6b-4056-8b9d-907021a21a00","ios":"levelo://app?vid=7523d551-6c6b-4056-8b9d-907021a21a00"},"vehicle_type_id":"4","last_reported":1731078575,"current_range_meters":21600,"station_id":"ce4bgr92rcd13ifvqc6g","pricing_plan_id":"cebpf4jnsgd1na2vs0mg"},{"bike_id":"af4daf64-18f9-41ec-b8bd-1df711ac30af","system_id":"levelo_inurba_marseille","lat":43.31218,"lon":5.3685,"is_reserved":false,"is_disabled":false,"rental_uris":{"android":"levelo://app?vid=af4daf64-18f9-41ec-b8bd-1df711ac30af","ios":"levelo://app?vid=af4daf64-18f9-41ec-b8bd-1df711ac30af"},"vehicle_type_id":"4","last_reported":1731078575,"current_range_meters":30000,"station_id":"ce4bgl92rcd13ifvqbq0","pricing_plan_id":"cebpf4jnsgd1na2vs0mg"},{"bike_id":"0c0eb7fc-6d7d-456b-8eea-a0af95a1f642","system_id":"levelo_inurba_marseille","lat":43.2963,"lon":5.40594,"is_reserved":false,"is_disabled":false,"rental_uris":{"android":"levelo://app?vid=0c0eb7fc-6d7d-456b-8eea-a0af95a1f642","ios":"levelo://app?vid=0c0eb7fc-6d7d-456b-8eea-a0af95a1f642"},"vehicle_type_id":"4","last_reported":1731078575,"current_range_meters":2800,"station_id":"ce4bh0h2rcd13ifvqd60","pricing_plan_id":"cebpf4jnsgd1na2vs0mg"},{"bike_id":"92bbe5af-b5d9-48fc-afb8-3b15fc8d3190","system_id":"levelo_inurba_marseille","lat":43.3172,"lon":5.42408,"is_reserved":false,"is_disabled":false,"rental_uris":{"android":"levelo://app?vid=92bbe5af-b5d9-48fc-afb8-3b15fc8d3190","ios":"levelo://app?vid=92bbe5af-b5d9-48fc-afb8-3b15fc8d3190"},"vehicle_type_id":"4","last_reported":1731078575,"current_range_meters":28400,"station_id":"ce4bhp92rcd13ifvqhbg","pricing_plan_id":"cebpf4jnsgd1na2vs0mg"},{"bike_id":"6407d84b-9d30-4370-8917-bbaa192f0fdf","system_id":"levelo_inurba_marseille","lat":43.29376,"lon":5.37855,"is_reserved":false,"is_disabled":false,"rental_uris":{"android":"levelo://app?vid=6407d84b-9d30-4370-8917-bbaa192f0fdf","ios":"levelo://app?vid=6407d84b-9d30-4370-8917-bbaa192f0fdf"},"vehicle_type_id":"4","last_reported":1731078575,"current_range_meters":34000,"station_id":"ce4bgjh2rcd13ifvqbf0","pricing_plan_id":"cebpf4jnsgd1na2vs0mg"},{"bike_id":"bff1be93-1c28-4a5e-b29d-d223c1eaeb77","system_id":"levelo_inurba_marseille","lat":43.30282,"lon":5.37708,"is_reserved":false,"is_disabled":false,"rental_uris":{"android":"levelo://app?vid=bff1be93-1c28-4a5e-b29d-d223c1eaeb77","ios":"levelo://app?vid=bff1be93-1c28-4a5e-b29d-d223c1eaeb77"},"vehicle_type_id":"4","last_reported":1731078575,"current_range_meters":16800,"station_id":"ce4bguh2rcd13ifvqcj0","pricing_plan_id":"cebpf4jnsgd1na2vs0mg"},{"bike_id":"ae6411f3-ae31-4f90-8975-cbb8b6d77600","system_id":"levelo_inurba_marseille","lat":43.32482,"lon":5.36574,"is_reserved":false,"is_disabled":false,"rental_uris":{"android":"levelo://app?vid=ae6411f3-ae31-4f90-8975-cbb8b6d77600","ios":"levelo://app?vid=ae6411f3-ae31-4f90-8975-cbb8b6d77600"},"vehicle_type_id":"4","last_reported":1731078575,"current_range_meters":10000,"station_id":"ce4bhs12rcd13ifvqhvg","pricing_plan_id":"cebpf4jnsgd1na2vs0mg"},{"bike_id":"7887e6e5-96f8-4d2e-b005-d9e84387aa95","system_id":"levelo_inurba_marseille","lat":43.29847,"lon":5.36286,"is_reserved":false,"is_disabled":false,"rental_uris":{"android":"levelo://app?vid=7887e6e5-96f8-4d2e-b005-d9e84387aa95","ios":"levelo://app?vid=7887e6e5-96f8-4d2e-b005-d9e84387aa95"},"vehicle_type_id":"4","last_reported":1731078575,"current_range_meters":31200,"station_id":"ce4bgpp2rcd13ifvqc3g","pricing_plan_id":"cebpf4jnsgd1na2vs0mg"},{"bike_id":"b547aa08-7140-4408-994f-abbf3400626e","system_id":"levelo_inurba_marseille","lat":43.2804,"lon":5.36948,"is_reserved":false,"is_disabled":false,"rental_uris":{"android":"levelo://app?vid=b547aa08-7140-4408-994f-abbf3400626e","ios":"levelo://app?vid=b547aa08-7140-4408-994f-abbf3400626e"},"vehicle_type_id":"4","last_reported":1731078575,"current_range_meters":38800,"station_id":"ce4bha12rcd13ifvqef0","pricing_plan_id":"cebpf4jnsgd1na2vs0mg"},{"bike_id":"4adc051b-cab2-444f-a4c6-933d4708baf0","system_id":"levelo_inurba_marseille","lat":43.31716,"lon":5.42395,"is_reserved":false,"is_disabled":false,"rental_uris":{"android":"levelo://app?vid=4adc051b-cab2-444f-a4c6-933d4708baf0","ios":"levelo://app?vid=4adc051b-cab2-444f-a4c6-933d4708baf0"},"vehicle_type_id":"4","last_reported":1731078575,"current_range_meters":13600,"station_id":"ce4bhp92rcd13ifvqhbg","pricing_plan_id":"cebpf4jnsgd1na2vs0mg"},{"bike_id":"865624fb-3d85-4ce1-b135-d88cbdbbde39","system_id":"levelo_inurba_marseille","lat":43.24651,"lon":5.38894,"is_reserved":false,"is_disabled":false,"rental_uris":{"android":"levelo://app?vid=865624fb-3d85-4ce1-b135-d88cbdbbde39","ios":"levelo://app?vid=865624fb-3d85-4ce1-b135-d88cbdbbde39"},"vehicle_type_id":"4","last_reported":1731078575,"current_range_meters":25600,"station_id":"ce4bhg12rcd13ifvqf60","pricing_plan_id":"cebpf4jnsgd1na2vs0mg"},{"bike_id":"712e4f2a-5cfe-4d8d-9cd8-052c2394481a","system_id":"levelo_inurba_marseille","lat":43.28567,"lon":5.39503,"is_reserved":false,"is_disabled":false,"rental_uris":{"android":"levelo://app?vid=712e4f2a-5cfe-4d8d-9cd8-052c2394481a","ios":"levelo://app?vid=712e4f2a-5cfe-4d8d-9cd8-052c2394481a"},"vehicle_type_id":"4","last_reported":1731078575,"current_range_meters":18800,"station_id":"ce4bh292rcd13ifvqdg0","pricing_plan_id":"cebpf4jnsgd1na2vs0mg"},{"bike_id":"dfe21dd0-d006-4064-832d-d78aaab747de","system_id":"levelo_inurba_marseille","lat":43.31174,"lon":5.38715,"is_reserved":false,"is_disabled":false,"rental_uris":{"android":"levelo://app?vid=dfe21dd0-d006-4064-832d-d78aaab747de","ios":"levelo://app?vid=dfe21dd0-d006-4064-832d-d78aaab747de"},"vehicle_type_id":"4","last_reported":1731078575,"current_range_meters":3600,"station_id":"ce4bgv12rcd13ifvqcp0","pricing_plan_id":"cebpf4jnsgd1na2vs0mg"},{"bike_id":"2058d8e6-9747-4a8f-9594-4c60049004ba","system_id":"levelo_inurba_marseille","lat":43.29905,"lon":5.38142,"is_reserved":false,"is_disabled":false,"rental_uris":{"android":"levelo://app?vid=2058d8e6-9747-4a8f-9594-4c60049004ba","ios":"levelo://app?vid=2058d8e6-9747-4a8f-9594-4c60049004ba"},"vehicle_type_id":"4","last_reported":1731078575,"current_range_meters":38800,"station_id":"ce4bgj12rcd13ifvqbc0","pricing_plan_id":"cebpf4jnsgd1na2vs0mg"},{"bike_id":"5209f6c7-271c-417e-8966-d222b3ad5a7a","system_id":"levelo_inurba_marseille","lat":43.27556,"lon":5.38435,"is_reserved":false,"is_disabled":false,"rental_uris":{"android":"levelo://app?vid=5209f6c7-271c-417e-8966-d222b3ad5a7a","ios":"levelo://app?vid=5209f6c7-271c-417e-8966-d222b3ad5a7a"},"vehicle_type_id":"4","last_reported":1731078575,"current_range_meters":24000,"station_id":"ce4bhh92rcd13ifvqfi0","pricing_plan_id":"cebpf4jnsgd1na2vs0mg"},{"bike_id":"2bbcb9cc-f8b8-4b14-879a-f3df66920005","system_id":"levelo_inurba_marseille","lat":43.31229,"lon":5.36862,"is_reserved":false,"is_disabled":false,"rental_uris":{"android":"levelo://app?vid=2bbcb9cc-f8b8-4b14-879a-f3df66920005","ios":"levelo://app?vid=2bbcb9cc-f8b8-4b14-879a-f3df66920005"},"vehicle_type_id":"4","last_reported":1731078575,"current_range_meters":20000,"station_id":"ce4bgl92rcd13ifvqbq0","pricing_plan_id":"cebpf4jnsgd1na2vs0mg"},{"bike_id":"1f358bda-90fc-43ae-befa-11454a70c1cb","system_id":"levelo_inurba_marseille","lat":43.29576,"lon":5.37512,"is_reserved":false,"is_disabled":false,"rental_uris":{"android":"levelo://app?vid=1f358bda-90fc-43ae-befa-11454a70c1cb","ios":"levelo://app?vid=1f358bda-90fc-43ae-befa-11454a70c1cb"},"vehicle_type_id":"4","last_reported":1731078575,"current_range_meters":35600,"station_id":"ce4bgh92rcd13ifvqb50","pricing_plan_id":"cebpf4jnsgd1na2vs0mg"},{"bike_id":"9bf1ad50-3417-42d2-b68f-80550f98b064","system_id":"levelo_inurba_marseille","lat":43.27657,"lon":5.38916,"is_reserved":false,"is_disabled":false,"rental_uris":{"android":"levelo://app?vid=9bf1ad50-3417-42d2-b68f-80550f98b064","ios":"levelo://app?vid=9bf1ad50-3417-42d2-b68f-80550f98b064"},"vehicle_type_id":"4","last_reported":1731078575,"current_range_meters":38800,"station_id":"ce4bhi12rcd13ifvqfo0","pricing_plan_id":"cebpf4jnsgd1na2vs0mg"},{"bike_id":"b8af8720-1ef6-448f-847b-92f574c1fea4","system_id":"levelo_inurba_marseille","lat":43.310746,"lon":5.382685,"is_reserved":false,"is_disabled":false,"rental_uris":{"android":"levelo://app?vid=b8af8720-1ef6-448f-847b-92f574c1fea4","ios":"levelo://app?vid=b8af8720-1ef6-448f-847b-92f574c1fea4"},"vehicle_type_id":"4","last_reported":1731078575,"current_range_meters":3600,"station_id":"ce4bh2h2rcd13ifvqdh0","pricing_plan_id":"cebpf4jnsgd1na2vs0mg"},{"bike_id":"f50e857c-e79e-4585-b438-3487e1d543d2","system_id":"levelo_inurba_marseille","lat":43.23965,"lon":5.36632,"is_reserved":false,"is_disabled":false,"rental_uris":{"android":"levelo://app?vid=f50e857c-e79e-4585-b438-3487e1d543d2","ios":"levelo://app?vid=f50e857c-e79e-4585-b438-3487e1d543d2"},"vehicle_type_id":"4","last_reported":1731078575,"current_range_meters":7200,"station_id":"ce4bhi12rcd13ifvqfp0","pricing_plan_id":"cebpf4jnsgd1na2vs0mg"},{"bike_id":"9bf6cf1f-d187-4f3a-9c2e-9363666e8dfa","system_id":"levelo_inurba_marseille","lat":43.25501,"lon":5.37651,"is_reserved":false,"is_disabled":false,"rental_uris":{"android":"levelo://app?vid=9bf6cf1f-d187-4f3a-9c2e-9363666e8dfa","ios":"levelo://app?vid=9bf6cf1f-d187-4f3a-9c2e-9363666e8dfa"},"vehicle_type_id":"4","last_reported":1731078575,"current_range_meters":26000,"station_id":"ce4bhh12rcd13ifvqff0","pricing_plan_id":"cebpf4jnsgd1na2vs0mg"},{"bike_id":"972b7602-a823-4299-bffe-f5aa2987d6c7","system_id":"levelo_inurba_marseille","lat":43.25577,"lon":5.38242,"is_reserved":false,"is_disabled":false,"rental_uris":{"android":"levelo://app?vid=972b7602-a823-4299-bffe-f5aa2987d6c7","ios":"levelo://app?vid=972b7602-a823-4299-bffe-f5aa2987d6c7"},"vehicle_type_id":"4","last_reported":1731078575,"current_range_meters":10800,"station_id":"ce4bhih2rcd13ifvqfs0","pricing_plan_id":"cebpf4jnsgd1na2vs0mg"},{"bike_id":"4da14e1b-131c-41ff-a192-5be6d8c75907","system_id":"levelo_inurba_marseille","lat":43.24817,"lon":5.37458,"is_reserved":false,"is_disabled":false,"rental_uris":{"android":"levelo://app?vid=4da14e1b-131c-41ff-a192-5be6d8c75907","ios":"levelo://app?vid=4da14e1b-131c-41ff-a192-5be6d8c75907"},"vehicle_type_id":"4","last_reported":1731078575,"current_range_meters":15200,"station_id":"ce4bhgh2rcd13ifvqfb0","pricing_plan_id":"cebpf4jnsgd1na2vs0mg"},{"bike_id":"df1d09e1-93ae-4690-a1a7-b2d0dfc29687","system_id":"levelo_inurba_marseille","lat":43.28941,"lon":5.36638,"is_reserved":false,"is_disabled":false,"rental_uris":{"android":"levelo://app?vid=df1d09e1-93ae-4690-a1a7-b2d0dfc29687","ios":"levelo://app?vid=df1d09e1-93ae-4690-a1a7-b2d0dfc29687"},"vehicle_type_id":"4","last_reported":1731078575,"current_range_meters":16800,"station_id":"ce4bhap2rcd13ifvqek0","pricing_plan_id":"cebpf4jnsgd1na2vs0mg"},{"bike_id":"68c01669-f30f-491a-9194-f097e5fb8989","system_id":"levelo_inurba_marseille","lat":43.30793,"lon":5.3764,"is_reserved":false,"is_disabled":false,"rental_uris":{"android":"levelo://app?vid=68c01669-f30f-491a-9194-f097e5fb8989","ios":"levelo://app?vid=68c01669-f30f-491a-9194-f097e5fb8989"},"vehicle_type_id":"4","last_reported":1731078575,"current_range_meters":19600,"station_id":"ce4bgv92rcd13ifvqcq0","pricing_plan_id":"cebpf4jnsgd1na2vs0mg"},{"bike_id":"498762ca-a96b-45f1-a52e-35efd3fef939","system_id":"levelo_inurba_marseille","lat":43.27434,"lon":5.39412,"is_reserved":false,"is_disabled":false,"rental_uris":{"android":"levelo://app?vid=498762ca-a96b-45f1-a52e-35efd3fef939","ios":"levelo://app?vid=498762ca-a96b-45f1-a52e-35efd3fef939"},"vehicle_type_id":"4","last_reported":1731078575,"current_range_meters":38000,"station_id":"ce4bhdp2rcd13ifvqf20","pricing_plan_id":"cebpf4jnsgd1na2vs0mg"},{"bike_id":"5dddcce2-35f0-4716-8a42-23c2049a1eb9","system_id":"levelo_inurba_marseille","lat":43.30293,"lon":5.36908,"is_reserved":false,"is_disabled":false,"rental_uris":{"android":"levelo://app?vid=5dddcce2-35f0-4716-8a42-23c2049a1eb9","ios":"levelo://app?vid=5dddcce2-35f0-4716-8a42-23c2049a1eb9"},"vehicle_type_id":"4","last_reported":1731078575,"current_range_meters":22800,"station_id":"ce4bgqh2rcd13ifvqc5g","pricing_plan_id":"cebpf4jnsgd1na2vs0mg"},{"bike_id":"ff989801-f59b-46d1-867b-7c2b6eab1cca","system_id":"levelo_inurba_marseille","lat":43.337444,"lon":5.374475,"is_reserved":false,"is_disabled":false,"rental_uris":{"android":"levelo://app?vid=ff989801-f59b-46d1-867b-7c2b6eab1cca","ios":"levelo://app?vid=ff989801-f59b-46d1-867b-7c2b6eab1cca"},"vehicle_type_id":"4","last_reported":1731078575,"current_range_meters":38000,"station_id":"","pricing_plan_id":"cebpf4jnsgd1na2vs0mg"},{"bike_id":"eab9e695-9a87-4479-8d9c-13db92e6b0f4","system_id":"levelo_inurba_marseille","lat":43.29583,"lon":5.36742,"is_reserved":false,"is_disabled":false,"rental_uris":{"android":"levelo://app?vid=eab9e695-9a87-4479-8d9c-13db92e6b0f4","ios":"levelo://app?vid=eab9e695-9a87-4479-8d9c-13db92e6b0f4"},"vehicle_type_id":"4","last_reported":1731078575,"current_range_meters":38800,"station_id":"ce4bgph2rcd13ifvqc2g","pricing_plan_id":"cebpf4jnsgd1na2vs0mg"},{"bike_id":"7a111f95-0e6e-4864-809a-a23d3dc8fce5","system_id":"levelo_inurba_marseille","lat":43.28003,"lon":5.40012,"is_reserved":false,"is_disabled":false,"rental_uris":{"android":"levelo://app?vid=7a111f95-0e6e-4864-809a-a23d3dc8fce5","ios":"levelo://app?vid=7a111f95-0e6e-4864-809a-a23d3dc8fce5"},"vehicle_type_id":"4","last_reported":1731078575,"current_range_meters":36400,"station_id":"ce4bho92rcd13ifvqh4g","pricing_plan_id":"cebpf4jnsgd1na2vs0mg"},{"bike_id":"17f82b42-6551-4c0a-8ff1-d994768496b0","system_id":"levelo_inurba_marseille","lat":43.31482,"lon":5.37314,"is_reserved":false,"is_disabled":false,"rental_uris":{"android":"levelo://app?vid=17f82b42-6551-4c0a-8ff1-d994768496b0","ios":"levelo://app?vid=17f82b42-6551-4c0a-8ff1-d994768496b0"},"vehicle_type_id":"4","last_reported":1731078575,"current_range_meters":22000,"station_id":"ce4bgt12rcd13ifvqcd0","pricing_plan_id":"cebpf4jnsgd1na2vs0mg"},{"bike_id":"1ab7e98a-93ec-42a9-a1d3-86f79bc25158","system_id":"levelo_inurba_marseille","lat":43.25084,"lon":5.39525,"is_reserved":false,"is_disabled":false,"rental_uris":{"android":"levelo://app?vid=1ab7e98a-93ec-42a9-a1d3-86f79bc25158","ios":"levelo://app?vid=1ab7e98a-93ec-42a9-a1d3-86f79bc25158"},"vehicle_type_id":"4","last_reported":1731078575,"current_range_meters":16000,"station_id":"ce4bhm12rcd13ifvqgkg","pricing_plan_id":"cebpf4jnsgd1na2vs0mg"},{"bike_id":"acd3a113-4782-472a-9aa3-24b77925a532","system_id":"levelo_inurba_marseille","lat":43.30142,"lon":5.37428,"is_reserved":false,"is_disabled":false,"rental_uris":{"android":"levelo://app?vid=acd3a113-4782-472a-9aa3-24b77925a532","ios":"levelo://app?vid=acd3a113-4782-472a-9aa3-24b77925a532"},"vehicle_type_id":"4","last_reported":1731078575,"current_range_meters":33200,"station_id":"ce4bgs92rcd13ifvqcc0","pricing_plan_id":"cebpf4jnsgd1na2vs0mg"},{"bike_id":"d115c69c-dc61-4019-86ca-8f3ef1285cfb","system_id":"levelo_inurba_marseille","lat":43.22929,"lon":5.3538,"is_reserved":false,"is_disabled":false,"rental_uris":{"android":"levelo://app?vid=d115c69c-dc61-4019-86ca-8f3ef1285cfb","ios":"levelo://app?vid=d115c69c-dc61-4019-86ca-8f3ef1285cfb"},"vehicle_type_id":"4","last_reported":1731078575,"current_range_meters":36800,"station_id":"cpo3532slgdg3j2ikp40","pricing_plan_id":"cebpf4jnsgd1na2vs0mg"},{"bike_id":"f8a24c1d-a8b4-48f6-a1ac-0d8e2474857c","system_id":"levelo_inurba_marseille","lat":43.29538,"lon":5.38536,"is_reserved":false,"is_disabled":false,"rental_uris":{"android":"levelo://app?vid=f8a24c1d-a8b4-48f6-a1ac-0d8e2474857c","ios":"levelo://app?vid=f8a24c1d-a8b4-48f6-a1ac-0d8e2474857c"},"vehicle_type_id":"4","last_reported":1731078575,"current_range_meters":4000,"station_id":"ce4bgih2rcd13ifvqba0","pricing_plan_id":"cebpf4jnsgd1na2vs0mg"},{"bike_id":"e6c659d4-cfac-443a-b906-a030baf2bc9e","system_id":"levelo_inurba_marseille","lat":43.31172,"lon":5.38712,"is_reserved":false,"is_disabled":false,"rental_uris":{"android":"levelo://app?vid=e6c659d4-cfac-443a-b906-a030baf2bc9e","ios":"levelo://app?vid=e6c659d4-cfac-443a-b906-a030baf2bc9e"},"vehicle_type_id":"4","last_reported":1731078575,"current_range_meters":35600,"station_id":"ce4bgv12rcd13ifvqcp0","pricing_plan_id":"cebpf4jnsgd1na2vs0mg"},{"bike_id":"bdc0e56f-8ec1-460e-8532-2976e16b80ef","system_id":"levelo_inurba_marseille","lat":43.33751,"lon":5.37444,"is_reserved":false,"is_disabled":false,"rental_uris":{"android":"levelo://app?vid=bdc0e56f-8ec1-460e-8532-2976e16b80ef","ios":"levelo://app?vid=bdc0e56f-8ec1-460e-8532-2976e16b80ef"},"vehicle_type_id":"4","last_reported":1731078575,"current_range_meters":33600,"station_id":"","pricing_plan_id":"cebpf4jnsgd1na2vs0mg"},{"bike_id":"3a180623-7881-41d7-b46f-aa90796c4e85","system_id":"levelo_inurba_marseille","lat":43.29915,"lon":5.37456,"is_reserved":false,"is_disabled":false,"rental_uris":{"android":"levelo://app?vid=3a180623-7881-41d7-b46f-aa90796c4e85","ios":"levelo://app?vid=3a180623-7881-41d7-b46f-aa90796c4e85"},"vehicle_type_id":"4","last_reported":1731078575,"current_range_meters":37600,"station_id":"ce4bgjh2rcd13ifvqbg0","pricing_plan_id":"cebpf4jnsgd1na2vs0mg"},{"bike_id":"6ba9ca98-cdab-46e8-bcb3-d22861a3b09f","system_id":"levelo_inurba_marseille","lat":43.26212,"lon":5.37442,"is_reserved":false,"is_disabled":false,"rental_uris":{"android":"levelo://app?vid=6ba9ca98-cdab-46e8-bcb3-d22861a3b09f","ios":"levelo://app?vid=6ba9ca98-cdab-46e8-bcb3-d22861a3b09f"},"vehicle_type_id":"4","last_reported":1731078575,"current_range_meters":36800,"station_id":"ce4bhgp2rcd13ifvqfc0","pricing_plan_id":"cebpf4jnsgd1na2vs0mg"},{"bike_id":"66d2d3c0-5db0-4b08-b301-296ea4d20a6c","system_id":"levelo_inurba_marseille","lat":43.30527,"lon":5.36707,"is_reserved":false,"is_disabled":false,"rental_uris":{"android":"levelo://app?vid=66d2d3c0-5db0-4b08-b301-296ea4d20a6c","ios":"levelo://app?vid=66d2d3c0-5db0-4b08-b301-296ea4d20a6c"},"vehicle_type_id":"4","last_reported":1731078575,"current_range_meters":32400,"station_id":"ce4bgrp2rcd13ifvqc9g","pricing_plan_id":"cebpf4jnsgd1na2vs0mg"},{"bike_id":"a70f44b0-4ed6-4fd2-8a77-6ae02fd60b6a","system_id":"levelo_inurba_marseille","lat":43.32539,"lon":5.4146,"is_reserved":false,"is_disabled":false,"rental_uris":{"android":"levelo://app?vid=a70f44b0-4ed6-4fd2-8a77-6ae02fd60b6a","ios":"levelo://app?vid=a70f44b0-4ed6-4fd2-8a77-6ae02fd60b6a"},"vehicle_type_id":"4","last_reported":1731078575,"current_range_meters":38800,"station_id":"ce4bhq12rcd13ifvqhhg","pricing_plan_id":"cebpf4jnsgd1na2vs0mg"},{"bike_id":"ed366f95-9ba9-4569-a29b-9d8d122c6858","system_id":"levelo_inurba_marseille","lat":43.27815,"lon":5.40711,"is_reserved":false,"is_disabled":false,"rental_uris":{"android":"levelo://app?vid=ed366f95-9ba9-4569-a29b-9d8d122c6858","ios":"levelo://app?vid=ed366f95-9ba9-4569-a29b-9d8d122c6858"},"vehicle_type_id":"4","last_reported":1731078575,"current_range_meters":30400,"station_id":"ce4bhnh2rcd13ifvqgtg","pricing_plan_id":"cebpf4jnsgd1na2vs0mg"},{"bike_id":"56f76d8a-88f1-4b79-84cf-b9173b9ac200","system_id":"levelo_inurba_marseille","lat":43.28616,"lon":5.35112,"is_reserved":false,"is_disabled":false,"rental_uris":{"android":"levelo://app?vid=56f76d8a-88f1-4b79-84cf-b9173b9ac200","ios":"levelo://app?vid=56f76d8a-88f1-4b79-84cf-b9173b9ac200"},"vehicle_type_id":"4","last_reported":1731078575,"current_range_meters":31200,"station_id":"ce4bhch2rcd13ifvqeug","pricing_plan_id":"cebpf4jnsgd1na2vs0mg"},{"bike_id":"0cd0e20b-ac9d-4a96-9e6a-f20be668e72a","system_id":"levelo_inurba_marseille","lat":43.29584,"lon":5.40023,"is_reserved":false,"is_disabled":false,"rental_uris":{"android":"levelo://app?vid=0cd0e20b-ac9d-4a96-9e6a-f20be668e72a","ios":"levelo://app?vid=0cd0e20b-ac9d-4a96-9e6a-f20be668e72a"},"vehicle_type_id":"4","last_reported":1731078575,"current_range_meters":5600,"station_id":"ce4bh312rcd13ifvqdj0","pricing_plan_id":"cebpf4jnsgd1na2vs0mg"},{"bike_id":"075009e3-0292-4708-ae54-9cee5fc4f050","system_id":"levelo_inurba_marseille","lat":43.25118,"lon":5.40319,"is_reserved":false,"is_disabled":false,"rental_uris":{"android":"levelo://app?vid=075009e3-0292-4708-ae54-9cee5fc4f050","ios":"levelo://app?vid=075009e3-0292-4708-ae54-9cee5fc4f050"},"vehicle_type_id":"4","last_reported":1731078575,"current_range_meters":2800,"station_id":"ce4bhlh2rcd13ifvqgig","pricing_plan_id":"cebpf4jnsgd1na2vs0mg"},{"bike_id":"f1b44f8b-13cd-46c9-a983-9cf36f83854e","system_id":"levelo_inurba_marseille","lat":43.24062,"lon":5.37766,"is_reserved":false,"is_disabled":false,"rental_uris":{"android":"levelo://app?vid=f1b44f8b-13cd-46c9-a983-9cf36f83854e","ios":"levelo://app?vid=f1b44f8b-13cd-46c9-a983-9cf36f83854e"},"vehicle_type_id":"4","last_reported":1731078575,"current_range_meters":16000,"station_id":"ce4bhnp2rcd13ifvqgvg","pricing_plan_id":"cebpf4jnsgd1na2vs0mg"},{"bike_id":"02f3bd69-c440-439f-96d2-1f56246cbb70","system_id":"levelo_inurba_marseille","lat":43.23055,"lon":5.35489,"is_reserved":false,"is_disabled":false,"rental_uris":{"android":"levelo://app?vid=02f3bd69-c440-439f-96d2-1f56246cbb70","ios":"levelo://app?vid=02f3bd69-c440-439f-96d2-1f56246cbb70"},"vehicle_type_id":"4","last_reported":1731078575,"current_range_meters":32000,"station_id":"cpo3342slgdg3j2ifvpg","pricing_plan_id":"cebpf4jnsgd1na2vs0mg"},{"bike_id":"bf910532-c36d-4142-b790-0993375eb461","system_id":"levelo_inurba_marseille","lat":43.29597,"lon":5.38096,"is_reserved":false,"is_disabled":false,"rental_uris":{"android":"levelo://app?vid=bf910532-c36d-4142-b790-0993375eb461","ios":"levelo://app?vid=bf910532-c36d-4142-b790-0993375eb461"},"vehicle_type_id":"4","last_reported":1731078575,"current_range_meters":30400,"station_id":"ce4bgl12rcd13ifvqbo0","pricing_plan_id":"cebpf4jnsgd1na2vs0mg"},{"bike_id":"a59d71b2-02e1-4eaf-95b0-3e6caa2b5967","system_id":"levelo_inurba_marseille","lat":43.27186,"lon":5.40984,"is_reserved":false,"is_disabled":false,"rental_uris":{"android":"levelo://app?vid=a59d71b2-02e1-4eaf-95b0-3e6caa2b5967","ios":"levelo://app?vid=a59d71b2-02e1-4eaf-95b0-3e6caa2b5967"},"vehicle_type_id":"4","last_reported":1731078575,"current_range_meters":38000,"station_id":"ce4bhl12rcd13ifvqgf0","pricing_plan_id":"cebpf4jnsgd1na2vs0mg"},{"bike_id":"9b79ec55-8a72-45c1-9dce-4d3ce7922956","system_id":"levelo_inurba_marseille","lat":43.26026,"lon":5.37551,"is_reserved":false,"is_disabled":false,"rental_uris":{"android":"levelo://app?vid=9b79ec55-8a72-45c1-9dce-4d3ce7922956","ios":"levelo://app?vid=9b79ec55-8a72-45c1-9dce-4d3ce7922956"},"vehicle_type_id":"4","last_reported":1731078575,"current_range_meters":38000,"station_id":"ce4bhgh2rcd13ifvqfa0","pricing_plan_id":"cebpf4jnsgd1na2vs0mg"},{"bike_id":"4a8a0bef-4f6e-46c9-9e8a-597b8622bca1","system_id":"levelo_inurba_marseille","lat":43.28617,"lon":5.37064,"is_reserved":false,"is_disabled":false,"rental_uris":{"android":"levelo://app?vid=4a8a0bef-4f6e-46c9-9e8a-597b8622bca1","ios":"levelo://app?vid=4a8a0bef-4f6e-46c9-9e8a-597b8622bca1"},"vehicle_type_id":"4","last_reported":1731078575,"current_range_meters":34800,"station_id":"ce4bht12rcd13ifvqi60","pricing_plan_id":"cebpf4jnsgd1na2vs0mg"},{"bike_id":"04c33c41-7d2c-4ad1-9547-7c592fdb82f1","system_id":"levelo_inurba_marseille","lat":43.31752,"lon":5.39021,"is_reserved":false,"is_disabled":false,"rental_uris":{"android":"levelo://app?vid=04c33c41-7d2c-4ad1-9547-7c592fdb82f1","ios":"levelo://app?vid=04c33c41-7d2c-4ad1-9547-7c592fdb82f1"},"vehicle_type_id":"4","last_reported":1731078575,"current_range_meters":38000,"station_id":"ce4bhqp2rcd13ifvqhng","pricing_plan_id":"cebpf4jnsgd1na2vs0mg"},{"bike_id":"5ad33044-078c-4a69-a97f-5291ef3076d1","system_id":"levelo_inurba_marseille","lat":43.29191,"lon":5.39323,"is_reserved":false,"is_disabled":false,"rental_uris":{"android":"levelo://app?vid=5ad33044-078c-4a69-a97f-5291ef3076d1","ios":"levelo://app?vid=5ad33044-078c-4a69-a97f-5291ef3076d1"},"vehicle_type_id":"4","last_reported":1731078575,"current_range_meters":15200,"station_id":"ce4bh192rcd13ifvqdd0","pricing_plan_id":"cebpf4jnsgd1na2vs0mg"},{"bike_id":"a28cfdeb-e930-467b-915e-09543549bbe8","system_id":"levelo_inurba_marseille","lat":43.3123,"lon":5.36869,"is_reserved":false,"is_disabled":false,"rental_uris":{"android":"levelo://app?vid=a28cfdeb-e930-467b-915e-09543549bbe8","ios":"levelo://app?vid=a28cfdeb-e930-467b-915e-09543549bbe8"},"vehicle_type_id":"4","last_reported":1731078575,"current_range_meters":8000,"station_id":"ce4bgl92rcd13ifvqbq0","pricing_plan_id":"cebpf4jnsgd1na2vs0mg"},{"bike_id":"9548b370-6a53-4383-af98-6b257208416b","system_id":"levelo_inurba_marseille","lat":43.27307,"lon":5.39088,"is_reserved":false,"is_disabled":false,"rental_uris":{"android":"levelo://app?vid=9548b370-6a53-4383-af98-6b257208416b","ios":"levelo://app?vid=9548b370-6a53-4383-af98-6b257208416b"},"vehicle_type_id":"4","last_reported":1731078575,"current_range_meters":38000,"station_id":"ce4bhgp2rcd13ifvqfe0","pricing_plan_id":"cebpf4jnsgd1na2vs0mg"},{"bike_id":"357ff3af-7e99-4040-9885-6c4d0f46afec","system_id":"levelo_inurba_marseille","lat":43.291443,"lon":5.3847,"is_reserved":false,"is_disabled":false,"rental_uris":{"android":"levelo://app?vid=357ff3af-7e99-4040-9885-6c4d0f46afec","ios":"levelo://app?vid=357ff3af-7e99-4040-9885-6c4d0f46afec"},"vehicle_type_id":"4","last_reported":1731078575,"current_range_meters":24400,"station_id":"ce4bh4p2rcd13ifvqe0g","pricing_plan_id":"cebpf4jnsgd1na2vs0mg"},{"bike_id":"4395b046-aa44-4241-9210-2560e4632e6e","system_id":"levelo_inurba_marseille","lat":43.29277,"lon":5.38433,"is_reserved":false,"is_disabled":false,"rental_uris":{"android":"levelo://app?vid=4395b046-aa44-4241-9210-2560e4632e6e","ios":"levelo://app?vid=4395b046-aa44-4241-9210-2560e4632e6e"},"vehicle_type_id":"4","last_reported":1731078575,"current_range_meters":17200,"station_id":"ce4bh692rcd13ifvqea0","pricing_plan_id":"cebpf4jnsgd1na2vs0mg"},{"bike_id":"c474cdf1-5079-4ad6-92b8-6008d621e888","system_id":"levelo_inurba_marseille","lat":43.30553,"lon":5.38416,"is_reserved":false,"is_disabled":false,"rental_uris":{"android":"levelo://app?vid=c474cdf1-5079-4ad6-92b8-6008d621e888","ios":"levelo://app?vid=c474cdf1-5079-4ad6-92b8-6008d621e888"},"vehicle_type_id":"4","last_reported":1731078575,"current_range_meters":8800,"station_id":"ce4bgg92rcd13ifvqb30","pricing_plan_id":"cebpf4jnsgd1na2vs0mg"},{"bike_id":"ed30d86f-62f3-420e-87e4-9310348d94a0","system_id":"levelo_inurba_marseille","lat":43.30805,"lon":5.38143,"is_reserved":false,"is_disabled":false,"rental_uris":{"android":"levelo://app?vid=ed30d86f-62f3-420e-87e4-9310348d94a0","ios":"levelo://app?vid=ed30d86f-62f3-420e-87e4-9310348d94a0"},"vehicle_type_id":"4","last_reported":1731078575,"current_range_meters":36400,"station_id":"ce4bgt12rcd13ifvqce0","pricing_plan_id":"cebpf4jnsgd1na2vs0mg"},{"bike_id":"0629abdd-f8b8-4dbe-b5b6-c5c340e90865","system_id":"levelo_inurba_marseille","lat":43.29985,"lon":5.38488,"is_reserved":false,"is_disabled":false,"rental_uris":{"android":"levelo://app?vid=0629abdd-f8b8-4dbe-b5b6-c5c340e90865","ios":"levelo://app?vid=0629abdd-f8b8-4dbe-b5b6-c5c340e90865"},"vehicle_type_id":"4","last_reported":1731078575,"current_range_meters":9200,"station_id":"ce4bgj92rcd13ifvqbd0","pricing_plan_id":"cebpf4jnsgd1na2vs0mg"},{"bike_id":"692a78bd-ec81-41e1-a11d-e1889abe5871","system_id":"levelo_inurba_marseille","lat":43.31362,"lon":5.36703,"is_reserved":false,"is_disabled":false,"rental_uris":{"android":"levelo://app?vid=692a78bd-ec81-41e1-a11d-e1889abe5871","ios":"levelo://app?vid=692a78bd-ec81-41e1-a11d-e1889abe5871"},"vehicle_type_id":"4","last_reported":1731078575,"current_range_meters":38800,"station_id":"ce4bgr92rcd13ifvqc6g","pricing_plan_id":"cebpf4jnsgd1na2vs0mg"},{"bike_id":"22c450cd-71d7-41c8-8d6d-31cb420ce2b6","system_id":"levelo_inurba_marseille","lat":43.28408,"lon":5.34982,"is_reserved":false,"is_disabled":false,"rental_uris":{"android":"levelo://app?vid=22c450cd-71d7-41c8-8d6d-31cb420ce2b6","ios":"levelo://app?vid=22c450cd-71d7-41c8-8d6d-31cb420ce2b6"},"vehicle_type_id":"4","last_reported":1731078575,"current_range_meters":20800,"station_id":"ce4bhbh2rcd13ifvqepg","pricing_plan_id":"cebpf4jnsgd1na2vs0mg"},{"bike_id":"5a5ae5f3-dee7-4af5-82c9-56d3e182d8c3","system_id":"levelo_inurba_marseille","lat":43.27322,"lon":5.39088,"is_reserved":false,"is_disabled":false,"rental_uris":{"android":"levelo://app?vid=5a5ae5f3-dee7-4af5-82c9-56d3e182d8c3","ios":"levelo://app?vid=5a5ae5f3-dee7-4af5-82c9-56d3e182d8c3"},"vehicle_type_id":"4","last_reported":1731078575,"current_range_meters":28000,"station_id":"ce4bhgp2rcd13ifvqfe0","pricing_plan_id":"cebpf4jnsgd1na2vs0mg"},{"bike_id":"fbcf838c-839d-44a8-b106-b02b0a032c4e","system_id":"levelo_inurba_marseille","lat":43.28435,"lon":5.39192,"is_reserved":false,"is_disabled":false,"rental_uris":{"android":"levelo://app?vid=fbcf838c-839d-44a8-b106-b02b0a032c4e","ios":"levelo://app?vid=fbcf838c-839d-44a8-b106-b02b0a032c4e"},"vehicle_type_id":"4","last_reported":1731078575,"current_range_meters":24800,"station_id":"ce4bhoh2rcd13ifvqh5g","pricing_plan_id":"cebpf4jnsgd1na2vs0mg"},{"bike_id":"11916bc5-c662-4e28-b0c0-4403f2293fbb","system_id":"levelo_inurba_marseille","lat":43.3375,"lon":5.37449,"is_reserved":false,"is_disabled":false,"rental_uris":{"android":"levelo://app?vid=11916bc5-c662-4e28-b0c0-4403f2293fbb","ios":"levelo://app?vid=11916bc5-c662-4e28-b0c0-4403f2293fbb"},"vehicle_type_id":"4","last_reported":1731078575,"current_range_meters":36400,"station_id":"","pricing_plan_id":"cebpf4jnsgd1na2vs0mg"},{"bike_id":"a43fa9f0-7b83-4192-82be-e8df965f1426","system_id":"levelo_inurba_marseille","lat":43.29553,"lon":5.4229,"is_reserved":false,"is_disabled":false,"rental_uris":{"android":"levelo://app?vid=a43fa9f0-7b83-4192-82be-e8df965f1426","ios":"levelo://app?vid=a43fa9f0-7b83-4192-82be-e8df965f1426"},"vehicle_type_id":"4","last_reported":1731078575,"current_range_meters":17600,"station_id":"ce4bhph2rcd13ifvqhdg","pricing_plan_id":"cebpf4jnsgd1na2vs0mg"},{"bike_id":"3f1bf6e3-38c2-43b6-b9e5-5aa51a6e6cc6","system_id":"levelo_inurba_marseille","lat":43.27672,"lon":5.38895,"is_reserved":false,"is_disabled":false,"rental_uris":{"android":"levelo://app?vid=3f1bf6e3-38c2-43b6-b9e5-5aa51a6e6cc6","ios":"levelo://app?vid=3f1bf6e3-38c2-43b6-b9e5-5aa51a6e6cc6"},"vehicle_type_id":"4","last_reported":1731078575,"current_range_meters":4400,"station_id":"ce4bhi12rcd13ifvqfo0","pricing_plan_id":"cebpf4jnsgd1na2vs0mg"},{"bike_id":"82ee39fb-80cb-45e2-96fc-f298d0e6d2de","system_id":"levelo_inurba_marseille","lat":43.32484,"lon":5.36578,"is_reserved":false,"is_disabled":false,"rental_uris":{"android":"levelo://app?vid=82ee39fb-80cb-45e2-96fc-f298d0e6d2de","ios":"levelo://app?vid=82ee39fb-80cb-45e2-96fc-f298d0e6d2de"},"vehicle_type_id":"4","last_reported":1731078575,"current_range_meters":38800,"station_id":"ce4bhs12rcd13ifvqhvg","pricing_plan_id":"cebpf4jnsgd1na2vs0mg"},{"bike_id":"862e2f56-d93d-4557-bf43-c001a1d0b29c","system_id":"levelo_inurba_marseille","lat":43.29839,"lon":5.36268,"is_reserved":false,"is_disabled":false,"rental_uris":{"android":"levelo://app?vid=862e2f56-d93d-4557-bf43-c001a1d0b29c","ios":"levelo://app?vid=862e2f56-d93d-4557-bf43-c001a1d0b29c"},"vehicle_type_id":"4","last_reported":1731078575,"current_range_meters":12400,"station_id":"ce4bgpp2rcd13ifvqc3g","pricing_plan_id":"cebpf4jnsgd1na2vs0mg"},{"bike_id":"30170a41-8493-423b-8b2d-071f78381fee","system_id":"levelo_inurba_marseille","lat":43.27664,"lon":5.38906,"is_reserved":false,"is_disabled":false,"rental_uris":{"android":"levelo://app?vid=30170a41-8493-423b-8b2d-071f78381fee","ios":"levelo://app?vid=30170a41-8493-423b-8b2d-071f78381fee"},"vehicle_type_id":"4","last_reported":1731078575,"current_range_meters":39200,"station_id":"ce4bhi12rcd13ifvqfo0","pricing_plan_id":"cebpf4jnsgd1na2vs0mg"},{"bike_id":"ac617b5d-0d15-4bb4-b27e-9ec19ef5040e","system_id":"levelo_inurba_marseille","lat":43.31078,"lon":5.38349,"is_reserved":false,"is_disabled":false,"rental_uris":{"android":"levelo://app?vid=ac617b5d-0d15-4bb4-b27e-9ec19ef5040e","ios":"levelo://app?vid=ac617b5d-0d15-4bb4-b27e-9ec19ef5040e"},"vehicle_type_id":"4","last_reported":1731078575,"current_range_meters":32400,"station_id":"ce4bgv92rcd13ifvqcr0","pricing_plan_id":"cebpf4jnsgd1na2vs0mg"},{"bike_id":"917b5a59-887a-42be-a4c8-f8fbb2462ffb","system_id":"levelo_inurba_marseille","lat":43.24169,"lon":5.36394,"is_reserved":false,"is_disabled":false,"rental_uris":{"android":"levelo://app?vid=917b5a59-887a-42be-a4c8-f8fbb2462ffb","ios":"levelo://app?vid=917b5a59-887a-42be-a4c8-f8fbb2462ffb"},"vehicle_type_id":"4","last_reported":1731078575,"current_range_meters":34800,"station_id":"cpo36qri1sfpv3e86is0","pricing_plan_id":"cebpf4jnsgd1na2vs0mg"},{"bike_id":"20a14491-9a9c-466b-828a-dec034ca0267","system_id":"levelo_inurba_marseille","lat":43.28944,"lon":5.36387,"is_reserved":false,"is_disabled":false,"rental_uris":{"android":"levelo://app?vid=20a14491-9a9c-466b-828a-dec034ca0267","ios":"levelo://app?vid=20a14491-9a9c-466b-828a-dec034ca0267"},"vehicle_type_id":"4","last_reported":1731078575,"current_range_meters":24000,"station_id":"ce4bhc92rcd13ifvqetg","pricing_plan_id":"cebpf4jnsgd1na2vs0mg"},{"bike_id":"4dea2d38-f39a-4a57-b987-ae4d91417b94","system_id":"levelo_inurba_marseille","lat":43.29622,"lon":5.37709,"is_reserved":false,"is_disabled":false,"rental_uris":{"android":"levelo://app?vid=4dea2d38-f39a-4a57-b987-ae4d91417b94","ios":"levelo://app?vid=4dea2d38-f39a-4a57-b987-ae4d91417b94"},"vehicle_type_id":"4","last_reported":1731078575,"current_range_meters":35200,"station_id":"ce4bgi92rcd13ifvqb90","pricing_plan_id":"cebpf4jnsgd1na2vs0mg"},{"bike_id":"2b8681d3-485a-42be-9367-c5ad96573f01","system_id":"levelo_inurba_marseille","lat":43.29303,"lon":5.36882,"is_reserved":false,"is_disabled":false,"rental_uris":{"android":"levelo://app?vid=2b8681d3-485a-42be-9367-c5ad96573f01","ios":"levelo://app?vid=2b8681d3-485a-42be-9367-c5ad96573f01"},"vehicle_type_id":"4","last_reported":1731078575,"current_range_meters":34000,"station_id":"ce4bgv12rcd13ifvqcp0","pricing_plan_id":"cebpf4jnsgd1na2vs0mg"},{"bike_id":"115e125b-1057-4f5d-8d2a-cf4cc37f4a98","system_id":"levelo_inurba_marseille","lat":43.30428,"lon":5.37833,"is_reserved":false,"is_disabled":false,"rental_uris":{"android":"levelo://app?vid=115e125b-1057-4f5d-8d2a-cf4cc37f4a98","ios":"levelo://app?vid=115e125b-1057-4f5d-8d2a-cf4cc37f4a98"},"vehicle_type_id":"4","last_reported":1731078575,"current_range_meters":36800,"station_id":"","pricing_plan_id":"cebpf4jnsgd1na2vs0mg"},{"bike_id":"f00f717b-b23a-4bf9-b041-8c7befd9e550","system_id":"levelo_inurba_marseille","lat":43.23056,"lon":5.35487,"is_reserved":false,"is_disabled":false,"rental_uris":{"android":"levelo://app?vid=f00f717b-b23a-4bf9-b041-8c7befd9e550","ios":"levelo://app?vid=f00f717b-b23a-4bf9-b041-8c7befd9e550"},"vehicle_type_id":"4","last_reported":1731078575,"current_range_meters":27600,"station_id":"cpo3342slgdg3j2ifvpg","pricing_plan_id":"cebpf4jnsgd1na2vs0mg"},{"bike_id":"06571a24-b40b-410d-b34b-4067dafe2a2c","system_id":"levelo_inurba_marseille","lat":43.31687,"lon":5.40477,"is_reserved":false,"is_disabled":false,"rental_uris":{"android":"levelo://app?vid=06571a24-b40b-410d-b34b-4067dafe2a2c","ios":"levelo://app?vid=06571a24-b40b-410d-b34b-4067dafe2a2c"},"vehicle_type_id":"4","last_reported":1731078575,"current_range_meters":38800,"station_id":"ce4bh012rcd13ifvqd00","pricing_plan_id":"cebpf4jnsgd1na2vs0mg"},{"bike_id":"4ef11a7e-5741-4137-93db-9843a378e6ee","system_id":"levelo_inurba_marseille","lat":43.31716,"lon":5.43704,"is_reserved":false,"is_disabled":false,"rental_uris":{"android":"levelo://app?vid=4ef11a7e-5741-4137-93db-9843a378e6ee","ios":"levelo://app?vid=4ef11a7e-5741-4137-93db-9843a378e6ee"},"vehicle_type_id":"4","last_reported":1731078575,"current_range_meters":15200,"station_id":"ce4bhp92rcd13ifvqhcg","pricing_plan_id":"cebpf4jnsgd1na2vs0mg"},{"bike_id":"84ca48f2-67f1-4ef1-a7d2-13213d002d0d","system_id":"levelo_inurba_marseille","lat":43.23184,"lon":5.39988,"is_reserved":false,"is_disabled":false,"rental_uris":{"android":"levelo://app?vid=84ca48f2-67f1-4ef1-a7d2-13213d002d0d","ios":"levelo://app?vid=84ca48f2-67f1-4ef1-a7d2-13213d002d0d"},"vehicle_type_id":"4","last_reported":1731078575,"current_range_meters":27600,"station_id":"ce4bhn12rcd13ifvqgqg","pricing_plan_id":"cebpf4jnsgd1na2vs0mg"},{"bike_id":"75f97213-661c-4354-87c9-aa3fc07274a6","system_id":"levelo_inurba_marseille","lat":43.30541,"lon":5.36549,"is_reserved":false,"is_disabled":false,"rental_uris":{"android":"levelo://app?vid=75f97213-661c-4354-87c9-aa3fc07274a6","ios":"levelo://app?vid=75f97213-661c-4354-87c9-aa3fc07274a6"},"vehicle_type_id":"4","last_reported":1731078575,"current_range_meters":36800,"station_id":"ce4bgs12rcd13ifvqcag","pricing_plan_id":"cebpf4jnsgd1na2vs0mg"},{"bike_id":"87cba723-e586-4dbe-a2b3-1d4474cf8dce","system_id":"levelo_inurba_marseille","lat":43.292,"lon":5.3933,"is_reserved":false,"is_disabled":false,"rental_uris":{"android":"levelo://app?vid=87cba723-e586-4dbe-a2b3-1d4474cf8dce","ios":"levelo://app?vid=87cba723-e586-4dbe-a2b3-1d4474cf8dce"},"vehicle_type_id":"4","last_reported":1731078575,"current_range_meters":20800,"station_id":"ce4bh192rcd13ifvqdd0","pricing_plan_id":"cebpf4jnsgd1na2vs0mg"},{"bike_id":"0d3a0cc5-e54d-41e4-bb6e-943d553fa713","system_id":"levelo_inurba_marseille","lat":43.29621,"lon":5.37716,"is_reserved":false,"is_disabled":false,"rental_uris":{"android":"levelo://app?vid=0d3a0cc5-e54d-41e4-bb6e-943d553fa713","ios":"levelo://app?vid=0d3a0cc5-e54d-41e4-bb6e-943d553fa713"},"vehicle_type_id":"4","last_reported":1731078575,"current_range_meters":33200,"station_id":"ce4bgh92rcd13ifvqb50","pricing_plan_id":"cebpf4jnsgd1na2vs0mg"},{"bike_id":"416f48f6-78e1-413f-b274-a0fab7a4fbb7","system_id":"levelo_inurba_marseille","lat":43.25502,"lon":5.3766,"is_reserved":false,"is_disabled":false,"rental_uris":{"android":"levelo://app?vid=416f48f6-78e1-413f-b274-a0fab7a4fbb7","ios":"levelo://app?vid=416f48f6-78e1-413f-b274-a0fab7a4fbb7"},"vehicle_type_id":"4","last_reported":1731078575,"current_range_meters":26800,"station_id":"ce4bhh12rcd13ifvqff0","pricing_plan_id":"cebpf4jnsgd1na2vs0mg"},{"bike_id":"d3b84951-febf-434b-8ebe-26ff92dd6ff3","system_id":"levelo_inurba_marseille","lat":43.25864,"lon":5.39906,"is_reserved":false,"is_disabled":false,"rental_uris":{"android":"levelo://app?vid=d3b84951-febf-434b-8ebe-26ff92dd6ff3","ios":"levelo://app?vid=d3b84951-febf-434b-8ebe-26ff92dd6ff3"},"vehicle_type_id":"4","last_reported":1731078575,"current_range_meters":38800,"station_id":"ce4bhl92rcd13ifvqghg","pricing_plan_id":"cebpf4jnsgd1na2vs0mg"},{"bike_id":"bd03f5d9-45b5-4303-bb53-a4ee9a08ffe4","system_id":"levelo_inurba_marseille","lat":43.27413,"lon":5.39385,"is_reserved":false,"is_disabled":false,"rental_uris":{"android":"levelo://app?vid=bd03f5d9-45b5-4303-bb53-a4ee9a08ffe4","ios":"levelo://app?vid=bd03f5d9-45b5-4303-bb53-a4ee9a08ffe4"},"vehicle_type_id":"4","last_reported":1731078575,"current_range_meters":27600,"station_id":"ce4bhdp2rcd13ifvqf20","pricing_plan_id":"cebpf4jnsgd1na2vs0mg"},{"bike_id":"82166a36-3d3d-4740-97a2-e4e5ab9e4ed8","system_id":"levelo_inurba_marseille","lat":43.30541,"lon":5.36712,"is_reserved":false,"is_disabled":false,"rental_uris":{"android":"levelo://app?vid=82166a36-3d3d-4740-97a2-e4e5ab9e4ed8","ios":"levelo://app?vid=82166a36-3d3d-4740-97a2-e4e5ab9e4ed8"},"vehicle_type_id":"4","last_reported":1731078575,"current_range_meters":24400,"station_id":"ce4bgrp2rcd13ifvqc9g","pricing_plan_id":"cebpf4jnsgd1na2vs0mg"},{"bike_id":"382ceea8-8e8d-43ab-a9fe-5fd9af2331ae","system_id":"levelo_inurba_marseille","lat":43.31325,"lon":5.39697,"is_reserved":false,"is_disabled":false,"rental_uris":{"android":"levelo://app?vid=382ceea8-8e8d-43ab-a9fe-5fd9af2331ae","ios":"levelo://app?vid=382ceea8-8e8d-43ab-a9fe-5fd9af2331ae"},"vehicle_type_id":"4","last_reported":1731078575,"current_range_meters":39200,"station_id":"ce4bgvp2rcd13ifvqcu0","pricing_plan_id":"cebpf4jnsgd1na2vs0mg"},{"bike_id":"244180b9-a15f-4a2d-b7aa-8273694541d0","system_id":"levelo_inurba_marseille","lat":43.29044,"lon":5.35911,"is_reserved":false,"is_disabled":false,"rental_uris":{"android":"levelo://app?vid=244180b9-a15f-4a2d-b7aa-8273694541d0","ios":"levelo://app?vid=244180b9-a15f-4a2d-b7aa-8273694541d0"},"vehicle_type_id":"4","last_reported":1731078575,"current_range_meters":23200,"station_id":"ce4bha92rcd13ifvqeg0","pricing_plan_id":"cebpf4jnsgd1na2vs0mg"},{"bike_id":"e7a7c099-07dc-45b7-9c26-587a7a6c3265","system_id":"levelo_inurba_marseille","lat":43.337444,"lon":5.374475,"is_reserved":false,"is_disabled":false,"rental_uris":{"android":"levelo://app?vid=e7a7c099-07dc-45b7-9c26-587a7a6c3265","ios":"levelo://app?vid=e7a7c099-07dc-45b7-9c26-587a7a6c3265"},"vehicle_type_id":"4","last_reported":1731078575,"current_range_meters":38000,"station_id":"","pricing_plan_id":"cebpf4jnsgd1na2vs0mg"},{"bike_id":"dd894f90-58bc-4c19-b389-58017351a027","system_id":"levelo_inurba_marseille","lat":43.31324,"lon":5.39699,"is_reserved":false,"is_disabled":false,"rental_uris":{"android":"levelo://app?vid=dd894f90-58bc-4c19-b389-58017351a027","ios":"levelo://app?vid=dd894f90-58bc-4c19-b389-58017351a027"},"vehicle_type_id":"4","last_reported":1731078575,"current_range_meters":24000,"station_id":"ce4bgvp2rcd13ifvqcu0","pricing_plan_id":"cebpf4jnsgd1na2vs0mg"},{"bike_id":"536b138b-edf8-4a83-a4f0-cac1e8c8d4df","system_id":"levelo_inurba_marseille","lat":43.2846,"lon":5.358833,"is_reserved":false,"is_disabled":false,"rental_uris":{"android":"levelo://app?vid=536b138b-edf8-4a83-a4f0-cac1e8c8d4df","ios":"levelo://app?vid=536b138b-edf8-4a83-a4f0-cac1e8c8d4df"},"vehicle_type_id":"4","last_reported":1731078575,"current_range_meters":21600,"station_id":"ce4bhah2rcd13ifvqei0","pricing_plan_id":"cebpf4jnsgd1na2vs0mg"},{"bike_id":"79dc3083-457c-4216-8555-3c16768d76ee","system_id":"levelo_inurba_marseille","lat":43.29554,"lon":5.36269,"is_reserved":false,"is_disabled":false,"rental_uris":{"android":"levelo://app?vid=79dc3083-457c-4216-8555-3c16768d76ee","ios":"levelo://app?vid=79dc3083-457c-4216-8555-3c16768d76ee"},"vehicle_type_id":"4","last_reported":1731078575,"current_range_meters":16800,"station_id":"","pricing_plan_id":"cebpf4jnsgd1na2vs0mg"},