{"last_updated":1727590299,"ttl":60,"version":"2.2","data":{"bikes":[{"bike_id":"e003e6d5-3a4f-4fa6-b67b-c95797b7f8ee","system_id":"levelo_inurba_marseille","lat":43.29001,"lon":5.35614,"is_reserved":false,"is_disabled":false,"rental_uris":{"android":"levelo://app?vid=e003e6d5-3a4f-4fa6-b67b-c95797b7f8ee","ios":"levelo://app?vid=e003e6d5-3a4f-4fa6-b67b-c95797b7f8ee"},"vehicle_type_id":"4","last_reported":1727590300,"current_range_meters":20400,"station_id":"ce4bhb92rcd13ifvqen0","pricing_plan_id":"cebpf4jnsgd1na2vs0mg"},{"bike_id":"6103b553-d24f-40fb-9867-6ef9176545d9","system_id":"levelo_inurba_marseille","lat":43.27934,"lon":5.39575,"is_reserved":false,"is_disabled":false,"rental_uris":{"android":"levelo://app?vid=6103b553-d24f-40fb-9867-6ef9176545d9","ios":"levelo://app?vid=6103b553-d24f-40fb-9867-6ef9176545d9"},"vehicle_type_id":"4","last_reported":1727590300,"current_range_meters":38400,"station_id":"ce4bhf92rcd13ifvqf40","pricing_plan_id":"cebpf4jnsgd1na2vs0mg"},{"bike_id":"140c9b1a-ea18-4c9b-b5e2-9e34271c1201","system_id":"levelo_inurba_marseille","lat":43.28143,"lon":5.42648,"is_reserved":false,"is_disabled":false,"rental_uris":{"android":"levelo://app?vid=140c9b1a-ea18-4c9b-b5e2-9e34271c1201","ios":"levelo://app?vid=140c9b1a-ea18-4c9b-b5e2-9e34271c1201"},"vehicle_type_id":"4","last_reported":1727590300,"current_range_meters":38800,"station_id":"ce4bhnh2rcd13ifvqgug","pricing_plan_id":"cebpf4jnsgd1na2vs0mg"},{"bike_id":"7b28b928-83ef-4054-8f53-ea0a5a0d721d","system_id":"levelo_inurba_marseille","lat":43.27815,"lon":5.40718,"is_reserved":false,"is_disabled":false,"rental_uris":{"android":"levelo://app?vid=7b28b928-83ef-4054-8f53-ea0a5a0d721d","ios":"levelo://app?vid=7b28b928-83ef-4054-8f53-ea0a5a0d721d"},"vehicle_type_id":"4","last_reported":1727590300,"current_range_meters":38800,"station_id":"ce4bhnh2rcd13ifvqgtg","pricing_plan_id":"cebpf4jnsgd1na2vs0mg"},{"bike_id":"1f67e8a5-7545-4f70-9a7b-0b7f6b5a2813","system_id":"levelo_inurba_marseille","lat":43.283586,"lon":5.386223,"is_reserved":false,"is_disabled":false,"rental_uris":{"android":"levelo://app?vid=1f67e8a5-7545-4f70-9a7b-0b7f6b5a2813","ios":"levelo://app?vid=1f67e8a5-7545-4f70-9a7b-0b7f6b5a2813"},"vehicle_type_id":"4","last_reported":1727590300,"current_range_meters":14000,"station_id":"ce4bh492rcd13ifvqdvg","pricing_plan_id":"cebpf4jnsgd1na2vs0mg"},{"bike_id":"409f8e56-7b05-4fc8-983d-fadc6468525f","system_id":"levelo_inurba_marseille","lat":43.28427,"lon":5.3921,"is_reserved":false,"is_disabled":false,"rental_uris":{"android":"levelo://app?vid=409f8e56-7b05-4fc8-983d-fadc6468525f","ios":"levelo://app?vid=409f8e56-7b05-4fc8-983d-fadc6468525f"},"vehicle_type_id":"4","last_reported":1727590300,"current_range_meters":38800,"station_id":"ce4bhoh2rcd13ifvqh5g","pricing_plan_id":"cebpf4jnsgd1na2vs0mg"},{"bike_id":"d3c2fe0e-3f4e-4303-ae23-7f25f368fade","system_id":"levelo_inurba_marseille","lat":43.323675,"lon":5.388792,"is_reserved":false,"is_disabled":false,"rental_uris":{"android":"levelo://app?vid=d3c2fe0e-3f4e-4303-ae23-7f25f368fade","ios":"levelo://app?vid=d3c2fe0e-3f4e-4303-ae23-7f25f368fade"},"vehicle_type_id":"4","last_reported":1727590300,"current_range_meters":8400,"station_id":"ce4bhqp2rcd13ifvqhog","pricing_plan_id":"cebpf4jnsgd1na2vs0mg"},{"bike_id":"acf0da7d-e6b3-48a2-8905-5de8bc3b795a","system_id":"levelo_inurba_marseille","lat":43.31989,"lon":5.38125,"is_reserved":false,"is_disabled":false,"rental_uris":{"android":"levelo://app?vid=acf0da7d-e6b3-48a2-8905-5de8bc3b795a","ios":"levelo://app?vid=acf0da7d-e6b3-48a2-8905-5de8bc3b795a"},"vehicle_type_id":"4","last_reported":1727590300,"current_range_meters":10000,"station_id":"ce4bhr12rcd13ifvqhpg","pricing_plan_id":"cebpf4jnsgd1na2vs0mg"},{"bike_id":"0ea9e4c4-cc08-41d9-862d-a80f7d54740c","system_id":"levelo_inurba_marseille","lat":43.3229,"lon":5.38275,"is_reserved":false,"is_disabled":false,"rental_uris":{"android":"levelo://app?vid=0ea9e4c4-cc08-41d9-862d-a80f7d54740c","ios":"levelo://app?vid=0ea9e4c4-cc08-41d9-862d-a80f7d54740c"},"vehicle_type_id":"4","last_reported":1727590300,"current_range_meters":38400,"station_id":"ce4bhr12rcd13ifvqhqg","pricing_plan_id":"cebpf4jnsgd1na2vs0mg"},{"bike_id":"61d2ac86-dd9c-46d1-86f5-897af05c5375","system_id":"levelo_inurba_marseille","lat":43.30414,"lon":5.41294,"is_reserved":false,"is_disabled":false,"rental_uris":{"android":"levelo://app?vid=61d2ac86-dd9c-46d1-86f5-897af05c5375","ios":"levelo://app?vid=61d2ac86-dd9c-46d1-86f5-897af05c5375"},"vehicle_type_id":"4","last_reported":1727590300,"current_range_meters":30800,"station_id":"ce4bhop2rcd13ifvqh8g","pricing_plan_id":"cebpf4jnsgd1na2vs0mg"},{"bike_id":"a7f78ba6-f302-4191-9898-adba7098a8f9","system_id":"levelo_inurba_marseille","lat":43.25007,"lon":5.38927,"is_reserved":false,"is_disabled":false,"rental_uris":{"android":"levelo://app?vid=a7f78ba6-f302-4191-9898-adba7098a8f9","ios":"levelo://app?vid=a7f78ba6-f302-4191-9898-adba7098a8f9"},"vehicle_type_id":"4","last_reported":1727590300,"current_range_meters":14000,"station_id":"ce4bhgp2rcd13ifvqfd0","pricing_plan_id":"cebpf4jnsgd1na2vs0mg"},{"bike_id":"2d3249f7-ef4c-4fe0-ab5a-b79d1f9efe86","system_id":"levelo_inurba_marseille","lat":43.291913,"lon":5.358059,"is_reserved":false,"is_disabled":false,"rental_uris":{"android":"levelo://app?vid=2d3249f7-ef4c-4fe0-ab5a-b79d1f9efe86","ios":"levelo://app?vid=2d3249f7-ef4c-4fe0-ab5a-b79d1f9efe86"},"vehicle_type_id":"4","last_reported":1727590300,"current_range_meters":38800,"station_id":"ce4bhb12rcd13ifvqel0","pricing_plan_id":"cebpf4jnsgd1na2vs0mg"},{"bike_id":"30267a5c-36b3-47f8-be66-a3c926903716","system_id":"levelo_inurba_marseille","lat":43.276179,"lon":5.361191,"is_reserved":false,"is_disabled":false,"rental_uris":{"android":"levelo://app?vid=30267a5c-36b3-47f8-be66-a3c926903716","ios":"levelo://app?vid=30267a5c-36b3-47f8-be66-a3c926903716"},"vehicle_type_id":"4","last_reported":1727590300,"current_range_meters":38800,"station_id":"ce4bgj92rcd13ifvqbe0","pricing_plan_id":"cebpf4jnsgd1na2vs0mg"},{"bike_id":"e8f339a7-5e65-4275-8576-718fc09f5e43","system_id":"levelo_inurba_marseille","lat":43.2762,"lon":5.36106,"is_reserved":false,"is_disabled":false,"rental_uris":{"android":"levelo://app?vid=e8f339a7-5e65-4275-8576-718fc09f5e43","ios":"levelo://app?vid=e8f339a7-5e65-4275-8576-718fc09f5e43"},"vehicle_type_id":"4","last_reported":1727590300,"current_range_meters":38800,"station_id":"ce4bgj92rcd13ifvqbe0","pricing_plan_id":"cebpf4jnsgd1na2vs0mg"},{"bike_id":"d843e2e7-e3ed-4209-b66b-b3c4139c8028","system_id":"levelo_inurba_marseille","lat":43.29894,"lon":5.43661,"is_reserved":false,"is_disabled":false,"rental_uris":{"android":"levelo://app?vid=d843e2e7-e3ed-4209-b66b-b3c4139c8028","ios":"levelo://app?vid=d843e2e7-e3ed-4209-b66b-b3c4139c8028"},"vehicle_type_id":"4","last_reported":1727590300,"current_range_meters":40000,"station_id":"ce4bhpp2rcd13ifvqhfg","pricing_plan_id":"cebpf4jnsgd1na2vs0mg"},{"bike_id":"9ae9a0e9-1fff-4bed-b39c-08cfa9601a74","system_id":"levelo_inurba_marseille","lat":43.33607,"lon":5.41032,"is_reserved":false,"is_disabled":false,"rental_uris":{"android":"levelo://app?vid=9ae9a0e9-1fff-4bed-b39c-08cfa9601a74","ios":"levelo://app?vid=9ae9a0e9-1fff-4bed-b39c-08cfa9601a74"},"vehicle_type_id":"4","last_reported":1727590300,"current_range_meters":40000,"station_id":"ce4bhqh2rcd13ifvqhmg","pricing_plan_id":"cebpf4jnsgd1na2vs0mg"},{"bike_id":"9b5f5642-2491-4749-8ae4-e6530ea426af","system_id":"levelo_inurba_marseille","lat":43.24386,"lon":5.37059,"is_reserved":false,"is_disabled":false,"rental_uris":{"android":"levelo://app?vid=9b5f5642-2491-4749-8ae4-e6530ea426af","ios":"levelo://app?vid=9b5f5642-2491-4749-8ae4-e6530ea426af"},"vehicle_type_id":"4","last_reported":1727590300,"current_range_meters":37600,"station_id":"ce4bhhh2rcd13ifvqfk0","pricing_plan_id":"cebpf4jnsgd1na2vs0mg"},{"bike_id":"d92e6cf5-83e6-468b-9dc4-55c688651767","system_id":"levelo_inurba_marseille","lat":43.29599,"lon":5.381,"is_reserved":false,"is_disabled":false,"rental_uris":{"android":"levelo://app?vid=d92e6cf5-83e6-468b-9dc4-55c688651767","ios":"levelo://app?vid=d92e6cf5-83e6-468b-9dc4-55c688651767"},"vehicle_type_id":"4","last_reported":1727590300,"current_range_meters":29600,"station_id":"ce4bgl12rcd13ifvqbo0","pricing_plan_id":"cebpf4jnsgd1na2vs0mg"},{"bike_id":"ebcaf26e-d58f-4bb7-bcbf-3b0b5ef5a808","system_id":"levelo_inurba_marseille","lat":43.26948,"lon":5.4025,"is_reserved":false,"is_disabled":false,"rental_uris":{"android":"levelo://app?vid=ebcaf26e-d58f-4bb7-bcbf-3b0b5ef5a808","ios":"levelo://app?vid=ebcaf26e-d58f-4bb7-bcbf-3b0b5ef5a808"},"vehicle_type_id":"4","last_reported":1727590300,"current_range_meters":32000,"station_id":"cjm6bp8fraef2m0cb0m0","pricing_plan_id":"cebpf4jnsgd1na2vs0mg"},{"bike_id":"9a47dcb1-61bb-411f-affb-55731480b4cc","system_id":"levelo_inurba_marseille","lat":43.23962,"lon":5.36623,"is_reserved":false,"is_disabled":false,"rental_uris":{"android":"levelo://app?vid=9a47dcb1-61bb-411f-affb-55731480b4cc","ios":"levelo://app?vid=9a47dcb1-61bb-411f-affb-55731480b4cc"},"vehicle_type_id":"4","last_reported":1727590300,"current_range_meters":37600,"station_id":"ce4bhi12rcd13ifvqfp0","pricing_plan_id":"cebpf4jnsgd1na2vs0mg"},{"bike_id":"cd3b2f23-c202-45a6-a47d-06e4da7a7898","system_id":"levelo_inurba_marseille","lat":43.30893,"lon":5.37197,"is_reserved":false,"is_disabled":false,"rental_uris":{"android":"levelo://app?vid=cd3b2f23-c202-45a6-a47d-06e4da7a7898","ios":"levelo://app?vid=cd3b2f23-c202-45a6-a47d-06e4da7a7898"},"vehicle_type_id":"4","last_reported":1727590300,"current_range_meters":8800,"station_id":"ce4bguh2rcd13ifvqckg","pricing_plan_id":"cebpf4jnsgd1na2vs0mg"},{"bike_id":"28b9450c-873e-4892-9656-be382307ec71","system_id":"levelo_inurba_marseille","lat":43.29514,"lon":5.37509,"is_reserved":false,"is_disabled":false,"rental_uris":{"android":"levelo://app?vid=28b9450c-873e-4892-9656-be382307ec71","ios":"levelo://app?vid=28b9450c-873e-4892-9656-be382307ec71"},"vehicle_type_id":"4","last_reported":1727590300,"current_range_meters":28800,"station_id":"ce4bgkp2rcd13ifvqbmg","pricing_plan_id":"cebpf4jnsgd1na2vs0mg"},{"bike_id":"93b7308a-8a1f-4018-ade2-db18e71701f7","system_id":"levelo_inurba_marseille","lat":43.28936,"lon":5.38408,"is_reserved":false,"is_disabled":false,"rental_uris":{"android":"levelo://app?vid=93b7308a-8a1f-4018-ade2-db18e71701f7","ios":"levelo://app?vid=93b7308a-8a1f-4018-ade2-db18e71701f7"},"vehicle_type_id":"4","last_reported":1727590300,"current_range_meters":15200,"station_id":"ce4bh612rcd13ifvqe6g","pricing_plan_id":"cebpf4jnsgd1na2vs0mg"},{"bike_id":"737fadf7-7b87-481f-b8ab-a7b67cb77008","system_id":"levelo_inurba_marseille","lat":43.31074,"lon":5.38349,"is_reserved":false,"is_disabled":false,"rental_uris":{"android":"levelo://app?vid=737fadf7-7b87-481f-b8ab-a7b67cb77008","ios":"levelo://app?vid=737fadf7-7b87-481f-b8ab-a7b67cb77008"},"vehicle_type_id":"4","last_reported":1727590300,"current_range_meters":30000,"station_id":"ce4bgv92rcd13ifvqcr0","pricing_plan_id":"cebpf4jnsgd1na2vs0mg"},{"bike_id":"efb21e2e-5c82-417c-ab4e-ff8afd90868f","system_id":"levelo_inurba_marseille","lat":43.30798,"lon":5.43535,"is_reserved":false,"is_disabled":false,"rental_uris":{"android":"levelo://app?vid=efb21e2e-5c82-417c-ab4e-ff8afd90868f","ios":"levelo://app?vid=efb21e2e-5c82-417c-ab4e-ff8afd90868f"},"vehicle_type_id":"4","last_reported":1727590300,"current_range_meters":39200,"station_id":"ce4bhph2rcd13ifvqheg","pricing_plan_id":"cebpf4jnsgd1na2vs0mg"},{"bike_id":"1390a75e-e32c-49ef-9c31-b5bfae21163b","system_id":"levelo_inurba_marseille","lat":43.28942,"lon":5.3663,"is_reserved":false,"is_disabled":false,"rental_uris":{"android":"levelo://app?vid=1390a75e-e32c-49ef-9c31-b5bfae21163b","ios":"levelo://app?vid=1390a75e-e32c-49ef-9c31-b5bfae21163b"},"vehicle_type_id":"4","last_reported":1727590300,"current_range_meters":36400,"station_id":"ce4bhap2rcd13ifvqek0","pricing_plan_id":"cebpf4jnsgd1na2vs0mg"},{"bike_id":"10987376-8080-4f7b-a975-35ba37ae2d54","system_id":"levelo_inurba_marseille","lat":43.28157,"lon":5.42645,"is_reserved":false,"is_disabled":false,"rental_uris":{"android":"levelo://app?vid=10987376-8080-4f7b-a975-35ba37ae2d54","ios":"levelo://app?vid=10987376-8080-4f7b-a975-35ba37ae2d54"},"vehicle_type_id":"4","last_reported":1727590300,"current_range_meters":29600,"station_id":"ce4bhnh2rcd13ifvqgug","pricing_plan_id":"cebpf4jnsgd1na2vs0mg"},{"bike_id":"1684a122-e9b9-43c7-8a5d-beeeede3f175","system_id":"levelo_inurba_marseille","lat":43.32044,"lon":5.41537,"is_reserved":false,"is_disabled":false,"rental_uris":{"android":"levelo://app?vid=1684a122-e9b9-43c7-8a5d-beeeede3f175","ios":"levelo://app?vid=1684a122-e9b9-43c7-8a5d-beeeede3f175"},"vehicle_type_id":"4","last_reported":1727590300,"current_range_meters":10800,"station_id":"ce4bhq92rcd13ifvqhkg","pricing_plan_id":"cebpf4jnsgd1na2vs0mg"},{"bike_id":"65b9b958-16f1-411c-a2c7-3c2353d4d07c","system_id":"levelo_inurba_marseille","lat":43.31757,"lon":5.39013,"is_reserved":false,"is_disabled":false,"rental_uris":{"android":"levelo://app?vid=65b9b958-16f1-411c-a2c7-3c2353d4d07c","ios":"levelo://app?vid=65b9b958-16f1-411c-a2c7-3c2353d4d07c"},"vehicle_type_id":"4","last_reported":1727590300,"current_range_meters":40000,"station_id":"ce4bhqp2rcd13ifvqhng","pricing_plan_id":"cebpf4jnsgd1na2vs0mg"},{"bike_id":"1318bdc3-2821-40e3-a091-8f42f09db68d","system_id":"levelo_inurba_marseille","lat":43.2396,"lon":5.36634,"is_reserved":false,"is_disabled":false,"rental_uris":{"android":"levelo://app?vid=1318bdc3-2821-40e3-a091-8f42f09db68d","ios":"levelo://app?vid=1318bdc3-2821-40e3-a091-8f42f09db68d"},"vehicle_type_id":"4","last_reported":1727590300,"current_range_meters":38000,"station_id":"ce4bhi12rcd13ifvqfp0","pricing_plan_id":"cebpf4jnsgd1na2vs0mg"},{"bike_id":"a5564a9a-3d9e-405c-b3bf-4c7bb6eae734","system_id":"levelo_inurba_marseille","lat":43.28611,"lon":5.37062,"is_reserved":false,"is_disabled":false,"rental_uris":{"android":"levelo://app?vid=a5564a9a-3d9e-405c-b3bf-4c7bb6eae734","ios":"levelo://app?vid=a5564a9a-3d9e-405c-b3bf-4c7bb6eae734"},"vehicle_type_id":"4","last_reported":1727590300,"current_range_meters":36400,"station_id":"ce4bht12rcd13ifvqi60","pricing_plan_id":"cebpf4jnsgd1na2vs0mg"},{"bike_id":"068708ae-427f-4495-a710-061be8d8cd5c","system_id":"levelo_inurba_marseille","lat":43.287038,"lon":5.39989,"is_reserved":false,"is_disabled":false,"rental_uris":{"android":"levelo://app?vid=068708ae-427f-4495-a710-061be8d8cd5c","ios":"levelo://app?vid=068708ae-427f-4495-a710-061be8d8cd5c"},"vehicle_type_id":"4","last_reported":1727590300,"current_range_meters":18800,"station_id":"ce4bho92rcd13ifvqh3g","pricing_plan_id":"cebpf4jnsgd1na2vs0mg"},{"bike_id":"0521cc37-3a0f-4bc8-964a-96f026706e98","system_id":"levelo_inurba_marseille","lat":43.28026,"lon":5.36075,"is_reserved":false,"is_disabled":false,"rental_uris":{"android":"levelo://app?vid=0521cc37-3a0f-4bc8-964a-96f026706e98","ios":"levelo://app?vid=0521cc37-3a0f-4bc8-964a-96f026706e98"},"vehicle_type_id":"4","last_reported":1727590300,"current_range_meters":25200,"station_id":"","pricing_plan_id":"cebpf4jnsgd1na2vs0mg"},{"bike_id":"16ec8307-385e-405a-9539-99931243da4a","system_id":"levelo_inurba_marseille","lat":43.2955,"lon":5.42282,"is_reserved":false,"is_disabled":false,"rental_uris":{"android":"levelo://app?vid=16ec8307-385e-405a-9539-99931243da4a","ios":"levelo://app?vid=16ec8307-385e-405a-9539-99931243da4a"},"vehicle_type_id":"4","last_reported":1727590300,"current_range_meters":38800,"station_id":"ce4bhph2rcd13ifvqhdg","pricing_plan_id":"cebpf4jnsgd1na2vs0mg"},{"bike_id":"259a6f89-57c2-4fa2-bec1-62e847679bf7","system_id":"levelo_inurba_marseille","lat":43.2885,"lon":5.35853,"is_reserved":false,"is_disabled":false,"rental_uris":{"android":"levelo://app?vid=259a6f89-57c2-4fa2-bec1-62e847679bf7","ios":"levelo://app?vid=259a6f89-57c2-4fa2-bec1-62e847679bf7"},"vehicle_type_id":"4","last_reported":1727590300,"current_range_meters":39200,"station_id":"ce4bhb12rcd13ifvqem0","pricing_plan_id":"cebpf4jnsgd1na2vs0mg"},{"bike_id":"c529090c-5370-45e9-ba3f-f55585b5289b","system_id":"levelo_inurba_marseille","lat":43.25008,"lon":5.3893,"is_reserved":false,"is_disabled":false,"rental_uris":{"android":"levelo://app?vid=c529090c-5370-45e9-ba3f-f55585b5289b","ios":"levelo://app?vid=c529090c-5370-45e9-ba3f-f55585b5289b"},"vehicle_type_id":"4","last_reported":1727590300,"current_range_meters":28400,"station_id":"ce4bhgp2rcd13ifvqfd0","pricing_plan_id":"cebpf4jnsgd1na2vs0mg"},{"bike_id":"63c730d6-eff7-46de-bf7e-6711f9731dd6","system_id":"levelo_inurba_marseille","lat":43.28704,"lon":5.37382,"is_reserved":false,"is_disabled":false,"rental_uris":{"android":"levelo://app?vid=63c730d6-eff7-46de-bf7e-6711f9731dd6","ios":"levelo://app?vid=63c730d6-eff7-46de-bf7e-6711f9731dd6"},"vehicle_type_id":"4","last_reported":1727590300,"current_range_meters":31200,"station_id":"ce4bh3p2rcd13ifvqdq0","pricing_plan_id":"cebpf4jnsgd1na2vs0mg"},{"bike_id":"784443d8-15b4-46d7-b31f-5703c5b64e23","system_id":"levelo_inurba_marseille","lat":43.273734,"lon":5.362615,"is_reserved":false,"is_disabled":false,"rental_uris":{"android":"levelo://app?vid=784443d8-15b4-46d7-b31f-5703c5b64e23","ios":"levelo://app?vid=784443d8-15b4-46d7-b31f-5703c5b64e23"},"vehicle_type_id":"4","last_reported":1727590300,"current_range_meters":38400,"station_id":"ce4bhbh2rcd13ifvqeo0","pricing_plan_id":"cebpf4jnsgd1na2vs0mg"},{"bike_id":"8bbfb954-7ff3-43dc-ab19-55e66ad5a1ff","system_id":"levelo_inurba_marseille","lat":43.2737,"lon":5.36256,"is_reserved":false,"is_disabled":false,"rental_uris":{"android":"levelo://app?vid=8bbfb954-7ff3-43dc-ab19-55e66ad5a1ff","ios":"levelo://app?vid=8bbfb954-7ff3-43dc-ab19-55e66ad5a1ff"},"vehicle_type_id":"4","last_reported":1727590300,"current_range_meters":38000,"station_id":"ce4bhbh2rcd13ifvqeo0","pricing_plan_id":"cebpf4jnsgd1na2vs0mg"},{"bike_id":"a4a80944-40bd-46d0-aa51-1f93c481ae36","system_id":"levelo_inurba_marseille","lat":43.31271,"lon":5.40174,"is_reserved":false,"is_disabled":false,"rental_uris":{"android":"levelo://app?vid=a4a80944-40bd-46d0-aa51-1f93c481ae36","ios":"levelo://app?vid=a4a80944-40bd-46d0-aa51-1f93c481ae36"},"vehicle_type_id":"4","last_reported":1727590300,"current_range_meters":6400,"station_id":"ce4bh092rcd13ifvqd30","pricing_plan_id":"cebpf4jnsgd1na2vs0mg"},{"bike_id":"8de4c3b4-4234-4850-a29d-da6f86d94621","system_id":"levelo_inurba_marseille","lat":43.28465,"lon":5.35873,"is_reserved":false,"is_disabled":false,"rental_uris":{"android":"levelo://app?vid=8de4c3b4-4234-4850-a29d-da6f86d94621","ios":"levelo://app?vid=8de4c3b4-4234-4850-a29d-da6f86d94621"},"vehicle_type_id":"4","last_reported":1727590300,"current_range_meters":38800,"station_id":"ce4bhah2rcd13ifvqei0","pricing_plan_id":"cebpf4jnsgd1na2vs0mg"},{"bike_id":"1ce7c25b-6bd2-4b64-b4ae-543ea784fc5d","system_id":"levelo_inurba_marseille","lat":43.337444,"lon":5.374475,"is_reserved":false,"is_disabled":false,"rental_uris":{"android":"levelo://app?vid=1ce7c25b-6bd2-4b64-b4ae-543ea784fc5d","ios":"levelo://app?vid=1ce7c25b-6bd2-4b64-b4ae-543ea784fc5d"},"vehicle_type_id":"4","last_reported":1727590300,"current_range_meters":33600,"station_id":"","pricing_plan_id":"cebpf4jnsgd1na2vs0mg"},{"bike_id":"a1c3dd20-86c0-4dad-a795-b2047bec3f5b","system_id":"levelo_inurba_marseille","lat":43.31762,"lon":5.39007,"is_reserved":false,"is_disabled":false,"rental_uris":{"android":"levelo://app?vid=a1c3dd20-86c0-4dad-a795-b2047bec3f5b","ios":"levelo://app?vid=a1c3dd20-86c0-4dad-a795-b2047bec3f5b"},"vehicle_type_id":"4","last_reported":1727590300,"current_range_meters":37600,"station_id":"ce4bhqp2rcd13ifvqhng","pricing_plan_id":"cebpf4jnsgd1na2vs0mg"},{"bike_id":"28008883-0702-45aa-8964-fb64c5ef6224","system_id":"levelo_inurba_marseille","lat":43.30256,"lon":5.37703,"is_reserved":false,"is_disabled":false,"rental_uris":{"android":"levelo://app?vid=28008883-0702-45aa-8964-fb64c5ef6224","ios":"levelo://app?vid=28008883-0702-45aa-8964-fb64c5ef6224"},"vehicle_type_id":"4","last_reported":1727590300,"current_range_meters":31200,"station_id":"ce4bhap2rcd13ifvqek0","pricing_plan_id":"cebpf4jnsgd1na2vs0mg"},{"bike_id":"35a6ca74-a0b6-4f73-bcf2-e86397ec7a04","system_id":"levelo_inurba_marseille","lat":43.24812,"lon":5.37463,"is_reserved":false,"is_disabled":false,"rental_uris":{"android":"levelo://app?vid=35a6ca74-a0b6-4f73-bcf2-e86397ec7a04","ios":"levelo://app?vid=35a6ca74-a0b6-4f73-bcf2-e86397ec7a04"},"vehicle_type_id":"4","last_reported":1727590300,"current_range_meters":2800,"station_id":"ce4bhgh2rcd13ifvqfb0","pricing_plan_id":"cebpf4jnsgd1na2vs0mg"},{"bike_id":"691af550-40f2-46d0-a7de-1ee88b12e159","system_id":"levelo_inurba_marseille","lat":43.31884,"lon":5.4073,"is_reserved":false,"is_disabled":false,"rental_uris":{"android":"levelo://app?vid=691af550-40f2-46d0-a7de-1ee88b12e159","ios":"levelo://app?vid=691af550-40f2-46d0-a7de-1ee88b12e159"},"vehicle_type_id":"4","last_reported":1727590300,"current_range_meters":6800,"station_id":"ce4bhq12rcd13ifvqhig","pricing_plan_id":"cebpf4jnsgd1na2vs0mg"},{"bike_id":"2bf9ffd1-4ea3-4b5a-9013-f4327b8a63c4","system_id":"levelo_inurba_marseille","lat":43.26504,"lon":5.39546,"is_reserved":false,"is_disabled":false,"rental_uris":{"android":"levelo://app?vid=2bf9ffd1-4ea3-4b5a-9013-f4327b8a63c4","ios":"levelo://app?vid=2bf9ffd1-4ea3-4b5a-9013-f4327b8a63c4"},"vehicle_type_id":"4","last_reported":1727590300,"current_range_meters":38800,"station_id":"ce4bhi12rcd13ifvqfq0","pricing_plan_id":"cebpf4jnsgd1na2vs0mg"},{"bike_id":"0c6a3edd-0259-43fd-a8d1-3d4bb6023605","system_id":"levelo_inurba_marseille","lat":43.24391,"lon":5.37051,"is_reserved":false,"is_disabled":false,"rental_uris":{"android":"levelo://app?vid=0c6a3edd-0259-43fd-a8d1-3d4bb6023605","ios":"levelo://app?vid=0c6a3edd-0259-43fd-a8d1-3d4bb6023605"},"vehicle_type_id":"4","last_reported":1727590300,"current_range_meters":40000,"station_id":"ce4bhhh2rcd13ifvqfk0","pricing_plan_id":"cebpf4jnsgd1na2vs0mg"},{"bike_id":"710ea95f-73b9-45b3-8be5-942d030d4a9c","system_id":"levelo_inurba_marseille","lat":43.31087,"lon":5.42425,"is_reserved":false,"is_disabled":false,"rental_uris":{"android":"levelo://app?vid=710ea95f-73b9-45b3-8be5-942d030d4a9c","ios":"levelo://app?vid=710ea95f-73b9-45b3-8be5-942d030d4a9c"},"vehicle_type_id":"4","last_reported":1727590300,"current_range_meters":30800,"station_id":"ce4bhp92rcd13ifvqhag","pricing_plan_id":"cebpf4jnsgd1na2vs0mg"},{"bike_id":"08c36d1e-77a7-4de5-beb1-abd12dc73382","system_id":"levelo_inurba_marseille","lat":43.24804,"lon":5.37453,"is_reserved":false,"is_disabled":false,"rental_uris":{"android":"levelo://app?vid=08c36d1e-77a7-4de5-beb1-abd12dc73382","ios":"levelo://app?vid=08c36d1e-77a7-4de5-beb1-abd12dc73382"},"vehicle_type_id":"4","last_reported":1727590300,"current_range_meters":38400,"station_id":"ce4bhgh2rcd13ifvqfb0","pricing_plan_id":"cebpf4jnsgd1na2vs0mg"},{"bike_id":"046f88ff-c729-44e6-8600-6b5235d0ceac","system_id":"levelo_inurba_marseille","lat":43.25861,"lon":5.39898,"is_reserved":false,"is_disabled":false,"rental_uris":{"android":"levelo://app?vid=046f88ff-c729-44e6-8600-6b5235d0ceac","ios":"levelo://app?vid=046f88ff-c729-44e6-8600-6b5235d0ceac"},"vehicle_type_id":"4","last_reported":1727590300,"current_range_meters":25600,"station_id":"ce4bhl92rcd13ifvqghg","pricing_plan_id":"cebpf4jnsgd1na2vs0mg"},{"bike_id":"3e4ae6dd-5305-4d10-a79a-b5ff877edb8c","system_id":"levelo_inurba_marseille","lat":43.28438,"lon":5.39187,"is_reserved":false,"is_disabled":false,"rental_uris":{"android":"levelo://app?vid=3e4ae6dd-5305-4d10-a79a-b5ff877edb8c","ios":"levelo://app?vid=3e4ae6dd-5305-4d10-a79a-b5ff877edb8c"},"vehicle_type_id":"4","last_reported":1727590300,"current_range_meters":26000,"station_id":"ce4bhoh2rcd13ifvqh5g","pricing_plan_id":"cebpf4jnsgd1na2vs0mg"},{"bike_id":"67260071-21e4-480a-9926-bdd8312a05e0","system_id":"levelo_inurba_marseille","lat":43.27941,"lon":5.41056,"is_reserved":false,"is_disabled":false,"rental_uris":{"android":"levelo://app?vid=67260071-21e4-480a-9926-bdd8312a05e0","ios":"levelo://app?vid=67260071-21e4-480a-9926-bdd8312a05e0"},"vehicle_type_id":"4","last_reported":1727590300,"current_range_meters":39200,"station_id":"ce4bhnp2rcd13ifvqh0g","pricing_plan_id":"cebpf4jnsgd1na2vs0mg"},{"bike_id":"53e80696-70d4-41ff-aad3-eaa40770830c","system_id":"levelo_inurba_marseille","lat":43.26788,"lon":5.39409,"is_reserved":false,"is_disabled":false,"rental_uris":{"android":"levelo://app?vid=53e80696-70d4-41ff-aad3-eaa40770830c","ios":"levelo://app?vid=53e80696-70d4-41ff-aad3-eaa40770830c"},"vehicle_type_id":"4","last_reported":1727590300,"current_range_meters":35200,"station_id":"ce4bhh12rcd13ifvqfg0","pricing_plan_id":"cebpf4jnsgd1na2vs0mg"},{"bike_id":"6a52f468-9bf5-46c2-819d-2c732c18128e","system_id":"levelo_inurba_marseille","lat":43.23963,"lon":5.36612,"is_reserved":false,"is_disabled":false,"rental_uris":{"android":"levelo://app?vid=6a52f468-9bf5-46c2-819d-2c732c18128e","ios":"levelo://app?vid=6a52f468-9bf5-46c2-819d-2c732c18128e"},"vehicle_type_id":"4","last_reported":1727590300,"current_range_meters":36800,"station_id":"ce4bhi12rcd13ifvqfp0","pricing_plan_id":"cebpf4jnsgd1na2vs0mg"},{"bike_id":"e6c57e2d-2620-44ca-9d4e-870f433a6ab2","system_id":"levelo_inurba_marseille","lat":43.29905,"lon":5.38142,"is_reserved":false,"is_disabled":false,"rental_uris":{"android":"levelo://app?vid=e6c57e2d-2620-44ca-9d4e-870f433a6ab2","ios":"levelo://app?vid=e6c57e2d-2620-44ca-9d4e-870f433a6ab2"},"vehicle_type_id":"4","last_reported":1727590300,"current_range_meters":36000,"station_id":"ce4bgj12rcd13ifvqbc0","pricing_plan_id":"cebpf4jnsgd1na2vs0mg"},{"bike_id":"6542600a-0331-4a7b-bf1b-8aced53610f0","system_id":"levelo_inurba_marseille","lat":43.28431,"lon":5.39182,"is_reserved":false,"is_disabled":false,"rental_uris":{"android":"levelo://app?vid=6542600a-0331-4a7b-bf1b-8aced53610f0","ios":"levelo://app?vid=6542600a-0331-4a7b-bf1b-8aced53610f0"},"vehicle_type_id":"4","last_reported":1727590300,"current_range_meters":16000,"station_id":"ce4bhoh2rcd13ifvqh5g","pricing_plan_id":"cebpf4jnsgd1na2vs0mg"},{"bike_id":"cdeae8c9-ba56-4b50-8d73-1e30acc71661","system_id":"levelo_inurba_marseille","lat":43.320009,"lon":5.381564,"is_reserved":false,"is_disabled":false,"rental_uris":{"android":"levelo://app?vid=cdeae8c9-ba56-4b50-8d73-1e30acc71661","ios":"levelo://app?vid=cdeae8c9-ba56-4b50-8d73-1e30acc71661"},"vehicle_type_id":"4","last_reported":1727590300,"current_range_meters":31200,"station_id":"ce4bhr12rcd13ifvqhpg","pricing_plan_id":"cebpf4jnsgd1na2vs0mg"},{"bike_id":"67b9eb05-c36e-4582-9b61-98d56d57348d","system_id":"levelo_inurba_marseille","lat":43.26059,"lon":5.394,"is_reserved":false,"is_disabled":false,"rental_uris":{"android":"levelo://app?vid=67b9eb05-c36e-4582-9b61-98d56d57348d","ios":"levelo://app?vid=67b9eb05-c36e-4582-9b61-98d56d57348d"},"vehicle_type_id":"4","last_reported":1727590300,"current_range_meters":40000,"station_id":"ce4bhh92rcd13ifvqfj0","pricing_plan_id":"cebpf4jnsgd1na2vs0mg"},{"bike_id":"c7ecf3c3-800e-438b-9cb6-127992533b11","system_id":"levelo_inurba_marseille","lat":43.25114,"lon":5.40312,"is_reserved":false,"is_disabled":false,"rental_uris":{"android":"levelo://app?vid=c7ecf3c3-800e-438b-9cb6-127992533b11","ios":"levelo://app?vid=c7ecf3c3-800e-438b-9cb6-127992533b11"},"vehicle_type_id":"4","last_reported":1727590300,"current_range_meters":36800,"station_id":"ce4bhlh2rcd13ifvqgig","pricing_plan_id":"cebpf4jnsgd1na2vs0mg"},{"bike_id":"0d8c20b1-a2e8-4e8b-b550-37b2370b38b1","system_id":"levelo_inurba_marseille","lat":43.3042,"lon":5.41281,"is_reserved":false,"is_disabled":false,"rental_uris":{"android":"levelo://app?vid=0d8c20b1-a2e8-4e8b-b550-37b2370b38b1","ios":"levelo://app?vid=0d8c20b1-a2e8-4e8b-b550-37b2370b38b1"},"vehicle_type_id":"4","last_reported":1727590300,"current_range_meters":26000,"station_id":"ce4bhop2rcd13ifvqh8g","pricing_plan_id":"cebpf4jnsgd1na2vs0mg"},{"bike_id":"6811c9ec-ea64-44b4-93d3-158194024def","system_id":"levelo_inurba_marseille","lat":43.30538,"lon":5.38435,"is_reserved":false,"is_disabled":false,"rental_uris":{"android":"levelo://app?vid=6811c9ec-ea64-44b4-93d3-158194024def","ios":"levelo://app?vid=6811c9ec-ea64-44b4-93d3-158194024def"},"vehicle_type_id":"4","last_reported":1727590300,"current_range_meters":38000,"station_id":"ce4bgg92rcd13ifvqb30","pricing_plan_id":"cebpf4jnsgd1na2vs0mg"},{"bike_id":"240b6ed0-de28-4b78-b2af-b6ff5eb271e9","system_id":"levelo_inurba_marseille","lat":43.23584,"lon":5.3663,"is_reserved":false,"is_disabled":false,"rental_uris":{"android":"levelo://app?vid=240b6ed0-de28-4b78-b2af-b6ff5eb271e9","ios":"levelo://app?vid=240b6ed0-de28-4b78-b2af-b6ff5eb271e9"},"vehicle_type_id":"4","last_reported":1727590300,"current_range_meters":32400,"station_id":"","pricing_plan_id":"cebpf4jnsgd1na2vs0mg"},{"bike_id":"9cab4b77-e73b-485b-9196-05681379298d","system_id":"levelo_inurba_marseille","lat":43.32289,"lon":5.382685,"is_reserved":false,"is_disabled":false,"rental_uris":{"android":"levelo://app?vid=9cab4b77-e73b-485b-9196-05681379298d","ios":"levelo://app?vid=9cab4b77-e73b-485b-9196-05681379298d"},"vehicle_type_id":"4","last_reported":1727590300,"current_range_meters":38000,"station_id":"ce4bhr12rcd13ifvqhqg","pricing_plan_id":"cebpf4jnsgd1na2vs0mg"},{"bike_id":"825c33d0-5187-4bdb-9f1f-afe3ee9e4034","system_id":"levelo_inurba_marseille","lat":43.31694,"lon":5.40471,"is_reserved":false,"is_disabled":false,"rental_uris":{"android":"levelo://app?vid=825c33d0-5187-4bdb-9f1f-afe3ee9e4034","ios":"levelo://app?vid=825c33d0-5187-4bdb-9f1f-afe3ee9e4034"},"vehicle_type_id":"4","last_reported":1727590300,"current_range_meters":36800,"station_id":"ce4bh012rcd13ifvqd00","pricing_plan_id":"cebpf4jnsgd1na2vs0mg"},{"bike_id":"f6692a04-fd04-4663-94a3-4418e3afb60c","system_id":"levelo_inurba_marseille","lat":43.307968,"lon":5.381546,"is_reserved":false,"is_disabled":false,"rental_uris":{"android":"levelo://app?vid=f6692a04-fd04-4663-94a3-4418e3afb60c","ios":"levelo://app?vid=f6692a04-fd04-4663-94a3-4418e3afb60c"},"vehicle_type_id":"4","last_reported":1727590300,"current_range_meters":30400,"station_id":"ce4bgt12rcd13ifvqce0","pricing_plan_id":"cebpf4jnsgd1na2vs0mg"},{"bike_id":"8e047d7f-c072-44a2-8170-7786551c1be3","system_id":"levelo_inurba_marseille","lat":43.28711,"lon":5.39979,"is_reserved":false,"is_disabled":false,"rental_uris":{"android":"levelo://app?vid=8e047d7f-c072-44a2-8170-7786551c1be3","ios":"levelo://app?vid=8e047d7f-c072-44a2-8170-7786551c1be3"},"vehicle_type_id":"4","last_reported":1727590300,"current_range_meters":38800,"station_id":"ce4bho92rcd13ifvqh3g","pricing_plan_id":"cebpf4jnsgd1na2vs0mg"},{"bike_id":"90b0552e-1eb7-422f-ade8-60c59182a5ce","system_id":"levelo_inurba_marseille","lat":43.30798,"lon":5.38158,"is_reserved":false,"is_disabled":false,"rental_uris":{"android":"levelo://app?vid=90b0552e-1eb7-422f-ade8-60c59182a5ce","ios":"levelo://app?vid=90b0552e-1eb7-422f-ade8-60c59182a5ce"},"vehicle_type_id":"4","last_reported":1727590300,"current_range_meters":22800,"station_id":"ce4bgt12rcd13ifvqce0","pricing_plan_id":"cebpf4jnsgd1na2vs0mg"},{"bike_id":"17727ddd-b3b2-4a18-af94-8a60b6428766","system_id":"levelo_inurba_marseille","lat":43.28705,"lon":5.37379,"is_reserved":false,"is_disabled":false,"rental_uris":{"android":"levelo://app?vid=17727ddd-b3b2-4a18-af94-8a60b6428766","ios":"levelo://app?vid=17727ddd-b3b2-4a18-af94-8a60b6428766"},"vehicle_type_id":"4","last_reported":1727590300,"current_range_meters":38400,"station_id":"ce4bh3p2rcd13ifvqdq0","pricing_plan_id":"cebpf4jnsgd1na2vs0mg"},{"bike_id":"56f7910d-52ac-4666-ae4d-1add0cdeeda1","system_id":"levelo_inurba_marseille","lat":43.30799,"lon":5.38162,"is_reserved":false,"is_disabled":false,"rental_uris":{"android":"levelo://app?vid=56f7910d-52ac-4666-ae4d-1add0cdeeda1","ios":"levelo://app?vid=56f7910d-52ac-4666-ae4d-1add0cdeeda1"},"vehicle_type_id":"4","last_reported":1727590300,"current_range_meters":22800,"station_id":"ce4bgt12rcd13ifvqce0","pricing_plan_id":"cebpf4jnsgd1na2vs0mg"},{"bike_id":"c461601d-3770-42d3-b850-f6196138e0e3","system_id":"levelo_inurba_marseille","lat":43.31322,"lon":5.39697,"is_reserved":false,"is_disabled":false,"rental_uris":{"android":"levelo://app?vid=c461601d-3770-42d3-b850-f6196138e0e3","ios":"levelo://app?vid=c461601d-3770-42d3-b850-f6196138e0e3"},"vehicle_type_id":"4","last_reported":1727590300,"current_range_meters":38800,"station_id":"ce4bgvp2rcd13ifvqcu0","pricing_plan_id":"cebpf4jnsgd1na2vs0mg"},{"bike_id":"6bd79052-280b-4428-8de8-892ce42e806e","system_id":"levelo_inurba_marseille","lat":43.31762,"lon":5.39013,"is_reserved":false,"is_disabled":false,"rental_uris":{"android":"levelo://app?vid=6bd79052-280b-4428-8de8-892ce42e806e","ios":"levelo://app?vid=6bd79052-280b-4428-8de8-892ce42e806e"},"vehicle_type_id":"4","last_reported":1727590300,"current_range_meters":38800,"station_id":"ce4bhqp2rcd13ifvqhng","pricing_plan_id":"cebpf4jnsgd1na2vs0mg"},{"bike_id":"58e674b1-b2f0-4949-97a4-2eaf7c317faa","system_id":"levelo_inurba_marseille","lat":43.289336,"lon":5.366404,"is_reserved":false,"is_disabled":false,"rental_uris":{"android":"levelo://app?vid=58e674b1-b2f0-4949-97a4-2eaf7c317faa","ios":"levelo://app?vid=58e674b1-b2f0-4949-97a4-2eaf7c317faa"},"vehicle_type_id":"4","last_reported":1727590300,"current_range_meters":36400,"station_id":"ce4bhap2rcd13ifvqek0","pricing_plan_id":"cebpf4jnsgd1na2vs0mg"},{"bike_id":"9fdcde87-f871-44ea-acf0-1fcd1bb17a60","system_id":"levelo_inurba_marseille","lat":43.28412,"lon":5.37508,"is_reserved":false,"is_disabled":false,"rental_uris":{"android":"levelo://app?vid=9fdcde87-f871-44ea-acf0-1fcd1bb17a60","ios":"levelo://app?vid=9fdcde87-f871-44ea-acf0-1fcd1bb17a60"},"vehicle_type_id":"4","last_reported":1727590300,"current_range_meters":23200,"station_id":"ce4bh412rcd13ifvqds0","pricing_plan_id":"cebpf4jnsgd1na2vs0mg"},{"bike_id":"883dbd06-c2fc-4488-9b5e-ef4f05339f9b","system_id":"levelo_inurba_marseille","lat":43.30212,"lon":5.3662,"is_reserved":false,"is_disabled":false,"rental_uris":{"android":"levelo://app?vid=883dbd06-c2fc-4488-9b5e-ef4f05339f9b","ios":"levelo://app?vid=883dbd06-c2fc-4488-9b5e-ef4f05339f9b"},"vehicle_type_id":"4","last_reported":1727590300,"current_range_meters":30800,"station_id":"ce4bgrh2rcd13ifvqc8g","pricing_plan_id":"cebpf4jnsgd1na2vs0mg"},{"bike_id":"dddd9fd8-f049-43ad-a677-7f095f63d2ad","system_id":"levelo_inurba_marseille","lat":43.28099,"lon":5.37828,"is_reserved":false,"is_disabled":false,"rental_uris":{"android":"levelo://app?vid=dddd9fd8-f049-43ad-a677-7f095f63d2ad","ios":"levelo://app?vid=dddd9fd8-f049-43ad-a677-7f095f63d2ad"},"vehicle_type_id":"4","last_reported":1727590300,"current_range_meters":38800,"station_id":"ce4bha12rcd13ifvqee0","pricing_plan_id":"cebpf4jnsgd1na2vs0mg"},{"bike_id":"7140e453-f332-495d-81d8-84ebfd05d324","system_id":"levelo_inurba_marseille","lat":43.25579,"lon":5.38238,"is_reserved":false,"is_disabled":false,"rental_uris":{"android":"levelo://app?vid=7140e453-f332-495d-81d8-84ebfd05d324","ios":"levelo://app?vid=7140e453-f332-495d-81d8-84ebfd05d324"},"vehicle_type_id":"4","last_reported":1727590300,"current_range_meters":40000,"station_id":"ce4bhih2rcd13ifvqfs0","pricing_plan_id":"cebpf4jnsgd1na2vs0mg"},{"bike_id":"cf2a99f0-171d-46e2-b5f9-b8e518581e33","system_id":"levelo_inurba_marseille","lat":43.23962,"lon":5.36621,"is_reserved":false,"is_disabled":false,"rental_uris":{"android":"levelo://app?vid=cf2a99f0-171d-46e2-b5f9-b8e518581e33","ios":"levelo://app?vid=cf2a99f0-171d-46e2-b5f9-b8e518581e33"},"vehicle_type_id":"4","last_reported":1727590300,"current_range_meters":34800,"station_id":"ce4bhi12rcd13ifvqfp0","pricing_plan_id":"cebpf4jnsgd1na2vs0mg"},{"bike_id":"e5f96fcd-0538-4d74-8ab8-d19e4df7cc95","system_id":"levelo_inurba_marseille","lat":43.31758,"lon":5.3901,"is_reserved":false,"is_disabled":false,"rental_uris":{"android":"levelo://app?vid=e5f96fcd-0538-4d74-8ab8-d19e4df7cc95","ios":"levelo://app?vid=e5f96fcd-0538-4d74-8ab8-d19e4df7cc95"},"vehicle_type_id":"4","last_reported":1727590300,"current_range_meters":10800,"station_id":"ce4bhqp2rcd13ifvqhng","pricing_plan_id":"cebpf4jnsgd1na2vs0mg"},{"bike_id":"60d9ce3d-2af9-47ba-90ad-995a8191b45d","system_id":"levelo_inurba_marseille","lat":43.30797,"lon":5.38155,"is_reserved":false,"is_disabled":false,"rental_uris":{"android":"levelo://app?vid=60d9ce3d-2af9-47ba-90ad-995a8191b45d","ios":"levelo://app?vid=60d9ce3d-2af9-47ba-90ad-995a8191b45d"},"vehicle_type_id":"4","last_reported":1727590300,"current_range_meters":32400,"station_id":"ce4bgt12rcd13ifvqce0","pricing_plan_id":"cebpf4jnsgd1na2vs0mg"},{"bike_id":"859e907e-3e01-45c3-acd9-550f385e7a79","system_id":"levelo_inurba_marseille","lat":43.27853,"lon":5.38496,"is_reserved":false,"is_disabled":false,"rental_uris":{"android":"levelo://app?vid=859e907e-3e01-45c3-acd9-550f385e7a79","ios":"levelo://app?vid=859e907e-3e01-45c3-acd9-550f385e7a79"},"vehicle_type_id":"4","last_reported":1727590300,"current_range_meters":25600,"station_id":"","pricing_plan_id":"cebpf4jnsgd1na2vs0mg"},{"bike_id":"a1585792-a705-409d-93a4-c31da8100088","system_id":"levelo_inurba_marseille","lat":43.23188,"lon":5.35556,"is_reserved":false,"is_disabled":false,"rental_uris":{"android":"levelo://app?vid=a1585792-a705-409d-93a4-c31da8100088","ios":"levelo://app?vid=a1585792-a705-409d-93a4-c31da8100088"},"vehicle_type_id":"4","last_reported":1727590300,"current_range_meters":10800,"station_id":"ce4bhu92rcd13ifvqi70","pricing_plan_id":"cebpf4jnsgd1na2vs0mg"},{"bike_id":"b8e2d9f3-2bfa-4db2-9db3-10638d12c8e0","system_id":"levelo_inurba_marseille","lat":43.27375,"lon":5.36257,"is_reserved":false,"is_disabled":false,"rental_uris":{"android":"levelo://app?vid=b8e2d9f3-2bfa-4db2-9db3-10638d12c8e0","ios":"levelo://app?vid=b8e2d9f3-2bfa-4db2-9db3-10638d12c8e0"},"vehicle_type_id":"4","last_reported":1727590300,"current_range_meters":37600,"station_id":"ce4bhbh2rcd13ifvqeo0","pricing_plan_id":"cebpf4jnsgd1na2vs0mg"},{"bike_id":"fdb61897-97d0-4689-adc4-02e79ee31d57","system_id":"levelo_inurba_marseille","lat":43.239603,"lon":5.36628,"is_reserved":false,"is_disabled":false,"rental_uris":{"android":"levelo://app?vid=fdb61897-97d0-4689-adc4-02e79ee31d57","ios":"levelo://app?vid=fdb61897-97d0-4689-adc4-02e79ee31d57"},"vehicle_type_id":"4","last_reported":1727590300,"current_range_meters":36800,"station_id":"ce4bhi12rcd13ifvqfp0","pricing_plan_id":"cebpf4jnsgd1na2vs0mg"},{"bike_id":"52f17877-110a-422d-89ae-fdeda162e6f3","system_id":"levelo_inurba_marseille","lat":43.23954,"lon":5.36634,"is_reserved":false,"is_disabled":false,"rental_uris":{"android":"levelo://app?vid=52f17877-110a-422d-89ae-fdeda162e6f3","ios":"levelo://app?vid=52f17877-110a-422d-89ae-fdeda162e6f3"},"vehicle_type_id":"4","last_reported":1727590300,"current_range_meters":8000,"station_id":"ce4bhi12rcd13ifvqfp0","pricing_plan_id":"cebpf4jnsgd1na2vs0mg"},{"bike_id":"7a8f28c6-ab6f-49c3-b59d-8e597cfc4655","system_id":"levelo_inurba_marseille","lat":43.3372,"lon":5.39175,"is_reserved":false,"is_disabled":false,"rental_uris":{"android":"levelo://app?vid=7a8f28c6-ab6f-49c3-b59d-8e597cfc4655","ios":"levelo://app?vid=7a8f28c6-ab6f-49c3-b59d-8e597cfc4655"},"vehicle_type_id":"4","last_reported":1727590300,"current_range_meters":18800,"station_id":"ce4bhr92rcd13ifvqhsg","pricing_plan_id":"cebpf4jnsgd1na2vs0mg"},{"bike_id":"635ca334-d837-4c80-9808-1fbb2c1a23ce","system_id":"levelo_inurba_marseille","lat":43.24389,"lon":5.37051,"is_reserved":false,"is_disabled":false,"rental_uris":{"android":"levelo://app?vid=635ca334-d837-4c80-9808-1fbb2c1a23ce","ios":"levelo://app?vid=635ca334-d837-4c80-9808-1fbb2c1a23ce"},"vehicle_type_id":"4","last_reported":1727590300,"current_range_meters":37600,"station_id":"ce4bhhh2rcd13ifvqfk0","pricing_plan_id":"cebpf4jnsgd1na2vs0mg"},{"bike_id":"76f413e3-c612-4d1b-b17d-3b3c1dd4352a","system_id":"levelo_inurba_marseille","lat":43.25572,"lon":5.38238,"is_reserved":false,"is_disabled":false,"rental_uris":{"android":"levelo://app?vid=76f413e3-c612-4d1b-b17d-3b3c1dd4352a","ios":"levelo://app?vid=76f413e3-c612-4d1b-b17d-3b3c1dd4352a"},"vehicle_type_id":"4","last_reported":1727590300,"current_range_meters":38800,"station_id":"ce4bhih2rcd13ifvqfs0","pricing_plan_id":"cebpf4jnsgd1na2vs0mg"},{"bike_id":"83ea36cb-5521-4f82-9511-1eb0dd2eba7b","system_id":"levelo_inurba_marseille","lat":43.28978,"lon":5.37836,"is_reserved":false,"is_disabled":false,"rental_uris":{"android":"levelo://app?vid=83ea36cb-5521-4f82-9511-1eb0dd2eba7b","ios":"levelo://app?vid=83ea36cb-5521-4f82-9511-1eb0dd2eba7b"},"vehicle_type_id":"4","last_reported":1727590300,"current_range_meters":34000,"station_id":"","pricing_plan_id":"cebpf4jnsgd1na2vs0mg"},{"bike_id":"61bfd186-0f27-4fc9-b2b6-ffff2e6b74f7","system_id":"levelo_inurba_marseille","lat":43.27374,"lon":5.36262,"is_reserved":false,"is_disabled":false,"rental_uris":{"android":"levelo://app?vid=61bfd186-0f27-4fc9-b2b6-ffff2e6b74f7","ios":"levelo://app?vid=61bfd186-0f27-4fc9-b2b6-ffff2e6b74f7"},"vehicle_type_id":"4","last_reported":1727590300,"current_range_meters":38400,"station_id":"ce4bhbh2rcd13ifvqeo0","pricing_plan_id":"cebpf4jnsgd1na2vs0mg"},{"bike_id":"ab994941-8182-4cf4-af2e-1d33fc2c5393","system_id":"levelo_inurba_marseille","lat":43.25726,"lon":5.41099,"is_reserved":false,"is_disabled":false,"rental_uris":{"android":"levelo://app?vid=ab994941-8182-4cf4-af2e-1d33fc2c5393","ios":"levelo://app?vid=ab994941-8182-4cf4-af2e-1d33fc2c5393"},"vehicle_type_id":"4","last_reported":1727590300,"current_range_meters":3600,"station_id":"ce4bhkp2rcd13ifvqgd0","pricing_plan_id":"cebpf4jnsgd1na2vs0mg"},{"bike_id":"1347408c-e17f-4890-9dba-2621d2b63fef","system_id":"levelo_inurba_marseille","lat":43.28074,"lon":5.39652,"is_reserved":false,"is_disabled":false,"rental_uris":{"android":"levelo://app?vid=1347408c-e17f-4890-9dba-2621d2b63fef","ios":"levelo://app?vid=1347408c-e17f-4890-9dba-2621d2b63fef"},"vehicle_type_id":"4","last_reported":1727590300,"current_range_meters":38800,"station_id":"ce4bho12rcd13ifvqh2g","pricing_plan_id":"cebpf4jnsgd1na2vs0mg"},{"bike_id":"8706dbad-74a1-4401-bd4a-b4ae01455ac4","system_id":"levelo_inurba_marseille","lat":43.27619,"lon":5.36105,"is_reserved":false,"is_disabled":false,"rental_uris":{"android":"levelo://app?vid=8706dbad-74a1-4401-bd4a-b4ae01455ac4","ios":"levelo://app?vid=8706dbad-74a1-4401-bd4a-b4ae01455ac4"},"vehicle_type_id":"4","last_reported":1727590300,"current_range_meters":16400,"station_id":"ce4bgj92rcd13ifvqbe0","pricing_plan_id":"cebpf4jnsgd1na2vs0mg"},{"bike_id":"87338c1f-f69b-4a70-b906-14af9e9c148a","system_id":"levelo_inurba_marseille","lat":43.32536,"lon":5.41452,"is_reserved":false,"is_disabled":false,"rental_uris":{"android":"levelo://app?vid=87338c1f-f69b-4a70-b906-14af9e9c148a","ios":"levelo://app?vid=87338c1f-f69b-4a70-b906-14af9e9c148a"},"vehicle_type_id":"4","last_reported":1727590300,"current_range_meters":40000,"station_id":"ce4bhq12rcd13ifvqhhg","pricing_plan_id":"cebpf4jnsgd1na2vs0mg"},{"bike_id":"22fdebd7-346e-4458-a5e7-e4cd59d653af","system_id":"levelo_inurba_marseille","lat":43.27903,"lon":5.38009,"is_reserved":false,"is_disabled":false,"rental_uris":{"android":"levelo://app?vid=22fdebd7-346e-4458-a5e7-e4cd59d653af","ios":"levelo://app?vid=22fdebd7-346e-4458-a5e7-e4cd59d653af"},"vehicle_type_id":"4","last_reported":1727590300,"current_range_meters":38800,"station_id":"ce4bhf92rcd13ifvqf50","pricing_plan_id":"cebpf4jnsgd1na2vs0mg"},{"bike_id":"9e0e602a-711e-4e75-a4b3-f0d70db8f823","system_id":"levelo_inurba_marseille","lat":43.2396,"lon":5.36626,"is_reserved":false,"is_disabled":false,"rental_uris":{"android":"levelo://app?vid=9e0e602a-711e-4e75-a4b3-f0d70db8f823","ios":"levelo://app?vid=9e0e602a-711e-4e75-a4b3-f0d70db8f823"},"vehicle_type_id":"4","last_reported":1727590300,"current_range_meters":16000,"station_id":"ce4bhi12rcd13ifvqfp0","pricing_plan_id":"cebpf4jnsgd1na2vs0mg"},{"bike_id":"64287320-744d-4ddf-8d29-f29a538a1023","system_id":"levelo_inurba_marseille","lat":43.30459,"lon":5.37903,"is_reserved":false,"is_disabled":false,"rental_uris":{"android":"levelo://app?vid=64287320-744d-4ddf-8d29-f29a538a1023","ios":"levelo://app?vid=64287320-744d-4ddf-8d29-f29a538a1023"},"vehicle_type_id":"4","last_reported":1727590300,"current_range_meters":40000,"station_id":"ce4bgup2rcd13ifvqcn0","pricing_plan_id":"cebpf4jnsgd1na2vs0mg"},{"bike_id":"594923ab-6151-46ef-b1e9-625586026106","system_id":"levelo_inurba_marseille","lat":43.3133,"lon":5.39697,"is_reserved":false,"is_disabled":false,"rental_uris":{"android":"levelo://app?vid=594923ab-6151-46ef-b1e9-625586026106","ios":"levelo://app?vid=594923ab-6151-46ef-b1e9-625586026106"},"vehicle_type_id":"4","last_reported":1727590300,"current_range_meters":4800,"station_id":"ce4bgvp2rcd13ifvqcu0","pricing_plan_id":"cebpf4jnsgd1na2vs0mg"},{"bike_id":"e15fc624-10d4-48c6-8836-d53a871a2c45","system_id":"levelo_inurba_marseille","lat":43.28155,"lon":5.42648,"is_reserved":false,"is_disabled":false,"rental_uris":{"android":"levelo://app?vid=e15fc624-10d4-48c6-8836-d53a871a2c45","ios":"levelo://app?vid=e15fc624-10d4-48c6-8836-d53a871a2c45"},"vehicle_type_id":"4","last_reported":1727590300,"current_range_meters":38800,"station_id":"ce4bhnh2rcd13ifvqgug","pricing_plan_id":"cebpf4jnsgd1na2vs0mg"},{"bike_id":"5dccdce7-b1a1-4eb6-81a2-8dca1382289c","system_id":"levelo_inurba_marseille","lat":43.33022,"lon":5.39042,"is_reserved":false,"is_disabled":false,"rental_uris":{"android":"levelo://app?vid=5dccdce7-b1a1-4eb6-81a2-8dca1382289c","ios":"levelo://app?vid=5dccdce7-b1a1-4eb6-81a2-8dca1382289c"},"vehicle_type_id":"4","last_reported":1727590300,"current_range_meters":40000,"station_id":"ce4bhr92rcd13ifvqhrg","pricing_plan_id":"cebpf4jnsgd1na2vs0mg"},{"bike_id":"efc1c3f2-f694-490f-a791-42653749f3d6","system_id":"levelo_inurba_marseille","lat":43.29621,"lon":5.37723,"is_reserved":false,"is_disabled":false,"rental_uris":{"android":"levelo://app?vid=efc1c3f2-f694-490f-a791-42653749f3d6","ios":"levelo://app?vid=efc1c3f2-f694-490f-a791-42653749f3d6"},"vehicle_type_id":"4","last_reported":1727590300,"current_range_meters":38000,"station_id":"ce4bgi92rcd13ifvqb90","pricing_plan_id":"cebpf4jnsgd1na2vs0mg"},{"bike_id":"4b66f5f2-c486-47ac-bf11-139e5b2e7872","system_id":"levelo_inurba_marseille","lat":43.31085,"lon":5.42431,"is_reserved":false,"is_disabled":false,"rental_uris":{"android":"levelo://app?vid=4b66f5f2-c486-47ac-bf11-139e5b2e7872","ios":"levelo://app?vid=4b66f5f2-c486-47ac-bf11-139e5b2e7872"},"vehicle_type_id":"4","last_reported":1727590300,"current_range_meters":38800,"station_id":"ce4bhp92rcd13ifvqhag","pricing_plan_id":"cebpf4jnsgd1na2vs0mg"},{"bike_id":"5f0d5c99-8030-458d-9ec5-e24ec96db0ec","system_id":"levelo_inurba_marseille","lat":43.301364,"lon":5.398737,"is_reserved":false,"is_disabled":false,"rental_uris":{"android":"levelo://app?vid=5f0d5c99-8030-458d-9ec5-e24ec96db0ec","ios":"levelo://app?vid=5f0d5c99-8030-458d-9ec5-e24ec96db0ec"},"vehicle_type_id":"4","last_reported":1727590300,"current_range_meters":37600,"station_id":"ce4bh0h2rcd13ifvqd40","pricing_plan_id":"cebpf4jnsgd1na2vs0mg"},{"bike_id":"c927a38f-43b7-45b7-a5a3-93db5b33cc87","system_id":"levelo_inurba_marseille","lat":43.31174,"lon":5.38718,"is_reserved":false,"is_disabled":false,"rental_uris":{"android":"levelo://app?vid=c927a38f-43b7-45b7-a5a3-93db5b33cc87","ios":"levelo://app?vid=c927a38f-43b7-45b7-a5a3-93db5b33cc87"},"vehicle_type_id":"4","last_reported":1727590300,"current_range_meters":29600,"station_id":"ce4bgv12rcd13ifvqcp0","pricing_plan_id":"cebpf4jnsgd1na2vs0mg"},{"bike_id":"7f547f2c-2d77-4967-a139-3b315bb56795","system_id":"levelo_inurba_marseille","lat":43.29042,"lon":5.3593,"is_reserved":false,"is_disabled":false,"rental_uris":{"android":"levelo://app?vid=7f547f2c-2d77-4967-a139-3b315bb56795","ios":"levelo://app?vid=7f547f2c-2d77-4967-a139-3b315bb56795"},"vehicle_type_id":"4","last_reported":1727590300,"current_range_meters":26800,"station_id":"ce4bha92rcd13ifvqeg0","pricing_plan_id":"cebpf4jnsgd1na2vs0mg"},{"bike_id":"801dee94-6df9-4ac7-b8ff-19b18de3acb6","system_id":"levelo_inurba_marseille","lat":43.31997,"lon":5.38145,"is_reserved":false,"is_disabled":false,"rental_uris":{"android":"levelo://app?vid=801dee94-6df9-4ac7-b8ff-19b18de3acb6","ios":"levelo://app?vid=801dee94-6df9-4ac7-b8ff-19b18de3acb6"},"vehicle_type_id":"4","last_reported":1727590300,"current_range_meters":24000,"station_id":"ce4bhr12rcd13ifvqhpg","pricing_plan_id":"cebpf4jnsgd1na2vs0mg"},{"bike_id":"848da01c-249f-40a1-a74f-e4a7991db9ba","system_id":"levelo_inurba_marseille","lat":43.27571,"lon":5.38428,"is_reserved":false,"is_disabled":false,"rental_uris":{"android":"levelo://app?vid=848da01c-249f-40a1-a74f-e4a7991db9ba","ios":"levelo://app?vid=848da01c-249f-40a1-a74f-e4a7991db9ba"},"vehicle_type_id":"4","last_reported":1727590300,"current_range_meters":6400,"station_id":"ce4bhh92rcd13ifvqfi0","pricing_plan_id":"cebpf4jnsgd1na2vs0mg"},{"bike_id":"2368dc92-4df2-4be1-b78c-f6fe797e68e2","system_id":"levelo_inurba_marseille","lat":43.27833,"lon":5.39204,"is_reserved":false,"is_disabled":false,"rental_uris":{"android":"levelo://app?vid=2368dc92-4df2-4be1-b78c-f6fe797e68e2","ios":"levelo://app?vid=2368dc92-4df2-4be1-b78c-f6fe797e68e2"},"vehicle_type_id":"4","last_reported":1727590300,"current_range_meters":38000,"station_id":"ce4bhjp2rcd13ifvqga0","pricing_plan_id":"cebpf4jnsgd1na2vs0mg"},{"bike_id":"14e6435e-3051-4b48-9562-4e428d1050a4","system_id":"levelo_inurba_marseille","lat":43.3112,"lon":5.37749,"is_reserved":false,"is_disabled":false,"rental_uris":{"android":"levelo://app?vid=14e6435e-3051-4b48-9562-4e428d1050a4","ios":"levelo://app?vid=14e6435e-3051-4b48-9562-4e428d1050a4"},"vehicle_type_id":"4","last_reported":1727590300,"current_range_meters":38000,"station_id":"ce4bgt92rcd13ifvqcg0","pricing_plan_id":"cebpf4jnsgd1na2vs0mg"},{"bike_id":"f3e0ef07-5fcd-43a3-954d-2462bcc1ac11","system_id":"levelo_inurba_marseille","lat":43.306,"lon":5.37207,"is_reserved":false,"is_disabled":false,"rental_uris":{"android":"levelo://app?vid=f3e0ef07-5fcd-43a3-954d-2462bcc1ac11","ios":"levelo://app?vid=f3e0ef07-5fcd-43a3-954d-2462bcc1ac11"},"vehicle_type_id":"4","last_reported":1727590300,"current_range_meters":39200,"station_id":"ce4bgqh2rcd13ifvqc4g","pricing_plan_id":"cebpf4jnsgd1na2vs0mg"},{"bike_id":"5667981f-e35c-4801-90dd-6e56d87feaaf","system_id":"levelo_inurba_marseille","lat":43.23152,"lon":5.43702,"is_reserved":false,"is_disabled":false,"rental_uris":{"android":"levelo://app?vid=5667981f-e35c-4801-90dd-6e56d87feaaf","ios":"levelo://app?vid=5667981f-e35c-4801-90dd-6e56d87feaaf"},"vehicle_type_id":"4","last_reported":1727590300,"current_range_meters":4000,"station_id":"ce4bhmp2rcd13ifvqgog","pricing_plan_id":"cebpf4jnsgd1na2vs0mg"},{"bike_id":"7e89877b-1540-4b0e-8510-b199e7b510e3","system_id":"levelo_inurba_marseille","lat":43.26803,"lon":5.40267,"is_reserved":false,"is_disabled":false,"rental_uris":{"android":"levelo://app?vid=7e89877b-1540-4b0e-8510-b199e7b510e3","ios":"levelo://app?vid=7e89877b-1540-4b0e-8510-b199e7b510e3"},"vehicle_type_id":"4","last_reported":1727590300,"current_range_meters":37600,"station_id":"ce501612rcd8frsf0b60","pricing_plan_id":"cebpf4jnsgd1na2vs0mg"},{"bike_id":"258e025d-f605-4338-84a0-17f713af0b8d","system_id":"levelo_inurba_marseille","lat":43.24805,"lon":5.37455,"is_reserved":false,"is_disabled":false,"rental_uris":{"android":"levelo://app?vid=258e025d-f605-4338-84a0-17f713af0b8d","ios":"levelo://app?vid=258e025d-f605-4338-84a0-17f713af0b8d"},"vehicle_type_id":"4","last_reported":1727590300,"current_range_meters":36800,"station_id":"ce4bhgh2rcd13ifvqfb0","pricing_plan_id":"cebpf4jnsgd1na2vs0mg"},{"bike_id":"48ac0a00-7daa-4c12-9a4d-5dab28220f2e","system_id":"levelo_inurba_marseille","lat":43.32363,"lon":5.3888,"is_reserved":false,"is_disabled":false,"rental_uris":{"android":"levelo://app?vid=48ac0a00-7daa-4c12-9a4d-5dab28220f2e","ios":"levelo://app?vid=48ac0a00-7daa-4c12-9a4d-5dab28220f2e"},"vehicle_type_id":"4","last_reported":1727590300,"current_range_meters":8400,"station_id":"ce4bhqp2rcd13ifvqhog","pricing_plan_id":"cebpf4jnsgd1na2vs0mg"},{"bike_id":"c6638d32-9ecd-4fa3-9332-f6c79a15bec5","system_id":"levelo_inurba_marseille","lat":43.28622,"lon":5.351,"is_reserved":false,"is_disabled":false,"rental_uris":{"android":"levelo://app?vid=c6638d32-9ecd-4fa3-9332-f6c79a15bec5","ios":"levelo://app?vid=c6638d32-9ecd-4fa3-9332-f6c79a15bec5"},"vehicle_type_id":"4","last_reported":1727590300,"current_range_meters":38000,"station_id":"ce4bhch2rcd13ifvqeug","pricing_plan_id":"cebpf4jnsgd1na2vs0mg"},{"bike_id":"2b89b034-9d48-4061-89ca-7cd2f5925637","system_id":"levelo_inurba_marseille","lat":43.28668,"lon":5.36349,"is_reserved":false,"is_disabled":false,"rental_uris":{"android":"levelo://app?vid=2b89b034-9d48-4061-89ca-7cd2f5925637","ios":"levelo://app?vid=2b89b034-9d48-4061-89ca-7cd2f5925637"},"vehicle_type_id":"4","last_reported":1727590300,"current_range_meters":40000,"station_id":"ce4bhah2rcd13ifvqej0","pricing_plan_id":"cebpf4jnsgd1na2vs0mg"},{"bike_id":"109b3c0c-8bf1-4c6c-995c-e118c5a0c15c","system_id":"levelo_inurba_marseille","lat":43.27565,"lon":5.38442,"is_reserved":false,"is_disabled":false,"rental_uris":{"android":"levelo://app?vid=109b3c0c-8bf1-4c6c-995c-e118c5a0c15c","ios":"levelo://app?vid=109b3c0c-8bf1-4c6c-995c-e118c5a0c15c"},"vehicle_type_id":"4","last_reported":1727590300,"current_range_meters":38400,"station_id":"ce4bhh92rcd13ifvqfi0","pricing_plan_id":"cebpf4jnsgd1na2vs0mg"},{"bike_id":"8a6c7abd-e081-4cd2-b56a-81da52a2faa6","system_id":"levelo_inurba_marseille","lat":43.26932,"lon":5.3892,"is_reserved":false,"is_disabled":false,"rental_uris":{"android":"levelo://app?vid=8a6c7abd-e081-4cd2-b56a-81da52a2faa6","ios":"levelo://app?vid=8a6c7abd-e081-4cd2-b56a-81da52a2faa6"},"vehicle_type_id":"4","last_reported":1727590300,"current_range_meters":38800,"station_id":"ce4bhhh2rcd13ifvqfl0","pricing_plan_id":"cebpf4jnsgd1na2vs0mg"},{"bike_id":"1f313afb-1cf8-4bb7-8831-2c9f193c2d0c","system_id":"levelo_inurba_marseille","lat":43.24805,"lon":5.37454,"is_reserved":false,"is_disabled":false,"rental_uris":{"android":"levelo://app?vid=1f313afb-1cf8-4bb7-8831-2c9f193c2d0c","ios":"levelo://app?vid=1f313afb-1cf8-4bb7-8831-2c9f193c2d0c"},"vehicle_type_id":"4","last_reported":1727590300,"current_range_meters":38400,"station_id":"ce4bhgh2rcd13ifvqfb0","pricing_plan_id":"cebpf4jnsgd1na2vs0mg"},{"bike_id":"a63d4449-4f5a-4f1c-9a3c-27c8d74bd2a3","system_id":"levelo_inurba_marseille","lat":43.24394,"lon":5.37066,"is_reserved":false,"is_disabled":false,"rental_uris":{"android":"levelo://app?vid=a63d4449-4f5a-4f1c-9a3c-27c8d74bd2a3","ios":"levelo://app?vid=a63d4449-4f5a-4f1c-9a3c-27c8d74bd2a3"},"vehicle_type_id":"4","last_reported":1727590300,"current_range_meters":11200,"station_id":"ce4bhhh2rcd13ifvqfk0","pricing_plan_id":"cebpf4jnsgd1na2vs0mg"},{"bike_id":"f053546e-9417-4cdc-8c24-aa8dc21c1501","system_id":"levelo_inurba_marseille","lat":43.28458,"lon":5.35884,"is_reserved":false,"is_disabled":false,"rental_uris":{"android":"levelo://app?vid=f053546e-9417-4cdc-8c24-aa8dc21c1501","ios":"levelo://app?vid=f053546e-9417-4cdc-8c24-aa8dc21c1501"},"vehicle_type_id":"4","last_reported":1727590300,"current_range_meters":40000,"station_id":"ce4bhah2rcd13ifvqei0","pricing_plan_id":"cebpf4jnsgd1na2vs0mg"},{"bike_id":"fdbff6dc-e632-4bb3-8047-08d476ef92e5","system_id":"levelo_inurba_marseille","lat":43.29275,"lon":5.40121,"is_reserved":false,"is_disabled":false,"rental_uris":{"android":"levelo://app?vid=fdbff6dc-e632-4bb3-8047-08d476ef92e5","ios":"levelo://app?vid=fdbff6dc-e632-4bb3-8047-08d476ef92e5"},"vehicle_type_id":"4","last_reported":1727590300,"current_range_meters":30000,"station_id":"ce4bh312rcd13ifvqdk0","pricing_plan_id":"cebpf4jnsgd1na2vs0mg"},{"bike_id":"8a94828f-a35b-41cc-ba6b-1d284c7f36f6","system_id":"levelo_inurba_marseille","lat":43.279,"lon":5.38003,"is_reserved":false,"is_disabled":false,"rental_uris":{"android":"levelo://app?vid=8a94828f-a35b-41cc-ba6b-1d284c7f36f6","ios":"levelo://app?vid=8a94828f-a35b-41cc-ba6b-1d284c7f36f6"},"vehicle_type_id":"4","last_reported":1727590300,"current_range_meters":38000,"station_id":"ce4bhf92rcd13ifvqf50","pricing_plan_id":"cebpf4jnsgd1na2vs0mg"},{"bike_id":"0de489e3-c290-4da8-9f5b-10614590b5e5","system_id":"levelo_inurba_marseille","lat":43.25114,"lon":5.40318,"is_reserved":false,"is_disabled":false,"rental_uris":{"android":"levelo://app?vid=0de489e3-c290-4da8-9f5b-10614590b5e5","ios":"levelo://app?vid=0de489e3-c290-4da8-9f5b-10614590b5e5"},"vehicle_type_id":"4","last_reported":1727590300,"current_range_meters":38400,"station_id":"ce4bhlh2rcd13ifvqgig","pricing_plan_id":"cebpf4jnsgd1na2vs0mg"},{"bike_id":"ac40f457-c919-4cdf-944d-c5636ac28a58","system_id":"levelo_inurba_marseille","lat":43.33022,"lon":5.39036,"is_reserved":false,"is_disabled":false,"rental_uris":{"android":"levelo://app?vid=ac40f457-c919-4cdf-944d-c5636ac28a58","ios":"levelo://app?vid=ac40f457-c919-4cdf-944d-c5636ac28a58"},"vehicle_type_id":"4","last_reported":1727590300,"current_range_meters":20000,"station_id":"ce4bhr92rcd13ifvqhrg","pricing_plan_id":"cebpf4jnsgd1na2vs0mg"},{"bike_id":"bc7dc6a9-589f-4649-9e06-6ce7434d3293","system_id":"levelo_inurba_marseille","lat":43.29038,"lon":5.36954,"is_reserved":false,"is_disabled":false,"rental_uris":{"android":"levelo://app?vid=bc7dc6a9-589f-4649-9e06-6ce7434d3293","ios":"levelo://app?vid=bc7dc6a9-589f-4649-9e06-6ce7434d3293"},"vehicle_type_id":"4","last_reported":1727590300,"current_range_meters":27200,"station_id":"ce4bhah2rcd13ifvqej0","pricing_plan_id":"cebpf4jnsgd1na2vs0mg"},{"bike_id":"f8cd1665-2182-42bb-993d-799437deb95c","system_id":"levelo_inurba_marseille","lat":43.23191,"lon":5.35567,"is_reserved":false,"is_disabled":false,"rental_uris":{"android":"levelo://app?vid=f8cd1665-2182-42bb-993d-799437deb95c","ios":"levelo://app?vid=f8cd1665-2182-42bb-993d-799437deb95c"},"vehicle_type_id":"4","last_reported":1727590300,"current_range_meters":4400,"station_id":"ce4bhu92rcd13ifvqi70","pricing_plan_id":"cebpf4jnsgd1na2vs0mg"},{"bike_id":"62142b15-8bfd-475a-9182-906ecbd6c8e4","system_id":"levelo_inurba_marseille","lat":43.26215,"lon":5.37438,"is_reserved":false,"is_disabled":false,"rental_uris":{"android":"levelo://app?vid=62142b15-8bfd-475a-9182-906ecbd6c8e4","ios":"levelo://app?vid=62142b15-8bfd-475a-9182-906ecbd6c8e4"},"vehicle_type_id":"4","last_reported":1727590300,"current_range_meters":8400,"station_id":"ce4bhgp2rcd13ifvqfc0","pricing_plan_id":"cebpf4jnsgd1na2vs0mg"},{"bike_id":"31fa25e9-2d65-4c2d-b7d1-53ad6527cbe6","system_id":"levelo_inurba_marseille","lat":43.30794,"lon":5.38149,"is_reserved":false,"is_disabled":false,"rental_uris":{"android":"levelo://app?vid=31fa25e9-2d65-4c2d-b7d1-53ad6527cbe6","ios":"levelo://app?vid=31fa25e9-2d65-4c2d-b7d1-53ad6527cbe6"},"vehicle_type_id":"4","last_reported":1727590300,"current_range_meters":38800,"station_id":"ce4bgt12rcd13ifvqce0","pricing_plan_id":"cebpf4jnsgd1na2vs0mg"},{"bike_id":"0769877c-c4e7-47ae-99ae-b7d49750ae44","system_id":"levelo_inurba_marseille","lat":43.287,"lon":5.39974,"is_reserved":false,"is_disabled":false,"rental_uris":{"android":"levelo://app?vid=0769877c-c4e7-47ae-99ae-b7d49750ae44","ios":"levelo://app?vid=0769877c-c4e7-47ae-99ae-b7d49750ae44"},"vehicle_type_id":"4","last_reported":1727590300,"current_range_meters":40000,"station_id":"ce4bho92rcd13ifvqh3g","pricing_plan_id":"cebpf4jnsgd1na2vs0mg"},{"bike_id":"d473955d-353d-4a59-b0dc-1289d1123eb4","system_id":"levelo_inurba_marseille","lat":43.26951,"lon":5.38617,"is_reserved":false,"is_disabled":false,"rental_uris":{"android":"levelo://app?vid=d473955d-353d-4a59-b0dc-1289d1123eb4","ios":"levelo://app?vid=d473955d-353d-4a59-b0dc-1289d1123eb4"},"vehicle_type_id":"4","last_reported":1727590300,"current_range_meters":32800,"station_id":"ce4bhh92rcd13ifvqfh0","pricing_plan_id":"cebpf4jnsgd1na2vs0mg"},{"bike_id":"4962e903-e156-4362-9553-6fb2f9c6d618","system_id":"levelo_inurba_marseille","lat":43.258672,"lon":5.399003,"is_reserved":false,"is_disabled":false,"rental_uris":{"android":"levelo://app?vid=4962e903-e156-4362-9553-6fb2f9c6d618","ios":"levelo://app?vid=4962e903-e156-4362-9553-6fb2f9c6d618"},"vehicle_type_id":"4","last_reported":1727590300,"current_range_meters":38800,"station_id":"ce4bhl92rcd13ifvqghg","pricing_plan_id":"cebpf4jnsgd1na2vs0mg"},{"bike_id":"b88d9d52-05ee-4128-99a8-297f7af1a3f5","system_id":"levelo_inurba_marseille","lat":43.2582,"lon":5.39434,"is_reserved":false,"is_disabled":false,"rental_uris":{"android":"levelo://app?vid=b88d9d52-05ee-4128-99a8-297f7af1a3f5","ios":"levelo://app?vid=b88d9d52-05ee-4128-99a8-297f7af1a3f5"},"vehicle_type_id":"4","last_reported":1727590300,"current_range_meters":28800,"station_id":"ce4bhip2rcd13ifvqft0","pricing_plan_id":"cebpf4jnsgd1na2vs0mg"},{"bike_id":"822e70a6-8a18-4c11-b1f3-48b58fc904f3","system_id":"levelo_inurba_marseille","lat":43.26785,"lon":5.39418,"is_reserved":false,"is_disabled":false,"rental_uris":{"android":"levelo://app?vid=822e70a6-8a18-4c11-b1f3-48b58fc904f3","ios":"levelo://app?vid=822e70a6-8a18-4c11-b1f3-48b58fc904f3"},"vehicle_type_id":"4","last_reported":1727590300,"current_range_meters":30000,"station_id":"ce4bhh12rcd13ifvqfg0","pricing_plan_id":"cebpf4jnsgd1na2vs0mg"},{"bike_id":"2bec0f1e-8357-4f60-8192-984e2df43207","system_id":"levelo_inurba_marseille","lat":43.26562,"lon":5.39011,"is_reserved":false,"is_disabled":false,"rental_uris":{"android":"levelo://app?vid=2bec0f1e-8357-4f60-8192-984e2df43207","ios":"levelo://app?vid=2bec0f1e-8357-4f60-8192-984e2df43207"},"vehicle_type_id":"4","last_reported":1727590300,"current_range_meters":23200,"station_id":"ce4bhe12rcd13ifvqf30","pricing_plan_id":"cebpf4jnsgd1na2vs0mg"},{"bike_id":"6d42d371-9af6-42b1-bbe8-a9738929c51a","system_id":"levelo_inurba_marseille","lat":43.30462,"lon":5.37904,"is_reserved":false,"is_disabled":false,"rental_uris":{"android":"levelo://app?vid=6d42d371-9af6-42b1-bbe8-a9738929c51a","ios":"levelo://app?vid=6d42d371-9af6-42b1-bbe8-a9738929c51a"},"vehicle_type_id":"4","last_reported":1727590300,"current_range_meters":26800,"station_id":"ce4bgup2rcd13ifvqcn0","pricing_plan_id":"cebpf4jnsgd1na2vs0mg"},{"bike_id":"788c55ca-332a-4092-b89e-a26254fd6c30","system_id":"levelo_inurba_marseille","lat":43.29569,"lon":5.37511,"is_reserved":false,"is_disabled":false,"rental_uris":{"android":"levelo://app?vid=788c55ca-332a-4092-b89e-a26254fd6c30","ios":"levelo://app?vid=788c55ca-332a-4092-b89e-a26254fd6c30"},"vehicle_type_id":"4","last_reported":1727590300,"current_range_meters":28400,"station_id":"ce4bgh92rcd13ifvqb50","pricing_plan_id":"cebpf4jnsgd1na2vs0mg"},{"bike_id":"ed84faff-17c5-48fb-8753-c2f883b40c1d","system_id":"levelo_inurba_marseille","lat":43.23962,"lon":5.36646,"is_reserved":false,"is_disabled":false,"rental_uris":{"android":"levelo://app?vid=ed84faff-17c5-48fb-8753-c2f883b40c1d","ios":"levelo://app?vid=ed84faff-17c5-48fb-8753-c2f883b40c1d"},"vehicle_type_id":"4","last_reported":1727590300,"current_range_meters":38800,"station_id":"ce4bhi12rcd13ifvqfp0","pricing_plan_id":"cebpf4jnsgd1na2vs0mg"},{"bike_id":"1fc6360b-b716-4868-9d7c-71fb261a0a10","system_id":"levelo_inurba_marseille","lat":43.32002,"lon":5.38145,"is_reserved":false,"is_disabled":false,"rental_uris":{"android":"levelo://app?vid=1fc6360b-b716-4868-9d7c-71fb261a0a10","ios":"levelo://app?vid=1fc6360b-b716-4868-9d7c-71fb261a0a10"},"vehicle_type_id":"4","last_reported":1727590300,"current_range_meters":29600,"station_id":"ce4bhr12rcd13ifvqhpg","pricing_plan_id":"cebpf4jnsgd1na2vs0mg"},{"bike_id":"3b170ecf-4bbb-421f-886d-94818fba1de8","system_id":"levelo_inurba_marseille","lat":43.28483,"lon":5.40013,"is_reserved":false,"is_disabled":false,"rental_uris":{"android":"levelo://app?vid=3b170ecf-4bbb-421f-886d-94818fba1de8","ios":"levelo://app?vid=3b170ecf-4bbb-421f-886d-94818fba1de8"},"vehicle_type_id":"4","last_reported":1727590300,"current_range_meters":32800,"station_id":"ce4bh2h2rcd13ifvqdh0","pricing_plan_id":"cebpf4jnsgd1na2vs0mg"},{"bike_id":"e5683fea-1c74-46fc-962a-62e782ca8409","system_id":"levelo_inurba_marseille","lat":43.29019,"lon":5.38657,"is_reserved":false,"is_disabled":false,"rental_uris":{"android":"levelo://app?vid=e5683fea-1c74-46fc-962a-62e782ca8409","ios":"levelo://app?vid=e5683fea-1c74-46fc-962a-62e782ca8409"},"vehicle_type_id":"4","last_reported":1727590300,"current_range_meters":27600,"station_id":"ce4bh4p2rcd13ifvqe0g","pricing_plan_id":"cebpf4jnsgd1na2vs0mg"},{"bike_id":"a84742ce-84eb-4d21-873c-4e72b449188c","system_id":"levelo_inurba_marseille","lat":43.26201,"lon":5.37934,"is_reserved":false,"is_disabled":false,"rental_uris":{"android":"levelo://app?vid=a84742ce-84eb-4d21-873c-4e72b449188c","ios":"levelo://app?vid=a84742ce-84eb-4d21-873c-4e72b449188c"},"vehicle_type_id":"4","last_reported":1727590300,"current_range_meters":36400,"station_id":"ce4bhjp2rcd13ifvqg90","pricing_plan_id":"cebpf4jnsgd1na2vs0mg"},{"bike_id":"b1fbf633-158f-4826-87cd-61ac506ccf65","system_id":"levelo_inurba_marseille","lat":43.33612,"lon":5.4103,"is_reserved":false,"is_disabled":false,"rental_uris":{"android":"levelo://app?vid=b1fbf633-158f-4826-87cd-61ac506ccf65","ios":"levelo://app?vid=b1fbf633-158f-4826-87cd-61ac506ccf65"},"vehicle_type_id":"4","last_reported":1727590300,"current_range_meters":38000,"station_id":"ce4bhqh2rcd13ifvqhmg","pricing_plan_id":"cebpf4jnsgd1na2vs0mg"},{"bike_id":"b0770d00-c38f-4e37-b240-ed7bc5977b1a","system_id":"levelo_inurba_marseille","lat":43.24653,"lon":5.389,"is_reserved":false,"is_disabled":false,"rental_uris":{"android":"levelo://app?vid=b0770d00-c38f-4e37-b240-ed7bc5977b1a","ios":"levelo://app?vid=b0770d00-c38f-4e37-b240-ed7bc5977b1a"},"vehicle_type_id":"4","last_reported":1727590300,"current_range_meters":38000,"station_id":"ce4bhg12rcd13ifvqf60","pricing_plan_id":"cebpf4jnsgd1na2vs0mg"},{"bike_id":"a3688464-e73a-4d75-ac1f-64edd469d10b","system_id":"levelo_inurba_marseille","lat":43.30602,"lon":5.37228,"is_reserved":false,"is_disabled":false,"rental_uris":{"android":"levelo://app?vid=a3688464-e73a-4d75-ac1f-64edd469d10b","ios":"levelo://app?vid=a3688464-e73a-4d75-ac1f-64edd469d10b"},"vehicle_type_id":"4","last_reported":1727590300,"current_range_meters":38800,"station_id":"ce4bgqh2rcd13ifvqc4g","pricing_plan_id":"cebpf4jnsgd1na2vs0mg"},{"bike_id":"7cbdd151-1e4e-434f-a539-3a67c68f4471","system_id":"levelo_inurba_marseille","lat":43.23181,"lon":5.39998,"is_reserved":false,"is_disabled":false,"rental_uris":{"android":"levelo://app?vid=7cbdd151-1e4e-434f-a539-3a67c68f4471","ios":"levelo://app?vid=7cbdd151-1e4e-434f-a539-3a67c68f4471"},"vehicle_type_id":"4","last_reported":1727590300,"current_range_meters":27200,"station_id":"ce4bhn12rcd13ifvqgqg","pricing_plan_id":"cebpf4jnsgd1na2vs0mg"},{"bike_id":"5c0ee3d8-3fde-4c5b-a0ec-0837e67c9747","system_id":"levelo_inurba_marseille","lat":43.30355,"lon":5.41879,"is_reserved":false,"is_disabled":false,"rental_uris":{"android":"levelo://app?vid=5c0ee3d8-3fde-4c5b-a0ec-0837e67c9747","ios":"levelo://app?vid=5c0ee3d8-3fde-4c5b-a0ec-0837e67c9747"},"vehicle_type_id":"4","last_reported":1727590300,"current_range_meters":6400,"station_id":"ce4bhop2rcd13ifvqh7g","pricing_plan_id":"cebpf4jnsgd1na2vs0mg"},{"bike_id":"b4d5cc87-74f3-4d5f-891d-6e50dc9154a1","system_id":"levelo_inurba_marseille","lat":43.28434,"lon":5.3918,"is_reserved":false,"is_disabled":false,"rental_uris":{"android":"levelo://app?vid=b4d5cc87-74f3-4d5f-891d-6e50dc9154a1","ios":"levelo://app?vid=b4d5cc87-74f3-4d5f-891d-6e50dc9154a1"},"vehicle_type_id":"4","last_reported":1727590300,"current_range_meters":24800,"station_id":"ce4bhoh2rcd13ifvqh5g","pricing_plan_id":"cebpf4jnsgd1na2vs0mg"},{"bike_id":"54c00a09-01bb-4a57-946d-3b8cde3c575e","system_id":"levelo_inurba_marseille","lat":43.31881,"lon":5.40734,"is_reserved":false,"is_disabled":false,"rental_uris":{"android":"levelo://app?vid=54c00a09-01bb-4a57-946d-3b8cde3c575e","ios":"levelo://app?vid=54c00a09-01bb-4a57-946d-3b8cde3c575e"},"vehicle_type_id":"4","last_reported":1727590300,"current_range_meters":38400,"station_id":"ce4bhq12rcd13ifvqhig","pricing_plan_id":"cebpf4jnsgd1na2vs0mg"},{"bike_id":"c51e285c-8141-4023-9ee3-49bcc68cf98c","system_id":"levelo_inurba_marseille","lat":43.25089,"lon":5.39521,"is_reserved":false,"is_disabled":false,"rental_uris":{"android":"levelo://app?vid=c51e285c-8141-4023-9ee3-49bcc68cf98c","ios":"levelo://app?vid=c51e285c-8141-4023-9ee3-49bcc68cf98c"},"vehicle_type_id":"4","last_reported":1727590300,"current_range_meters":38800,"station_id":"ce4bhm12rcd13ifvqgkg","pricing_plan_id":"cebpf4jnsgd1na2vs0mg"},{"bike_id":"6e9e9c84-4807-4bab-93ef-2a5c344de687","system_id":"levelo_inurba_marseille","lat":43.28467,"lon":5.35879,"is_reserved":false,"is_disabled":false,"rental_uris":{"android":"levelo://app?vid=6e9e9c84-4807-4bab-93ef-2a5c344de687","ios":"levelo://app?vid=6e9e9c84-4807-4bab-93ef-2a5c344de687"},"vehicle_type_id":"4","last_reported":1727590300,"current_range_meters":30400,"station_id":"ce4bhah2rcd13ifvqei0","pricing_plan_id":"cebpf4jnsgd1na2vs0mg"},{"bike_id":"0b40e706-8c39-4aa5-8f34-f4f079532106","system_id":"levelo_inurba_marseille","lat":43.23192,"lon":5.35542,"is_reserved":false,"is_disabled":false,"rental_uris":{"android":"levelo://app?vid=0b40e706-8c39-4aa5-8f34-f4f079532106","ios":"levelo://app?vid=0b40e706-8c39-4aa5-8f34-f4f079532106"},"vehicle_type_id":"4","last_reported":1727590300,"current_range_meters":20400,"station_id":"ce4bhu92rcd13ifvqi70","pricing_plan_id":"cebpf4jnsgd1na2vs0mg"},{"bike_id":"f71847c8-2159-4faa-96a8-b0113de2b7b7","system_id":"levelo_inurba_marseille","lat":43.31712,"lon":5.37758,"is_reserved":false,"is_disabled":false,"rental_uris":{"android":"levelo://app?vid=f71847c8-2159-4faa-96a8-b0113de2b7b7","ios":"levelo://app?vid=f71847c8-2159-4faa-96a8-b0113de2b7b7"},"vehicle_type_id":"4","last_reported":1727590300,"current_range_meters":33600,"station_id":"ce4bgth2rcd13ifvqch0","pricing_plan_id":"cebpf4jnsgd1na2vs0mg"},{"bike_id":"f511609e-26a1-49de-abb1-0985c092af8a","system_id":"levelo_inurba_marseille","lat":43.29578,"lon":5.37508,"is_reserved":false,"is_disabled":false,"rental_uris":{"android":"levelo://app?vid=f511609e-26a1-49de-abb1-0985c092af8a","ios":"levelo://app?vid=f511609e-26a1-49de-abb1-0985c092af8a"},"vehicle_type_id":"4","last_reported":1727590300,"current_range_meters":38000,"station_id":"ce4bgh92rcd13ifvqb50","pricing_plan_id":"cebpf4jnsgd1na2vs0mg"},{"bike_id":"7cfbd935-09f5-4a64-9e66-38667ba738a9","system_id":"levelo_inurba_marseille","lat":43.3054,"lon":5.38425,"is_reserved":false,"is_disabled":false,"rental_uris":{"android":"levelo://app?vid=7cfbd935-09f5-4a64-9e66-38667ba738a9","ios":"levelo://app?vid=7cfbd935-09f5-4a64-9e66-38667ba738a9"},"vehicle_type_id":"4","last_reported":1727590300,"current_range_meters":27200,"station_id":"ce4bgg92rcd13ifvqb30","pricing_plan_id":"cebpf4jnsgd1na2vs0mg"},{"bike_id":"f25aae63-4894-435e-901a-2c03d90b4957","system_id":"levelo_inurba_marseille","lat":43.29785,"lon":5.38103,"is_reserved":false,"is_disabled":false,"rental_uris":{"android":"levelo://app?vid=f25aae63-4894-435e-901a-2c03d90b4957","ios":"levelo://app?vid=f25aae63-4894-435e-901a-2c03d90b4957"},"vehicle_type_id":"4","last_reported":1727590300,"current_range_meters":26000,"station_id":"ce4bgip2rcd13ifvqbb0","pricing_plan_id":"cebpf4jnsgd1na2vs0mg"},{"bike_id":"b0a72c88-459b-4686-a2b8-8e68bceab7c9","system_id":"levelo_inurba_marseille","lat":43.27923,"lon":5.39579,"is_reserved":false,"is_disabled":false,"rental_uris":{"android":"levelo://app?vid=b0a72c88-459b-4686-a2b8-8e68bceab7c9","ios":"levelo://app?vid=b0a72c88-459b-4686-a2b8-8e68bceab7c9"},"vehicle_type_id":"4","last_reported":1727590300,"current_range_meters":28000,"station_id":"ce4bhf92rcd13ifvqf40","pricing_plan_id":"cebpf4jnsgd1na2vs0mg"},{"bike_id":"eb35b74a-e100-4849-baf8-86135e114bef","system_id":"levelo_inurba_marseille","lat":43.23152,"lon":5.43699,"is_reserved":false,"is_disabled":false,"rental_uris":{"android":"levelo://app?vid=eb35b74a-e100-4849-baf8-86135e114bef","ios":"levelo://app?vid=eb35b74a-e100-4849-baf8-86135e114bef"},"vehicle_type_id":"4","last_reported":1727590300,"current_range_meters":32800,"station_id":"ce4bhmp2rcd13ifvqgog","pricing_plan_id":"cebpf4jnsgd1na2vs0mg"},{"bike_id":"3745d9c5-d2d6-4ca4-867b-77d0c4c7d04e","system_id":"levelo_inurba_marseille","lat":43.276865,"lon":5.389042,"is_reserved":false,"is_disabled":false,"rental_uris":{"android":"levelo://app?vid=3745d9c5-d2d6-4ca4-867b-77d0c4c7d04e","ios":"levelo://app?vid=3745d9c5-d2d6-4ca4-867b-77d0c4c7d04e"},"vehicle_type_id":"4","last_reported":1727590300,"current_range_meters":38000,"station_id":"ce4bhi12rcd13ifvqfo0","pricing_plan_id":"cebpf4jnsgd1na2vs0mg"},{"bike_id":"f277ccf0-1ace-449b-8f15-ca09dfbbe22b","system_id":"levelo_inurba_marseille","lat":43.28443,"lon":5.39179,"is_reserved":false,"is_disabled":false,"rental_uris":{"android":"levelo://app?vid=f277ccf0-1ace-449b-8f15-ca09dfbbe22b","ios":"levelo://app?vid=f277ccf0-1ace-449b-8f15-ca09dfbbe22b"},"vehicle_type_id":"4","last_reported":1727590300,"current_range_meters":19200,"station_id":"ce4bhoh2rcd13ifvqh5g","pricing_plan_id":"cebpf4jnsgd1na2vs0mg"},{"bike_id":"3311249a-c2f3-4587-83a3-601ca723a729","system_id":"levelo_inurba_marseille","lat":43.29709,"lon":5.36604,"is_reserved":false,"is_disabled":false,"rental_uris":{"android":"levelo://app?vid=3311249a-c2f3-4587-83a3-601ca723a729","ios":"levelo://app?vid=3311249a-c2f3-4587-83a3-601ca723a729"},"vehicle_type_id":"4","last_reported":1727590300,"current_range_meters":38800,"station_id":"ce4bgn12rcd13ifvqbt0","pricing_plan_id":"cebpf4jnsgd1na2vs0mg"},{"bike_id":"b3507cdf-04f2-44eb-94f1-73270d190605","system_id":"levelo_inurba_marseille","lat":43.28727,"lon":5.37933,"is_reserved":false,"is_disabled":false,"rental_uris":{"android":"levelo://app?vid=b3507cdf-04f2-44eb-94f1-73270d190605","ios":"levelo://app?vid=b3507cdf-04f2-44eb-94f1-73270d190605"},"vehicle_type_id":"4","last_reported":1727590300,"current_range_meters":39200,"station_id":"ce4bh9p2rcd13ifvqec0","pricing_plan_id":"cebpf4jnsgd1na2vs0mg"},{"bike_id":"cd41b286-a785-435d-9ca4-d4a26c3b228a","system_id":"levelo_inurba_marseille","lat":43.290393,"lon":5.37575,"is_reserved":false,"is_disabled":false,"rental_uris":{"android":"levelo://app?vid=cd41b286-a785-435d-9ca4-d4a26c3b228a","ios":"levelo://app?vid=cd41b286-a785-435d-9ca4-d4a26c3b228a"},"vehicle_type_id":"4","last_reported":1727590300,"current_range_meters":39200,"station_id":"ce4bh692rcd13ifvqe90","pricing_plan_id":"cebpf4jnsgd1na2vs0mg"},{"bike_id":"2e6ee68c-b525-4d10-9ab3-a71988da5a73","system_id":"levelo_inurba_marseille","lat":43.29596,"lon":5.38099,"is_reserved":false,"is_disabled":false,"rental_uris":{"android":"levelo://app?vid=2e6ee68c-b525-4d10-9ab3-a71988da5a73","ios":"levelo://app?vid=2e6ee68c-b525-4d10-9ab3-a71988da5a73"},"vehicle_type_id":"4","last_reported":1727590300,"current_range_meters":38000,"station_id":"ce4bgl12rcd13ifvqbo0","pricing_plan_id":"cebpf4jnsgd1na2vs0mg"},{"bike_id":"ec031ee8-d5aa-4504-b193-b76ff1fe44a4","system_id":"levelo_inurba_marseille","lat":43.30355,"lon":5.41878,"is_reserved":false,"is_disabled":false,"rental_uris":{"android":"levelo://app?vid=ec031ee8-d5aa-4504-b193-b76ff1fe44a4","ios":"levelo://app?vid=ec031ee8-d5aa-4504-b193-b76ff1fe44a4"},"vehicle_type_id":"4","last_reported":1727590300,"current_range_meters":38800,"station_id":"ce4bhop2rcd13ifvqh7g","pricing_plan_id":"cebpf4jnsgd1na2vs0mg"},{"bike_id":"40ff7732-bf7f-44dc-8434-dc5fcb280bc9","system_id":"levelo_inurba_marseille","lat":43.28461,"lon":5.35876,"is_reserved":false,"is_disabled":false,"rental_uris":{"android":"levelo://app?vid=40ff7732-bf7f-44dc-8434-dc5fcb280bc9","ios":"levelo://app?vid=40ff7732-bf7f-44dc-8434-dc5fcb280bc9"},"vehicle_type_id":"4","last_reported":1727590300,"current_range_meters":8800,"station_id":"ce4bhah2rcd13ifvqei0","pricing_plan_id":"cebpf4jnsgd1na2vs0mg"},{"bike_id":"5e54b452-ef58-4674-9b2d-4f9ba7c220ea","system_id":"levelo_inurba_marseille","lat":43.281,"lon":5.37842,"is_reserved":false,"is_disabled":false,"rental_uris":{"android":"levelo://app?vid=5e54b452-ef58-4674-9b2d-4f9ba7c220ea","ios":"levelo://app?vid=5e54b452-ef58-4674-9b2d-4f9ba7c220ea"},"vehicle_type_id":"4","last_reported":1727590300,"current_range_meters":38800,"station_id":"ce4bha12rcd13ifvqee0","pricing_plan_id":"cebpf4jnsgd1na2vs0mg"},{"bike_id":"8eb5911f-c95e-4f31-a6d6-b3cd459f46bc","system_id":"levelo_inurba_marseille","lat":43.32488,"lon":5.3656,"is_reserved":false,"is_disabled":false,"rental_uris":{"android":"levelo://app?vid=8eb5911f-c95e-4f31-a6d6-b3cd459f46bc","ios":"levelo://app?vid=8eb5911f-c95e-4f31-a6d6-b3cd459f46bc"},"vehicle_type_id":"4","last_reported":1727590300,"current_range_meters":40000,"station_id":"ce4bhs12rcd13ifvqhvg","pricing_plan_id":"cebpf4jnsgd1na2vs0mg"},{"bike_id":"9ea74ba1-737c-4767-a499-91dcf62bb367","system_id":"levelo_inurba_marseille","lat":43.31686,"lon":5.40474,"is_reserved":false,"is_disabled":false,"rental_uris":{"android":"levelo://app?vid=9ea74ba1-737c-4767-a499-91dcf62bb367","ios":"levelo://app?vid=9ea74ba1-737c-4767-a499-91dcf62bb367"},"vehicle_type_id":"4","last_reported":1727590300,"current_range_meters":39200,"station_id":"ce4bh012rcd13ifvqd00","pricing_plan_id":"cebpf4jnsgd1na2vs0mg"},{"bike_id":"2cee1cba-5de8-4115-88f8-9dd26eb81e4e","system_id":"levelo_inurba_marseille","lat":43.28438,"lon":5.3919,"is_reserved":false,"is_disabled":false,"rental_uris":{"android":"levelo://app?vid=2cee1cba-5de8-4115-88f8-9dd26eb81e4e","ios":"levelo://app?vid=2cee1cba-5de8-4115-88f8-9dd26eb81e4e"},"vehicle_type_id":"4","last_reported":1727590300,"current_range_meters":36000,"station_id":"ce4bhoh2rcd13ifvqh5g","pricing_plan_id":"cebpf4jnsgd1na2vs0mg"},{"bike_id":"43581255-33c3-4285-83db-b19715dc7e5c","system_id":"levelo_inurba_marseille","lat":43.28961,"lon":5.39628,"is_reserved":false,"is_disabled":false,"rental_uris":{"android":"levelo://app?vid=43581255-33c3-4285-83db-b19715dc7e5c","ios":"levelo://app?vid=43581255-33c3-4285-83db-b19715dc7e5c"},"vehicle_type_id":"4","last_reported":1727590300,"current_range_meters":38000,"station_id":"ce4bh3h2rcd13ifvqdn0","pricing_plan_id":"cebpf4jnsgd1na2vs0mg"},{"bike_id":"a4b3be87-d47f-490d-9d83-26f3f511b770","system_id":"levelo_inurba_marseille","lat":43.30543,"lon":5.36706,"is_reserved":false,"is_disabled":false,"rental_uris":{"android":"levelo://app?vid=a4b3be87-d47f-490d-9d83-26f3f511b770","ios":"levelo://app?vid=a4b3be87-d47f-490d-9d83-26f3f511b770"},"vehicle_type_id":"4","last_reported":1727590300,"current_range_meters":36800,"station_id":"ce4bgrp2rcd13ifvqc9g","pricing_plan_id":"cebpf4jnsgd1na2vs0mg"},{"bike_id":"70fb749e-8663-4a69-b420-35d6c0a64f15","system_id":"levelo_inurba_marseille","lat":43.2721,"lon":5.3918,"is_reserved":false,"is_disabled":false,"rental_uris":{"android":"levelo://app?vid=70fb749e-8663-4a69-b420-35d6c0a64f15","ios":"levelo://app?vid=70fb749e-8663-4a69-b420-35d6c0a64f15"},"vehicle_type_id":"4","last_reported":1727590300,"current_range_meters":38800,"station_id":"ce4bhhp2rcd13ifvqfm0","pricing_plan_id":"cebpf4jnsgd1na2vs0mg"},{"bike_id":"82657748-dafa-473e-a064-9a1e2aff5637","system_id":"levelo_inurba_marseille","lat":43.29194,"lon":5.35793,"is_reserved":false,"is_disabled":false,"rental_uris":{"android":"levelo://app?vid=82657748-dafa-473e-a064-9a1e2aff5637","ios":"levelo://app?vid=82657748-dafa-473e-a064-9a1e2aff5637"},"vehicle_type_id":"4","last_reported":1727590300,"current_range_meters":38400,"station_id":"ce4bhb12rcd13ifvqel0","pricing_plan_id":"cebpf4jnsgd1na2vs0mg"},{"bike_id":"e374ac23-5f47-4e7f-bd4a-8af04bee879f","system_id":"levelo_inurba_marseille","lat":43.31209,"lon":5.41847,"is_reserved":false,"is_disabled":false,"rental_uris":{"android":"levelo://app?vid=e374ac23-5f47-4e7f-bd4a-8af04bee879f","ios":"levelo://app?vid=e374ac23-5f47-4e7f-bd4a-8af04bee879f"},"vehicle_type_id":"4","last_reported":1727590300,"current_range_meters":22400,"station_id":"","pricing_plan_id":"cebpf4jnsgd1na2vs0mg"},{"bike_id":"5697e06e-09a4-4143-bb2c-edc70f212a00","system_id":"levelo_inurba_marseille","lat":43.32339,"lon":5.40618,"is_reserved":false,"is_disabled":false,"rental_uris":{"android":"levelo://app?vid=5697e06e-09a4-4143-bb2c-edc70f212a00","ios":"levelo://app?vid=5697e06e-09a4-4143-bb2c-edc70f212a00"},"vehicle_type_id":"4","last_reported":1727590300,"current_range_meters":16000,"station_id":"ce4bhq92rcd13ifvqhjg","pricing_plan_id":"cebpf4jnsgd1na2vs0mg"},{"bike_id":"6a66b30d-b7e8-4317-88c5-fb9f52bf2878","system_id":"levelo_inurba_marseille","lat":43.23957,"lon":5.36625,"is_reserved":false,"is_disabled":false,"rental_uris":{"android":"levelo://app?vid=6a66b30d-b7e8-4317-88c5-fb9f52bf2878","ios":"levelo://app?vid=6a66b30d-b7e8-4317-88c5-fb9f52bf2878"},"vehicle_type_id":"4","last_reported":1727590300,"current_range_meters":38800,"station_id":"ce4bhi12rcd13ifvqfp0","pricing_plan_id":"cebpf4jnsgd1na2vs0mg"},{"bike_id":"c7bb2617-900c-4a8d-830c-8e884d6bec98","system_id":"levelo_inurba_marseille","lat":43.30794,"lon":5.37649,"is_reserved":false,"is_disabled":false,"rental_uris":{"android":"levelo://app?vid=c7bb2617-900c-4a8d-830c-8e884d6bec98","ios":"levelo://app?vid=c7bb2617-900c-4a8d-830c-8e884d6bec98"},"vehicle_type_id":"4","last_reported":1727590300,"current_range_meters":23200,"station_id":"ce4bgv92rcd13ifvqcq0","pricing_plan_id":"cebpf4jnsgd1na2vs0mg"},{"bike_id":"36e28af7-ddee-4540-a244-b5691f735fa0","system_id":"levelo_inurba_marseille","lat":43.31696,"lon":5.37769,"is_reserved":false,"is_disabled":false,"rental_uris":{"android":"levelo://app?vid=36e28af7-ddee-4540-a244-b5691f735fa0","ios":"levelo://app?vid=36e28af7-ddee-4540-a244-b5691f735fa0"},"vehicle_type_id":"4","last_reported":1727590300,"current_range_meters":8800,"station_id":"ce4bgth2rcd13ifvqch0","pricing_plan_id":"cebpf4jnsgd1na2vs0mg"},{"bike_id":"9efdf05c-571e-4c3a-a0bf-af0e0fbc032d","system_id":"levelo_inurba_marseille","lat":43.25087,"lon":5.39513,"is_reserved":false,"is_disabled":false,"rental_uris":{"android":"levelo://app?vid=9efdf05c-571e-4c3a-a0bf-af0e0fbc032d","ios":"levelo://app?vid=9efdf05c-571e-4c3a-a0bf-af0e0fbc032d"},"vehicle_type_id":"4","last_reported":1727590300,"current_range_meters":19200,"station_id":"ce4bhm12rcd13ifvqgkg","pricing_plan_id":"cebpf4jnsgd1na2vs0mg"},{"bike_id":"1cc77019-af30-41ea-a86f-a24abb3696c0","system_id":"levelo_inurba_marseille","lat":43.30609,"lon":5.3722,"is_reserved":false,"is_disabled":false,"rental_uris":{"android":"levelo://app?vid=1cc77019-af30-41ea-a86f-a24abb3696c0","ios":"levelo://app?vid=1cc77019-af30-41ea-a86f-a24abb3696c0"},"vehicle_type_id":"4","last_reported":1727590300,"current_range_meters":29600,"station_id":"ce4bgqh2rcd13ifvqc4g","pricing_plan_id":"cebpf4jnsgd1na2vs0mg"},{"bike_id":"f9f81779-6dce-4c4b-92b6-98ee48ba7231","system_id":"levelo_inurba_marseille","lat":43.26928,"lon":5.38925,"is_reserved":false,"is_disabled":false,"rental_uris":{"android":"levelo://app?vid=f9f81779-6dce-4c4b-92b6-98ee48ba7231","ios":"levelo://app?vid=f9f81779-6dce-4c4b-92b6-98ee48ba7231"},"vehicle_type_id":"4","last_reported":1727590300,"current_range_meters":37600,"station_id":"ce4bhhh2rcd13ifvqfl0","pricing_plan_id":"cebpf4jnsgd1na2vs0mg"},{"bike_id":"8537bd26-c143-480b-ac7c-86d2b5338011","system_id":"levelo_inurba_marseille","lat":43.26214,"lon":5.37441,"is_reserved":false,"is_disabled":false,"rental_uris":{"android":"levelo://app?vid=8537bd26-c143-480b-ac7c-86d2b5338011","ios":"levelo://app?vid=8537bd26-c143-480b-ac7c-86d2b5338011"},"vehicle_type_id":"4","last_reported":1727590300,"current_range_meters":38000,"station_id":"ce4bhgp2rcd13ifvqfc0","pricing_plan_id":"cebpf4jnsgd1na2vs0mg"},{"bike_id":"199f764e-7942-4511-a407-33ff4a7dc457","system_id":"levelo_inurba_marseille","lat":43.26025,"lon":5.3755,"is_reserved":false,"is_disabled":false,"rental_uris":{"android":"levelo://app?vid=199f764e-7942-4511-a407-33ff4a7dc457","ios":"levelo://app?vid=199f764e-7942-4511-a407-33ff4a7dc457"},"vehicle_type_id":"4","last_reported":1727590300,"current_range_meters":38000,"station_id":"ce4bhgh2rcd13ifvqfa0","pricing_plan_id":"cebpf4jnsgd1na2vs0mg"},{"bike_id":"41121cd7-8de9-444e-b6b9-cf6415d8de83","system_id":"levelo_inurba_marseille","lat":43.28414,"lon":5.37503,"is_reserved":false,"is_disabled":false,"rental_uris":{"android":"levelo://app?vid=41121cd7-8de9-444e-b6b9-cf6415d8de83","ios":"levelo://app?vid=41121cd7-8de9-444e-b6b9-cf6415d8de83"},"vehicle_type_id":"4","last_reported":1727590300,"current_range_meters":6000,"station_id":"ce4bh412rcd13ifvqds0","pricing_plan_id":"cebpf4jnsgd1na2vs0mg"},{"bike_id":"0701cf2a-674c-4c9d-af1e-6650acbaaf74","system_id":"levelo_inurba_marseille","lat":43.28378,"lon":5.37299,"is_reserved":false,"is_disabled":false,"rental_uris":{"android":"levelo://app?vid=0701cf2a-674c-4c9d-af1e-6650acbaaf74","ios":"levelo://app?vid=0701cf2a-674c-4c9d-af1e-6650acbaaf74"},"vehicle_type_id":"4","last_reported":1727590300,"current_range_meters":10800,"station_id":"","pricing_plan_id":"cebpf4jnsgd1na2vs0mg"},{"bike_id":"26d19603-8175-4b6f-aa29-c8a304bccb18","system_id":"levelo_inurba_marseille","lat":43.24186,"lon":5.39735,"is_reserved":false,"is_disabled":false,"rental_uris":{"android":"levelo://app?vid=26d19603-8175-4b6f-aa29-c8a304bccb18","ios":"levelo://app?vid=26d19603-8175-4b6f-aa29-c8a304bccb18"},"vehicle_type_id":"4","last_reported":1727590300,"current_range_meters":8400,"station_id":"ce4bhn12rcd13ifvqgpg","pricing_plan_id":"cebpf4jnsgd1na2vs0mg"},{"bike_id":"b017ec8e-a79b-4b3a-a740-c6be4db18a66","system_id":"levelo_inurba_marseille","lat":43.29623,"lon":5.37161,"is_reserved":false,"is_disabled":false,"rental_uris":{"android":"levelo://app?vid=b017ec8e-a79b-4b3a-a740-c6be4db18a66","ios":"levelo://app?vid=b017ec8e-a79b-4b3a-a740-c6be4db18a66"},"vehicle_type_id":"4","last_reported":1727590300,"current_range_meters":28400,"station_id":"ce4bgnh2rcd13ifvqc0g","pricing_plan_id":"cebpf4jnsgd1na2vs0mg"},{"bike_id":"7c4071a4-9719-4e76-b949-99424a6ceea1","system_id":"levelo_inurba_marseille","lat":43.28468,"lon":5.35873,"is_reserved":false,"is_disabled":false,"rental_uris":{"android":"levelo://app?vid=7c4071a4-9719-4e76-b949-99424a6ceea1","ios":"levelo://app?vid=7c4071a4-9719-4e76-b949-99424a6ceea1"},"vehicle_type_id":"4","last_reported":1727590300,"current_range_meters":14400,"station_id":"ce4bhah2rcd13ifvqei0","pricing_plan_id":"cebpf4jnsgd1na2vs0mg"},{"bike_id":"420580b5-10a3-4293-8084-f8846fbc415a","system_id":"levelo_inurba_marseille","lat":43.28261,"lon":5.35075,"is_reserved":false,"is_disabled":false,"rental_uris":{"android":"levelo://app?vid=420580b5-10a3-4293-8084-f8846fbc415a","ios":"levelo://app?vid=420580b5-10a3-4293-8084-f8846fbc415a"},"vehicle_type_id":"4","last_reported":1727590300,"current_range_meters":38800,"station_id":"ce4bhbp2rcd13ifvqerg","pricing_plan_id":"cebpf4jnsgd1na2vs0mg"},{"bike_id":"91dce4e8-64ff-4b6c-a5c6-cdb6b952027b","system_id":"levelo_inurba_marseille","lat":43.31264,"lon":5.40182,"is_reserved":false,"is_disabled":false,"rental_uris":{"android":"levelo://app?vid=91dce4e8-64ff-4b6c-a5c6-cdb6b952027b","ios":"levelo://app?vid=91dce4e8-64ff-4b6c-a5c6-cdb6b952027b"},"vehicle_type_id":"4","last_reported":1727590300,"current_range_meters":32400,"station_id":"ce4bh092rcd13ifvqd30","pricing_plan_id":"cebpf4jnsgd1na2vs0mg"},{"bike_id":"3979211c-f1fe-48ed-9416-6f9268a44867","system_id":"levelo_inurba_marseille","lat":43.31118,"lon":5.37766,"is_reserved":false,"is_disabled":false,"rental_uris":{"android":"levelo://app?vid=3979211c-f1fe-48ed-9416-6f9268a44867","ios":"levelo://app?vid=3979211c-f1fe-48ed-9416-6f9268a44867"},"vehicle_type_id":"4","last_reported":1727590300,"current_range_meters":7200,"station_id":"ce4bgt92rcd13ifvqcg0","pricing_plan_id":"cebpf4jnsgd1na2vs0mg"},{"bike_id":"f389741c-aa7d-460e-a8b7-712fd6efee59","system_id":"levelo_inurba_marseille","lat":43.2762,"lon":5.36109,"is_reserved":false,"is_disabled":false,"rental_uris":{"android":"levelo://app?vid=f389741c-aa7d-460e-a8b7-712fd6efee59","ios":"levelo://app?vid=f389741c-aa7d-460e-a8b7-712fd6efee59"},"vehicle_type_id":"4","last_reported":1727590300,"current_range_meters":38800,"station_id":"ce4bgj92rcd13ifvqbe0","pricing_plan_id":"cebpf4jnsgd1na2vs0mg"},{"bike_id":"6cdca13d-24d1-4302-912a-54d18c748242","system_id":"levelo_inurba_marseille","lat":43.31083,"lon":5.40132,"is_reserved":false,"is_disabled":false,"rental_uris":{"android":"levelo://app?vid=6cdca13d-24d1-4302-912a-54d18c748242","ios":"levelo://app?vid=6cdca13d-24d1-4302-912a-54d18c748242"},"vehicle_type_id":"4","last_reported":1727590300,"current_range_meters":6000,"station_id":"","pricing_plan_id":"cebpf4jnsgd1na2vs0mg"},{"bike_id":"8db0e5cd-2187-4a1e-887b-1a2f8d3b39de","system_id":"levelo_inurba_marseille","lat":43.3229,"lon":5.38266,"is_reserved":false,"is_disabled":false,"rental_uris":{"android":"levelo://app?vid=8db0e5cd-2187-4a1e-887b-1a2f8d3b39de","ios":"levelo://app?vid=8db0e5cd-2187-4a1e-887b-1a2f8d3b39de"},"vehicle_type_id":"4","last_reported":1727590300,"current_range_meters":20000,"station_id":"ce4bhr12rcd13ifvqhqg","pricing_plan_id":"cebpf4jnsgd1na2vs0mg"},{"bike_id":"4b02d02f-e4f8-4503-af33-737662778152","system_id":"levelo_inurba_marseille","lat":43.27991,"lon":5.40015,"is_reserved":false,"is_disabled":false,"rental_uris":{"android":"levelo://app?vid=4b02d02f-e4f8-4503-af33-737662778152","ios":"levelo://app?vid=4b02d02f-e4f8-4503-af33-737662778152"},"vehicle_type_id":"4","last_reported":1727590300,"current_range_meters":38800,"station_id":"ce4bho92rcd13ifvqh4g","pricing_plan_id":"cebpf4jnsgd1na2vs0mg"},{"bike_id":"56c70bcf-7a5d-4d3c-ad73-dbf912d90a7f","system_id":"levelo_inurba_marseille","lat":43.25109,"lon":5.40323,"is_reserved":false,"is_disabled":false,"rental_uris":{"android":"levelo://app?vid=56c70bcf-7a5d-4d3c-ad73-dbf912d90a7f","ios":"levelo://app?vid=56c70bcf-7a5d-4d3c-ad73-dbf912d90a7f"},"vehicle_type_id":"4","last_reported":1727590300,"current_range_meters":38800,"station_id":"ce4bhlh2rcd13ifvqgig","pricing_plan_id":"cebpf4jnsgd1na2vs0mg"},{"bike_id":"0029159c-783d-4f02-a15f-8c17fc87f24b","system_id":"levelo_inurba_marseille","lat":43.29886,"lon":5.3741,"is_reserved":false,"is_disabled":false,"rental_uris":{"android":"levelo://app?vid=0029159c-783d-4f02-a15f-8c17fc87f24b","ios":"levelo://app?vid=0029159c-783d-4f02-a15f-8c17fc87f24b"},"vehicle_type_id":"4","last_reported":1727590300,"current_range_meters":8800,"station_id":"","pricing_plan_id":"cebpf4jnsgd1na2vs0mg"},{"bike_id":"25f5f9e6-352e-4976-9228-e746fb418960","system_id":"levelo_inurba_marseille","lat":43.27994,"lon":5.40016,"is_reserved":false,"is_disabled":false,"rental_uris":{"android":"levelo://app?vid=25f5f9e6-352e-4976-9228-e746fb418960","ios":"levelo://app?vid=25f5f9e6-352e-4976-9228-e746fb418960"},"vehicle_type_id":"4","last_reported":1727590300,"current_range_meters":37600,"station_id":"ce4bho92rcd13ifvqh4g","pricing_plan_id":"cebpf4jnsgd1na2vs0mg"},{"bike_id":"2739f21a-7d48-4a2c-8180-69d444e34103","system_id":"levelo_inurba_marseille","lat":43.26684,"lon":5.38276,"is_reserved":false,"is_disabled":false,"rental_uris":{"android":"levelo://app?vid=2739f21a-7d48-4a2c-8180-69d444e34103","ios":"levelo://app?vid=2739f21a-7d48-4a2c-8180-69d444e34103"},"vehicle_type_id":"4","last_reported":1727590300,"current_range_meters":34000,"station_id":"ce4bhg92rcd13ifvqf90","pricing_plan_id":"cebpf4jnsgd1na2vs0mg"},{"bike_id":"bae92a33-f60e-41fe-be61-350a00c27d57","system_id":"levelo_inurba_marseille","lat":43.30463,"lon":5.37903,"is_reserved":false,"is_disabled":false,"rental_uris":{"android":"levelo://app?vid=bae92a33-f60e-41fe-be61-350a00c27d57","ios":"levelo://app?vid=bae92a33-f60e-41fe-be61-350a00c27d57"},"vehicle_type_id":"4","last_reported":1727590300,"current_range_meters":28400,"station_id":"ce4bgup2rcd13ifvqcn0","pricing_plan_id":"cebpf4jnsgd1na2vs0mg"},{"bike_id":"68f7a145-cfef-4e82-9d3c-ba41125d1de2","system_id":"levelo_inurba_marseille","lat":43.28417,"lon":5.37509,"is_reserved":false,"is_disabled":false,"rental_uris":{"android":"levelo://app?vid=68f7a145-cfef-4e82-9d3c-ba41125d1de2","ios":"levelo://app?vid=68f7a145-cfef-4e82-9d3c-ba41125d1de2"},"vehicle_type_id":"4","last_reported":1727590300,"current_range_meters":38400,"station_id":"ce4bh412rcd13ifvqds0","pricing_plan_id":"cebpf4jnsgd1na2vs0mg"},{"bike_id":"69ae3c53-f9ed-44c0-88fc-ca658486737b","system_id":"levelo_inurba_marseille","lat":43.31266,"lon":5.40174,"is_reserved":false,"is_disabled":false,"rental_uris":{"android":"levelo://app?vid=69ae3c53-f9ed-44c0-88fc-ca658486737b","ios":"levelo://app?vid=69ae3c53-f9ed-44c0-88fc-ca658486737b"},"vehicle_type_id":"4","last_reported":1727590300,"current_range_meters":25600,"station_id":"ce4bh092rcd13ifvqd30","pricing_plan_id":"cebpf4jnsgd1na2vs0mg"},{"bike_id":"5220e7ba-5183-450c-986e-1a09b217d618","system_id":"levelo_inurba_marseille","lat":43.28267,"lon":5.35064,"is_reserved":false,"is_disabled":false,"rental_uris":{"android":"levelo://app?vid=5220e7ba-5183-450c-986e-1a09b217d618","ios":"levelo://app?vid=5220e7ba-5183-450c-986e-1a09b217d618"},"vehicle_type_id":"4","last_reported":1727590300,"current_range_meters":38000,"station_id":"ce4bhbp2rcd13ifvqerg","pricing_plan_id":"cebpf4jnsgd1na2vs0mg"},{"bike_id":"3407da71-e9f5-4375-9956-506983640a2f","system_id":"levelo_inurba_marseille","lat":43.28997,"lon":5.3759,"is_reserved":false,"is_disabled":false,"rental_uris":{"android":"levelo://app?vid=3407da71-e9f5-4375-9956-506983640a2f","ios":"levelo://app?vid=3407da71-e9f5-4375-9956-506983640a2f"},"vehicle_type_id":"4","last_reported":1727590300,"current_range_meters":25600,"station_id":"ce4bh692rcd13ifvqe90","pricing_plan_id":"cebpf4jnsgd1na2vs0mg"},{"bike_id":"d5dedc51-5836-4935-a815-a0077d051f65","system_id":"levelo_inurba_marseille","lat":43.25586,"lon":5.38232,"is_reserved":false,"is_disabled":false,"rental_uris":{"android":"levelo://app?vid=d5dedc51-5836-4935-a815-a0077d051f65","ios":"levelo://app?vid=d5dedc51-5836-4935-a815-a0077d051f65"},"vehicle_type_id":"4","last_reported":1727590300,"current_range_meters":34000,"station_id":"ce4bhih2rcd13ifvqfs0","pricing_plan_id":"cebpf4jnsgd1na2vs0mg"},{"bike_id":"1c331191-824f-4d0b-a082-3263e9c4e4a3","system_id":"levelo_inurba_marseille","lat":43.2998,"lon":5.38479,"is_reserved":false,"is_disabled":false,"rental_uris":{"android":"levelo://app?vid=1c331191-824f-4d0b-a082-3263e9c4e4a3","ios":"levelo://app?vid=1c331191-824f-4d0b-a082-3263e9c4e4a3"},"vehicle_type_id":"4","last_reported":1727590300,"current_range_meters":25200,"station_id":"ce4bgj92rcd13ifvqbd0","pricing_plan_id":"cebpf4jnsgd1na2vs0mg"},{"bike_id":"ba1a4c98-548c-4467-9903-a34cd6f6e5d2","system_id":"levelo_inurba_marseille","lat":43.26786,"lon":5.39417,"is_reserved":false,"is_disabled":false,"rental_uris":{"android":"levelo://app?vid=ba1a4c98-548c-4467-9903-a34cd6f6e5d2","ios":"levelo://app?vid=ba1a4c98-548c-4467-9903-a34cd6f6e5d2"},"vehicle_type_id":"4","last_reported":1727590300,"current_range_meters":27600,"station_id":"ce4bhh12rcd13ifvqfg0","pricing_plan_id":"cebpf4jnsgd1na2vs0mg"},{"bike_id":"e66ea585-3401-4c11-b239-454e44cd71a2","system_id":"levelo_inurba_marseille","lat":43.30794,"lon":5.38157,"is_reserved":false,"is_disabled":false,"rental_uris":{"android":"levelo://app?vid=e66ea585-3401-4c11-b239-454e44cd71a2","ios":"levelo://app?vid=e66ea585-3401-4c11-b239-454e44cd71a2"},"vehicle_type_id":"4","last_reported":1727590300,"current_range_meters":36800,"station_id":"ce4bgt12rcd13ifvqce0","pricing_plan_id":"cebpf4jnsgd1na2vs0mg"},{"bike_id":"f46ba497-4d2c-4e85-8316-f4b61f940e13","system_id":"levelo_inurba_marseille","lat":43.31754,"lon":5.39018,"is_reserved":false,"is_disabled":false,"rental_uris":{"android":"levelo://app?vid=f46ba497-4d2c-4e85-8316-f4b61f940e13","ios":"levelo://app?vid=f46ba497-4d2c-4e85-8316-f4b61f940e13"},"vehicle_type_id":"4","last_reported":1727590300,"current_range_meters":7200,"station_id":"ce4bhqp2rcd13ifvqhng","pricing_plan_id":"cebpf4jnsgd1na2vs0mg"},{"bike_id":"4d72aece-e6c8-44eb-a7fe-8af90bb6ac62","system_id":"levelo_inurba_marseille","lat":43.31171,"lon":5.38699,"is_reserved":false,"is_disabled":false,"rental_uris":{"android":"levelo://app?vid=4d72aece-e6c8-44eb-a7fe-8af90bb6ac62","ios":"levelo://app?vid=4d72aece-e6c8-44eb-a7fe-8af90bb6ac62"},"vehicle_type_id":"4","last_reported":1727590300,"current_range_meters":36800,"station_id":"ce4bgv12rcd13ifvqcp0","pricing_plan_id":"cebpf4jnsgd1na2vs0mg"},{"bike_id":"41ca4c63-8def-4c31-9103-fc1045ebe4a5","system_id":"levelo_inurba_marseille","lat":43.23195,"lon":5.3555,"is_reserved":false,"is_disabled":false,"rental_uris":{"android":"levelo://app?vid=41ca4c63-8def-4c31-9103-fc1045ebe4a5","ios":"levelo://app?vid=41ca4c63-8def-4c31-9103-fc1045ebe4a5"},"vehicle_type_id":"4","last_reported":1727590300,"current_range_meters":26000,"station_id":"ce4bhu92rcd13ifvqi70","pricing_plan_id":"cebpf4jnsgd1na2vs0mg"},{"bike_id":"c812a2fc-476f-4c0d-9dfc-7399c94d3eac","system_id":"levelo_inurba_marseille","lat":43.29906,"lon":5.38143,"is_reserved":false,"is_disabled":false,"rental_uris":{"android":"levelo://app?vid=c812a2fc-476f-4c0d-9dfc-7399c94d3eac","ios":"levelo://app?vid=c812a2fc-476f-4c0d-9dfc-7399c94d3eac"},"vehicle_type_id":"4","last_reported":1727590300,"current_range_meters":39200,"station_id":"ce4bgj12rcd13ifvqbc0","pricing_plan_id":"cebpf4jnsgd1na2vs0mg"},{"bike_id":"a2ad8d14-351d-4409-ad23-ee1a7733790c","system_id":"levelo_inurba_marseille","lat":43.31329,"lon":5.39688,"is_reserved":false,"is_disabled":false,"rental_uris":{"android":"levelo://app?vid=a2ad8d14-351d-4409-ad23-ee1a7733790c","ios":"levelo://app?vid=a2ad8d14-351d-4409-ad23-ee1a7733790c"},"vehicle_type_id":"4","last_reported":1727590300,"current_range_meters":30000,"station_id":"ce4bgvp2rcd13ifvqcu0","pricing_plan_id":"cebpf4jnsgd1na2vs0mg"},{"bike_id":"ad2828b2-2852-44f7-a21b-241451c370b5","system_id":"levelo_inurba_marseille","lat":43.33029,"lon":5.39048,"is_reserved":false,"is_disabled":false,"rental_uris":{"android":"levelo://app?vid=ad2828b2-2852-44f7-a21b-241451c370b5","ios":"levelo://app?vid=ad2828b2-2852-44f7-a21b-241451c370b5"},"vehicle_type_id":"4","last_reported":1727590300,"current_range_meters":37600,"station_id":"ce4bhr92rcd13ifvqhrg","pricing_plan_id":"cebpf4jnsgd1na2vs0mg"},{"bike_id":"28704e94-6d32-447e-bf92-213dabd0e2e8","system_id":"levelo_inurba_marseille","lat":43.231849,"lon":5.399811,"is_reserved":false,"is_disabled":false,"rental_uris":{"android":"levelo://app?vid=28704e94-6d32-447e-bf92-213dabd0e2e8","ios":"levelo://app?vid=28704e94-6d32-447e-bf92-213dabd0e2e8"},"vehicle_type_id":"4","last_reported":1727590300,"current_range_meters":14400,"station_id":"ce4bhn12rcd13ifvqgqg","pricing_plan_id":"cebpf4jnsgd1na2vs0mg"},{"bike_id":"b5151872-3e39-4eb4-9fc2-6a76d1e7d83a","system_id":"levelo_inurba_marseille","lat":43.297913,"lon":5.371085,"is_reserved":false,"is_disabled":false,"rental_uris":{"android":"levelo://app?vid=b5151872-3e39-4eb4-9fc2-6a76d1e7d83a","ios":"levelo://app?vid=b5151872-3e39-4eb4-9fc2-6a76d1e7d83a"},"vehicle_type_id":"4","last_reported":1727590300,"current_range_meters":35200,"station_id":"ce4bgop2rcd13ifvqc1g","pricing_plan_id":"cebpf4jnsgd1na2vs0mg"},{"bike_id":"8f020b6a-2426-411b-8ad3-71a44f103914","system_id":"levelo_inurba_marseille","lat":43.33607,"lon":5.41032,"is_reserved":false,"is_disabled":false,"rental_uris":{"android":"levelo://app?vid=8f020b6a-2426-411b-8ad3-71a44f103914","ios":"levelo://app?vid=8f020b6a-2426-411b-8ad3-71a44f103914"},"vehicle_type_id":"4","last_reported":1727590300,"current_range_meters":17200,"station_id":"ce4bhqh2rcd13ifvqhmg","pricing_plan_id":"cebpf4jnsgd1na2vs0mg"},{"bike_id":"275b0a25-1a9f-498c-9202-be550b06c3de","system_id":"levelo_inurba_marseille","lat":43.3229,"lon":5.38279,"is_reserved":false,"is_disabled":false,"rental_uris":{"android":"levelo://app?vid=275b0a25-1a9f-498c-9202-be550b06c3de","ios":"levelo://app?vid=275b0a25-1a9f-498c-9202-be550b06c3de"},"vehicle_type_id":"4","last_reported":1727590300,"current_range_meters":40000,"station_id":"ce4bhr12rcd13ifvqhqg","pricing_plan_id":"cebpf4jnsgd1na2vs0mg"},