{"last_updated":1761049318,"ttl":60,"version":"2.2","data":{"bikes":[{"bike_id":"d8a0f4f8-3964-402e-924c-3470748785aa","system_id":"levelo_inurba_marseille","lat":43.337444,"lon":5.374475,"is_reserved":false,"is_disabled":false,"rental_uris":{"android":"levelo://app?vid=d8a0f4f8-3964-402e-924c-3470748785aa","ios":"levelo://app?vid=d8a0f4f8-3964-402e-924c-3470748785aa"},"vehicle_type_id":"4","last_reported":1761049318,"current_range_meters":0,"station_id":"","pricing_plan_id":"cebpf4jnsgd1na2vs0mg"},{"bike_id":"b76adba1-4cbf-4eac-8f8f-f105c0809b93","system_id":"levelo_inurba_marseille","lat":43.27206,"lon":5.39194,"is_reserved":false,"is_disabled":false,"rental_uris":{"android":"levelo://app?vid=b76adba1-4cbf-4eac-8f8f-f105c0809b93","ios":"levelo://app?vid=b76adba1-4cbf-4eac-8f8f-f105c0809b93"},"vehicle_type_id":"4","last_reported":1761049318,"current_range_meters":2800,"station_id":"ce4bhhp2rcd13ifvqfm0","pricing_plan_id":"cebpf4jnsgd1na2vs0mg"},{"bike_id":"7f431ceb-98a2-4a44-b578-90de0e9de3e2","system_id":"levelo_inurba_marseille","lat":43.24693,"lon":5.38164,"is_reserved":false,"is_disabled":false,"rental_uris":{"android":"levelo://app?vid=7f431ceb-98a2-4a44-b578-90de0e9de3e2","ios":"levelo://app?vid=7f431ceb-98a2-4a44-b578-90de0e9de3e2"},"vehicle_type_id":"4","last_reported":1761049318,"current_range_meters":3200,"station_id":"ce4bhih2rcd13ifvqfr0","pricing_plan_id":"cebpf4jnsgd1na2vs0mg"},{"bike_id":"fa1ff2b0-f2f3-4408-8fac-3e00b4bf01e0","system_id":"levelo_inurba_marseille","lat":43.29266,"lon":5.3844,"is_reserved":false,"is_disabled":false,"rental_uris":{"android":"levelo://app?vid=fa1ff2b0-f2f3-4408-8fac-3e00b4bf01e0","ios":"levelo://app?vid=fa1ff2b0-f2f3-4408-8fac-3e00b4bf01e0"},"vehicle_type_id":"4","last_reported":1761049318,"current_range_meters":3200,"station_id":"ce4bh692rcd13ifvqea0","pricing_plan_id":"cebpf4jnsgd1na2vs0mg"},{"bike_id":"fc27887a-7e76-4be3-a6ef-5fdb1c2f2014","system_id":"levelo_inurba_marseille","lat":43.2315,"lon":5.43711,"is_reserved":false,"is_disabled":false,"rental_uris":{"android":"levelo://app?vid=fc27887a-7e76-4be3-a6ef-5fdb1c2f2014","ios":"levelo://app?vid=fc27887a-7e76-4be3-a6ef-5fdb1c2f2014"},"vehicle_type_id":"4","last_reported":1761049318,"current_range_meters":3600,"station_id":"ce4bhmp2rcd13ifvqgog","pricing_plan_id":"cebpf4jnsgd1na2vs0mg"},{"bike_id":"0adb8007-b38a-4c8f-9f32-ba61862af0dd","system_id":"levelo_inurba_marseille","lat":43.31222,"lon":5.3686,"is_reserved":false,"is_disabled":false,"rental_uris":{"android":"levelo://app?vid=0adb8007-b38a-4c8f-9f32-ba61862af0dd","ios":"levelo://app?vid=0adb8007-b38a-4c8f-9f32-ba61862af0dd"},"vehicle_type_id":"4","last_reported":1761049318,"current_range_meters":3600,"station_id":"ce4bgl92rcd13ifvqbq0","pricing_plan_id":"cebpf4jnsgd1na2vs0mg"},{"bike_id":"50a4a7da-228a-4d01-b094-7c74e7830ca2","system_id":"levelo_inurba_marseille","lat":43.30466,"lon":5.37906,"is_reserved":false,"is_disabled":false,"rental_uris":{"android":"levelo://app?vid=50a4a7da-228a-4d01-b094-7c74e7830ca2","ios":"levelo://app?vid=50a4a7da-228a-4d01-b094-7c74e7830ca2"},"vehicle_type_id":"4","last_reported":1761049318,"current_range_meters":3600,"station_id":"ce4bgup2rcd13ifvqcn0","pricing_plan_id":"cebpf4jnsgd1na2vs0mg"},{"bike_id":"f2007776-0b89-4531-993c-bde7eea3459f","system_id":"levelo_inurba_marseille","lat":43.30161,"lon":5.381112,"is_reserved":false,"is_disabled":false,"rental_uris":{"android":"levelo://app?vid=f2007776-0b89-4531-993c-bde7eea3459f","ios":"levelo://app?vid=f2007776-0b89-4531-993c-bde7eea3459f"},"vehicle_type_id":"4","last_reported":1761049318,"current_range_meters":3600,"station_id":"ce4bgjp2rcd13ifvqbh0","pricing_plan_id":"cebpf4jnsgd1na2vs0mg"},{"bike_id":"fbd7f20a-1cd0-4d53-bc63-e18a79fbb4c1","system_id":"levelo_inurba_marseille","lat":43.27903,"lon":5.40981,"is_reserved":false,"is_disabled":false,"rental_uris":{"android":"levelo://app?vid=fbd7f20a-1cd0-4d53-bc63-e18a79fbb4c1","ios":"levelo://app?vid=fbd7f20a-1cd0-4d53-bc63-e18a79fbb4c1"},"vehicle_type_id":"4","last_reported":1761049318,"current_range_meters":4000,"station_id":"","pricing_plan_id":"cebpf4jnsgd1na2vs0mg"},{"bike_id":"91f69060-3543-4e34-b988-d49287b314e8","system_id":"levelo_inurba_marseille","lat":43.28862,"lon":5.42519,"is_reserved":false,"is_disabled":false,"rental_uris":{"android":"levelo://app?vid=91f69060-3543-4e34-b988-d49287b314e8","ios":"levelo://app?vid=91f69060-3543-4e34-b988-d49287b314e8"},"vehicle_type_id":"4","last_reported":1761049318,"current_range_meters":4400,"station_id":"st_d3b462108ojc7389ooeg","pricing_plan_id":"cebpf4jnsgd1na2vs0mg"},{"bike_id":"bd2ee528-6f33-46dd-8ebd-5c8b9f42b29d","system_id":"levelo_inurba_marseille","lat":43.29569,"lon":5.3997,"is_reserved":false,"is_disabled":false,"rental_uris":{"android":"levelo://app?vid=bd2ee528-6f33-46dd-8ebd-5c8b9f42b29d","ios":"levelo://app?vid=bd2ee528-6f33-46dd-8ebd-5c8b9f42b29d"},"vehicle_type_id":"4","last_reported":1761049318,"current_range_meters":4400,"station_id":"ce4bh312rcd13ifvqdj0","pricing_plan_id":"cebpf4jnsgd1na2vs0mg"},{"bike_id":"fbb75000-48f5-4dbe-aa37-aa4a8d769d08","system_id":"levelo_inurba_marseille","lat":43.21202,"lon":5.35046,"is_reserved":false,"is_disabled":false,"rental_uris":{"android":"levelo://app?vid=fbb75000-48f5-4dbe-aa37-aa4a8d769d08","ios":"levelo://app?vid=fbb75000-48f5-4dbe-aa37-aa4a8d769d08"},"vehicle_type_id":"4","last_reported":1761049318,"current_range_meters":4800,"station_id":"st_cvj6sg6p6f1abm77japg","pricing_plan_id":"cebpf4jnsgd1na2vs0mg"},{"bike_id":"78a0dc8b-3b9d-41f7-a3a3-18ec054e3617","system_id":"levelo_inurba_marseille","lat":43.30968,"lon":5.3812,"is_reserved":false,"is_disabled":false,"rental_uris":{"android":"levelo://app?vid=78a0dc8b-3b9d-41f7-a3a3-18ec054e3617","ios":"levelo://app?vid=78a0dc8b-3b9d-41f7-a3a3-18ec054e3617"},"vehicle_type_id":"4","last_reported":1761049318,"current_range_meters":4800,"station_id":"","pricing_plan_id":"cebpf4jnsgd1na2vs0mg"},{"bike_id":"6aef7dfd-7ebe-4dde-8361-eb921f6fbc0d","system_id":"levelo_inurba_marseille","lat":43.21748,"lon":5.34607,"is_reserved":false,"is_disabled":false,"rental_uris":{"android":"levelo://app?vid=6aef7dfd-7ebe-4dde-8361-eb921f6fbc0d","ios":"levelo://app?vid=6aef7dfd-7ebe-4dde-8361-eb921f6fbc0d"},"vehicle_type_id":"4","last_reported":1761049318,"current_range_meters":4800,"station_id":"st_cvj6r9ubvosntc0bgbag","pricing_plan_id":"cebpf4jnsgd1na2vs0mg"},{"bike_id":"381e97ff-7fda-4689-93ca-c2c09b8bdd29","system_id":"levelo_inurba_marseille","lat":43.26199,"lon":5.37923,"is_reserved":false,"is_disabled":false,"rental_uris":{"android":"levelo://app?vid=381e97ff-7fda-4689-93ca-c2c09b8bdd29","ios":"levelo://app?vid=381e97ff-7fda-4689-93ca-c2c09b8bdd29"},"vehicle_type_id":"4","last_reported":1761049318,"current_range_meters":5600,"station_id":"ce4bhjp2rcd13ifvqg90","pricing_plan_id":"cebpf4jnsgd1na2vs0mg"},{"bike_id":"68977d15-8fdc-4929-b55d-0a37d3deb4e4","system_id":"levelo_inurba_marseille","lat":43.31116,"lon":5.37766,"is_reserved":false,"is_disabled":false,"rental_uris":{"android":"levelo://app?vid=68977d15-8fdc-4929-b55d-0a37d3deb4e4","ios":"levelo://app?vid=68977d15-8fdc-4929-b55d-0a37d3deb4e4"},"vehicle_type_id":"4","last_reported":1761049318,"current_range_meters":5600,"station_id":"ce4bgt92rcd13ifvqcg0","pricing_plan_id":"cebpf4jnsgd1na2vs0mg"},{"bike_id":"9b818b8e-2e7e-4bd6-9c2e-e64e692535b9","system_id":"levelo_inurba_marseille","lat":43.24634,"lon":5.38862,"is_reserved":false,"is_disabled":false,"rental_uris":{"android":"levelo://app?vid=9b818b8e-2e7e-4bd6-9c2e-e64e692535b9","ios":"levelo://app?vid=9b818b8e-2e7e-4bd6-9c2e-e64e692535b9"},"vehicle_type_id":"4","last_reported":1761049318,"current_range_meters":5600,"station_id":"ce4bhg12rcd13ifvqf60","pricing_plan_id":"cebpf4jnsgd1na2vs0mg"},{"bike_id":"c068c946-d4c6-4f24-acf7-03bb41b90039","system_id":"levelo_inurba_marseille","lat":43.33022,"lon":5.39036,"is_reserved":false,"is_disabled":false,"rental_uris":{"android":"levelo://app?vid=c068c946-d4c6-4f24-acf7-03bb41b90039","ios":"levelo://app?vid=c068c946-d4c6-4f24-acf7-03bb41b90039"},"vehicle_type_id":"4","last_reported":1761049318,"current_range_meters":5600,"station_id":"ce4bhr92rcd13ifvqhrg","pricing_plan_id":"cebpf4jnsgd1na2vs0mg"},{"bike_id":"fe998b17-9d85-477f-b92c-87f6ebb6e1b3","system_id":"levelo_inurba_marseille","lat":43.24467,"lon":5.36933,"is_reserved":false,"is_disabled":false,"rental_uris":{"android":"levelo://app?vid=fe998b17-9d85-477f-b92c-87f6ebb6e1b3","ios":"levelo://app?vid=fe998b17-9d85-477f-b92c-87f6ebb6e1b3"},"vehicle_type_id":"4","last_reported":1761049318,"current_range_meters":6000,"station_id":"","pricing_plan_id":"cebpf4jnsgd1na2vs0mg"},{"bike_id":"8b042003-c67e-4e06-bd01-ea32fba1d473","system_id":"levelo_inurba_marseille","lat":43.26136,"lon":5.38841,"is_reserved":false,"is_disabled":false,"rental_uris":{"android":"levelo://app?vid=8b042003-c67e-4e06-bd01-ea32fba1d473","ios":"levelo://app?vid=8b042003-c67e-4e06-bd01-ea32fba1d473"},"vehicle_type_id":"4","last_reported":1761049318,"current_range_meters":6000,"station_id":"","pricing_plan_id":"cebpf4jnsgd1na2vs0mg"},{"bike_id":"0fdc9d57-f44a-4c56-ba29-f8dbed640b18","system_id":"levelo_inurba_marseille","lat":43.28464,"lon":5.38423,"is_reserved":false,"is_disabled":false,"rental_uris":{"android":"levelo://app?vid=0fdc9d57-f44a-4c56-ba29-f8dbed640b18","ios":"levelo://app?vid=0fdc9d57-f44a-4c56-ba29-f8dbed640b18"},"vehicle_type_id":"4","last_reported":1761049318,"current_range_meters":6000,"station_id":"ce4bh512rcd13ifvqe3g","pricing_plan_id":"cebpf4jnsgd1na2vs0mg"},{"bike_id":"bc78dff7-9053-49ff-b5a7-119b08e7f3fd","system_id":"levelo_inurba_marseille","lat":43.295792,"lon":5.37523,"is_reserved":false,"is_disabled":false,"rental_uris":{"android":"levelo://app?vid=bc78dff7-9053-49ff-b5a7-119b08e7f3fd","ios":"levelo://app?vid=bc78dff7-9053-49ff-b5a7-119b08e7f3fd"},"vehicle_type_id":"4","last_reported":1761049318,"current_range_meters":6000,"station_id":"ce4bgh92rcd13ifvqb50","pricing_plan_id":"cebpf4jnsgd1na2vs0mg"},{"bike_id":"df232322-534c-43cc-99de-f18e2f9f7788","system_id":"levelo_inurba_marseille","lat":43.22522,"lon":5.348315,"is_reserved":false,"is_disabled":false,"rental_uris":{"android":"levelo://app?vid=df232322-534c-43cc-99de-f18e2f9f7788","ios":"levelo://app?vid=df232322-534c-43cc-99de-f18e2f9f7788"},"vehicle_type_id":"4","last_reported":1761049318,"current_range_meters":6000,"station_id":"","pricing_plan_id":"cebpf4jnsgd1na2vs0mg"},{"bike_id":"212a9329-66c4-44b3-8186-4a3357c4630e","system_id":"levelo_inurba_marseille","lat":43.292138,"lon":5.380903,"is_reserved":false,"is_disabled":false,"rental_uris":{"android":"levelo://app?vid=212a9329-66c4-44b3-8186-4a3357c4630e","ios":"levelo://app?vid=212a9329-66c4-44b3-8186-4a3357c4630e"},"vehicle_type_id":"4","last_reported":1761049318,"current_range_meters":6400,"station_id":"","pricing_plan_id":"cebpf4jnsgd1na2vs0mg"},{"bike_id":"ada1219e-2344-4ed4-9a8b-26e07d491253","system_id":"levelo_inurba_marseille","lat":43.32478,"lon":5.36576,"is_reserved":false,"is_disabled":false,"rental_uris":{"android":"levelo://app?vid=ada1219e-2344-4ed4-9a8b-26e07d491253","ios":"levelo://app?vid=ada1219e-2344-4ed4-9a8b-26e07d491253"},"vehicle_type_id":"4","last_reported":1761049318,"current_range_meters":6400,"station_id":"ce4bhs12rcd13ifvqhvg","pricing_plan_id":"cebpf4jnsgd1na2vs0mg"},{"bike_id":"b32034f3-0111-4d4d-8583-903431fd94be","system_id":"levelo_inurba_marseille","lat":43.278172,"lon":5.406953,"is_reserved":false,"is_disabled":false,"rental_uris":{"android":"levelo://app?vid=b32034f3-0111-4d4d-8583-903431fd94be","ios":"levelo://app?vid=b32034f3-0111-4d4d-8583-903431fd94be"},"vehicle_type_id":"4","last_reported":1761049318,"current_range_meters":6400,"station_id":"ce4bhnh2rcd13ifvqgtg","pricing_plan_id":"cebpf4jnsgd1na2vs0mg"},{"bike_id":"40abac04-cc02-4be3-9b9b-8729d2ae93e7","system_id":"levelo_inurba_marseille","lat":43.301891,"lon":5.366213,"is_reserved":false,"is_disabled":false,"rental_uris":{"android":"levelo://app?vid=40abac04-cc02-4be3-9b9b-8729d2ae93e7","ios":"levelo://app?vid=40abac04-cc02-4be3-9b9b-8729d2ae93e7"},"vehicle_type_id":"4","last_reported":1761049318,"current_range_meters":6400,"station_id":"ce4bgrh2rcd13ifvqc8g","pricing_plan_id":"cebpf4jnsgd1na2vs0mg"},{"bike_id":"13ddfd5c-deab-4a7a-a95a-d162088380d1","system_id":"levelo_inurba_marseille","lat":43.30489,"lon":5.37911,"is_reserved":false,"is_disabled":false,"rental_uris":{"android":"levelo://app?vid=13ddfd5c-deab-4a7a-a95a-d162088380d1","ios":"levelo://app?vid=13ddfd5c-deab-4a7a-a95a-d162088380d1"},"vehicle_type_id":"4","last_reported":1761049318,"current_range_meters":6800,"station_id":"ce4bgup2rcd13ifvqcn0","pricing_plan_id":"cebpf4jnsgd1na2vs0mg"},{"bike_id":"8d488240-7398-4dad-a86d-dd4528a02a83","system_id":"levelo_inurba_marseille","lat":43.29058,"lon":5.40543,"is_reserved":false,"is_disabled":false,"rental_uris":{"android":"levelo://app?vid=8d488240-7398-4dad-a86d-dd4528a02a83","ios":"levelo://app?vid=8d488240-7398-4dad-a86d-dd4528a02a83"},"vehicle_type_id":"4","last_reported":1761049318,"current_range_meters":6800,"station_id":"","pricing_plan_id":"cebpf4jnsgd1na2vs0mg"},{"bike_id":"c50d77c5-1f7f-4ed0-abcf-b86d380a4a46","system_id":"levelo_inurba_marseille","lat":43.26208,"lon":5.37442,"is_reserved":false,"is_disabled":false,"rental_uris":{"android":"levelo://app?vid=c50d77c5-1f7f-4ed0-abcf-b86d380a4a46","ios":"levelo://app?vid=c50d77c5-1f7f-4ed0-abcf-b86d380a4a46"},"vehicle_type_id":"4","last_reported":1761049318,"current_range_meters":6800,"station_id":"ce4bhgp2rcd13ifvqfc0","pricing_plan_id":"cebpf4jnsgd1na2vs0mg"},{"bike_id":"fb006ec2-4827-438b-ac86-bc117b1f9d39","system_id":"levelo_inurba_marseille","lat":43.29442,"lon":5.39742,"is_reserved":false,"is_disabled":false,"rental_uris":{"android":"levelo://app?vid=fb006ec2-4827-438b-ac86-bc117b1f9d39","ios":"levelo://app?vid=fb006ec2-4827-438b-ac86-bc117b1f9d39"},"vehicle_type_id":"4","last_reported":1761049318,"current_range_meters":6800,"station_id":"ce4bh3h2rcd13ifvqdo0","pricing_plan_id":"cebpf4jnsgd1na2vs0mg"},{"bike_id":"c9c6b545-2dfb-4d64-9f04-12360de976df","system_id":"levelo_inurba_marseille","lat":43.30141,"lon":5.37416,"is_reserved":false,"is_disabled":false,"rental_uris":{"android":"levelo://app?vid=c9c6b545-2dfb-4d64-9f04-12360de976df","ios":"levelo://app?vid=c9c6b545-2dfb-4d64-9f04-12360de976df"},"vehicle_type_id":"4","last_reported":1761049318,"current_range_meters":7200,"station_id":"ce4bgs92rcd13ifvqcc0","pricing_plan_id":"cebpf4jnsgd1na2vs0mg"},{"bike_id":"98490d11-db71-4361-ab96-f0addd49d050","system_id":"levelo_inurba_marseille","lat":43.30005,"lon":5.373581,"is_reserved":false,"is_disabled":false,"rental_uris":{"android":"levelo://app?vid=98490d11-db71-4361-ab96-f0addd49d050","ios":"levelo://app?vid=98490d11-db71-4361-ab96-f0addd49d050"},"vehicle_type_id":"4","last_reported":1761049318,"current_range_meters":7200,"station_id":"","pricing_plan_id":"cebpf4jnsgd1na2vs0mg"},{"bike_id":"8a830d4f-ddab-46b9-9d0f-77194401daa1","system_id":"levelo_inurba_marseille","lat":43.34725,"lon":5.366,"is_reserved":false,"is_disabled":false,"rental_uris":{"android":"levelo://app?vid=8a830d4f-ddab-46b9-9d0f-77194401daa1","ios":"levelo://app?vid=8a830d4f-ddab-46b9-9d0f-77194401daa1"},"vehicle_type_id":"4","last_reported":1761049318,"current_range_meters":8000,"station_id":"","pricing_plan_id":"cebpf4jnsgd1na2vs0mg"},{"bike_id":"c037874f-e454-4d1e-9f03-b485b4dbd4f2","system_id":"levelo_inurba_marseille","lat":43.29188,"lon":5.370593,"is_reserved":false,"is_disabled":false,"rental_uris":{"android":"levelo://app?vid=c037874f-e454-4d1e-9f03-b485b4dbd4f2","ios":"levelo://app?vid=c037874f-e454-4d1e-9f03-b485b4dbd4f2"},"vehicle_type_id":"4","last_reported":1761049318,"current_range_meters":8000,"station_id":"","pricing_plan_id":"cebpf4jnsgd1na2vs0mg"},{"bike_id":"23d2e327-9a1c-43f9-a1d7-2fca27e96f84","system_id":"levelo_inurba_marseille","lat":43.273578,"lon":5.415074,"is_reserved":false,"is_disabled":false,"rental_uris":{"android":"levelo://app?vid=23d2e327-9a1c-43f9-a1d7-2fca27e96f84","ios":"levelo://app?vid=23d2e327-9a1c-43f9-a1d7-2fca27e96f84"},"vehicle_type_id":"4","last_reported":1761049318,"current_range_meters":8000,"station_id":"","pricing_plan_id":"cebpf4jnsgd1na2vs0mg"},{"bike_id":"bf6f945e-1d89-4884-b25c-f9034db8230e","system_id":"levelo_inurba_marseille","lat":43.3314,"lon":5.3913,"is_reserved":false,"is_disabled":false,"rental_uris":{"android":"levelo://app?vid=bf6f945e-1d89-4884-b25c-f9034db8230e","ios":"levelo://app?vid=bf6f945e-1d89-4884-b25c-f9034db8230e"},"vehicle_type_id":"4","last_reported":1761049318,"current_range_meters":8000,"station_id":"","pricing_plan_id":"cebpf4jnsgd1na2vs0mg"},{"bike_id":"40c6c0f4-82e3-440b-b1f4-d32df5afed56","system_id":"levelo_inurba_marseille","lat":43.28362,"lon":5.38625,"is_reserved":false,"is_disabled":false,"rental_uris":{"android":"levelo://app?vid=40c6c0f4-82e3-440b-b1f4-d32df5afed56","ios":"levelo://app?vid=40c6c0f4-82e3-440b-b1f4-d32df5afed56"},"vehicle_type_id":"4","last_reported":1761049318,"current_range_meters":8000,"station_id":"ce4bh492rcd13ifvqdvg","pricing_plan_id":"cebpf4jnsgd1na2vs0mg"},{"bike_id":"966c7d7e-3cbd-4f10-8c4b-3a43664ab5bd","system_id":"levelo_inurba_marseille","lat":43.30147,"lon":5.37212,"is_reserved":false,"is_disabled":false,"rental_uris":{"android":"levelo://app?vid=966c7d7e-3cbd-4f10-8c4b-3a43664ab5bd","ios":"levelo://app?vid=966c7d7e-3cbd-4f10-8c4b-3a43664ab5bd"},"vehicle_type_id":"4","last_reported":1761049318,"current_range_meters":8400,"station_id":"","pricing_plan_id":"cebpf4jnsgd1na2vs0mg"},{"bike_id":"6d8da19b-0143-43ba-a2b6-b774a32597d4","system_id":"levelo_inurba_marseille","lat":43.28157,"lon":5.34764,"is_reserved":false,"is_disabled":false,"rental_uris":{"android":"levelo://app?vid=6d8da19b-0143-43ba-a2b6-b774a32597d4","ios":"levelo://app?vid=6d8da19b-0143-43ba-a2b6-b774a32597d4"},"vehicle_type_id":"4","last_reported":1761049318,"current_range_meters":8400,"station_id":"","pricing_plan_id":"cebpf4jnsgd1na2vs0mg"},{"bike_id":"bf8ec125-d0e1-4669-93ef-7d5ad0ddea3a","system_id":"levelo_inurba_marseille","lat":43.27229,"lon":5.40053,"is_reserved":false,"is_disabled":false,"rental_uris":{"android":"levelo://app?vid=bf8ec125-d0e1-4669-93ef-7d5ad0ddea3a","ios":"levelo://app?vid=bf8ec125-d0e1-4669-93ef-7d5ad0ddea3a"},"vehicle_type_id":"4","last_reported":1761049318,"current_range_meters":8800,"station_id":"","pricing_plan_id":"cebpf4jnsgd1na2vs0mg"},{"bike_id":"110a9e51-a306-459f-9af6-48b17b7da24d","system_id":"levelo_inurba_marseille","lat":43.27919,"lon":5.39577,"is_reserved":false,"is_disabled":false,"rental_uris":{"android":"levelo://app?vid=110a9e51-a306-459f-9af6-48b17b7da24d","ios":"levelo://app?vid=110a9e51-a306-459f-9af6-48b17b7da24d"},"vehicle_type_id":"4","last_reported":1761049318,"current_range_meters":8800,"station_id":"ce4bhf92rcd13ifvqf40","pricing_plan_id":"cebpf4jnsgd1na2vs0mg"},{"bike_id":"dc05e2e9-67e4-4536-9018-406c2e3b9f2d","system_id":"levelo_inurba_marseille","lat":43.30539,"lon":5.36712,"is_reserved":false,"is_disabled":false,"rental_uris":{"android":"levelo://app?vid=dc05e2e9-67e4-4536-9018-406c2e3b9f2d","ios":"levelo://app?vid=dc05e2e9-67e4-4536-9018-406c2e3b9f2d"},"vehicle_type_id":"4","last_reported":1761049318,"current_range_meters":8800,"station_id":"ce4bgrp2rcd13ifvqc9g","pricing_plan_id":"cebpf4jnsgd1na2vs0mg"},{"bike_id":"e7cb61d9-84d9-41c0-8427-00fc6a9e436b","system_id":"levelo_inurba_marseille","lat":43.31074,"lon":5.37573,"is_reserved":false,"is_disabled":false,"rental_uris":{"android":"levelo://app?vid=e7cb61d9-84d9-41c0-8427-00fc6a9e436b","ios":"levelo://app?vid=e7cb61d9-84d9-41c0-8427-00fc6a9e436b"},"vehicle_type_id":"4","last_reported":1761049318,"current_range_meters":8800,"station_id":"","pricing_plan_id":"cebpf4jnsgd1na2vs0mg"},{"bike_id":"b1c9cb01-42df-4b8e-89a2-c81e1e9f20cc","system_id":"levelo_inurba_marseille","lat":43.21173,"lon":5.35072,"is_reserved":false,"is_disabled":false,"rental_uris":{"android":"levelo://app?vid=b1c9cb01-42df-4b8e-89a2-c81e1e9f20cc","ios":"levelo://app?vid=b1c9cb01-42df-4b8e-89a2-c81e1e9f20cc"},"vehicle_type_id":"4","last_reported":1761049318,"current_range_meters":8800,"station_id":"ce4bhhh2rcd13ifvqfk0","pricing_plan_id":"cebpf4jnsgd1na2vs0mg"},{"bike_id":"06160e71-2c5e-4906-ab9e-18aa4101a420","system_id":"levelo_inurba_marseille","lat":43.28949,"lon":5.36831,"is_reserved":false,"is_disabled":false,"rental_uris":{"android":"levelo://app?vid=06160e71-2c5e-4906-ab9e-18aa4101a420","ios":"levelo://app?vid=06160e71-2c5e-4906-ab9e-18aa4101a420"},"vehicle_type_id":"4","last_reported":1761049318,"current_range_meters":9200,"station_id":"","pricing_plan_id":"cebpf4jnsgd1na2vs0mg"},{"bike_id":"faafaab3-2765-4e63-92f5-e8aca18c08f2","system_id":"levelo_inurba_marseille","lat":43.320972,"lon":5.367597,"is_reserved":false,"is_disabled":true,"rental_uris":{"android":"levelo://app?vid=faafaab3-2765-4e63-92f5-e8aca18c08f2","ios":"levelo://app?vid=faafaab3-2765-4e63-92f5-e8aca18c08f2"},"vehicle_type_id":"4","last_reported":1761049318,"current_range_meters":9200,"station_id":"ce4bhrh2rcd13ifvqhug","pricing_plan_id":"cebpf4jnsgd1na2vs0mg"},{"bike_id":"19840955-f9d6-49c1-86e8-b7616b7da32c","system_id":"levelo_inurba_marseille","lat":43.33169,"lon":5.39059,"is_reserved":false,"is_disabled":false,"rental_uris":{"android":"levelo://app?vid=19840955-f9d6-49c1-86e8-b7616b7da32c","ios":"levelo://app?vid=19840955-f9d6-49c1-86e8-b7616b7da32c"},"vehicle_type_id":"4","last_reported":1761049318,"current_range_meters":9200,"station_id":"","pricing_plan_id":"cebpf4jnsgd1na2vs0mg"},{"bike_id":"1948347e-78ad-4359-bd25-657cc67c0713","system_id":"levelo_inurba_marseille","lat":43.26494,"lon":5.39547,"is_reserved":false,"is_disabled":false,"rental_uris":{"android":"levelo://app?vid=1948347e-78ad-4359-bd25-657cc67c0713","ios":"levelo://app?vid=1948347e-78ad-4359-bd25-657cc67c0713"},"vehicle_type_id":"4","last_reported":1761049318,"current_range_meters":9600,"station_id":"ce4bhi12rcd13ifvqfq0","pricing_plan_id":"cebpf4jnsgd1na2vs0mg"},{"bike_id":"2b0643fa-379b-4790-b946-de49554f4fb7","system_id":"levelo_inurba_marseille","lat":43.25938,"lon":5.40887,"is_reserved":false,"is_disabled":false,"rental_uris":{"android":"levelo://app?vid=2b0643fa-379b-4790-b946-de49554f4fb7","ios":"levelo://app?vid=2b0643fa-379b-4790-b946-de49554f4fb7"},"vehicle_type_id":"4","last_reported":1761049318,"current_range_meters":9600,"station_id":"ce4bhm92rcd13ifvqglg","pricing_plan_id":"cebpf4jnsgd1na2vs0mg"},{"bike_id":"f397bc14-fa53-4e7e-8e4a-b11c6f634348","system_id":"levelo_inurba_marseille","lat":43.25581,"lon":5.38231,"is_reserved":false,"is_disabled":false,"rental_uris":{"android":"levelo://app?vid=f397bc14-fa53-4e7e-8e4a-b11c6f634348","ios":"levelo://app?vid=f397bc14-fa53-4e7e-8e4a-b11c6f634348"},"vehicle_type_id":"4","last_reported":1761049318,"current_range_meters":9600,"station_id":"ce4bhih2rcd13ifvqfs0","pricing_plan_id":"cebpf4jnsgd1na2vs0mg"},{"bike_id":"a518c2c9-c3b4-4a1e-a426-a9317f1b0954","system_id":"levelo_inurba_marseille","lat":43.295362,"lon":5.374976,"is_reserved":false,"is_disabled":false,"rental_uris":{"android":"levelo://app?vid=a518c2c9-c3b4-4a1e-a426-a9317f1b0954","ios":"levelo://app?vid=a518c2c9-c3b4-4a1e-a426-a9317f1b0954"},"vehicle_type_id":"4","last_reported":1761049318,"current_range_meters":9600,"station_id":"ce4bgkp2rcd13ifvqbmg","pricing_plan_id":"cebpf4jnsgd1na2vs0mg"},{"bike_id":"d4dd0e32-b9a3-48f4-81fc-29be60b2f1ea","system_id":"levelo_inurba_marseille","lat":43.30798,"lon":5.38144,"is_reserved":false,"is_disabled":false,"rental_uris":{"android":"levelo://app?vid=d4dd0e32-b9a3-48f4-81fc-29be60b2f1ea","ios":"levelo://app?vid=d4dd0e32-b9a3-48f4-81fc-29be60b2f1ea"},"vehicle_type_id":"4","last_reported":1761049318,"current_range_meters":9600,"station_id":"ce4bgt12rcd13ifvqce0","pricing_plan_id":"cebpf4jnsgd1na2vs0mg"},{"bike_id":"0426de04-0e95-4c4a-809d-b1b4c1ec9dc3","system_id":"levelo_inurba_marseille","lat":43.29021,"lon":5.3814,"is_reserved":false,"is_disabled":false,"rental_uris":{"android":"levelo://app?vid=0426de04-0e95-4c4a-809d-b1b4c1ec9dc3","ios":"levelo://app?vid=0426de04-0e95-4c4a-809d-b1b4c1ec9dc3"},"vehicle_type_id":"4","last_reported":1761049318,"current_range_meters":9600,"station_id":"ce4bh4p2rcd13ifvqe1g","pricing_plan_id":"cebpf4jnsgd1na2vs0mg"},{"bike_id":"f2ff0ade-5361-46d8-ab78-69bd403c3483","system_id":"levelo_inurba_marseille","lat":43.28212,"lon":5.34986,"is_reserved":false,"is_disabled":false,"rental_uris":{"android":"levelo://app?vid=f2ff0ade-5361-46d8-ab78-69bd403c3483","ios":"levelo://app?vid=f2ff0ade-5361-46d8-ab78-69bd403c3483"},"vehicle_type_id":"4","last_reported":1761049318,"current_range_meters":9600,"station_id":"","pricing_plan_id":"cebpf4jnsgd1na2vs0mg"},{"bike_id":"cf9a3999-ab20-47cf-80be-07c88b6d9cb0","system_id":"levelo_inurba_marseille","lat":43.28868,"lon":5.42522,"is_reserved":false,"is_disabled":false,"rental_uris":{"android":"levelo://app?vid=cf9a3999-ab20-47cf-80be-07c88b6d9cb0","ios":"levelo://app?vid=cf9a3999-ab20-47cf-80be-07c88b6d9cb0"},"vehicle_type_id":"4","last_reported":1761049318,"current_range_meters":9600,"station_id":"st_d3b462108ojc7389ooeg","pricing_plan_id":"cebpf4jnsgd1na2vs0mg"},{"bike_id":"d81ae760-d7ca-4205-93ef-0bb1313157ef","system_id":"levelo_inurba_marseille","lat":43.27998,"lon":5.40012,"is_reserved":false,"is_disabled":false,"rental_uris":{"android":"levelo://app?vid=d81ae760-d7ca-4205-93ef-0bb1313157ef","ios":"levelo://app?vid=d81ae760-d7ca-4205-93ef-0bb1313157ef"},"vehicle_type_id":"4","last_reported":1761049318,"current_range_meters":9600,"station_id":"ce4bho92rcd13ifvqh4g","pricing_plan_id":"cebpf4jnsgd1na2vs0mg"},{"bike_id":"21cb6ea2-a1dc-4002-af89-bb9a19c4155b","system_id":"levelo_inurba_marseille","lat":43.26786,"lon":5.39421,"is_reserved":false,"is_disabled":false,"rental_uris":{"android":"levelo://app?vid=21cb6ea2-a1dc-4002-af89-bb9a19c4155b","ios":"levelo://app?vid=21cb6ea2-a1dc-4002-af89-bb9a19c4155b"},"vehicle_type_id":"4","last_reported":1761049318,"current_range_meters":9600,"station_id":"ce4bhh12rcd13ifvqfg0","pricing_plan_id":"cebpf4jnsgd1na2vs0mg"},{"bike_id":"5ef13f37-43ce-4efd-a5cc-52123a6f7ff7","system_id":"levelo_inurba_marseille","lat":43.28937,"lon":5.36635,"is_reserved":false,"is_disabled":false,"rental_uris":{"android":"levelo://app?vid=5ef13f37-43ce-4efd-a5cc-52123a6f7ff7","ios":"levelo://app?vid=5ef13f37-43ce-4efd-a5cc-52123a6f7ff7"},"vehicle_type_id":"4","last_reported":1761049318,"current_range_meters":10000,"station_id":"ce4bhap2rcd13ifvqek0","pricing_plan_id":"cebpf4jnsgd1na2vs0mg"},{"bike_id":"a2e131f8-3c9f-478a-b394-6a9db5f46a7a","system_id":"levelo_inurba_marseille","lat":43.30131,"lon":5.37428,"is_reserved":false,"is_disabled":true,"rental_uris":{"android":"levelo://app?vid=a2e131f8-3c9f-478a-b394-6a9db5f46a7a","ios":"levelo://app?vid=a2e131f8-3c9f-478a-b394-6a9db5f46a7a"},"vehicle_type_id":"4","last_reported":1761049318,"current_range_meters":10000,"station_id":"ce4bgs92rcd13ifvqcc0","pricing_plan_id":"cebpf4jnsgd1na2vs0mg"},{"bike_id":"f5d1a250-2080-4a02-89ae-1dfdbab1a437","system_id":"levelo_inurba_marseille","lat":43.26224,"lon":5.4045,"is_reserved":false,"is_disabled":false,"rental_uris":{"android":"levelo://app?vid=f5d1a250-2080-4a02-89ae-1dfdbab1a437","ios":"levelo://app?vid=f5d1a250-2080-4a02-89ae-1dfdbab1a437"},"vehicle_type_id":"4","last_reported":1761049318,"current_range_meters":10000,"station_id":"ce4bhmh2rcd13ifvqgmg","pricing_plan_id":"cebpf4jnsgd1na2vs0mg"},{"bike_id":"adb6da43-a790-4bbe-8cdb-8fa1e5d17796","system_id":"levelo_inurba_marseille","lat":43.3175,"lon":5.38585,"is_reserved":false,"is_disabled":false,"rental_uris":{"android":"levelo://app?vid=adb6da43-a790-4bbe-8cdb-8fa1e5d17796","ios":"levelo://app?vid=adb6da43-a790-4bbe-8cdb-8fa1e5d17796"},"vehicle_type_id":"4","last_reported":1761049318,"current_range_meters":10000,"station_id":"","pricing_plan_id":"cebpf4jnsgd1na2vs0mg"},{"bike_id":"76291bc0-61d0-4f03-946e-a7dfbd12b633","system_id":"levelo_inurba_marseille","lat":43.290183,"lon":5.381266,"is_reserved":false,"is_disabled":false,"rental_uris":{"android":"levelo://app?vid=76291bc0-61d0-4f03-946e-a7dfbd12b633","ios":"levelo://app?vid=76291bc0-61d0-4f03-946e-a7dfbd12b633"},"vehicle_type_id":"4","last_reported":1761049318,"current_range_meters":10000,"station_id":"ce4bh4p2rcd13ifvqe1g","pricing_plan_id":"cebpf4jnsgd1na2vs0mg"},{"bike_id":"7a35955c-fc9b-47ab-b836-acc7017aac88","system_id":"levelo_inurba_marseille","lat":43.29532,"lon":5.38543,"is_reserved":false,"is_disabled":true,"rental_uris":{"android":"levelo://app?vid=7a35955c-fc9b-47ab-b836-acc7017aac88","ios":"levelo://app?vid=7a35955c-fc9b-47ab-b836-acc7017aac88"},"vehicle_type_id":"4","last_reported":1761049318,"current_range_meters":10000,"station_id":"ce4bgih2rcd13ifvqba0","pricing_plan_id":"cebpf4jnsgd1na2vs0mg"},{"bike_id":"e31fefd7-019d-4293-a003-27736cab78d4","system_id":"levelo_inurba_marseille","lat":43.319916,"lon":5.381463,"is_reserved":false,"is_disabled":false,"rental_uris":{"android":"levelo://app?vid=e31fefd7-019d-4293-a003-27736cab78d4","ios":"levelo://app?vid=e31fefd7-019d-4293-a003-27736cab78d4"},"vehicle_type_id":"4","last_reported":1761049318,"current_range_meters":10000,"station_id":"ce4bhr12rcd13ifvqhpg","pricing_plan_id":"cebpf4jnsgd1na2vs0mg"},{"bike_id":"af89308b-13fb-4251-95aa-12d9ed0f2c43","system_id":"levelo_inurba_marseille","lat":43.317125,"lon":5.437073,"is_reserved":false,"is_disabled":false,"rental_uris":{"android":"levelo://app?vid=af89308b-13fb-4251-95aa-12d9ed0f2c43","ios":"levelo://app?vid=af89308b-13fb-4251-95aa-12d9ed0f2c43"},"vehicle_type_id":"4","last_reported":1761049318,"current_range_meters":10800,"station_id":"ce4bhp92rcd13ifvqhcg","pricing_plan_id":"cebpf4jnsgd1na2vs0mg"},{"bike_id":"2f2cd53b-bf8d-472a-8c70-97638c6ae795","system_id":"levelo_inurba_marseille","lat":43.3187,"lon":5.39994,"is_reserved":false,"is_disabled":false,"rental_uris":{"android":"levelo://app?vid=2f2cd53b-bf8d-472a-8c70-97638c6ae795","ios":"levelo://app?vid=2f2cd53b-bf8d-472a-8c70-97638c6ae795"},"vehicle_type_id":"4","last_reported":1761049318,"current_range_meters":10800,"station_id":"","pricing_plan_id":"cebpf4jnsgd1na2vs0mg"},{"bike_id":"b2b6a625-df36-4985-ad88-0ae95ae91a4b","system_id":"levelo_inurba_marseille","lat":43.28926,"lon":5.38393,"is_reserved":false,"is_disabled":false,"rental_uris":{"android":"levelo://app?vid=b2b6a625-df36-4985-ad88-0ae95ae91a4b","ios":"levelo://app?vid=b2b6a625-df36-4985-ad88-0ae95ae91a4b"},"vehicle_type_id":"4","last_reported":1761049318,"current_range_meters":10800,"station_id":"ce4bh612rcd13ifvqe6g","pricing_plan_id":"cebpf4jnsgd1na2vs0mg"},{"bike_id":"1e9bfffa-fe46-4cca-8d70-a5ba74081670","system_id":"levelo_inurba_marseille","lat":43.31229,"lon":5.36866,"is_reserved":false,"is_disabled":true,"rental_uris":{"android":"levelo://app?vid=1e9bfffa-fe46-4cca-8d70-a5ba74081670","ios":"levelo://app?vid=1e9bfffa-fe46-4cca-8d70-a5ba74081670"},"vehicle_type_id":"4","last_reported":1761049318,"current_range_meters":10800,"station_id":"ce4bgl92rcd13ifvqbq0","pricing_plan_id":"cebpf4jnsgd1na2vs0mg"},{"bike_id":"a5391764-6756-4db0-ba38-8ea56d059cdb","system_id":"levelo_inurba_marseille","lat":43.30464,"lon":5.379,"is_reserved":false,"is_disabled":false,"rental_uris":{"android":"levelo://app?vid=a5391764-6756-4db0-ba38-8ea56d059cdb","ios":"levelo://app?vid=a5391764-6756-4db0-ba38-8ea56d059cdb"},"vehicle_type_id":"4","last_reported":1761049318,"current_range_meters":10800,"station_id":"ce4bgup2rcd13ifvqcn0","pricing_plan_id":"cebpf4jnsgd1na2vs0mg"},{"bike_id":"3d068a7d-8c2c-4f97-8d7d-54140fa95800","system_id":"levelo_inurba_marseille","lat":43.2735,"lon":5.39879,"is_reserved":false,"is_disabled":false,"rental_uris":{"android":"levelo://app?vid=3d068a7d-8c2c-4f97-8d7d-54140fa95800","ios":"levelo://app?vid=3d068a7d-8c2c-4f97-8d7d-54140fa95800"},"vehicle_type_id":"4","last_reported":1761049318,"current_range_meters":10800,"station_id":"","pricing_plan_id":"cebpf4jnsgd1na2vs0mg"},{"bike_id":"397b3153-bd5b-4a18-b6c0-84fbc6b765c6","system_id":"levelo_inurba_marseille","lat":43.302193,"lon":5.394745,"is_reserved":false,"is_disabled":false,"rental_uris":{"android":"levelo://app?vid=397b3153-bd5b-4a18-b6c0-84fbc6b765c6","ios":"levelo://app?vid=397b3153-bd5b-4a18-b6c0-84fbc6b765c6"},"vehicle_type_id":"4","last_reported":1761049318,"current_range_meters":10800,"station_id":"ce4bh0p2rcd13ifvqd70","pricing_plan_id":"cebpf4jnsgd1na2vs0mg"},{"bike_id":"2dd6b58b-d5b0-4f16-bfae-e8068c61174e","system_id":"levelo_inurba_marseille","lat":43.21187,"lon":5.3507,"is_reserved":false,"is_disabled":false,"rental_uris":{"android":"levelo://app?vid=2dd6b58b-d5b0-4f16-bfae-e8068c61174e","ios":"levelo://app?vid=2dd6b58b-d5b0-4f16-bfae-e8068c61174e"},"vehicle_type_id":"4","last_reported":1761049318,"current_range_meters":10800,"station_id":"st_cvj6sg6p6f1abm77japg","pricing_plan_id":"cebpf4jnsgd1na2vs0mg"},{"bike_id":"4154d683-e72a-4592-9e60-2a3872848698","system_id":"levelo_inurba_marseille","lat":43.28481,"lon":5.48397,"is_reserved":false,"is_disabled":false,"rental_uris":{"android":"levelo://app?vid=4154d683-e72a-4592-9e60-2a3872848698","ios":"levelo://app?vid=4154d683-e72a-4592-9e60-2a3872848698"},"vehicle_type_id":"4","last_reported":1761049318,"current_range_meters":11200,"station_id":"st_d3jp68qikq2c7381ktn0","pricing_plan_id":"cebpf4jnsgd1na2vs0mg"},{"bike_id":"b7e41c34-cad5-468c-aadc-3ef8a1845b5a","system_id":"levelo_inurba_marseille","lat":43.2816,"lon":5.36123,"is_reserved":false,"is_disabled":false,"rental_uris":{"android":"levelo://app?vid=b7e41c34-cad5-468c-aadc-3ef8a1845b5a","ios":"levelo://app?vid=b7e41c34-cad5-468c-aadc-3ef8a1845b5a"},"vehicle_type_id":"4","last_reported":1761049318,"current_range_meters":11200,"station_id":"","pricing_plan_id":"cebpf4jnsgd1na2vs0mg"},{"bike_id":"fb0b0a26-279a-4419-86e3-588b670ae515","system_id":"levelo_inurba_marseille","lat":43.31525,"lon":5.38034,"is_reserved":false,"is_disabled":true,"rental_uris":{"android":"levelo://app?vid=fb0b0a26-279a-4419-86e3-588b670ae515","ios":"levelo://app?vid=fb0b0a26-279a-4419-86e3-588b670ae515"},"vehicle_type_id":"4","last_reported":1761049318,"current_range_meters":11200,"station_id":"ce4bhsp2rcd13ifvqi50","pricing_plan_id":"cebpf4jnsgd1na2vs0mg"},{"bike_id":"5d823415-4901-46a6-8d50-3886f3d86745","system_id":"levelo_inurba_marseille","lat":43.211925,"lon":5.350727,"is_reserved":false,"is_disabled":false,"rental_uris":{"android":"levelo://app?vid=5d823415-4901-46a6-8d50-3886f3d86745","ios":"levelo://app?vid=5d823415-4901-46a6-8d50-3886f3d86745"},"vehicle_type_id":"4","last_reported":1761049318,"current_range_meters":11200,"station_id":"st_cvj6sg6p6f1abm77japg","pricing_plan_id":"cebpf4jnsgd1na2vs0mg"},{"bike_id":"b3368da1-faef-43a4-ada4-73d0de7687c7","system_id":"levelo_inurba_marseille","lat":43.31571,"lon":5.38755,"is_reserved":false,"is_disabled":false,"rental_uris":{"android":"levelo://app?vid=b3368da1-faef-43a4-ada4-73d0de7687c7","ios":"levelo://app?vid=b3368da1-faef-43a4-ada4-73d0de7687c7"},"vehicle_type_id":"4","last_reported":1761049318,"current_range_meters":11200,"station_id":"","pricing_plan_id":"cebpf4jnsgd1na2vs0mg"},{"bike_id":"dcdac892-904b-4815-8acf-2d1a94637ba7","system_id":"levelo_inurba_marseille","lat":43.22559,"lon":5.41628,"is_reserved":false,"is_disabled":false,"rental_uris":{"android":"levelo://app?vid=dcdac892-904b-4815-8acf-2d1a94637ba7","ios":"levelo://app?vid=dcdac892-904b-4815-8acf-2d1a94637ba7"},"vehicle_type_id":"4","last_reported":1761049318,"current_range_meters":11200,"station_id":"st_d2o4gvlbi1j2169b742g","pricing_plan_id":"cebpf4jnsgd1na2vs0mg"},{"bike_id":"5804c40f-cf46-4e63-8fcf-082ee08cc137","system_id":"levelo_inurba_marseille","lat":43.25001,"lon":5.38922,"is_reserved":false,"is_disabled":false,"rental_uris":{"android":"levelo://app?vid=5804c40f-cf46-4e63-8fcf-082ee08cc137","ios":"levelo://app?vid=5804c40f-cf46-4e63-8fcf-082ee08cc137"},"vehicle_type_id":"4","last_reported":1761049318,"current_range_meters":11200,"station_id":"ce4bhgp2rcd13ifvqfd0","pricing_plan_id":"cebpf4jnsgd1na2vs0mg"},{"bike_id":"fd51b1e3-6dcf-4937-b6be-20abd9a1235c","system_id":"levelo_inurba_marseille","lat":43.23782,"lon":5.36636,"is_reserved":false,"is_disabled":false,"rental_uris":{"android":"levelo://app?vid=fd51b1e3-6dcf-4937-b6be-20abd9a1235c","ios":"levelo://app?vid=fd51b1e3-6dcf-4937-b6be-20abd9a1235c"},"vehicle_type_id":"4","last_reported":1761049318,"current_range_meters":11600,"station_id":"st_d3nk18o9ro0c73en2l3g","pricing_plan_id":"cebpf4jnsgd1na2vs0mg"},{"bike_id":"14f57269-3708-4c0e-98ac-09dc4e0cf7bc","system_id":"levelo_inurba_marseille","lat":43.26559,"lon":5.37279,"is_reserved":false,"is_disabled":false,"rental_uris":{"android":"levelo://app?vid=14f57269-3708-4c0e-98ac-09dc4e0cf7bc","ios":"levelo://app?vid=14f57269-3708-4c0e-98ac-09dc4e0cf7bc"},"vehicle_type_id":"4","last_reported":1761049318,"current_range_meters":11600,"station_id":"ce4bhg12rcd13ifvqf70","pricing_plan_id":"cebpf4jnsgd1na2vs0mg"},{"bike_id":"67d39ae0-47c2-4c4a-b490-89faea31f325","system_id":"levelo_inurba_marseille","lat":43.298003,"lon":5.381155,"is_reserved":false,"is_disabled":false,"rental_uris":{"android":"levelo://app?vid=67d39ae0-47c2-4c4a-b490-89faea31f325","ios":"levelo://app?vid=67d39ae0-47c2-4c4a-b490-89faea31f325"},"vehicle_type_id":"4","last_reported":1761049318,"current_range_meters":11600,"station_id":"ce4bgip2rcd13ifvqbb0","pricing_plan_id":"cebpf4jnsgd1na2vs0mg"},{"bike_id":"54a7471e-8675-4b3b-a7a5-316aa76bbcbc","system_id":"levelo_inurba_marseille","lat":43.279204,"lon":5.404313,"is_reserved":false,"is_disabled":false,"rental_uris":{"android":"levelo://app?vid=54a7471e-8675-4b3b-a7a5-316aa76bbcbc","ios":"levelo://app?vid=54a7471e-8675-4b3b-a7a5-316aa76bbcbc"},"vehicle_type_id":"4","last_reported":1761049318,"current_range_meters":11600,"station_id":"","pricing_plan_id":"cebpf4jnsgd1na2vs0mg"},{"bike_id":"8074c264-e9bd-4bde-b3a5-042759d28030","system_id":"levelo_inurba_marseille","lat":43.29032,"lon":5.37568,"is_reserved":false,"is_disabled":false,"rental_uris":{"android":"levelo://app?vid=8074c264-e9bd-4bde-b3a5-042759d28030","ios":"levelo://app?vid=8074c264-e9bd-4bde-b3a5-042759d28030"},"vehicle_type_id":"4","last_reported":1761049318,"current_range_meters":11600,"station_id":"ce4bh692rcd13ifvqe90","pricing_plan_id":"cebpf4jnsgd1na2vs0mg"},{"bike_id":"e6035dfc-512f-4d67-a19b-808a92d4b910","system_id":"levelo_inurba_marseille","lat":43.29533,"lon":5.37504,"is_reserved":false,"is_disabled":false,"rental_uris":{"android":"levelo://app?vid=e6035dfc-512f-4d67-a19b-808a92d4b910","ios":"levelo://app?vid=e6035dfc-512f-4d67-a19b-808a92d4b910"},"vehicle_type_id":"4","last_reported":1761049318,"current_range_meters":12000,"station_id":"ce4bgkp2rcd13ifvqbmg","pricing_plan_id":"cebpf4jnsgd1na2vs0mg"},{"bike_id":"609e8845-7ae3-4c4f-97f5-856dd3a8b490","system_id":"levelo_inurba_marseille","lat":43.28863,"lon":5.42514,"is_reserved":false,"is_disabled":false,"rental_uris":{"android":"levelo://app?vid=609e8845-7ae3-4c4f-97f5-856dd3a8b490","ios":"levelo://app?vid=609e8845-7ae3-4c4f-97f5-856dd3a8b490"},"vehicle_type_id":"4","last_reported":1761049318,"current_range_meters":12000,"station_id":"st_d3b462108ojc7389ooeg","pricing_plan_id":"cebpf4jnsgd1na2vs0mg"},{"bike_id":"6d96028a-c588-49c5-9536-110c333b3363","system_id":"levelo_inurba_marseille","lat":43.29266,"lon":5.37625,"is_reserved":false,"is_disabled":false,"rental_uris":{"android":"levelo://app?vid=6d96028a-c588-49c5-9536-110c333b3363","ios":"levelo://app?vid=6d96028a-c588-49c5-9536-110c333b3363"},"vehicle_type_id":"4","last_reported":1761049318,"current_range_meters":12000,"station_id":"ce4bgi12rcd13ifvqb80","pricing_plan_id":"cebpf4jnsgd1na2vs0mg"},{"bike_id":"0370d016-0883-4967-904d-4440b67ceb62","system_id":"levelo_inurba_marseille","lat":43.2827,"lon":5.35058,"is_reserved":false,"is_disabled":false,"rental_uris":{"android":"levelo://app?vid=0370d016-0883-4967-904d-4440b67ceb62","ios":"levelo://app?vid=0370d016-0883-4967-904d-4440b67ceb62"},"vehicle_type_id":"4","last_reported":1761049318,"current_range_meters":12000,"station_id":"","pricing_plan_id":"cebpf4jnsgd1na2vs0mg"},{"bike_id":"3d900732-f44d-4bd2-97ca-cfed3d790f85","system_id":"levelo_inurba_marseille","lat":43.26053,"lon":5.39389,"is_reserved":false,"is_disabled":false,"rental_uris":{"android":"levelo://app?vid=3d900732-f44d-4bd2-97ca-cfed3d790f85","ios":"levelo://app?vid=3d900732-f44d-4bd2-97ca-cfed3d790f85"},"vehicle_type_id":"4","last_reported":1761049318,"current_range_meters":12000,"station_id":"ce4bhh92rcd13ifvqfj0","pricing_plan_id":"cebpf4jnsgd1na2vs0mg"},{"bike_id":"da3c5d5d-639d-4a11-88e1-f7b9c2ad220a","system_id":"levelo_inurba_marseille","lat":43.316739,"lon":5.377286,"is_reserved":false,"is_disabled":true,"rental_uris":{"android":"levelo://app?vid=da3c5d5d-639d-4a11-88e1-f7b9c2ad220a","ios":"levelo://app?vid=da3c5d5d-639d-4a11-88e1-f7b9c2ad220a"},"vehicle_type_id":"4","last_reported":1761049318,"current_range_meters":12000,"station_id":"ce4bgth2rcd13ifvqch0","pricing_plan_id":"cebpf4jnsgd1na2vs0mg"},{"bike_id":"f434a13c-41b9-41a3-8212-055ca998b49b","system_id":"levelo_inurba_marseille","lat":43.28627,"lon":5.40735,"is_reserved":false,"is_disabled":false,"rental_uris":{"android":"levelo://app?vid=f434a13c-41b9-41a3-8212-055ca998b49b","ios":"levelo://app?vid=f434a13c-41b9-41a3-8212-055ca998b49b"},"vehicle_type_id":"4","last_reported":1761049318,"current_range_meters":12000,"station_id":"","pricing_plan_id":"cebpf4jnsgd1na2vs0mg"},{"bike_id":"cd9999ad-183b-4576-ba1e-06ed5f575a80","system_id":"levelo_inurba_marseille","lat":43.230657,"lon":5.35489,"is_reserved":false,"is_disabled":false,"rental_uris":{"android":"levelo://app?vid=cd9999ad-183b-4576-ba1e-06ed5f575a80","ios":"levelo://app?vid=cd9999ad-183b-4576-ba1e-06ed5f575a80"},"vehicle_type_id":"4","last_reported":1761049318,"current_range_meters":12000,"station_id":"cpo3342slgdg3j2ifvpg","pricing_plan_id":"cebpf4jnsgd1na2vs0mg"},{"bike_id":"66bec76d-d7e9-4a1e-a715-39e56334bf96","system_id":"levelo_inurba_marseille","lat":43.28294,"lon":5.39654,"is_reserved":false,"is_disabled":false,"rental_uris":{"android":"levelo://app?vid=66bec76d-d7e9-4a1e-a715-39e56334bf96","ios":"levelo://app?vid=66bec76d-d7e9-4a1e-a715-39e56334bf96"},"vehicle_type_id":"4","last_reported":1761049318,"current_range_meters":12400,"station_id":"","pricing_plan_id":"cebpf4jnsgd1na2vs0mg"},{"bike_id":"1604878d-6d54-4611-a416-f6c03f37cf7a","system_id":"levelo_inurba_marseille","lat":43.30516,"lon":5.36745,"is_reserved":false,"is_disabled":false,"rental_uris":{"android":"levelo://app?vid=1604878d-6d54-4611-a416-f6c03f37cf7a","ios":"levelo://app?vid=1604878d-6d54-4611-a416-f6c03f37cf7a"},"vehicle_type_id":"4","last_reported":1761049318,"current_range_meters":12400,"station_id":"ce4bgrp2rcd13ifvqc9g","pricing_plan_id":"cebpf4jnsgd1na2vs0mg"},{"bike_id":"e0b2a497-9bd4-4c0a-8fab-d2739f808190","system_id":"levelo_inurba_marseille","lat":43.2396,"lon":5.36639,"is_reserved":false,"is_disabled":false,"rental_uris":{"android":"levelo://app?vid=e0b2a497-9bd4-4c0a-8fab-d2739f808190","ios":"levelo://app?vid=e0b2a497-9bd4-4c0a-8fab-d2739f808190"},"vehicle_type_id":"4","last_reported":1761049318,"current_range_meters":12800,"station_id":"ce4bhi12rcd13ifvqfp0","pricing_plan_id":"cebpf4jnsgd1na2vs0mg"},{"bike_id":"c4d17d81-19cf-4697-a9b1-d780d189ed78","system_id":"levelo_inurba_marseille","lat":43.251193,"lon":5.40317,"is_reserved":false,"is_disabled":true,"rental_uris":{"android":"levelo://app?vid=c4d17d81-19cf-4697-a9b1-d780d189ed78","ios":"levelo://app?vid=c4d17d81-19cf-4697-a9b1-d780d189ed78"},"vehicle_type_id":"4","last_reported":1761049318,"current_range_meters":12800,"station_id":"ce4bhlh2rcd13ifvqgig","pricing_plan_id":"cebpf4jnsgd1na2vs0mg"},{"bike_id":"2f09c01d-689c-4521-97af-b4ef07cad168","system_id":"levelo_inurba_marseille","lat":43.22558,"lon":5.41622,"is_reserved":false,"is_disabled":false,"rental_uris":{"android":"levelo://app?vid=2f09c01d-689c-4521-97af-b4ef07cad168","ios":"levelo://app?vid=2f09c01d-689c-4521-97af-b4ef07cad168"},"vehicle_type_id":"4","last_reported":1761049318,"current_range_meters":12800,"station_id":"st_d2o4gvlbi1j2169b742g","pricing_plan_id":"cebpf4jnsgd1na2vs0mg"},{"bike_id":"9f9c230f-e32e-444c-b022-b99f19fd1864","system_id":"levelo_inurba_marseille","lat":43.30303,"lon":5.36899,"is_reserved":false,"is_disabled":false,"rental_uris":{"android":"levelo://app?vid=9f9c230f-e32e-444c-b022-b99f19fd1864","ios":"levelo://app?vid=9f9c230f-e32e-444c-b022-b99f19fd1864"},"vehicle_type_id":"4","last_reported":1761049318,"current_range_meters":13600,"station_id":"ce4bgqh2rcd13ifvqc5g","pricing_plan_id":"cebpf4jnsgd1na2vs0mg"},{"bike_id":"e6f107ef-554f-4a02-9907-6d80b8b4c7ee","system_id":"levelo_inurba_marseille","lat":43.32573,"lon":5.4244,"is_reserved":false,"is_disabled":false,"rental_uris":{"android":"levelo://app?vid=e6f107ef-554f-4a02-9907-6d80b8b4c7ee","ios":"levelo://app?vid=e6f107ef-554f-4a02-9907-6d80b8b4c7ee"},"vehicle_type_id":"4","last_reported":1761049318,"current_range_meters":13600,"station_id":"","pricing_plan_id":"cebpf4jnsgd1na2vs0mg"},{"bike_id":"8dac45a1-7bf3-438a-8fba-cadc36ccf699","system_id":"levelo_inurba_marseille","lat":43.28269,"lon":5.35059,"is_reserved":false,"is_disabled":false,"rental_uris":{"android":"levelo://app?vid=8dac45a1-7bf3-438a-8fba-cadc36ccf699","ios":"levelo://app?vid=8dac45a1-7bf3-438a-8fba-cadc36ccf699"},"vehicle_type_id":"4","last_reported":1761049318,"current_range_meters":13600,"station_id":"ce4bhbp2rcd13ifvqerg","pricing_plan_id":"cebpf4jnsgd1na2vs0mg"},{"bike_id":"53143c9e-e5c9-4956-b244-c0802477f8bc","system_id":"levelo_inurba_marseille","lat":43.309998,"lon":5.389321,"is_reserved":false,"is_disabled":false,"rental_uris":{"android":"levelo://app?vid=53143c9e-e5c9-4956-b244-c0802477f8bc","ios":"levelo://app?vid=53143c9e-e5c9-4956-b244-c0802477f8bc"},"vehicle_type_id":"4","last_reported":1761049318,"current_range_meters":14000,"station_id":"ce4bgup2rcd13ifvqco0","pricing_plan_id":"cebpf4jnsgd1na2vs0mg"},{"bike_id":"b744bf62-a4dd-4881-8ed1-7b9b6fc97c36","system_id":"levelo_inurba_marseille","lat":43.296281,"lon":5.377411,"is_reserved":false,"is_disabled":false,"rental_uris":{"android":"levelo://app?vid=b744bf62-a4dd-4881-8ed1-7b9b6fc97c36","ios":"levelo://app?vid=b744bf62-a4dd-4881-8ed1-7b9b6fc97c36"},"vehicle_type_id":"4","last_reported":1761049318,"current_range_meters":14000,"station_id":"ce4bgi92rcd13ifvqb90","pricing_plan_id":"cebpf4jnsgd1na2vs0mg"},{"bike_id":"7a49521f-83ec-4610-a9e0-cc1ab58ce0b2","system_id":"levelo_inurba_marseille","lat":43.25077,"lon":5.39529,"is_reserved":false,"is_disabled":false,"rental_uris":{"android":"levelo://app?vid=7a49521f-83ec-4610-a9e0-cc1ab58ce0b2","ios":"levelo://app?vid=7a49521f-83ec-4610-a9e0-cc1ab58ce0b2"},"vehicle_type_id":"4","last_reported":1761049318,"current_range_meters":14000,"station_id":"ce4bhm12rcd13ifvqgkg","pricing_plan_id":"cebpf4jnsgd1na2vs0mg"},{"bike_id":"f50468dd-de68-42df-a0b8-1c6fb91a248c","system_id":"levelo_inurba_marseille","lat":43.26728,"lon":5.41226,"is_reserved":false,"is_disabled":false,"rental_uris":{"android":"levelo://app?vid=f50468dd-de68-42df-a0b8-1c6fb91a248c","ios":"levelo://app?vid=f50468dd-de68-42df-a0b8-1c6fb91a248c"},"vehicle_type_id":"4","last_reported":1761049318,"current_range_meters":14000,"station_id":"","pricing_plan_id":"cebpf4jnsgd1na2vs0mg"},{"bike_id":"4692366e-eb50-4fa8-aa91-7207b7b66b7a","system_id":"levelo_inurba_marseille","lat":43.25106,"lon":5.40319,"is_reserved":false,"is_disabled":false,"rental_uris":{"android":"levelo://app?vid=4692366e-eb50-4fa8-aa91-7207b7b66b7a","ios":"levelo://app?vid=4692366e-eb50-4fa8-aa91-7207b7b66b7a"},"vehicle_type_id":"4","last_reported":1761049318,"current_range_meters":14000,"station_id":"ce4bhlh2rcd13ifvqgig","pricing_plan_id":"cebpf4jnsgd1na2vs0mg"},{"bike_id":"fa5acc8a-02e0-43b1-b43e-75168b64910e","system_id":"levelo_inurba_marseille","lat":43.28721,"lon":5.37933,"is_reserved":false,"is_disabled":false,"rental_uris":{"android":"levelo://app?vid=fa5acc8a-02e0-43b1-b43e-75168b64910e","ios":"levelo://app?vid=fa5acc8a-02e0-43b1-b43e-75168b64910e"},"vehicle_type_id":"4","last_reported":1761049318,"current_range_meters":14000,"station_id":"ce4bh9p2rcd13ifvqec0","pricing_plan_id":"cebpf4jnsgd1na2vs0mg"},{"bike_id":"73cdef3f-b7aa-485a-87c2-e7aa8f9a2cb9","system_id":"levelo_inurba_marseille","lat":43.32479,"lon":5.36567,"is_reserved":false,"is_disabled":false,"rental_uris":{"android":"levelo://app?vid=73cdef3f-b7aa-485a-87c2-e7aa8f9a2cb9","ios":"levelo://app?vid=73cdef3f-b7aa-485a-87c2-e7aa8f9a2cb9"},"vehicle_type_id":"4","last_reported":1761049318,"current_range_meters":14000,"station_id":"ce4bhs12rcd13ifvqhvg","pricing_plan_id":"cebpf4jnsgd1na2vs0mg"},{"bike_id":"ca494fc6-7013-41c5-a667-abea5b8714dc","system_id":"levelo_inurba_marseille","lat":43.30476,"lon":5.37901,"is_reserved":false,"is_disabled":false,"rental_uris":{"android":"levelo://app?vid=ca494fc6-7013-41c5-a667-abea5b8714dc","ios":"levelo://app?vid=ca494fc6-7013-41c5-a667-abea5b8714dc"},"vehicle_type_id":"4","last_reported":1761049318,"current_range_meters":14400,"station_id":"ce4bgup2rcd13ifvqcn0","pricing_plan_id":"cebpf4jnsgd1na2vs0mg"},{"bike_id":"41de4093-2bb0-4b27-83b8-274e0546aef6","system_id":"levelo_inurba_marseille","lat":43.27567,"lon":5.38414,"is_reserved":false,"is_disabled":false,"rental_uris":{"android":"levelo://app?vid=41de4093-2bb0-4b27-83b8-274e0546aef6","ios":"levelo://app?vid=41de4093-2bb0-4b27-83b8-274e0546aef6"},"vehicle_type_id":"4","last_reported":1761049318,"current_range_meters":14400,"station_id":"ce4bhh92rcd13ifvqfi0","pricing_plan_id":"cebpf4jnsgd1na2vs0mg"},{"bike_id":"d1146ef6-a55d-4485-a3fa-fb599748ee2b","system_id":"levelo_inurba_marseille","lat":43.286164,"lon":5.35107,"is_reserved":false,"is_disabled":false,"rental_uris":{"android":"levelo://app?vid=d1146ef6-a55d-4485-a3fa-fb599748ee2b","ios":"levelo://app?vid=d1146ef6-a55d-4485-a3fa-fb599748ee2b"},"vehicle_type_id":"4","last_reported":1761049318,"current_range_meters":14400,"station_id":"ce4bgi92rcd13ifvqb90","pricing_plan_id":"cebpf4jnsgd1na2vs0mg"},{"bike_id":"b8457e49-45d1-4539-8d31-1eb0283df508","system_id":"levelo_inurba_marseille","lat":43.331598,"lon":5.354932,"is_reserved":false,"is_disabled":false,"rental_uris":{"android":"levelo://app?vid=b8457e49-45d1-4539-8d31-1eb0283df508","ios":"levelo://app?vid=b8457e49-45d1-4539-8d31-1eb0283df508"},"vehicle_type_id":"4","last_reported":1761049318,"current_range_meters":14400,"station_id":"","pricing_plan_id":"cebpf4jnsgd1na2vs0mg"},{"bike_id":"6244253c-5dd8-41ea-b9cc-99ad539d473b","system_id":"levelo_inurba_marseille","lat":43.31997,"lon":5.38151,"is_reserved":false,"is_disabled":false,"rental_uris":{"android":"levelo://app?vid=6244253c-5dd8-41ea-b9cc-99ad539d473b","ios":"levelo://app?vid=6244253c-5dd8-41ea-b9cc-99ad539d473b"},"vehicle_type_id":"4","last_reported":1761049318,"current_range_meters":14800,"station_id":"ce4bhr12rcd13ifvqhpg","pricing_plan_id":"cebpf4jnsgd1na2vs0mg"},{"bike_id":"12ba8bb1-a3d2-4f5d-9846-01bb513bc534","system_id":"levelo_inurba_marseille","lat":43.262053,"lon":5.37446,"is_reserved":false,"is_disabled":false,"rental_uris":{"android":"levelo://app?vid=12ba8bb1-a3d2-4f5d-9846-01bb513bc534","ios":"levelo://app?vid=12ba8bb1-a3d2-4f5d-9846-01bb513bc534"},"vehicle_type_id":"4","last_reported":1761049318,"current_range_meters":14800,"station_id":"ce4bhgp2rcd13ifvqfc0","pricing_plan_id":"cebpf4jnsgd1na2vs0mg"},{"bike_id":"fbda54f8-9a88-450b-bf57-d8cd3000c829","system_id":"levelo_inurba_marseille","lat":43.30546,"lon":5.36539,"is_reserved":false,"is_disabled":false,"rental_uris":{"android":"levelo://app?vid=fbda54f8-9a88-450b-bf57-d8cd3000c829","ios":"levelo://app?vid=fbda54f8-9a88-450b-bf57-d8cd3000c829"},"vehicle_type_id":"4","last_reported":1761049318,"current_range_meters":14800,"station_id":"ce4bgs12rcd13ifvqcag","pricing_plan_id":"cebpf4jnsgd1na2vs0mg"},{"bike_id":"993e4676-0a30-4f63-afcd-8b1880e8237a","system_id":"levelo_inurba_marseille","lat":43.30485,"lon":5.37921,"is_reserved":false,"is_disabled":false,"rental_uris":{"android":"levelo://app?vid=993e4676-0a30-4f63-afcd-8b1880e8237a","ios":"levelo://app?vid=993e4676-0a30-4f63-afcd-8b1880e8237a"},"vehicle_type_id":"4","last_reported":1761049318,"current_range_meters":15200,"station_id":"ce4bgup2rcd13ifvqcn0","pricing_plan_id":"cebpf4jnsgd1na2vs0mg"},{"bike_id":"acf3006a-1f2e-472b-a3ec-690e0b97587d","system_id":"levelo_inurba_marseille","lat":43.24644,"lon":5.388953,"is_reserved":false,"is_disabled":false,"rental_uris":{"android":"levelo://app?vid=acf3006a-1f2e-472b-a3ec-690e0b97587d","ios":"levelo://app?vid=acf3006a-1f2e-472b-a3ec-690e0b97587d"},"vehicle_type_id":"4","last_reported":1761049318,"current_range_meters":15200,"station_id":"ce4bhg12rcd13ifvqf60","pricing_plan_id":"cebpf4jnsgd1na2vs0mg"},{"bike_id":"9ec05fe2-7fe9-421d-871b-bab1056db25e","system_id":"levelo_inurba_marseille","lat":43.24175,"lon":5.39732,"is_reserved":false,"is_disabled":false,"rental_uris":{"android":"levelo://app?vid=9ec05fe2-7fe9-421d-871b-bab1056db25e","ios":"levelo://app?vid=9ec05fe2-7fe9-421d-871b-bab1056db25e"},"vehicle_type_id":"4","last_reported":1761049318,"current_range_meters":15200,"station_id":"ce4bhn12rcd13ifvqgpg","pricing_plan_id":"cebpf4jnsgd1na2vs0mg"},{"bike_id":"4a70db08-e567-454c-a030-b60c28088149","system_id":"levelo_inurba_marseille","lat":43.27057,"lon":5.40261,"is_reserved":false,"is_disabled":false,"rental_uris":{"android":"levelo://app?vid=4a70db08-e567-454c-a030-b60c28088149","ios":"levelo://app?vid=4a70db08-e567-454c-a030-b60c28088149"},"vehicle_type_id":"4","last_reported":1761049318,"current_range_meters":15200,"station_id":"ce4bhk92rcd13ifvqgc0","pricing_plan_id":"cebpf4jnsgd1na2vs0mg"},{"bike_id":"429b37fc-108f-44ee-a6b1-b784ba34099c","system_id":"levelo_inurba_marseille","lat":43.32047,"lon":5.41552,"is_reserved":false,"is_disabled":false,"rental_uris":{"android":"levelo://app?vid=429b37fc-108f-44ee-a6b1-b784ba34099c","ios":"levelo://app?vid=429b37fc-108f-44ee-a6b1-b784ba34099c"},"vehicle_type_id":"4","last_reported":1761049318,"current_range_meters":15200,"station_id":"ce4bhq92rcd13ifvqhkg","pricing_plan_id":"cebpf4jnsgd1na2vs0mg"},{"bike_id":"02f7835e-8895-43db-bc46-dc0659a292d5","system_id":"levelo_inurba_marseille","lat":43.29331,"lon":5.3707,"is_reserved":false,"is_disabled":false,"rental_uris":{"android":"levelo://app?vid=02f7835e-8895-43db-bc46-dc0659a292d5","ios":"levelo://app?vid=02f7835e-8895-43db-bc46-dc0659a292d5"},"vehicle_type_id":"4","last_reported":1761049318,"current_range_meters":15200,"station_id":"","pricing_plan_id":"cebpf4jnsgd1na2vs0mg"},{"bike_id":"f8ede6b7-fbcf-4a6f-8164-6dbaaecf0048","system_id":"levelo_inurba_marseille","lat":43.21195,"lon":5.35067,"is_reserved":false,"is_disabled":false,"rental_uris":{"android":"levelo://app?vid=f8ede6b7-fbcf-4a6f-8164-6dbaaecf0048","ios":"levelo://app?vid=f8ede6b7-fbcf-4a6f-8164-6dbaaecf0048"},"vehicle_type_id":"4","last_reported":1761049318,"current_range_meters":16000,"station_id":"st_cvj6sg6p6f1abm77japg","pricing_plan_id":"cebpf4jnsgd1na2vs0mg"},{"bike_id":"22c660ad-ddf4-4958-a393-4acd861a2ace","system_id":"levelo_inurba_marseille","lat":43.28094,"lon":5.37794,"is_reserved":false,"is_disabled":false,"rental_uris":{"android":"levelo://app?vid=22c660ad-ddf4-4958-a393-4acd861a2ace","ios":"levelo://app?vid=22c660ad-ddf4-4958-a393-4acd861a2ace"},"vehicle_type_id":"4","last_reported":1761049318,"current_range_meters":16000,"station_id":"ce4bha12rcd13ifvqee0","pricing_plan_id":"cebpf4jnsgd1na2vs0mg"},{"bike_id":"3201e625-69d5-420e-838c-f4c3f44666ef","system_id":"levelo_inurba_marseille","lat":43.33796,"lon":5.37434,"is_reserved":false,"is_disabled":false,"rental_uris":{"android":"levelo://app?vid=3201e625-69d5-420e-838c-f4c3f44666ef","ios":"levelo://app?vid=3201e625-69d5-420e-838c-f4c3f44666ef"},"vehicle_type_id":"4","last_reported":1761049318,"current_range_meters":16000,"station_id":"","pricing_plan_id":"cebpf4jnsgd1na2vs0mg"},{"bike_id":"2e227533-c99f-4c6e-afb9-62ce0c89ec30","system_id":"levelo_inurba_marseille","lat":43.32465,"lon":5.36577,"is_reserved":false,"is_disabled":false,"rental_uris":{"android":"levelo://app?vid=2e227533-c99f-4c6e-afb9-62ce0c89ec30","ios":"levelo://app?vid=2e227533-c99f-4c6e-afb9-62ce0c89ec30"},"vehicle_type_id":"4","last_reported":1761049318,"current_range_meters":16000,"station_id":"ce4bhs12rcd13ifvqhvg","pricing_plan_id":"cebpf4jnsgd1na2vs0mg"},{"bike_id":"0236a73e-c82f-4e77-b168-738e0fc9c0cd","system_id":"levelo_inurba_marseille","lat":43.30466,"lon":5.37906,"is_reserved":false,"is_disabled":false,"rental_uris":{"android":"levelo://app?vid=0236a73e-c82f-4e77-b168-738e0fc9c0cd","ios":"levelo://app?vid=0236a73e-c82f-4e77-b168-738e0fc9c0cd"},"vehicle_type_id":"4","last_reported":1761049318,"current_range_meters":16000,"station_id":"ce4bgup2rcd13ifvqcn0","pricing_plan_id":"cebpf4jnsgd1na2vs0mg"},{"bike_id":"89dd87c4-c8d0-4de7-8902-2b0447e67475","system_id":"levelo_inurba_marseille","lat":43.31232,"lon":5.36877,"is_reserved":false,"is_disabled":false,"rental_uris":{"android":"levelo://app?vid=89dd87c4-c8d0-4de7-8902-2b0447e67475","ios":"levelo://app?vid=89dd87c4-c8d0-4de7-8902-2b0447e67475"},"vehicle_type_id":"4","last_reported":1761049318,"current_range_meters":16400,"station_id":"","pricing_plan_id":"cebpf4jnsgd1na2vs0mg"},{"bike_id":"913d0bf1-c554-4bb3-9f4c-9df08cec83b6","system_id":"levelo_inurba_marseille","lat":43.273821,"lon":5.362488,"is_reserved":false,"is_disabled":true,"rental_uris":{"android":"levelo://app?vid=913d0bf1-c554-4bb3-9f4c-9df08cec83b6","ios":"levelo://app?vid=913d0bf1-c554-4bb3-9f4c-9df08cec83b6"},"vehicle_type_id":"4","last_reported":1761049318,"current_range_meters":16400,"station_id":"ce4bhbh2rcd13ifvqeo0","pricing_plan_id":"cebpf4jnsgd1na2vs0mg"},{"bike_id":"d38bb17a-4ac6-4da6-829b-fc2ffe260364","system_id":"levelo_inurba_marseille","lat":43.31893,"lon":5.4074,"is_reserved":false,"is_disabled":true,"rental_uris":{"android":"levelo://app?vid=d38bb17a-4ac6-4da6-829b-fc2ffe260364","ios":"levelo://app?vid=d38bb17a-4ac6-4da6-829b-fc2ffe260364"},"vehicle_type_id":"4","last_reported":1761049318,"current_range_meters":16400,"station_id":"ce4bhq12rcd13ifvqhig","pricing_plan_id":"cebpf4jnsgd1na2vs0mg"},{"bike_id":"bfb49ac8-7cd7-4abf-87fe-e5eac64a56b2","system_id":"levelo_inurba_marseille","lat":43.23965,"lon":5.366343,"is_reserved":false,"is_disabled":false,"rental_uris":{"android":"levelo://app?vid=bfb49ac8-7cd7-4abf-87fe-e5eac64a56b2","ios":"levelo://app?vid=bfb49ac8-7cd7-4abf-87fe-e5eac64a56b2"},"vehicle_type_id":"4","last_reported":1761049318,"current_range_meters":16400,"station_id":"ce4bhi12rcd13ifvqfp0","pricing_plan_id":"cebpf4jnsgd1na2vs0mg"},{"bike_id":"8af54f17-6082-4d14-99b8-7d7d3ed40663","system_id":"levelo_inurba_marseille","lat":43.27848,"lon":5.39224,"is_reserved":false,"is_disabled":false,"rental_uris":{"android":"levelo://app?vid=8af54f17-6082-4d14-99b8-7d7d3ed40663","ios":"levelo://app?vid=8af54f17-6082-4d14-99b8-7d7d3ed40663"},"vehicle_type_id":"4","last_reported":1761049318,"current_range_meters":16400,"station_id":"","pricing_plan_id":"cebpf4jnsgd1na2vs0mg"},{"bike_id":"5dfc5932-5687-41df-b8d1-48dd57529e24","system_id":"levelo_inurba_marseille","lat":43.31713,"lon":5.437087,"is_reserved":false,"is_disabled":false,"rental_uris":{"android":"levelo://app?vid=5dfc5932-5687-41df-b8d1-48dd57529e24","ios":"levelo://app?vid=5dfc5932-5687-41df-b8d1-48dd57529e24"},"vehicle_type_id":"4","last_reported":1761049318,"current_range_meters":16800,"station_id":"ce4bhp92rcd13ifvqhcg","pricing_plan_id":"cebpf4jnsgd1na2vs0mg"},{"bike_id":"d83ba3b5-f05f-4b3f-995a-05ad1a505367","system_id":"levelo_inurba_marseille","lat":43.317207,"lon":5.423995,"is_reserved":false,"is_disabled":false,"rental_uris":{"android":"levelo://app?vid=d83ba3b5-f05f-4b3f-995a-05ad1a505367","ios":"levelo://app?vid=d83ba3b5-f05f-4b3f-995a-05ad1a505367"},"vehicle_type_id":"4","last_reported":1761049318,"current_range_meters":16800,"station_id":"ce4bhp92rcd13ifvqhbg","pricing_plan_id":"cebpf4jnsgd1na2vs0mg"},{"bike_id":"28422d68-2813-4a3f-8d88-7b24cbe64581","system_id":"levelo_inurba_marseille","lat":43.3134,"lon":5.36723,"is_reserved":false,"is_disabled":false,"rental_uris":{"android":"levelo://app?vid=28422d68-2813-4a3f-8d88-7b24cbe64581","ios":"levelo://app?vid=28422d68-2813-4a3f-8d88-7b24cbe64581"},"vehicle_type_id":"4","last_reported":1761049318,"current_range_meters":16800,"station_id":"ce4bgr92rcd13ifvqc6g","pricing_plan_id":"cebpf4jnsgd1na2vs0mg"},{"bike_id":"47bc30b9-1c6d-43a9-b5bc-aa1f18d8570f","system_id":"levelo_inurba_marseille","lat":43.25337,"lon":5.421719,"is_reserved":false,"is_disabled":false,"rental_uris":{"android":"levelo://app?vid=47bc30b9-1c6d-43a9-b5bc-aa1f18d8570f","ios":"levelo://app?vid=47bc30b9-1c6d-43a9-b5bc-aa1f18d8570f"},"vehicle_type_id":"4","last_reported":1761049318,"current_range_meters":16800,"station_id":"st_d2m65c5bi1j21697t3ng","pricing_plan_id":"cebpf4jnsgd1na2vs0mg"},{"bike_id":"6b2833d4-1846-45cd-9539-547af19ebf0a","system_id":"levelo_inurba_marseille","lat":43.21193,"lon":5.35068,"is_reserved":false,"is_disabled":false,"rental_uris":{"android":"levelo://app?vid=6b2833d4-1846-45cd-9539-547af19ebf0a","ios":"levelo://app?vid=6b2833d4-1846-45cd-9539-547af19ebf0a"},"vehicle_type_id":"4","last_reported":1761049318,"current_range_meters":16800,"station_id":"","pricing_plan_id":"cebpf4jnsgd1na2vs0mg"},{"bike_id":"07f4d7de-6048-464c-a94b-374b0692376e","system_id":"levelo_inurba_marseille","lat":43.298945,"lon":5.436689,"is_reserved":false,"is_disabled":false,"rental_uris":{"android":"levelo://app?vid=07f4d7de-6048-464c-a94b-374b0692376e","ios":"levelo://app?vid=07f4d7de-6048-464c-a94b-374b0692376e"},"vehicle_type_id":"4","last_reported":1761049318,"current_range_meters":16800,"station_id":"ce4bhpp2rcd13ifvqhfg","pricing_plan_id":"cebpf4jnsgd1na2vs0mg"},{"bike_id":"64d9e813-4fd3-4955-9199-a35ddf1a26f6","system_id":"levelo_inurba_marseille","lat":43.241502,"lon":5.364164,"is_reserved":false,"is_disabled":false,"rental_uris":{"android":"levelo://app?vid=64d9e813-4fd3-4955-9199-a35ddf1a26f6","ios":"levelo://app?vid=64d9e813-4fd3-4955-9199-a35ddf1a26f6"},"vehicle_type_id":"4","last_reported":1761049318,"current_range_meters":17200,"station_id":"cpo36qri1sfpv3e86is0","pricing_plan_id":"cebpf4jnsgd1na2vs0mg"},{"bike_id":"0d2a639c-7f02-438d-a3b3-b575d842f7d9","system_id":"levelo_inurba_marseille","lat":43.275724,"lon":5.384105,"is_reserved":false,"is_disabled":false,"rental_uris":{"android":"levelo://app?vid=0d2a639c-7f02-438d-a3b3-b575d842f7d9","ios":"levelo://app?vid=0d2a639c-7f02-438d-a3b3-b575d842f7d9"},"vehicle_type_id":"4","last_reported":1761049318,"current_range_meters":17200,"station_id":"ce4bhh92rcd13ifvqfi0","pricing_plan_id":"cebpf4jnsgd1na2vs0mg"},{"bike_id":"27366d83-b4b4-4f80-ad67-f1d2bd889b8c","system_id":"levelo_inurba_marseille","lat":43.280642,"lon":5.352788,"is_reserved":false,"is_disabled":false,"rental_uris":{"android":"levelo://app?vid=27366d83-b4b4-4f80-ad67-f1d2bd889b8c","ios":"levelo://app?vid=27366d83-b4b4-4f80-ad67-f1d2bd889b8c"},"vehicle_type_id":"4","last_reported":1761049318,"current_range_meters":17200,"station_id":"","pricing_plan_id":"cebpf4jnsgd1na2vs0mg"},{"bike_id":"a630ed88-3f05-4926-bbab-8387ab6b6a28","system_id":"levelo_inurba_marseille","lat":43.23147,"lon":5.43684,"is_reserved":false,"is_disabled":true,"rental_uris":{"android":"levelo://app?vid=a630ed88-3f05-4926-bbab-8387ab6b6a28","ios":"levelo://app?vid=a630ed88-3f05-4926-bbab-8387ab6b6a28"},"vehicle_type_id":"4","last_reported":1761049318,"current_range_meters":17200,"station_id":"ce4bhmp2rcd13ifvqgog","pricing_plan_id":"cebpf4jnsgd1na2vs0mg"},{"bike_id":"4e7e8f57-06ea-4923-b3c1-ea91802d5920","system_id":"levelo_inurba_marseille","lat":43.27986,"lon":5.41638,"is_reserved":false,"is_disabled":false,"rental_uris":{"android":"levelo://app?vid=4e7e8f57-06ea-4923-b3c1-ea91802d5920","ios":"levelo://app?vid=4e7e8f57-06ea-4923-b3c1-ea91802d5920"},"vehicle_type_id":"4","last_reported":1761049318,"current_range_meters":17200,"station_id":"ce4bho12rcd13ifvqh1g","pricing_plan_id":"cebpf4jnsgd1na2vs0mg"},{"bike_id":"d8264ff2-20e7-4ce1-843e-fc5e97209c96","system_id":"levelo_inurba_marseille","lat":43.282321,"lon":5.390547,"is_reserved":false,"is_disabled":false,"rental_uris":{"android":"levelo://app?vid=d8264ff2-20e7-4ce1-843e-fc5e97209c96","ios":"levelo://app?vid=d8264ff2-20e7-4ce1-843e-fc5e97209c96"},"vehicle_type_id":"4","last_reported":1761049318,"current_range_meters":17200,"station_id":"ce4bhn92rcd13ifvqgsg","pricing_plan_id":"cebpf4jnsgd1na2vs0mg"},{"bike_id":"4cd5868b-2cbb-496b-aa78-f9f5086f79af","system_id":"levelo_inurba_marseille","lat":43.25021,"lon":5.38941,"is_reserved":false,"is_disabled":false,"rental_uris":{"android":"levelo://app?vid=4cd5868b-2cbb-496b-aa78-f9f5086f79af","ios":"levelo://app?vid=4cd5868b-2cbb-496b-aa78-f9f5086f79af"},"vehicle_type_id":"4","last_reported":1761049318,"current_range_meters":17600,"station_id":"ce4bhgp2rcd13ifvqfd0","pricing_plan_id":"cebpf4jnsgd1na2vs0mg"},{"bike_id":"37d01fc8-4b4d-4652-a489-1254eb9d4c80","system_id":"levelo_inurba_marseille","lat":43.34076,"lon":5.40411,"is_reserved":false,"is_disabled":false,"rental_uris":{"android":"levelo://app?vid=37d01fc8-4b4d-4652-a489-1254eb9d4c80","ios":"levelo://app?vid=37d01fc8-4b4d-4652-a489-1254eb9d4c80"},"vehicle_type_id":"4","last_reported":1761049318,"current_range_meters":17600,"station_id":"","pricing_plan_id":"cebpf4jnsgd1na2vs0mg"},{"bike_id":"5f5bd4cf-7638-49d9-9751-0944b59d5e30","system_id":"levelo_inurba_marseille","lat":43.23144,"lon":5.43724,"is_reserved":false,"is_disabled":false,"rental_uris":{"android":"levelo://app?vid=5f5bd4cf-7638-49d9-9751-0944b59d5e30","ios":"levelo://app?vid=5f5bd4cf-7638-49d9-9751-0944b59d5e30"},"vehicle_type_id":"4","last_reported":1761049318,"current_range_meters":18000,"station_id":"ce4bhmp2rcd13ifvqgog","pricing_plan_id":"cebpf4jnsgd1na2vs0mg"},{"bike_id":"6692e090-9792-45dd-b639-89e41212fa24","system_id":"levelo_inurba_marseille","lat":43.31334,"lon":5.396898,"is_reserved":false,"is_disabled":true,"rental_uris":{"android":"levelo://app?vid=6692e090-9792-45dd-b639-89e41212fa24","ios":"levelo://app?vid=6692e090-9792-45dd-b639-89e41212fa24"},"vehicle_type_id":"4","last_reported":1761049318,"current_range_meters":18000,"station_id":"ce4bgvp2rcd13ifvqcu0","pricing_plan_id":"cebpf4jnsgd1na2vs0mg"},{"bike_id":"3cf33a68-4c92-4eaa-bac0-435fed51bf99","system_id":"levelo_inurba_marseille","lat":43.31754,"lon":5.39012,"is_reserved":false,"is_disabled":false,"rental_uris":{"android":"levelo://app?vid=3cf33a68-4c92-4eaa-bac0-435fed51bf99","ios":"levelo://app?vid=3cf33a68-4c92-4eaa-bac0-435fed51bf99"},"vehicle_type_id":"4","last_reported":1761049318,"current_range_meters":18000,"station_id":"ce4bhqp2rcd13ifvqhng","pricing_plan_id":"cebpf4jnsgd1na2vs0mg"},{"bike_id":"9bfd0283-2ebc-49db-91d0-80f9899c027d","system_id":"levelo_inurba_marseille","lat":43.23148,"lon":5.43708,"is_reserved":false,"is_disabled":false,"rental_uris":{"android":"levelo://app?vid=9bfd0283-2ebc-49db-91d0-80f9899c027d","ios":"levelo://app?vid=9bfd0283-2ebc-49db-91d0-80f9899c027d"},"vehicle_type_id":"4","last_reported":1761049318,"current_range_meters":18000,"station_id":"ce4bhmp2rcd13ifvqgog","pricing_plan_id":"cebpf4jnsgd1na2vs0mg"},{"bike_id":"b3a23c89-4ea5-4171-9c3d-741829ffc3d1","system_id":"levelo_inurba_marseille","lat":43.28469,"lon":5.38426,"is_reserved":false,"is_disabled":false,"rental_uris":{"android":"levelo://app?vid=b3a23c89-4ea5-4171-9c3d-741829ffc3d1","ios":"levelo://app?vid=b3a23c89-4ea5-4171-9c3d-741829ffc3d1"},"vehicle_type_id":"4","last_reported":1761049318,"current_range_meters":18000,"station_id":"ce4bh512rcd13ifvqe3g","pricing_plan_id":"cebpf4jnsgd1na2vs0mg"},{"bike_id":"28a3c82d-2626-42e3-8e70-f71f23162b72","system_id":"levelo_inurba_marseille","lat":43.317676,"lon":5.398676,"is_reserved":false,"is_disabled":false,"rental_uris":{"android":"levelo://app?vid=28a3c82d-2626-42e3-8e70-f71f23162b72","ios":"levelo://app?vid=28a3c82d-2626-42e3-8e70-f71f23162b72"},"vehicle_type_id":"4","last_reported":1761049318,"current_range_meters":18800,"station_id":"","pricing_plan_id":"cebpf4jnsgd1na2vs0mg"},{"bike_id":"9f67b0a0-e6b7-436e-b1ea-6c0fe54bf41d","system_id":"levelo_inurba_marseille","lat":43.29528,"lon":5.38549,"is_reserved":false,"is_disabled":false,"rental_uris":{"android":"levelo://app?vid=9f67b0a0-e6b7-436e-b1ea-6c0fe54bf41d","ios":"levelo://app?vid=9f67b0a0-e6b7-436e-b1ea-6c0fe54bf41d"},"vehicle_type_id":"4","last_reported":1761049318,"current_range_meters":18800,"station_id":"ce4bgih2rcd13ifvqba0","pricing_plan_id":"cebpf4jnsgd1na2vs0mg"},{"bike_id":"705456d2-086c-468d-8ff0-725c6adc454c","system_id":"levelo_inurba_marseille","lat":43.31222,"lon":5.36865,"is_reserved":false,"is_disabled":false,"rental_uris":{"android":"levelo://app?vid=705456d2-086c-468d-8ff0-725c6adc454c","ios":"levelo://app?vid=705456d2-086c-468d-8ff0-725c6adc454c"},"vehicle_type_id":"4","last_reported":1761049318,"current_range_meters":18800,"station_id":"ce4bgl92rcd13ifvqbq0","pricing_plan_id":"cebpf4jnsgd1na2vs0mg"},{"bike_id":"1242db96-77c9-45ed-a284-c8f907603733","system_id":"levelo_inurba_marseille","lat":43.31315,"lon":5.36782,"is_reserved":false,"is_disabled":false,"rental_uris":{"android":"levelo://app?vid=1242db96-77c9-45ed-a284-c8f907603733","ios":"levelo://app?vid=1242db96-77c9-45ed-a284-c8f907603733"},"vehicle_type_id":"4","last_reported":1761049318,"current_range_meters":18800,"station_id":"ce4bgr92rcd13ifvqc6g","pricing_plan_id":"cebpf4jnsgd1na2vs0mg"},{"bike_id":"c0bdefe0-fd92-4ef3-b40e-db72ef022c71","system_id":"levelo_inurba_marseille","lat":43.25932,"lon":5.40898,"is_reserved":false,"is_disabled":false,"rental_uris":{"android":"levelo://app?vid=c0bdefe0-fd92-4ef3-b40e-db72ef022c71","ios":"levelo://app?vid=c0bdefe0-fd92-4ef3-b40e-db72ef022c71"},"vehicle_type_id":"4","last_reported":1761049318,"current_range_meters":18800,"station_id":"ce4bhm92rcd13ifvqglg","pricing_plan_id":"cebpf4jnsgd1na2vs0mg"},{"bike_id":"e5803269-986c-418e-bdec-92660c8d4068","system_id":"levelo_inurba_marseille","lat":43.25094,"lon":5.39515,"is_reserved":false,"is_disabled":false,"rental_uris":{"android":"levelo://app?vid=e5803269-986c-418e-bdec-92660c8d4068","ios":"levelo://app?vid=e5803269-986c-418e-bdec-92660c8d4068"},"vehicle_type_id":"4","last_reported":1761049318,"current_range_meters":18800,"station_id":"ce4bhm12rcd13ifvqgkg","pricing_plan_id":"cebpf4jnsgd1na2vs0mg"},{"bike_id":"2f56865c-e80f-4ae6-8b0e-40890cca3383","system_id":"levelo_inurba_marseille","lat":43.29602,"lon":5.38096,"is_reserved":false,"is_disabled":false,"rental_uris":{"android":"levelo://app?vid=2f56865c-e80f-4ae6-8b0e-40890cca3383","ios":"levelo://app?vid=2f56865c-e80f-4ae6-8b0e-40890cca3383"},"vehicle_type_id":"4","last_reported":1761049318,"current_range_meters":19200,"station_id":"ce4bgl12rcd13ifvqbo0","pricing_plan_id":"cebpf4jnsgd1na2vs0mg"},{"bike_id":"8e210783-8836-43be-9f40-d38acf77b3aa","system_id":"levelo_inurba_marseille","lat":43.24419,"lon":5.37139,"is_reserved":false,"is_disabled":false,"rental_uris":{"android":"levelo://app?vid=8e210783-8836-43be-9f40-d38acf77b3aa","ios":"levelo://app?vid=8e210783-8836-43be-9f40-d38acf77b3aa"},"vehicle_type_id":"4","last_reported":1761049318,"current_range_meters":19200,"station_id":"ce4bhhh2rcd13ifvqfk0","pricing_plan_id":"cebpf4jnsgd1na2vs0mg"},{"bike_id":"5a3122a9-cb1d-4f43-9fe9-63d5f4735cf1","system_id":"levelo_inurba_marseille","lat":43.26549,"lon":5.3729,"is_reserved":false,"is_disabled":false,"rental_uris":{"android":"levelo://app?vid=5a3122a9-cb1d-4f43-9fe9-63d5f4735cf1","ios":"levelo://app?vid=5a3122a9-cb1d-4f43-9fe9-63d5f4735cf1"},"vehicle_type_id":"4","last_reported":1761049318,"current_range_meters":19200,"station_id":"ce4bhg12rcd13ifvqf70","pricing_plan_id":"cebpf4jnsgd1na2vs0mg"},{"bike_id":"319f4710-fb44-4e89-b1e6-0ca29d8a274f","system_id":"levelo_inurba_marseille","lat":43.27308,"lon":5.39085,"is_reserved":false,"is_disabled":false,"rental_uris":{"android":"levelo://app?vid=319f4710-fb44-4e89-b1e6-0ca29d8a274f","ios":"levelo://app?vid=319f4710-fb44-4e89-b1e6-0ca29d8a274f"},"vehicle_type_id":"4","last_reported":1761049318,"current_range_meters":19200,"station_id":"ce4bhgp2rcd13ifvqfe0","pricing_plan_id":"cebpf4jnsgd1na2vs0mg"},{"bike_id":"c213f3a4-7331-4eba-b9d9-d77d00a1552c","system_id":"levelo_inurba_marseille","lat":43.325346,"lon":5.414625,"is_reserved":false,"is_disabled":false,"rental_uris":{"android":"levelo://app?vid=c213f3a4-7331-4eba-b9d9-d77d00a1552c","ios":"levelo://app?vid=c213f3a4-7331-4eba-b9d9-d77d00a1552c"},"vehicle_type_id":"4","last_reported":1761049318,"current_range_meters":19200,"station_id":"ce4bhq12rcd13ifvqhhg","pricing_plan_id":"cebpf4jnsgd1na2vs0mg"},{"bike_id":"acd4dc28-d8e7-42e8-8da9-3fa43e09508a","system_id":"levelo_inurba_marseille","lat":43.309467,"lon":5.390353,"is_reserved":false,"is_disabled":false,"rental_uris":{"android":"levelo://app?vid=acd4dc28-d8e7-42e8-8da9-3fa43e09508a","ios":"levelo://app?vid=acd4dc28-d8e7-42e8-8da9-3fa43e09508a"},"vehicle_type_id":"4","last_reported":1761049318,"current_range_meters":19200,"station_id":"","pricing_plan_id":"cebpf4jnsgd1na2vs0mg"},{"bike_id":"2b9124f4-6654-48d4-8022-bad361ebd502","system_id":"levelo_inurba_marseille","lat":43.24087,"lon":5.37679,"is_reserved":false,"is_disabled":false,"rental_uris":{"android":"levelo://app?vid=2b9124f4-6654-48d4-8022-bad361ebd502","ios":"levelo://app?vid=2b9124f4-6654-48d4-8022-bad361ebd502"},"vehicle_type_id":"4","last_reported":1761049318,"current_range_meters":19200,"station_id":"ce4bhnp2rcd13ifvqgvg","pricing_plan_id":"cebpf4jnsgd1na2vs0mg"},{"bike_id":"464bd8a3-6573-4884-b980-774e68ad4ab1","system_id":"levelo_inurba_marseille","lat":43.27191,"lon":5.40992,"is_reserved":false,"is_disabled":false,"rental_uris":{"android":"levelo://app?vid=464bd8a3-6573-4884-b980-774e68ad4ab1","ios":"levelo://app?vid=464bd8a3-6573-4884-b980-774e68ad4ab1"},"vehicle_type_id":"4","last_reported":1761049318,"current_range_meters":19200,"station_id":"ce4bhl12rcd13ifvqgf0","pricing_plan_id":"cebpf4jnsgd1na2vs0mg"},{"bike_id":"5d80d25c-89eb-4572-ad64-1d3debc59612","system_id":"levelo_inurba_marseille","lat":43.29303,"lon":5.40286,"is_reserved":false,"is_disabled":false,"rental_uris":{"android":"levelo://app?vid=5d80d25c-89eb-4572-ad64-1d3debc59612","ios":"levelo://app?vid=5d80d25c-89eb-4572-ad64-1d3debc59612"},"vehicle_type_id":"4","last_reported":1761049318,"current_range_meters":19200,"station_id":"","pricing_plan_id":"cebpf4jnsgd1na2vs0mg"},{"bike_id":"b303f3e6-f1bb-4b0b-934a-0c586b667b65","system_id":"levelo_inurba_marseille","lat":43.24596,"lon":5.43026,"is_reserved":false,"is_disabled":false,"rental_uris":{"android":"levelo://app?vid=b303f3e6-f1bb-4b0b-934a-0c586b667b65","ios":"levelo://app?vid=b303f3e6-f1bb-4b0b-934a-0c586b667b65"},"vehicle_type_id":"4","last_reported":1761049318,"current_range_meters":19200,"station_id":"st_d2m6c4gdas8pm72e190g","pricing_plan_id":"cebpf4jnsgd1na2vs0mg"},{"bike_id":"a89e38a8-8680-46ea-ae3a-521cb2ea64e1","system_id":"levelo_inurba_marseille","lat":43.27065,"lon":5.422656,"is_reserved":false,"is_disabled":false,"rental_uris":{"android":"levelo://app?vid=a89e38a8-8680-46ea-ae3a-521cb2ea64e1","ios":"levelo://app?vid=a89e38a8-8680-46ea-ae3a-521cb2ea64e1"},"vehicle_type_id":"4","last_reported":1761049318,"current_range_meters":19600,"station_id":"ce4bhk92rcd13ifvqgb0","pricing_plan_id":"cebpf4jnsgd1na2vs0mg"},{"bike_id":"07e992db-48e1-481b-a50e-3b491cfc1455","system_id":"levelo_inurba_marseille","lat":43.31991,"lon":5.41291,"is_reserved":false,"is_disabled":false,"rental_uris":{"android":"levelo://app?vid=07e992db-48e1-481b-a50e-3b491cfc1455","ios":"levelo://app?vid=07e992db-48e1-481b-a50e-3b491cfc1455"},"vehicle_type_id":"4","last_reported":1761049318,"current_range_meters":19600,"station_id":"","pricing_plan_id":"cebpf4jnsgd1na2vs0mg"},{"bike_id":"fe7fb2a9-3fda-4a0c-91c9-7fbe69f012a3","system_id":"levelo_inurba_marseille","lat":43.24169,"lon":5.39704,"is_reserved":false,"is_disabled":false,"rental_uris":{"android":"levelo://app?vid=fe7fb2a9-3fda-4a0c-91c9-7fbe69f012a3","ios":"levelo://app?vid=fe7fb2a9-3fda-4a0c-91c9-7fbe69f012a3"},"vehicle_type_id":"4","last_reported":1761049318,"current_range_meters":19600,"station_id":"ce4bhn12rcd13ifvqgpg","pricing_plan_id":"cebpf4jnsgd1na2vs0mg"},{"bike_id":"a79e275b-d2ec-4c46-8c1d-0dfc1b288567","system_id":"levelo_inurba_marseille","lat":43.211972,"lon":5.350702,"is_reserved":false,"is_disabled":false,"rental_uris":{"android":"levelo://app?vid=a79e275b-d2ec-4c46-8c1d-0dfc1b288567","ios":"levelo://app?vid=a79e275b-d2ec-4c46-8c1d-0dfc1b288567"},"vehicle_type_id":"4","last_reported":1761049318,"current_range_meters":20000,"station_id":"","pricing_plan_id":"cebpf4jnsgd1na2vs0mg"},{"bike_id":"2ab2090c-37d7-43d3-8b97-a3d61c2e018c","system_id":"levelo_inurba_marseille","lat":43.32098,"lon":5.36774,"is_reserved":false,"is_disabled":false,"rental_uris":{"android":"levelo://app?vid=2ab2090c-37d7-43d3-8b97-a3d61c2e018c","ios":"levelo://app?vid=2ab2090c-37d7-43d3-8b97-a3d61c2e018c"},"vehicle_type_id":"4","last_reported":1761049318,"current_range_meters":20000,"station_id":"ce4bhrh2rcd13ifvqhug","pricing_plan_id":"cebpf4jnsgd1na2vs0mg"},{"bike_id":"85706af5-0426-4c20-9921-fcc5b4adbc49","system_id":"levelo_inurba_marseille","lat":43.293725,"lon":5.37856,"is_reserved":false,"is_disabled":false,"rental_uris":{"android":"levelo://app?vid=85706af5-0426-4c20-9921-fcc5b4adbc49","ios":"levelo://app?vid=85706af5-0426-4c20-9921-fcc5b4adbc49"},"vehicle_type_id":"4","last_reported":1761049318,"current_range_meters":20000,"station_id":"ce4bgi12rcd13ifvqb70","pricing_plan_id":"cebpf4jnsgd1na2vs0mg"},{"bike_id":"65e14e6d-b2be-4754-b741-9ec1cc772080","system_id":"levelo_inurba_marseille","lat":43.26061,"lon":5.39393,"is_reserved":false,"is_disabled":false,"rental_uris":{"android":"levelo://app?vid=65e14e6d-b2be-4754-b741-9ec1cc772080","ios":"levelo://app?vid=65e14e6d-b2be-4754-b741-9ec1cc772080"},"vehicle_type_id":"4","last_reported":1761049318,"current_range_meters":20000,"station_id":"ce4bhh92rcd13ifvqfj0","pricing_plan_id":"cebpf4jnsgd1na2vs0mg"},{"bike_id":"a2466fd1-71a5-44a7-9780-9d4576e19d89","system_id":"levelo_inurba_marseille","lat":43.21744,"lon":5.34608,"is_reserved":false,"is_disabled":false,"rental_uris":{"android":"levelo://app?vid=a2466fd1-71a5-44a7-9780-9d4576e19d89","ios":"levelo://app?vid=a2466fd1-71a5-44a7-9780-9d4576e19d89"},"vehicle_type_id":"4","last_reported":1761049318,"current_range_meters":20000,"station_id":"st_cvj6r9ubvosntc0bgbag","pricing_plan_id":"cebpf4jnsgd1na2vs0mg"},{"bike_id":"3dc77791-949f-4009-86b2-5b7f761df142","system_id":"levelo_inurba_marseille","lat":43.30433,"lon":5.38885,"is_reserved":false,"is_disabled":false,"rental_uris":{"android":"levelo://app?vid=3dc77791-949f-4009-86b2-5b7f761df142","ios":"levelo://app?vid=3dc77791-949f-4009-86b2-5b7f761df142"},"vehicle_type_id":"4","last_reported":1761049318,"current_range_meters":20000,"station_id":"ce4bgk12rcd13ifvqbi0","pricing_plan_id":"cebpf4jnsgd1na2vs0mg"},{"bike_id":"0f0c207a-2bdb-42fa-b0e4-dfc0ac1787d8","system_id":"levelo_inurba_marseille","lat":43.26207,"lon":5.37442,"is_reserved":false,"is_disabled":false,"rental_uris":{"android":"levelo://app?vid=0f0c207a-2bdb-42fa-b0e4-dfc0ac1787d8","ios":"levelo://app?vid=0f0c207a-2bdb-42fa-b0e4-dfc0ac1787d8"},"vehicle_type_id":"4","last_reported":1761049318,"current_range_meters":20400,"station_id":"ce4bhgp2rcd13ifvqfc0","pricing_plan_id":"cebpf4jnsgd1na2vs0mg"},{"bike_id":"1e78b2eb-f16c-4308-9f9d-b1d0ffb76288","system_id":"levelo_inurba_marseille","lat":43.25066,"lon":5.40436,"is_reserved":false,"is_disabled":false,"rental_uris":{"android":"levelo://app?vid=1e78b2eb-f16c-4308-9f9d-b1d0ffb76288","ios":"levelo://app?vid=1e78b2eb-f16c-4308-9f9d-b1d0ffb76288"},"vehicle_type_id":"4","last_reported":1761049318,"current_range_meters":20400,"station_id":"","pricing_plan_id":"cebpf4jnsgd1na2vs0mg"},{"bike_id":"bbd08cf4-31da-4d68-b46e-697f80190f23","system_id":"levelo_inurba_marseille","lat":43.27187,"lon":5.40997,"is_reserved":false,"is_disabled":false,"rental_uris":{"android":"levelo://app?vid=bbd08cf4-31da-4d68-b46e-697f80190f23","ios":"levelo://app?vid=bbd08cf4-31da-4d68-b46e-697f80190f23"},"vehicle_type_id":"4","last_reported":1761049318,"current_range_meters":20400,"station_id":"ce4bhl12rcd13ifvqgf0","pricing_plan_id":"cebpf4jnsgd1na2vs0mg"},{"bike_id":"21836c3e-3bfc-4bbf-ac30-d9cc83ed406f","system_id":"levelo_inurba_marseille","lat":43.25725,"lon":5.411015,"is_reserved":false,"is_disabled":false,"rental_uris":{"android":"levelo://app?vid=21836c3e-3bfc-4bbf-ac30-d9cc83ed406f","ios":"levelo://app?vid=21836c3e-3bfc-4bbf-ac30-d9cc83ed406f"},"vehicle_type_id":"4","last_reported":1761049318,"current_range_meters":20400,"station_id":"ce4bhkp2rcd13ifvqgd0","pricing_plan_id":"cebpf4jnsgd1na2vs0mg"},{"bike_id":"a75b269e-ba8b-47ed-8fef-ca1084f4a6c5","system_id":"levelo_inurba_marseille","lat":43.29537,"lon":5.38537,"is_reserved":false,"is_disabled":false,"rental_uris":{"android":"levelo://app?vid=a75b269e-ba8b-47ed-8fef-ca1084f4a6c5","ios":"levelo://app?vid=a75b269e-ba8b-47ed-8fef-ca1084f4a6c5"},"vehicle_type_id":"4","last_reported":1761049318,"current_range_meters":20400,"station_id":"ce4bgih2rcd13ifvqba0","pricing_plan_id":"cebpf4jnsgd1na2vs0mg"},{"bike_id":"c6b88aee-8093-4560-a663-3fd4e02d7e2b","system_id":"levelo_inurba_marseille","lat":43.251018,"lon":5.403168,"is_reserved":false,"is_disabled":false,"rental_uris":{"android":"levelo://app?vid=c6b88aee-8093-4560-a663-3fd4e02d7e2b","ios":"levelo://app?vid=c6b88aee-8093-4560-a663-3fd4e02d7e2b"},"vehicle_type_id":"4","last_reported":1761049318,"current_range_meters":20400,"station_id":"ce4bhlh2rcd13ifvqgig","pricing_plan_id":"cebpf4jnsgd1na2vs0mg"},{"bike_id":"4b56cc95-c797-41b0-b691-d021d309a962","system_id":"levelo_inurba_marseille","lat":43.26498,"lon":5.39537,"is_reserved":false,"is_disabled":false,"rental_uris":{"android":"levelo://app?vid=4b56cc95-c797-41b0-b691-d021d309a962","ios":"levelo://app?vid=4b56cc95-c797-41b0-b691-d021d309a962"},"vehicle_type_id":"4","last_reported":1761049318,"current_range_meters":20400,"station_id":"ce4bhi12rcd13ifvqfq0","pricing_plan_id":"cebpf4jnsgd1na2vs0mg"},{"bike_id":"9d8bcd8e-8ecf-425f-98ef-b7c9398172e2","system_id":"levelo_inurba_marseille","lat":43.32362,"lon":5.36762,"is_reserved":false,"is_disabled":false,"rental_uris":{"android":"levelo://app?vid=9d8bcd8e-8ecf-425f-98ef-b7c9398172e2","ios":"levelo://app?vid=9d8bcd8e-8ecf-425f-98ef-b7c9398172e2"},"vehicle_type_id":"4","last_reported":1761049318,"current_range_meters":20400,"station_id":"ce4bhsh2rcd13ifvqi2g","pricing_plan_id":"cebpf4jnsgd1na2vs0mg"},{"bike_id":"6050e5e8-98db-4d1f-81ab-ca08b8b6dd19","system_id":"levelo_inurba_marseille","lat":43.241649,"lon":5.36403,"is_reserved":false,"is_disabled":false,"rental_uris":{"android":"levelo://app?vid=6050e5e8-98db-4d1f-81ab-ca08b8b6dd19","ios":"levelo://app?vid=6050e5e8-98db-4d1f-81ab-ca08b8b6dd19"},"vehicle_type_id":"4","last_reported":1761049318,"current_range_meters":20800,"station_id":"cpo36qri1sfpv3e86is0","pricing_plan_id":"cebpf4jnsgd1na2vs0mg"},{"bike_id":"9870a68d-ae62-4bec-82c3-a7443a850bdc","system_id":"levelo_inurba_marseille","lat":43.31271,"lon":5.378049,"is_reserved":false,"is_disabled":false,"rental_uris":{"android":"levelo://app?vid=9870a68d-ae62-4bec-82c3-a7443a850bdc","ios":"levelo://app?vid=9870a68d-ae62-4bec-82c3-a7443a850bdc"},"vehicle_type_id":"4","last_reported":1761049318,"current_range_meters":20800,"station_id":"","pricing_plan_id":"cebpf4jnsgd1na2vs0mg"},{"bike_id":"7cc7edab-ecd0-42b2-afea-0b2260f95134","system_id":"levelo_inurba_marseille","lat":43.3149,"lon":5.37308,"is_reserved":false,"is_disabled":false,"rental_uris":{"android":"levelo://app?vid=7cc7edab-ecd0-42b2-afea-0b2260f95134","ios":"levelo://app?vid=7cc7edab-ecd0-42b2-afea-0b2260f95134"},"vehicle_type_id":"4","last_reported":1761049318,"current_range_meters":20800,"station_id":"ce4bgt12rcd13ifvqcd0","pricing_plan_id":"cebpf4jnsgd1na2vs0mg"},{"bike_id":"e01c0407-9fea-4afc-844a-8e1d738fcda5","system_id":"levelo_inurba_marseille","lat":43.24165,"lon":5.364,"is_reserved":false,"is_disabled":false,"rental_uris":{"android":"levelo://app?vid=e01c0407-9fea-4afc-844a-8e1d738fcda5","ios":"levelo://app?vid=e01c0407-9fea-4afc-844a-8e1d738fcda5"},"vehicle_type_id":"4","last_reported":1761049318,"current_range_meters":20800,"station_id":"cpo36qri1sfpv3e86is0","pricing_plan_id":"cebpf4jnsgd1na2vs0mg"},{"bike_id":"008560f7-efa6-4ce7-b769-4a1ac4786074","system_id":"levelo_inurba_marseille","lat":43.31348,"lon":5.3671,"is_reserved":false,"is_disabled":false,"rental_uris":{"android":"levelo://app?vid=008560f7-efa6-4ce7-b769-4a1ac4786074","ios":"levelo://app?vid=008560f7-efa6-4ce7-b769-4a1ac4786074"},"vehicle_type_id":"4","last_reported":1761049318,"current_range_meters":20800,"station_id":"ce4bgr92rcd13ifvqc6g","pricing_plan_id":"cebpf4jnsgd1na2vs0mg"},{"bike_id":"940579ed-c441-47ee-8b38-3efad9bbbaa7","system_id":"levelo_inurba_marseille","lat":43.258719,"lon":5.409302,"is_reserved":false,"is_disabled":false,"rental_uris":{"android":"levelo://app?vid=940579ed-c441-47ee-8b38-3efad9bbbaa7","ios":"levelo://app?vid=940579ed-c441-47ee-8b38-3efad9bbbaa7"},"vehicle_type_id":"4","last_reported":1761049318,"current_range_meters":20800,"station_id":"ce4bhm92rcd13ifvqglg","pricing_plan_id":"cebpf4jnsgd1na2vs0mg"},{"bike_id":"d51a3a33-a25a-4523-a017-ee80e4a64b09","system_id":"levelo_inurba_marseille","lat":43.3359,"lon":5.41028,"is_reserved":false,"is_disabled":false,"rental_uris":{"android":"levelo://app?vid=d51a3a33-a25a-4523-a017-ee80e4a64b09","ios":"levelo://app?vid=d51a3a33-a25a-4523-a017-ee80e4a64b09"},"vehicle_type_id":"4","last_reported":1761049318,"current_range_meters":21600,"station_id":"ce4bhqh2rcd13ifvqhmg","pricing_plan_id":"cebpf4jnsgd1na2vs0mg"},{"bike_id":"618a9c44-e479-45b6-b144-58d3228e3132","system_id":"levelo_inurba_marseille","lat":43.24651,"lon":5.38877,"is_reserved":false,"is_disabled":false,"rental_uris":{"android":"levelo://app?vid=618a9c44-e479-45b6-b144-58d3228e3132","ios":"levelo://app?vid=618a9c44-e479-45b6-b144-58d3228e3132"},"vehicle_type_id":"4","last_reported":1761049318,"current_range_meters":21600,"station_id":"ce4bhg12rcd13ifvqf60","pricing_plan_id":"cebpf4jnsgd1na2vs0mg"},{"bike_id":"cbf087d9-7def-43f2-88eb-14915c702494","system_id":"levelo_inurba_marseille","lat":43.32364,"lon":5.38884,"is_reserved":false,"is_disabled":false,"rental_uris":{"android":"levelo://app?vid=cbf087d9-7def-43f2-88eb-14915c702494","ios":"levelo://app?vid=cbf087d9-7def-43f2-88eb-14915c702494"},"vehicle_type_id":"4","last_reported":1761049318,"current_range_meters":21600,"station_id":"ce4bhqp2rcd13ifvqhog","pricing_plan_id":"cebpf4jnsgd1na2vs0mg"},{"bike_id":"75eebb0f-2447-4bf8-b846-45b5b359059b","system_id":"levelo_inurba_marseille","lat":43.33754,"lon":5.37491,"is_reserved":false,"is_disabled":false,"rental_uris":{"android":"levelo://app?vid=75eebb0f-2447-4bf8-b846-45b5b359059b","ios":"levelo://app?vid=75eebb0f-2447-4bf8-b846-45b5b359059b"},"vehicle_type_id":"4","last_reported":1761049318,"current_range_meters":21600,"station_id":"","pricing_plan_id":"cebpf4jnsgd1na2vs0mg"},{"bike_id":"f943f823-d9e2-4f69-9794-8ee1bed89cda","system_id":"levelo_inurba_marseille","lat":43.24167,"lon":5.36409,"is_reserved":false,"is_disabled":false,"rental_uris":{"android":"levelo://app?vid=f943f823-d9e2-4f69-9794-8ee1bed89cda","ios":"levelo://app?vid=f943f823-d9e2-4f69-9794-8ee1bed89cda"},"vehicle_type_id":"4","last_reported":1761049318,"current_range_meters":22000,"station_id":"cpo36qri1sfpv3e86is0","pricing_plan_id":"cebpf4jnsgd1na2vs0mg"},{"bike_id":"facf3fce-7ff8-4cab-9915-d28188ead805","system_id":"levelo_inurba_marseille","lat":43.330042,"lon":5.389353,"is_reserved":false,"is_disabled":false,"rental_uris":{"android":"levelo://app?vid=facf3fce-7ff8-4cab-9915-d28188ead805","ios":"levelo://app?vid=facf3fce-7ff8-4cab-9915-d28188ead805"},"vehicle_type_id":"4","last_reported":1761049318,"current_range_meters":22000,"station_id":"ce4bhr92rcd13ifvqhrg","pricing_plan_id":"cebpf4jnsgd1na2vs0mg"},{"bike_id":"56a0cc6f-39bd-41de-944c-6195e3a2e12f","system_id":"levelo_inurba_marseille","lat":43.323615,"lon":5.367602,"is_reserved":false,"is_disabled":false,"rental_uris":{"android":"levelo://app?vid=56a0cc6f-39bd-41de-944c-6195e3a2e12f","ios":"levelo://app?vid=56a0cc6f-39bd-41de-944c-6195e3a2e12f"},"vehicle_type_id":"4","last_reported":1761049318,"current_range_meters":22000,"station_id":"ce4bhsh2rcd13ifvqi2g","pricing_plan_id":"cebpf4jnsgd1na2vs0mg"},{"bike_id":"55e83f8e-58a8-4de2-910b-b52a37f39c6a","system_id":"levelo_inurba_marseille","lat":43.26559,"lon":5.39001,"is_reserved":false,"is_disabled":false,"rental_uris":{"android":"levelo://app?vid=55e83f8e-58a8-4de2-910b-b52a37f39c6a","ios":"levelo://app?vid=55e83f8e-58a8-4de2-910b-b52a37f39c6a"},"vehicle_type_id":"4","last_reported":1761049318,"current_range_meters":22000,"station_id":"ce4bhe12rcd13ifvqf30","pricing_plan_id":"cebpf4jnsgd1na2vs0mg"},{"bike_id":"4f002e7b-4866-4be4-9e9d-ac46eaa465b7","system_id":"levelo_inurba_marseille","lat":43.28939,"lon":5.39637,"is_reserved":false,"is_disabled":false,"rental_uris":{"android":"levelo://app?vid=4f002e7b-4866-4be4-9e9d-ac46eaa465b7","ios":"levelo://app?vid=4f002e7b-4866-4be4-9e9d-ac46eaa465b7"},"vehicle_type_id":"4","last_reported":1761049318,"current_range_meters":22400,"station_id":"ce4bh3h2rcd13ifvqdn0","pricing_plan_id":"cebpf4jnsgd1na2vs0mg"},{"bike_id":"fe85efad-0339-439d-abf3-ed2dc2a4defa","system_id":"levelo_inurba_marseille","lat":43.298023,"lon":5.381016,"is_reserved":false,"is_disabled":false,"rental_uris":{"android":"levelo://app?vid=fe85efad-0339-439d-abf3-ed2dc2a4defa","ios":"levelo://app?vid=fe85efad-0339-439d-abf3-ed2dc2a4defa"},"vehicle_type_id":"4","last_reported":1761049318,"current_range_meters":22400,"station_id":"ce4bgip2rcd13ifvqbb0","pricing_plan_id":"cebpf4jnsgd1na2vs0mg"},{"bike_id":"f04e3ab5-ced7-4af8-b997-19eceefb150c","system_id":"levelo_inurba_marseille","lat":43.296143,"lon":5.37154,"is_reserved":false,"is_disabled":false,"rental_uris":{"android":"levelo://app?vid=f04e3ab5-ced7-4af8-b997-19eceefb150c","ios":"levelo://app?vid=f04e3ab5-ced7-4af8-b997-19eceefb150c"},"vehicle_type_id":"4","last_reported":1761049318,"current_range_meters":22400,"station_id":"ce4bgnh2rcd13ifvqc0g","pricing_plan_id":"cebpf4jnsgd1na2vs0mg"},{"bike_id":"69b5869c-af70-4416-93dd-d3186361e937","system_id":"levelo_inurba_marseille","lat":43.292694,"lon":5.368329,"is_reserved":false,"is_disabled":false,"rental_uris":{"android":"levelo://app?vid=69b5869c-af70-4416-93dd-d3186361e937","ios":"levelo://app?vid=69b5869c-af70-4416-93dd-d3186361e937"},"vehicle_type_id":"4","last_reported":1761049318,"current_range_meters":22400,"station_id":"ce4bhbp2rcd13ifvqesg","pricing_plan_id":"cebpf4jnsgd1na2vs0mg"},{"bike_id":"3d7013be-dfe4-430a-97e8-197a834810ee","system_id":"levelo_inurba_marseille","lat":43.24647,"lon":5.38892,"is_reserved":false,"is_disabled":false,"rental_uris":{"android":"levelo://app?vid=3d7013be-dfe4-430a-97e8-197a834810ee","ios":"levelo://app?vid=3d7013be-dfe4-430a-97e8-197a834810ee"},"vehicle_type_id":"4","last_reported":1761049318,"current_range_meters":22400,"station_id":"ce4bhg12rcd13ifvqf60","pricing_plan_id":"cebpf4jnsgd1na2vs0mg"},{"bike_id":"c8c0fa58-a519-4343-9887-b0c694f93aef","system_id":"levelo_inurba_marseille","lat":43.28859,"lon":5.42526,"is_reserved":false,"is_disabled":false,"rental_uris":{"android":"levelo://app?vid=c8c0fa58-a519-4343-9887-b0c694f93aef","ios":"levelo://app?vid=c8c0fa58-a519-4343-9887-b0c694f93aef"},"vehicle_type_id":"4","last_reported":1761049318,"current_range_meters":22400,"station_id":"st_d3b462108ojc7389ooeg","pricing_plan_id":"cebpf4jnsgd1na2vs0mg"},{"bike_id":"61525fe3-26d4-4c5c-a075-e59599c296c4","system_id":"levelo_inurba_marseille","lat":43.31428,"lon":5.39292,"is_reserved":false,"is_disabled":false,"rental_uris":{"android":"levelo://app?vid=61525fe3-26d4-4c5c-a075-e59599c296c4","ios":"levelo://app?vid=61525fe3-26d4-4c5c-a075-e59599c296c4"},"vehicle_type_id":"4","last_reported":1761049318,"current_range_meters":22400,"station_id":"","pricing_plan_id":"cebpf4jnsgd1na2vs0mg"},{"bike_id":"62f0a2f8-d352-4580-a096-e8ce56ffccdb","system_id":"levelo_inurba_marseille","lat":43.32108,"lon":5.367879,"is_reserved":false,"is_disabled":false,"rental_uris":{"android":"levelo://app?vid=62f0a2f8-d352-4580-a096-e8ce56ffccdb","ios":"levelo://app?vid=62f0a2f8-d352-4580-a096-e8ce56ffccdb"},"vehicle_type_id":"4","last_reported":1761049318,"current_range_meters":22400,"station_id":"ce4bhrh2rcd13ifvqhug","pricing_plan_id":"cebpf4jnsgd1na2vs0mg"},{"bike_id":"0d3f67df-7714-4f2c-9518-9583ab3e7dd8","system_id":"levelo_inurba_marseille","lat":43.30477,"lon":5.37907,"is_reserved":false,"is_disabled":false,"rental_uris":{"android":"levelo://app?vid=0d3f67df-7714-4f2c-9518-9583ab3e7dd8","ios":"levelo://app?vid=0d3f67df-7714-4f2c-9518-9583ab3e7dd8"},"vehicle_type_id":"4","last_reported":1761049318,"current_range_meters":22400,"station_id":"ce4bgup2rcd13ifvqcn0","pricing_plan_id":"cebpf4jnsgd1na2vs0mg"},{"bike_id":"275e37c7-1f90-4970-af55-6a1556fc7728","system_id":"levelo_inurba_marseille","lat":43.30946,"lon":5.3903,"is_reserved":false,"is_disabled":false,"rental_uris":{"android":"levelo://app?vid=275e37c7-1f90-4970-af55-6a1556fc7728","ios":"levelo://app?vid=275e37c7-1f90-4970-af55-6a1556fc7728"},"vehicle_type_id":"4","last_reported":1761049318,"current_range_meters":22400,"station_id":"ce4bgup2rcd13ifvqco0","pricing_plan_id":"cebpf4jnsgd1na2vs0mg"},{"bike_id":"0e134fcd-37be-40e0-aaa8-5a33f2db6cb8","system_id":"levelo_inurba_marseille","lat":43.3361,"lon":5.40986,"is_reserved":false,"is_disabled":false,"rental_uris":{"android":"levelo://app?vid=0e134fcd-37be-40e0-aaa8-5a33f2db6cb8","ios":"levelo://app?vid=0e134fcd-37be-40e0-aaa8-5a33f2db6cb8"},"vehicle_type_id":"4","last_reported":1761049318,"current_range_meters":22400,"station_id":"ce4bhqh2rcd13ifvqhmg","pricing_plan_id":"cebpf4jnsgd1na2vs0mg"},{"bike_id":"4a7e6937-6aba-4720-8b40-75e5ef8aba48","system_id":"levelo_inurba_marseille","lat":43.30527,"lon":5.36558,"is_reserved":false,"is_disabled":false,"rental_uris":{"android":"levelo://app?vid=4a7e6937-6aba-4720-8b40-75e5ef8aba48","ios":"levelo://app?vid=4a7e6937-6aba-4720-8b40-75e5ef8aba48"},"vehicle_type_id":"4","last_reported":1761049318,"current_range_meters":22400,"station_id":"","pricing_plan_id":"cebpf4jnsgd1na2vs0mg"},{"bike_id":"28811186-32d1-4f71-9a0a-ef7012593612","system_id":"levelo_inurba_marseille","lat":43.30461,"lon":5.37913,"is_reserved":false,"is_disabled":false,"rental_uris":{"android":"levelo://app?vid=28811186-32d1-4f71-9a0a-ef7012593612","ios":"levelo://app?vid=28811186-32d1-4f71-9a0a-ef7012593612"},"vehicle_type_id":"4","last_reported":1761049318,"current_range_meters":22400,"station_id":"ce4bgup2rcd13ifvqcn0","pricing_plan_id":"cebpf4jnsgd1na2vs0mg"},{"bike_id":"a6241168-04fc-4159-b5d4-4f9126f034a4","system_id":"levelo_inurba_marseille","lat":43.285093,"lon":5.350715,"is_reserved":false,"is_disabled":false,"rental_uris":{"android":"levelo://app?vid=a6241168-04fc-4159-b5d4-4f9126f034a4","ios":"levelo://app?vid=a6241168-04fc-4159-b5d4-4f9126f034a4"},"vehicle_type_id":"4","last_reported":1761049318,"current_range_meters":22400,"station_id":"ce4bhbh2rcd13ifvqeo0","pricing_plan_id":"cebpf4jnsgd1na2vs0mg"},{"bike_id":"7232bb60-2fbd-40fd-9d41-97ab2f0d9f37","system_id":"levelo_inurba_marseille","lat":43.24099,"lon":5.41347,"is_reserved":false,"is_disabled":false,"rental_uris":{"android":"levelo://app?vid=7232bb60-2fbd-40fd-9d41-97ab2f0d9f37","ios":"levelo://app?vid=7232bb60-2fbd-40fd-9d41-97ab2f0d9f37"},"vehicle_type_id":"4","last_reported":1761049318,"current_range_meters":22800,"station_id":"","pricing_plan_id":"cebpf4jnsgd1na2vs0mg"},{"bike_id":"dfadaf33-427e-43a6-a4eb-596b93d38fea","system_id":"levelo_inurba_marseille","lat":43.27402,"lon":5.39409,"is_reserved":false,"is_disabled":false,"rental_uris":{"android":"levelo://app?vid=dfadaf33-427e-43a6-a4eb-596b93d38fea","ios":"levelo://app?vid=dfadaf33-427e-43a6-a4eb-596b93d38fea"},"vehicle_type_id":"4","last_reported":1761049318,"current_range_meters":22800,"station_id":"ce4bhdp2rcd13ifvqf20","pricing_plan_id":"cebpf4jnsgd1na2vs0mg"},{"bike_id":"01357d7e-38c2-4e3e-b7cb-6cd3ba263598","system_id":"levelo_inurba_marseille","lat":43.27172,"lon":5.4099,"is_reserved":false,"is_disabled":false,"rental_uris":{"android":"levelo://app?vid=01357d7e-38c2-4e3e-b7cb-6cd3ba263598","ios":"levelo://app?vid=01357d7e-38c2-4e3e-b7cb-6cd3ba263598"},"vehicle_type_id":"4","last_reported":1761049318,"current_range_meters":22800,"station_id":"ce4bhl12rcd13ifvqgf0","pricing_plan_id":"cebpf4jnsgd1na2vs0mg"},{"bike_id":"5abc1546-8967-453e-9f44-5dedd11dbd61","system_id":"levelo_inurba_marseille","lat":43.290094,"lon":5.373467,"is_reserved":false,"is_disabled":false,"rental_uris":{"android":"levelo://app?vid=5abc1546-8967-453e-9f44-5dedd11dbd61","ios":"levelo://app?vid=5abc1546-8967-453e-9f44-5dedd11dbd61"},"vehicle_type_id":"4","last_reported":1761049318,"current_range_meters":22800,"station_id":"ce4bh692rcd13ifvqe90","pricing_plan_id":"cebpf4jnsgd1na2vs0mg"},{"bike_id":"bda3ed1a-3199-4eb8-8229-577855d09dbb","system_id":"levelo_inurba_marseille","lat":43.3163,"lon":5.37876,"is_reserved":false,"is_disabled":false,"rental_uris":{"android":"levelo://app?vid=bda3ed1a-3199-4eb8-8229-577855d09dbb","ios":"levelo://app?vid=bda3ed1a-3199-4eb8-8229-577855d09dbb"},"vehicle_type_id":"4","last_reported":1761049318,"current_range_meters":22800,"station_id":"","pricing_plan_id":"cebpf4jnsgd1na2vs0mg"},{"bike_id":"1c820bab-26cf-457d-a81a-d5d7f86ee5c5","system_id":"levelo_inurba_marseille","lat":43.30529,"lon":5.36717,"is_reserved":false,"is_disabled":false,"rental_uris":{"android":"levelo://app?vid=1c820bab-26cf-457d-a81a-d5d7f86ee5c5","ios":"levelo://app?vid=1c820bab-26cf-457d-a81a-d5d7f86ee5c5"},"vehicle_type_id":"4","last_reported":1761049318,"current_range_meters":22800,"station_id":"ce4bgrp2rcd13ifvqc9g","pricing_plan_id":"cebpf4jnsgd1na2vs0mg"},{"bike_id":"8f14392d-8baa-4af6-a7d9-6815262eda98","system_id":"levelo_inurba_marseille","lat":43.3414,"lon":5.40907,"is_reserved":false,"is_disabled":false,"rental_uris":{"android":"levelo://app?vid=8f14392d-8baa-4af6-a7d9-6815262eda98","ios":"levelo://app?vid=8f14392d-8baa-4af6-a7d9-6815262eda98"},"vehicle_type_id":"4","last_reported":1761049318,"current_range_meters":22800,"station_id":"ce4bhqh2rcd13ifvqhlg","pricing_plan_id":"cebpf4jnsgd1na2vs0mg"},{"bike_id":"797a53d5-729f-4b24-8fdf-fbae73b143df","system_id":"levelo_inurba_marseille","lat":43.29883,"lon":5.38897,"is_reserved":false,"is_disabled":false,"rental_uris":{"android":"levelo://app?vid=797a53d5-729f-4b24-8fdf-fbae73b143df","ios":"levelo://app?vid=797a53d5-729f-4b24-8fdf-fbae73b143df"},"vehicle_type_id":"4","last_reported":1761049318,"current_range_meters":22800,"station_id":"ce4bh392rcd13ifvqdl0","pricing_plan_id":"cebpf4jnsgd1na2vs0mg"},{"bike_id":"235de4f7-6d1d-47fd-b730-65d9d3c5179d","system_id":"levelo_inurba_marseille","lat":43.24631,"lon":5.43154,"is_reserved":false,"is_disabled":false,"rental_uris":{"android":"levelo://app?vid=235de4f7-6d1d-47fd-b730-65d9d3c5179d","ios":"levelo://app?vid=235de4f7-6d1d-47fd-b730-65d9d3c5179d"},"vehicle_type_id":"4","last_reported":1761049318,"current_range_meters":22800,"station_id":"st_d2m6c4gdas8pm72e190g","pricing_plan_id":"cebpf4jnsgd1na2vs0mg"},{"bike_id":"c7614d7a-614c-4b72-acc2-5e79372266d3","system_id":"levelo_inurba_marseille","lat":43.292633,"lon":5.376321,"is_reserved":false,"is_disabled":false,"rental_uris":{"android":"levelo://app?vid=c7614d7a-614c-4b72-acc2-5e79372266d3","ios":"levelo://app?vid=c7614d7a-614c-4b72-acc2-5e79372266d3"},