{"last_updated":1738224672,"ttl":60,"version":"2.2","data":{"bikes":[{"bike_id":"41eb598f-4dfe-4d92-befb-f535b97c57af","system_id":"levelo_inurba_marseille","lat":43.29197,"lon":5.39322,"is_reserved":false,"is_disabled":false,"rental_uris":{"android":"levelo://app?vid=41eb598f-4dfe-4d92-befb-f535b97c57af","ios":"levelo://app?vid=41eb598f-4dfe-4d92-befb-f535b97c57af"},"vehicle_type_id":"4","last_reported":1738224672,"current_range_meters":28400,"station_id":"ce4bh192rcd13ifvqdd0","pricing_plan_id":"cebpf4jnsgd1na2vs0mg"},{"bike_id":"0d72069c-12f4-4000-a8ca-84be6d2ccbcd","system_id":"levelo_inurba_marseille","lat":43.29841,"lon":5.36271,"is_reserved":false,"is_disabled":false,"rental_uris":{"android":"levelo://app?vid=0d72069c-12f4-4000-a8ca-84be6d2ccbcd","ios":"levelo://app?vid=0d72069c-12f4-4000-a8ca-84be6d2ccbcd"},"vehicle_type_id":"4","last_reported":1738224672,"current_range_meters":30000,"station_id":"ce4bgpp2rcd13ifvqc3g","pricing_plan_id":"cebpf4jnsgd1na2vs0mg"},{"bike_id":"8e46efa2-6375-4e5c-8a51-df5a9c5e137e","system_id":"levelo_inurba_marseille","lat":43.29507,"lon":5.39021,"is_reserved":false,"is_disabled":false,"rental_uris":{"android":"levelo://app?vid=8e46efa2-6375-4e5c-8a51-df5a9c5e137e","ios":"levelo://app?vid=8e46efa2-6375-4e5c-8a51-df5a9c5e137e"},"vehicle_type_id":"4","last_reported":1738224672,"current_range_meters":35200,"station_id":"ce4bh3p2rcd13ifvqdp0","pricing_plan_id":"cebpf4jnsgd1na2vs0mg"},{"bike_id":"9fd73913-dbae-4c44-9a9b-e393df78b1e9","system_id":"levelo_inurba_marseille","lat":43.25584,"lon":5.38266,"is_reserved":false,"is_disabled":false,"rental_uris":{"android":"levelo://app?vid=9fd73913-dbae-4c44-9a9b-e393df78b1e9","ios":"levelo://app?vid=9fd73913-dbae-4c44-9a9b-e393df78b1e9"},"vehicle_type_id":"4","last_reported":1738224672,"current_range_meters":39200,"station_id":"ce4bhih2rcd13ifvqfs0","pricing_plan_id":"cebpf4jnsgd1na2vs0mg"},{"bike_id":"9e9ae6fd-a660-46a3-b812-9928fe436f10","system_id":"levelo_inurba_marseille","lat":43.2836,"lon":5.38105,"is_reserved":false,"is_disabled":false,"rental_uris":{"android":"levelo://app?vid=9e9ae6fd-a660-46a3-b812-9928fe436f10","ios":"levelo://app?vid=9e9ae6fd-a660-46a3-b812-9928fe436f10"},"vehicle_type_id":"4","last_reported":1738224672,"current_range_meters":36000,"station_id":"ce4bh412rcd13ifvqdr0","pricing_plan_id":"cebpf4jnsgd1na2vs0mg"},{"bike_id":"bf805637-214f-4482-b927-739da849a70e","system_id":"levelo_inurba_marseille","lat":43.28271,"lon":5.35102,"is_reserved":false,"is_disabled":false,"rental_uris":{"android":"levelo://app?vid=bf805637-214f-4482-b927-739da849a70e","ios":"levelo://app?vid=bf805637-214f-4482-b927-739da849a70e"},"vehicle_type_id":"4","last_reported":1738224672,"current_range_meters":35600,"station_id":"ce4bhbp2rcd13ifvqerg","pricing_plan_id":"cebpf4jnsgd1na2vs0mg"},{"bike_id":"fc60e4eb-25fa-4df2-b3c7-2a98fe9bb4ec","system_id":"levelo_inurba_marseille","lat":43.30911,"lon":5.3684,"is_reserved":false,"is_disabled":false,"rental_uris":{"android":"levelo://app?vid=fc60e4eb-25fa-4df2-b3c7-2a98fe9bb4ec","ios":"levelo://app?vid=fc60e4eb-25fa-4df2-b3c7-2a98fe9bb4ec"},"vehicle_type_id":"4","last_reported":1738224672,"current_range_meters":16000,"station_id":"ce4bgn92rcd13ifvqbvg","pricing_plan_id":"cebpf4jnsgd1na2vs0mg"},{"bike_id":"f7f8117f-03ef-415e-85c6-2eeaf165e4f2","system_id":"levelo_inurba_marseille","lat":43.26184,"lon":5.40357,"is_reserved":false,"is_disabled":true,"rental_uris":{"android":"levelo://app?vid=f7f8117f-03ef-415e-85c6-2eeaf165e4f2","ios":"levelo://app?vid=f7f8117f-03ef-415e-85c6-2eeaf165e4f2"},"vehicle_type_id":"4","last_reported":1738224672,"current_range_meters":26800,"station_id":"","pricing_plan_id":"cebpf4jnsgd1na2vs0mg"},{"bike_id":"32d5c1fe-ccdc-4994-8502-18f10026c3b8","system_id":"levelo_inurba_marseille","lat":43.29631,"lon":5.40599,"is_reserved":false,"is_disabled":false,"rental_uris":{"android":"levelo://app?vid=32d5c1fe-ccdc-4994-8502-18f10026c3b8","ios":"levelo://app?vid=32d5c1fe-ccdc-4994-8502-18f10026c3b8"},"vehicle_type_id":"4","last_reported":1738224672,"current_range_meters":19600,"station_id":"ce4bh0h2rcd13ifvqd60","pricing_plan_id":"cebpf4jnsgd1na2vs0mg"},{"bike_id":"d7a3cb0f-9b62-4b60-8c5a-fd30f79ab0b4","system_id":"levelo_inurba_marseille","lat":43.30546,"lon":5.38436,"is_reserved":false,"is_disabled":false,"rental_uris":{"android":"levelo://app?vid=d7a3cb0f-9b62-4b60-8c5a-fd30f79ab0b4","ios":"levelo://app?vid=d7a3cb0f-9b62-4b60-8c5a-fd30f79ab0b4"},"vehicle_type_id":"4","last_reported":1738224672,"current_range_meters":14800,"station_id":"ce4bgg92rcd13ifvqb30","pricing_plan_id":"cebpf4jnsgd1na2vs0mg"},{"bike_id":"b282d1f0-a1fa-44c9-a7ce-98d89c19ceea","system_id":"levelo_inurba_marseille","lat":43.2996,"lon":5.38489,"is_reserved":false,"is_disabled":false,"rental_uris":{"android":"levelo://app?vid=b282d1f0-a1fa-44c9-a7ce-98d89c19ceea","ios":"levelo://app?vid=b282d1f0-a1fa-44c9-a7ce-98d89c19ceea"},"vehicle_type_id":"4","last_reported":1738224672,"current_range_meters":24000,"station_id":"ce4bgj92rcd13ifvqbd0","pricing_plan_id":"cebpf4jnsgd1na2vs0mg"},{"bike_id":"83d5f9d0-5f38-42f2-8723-27cd79b945eb","system_id":"levelo_inurba_marseille","lat":43.30498,"lon":5.37932,"is_reserved":false,"is_disabled":false,"rental_uris":{"android":"levelo://app?vid=83d5f9d0-5f38-42f2-8723-27cd79b945eb","ios":"levelo://app?vid=83d5f9d0-5f38-42f2-8723-27cd79b945eb"},"vehicle_type_id":"4","last_reported":1738224672,"current_range_meters":21600,"station_id":"ce4bgup2rcd13ifvqcn0","pricing_plan_id":"cebpf4jnsgd1na2vs0mg"},{"bike_id":"d447fcc4-8457-45c4-914a-663ae1f96a8c","system_id":"levelo_inurba_marseille","lat":43.29281,"lon":5.36852,"is_reserved":false,"is_disabled":false,"rental_uris":{"android":"levelo://app?vid=d447fcc4-8457-45c4-914a-663ae1f96a8c","ios":"levelo://app?vid=d447fcc4-8457-45c4-914a-663ae1f96a8c"},"vehicle_type_id":"4","last_reported":1738224672,"current_range_meters":36000,"station_id":"ce4bhbp2rcd13ifvqesg","pricing_plan_id":"cebpf4jnsgd1na2vs0mg"},{"bike_id":"adc2855c-ce96-4ab1-9132-d4c82e18f627","system_id":"levelo_inurba_marseille","lat":43.26499,"lon":5.39574,"is_reserved":false,"is_disabled":false,"rental_uris":{"android":"levelo://app?vid=adc2855c-ce96-4ab1-9132-d4c82e18f627","ios":"levelo://app?vid=adc2855c-ce96-4ab1-9132-d4c82e18f627"},"vehicle_type_id":"4","last_reported":1738224672,"current_range_meters":29600,"station_id":"ce4bhi12rcd13ifvqfq0","pricing_plan_id":"cebpf4jnsgd1na2vs0mg"},{"bike_id":"bbf5cc05-253b-474e-91e3-9d2d5200c1ec","system_id":"levelo_inurba_marseille","lat":43.30285,"lon":5.37694,"is_reserved":false,"is_disabled":true,"rental_uris":{"android":"levelo://app?vid=bbf5cc05-253b-474e-91e3-9d2d5200c1ec","ios":"levelo://app?vid=bbf5cc05-253b-474e-91e3-9d2d5200c1ec"},"vehicle_type_id":"4","last_reported":1738224672,"current_range_meters":0,"station_id":"ce4bguh2rcd13ifvqcj0","pricing_plan_id":"cebpf4jnsgd1na2vs0mg"},{"bike_id":"0b53356c-ef2a-41f6-a66e-0eae9a3b2771","system_id":"levelo_inurba_marseille","lat":43.2649,"lon":5.39546,"is_reserved":false,"is_disabled":false,"rental_uris":{"android":"levelo://app?vid=0b53356c-ef2a-41f6-a66e-0eae9a3b2771","ios":"levelo://app?vid=0b53356c-ef2a-41f6-a66e-0eae9a3b2771"},"vehicle_type_id":"4","last_reported":1738224672,"current_range_meters":20400,"station_id":"ce4bhi12rcd13ifvqfq0","pricing_plan_id":"cebpf4jnsgd1na2vs0mg"},{"bike_id":"0288be9b-7b6f-484a-a06c-e6be0ec543fe","system_id":"levelo_inurba_marseille","lat":43.33596,"lon":5.41037,"is_reserved":false,"is_disabled":false,"rental_uris":{"android":"levelo://app?vid=0288be9b-7b6f-484a-a06c-e6be0ec543fe","ios":"levelo://app?vid=0288be9b-7b6f-484a-a06c-e6be0ec543fe"},"vehicle_type_id":"4","last_reported":1738224672,"current_range_meters":39200,"station_id":"ce4bhqh2rcd13ifvqhmg","pricing_plan_id":"cebpf4jnsgd1na2vs0mg"},{"bike_id":"1c0f7429-d4ab-49ef-af4a-1bf4c593cfd8","system_id":"levelo_inurba_marseille","lat":43.32542,"lon":5.41421,"is_reserved":false,"is_disabled":false,"rental_uris":{"android":"levelo://app?vid=1c0f7429-d4ab-49ef-af4a-1bf4c593cfd8","ios":"levelo://app?vid=1c0f7429-d4ab-49ef-af4a-1bf4c593cfd8"},"vehicle_type_id":"4","last_reported":1738224672,"current_range_meters":32000,"station_id":"ce4bhq12rcd13ifvqhhg","pricing_plan_id":"cebpf4jnsgd1na2vs0mg"},{"bike_id":"6e8f542f-0432-48c6-adc8-7717ef7b776a","system_id":"levelo_inurba_marseille","lat":43.28099,"lon":5.37851,"is_reserved":false,"is_disabled":false,"rental_uris":{"android":"levelo://app?vid=6e8f542f-0432-48c6-adc8-7717ef7b776a","ios":"levelo://app?vid=6e8f542f-0432-48c6-adc8-7717ef7b776a"},"vehicle_type_id":"4","last_reported":1738224672,"current_range_meters":28800,"station_id":"ce4bha12rcd13ifvqee0","pricing_plan_id":"cebpf4jnsgd1na2vs0mg"},{"bike_id":"79b7a714-6899-43f0-a0e6-1e9b5234e282","system_id":"levelo_inurba_marseille","lat":43.29538,"lon":5.4229,"is_reserved":false,"is_disabled":false,"rental_uris":{"android":"levelo://app?vid=79b7a714-6899-43f0-a0e6-1e9b5234e282","ios":"levelo://app?vid=79b7a714-6899-43f0-a0e6-1e9b5234e282"},"vehicle_type_id":"4","last_reported":1738224672,"current_range_meters":36800,"station_id":"ce4bhph2rcd13ifvqhdg","pricing_plan_id":"cebpf4jnsgd1na2vs0mg"},{"bike_id":"b97a63df-2fe9-405c-9d30-117c1561fe9c","system_id":"levelo_inurba_marseille","lat":43.2781,"lon":5.4068,"is_reserved":false,"is_disabled":false,"rental_uris":{"android":"levelo://app?vid=b97a63df-2fe9-405c-9d30-117c1561fe9c","ios":"levelo://app?vid=b97a63df-2fe9-405c-9d30-117c1561fe9c"},"vehicle_type_id":"4","last_reported":1738224672,"current_range_meters":34000,"station_id":"ce4bhnh2rcd13ifvqgtg","pricing_plan_id":"cebpf4jnsgd1na2vs0mg"},{"bike_id":"cdf658bc-a287-4a75-b955-6ab3f2fc5cf5","system_id":"levelo_inurba_marseille","lat":43.262,"lon":5.37926,"is_reserved":false,"is_disabled":false,"rental_uris":{"android":"levelo://app?vid=cdf658bc-a287-4a75-b955-6ab3f2fc5cf5","ios":"levelo://app?vid=cdf658bc-a287-4a75-b955-6ab3f2fc5cf5"},"vehicle_type_id":"4","last_reported":1738224672,"current_range_meters":36800,"station_id":"ce4bhjp2rcd13ifvqg90","pricing_plan_id":"cebpf4jnsgd1na2vs0mg"},{"bike_id":"38429bc6-1d2c-4549-a886-b18cfd66a4b7","system_id":"levelo_inurba_marseille","lat":43.32534,"lon":5.41437,"is_reserved":false,"is_disabled":false,"rental_uris":{"android":"levelo://app?vid=38429bc6-1d2c-4549-a886-b18cfd66a4b7","ios":"levelo://app?vid=38429bc6-1d2c-4549-a886-b18cfd66a4b7"},"vehicle_type_id":"4","last_reported":1738224672,"current_range_meters":39200,"station_id":"ce4bhq12rcd13ifvqhhg","pricing_plan_id":"cebpf4jnsgd1na2vs0mg"},{"bike_id":"9bd21267-26f6-4122-9567-2f0b5d4f790f","system_id":"levelo_inurba_marseille","lat":43.3235,"lon":5.38887,"is_reserved":false,"is_disabled":false,"rental_uris":{"android":"levelo://app?vid=9bd21267-26f6-4122-9567-2f0b5d4f790f","ios":"levelo://app?vid=9bd21267-26f6-4122-9567-2f0b5d4f790f"},"vehicle_type_id":"4","last_reported":1738224672,"current_range_meters":6000,"station_id":"ce4bhqp2rcd13ifvqhog","pricing_plan_id":"cebpf4jnsgd1na2vs0mg"},{"bike_id":"873a4520-b3ea-4ae4-b5ed-62ad08141256","system_id":"levelo_inurba_marseille","lat":43.30546,"lon":5.3656,"is_reserved":false,"is_disabled":false,"rental_uris":{"android":"levelo://app?vid=873a4520-b3ea-4ae4-b5ed-62ad08141256","ios":"levelo://app?vid=873a4520-b3ea-4ae4-b5ed-62ad08141256"},"vehicle_type_id":"4","last_reported":1738224672,"current_range_meters":38800,"station_id":"ce4bgs12rcd13ifvqcag","pricing_plan_id":"cebpf4jnsgd1na2vs0mg"},{"bike_id":"1d616d1b-3f48-4224-bb28-01fd00ae46e4","system_id":"levelo_inurba_marseille","lat":43.31236,"lon":5.36869,"is_reserved":false,"is_disabled":false,"rental_uris":{"android":"levelo://app?vid=1d616d1b-3f48-4224-bb28-01fd00ae46e4","ios":"levelo://app?vid=1d616d1b-3f48-4224-bb28-01fd00ae46e4"},"vehicle_type_id":"4","last_reported":1738224672,"current_range_meters":6800,"station_id":"ce4bgl92rcd13ifvqbq0","pricing_plan_id":"cebpf4jnsgd1na2vs0mg"},{"bike_id":"26415dbd-5d7e-47ec-8cf6-7e1b6ac2f723","system_id":"levelo_inurba_marseille","lat":43.26927,"lon":5.40279,"is_reserved":false,"is_disabled":false,"rental_uris":{"android":"levelo://app?vid=26415dbd-5d7e-47ec-8cf6-7e1b6ac2f723","ios":"levelo://app?vid=26415dbd-5d7e-47ec-8cf6-7e1b6ac2f723"},"vehicle_type_id":"4","last_reported":1738224672,"current_range_meters":39200,"station_id":"cjm6bp8fraef2m0cb0m0","pricing_plan_id":"cebpf4jnsgd1na2vs0mg"},{"bike_id":"8bde1ebe-5abf-474a-84a7-7794fe44c931","system_id":"levelo_inurba_marseille","lat":43.33067,"lon":5.39038,"is_reserved":false,"is_disabled":false,"rental_uris":{"android":"levelo://app?vid=8bde1ebe-5abf-474a-84a7-7794fe44c931","ios":"levelo://app?vid=8bde1ebe-5abf-474a-84a7-7794fe44c931"},"vehicle_type_id":"4","last_reported":1738224672,"current_range_meters":37600,"station_id":"","pricing_plan_id":"cebpf4jnsgd1na2vs0mg"},{"bike_id":"09e5ddb2-5ded-4084-b331-34c11b36e04b","system_id":"levelo_inurba_marseille","lat":43.26941,"lon":5.38642,"is_reserved":false,"is_disabled":false,"rental_uris":{"android":"levelo://app?vid=09e5ddb2-5ded-4084-b331-34c11b36e04b","ios":"levelo://app?vid=09e5ddb2-5ded-4084-b331-34c11b36e04b"},"vehicle_type_id":"4","last_reported":1738224672,"current_range_meters":21600,"station_id":"ce4bhh92rcd13ifvqfh0","pricing_plan_id":"cebpf4jnsgd1na2vs0mg"},{"bike_id":"1c63fa7b-8bb3-4da5-8267-9c40ab75cc0b","system_id":"levelo_inurba_marseille","lat":43.33727,"lon":5.39162,"is_reserved":false,"is_disabled":false,"rental_uris":{"android":"levelo://app?vid=1c63fa7b-8bb3-4da5-8267-9c40ab75cc0b","ios":"levelo://app?vid=1c63fa7b-8bb3-4da5-8267-9c40ab75cc0b"},"vehicle_type_id":"4","last_reported":1738224672,"current_range_meters":38800,"station_id":"ce4bhr92rcd13ifvqhsg","pricing_plan_id":"cebpf4jnsgd1na2vs0mg"},{"bike_id":"c51b0cb6-07eb-4994-ac2a-608b77bd9b97","system_id":"levelo_inurba_marseille","lat":43.30346,"lon":5.41873,"is_reserved":false,"is_disabled":false,"rental_uris":{"android":"levelo://app?vid=c51b0cb6-07eb-4994-ac2a-608b77bd9b97","ios":"levelo://app?vid=c51b0cb6-07eb-4994-ac2a-608b77bd9b97"},"vehicle_type_id":"4","last_reported":1738224672,"current_range_meters":38400,"station_id":"ce4bhop2rcd13ifvqh7g","pricing_plan_id":"cebpf4jnsgd1na2vs0mg"},{"bike_id":"8a058265-5761-4713-ad7e-6f7db47a76d7","system_id":"levelo_inurba_marseille","lat":43.29609,"lon":5.406,"is_reserved":false,"is_disabled":false,"rental_uris":{"android":"levelo://app?vid=8a058265-5761-4713-ad7e-6f7db47a76d7","ios":"levelo://app?vid=8a058265-5761-4713-ad7e-6f7db47a76d7"},"vehicle_type_id":"4","last_reported":1738224672,"current_range_meters":37600,"station_id":"ce4bh0h2rcd13ifvqd60","pricing_plan_id":"cebpf4jnsgd1na2vs0mg"},{"bike_id":"cc47836a-b908-432f-8e0e-2f793407f141","system_id":"levelo_inurba_marseille","lat":43.22921,"lon":5.35391,"is_reserved":false,"is_disabled":false,"rental_uris":{"android":"levelo://app?vid=cc47836a-b908-432f-8e0e-2f793407f141","ios":"levelo://app?vid=cc47836a-b908-432f-8e0e-2f793407f141"},"vehicle_type_id":"4","last_reported":1738224672,"current_range_meters":17200,"station_id":"cpo3532slgdg3j2ikp40","pricing_plan_id":"cebpf4jnsgd1na2vs0mg"},{"bike_id":"5d4915e0-4a9f-4c36-821a-8bde58abc3cd","system_id":"levelo_inurba_marseille","lat":43.25115,"lon":5.40311,"is_reserved":false,"is_disabled":true,"rental_uris":{"android":"levelo://app?vid=5d4915e0-4a9f-4c36-821a-8bde58abc3cd","ios":"levelo://app?vid=5d4915e0-4a9f-4c36-821a-8bde58abc3cd"},"vehicle_type_id":"4","last_reported":1738224672,"current_range_meters":37600,"station_id":"ce4bhlh2rcd13ifvqgig","pricing_plan_id":"cebpf4jnsgd1na2vs0mg"},{"bike_id":"71fe1c26-5853-405a-bd0a-7fc15a5f97c1","system_id":"levelo_inurba_marseille","lat":43.31381,"lon":5.36705,"is_reserved":false,"is_disabled":false,"rental_uris":{"android":"levelo://app?vid=71fe1c26-5853-405a-bd0a-7fc15a5f97c1","ios":"levelo://app?vid=71fe1c26-5853-405a-bd0a-7fc15a5f97c1"},"vehicle_type_id":"4","last_reported":1738224672,"current_range_meters":33200,"station_id":"ce4bgr92rcd13ifvqc6g","pricing_plan_id":"cebpf4jnsgd1na2vs0mg"},{"bike_id":"e13b7a82-8d03-471f-ac70-6a6d40fcbd32","system_id":"levelo_inurba_marseille","lat":43.28692,"lon":5.38328,"is_reserved":false,"is_disabled":true,"rental_uris":{"android":"levelo://app?vid=e13b7a82-8d03-471f-ac70-6a6d40fcbd32","ios":"levelo://app?vid=e13b7a82-8d03-471f-ac70-6a6d40fcbd32"},"vehicle_type_id":"4","last_reported":1738224672,"current_range_meters":0,"station_id":"","pricing_plan_id":"cebpf4jnsgd1na2vs0mg"},{"bike_id":"fa6a1f45-8d44-499c-88d7-706a6b159e5a","system_id":"levelo_inurba_marseille","lat":43.27494,"lon":5.42458,"is_reserved":false,"is_disabled":false,"rental_uris":{"android":"levelo://app?vid=fa6a1f45-8d44-499c-88d7-706a6b159e5a","ios":"levelo://app?vid=fa6a1f45-8d44-499c-88d7-706a6b159e5a"},"vehicle_type_id":"4","last_reported":1738224672,"current_range_meters":26000,"station_id":"ce4bhn92rcd13ifvqgrg","pricing_plan_id":"cebpf4jnsgd1na2vs0mg"},{"bike_id":"cab7ba63-3e41-4a31-9310-1d20c79f3157","system_id":"levelo_inurba_marseille","lat":43.30461,"lon":5.37908,"is_reserved":false,"is_disabled":false,"rental_uris":{"android":"levelo://app?vid=cab7ba63-3e41-4a31-9310-1d20c79f3157","ios":"levelo://app?vid=cab7ba63-3e41-4a31-9310-1d20c79f3157"},"vehicle_type_id":"4","last_reported":1738224672,"current_range_meters":28800,"station_id":"ce4bgup2rcd13ifvqcn0","pricing_plan_id":"cebpf4jnsgd1na2vs0mg"},{"bike_id":"32a4f479-d152-4ee5-828a-5b4589a4790e","system_id":"levelo_inurba_marseille","lat":43.31728,"lon":5.42401,"is_reserved":false,"is_disabled":false,"rental_uris":{"android":"levelo://app?vid=32a4f479-d152-4ee5-828a-5b4589a4790e","ios":"levelo://app?vid=32a4f479-d152-4ee5-828a-5b4589a4790e"},"vehicle_type_id":"4","last_reported":1738224672,"current_range_meters":38800,"station_id":"ce4bhp92rcd13ifvqhbg","pricing_plan_id":"cebpf4jnsgd1na2vs0mg"},{"bike_id":"19bf74f8-ef79-44a1-9f60-0ef23a37b56e","system_id":"levelo_inurba_marseille","lat":43.29275,"lon":5.3685,"is_reserved":false,"is_disabled":false,"rental_uris":{"android":"levelo://app?vid=19bf74f8-ef79-44a1-9f60-0ef23a37b56e","ios":"levelo://app?vid=19bf74f8-ef79-44a1-9f60-0ef23a37b56e"},"vehicle_type_id":"4","last_reported":1738224672,"current_range_meters":19600,"station_id":"ce4bhbp2rcd13ifvqesg","pricing_plan_id":"cebpf4jnsgd1na2vs0mg"},{"bike_id":"21b52f6a-4d72-4210-8710-c5cde09123c4","system_id":"levelo_inurba_marseille","lat":43.27322,"lon":5.39098,"is_reserved":false,"is_disabled":false,"rental_uris":{"android":"levelo://app?vid=21b52f6a-4d72-4210-8710-c5cde09123c4","ios":"levelo://app?vid=21b52f6a-4d72-4210-8710-c5cde09123c4"},"vehicle_type_id":"4","last_reported":1738224672,"current_range_meters":38800,"station_id":"ce4bhgp2rcd13ifvqfe0","pricing_plan_id":"cebpf4jnsgd1na2vs0mg"},{"bike_id":"f34fcd93-0f66-400a-8f07-aa08bfa23861","system_id":"levelo_inurba_marseille","lat":43.25947,"lon":5.40892,"is_reserved":false,"is_disabled":true,"rental_uris":{"android":"levelo://app?vid=f34fcd93-0f66-400a-8f07-aa08bfa23861","ios":"levelo://app?vid=f34fcd93-0f66-400a-8f07-aa08bfa23861"},"vehicle_type_id":"4","last_reported":1738224672,"current_range_meters":11200,"station_id":"ce4bhm92rcd13ifvqglg","pricing_plan_id":"cebpf4jnsgd1na2vs0mg"},{"bike_id":"1ce5a43b-4d1b-4764-b007-43cee44de97d","system_id":"levelo_inurba_marseille","lat":43.27071,"lon":5.42281,"is_reserved":false,"is_disabled":false,"rental_uris":{"android":"levelo://app?vid=1ce5a43b-4d1b-4764-b007-43cee44de97d","ios":"levelo://app?vid=1ce5a43b-4d1b-4764-b007-43cee44de97d"},"vehicle_type_id":"4","last_reported":1738224672,"current_range_meters":24800,"station_id":"ce4bhk92rcd13ifvqgb0","pricing_plan_id":"cebpf4jnsgd1na2vs0mg"},{"bike_id":"d56a711b-69d4-4adc-9e37-c0433b6c7d4b","system_id":"levelo_inurba_marseille","lat":43.27984,"lon":5.38681,"is_reserved":false,"is_disabled":false,"rental_uris":{"android":"levelo://app?vid=d56a711b-69d4-4adc-9e37-c0433b6c7d4b","ios":"levelo://app?vid=d56a711b-69d4-4adc-9e37-c0433b6c7d4b"},"vehicle_type_id":"4","last_reported":1738224672,"current_range_meters":26800,"station_id":"ce4bhg12rcd13ifvqf80","pricing_plan_id":"cebpf4jnsgd1na2vs0mg"},{"bike_id":"25a5731f-2fd2-489f-8c66-847a1cb874bd","system_id":"levelo_inurba_marseille","lat":43.31345,"lon":5.36726,"is_reserved":false,"is_disabled":false,"rental_uris":{"android":"levelo://app?vid=25a5731f-2fd2-489f-8c66-847a1cb874bd","ios":"levelo://app?vid=25a5731f-2fd2-489f-8c66-847a1cb874bd"},"vehicle_type_id":"4","last_reported":1738224672,"current_range_meters":30800,"station_id":"ce4bgr92rcd13ifvqc6g","pricing_plan_id":"cebpf4jnsgd1na2vs0mg"},{"bike_id":"c52ee0d8-fc14-4a91-ad24-eeec1e8e0625","system_id":"levelo_inurba_marseille","lat":43.26195,"lon":5.37446,"is_reserved":false,"is_disabled":false,"rental_uris":{"android":"levelo://app?vid=c52ee0d8-fc14-4a91-ad24-eeec1e8e0625","ios":"levelo://app?vid=c52ee0d8-fc14-4a91-ad24-eeec1e8e0625"},"vehicle_type_id":"4","last_reported":1738224672,"current_range_meters":30000,"station_id":"ce4bhgp2rcd13ifvqfc0","pricing_plan_id":"cebpf4jnsgd1na2vs0mg"},{"bike_id":"dd5c5c45-05d7-435f-b329-97ebdf5c921f","system_id":"levelo_inurba_marseille","lat":43.2511,"lon":5.40341,"is_reserved":false,"is_disabled":true,"rental_uris":{"android":"levelo://app?vid=dd5c5c45-05d7-435f-b329-97ebdf5c921f","ios":"levelo://app?vid=dd5c5c45-05d7-435f-b329-97ebdf5c921f"},"vehicle_type_id":"4","last_reported":1738224672,"current_range_meters":38800,"station_id":"ce4bhlh2rcd13ifvqgig","pricing_plan_id":"cebpf4jnsgd1na2vs0mg"},{"bike_id":"978cd6cf-2e58-49e0-ba8e-01d18e0d5ab9","system_id":"levelo_inurba_marseille","lat":43.28444,"lon":5.39178,"is_reserved":false,"is_disabled":false,"rental_uris":{"android":"levelo://app?vid=978cd6cf-2e58-49e0-ba8e-01d18e0d5ab9","ios":"levelo://app?vid=978cd6cf-2e58-49e0-ba8e-01d18e0d5ab9"},"vehicle_type_id":"4","last_reported":1738224672,"current_range_meters":39200,"station_id":"ce4bhoh2rcd13ifvqh5g","pricing_plan_id":"cebpf4jnsgd1na2vs0mg"},{"bike_id":"3280e4b8-8899-4fba-875c-9c78eb4c63f1","system_id":"levelo_inurba_marseille","lat":43.30949,"lon":5.39048,"is_reserved":false,"is_disabled":false,"rental_uris":{"android":"levelo://app?vid=3280e4b8-8899-4fba-875c-9c78eb4c63f1","ios":"levelo://app?vid=3280e4b8-8899-4fba-875c-9c78eb4c63f1"},"vehicle_type_id":"4","last_reported":1738224672,"current_range_meters":22800,"station_id":"ce4bgup2rcd13ifvqco0","pricing_plan_id":"cebpf4jnsgd1na2vs0mg"},{"bike_id":"629f4d10-a6d9-419e-966f-0aa511774b28","system_id":"levelo_inurba_marseille","lat":43.27951,"lon":5.41063,"is_reserved":false,"is_disabled":false,"rental_uris":{"android":"levelo://app?vid=629f4d10-a6d9-419e-966f-0aa511774b28","ios":"levelo://app?vid=629f4d10-a6d9-419e-966f-0aa511774b28"},"vehicle_type_id":"4","last_reported":1738224672,"current_range_meters":8800,"station_id":"ce4bhnp2rcd13ifvqh0g","pricing_plan_id":"cebpf4jnsgd1na2vs0mg"},{"bike_id":"2195ac34-d547-4f41-bd42-b620578dae47","system_id":"levelo_inurba_marseille","lat":43.28929,"lon":5.3638,"is_reserved":false,"is_disabled":false,"rental_uris":{"android":"levelo://app?vid=2195ac34-d547-4f41-bd42-b620578dae47","ios":"levelo://app?vid=2195ac34-d547-4f41-bd42-b620578dae47"},"vehicle_type_id":"4","last_reported":1738224672,"current_range_meters":36400,"station_id":"ce4bhc92rcd13ifvqetg","pricing_plan_id":"cebpf4jnsgd1na2vs0mg"},{"bike_id":"9f7cbc3c-6e0b-4442-8c70-64c0b2a1452e","system_id":"levelo_inurba_marseille","lat":43.230558,"lon":5.355034,"is_reserved":false,"is_disabled":false,"rental_uris":{"android":"levelo://app?vid=9f7cbc3c-6e0b-4442-8c70-64c0b2a1452e","ios":"levelo://app?vid=9f7cbc3c-6e0b-4442-8c70-64c0b2a1452e"},"vehicle_type_id":"4","last_reported":1738224672,"current_range_meters":12800,"station_id":"cpo3342slgdg3j2ifvpg","pricing_plan_id":"cebpf4jnsgd1na2vs0mg"},{"bike_id":"c8a3a0ed-dff2-4f3c-87dc-2e6b47b1ad28","system_id":"levelo_inurba_marseille","lat":43.337444,"lon":5.374475,"is_reserved":false,"is_disabled":true,"rental_uris":{"android":"levelo://app?vid=c8a3a0ed-dff2-4f3c-87dc-2e6b47b1ad28","ios":"levelo://app?vid=c8a3a0ed-dff2-4f3c-87dc-2e6b47b1ad28"},"vehicle_type_id":"4","last_reported":1738224672,"current_range_meters":0,"station_id":"","pricing_plan_id":"cebpf4jnsgd1na2vs0mg"},{"bike_id":"ff5edc73-ac7c-42fa-8386-5bc971033c91","system_id":"levelo_inurba_marseille","lat":43.30147,"lon":5.3809,"is_reserved":false,"is_disabled":false,"rental_uris":{"android":"levelo://app?vid=ff5edc73-ac7c-42fa-8386-5bc971033c91","ios":"levelo://app?vid=ff5edc73-ac7c-42fa-8386-5bc971033c91"},"vehicle_type_id":"4","last_reported":1738224672,"current_range_meters":37600,"station_id":"ce4bgjp2rcd13ifvqbh0","pricing_plan_id":"cebpf4jnsgd1na2vs0mg"},{"bike_id":"cf2adc09-6f98-434b-b289-b796c9f206c5","system_id":"levelo_inurba_marseille","lat":43.29871,"lon":5.39735,"is_reserved":false,"is_disabled":false,"rental_uris":{"android":"levelo://app?vid=cf2adc09-6f98-434b-b289-b796c9f206c5","ios":"levelo://app?vid=cf2adc09-6f98-434b-b289-b796c9f206c5"},"vehicle_type_id":"4","last_reported":1738224672,"current_range_meters":38000,"station_id":"ce4bh0h2rcd13ifvqd50","pricing_plan_id":"cebpf4jnsgd1na2vs0mg"},{"bike_id":"ec2d3986-3441-4e74-97b8-4b3023ae385b","system_id":"levelo_inurba_marseille","lat":43.29039,"lon":5.39975,"is_reserved":false,"is_disabled":false,"rental_uris":{"android":"levelo://app?vid=ec2d3986-3441-4e74-97b8-4b3023ae385b","ios":"levelo://app?vid=ec2d3986-3441-4e74-97b8-4b3023ae385b"},"vehicle_type_id":"4","last_reported":1738224672,"current_range_meters":8000,"station_id":"ce4bh392rcd13ifvqdm0","pricing_plan_id":"cebpf4jnsgd1na2vs0mg"},{"bike_id":"d6b02c53-f0cf-4b2a-a86f-01340b4cf04e","system_id":"levelo_inurba_marseille","lat":43.31365,"lon":5.38522,"is_reserved":false,"is_disabled":false,"rental_uris":{"android":"levelo://app?vid=d6b02c53-f0cf-4b2a-a86f-01340b4cf04e","ios":"levelo://app?vid=d6b02c53-f0cf-4b2a-a86f-01340b4cf04e"},"vehicle_type_id":"4","last_reported":1738224672,"current_range_meters":12000,"station_id":"ce4bgt92rcd13ifvqcf0","pricing_plan_id":"cebpf4jnsgd1na2vs0mg"},{"bike_id":"14fb96f8-0d6a-4e32-b43a-e39818bac68c","system_id":"levelo_inurba_marseille","lat":43.30485,"lon":5.37877,"is_reserved":false,"is_disabled":false,"rental_uris":{"android":"levelo://app?vid=14fb96f8-0d6a-4e32-b43a-e39818bac68c","ios":"levelo://app?vid=14fb96f8-0d6a-4e32-b43a-e39818bac68c"},"vehicle_type_id":"4","last_reported":1738224672,"current_range_meters":18000,"station_id":"ce4bgup2rcd13ifvqcn0","pricing_plan_id":"cebpf4jnsgd1na2vs0mg"},{"bike_id":"ecc7d736-8dcc-4521-8ca5-10a9af95cf48","system_id":"levelo_inurba_marseille","lat":43.25931,"lon":5.40918,"is_reserved":false,"is_disabled":false,"rental_uris":{"android":"levelo://app?vid=ecc7d736-8dcc-4521-8ca5-10a9af95cf48","ios":"levelo://app?vid=ecc7d736-8dcc-4521-8ca5-10a9af95cf48"},"vehicle_type_id":"4","last_reported":1738224672,"current_range_meters":27200,"station_id":"ce4bhm92rcd13ifvqglg","pricing_plan_id":"cebpf4jnsgd1na2vs0mg"},{"bike_id":"9414d849-c2b8-481b-8ec0-8a41fac18b49","system_id":"levelo_inurba_marseille","lat":43.28979,"lon":5.37826,"is_reserved":false,"is_disabled":false,"rental_uris":{"android":"levelo://app?vid=9414d849-c2b8-481b-8ec0-8a41fac18b49","ios":"levelo://app?vid=9414d849-c2b8-481b-8ec0-8a41fac18b49"},"vehicle_type_id":"4","last_reported":1738224672,"current_range_meters":35200,"station_id":"ce4bh9p2rcd13ifvqed0","pricing_plan_id":"cebpf4jnsgd1na2vs0mg"},{"bike_id":"32802d31-82e5-49aa-928e-45336ddb5e58","system_id":"levelo_inurba_marseille","lat":43.24998,"lon":5.38924,"is_reserved":false,"is_disabled":false,"rental_uris":{"android":"levelo://app?vid=32802d31-82e5-49aa-928e-45336ddb5e58","ios":"levelo://app?vid=32802d31-82e5-49aa-928e-45336ddb5e58"},"vehicle_type_id":"4","last_reported":1738224672,"current_range_meters":11200,"station_id":"ce4bhgp2rcd13ifvqfd0","pricing_plan_id":"cebpf4jnsgd1na2vs0mg"},{"bike_id":"991e7465-9292-4d33-b4eb-9ae38338f8c0","system_id":"levelo_inurba_marseille","lat":43.25864,"lon":5.39931,"is_reserved":false,"is_disabled":false,"rental_uris":{"android":"levelo://app?vid=991e7465-9292-4d33-b4eb-9ae38338f8c0","ios":"levelo://app?vid=991e7465-9292-4d33-b4eb-9ae38338f8c0"},"vehicle_type_id":"4","last_reported":1738224672,"current_range_meters":38400,"station_id":"ce4bhl92rcd13ifvqghg","pricing_plan_id":"cebpf4jnsgd1na2vs0mg"},{"bike_id":"6811fcdd-0dd6-46b0-93c3-921932e8f90c","system_id":"levelo_inurba_marseille","lat":43.3255,"lon":5.41436,"is_reserved":false,"is_disabled":false,"rental_uris":{"android":"levelo://app?vid=6811fcdd-0dd6-46b0-93c3-921932e8f90c","ios":"levelo://app?vid=6811fcdd-0dd6-46b0-93c3-921932e8f90c"},"vehicle_type_id":"4","last_reported":1738224672,"current_range_meters":38000,"station_id":"ce4bhq12rcd13ifvqhhg","pricing_plan_id":"cebpf4jnsgd1na2vs0mg"},{"bike_id":"09fb4fbe-52e0-4acc-8b3e-3d941377a176","system_id":"levelo_inurba_marseille","lat":43.28147,"lon":5.42641,"is_reserved":false,"is_disabled":false,"rental_uris":{"android":"levelo://app?vid=09fb4fbe-52e0-4acc-8b3e-3d941377a176","ios":"levelo://app?vid=09fb4fbe-52e0-4acc-8b3e-3d941377a176"},"vehicle_type_id":"4","last_reported":1738224672,"current_range_meters":6400,"station_id":"ce4bhnh2rcd13ifvqgug","pricing_plan_id":"cebpf4jnsgd1na2vs0mg"},{"bike_id":"9d2811f0-ab30-43e1-8fef-b9b6cb04c9ac","system_id":"levelo_inurba_marseille","lat":43.29022,"lon":5.38151,"is_reserved":false,"is_disabled":true,"rental_uris":{"android":"levelo://app?vid=9d2811f0-ab30-43e1-8fef-b9b6cb04c9ac","ios":"levelo://app?vid=9d2811f0-ab30-43e1-8fef-b9b6cb04c9ac"},"vehicle_type_id":"4","last_reported":1738224672,"current_range_meters":37600,"station_id":"ce4bh4p2rcd13ifvqe1g","pricing_plan_id":"cebpf4jnsgd1na2vs0mg"},{"bike_id":"c9f4a15b-78cf-4a3a-b0f8-eb8e8f6fcefd","system_id":"levelo_inurba_marseille","lat":43.28371,"lon":5.38643,"is_reserved":false,"is_disabled":false,"rental_uris":{"android":"levelo://app?vid=c9f4a15b-78cf-4a3a-b0f8-eb8e8f6fcefd","ios":"levelo://app?vid=c9f4a15b-78cf-4a3a-b0f8-eb8e8f6fcefd"},"vehicle_type_id":"4","last_reported":1738224672,"current_range_meters":30800,"station_id":"ce4bh492rcd13ifvqdvg","pricing_plan_id":"cebpf4jnsgd1na2vs0mg"},{"bike_id":"96111419-020e-4b85-8005-96ab906d2273","system_id":"levelo_inurba_marseille","lat":43.28177,"lon":5.42693,"is_reserved":false,"is_disabled":false,"rental_uris":{"android":"levelo://app?vid=96111419-020e-4b85-8005-96ab906d2273","ios":"levelo://app?vid=96111419-020e-4b85-8005-96ab906d2273"},"vehicle_type_id":"4","last_reported":1738224672,"current_range_meters":38800,"station_id":"ce4bhnh2rcd13ifvqgug","pricing_plan_id":"cebpf4jnsgd1na2vs0mg"},{"bike_id":"d64cdc92-7a94-488a-83c1-f2a3b1b58bb0","system_id":"levelo_inurba_marseille","lat":43.24086,"lon":5.37729,"is_reserved":false,"is_disabled":false,"rental_uris":{"android":"levelo://app?vid=d64cdc92-7a94-488a-83c1-f2a3b1b58bb0","ios":"levelo://app?vid=d64cdc92-7a94-488a-83c1-f2a3b1b58bb0"},"vehicle_type_id":"4","last_reported":1738224672,"current_range_meters":38800,"station_id":"ce4bhnp2rcd13ifvqgvg","pricing_plan_id":"cebpf4jnsgd1na2vs0mg"},{"bike_id":"9838cc78-2b53-49d3-ae13-82df62c4fd64","system_id":"levelo_inurba_marseille","lat":43.28412,"lon":5.40934,"is_reserved":false,"is_disabled":true,"rental_uris":{"android":"levelo://app?vid=9838cc78-2b53-49d3-ae13-82df62c4fd64","ios":"levelo://app?vid=9838cc78-2b53-49d3-ae13-82df62c4fd64"},"vehicle_type_id":"4","last_reported":1738224672,"current_range_meters":0,"station_id":"","pricing_plan_id":"cebpf4jnsgd1na2vs0mg"},{"bike_id":"01b09b24-35b0-4997-84bb-a5f9f7dc7468","system_id":"levelo_inurba_marseille","lat":43.27339,"lon":5.39052,"is_reserved":false,"is_disabled":false,"rental_uris":{"android":"levelo://app?vid=01b09b24-35b0-4997-84bb-a5f9f7dc7468","ios":"levelo://app?vid=01b09b24-35b0-4997-84bb-a5f9f7dc7468"},"vehicle_type_id":"4","last_reported":1738224672,"current_range_meters":22400,"station_id":"ce4bhgp2rcd13ifvqfe0","pricing_plan_id":"cebpf4jnsgd1na2vs0mg"},{"bike_id":"0b1f4817-4c30-44b7-9201-5f8be66aeb19","system_id":"levelo_inurba_marseille","lat":43.28028,"lon":5.36947,"is_reserved":false,"is_disabled":false,"rental_uris":{"android":"levelo://app?vid=0b1f4817-4c30-44b7-9201-5f8be66aeb19","ios":"levelo://app?vid=0b1f4817-4c30-44b7-9201-5f8be66aeb19"},"vehicle_type_id":"4","last_reported":1738224672,"current_range_meters":38800,"station_id":"ce4bha12rcd13ifvqef0","pricing_plan_id":"cebpf4jnsgd1na2vs0mg"},{"bike_id":"16e2c309-fe3f-49bf-8662-c80333f7fce4","system_id":"levelo_inurba_marseille","lat":43.27315,"lon":5.39081,"is_reserved":false,"is_disabled":false,"rental_uris":{"android":"levelo://app?vid=16e2c309-fe3f-49bf-8662-c80333f7fce4","ios":"levelo://app?vid=16e2c309-fe3f-49bf-8662-c80333f7fce4"},"vehicle_type_id":"4","last_reported":1738224672,"current_range_meters":4800,"station_id":"ce4bhgp2rcd13ifvqfe0","pricing_plan_id":"cebpf4jnsgd1na2vs0mg"},{"bike_id":"cebc1cc3-2475-48cb-aa41-05d47858d44e","system_id":"levelo_inurba_marseille","lat":43.299025,"lon":5.436646,"is_reserved":false,"is_disabled":false,"rental_uris":{"android":"levelo://app?vid=cebc1cc3-2475-48cb-aa41-05d47858d44e","ios":"levelo://app?vid=cebc1cc3-2475-48cb-aa41-05d47858d44e"},"vehicle_type_id":"4","last_reported":1738224672,"current_range_meters":24800,"station_id":"ce4bhpp2rcd13ifvqhfg","pricing_plan_id":"cebpf4jnsgd1na2vs0mg"},{"bike_id":"a6b336c6-34d6-4b26-bccf-abefa3771ff1","system_id":"levelo_inurba_marseille","lat":43.23134,"lon":5.43681,"is_reserved":false,"is_disabled":false,"rental_uris":{"android":"levelo://app?vid=a6b336c6-34d6-4b26-bccf-abefa3771ff1","ios":"levelo://app?vid=a6b336c6-34d6-4b26-bccf-abefa3771ff1"},"vehicle_type_id":"4","last_reported":1738224672,"current_range_meters":39200,"station_id":"ce4bhmp2rcd13ifvqgog","pricing_plan_id":"cebpf4jnsgd1na2vs0mg"},{"bike_id":"891284c1-a8ec-4865-96f8-f5be124b0e9d","system_id":"levelo_inurba_marseille","lat":43.31376,"lon":5.36715,"is_reserved":false,"is_disabled":false,"rental_uris":{"android":"levelo://app?vid=891284c1-a8ec-4865-96f8-f5be124b0e9d","ios":"levelo://app?vid=891284c1-a8ec-4865-96f8-f5be124b0e9d"},"vehicle_type_id":"4","last_reported":1738224672,"current_range_meters":4000,"station_id":"ce4bgr92rcd13ifvqc6g","pricing_plan_id":"cebpf4jnsgd1na2vs0mg"},{"bike_id":"aee1d554-00f9-4e38-b5d9-237fed7e5fca","system_id":"levelo_inurba_marseille","lat":43.29843,"lon":5.36277,"is_reserved":false,"is_disabled":false,"rental_uris":{"android":"levelo://app?vid=aee1d554-00f9-4e38-b5d9-237fed7e5fca","ios":"levelo://app?vid=aee1d554-00f9-4e38-b5d9-237fed7e5fca"},"vehicle_type_id":"4","last_reported":1738224672,"current_range_meters":26000,"station_id":"ce4bgpp2rcd13ifvqc3g","pricing_plan_id":"cebpf4jnsgd1na2vs0mg"},{"bike_id":"78e309f5-beb4-40fa-8263-71befb9e09e2","system_id":"levelo_inurba_marseille","lat":43.27493,"lon":5.42464,"is_reserved":false,"is_disabled":false,"rental_uris":{"android":"levelo://app?vid=78e309f5-beb4-40fa-8263-71befb9e09e2","ios":"levelo://app?vid=78e309f5-beb4-40fa-8263-71befb9e09e2"},"vehicle_type_id":"4","last_reported":1738224672,"current_range_meters":18000,"station_id":"ce4bhn92rcd13ifvqgrg","pricing_plan_id":"cebpf4jnsgd1na2vs0mg"},{"bike_id":"e9246ae8-7707-4738-b58b-b44da0d0b2f9","system_id":"levelo_inurba_marseille","lat":43.24177,"lon":5.39737,"is_reserved":false,"is_disabled":false,"rental_uris":{"android":"levelo://app?vid=e9246ae8-7707-4738-b58b-b44da0d0b2f9","ios":"levelo://app?vid=e9246ae8-7707-4738-b58b-b44da0d0b2f9"},"vehicle_type_id":"4","last_reported":1738224672,"current_range_meters":16000,"station_id":"ce4bhn12rcd13ifvqgpg","pricing_plan_id":"cebpf4jnsgd1na2vs0mg"},{"bike_id":"8316cb10-023d-4bec-a7d1-c688e60191c8","system_id":"levelo_inurba_marseille","lat":43.2816,"lon":5.42655,"is_reserved":false,"is_disabled":false,"rental_uris":{"android":"levelo://app?vid=8316cb10-023d-4bec-a7d1-c688e60191c8","ios":"levelo://app?vid=8316cb10-023d-4bec-a7d1-c688e60191c8"},"vehicle_type_id":"4","last_reported":1738224672,"current_range_meters":10800,"station_id":"ce4bhnh2rcd13ifvqgug","pricing_plan_id":"cebpf4jnsgd1na2vs0mg"},{"bike_id":"43cda217-14ed-4801-819f-f1965303a677","system_id":"levelo_inurba_marseille","lat":43.29554,"lon":5.42279,"is_reserved":false,"is_disabled":false,"rental_uris":{"android":"levelo://app?vid=43cda217-14ed-4801-819f-f1965303a677","ios":"levelo://app?vid=43cda217-14ed-4801-819f-f1965303a677"},"vehicle_type_id":"4","last_reported":1738224672,"current_range_meters":16000,"station_id":"ce4bhph2rcd13ifvqhdg","pricing_plan_id":"cebpf4jnsgd1na2vs0mg"},{"bike_id":"9e00aafe-aeb8-46b9-b8bb-14707274ee0e","system_id":"levelo_inurba_marseille","lat":43.30548,"lon":5.36561,"is_reserved":false,"is_disabled":false,"rental_uris":{"android":"levelo://app?vid=9e00aafe-aeb8-46b9-b8bb-14707274ee0e","ios":"levelo://app?vid=9e00aafe-aeb8-46b9-b8bb-14707274ee0e"},"vehicle_type_id":"4","last_reported":1738224672,"current_range_meters":17600,"station_id":"ce4bgs12rcd13ifvqcag","pricing_plan_id":"cebpf4jnsgd1na2vs0mg"},{"bike_id":"d979d8d2-ec65-47af-9229-e4270aab279a","system_id":"levelo_inurba_marseille","lat":43.23068,"lon":5.35493,"is_reserved":false,"is_disabled":false,"rental_uris":{"android":"levelo://app?vid=d979d8d2-ec65-47af-9229-e4270aab279a","ios":"levelo://app?vid=d979d8d2-ec65-47af-9229-e4270aab279a"},"vehicle_type_id":"4","last_reported":1738224672,"current_range_meters":15200,"station_id":"cpo3342slgdg3j2ifvpg","pricing_plan_id":"cebpf4jnsgd1na2vs0mg"},{"bike_id":"916f6791-fb5c-4b6d-bcfb-910b2369b5e8","system_id":"levelo_inurba_marseille","lat":43.31465,"lon":5.37333,"is_reserved":false,"is_disabled":true,"rental_uris":{"android":"levelo://app?vid=916f6791-fb5c-4b6d-bcfb-910b2369b5e8","ios":"levelo://app?vid=916f6791-fb5c-4b6d-bcfb-910b2369b5e8"},"vehicle_type_id":"4","last_reported":1738224672,"current_range_meters":37600,"station_id":"ce4bgt12rcd13ifvqcd0","pricing_plan_id":"cebpf4jnsgd1na2vs0mg"},{"bike_id":"72fb6c3d-ab9b-438d-9161-f3042c3f00fc","system_id":"levelo_inurba_marseille","lat":43.324198,"lon":5.36985,"is_reserved":false,"is_disabled":false,"rental_uris":{"android":"levelo://app?vid=72fb6c3d-ab9b-438d-9161-f3042c3f00fc","ios":"levelo://app?vid=72fb6c3d-ab9b-438d-9161-f3042c3f00fc"},"vehicle_type_id":"4","last_reported":1738224672,"current_range_meters":38400,"station_id":"","pricing_plan_id":"cebpf4jnsgd1na2vs0mg"},{"bike_id":"8401c82e-2c7e-4101-98a2-b12f578674b6","system_id":"levelo_inurba_marseille","lat":43.28443,"lon":5.39193,"is_reserved":false,"is_disabled":false,"rental_uris":{"android":"levelo://app?vid=8401c82e-2c7e-4101-98a2-b12f578674b6","ios":"levelo://app?vid=8401c82e-2c7e-4101-98a2-b12f578674b6"},"vehicle_type_id":"4","last_reported":1738224672,"current_range_meters":38800,"station_id":"ce4bhoh2rcd13ifvqh5g","pricing_plan_id":"cebpf4jnsgd1na2vs0mg"},{"bike_id":"4b9d69a3-9df6-4088-b015-95b203e90966","system_id":"levelo_inurba_marseille","lat":43.25831,"lon":5.39399,"is_reserved":false,"is_disabled":false,"rental_uris":{"android":"levelo://app?vid=4b9d69a3-9df6-4088-b015-95b203e90966","ios":"levelo://app?vid=4b9d69a3-9df6-4088-b015-95b203e90966"},"vehicle_type_id":"4","last_reported":1738224672,"current_range_meters":39200,"station_id":"ce4bhip2rcd13ifvqft0","pricing_plan_id":"cebpf4jnsgd1na2vs0mg"},{"bike_id":"7d6260ec-6d8c-4d5b-8950-1a493871014c","system_id":"levelo_inurba_marseille","lat":43.29893,"lon":5.43673,"is_reserved":false,"is_disabled":false,"rental_uris":{"android":"levelo://app?vid=7d6260ec-6d8c-4d5b-8950-1a493871014c","ios":"levelo://app?vid=7d6260ec-6d8c-4d5b-8950-1a493871014c"},"vehicle_type_id":"4","last_reported":1738224672,"current_range_meters":35200,"station_id":"ce4bhpp2rcd13ifvqhfg","pricing_plan_id":"cebpf4jnsgd1na2vs0mg"},{"bike_id":"cd809f94-5358-4489-9b94-66123c0ec66d","system_id":"levelo_inurba_marseille","lat":43.27962,"lon":5.38713,"is_reserved":false,"is_disabled":false,"rental_uris":{"android":"levelo://app?vid=cd809f94-5358-4489-9b94-66123c0ec66d","ios":"levelo://app?vid=cd809f94-5358-4489-9b94-66123c0ec66d"},"vehicle_type_id":"4","last_reported":1738224672,"current_range_meters":14000,"station_id":"ce4bhg12rcd13ifvqf80","pricing_plan_id":"cebpf4jnsgd1na2vs0mg"},{"bike_id":"6be92d7d-a8c1-4c68-9c57-5f393165cf28","system_id":"levelo_inurba_marseille","lat":43.27082,"lon":5.42299,"is_reserved":false,"is_disabled":false,"rental_uris":{"android":"levelo://app?vid=6be92d7d-a8c1-4c68-9c57-5f393165cf28","ios":"levelo://app?vid=6be92d7d-a8c1-4c68-9c57-5f393165cf28"},"vehicle_type_id":"4","last_reported":1738224672,"current_range_meters":38800,"station_id":"ce4bhk92rcd13ifvqgb0","pricing_plan_id":"cebpf4jnsgd1na2vs0mg"},{"bike_id":"6c2ef383-feed-4773-8465-7a6e07a76bcc","system_id":"levelo_inurba_marseille","lat":43.30948,"lon":5.39044,"is_reserved":false,"is_disabled":false,"rental_uris":{"android":"levelo://app?vid=6c2ef383-feed-4773-8465-7a6e07a76bcc","ios":"levelo://app?vid=6c2ef383-feed-4773-8465-7a6e07a76bcc"},"vehicle_type_id":"4","last_reported":1738224672,"current_range_meters":20400,"station_id":"ce4bgup2rcd13ifvqco0","pricing_plan_id":"cebpf4jnsgd1na2vs0mg"},{"bike_id":"eefc525c-9394-472c-9a07-edfaa88e8928","system_id":"levelo_inurba_marseille","lat":43.24994,"lon":5.38931,"is_reserved":false,"is_disabled":false,"rental_uris":{"android":"levelo://app?vid=eefc525c-9394-472c-9a07-edfaa88e8928","ios":"levelo://app?vid=eefc525c-9394-472c-9a07-edfaa88e8928"},"vehicle_type_id":"4","last_reported":1738224672,"current_range_meters":26800,"station_id":"ce4bhgp2rcd13ifvqfd0","pricing_plan_id":"cebpf4jnsgd1na2vs0mg"},{"bike_id":"d8b1c3f9-ff6e-4179-8423-4ba0d2a2af0e","system_id":"levelo_inurba_marseille","lat":43.33757,"lon":5.39182,"is_reserved":false,"is_disabled":false,"rental_uris":{"android":"levelo://app?vid=d8b1c3f9-ff6e-4179-8423-4ba0d2a2af0e","ios":"levelo://app?vid=d8b1c3f9-ff6e-4179-8423-4ba0d2a2af0e"},"vehicle_type_id":"4","last_reported":1738224672,"current_range_meters":39200,"station_id":"ce4bhr92rcd13ifvqhsg","pricing_plan_id":"cebpf4jnsgd1na2vs0mg"},{"bike_id":"8fbfaa87-4997-43f3-8d71-b30fc64a490f","system_id":"levelo_inurba_marseille","lat":43.3373,"lon":5.39175,"is_reserved":false,"is_disabled":false,"rental_uris":{"android":"levelo://app?vid=8fbfaa87-4997-43f3-8d71-b30fc64a490f","ios":"levelo://app?vid=8fbfaa87-4997-43f3-8d71-b30fc64a490f"},"vehicle_type_id":"4","last_reported":1738224672,"current_range_meters":28000,"station_id":"ce4bhr92rcd13ifvqhsg","pricing_plan_id":"cebpf4jnsgd1na2vs0mg"},{"bike_id":"40480e75-e0f3-44fe-870b-eeb01551f182","system_id":"levelo_inurba_marseille","lat":43.32541,"lon":5.41423,"is_reserved":false,"is_disabled":false,"rental_uris":{"android":"levelo://app?vid=40480e75-e0f3-44fe-870b-eeb01551f182","ios":"levelo://app?vid=40480e75-e0f3-44fe-870b-eeb01551f182"},"vehicle_type_id":"4","last_reported":1738224672,"current_range_meters":38800,"station_id":"ce4bhq12rcd13ifvqhhg","pricing_plan_id":"cebpf4jnsgd1na2vs0mg"},{"bike_id":"ccb6318c-6994-46f1-b382-d420e97e4a87","system_id":"levelo_inurba_marseille","lat":43.27221,"lon":5.39184,"is_reserved":false,"is_disabled":true,"rental_uris":{"android":"levelo://app?vid=ccb6318c-6994-46f1-b382-d420e97e4a87","ios":"levelo://app?vid=ccb6318c-6994-46f1-b382-d420e97e4a87"},"vehicle_type_id":"4","last_reported":1738224672,"current_range_meters":35200,"station_id":"ce4bhhp2rcd13ifvqfm0","pricing_plan_id":"cebpf4jnsgd1na2vs0mg"},{"bike_id":"c6b22e63-3112-4b18-a4bd-a7ccda40bad7","system_id":"levelo_inurba_marseille","lat":43.29881,"lon":5.38137,"is_reserved":false,"is_disabled":true,"rental_uris":{"android":"levelo://app?vid=c6b22e63-3112-4b18-a4bd-a7ccda40bad7","ios":"levelo://app?vid=c6b22e63-3112-4b18-a4bd-a7ccda40bad7"},"vehicle_type_id":"4","last_reported":1738224672,"current_range_meters":26000,"station_id":"ce4bgj12rcd13ifvqbc0","pricing_plan_id":"cebpf4jnsgd1na2vs0mg"},{"bike_id":"fa3dd353-aa33-4c66-9a77-d64de75adc68","system_id":"levelo_inurba_marseille","lat":43.33606,"lon":5.4102,"is_reserved":false,"is_disabled":false,"rental_uris":{"android":"levelo://app?vid=fa3dd353-aa33-4c66-9a77-d64de75adc68","ios":"levelo://app?vid=fa3dd353-aa33-4c66-9a77-d64de75adc68"},"vehicle_type_id":"4","last_reported":1738224672,"current_range_meters":39200,"station_id":"ce4bhqh2rcd13ifvqhmg","pricing_plan_id":"cebpf4jnsgd1na2vs0mg"},{"bike_id":"cb3bc04a-9e3b-4698-9a05-ebf49125bd2d","system_id":"levelo_inurba_marseille","lat":43.29609,"lon":5.3773,"is_reserved":false,"is_disabled":false,"rental_uris":{"android":"levelo://app?vid=cb3bc04a-9e3b-4698-9a05-ebf49125bd2d","ios":"levelo://app?vid=cb3bc04a-9e3b-4698-9a05-ebf49125bd2d"},"vehicle_type_id":"4","last_reported":1738224672,"current_range_meters":10000,"station_id":"ce4bgi92rcd13ifvqb90","pricing_plan_id":"cebpf4jnsgd1na2vs0mg"},{"bike_id":"7a6fc873-53f3-43c8-be09-2d7549c060bc","system_id":"levelo_inurba_marseille","lat":43.27966,"lon":5.38748,"is_reserved":false,"is_disabled":false,"rental_uris":{"android":"levelo://app?vid=7a6fc873-53f3-43c8-be09-2d7549c060bc","ios":"levelo://app?vid=7a6fc873-53f3-43c8-be09-2d7549c060bc"},"vehicle_type_id":"4","last_reported":1738224672,"current_range_meters":39200,"station_id":"ce4bhg12rcd13ifvqf80","pricing_plan_id":"cebpf4jnsgd1na2vs0mg"},{"bike_id":"3c9c9088-9c27-4609-bc62-8218c0dc2be8","system_id":"levelo_inurba_marseille","lat":43.23193,"lon":5.35551,"is_reserved":false,"is_disabled":false,"rental_uris":{"android":"levelo://app?vid=3c9c9088-9c27-4609-bc62-8218c0dc2be8","ios":"levelo://app?vid=3c9c9088-9c27-4609-bc62-8218c0dc2be8"},"vehicle_type_id":"4","last_reported":1738224672,"current_range_meters":38800,"station_id":"ce4bhu92rcd13ifvqi70","pricing_plan_id":"cebpf4jnsgd1na2vs0mg"},{"bike_id":"c08e670a-c771-4953-be2a-6f30eb811b3d","system_id":"levelo_inurba_marseille","lat":43.29189,"lon":5.39338,"is_reserved":false,"is_disabled":false,"rental_uris":{"android":"levelo://app?vid=c08e670a-c771-4953-be2a-6f30eb811b3d","ios":"levelo://app?vid=c08e670a-c771-4953-be2a-6f30eb811b3d"},"vehicle_type_id":"4","last_reported":1738224672,"current_range_meters":37600,"station_id":"ce4bh192rcd13ifvqdd0","pricing_plan_id":"cebpf4jnsgd1na2vs0mg"},{"bike_id":"9a6334c1-2529-46f5-9be3-482365ba227d","system_id":"levelo_inurba_marseille","lat":43.30156,"lon":5.38089,"is_reserved":false,"is_disabled":false,"rental_uris":{"android":"levelo://app?vid=9a6334c1-2529-46f5-9be3-482365ba227d","ios":"levelo://app?vid=9a6334c1-2529-46f5-9be3-482365ba227d"},"vehicle_type_id":"4","last_reported":1738224672,"current_range_meters":30000,"station_id":"ce4bgjp2rcd13ifvqbh0","pricing_plan_id":"cebpf4jnsgd1na2vs0mg"},{"bike_id":"fa2f1c21-3bfc-46ef-bcba-588774df180a","system_id":"levelo_inurba_marseille","lat":43.25868,"lon":5.39908,"is_reserved":false,"is_disabled":false,"rental_uris":{"android":"levelo://app?vid=fa2f1c21-3bfc-46ef-bcba-588774df180a","ios":"levelo://app?vid=fa2f1c21-3bfc-46ef-bcba-588774df180a"},"vehicle_type_id":"4","last_reported":1738224672,"current_range_meters":16800,"station_id":"ce4bhl92rcd13ifvqghg","pricing_plan_id":"cebpf4jnsgd1na2vs0mg"},{"bike_id":"75ff8319-3a07-4262-a5cc-f0f6983525d0","system_id":"levelo_inurba_marseille","lat":43.30906,"lon":5.36851,"is_reserved":false,"is_disabled":false,"rental_uris":{"android":"levelo://app?vid=75ff8319-3a07-4262-a5cc-f0f6983525d0","ios":"levelo://app?vid=75ff8319-3a07-4262-a5cc-f0f6983525d0"},"vehicle_type_id":"4","last_reported":1738224672,"current_range_meters":17200,"station_id":"ce4bgn92rcd13ifvqbvg","pricing_plan_id":"cebpf4jnsgd1na2vs0mg"},{"bike_id":"98224ce2-7690-4d07-b098-35ab370ee578","system_id":"levelo_inurba_marseille","lat":43.266912,"lon":5.402486,"is_reserved":false,"is_disabled":false,"rental_uris":{"android":"levelo://app?vid=98224ce2-7690-4d07-b098-35ab370ee578","ios":"levelo://app?vid=98224ce2-7690-4d07-b098-35ab370ee578"},"vehicle_type_id":"4","last_reported":1738224672,"current_range_meters":24000,"station_id":"ce501612rcd8frsf0b60","pricing_plan_id":"cebpf4jnsgd1na2vs0mg"},{"bike_id":"e8f38015-3fa3-4dcb-8fd6-12e905a62a2e","system_id":"levelo_inurba_marseille","lat":43.28473,"lon":5.38422,"is_reserved":false,"is_disabled":false,"rental_uris":{"android":"levelo://app?vid=e8f38015-3fa3-4dcb-8fd6-12e905a62a2e","ios":"levelo://app?vid=e8f38015-3fa3-4dcb-8fd6-12e905a62a2e"},"vehicle_type_id":"4","last_reported":1738224672,"current_range_meters":28000,"station_id":"ce4bh512rcd13ifvqe3g","pricing_plan_id":"cebpf4jnsgd1na2vs0mg"},{"bike_id":"8ac3edfc-2133-4196-9e57-43b9623c42ae","system_id":"levelo_inurba_marseille","lat":43.2649,"lon":5.39548,"is_reserved":false,"is_disabled":false,"rental_uris":{"android":"levelo://app?vid=8ac3edfc-2133-4196-9e57-43b9623c42ae","ios":"levelo://app?vid=8ac3edfc-2133-4196-9e57-43b9623c42ae"},"vehicle_type_id":"4","last_reported":1738224672,"current_range_meters":30000,"station_id":"ce4bhi12rcd13ifvqfq0","pricing_plan_id":"cebpf4jnsgd1na2vs0mg"},{"bike_id":"aa8684a0-4372-4167-987c-97a064c030c1","system_id":"levelo_inurba_marseille","lat":43.30687,"lon":5.42228,"is_reserved":false,"is_disabled":true,"rental_uris":{"android":"levelo://app?vid=aa8684a0-4372-4167-987c-97a064c030c1","ios":"levelo://app?vid=aa8684a0-4372-4167-987c-97a064c030c1"},"vehicle_type_id":"4","last_reported":1738224672,"current_range_meters":1200,"station_id":"","pricing_plan_id":"cebpf4jnsgd1na2vs0mg"},{"bike_id":"f0be2065-9b73-406d-99b5-fc49bcfd4677","system_id":"levelo_inurba_marseille","lat":43.30462,"lon":5.37911,"is_reserved":false,"is_disabled":false,"rental_uris":{"android":"levelo://app?vid=f0be2065-9b73-406d-99b5-fc49bcfd4677","ios":"levelo://app?vid=f0be2065-9b73-406d-99b5-fc49bcfd4677"},"vehicle_type_id":"4","last_reported":1738224672,"current_range_meters":28400,"station_id":"ce4bgup2rcd13ifvqcn0","pricing_plan_id":"cebpf4jnsgd1na2vs0mg"},{"bike_id":"18696aa6-29dd-416f-be14-5721f185190f","system_id":"levelo_inurba_marseille","lat":43.30945,"lon":5.39034,"is_reserved":false,"is_disabled":false,"rental_uris":{"android":"levelo://app?vid=18696aa6-29dd-416f-be14-5721f185190f","ios":"levelo://app?vid=18696aa6-29dd-416f-be14-5721f185190f"},"vehicle_type_id":"4","last_reported":1738224672,"current_range_meters":18000,"station_id":"ce4bgup2rcd13ifvqco0","pricing_plan_id":"cebpf4jnsgd1na2vs0mg"},{"bike_id":"08743a1b-760a-40ce-9b81-d210486b71d7","system_id":"levelo_inurba_marseille","lat":43.31706,"lon":5.37801,"is_reserved":false,"is_disabled":false,"rental_uris":{"android":"levelo://app?vid=08743a1b-760a-40ce-9b81-d210486b71d7","ios":"levelo://app?vid=08743a1b-760a-40ce-9b81-d210486b71d7"},"vehicle_type_id":"4","last_reported":1738224672,"current_range_meters":4400,"station_id":"","pricing_plan_id":"cebpf4jnsgd1na2vs0mg"},{"bike_id":"a55b3987-e581-43b1-a743-595f1d7fbf45","system_id":"levelo_inurba_marseille","lat":43.2811,"lon":5.37875,"is_reserved":false,"is_disabled":false,"rental_uris":{"android":"levelo://app?vid=a55b3987-e581-43b1-a743-595f1d7fbf45","ios":"levelo://app?vid=a55b3987-e581-43b1-a743-595f1d7fbf45"},"vehicle_type_id":"4","last_reported":1738224672,"current_range_meters":32800,"station_id":"ce4bha12rcd13ifvqee0","pricing_plan_id":"cebpf4jnsgd1na2vs0mg"},{"bike_id":"9061c30b-f0f7-46e3-8477-d3c2c36b1f53","system_id":"levelo_inurba_marseille","lat":43.28046,"lon":5.36933,"is_reserved":false,"is_disabled":false,"rental_uris":{"android":"levelo://app?vid=9061c30b-f0f7-46e3-8477-d3c2c36b1f53","ios":"levelo://app?vid=9061c30b-f0f7-46e3-8477-d3c2c36b1f53"},"vehicle_type_id":"4","last_reported":1738224672,"current_range_meters":38000,"station_id":"ce4bha12rcd13ifvqef0","pricing_plan_id":"cebpf4jnsgd1na2vs0mg"},{"bike_id":"089c5909-a1d8-45cf-a019-14532e5fc31c","system_id":"levelo_inurba_marseille","lat":43.30111,"lon":5.39871,"is_reserved":false,"is_disabled":false,"rental_uris":{"android":"levelo://app?vid=089c5909-a1d8-45cf-a019-14532e5fc31c","ios":"levelo://app?vid=089c5909-a1d8-45cf-a019-14532e5fc31c"},"vehicle_type_id":"4","last_reported":1738224672,"current_range_meters":20800,"station_id":"ce4bh0h2rcd13ifvqd40","pricing_plan_id":"cebpf4jnsgd1na2vs0mg"},{"bike_id":"fba05ad0-85c5-4e7a-a917-4b9c8e256fa2","system_id":"levelo_inurba_marseille","lat":43.31238,"lon":5.36875,"is_reserved":false,"is_disabled":false,"rental_uris":{"android":"levelo://app?vid=fba05ad0-85c5-4e7a-a917-4b9c8e256fa2","ios":"levelo://app?vid=fba05ad0-85c5-4e7a-a917-4b9c8e256fa2"},"vehicle_type_id":"4","last_reported":1738224672,"current_range_meters":38400,"station_id":"ce4bgl92rcd13ifvqbq0","pricing_plan_id":"cebpf4jnsgd1na2vs0mg"},{"bike_id":"39bd9e28-59f1-42e3-98fa-8269cd3a779a","system_id":"levelo_inurba_marseille","lat":43.28092,"lon":5.39635,"is_reserved":false,"is_disabled":false,"rental_uris":{"android":"levelo://app?vid=39bd9e28-59f1-42e3-98fa-8269cd3a779a","ios":"levelo://app?vid=39bd9e28-59f1-42e3-98fa-8269cd3a779a"},"vehicle_type_id":"4","last_reported":1738224672,"current_range_meters":38800,"station_id":"ce4bho12rcd13ifvqh2g","pricing_plan_id":"cebpf4jnsgd1na2vs0mg"},{"bike_id":"ab2c796a-c23b-4a3a-9534-777b873d6a05","system_id":"levelo_inurba_marseille","lat":43.241699,"lon":5.363991,"is_reserved":false,"is_disabled":false,"rental_uris":{"android":"levelo://app?vid=ab2c796a-c23b-4a3a-9534-777b873d6a05","ios":"levelo://app?vid=ab2c796a-c23b-4a3a-9534-777b873d6a05"},"vehicle_type_id":"4","last_reported":1738224672,"current_range_meters":11600,"station_id":"cpo36qri1sfpv3e86is0","pricing_plan_id":"cebpf4jnsgd1na2vs0mg"},{"bike_id":"7c58405b-86aa-4215-8081-9d9b154e7e95","system_id":"levelo_inurba_marseille","lat":43.31331,"lon":5.36757,"is_reserved":false,"is_disabled":false,"rental_uris":{"android":"levelo://app?vid=7c58405b-86aa-4215-8081-9d9b154e7e95","ios":"levelo://app?vid=7c58405b-86aa-4215-8081-9d9b154e7e95"},"vehicle_type_id":"4","last_reported":1738224672,"current_range_meters":18800,"station_id":"ce4bgr92rcd13ifvqc6g","pricing_plan_id":"cebpf4jnsgd1na2vs0mg"},{"bike_id":"be779ede-a1fa-4b5b-b5f5-a60eda92c592","system_id":"levelo_inurba_marseille","lat":43.24078,"lon":5.37757,"is_reserved":false,"is_disabled":false,"rental_uris":{"android":"levelo://app?vid=be779ede-a1fa-4b5b-b5f5-a60eda92c592","ios":"levelo://app?vid=be779ede-a1fa-4b5b-b5f5-a60eda92c592"},"vehicle_type_id":"4","last_reported":1738224672,"current_range_meters":31200,"station_id":"ce4bhnp2rcd13ifvqgvg","pricing_plan_id":"cebpf4jnsgd1na2vs0mg"},{"bike_id":"42df8366-82e0-4c30-a46f-c1ef1c39e22c","system_id":"levelo_inurba_marseille","lat":43.30533,"lon":5.38423,"is_reserved":false,"is_disabled":false,"rental_uris":{"android":"levelo://app?vid=42df8366-82e0-4c30-a46f-c1ef1c39e22c","ios":"levelo://app?vid=42df8366-82e0-4c30-a46f-c1ef1c39e22c"},"vehicle_type_id":"4","last_reported":1738224672,"current_range_meters":19600,"station_id":"ce4bgg92rcd13ifvqb30","pricing_plan_id":"cebpf4jnsgd1na2vs0mg"},{"bike_id":"fa910578-4caa-4210-aa45-ea80af27e609","system_id":"levelo_inurba_marseille","lat":43.31714,"lon":5.42409,"is_reserved":false,"is_disabled":false,"rental_uris":{"android":"levelo://app?vid=fa910578-4caa-4210-aa45-ea80af27e609","ios":"levelo://app?vid=fa910578-4caa-4210-aa45-ea80af27e609"},"vehicle_type_id":"4","last_reported":1738224672,"current_range_meters":35600,"station_id":"ce4bhp92rcd13ifvqhbg","pricing_plan_id":"cebpf4jnsgd1na2vs0mg"},{"bike_id":"11a7852e-270e-45d9-9892-b44ae6bcec93","system_id":"levelo_inurba_marseille","lat":43.28846,"lon":5.35865,"is_reserved":false,"is_disabled":false,"rental_uris":{"android":"levelo://app?vid=11a7852e-270e-45d9-9892-b44ae6bcec93","ios":"levelo://app?vid=11a7852e-270e-45d9-9892-b44ae6bcec93"},"vehicle_type_id":"4","last_reported":1738224672,"current_range_meters":32800,"station_id":"ce4bhb12rcd13ifvqem0","pricing_plan_id":"cebpf4jnsgd1na2vs0mg"},{"bike_id":"f0f07e84-01c4-443b-852b-4e00b882c1d8","system_id":"levelo_inurba_marseille","lat":43.30799,"lon":5.43525,"is_reserved":false,"is_disabled":false,"rental_uris":{"android":"levelo://app?vid=f0f07e84-01c4-443b-852b-4e00b882c1d8","ios":"levelo://app?vid=f0f07e84-01c4-443b-852b-4e00b882c1d8"},"vehicle_type_id":"4","last_reported":1738224672,"current_range_meters":38800,"station_id":"ce4bhph2rcd13ifvqheg","pricing_plan_id":"cebpf4jnsgd1na2vs0mg"},{"bike_id":"b141262b-93fe-4963-a788-03ad7c9b2213","system_id":"levelo_inurba_marseille","lat":43.26552,"lon":5.37286,"is_reserved":false,"is_disabled":false,"rental_uris":{"android":"levelo://app?vid=b141262b-93fe-4963-a788-03ad7c9b2213","ios":"levelo://app?vid=b141262b-93fe-4963-a788-03ad7c9b2213"},"vehicle_type_id":"4","last_reported":1738224672,"current_range_meters":19600,"station_id":"ce4bhg12rcd13ifvqf70","pricing_plan_id":"cebpf4jnsgd1na2vs0mg"},{"bike_id":"615a0747-8d06-4fbf-b735-2ce44cc12594","system_id":"levelo_inurba_marseille","lat":43.32376,"lon":5.38874,"is_reserved":false,"is_disabled":false,"rental_uris":{"android":"levelo://app?vid=615a0747-8d06-4fbf-b735-2ce44cc12594","ios":"levelo://app?vid=615a0747-8d06-4fbf-b735-2ce44cc12594"},"vehicle_type_id":"4","last_reported":1738224672,"current_range_meters":16800,"station_id":"ce4bhqp2rcd13ifvqhog","pricing_plan_id":"cebpf4jnsgd1na2vs0mg"},{"bike_id":"940d189d-6721-4f82-bae1-5a9e9e8ab03b","system_id":"levelo_inurba_marseille","lat":43.30906,"lon":5.36856,"is_reserved":false,"is_disabled":false,"rental_uris":{"android":"levelo://app?vid=940d189d-6721-4f82-bae1-5a9e9e8ab03b","ios":"levelo://app?vid=940d189d-6721-4f82-bae1-5a9e9e8ab03b"},"vehicle_type_id":"4","last_reported":1738224672,"current_range_meters":22000,"station_id":"ce4bgn92rcd13ifvqbvg","pricing_plan_id":"cebpf4jnsgd1na2vs0mg"},{"bike_id":"147c6e83-12ef-48d2-b416-b057e0bd8af3","system_id":"levelo_inurba_marseille","lat":43.27953,"lon":5.41042,"is_reserved":false,"is_disabled":false,"rental_uris":{"android":"levelo://app?vid=147c6e83-12ef-48d2-b416-b057e0bd8af3","ios":"levelo://app?vid=147c6e83-12ef-48d2-b416-b057e0bd8af3"},"vehicle_type_id":"4","last_reported":1738224672,"current_range_meters":33200,"station_id":"ce4bhnp2rcd13ifvqh0g","pricing_plan_id":"cebpf4jnsgd1na2vs0mg"},{"bike_id":"3afe2907-14fe-40b0-8ce8-247215ed16c8","system_id":"levelo_inurba_marseille","lat":43.269467,"lon":5.389206,"is_reserved":false,"is_disabled":true,"rental_uris":{"android":"levelo://app?vid=3afe2907-14fe-40b0-8ce8-247215ed16c8","ios":"levelo://app?vid=3afe2907-14fe-40b0-8ce8-247215ed16c8"},"vehicle_type_id":"4","last_reported":1738224672,"current_range_meters":400,"station_id":"ce4bhhh2rcd13ifvqfl0","pricing_plan_id":"cebpf4jnsgd1na2vs0mg"},{"bike_id":"e8e1f7c6-d773-4c38-bfcc-4a6d773355ce","system_id":"levelo_inurba_marseille","lat":43.22933,"lon":5.35386,"is_reserved":false,"is_disabled":false,"rental_uris":{"android":"levelo://app?vid=e8e1f7c6-d773-4c38-bfcc-4a6d773355ce","ios":"levelo://app?vid=e8e1f7c6-d773-4c38-bfcc-4a6d773355ce"},"vehicle_type_id":"4","last_reported":1738224672,"current_range_meters":38800,"station_id":"cpo3532slgdg3j2ikp40","pricing_plan_id":"cebpf4jnsgd1na2vs0mg"},{"bike_id":"f48cc0bf-45e5-4ca8-9c5f-61a072d9e099","system_id":"levelo_inurba_marseille","lat":43.27995,"lon":5.41662,"is_reserved":false,"is_disabled":false,"rental_uris":{"android":"levelo://app?vid=f48cc0bf-45e5-4ca8-9c5f-61a072d9e099","ios":"levelo://app?vid=f48cc0bf-45e5-4ca8-9c5f-61a072d9e099"},"vehicle_type_id":"4","last_reported":1738224672,"current_range_meters":11200,"station_id":"ce4bho12rcd13ifvqh1g","pricing_plan_id":"cebpf4jnsgd1na2vs0mg"},{"bike_id":"260c3224-c3e5-4a9a-a5e4-8a6ee28f69e2","system_id":"levelo_inurba_marseille","lat":43.28099,"lon":5.37852,"is_reserved":false,"is_disabled":false,"rental_uris":{"android":"levelo://app?vid=260c3224-c3e5-4a9a-a5e4-8a6ee28f69e2","ios":"levelo://app?vid=260c3224-c3e5-4a9a-a5e4-8a6ee28f69e2"},"vehicle_type_id":"4","last_reported":1738224672,"current_range_meters":30400,"station_id":"ce4bha12rcd13ifvqee0","pricing_plan_id":"cebpf4jnsgd1na2vs0mg"},{"bike_id":"d779a66a-a000-4b02-80ac-21b7ea5b1407","system_id":"levelo_inurba_marseille","lat":43.25938,"lon":5.40907,"is_reserved":false,"is_disabled":false,"rental_uris":{"android":"levelo://app?vid=d779a66a-a000-4b02-80ac-21b7ea5b1407","ios":"levelo://app?vid=d779a66a-a000-4b02-80ac-21b7ea5b1407"},"vehicle_type_id":"4","last_reported":1738224672,"current_range_meters":32800,"station_id":"ce4bhm92rcd13ifvqglg","pricing_plan_id":"cebpf4jnsgd1na2vs0mg"},{"bike_id":"dcc09b49-a81a-42a9-a8e6-ed8eb579a833","system_id":"levelo_inurba_marseille","lat":43.31095,"lon":5.42446,"is_reserved":false,"is_disabled":false,"rental_uris":{"android":"levelo://app?vid=dcc09b49-a81a-42a9-a8e6-ed8eb579a833","ios":"levelo://app?vid=dcc09b49-a81a-42a9-a8e6-ed8eb579a833"},"vehicle_type_id":"4","last_reported":1738224672,"current_range_meters":5600,"station_id":"ce4bhp92rcd13ifvqhag","pricing_plan_id":"cebpf4jnsgd1na2vs0mg"},{"bike_id":"ba31f84e-cbe5-49e8-9983-339e553731ce","system_id":"levelo_inurba_marseille","lat":43.3265,"lon":5.40994,"is_reserved":false,"is_disabled":true,"rental_uris":{"android":"levelo://app?vid=ba31f84e-cbe5-49e8-9983-339e553731ce","ios":"levelo://app?vid=ba31f84e-cbe5-49e8-9983-339e553731ce"},"vehicle_type_id":"4","last_reported":1738224672,"current_range_meters":0,"station_id":"ce4bhpp2rcd13ifvqhgg","pricing_plan_id":"cebpf4jnsgd1na2vs0mg"},{"bike_id":"95f3fc17-6a41-40a4-b479-d262636704b8","system_id":"levelo_inurba_marseille","lat":43.30903,"lon":5.36845,"is_reserved":false,"is_disabled":false,"rental_uris":{"android":"levelo://app?vid=95f3fc17-6a41-40a4-b479-d262636704b8","ios":"levelo://app?vid=95f3fc17-6a41-40a4-b479-d262636704b8"},"vehicle_type_id":"4","last_reported":1738224672,"current_range_meters":30800,"station_id":"ce4bgn92rcd13ifvqbvg","pricing_plan_id":"cebpf4jnsgd1na2vs0mg"},{"bike_id":"dd195832-ff3f-4763-a260-74003ef7ff4c","system_id":"levelo_inurba_marseille","lat":43.29231,"lon":5.36088,"is_reserved":false,"is_disabled":false,"rental_uris":{"android":"levelo://app?vid=dd195832-ff3f-4763-a260-74003ef7ff4c","ios":"levelo://app?vid=dd195832-ff3f-4763-a260-74003ef7ff4c"},"vehicle_type_id":"4","last_reported":1738224672,"current_range_meters":30000,"station_id":"ce4bhbh2rcd13ifvqeqg","pricing_plan_id":"cebpf4jnsgd1na2vs0mg"},{"bike_id":"552527dc-d1c8-4e16-82e2-511e2e5dd97c","system_id":"levelo_inurba_marseille","lat":43.28939,"lon":5.39633,"is_reserved":false,"is_disabled":false,"rental_uris":{"android":"levelo://app?vid=552527dc-d1c8-4e16-82e2-511e2e5dd97c","ios":"levelo://app?vid=552527dc-d1c8-4e16-82e2-511e2e5dd97c"},"vehicle_type_id":"4","last_reported":1738224672,"current_range_meters":7200,"station_id":"ce4bh3h2rcd13ifvqdn0","pricing_plan_id":"cebpf4jnsgd1na2vs0mg"},{"bike_id":"86f188b2-2ec9-4c74-a256-370b82e619b0","system_id":"levelo_inurba_marseille","lat":43.29641,"lon":5.40019,"is_reserved":false,"is_disabled":false,"rental_uris":{"android":"levelo://app?vid=86f188b2-2ec9-4c74-a256-370b82e619b0","ios":"levelo://app?vid=86f188b2-2ec9-4c74-a256-370b82e619b0"},"vehicle_type_id":"4","last_reported":1738224672,"current_range_meters":22800,"station_id":"","pricing_plan_id":"cebpf4jnsgd1na2vs0mg"},{"bike_id":"c1d1ce73-8f8f-42c4-8303-66858ad4f592","system_id":"levelo_inurba_marseille","lat":43.27488,"lon":5.42473,"is_reserved":false,"is_disabled":true,"rental_uris":{"android":"levelo://app?vid=c1d1ce73-8f8f-42c4-8303-66858ad4f592","ios":"levelo://app?vid=c1d1ce73-8f8f-42c4-8303-66858ad4f592"},"vehicle_type_id":"4","last_reported":1738224672,"current_range_meters":24800,"station_id":"ce4bhn92rcd13ifvqgrg","pricing_plan_id":"cebpf4jnsgd1na2vs0mg"},{"bike_id":"02743c9f-ffc1-4639-a2fd-1a0efb71904e","system_id":"levelo_inurba_marseille","lat":43.27998,"lon":5.40014,"is_reserved":false,"is_disabled":false,"rental_uris":{"android":"levelo://app?vid=02743c9f-ffc1-4639-a2fd-1a0efb71904e","ios":"levelo://app?vid=02743c9f-ffc1-4639-a2fd-1a0efb71904e"},"vehicle_type_id":"4","last_reported":1738224672,"current_range_meters":38400,"station_id":"ce4bho92rcd13ifvqh4g","pricing_plan_id":"cebpf4jnsgd1na2vs0mg"},{"bike_id":"71f34f72-d3b7-46a5-9bd4-1fe057b3152f","system_id":"levelo_inurba_marseille","lat":43.22923,"lon":5.35378,"is_reserved":false,"is_disabled":false,"rental_uris":{"android":"levelo://app?vid=71f34f72-d3b7-46a5-9bd4-1fe057b3152f","ios":"levelo://app?vid=71f34f72-d3b7-46a5-9bd4-1fe057b3152f"},"vehicle_type_id":"4","last_reported":1738224672,"current_range_meters":38800,"station_id":"cpo3532slgdg3j2ikp40","pricing_plan_id":"cebpf4jnsgd1na2vs0mg"},{"bike_id":"66c12baa-9477-443c-ad62-ceeda86c1e58","system_id":"levelo_inurba_marseille","lat":43.25873,"lon":5.39909,"is_reserved":false,"is_disabled":false,"rental_uris":{"android":"levelo://app?vid=66c12baa-9477-443c-ad62-ceeda86c1e58","ios":"levelo://app?vid=66c12baa-9477-443c-ad62-ceeda86c1e58"},"vehicle_type_id":"4","last_reported":1738224672,"current_range_meters":2800,"station_id":"ce4bhl92rcd13ifvqghg","pricing_plan_id":"cebpf4jnsgd1na2vs0mg"},{"bike_id":"20029bdd-9f9c-4ff9-86e4-5ba6ed30f46a","system_id":"levelo_inurba_marseille","lat":43.23147,"lon":5.4371,"is_reserved":false,"is_disabled":true,"rental_uris":{"android":"levelo://app?vid=20029bdd-9f9c-4ff9-86e4-5ba6ed30f46a","ios":"levelo://app?vid=20029bdd-9f9c-4ff9-86e4-5ba6ed30f46a"},"vehicle_type_id":"4","last_reported":1738224672,"current_range_meters":0,"station_id":"ce4bhmp2rcd13ifvqgog","pricing_plan_id":"cebpf4jnsgd1na2vs0mg"},{"bike_id":"7a60242d-918e-4c18-baaa-0a5b2f8f4ccf","system_id":"levelo_inurba_marseille","lat":43.26783,"lon":5.39423,"is_reserved":false,"is_disabled":false,"rental_uris":{"android":"levelo://app?vid=7a60242d-918e-4c18-baaa-0a5b2f8f4ccf","ios":"levelo://app?vid=7a60242d-918e-4c18-baaa-0a5b2f8f4ccf"},"vehicle_type_id":"4","last_reported":1738224672,"current_range_meters":28800,"station_id":"ce4bhh12rcd13ifvqfg0","pricing_plan_id":"cebpf4jnsgd1na2vs0mg"},{"bike_id":"a335131c-b12c-433f-9f2c-1edb5549eb18","system_id":"levelo_inurba_marseille","lat":43.30179,"lon":5.38068,"is_reserved":false,"is_disabled":false,"rental_uris":{"android":"levelo://app?vid=a335131c-b12c-433f-9f2c-1edb5549eb18","ios":"levelo://app?vid=a335131c-b12c-433f-9f2c-1edb5549eb18"},"vehicle_type_id":"4","last_reported":1738224672,"current_range_meters":23200,"station_id":"ce4bgjp2rcd13ifvqbh0","pricing_plan_id":"cebpf4jnsgd1na2vs0mg"},{"bike_id":"54be9070-7190-4bee-be47-845d7f7f7fa0","system_id":"levelo_inurba_marseille","lat":43.30153,"lon":5.38084,"is_reserved":false,"is_disabled":false,"rental_uris":{"android":"levelo://app?vid=54be9070-7190-4bee-be47-845d7f7f7fa0","ios":"levelo://app?vid=54be9070-7190-4bee-be47-845d7f7f7fa0"},"vehicle_type_id":"4","last_reported":1738224672,"current_range_meters":33600,"station_id":"ce4bgjp2rcd13ifvqbh0","pricing_plan_id":"cebpf4jnsgd1na2vs0mg"},{"bike_id":"c1c52d7b-f4b7-4049-ae1e-b30d91141d82","system_id":"levelo_inurba_marseille","lat":43.30479,"lon":5.37903,"is_reserved":false,"is_disabled":false,"rental_uris":{"android":"levelo://app?vid=c1c52d7b-f4b7-4049-ae1e-b30d91141d82","ios":"levelo://app?vid=c1c52d7b-f4b7-4049-ae1e-b30d91141d82"},"vehicle_type_id":"4","last_reported":1738224672,"current_range_meters":18800,"station_id":"ce4bgup2rcd13ifvqcn0","pricing_plan_id":"cebpf4jnsgd1na2vs0mg"},{"bike_id":"715c8eb8-e509-4ca1-9c23-ef71794f13fb","system_id":"levelo_inurba_marseille","lat":43.31353,"lon":5.36772,"is_reserved":false,"is_disabled":false,"rental_uris":{"android":"levelo://app?vid=715c8eb8-e509-4ca1-9c23-ef71794f13fb","ios":"levelo://app?vid=715c8eb8-e509-4ca1-9c23-ef71794f13fb"},"vehicle_type_id":"4","last_reported":1738224672,"current_range_meters":10800,"station_id":"ce4bgr92rcd13ifvqc6g","pricing_plan_id":"cebpf4jnsgd1na2vs0mg"},{"bike_id":"7698b571-19ca-4d7b-b776-b20c74b54ead","system_id":"levelo_inurba_marseille","lat":43.2603,"lon":5.37552,"is_reserved":false,"is_disabled":false,"rental_uris":{"android":"levelo://app?vid=7698b571-19ca-4d7b-b776-b20c74b54ead","ios":"levelo://app?vid=7698b571-19ca-4d7b-b776-b20c74b54ead"},"vehicle_type_id":"4","last_reported":1738224672,"current_range_meters":38000,"station_id":"ce4bhgh2rcd13ifvqfa0","pricing_plan_id":"cebpf4jnsgd1na2vs0mg"},{"bike_id":"bee89fe1-75de-4aa4-8834-a29197d70af2","system_id":"levelo_inurba_marseille","lat":43.30824,"lon":5.37125,"is_reserved":false,"is_disabled":true,"rental_uris":{"android":"levelo://app?vid=bee89fe1-75de-4aa4-8834-a29197d70af2","ios":"levelo://app?vid=bee89fe1-75de-4aa4-8834-a29197d70af2"},"vehicle_type_id":"4","last_reported":1738224672,"current_range_meters":0,"station_id":"","pricing_plan_id":"cebpf4jnsgd1na2vs0mg"},{"bike_id":"88801b67-2b4f-4bfb-b289-5e43f41171d3","system_id":"levelo_inurba_marseille","lat":43.29624,"lon":5.40592,"is_reserved":false,"is_disabled":false,"rental_uris":{"android":"levelo://app?vid=88801b67-2b4f-4bfb-b289-5e43f41171d3","ios":"levelo://app?vid=88801b67-2b4f-4bfb-b289-5e43f41171d3"},"vehicle_type_id":"4","last_reported":1738224672,"current_range_meters":20400,"station_id":"ce4bh0h2rcd13ifvqd60","pricing_plan_id":"cebpf4jnsgd1na2vs0mg"},{"bike_id":"2ec84c22-8666-467b-b9ab-b38e4ac8ff9f","system_id":"levelo_inurba_marseille","lat":43.29908,"lon":5.4365,"is_reserved":false,"is_disabled":true,"rental_uris":{"android":"levelo://app?vid=2ec84c22-8666-467b-b9ab-b38e4ac8ff9f","ios":"levelo://app?vid=2ec84c22-8666-467b-b9ab-b38e4ac8ff9f"},"vehicle_type_id":"4","last_reported":1738224672,"current_range_meters":30000,"station_id":"ce4bhpp2rcd13ifvqhfg","pricing_plan_id":"cebpf4jnsgd1na2vs0mg"},{"bike_id":"f0257b8a-47fd-4df3-aa97-665327835068","system_id":"levelo_inurba_marseille","lat":43.29029,"lon":5.38123,"is_reserved":false,"is_disabled":true,"rental_uris":{"android":"levelo://app?vid=f0257b8a-47fd-4df3-aa97-665327835068","ios":"levelo://app?vid=f0257b8a-47fd-4df3-aa97-665327835068"},"vehicle_type_id":"4","last_reported":1738224672,"current_range_meters":0,"station_id":"ce4bh4p2rcd13ifvqe1g","pricing_plan_id":"cebpf4jnsgd1na2vs0mg"},{"bike_id":"b9a50915-3a27-4f4b-9527-064f84507f1d","system_id":"levelo_inurba_marseille","lat":43.24075,"lon":5.37759,"is_reserved":false,"is_disabled":false,"rental_uris":{"android":"levelo://app?vid=b9a50915-3a27-4f4b-9527-064f84507f1d","ios":"levelo://app?vid=b9a50915-3a27-4f4b-9527-064f84507f1d"},"vehicle_type_id":"4","last_reported":1738224672,"current_range_meters":4800,"station_id":"ce4bhnp2rcd13ifvqgvg","pricing_plan_id":"cebpf4jnsgd1na2vs0mg"},{"bike_id":"19329eb2-7113-41d0-b698-36ef23b4839f","system_id":"levelo_inurba_marseille","lat":43.24071,"lon":5.37752,"is_reserved":false,"is_disabled":false,"rental_uris":{"android":"levelo://app?vid=19329eb2-7113-41d0-b698-36ef23b4839f","ios":"levelo://app?vid=19329eb2-7113-41d0-b698-36ef23b4839f"},"vehicle_type_id":"4","last_reported":1738224672,"current_range_meters":39200,"station_id":"ce4bhnp2rcd13ifvqgvg","pricing_plan_id":"cebpf4jnsgd1na2vs0mg"},{"bike_id":"ec184c8f-729e-40bc-b163-773aef833942","system_id":"levelo_inurba_marseille","lat":43.30532,"lon":5.36552,"is_reserved":false,"is_disabled":false,"rental_uris":{"android":"levelo://app?vid=ec184c8f-729e-40bc-b163-773aef833942","ios":"levelo://app?vid=ec184c8f-729e-40bc-b163-773aef833942"},"vehicle_type_id":"4","last_reported":1738224672,"current_range_meters":34800,"station_id":"ce4bgs12rcd13ifvqcag","pricing_plan_id":"cebpf4jnsgd1na2vs0mg"},{"bike_id":"296acca2-a355-4830-bc97-a6939a85f573","system_id":"levelo_inurba_marseille","lat":43.25592,"lon":5.38239,"is_reserved":false,"is_disabled":false,"rental_uris":{"android":"levelo://app?vid=296acca2-a355-4830-bc97-a6939a85f573","ios":"levelo://app?vid=296acca2-a355-4830-bc97-a6939a85f573"},"vehicle_type_id":"4","last_reported":1738224672,"current_range_meters":20000,"station_id":"ce4bhih2rcd13ifvqfs0","pricing_plan_id":"cebpf4jnsgd1na2vs0mg"},{"bike_id":"69311afe-3d11-4d33-bd7f-5a46e643a98b","system_id":"levelo_inurba_marseille","lat":43.2706,"lon":5.40279,"is_reserved":false,"is_disabled":false,"rental_uris":{"android":"levelo://app?vid=69311afe-3d11-4d33-bd7f-5a46e643a98b","ios":"levelo://app?vid=69311afe-3d11-4d33-bd7f-5a46e643a98b"},"vehicle_type_id":"4","last_reported":1738224672,"current_range_meters":16800,"station_id":"ce4bhk92rcd13ifvqgc0","pricing_plan_id":"cebpf4jnsgd1na2vs0mg"},{"bike_id":"925464aa-a3c8-43ea-bb06-cf2b7a19f94d","system_id":"levelo_inurba_marseille","lat":43.26057,"lon":5.39404,"is_reserved":false,"is_disabled":false,"rental_uris":{"android":"levelo://app?vid=925464aa-a3c8-43ea-bb06-cf2b7a19f94d","ios":"levelo://app?vid=925464aa-a3c8-43ea-bb06-cf2b7a19f94d"},"vehicle_type_id":"4","last_reported":1738224672,"current_range_meters":38800,"station_id":"ce4bhh92rcd13ifvqfj0","pricing_plan_id":"cebpf4jnsgd1na2vs0mg"},{"bike_id":"ddd46040-8311-4f5c-89c2-37543ac9c47d","system_id":"levelo_inurba_marseille","lat":43.303524,"lon":5.418884,"is_reserved":false,"is_disabled":false,"rental_uris":{"android":"levelo://app?vid=ddd46040-8311-4f5c-89c2-37543ac9c47d","ios":"levelo://app?vid=ddd46040-8311-4f5c-89c2-37543ac9c47d"},"vehicle_type_id":"4","last_reported":1738224672,"current_range_meters":28400,"station_id":"ce4bhop2rcd13ifvqh7g","pricing_plan_id":"cebpf4jnsgd1na2vs0mg"},{"bike_id":"365fac30-5adb-41ee-85b3-840a5c983b3b","system_id":"levelo_inurba_marseille","lat":43.32465,"lon":5.36559,"is_reserved":false,"is_disabled":false,"rental_uris":{"android":"levelo://app?vid=365fac30-5adb-41ee-85b3-840a5c983b3b","ios":"levelo://app?vid=365fac30-5adb-41ee-85b3-840a5c983b3b"},"vehicle_type_id":"4","last_reported":1738224672,"current_range_meters":31200,"station_id":"ce4bhs12rcd13ifvqhvg","pricing_plan_id":"cebpf4jnsgd1na2vs0mg"},{"bike_id":"b176c437-3791-45a7-95a3-ec2019ff516f","system_id":"levelo_inurba_marseille","lat":43.24072,"lon":5.37764,"is_reserved":false,"is_disabled":false,"rental_uris":{"android":"levelo://app?vid=b176c437-3791-45a7-95a3-ec2019ff516f","ios":"levelo://app?vid=b176c437-3791-45a7-95a3-ec2019ff516f"},"vehicle_type_id":"4","last_reported":1738224672,"current_range_meters":38000,"station_id":"ce4bhnp2rcd13ifvqgvg","pricing_plan_id":"cebpf4jnsgd1na2vs0mg"},{"bike_id":"1af203ab-771e-4433-8937-d15f0f9964af","system_id":"levelo_inurba_marseille","lat":43.28697,"lon":5.39991,"is_reserved":false,"is_disabled":true,"rental_uris":{"android":"levelo://app?vid=1af203ab-771e-4433-8937-d15f0f9964af","ios":"levelo://app?vid=1af203ab-771e-4433-8937-d15f0f9964af"},"vehicle_type_id":"4","last_reported":1738224672,"current_range_meters":800,"station_id":"ce4bho92rcd13ifvqh3g","pricing_plan_id":"cebpf4jnsgd1na2vs0mg"},{"bike_id":"a514b0b0-2ced-41ee-9717-5fc14793a905","system_id":"levelo_inurba_marseille","lat":43.30487,"lon":5.37913,"is_reserved":false,"is_disabled":false,"rental_uris":{"android":"levelo://app?vid=a514b0b0-2ced-41ee-9717-5fc14793a905","ios":"levelo://app?vid=a514b0b0-2ced-41ee-9717-5fc14793a905"},"vehicle_type_id":"4","last_reported":1738224672,"current_range_meters":25600,"station_id":"ce4bgup2rcd13ifvqcn0","pricing_plan_id":"cebpf4jnsgd1na2vs0mg"},{"bike_id":"91cb2014-9ed5-41df-9ec7-498ff48f70b1","system_id":"levelo_inurba_marseille","lat":43.32113,"lon":5.36775,"is_reserved":false,"is_disabled":false,"rental_uris":{"android":"levelo://app?vid=91cb2014-9ed5-41df-9ec7-498ff48f70b1","ios":"levelo://app?vid=91cb2014-9ed5-41df-9ec7-498ff48f70b1"},"vehicle_type_id":"4","last_reported":1738224672,"current_range_meters":19200,"station_id":"ce4bhrh2rcd13ifvqhug","pricing_plan_id":"cebpf4jnsgd1na2vs0mg"},{"bike_id":"35a5c402-13ca-468f-8a93-76197813b571","system_id":"levelo_inurba_marseille","lat":43.25925,"lon":5.40899,"is_reserved":false,"is_disabled":true,"rental_uris":{"android":"levelo://app?vid=35a5c402-13ca-468f-8a93-76197813b571","ios":"levelo://app?vid=35a5c402-13ca-468f-8a93-76197813b571"},"vehicle_type_id":"4","last_reported":1738224672,"current_range_meters":38000,"station_id":"ce4bhm92rcd13ifvqglg","pricing_plan_id":"cebpf4jnsgd1na2vs0mg"},{"bike_id":"1fd0a7be-ca62-475c-82f2-378674288d1f","system_id":"levelo_inurba_marseille","lat":43.26229,"lon":5.40448,"is_reserved":false,"is_disabled":false,"rental_uris":{"android":"levelo://app?vid=1fd0a7be-ca62-475c-82f2-378674288d1f","ios":"levelo://app?vid=1fd0a7be-ca62-475c-82f2-378674288d1f"},"vehicle_type_id":"4","last_reported":1738224672,"current_range_meters":36800,"station_id":"ce4bhmh2rcd13ifvqgmg","pricing_plan_id":"cebpf4jnsgd1na2vs0mg"},{"bike_id":"f9d35a32-65b2-4842-bd83-8cbe10324274","system_id":"levelo_inurba_marseille","lat":43.28618,"lon":5.35119,"is_reserved":false,"is_disabled":false,"rental_uris":{"android":"levelo://app?vid=f9d35a32-65b2-4842-bd83-8cbe10324274","ios":"levelo://app?vid=f9d35a32-65b2-4842-bd83-8cbe10324274"},"vehicle_type_id":"4","last_reported":1738224672,"current_range_meters":18800,"station_id":"ce4bhch2rcd13ifvqeug","pricing_plan_id":"cebpf4jnsgd1na2vs0mg"},{"bike_id":"258c223c-46d6-47bb-80c4-3b4c4df01fd5","system_id":"levelo_inurba_marseille","lat":43.29246,"lon":5.38434,"is_reserved":false,"is_disabled":true,"rental_uris":{"android":"levelo://app?vid=258c223c-46d6-47bb-80c4-3b4c4df01fd5","ios":"levelo://app?vid=258c223c-46d6-47bb-80c4-3b4c4df01fd5"},"vehicle_type_id":"4","last_reported":1738224672,"current_range_meters":0,"station_id":"ce4bh692rcd13ifvqea0","pricing_plan_id":"cebpf4jnsgd1na2vs0mg"},{"bike_id":"57ea5f77-abf9-41ff-8ffe-e281a2630bfe","system_id":"levelo_inurba_marseille","lat":43.28082,"lon":5.39658,"is_reserved":false,"is_disabled":false,"rental_uris":{"android":"levelo://app?vid=57ea5f77-abf9-41ff-8ffe-e281a2630bfe","ios":"levelo://app?vid=57ea5f77-abf9-41ff-8ffe-e281a2630bfe"},"vehicle_type_id":"4","last_reported":1738224672,"current_range_meters":38800,"station_id":"ce4bho12rcd13ifvqh2g","pricing_plan_id":"cebpf4jnsgd1na2vs0mg"},{"bike_id":"60617cd3-0b21-4dda-9c94-b6f17b66ca0f","system_id":"levelo_inurba_marseille","lat":43.24661,"lon":5.3815,"is_reserved":false,"is_disabled":false,"rental_uris":{"android":"levelo://app?vid=60617cd3-0b21-4dda-9c94-b6f17b66ca0f","ios":"levelo://app?vid=60617cd3-0b21-4dda-9c94-b6f17b66ca0f"},"vehicle_type_id":"4","last_reported":1738224672,"current_range_meters":22000,"station_id":"ce4bhih2rcd13ifvqfr0","pricing_plan_id":"cebpf4jnsgd1na2vs0mg"},{"bike_id":"1f0f1f38-2e63-4d65-b2d3-890f18eb8334","system_id":"levelo_inurba_marseille","lat":43.26201,"lon":5.37933,"is_reserved":false,"is_disabled":false,"rental_uris":{"android":"levelo://app?vid=1f0f1f38-2e63-4d65-b2d3-890f18eb8334","ios":"levelo://app?vid=1f0f1f38-2e63-4d65-b2d3-890f18eb8334"},"vehicle_type_id":"4","last_reported":1738224672,"current_range_meters":23200,"station_id":"ce4bhjp2rcd13ifvqg90","pricing_plan_id":"cebpf4jnsgd1na2vs0mg"},{"bike_id":"b36c906d-b87a-42e3-922f-8e83776e60de","system_id":"levelo_inurba_marseille","lat":43.31344,"lon":5.36748,"is_reserved":false,"is_disabled":false,"rental_uris":{"android":"levelo://app?vid=b36c906d-b87a-42e3-922f-8e83776e60de","ios":"levelo://app?vid=b36c906d-b87a-42e3-922f-8e83776e60de"},"vehicle_type_id":"4","last_reported":1738224672,"current_range_meters":39200,"station_id":"ce4bgr92rcd13ifvqc6g","pricing_plan_id":"cebpf4jnsgd1na2vs0mg"},{"bike_id":"d543a3a0-6e69-4ea4-9d64-d6577a360668","system_id":"levelo_inurba_marseille","lat":43.30349,"lon":5.41894,"is_reserved":false,"is_disabled":false,"rental_uris":{"android":"levelo://app?vid=d543a3a0-6e69-4ea4-9d64-d6577a360668","ios":"levelo://app?vid=d543a3a0-6e69-4ea4-9d64-d6577a360668"},"vehicle_type_id":"4","last_reported":1738224672,"current_range_meters":38800,"station_id":"ce4bhop2rcd13ifvqh7g","pricing_plan_id":"cebpf4jnsgd1na2vs0mg"},{"bike_id":"27c248eb-bdf3-4542-a6fc-a16b24da2907","system_id":"levelo_inurba_marseille","lat":43.30901,"lon":5.36845,"is_reserved":false,"is_disabled":false,"rental_uris":{"android":"levelo://app?vid=27c248eb-bdf3-4542-a6fc-a16b24da2907","ios":"levelo://app?vid=27c248eb-bdf3-4542-a6fc-a16b24da2907"},"vehicle_type_id":"4","last_reported":1738224672,"current_range_meters":38800,"station_id":"ce4bgn92rcd13ifvqbvg","pricing_plan_id":"cebpf4jnsgd1na2vs0mg"},{"bike_id":"daa77b68-dd0f-4d8a-bf00-fd607cc44ed7","system_id":"levelo_inurba_marseille","lat":43.33605,"lon":5.41036,"is_reserved":false,"is_disabled":false,"rental_uris":{"android":"levelo://app?vid=daa77b68-dd0f-4d8a-bf00-fd607cc44ed7","ios":"levelo://app?vid=daa77b68-dd0f-4d8a-bf00-fd607cc44ed7"},"vehicle_type_id":"4","last_reported":1738224672,"current_range_meters":18800,"station_id":"ce4bhqh2rcd13ifvqhmg","pricing_plan_id":"cebpf4jnsgd1na2vs0mg"},{"bike_id":"6b639d07-a348-4934-af55-36f8424a445c","system_id":"levelo_inurba_marseille","lat":43.27499,"lon":5.42464,"is_reserved":false,"is_disabled":false,"rental_uris":{"android":"levelo://app?vid=6b639d07-a348-4934-af55-36f8424a445c","ios":"levelo://app?vid=6b639d07-a348-4934-af55-36f8424a445c"},"vehicle_type_id":"4","last_reported":1738224672,"current_range_meters":24800,"station_id":"ce4bhn92rcd13ifvqgrg","pricing_plan_id":"cebpf4jnsgd1na2vs0mg"},{"bike_id":"9607a805-ec1f-40d0-bc0d-56e526d9afc5","system_id":"levelo_inurba_marseille","lat":43.24993,"lon":5.38934,"is_reserved":false,"is_disabled":false,"rental_uris":{"android":"levelo://app?vid=9607a805-ec1f-40d0-bc0d-56e526d9afc5","ios":"levelo://app?vid=9607a805-ec1f-40d0-bc0d-56e526d9afc5"},"vehicle_type_id":"4","last_reported":1738224672,"current_range_meters":22800,"station_id":"ce4bhgp2rcd13ifvqfd0","pricing_plan_id":"cebpf4jnsgd1na2vs0mg"},{"bike_id":"1a83e08e-8773-420e-b998-03b98777c460","system_id":"levelo_inurba_marseille","lat":43.30759,"lon":5.37981,"is_reserved":false,"is_disabled":false,"rental_uris":{"android":"levelo://app?vid=1a83e08e-8773-420e-b998-03b98777c460","ios":"levelo://app?vid=1a83e08e-8773-420e-b998-03b98777c460"},"vehicle_type_id":"4","last_reported":1738224672,"current_range_meters":36000,"station_id":"","pricing_plan_id":"cebpf4jnsgd1na2vs0mg"},{"bike_id":"68d42ead-8771-479e-9523-da21594279c1","system_id":"levelo_inurba_marseille","lat":43.2903,"lon":5.3755,"is_reserved":false,"is_disabled":false,"rental_uris":{"android":"levelo://app?vid=68d42ead-8771-479e-9523-da21594279c1","ios":"levelo://app?vid=68d42ead-8771-479e-9523-da21594279c1"},"vehicle_type_id":"4","last_reported":1738224672,"current_range_meters":6400,"station_id":"ce4bh692rcd13ifvqe90","pricing_plan_id":"cebpf4jnsgd1na2vs0mg"},{"bike_id":"3ad10b32-c1b1-4c7a-9f3c-30dcc350bc0c","system_id":"levelo_inurba_marseille","lat":43.27954,"lon":5.41057,"is_reserved":false,"is_disabled":false,"rental_uris":{"android":"levelo://app?vid=3ad10b32-c1b1-4c7a-9f3c-30dcc350bc0c","ios":"levelo://app?vid=3ad10b32-c1b1-4c7a-9f3c-30dcc350bc0c"},"vehicle_type_id":"4","last_reported":1738224672,"current_range_meters":8400,"station_id":"ce4bhnp2rcd13ifvqh0g","pricing_plan_id":"cebpf4jnsgd1na2vs0mg"},{"bike_id":"2ab0b9e6-a4f5-453d-8d41-836266cf4b86","system_id":"levelo_inurba_marseille","lat":43.30488,"lon":5.37921,"is_reserved":false,"is_disabled":false,"rental_uris":{"android":"levelo://app?vid=2ab0b9e6-a4f5-453d-8d41-836266cf4b86","ios":"levelo://app?vid=2ab0b9e6-a4f5-453d-8d41-836266cf4b86"},"vehicle_type_id":"4","last_reported":1738224672,"current_range_meters":6400,"station_id":"ce4bgup2rcd13ifvqcn0","pricing_plan_id":"cebpf4jnsgd1na2vs0mg"},{"bike_id":"8382186f-0d25-40e6-beca-2632cc8590f2","system_id":"levelo_inurba_marseille","lat":43.29562,"lon":5.42289,"is_reserved":false,"is_disabled":true,"rental_uris":{"android":"levelo://app?vid=8382186f-0d25-40e6-beca-2632cc8590f2","ios":"levelo://app?vid=8382186f-0d25-40e6-beca-2632cc8590f2"},"vehicle_type_id":"4","last_reported":1738224672,"current_range_meters":9200,"station_id":"ce4bhph2rcd13ifvqhdg","pricing_plan_id":"cebpf4jnsgd1na2vs0mg"},{"bike_id":"c22553b8-e979-4a36-becf-dd2f233120b8","system_id":"levelo_inurba_marseille","lat":43.306659,"lon":5.400932,"is_reserved":false,"is_disabled":true,"rental_uris":{"android":"levelo://app?vid=c22553b8-e979-4a36-becf-dd2f233120b8","ios":"levelo://app?vid=c22553b8-e979-4a36-becf-dd2f233120b8"},"vehicle_type_id":"4","last_reported":1738224672,"current_range_meters":9600,"station_id":"ce4bh112rcd13ifvqda0","pricing_plan_id":"cebpf4jnsgd1na2vs0mg"},{"bike_id":"c2b2ab1c-6609-49aa-985b-495f6e0b0ef3","system_id":"levelo_inurba_marseille","lat":43.30471,"lon":5.37921,"is_reserved":false,"is_disabled":false,"rental_uris":{"android":"levelo://app?vid=c2b2ab1c-6609-49aa-985b-495f6e0b0ef3","ios":"levelo://app?vid=c2b2ab1c-6609-49aa-985b-495f6e0b0ef3"},"vehicle_type_id":"4","last_reported":1738224672,"current_range_meters":31200,"station_id":"ce4bgup2rcd13ifvqcn0","pricing_plan_id":"cebpf4jnsgd1na2vs0mg"},{"bike_id":"70f0c963-8c36-418f-a110-4edb8ff73131","system_id":"levelo_inurba_marseille","lat":43.29543,"lon":5.39426,"is_reserved":false,"is_disabled":true,"rental_uris":{"android":"levelo://app?vid=70f0c963-8c36-418f-a110-4edb8ff73131","ios":"levelo://app?vid=70f0c963-8c36-418f-a110-4edb8ff73131"},"vehicle_type_id":"4","last_reported":1738224672,"current_range_meters":33600,"station_id":"ce4bh292rcd13ifvqdf0","pricing_plan_id":"cebpf4jnsgd1na2vs0mg"},{"bike_id":"41c30c24-c860-4562-8ea3-9d02ce647a6e","system_id":"levelo_inurba_marseille","lat":43.26679,"lon":5.3827,"is_reserved":false,"is_disabled":false,"rental_uris":{"android":"levelo://app?vid=41c30c24-c860-4562-8ea3-9d02ce647a6e","ios":"levelo://app?vid=41c30c24-c860-4562-8ea3-9d02ce647a6e"},"vehicle_type_id":"4","last_reported":1738224672,"current_range_meters":27600,"station_id":"ce4bhg92rcd13ifvqf90","pricing_plan_id":"cebpf4jnsgd1na2vs0mg"},{"bike_id":"d7948e25-84ea-46b8-8dd2-fbdb2a4b3d83","system_id":"levelo_inurba_marseille","lat":43.293056,"lon":5.374546,"is_reserved":false,"is_disabled":true,"rental_uris":{"android":"levelo://app?vid=d7948e25-84ea-46b8-8dd2-fbdb2a4b3d83","ios":"levelo://app?vid=d7948e25-84ea-46b8-8dd2-fbdb2a4b3d83"},"vehicle_type_id":"4","last_reported":1738224672,"current_range_meters":3200,"station_id":"ce4bgi12rcd13ifvqb70","pricing_plan_id":"cebpf4jnsgd1na2vs0mg"},{"bike_id":"95a8a294-2cc0-4238-a871-149baed5d982","system_id":"levelo_inurba_marseille","lat":43.34157,"lon":5.40913,"is_reserved":false,"is_disabled":false,"rental_uris":{"android":"levelo://app?vid=95a8a294-2cc0-4238-a871-149baed5d982","ios":"levelo://app?vid=95a8a294-2cc0-4238-a871-149baed5d982"},"vehicle_type_id":"4","last_reported":1738224672,"current_range_meters":39200,"station_id":"ce4bhqh2rcd13ifvqhlg","pricing_plan_id":"cebpf4jnsgd1na2vs0mg"},{"bike_id":"26a7be3b-618e-488d-a9b6-8d123c7e0a10","system_id":"levelo_inurba_marseille","lat":43.24392,"lon":5.370631,"is_reserved":false,"is_disabled":false,"rental_uris":{"android":"levelo://app?vid=26a7be3b-618e-488d-a9b6-8d123c7e0a10","ios":"levelo://app?vid=26a7be3b-618e-488d-a9b6-8d123c7e0a10"},"vehicle_type_id":"4","last_reported":1738224672,"current_range_meters":33200,"station_id":"ce4bhhh2rcd13ifvqfk0","pricing_plan_id":"cebpf4jnsgd1na2vs0mg"},{"bike_id":"d9e92fb9-f968-481e-bb2c-ccedae37e2b4","system_id":"levelo_inurba_marseille","lat":43.32286,"lon":5.38274,"is_reserved":false,"is_disabled":false,"rental_uris":{"android":"levelo://app?vid=d9e92fb9-f968-481e-bb2c-ccedae37e2b4","ios":"levelo://app?vid=d9e92fb9-f968-481e-bb2c-ccedae37e2b4"},"vehicle_type_id":"4","last_reported":1738224672,"current_range_meters":17200,"station_id":"ce4bhr12rcd13ifvqhqg","pricing_plan_id":"cebpf4jnsgd1na2vs0mg"},{"bike_id":"f2cd1694-cbcf-4b6f-9463-8b28ee8d6f4b","system_id":"levelo_inurba_marseille","lat":43.23071,"lon":5.35466,"is_reserved":false,"is_disabled":false,"rental_uris":{"android":"levelo://app?vid=f2cd1694-cbcf-4b6f-9463-8b28ee8d6f4b","ios":"levelo://app?vid=f2cd1694-cbcf-4b6f-9463-8b28ee8d6f4b"},"vehicle_type_id":"4","last_reported":1738224672,"current_range_meters":18800,"station_id":"cpo3342slgdg3j2ifvpg","pricing_plan_id":"cebpf4jnsgd1na2vs0mg"},{"bike_id":"0a2fd205-d616-4064-aa75-d4d529957d90","system_id":"levelo_inurba_marseille","lat":43.230607,"lon":5.354864,"is_reserved":false,"is_disabled":false,"rental_uris":{"android":"levelo://app?vid=0a2fd205-d616-4064-aa75-d4d529957d90","ios":"levelo://app?vid=0a2fd205-d616-4064-aa75-d4d529957d90"},"vehicle_type_id":"4","last_reported":1738224672,"current_range_meters":25600,"station_id":"cpo3342slgdg3j2ifvpg","pricing_plan_id":"cebpf4jnsgd1na2vs0mg"},{"bike_id":"caa3b876-5f99-445e-9f14-a49dcdc1cc85","system_id":"levelo_inurba_marseille","lat":43.2919,"lon":5.3582,"is_reserved":false,"is_disabled":true,"rental_uris":{"android":"levelo://app?vid=caa3b876-5f99-445e-9f14-a49dcdc1cc85","ios":"levelo://app?vid=caa3b876-5f99-445e-9f14-a49dcdc1cc85"},"vehicle_type_id":"4","last_reported":1738224672,"current_range_meters":38800,"station_id":"ce4bhb12rcd13ifvqel0","pricing_plan_id":"cebpf4jnsgd1na2vs0mg"},{"bike_id":"9c22f907-4f2a-4fd8-a69e-385c5063cb1c","system_id":"levelo_inurba_marseille","lat":43.25939,"lon":5.40906,"is_reserved":false,"is_disabled":false,"rental_uris":{"android":"levelo://app?vid=9c22f907-4f2a-4fd8-a69e-385c5063cb1c","ios":"levelo://app?vid=9c22f907-4f2a-4fd8-a69e-385c5063cb1c"},"vehicle_type_id":"4","last_reported":1738224672,"current_range_meters":26000,"station_id":"ce4bhm92rcd13ifvqglg","pricing_plan_id":"cebpf4jnsgd1na2vs0mg"},{"bike_id":"4238cfc4-f3d9-4b2e-be79-559974754111","system_id":"levelo_inurba_marseille","lat":43.26507,"lon":5.39565,"is_reserved":false,"is_disabled":false,"rental_uris":{"android":"levelo://app?vid=4238cfc4-f3d9-4b2e-be79-559974754111","ios":"levelo://app?vid=4238cfc4-f3d9-4b2e-be79-559974754111"},"vehicle_type_id":"4","last_reported":1738224672,"current_range_meters":38800,"station_id":"ce4bhi12rcd13ifvqfq0","pricing_plan_id":"cebpf4jnsgd1na2vs0mg"},{"bike_id":"851692c4-6ece-4a71-ba19-f442921d2278","system_id":"levelo_inurba_marseille","lat":43.29891,"lon":5.43672,"is_reserved":false,"is_disabled":false,"rental_uris":{"android":"levelo://app?vid=851692c4-6ece-4a71-ba19-f442921d2278","ios":"levelo://app?vid=851692c4-6ece-4a71-ba19-f442921d2278"},"vehicle_type_id":"4","last_reported":1738224672,"current_range_meters":38800,"station_id":"ce4bhpp2rcd13ifvqhfg","pricing_plan_id":"cebpf4jnsgd1na2vs0mg"},{"bike_id":"478bb8c8-b920-41b2-9b13-22266349dac7","system_id":"levelo_inurba_marseille","lat":43.27061,"lon":5.40261,"is_reserved":false,"is_disabled":false,"rental_uris":{"android":"levelo://app?vid=478bb8c8-b920-41b2-9b13-22266349dac7","ios":"levelo://app?vid=478bb8c8-b920-41b2-9b13-22266349dac7"},"vehicle_type_id":"4","last_reported":1738224672,"current_range_meters":33200,"station_id":"ce4bhk92rcd13ifvqgc0","pricing_plan_id":"cebpf4jnsgd1na2vs0mg"},{"bike_id":"5d85446d-a1e3-4da3-9e1b-711954a91272","system_id":"levelo_inurba_marseille","lat":43.32463,"lon":5.3657,"is_reserved":false,"is_disabled":false,"rental_uris":{"android":"levelo://app?vid=5d85446d-a1e3-4da3-9e1b-711954a91272","ios":"levelo://app?vid=5d85446d-a1e3-4da3-9e1b-711954a91272"},"vehicle_type_id":"4","last_reported":1738224672,"current_range_meters":39200,"station_id":"ce4bhs12rcd13ifvqhvg","pricing_plan_id":"cebpf4jnsgd1na2vs0mg"},{"bike_id":"f6e9fedd-0505-44b4-8eb7-643303b8ede3","system_id":"levelo_inurba_marseille","lat":43.32487,"lon":5.36581,"is_reserved":false,"is_disabled":false,"rental_uris":{"android":"levelo://app?vid=f6e9fedd-0505-44b4-8eb7-643303b8ede3","ios":"levelo://app?vid=f6e9fedd-0505-44b4-8eb7-643303b8ede3"},"vehicle_type_id":"4","last_reported":1738224672,"current_range_meters":28000,"station_id":"ce4bhs12rcd13ifvqhvg","pricing_plan_id":"cebpf4jnsgd1na2vs0mg"},{"bike_id":"803e03d8-7d2e-4feb-ac46-774902d16dee","system_id":"levelo_inurba_marseille","lat":43.33731,"lon":5.37442,"is_reserved":false,"is_disabled":true,"rental_uris":{"android":"levelo://app?vid=803e03d8-7d2e-4feb-ac46-774902d16dee","ios":"levelo://app?vid=803e03d8-7d2e-4feb-ac46-774902d16dee"},"vehicle_type_id":"4","last_reported":1738224672,"current_range_meters":30000,"station_id":"","pricing_plan_id":"cebpf4jnsgd1na2vs0mg"},{"bike_id":"fd06380f-9082-4c13-bfcc-217662b6254f","system_id":"levelo_inurba_marseille","lat":43.27489,"lon":5.42448,"is_reserved":false,"is_disabled":false,"rental_uris":{"android":"levelo://app?vid=fd06380f-9082-4c13-bfcc-217662b6254f","ios":"levelo://app?vid=fd06380f-9082-4c13-bfcc-217662b6254f"},"vehicle_type_id":"4","last_reported":1738224672,"current_range_meters":11600,"station_id":"ce4bhn92rcd13ifvqgrg","pricing_plan_id":"cebpf4jnsgd1na2vs0mg"},{"bike_id":"6cfbc0e4-5095-4eda-8745-445320b59865","system_id":"levelo_inurba_marseille","lat":43.28956,"lon":5.36644,"is_reserved":false,"is_disabled":false,"rental_uris":{"android":"levelo://app?vid=6cfbc0e4-5095-4eda-8745-445320b59865","ios":"levelo://app?vid=6cfbc0e4-5095-4eda-8745-445320b59865"},"vehicle_type_id":"4","last_reported":1738224672,"current_range_meters":5600,"station_id":"ce4bhap2rcd13ifvqek0","pricing_plan_id":"cebpf4jnsgd1na2vs0mg"},{"bike_id":"f751521e-9fd1-4c68-b0aa-b71b2190168b","system_id":"levelo_inurba_marseille","lat":43.31676,"lon":5.37777,"is_reserved":false,"is_disabled":false,"rental_uris":{"android":"levelo://app?vid=f751521e-9fd1-4c68-b0aa-b71b2190168b","ios":"levelo://app?vid=f751521e-9fd1-4c68-b0aa-b71b2190168b"},"vehicle_type_id":"4","last_reported":1738224672,"current_range_meters":33200,"station_id":"ce4bgth2rcd13ifvqch0","pricing_plan_id":"cebpf4jnsgd1na2vs0mg"},{"bike_id":"4d7b2321-a8a5-44b5-935c-f312bb8e5e6b","system_id":"levelo_inurba_marseille","lat":43.30946,"lon":5.39046,"is_reserved":false,"is_disabled":false,"rental_uris":{"android":"levelo://app?vid=4d7b2321-a8a5-44b5-935c-f312bb8e5e6b","ios":"levelo://app?vid=4d7b2321-a8a5-44b5-935c-f312bb8e5e6b"},"vehicle_type_id":"4","last_reported":1738224672,"current_range_meters":24000,"station_id":"ce4bgup2rcd13ifvqco0","pricing_plan_id":"cebpf4jnsgd1na2vs0mg"},{"bike_id":"d7b055ae-afa4-45de-a5d1-2d3de46a980e","system_id":"levelo_inurba_marseille","lat":43.33011,"lon":5.39067,"is_reserved":false,"is_disabled":false,"rental_uris":{"android":"levelo://app?vid=d7b055ae-afa4-45de-a5d1-2d3de46a980e","ios":"levelo://app?vid=d7b055ae-afa4-45de-a5d1-2d3de46a980e"},"vehicle_type_id":"4","last_reported":1738224672,"current_range_meters":38800,"station_id":"ce4bhr92rcd13ifvqhrg","pricing_plan_id":"cebpf4jnsgd1na2vs0mg"},{"bike_id":"b3f9aa06-fcb5-41aa-9888-509ccf6cd5f1","system_id":"levelo_inurba_marseille","lat":43.28402,"lon":5.37529,"is_reserved":false,"is_disabled":true,"rental_uris":{"android":"levelo://app?vid=b3f9aa06-fcb5-41aa-9888-509ccf6cd5f1","ios":"levelo://app?vid=b3f9aa06-fcb5-41aa-9888-509ccf6cd5f1"},"vehicle_type_id":"4","last_reported":1738224672,"current_range_meters":13600,"station_id":"ce4bh412rcd13ifvqds0","pricing_plan_id":"cebpf4jnsgd1na2vs0mg"},{"bike_id":"6ccd7c03-efe1-4516-b051-fc98ef9212ba","system_id":"levelo_inurba_marseille","lat":43.28852,"lon":5.358625,"is_reserved":false,"is_disabled":false,"rental_uris":{"android":"levelo://app?vid=6ccd7c03-efe1-4516-b051-fc98ef9212ba","ios":"levelo://app?vid=6ccd7c03-efe1-4516-b051-fc98ef9212ba"},"vehicle_type_id":"4","last_reported":1738224672,"current_range_meters":38000,"station_id":"ce4bhb12rcd13ifvqem0","pricing_plan_id":"cebpf4jnsgd1na2vs0mg"},{"bike_id":"c6e92244-ebdc-4b77-ba93-ab18c11da380","system_id":"levelo_inurba_marseille","lat":43.29265,"lon":5.40126,"is_reserved":false,"is_disabled":true,"rental_uris":{"android":"levelo://app?vid=c6e92244-ebdc-4b77-ba93-ab18c11da380","ios":"levelo://app?vid=c6e92244-ebdc-4b77-ba93-ab18c11da380"},"vehicle_type_id":"4","last_reported":1738224672,"current_range_meters":36400,"station_id":"ce4bh312rcd13ifvqdk0","pricing_plan_id":"cebpf4jnsgd1na2vs0mg"},{"bike_id":"84d7b7c5-c1be-4b51-9fce-0b4af6c127ac","system_id":"levelo_inurba_marseille","lat":43.31724,"lon":5.42395,"is_reserved":false,"is_disabled":false,"rental_uris":{"android":"levelo://app?vid=84d7b7c5-c1be-4b51-9fce-0b4af6c127ac","ios":"levelo://app?vid=84d7b7c5-c1be-4b51-9fce-0b4af6c127ac"},"vehicle_type_id":"4","last_reported":1738224672,"current_range_meters":1600,"station_id":"ce4bhp92rcd13ifvqhbg","pricing_plan_id":"cebpf4jnsgd1na2vs0mg"},{"bike_id":"10aee18a-7bb4-4843-8d95-8e637ad73df4","system_id":"levelo_inurba_marseille","lat":43.28346,"lon":5.38112,"is_reserved":false,"is_disabled":false,"rental_uris":{"android":"levelo://app?vid=10aee18a-7bb4-4843-8d95-8e637ad73df4","ios":"levelo://app?vid=10aee18a-7bb4-4843-8d95-8e637ad73df4"},"vehicle_type_id":"4","last_reported":1738224672,"current_range_meters":38800,"station_id":"ce4bh412rcd13ifvqdr0","pricing_plan_id":"cebpf4jnsgd1na2vs0mg"},{"bike_id":"1eedbc56-d358-4051-bf2a-244cd8cf52d4","system_id":"levelo_inurba_marseille","lat":43.28159,"lon":5.42656,"is_reserved":false,"is_disabled":false,"rental_uris":{"android":"levelo://app?vid=1eedbc56-d358-4051-bf2a-244cd8cf52d4","ios":"levelo://app?vid=1eedbc56-d358-4051-bf2a-244cd8cf52d4"},"vehicle_type_id":"4","last_reported":1738224672,"current_range_meters":6400,"station_id":"ce4bhnh2rcd13ifvqgug","pricing_plan_id":"cebpf4jnsgd1na2vs0mg"},{"bike_id":"3cab5ce9-fa36-4f37-a4fd-aa59591df4d1","system_id":"levelo_inurba_marseille","lat":43.28422,"lon":5.34986,"is_reserved":false,"is_disabled":true,"rental_uris":{"android":"levelo://app?vid=3cab5ce9-fa36-4f37-a4fd-aa59591df4d1","ios":"levelo://app?vid=3cab5ce9-fa36-4f37-a4fd-aa59591df4d1"},"vehicle_type_id":"4","last_reported":1738224672,"current_range_meters":27600,"station_id":"ce4bhbh2rcd13ifvqepg","pricing_plan_id":"cebpf4jnsgd1na2vs0mg"},{"bike_id":"350cda6d-4488-4dbb-a916-df8bbdaa2685","system_id":"levelo_inurba_marseille","lat":43.30467,"lon":5.37914,"is_reserved":false,"is_disabled":true,"rental_uris":{"android":"levelo://app?vid=350cda6d-4488-4dbb-a916-df8bbdaa2685","ios":"levelo://app?vid=350cda6d-4488-4dbb-a916-df8bbdaa2685"},"vehicle_type_id":"4","last_reported":1738224672,"current_range_meters":0,"station_id":"ce4bgup2rcd13ifvqcn0","pricing_plan_id":"cebpf4jnsgd1na2vs0mg"},{"bike_id":"85af6c92-372c-4cd2-84da-c4ec61fa470d","system_id":"levelo_inurba_marseille","lat":43.25647,"lon":5.41314,"is_reserved":false,"is_disabled":true,"rental_uris":{"android":"levelo://app?vid=85af6c92-372c-4cd2-84da-c4ec61fa470d","ios":"levelo://app?vid=85af6c92-372c-4cd2-84da-c4ec61fa470d"},"vehicle_type_id":"4","last_reported":1738224672,"current_range_meters":36400,"station_id":"","pricing_plan_id":"cebpf4jnsgd1na2vs0mg"},{"bike_id":"b685d814-d215-4d29-9b4c-07c555f9c04b","system_id":"levelo_inurba_marseille","lat":43.29295,"lon":5.37456,"is_reserved":false,"is_disabled":false,"rental_uris":{"android":"levelo://app?vid=b685d814-d215-4d29-9b4c-07c555f9c04b","ios":"levelo://app?vid=b685d814-d215-4d29-9b4c-07c555f9c04b"},"vehicle_type_id":"4","last_reported":1738224672,"current_range_meters":38800,"station_id":"ce4bgi12rcd13ifvqb70","pricing_plan_id":"cebpf4jnsgd1na2vs0mg"},{"bike_id":"dccc580e-bca8-4350-af63-074caf293b38","system_id":"levelo_inurba_marseille","lat":43.31324,"lon":5.39705,"is_reserved":false,"is_disabled":false,"rental_uris":{"android":"levelo://app?vid=dccc580e-bca8-4350-af63-074caf293b38","ios":"levelo://app?vid=dccc580e-bca8-4350-af63-074caf293b38"},"vehicle_type_id":"4","last_reported":1738224672,"current_range_meters":38000,"station_id":"ce4bgvp2rcd13ifvqcu0","pricing_plan_id":"cebpf4jnsgd1na2vs0mg"},{"bike_id":"c9b91323-d6af-4bea-bc46-7e62ec329ac1","system_id":"levelo_inurba_marseille","lat":43.25937,"lon":5.40907,"is_reserved":false,"is_disabled":false,"rental_uris":{"android":"levelo://app?vid=c9b91323-d6af-4bea-bc46-7e62ec329ac1","ios":"levelo://app?vid=c9b91323-d6af-4bea-bc46-7e62ec329ac1"},"vehicle_type_id":"4","last_reported":1738224672,"current_range_meters":24400,"station_id":"ce4bhm92rcd13ifvqglg","pricing_plan_id":"cebpf4jnsgd1na2vs0mg"},{"bike_id":"2c03adb6-a474-42c2-b922-a59913154522","system_id":"levelo_inurba_marseille","lat":43.27489,"lon":5.42471,"is_reserved":false,"is_disabled":false,"rental_uris":{"android":"levelo://app?vid=2c03adb6-a474-42c2-b922-a59913154522","ios":"levelo://app?vid=2c03adb6-a474-42c2-b922-a59913154522"},"vehicle_type_id":"4","last_reported":1738224672,"current_range_meters":25200,"station_id":"ce4bhn92rcd13ifvqgrg","pricing_plan_id":"cebpf4jnsgd1na2vs0mg"},