{"last_updated":1777041822,"ttl":60,"version":"2.2","data":{"bikes":[{"bike_id":"97aa55f3-b395-4ffc-9a9e-35d6914463e4","system_id":"levelo_inurba_marseille","lat":43.311567,"lon":5.396131,"is_reserved":false,"is_disabled":false,"rental_uris":{"android":"levelo://app?vid=97aa55f3-b395-4ffc-9a9e-35d6914463e4","ios":"levelo://app?vid=97aa55f3-b395-4ffc-9a9e-35d6914463e4"},"vehicle_type_id":"4","last_reported":1777041823,"current_range_meters":0,"station_id":"","pricing_plan_id":"cebpf4jnsgd1na2vs0mg"},{"bike_id":"eaa56526-29a5-4cc4-abc0-c621dd30f9a4","system_id":"levelo_inurba_marseille","lat":43.29262,"lon":5.4268,"is_reserved":false,"is_disabled":false,"rental_uris":{"android":"levelo://app?vid=eaa56526-29a5-4cc4-abc0-c621dd30f9a4","ios":"levelo://app?vid=eaa56526-29a5-4cc4-abc0-c621dd30f9a4"},"vehicle_type_id":"4","last_reported":1777041823,"current_range_meters":2800,"station_id":"","pricing_plan_id":"cebpf4jnsgd1na2vs0mg"},{"bike_id":"a996e419-7fae-4d27-a7a0-cb33f88da83f","system_id":"levelo_inurba_marseille","lat":43.23194,"lon":5.35552,"is_reserved":false,"is_disabled":false,"rental_uris":{"android":"levelo://app?vid=a996e419-7fae-4d27-a7a0-cb33f88da83f","ios":"levelo://app?vid=a996e419-7fae-4d27-a7a0-cb33f88da83f"},"vehicle_type_id":"4","last_reported":1777041823,"current_range_meters":2800,"station_id":"ce4bhu92rcd13ifvqi70","pricing_plan_id":"cebpf4jnsgd1na2vs0mg"},{"bike_id":"878af95c-3670-4493-ac2f-72f707827912","system_id":"levelo_inurba_marseille","lat":43.25867,"lon":5.38921,"is_reserved":false,"is_disabled":false,"rental_uris":{"android":"levelo://app?vid=878af95c-3670-4493-ac2f-72f707827912","ios":"levelo://app?vid=878af95c-3670-4493-ac2f-72f707827912"},"vehicle_type_id":"4","last_reported":1777041823,"current_range_meters":2800,"station_id":"","pricing_plan_id":"cebpf4jnsgd1na2vs0mg"},{"bike_id":"8eb346b1-39eb-4e58-bb89-027c08c1f3e3","system_id":"levelo_inurba_marseille","lat":43.2953,"lon":5.39055,"is_reserved":false,"is_disabled":false,"rental_uris":{"android":"levelo://app?vid=8eb346b1-39eb-4e58-bb89-027c08c1f3e3","ios":"levelo://app?vid=8eb346b1-39eb-4e58-bb89-027c08c1f3e3"},"vehicle_type_id":"4","last_reported":1777041823,"current_range_meters":2800,"station_id":"ce4bh3p2rcd13ifvqdp0","pricing_plan_id":"cebpf4jnsgd1na2vs0mg"},{"bike_id":"11cb33b3-ba92-4cc3-b2db-47ea308eb40c","system_id":"levelo_inurba_marseille","lat":43.29029,"lon":5.39999,"is_reserved":false,"is_disabled":true,"rental_uris":{"android":"levelo://app?vid=11cb33b3-ba92-4cc3-b2db-47ea308eb40c","ios":"levelo://app?vid=11cb33b3-ba92-4cc3-b2db-47ea308eb40c"},"vehicle_type_id":"4","last_reported":1777041823,"current_range_meters":2800,"station_id":"ce4bh392rcd13ifvqdm0","pricing_plan_id":"cebpf4jnsgd1na2vs0mg"},{"bike_id":"5a4e0b1f-603f-4a21-9b17-4133ca95e63c","system_id":"levelo_inurba_marseille","lat":43.27212,"lon":5.39153,"is_reserved":false,"is_disabled":false,"rental_uris":{"android":"levelo://app?vid=5a4e0b1f-603f-4a21-9b17-4133ca95e63c","ios":"levelo://app?vid=5a4e0b1f-603f-4a21-9b17-4133ca95e63c"},"vehicle_type_id":"4","last_reported":1777041823,"current_range_meters":2800,"station_id":"ce4bhhp2rcd13ifvqfm0","pricing_plan_id":"cebpf4jnsgd1na2vs0mg"},{"bike_id":"bf2b74bf-a725-4184-953d-2adeffb10a70","system_id":"levelo_inurba_marseille","lat":43.28713,"lon":5.37938,"is_reserved":false,"is_disabled":false,"rental_uris":{"android":"levelo://app?vid=bf2b74bf-a725-4184-953d-2adeffb10a70","ios":"levelo://app?vid=bf2b74bf-a725-4184-953d-2adeffb10a70"},"vehicle_type_id":"4","last_reported":1777041823,"current_range_meters":2800,"station_id":"ce4bh9p2rcd13ifvqec0","pricing_plan_id":"cebpf4jnsgd1na2vs0mg"},{"bike_id":"c366be47-591a-4881-84b3-6ecaca0c6af3","system_id":"levelo_inurba_marseille","lat":43.330238,"lon":5.390502,"is_reserved":false,"is_disabled":false,"rental_uris":{"android":"levelo://app?vid=c366be47-591a-4881-84b3-6ecaca0c6af3","ios":"levelo://app?vid=c366be47-591a-4881-84b3-6ecaca0c6af3"},"vehicle_type_id":"4","last_reported":1777041823,"current_range_meters":2800,"station_id":"","pricing_plan_id":"cebpf4jnsgd1na2vs0mg"},{"bike_id":"7db8e5f3-3982-4808-8fb4-746a2f23f4b1","system_id":"levelo_inurba_marseille","lat":43.29342,"lon":5.4389,"is_reserved":false,"is_disabled":false,"rental_uris":{"android":"levelo://app?vid=7db8e5f3-3982-4808-8fb4-746a2f23f4b1","ios":"levelo://app?vid=7db8e5f3-3982-4808-8fb4-746a2f23f4b1"},"vehicle_type_id":"4","last_reported":1777041823,"current_range_meters":3200,"station_id":"","pricing_plan_id":"cebpf4jnsgd1na2vs0mg"},{"bike_id":"b867ae37-2fc5-4c43-92c2-d9ee24c8ff41","system_id":"levelo_inurba_marseille","lat":43.25037,"lon":5.41774,"is_reserved":false,"is_disabled":false,"rental_uris":{"android":"levelo://app?vid=b867ae37-2fc5-4c43-92c2-d9ee24c8ff41","ios":"levelo://app?vid=b867ae37-2fc5-4c43-92c2-d9ee24c8ff41"},"vehicle_type_id":"4","last_reported":1777041823,"current_range_meters":3200,"station_id":"","pricing_plan_id":"cebpf4jnsgd1na2vs0mg"},{"bike_id":"92aa9f81-3116-4e2c-9a06-227940634914","system_id":"levelo_inurba_marseille","lat":43.231558,"lon":5.437112,"is_reserved":false,"is_disabled":false,"rental_uris":{"android":"levelo://app?vid=92aa9f81-3116-4e2c-9a06-227940634914","ios":"levelo://app?vid=92aa9f81-3116-4e2c-9a06-227940634914"},"vehicle_type_id":"4","last_reported":1777041823,"current_range_meters":3200,"station_id":"ce4bhmp2rcd13ifvqgog","pricing_plan_id":"cebpf4jnsgd1na2vs0mg"},{"bike_id":"1cf32047-2060-4229-b2c4-31df8047813e","system_id":"levelo_inurba_marseille","lat":43.27367,"lon":5.36238,"is_reserved":false,"is_disabled":false,"rental_uris":{"android":"levelo://app?vid=1cf32047-2060-4229-b2c4-31df8047813e","ios":"levelo://app?vid=1cf32047-2060-4229-b2c4-31df8047813e"},"vehicle_type_id":"4","last_reported":1777041823,"current_range_meters":3200,"station_id":"ce4bhbh2rcd13ifvqeo0","pricing_plan_id":"cebpf4jnsgd1na2vs0mg"},{"bike_id":"0923929c-d272-4fa1-a3d9-8f4c7a6f830d","system_id":"levelo_inurba_marseille","lat":43.30837,"lon":5.38204,"is_reserved":false,"is_disabled":false,"rental_uris":{"android":"levelo://app?vid=0923929c-d272-4fa1-a3d9-8f4c7a6f830d","ios":"levelo://app?vid=0923929c-d272-4fa1-a3d9-8f4c7a6f830d"},"vehicle_type_id":"4","last_reported":1777041823,"current_range_meters":3200,"station_id":"","pricing_plan_id":"cebpf4jnsgd1na2vs0mg"},{"bike_id":"9b9e2145-2a89-43a2-a422-07f6405de69b","system_id":"levelo_inurba_marseille","lat":43.29304,"lon":5.40106,"is_reserved":false,"is_disabled":false,"rental_uris":{"android":"levelo://app?vid=9b9e2145-2a89-43a2-a422-07f6405de69b","ios":"levelo://app?vid=9b9e2145-2a89-43a2-a422-07f6405de69b"},"vehicle_type_id":"4","last_reported":1777041823,"current_range_meters":3200,"station_id":"ce4bh312rcd13ifvqdk0","pricing_plan_id":"cebpf4jnsgd1na2vs0mg"},{"bike_id":"8e4c1171-f123-4087-b2a6-4bc68bb64d6c","system_id":"levelo_inurba_marseille","lat":43.312209,"lon":5.36845,"is_reserved":false,"is_disabled":false,"rental_uris":{"android":"levelo://app?vid=8e4c1171-f123-4087-b2a6-4bc68bb64d6c","ios":"levelo://app?vid=8e4c1171-f123-4087-b2a6-4bc68bb64d6c"},"vehicle_type_id":"4","last_reported":1777041823,"current_range_meters":3200,"station_id":"ce4bgl92rcd13ifvqbq0","pricing_plan_id":"cebpf4jnsgd1na2vs0mg"},{"bike_id":"810a38b3-68c9-478b-a410-7bffb52cadaf","system_id":"levelo_inurba_marseille","lat":43.30931,"lon":5.40144,"is_reserved":false,"is_disabled":false,"rental_uris":{"android":"levelo://app?vid=810a38b3-68c9-478b-a410-7bffb52cadaf","ios":"levelo://app?vid=810a38b3-68c9-478b-a410-7bffb52cadaf"},"vehicle_type_id":"4","last_reported":1777041823,"current_range_meters":3200,"station_id":"ce4bgvp2rcd13ifvqct0","pricing_plan_id":"cebpf4jnsgd1na2vs0mg"},{"bike_id":"593c1236-d4e5-4e27-aebd-9bf5d4f1c90c","system_id":"levelo_inurba_marseille","lat":43.25858,"lon":5.39877,"is_reserved":false,"is_disabled":false,"rental_uris":{"android":"levelo://app?vid=593c1236-d4e5-4e27-aebd-9bf5d4f1c90c","ios":"levelo://app?vid=593c1236-d4e5-4e27-aebd-9bf5d4f1c90c"},"vehicle_type_id":"4","last_reported":1777041823,"current_range_meters":3200,"station_id":"ce4bhl92rcd13ifvqghg","pricing_plan_id":"cebpf4jnsgd1na2vs0mg"},{"bike_id":"c641279c-d9a7-4a1c-939d-e711b3fb0642","system_id":"levelo_inurba_marseille","lat":43.24803,"lon":5.37452,"is_reserved":false,"is_disabled":false,"rental_uris":{"android":"levelo://app?vid=c641279c-d9a7-4a1c-939d-e711b3fb0642","ios":"levelo://app?vid=c641279c-d9a7-4a1c-939d-e711b3fb0642"},"vehicle_type_id":"4","last_reported":1777041823,"current_range_meters":3200,"station_id":"ce4bhgh2rcd13ifvqfb0","pricing_plan_id":"cebpf4jnsgd1na2vs0mg"},{"bike_id":"9c3677d0-627f-49f8-bd9c-64ba96ef4fce","system_id":"levelo_inurba_marseille","lat":43.28467,"lon":5.48402,"is_reserved":false,"is_disabled":false,"rental_uris":{"android":"levelo://app?vid=9c3677d0-627f-49f8-bd9c-64ba96ef4fce","ios":"levelo://app?vid=9c3677d0-627f-49f8-bd9c-64ba96ef4fce"},"vehicle_type_id":"4","last_reported":1777041823,"current_range_meters":3200,"station_id":"","pricing_plan_id":"cebpf4jnsgd1na2vs0mg"},{"bike_id":"67c9e90c-8128-45d6-9188-0074caebd27b","system_id":"levelo_inurba_marseille","lat":43.31493,"lon":5.37303,"is_reserved":false,"is_disabled":false,"rental_uris":{"android":"levelo://app?vid=67c9e90c-8128-45d6-9188-0074caebd27b","ios":"levelo://app?vid=67c9e90c-8128-45d6-9188-0074caebd27b"},"vehicle_type_id":"4","last_reported":1777041823,"current_range_meters":3200,"station_id":"ce4bgt12rcd13ifvqcd0","pricing_plan_id":"cebpf4jnsgd1na2vs0mg"},{"bike_id":"7e726f3f-feee-40f4-90de-d0a0aef3a526","system_id":"levelo_inurba_marseille","lat":43.27051,"lon":5.42236,"is_reserved":false,"is_disabled":false,"rental_uris":{"android":"levelo://app?vid=7e726f3f-feee-40f4-90de-d0a0aef3a526","ios":"levelo://app?vid=7e726f3f-feee-40f4-90de-d0a0aef3a526"},"vehicle_type_id":"4","last_reported":1777041823,"current_range_meters":3600,"station_id":"ce4bhk92rcd13ifvqgb0","pricing_plan_id":"cebpf4jnsgd1na2vs0mg"},{"bike_id":"8f975cf4-69f4-4fd4-8c34-d7df8df21514","system_id":"levelo_inurba_marseille","lat":43.3376,"lon":5.37466,"is_reserved":false,"is_disabled":false,"rental_uris":{"android":"levelo://app?vid=8f975cf4-69f4-4fd4-8c34-d7df8df21514","ios":"levelo://app?vid=8f975cf4-69f4-4fd4-8c34-d7df8df21514"},"vehicle_type_id":"4","last_reported":1777041823,"current_range_meters":3600,"station_id":"st_d46cu089ee8s73dldbu0","pricing_plan_id":"cebpf4jnsgd1na2vs0mg"},{"bike_id":"dc3d93ea-ae84-4a55-9dbf-fa49417dc298","system_id":"levelo_inurba_marseille","lat":43.25744,"lon":5.38644,"is_reserved":false,"is_disabled":false,"rental_uris":{"android":"levelo://app?vid=dc3d93ea-ae84-4a55-9dbf-fa49417dc298","ios":"levelo://app?vid=dc3d93ea-ae84-4a55-9dbf-fa49417dc298"},"vehicle_type_id":"4","last_reported":1777041823,"current_range_meters":3600,"station_id":"","pricing_plan_id":"cebpf4jnsgd1na2vs0mg"},{"bike_id":"24065383-f52b-493c-b594-42be05f5baa1","system_id":"levelo_inurba_marseille","lat":43.28708,"lon":5.46739,"is_reserved":false,"is_disabled":false,"rental_uris":{"android":"levelo://app?vid=24065383-f52b-493c-b594-42be05f5baa1","ios":"levelo://app?vid=24065383-f52b-493c-b594-42be05f5baa1"},"vehicle_type_id":"4","last_reported":1777041823,"current_range_meters":3600,"station_id":"st_d6tc3vkotcvc738tfjhg","pricing_plan_id":"cebpf4jnsgd1na2vs0mg"},{"bike_id":"5e05e31c-d810-492f-887b-00641fbf626a","system_id":"levelo_inurba_marseille","lat":43.30382,"lon":5.42479,"is_reserved":false,"is_disabled":false,"rental_uris":{"android":"levelo://app?vid=5e05e31c-d810-492f-887b-00641fbf626a","ios":"levelo://app?vid=5e05e31c-d810-492f-887b-00641fbf626a"},"vehicle_type_id":"4","last_reported":1777041823,"current_range_meters":3600,"station_id":"ce4bhoh2rcd13ifvqh6g","pricing_plan_id":"cebpf4jnsgd1na2vs0mg"},{"bike_id":"e541d16f-0f47-4b9f-aebf-9b2b99838ba8","system_id":"levelo_inurba_marseille","lat":43.2953,"lon":5.39038,"is_reserved":false,"is_disabled":false,"rental_uris":{"android":"levelo://app?vid=e541d16f-0f47-4b9f-aebf-9b2b99838ba8","ios":"levelo://app?vid=e541d16f-0f47-4b9f-aebf-9b2b99838ba8"},"vehicle_type_id":"4","last_reported":1777041823,"current_range_meters":3600,"station_id":"ce4bh3p2rcd13ifvqdp0","pricing_plan_id":"cebpf4jnsgd1na2vs0mg"},{"bike_id":"86305f5c-3d27-4e0c-8800-2068be4d9a93","system_id":"levelo_inurba_marseille","lat":43.24661,"lon":5.38159,"is_reserved":false,"is_disabled":false,"rental_uris":{"android":"levelo://app?vid=86305f5c-3d27-4e0c-8800-2068be4d9a93","ios":"levelo://app?vid=86305f5c-3d27-4e0c-8800-2068be4d9a93"},"vehicle_type_id":"4","last_reported":1777041823,"current_range_meters":3600,"station_id":"ce4bhih2rcd13ifvqfr0","pricing_plan_id":"cebpf4jnsgd1na2vs0mg"},{"bike_id":"a9122612-d863-41f6-bd93-569ee6671569","system_id":"levelo_inurba_marseille","lat":43.21191,"lon":5.35083,"is_reserved":false,"is_disabled":false,"rental_uris":{"android":"levelo://app?vid=a9122612-d863-41f6-bd93-569ee6671569","ios":"levelo://app?vid=a9122612-d863-41f6-bd93-569ee6671569"},"vehicle_type_id":"4","last_reported":1777041823,"current_range_meters":3600,"station_id":"st_cvj6sg6p6f1abm77japg","pricing_plan_id":"cebpf4jnsgd1na2vs0mg"},{"bike_id":"45bc3a63-e24b-42ed-85a8-d137c46401d1","system_id":"levelo_inurba_marseille","lat":43.295811,"lon":5.37519,"is_reserved":false,"is_disabled":false,"rental_uris":{"android":"levelo://app?vid=45bc3a63-e24b-42ed-85a8-d137c46401d1","ios":"levelo://app?vid=45bc3a63-e24b-42ed-85a8-d137c46401d1"},"vehicle_type_id":"4","last_reported":1777041823,"current_range_meters":3600,"station_id":"ce4bgh92rcd13ifvqb50","pricing_plan_id":"cebpf4jnsgd1na2vs0mg"},{"bike_id":"3b4da816-6e7d-4764-8cdc-43b82059e4c8","system_id":"levelo_inurba_marseille","lat":43.2921,"lon":5.39314,"is_reserved":false,"is_disabled":false,"rental_uris":{"android":"levelo://app?vid=3b4da816-6e7d-4764-8cdc-43b82059e4c8","ios":"levelo://app?vid=3b4da816-6e7d-4764-8cdc-43b82059e4c8"},"vehicle_type_id":"4","last_reported":1777041823,"current_range_meters":3600,"station_id":"ce4bh192rcd13ifvqdd0","pricing_plan_id":"cebpf4jnsgd1na2vs0mg"},{"bike_id":"b93e34ae-d836-4d69-8cc7-02ea41d8b0f5","system_id":"levelo_inurba_marseille","lat":43.2397,"lon":5.36642,"is_reserved":false,"is_disabled":false,"rental_uris":{"android":"levelo://app?vid=b93e34ae-d836-4d69-8cc7-02ea41d8b0f5","ios":"levelo://app?vid=b93e34ae-d836-4d69-8cc7-02ea41d8b0f5"},"vehicle_type_id":"4","last_reported":1777041823,"current_range_meters":4000,"station_id":"ce4bhi12rcd13ifvqfp0","pricing_plan_id":"cebpf4jnsgd1na2vs0mg"},{"bike_id":"fc7363fe-b04d-489a-9727-90ca30e7bca6","system_id":"levelo_inurba_marseille","lat":43.29696,"lon":5.37693,"is_reserved":false,"is_disabled":false,"rental_uris":{"android":"levelo://app?vid=fc7363fe-b04d-489a-9727-90ca30e7bca6","ios":"levelo://app?vid=fc7363fe-b04d-489a-9727-90ca30e7bca6"},"vehicle_type_id":"4","last_reported":1777041823,"current_range_meters":4000,"station_id":"","pricing_plan_id":"cebpf4jnsgd1na2vs0mg"},{"bike_id":"af2bdfff-ac8b-40af-9337-ee26acee9790","system_id":"levelo_inurba_marseille","lat":43.28408,"lon":5.34985,"is_reserved":false,"is_disabled":false,"rental_uris":{"android":"levelo://app?vid=af2bdfff-ac8b-40af-9337-ee26acee9790","ios":"levelo://app?vid=af2bdfff-ac8b-40af-9337-ee26acee9790"},"vehicle_type_id":"4","last_reported":1777041823,"current_range_meters":4000,"station_id":"ce4bhbh2rcd13ifvqepg","pricing_plan_id":"cebpf4jnsgd1na2vs0mg"},{"bike_id":"378ef3f2-0aed-4125-a444-8335c6e88512","system_id":"levelo_inurba_marseille","lat":43.27559,"lon":5.38394,"is_reserved":false,"is_disabled":false,"rental_uris":{"android":"levelo://app?vid=378ef3f2-0aed-4125-a444-8335c6e88512","ios":"levelo://app?vid=378ef3f2-0aed-4125-a444-8335c6e88512"},"vehicle_type_id":"4","last_reported":1777041823,"current_range_meters":4000,"station_id":"ce4bhh92rcd13ifvqfi0","pricing_plan_id":"cebpf4jnsgd1na2vs0mg"},{"bike_id":"a767dc6e-2f51-4d71-9e29-f318a1beff69","system_id":"levelo_inurba_marseille","lat":43.30053,"lon":5.36556,"is_reserved":false,"is_disabled":false,"rental_uris":{"android":"levelo://app?vid=a767dc6e-2f51-4d71-9e29-f318a1beff69","ios":"levelo://app?vid=a767dc6e-2f51-4d71-9e29-f318a1beff69"},"vehicle_type_id":"4","last_reported":1777041823,"current_range_meters":4000,"station_id":"","pricing_plan_id":"cebpf4jnsgd1na2vs0mg"},{"bike_id":"eefc09e6-27d4-4a24-8dad-ed0199777513","system_id":"levelo_inurba_marseille","lat":43.28033,"lon":5.36956,"is_reserved":false,"is_disabled":false,"rental_uris":{"android":"levelo://app?vid=eefc09e6-27d4-4a24-8dad-ed0199777513","ios":"levelo://app?vid=eefc09e6-27d4-4a24-8dad-ed0199777513"},"vehicle_type_id":"4","last_reported":1777041823,"current_range_meters":4000,"station_id":"ce4bha12rcd13ifvqef0","pricing_plan_id":"cebpf4jnsgd1na2vs0mg"},{"bike_id":"4bdba7f8-5bc3-4053-ac17-038e734767dd","system_id":"levelo_inurba_marseille","lat":43.323583,"lon":5.36734,"is_reserved":false,"is_disabled":false,"rental_uris":{"android":"levelo://app?vid=4bdba7f8-5bc3-4053-ac17-038e734767dd","ios":"levelo://app?vid=4bdba7f8-5bc3-4053-ac17-038e734767dd"},"vehicle_type_id":"4","last_reported":1777041823,"current_range_meters":4000,"station_id":"ce4bhsh2rcd13ifvqi2g","pricing_plan_id":"cebpf4jnsgd1na2vs0mg"},{"bike_id":"36f8212c-34c3-4ad4-9d69-b2628b26e73b","system_id":"levelo_inurba_marseille","lat":43.30842,"lon":5.38916,"is_reserved":false,"is_disabled":false,"rental_uris":{"android":"levelo://app?vid=36f8212c-34c3-4ad4-9d69-b2628b26e73b","ios":"levelo://app?vid=36f8212c-34c3-4ad4-9d69-b2628b26e73b"},"vehicle_type_id":"4","last_reported":1777041823,"current_range_meters":4000,"station_id":"ce4bgup2rcd13ifvqco0","pricing_plan_id":"cebpf4jnsgd1na2vs0mg"},{"bike_id":"77bae04d-b155-4a06-9049-fda6a4b9e974","system_id":"levelo_inurba_marseille","lat":43.29147,"lon":5.42616,"is_reserved":false,"is_disabled":false,"rental_uris":{"android":"levelo://app?vid=77bae04d-b155-4a06-9049-fda6a4b9e974","ios":"levelo://app?vid=77bae04d-b155-4a06-9049-fda6a4b9e974"},"vehicle_type_id":"4","last_reported":1777041823,"current_range_meters":4400,"station_id":"","pricing_plan_id":"cebpf4jnsgd1na2vs0mg"},{"bike_id":"3b8b2334-5f8d-4d36-ab7f-1fd20cb92abe","system_id":"levelo_inurba_marseille","lat":43.29672,"lon":5.37326,"is_reserved":false,"is_disabled":false,"rental_uris":{"android":"levelo://app?vid=3b8b2334-5f8d-4d36-ab7f-1fd20cb92abe","ios":"levelo://app?vid=3b8b2334-5f8d-4d36-ab7f-1fd20cb92abe"},"vehicle_type_id":"4","last_reported":1777041823,"current_range_meters":4400,"station_id":"ce4bgk12rcd13ifvqbj0","pricing_plan_id":"cebpf4jnsgd1na2vs0mg"},{"bike_id":"08542f64-bed8-4f43-85e4-a56e583d8194","system_id":"levelo_inurba_marseille","lat":43.26937,"lon":5.40258,"is_reserved":false,"is_disabled":false,"rental_uris":{"android":"levelo://app?vid=08542f64-bed8-4f43-85e4-a56e583d8194","ios":"levelo://app?vid=08542f64-bed8-4f43-85e4-a56e583d8194"},"vehicle_type_id":"4","last_reported":1777041823,"current_range_meters":4400,"station_id":"cjm6bp8fraef2m0cb0m0","pricing_plan_id":"cebpf4jnsgd1na2vs0mg"},{"bike_id":"c110ee94-30b9-4773-8834-49f24848a0f5","system_id":"levelo_inurba_marseille","lat":43.28257,"lon":5.35066,"is_reserved":false,"is_disabled":false,"rental_uris":{"android":"levelo://app?vid=c110ee94-30b9-4773-8834-49f24848a0f5","ios":"levelo://app?vid=c110ee94-30b9-4773-8834-49f24848a0f5"},"vehicle_type_id":"4","last_reported":1777041823,"current_range_meters":4400,"station_id":"ce4bhbp2rcd13ifvqerg","pricing_plan_id":"cebpf4jnsgd1na2vs0mg"},{"bike_id":"0ccb9bd9-5564-41ae-8c3a-1edde6e9d529","system_id":"levelo_inurba_marseille","lat":43.26207,"lon":5.37452,"is_reserved":false,"is_disabled":false,"rental_uris":{"android":"levelo://app?vid=0ccb9bd9-5564-41ae-8c3a-1edde6e9d529","ios":"levelo://app?vid=0ccb9bd9-5564-41ae-8c3a-1edde6e9d529"},"vehicle_type_id":"4","last_reported":1777041823,"current_range_meters":4800,"station_id":"ce4bhgp2rcd13ifvqfc0","pricing_plan_id":"cebpf4jnsgd1na2vs0mg"},{"bike_id":"1d856ca4-e835-472a-a118-f64ba64d2402","system_id":"levelo_inurba_marseille","lat":43.26554,"lon":5.37283,"is_reserved":false,"is_disabled":false,"rental_uris":{"android":"levelo://app?vid=1d856ca4-e835-472a-a118-f64ba64d2402","ios":"levelo://app?vid=1d856ca4-e835-472a-a118-f64ba64d2402"},"vehicle_type_id":"4","last_reported":1777041823,"current_range_meters":4800,"station_id":"ce4bhg12rcd13ifvqf70","pricing_plan_id":"cebpf4jnsgd1na2vs0mg"},{"bike_id":"11b1ef11-ce3c-4d20-a7f7-844d9db60dc8","system_id":"levelo_inurba_marseille","lat":43.27375,"lon":5.362609,"is_reserved":false,"is_disabled":false,"rental_uris":{"android":"levelo://app?vid=11b1ef11-ce3c-4d20-a7f7-844d9db60dc8","ios":"levelo://app?vid=11b1ef11-ce3c-4d20-a7f7-844d9db60dc8"},"vehicle_type_id":"4","last_reported":1777041823,"current_range_meters":4800,"station_id":"ce4bhbh2rcd13ifvqeo0","pricing_plan_id":"cebpf4jnsgd1na2vs0mg"},{"bike_id":"87c0f9d1-69d1-49e1-a1dc-813da98db247","system_id":"levelo_inurba_marseille","lat":43.28945,"lon":5.36394,"is_reserved":false,"is_disabled":false,"rental_uris":{"android":"levelo://app?vid=87c0f9d1-69d1-49e1-a1dc-813da98db247","ios":"levelo://app?vid=87c0f9d1-69d1-49e1-a1dc-813da98db247"},"vehicle_type_id":"4","last_reported":1777041823,"current_range_meters":4800,"station_id":"ce4bhc92rcd13ifvqetg","pricing_plan_id":"cebpf4jnsgd1na2vs0mg"},{"bike_id":"f112f756-3687-47b4-97d1-07e19049bda9","system_id":"levelo_inurba_marseille","lat":43.27965,"lon":5.38748,"is_reserved":false,"is_disabled":false,"rental_uris":{"android":"levelo://app?vid=f112f756-3687-47b4-97d1-07e19049bda9","ios":"levelo://app?vid=f112f756-3687-47b4-97d1-07e19049bda9"},"vehicle_type_id":"4","last_reported":1777041823,"current_range_meters":4800,"station_id":"ce4bhg12rcd13ifvqf80","pricing_plan_id":"cebpf4jnsgd1na2vs0mg"},{"bike_id":"317213aa-694d-4877-9dcc-586bcc282c8c","system_id":"levelo_inurba_marseille","lat":43.28691,"lon":5.46679,"is_reserved":false,"is_disabled":false,"rental_uris":{"android":"levelo://app?vid=317213aa-694d-4877-9dcc-586bcc282c8c","ios":"levelo://app?vid=317213aa-694d-4877-9dcc-586bcc282c8c"},"vehicle_type_id":"4","last_reported":1777041823,"current_range_meters":4800,"station_id":"st_d6tc3vkotcvc738tfjhg","pricing_plan_id":"cebpf4jnsgd1na2vs0mg"},{"bike_id":"ecdd1e60-1fc1-490d-889b-d83c1e7933b8","system_id":"levelo_inurba_marseille","lat":43.23954,"lon":5.36653,"is_reserved":false,"is_disabled":false,"rental_uris":{"android":"levelo://app?vid=ecdd1e60-1fc1-490d-889b-d83c1e7933b8","ios":"levelo://app?vid=ecdd1e60-1fc1-490d-889b-d83c1e7933b8"},"vehicle_type_id":"4","last_reported":1777041823,"current_range_meters":5600,"station_id":"ce4bhi12rcd13ifvqfp0","pricing_plan_id":"cebpf4jnsgd1na2vs0mg"},{"bike_id":"6180becc-b7c0-4d8a-a9da-46c1cf2430b3","system_id":"levelo_inurba_marseille","lat":43.29225,"lon":5.36075,"is_reserved":false,"is_disabled":false,"rental_uris":{"android":"levelo://app?vid=6180becc-b7c0-4d8a-a9da-46c1cf2430b3","ios":"levelo://app?vid=6180becc-b7c0-4d8a-a9da-46c1cf2430b3"},"vehicle_type_id":"4","last_reported":1777041823,"current_range_meters":5600,"station_id":"ce4bhbh2rcd13ifvqeqg","pricing_plan_id":"cebpf4jnsgd1na2vs0mg"},{"bike_id":"ea3c1786-161a-49ba-9999-4db433e959c3","system_id":"levelo_inurba_marseille","lat":43.2445,"lon":5.40939,"is_reserved":false,"is_disabled":false,"rental_uris":{"android":"levelo://app?vid=ea3c1786-161a-49ba-9999-4db433e959c3","ios":"levelo://app?vid=ea3c1786-161a-49ba-9999-4db433e959c3"},"vehicle_type_id":"4","last_reported":1777041823,"current_range_meters":5600,"station_id":"","pricing_plan_id":"cebpf4jnsgd1na2vs0mg"},{"bike_id":"21487210-13dc-48c0-a7ab-e9a4cab8fb19","system_id":"levelo_inurba_marseille","lat":43.28119,"lon":5.37822,"is_reserved":false,"is_disabled":false,"rental_uris":{"android":"levelo://app?vid=21487210-13dc-48c0-a7ab-e9a4cab8fb19","ios":"levelo://app?vid=21487210-13dc-48c0-a7ab-e9a4cab8fb19"},"vehicle_type_id":"4","last_reported":1777041823,"current_range_meters":5600,"station_id":"ce4bha12rcd13ifvqee0","pricing_plan_id":"cebpf4jnsgd1na2vs0mg"},{"bike_id":"8341b0c7-1265-4db8-858c-d42232c38f90","system_id":"levelo_inurba_marseille","lat":43.29586,"lon":5.37514,"is_reserved":false,"is_disabled":false,"rental_uris":{"android":"levelo://app?vid=8341b0c7-1265-4db8-858c-d42232c38f90","ios":"levelo://app?vid=8341b0c7-1265-4db8-858c-d42232c38f90"},"vehicle_type_id":"4","last_reported":1777041823,"current_range_meters":5600,"station_id":"ce4bgh92rcd13ifvqb50","pricing_plan_id":"cebpf4jnsgd1na2vs0mg"},{"bike_id":"584cdce0-810e-4b55-bd3b-08e2bfb93074","system_id":"levelo_inurba_marseille","lat":43.22562,"lon":5.41637,"is_reserved":false,"is_disabled":false,"rental_uris":{"android":"levelo://app?vid=584cdce0-810e-4b55-bd3b-08e2bfb93074","ios":"levelo://app?vid=584cdce0-810e-4b55-bd3b-08e2bfb93074"},"vehicle_type_id":"4","last_reported":1777041823,"current_range_meters":5600,"station_id":"st_d2o4gvlbi1j2169b742g","pricing_plan_id":"cebpf4jnsgd1na2vs0mg"},{"bike_id":"7556d7ad-b945-4996-b642-2ab263d81aaa","system_id":"levelo_inurba_marseille","lat":43.26208,"lon":5.37927,"is_reserved":false,"is_disabled":false,"rental_uris":{"android":"levelo://app?vid=7556d7ad-b945-4996-b642-2ab263d81aaa","ios":"levelo://app?vid=7556d7ad-b945-4996-b642-2ab263d81aaa"},"vehicle_type_id":"4","last_reported":1777041823,"current_range_meters":5600,"station_id":"ce4bhjp2rcd13ifvqg90","pricing_plan_id":"cebpf4jnsgd1na2vs0mg"},{"bike_id":"3a91309e-8202-4ec5-8335-fc5e8dedb11a","system_id":"levelo_inurba_marseille","lat":43.27214,"lon":5.39175,"is_reserved":false,"is_disabled":false,"rental_uris":{"android":"levelo://app?vid=3a91309e-8202-4ec5-8335-fc5e8dedb11a","ios":"levelo://app?vid=3a91309e-8202-4ec5-8335-fc5e8dedb11a"},"vehicle_type_id":"4","last_reported":1777041823,"current_range_meters":5600,"station_id":"ce4bhhp2rcd13ifvqfm0","pricing_plan_id":"cebpf4jnsgd1na2vs0mg"},{"bike_id":"58f04abe-89ea-4647-9e51-948bbfc79bf4","system_id":"levelo_inurba_marseille","lat":43.24389,"lon":5.37056,"is_reserved":false,"is_disabled":false,"rental_uris":{"android":"levelo://app?vid=58f04abe-89ea-4647-9e51-948bbfc79bf4","ios":"levelo://app?vid=58f04abe-89ea-4647-9e51-948bbfc79bf4"},"vehicle_type_id":"4","last_reported":1777041823,"current_range_meters":5600,"station_id":"ce4bhhh2rcd13ifvqfk0","pricing_plan_id":"cebpf4jnsgd1na2vs0mg"},{"bike_id":"53d0b464-9d84-4ebb-a788-233487c8451c","system_id":"levelo_inurba_marseille","lat":43.33261,"lon":5.37783,"is_reserved":false,"is_disabled":false,"rental_uris":{"android":"levelo://app?vid=53d0b464-9d84-4ebb-a788-233487c8451c","ios":"levelo://app?vid=53d0b464-9d84-4ebb-a788-233487c8451c"},"vehicle_type_id":"4","last_reported":1777041823,"current_range_meters":6000,"station_id":"","pricing_plan_id":"cebpf4jnsgd1na2vs0mg"},{"bike_id":"c05d70c7-b112-48d9-9143-4ff03e3673ef","system_id":"levelo_inurba_marseille","lat":43.26212,"lon":5.37442,"is_reserved":false,"is_disabled":false,"rental_uris":{"android":"levelo://app?vid=c05d70c7-b112-48d9-9143-4ff03e3673ef","ios":"levelo://app?vid=c05d70c7-b112-48d9-9143-4ff03e3673ef"},"vehicle_type_id":"4","last_reported":1777041823,"current_range_meters":6000,"station_id":"ce4bhgp2rcd13ifvqfc0","pricing_plan_id":"cebpf4jnsgd1na2vs0mg"},{"bike_id":"5db6f83f-fddb-47f0-ac22-d3e80e4a0795","system_id":"levelo_inurba_marseille","lat":43.26214,"lon":5.37433,"is_reserved":false,"is_disabled":false,"rental_uris":{"android":"levelo://app?vid=5db6f83f-fddb-47f0-ac22-d3e80e4a0795","ios":"levelo://app?vid=5db6f83f-fddb-47f0-ac22-d3e80e4a0795"},"vehicle_type_id":"4","last_reported":1777041823,"current_range_meters":6000,"station_id":"ce4bhgp2rcd13ifvqfc0","pricing_plan_id":"cebpf4jnsgd1na2vs0mg"},{"bike_id":"f1730d44-b2ba-4160-93f7-212af8fcf49a","system_id":"levelo_inurba_marseille","lat":43.26198,"lon":5.37469,"is_reserved":false,"is_disabled":false,"rental_uris":{"android":"levelo://app?vid=f1730d44-b2ba-4160-93f7-212af8fcf49a","ios":"levelo://app?vid=f1730d44-b2ba-4160-93f7-212af8fcf49a"},"vehicle_type_id":"4","last_reported":1777041823,"current_range_meters":6000,"station_id":"ce4bhgp2rcd13ifvqfc0","pricing_plan_id":"cebpf4jnsgd1na2vs0mg"},{"bike_id":"c74e7ee5-170a-4af2-a8e4-76bfacac00e4","system_id":"levelo_inurba_marseille","lat":43.24177,"lon":5.39741,"is_reserved":false,"is_disabled":false,"rental_uris":{"android":"levelo://app?vid=c74e7ee5-170a-4af2-a8e4-76bfacac00e4","ios":"levelo://app?vid=c74e7ee5-170a-4af2-a8e4-76bfacac00e4"},"vehicle_type_id":"4","last_reported":1777041823,"current_range_meters":6000,"station_id":"ce4bhn12rcd13ifvqgpg","pricing_plan_id":"cebpf4jnsgd1na2vs0mg"},{"bike_id":"87d155eb-12c3-49e9-a117-b4ed683d4be3","system_id":"levelo_inurba_marseille","lat":43.24127,"lon":5.39734,"is_reserved":false,"is_disabled":false,"rental_uris":{"android":"levelo://app?vid=87d155eb-12c3-49e9-a117-b4ed683d4be3","ios":"levelo://app?vid=87d155eb-12c3-49e9-a117-b4ed683d4be3"},"vehicle_type_id":"4","last_reported":1777041823,"current_range_meters":6000,"station_id":"","pricing_plan_id":"cebpf4jnsgd1na2vs0mg"},{"bike_id":"ebb5166f-a3f5-4a89-9180-cd6190dc3666","system_id":"levelo_inurba_marseille","lat":43.23157,"lon":5.43704,"is_reserved":false,"is_disabled":false,"rental_uris":{"android":"levelo://app?vid=ebb5166f-a3f5-4a89-9180-cd6190dc3666","ios":"levelo://app?vid=ebb5166f-a3f5-4a89-9180-cd6190dc3666"},"vehicle_type_id":"4","last_reported":1777041823,"current_range_meters":6000,"station_id":"ce4bhmp2rcd13ifvqgog","pricing_plan_id":"cebpf4jnsgd1na2vs0mg"},{"bike_id":"4f2afbf4-b3f0-4cd4-8149-03497d38ab2c","system_id":"levelo_inurba_marseille","lat":43.29016,"lon":5.38632,"is_reserved":false,"is_disabled":false,"rental_uris":{"android":"levelo://app?vid=4f2afbf4-b3f0-4cd4-8149-03497d38ab2c","ios":"levelo://app?vid=4f2afbf4-b3f0-4cd4-8149-03497d38ab2c"},"vehicle_type_id":"4","last_reported":1777041823,"current_range_meters":6400,"station_id":"ce4bh4p2rcd13ifvqe0g","pricing_plan_id":"cebpf4jnsgd1na2vs0mg"},{"bike_id":"146def8f-c25a-4a36-bb78-c0e04f65294e","system_id":"levelo_inurba_marseille","lat":43.28878,"lon":5.43038,"is_reserved":false,"is_disabled":false,"rental_uris":{"android":"levelo://app?vid=146def8f-c25a-4a36-bb78-c0e04f65294e","ios":"levelo://app?vid=146def8f-c25a-4a36-bb78-c0e04f65294e"},"vehicle_type_id":"4","last_reported":1777041823,"current_range_meters":6400,"station_id":"","pricing_plan_id":"cebpf4jnsgd1na2vs0mg"},{"bike_id":"0c22485a-a711-4725-8592-dab240ed7b73","system_id":"levelo_inurba_marseille","lat":43.23963,"lon":5.36635,"is_reserved":false,"is_disabled":false,"rental_uris":{"android":"levelo://app?vid=0c22485a-a711-4725-8592-dab240ed7b73","ios":"levelo://app?vid=0c22485a-a711-4725-8592-dab240ed7b73"},"vehicle_type_id":"4","last_reported":1777041823,"current_range_meters":6400,"station_id":"ce4bhi12rcd13ifvqfp0","pricing_plan_id":"cebpf4jnsgd1na2vs0mg"},{"bike_id":"6efae23b-4853-4978-a046-e2118aa389db","system_id":"levelo_inurba_marseille","lat":43.2946,"lon":5.38197,"is_reserved":false,"is_disabled":false,"rental_uris":{"android":"levelo://app?vid=6efae23b-4853-4978-a046-e2118aa389db","ios":"levelo://app?vid=6efae23b-4853-4978-a046-e2118aa389db"},"vehicle_type_id":"4","last_reported":1777041823,"current_range_meters":6400,"station_id":"","pricing_plan_id":"cebpf4jnsgd1na2vs0mg"},{"bike_id":"89cb976b-df3a-46fc-a9ef-0025de561630","system_id":"levelo_inurba_marseille","lat":43.29418,"lon":5.43461,"is_reserved":false,"is_disabled":false,"rental_uris":{"android":"levelo://app?vid=89cb976b-df3a-46fc-a9ef-0025de561630","ios":"levelo://app?vid=89cb976b-df3a-46fc-a9ef-0025de561630"},"vehicle_type_id":"4","last_reported":1777041823,"current_range_meters":6400,"station_id":"","pricing_plan_id":"cebpf4jnsgd1na2vs0mg"},{"bike_id":"2cde2a96-5847-4425-b178-e21f8b9fa8ee","system_id":"levelo_inurba_marseille","lat":43.28953,"lon":5.36393,"is_reserved":false,"is_disabled":false,"rental_uris":{"android":"levelo://app?vid=2cde2a96-5847-4425-b178-e21f8b9fa8ee","ios":"levelo://app?vid=2cde2a96-5847-4425-b178-e21f8b9fa8ee"},"vehicle_type_id":"4","last_reported":1777041823,"current_range_meters":6400,"station_id":"ce4bhc92rcd13ifvqetg","pricing_plan_id":"cebpf4jnsgd1na2vs0mg"},{"bike_id":"250b15a8-ae72-4a04-beeb-15324439784f","system_id":"levelo_inurba_marseille","lat":43.31483,"lon":5.37306,"is_reserved":false,"is_disabled":false,"rental_uris":{"android":"levelo://app?vid=250b15a8-ae72-4a04-beeb-15324439784f","ios":"levelo://app?vid=250b15a8-ae72-4a04-beeb-15324439784f"},"vehicle_type_id":"4","last_reported":1777041823,"current_range_meters":6400,"station_id":"ce4bgt12rcd13ifvqcd0","pricing_plan_id":"cebpf4jnsgd1na2vs0mg"},{"bike_id":"f1cffc7b-9140-4f3f-acd5-1357e8e47054","system_id":"levelo_inurba_marseille","lat":43.225228,"lon":5.348328,"is_reserved":false,"is_disabled":false,"rental_uris":{"android":"levelo://app?vid=f1cffc7b-9140-4f3f-acd5-1357e8e47054","ios":"levelo://app?vid=f1cffc7b-9140-4f3f-acd5-1357e8e47054"},"vehicle_type_id":"4","last_reported":1777041823,"current_range_meters":6400,"station_id":"st_cvj5dfep6f1abm77gieg","pricing_plan_id":"cebpf4jnsgd1na2vs0mg"},{"bike_id":"71672982-1264-4227-a937-4c771b73ba47","system_id":"levelo_inurba_marseille","lat":43.26954,"lon":5.38631,"is_reserved":false,"is_disabled":false,"rental_uris":{"android":"levelo://app?vid=71672982-1264-4227-a937-4c771b73ba47","ios":"levelo://app?vid=71672982-1264-4227-a937-4c771b73ba47"},"vehicle_type_id":"4","last_reported":1777041823,"current_range_meters":6800,"station_id":"ce4bhh92rcd13ifvqfh0","pricing_plan_id":"cebpf4jnsgd1na2vs0mg"},{"bike_id":"27cd71a7-0940-4415-a67f-21597fbf1cd9","system_id":"levelo_inurba_marseille","lat":43.33008,"lon":5.39033,"is_reserved":false,"is_disabled":false,"rental_uris":{"android":"levelo://app?vid=27cd71a7-0940-4415-a67f-21597fbf1cd9","ios":"levelo://app?vid=27cd71a7-0940-4415-a67f-21597fbf1cd9"},"vehicle_type_id":"4","last_reported":1777041823,"current_range_meters":6800,"station_id":"ce4bhr92rcd13ifvqhrg","pricing_plan_id":"cebpf4jnsgd1na2vs0mg"},{"bike_id":"f85abdf6-bd6d-4d0c-9c88-ff3a31e96dc2","system_id":"levelo_inurba_marseille","lat":43.29716,"lon":5.36586,"is_reserved":false,"is_disabled":false,"rental_uris":{"android":"levelo://app?vid=f85abdf6-bd6d-4d0c-9c88-ff3a31e96dc2","ios":"levelo://app?vid=f85abdf6-bd6d-4d0c-9c88-ff3a31e96dc2"},"vehicle_type_id":"4","last_reported":1777041823,"current_range_meters":6800,"station_id":"ce4bgn12rcd13ifvqbt0","pricing_plan_id":"cebpf4jnsgd1na2vs0mg"},{"bike_id":"e1a4c3a2-5246-41a5-ad98-88ddb8bc24c4","system_id":"levelo_inurba_marseille","lat":43.29939,"lon":5.37436,"is_reserved":false,"is_disabled":false,"rental_uris":{"android":"levelo://app?vid=e1a4c3a2-5246-41a5-ad98-88ddb8bc24c4","ios":"levelo://app?vid=e1a4c3a2-5246-41a5-ad98-88ddb8bc24c4"},"vehicle_type_id":"4","last_reported":1777041823,"current_range_meters":6800,"station_id":"ce4bgjh2rcd13ifvqbg0","pricing_plan_id":"cebpf4jnsgd1na2vs0mg"},{"bike_id":"1271dd10-76a9-492a-8c22-c3d053d6c607","system_id":"levelo_inurba_marseille","lat":43.29725,"lon":5.37687,"is_reserved":false,"is_disabled":false,"rental_uris":{"android":"levelo://app?vid=1271dd10-76a9-492a-8c22-c3d053d6c607","ios":"levelo://app?vid=1271dd10-76a9-492a-8c22-c3d053d6c607"},"vehicle_type_id":"4","last_reported":1777041823,"current_range_meters":6800,"station_id":"ce4bgkh2rcd13ifvqbl0","pricing_plan_id":"cebpf4jnsgd1na2vs0mg"},{"bike_id":"c025fe4d-f167-4f80-bde7-0dfb9be7b37b","system_id":"levelo_inurba_marseille","lat":43.28483,"lon":5.4839,"is_reserved":false,"is_disabled":false,"rental_uris":{"android":"levelo://app?vid=c025fe4d-f167-4f80-bde7-0dfb9be7b37b","ios":"levelo://app?vid=c025fe4d-f167-4f80-bde7-0dfb9be7b37b"},"vehicle_type_id":"4","last_reported":1777041823,"current_range_meters":6800,"station_id":"","pricing_plan_id":"cebpf4jnsgd1na2vs0mg"},{"bike_id":"6a979988-2dd0-41f2-9c5f-0c6cc10fba5f","system_id":"levelo_inurba_marseille","lat":43.2417,"lon":5.36404,"is_reserved":false,"is_disabled":false,"rental_uris":{"android":"levelo://app?vid=6a979988-2dd0-41f2-9c5f-0c6cc10fba5f","ios":"levelo://app?vid=6a979988-2dd0-41f2-9c5f-0c6cc10fba5f"},"vehicle_type_id":"4","last_reported":1777041823,"current_range_meters":6800,"station_id":"cpo36qri1sfpv3e86is0","pricing_plan_id":"cebpf4jnsgd1na2vs0mg"},{"bike_id":"00540f6c-b5bb-496b-bb52-f1ff4808075d","system_id":"levelo_inurba_marseille","lat":43.28215,"lon":5.40552,"is_reserved":false,"is_disabled":false,"rental_uris":{"android":"levelo://app?vid=00540f6c-b5bb-496b-bb52-f1ff4808075d","ios":"levelo://app?vid=00540f6c-b5bb-496b-bb52-f1ff4808075d"},"vehicle_type_id":"4","last_reported":1777041823,"current_range_meters":6800,"station_id":"","pricing_plan_id":"cebpf4jnsgd1na2vs0mg"},{"bike_id":"38a26b0b-48ca-44e2-a5be-bf5014d1d45c","system_id":"levelo_inurba_marseille","lat":43.28246,"lon":5.35081,"is_reserved":false,"is_disabled":false,"rental_uris":{"android":"levelo://app?vid=38a26b0b-48ca-44e2-a5be-bf5014d1d45c","ios":"levelo://app?vid=38a26b0b-48ca-44e2-a5be-bf5014d1d45c"},"vehicle_type_id":"4","last_reported":1777041823,"current_range_meters":6800,"station_id":"ce4bhbp2rcd13ifvqerg","pricing_plan_id":"cebpf4jnsgd1na2vs0mg"},{"bike_id":"2891ab8a-cfdb-46ac-9b86-dfe9cc577b6c","system_id":"levelo_inurba_marseille","lat":43.28624,"lon":5.35101,"is_reserved":false,"is_disabled":false,"rental_uris":{"android":"levelo://app?vid=2891ab8a-cfdb-46ac-9b86-dfe9cc577b6c","ios":"levelo://app?vid=2891ab8a-cfdb-46ac-9b86-dfe9cc577b6c"},"vehicle_type_id":"4","last_reported":1777041823,"current_range_meters":6800,"station_id":"ce4bhch2rcd13ifvqeug","pricing_plan_id":"cebpf4jnsgd1na2vs0mg"},{"bike_id":"be3a84c7-c8c8-41bd-9d1f-d02d58a229bd","system_id":"levelo_inurba_marseille","lat":43.30268,"lon":5.37715,"is_reserved":false,"is_disabled":false,"rental_uris":{"android":"levelo://app?vid=be3a84c7-c8c8-41bd-9d1f-d02d58a229bd","ios":"levelo://app?vid=be3a84c7-c8c8-41bd-9d1f-d02d58a229bd"},"vehicle_type_id":"4","last_reported":1777041823,"current_range_meters":7200,"station_id":"ce4bguh2rcd13ifvqcj0","pricing_plan_id":"cebpf4jnsgd1na2vs0mg"},{"bike_id":"55f585b9-cb27-49d4-ab67-b14346195d8c","system_id":"levelo_inurba_marseille","lat":43.2869,"lon":5.46708,"is_reserved":false,"is_disabled":false,"rental_uris":{"android":"levelo://app?vid=55f585b9-cb27-49d4-ab67-b14346195d8c","ios":"levelo://app?vid=55f585b9-cb27-49d4-ab67-b14346195d8c"},"vehicle_type_id":"4","last_reported":1777041823,"current_range_meters":7200,"station_id":"st_d6tc3vkotcvc738tfjhg","pricing_plan_id":"cebpf4jnsgd1na2vs0mg"},{"bike_id":"b38d89b8-c3c9-4fae-b6f2-09980d89f2e9","system_id":"levelo_inurba_marseille","lat":43.28486,"lon":5.48398,"is_reserved":false,"is_disabled":false,"rental_uris":{"android":"levelo://app?vid=b38d89b8-c3c9-4fae-b6f2-09980d89f2e9","ios":"levelo://app?vid=b38d89b8-c3c9-4fae-b6f2-09980d89f2e9"},"vehicle_type_id":"4","last_reported":1777041823,"current_range_meters":7200,"station_id":"","pricing_plan_id":"cebpf4jnsgd1na2vs0mg"},{"bike_id":"50b3537d-0369-460e-8281-426df86e0856","system_id":"levelo_inurba_marseille","lat":43.30071,"lon":5.36431,"is_reserved":false,"is_disabled":false,"rental_uris":{"android":"levelo://app?vid=50b3537d-0369-460e-8281-426df86e0856","ios":"levelo://app?vid=50b3537d-0369-460e-8281-426df86e0856"},"vehicle_type_id":"4","last_reported":1777041823,"current_range_meters":7200,"station_id":"","pricing_plan_id":"cebpf4jnsgd1na2vs0mg"},{"bike_id":"ad1b5f4d-fb1f-49d4-9b95-c4a07de3be1a","system_id":"levelo_inurba_marseille","lat":43.30801,"lon":5.3814,"is_reserved":false,"is_disabled":false,"rental_uris":{"android":"levelo://app?vid=ad1b5f4d-fb1f-49d4-9b95-c4a07de3be1a","ios":"levelo://app?vid=ad1b5f4d-fb1f-49d4-9b95-c4a07de3be1a"},"vehicle_type_id":"4","last_reported":1777041823,"current_range_meters":7200,"station_id":"ce4bgt12rcd13ifvqce0","pricing_plan_id":"cebpf4jnsgd1na2vs0mg"},{"bike_id":"e8d6ce3d-1aa9-47ef-9b48-93862ee5f7fd","system_id":"levelo_inurba_marseille","lat":43.21268,"lon":5.35407,"is_reserved":false,"is_disabled":false,"rental_uris":{"android":"levelo://app?vid=e8d6ce3d-1aa9-47ef-9b48-93862ee5f7fd","ios":"levelo://app?vid=e8d6ce3d-1aa9-47ef-9b48-93862ee5f7fd"},"vehicle_type_id":"4","last_reported":1777041823,"current_range_meters":7200,"station_id":"","pricing_plan_id":"cebpf4jnsgd1na2vs0mg"},{"bike_id":"df894910-c285-4777-acdb-9b06b38b0c31","system_id":"levelo_inurba_marseille","lat":43.30779,"lon":5.3765,"is_reserved":false,"is_disabled":false,"rental_uris":{"android":"levelo://app?vid=df894910-c285-4777-acdb-9b06b38b0c31","ios":"levelo://app?vid=df894910-c285-4777-acdb-9b06b38b0c31"},"vehicle_type_id":"4","last_reported":1777041823,"current_range_meters":7200,"station_id":"ce4bgv92rcd13ifvqcq0","pricing_plan_id":"cebpf4jnsgd1na2vs0mg"},{"bike_id":"cb035ff8-d2a1-4635-925d-e2af061ab0ff","system_id":"levelo_inurba_marseille","lat":43.26563,"lon":5.373,"is_reserved":false,"is_disabled":false,"rental_uris":{"android":"levelo://app?vid=cb035ff8-d2a1-4635-925d-e2af061ab0ff","ios":"levelo://app?vid=cb035ff8-d2a1-4635-925d-e2af061ab0ff"},"vehicle_type_id":"4","last_reported":1777041823,"current_range_meters":7200,"station_id":"ce4bhg12rcd13ifvqf70","pricing_plan_id":"cebpf4jnsgd1na2vs0mg"},{"bike_id":"b10e388b-a119-4b7b-87b2-c9ca007b4026","system_id":"levelo_inurba_marseille","lat":43.33187,"lon":5.37752,"is_reserved":false,"is_disabled":false,"rental_uris":{"android":"levelo://app?vid=b10e388b-a119-4b7b-87b2-c9ca007b4026","ios":"levelo://app?vid=b10e388b-a119-4b7b-87b2-c9ca007b4026"},"vehicle_type_id":"4","last_reported":1777041823,"current_range_meters":7200,"station_id":"","pricing_plan_id":"cebpf4jnsgd1na2vs0mg"},{"bike_id":"141f059f-6d5f-4301-9c09-4ad988e4bde5","system_id":"levelo_inurba_marseille","lat":43.23777,"lon":5.36598,"is_reserved":false,"is_disabled":false,"rental_uris":{"android":"levelo://app?vid=141f059f-6d5f-4301-9c09-4ad988e4bde5","ios":"levelo://app?vid=141f059f-6d5f-4301-9c09-4ad988e4bde5"},"vehicle_type_id":"4","last_reported":1777041823,"current_range_meters":7200,"station_id":"st_d3nk18o9ro0c73en2l3g","pricing_plan_id":"cebpf4jnsgd1na2vs0mg"},{"bike_id":"1f3906dd-948e-4d18-9bb2-b2fc350fa481","system_id":"levelo_inurba_marseille","lat":43.2741,"lon":5.39393,"is_reserved":false,"is_disabled":true,"rental_uris":{"android":"levelo://app?vid=1f3906dd-948e-4d18-9bb2-b2fc350fa481","ios":"levelo://app?vid=1f3906dd-948e-4d18-9bb2-b2fc350fa481"},"vehicle_type_id":"4","last_reported":1777041823,"current_range_meters":7200,"station_id":"ce4bhdp2rcd13ifvqf20","pricing_plan_id":"cebpf4jnsgd1na2vs0mg"},{"bike_id":"aceca698-157b-4df0-b522-ebbe68fb2014","system_id":"levelo_inurba_marseille","lat":43.28625,"lon":5.35096,"is_reserved":false,"is_disabled":false,"rental_uris":{"android":"levelo://app?vid=aceca698-157b-4df0-b522-ebbe68fb2014","ios":"levelo://app?vid=aceca698-157b-4df0-b522-ebbe68fb2014"},"vehicle_type_id":"4","last_reported":1777041823,"current_range_meters":7200,"station_id":"ce4bhch2rcd13ifvqeug","pricing_plan_id":"cebpf4jnsgd1na2vs0mg"},{"bike_id":"2a950965-8435-4475-9b9d-c040be2fba0a","system_id":"levelo_inurba_marseille","lat":43.2923,"lon":5.36042,"is_reserved":false,"is_disabled":false,"rental_uris":{"android":"levelo://app?vid=2a950965-8435-4475-9b9d-c040be2fba0a","ios":"levelo://app?vid=2a950965-8435-4475-9b9d-c040be2fba0a"},"vehicle_type_id":"4","last_reported":1777041823,"current_range_meters":8000,"station_id":"ce4bhbh2rcd13ifvqeqg","pricing_plan_id":"cebpf4jnsgd1na2vs0mg"},{"bike_id":"c4a6cf3f-a5b9-43d7-91d0-4da564433a66","system_id":"levelo_inurba_marseille","lat":43.30157,"lon":5.3743,"is_reserved":false,"is_disabled":false,"rental_uris":{"android":"levelo://app?vid=c4a6cf3f-a5b9-43d7-91d0-4da564433a66","ios":"levelo://app?vid=c4a6cf3f-a5b9-43d7-91d0-4da564433a66"},"vehicle_type_id":"4","last_reported":1777041823,"current_range_meters":8000,"station_id":"ce4bgs92rcd13ifvqcc0","pricing_plan_id":"cebpf4jnsgd1na2vs0mg"},{"bike_id":"3762a15a-49a2-4fc6-b2e6-a79b5f91a12f","system_id":"levelo_inurba_marseille","lat":43.28484,"lon":5.48396,"is_reserved":false,"is_disabled":false,"rental_uris":{"android":"levelo://app?vid=3762a15a-49a2-4fc6-b2e6-a79b5f91a12f","ios":"levelo://app?vid=3762a15a-49a2-4fc6-b2e6-a79b5f91a12f"},"vehicle_type_id":"4","last_reported":1777041823,"current_range_meters":8000,"station_id":"","pricing_plan_id":"cebpf4jnsgd1na2vs0mg"},{"bike_id":"8a4d316b-7dfb-42df-8aea-4c7d58210d7a","system_id":"levelo_inurba_marseille","lat":43.31258,"lon":5.43071,"is_reserved":false,"is_disabled":false,"rental_uris":{"android":"levelo://app?vid=8a4d316b-7dfb-42df-8aea-4c7d58210d7a","ios":"levelo://app?vid=8a4d316b-7dfb-42df-8aea-4c7d58210d7a"},"vehicle_type_id":"4","last_reported":1777041823,"current_range_meters":8000,"station_id":"","pricing_plan_id":"cebpf4jnsgd1na2vs0mg"},{"bike_id":"77bc4dc8-dab2-4f57-af90-260b7b9fa790","system_id":"levelo_inurba_marseille","lat":43.31492,"lon":5.373,"is_reserved":false,"is_disabled":false,"rental_uris":{"android":"levelo://app?vid=77bc4dc8-dab2-4f57-af90-260b7b9fa790","ios":"levelo://app?vid=77bc4dc8-dab2-4f57-af90-260b7b9fa790"},"vehicle_type_id":"4","last_reported":1777041823,"current_range_meters":8000,"station_id":"ce4bgt12rcd13ifvqcd0","pricing_plan_id":"cebpf4jnsgd1na2vs0mg"},{"bike_id":"cd21f6c1-a1f8-4978-8025-1d254a6bf514","system_id":"levelo_inurba_marseille","lat":43.28484,"lon":5.48391,"is_reserved":false,"is_disabled":false,"rental_uris":{"android":"levelo://app?vid=cd21f6c1-a1f8-4978-8025-1d254a6bf514","ios":"levelo://app?vid=cd21f6c1-a1f8-4978-8025-1d254a6bf514"},"vehicle_type_id":"4","last_reported":1777041823,"current_range_meters":8000,"station_id":"st_d3svhcjqgbts73a3dn0g","pricing_plan_id":"cebpf4jnsgd1na2vs0mg"},{"bike_id":"09588713-6134-4ac5-a198-0c9f88132226","system_id":"levelo_inurba_marseille","lat":43.30149,"lon":5.38087,"is_reserved":false,"is_disabled":false,"rental_uris":{"android":"levelo://app?vid=09588713-6134-4ac5-a198-0c9f88132226","ios":"levelo://app?vid=09588713-6134-4ac5-a198-0c9f88132226"},"vehicle_type_id":"4","last_reported":1777041823,"current_range_meters":8000,"station_id":"ce4bgjp2rcd13ifvqbh0","pricing_plan_id":"cebpf4jnsgd1na2vs0mg"},{"bike_id":"82b7d040-9f27-45c4-a277-7e49b319e721","system_id":"levelo_inurba_marseille","lat":43.29788,"lon":5.39342,"is_reserved":false,"is_disabled":false,"rental_uris":{"android":"levelo://app?vid=82b7d040-9f27-45c4-a277-7e49b319e721","ios":"levelo://app?vid=82b7d040-9f27-45c4-a277-7e49b319e721"},"vehicle_type_id":"4","last_reported":1777041823,"current_range_meters":8000,"station_id":"chh1huq6cuj3fo74tm60","pricing_plan_id":"cebpf4jnsgd1na2vs0mg"},{"bike_id":"f61c465b-9001-42c2-a22c-e2859cfc2f02","system_id":"levelo_inurba_marseille","lat":43.26221,"lon":5.38767,"is_reserved":false,"is_disabled":false,"rental_uris":{"android":"levelo://app?vid=f61c465b-9001-42c2-a22c-e2859cfc2f02","ios":"levelo://app?vid=f61c465b-9001-42c2-a22c-e2859cfc2f02"},"vehicle_type_id":"4","last_reported":1777041823,"current_range_meters":8000,"station_id":"","pricing_plan_id":"cebpf4jnsgd1na2vs0mg"},{"bike_id":"fdeabaa4-fdd5-4f26-b50a-a06f5415de80","system_id":"levelo_inurba_marseille","lat":43.33619,"lon":5.41037,"is_reserved":false,"is_disabled":false,"rental_uris":{"android":"levelo://app?vid=fdeabaa4-fdd5-4f26-b50a-a06f5415de80","ios":"levelo://app?vid=fdeabaa4-fdd5-4f26-b50a-a06f5415de80"},"vehicle_type_id":"4","last_reported":1777041823,"current_range_meters":8000,"station_id":"ce4bhqh2rcd13ifvqhmg","pricing_plan_id":"cebpf4jnsgd1na2vs0mg"},{"bike_id":"ec19aaad-2410-439f-9123-e83fa1c535f8","system_id":"levelo_inurba_marseille","lat":43.28273,"lon":5.37926,"is_reserved":false,"is_disabled":false,"rental_uris":{"android":"levelo://app?vid=ec19aaad-2410-439f-9123-e83fa1c535f8","ios":"levelo://app?vid=ec19aaad-2410-439f-9123-e83fa1c535f8"},"vehicle_type_id":"4","last_reported":1777041823,"current_range_meters":8000,"station_id":"","pricing_plan_id":"cebpf4jnsgd1na2vs0mg"},{"bike_id":"04c3c696-c4f1-49ce-b3d3-0080889af344","system_id":"levelo_inurba_marseille","lat":43.30802,"lon":5.38799,"is_reserved":false,"is_disabled":false,"rental_uris":{"android":"levelo://app?vid=04c3c696-c4f1-49ce-b3d3-0080889af344","ios":"levelo://app?vid=04c3c696-c4f1-49ce-b3d3-0080889af344"},"vehicle_type_id":"4","last_reported":1777041823,"current_range_meters":8000,"station_id":"","pricing_plan_id":"cebpf4jnsgd1na2vs0mg"},{"bike_id":"a761cf7e-dba0-4426-a8df-1c6d3496c36c","system_id":"levelo_inurba_marseille","lat":43.25517,"lon":5.3762,"is_reserved":false,"is_disabled":false,"rental_uris":{"android":"levelo://app?vid=a761cf7e-dba0-4426-a8df-1c6d3496c36c","ios":"levelo://app?vid=a761cf7e-dba0-4426-a8df-1c6d3496c36c"},"vehicle_type_id":"4","last_reported":1777041823,"current_range_meters":8000,"station_id":"ce4bhh12rcd13ifvqff0","pricing_plan_id":"cebpf4jnsgd1na2vs0mg"},{"bike_id":"26ba4fc0-7a9c-4ea4-b183-2e48ae6bc52f","system_id":"levelo_inurba_marseille","lat":43.28929,"lon":5.38388,"is_reserved":false,"is_disabled":false,"rental_uris":{"android":"levelo://app?vid=26ba4fc0-7a9c-4ea4-b183-2e48ae6bc52f","ios":"levelo://app?vid=26ba4fc0-7a9c-4ea4-b183-2e48ae6bc52f"},"vehicle_type_id":"4","last_reported":1777041823,"current_range_meters":8000,"station_id":"ce4bh612rcd13ifvqe6g","pricing_plan_id":"cebpf4jnsgd1na2vs0mg"},{"bike_id":"fefb58cb-a447-4beb-bc01-c814e089e0ee","system_id":"levelo_inurba_marseille","lat":43.28427,"lon":5.35007,"is_reserved":false,"is_disabled":false,"rental_uris":{"android":"levelo://app?vid=fefb58cb-a447-4beb-bc01-c814e089e0ee","ios":"levelo://app?vid=fefb58cb-a447-4beb-bc01-c814e089e0ee"},"vehicle_type_id":"4","last_reported":1777041823,"current_range_meters":8000,"station_id":"ce4bhbh2rcd13ifvqepg","pricing_plan_id":"cebpf4jnsgd1na2vs0mg"},{"bike_id":"27c42ac1-b3ae-44d2-a7ac-ec95314cb289","system_id":"levelo_inurba_marseille","lat":43.28412,"lon":5.34995,"is_reserved":false,"is_disabled":false,"rental_uris":{"android":"levelo://app?vid=27c42ac1-b3ae-44d2-a7ac-ec95314cb289","ios":"levelo://app?vid=27c42ac1-b3ae-44d2-a7ac-ec95314cb289"},"vehicle_type_id":"4","last_reported":1777041823,"current_range_meters":8400,"station_id":"ce4bhbh2rcd13ifvqepg","pricing_plan_id":"cebpf4jnsgd1na2vs0mg"},{"bike_id":"feb32492-c682-40ce-a486-b3128ef279f4","system_id":"levelo_inurba_marseille","lat":43.299675,"lon":5.384783,"is_reserved":false,"is_disabled":true,"rental_uris":{"android":"levelo://app?vid=feb32492-c682-40ce-a486-b3128ef279f4","ios":"levelo://app?vid=feb32492-c682-40ce-a486-b3128ef279f4"},"vehicle_type_id":"4","last_reported":1777041823,"current_range_meters":8400,"station_id":"ce4bho92rcd13ifvqh3g","pricing_plan_id":"cebpf4jnsgd1na2vs0mg"},{"bike_id":"1a7cc90b-14b1-4e29-812d-d8aa757ac60e","system_id":"levelo_inurba_marseille","lat":43.2762,"lon":5.36117,"is_reserved":false,"is_disabled":false,"rental_uris":{"android":"levelo://app?vid=1a7cc90b-14b1-4e29-812d-d8aa757ac60e","ios":"levelo://app?vid=1a7cc90b-14b1-4e29-812d-d8aa757ac60e"},"vehicle_type_id":"4","last_reported":1777041823,"current_range_meters":8400,"station_id":"ce4bgj92rcd13ifvqbe0","pricing_plan_id":"cebpf4jnsgd1na2vs0mg"},{"bike_id":"e857004b-2bd0-424f-a388-5718a5c55f54","system_id":"levelo_inurba_marseille","lat":43.30536,"lon":5.36693,"is_reserved":false,"is_disabled":false,"rental_uris":{"android":"levelo://app?vid=e857004b-2bd0-424f-a388-5718a5c55f54","ios":"levelo://app?vid=e857004b-2bd0-424f-a388-5718a5c55f54"},"vehicle_type_id":"4","last_reported":1777041823,"current_range_meters":8400,"station_id":"ce4bgrp2rcd13ifvqc9g","pricing_plan_id":"cebpf4jnsgd1na2vs0mg"},{"bike_id":"bae829bb-cf17-4213-99d2-3d2c30c8d24a","system_id":"levelo_inurba_marseille","lat":43.30518,"lon":5.36732,"is_reserved":false,"is_disabled":false,"rental_uris":{"android":"levelo://app?vid=bae829bb-cf17-4213-99d2-3d2c30c8d24a","ios":"levelo://app?vid=bae829bb-cf17-4213-99d2-3d2c30c8d24a"},"vehicle_type_id":"4","last_reported":1777041823,"current_range_meters":8400,"station_id":"ce4bgrp2rcd13ifvqc9g","pricing_plan_id":"cebpf4jnsgd1na2vs0mg"},{"bike_id":"cec254d1-30f5-4acf-9895-5c216996a429","system_id":"levelo_inurba_marseille","lat":43.27377,"lon":5.36244,"is_reserved":false,"is_disabled":false,"rental_uris":{"android":"levelo://app?vid=cec254d1-30f5-4acf-9895-5c216996a429","ios":"levelo://app?vid=cec254d1-30f5-4acf-9895-5c216996a429"},"vehicle_type_id":"4","last_reported":1777041823,"current_range_meters":8400,"station_id":"ce4bhbh2rcd13ifvqeo0","pricing_plan_id":"cebpf4jnsgd1na2vs0mg"},{"bike_id":"b51ac87f-04a3-4bf1-9075-041179aa6f28","system_id":"levelo_inurba_marseille","lat":43.22553,"lon":5.41639,"is_reserved":false,"is_disabled":false,"rental_uris":{"android":"levelo://app?vid=b51ac87f-04a3-4bf1-9075-041179aa6f28","ios":"levelo://app?vid=b51ac87f-04a3-4bf1-9075-041179aa6f28"},"vehicle_type_id":"4","last_reported":1777041823,"current_range_meters":8400,"station_id":"st_d2o4gvlbi1j2169b742g","pricing_plan_id":"cebpf4jnsgd1na2vs0mg"},{"bike_id":"64a4b08b-a104-498b-b710-8a456a1d974f","system_id":"levelo_inurba_marseille","lat":43.28421,"lon":5.34998,"is_reserved":false,"is_disabled":false,"rental_uris":{"android":"levelo://app?vid=64a4b08b-a104-498b-b710-8a456a1d974f","ios":"levelo://app?vid=64a4b08b-a104-498b-b710-8a456a1d974f"},"vehicle_type_id":"4","last_reported":1777041823,"current_range_meters":8400,"station_id":"ce4bhbh2rcd13ifvqepg","pricing_plan_id":"cebpf4jnsgd1na2vs0mg"},{"bike_id":"853b67ec-e5d9-4400-986c-ef0c0a4451d1","system_id":"levelo_inurba_marseille","lat":43.28423,"lon":5.34993,"is_reserved":false,"is_disabled":false,"rental_uris":{"android":"levelo://app?vid=853b67ec-e5d9-4400-986c-ef0c0a4451d1","ios":"levelo://app?vid=853b67ec-e5d9-4400-986c-ef0c0a4451d1"},"vehicle_type_id":"4","last_reported":1777041823,"current_range_meters":8400,"station_id":"ce4bhbh2rcd13ifvqepg","pricing_plan_id":"cebpf4jnsgd1na2vs0mg"},{"bike_id":"e8d002b1-199e-4516-8ed6-821a0c98040c","system_id":"levelo_inurba_marseille","lat":43.33769,"lon":5.37476,"is_reserved":false,"is_disabled":false,"rental_uris":{"android":"levelo://app?vid=e8d002b1-199e-4516-8ed6-821a0c98040c","ios":"levelo://app?vid=e8d002b1-199e-4516-8ed6-821a0c98040c"},"vehicle_type_id":"4","last_reported":1777041823,"current_range_meters":8400,"station_id":"st_d46cu089ee8s73dldbu0","pricing_plan_id":"cebpf4jnsgd1na2vs0mg"},{"bike_id":"4fb8ad9c-f577-4ab1-bacf-dc2e627f0e7d","system_id":"levelo_inurba_marseille","lat":43.27493,"lon":5.41615,"is_reserved":false,"is_disabled":false,"rental_uris":{"android":"levelo://app?vid=4fb8ad9c-f577-4ab1-bacf-dc2e627f0e7d","ios":"levelo://app?vid=4fb8ad9c-f577-4ab1-bacf-dc2e627f0e7d"},"vehicle_type_id":"4","last_reported":1777041823,"current_range_meters":8400,"station_id":"st_d6im8g6chgec73a5pndg","pricing_plan_id":"cebpf4jnsgd1na2vs0mg"},{"bike_id":"e6be81da-81b8-4383-a276-cd00117d75af","system_id":"levelo_inurba_marseille","lat":43.24393,"lon":5.37053,"is_reserved":false,"is_disabled":false,"rental_uris":{"android":"levelo://app?vid=e6be81da-81b8-4383-a276-cd00117d75af","ios":"levelo://app?vid=e6be81da-81b8-4383-a276-cd00117d75af"},"vehicle_type_id":"4","last_reported":1777041823,"current_range_meters":8400,"station_id":"ce4bhhh2rcd13ifvqfk0","pricing_plan_id":"cebpf4jnsgd1na2vs0mg"},{"bike_id":"6683f1c1-5438-4145-9f5d-8b7a78196c6b","system_id":"levelo_inurba_marseille","lat":43.28244,"lon":5.35063,"is_reserved":false,"is_disabled":false,"rental_uris":{"android":"levelo://app?vid=6683f1c1-5438-4145-9f5d-8b7a78196c6b","ios":"levelo://app?vid=6683f1c1-5438-4145-9f5d-8b7a78196c6b"},"vehicle_type_id":"4","last_reported":1777041823,"current_range_meters":8400,"station_id":"ce4bhbp2rcd13ifvqerg","pricing_plan_id":"cebpf4jnsgd1na2vs0mg"},{"bike_id":"d4133a12-9f1a-473b-92cd-9a370f3bd027","system_id":"levelo_inurba_marseille","lat":43.30882,"lon":5.39647,"is_reserved":false,"is_disabled":false,"rental_uris":{"android":"levelo://app?vid=d4133a12-9f1a-473b-92cd-9a370f3bd027","ios":"levelo://app?vid=d4133a12-9f1a-473b-92cd-9a370f3bd027"},"vehicle_type_id":"4","last_reported":1777041823,"current_range_meters":8400,"station_id":"ce4bh012rcd13ifvqcv0","pricing_plan_id":"cebpf4jnsgd1na2vs0mg"},{"bike_id":"c7ac0306-6afc-4781-8692-f962ddfe1a23","system_id":"levelo_inurba_marseille","lat":43.32365,"lon":5.36747,"is_reserved":false,"is_disabled":false,"rental_uris":{"android":"levelo://app?vid=c7ac0306-6afc-4781-8692-f962ddfe1a23","ios":"levelo://app?vid=c7ac0306-6afc-4781-8692-f962ddfe1a23"},"vehicle_type_id":"4","last_reported":1777041823,"current_range_meters":8400,"station_id":"ce4bhsh2rcd13ifvqi2g","pricing_plan_id":"cebpf4jnsgd1na2vs0mg"},{"bike_id":"da2c1c52-834e-4440-914e-8905211fa272","system_id":"levelo_inurba_marseille","lat":43.30131,"lon":5.38785,"is_reserved":false,"is_disabled":false,"rental_uris":{"android":"levelo://app?vid=da2c1c52-834e-4440-914e-8905211fa272","ios":"levelo://app?vid=da2c1c52-834e-4440-914e-8905211fa272"},"vehicle_type_id":"4","last_reported":1777041823,"current_range_meters":8400,"station_id":"ce4bghh2rcd13ifvqb60","pricing_plan_id":"cebpf4jnsgd1na2vs0mg"},{"bike_id":"e76b3974-d803-4d2d-9b4c-e2da67aaea77","system_id":"levelo_inurba_marseille","lat":43.30599,"lon":5.37222,"is_reserved":false,"is_disabled":false,"rental_uris":{"android":"levelo://app?vid=e76b3974-d803-4d2d-9b4c-e2da67aaea77","ios":"levelo://app?vid=e76b3974-d803-4d2d-9b4c-e2da67aaea77"},"vehicle_type_id":"4","last_reported":1777041823,"current_range_meters":8800,"station_id":"ce4bgqh2rcd13ifvqc4g","pricing_plan_id":"cebpf4jnsgd1na2vs0mg"},{"bike_id":"ef1780af-1aea-4e08-82c2-da4d0be385bf","system_id":"levelo_inurba_marseille","lat":43.29011,"lon":5.36061,"is_reserved":false,"is_disabled":false,"rental_uris":{"android":"levelo://app?vid=ef1780af-1aea-4e08-82c2-da4d0be385bf","ios":"levelo://app?vid=ef1780af-1aea-4e08-82c2-da4d0be385bf"},"vehicle_type_id":"4","last_reported":1777041823,"current_range_meters":8800,"station_id":"","pricing_plan_id":"cebpf4jnsgd1na2vs0mg"},{"bike_id":"8728befb-29e6-49d2-bf76-522c6cf1fe13","system_id":"levelo_inurba_marseille","lat":43.29842,"lon":5.36264,"is_reserved":false,"is_disabled":false,"rental_uris":{"android":"levelo://app?vid=8728befb-29e6-49d2-bf76-522c6cf1fe13","ios":"levelo://app?vid=8728befb-29e6-49d2-bf76-522c6cf1fe13"},"vehicle_type_id":"4","last_reported":1777041823,"current_range_meters":8800,"station_id":"ce4bgpp2rcd13ifvqc3g","pricing_plan_id":"cebpf4jnsgd1na2vs0mg"},{"bike_id":"4af5f932-71ad-4954-ac3b-fecb2a352994","system_id":"levelo_inurba_marseille","lat":43.32339,"lon":5.36727,"is_reserved":false,"is_disabled":false,"rental_uris":{"android":"levelo://app?vid=4af5f932-71ad-4954-ac3b-fecb2a352994","ios":"levelo://app?vid=4af5f932-71ad-4954-ac3b-fecb2a352994"},"vehicle_type_id":"4","last_reported":1777041823,"current_range_meters":8800,"station_id":"ce4bhsh2rcd13ifvqi2g","pricing_plan_id":"cebpf4jnsgd1na2vs0mg"},{"bike_id":"2963a251-8912-4df5-a9a7-c5da38bddb27","system_id":"levelo_inurba_marseille","lat":43.29621,"lon":5.37167,"is_reserved":false,"is_disabled":false,"rental_uris":{"android":"levelo://app?vid=2963a251-8912-4df5-a9a7-c5da38bddb27","ios":"levelo://app?vid=2963a251-8912-4df5-a9a7-c5da38bddb27"},"vehicle_type_id":"4","last_reported":1777041823,"current_range_meters":8800,"station_id":"ce4bgnh2rcd13ifvqc0g","pricing_plan_id":"cebpf4jnsgd1na2vs0mg"},{"bike_id":"71615c26-fade-46e1-a945-fc5258c6e368","system_id":"levelo_inurba_marseille","lat":43.24169,"lon":5.36392,"is_reserved":false,"is_disabled":false,"rental_uris":{"android":"levelo://app?vid=71615c26-fade-46e1-a945-fc5258c6e368","ios":"levelo://app?vid=71615c26-fade-46e1-a945-fc5258c6e368"},"vehicle_type_id":"4","last_reported":1777041823,"current_range_meters":8800,"station_id":"cpo36qri1sfpv3e86is0","pricing_plan_id":"cebpf4jnsgd1na2vs0mg"},{"bike_id":"ad1189e4-d5b6-4f94-9b4d-62bbcbac5f29","system_id":"levelo_inurba_marseille","lat":43.28162,"lon":5.42644,"is_reserved":false,"is_disabled":false,"rental_uris":{"android":"levelo://app?vid=ad1189e4-d5b6-4f94-9b4d-62bbcbac5f29","ios":"levelo://app?vid=ad1189e4-d5b6-4f94-9b4d-62bbcbac5f29"},"vehicle_type_id":"4","last_reported":1777041823,"current_range_meters":8800,"station_id":"ce4bhnh2rcd13ifvqgug","pricing_plan_id":"cebpf4jnsgd1na2vs0mg"},{"bike_id":"7a2f3cdf-8047-459f-a910-224a3bbb2f42","system_id":"levelo_inurba_marseille","lat":43.25833,"lon":5.39489,"is_reserved":false,"is_disabled":false,"rental_uris":{"android":"levelo://app?vid=7a2f3cdf-8047-459f-a910-224a3bbb2f42","ios":"levelo://app?vid=7a2f3cdf-8047-459f-a910-224a3bbb2f42"},"vehicle_type_id":"4","last_reported":1777041823,"current_range_meters":8800,"station_id":"ce4bhip2rcd13ifvqft0","pricing_plan_id":"cebpf4jnsgd1na2vs0mg"},{"bike_id":"c2abb490-4c58-4787-a9ef-92b2ed963e08","system_id":"levelo_inurba_marseille","lat":43.23186,"lon":5.35552,"is_reserved":false,"is_disabled":false,"rental_uris":{"android":"levelo://app?vid=c2abb490-4c58-4787-a9ef-92b2ed963e08","ios":"levelo://app?vid=c2abb490-4c58-4787-a9ef-92b2ed963e08"},"vehicle_type_id":"4","last_reported":1777041823,"current_range_meters":8800,"station_id":"ce4bhu92rcd13ifvqi70","pricing_plan_id":"cebpf4jnsgd1na2vs0mg"},{"bike_id":"530bfa1f-2854-492a-b76d-977b700668e1","system_id":"levelo_inurba_marseille","lat":43.27934,"lon":5.41043,"is_reserved":false,"is_disabled":false,"rental_uris":{"android":"levelo://app?vid=530bfa1f-2854-492a-b76d-977b700668e1","ios":"levelo://app?vid=530bfa1f-2854-492a-b76d-977b700668e1"},"vehicle_type_id":"4","last_reported":1777041823,"current_range_meters":8800,"station_id":"ce4bhnp2rcd13ifvqh0g","pricing_plan_id":"cebpf4jnsgd1na2vs0mg"},{"bike_id":"8b8b5db3-e95a-497f-b84a-b89a12682ca4","system_id":"levelo_inurba_marseille","lat":43.29816,"lon":5.44064,"is_reserved":false,"is_disabled":false,"rental_uris":{"android":"levelo://app?vid=8b8b5db3-e95a-497f-b84a-b89a12682ca4","ios":"levelo://app?vid=8b8b5db3-e95a-497f-b84a-b89a12682ca4"},"vehicle_type_id":"4","last_reported":1777041823,"current_range_meters":8800,"station_id":"st_d3jp68qikq2c7381ktn0","pricing_plan_id":"cebpf4jnsgd1na2vs0mg"},{"bike_id":"261b4d20-3fce-4a9a-b1df-f7d9447249df","system_id":"levelo_inurba_marseille","lat":43.28481,"lon":5.48384,"is_reserved":false,"is_disabled":false,"rental_uris":{"android":"levelo://app?vid=261b4d20-3fce-4a9a-b1df-f7d9447249df","ios":"levelo://app?vid=261b4d20-3fce-4a9a-b1df-f7d9447249df"},"vehicle_type_id":"4","last_reported":1777041823,"current_range_meters":8800,"station_id":"st_d3svhcjqgbts73a3dn0g","pricing_plan_id":"cebpf4jnsgd1na2vs0mg"},{"bike_id":"312ceb2b-f28e-46fb-b88a-f5b53355107d","system_id":"levelo_inurba_marseille","lat":43.26579,"lon":5.37322,"is_reserved":false,"is_disabled":false,"rental_uris":{"android":"levelo://app?vid=312ceb2b-f28e-46fb-b88a-f5b53355107d","ios":"levelo://app?vid=312ceb2b-f28e-46fb-b88a-f5b53355107d"},"vehicle_type_id":"4","last_reported":1777041823,"current_range_meters":8800,"station_id":"ce4bhg12rcd13ifvqf70","pricing_plan_id":"cebpf4jnsgd1na2vs0mg"},{"bike_id":"d92be06d-d028-4ecd-87a2-39e98323c956","system_id":"levelo_inurba_marseille","lat":43.2958,"lon":5.37509,"is_reserved":false,"is_disabled":false,"rental_uris":{"android":"levelo://app?vid=d92be06d-d028-4ecd-87a2-39e98323c956","ios":"levelo://app?vid=d92be06d-d028-4ecd-87a2-39e98323c956"},"vehicle_type_id":"4","last_reported":1777041823,"current_range_meters":8800,"station_id":"ce4bgh92rcd13ifvqb50","pricing_plan_id":"cebpf4jnsgd1na2vs0mg"},{"bike_id":"5f803fd7-7921-4b0f-9928-792a32be066f","system_id":"levelo_inurba_marseille","lat":43.26196,"lon":5.37432,"is_reserved":false,"is_disabled":false,"rental_uris":{"android":"levelo://app?vid=5f803fd7-7921-4b0f-9928-792a32be066f","ios":"levelo://app?vid=5f803fd7-7921-4b0f-9928-792a32be066f"},"vehicle_type_id":"4","last_reported":1777041823,"current_range_meters":8800,"station_id":"ce4bhgp2rcd13ifvqfc0","pricing_plan_id":"cebpf4jnsgd1na2vs0mg"},{"bike_id":"4ce71f71-1a28-4592-bd5c-1940ff667306","system_id":"levelo_inurba_marseille","lat":43.30911,"lon":5.36852,"is_reserved":false,"is_disabled":false,"rental_uris":{"android":"levelo://app?vid=4ce71f71-1a28-4592-bd5c-1940ff667306","ios":"levelo://app?vid=4ce71f71-1a28-4592-bd5c-1940ff667306"},"vehicle_type_id":"4","last_reported":1777041823,"current_range_meters":9200,"station_id":"ce4bgn92rcd13ifvqbvg","pricing_plan_id":"cebpf4jnsgd1na2vs0mg"},{"bike_id":"d4228963-b3dc-41d2-8d8a-98ee7f6180ab","system_id":"levelo_inurba_marseille","lat":43.29974,"lon":5.385,"is_reserved":false,"is_disabled":false,"rental_uris":{"android":"levelo://app?vid=d4228963-b3dc-41d2-8d8a-98ee7f6180ab","ios":"levelo://app?vid=d4228963-b3dc-41d2-8d8a-98ee7f6180ab"},"vehicle_type_id":"4","last_reported":1777041823,"current_range_meters":9200,"station_id":"ce4bgj92rcd13ifvqbd0","pricing_plan_id":"cebpf4jnsgd1na2vs0mg"},{"bike_id":"4e7f60dc-2079-4f51-9d09-01d31cdd2f9b","system_id":"levelo_inurba_marseille","lat":43.24642,"lon":5.43147,"is_reserved":false,"is_disabled":false,"rental_uris":{"android":"levelo://app?vid=4e7f60dc-2079-4f51-9d09-01d31cdd2f9b","ios":"levelo://app?vid=4e7f60dc-2079-4f51-9d09-01d31cdd2f9b"},"vehicle_type_id":"4","last_reported":1777041823,"current_range_meters":9200,"station_id":"st_d2m6c4gdas8pm72e190g","pricing_plan_id":"cebpf4jnsgd1na2vs0mg"},{"bike_id":"7916da27-a1ed-4860-9f76-65798caf5825","system_id":"levelo_inurba_marseille","lat":43.27919,"lon":5.39577,"is_reserved":false,"is_disabled":false,"rental_uris":{"android":"levelo://app?vid=7916da27-a1ed-4860-9f76-65798caf5825","ios":"levelo://app?vid=7916da27-a1ed-4860-9f76-65798caf5825"},"vehicle_type_id":"4","last_reported":1777041823,"current_range_meters":9200,"station_id":"ce4bhf92rcd13ifvqf40","pricing_plan_id":"cebpf4jnsgd1na2vs0mg"},{"bike_id":"4bb61696-22f1-45d4-a93b-1e08092215cc","system_id":"levelo_inurba_marseille","lat":43.31711,"lon":5.43706,"is_reserved":false,"is_disabled":false,"rental_uris":{"android":"levelo://app?vid=4bb61696-22f1-45d4-a93b-1e08092215cc","ios":"levelo://app?vid=4bb61696-22f1-45d4-a93b-1e08092215cc"},"vehicle_type_id":"4","last_reported":1777041823,"current_range_meters":9200,"station_id":"ce4bhp92rcd13ifvqhcg","pricing_plan_id":"cebpf4jnsgd1na2vs0mg"},{"bike_id":"186c21bc-23f4-4a77-b105-801274f656e2","system_id":"levelo_inurba_marseille","lat":43.26061,"lon":5.39377,"is_reserved":false,"is_disabled":false,"rental_uris":{"android":"levelo://app?vid=186c21bc-23f4-4a77-b105-801274f656e2","ios":"levelo://app?vid=186c21bc-23f4-4a77-b105-801274f656e2"},"vehicle_type_id":"4","last_reported":1777041823,"current_range_meters":9200,"station_id":"ce4bhh92rcd13ifvqfj0","pricing_plan_id":"cebpf4jnsgd1na2vs0mg"},{"bike_id":"4f960196-4d7a-4bc2-b527-59dac6bc2a7f","system_id":"levelo_inurba_marseille","lat":43.26564,"lon":5.40322,"is_reserved":false,"is_disabled":false,"rental_uris":{"android":"levelo://app?vid=4f960196-4d7a-4bc2-b527-59dac6bc2a7f","ios":"levelo://app?vid=4f960196-4d7a-4bc2-b527-59dac6bc2a7f"},"vehicle_type_id":"4","last_reported":1777041823,"current_range_meters":9200,"station_id":"ce4bhmp2rcd13ifvqgng","pricing_plan_id":"cebpf4jnsgd1na2vs0mg"},{"bike_id":"5943059b-232d-4deb-8b3a-c65352f04f61","system_id":"levelo_inurba_marseille","lat":43.27366,"lon":5.36246,"is_reserved":false,"is_disabled":false,"rental_uris":{"android":"levelo://app?vid=5943059b-232d-4deb-8b3a-c65352f04f61","ios":"levelo://app?vid=5943059b-232d-4deb-8b3a-c65352f04f61"},"vehicle_type_id":"4","last_reported":1777041823,"current_range_meters":9200,"station_id":"ce4bhbh2rcd13ifvqeo0","pricing_plan_id":"cebpf4jnsgd1na2vs0mg"},{"bike_id":"4d5b4915-5fc0-4782-a3a4-e445cc2cf470","system_id":"levelo_inurba_marseille","lat":43.29871,"lon":5.42101,"is_reserved":false,"is_disabled":false,"rental_uris":{"android":"levelo://app?vid=4d5b4915-5fc0-4782-a3a4-e445cc2cf470","ios":"levelo://app?vid=4d5b4915-5fc0-4782-a3a4-e445cc2cf470"},"vehicle_type_id":"4","last_reported":1777041823,"current_range_meters":9200,"station_id":"st_d6tc004otcvc738tfe70","pricing_plan_id":"cebpf4jnsgd1na2vs0mg"},{"bike_id":"49b7c574-cc22-4468-b233-d66d360fda6f","system_id":"levelo_inurba_marseille","lat":43.25848,"lon":5.39958,"is_reserved":false,"is_disabled":false,"rental_uris":{"android":"levelo://app?vid=49b7c574-cc22-4468-b233-d66d360fda6f","ios":"levelo://app?vid=49b7c574-cc22-4468-b233-d66d360fda6f"},"vehicle_type_id":"4","last_reported":1777041823,"current_range_meters":9200,"station_id":"","pricing_plan_id":"cebpf4jnsgd1na2vs0mg"},{"bike_id":"5211919d-4d6c-4617-8a0b-cba22d1a5d05","system_id":"levelo_inurba_marseille","lat":43.31919,"lon":5.3683,"is_reserved":false,"is_disabled":false,"rental_uris":{"android":"levelo://app?vid=5211919d-4d6c-4617-8a0b-cba22d1a5d05","ios":"levelo://app?vid=5211919d-4d6c-4617-8a0b-cba22d1a5d05"},"vehicle_type_id":"4","last_reported":1777041823,"current_range_meters":9200,"station_id":"st_d6o2h0d0559c73evc1b0","pricing_plan_id":"cebpf4jnsgd1na2vs0mg"},{"bike_id":"20d45a7f-aabd-4e57-95e7-0ae1b0df4e6f","system_id":"levelo_inurba_marseille","lat":43.286518,"lon":5.35151,"is_reserved":false,"is_disabled":false,"rental_uris":{"android":"levelo://app?vid=20d45a7f-aabd-4e57-95e7-0ae1b0df4e6f","ios":"levelo://app?vid=20d45a7f-aabd-4e57-95e7-0ae1b0df4e6f"},"vehicle_type_id":"4","last_reported":1777041823,"current_range_meters":9200,"station_id":"ce4bh512rcd13ifvqe3g","pricing_plan_id":"cebpf4jnsgd1na2vs0mg"},{"bike_id":"2ceb0c0a-e885-473f-b053-1c655e7b76ff","system_id":"levelo_inurba_marseille","lat":43.24384,"lon":5.37053,"is_reserved":false,"is_disabled":false,"rental_uris":{"android":"levelo://app?vid=2ceb0c0a-e885-473f-b053-1c655e7b76ff","ios":"levelo://app?vid=2ceb0c0a-e885-473f-b053-1c655e7b76ff"},"vehicle_type_id":"4","last_reported":1777041823,"current_range_meters":9200,"station_id":"ce4bhhh2rcd13ifvqfk0","pricing_plan_id":"cebpf4jnsgd1na2vs0mg"},{"bike_id":"56339c1c-9e85-4ac1-ae83-e2402209f535","system_id":"levelo_inurba_marseille","lat":43.2918,"lon":5.37145,"is_reserved":false,"is_disabled":false,"rental_uris":{"android":"levelo://app?vid=56339c1c-9e85-4ac1-ae83-e2402209f535","ios":"levelo://app?vid=56339c1c-9e85-4ac1-ae83-e2402209f535"},"vehicle_type_id":"4","last_reported":1777041823,"current_range_meters":9200,"station_id":"ce4bha92rcd13ifvqeh0","pricing_plan_id":"cebpf4jnsgd1na2vs0mg"},{"bike_id":"ebf4bd81-18d0-4300-ba98-4ecb924642b0","system_id":"levelo_inurba_marseille","lat":43.2679,"lon":5.38452,"is_reserved":false,"is_disabled":false,"rental_uris":{"android":"levelo://app?vid=ebf4bd81-18d0-4300-ba98-4ecb924642b0","ios":"levelo://app?vid=ebf4bd81-18d0-4300-ba98-4ecb924642b0"},"vehicle_type_id":"4","last_reported":1777041823,"current_range_meters":9200,"station_id":"","pricing_plan_id":"cebpf4jnsgd1na2vs0mg"},{"bike_id":"1fca75f8-441b-4688-b894-ff3c362d408b","system_id":"levelo_inurba_marseille","lat":43.25862,"lon":5.39906,"is_reserved":false,"is_disabled":false,"rental_uris":{"android":"levelo://app?vid=1fca75f8-441b-4688-b894-ff3c362d408b","ios":"levelo://app?vid=1fca75f8-441b-4688-b894-ff3c362d408b"},"vehicle_type_id":"4","last_reported":1777041823,"current_range_meters":9200,"station_id":"ce4bhl92rcd13ifvqghg","pricing_plan_id":"cebpf4jnsgd1na2vs0mg"},{"bike_id":"2273e8b6-9592-4bbe-8072-82c8f93de92b","system_id":"levelo_inurba_marseille","lat":43.29939,"lon":5.36555,"is_reserved":false,"is_disabled":false,"rental_uris":{"android":"levelo://app?vid=2273e8b6-9592-4bbe-8072-82c8f93de92b","ios":"levelo://app?vid=2273e8b6-9592-4bbe-8072-82c8f93de92b"},"vehicle_type_id":"4","last_reported":1777041823,"current_range_meters":9200,"station_id":"ce4bgm92rcd13ifvqbr0","pricing_plan_id":"cebpf4jnsgd1na2vs0mg"},{"bike_id":"93c21a32-dd52-4942-add8-ffb1f63fd1e8","system_id":"levelo_inurba_marseille","lat":43.306535,"lon":5.40093,"is_reserved":false,"is_disabled":false,"rental_uris":{"android":"levelo://app?vid=93c21a32-dd52-4942-add8-ffb1f63fd1e8","ios":"levelo://app?vid=93c21a32-dd52-4942-add8-ffb1f63fd1e8"},"vehicle_type_id":"4","last_reported":1777041823,"current_range_meters":9200,"station_id":"ce4bh112rcd13ifvqda0","pricing_plan_id":"cebpf4jnsgd1na2vs0mg"},{"bike_id":"d0639146-ebfb-455a-9e48-184bd4e83fb2","system_id":"levelo_inurba_marseille","lat":43.27205,"lon":5.3918,"is_reserved":false,"is_disabled":false,"rental_uris":{"android":"levelo://app?vid=d0639146-ebfb-455a-9e48-184bd4e83fb2","ios":"levelo://app?vid=d0639146-ebfb-455a-9e48-184bd4e83fb2"},"vehicle_type_id":"4","last_reported":1777041823,"current_range_meters":9600,"station_id":"ce4bhhp2rcd13ifvqfm0","pricing_plan_id":"cebpf4jnsgd1na2vs0mg"},{"bike_id":"15505dce-e97e-4ff0-9b15-8d4aba191c7d","system_id":"levelo_inurba_marseille","lat":43.30943,"lon":5.39047,"is_reserved":false,"is_disabled":false,"rental_uris":{"android":"levelo://app?vid=15505dce-e97e-4ff0-9b15-8d4aba191c7d","ios":"levelo://app?vid=15505dce-e97e-4ff0-9b15-8d4aba191c7d"},"vehicle_type_id":"4","last_reported":1777041823,"current_range_meters":9600,"station_id":"ce4bgup2rcd13ifvqco0","pricing_plan_id":"cebpf4jnsgd1na2vs0mg"},{"bike_id":"6a382a26-93df-4b4f-99b6-0161544321ed","system_id":"levelo_inurba_marseille","lat":43.28268,"lon":5.35082,"is_reserved":false,"is_disabled":true,"rental_uris":{"android":"levelo://app?vid=6a382a26-93df-4b4f-99b6-0161544321ed","ios":"levelo://app?vid=6a382a26-93df-4b4f-99b6-0161544321ed"},"vehicle_type_id":"4","last_reported":1777041823,"current_range_meters":9600,"station_id":"ce4bhbp2rcd13ifvqerg","pricing_plan_id":"cebpf4jnsgd1na2vs0mg"},{"bike_id":"0ce641a1-ca62-4f05-b894-4a72f77b98f2","system_id":"levelo_inurba_marseille","lat":43.32354,"lon":5.3674,"is_reserved":false,"is_disabled":false,"rental_uris":{"android":"levelo://app?vid=0ce641a1-ca62-4f05-b894-4a72f77b98f2","ios":"levelo://app?vid=0ce641a1-ca62-4f05-b894-4a72f77b98f2"},"vehicle_type_id":"4","last_reported":1777041823,"current_range_meters":9600,"station_id":"ce4bhsh2rcd13ifvqi2g","pricing_plan_id":"cebpf4jnsgd1na2vs0mg"},{"bike_id":"319fc46a-a2a7-4194-a561-ed577a763aeb","system_id":"levelo_inurba_marseille","lat":43.31333,"lon":5.36796,"is_reserved":false,"is_disabled":false,"rental_uris":{"android":"levelo://app?vid=319fc46a-a2a7-4194-a561-ed577a763aeb","ios":"levelo://app?vid=319fc46a-a2a7-4194-a561-ed577a763aeb"},"vehicle_type_id":"4","last_reported":1777041823,"current_range_meters":9600,"station_id":"","pricing_plan_id":"cebpf4jnsgd1na2vs0mg"},{"bike_id":"1d6aaf32-d1e2-48b7-a3d7-63490af8753a","system_id":"levelo_inurba_marseille","lat":43.3053,"lon":5.36702,"is_reserved":false,"is_disabled":false,"rental_uris":{"android":"levelo://app?vid=1d6aaf32-d1e2-48b7-a3d7-63490af8753a","ios":"levelo://app?vid=1d6aaf32-d1e2-48b7-a3d7-63490af8753a"},"vehicle_type_id":"4","last_reported":1777041823,"current_range_meters":9600,"station_id":"ce4bgrp2rcd13ifvqc9g","pricing_plan_id":"cebpf4jnsgd1na2vs0mg"},{"bike_id":"86cf98f1-79b2-455f-be1a-53ecde8650e6","system_id":"levelo_inurba_marseille","lat":43.25108,"lon":5.39528,"is_reserved":false,"is_disabled":false,"rental_uris":{"android":"levelo://app?vid=86cf98f1-79b2-455f-be1a-53ecde8650e6","ios":"levelo://app?vid=86cf98f1-79b2-455f-be1a-53ecde8650e6"},"vehicle_type_id":"4","last_reported":1777041823,"current_range_meters":9600,"station_id":"ce4bhm12rcd13ifvqgkg","pricing_plan_id":"cebpf4jnsgd1na2vs0mg"},{"bike_id":"c290939b-9d56-4f63-b8ea-6f3444d37cdf","system_id":"levelo_inurba_marseille","lat":43.31264,"lon":5.40167,"is_reserved":false,"is_disabled":false,"rental_uris":{"android":"levelo://app?vid=c290939b-9d56-4f63-b8ea-6f3444d37cdf","ios":"levelo://app?vid=c290939b-9d56-4f63-b8ea-6f3444d37cdf"},"vehicle_type_id":"4","last_reported":1777041823,"current_range_meters":9600,"station_id":"ce4bh092rcd13ifvqd30","pricing_plan_id":"cebpf4jnsgd1na2vs0mg"},{"bike_id":"e823ebc2-0ba4-4a28-8e44-b1a52b2626ca","system_id":"levelo_inurba_marseille","lat":43.28865,"lon":5.3765,"is_reserved":false,"is_disabled":false,"rental_uris":{"android":"levelo://app?vid=e823ebc2-0ba4-4a28-8e44-b1a52b2626ca","ios":"levelo://app?vid=e823ebc2-0ba4-4a28-8e44-b1a52b2626ca"},"vehicle_type_id":"4","last_reported":1777041823,"current_range_meters":9600,"station_id":"","pricing_plan_id":"cebpf4jnsgd1na2vs0mg"},{"bike_id":"438ef943-6365-44b4-889f-44915622d8c6","system_id":"levelo_inurba_marseille","lat":43.31148,"lon":5.37772,"is_reserved":false,"is_disabled":false,"rental_uris":{"android":"levelo://app?vid=438ef943-6365-44b4-889f-44915622d8c6","ios":"levelo://app?vid=438ef943-6365-44b4-889f-44915622d8c6"},"vehicle_type_id":"4","last_reported":1777041823,"current_range_meters":9600,"station_id":"ce4bgt92rcd13ifvqcg0","pricing_plan_id":"cebpf4jnsgd1na2vs0mg"},{"bike_id":"517b465b-1cbe-47c0-8062-1f1f68f9139f","system_id":"levelo_inurba_marseille","lat":43.23191,"lon":5.35557,"is_reserved":false,"is_disabled":false,"rental_uris":{"android":"levelo://app?vid=517b465b-1cbe-47c0-8062-1f1f68f9139f","ios":"levelo://app?vid=517b465b-1cbe-47c0-8062-1f1f68f9139f"},"vehicle_type_id":"4","last_reported":1777041823,"current_range_meters":9600,"station_id":"ce4bhu92rcd13ifvqi70","pricing_plan_id":"cebpf4jnsgd1na2vs0mg"},{"bike_id":"1d368fe1-0c8f-4a40-864c-b54082c58fa1","system_id":"levelo_inurba_marseille","lat":43.33549,"lon":5.37439,"is_reserved":false,"is_disabled":false,"rental_uris":{"android":"levelo://app?vid=1d368fe1-0c8f-4a40-864c-b54082c58fa1","ios":"levelo://app?vid=1d368fe1-0c8f-4a40-864c-b54082c58fa1"},"vehicle_type_id":"4","last_reported":1777041823,"current_range_meters":9600,"station_id":"st_d46tts09ee8s73dlu43g","pricing_plan_id":"cebpf4jnsgd1na2vs0mg"},{"bike_id":"87580d95-c4d0-4a88-8e5e-2e5b90966737","system_id":"levelo_inurba_marseille","lat":43.29706,"lon":5.36592,"is_reserved":false,"is_disabled":false,"rental_uris":{"android":"levelo://app?vid=87580d95-c4d0-4a88-8e5e-2e5b90966737","ios":"levelo://app?vid=87580d95-c4d0-4a88-8e5e-2e5b90966737"},"vehicle_type_id":"4","last_reported":1777041823,"current_range_meters":9600,"station_id":"ce4bgn12rcd13ifvqbt0","pricing_plan_id":"cebpf4jnsgd1na2vs0mg"},{"bike_id":"e5246e20-a2af-44b2-a65c-c8aaf3267094","system_id":"levelo_inurba_marseille","lat":43.26208,"lon":5.37433,"is_reserved":false,"is_disabled":false,"rental_uris":{"android":"levelo://app?vid=e5246e20-a2af-44b2-a65c-c8aaf3267094","ios":"levelo://app?vid=e5246e20-a2af-44b2-a65c-c8aaf3267094"},"vehicle_type_id":"4","last_reported":1777041823,"current_range_meters":9600,"station_id":"ce4bhgp2rcd13ifvqfc0","pricing_plan_id":"cebpf4jnsgd1na2vs0mg"},{"bike_id":"edebaef1-73eb-4a07-9db1-c2fcf6e7b897","system_id":"levelo_inurba_marseille","lat":43.29037,"lon":5.39961,"is_reserved":false,"is_disabled":false,"rental_uris":{"android":"levelo://app?vid=edebaef1-73eb-4a07-9db1-c2fcf6e7b897","ios":"levelo://app?vid=edebaef1-73eb-4a07-9db1-c2fcf6e7b897"},"vehicle_type_id":"4","last_reported":1777041823,"current_range_meters":9600,"station_id":"ce4bh392rcd13ifvqdm0","pricing_plan_id":"cebpf4jnsgd1na2vs0mg"},{"bike_id":"ed502902-e25c-48d3-b689-784811b4f9a4","system_id":"levelo_inurba_marseille","lat":43.23196,"lon":5.35554,"is_reserved":false,"is_disabled":false,"rental_uris":{"android":"levelo://app?vid=ed502902-e25c-48d3-b689-784811b4f9a4","ios":"levelo://app?vid=ed502902-e25c-48d3-b689-784811b4f9a4"},"vehicle_type_id":"4","last_reported":1777041823,"current_range_meters":9600,"station_id":"ce4bhu92rcd13ifvqi70","pricing_plan_id":"cebpf4jnsgd1na2vs0mg"},{"bike_id":"da7e4629-4059-4617-bcd1-f00f08c55fc0","system_id":"levelo_inurba_marseille","lat":43.2439,"lon":5.37046,"is_reserved":false,"is_disabled":false,"rental_uris":{"android":"levelo://app?vid=da7e4629-4059-4617-bcd1-f00f08c55fc0","ios":"levelo://app?vid=da7e4629-4059-4617-bcd1-f00f08c55fc0"},"vehicle_type_id":"4","last_reported":1777041823,"current_range_meters":9600,"station_id":"ce4bhhh2rcd13ifvqfk0","pricing_plan_id":"cebpf4jnsgd1na2vs0mg"},{"bike_id":"2150e900-bc36-4714-8063-0320eae925a9","system_id":"levelo_inurba_marseille","lat":43.23967,"lon":5.36603,"is_reserved":false,"is_disabled":false,"rental_uris":{"android":"levelo://app?vid=2150e900-bc36-4714-8063-0320eae925a9","ios":"levelo://app?vid=2150e900-bc36-4714-8063-0320eae925a9"},"vehicle_type_id":"4","last_reported":1777041823,"current_range_meters":9600,"station_id":"ce4bhi12rcd13ifvqfp0","pricing_plan_id":"cebpf4jnsgd1na2vs0mg"},{"bike_id":"49b0609f-fef3-4e2f-a5ac-0cde166dabe7","system_id":"levelo_inurba_marseille","lat":43.25384,"lon":5.41481,"is_reserved":false,"is_disabled":false,"rental_uris":{"android":"levelo://app?vid=49b0609f-fef3-4e2f-a5ac-0cde166dabe7","ios":"levelo://app?vid=49b0609f-fef3-4e2f-a5ac-0cde166dabe7"},"vehicle_type_id":"4","last_reported":1777041823,"current_range_meters":9600,"station_id":"","pricing_plan_id":"cebpf4jnsgd1na2vs0mg"},{"bike_id":"32c219b6-834b-402f-b32b-734e41829413","system_id":"levelo_inurba_marseille","lat":43.27371,"lon":5.36256,"is_reserved":false,"is_disabled":false,"rental_uris":{"android":"levelo://app?vid=32c219b6-834b-402f-b32b-734e41829413","ios":"levelo://app?vid=32c219b6-834b-402f-b32b-734e41829413"},"vehicle_type_id":"4","last_reported":1777041823,"current_range_meters":9600,"station_id":"ce4bhbh2rcd13ifvqeo0","pricing_plan_id":"cebpf4jnsgd1na2vs0mg"},{"bike_id":"84ed5d10-6011-4aae-a1d3-a905a4b0cd75","system_id":"levelo_inurba_marseille","lat":43.30324,"lon":5.4044,"is_reserved":false,"is_disabled":false,"rental_uris":{"android":"levelo://app?vid=84ed5d10-6011-4aae-a1d3-a905a4b0cd75","ios":"levelo://app?vid=84ed5d10-6011-4aae-a1d3-a905a4b0cd75"},"vehicle_type_id":"4","last_reported":1777041823,"current_range_meters":9600,"station_id":"ce4bh012rcd13ifvqd10","pricing_plan_id":"cebpf4jnsgd1na2vs0mg"},{"bike_id":"541dbded-315f-4ca8-ac49-47fcb4294bb7","system_id":"levelo_inurba_marseille","lat":43.33537,"lon":5.37454,"is_reserved":false,"is_disabled":false,"rental_uris":{"android":"levelo://app?vid=541dbded-315f-4ca8-ac49-47fcb4294bb7","ios":"levelo://app?vid=541dbded-315f-4ca8-ac49-47fcb4294bb7"},"vehicle_type_id":"4","last_reported":1777041823,"current_range_meters":9600,"station_id":"st_d46tts09ee8s73dlu43g","pricing_plan_id":"cebpf4jnsgd1na2vs0mg"},{"bike_id":"fea74096-b48c-418b-a53e-23723892d4ec","system_id":"levelo_inurba_marseille","lat":43.29491,"lon":5.43306,"is_reserved":false,"is_disabled":false,"rental_uris":{"android":"levelo://app?vid=fea74096-b48c-418b-a53e-23723892d4ec","ios":"levelo://app?vid=fea74096-b48c-418b-a53e-23723892d4ec"},"vehicle_type_id":"4","last_reported":1777041823,"current_range_meters":9600,"station_id":"st_d3j5ugp08ojc73fj9d10","pricing_plan_id":"cebpf4jnsgd1na2vs0mg"},{"bike_id":"4e79de12-8b78-4487-9a9c-09acbadf6ca4","system_id":"levelo_inurba_marseille","lat":43.25492,"lon":5.37652,"is_reserved":false,"is_disabled":false,"rental_uris":{"android":"levelo://app?vid=4e79de12-8b78-4487-9a9c-09acbadf6ca4","ios":"levelo://app?vid=4e79de12-8b78-4487-9a9c-09acbadf6ca4"},"vehicle_type_id":"4","last_reported":1777041823,"current_range_meters":9600,"station_id":"ce4bhh12rcd13ifvqff0","pricing_plan_id":"cebpf4jnsgd1na2vs0mg"},{"bike_id":"f9c20f80-af9b-4a43-9704-f9047f6b00ea","system_id":"levelo_inurba_marseille","lat":43.27377,"lon":5.36266,"is_reserved":false,"is_disabled":false,"rental_uris":{"android":"levelo://app?vid=f9c20f80-af9b-4a43-9704-f9047f6b00ea","ios":"levelo://app?vid=f9c20f80-af9b-4a43-9704-f9047f6b00ea"},"vehicle_type_id":"4","last_reported":1777041823,"current_range_meters":10000,"station_id":"ce4bhbh2rcd13ifvqeo0","pricing_plan_id":"cebpf4jnsgd1na2vs0mg"},{"bike_id":"f01b33b4-d615-44f3-8c41-5a4c243a6920","system_id":"levelo_inurba_marseille","lat":43.35183,"lon":5.43956,"is_reserved":false,"is_disabled":false,"rental_uris":{"android":"levelo://app?vid=f01b33b4-d615-44f3-8c41-5a4c243a6920","ios":"levelo://app?vid=f01b33b4-d615-44f3-8c41-5a4c243a6920"},"vehicle_type_id":"4","last_reported":1777041823,"current_range_meters":10000,"station_id":"","pricing_plan_id":"cebpf4jnsgd1na2vs0mg"},{"bike_id":"5e567c6f-c3bb-42a2-a98c-8bccbcf3a22d","system_id":"levelo_inurba_marseille","lat":43.29307,"lon":5.37176,"is_reserved":false,"is_disabled":false,"rental_uris":{"android":"levelo://app?vid=5e567c6f-c3bb-42a2-a98c-8bccbcf3a22d","ios":"levelo://app?vid=5e567c6f-c3bb-42a2-a98c-8bccbcf3a22d"},"vehicle_type_id":"4","last_reported":1777041823,"current_range_meters":10000,"station_id":"ce4bgh92rcd13ifvqb40","pricing_plan_id":"cebpf4jnsgd1na2vs0mg"},{"bike_id":"886828e3-ae32-47a4-a9ad-d146960797b6","system_id":"levelo_inurba_marseille","lat":43.27625,"lon":5.36144,"is_reserved":false,"is_disabled":false,"rental_uris":{"android":"levelo://app?vid=886828e3-ae32-47a4-a9ad-d146960797b6","ios":"levelo://app?vid=886828e3-ae32-47a4-a9ad-d146960797b6"},"vehicle_type_id":"4","last_reported":1777041823,"current_range_meters":10000,"station_id":"ce4bgj92rcd13ifvqbe0","pricing_plan_id":"cebpf4jnsgd1na2vs0mg"},{"bike_id":"9b95d2a5-7b2a-4334-bfd9-65fa0ac90247","system_id":"levelo_inurba_marseille","lat":43.28455,"lon":5.35878,"is_reserved":false,"is_disabled":false,"rental_uris":{"android":"levelo://app?vid=9b95d2a5-7b2a-4334-bfd9-65fa0ac90247","ios":"levelo://app?vid=9b95d2a5-7b2a-4334-bfd9-65fa0ac90247"},"vehicle_type_id":"4","last_reported":1777041823,"current_range_meters":10000,"station_id":"ce4bhah2rcd13ifvqei0","pricing_plan_id":"cebpf4jnsgd1na2vs0mg"},{"bike_id":"6459e809-2e02-4800-9111-dfce96864440","system_id":"levelo_inurba_marseille","lat":43.23145,"lon":5.43726,"is_reserved":false,"is_disabled":false,"rental_uris":{"android":"levelo://app?vid=6459e809-2e02-4800-9111-dfce96864440","ios":"levelo://app?vid=6459e809-2e02-4800-9111-dfce96864440"},"vehicle_type_id":"4","last_reported":1777041823,"current_range_meters":10000,"station_id":"ce4bhmp2rcd13ifvqgog","pricing_plan_id":"cebpf4jnsgd1na2vs0mg"},{"bike_id":"f9fc9bbb-9a0c-4ccd-999f-88ac996e3654","system_id":"levelo_inurba_marseille","lat":43.27969,"lon":5.38984,"is_reserved":false,"is_disabled":false,"rental_uris":{"android":"levelo://app?vid=f9fc9bbb-9a0c-4ccd-999f-88ac996e3654","ios":"levelo://app?vid=f9fc9bbb-9a0c-4ccd-999f-88ac996e3654"},"vehicle_type_id":"4","last_reported":1777041823,"current_range_meters":10000,"station_id":"","pricing_plan_id":"cebpf4jnsgd1na2vs0mg"},{"bike_id":"2f468344-e68e-4956-9800-a5e114463c41","system_id":"levelo_inurba_marseille","lat":43.27613,"lon":5.36108,"is_reserved":false,"is_disabled":false,"rental_uris":{"android":"levelo://app?vid=2f468344-e68e-4956-9800-a5e114463c41","ios":"levelo://app?vid=2f468344-e68e-4956-9800-a5e114463c41"},"vehicle_type_id":"4","last_reported":1777041823,"current_range_meters":10000,"station_id":"ce4bgj92rcd13ifvqbe0","pricing_plan_id":"cebpf4jnsgd1na2vs0mg"},{"bike_id":"4eafd099-0418-4497-a078-42a8dfe93e1a","system_id":"levelo_inurba_marseille","lat":43.28398,"lon":5.34983,"is_reserved":false,"is_disabled":false,"rental_uris":{"android":"levelo://app?vid=4eafd099-0418-4497-a078-42a8dfe93e1a","ios":"levelo://app?vid=4eafd099-0418-4497-a078-42a8dfe93e1a"},"vehicle_type_id":"4","last_reported":1777041823,"current_range_meters":10000,"station_id":"ce4bhbh2rcd13ifvqepg","pricing_plan_id":"cebpf4jnsgd1na2vs0mg"},{"bike_id":"dd7d9d18-5bf0-463b-b69d-61bb9db8b081","system_id":"levelo_inurba_marseille","lat":43.23156,"lon":5.43717,"is_reserved":false,"is_disabled":false,"rental_uris":{"android":"levelo://app?vid=dd7d9d18-5bf0-463b-b69d-61bb9db8b081","ios":"levelo://app?vid=dd7d9d18-5bf0-463b-b69d-61bb9db8b081"},"vehicle_type_id":"4","last_reported":1777041823,"current_range_meters":10000,"station_id":"ce4bhmp2rcd13ifvqgog","pricing_plan_id":"cebpf4jnsgd1na2vs0mg"},{"bike_id":"97b973ae-0ec7-4ceb-9633-889a758e244e","system_id":"levelo_inurba_marseille","lat":43.305593,"lon":5.365693,"is_reserved":false,"is_disabled":false,"rental_uris":{"android":"levelo://app?vid=97b973ae-0ec7-4ceb-9633-889a758e244e","ios":"levelo://app?vid=97b973ae-0ec7-4ceb-9633-889a758e244e"},"vehicle_type_id":"4","last_reported":1777041823,"current_range_meters":10800,"station_id":"ce4bhch2rcd13ifvqeug","pricing_plan_id":"cebpf4jnsgd1na2vs0mg"},{"bike_id":"99861d4a-13dd-440c-aca3-a9c2a0668a9d","system_id":"levelo_inurba_marseille","lat":43.29042,"lon":5.3866,"is_reserved":false,"is_disabled":false,"rental_uris":{"android":"levelo://app?vid=99861d4a-13dd-440c-aca3-a9c2a0668a9d","ios":"levelo://app?vid=99861d4a-13dd-440c-aca3-a9c2a0668a9d"},"vehicle_type_id":"4","last_reported":1777041823,"current_range_meters":10800,"station_id":"ce4bh4p2rcd13ifvqe0g","pricing_plan_id":"cebpf4jnsgd1na2vs0mg"},{"bike_id":"5687bcf3-d7dc-457c-91e4-c37491638fcd","system_id":"levelo_inurba_marseille","lat":43.24158,"lon":5.36402,"is_reserved":false,"is_disabled":false,"rental_uris":{"android":"levelo://app?vid=5687bcf3-d7dc-457c-91e4-c37491638fcd","ios":"levelo://app?vid=5687bcf3-d7dc-457c-91e4-c37491638fcd"},"vehicle_type_id":"4","last_reported":1777041823,"current_range_meters":10800,"station_id":"cpo36qri1sfpv3e86is0","pricing_plan_id":"cebpf4jnsgd1na2vs0mg"},{"bike_id":"f645e30b-5616-45b3-a17d-faf4a49d971d","system_id":"levelo_inurba_marseille","lat":43.31,"lon":5.37533,"is_reserved":false,"is_disabled":false,"rental_uris":{"android":"levelo://app?vid=f645e30b-5616-45b3-a17d-faf4a49d971d","ios":"levelo://app?vid=f645e30b-5616-45b3-a17d-faf4a49d971d"},"vehicle_type_id":"4","last_reported":1777041823,"current_range_meters":10800,"station_id":"","pricing_plan_id":"cebpf4jnsgd1na2vs0mg"},{"bike_id":"46ab8f2c-d7fa-43da-bc1d-70704a6de6f0","system_id":"levelo_inurba_marseille","lat":43.21754,"lon":5.34603,"is_reserved":false,"is_disabled":false,"rental_uris":{"android":"levelo://app?vid=46ab8f2c-d7fa-43da-bc1d-70704a6de6f0","ios":"levelo://app?vid=46ab8f2c-d7fa-43da-bc1d-70704a6de6f0"},"vehicle_type_id":"4","last_reported":1777041823,"current_range_meters":10800,"station_id":"st_cvj6r9ubvosntc0bgbag","pricing_plan_id":"cebpf4jnsgd1na2vs0mg"},{"bike_id":"f9b98806-d74c-46ef-8642-07dd46c19f4b","system_id":"levelo_inurba_marseille","lat":43.28707,"lon":5.46686,"is_reserved":false,"is_disabled":false,"rental_uris":{"android":"levelo://app?vid=f9b98806-d74c-46ef-8642-07dd46c19f4b","ios":"levelo://app?vid=f9b98806-d74c-46ef-8642-07dd46c19f4b"},"vehicle_type_id":"4","last_reported":1777041823,"current_range_meters":10800,"station_id":"st_d6tc3vkotcvc738tfjhg","pricing_plan_id":"cebpf4jnsgd1na2vs0mg"},{"bike_id":"09c87f96-5efe-4c2a-8149-cd0b9bc13af6","system_id":"levelo_inurba_marseille","lat":43.28107,"lon":5.37721,"is_reserved":false,"is_disabled":false,"rental_uris":{"android":"levelo://app?vid=09c87f96-5efe-4c2a-8149-cd0b9bc13af6","ios":"levelo://app?vid=09c87f96-5efe-4c2a-8149-cd0b9bc13af6"},"vehicle_type_id":"4","last_reported":1777041823,"current_range_meters":10800,"station_id":"","pricing_plan_id":"cebpf4jnsgd1na2vs0mg"},{"bike_id":"e9034cc9-cbfd-4cb3-9c2e-0d27e7d3c472","system_id":"levelo_inurba_marseille","lat":43.28409,"lon":5.34985,"is_reserved":false,"is_disabled":false,"rental_uris":{"android":"levelo://app?vid=e9034cc9-cbfd-4cb3-9c2e-0d27e7d3c472","ios":"levelo://app?vid=e9034cc9-cbfd-4cb3-9c2e-0d27e7d3c472"},"vehicle_type_id":"4","last_reported":1777041823,"current_range_meters":10800,"station_id":"ce4bhbh2rcd13ifvqepg","pricing_plan_id":"cebpf4jnsgd1na2vs0mg"},{"bike_id":"338eb1bb-ada5-49f4-89dd-59576354bc94","system_id":"levelo_inurba_marseille","lat":43.32054,"lon":5.41564,"is_reserved":false,"is_disabled":false,"rental_uris":{"android":"levelo://app?vid=338eb1bb-ada5-49f4-89dd-59576354bc94","ios":"levelo://app?vid=338eb1bb-ada5-49f4-89dd-59576354bc94"},"vehicle_type_id":"4","last_reported":1777041823,"current_range_meters":10800,"station_id":"ce4bhq92rcd13ifvqhkg","pricing_plan_id":"cebpf4jnsgd1na2vs0mg"},{"bike_id":"5fd405f4-2861-4066-b7c4-84104fd40893","system_id":"levelo_inurba_marseille","lat":43.2843,"lon":5.34966,"is_reserved":false,"is_disabled":false,"rental_uris":{"android":"levelo://app?vid=5fd405f4-2861-4066-b7c4-84104fd40893","ios":"levelo://app?vid=5fd405f4-2861-4066-b7c4-84104fd40893"},"vehicle_type_id":"4","last_reported":1777041823,"current_range_meters":10800,"station_id":"ce4bhbh2rcd13ifvqepg","pricing_plan_id":"cebpf4jnsgd1na2vs0mg"},{"bike_id":"ee8c63f2-9eb0-48ea-bbc1-616b17a18a18","system_id":"levelo_inurba_marseille","lat":43.32482,"lon":5.3659,"is_reserved":false,"is_disabled":false,"rental_uris":{"android":"levelo://app?vid=ee8c63f2-9eb0-48ea-bbc1-616b17a18a18","ios":"levelo://app?vid=ee8c63f2-9eb0-48ea-bbc1-616b17a18a18"},"vehicle_type_id":"4","last_reported":1777041823,"current_range_meters":10800,"station_id":"ce4bhs12rcd13ifvqhvg","pricing_plan_id":"cebpf4jnsgd1na2vs0mg"},{"bike_id":"d304c6af-fbd5-4817-97e4-cfde03e6ba51","system_id":"levelo_inurba_marseille","lat":43.25863,"lon":5.3991,"is_reserved":false,"is_disabled":false,"rental_uris":{"android":"levelo://app?vid=d304c6af-fbd5-4817-97e4-cfde03e6ba51","ios":"levelo://app?vid=d304c6af-fbd5-4817-97e4-cfde03e6ba51"},"vehicle_type_id":"4","last_reported":1777041823,"current_range_meters":10800,"station_id":"ce4bhl92rcd13ifvqghg","pricing_plan_id":"cebpf4jnsgd1na2vs0mg"},{"bike_id":"f87dff34-a191-467d-b088-e20ce0800bdb","system_id":"levelo_inurba_marseille","lat":43.25524,"lon":5.37668,"is_reserved":false,"is_disabled":false,"rental_uris":{"android":"levelo://app?vid=f87dff34-a191-467d-b088-e20ce0800bdb","ios":"levelo://app?vid=f87dff34-a191-467d-b088-e20ce0800bdb"},"vehicle_type_id":"4","last_reported":1777041823,"current_range_meters":10800,"station_id":"ce4bhh12rcd13ifvqff0","pricing_plan_id":"cebpf4jnsgd1na2vs0mg"},{"bike_id":"7f8aa28d-6e82-4fa7-85c9-e470df6f9a81","system_id":"levelo_inurba_marseille","lat":43.26029,"lon":5.37551,"is_reserved":false,"is_disabled":false,"rental_uris":{"android":"levelo://app?vid=7f8aa28d-6e82-4fa7-85c9-e470df6f9a81","ios":"levelo://app?vid=7f8aa28d-6e82-4fa7-85c9-e470df6f9a81"},"vehicle_type_id":"4","last_reported":1777041823,"current_range_meters":10800,"station_id":"ce4bhgh2rcd13ifvqfa0","pricing_plan_id":"cebpf4jnsgd1na2vs0mg"},{"bike_id":"6b404645-3784-4552-b362-ce2273282500","system_id":"levelo_inurba_marseille","lat":43.28479,"lon":5.38531,"is_reserved":false,"is_disabled":true,"rental_uris":{"android":"levelo://app?vid=6b404645-3784-4552-b362-ce2273282500","ios":"levelo://app?vid=6b404645-3784-4552-b362-ce2273282500"},"vehicle_type_id":"4","last_reported":1777041823,"current_range_meters":11200,"station_id":"ce4bh8p2rcd13ifvqeb0","pricing_plan_id":"cebpf4jnsgd1na2vs0mg"},{"bike_id":"41d5da57-be96-43cf-99f4-aa67206f3750","system_id":"levelo_inurba_marseille","lat":43.28612,"lon":5.35118,"is_reserved":false,"is_disabled":false,"rental_uris":{"android":"levelo://app?vid=41d5da57-be96-43cf-99f4-aa67206f3750","ios":"levelo://app?vid=41d5da57-be96-43cf-99f4-aa67206f3750"},"vehicle_type_id":"4","last_reported":1777041823,"current_range_meters":11200,"station_id":"","pricing_plan_id":"cebpf4jnsgd1na2vs0mg"},{"bike_id":"44d1fb4d-087a-47d8-9d97-bb5149c08cc7","system_id":"levelo_inurba_marseille","lat":43.27373,"lon":5.36246,"is_reserved":false,"is_disabled":false,"rental_uris":{"android":"levelo://app?vid=44d1fb4d-087a-47d8-9d97-bb5149c08cc7","ios":"levelo://app?vid=44d1fb4d-087a-47d8-9d97-bb5149c08cc7"},"vehicle_type_id":"4","last_reported":1777041823,"current_range_meters":11200,"station_id":"ce4bhbh2rcd13ifvqeo0","pricing_plan_id":"cebpf4jnsgd1na2vs0mg"},{"bike_id":"7ac59c81-01df-4b8e-9807-86f926b0041a","system_id":"levelo_inurba_marseille","lat":43.28086,"lon":5.3912,"is_reserved":false,"is_disabled":false,"rental_uris":{"android":"levelo://app?vid=7ac59c81-01df-4b8e-9807-86f926b0041a","ios":"levelo://app?vid=7ac59c81-01df-4b8e-9807-86f926b0041a"},"vehicle_type_id":"4","last_reported":1777041823,"current_range_meters":11200,"station_id":"","pricing_plan_id":"cebpf4jnsgd1na2vs0mg"},{"bike_id":"b1ade0be-ac1d-49f0-89e6-a6e5b324a787","system_id":"levelo_inurba_marseille","lat":43.29037,"lon":5.39961,"is_reserved":false,"is_disabled":false,"rental_uris":{"android":"levelo://app?vid=b1ade0be-ac1d-49f0-89e6-a6e5b324a787","ios":"levelo://app?vid=b1ade0be-ac1d-49f0-89e6-a6e5b324a787"},"vehicle_type_id":"4","last_reported":1777041823,"current_range_meters":11200,"station_id":"ce4bh392rcd13ifvqdm0","pricing_plan_id":"cebpf4jnsgd1na2vs0mg"},{"bike_id":"f85cbeb6-07b1-4348-a0f5-765cb6fb3083","system_id":"levelo_inurba_marseille","lat":43.29627,"lon":5.40598,"is_reserved":false,"is_disabled":false,"rental_uris":{"android":"levelo://app?vid=f85cbeb6-07b1-4348-a0f5-765cb6fb3083","ios":"levelo://app?vid=f85cbeb6-07b1-4348-a0f5-765cb6fb3083"},"vehicle_type_id":"4","last_reported":1777041823,"current_range_meters":11200,"station_id":"ce4bh0h2rcd13ifvqd60","pricing_plan_id":"cebpf4jnsgd1na2vs0mg"},{"bike_id":"5d606b73-1137-45ec-8123-c2ba434c5335","system_id":"levelo_inurba_marseille","lat":43.2319,"lon":5.35546,"is_reserved":false,"is_disabled":false,"rental_uris":{"android":"levelo://app?vid=5d606b73-1137-45ec-8123-c2ba434c5335","ios":"levelo://app?vid=5d606b73-1137-45ec-8123-c2ba434c5335"},"vehicle_type_id":"4","last_reported":1777041823,"current_range_meters":11200,"station_id":"ce4bhu92rcd13ifvqi70","pricing_plan_id":"cebpf4jnsgd1na2vs0mg"},{"bike_id":"c970beb0-be68-4241-95fb-6ac8e2d06c6f","system_id":"levelo_inurba_marseille","lat":43.30142,"lon":5.38058,"is_reserved":false,"is_disabled":false,"rental_uris":{"android":"levelo://app?vid=c970beb0-be68-4241-95fb-6ac8e2d06c6f","ios":"levelo://app?vid=c970beb0-be68-4241-95fb-6ac8e2d06c6f"},"vehicle_type_id":"4","last_reported":1777041823,"current_range_meters":11200,"station_id":"ce4bgjp2rcd13ifvqbh0","pricing_plan_id":"cebpf4jnsgd1na2vs0mg"},{"bike_id":"f3a6c126-c89b-4db4-b2dd-30b231c4273c","system_id":"levelo_inurba_marseille","lat":43.29825,"lon":5.36276,"is_reserved":false,"is_disabled":false,"rental_uris":{"android":"levelo://app?vid=f3a6c126-c89b-4db4-b2dd-30b231c4273c","ios":"levelo://app?vid=f3a6c126-c89b-4db4-b2dd-30b231c4273c"},"vehicle_type_id":"4","last_reported":1777041823,"current_range_meters":11200,"station_id":"ce4bgpp2rcd13ifvqc3g","pricing_plan_id":"cebpf4jnsgd1na2vs0mg"},{"bike_id":"2ab28973-81bc-44b5-96f2-7119d38cb05b","system_id":"levelo_inurba_marseille","lat":43.33562,"lon":5.37478,"is_reserved":false,"is_disabled":false,"rental_uris":{"android":"levelo://app?vid=2ab28973-81bc-44b5-96f2-7119d38cb05b","ios":"levelo://app?vid=2ab28973-81bc-44b5-96f2-7119d38cb05b"},"vehicle_type_id":"4","last_reported":1777041823,"current_range_meters":11200,"station_id":"st_d46tts09ee8s73dlu43g","pricing_plan_id":"cebpf4jnsgd1na2vs0mg"},{"bike_id":"faef8c28-afa1-459b-b95c-781db6daf986","system_id":"levelo_inurba_marseille","lat":43.26221,"lon":5.4047,"is_reserved":false,"is_disabled":false,"rental_uris":{"android":"levelo://app?vid=faef8c28-afa1-459b-b95c-781db6daf986","ios":"levelo://app?vid=faef8c28-afa1-459b-b95c-781db6daf986"},"vehicle_type_id":"4","last_reported":1777041823,"current_range_meters":11200,"station_id":"ce4bhmh2rcd13ifvqgmg","pricing_plan_id":"cebpf4jnsgd1na2vs0mg"},{"bike_id":"058dd904-387c-45d2-8fd1-b48052f529fe","system_id":"levelo_inurba_marseille","lat":43.21743,"lon":5.34615,"is_reserved":false,"is_disabled":false,"rental_uris":{"android":"levelo://app?vid=058dd904-387c-45d2-8fd1-b48052f529fe","ios":"levelo://app?vid=058dd904-387c-45d2-8fd1-b48052f529fe"},"vehicle_type_id":"4","last_reported":1777041823,"current_range_meters":11200,"station_id":"st_cvj6r9ubvosntc0bgbag","pricing_plan_id":"cebpf4jnsgd1na2vs0mg"},{"bike_id":"fea5a28c-0167-4a62-9062-e629ed9b3e8f","system_id":"levelo_inurba_marseille","lat":43.28468,"lon":5.48443,"is_reserved":false,"is_disabled":false,"rental_uris":{"android":"levelo://app?vid=fea5a28c-0167-4a62-9062-e629ed9b3e8f","ios":"levelo://app?vid=fea5a28c-0167-4a62-9062-e629ed9b3e8f"},"vehicle_type_id":"4","last_reported":1777041823,"current_range_meters":11200,"station_id":"st_d3svhcjqgbts73a3dn0g","pricing_plan_id":"cebpf4jnsgd1na2vs0mg"},{"bike_id":"e607d3ad-5161-4bae-9698-70a5f0663017","system_id":"levelo_inurba_marseille","lat":43.31975,"lon":5.38117,"is_reserved":false,"is_disabled":false,"rental_uris":{"android":"levelo://app?vid=e607d3ad-5161-4bae-9698-70a5f0663017","ios":"levelo://app?vid=e607d3ad-5161-4bae-9698-70a5f0663017"},