{"last_updated":1687558026,"ttl":30,"version":"2.2","data":{"bikes":[{"bike_id":"8a6756cb-8348-4f27-acf7-b77f96c16038","system_id":"levelo_inurba_marseille","lat":43.313391,"lon":5.36706,"is_reserved":false,"is_disabled":false,"rental_uris":{"android":"levelo://app?vid=8a6756cb-8348-4f27-acf7-b77f96c16038","ios":"levelo://app?vid=8a6756cb-8348-4f27-acf7-b77f96c16038"},"vehicle_type_id":"4","last_reported":1687558027,"current_range_meters":27600,"station_id":"ce4bgr92rcd13ifvqc6g","pricing_plan_id":"free"},{"bike_id":"295cfa0d-4f69-4b89-9c92-b3ea9c9cdb69","system_id":"levelo_inurba_marseille","lat":43.313391,"lon":5.36706,"is_reserved":false,"is_disabled":false,"rental_uris":{"android":"levelo://app?vid=295cfa0d-4f69-4b89-9c92-b3ea9c9cdb69","ios":"levelo://app?vid=295cfa0d-4f69-4b89-9c92-b3ea9c9cdb69"},"vehicle_type_id":"4","last_reported":1687558027,"current_range_meters":28400,"station_id":"ce4bgr92rcd13ifvqc6g","pricing_plan_id":"free"},{"bike_id":"35477914-d946-46ef-b985-228de1bf1b90","system_id":"levelo_inurba_marseille","lat":43.313391,"lon":5.36706,"is_reserved":false,"is_disabled":false,"rental_uris":{"android":"levelo://app?vid=35477914-d946-46ef-b985-228de1bf1b90","ios":"levelo://app?vid=35477914-d946-46ef-b985-228de1bf1b90"},"vehicle_type_id":"4","last_reported":1687558027,"current_range_meters":17600,"station_id":"ce4bgr92rcd13ifvqc6g","pricing_plan_id":"free"},{"bike_id":"b40f6b11-560c-4821-8133-4d618b0eaa38","system_id":"levelo_inurba_marseille","lat":43.312239,"lon":5.368562,"is_reserved":false,"is_disabled":false,"rental_uris":{"android":"levelo://app?vid=b40f6b11-560c-4821-8133-4d618b0eaa38","ios":"levelo://app?vid=b40f6b11-560c-4821-8133-4d618b0eaa38"},"vehicle_type_id":"4","last_reported":1687558027,"current_range_meters":30000,"station_id":"ce4bgl92rcd13ifvqbq0","pricing_plan_id":"free"},{"bike_id":"903cca70-41e0-47f0-b4d1-bd369ba76261","system_id":"levelo_inurba_marseille","lat":43.312239,"lon":5.368562,"is_reserved":false,"is_disabled":false,"rental_uris":{"android":"levelo://app?vid=903cca70-41e0-47f0-b4d1-bd369ba76261","ios":"levelo://app?vid=903cca70-41e0-47f0-b4d1-bd369ba76261"},"vehicle_type_id":"4","last_reported":1687558027,"current_range_meters":6000,"station_id":"ce4bgl92rcd13ifvqbq0","pricing_plan_id":"free"},{"bike_id":"943c8ddf-c518-4931-b56c-913fe3922ed6","system_id":"levelo_inurba_marseille","lat":43.309076,"lon":5.368465,"is_reserved":false,"is_disabled":false,"rental_uris":{"android":"levelo://app?vid=943c8ddf-c518-4931-b56c-913fe3922ed6","ios":"levelo://app?vid=943c8ddf-c518-4931-b56c-913fe3922ed6"},"vehicle_type_id":"4","last_reported":1687558027,"current_range_meters":10400,"station_id":"ce4bgn92rcd13ifvqbvg","pricing_plan_id":"free"},{"bike_id":"c911f5c1-8baf-4478-b87c-ead16cccadc9","system_id":"levelo_inurba_marseille","lat":43.309076,"lon":5.368465,"is_reserved":false,"is_disabled":false,"rental_uris":{"android":"levelo://app?vid=c911f5c1-8baf-4478-b87c-ead16cccadc9","ios":"levelo://app?vid=c911f5c1-8baf-4478-b87c-ead16cccadc9"},"vehicle_type_id":"4","last_reported":1687558027,"current_range_meters":18800,"station_id":"ce4bgn92rcd13ifvqbvg","pricing_plan_id":"free"},{"bike_id":"06310f1c-4cc8-49c6-a574-6b33fca387cc","system_id":"levelo_inurba_marseille","lat":43.31325,"lon":5.37253,"is_reserved":false,"is_disabled":false,"rental_uris":{"android":"levelo://app?vid=06310f1c-4cc8-49c6-a574-6b33fca387cc","ios":"levelo://app?vid=06310f1c-4cc8-49c6-a574-6b33fca387cc"},"vehicle_type_id":"4","last_reported":1687558027,"current_range_meters":10000,"station_id":"","pricing_plan_id":"free"},{"bike_id":"b95cca4f-7391-4844-84eb-1d48ddb19ea6","system_id":"levelo_inurba_marseille","lat":43.308606,"lon":5.372099,"is_reserved":false,"is_disabled":false,"rental_uris":{"android":"levelo://app?vid=b95cca4f-7391-4844-84eb-1d48ddb19ea6","ios":"levelo://app?vid=b95cca4f-7391-4844-84eb-1d48ddb19ea6"},"vehicle_type_id":"4","last_reported":1687558027,"current_range_meters":30000,"station_id":"ce4bguh2rcd13ifvqckg","pricing_plan_id":"free"},{"bike_id":"1bc3ae87-a2e0-4e02-96ee-638c28097391","system_id":"levelo_inurba_marseille","lat":43.308606,"lon":5.372099,"is_reserved":false,"is_disabled":false,"rental_uris":{"android":"levelo://app?vid=1bc3ae87-a2e0-4e02-96ee-638c28097391","ios":"levelo://app?vid=1bc3ae87-a2e0-4e02-96ee-638c28097391"},"vehicle_type_id":"4","last_reported":1687558027,"current_range_meters":0,"station_id":"ce4bguh2rcd13ifvqckg","pricing_plan_id":"free"},{"bike_id":"37c432a5-d97d-4508-b050-c621e46bcc6e","system_id":"levelo_inurba_marseille","lat":43.3097,"lon":5.3734,"is_reserved":false,"is_disabled":false,"rental_uris":{"android":"levelo://app?vid=37c432a5-d97d-4508-b050-c621e46bcc6e","ios":"levelo://app?vid=37c432a5-d97d-4508-b050-c621e46bcc6e"},"vehicle_type_id":"4","last_reported":1687558027,"current_range_meters":29200,"station_id":"","pricing_plan_id":"free"},{"bike_id":"4600e073-ef6e-4f41-8ac6-58cd75fca8e5","system_id":"levelo_inurba_marseille","lat":43.305359,"lon":5.365424,"is_reserved":false,"is_disabled":false,"rental_uris":{"android":"levelo://app?vid=4600e073-ef6e-4f41-8ac6-58cd75fca8e5","ios":"levelo://app?vid=4600e073-ef6e-4f41-8ac6-58cd75fca8e5"},"vehicle_type_id":"4","last_reported":1687558027,"current_range_meters":13200,"station_id":"","pricing_plan_id":"free"},{"bike_id":"51b4cceb-5a1d-45e6-81b5-5e30607c1af1","system_id":"levelo_inurba_marseille","lat":43.305368,"lon":5.367343,"is_reserved":false,"is_disabled":false,"rental_uris":{"android":"levelo://app?vid=51b4cceb-5a1d-45e6-81b5-5e30607c1af1","ios":"levelo://app?vid=51b4cceb-5a1d-45e6-81b5-5e30607c1af1"},"vehicle_type_id":"4","last_reported":1687558027,"current_range_meters":11600,"station_id":"ce4bgrp2rcd13ifvqc9g","pricing_plan_id":"free"},{"bike_id":"2dc27d42-9ddb-4af2-af1c-6d94dbc2e874","system_id":"levelo_inurba_marseille","lat":43.305989,"lon":5.37225,"is_reserved":false,"is_disabled":false,"rental_uris":{"android":"levelo://app?vid=2dc27d42-9ddb-4af2-af1c-6d94dbc2e874","ios":"levelo://app?vid=2dc27d42-9ddb-4af2-af1c-6d94dbc2e874"},"vehicle_type_id":"4","last_reported":1687558027,"current_range_meters":3600,"station_id":"ce4bgqh2rcd13ifvqc4g","pricing_plan_id":"free"},{"bike_id":"a02f37e0-d65d-4812-8ed8-bfda6390cd06","system_id":"levelo_inurba_marseille","lat":43.305989,"lon":5.37225,"is_reserved":false,"is_disabled":false,"rental_uris":{"android":"levelo://app?vid=a02f37e0-d65d-4812-8ed8-bfda6390cd06","ios":"levelo://app?vid=a02f37e0-d65d-4812-8ed8-bfda6390cd06"},"vehicle_type_id":"4","last_reported":1687558027,"current_range_meters":6000,"station_id":"ce4bgqh2rcd13ifvqc4g","pricing_plan_id":"free"},{"bike_id":"07de4c37-be55-40a3-9b6d-90b09a11be9a","system_id":"levelo_inurba_marseille","lat":43.311131,"lon":5.377651,"is_reserved":false,"is_disabled":false,"rental_uris":{"android":"levelo://app?vid=07de4c37-be55-40a3-9b6d-90b09a11be9a","ios":"levelo://app?vid=07de4c37-be55-40a3-9b6d-90b09a11be9a"},"vehicle_type_id":"4","last_reported":1687558027,"current_range_meters":1200,"station_id":"ce4bgt92rcd13ifvqcg0","pricing_plan_id":"free"},{"bike_id":"d2c5ef11-4e0d-4c20-b632-0b08133ee512","system_id":"levelo_inurba_marseille","lat":43.311131,"lon":5.377651,"is_reserved":false,"is_disabled":false,"rental_uris":{"android":"levelo://app?vid=d2c5ef11-4e0d-4c20-b632-0b08133ee512","ios":"levelo://app?vid=d2c5ef11-4e0d-4c20-b632-0b08133ee512"},"vehicle_type_id":"4","last_reported":1687558027,"current_range_meters":24000,"station_id":"ce4bgt92rcd13ifvqcg0","pricing_plan_id":"free"},{"bike_id":"c096919d-1b66-4388-a535-623520895fdf","system_id":"levelo_inurba_marseille","lat":43.30305,"lon":5.36907,"is_reserved":false,"is_disabled":false,"rental_uris":{"android":"levelo://app?vid=c096919d-1b66-4388-a535-623520895fdf","ios":"levelo://app?vid=c096919d-1b66-4388-a535-623520895fdf"},"vehicle_type_id":"4","last_reported":1687558027,"current_range_meters":28800,"station_id":"ce4bgqh2rcd13ifvqc5g","pricing_plan_id":"free"},{"bike_id":"4860b231-90cc-4c6f-8b65-964e4f6e1d61","system_id":"levelo_inurba_marseille","lat":43.30481,"lon":5.37907,"is_reserved":false,"is_disabled":false,"rental_uris":{"android":"levelo://app?vid=4860b231-90cc-4c6f-8b65-964e4f6e1d61","ios":"levelo://app?vid=4860b231-90cc-4c6f-8b65-964e4f6e1d61"},"vehicle_type_id":"4","last_reported":1687558027,"current_range_meters":31600,"station_id":"ce4bgup2rcd13ifvqcn0","pricing_plan_id":"free"},{"bike_id":"a45ec2d1-bacc-432d-a65b-4981f2587519","system_id":"levelo_inurba_marseille","lat":43.304606,"lon":5.379026,"is_reserved":false,"is_disabled":false,"rental_uris":{"android":"levelo://app?vid=a45ec2d1-bacc-432d-a65b-4981f2587519","ios":"levelo://app?vid=a45ec2d1-bacc-432d-a65b-4981f2587519"},"vehicle_type_id":"4","last_reported":1687558027,"current_range_meters":31200,"station_id":"ce4bgup2rcd13ifvqcn0","pricing_plan_id":"free"},{"bike_id":"fb4714d0-e05d-4da1-bf0d-26d05636b34d","system_id":"levelo_inurba_marseille","lat":43.30463,"lon":5.3791,"is_reserved":false,"is_disabled":false,"rental_uris":{"android":"levelo://app?vid=fb4714d0-e05d-4da1-bf0d-26d05636b34d","ios":"levelo://app?vid=fb4714d0-e05d-4da1-bf0d-26d05636b34d"},"vehicle_type_id":"4","last_reported":1687558027,"current_range_meters":31200,"station_id":"ce4bgup2rcd13ifvqcn0","pricing_plan_id":"free"},{"bike_id":"b3963e52-17da-4c9a-80fd-bf09ac69861c","system_id":"levelo_inurba_marseille","lat":43.302784,"lon":5.377158,"is_reserved":false,"is_disabled":false,"rental_uris":{"android":"levelo://app?vid=b3963e52-17da-4c9a-80fd-bf09ac69861c","ios":"levelo://app?vid=b3963e52-17da-4c9a-80fd-bf09ac69861c"},"vehicle_type_id":"4","last_reported":1687558027,"current_range_meters":11200,"station_id":"ce4bguh2rcd13ifvqcj0","pricing_plan_id":"free"},{"bike_id":"a201b65d-3bc0-41f7-8a06-9a86352a3793","system_id":"levelo_inurba_marseille","lat":43.302784,"lon":5.377158,"is_reserved":false,"is_disabled":false,"rental_uris":{"android":"levelo://app?vid=a201b65d-3bc0-41f7-8a06-9a86352a3793","ios":"levelo://app?vid=a201b65d-3bc0-41f7-8a06-9a86352a3793"},"vehicle_type_id":"4","last_reported":1687558027,"current_range_meters":6000,"station_id":"ce4bguh2rcd13ifvqcj0","pricing_plan_id":"free"},{"bike_id":"9a84abcc-57ec-4e7a-aad7-107e1e12b7c2","system_id":"levelo_inurba_marseille","lat":43.319935,"lon":5.381699,"is_reserved":false,"is_disabled":false,"rental_uris":{"android":"levelo://app?vid=9a84abcc-57ec-4e7a-aad7-107e1e12b7c2","ios":"levelo://app?vid=9a84abcc-57ec-4e7a-aad7-107e1e12b7c2"},"vehicle_type_id":"4","last_reported":1687558027,"current_range_meters":28000,"station_id":"ce4bhr12rcd13ifvqhpg","pricing_plan_id":"free"},{"bike_id":"d47be9cf-94bf-48d8-8867-0f68c8c62bf0","system_id":"levelo_inurba_marseille","lat":43.31999,"lon":5.38141,"is_reserved":false,"is_disabled":false,"rental_uris":{"android":"levelo://app?vid=d47be9cf-94bf-48d8-8867-0f68c8c62bf0","ios":"levelo://app?vid=d47be9cf-94bf-48d8-8867-0f68c8c62bf0"},"vehicle_type_id":"4","last_reported":1687558027,"current_range_meters":0,"station_id":"ce4bhr12rcd13ifvqhpg","pricing_plan_id":"free"},{"bike_id":"4d6cdb74-cf15-4052-a766-840ed7600beb","system_id":"levelo_inurba_marseille","lat":43.3135,"lon":5.38481,"is_reserved":false,"is_disabled":false,"rental_uris":{"android":"levelo://app?vid=4d6cdb74-cf15-4052-a766-840ed7600beb","ios":"levelo://app?vid=4d6cdb74-cf15-4052-a766-840ed7600beb"},"vehicle_type_id":"4","last_reported":1687558027,"current_range_meters":0,"station_id":"ce4bgt92rcd13ifvqcf0","pricing_plan_id":"free"},{"bike_id":"3a5a19c4-47c4-4dbf-907a-f37fe449b305","system_id":"levelo_inurba_marseille","lat":43.31359,"lon":5.38491,"is_reserved":false,"is_disabled":false,"rental_uris":{"android":"levelo://app?vid=3a5a19c4-47c4-4dbf-907a-f37fe449b305","ios":"levelo://app?vid=3a5a19c4-47c4-4dbf-907a-f37fe449b305"},"vehicle_type_id":"4","last_reported":1687558027,"current_range_meters":22800,"station_id":"ce4bgt92rcd13ifvqcf0","pricing_plan_id":"free"},{"bike_id":"6d672133-86bc-4c7a-b6ee-1031fa023fad","system_id":"levelo_inurba_marseille","lat":43.29936,"lon":5.36552,"is_reserved":false,"is_disabled":false,"rental_uris":{"android":"levelo://app?vid=6d672133-86bc-4c7a-b6ee-1031fa023fad","ios":"levelo://app?vid=6d672133-86bc-4c7a-b6ee-1031fa023fad"},"vehicle_type_id":"4","last_reported":1687558027,"current_range_meters":21200,"station_id":"ce4bgm92rcd13ifvqbr0","pricing_plan_id":"free"},{"bike_id":"241d28d7-0874-4506-9266-82246290b6af","system_id":"levelo_inurba_marseille","lat":43.299222,"lon":5.365554,"is_reserved":false,"is_disabled":false,"rental_uris":{"android":"levelo://app?vid=241d28d7-0874-4506-9266-82246290b6af","ios":"levelo://app?vid=241d28d7-0874-4506-9266-82246290b6af"},"vehicle_type_id":"4","last_reported":1687558027,"current_range_meters":0,"station_id":"ce4bgm92rcd13ifvqbr0","pricing_plan_id":"free"},{"bike_id":"1580a472-182f-4d91-8a6c-4c3a23a9c034","system_id":"levelo_inurba_marseille","lat":43.302,"lon":5.3821,"is_reserved":false,"is_disabled":false,"rental_uris":{"android":"levelo://app?vid=1580a472-182f-4d91-8a6c-4c3a23a9c034","ios":"levelo://app?vid=1580a472-182f-4d91-8a6c-4c3a23a9c034"},"vehicle_type_id":"4","last_reported":1687558027,"current_range_meters":19600,"station_id":"","pricing_plan_id":"free"},{"bike_id":"d6aa4b8f-0fbd-492f-a726-f1b64033634e","system_id":"levelo_inurba_marseille","lat":43.29702,"lon":5.36424,"is_reserved":false,"is_disabled":false,"rental_uris":{"android":"levelo://app?vid=d6aa4b8f-0fbd-492f-a726-f1b64033634e","ios":"levelo://app?vid=d6aa4b8f-0fbd-492f-a726-f1b64033634e"},"vehicle_type_id":"4","last_reported":1687558027,"current_range_meters":8800,"station_id":"","pricing_plan_id":"free"},{"bike_id":"bb3e846c-6576-47a8-a9ff-2a4105e53984","system_id":"levelo_inurba_marseille","lat":43.2968,"lon":5.36585,"is_reserved":false,"is_disabled":false,"rental_uris":{"android":"levelo://app?vid=bb3e846c-6576-47a8-a9ff-2a4105e53984","ios":"levelo://app?vid=bb3e846c-6576-47a8-a9ff-2a4105e53984"},"vehicle_type_id":"4","last_reported":1687558027,"current_range_meters":16400,"station_id":"","pricing_plan_id":"free"},{"bike_id":"267cc0a8-8b46-4c9f-a925-8d5e839ed369","system_id":"levelo_inurba_marseille","lat":43.305989,"lon":5.37225,"is_reserved":false,"is_disabled":false,"rental_uris":{"android":"levelo://app?vid=267cc0a8-8b46-4c9f-a925-8d5e839ed369","ios":"levelo://app?vid=267cc0a8-8b46-4c9f-a925-8d5e839ed369"},"vehicle_type_id":"4","last_reported":1687558027,"current_range_meters":16400,"station_id":"ce4bgqh2rcd13ifvqc4g","pricing_plan_id":"free"},{"bike_id":"c2c6040d-4697-4f73-9964-0bcee42e7423","system_id":"levelo_inurba_marseille","lat":43.296131,"lon":5.370791,"is_reserved":false,"is_disabled":false,"rental_uris":{"android":"levelo://app?vid=c2c6040d-4697-4f73-9964-0bcee42e7423","ios":"levelo://app?vid=c2c6040d-4697-4f73-9964-0bcee42e7423"},"vehicle_type_id":"4","last_reported":1687558027,"current_range_meters":29600,"station_id":"ce4bgnh2rcd13ifvqc0g","pricing_plan_id":"free"},{"bike_id":"515b23d2-cfdf-4df0-a851-4f72ca4290eb","system_id":"levelo_inurba_marseille","lat":43.29573,"lon":5.367355,"is_reserved":false,"is_disabled":false,"rental_uris":{"android":"levelo://app?vid=515b23d2-cfdf-4df0-a851-4f72ca4290eb","ios":"levelo://app?vid=515b23d2-cfdf-4df0-a851-4f72ca4290eb"},"vehicle_type_id":"4","last_reported":1687558027,"current_range_meters":30400,"station_id":"ce4bgph2rcd13ifvqc2g","pricing_plan_id":"free"},{"bike_id":"041bc147-ef2f-419b-bb81-deca3bdf89e2","system_id":"levelo_inurba_marseille","lat":43.29611,"lon":5.36046,"is_reserved":false,"is_disabled":false,"rental_uris":{"android":"levelo://app?vid=041bc147-ef2f-419b-bb81-deca3bdf89e2","ios":"levelo://app?vid=041bc147-ef2f-419b-bb81-deca3bdf89e2"},"vehicle_type_id":"4","last_reported":1687558027,"current_range_meters":9200,"station_id":"","pricing_plan_id":"free"},{"bike_id":"77189315-5b52-4e27-838f-9f62273ba374","system_id":"levelo_inurba_marseille","lat":43.296935,"lon":5.376544,"is_reserved":false,"is_disabled":false,"rental_uris":{"android":"levelo://app?vid=77189315-5b52-4e27-838f-9f62273ba374","ios":"levelo://app?vid=77189315-5b52-4e27-838f-9f62273ba374"},"vehicle_type_id":"4","last_reported":1687558027,"current_range_meters":24800,"station_id":"ce4bgkh2rcd13ifvqbl0","pricing_plan_id":"free"},{"bike_id":"acc878fe-7071-4cc5-8f59-cb438feb9edd","system_id":"levelo_inurba_marseille","lat":43.317557,"lon":5.390173,"is_reserved":false,"is_disabled":false,"rental_uris":{"android":"levelo://app?vid=acc878fe-7071-4cc5-8f59-cb438feb9edd","ios":"levelo://app?vid=acc878fe-7071-4cc5-8f59-cb438feb9edd"},"vehicle_type_id":"4","last_reported":1687558027,"current_range_meters":26800,"station_id":"ce4bhqp2rcd13ifvqhng","pricing_plan_id":"free"},{"bike_id":"27971a25-1def-42a8-a3e3-c16ad5456a5e","system_id":"levelo_inurba_marseille","lat":43.317557,"lon":5.390173,"is_reserved":false,"is_disabled":false,"rental_uris":{"android":"levelo://app?vid=27971a25-1def-42a8-a3e3-c16ad5456a5e","ios":"levelo://app?vid=27971a25-1def-42a8-a3e3-c16ad5456a5e"},"vehicle_type_id":"4","last_reported":1687558027,"current_range_meters":22000,"station_id":"ce4bhqp2rcd13ifvqhng","pricing_plan_id":"free"},{"bike_id":"a26b3693-5eee-4958-8ca8-8a69361289e6","system_id":"levelo_inurba_marseille","lat":43.317557,"lon":5.390173,"is_reserved":false,"is_disabled":false,"rental_uris":{"android":"levelo://app?vid=a26b3693-5eee-4958-8ca8-8a69361289e6","ios":"levelo://app?vid=a26b3693-5eee-4958-8ca8-8a69361289e6"},"vehicle_type_id":"4","last_reported":1687558027,"current_range_meters":30800,"station_id":"ce4bhqp2rcd13ifvqhng","pricing_plan_id":"free"},{"bike_id":"c6302fff-6a1d-4a7e-a94a-fded06b72bcf","system_id":"levelo_inurba_marseille","lat":43.317557,"lon":5.390173,"is_reserved":false,"is_disabled":false,"rental_uris":{"android":"levelo://app?vid=c6302fff-6a1d-4a7e-a94a-fded06b72bcf","ios":"levelo://app?vid=c6302fff-6a1d-4a7e-a94a-fded06b72bcf"},"vehicle_type_id":"4","last_reported":1687558027,"current_range_meters":22000,"station_id":"ce4bhqp2rcd13ifvqhng","pricing_plan_id":"free"},{"bike_id":"5f2d3385-7e8f-4450-a47c-50b2d273424d","system_id":"levelo_inurba_marseille","lat":43.29576,"lon":5.37491,"is_reserved":false,"is_disabled":false,"rental_uris":{"android":"levelo://app?vid=5f2d3385-7e8f-4450-a47c-50b2d273424d","ios":"levelo://app?vid=5f2d3385-7e8f-4450-a47c-50b2d273424d"},"vehicle_type_id":"4","last_reported":1687558027,"current_range_meters":31200,"station_id":"ce4bgh92rcd13ifvqb50","pricing_plan_id":"free"},{"bike_id":"67e0dfeb-b706-48a0-a303-79f07ba75fb0","system_id":"levelo_inurba_marseille","lat":43.295748,"lon":5.37522,"is_reserved":false,"is_disabled":false,"rental_uris":{"android":"levelo://app?vid=67e0dfeb-b706-48a0-a303-79f07ba75fb0","ios":"levelo://app?vid=67e0dfeb-b706-48a0-a303-79f07ba75fb0"},"vehicle_type_id":"4","last_reported":1687558027,"current_range_meters":19600,"station_id":"ce4bgh92rcd13ifvqb50","pricing_plan_id":"free"},{"bike_id":"beeb13dd-d0e0-4396-99f6-1eee9a611c38","system_id":"levelo_inurba_marseille","lat":43.295748,"lon":5.37522,"is_reserved":false,"is_disabled":false,"rental_uris":{"android":"levelo://app?vid=beeb13dd-d0e0-4396-99f6-1eee9a611c38","ios":"levelo://app?vid=beeb13dd-d0e0-4396-99f6-1eee9a611c38"},"vehicle_type_id":"4","last_reported":1687558027,"current_range_meters":2000,"station_id":"ce4bgh92rcd13ifvqb50","pricing_plan_id":"free"},{"bike_id":"28364868-9d26-4658-b0d0-3a8d868164e5","system_id":"levelo_inurba_marseille","lat":43.296263,"lon":5.377094,"is_reserved":false,"is_disabled":false,"rental_uris":{"android":"levelo://app?vid=28364868-9d26-4658-b0d0-3a8d868164e5","ios":"levelo://app?vid=28364868-9d26-4658-b0d0-3a8d868164e5"},"vehicle_type_id":"4","last_reported":1687558027,"current_range_meters":0,"station_id":"ce4bgi92rcd13ifvqb90","pricing_plan_id":"free"},{"bike_id":"5619f861-67ad-4e5f-9d58-ea87ef38cf16","system_id":"levelo_inurba_marseille","lat":43.299707,"lon":5.384859,"is_reserved":false,"is_disabled":false,"rental_uris":{"android":"levelo://app?vid=5619f861-67ad-4e5f-9d58-ea87ef38cf16","ios":"levelo://app?vid=5619f861-67ad-4e5f-9d58-ea87ef38cf16"},"vehicle_type_id":"4","last_reported":1687558027,"current_range_meters":7200,"station_id":"ce4bgj92rcd13ifvqbd0","pricing_plan_id":"free"},{"bike_id":"c655ad31-03ad-4c4e-b3aa-77313c0d4c9a","system_id":"levelo_inurba_marseille","lat":43.299707,"lon":5.384859,"is_reserved":false,"is_disabled":false,"rental_uris":{"android":"levelo://app?vid=c655ad31-03ad-4c4e-b3aa-77313c0d4c9a","ios":"levelo://app?vid=c655ad31-03ad-4c4e-b3aa-77313c0d4c9a"},"vehicle_type_id":"4","last_reported":1687558027,"current_range_meters":29600,"station_id":"ce4bgj92rcd13ifvqbd0","pricing_plan_id":"free"},{"bike_id":"51ed23a6-df02-47c8-9e1b-989426c29b96","system_id":"levelo_inurba_marseille","lat":43.32367,"lon":5.388836,"is_reserved":false,"is_disabled":false,"rental_uris":{"android":"levelo://app?vid=51ed23a6-df02-47c8-9e1b-989426c29b96","ios":"levelo://app?vid=51ed23a6-df02-47c8-9e1b-989426c29b96"},"vehicle_type_id":"4","last_reported":1687558027,"current_range_meters":6000,"station_id":"ce4bhqp2rcd13ifvqhog","pricing_plan_id":"free"},{"bike_id":"6b05f8f0-f4fb-40e7-82c0-a54912f6c06c","system_id":"levelo_inurba_marseille","lat":43.32367,"lon":5.388836,"is_reserved":false,"is_disabled":false,"rental_uris":{"android":"levelo://app?vid=6b05f8f0-f4fb-40e7-82c0-a54912f6c06c","ios":"levelo://app?vid=6b05f8f0-f4fb-40e7-82c0-a54912f6c06c"},"vehicle_type_id":"4","last_reported":1687558027,"current_range_meters":31200,"station_id":"ce4bhqp2rcd13ifvqhog","pricing_plan_id":"free"},{"bike_id":"d03181c3-9091-4063-b5ab-d66c863c51ac","system_id":"levelo_inurba_marseille","lat":43.32367,"lon":5.388836,"is_reserved":false,"is_disabled":false,"rental_uris":{"android":"levelo://app?vid=d03181c3-9091-4063-b5ab-d66c863c51ac","ios":"levelo://app?vid=d03181c3-9091-4063-b5ab-d66c863c51ac"},"vehicle_type_id":"4","last_reported":1687558027,"current_range_meters":5200,"station_id":"ce4bhqp2rcd13ifvqhog","pricing_plan_id":"free"},{"bike_id":"cb4abb44-f52a-45fe-aa4f-b247ad26ddad","system_id":"levelo_inurba_marseille","lat":43.32367,"lon":5.388836,"is_reserved":false,"is_disabled":false,"rental_uris":{"android":"levelo://app?vid=cb4abb44-f52a-45fe-aa4f-b247ad26ddad","ios":"levelo://app?vid=cb4abb44-f52a-45fe-aa4f-b247ad26ddad"},"vehicle_type_id":"4","last_reported":1687558027,"current_range_meters":22000,"station_id":"ce4bhqp2rcd13ifvqhog","pricing_plan_id":"free"},{"bike_id":"986ce1e1-b882-48b6-9811-2e6f1994fe21","system_id":"levelo_inurba_marseille","lat":43.293249,"lon":5.371578,"is_reserved":false,"is_disabled":false,"rental_uris":{"android":"levelo://app?vid=986ce1e1-b882-48b6-9811-2e6f1994fe21","ios":"levelo://app?vid=986ce1e1-b882-48b6-9811-2e6f1994fe21"},"vehicle_type_id":"4","last_reported":1687558027,"current_range_meters":20800,"station_id":"ce4bgh92rcd13ifvqb40","pricing_plan_id":"free"},{"bike_id":"3481b3b0-dd1f-41b1-8e13-99b7b19923d4","system_id":"levelo_inurba_marseille","lat":43.305994,"lon":5.393687,"is_reserved":false,"is_disabled":false,"rental_uris":{"android":"levelo://app?vid=3481b3b0-dd1f-41b1-8e13-99b7b19923d4","ios":"levelo://app?vid=3481b3b0-dd1f-41b1-8e13-99b7b19923d4"},"vehicle_type_id":"4","last_reported":1687558027,"current_range_meters":26800,"station_id":"ce4bh0p2rcd13ifvqd80","pricing_plan_id":"free"},{"bike_id":"a09361d8-5543-48a1-bd0e-ab61f7e49da8","system_id":"levelo_inurba_marseille","lat":43.302992,"lon":5.392136,"is_reserved":false,"is_disabled":false,"rental_uris":{"android":"levelo://app?vid=a09361d8-5543-48a1-bd0e-ab61f7e49da8","ios":"levelo://app?vid=a09361d8-5543-48a1-bd0e-ab61f7e49da8"},"vehicle_type_id":"4","last_reported":1687558027,"current_range_meters":14000,"station_id":"ce4bgkh2rcd13ifvqbk0","pricing_plan_id":"free"},{"bike_id":"eb7bd624-2368-4a87-8b22-275a4b0c7052","system_id":"levelo_inurba_marseille","lat":43.302992,"lon":5.392136,"is_reserved":false,"is_disabled":false,"rental_uris":{"android":"levelo://app?vid=eb7bd624-2368-4a87-8b22-275a4b0c7052","ios":"levelo://app?vid=eb7bd624-2368-4a87-8b22-275a4b0c7052"},"vehicle_type_id":"4","last_reported":1687558027,"current_range_meters":400,"station_id":"ce4bgkh2rcd13ifvqbk0","pricing_plan_id":"free"},{"bike_id":"08cad14e-93e0-400e-9739-c60544bf44c2","system_id":"levelo_inurba_marseille","lat":43.300852,"lon":5.390859,"is_reserved":false,"is_disabled":false,"rental_uris":{"android":"levelo://app?vid=08cad14e-93e0-400e-9739-c60544bf44c2","ios":"levelo://app?vid=08cad14e-93e0-400e-9739-c60544bf44c2"},"vehicle_type_id":"4","last_reported":1687558027,"current_range_meters":2800,"station_id":"ce4bh192rcd13ifvqdb0","pricing_plan_id":"free"},{"bike_id":"f1f54785-8242-4c74-b248-5cf66387b398","system_id":"levelo_inurba_marseille","lat":43.29872,"lon":5.38904,"is_reserved":false,"is_disabled":false,"rental_uris":{"android":"levelo://app?vid=f1f54785-8242-4c74-b248-5cf66387b398","ios":"levelo://app?vid=f1f54785-8242-4c74-b248-5cf66387b398"},"vehicle_type_id":"4","last_reported":1687558027,"current_range_meters":31600,"station_id":"ce4bh392rcd13ifvqdl0","pricing_plan_id":"free"},{"bike_id":"c6d1bdb1-3302-4078-88aa-c91a4230ae9d","system_id":"levelo_inurba_marseille","lat":43.298764,"lon":5.388973,"is_reserved":false,"is_disabled":false,"rental_uris":{"android":"levelo://app?vid=c6d1bdb1-3302-4078-88aa-c91a4230ae9d","ios":"levelo://app?vid=c6d1bdb1-3302-4078-88aa-c91a4230ae9d"},"vehicle_type_id":"4","last_reported":1687558027,"current_range_meters":31200,"station_id":"ce4bh392rcd13ifvqdl0","pricing_plan_id":"free"},{"bike_id":"89712f89-50d4-4c2a-849d-d53028baaa9e","system_id":"levelo_inurba_marseille","lat":43.2987,"lon":5.38907,"is_reserved":false,"is_disabled":false,"rental_uris":{"android":"levelo://app?vid=89712f89-50d4-4c2a-849d-d53028baaa9e","ios":"levelo://app?vid=89712f89-50d4-4c2a-849d-d53028baaa9e"},"vehicle_type_id":"4","last_reported":1687558027,"current_range_meters":31600,"station_id":"ce4bh392rcd13ifvqdl0","pricing_plan_id":"free"},{"bike_id":"0c359ec6-4475-4375-96b3-f8c35b599e7d","system_id":"levelo_inurba_marseille","lat":43.30643,"lon":5.3955,"is_reserved":false,"is_disabled":false,"rental_uris":{"android":"levelo://app?vid=0c359ec6-4475-4375-96b3-f8c35b599e7d","ios":"levelo://app?vid=0c359ec6-4475-4375-96b3-f8c35b599e7d"},"vehicle_type_id":"4","last_reported":1687558027,"current_range_meters":12000,"station_id":"","pricing_plan_id":"free"},{"bike_id":"dd3210db-7e5c-422a-8a57-ac5eaba270fb","system_id":"levelo_inurba_marseille","lat":43.309038,"lon":5.396546,"is_reserved":false,"is_disabled":false,"rental_uris":{"android":"levelo://app?vid=dd3210db-7e5c-422a-8a57-ac5eaba270fb","ios":"levelo://app?vid=dd3210db-7e5c-422a-8a57-ac5eaba270fb"},"vehicle_type_id":"4","last_reported":1687558027,"current_range_meters":0,"station_id":"ce4bh012rcd13ifvqcv0","pricing_plan_id":"free"},{"bike_id":"aa9cf531-1493-4a21-b842-d481edfe4ac6","system_id":"levelo_inurba_marseille","lat":43.309038,"lon":5.396546,"is_reserved":false,"is_disabled":false,"rental_uris":{"android":"levelo://app?vid=aa9cf531-1493-4a21-b842-d481edfe4ac6","ios":"levelo://app?vid=aa9cf531-1493-4a21-b842-d481edfe4ac6"},"vehicle_type_id":"4","last_reported":1687558027,"current_range_meters":800,"station_id":"ce4bh012rcd13ifvqcv0","pricing_plan_id":"free"},{"bike_id":"54fda2f9-7b1a-4838-9b70-087d4101d0ae","system_id":"levelo_inurba_marseille","lat":43.33256,"lon":5.37937,"is_reserved":false,"is_disabled":false,"rental_uris":{"android":"levelo://app?vid=54fda2f9-7b1a-4838-9b70-087d4101d0ae","ios":"levelo://app?vid=54fda2f9-7b1a-4838-9b70-087d4101d0ae"},"vehicle_type_id":"4","last_reported":1687558027,"current_range_meters":800,"station_id":"","pricing_plan_id":"free"},{"bike_id":"81781672-4154-4551-a332-5c2e393df06f","system_id":"levelo_inurba_marseille","lat":43.313291,"lon":5.396838,"is_reserved":false,"is_disabled":false,"rental_uris":{"android":"levelo://app?vid=81781672-4154-4551-a332-5c2e393df06f","ios":"levelo://app?vid=81781672-4154-4551-a332-5c2e393df06f"},"vehicle_type_id":"4","last_reported":1687558027,"current_range_meters":22400,"station_id":"ce4bgvp2rcd13ifvqcu0","pricing_plan_id":"free"},{"bike_id":"b4fccd6d-13ff-4454-974e-9ea082a08b8a","system_id":"levelo_inurba_marseille","lat":43.313291,"lon":5.396838,"is_reserved":false,"is_disabled":false,"rental_uris":{"android":"levelo://app?vid=b4fccd6d-13ff-4454-974e-9ea082a08b8a","ios":"levelo://app?vid=b4fccd6d-13ff-4454-974e-9ea082a08b8a"},"vehicle_type_id":"4","last_reported":1687558027,"current_range_meters":14800,"station_id":"ce4bgvp2rcd13ifvqcu0","pricing_plan_id":"free"},{"bike_id":"2a3b386b-df7a-4ff2-bc79-aac0581bdd93","system_id":"levelo_inurba_marseille","lat":43.309038,"lon":5.396546,"is_reserved":false,"is_disabled":false,"rental_uris":{"android":"levelo://app?vid=2a3b386b-df7a-4ff2-bc79-aac0581bdd93","ios":"levelo://app?vid=2a3b386b-df7a-4ff2-bc79-aac0581bdd93"},"vehicle_type_id":"4","last_reported":1687558027,"current_range_meters":16400,"station_id":"ce4bh012rcd13ifvqcv0","pricing_plan_id":"free"},{"bike_id":"ed4724e2-defe-42f2-99a8-651e653a5813","system_id":"levelo_inurba_marseille","lat":43.309038,"lon":5.396546,"is_reserved":false,"is_disabled":false,"rental_uris":{"android":"levelo://app?vid=ed4724e2-defe-42f2-99a8-651e653a5813","ios":"levelo://app?vid=ed4724e2-defe-42f2-99a8-651e653a5813"},"vehicle_type_id":"4","last_reported":1687558027,"current_range_meters":400,"station_id":"ce4bh012rcd13ifvqcv0","pricing_plan_id":"free"},{"bike_id":"e14afa42-64a5-42ba-ba6e-98e4e902b9bc","system_id":"levelo_inurba_marseille","lat":43.309038,"lon":5.396546,"is_reserved":false,"is_disabled":false,"rental_uris":{"android":"levelo://app?vid=e14afa42-64a5-42ba-ba6e-98e4e902b9bc","ios":"levelo://app?vid=e14afa42-64a5-42ba-ba6e-98e4e902b9bc"},"vehicle_type_id":"4","last_reported":1687558027,"current_range_meters":6000,"station_id":"ce4bh012rcd13ifvqcv0","pricing_plan_id":"free"},{"bike_id":"a8392e5f-f50a-461b-9779-10293581e019","system_id":"levelo_inurba_marseille","lat":43.313291,"lon":5.396838,"is_reserved":false,"is_disabled":false,"rental_uris":{"android":"levelo://app?vid=a8392e5f-f50a-461b-9779-10293581e019","ios":"levelo://app?vid=a8392e5f-f50a-461b-9779-10293581e019"},"vehicle_type_id":"4","last_reported":1687558027,"current_range_meters":29200,"station_id":"ce4bgvp2rcd13ifvqcu0","pricing_plan_id":"free"},{"bike_id":"09294dd2-6a63-4974-80cd-5e17a56a22b5","system_id":"levelo_inurba_marseille","lat":43.309038,"lon":5.396546,"is_reserved":false,"is_disabled":false,"rental_uris":{"android":"levelo://app?vid=09294dd2-6a63-4974-80cd-5e17a56a22b5","ios":"levelo://app?vid=09294dd2-6a63-4974-80cd-5e17a56a22b5"},"vehicle_type_id":"4","last_reported":1687558027,"current_range_meters":4400,"station_id":"ce4bh012rcd13ifvqcv0","pricing_plan_id":"free"},{"bike_id":"614466a0-8030-4c8c-a895-8b72a4f38dc5","system_id":"levelo_inurba_marseille","lat":43.29534,"lon":5.38549,"is_reserved":false,"is_disabled":false,"rental_uris":{"android":"levelo://app?vid=614466a0-8030-4c8c-a895-8b72a4f38dc5","ios":"levelo://app?vid=614466a0-8030-4c8c-a895-8b72a4f38dc5"},"vehicle_type_id":"4","last_reported":1687558027,"current_range_meters":0,"station_id":"ce4bgih2rcd13ifvqba0","pricing_plan_id":"free"},{"bike_id":"124dd7b2-66e0-45b8-9e3a-336ac78b44fb","system_id":"levelo_inurba_marseille","lat":43.2952,"lon":5.3854,"is_reserved":false,"is_disabled":false,"rental_uris":{"android":"levelo://app?vid=124dd7b2-66e0-45b8-9e3a-336ac78b44fb","ios":"levelo://app?vid=124dd7b2-66e0-45b8-9e3a-336ac78b44fb"},"vehicle_type_id":"4","last_reported":1687558027,"current_range_meters":28400,"station_id":"ce4bgih2rcd13ifvqba0","pricing_plan_id":"free"},{"bike_id":"2916a4cc-bc46-4fed-b9a6-98fc17647982","system_id":"levelo_inurba_marseille","lat":43.29572,"lon":5.38725,"is_reserved":false,"is_disabled":false,"rental_uris":{"android":"levelo://app?vid=2916a4cc-bc46-4fed-b9a6-98fc17647982","ios":"levelo://app?vid=2916a4cc-bc46-4fed-b9a6-98fc17647982"},"vehicle_type_id":"4","last_reported":1687558027,"current_range_meters":400,"station_id":"","pricing_plan_id":"free"},{"bike_id":"d313fe82-8df9-491c-b9db-aa1c479ae711","system_id":"levelo_inurba_marseille","lat":43.302008,"lon":5.394694,"is_reserved":false,"is_disabled":false,"rental_uris":{"android":"levelo://app?vid=d313fe82-8df9-491c-b9db-aa1c479ae711","ios":"levelo://app?vid=d313fe82-8df9-491c-b9db-aa1c479ae711"},"vehicle_type_id":"4","last_reported":1687558027,"current_range_meters":0,"station_id":"ce4bh0p2rcd13ifvqd70","pricing_plan_id":"free"},{"bike_id":"f4083293-da45-424a-8c43-d6beea9fecf2","system_id":"levelo_inurba_marseille","lat":43.294162,"lon":5.386292,"is_reserved":false,"is_disabled":false,"rental_uris":{"android":"levelo://app?vid=f4083293-da45-424a-8c43-d6beea9fecf2","ios":"levelo://app?vid=f4083293-da45-424a-8c43-d6beea9fecf2"},"vehicle_type_id":"4","last_reported":1687558027,"current_range_meters":8800,"station_id":"ce4bh2h2rcd13ifvqdh0","pricing_plan_id":"free"},{"bike_id":"dbf51b6a-619b-4a59-af52-a64b3d1bef5a","system_id":"levelo_inurba_marseille","lat":43.29031,"lon":5.37552,"is_reserved":false,"is_disabled":false,"rental_uris":{"android":"levelo://app?vid=dbf51b6a-619b-4a59-af52-a64b3d1bef5a","ios":"levelo://app?vid=dbf51b6a-619b-4a59-af52-a64b3d1bef5a"},"vehicle_type_id":"4","last_reported":1687558027,"current_range_meters":0,"station_id":"ce4bh692rcd13ifvqe90","pricing_plan_id":"free"},{"bike_id":"20b2702a-2cf1-439f-b7da-41f192fa1a0a","system_id":"levelo_inurba_marseille","lat":43.29411,"lon":5.38614,"is_reserved":false,"is_disabled":false,"rental_uris":{"android":"levelo://app?vid=20b2702a-2cf1-439f-b7da-41f192fa1a0a","ios":"levelo://app?vid=20b2702a-2cf1-439f-b7da-41f192fa1a0a"},"vehicle_type_id":"4","last_reported":1687558027,"current_range_meters":21600,"station_id":"","pricing_plan_id":"free"},{"bike_id":"6baf6efe-5c09-4727-a365-2cb41b3ddd72","system_id":"levelo_inurba_marseille","lat":43.29415,"lon":5.38622,"is_reserved":false,"is_disabled":false,"rental_uris":{"android":"levelo://app?vid=6baf6efe-5c09-4727-a365-2cb41b3ddd72","ios":"levelo://app?vid=6baf6efe-5c09-4727-a365-2cb41b3ddd72"},"vehicle_type_id":"4","last_reported":1687558027,"current_range_meters":24800,"station_id":"","pricing_plan_id":"free"},{"bike_id":"ec67d788-5b31-4e12-aa54-92b18b874fe7","system_id":"levelo_inurba_marseille","lat":43.292644,"lon":5.384257,"is_reserved":false,"is_disabled":false,"rental_uris":{"android":"levelo://app?vid=ec67d788-5b31-4e12-aa54-92b18b874fe7","ios":"levelo://app?vid=ec67d788-5b31-4e12-aa54-92b18b874fe7"},"vehicle_type_id":"4","last_reported":1687558027,"current_range_meters":22000,"station_id":"ce4bh692rcd13ifvqea0","pricing_plan_id":"free"},{"bike_id":"e36874dc-7135-4ebc-b4cd-8f7cd3793fb7","system_id":"levelo_inurba_marseille","lat":43.30342,"lon":5.39693,"is_reserved":false,"is_disabled":false,"rental_uris":{"android":"levelo://app?vid=e36874dc-7135-4ebc-b4cd-8f7cd3793fb7","ios":"levelo://app?vid=e36874dc-7135-4ebc-b4cd-8f7cd3793fb7"},"vehicle_type_id":"4","last_reported":1687558027,"current_range_meters":24400,"station_id":"","pricing_plan_id":"free"},{"bike_id":"8124d2c7-6d62-4f1c-863e-260903640d07","system_id":"levelo_inurba_marseille","lat":43.304274,"lon":5.397513,"is_reserved":false,"is_disabled":false,"rental_uris":{"android":"levelo://app?vid=8124d2c7-6d62-4f1c-863e-260903640d07","ios":"levelo://app?vid=8124d2c7-6d62-4f1c-863e-260903640d07"},"vehicle_type_id":"4","last_reported":1687558027,"current_range_meters":14400,"station_id":"ce4bh092rcd13ifvqd20","pricing_plan_id":"free"},{"bike_id":"e4e06b95-1721-4584-9864-ef74cf24cd0f","system_id":"levelo_inurba_marseille","lat":43.33041,"lon":5.38918,"is_reserved":false,"is_disabled":false,"rental_uris":{"android":"levelo://app?vid=e4e06b95-1721-4584-9864-ef74cf24cd0f","ios":"levelo://app?vid=e4e06b95-1721-4584-9864-ef74cf24cd0f"},"vehicle_type_id":"4","last_reported":1687558027,"current_range_meters":18000,"station_id":"ce4bhr92rcd13ifvqhrg","pricing_plan_id":"free"},{"bike_id":"7c811762-c0ee-4656-87ba-109acbb8edd1","system_id":"levelo_inurba_marseille","lat":43.33042,"lon":5.38917,"is_reserved":false,"is_disabled":false,"rental_uris":{"android":"levelo://app?vid=7c811762-c0ee-4656-87ba-109acbb8edd1","ios":"levelo://app?vid=7c811762-c0ee-4656-87ba-109acbb8edd1"},"vehicle_type_id":"4","last_reported":1687558027,"current_range_meters":11600,"station_id":"ce4bhr92rcd13ifvqhrg","pricing_plan_id":"free"},{"bike_id":"7c4864e9-a0e6-4a7c-ae0f-00be6827168a","system_id":"levelo_inurba_marseille","lat":43.33041,"lon":5.38919,"is_reserved":false,"is_disabled":false,"rental_uris":{"android":"levelo://app?vid=7c4864e9-a0e6-4a7c-ae0f-00be6827168a","ios":"levelo://app?vid=7c4864e9-a0e6-4a7c-ae0f-00be6827168a"},"vehicle_type_id":"4","last_reported":1687558027,"current_range_meters":0,"station_id":"ce4bhr92rcd13ifvqhrg","pricing_plan_id":"free"},{"bike_id":"383564b9-2cae-4808-aee8-d3aefd710421","system_id":"levelo_inurba_marseille","lat":43.33043,"lon":5.38917,"is_reserved":false,"is_disabled":false,"rental_uris":{"android":"levelo://app?vid=383564b9-2cae-4808-aee8-d3aefd710421","ios":"levelo://app?vid=383564b9-2cae-4808-aee8-d3aefd710421"},"vehicle_type_id":"4","last_reported":1687558027,"current_range_meters":1200,"station_id":"ce4bhr92rcd13ifvqhrg","pricing_plan_id":"free"},{"bike_id":"23417d1c-4028-4ee4-a9cc-dba39ef81cc6","system_id":"levelo_inurba_marseille","lat":43.33042,"lon":5.38919,"is_reserved":false,"is_disabled":false,"rental_uris":{"android":"levelo://app?vid=23417d1c-4028-4ee4-a9cc-dba39ef81cc6","ios":"levelo://app?vid=23417d1c-4028-4ee4-a9cc-dba39ef81cc6"},"vehicle_type_id":"4","last_reported":1687558027,"current_range_meters":0,"station_id":"ce4bhr92rcd13ifvqhrg","pricing_plan_id":"free"},{"bike_id":"68f16dc4-cab5-4247-b3fa-3b2e9cc0e6b7","system_id":"levelo_inurba_marseille","lat":43.28991,"lon":5.35608,"is_reserved":false,"is_disabled":false,"rental_uris":{"android":"levelo://app?vid=68f16dc4-cab5-4247-b3fa-3b2e9cc0e6b7","ios":"levelo://app?vid=68f16dc4-cab5-4247-b3fa-3b2e9cc0e6b7"},"vehicle_type_id":"4","last_reported":1687558027,"current_range_meters":31200,"station_id":"ce4bhb92rcd13ifvqen0","pricing_plan_id":"free"},{"bike_id":"d1e92a64-a9d3-451d-b050-8d694d5351e7","system_id":"levelo_inurba_marseille","lat":43.290995,"lon":5.381361,"is_reserved":false,"is_disabled":false,"rental_uris":{"android":"levelo://app?vid=d1e92a64-a9d3-451d-b050-8d694d5351e7","ios":"levelo://app?vid=d1e92a64-a9d3-451d-b050-8d694d5351e7"},"vehicle_type_id":"4","last_reported":1687558027,"current_range_meters":28000,"station_id":"ce4bh512rcd13ifvqe2g","pricing_plan_id":"free"},{"bike_id":"e7c2f4ab-6091-46ca-8643-1703fbc75505","system_id":"levelo_inurba_marseille","lat":43.29093,"lon":5.38148,"is_reserved":false,"is_disabled":false,"rental_uris":{"android":"levelo://app?vid=e7c2f4ab-6091-46ca-8643-1703fbc75505","ios":"levelo://app?vid=e7c2f4ab-6091-46ca-8643-1703fbc75505"},"vehicle_type_id":"4","last_reported":1687558027,"current_range_meters":400,"station_id":"ce4bh512rcd13ifvqe2g","pricing_plan_id":"free"},{"bike_id":"f8f781fd-716f-4010-aa3b-4f122c688c5e","system_id":"levelo_inurba_marseille","lat":43.297815,"lon":5.393548,"is_reserved":false,"is_disabled":false,"rental_uris":{"android":"levelo://app?vid=f8f781fd-716f-4010-aa3b-4f122c688c5e","ios":"levelo://app?vid=f8f781fd-716f-4010-aa3b-4f122c688c5e"},"vehicle_type_id":"4","last_reported":1687558027,"current_range_meters":4400,"station_id":"chh1huq6cuj3fo74tm60","pricing_plan_id":"free"},{"bike_id":"7477caec-5bcc-45a7-b582-bebee112921b","system_id":"levelo_inurba_marseille","lat":43.297815,"lon":5.393548,"is_reserved":false,"is_disabled":false,"rental_uris":{"android":"levelo://app?vid=7477caec-5bcc-45a7-b582-bebee112921b","ios":"levelo://app?vid=7477caec-5bcc-45a7-b582-bebee112921b"},"vehicle_type_id":"4","last_reported":1687558027,"current_range_meters":4000,"station_id":"chh1huq6cuj3fo74tm60","pricing_plan_id":"free"},{"bike_id":"a9d32d1c-8bbc-45fc-b465-cc25975bd9b5","system_id":"levelo_inurba_marseille","lat":43.261782,"lon":5.374515,"is_reserved":false,"is_disabled":false,"rental_uris":{"android":"levelo://app?vid=a9d32d1c-8bbc-45fc-b465-cc25975bd9b5","ios":"levelo://app?vid=a9d32d1c-8bbc-45fc-b465-cc25975bd9b5"},"vehicle_type_id":"4","last_reported":1687558027,"current_range_meters":13600,"station_id":"ce4bhgp2rcd13ifvqfc0","pricing_plan_id":"free"},{"bike_id":"68520013-e637-4554-bd12-2ff794b4a738","system_id":"levelo_inurba_marseille","lat":43.29016,"lon":5.38136,"is_reserved":false,"is_disabled":false,"rental_uris":{"android":"levelo://app?vid=68520013-e637-4554-bd12-2ff794b4a738","ios":"levelo://app?vid=68520013-e637-4554-bd12-2ff794b4a738"},"vehicle_type_id":"4","last_reported":1687558027,"current_range_meters":31200,"station_id":"ce4bh4p2rcd13ifvqe1g","pricing_plan_id":"free"},{"bike_id":"4ba6549b-f039-41e8-9968-c27c3f6fe555","system_id":"levelo_inurba_marseille","lat":43.28856,"lon":5.358371,"is_reserved":false,"is_disabled":false,"rental_uris":{"android":"levelo://app?vid=4ba6549b-f039-41e8-9968-c27c3f6fe555","ios":"levelo://app?vid=4ba6549b-f039-41e8-9968-c27c3f6fe555"},"vehicle_type_id":"4","last_reported":1687558027,"current_range_meters":23600,"station_id":"ce4bhb12rcd13ifvqem0","pricing_plan_id":"free"},{"bike_id":"c7a2b684-52f7-43db-9c28-eaf0549269a9","system_id":"levelo_inurba_marseille","lat":43.28856,"lon":5.358371,"is_reserved":false,"is_disabled":false,"rental_uris":{"android":"levelo://app?vid=c7a2b684-52f7-43db-9c28-eaf0549269a9","ios":"levelo://app?vid=c7a2b684-52f7-43db-9c28-eaf0549269a9"},"vehicle_type_id":"4","last_reported":1687558027,"current_range_meters":10400,"station_id":"ce4bhb12rcd13ifvqem0","pricing_plan_id":"free"},{"bike_id":"3f8a925a-6a54-4259-a38f-9cf091aab246","system_id":"levelo_inurba_marseille","lat":43.29254,"lon":5.38745,"is_reserved":false,"is_disabled":false,"rental_uris":{"android":"levelo://app?vid=3f8a925a-6a54-4259-a38f-9cf091aab246","ios":"levelo://app?vid=3f8a925a-6a54-4259-a38f-9cf091aab246"},"vehicle_type_id":"4","last_reported":1687558027,"current_range_meters":23600,"station_id":"","pricing_plan_id":"free"},{"bike_id":"66fc1940-e878-40bd-bbce-693e9d89464c","system_id":"levelo_inurba_marseille","lat":43.3093,"lon":5.40142,"is_reserved":false,"is_disabled":false,"rental_uris":{"android":"levelo://app?vid=66fc1940-e878-40bd-bbce-693e9d89464c","ios":"levelo://app?vid=66fc1940-e878-40bd-bbce-693e9d89464c"},"vehicle_type_id":"4","last_reported":1687558027,"current_range_meters":6800,"station_id":"ce4bgvp2rcd13ifvqct0","pricing_plan_id":"free"},{"bike_id":"2f104151-a7ce-4263-a658-7e685b8ae3b9","system_id":"levelo_inurba_marseille","lat":43.309371,"lon":5.401449,"is_reserved":false,"is_disabled":false,"rental_uris":{"android":"levelo://app?vid=2f104151-a7ce-4263-a658-7e685b8ae3b9","ios":"levelo://app?vid=2f104151-a7ce-4263-a658-7e685b8ae3b9"},"vehicle_type_id":"4","last_reported":1687558027,"current_range_meters":0,"station_id":"ce4bgvp2rcd13ifvqct0","pricing_plan_id":"free"},{"bike_id":"c180ae38-f769-441f-8a55-5a6e4930e6ad","system_id":"levelo_inurba_marseille","lat":43.3375,"lon":5.37439,"is_reserved":false,"is_disabled":false,"rental_uris":{"android":"levelo://app?vid=c180ae38-f769-441f-8a55-5a6e4930e6ad","ios":"levelo://app?vid=c180ae38-f769-441f-8a55-5a6e4930e6ad"},"vehicle_type_id":"4","last_reported":1687558027,"current_range_meters":27200,"station_id":"","pricing_plan_id":"free"},{"bike_id":"f217ecaa-0a78-47a2-87ec-d37431a1054a","system_id":"levelo_inurba_marseille","lat":43.309371,"lon":5.401449,"is_reserved":false,"is_disabled":false,"rental_uris":{"android":"levelo://app?vid=f217ecaa-0a78-47a2-87ec-d37431a1054a","ios":"levelo://app?vid=f217ecaa-0a78-47a2-87ec-d37431a1054a"},"vehicle_type_id":"4","last_reported":1687558027,"current_range_meters":1200,"station_id":"ce4bgvp2rcd13ifvqct0","pricing_plan_id":"free"},{"bike_id":"66d5dbc0-0c90-4db5-abb9-833923d5797d","system_id":"levelo_inurba_marseille","lat":43.30642,"lon":5.401031,"is_reserved":false,"is_disabled":false,"rental_uris":{"android":"levelo://app?vid=66d5dbc0-0c90-4db5-abb9-833923d5797d","ios":"levelo://app?vid=66d5dbc0-0c90-4db5-abb9-833923d5797d"},"vehicle_type_id":"4","last_reported":1687558027,"current_range_meters":15600,"station_id":"ce4bh112rcd13ifvqda0","pricing_plan_id":"free"},{"bike_id":"8238c0b9-921a-4301-bb43-df1e88eec915","system_id":"levelo_inurba_marseille","lat":43.309371,"lon":5.401449,"is_reserved":false,"is_disabled":false,"rental_uris":{"android":"levelo://app?vid=8238c0b9-921a-4301-bb43-df1e88eec915","ios":"levelo://app?vid=8238c0b9-921a-4301-bb43-df1e88eec915"},"vehicle_type_id":"4","last_reported":1687558027,"current_range_meters":24400,"station_id":"ce4bgvp2rcd13ifvqct0","pricing_plan_id":"free"},{"bike_id":"698a0c42-1f58-43ce-9158-85de813c112c","system_id":"levelo_inurba_marseille","lat":43.306412,"lon":5.401035,"is_reserved":false,"is_disabled":false,"rental_uris":{"android":"levelo://app?vid=698a0c42-1f58-43ce-9158-85de813c112c","ios":"levelo://app?vid=698a0c42-1f58-43ce-9158-85de813c112c"},"vehicle_type_id":"4","last_reported":1687558027,"current_range_meters":20000,"station_id":"ce4bh112rcd13ifvqda0","pricing_plan_id":"free"},{"bike_id":"dcf38555-22f7-4034-b160-6afa14cc0c4d","system_id":"levelo_inurba_marseille","lat":43.306412,"lon":5.401035,"is_reserved":false,"is_disabled":false,"rental_uris":{"android":"levelo://app?vid=dcf38555-22f7-4034-b160-6afa14cc0c4d","ios":"levelo://app?vid=dcf38555-22f7-4034-b160-6afa14cc0c4d"},"vehicle_type_id":"4","last_reported":1687558027,"current_range_meters":11200,"station_id":"ce4bh112rcd13ifvqda0","pricing_plan_id":"free"},{"bike_id":"6626ab0c-e2dc-4e26-a046-071aa3695241","system_id":"levelo_inurba_marseille","lat":43.30642,"lon":5.401031,"is_reserved":false,"is_disabled":false,"rental_uris":{"android":"levelo://app?vid=6626ab0c-e2dc-4e26-a046-071aa3695241","ios":"levelo://app?vid=6626ab0c-e2dc-4e26-a046-071aa3695241"},"vehicle_type_id":"4","last_reported":1687558027,"current_range_meters":18400,"station_id":"ce4bh112rcd13ifvqda0","pricing_plan_id":"free"},{"bike_id":"b8651de5-d481-42a8-91c2-a3084ef12c55","system_id":"levelo_inurba_marseille","lat":43.306412,"lon":5.401035,"is_reserved":false,"is_disabled":false,"rental_uris":{"android":"levelo://app?vid=b8651de5-d481-42a8-91c2-a3084ef12c55","ios":"levelo://app?vid=b8651de5-d481-42a8-91c2-a3084ef12c55"},"vehicle_type_id":"4","last_reported":1687558027,"current_range_meters":24400,"station_id":"ce4bh112rcd13ifvqda0","pricing_plan_id":"free"},{"bike_id":"2b12e2e2-6f8a-4a6f-b343-d0bde9a280c9","system_id":"levelo_inurba_marseille","lat":43.306412,"lon":5.401035,"is_reserved":false,"is_disabled":false,"rental_uris":{"android":"levelo://app?vid=2b12e2e2-6f8a-4a6f-b343-d0bde9a280c9","ios":"levelo://app?vid=2b12e2e2-6f8a-4a6f-b343-d0bde9a280c9"},"vehicle_type_id":"4","last_reported":1687558027,"current_range_meters":26400,"station_id":"ce4bh112rcd13ifvqda0","pricing_plan_id":"free"},{"bike_id":"7b719155-87d3-49e4-80be-7eaa406dc7e0","system_id":"levelo_inurba_marseille","lat":43.30642,"lon":5.401031,"is_reserved":false,"is_disabled":false,"rental_uris":{"android":"levelo://app?vid=7b719155-87d3-49e4-80be-7eaa406dc7e0","ios":"levelo://app?vid=7b719155-87d3-49e4-80be-7eaa406dc7e0"},"vehicle_type_id":"4","last_reported":1687558027,"current_range_meters":29200,"station_id":"ce4bh112rcd13ifvqda0","pricing_plan_id":"free"},{"bike_id":"fe603e49-6043-4933-938b-8f044f555b1b","system_id":"levelo_inurba_marseille","lat":43.298681,"lon":5.397225,"is_reserved":false,"is_disabled":false,"rental_uris":{"android":"levelo://app?vid=fe603e49-6043-4933-938b-8f044f555b1b","ios":"levelo://app?vid=fe603e49-6043-4933-938b-8f044f555b1b"},"vehicle_type_id":"4","last_reported":1687558027,"current_range_meters":12400,"station_id":"ce4bh0h2rcd13ifvqd50","pricing_plan_id":"free"},{"bike_id":"1b8ed2c6-e563-4673-b306-172c7934e7dc","system_id":"levelo_inurba_marseille","lat":43.298681,"lon":5.397225,"is_reserved":false,"is_disabled":false,"rental_uris":{"android":"levelo://app?vid=1b8ed2c6-e563-4673-b306-172c7934e7dc","ios":"levelo://app?vid=1b8ed2c6-e563-4673-b306-172c7934e7dc"},"vehicle_type_id":"4","last_reported":1687558027,"current_range_meters":0,"station_id":"ce4bh0h2rcd13ifvqd50","pricing_plan_id":"free"},{"bike_id":"d31d192e-da56-4517-a27c-9c1099ca0581","system_id":"levelo_inurba_marseille","lat":43.298681,"lon":5.397225,"is_reserved":false,"is_disabled":false,"rental_uris":{"android":"levelo://app?vid=d31d192e-da56-4517-a27c-9c1099ca0581","ios":"levelo://app?vid=d31d192e-da56-4517-a27c-9c1099ca0581"},"vehicle_type_id":"4","last_reported":1687558027,"current_range_meters":15200,"station_id":"ce4bh0h2rcd13ifvqd50","pricing_plan_id":"free"},{"bike_id":"19a7677b-270e-4d81-8509-cb2aaa67c9e6","system_id":"levelo_inurba_marseille","lat":43.286961,"lon":5.373785,"is_reserved":false,"is_disabled":false,"rental_uris":{"android":"levelo://app?vid=19a7677b-270e-4d81-8509-cb2aaa67c9e6","ios":"levelo://app?vid=19a7677b-270e-4d81-8509-cb2aaa67c9e6"},"vehicle_type_id":"4","last_reported":1687558027,"current_range_meters":30400,"station_id":"ce4bh3p2rcd13ifvqdq0","pricing_plan_id":"free"},{"bike_id":"ce127dfe-2d28-416c-8b27-bbef5ea9393c","system_id":"levelo_inurba_marseille","lat":43.29536,"lon":5.39394,"is_reserved":false,"is_disabled":false,"rental_uris":{"android":"levelo://app?vid=ce127dfe-2d28-416c-8b27-bbef5ea9393c","ios":"levelo://app?vid=ce127dfe-2d28-416c-8b27-bbef5ea9393c"},"vehicle_type_id":"4","last_reported":1687558027,"current_range_meters":18000,"station_id":"ce4bh292rcd13ifvqdf0","pricing_plan_id":"free"},{"bike_id":"de7218a9-f408-4606-8fdd-023dbf982b1b","system_id":"levelo_inurba_marseille","lat":43.286593,"lon":5.363346,"is_reserved":false,"is_disabled":false,"rental_uris":{"android":"levelo://app?vid=de7218a9-f408-4606-8fdd-023dbf982b1b","ios":"levelo://app?vid=de7218a9-f408-4606-8fdd-023dbf982b1b"},"vehicle_type_id":"4","last_reported":1687558027,"current_range_meters":17200,"station_id":"ce4bhah2rcd13ifvqej0","pricing_plan_id":"free"},{"bike_id":"f9eeaed1-b664-4978-b5f7-764c3b8d5308","system_id":"levelo_inurba_marseille","lat":43.286961,"lon":5.373785,"is_reserved":false,"is_disabled":false,"rental_uris":{"android":"levelo://app?vid=f9eeaed1-b664-4978-b5f7-764c3b8d5308","ios":"levelo://app?vid=f9eeaed1-b664-4978-b5f7-764c3b8d5308"},"vehicle_type_id":"4","last_reported":1687558027,"current_range_meters":24400,"station_id":"ce4bh3p2rcd13ifvqdq0","pricing_plan_id":"free"},{"bike_id":"248468bc-783b-4ff2-ae20-dd245b6803cc","system_id":"levelo_inurba_marseille","lat":43.286593,"lon":5.363346,"is_reserved":false,"is_disabled":false,"rental_uris":{"android":"levelo://app?vid=248468bc-783b-4ff2-ae20-dd245b6803cc","ios":"levelo://app?vid=248468bc-783b-4ff2-ae20-dd245b6803cc"},"vehicle_type_id":"4","last_reported":1687558027,"current_range_meters":6000,"station_id":"ce4bhah2rcd13ifvqej0","pricing_plan_id":"free"},{"bike_id":"2d8bab01-fb09-481d-82cb-32f0b13017d0","system_id":"levelo_inurba_marseille","lat":43.286961,"lon":5.373785,"is_reserved":false,"is_disabled":false,"rental_uris":{"android":"levelo://app?vid=2d8bab01-fb09-481d-82cb-32f0b13017d0","ios":"levelo://app?vid=2d8bab01-fb09-481d-82cb-32f0b13017d0"},"vehicle_type_id":"4","last_reported":1687558027,"current_range_meters":10800,"station_id":"ce4bh3p2rcd13ifvqdq0","pricing_plan_id":"free"},{"bike_id":"eb4d63cf-b561-47d5-9724-55eb0ddff6aa","system_id":"levelo_inurba_marseille","lat":43.286961,"lon":5.373785,"is_reserved":false,"is_disabled":false,"rental_uris":{"android":"levelo://app?vid=eb4d63cf-b561-47d5-9724-55eb0ddff6aa","ios":"levelo://app?vid=eb4d63cf-b561-47d5-9724-55eb0ddff6aa"},"vehicle_type_id":"4","last_reported":1687558027,"current_range_meters":4000,"station_id":"ce4bh3p2rcd13ifvqdq0","pricing_plan_id":"free"},{"bike_id":"2a90bd62-2837-4c8e-acff-bb55e3bd51d0","system_id":"levelo_inurba_marseille","lat":43.28692,"lon":5.37398,"is_reserved":false,"is_disabled":false,"rental_uris":{"android":"levelo://app?vid=2a90bd62-2837-4c8e-acff-bb55e3bd51d0","ios":"levelo://app?vid=2a90bd62-2837-4c8e-acff-bb55e3bd51d0"},"vehicle_type_id":"4","last_reported":1687558027,"current_range_meters":16400,"station_id":"","pricing_plan_id":"free"},{"bike_id":"0bdd97f4-c75c-4384-97f2-21be5fc5a80f","system_id":"levelo_inurba_marseille","lat":43.302759,"lon":5.400793,"is_reserved":false,"is_disabled":false,"rental_uris":{"android":"levelo://app?vid=0bdd97f4-c75c-4384-97f2-21be5fc5a80f","ios":"levelo://app?vid=0bdd97f4-c75c-4384-97f2-21be5fc5a80f"},"vehicle_type_id":"4","last_reported":1687558027,"current_range_meters":0,"station_id":"ce4bgvh2rcd13ifvqcs0","pricing_plan_id":"free"},{"bike_id":"8f8a9ba5-bb84-4ef1-afb4-58a139b53d9d","system_id":"levelo_inurba_marseille","lat":43.302759,"lon":5.400793,"is_reserved":false,"is_disabled":false,"rental_uris":{"android":"levelo://app?vid=8f8a9ba5-bb84-4ef1-afb4-58a139b53d9d","ios":"levelo://app?vid=8f8a9ba5-bb84-4ef1-afb4-58a139b53d9d"},"vehicle_type_id":"4","last_reported":1687558027,"current_range_meters":6400,"station_id":"ce4bgvh2rcd13ifvqcs0","pricing_plan_id":"free"},{"bike_id":"9270cec9-5b0f-432c-bbd8-16170a7e2cf8","system_id":"levelo_inurba_marseille","lat":43.30233,"lon":5.40049,"is_reserved":false,"is_disabled":false,"rental_uris":{"android":"levelo://app?vid=9270cec9-5b0f-432c-bbd8-16170a7e2cf8","ios":"levelo://app?vid=9270cec9-5b0f-432c-bbd8-16170a7e2cf8"},"vehicle_type_id":"4","last_reported":1687558027,"current_range_meters":800,"station_id":"","pricing_plan_id":"free"},{"bike_id":"78f47a18-638d-400d-9fb8-75e6baeff273","system_id":"levelo_inurba_marseille","lat":43.287184,"lon":5.37937,"is_reserved":false,"is_disabled":false,"rental_uris":{"android":"levelo://app?vid=78f47a18-638d-400d-9fb8-75e6baeff273","ios":"levelo://app?vid=78f47a18-638d-400d-9fb8-75e6baeff273"},"vehicle_type_id":"4","last_reported":1687558027,"current_range_meters":8400,"station_id":"ce4bh9p2rcd13ifvqec0","pricing_plan_id":"free"},{"bike_id":"d99f696d-2919-4bd5-8a7a-538cc1628e62","system_id":"levelo_inurba_marseille","lat":43.302759,"lon":5.400793,"is_reserved":false,"is_disabled":false,"rental_uris":{"android":"levelo://app?vid=d99f696d-2919-4bd5-8a7a-538cc1628e62","ios":"levelo://app?vid=d99f696d-2919-4bd5-8a7a-538cc1628e62"},"vehicle_type_id":"4","last_reported":1687558027,"current_range_meters":0,"station_id":"ce4bgvh2rcd13ifvqcs0","pricing_plan_id":"free"},{"bike_id":"1a6f1f97-1fc0-4295-8b04-000e13ba88c0","system_id":"levelo_inurba_marseille","lat":43.287184,"lon":5.37937,"is_reserved":false,"is_disabled":false,"rental_uris":{"android":"levelo://app?vid=1a6f1f97-1fc0-4295-8b04-000e13ba88c0","ios":"levelo://app?vid=1a6f1f97-1fc0-4295-8b04-000e13ba88c0"},"vehicle_type_id":"4","last_reported":1687558027,"current_range_meters":0,"station_id":"ce4bh9p2rcd13ifvqec0","pricing_plan_id":"free"},{"bike_id":"eca78a9b-0589-4a3a-a84f-393900e6ae69","system_id":"levelo_inurba_marseille","lat":43.287184,"lon":5.37937,"is_reserved":false,"is_disabled":false,"rental_uris":{"android":"levelo://app?vid=eca78a9b-0589-4a3a-a84f-393900e6ae69","ios":"levelo://app?vid=eca78a9b-0589-4a3a-a84f-393900e6ae69"},"vehicle_type_id":"4","last_reported":1687558027,"current_range_meters":8800,"station_id":"ce4bh9p2rcd13ifvqec0","pricing_plan_id":"free"},{"bike_id":"14e51ae0-6b58-4b01-a83a-eda09f65253d","system_id":"levelo_inurba_marseille","lat":43.287184,"lon":5.37937,"is_reserved":false,"is_disabled":false,"rental_uris":{"android":"levelo://app?vid=14e51ae0-6b58-4b01-a83a-eda09f65253d","ios":"levelo://app?vid=14e51ae0-6b58-4b01-a83a-eda09f65253d"},"vehicle_type_id":"4","last_reported":1687558027,"current_range_meters":18400,"station_id":"ce4bh9p2rcd13ifvqec0","pricing_plan_id":"free"},{"bike_id":"2b5519cd-9991-4821-ba5e-421ff5e8bb06","system_id":"levelo_inurba_marseille","lat":43.28715,"lon":5.37938,"is_reserved":false,"is_disabled":false,"rental_uris":{"android":"levelo://app?vid=2b5519cd-9991-4821-ba5e-421ff5e8bb06","ios":"levelo://app?vid=2b5519cd-9991-4821-ba5e-421ff5e8bb06"},"vehicle_type_id":"4","last_reported":1687558027,"current_range_meters":21600,"station_id":"ce4bh9p2rcd13ifvqec0","pricing_plan_id":"free"},{"bike_id":"b118890e-86ec-47dc-a5b6-b4652dab14ec","system_id":"levelo_inurba_marseille","lat":43.291994,"lon":5.392907,"is_reserved":false,"is_disabled":false,"rental_uris":{"android":"levelo://app?vid=b118890e-86ec-47dc-a5b6-b4652dab14ec","ios":"levelo://app?vid=b118890e-86ec-47dc-a5b6-b4652dab14ec"},"vehicle_type_id":"4","last_reported":1687558027,"current_range_meters":7200,"station_id":"ce4bh192rcd13ifvqdd0","pricing_plan_id":"free"},{"bike_id":"28fbafb9-ecfd-4b1e-972c-2924ae277716","system_id":"levelo_inurba_marseille","lat":43.28472,"lon":5.35871,"is_reserved":false,"is_disabled":false,"rental_uris":{"android":"levelo://app?vid=28fbafb9-ecfd-4b1e-972c-2924ae277716","ios":"levelo://app?vid=28fbafb9-ecfd-4b1e-972c-2924ae277716"},"vehicle_type_id":"4","last_reported":1687558027,"current_range_meters":0,"station_id":"ce4bhah2rcd13ifvqei0","pricing_plan_id":"free"},{"bike_id":"2c53c751-eb43-4f91-a96b-f5ce1e94c223","system_id":"levelo_inurba_marseille","lat":43.284631,"lon":5.35888,"is_reserved":false,"is_disabled":false,"rental_uris":{"android":"levelo://app?vid=2c53c751-eb43-4f91-a96b-f5ce1e94c223","ios":"levelo://app?vid=2c53c751-eb43-4f91-a96b-f5ce1e94c223"},"vehicle_type_id":"4","last_reported":1687558027,"current_range_meters":6000,"station_id":"","pricing_plan_id":"free"},{"bike_id":"faba7df5-379b-47e0-810c-64f2c25ef057","system_id":"levelo_inurba_marseille","lat":43.28458,"lon":5.35886,"is_reserved":false,"is_disabled":false,"rental_uris":{"android":"levelo://app?vid=faba7df5-379b-47e0-810c-64f2c25ef057","ios":"levelo://app?vid=faba7df5-379b-47e0-810c-64f2c25ef057"},"vehicle_type_id":"4","last_reported":1687558027,"current_range_meters":21600,"station_id":"","pricing_plan_id":"free"},{"bike_id":"51159607-4c0c-4830-8d67-ad78595ef434","system_id":"levelo_inurba_marseille","lat":43.294314,"lon":5.397498,"is_reserved":false,"is_disabled":false,"rental_uris":{"android":"levelo://app?vid=51159607-4c0c-4830-8d67-ad78595ef434","ios":"levelo://app?vid=51159607-4c0c-4830-8d67-ad78595ef434"},"vehicle_type_id":"4","last_reported":1687558027,"current_range_meters":17600,"station_id":"ce4bh3h2rcd13ifvqdo0","pricing_plan_id":"free"},{"bike_id":"55c6bb61-fd96-4c5e-962e-307d1b077768","system_id":"levelo_inurba_marseille","lat":43.294314,"lon":5.397498,"is_reserved":false,"is_disabled":false,"rental_uris":{"android":"levelo://app?vid=55c6bb61-fd96-4c5e-962e-307d1b077768","ios":"levelo://app?vid=55c6bb61-fd96-4c5e-962e-307d1b077768"},"vehicle_type_id":"4","last_reported":1687558027,"current_range_meters":31200,"station_id":"ce4bh3h2rcd13ifvqdo0","pricing_plan_id":"free"},{"bike_id":"2c7db8e4-512f-47a4-b9d1-c15b0f556d7e","system_id":"levelo_inurba_marseille","lat":43.294314,"lon":5.397498,"is_reserved":false,"is_disabled":false,"rental_uris":{"android":"levelo://app?vid=2c7db8e4-512f-47a4-b9d1-c15b0f556d7e","ios":"levelo://app?vid=2c7db8e4-512f-47a4-b9d1-c15b0f556d7e"},"vehicle_type_id":"4","last_reported":1687558027,"current_range_meters":16000,"station_id":"ce4bh3h2rcd13ifvqdo0","pricing_plan_id":"free"},{"bike_id":"924ba7b2-ca84-4390-97c0-2b215c76a8c3","system_id":"levelo_inurba_marseille","lat":43.283998,"lon":5.375062,"is_reserved":false,"is_disabled":false,"rental_uris":{"android":"levelo://app?vid=924ba7b2-ca84-4390-97c0-2b215c76a8c3","ios":"levelo://app?vid=924ba7b2-ca84-4390-97c0-2b215c76a8c3"},"vehicle_type_id":"4","last_reported":1687558027,"current_range_meters":800,"station_id":"ce4bh412rcd13ifvqds0","pricing_plan_id":"free"},{"bike_id":"44533995-ccba-409c-be42-817065c89cc5","system_id":"levelo_inurba_marseille","lat":43.283998,"lon":5.375062,"is_reserved":false,"is_disabled":false,"rental_uris":{"android":"levelo://app?vid=44533995-ccba-409c-be42-817065c89cc5","ios":"levelo://app?vid=44533995-ccba-409c-be42-817065c89cc5"},"vehicle_type_id":"4","last_reported":1687558027,"current_range_meters":3200,"station_id":"ce4bh412rcd13ifvqds0","pricing_plan_id":"free"},{"bike_id":"99359303-263f-4858-9567-dda5525f3cfc","system_id":"levelo_inurba_marseille","lat":43.283998,"lon":5.375062,"is_reserved":false,"is_disabled":false,"rental_uris":{"android":"levelo://app?vid=99359303-263f-4858-9567-dda5525f3cfc","ios":"levelo://app?vid=99359303-263f-4858-9567-dda5525f3cfc"},"vehicle_type_id":"4","last_reported":1687558027,"current_range_meters":9200,"station_id":"ce4bh412rcd13ifvqds0","pricing_plan_id":"free"},{"bike_id":"1ec4830f-fce5-4169-8f44-16bdcd98cdc0","system_id":"levelo_inurba_marseille","lat":43.28682,"lon":5.38657,"is_reserved":false,"is_disabled":false,"rental_uris":{"android":"levelo://app?vid=1ec4830f-fce5-4169-8f44-16bdcd98cdc0","ios":"levelo://app?vid=1ec4830f-fce5-4169-8f44-16bdcd98cdc0"},"vehicle_type_id":"4","last_reported":1687558027,"current_range_meters":1600,"station_id":"ce4bh492rcd13ifvqdug","pricing_plan_id":"free"},{"bike_id":"16ce087b-a296-482e-8ff4-72669a8d958b","system_id":"levelo_inurba_marseille","lat":43.28675,"lon":5.38661,"is_reserved":false,"is_disabled":false,"rental_uris":{"android":"levelo://app?vid=16ce087b-a296-482e-8ff4-72669a8d958b","ios":"levelo://app?vid=16ce087b-a296-482e-8ff4-72669a8d958b"},"vehicle_type_id":"4","last_reported":1687558027,"current_range_meters":0,"station_id":"ce4bh492rcd13ifvqdug","pricing_plan_id":"free"},{"bike_id":"c41269c8-e43a-44da-9a75-dcd0cf9598dc","system_id":"levelo_inurba_marseille","lat":43.28674,"lon":5.38665,"is_reserved":false,"is_disabled":false,"rental_uris":{"android":"levelo://app?vid=c41269c8-e43a-44da-9a75-dcd0cf9598dc","ios":"levelo://app?vid=c41269c8-e43a-44da-9a75-dcd0cf9598dc"},"vehicle_type_id":"4","last_reported":1687558027,"current_range_meters":23200,"station_id":"","pricing_plan_id":"free"},{"bike_id":"e0038a5f-a085-4a50-a74a-34664565c6e3","system_id":"levelo_inurba_marseille","lat":43.28669,"lon":5.38661,"is_reserved":false,"is_disabled":false,"rental_uris":{"android":"levelo://app?vid=e0038a5f-a085-4a50-a74a-34664565c6e3","ios":"levelo://app?vid=e0038a5f-a085-4a50-a74a-34664565c6e3"},"vehicle_type_id":"4","last_reported":1687558027,"current_range_meters":10800,"station_id":"ce4bh492rcd13ifvqdug","pricing_plan_id":"free"},{"bike_id":"e1520d42-97d7-4014-982c-654c7e8f5dff","system_id":"levelo_inurba_marseille","lat":43.28671,"lon":5.38668,"is_reserved":false,"is_disabled":false,"rental_uris":{"android":"levelo://app?vid=e1520d42-97d7-4014-982c-654c7e8f5dff","ios":"levelo://app?vid=e1520d42-97d7-4014-982c-654c7e8f5dff"},"vehicle_type_id":"4","last_reported":1687558027,"current_range_meters":27200,"station_id":"ce4bh492rcd13ifvqdug","pricing_plan_id":"free"},{"bike_id":"4a2ae629-6af2-42b8-bb70-5f5dab067d1c","system_id":"levelo_inurba_marseille","lat":43.28662,"lon":5.38648,"is_reserved":false,"is_disabled":false,"rental_uris":{"android":"levelo://app?vid=4a2ae629-6af2-42b8-bb70-5f5dab067d1c","ios":"levelo://app?vid=4a2ae629-6af2-42b8-bb70-5f5dab067d1c"},"vehicle_type_id":"4","last_reported":1687558027,"current_range_meters":22400,"station_id":"ce4bh492rcd13ifvqdug","pricing_plan_id":"free"},{"bike_id":"628aaf33-374c-46b8-a637-b7fb423ec463","system_id":"levelo_inurba_marseille","lat":43.28669,"lon":5.38666,"is_reserved":false,"is_disabled":false,"rental_uris":{"android":"levelo://app?vid=628aaf33-374c-46b8-a637-b7fb423ec463","ios":"levelo://app?vid=628aaf33-374c-46b8-a637-b7fb423ec463"},"vehicle_type_id":"4","last_reported":1687558027,"current_range_meters":4800,"station_id":"ce4bh492rcd13ifvqdug","pricing_plan_id":"free"},{"bike_id":"79bb1625-a9a6-4c96-8f5f-eafa2972e33a","system_id":"levelo_inurba_marseille","lat":43.286557,"lon":5.38661,"is_reserved":false,"is_disabled":false,"rental_uris":{"android":"levelo://app?vid=79bb1625-a9a6-4c96-8f5f-eafa2972e33a","ios":"levelo://app?vid=79bb1625-a9a6-4c96-8f5f-eafa2972e33a"},"vehicle_type_id":"4","last_reported":1687558027,"current_range_meters":16000,"station_id":"","pricing_plan_id":"free"},{"bike_id":"75b81fdb-a7b4-4460-a538-12c0506d599b","system_id":"levelo_inurba_marseille","lat":43.323464,"lon":5.406297,"is_reserved":false,"is_disabled":false,"rental_uris":{"android":"levelo://app?vid=75b81fdb-a7b4-4460-a538-12c0506d599b","ios":"levelo://app?vid=75b81fdb-a7b4-4460-a538-12c0506d599b"},"vehicle_type_id":"4","last_reported":1687558027,"current_range_meters":15600,"station_id":"ce4bhq92rcd13ifvqhjg","pricing_plan_id":"free"},{"bike_id":"9cae825f-ce49-4976-9212-5608954cbbcd","system_id":"levelo_inurba_marseille","lat":43.323464,"lon":5.406297,"is_reserved":false,"is_disabled":false,"rental_uris":{"android":"levelo://app?vid=9cae825f-ce49-4976-9212-5608954cbbcd","ios":"levelo://app?vid=9cae825f-ce49-4976-9212-5608954cbbcd"},"vehicle_type_id":"4","last_reported":1687558027,"current_range_meters":27200,"station_id":"ce4bhq92rcd13ifvqhjg","pricing_plan_id":"free"},{"bike_id":"e5991cd3-2cf9-4db6-99a8-0214cfe2d20c","system_id":"levelo_inurba_marseille","lat":43.32328,"lon":5.40617,"is_reserved":false,"is_disabled":false,"rental_uris":{"android":"levelo://app?vid=e5991cd3-2cf9-4db6-99a8-0214cfe2d20c","ios":"levelo://app?vid=e5991cd3-2cf9-4db6-99a8-0214cfe2d20c"},"vehicle_type_id":"4","last_reported":1687558027,"current_range_meters":2000,"station_id":"ce4bhq92rcd13ifvqhjg","pricing_plan_id":"free"},{"bike_id":"c2e0f10b-6e4e-4cf9-b8dd-4d890db279aa","system_id":"levelo_inurba_marseille","lat":43.32326,"lon":5.40619,"is_reserved":false,"is_disabled":false,"rental_uris":{"android":"levelo://app?vid=c2e0f10b-6e4e-4cf9-b8dd-4d890db279aa","ios":"levelo://app?vid=c2e0f10b-6e4e-4cf9-b8dd-4d890db279aa"},"vehicle_type_id":"4","last_reported":1687558027,"current_range_meters":6800,"station_id":"ce4bhq92rcd13ifvqhjg","pricing_plan_id":"free"},{"bike_id":"c8a88ad3-79ac-43b0-8ce6-1524daccaf93","system_id":"levelo_inurba_marseille","lat":43.32327,"lon":5.40619,"is_reserved":false,"is_disabled":false,"rental_uris":{"android":"levelo://app?vid=c8a88ad3-79ac-43b0-8ce6-1524daccaf93","ios":"levelo://app?vid=c8a88ad3-79ac-43b0-8ce6-1524daccaf93"},"vehicle_type_id":"4","last_reported":1687558027,"current_range_meters":18800,"station_id":"ce4bhq92rcd13ifvqhjg","pricing_plan_id":"free"},{"bike_id":"00803c85-75e3-424e-a0cb-c6ed39a02c23","system_id":"levelo_inurba_marseille","lat":43.323464,"lon":5.406297,"is_reserved":false,"is_disabled":false,"rental_uris":{"android":"levelo://app?vid=00803c85-75e3-424e-a0cb-c6ed39a02c23","ios":"levelo://app?vid=00803c85-75e3-424e-a0cb-c6ed39a02c23"},"vehicle_type_id":"4","last_reported":1687558027,"current_range_meters":16000,"station_id":"ce4bhq92rcd13ifvqhjg","pricing_plan_id":"free"},{"bike_id":"8d1b5aae-fd4d-4853-83ef-709beadefdc6","system_id":"levelo_inurba_marseille","lat":43.32332,"lon":5.40617,"is_reserved":false,"is_disabled":false,"rental_uris":{"android":"levelo://app?vid=8d1b5aae-fd4d-4853-83ef-709beadefdc6","ios":"levelo://app?vid=8d1b5aae-fd4d-4853-83ef-709beadefdc6"},"vehicle_type_id":"4","last_reported":1687558027,"current_range_meters":21200,"station_id":"ce4bhq92rcd13ifvqhjg","pricing_plan_id":"free"},{"bike_id":"2a2f252d-d96d-4440-a4a3-43fbbf49969d","system_id":"levelo_inurba_marseille","lat":43.32333,"lon":5.40618,"is_reserved":false,"is_disabled":false,"rental_uris":{"android":"levelo://app?vid=2a2f252d-d96d-4440-a4a3-43fbbf49969d","ios":"levelo://app?vid=2a2f252d-d96d-4440-a4a3-43fbbf49969d"},"vehicle_type_id":"4","last_reported":1687558027,"current_range_meters":8800,"station_id":"ce4bhq92rcd13ifvqhjg","pricing_plan_id":"free"},{"bike_id":"fe1f39ee-1f5f-4fee-bf72-ec5ff6851e86","system_id":"levelo_inurba_marseille","lat":43.32331,"lon":5.40621,"is_reserved":false,"is_disabled":false,"rental_uris":{"android":"levelo://app?vid=fe1f39ee-1f5f-4fee-bf72-ec5ff6851e86","ios":"levelo://app?vid=fe1f39ee-1f5f-4fee-bf72-ec5ff6851e86"},"vehicle_type_id":"4","last_reported":1687558027,"current_range_meters":5200,"station_id":"ce4bhq92rcd13ifvqhjg","pricing_plan_id":"free"},{"bike_id":"11342d7d-dfe8-4da4-8ba1-fa20c4460f51","system_id":"levelo_inurba_marseille","lat":43.32332,"lon":5.40625,"is_reserved":false,"is_disabled":false,"rental_uris":{"android":"levelo://app?vid=11342d7d-dfe8-4da4-8ba1-fa20c4460f51","ios":"levelo://app?vid=11342d7d-dfe8-4da4-8ba1-fa20c4460f51"},"vehicle_type_id":"4","last_reported":1687558027,"current_range_meters":0,"station_id":"ce4bhq92rcd13ifvqhjg","pricing_plan_id":"free"},{"bike_id":"8d1f88b2-a260-40c1-9cbd-c5c8b2bfd015","system_id":"levelo_inurba_marseille","lat":43.32332,"lon":5.40627,"is_reserved":false,"is_disabled":false,"rental_uris":{"android":"levelo://app?vid=8d1f88b2-a260-40c1-9cbd-c5c8b2bfd015","ios":"levelo://app?vid=8d1f88b2-a260-40c1-9cbd-c5c8b2bfd015"},"vehicle_type_id":"4","last_reported":1687558027,"current_range_meters":13600,"station_id":"ce4bhq92rcd13ifvqhjg","pricing_plan_id":"free"},{"bike_id":"a54c5183-d12c-4b5d-b1a7-e6c2a62eb9b5","system_id":"levelo_inurba_marseille","lat":43.32345,"lon":5.40629,"is_reserved":false,"is_disabled":false,"rental_uris":{"android":"levelo://app?vid=a54c5183-d12c-4b5d-b1a7-e6c2a62eb9b5","ios":"levelo://app?vid=a54c5183-d12c-4b5d-b1a7-e6c2a62eb9b5"},"vehicle_type_id":"4","last_reported":1687558027,"current_range_meters":21600,"station_id":"ce4bhq92rcd13ifvqhjg","pricing_plan_id":"free"},{"bike_id":"48e8e177-2f85-4402-8ec0-49176574007f","system_id":"levelo_inurba_marseille","lat":43.288501,"lon":5.393087,"is_reserved":false,"is_disabled":false,"rental_uris":{"android":"levelo://app?vid=48e8e177-2f85-4402-8ec0-49176574007f","ios":"levelo://app?vid=48e8e177-2f85-4402-8ec0-49176574007f"},"vehicle_type_id":"4","last_reported":1687558027,"current_range_meters":22400,"station_id":"ce4bh2p2rcd13ifvqdi0","pricing_plan_id":"free"},{"bike_id":"f5e30a17-d0b2-4c52-bee6-6f03d25ff0fa","system_id":"levelo_inurba_marseille","lat":43.2848,"lon":5.38407,"is_reserved":false,"is_disabled":false,"rental_uris":{"android":"levelo://app?vid=f5e30a17-d0b2-4c52-bee6-6f03d25ff0fa","ios":"levelo://app?vid=f5e30a17-d0b2-4c52-bee6-6f03d25ff0fa"},"vehicle_type_id":"4","last_reported":1687558027,"current_range_meters":14400,"station_id":"ce4bh512rcd13ifvqe3g","pricing_plan_id":"free"},{"bike_id":"a21f9019-33bc-427c-b1c3-d336c450cf2a","system_id":"levelo_inurba_marseille","lat":43.2848,"lon":5.38411,"is_reserved":false,"is_disabled":false,"rental_uris":{"android":"levelo://app?vid=a21f9019-33bc-427c-b1c3-d336c450cf2a","ios":"levelo://app?vid=a21f9019-33bc-427c-b1c3-d336c450cf2a"},"vehicle_type_id":"4","last_reported":1687558027,"current_range_meters":14400,"station_id":"ce4bh512rcd13ifvqe3g","pricing_plan_id":"free"},{"bike_id":"e7daf8eb-f927-4b23-b3cd-a21dc280f2f8","system_id":"levelo_inurba_marseille","lat":43.28477,"lon":5.38407,"is_reserved":false,"is_disabled":false,"rental_uris":{"android":"levelo://app?vid=e7daf8eb-f927-4b23-b3cd-a21dc280f2f8","ios":"levelo://app?vid=e7daf8eb-f927-4b23-b3cd-a21dc280f2f8"},"vehicle_type_id":"4","last_reported":1687558027,"current_range_meters":0,"station_id":"ce4bh512rcd13ifvqe3g","pricing_plan_id":"free"},{"bike_id":"65b2f7aa-ce64-4a17-8816-4cdc0fcc579f","system_id":"levelo_inurba_marseille","lat":43.28474,"lon":5.38411,"is_reserved":false,"is_disabled":false,"rental_uris":{"android":"levelo://app?vid=65b2f7aa-ce64-4a17-8816-4cdc0fcc579f","ios":"levelo://app?vid=65b2f7aa-ce64-4a17-8816-4cdc0fcc579f"},"vehicle_type_id":"4","last_reported":1687558027,"current_range_meters":0,"station_id":"ce4bh512rcd13ifvqe3g","pricing_plan_id":"free"},{"bike_id":"b4c950db-352f-4a1a-8e3c-c05101a6dad0","system_id":"levelo_inurba_marseille","lat":43.288497,"lon":5.393089,"is_reserved":false,"is_disabled":false,"rental_uris":{"android":"levelo://app?vid=b4c950db-352f-4a1a-8e3c-c05101a6dad0","ios":"levelo://app?vid=b4c950db-352f-4a1a-8e3c-c05101a6dad0"},"vehicle_type_id":"4","last_reported":1687558027,"current_range_meters":31600,"station_id":"ce4bh2p2rcd13ifvqdi0","pricing_plan_id":"free"},{"bike_id":"cb558aed-acbd-4a31-8f36-dde9e25f8bc9","system_id":"levelo_inurba_marseille","lat":43.28473,"lon":5.38428,"is_reserved":false,"is_disabled":false,"rental_uris":{"android":"levelo://app?vid=cb558aed-acbd-4a31-8f36-dde9e25f8bc9","ios":"levelo://app?vid=cb558aed-acbd-4a31-8f36-dde9e25f8bc9"},"vehicle_type_id":"4","last_reported":1687558027,"current_range_meters":11200,"station_id":"ce4bh512rcd13ifvqe3g","pricing_plan_id":"free"},{"bike_id":"ac28c6f0-9b2a-4838-8618-f87df0b26bb2","system_id":"levelo_inurba_marseille","lat":43.28466,"lon":5.38416,"is_reserved":false,"is_disabled":false,"rental_uris":{"android":"levelo://app?vid=ac28c6f0-9b2a-4838-8618-f87df0b26bb2","ios":"levelo://app?vid=ac28c6f0-9b2a-4838-8618-f87df0b26bb2"},"vehicle_type_id":"4","last_reported":1687558027,"current_range_meters":14000,"station_id":"ce4bh512rcd13ifvqe3g","pricing_plan_id":"free"},{"bike_id":"e9bb34fa-f29b-4419-a7d6-dd07a0c9a7bf","system_id":"levelo_inurba_marseille","lat":43.3068,"lon":5.40852,"is_reserved":false,"is_disabled":false,"rental_uris":{"android":"levelo://app?vid=e9bb34fa-f29b-4419-a7d6-dd07a0c9a7bf","ios":"levelo://app?vid=e9bb34fa-f29b-4419-a7d6-dd07a0c9a7bf"},"vehicle_type_id":"4","last_reported":1687558027,"current_range_meters":800,"station_id":"","pricing_plan_id":"free"},{"bike_id":"36c72736-b80f-4f9a-b61a-19459d1d5e5d","system_id":"levelo_inurba_marseille","lat":43.283498,"lon":5.380948,"is_reserved":false,"is_disabled":false,"rental_uris":{"android":"levelo://app?vid=36c72736-b80f-4f9a-b61a-19459d1d5e5d","ios":"levelo://app?vid=36c72736-b80f-4f9a-b61a-19459d1d5e5d"},"vehicle_type_id":"4","last_reported":1687558027,"current_range_meters":6400,"station_id":"ce4bh412rcd13ifvqdr0","pricing_plan_id":"free"},{"bike_id":"46d5c81f-f27f-4d23-8b99-d46cbe258aca","system_id":"levelo_inurba_marseille","lat":43.288497,"lon":5.393089,"is_reserved":false,"is_disabled":false,"rental_uris":{"android":"levelo://app?vid=46d5c81f-f27f-4d23-8b99-d46cbe258aca","ios":"levelo://app?vid=46d5c81f-f27f-4d23-8b99-d46cbe258aca"},"vehicle_type_id":"4","last_reported":1687558027,"current_range_meters":0,"station_id":"ce4bh2p2rcd13ifvqdi0","pricing_plan_id":"free"},{"bike_id":"913b9a5c-9fe8-4983-a798-b7baed89a6e6","system_id":"levelo_inurba_marseille","lat":43.2894,"lon":5.39637,"is_reserved":false,"is_disabled":false,"rental_uris":{"android":"levelo://app?vid=913b9a5c-9fe8-4983-a798-b7baed89a6e6","ios":"levelo://app?vid=913b9a5c-9fe8-4983-a798-b7baed89a6e6"},"vehicle_type_id":"4","last_reported":1687558027,"current_range_meters":6000,"station_id":"ce4bh3h2rcd13ifvqdn0","pricing_plan_id":"free"},{"bike_id":"68d2a41c-e0cb-4076-9b1f-3f2a6e9ddbc3","system_id":"levelo_inurba_marseille","lat":43.296263,"lon":5.40601,"is_reserved":false,"is_disabled":false,"rental_uris":{"android":"levelo://app?vid=68d2a41c-e0cb-4076-9b1f-3f2a6e9ddbc3","ios":"levelo://app?vid=68d2a41c-e0cb-4076-9b1f-3f2a6e9ddbc3"},"vehicle_type_id":"4","last_reported":1687558027,"current_range_meters":0,"station_id":"ce4bh0h2rcd13ifvqd60","pricing_plan_id":"free"},{"bike_id":"b68dc952-36de-4c37-99f6-27a84bb6a241","system_id":"levelo_inurba_marseille","lat":43.290412,"lon":5.399633,"is_reserved":false,"is_disabled":false,"rental_uris":{"android":"levelo://app?vid=b68dc952-36de-4c37-99f6-27a84bb6a241","ios":"levelo://app?vid=b68dc952-36de-4c37-99f6-27a84bb6a241"},"vehicle_type_id":"4","last_reported":1687558027,"current_range_meters":6400,"station_id":"ce4bh392rcd13ifvqdm0","pricing_plan_id":"free"},{"bike_id":"c00c59bf-4268-4f1c-8759-d24c18577c2f","system_id":"levelo_inurba_marseille","lat":43.281044,"lon":5.378308,"is_reserved":false,"is_disabled":false,"rental_uris":{"android":"levelo://app?vid=c00c59bf-4268-4f1c-8759-d24c18577c2f","ios":"levelo://app?vid=c00c59bf-4268-4f1c-8759-d24c18577c2f"},"vehicle_type_id":"4","last_reported":1687558027,"current_range_meters":800,"station_id":"ce4bha12rcd13ifvqee0","pricing_plan_id":"free"},{"bike_id":"1eff585c-e9d5-49ce-8939-f76f57ca78d5","system_id":"levelo_inurba_marseille","lat":43.28104,"lon":5.37835,"is_reserved":false,"is_disabled":false,"rental_uris":{"android":"levelo://app?vid=1eff585c-e9d5-49ce-8939-f76f57ca78d5","ios":"levelo://app?vid=1eff585c-e9d5-49ce-8939-f76f57ca78d5"},"vehicle_type_id":"4","last_reported":1687558027,"current_range_meters":2400,"station_id":"ce4bha12rcd13ifvqee0","pricing_plan_id":"free"},{"bike_id":"2528c125-db14-4ead-a3d6-ad25b5de90ea","system_id":"levelo_inurba_marseille","lat":43.28103,"lon":5.37834,"is_reserved":false,"is_disabled":false,"rental_uris":{"android":"levelo://app?vid=2528c125-db14-4ead-a3d6-ad25b5de90ea","ios":"levelo://app?vid=2528c125-db14-4ead-a3d6-ad25b5de90ea"},"vehicle_type_id":"4","last_reported":1687558027,"current_range_meters":1200,"station_id":"ce4bha12rcd13ifvqee0","pricing_plan_id":"free"},{"bike_id":"2525d320-6b9f-4a58-913a-4d73befb1b1c","system_id":"levelo_inurba_marseille","lat":43.281044,"lon":5.378308,"is_reserved":false,"is_disabled":false,"rental_uris":{"android":"levelo://app?vid=2525d320-6b9f-4a58-913a-4d73befb1b1c","ios":"levelo://app?vid=2525d320-6b9f-4a58-913a-4d73befb1b1c"},"vehicle_type_id":"4","last_reported":1687558027,"current_range_meters":28000,"station_id":"ce4bha12rcd13ifvqee0","pricing_plan_id":"free"},{"bike_id":"ff60adae-f71a-4e2f-9c03-c28e9ecc3c45","system_id":"levelo_inurba_marseille","lat":43.32765,"lon":5.40739,"is_reserved":false,"is_disabled":false,"rental_uris":{"android":"levelo://app?vid=ff60adae-f71a-4e2f-9c03-c28e9ecc3c45","ios":"levelo://app?vid=ff60adae-f71a-4e2f-9c03-c28e9ecc3c45"},"vehicle_type_id":"4","last_reported":1687558027,"current_range_meters":8000,"station_id":"","pricing_plan_id":"free"},{"bike_id":"87a15827-a5b3-4ea1-b416-50bed77d3d85","system_id":"levelo_inurba_marseille","lat":43.284462,"lon":5.392121,"is_reserved":false,"is_disabled":false,"rental_uris":{"android":"levelo://app?vid=87a15827-a5b3-4ea1-b416-50bed77d3d85","ios":"levelo://app?vid=87a15827-a5b3-4ea1-b416-50bed77d3d85"},"vehicle_type_id":"4","last_reported":1687558027,"current_range_meters":29600,"station_id":"ce4bhoh2rcd13ifvqh5g","pricing_plan_id":"free"},{"bike_id":"c605242c-f8aa-4bc5-8141-cf7f35e732ce","system_id":"levelo_inurba_marseille","lat":43.284462,"lon":5.392121,"is_reserved":false,"is_disabled":false,"rental_uris":{"android":"levelo://app?vid=c605242c-f8aa-4bc5-8141-cf7f35e732ce","ios":"levelo://app?vid=c605242c-f8aa-4bc5-8141-cf7f35e732ce"},"vehicle_type_id":"4","last_reported":1687558027,"current_range_meters":400,"station_id":"ce4bhoh2rcd13ifvqh5g","pricing_plan_id":"free"},{"bike_id":"d4ead90d-26ac-4a55-8afb-df883e0e82c8","system_id":"levelo_inurba_marseille","lat":43.284462,"lon":5.392121,"is_reserved":false,"is_disabled":false,"rental_uris":{"android":"levelo://app?vid=d4ead90d-26ac-4a55-8afb-df883e0e82c8","ios":"levelo://app?vid=d4ead90d-26ac-4a55-8afb-df883e0e82c8"},"vehicle_type_id":"4","last_reported":1687558027,"current_range_meters":22800,"station_id":"ce4bhoh2rcd13ifvqh5g","pricing_plan_id":"free"},{"bike_id":"20ff8801-b59a-47b2-ad75-5812ce979dfb","system_id":"levelo_inurba_marseille","lat":43.284462,"lon":5.392121,"is_reserved":false,"is_disabled":false,"rental_uris":{"android":"levelo://app?vid=20ff8801-b59a-47b2-ad75-5812ce979dfb","ios":"levelo://app?vid=20ff8801-b59a-47b2-ad75-5812ce979dfb"},"vehicle_type_id":"4","last_reported":1687558027,"current_range_meters":19600,"station_id":"ce4bhoh2rcd13ifvqh5g","pricing_plan_id":"free"},{"bike_id":"3e94b555-65e4-4b9a-b37b-57b97975ccf1","system_id":"levelo_inurba_marseille","lat":43.28438,"lon":5.39197,"is_reserved":false,"is_disabled":false,"rental_uris":{"android":"levelo://app?vid=3e94b555-65e4-4b9a-b37b-57b97975ccf1","ios":"levelo://app?vid=3e94b555-65e4-4b9a-b37b-57b97975ccf1"},"vehicle_type_id":"4","last_reported":1687558027,"current_range_meters":0,"station_id":"ce4bhoh2rcd13ifvqh5g","pricing_plan_id":"free"},{"bike_id":"20eeb9e6-c0df-4439-bb02-b1410aa3adf3","system_id":"levelo_inurba_marseille","lat":43.284462,"lon":5.392121,"is_reserved":false,"is_disabled":false,"rental_uris":{"android":"levelo://app?vid=20eeb9e6-c0df-4439-bb02-b1410aa3adf3","ios":"levelo://app?vid=20eeb9e6-c0df-4439-bb02-b1410aa3adf3"},"vehicle_type_id":"4","last_reported":1687558027,"current_range_meters":0,"station_id":"ce4bhoh2rcd13ifvqh5g","pricing_plan_id":"free"},{"bike_id":"1ef7a404-782e-4c86-b475-9235f4fe47cf","system_id":"levelo_inurba_marseille","lat":43.28573,"lon":5.394992,"is_reserved":false,"is_disabled":false,"rental_uris":{"android":"levelo://app?vid=1ef7a404-782e-4c86-b475-9235f4fe47cf","ios":"levelo://app?vid=1ef7a404-782e-4c86-b475-9235f4fe47cf"},"vehicle_type_id":"4","last_reported":1687558027,"current_range_meters":15600,"station_id":"ce4bh292rcd13ifvqdg0","pricing_plan_id":"free"},{"bike_id":"514e4d9d-f74c-4bd1-8d07-610055ad8743","system_id":"levelo_inurba_marseille","lat":43.32662,"lon":5.40982,"is_reserved":false,"is_disabled":false,"rental_uris":{"android":"levelo://app?vid=514e4d9d-f74c-4bd1-8d07-610055ad8743","ios":"levelo://app?vid=514e4d9d-f74c-4bd1-8d07-610055ad8743"},"vehicle_type_id":"4","last_reported":1687558027,"current_range_meters":13200,"station_id":"ce4bhpp2rcd13ifvqhgg","pricing_plan_id":"free"},{"bike_id":"9b7e311b-427f-4c6b-9bfe-6d233d8bb257","system_id":"levelo_inurba_marseille","lat":43.32657,"lon":5.40991,"is_reserved":false,"is_disabled":false,"rental_uris":{"android":"levelo://app?vid=9b7e311b-427f-4c6b-9bfe-6d233d8bb257","ios":"levelo://app?vid=9b7e311b-427f-4c6b-9bfe-6d233d8bb257"},"vehicle_type_id":"4","last_reported":1687558027,"current_range_meters":6800,"station_id":"ce4bhpp2rcd13ifvqhgg","pricing_plan_id":"free"},{"bike_id":"5de98341-c4f0-4072-bcea-73b5bf2f2859","system_id":"levelo_inurba_marseille","lat":43.326605,"lon":5.409903,"is_reserved":false,"is_disabled":false,"rental_uris":{"android":"levelo://app?vid=5de98341-c4f0-4072-bcea-73b5bf2f2859","ios":"levelo://app?vid=5de98341-c4f0-4072-bcea-73b5bf2f2859"},"vehicle_type_id":"4","last_reported":1687558027,"current_range_meters":17600,"station_id":"ce4bhpp2rcd13ifvqhgg","pricing_plan_id":"free"},{"bike_id":"944cc645-9c61-42d4-8b7e-807c114cae2f","system_id":"levelo_inurba_marseille","lat":43.32658,"lon":5.40992,"is_reserved":false,"is_disabled":false,"rental_uris":{"android":"levelo://app?vid=944cc645-9c61-42d4-8b7e-807c114cae2f","ios":"levelo://app?vid=944cc645-9c61-42d4-8b7e-807c114cae2f"},"vehicle_type_id":"4","last_reported":1687558027,"current_range_meters":7600,"station_id":"ce4bhpp2rcd13ifvqhgg","pricing_plan_id":"free"},{"bike_id":"bd024b9e-10e2-485e-8834-4d0dbb51c5ca","system_id":"levelo_inurba_marseille","lat":43.326605,"lon":5.409903,"is_reserved":false,"is_disabled":false,"rental_uris":{"android":"levelo://app?vid=bd024b9e-10e2-485e-8834-4d0dbb51c5ca","ios":"levelo://app?vid=bd024b9e-10e2-485e-8834-4d0dbb51c5ca"},"vehicle_type_id":"4","last_reported":1687558027,"current_range_meters":18000,"station_id":"ce4bhpp2rcd13ifvqhgg","pricing_plan_id":"free"},{"bike_id":"fc2a51fe-3bf8-46f3-9fe8-f24612d4a02a","system_id":"levelo_inurba_marseille","lat":43.326565,"lon":5.409975,"is_reserved":false,"is_disabled":false,"rental_uris":{"android":"levelo://app?vid=fc2a51fe-3bf8-46f3-9fe8-f24612d4a02a","ios":"levelo://app?vid=fc2a51fe-3bf8-46f3-9fe8-f24612d4a02a"},"vehicle_type_id":"4","last_reported":1687558027,"current_range_meters":6000,"station_id":"ce4bhpp2rcd13ifvqhgg","pricing_plan_id":"free"},{"bike_id":"f47d889e-f3a7-4cf7-b89b-498d12032e77","system_id":"levelo_inurba_marseille","lat":43.29292,"lon":5.4066,"is_reserved":false,"is_disabled":false,"rental_uris":{"android":"levelo://app?vid=f47d889e-f3a7-4cf7-b89b-498d12032e77","ios":"levelo://app?vid=f47d889e-f3a7-4cf7-b89b-498d12032e77"},"vehicle_type_id":"4","last_reported":1687558027,"current_range_meters":6800,"station_id":"","pricing_plan_id":"free"},{"bike_id":"0723c628-eb9f-4b6f-80dc-681387f90787","system_id":"levelo_inurba_marseille","lat":43.287154,"lon":5.399979,"is_reserved":false,"is_disabled":false,"rental_uris":{"android":"levelo://app?vid=0723c628-eb9f-4b6f-80dc-681387f90787","ios":"levelo://app?vid=0723c628-eb9f-4b6f-80dc-681387f90787"},"vehicle_type_id":"4","last_reported":1687558027,"current_range_meters":14800,"station_id":"ce4bho92rcd13ifvqh3g","pricing_plan_id":"free"},{"bike_id":"bd00d7f4-485c-4a5e-bb62-2773eef8175c","system_id":"levelo_inurba_marseille","lat":43.279742,"lon":5.38744,"is_reserved":false,"is_disabled":false,"rental_uris":{"android":"levelo://app?vid=bd00d7f4-485c-4a5e-bb62-2773eef8175c","ios":"levelo://app?vid=bd00d7f4-485c-4a5e-bb62-2773eef8175c"},"vehicle_type_id":"4","last_reported":1687558027,"current_range_meters":18400,"station_id":"ce4bhg12rcd13ifvqf80","pricing_plan_id":"free"},{"bike_id":"7905e970-d96f-47f3-add9-384163093635","system_id":"levelo_inurba_marseille","lat":43.287154,"lon":5.399979,"is_reserved":false,"is_disabled":false,"rental_uris":{"android":"levelo://app?vid=7905e970-d96f-47f3-add9-384163093635","ios":"levelo://app?vid=7905e970-d96f-47f3-add9-384163093635"},"vehicle_type_id":"4","last_reported":1687558027,"current_range_meters":14800,"station_id":"ce4bho92rcd13ifvqh3g","pricing_plan_id":"free"},{"bike_id":"50fd953c-9754-45f4-aec7-ae52bb9eb6fe","system_id":"levelo_inurba_marseille","lat":43.287154,"lon":5.399979,"is_reserved":false,"is_disabled":false,"rental_uris":{"android":"levelo://app?vid=50fd953c-9754-45f4-aec7-ae52bb9eb6fe","ios":"levelo://app?vid=50fd953c-9754-45f4-aec7-ae52bb9eb6fe"},"vehicle_type_id":"4","last_reported":1687558027,"current_range_meters":31600,"station_id":"ce4bho92rcd13ifvqh3g","pricing_plan_id":"free"},{"bike_id":"14c9cff9-ef50-4c6d-8fa4-9a1095daa1fd","system_id":"levelo_inurba_marseille","lat":43.299579,"lon":5.413255,"is_reserved":false,"is_disabled":false,"rental_uris":{"android":"levelo://app?vid=14c9cff9-ef50-4c6d-8fa4-9a1095daa1fd","ios":"levelo://app?vid=14c9cff9-ef50-4c6d-8fa4-9a1095daa1fd"},"vehicle_type_id":"4","last_reported":1687558027,"current_range_meters":14000,"station_id":"ce4bhp12rcd13ifvqh9g","pricing_plan_id":"free"},{"bike_id":"727f51f2-49fe-4398-bd08-f2fbd61cc22e","system_id":"levelo_inurba_marseille","lat":43.299577,"lon":5.413277,"is_reserved":false,"is_disabled":false,"rental_uris":{"android":"levelo://app?vid=727f51f2-49fe-4398-bd08-f2fbd61cc22e","ios":"levelo://app?vid=727f51f2-49fe-4398-bd08-f2fbd61cc22e"},"vehicle_type_id":"4","last_reported":1687558027,"current_range_meters":17200,"station_id":"ce4bhp12rcd13ifvqh9g","pricing_plan_id":"free"},{"bike_id":"684297d8-19e6-4c9c-aff6-497826518b28","system_id":"levelo_inurba_marseille","lat":43.292569,"lon":5.409107,"is_reserved":false,"is_disabled":false,"rental_uris":{"android":"levelo://app?vid=684297d8-19e6-4c9c-aff6-497826518b28","ios":"levelo://app?vid=684297d8-19e6-4c9c-aff6-497826518b28"},"vehicle_type_id":"4","last_reported":1687558027,"current_range_meters":18000,"station_id":"ce4bh192rcd13ifvqdc0","pricing_plan_id":"free"},{"bike_id":"11e39938-feff-4591-bb2c-d3651d552476","system_id":"levelo_inurba_marseille","lat":43.292569,"lon":5.409107,"is_reserved":false,"is_disabled":false,"rental_uris":{"android":"levelo://app?vid=11e39938-feff-4591-bb2c-d3651d552476","ios":"levelo://app?vid=11e39938-feff-4591-bb2c-d3651d552476"},"vehicle_type_id":"4","last_reported":1687558027,"current_range_meters":19600,"station_id":"ce4bh192rcd13ifvqdc0","pricing_plan_id":"free"},{"bike_id":"bde3f5fc-f508-438b-b654-79f82de1767f","system_id":"levelo_inurba_marseille","lat":43.27618,"lon":5.361009,"is_reserved":false,"is_disabled":false,"rental_uris":{"android":"levelo://app?vid=bde3f5fc-f508-438b-b654-79f82de1767f","ios":"levelo://app?vid=bde3f5fc-f508-438b-b654-79f82de1767f"},"vehicle_type_id":"4","last_reported":1687558027,"current_range_meters":31200,"station_id":"ce4bgj92rcd13ifvqbe0","pricing_plan_id":"free"},{"bike_id":"d558d9eb-e667-4665-a5a2-8857cff3077d","system_id":"levelo_inurba_marseille","lat":43.32545,"lon":5.41437,"is_reserved":false,"is_disabled":false,"rental_uris":{"android":"levelo://app?vid=d558d9eb-e667-4665-a5a2-8857cff3077d","ios":"levelo://app?vid=d558d9eb-e667-4665-a5a2-8857cff3077d"},"vehicle_type_id":"4","last_reported":1687558027,"current_range_meters":31200,"station_id":"ce4bhq12rcd13ifvqhhg","pricing_plan_id":"free"},{"bike_id":"8427f03f-442f-4597-8355-8d5461ccf3f6","system_id":"levelo_inurba_marseille","lat":43.27618,"lon":5.361009,"is_reserved":false,"is_disabled":false,"rental_uris":{"android":"levelo://app?vid=8427f03f-442f-4597-8355-8d5461ccf3f6","ios":"levelo://app?vid=8427f03f-442f-4597-8355-8d5461ccf3f6"},"vehicle_type_id":"4","last_reported":1687558027,"current_range_meters":31200,"station_id":"ce4bgj92rcd13ifvqbe0","pricing_plan_id":"free"},{"bike_id":"db9306c1-8421-4cc5-bcc5-bc532d34ca2e","system_id":"levelo_inurba_marseille","lat":43.32542,"lon":5.41446,"is_reserved":false,"is_disabled":false,"rental_uris":{"android":"levelo://app?vid=db9306c1-8421-4cc5-bcc5-bc532d34ca2e","ios":"levelo://app?vid=db9306c1-8421-4cc5-bcc5-bc532d34ca2e"},"vehicle_type_id":"4","last_reported":1687558027,"current_range_meters":30400,"station_id":"","pricing_plan_id":"free"},{"bike_id":"a24a3761-9f8a-4989-9991-33559ff06fda","system_id":"levelo_inurba_marseille","lat":43.32543,"lon":5.41447,"is_reserved":false,"is_disabled":false,"rental_uris":{"android":"levelo://app?vid=a24a3761-9f8a-4989-9991-33559ff06fda","ios":"levelo://app?vid=a24a3761-9f8a-4989-9991-33559ff06fda"},"vehicle_type_id":"4","last_reported":1687558027,"current_range_meters":800,"station_id":"","pricing_plan_id":"free"},{"bike_id":"d5f409aa-d0c6-4771-b5ce-04aef28f7ce2","system_id":"levelo_inurba_marseille","lat":43.32547,"lon":5.41449,"is_reserved":false,"is_disabled":false,"rental_uris":{"android":"levelo://app?vid=d5f409aa-d0c6-4771-b5ce-04aef28f7ce2","ios":"levelo://app?vid=d5f409aa-d0c6-4771-b5ce-04aef28f7ce2"},"vehicle_type_id":"4","last_reported":1687558027,"current_range_meters":26000,"station_id":"","pricing_plan_id":"free"},{"bike_id":"da63807e-240d-4d82-972e-ccda4f1b77e6","system_id":"levelo_inurba_marseille","lat":43.3254,"lon":5.41453,"is_reserved":false,"is_disabled":false,"rental_uris":{"android":"levelo://app?vid=da63807e-240d-4d82-972e-ccda4f1b77e6","ios":"levelo://app?vid=da63807e-240d-4d82-972e-ccda4f1b77e6"},"vehicle_type_id":"4","last_reported":1687558027,"current_range_meters":30000,"station_id":"ce4bhq12rcd13ifvqhhg","pricing_plan_id":"free"},{"bike_id":"f30c6c87-735d-41e9-b3f0-fe3ad0158e72","system_id":"levelo_inurba_marseille","lat":43.28082,"lon":5.39663,"is_reserved":false,"is_disabled":false,"rental_uris":{"android":"levelo://app?vid=f30c6c87-735d-41e9-b3f0-fe3ad0158e72","ios":"levelo://app?vid=f30c6c87-735d-41e9-b3f0-fe3ad0158e72"},"vehicle_type_id":"4","last_reported":1687558027,"current_range_meters":6400,"station_id":"ce4bho12rcd13ifvqh2g","pricing_plan_id":"free"},{"bike_id":"8bae673e-d3db-4ce5-b5f9-ca0f56c4e5c1","system_id":"levelo_inurba_marseille","lat":43.280784,"lon":5.396622,"is_reserved":false,"is_disabled":false,"rental_uris":{"android":"levelo://app?vid=8bae673e-d3db-4ce5-b5f9-ca0f56c4e5c1","ios":"levelo://app?vid=8bae673e-d3db-4ce5-b5f9-ca0f56c4e5c1"},"vehicle_type_id":"4","last_reported":1687558027,"current_range_meters":17600,"station_id":"ce4bho12rcd13ifvqh2g","pricing_plan_id":"free"},{"bike_id":"9fa78da8-6320-45ff-aaa4-aaeff050f271","system_id":"levelo_inurba_marseille","lat":43.280784,"lon":5.396622,"is_reserved":false,"is_disabled":false,"rental_uris":{"android":"levelo://app?vid=9fa78da8-6320-45ff-aaa4-aaeff050f271","ios":"levelo://app?vid=9fa78da8-6320-45ff-aaa4-aaeff050f271"},"vehicle_type_id":"4","last_reported":1687558027,"current_range_meters":17200,"station_id":"ce4bho12rcd13ifvqh2g","pricing_plan_id":"free"},{"bike_id":"d60832f5-4d74-4884-a682-017c832e1676","system_id":"levelo_inurba_marseille","lat":43.33612,"lon":5.410321,"is_reserved":false,"is_disabled":false,"rental_uris":{"android":"levelo://app?vid=d60832f5-4d74-4884-a682-017c832e1676","ios":"levelo://app?vid=d60832f5-4d74-4884-a682-017c832e1676"},"vehicle_type_id":"4","last_reported":1687558027,"current_range_meters":31200,"station_id":"ce4bhqh2rcd13ifvqhmg","pricing_plan_id":"free"},{"bike_id":"86d657cd-7ac4-480d-974a-4dcd255c4b1f","system_id":"levelo_inurba_marseille","lat":43.27377,"lon":5.3625,"is_reserved":false,"is_disabled":false,"rental_uris":{"android":"levelo://app?vid=86d657cd-7ac4-480d-974a-4dcd255c4b1f","ios":"levelo://app?vid=86d657cd-7ac4-480d-974a-4dcd255c4b1f"},"vehicle_type_id":"4","last_reported":1687558027,"current_range_meters":14800,"station_id":"ce4bhbh2rcd13ifvqeo0","pricing_plan_id":"free"},{"bike_id":"9eb7fd8d-a30c-426b-86ad-8cb56966d9f8","system_id":"levelo_inurba_marseille","lat":43.275625,"lon":5.384392,"is_reserved":false,"is_disabled":false,"rental_uris":{"android":"levelo://app?vid=9eb7fd8d-a30c-426b-86ad-8cb56966d9f8","ios":"levelo://app?vid=9eb7fd8d-a30c-426b-86ad-8cb56966d9f8"},"vehicle_type_id":"4","last_reported":1687558027,"current_range_meters":21200,"station_id":"ce4bhh92rcd13ifvqfi0","pricing_plan_id":"free"},{"bike_id":"caad2176-2282-4855-8c38-34443d645d84","system_id":"levelo_inurba_marseille","lat":43.33612,"lon":5.410321,"is_reserved":false,"is_disabled":false,"rental_uris":{"android":"levelo://app?vid=caad2176-2282-4855-8c38-34443d645d84","ios":"levelo://app?vid=caad2176-2282-4855-8c38-34443d645d84"},"vehicle_type_id":"4","last_reported":1687558027,"current_range_meters":25600,"station_id":"ce4bhqh2rcd13ifvqhmg","pricing_plan_id":"free"},{"bike_id":"3ba219a1-bfce-4511-aabc-9eec4d3607c8","system_id":"levelo_inurba_marseille","lat":43.336134,"lon":5.410341,"is_reserved":false,"is_disabled":false,"rental_uris":{"android":"levelo://app?vid=3ba219a1-bfce-4511-aabc-9eec4d3607c8","ios":"levelo://app?vid=3ba219a1-bfce-4511-aabc-9eec4d3607c8"},"vehicle_type_id":"4","last_reported":1687558027,"current_range_meters":31200,"station_id":"ce4bhqh2rcd13ifvqhmg","pricing_plan_id":"free"},{"bike_id":"688f01ca-9db2-4337-a386-413ec36cea3f","system_id":"levelo_inurba_marseille","lat":43.275625,"lon":5.384392,"is_reserved":false,"is_disabled":false,"rental_uris":{"android":"levelo://app?vid=688f01ca-9db2-4337-a386-413ec36cea3f","ios":"levelo://app?vid=688f01ca-9db2-4337-a386-413ec36cea3f"},"vehicle_type_id":"4","last_reported":1687558027,"current_range_meters":20400,"station_id":"ce4bhh92rcd13ifvqfi0","pricing_plan_id":"free"},{"bike_id":"b4ae37d5-9c95-42be-b96c-ba947b3121fe","system_id":"levelo_inurba_marseille","lat":43.273661,"lon":5.36249,"is_reserved":false,"is_disabled":false,"rental_uris":{"android":"levelo://app?vid=b4ae37d5-9c95-42be-b96c-ba947b3121fe","ios":"levelo://app?vid=b4ae37d5-9c95-42be-b96c-ba947b3121fe"},"vehicle_type_id":"4","last_reported":1687558027,"current_range_meters":0,"station_id":"ce4bhbh2rcd13ifvqeo0","pricing_plan_id":"free"},{"bike_id":"c6db143c-0e1d-4746-adb1-49b218f0ed0d","system_id":"levelo_inurba_marseille","lat":43.33612,"lon":5.410321,"is_reserved":false,"is_disabled":false,"rental_uris":{"android":"levelo://app?vid=c6db143c-0e1d-4746-adb1-49b218f0ed0d","ios":"levelo://app?vid=c6db143c-0e1d-4746-adb1-49b218f0ed0d"},"vehicle_type_id":"4","last_reported":1687558027,"current_range_meters":6800,"station_id":"ce4bhqh2rcd13ifvqhmg","pricing_plan_id":"free"},{"bike_id":"db3b15b8-7379-4b48-82c4-71cce0dd92f3","system_id":"levelo_inurba_marseille","lat":43.336134,"lon":5.410341,"is_reserved":false,"is_disabled":false,"rental_uris":{"android":"levelo://app?vid=db3b15b8-7379-4b48-82c4-71cce0dd92f3","ios":"levelo://app?vid=db3b15b8-7379-4b48-82c4-71cce0dd92f3"},"vehicle_type_id":"4","last_reported":1687558027,"current_range_meters":28000,"station_id":"ce4bhqh2rcd13ifvqhmg","pricing_plan_id":"free"},{"bike_id":"f5f1105a-a78f-4219-8854-9076b9783600","system_id":"levelo_inurba_marseille","lat":43.336134,"lon":5.410341,"is_reserved":false,"is_disabled":false,"rental_uris":{"android":"levelo://app?vid=f5f1105a-a78f-4219-8854-9076b9783600","ios":"levelo://app?vid=f5f1105a-a78f-4219-8854-9076b9783600"},"vehicle_type_id":"4","last_reported":1687558027,"current_range_meters":20800,"station_id":"ce4bhqh2rcd13ifvqhmg","pricing_plan_id":"free"},{"bike_id":"dcadf857-4956-4b38-b109-909c79cc7ceb","system_id":"levelo_inurba_marseille","lat":43.31079,"lon":5.4243,"is_reserved":false,"is_disabled":false,"rental_uris":{"android":"levelo://app?vid=dcadf857-4956-4b38-b109-909c79cc7ceb","ios":"levelo://app?vid=dcadf857-4956-4b38-b109-909c79cc7ceb"},"vehicle_type_id":"4","last_reported":1687558027,"current_range_meters":6400,"station_id":"ce4bhp92rcd13ifvqhag","pricing_plan_id":"free"},{"bike_id":"22954ed7-4281-4fba-87fc-cbefaec02ffe","system_id":"levelo_inurba_marseille","lat":43.310785,"lon":5.424305,"is_reserved":false,"is_disabled":false,"rental_uris":{"android":"levelo://app?vid=22954ed7-4281-4fba-87fc-cbefaec02ffe","ios":"levelo://app?vid=22954ed7-4281-4fba-87fc-cbefaec02ffe"},"vehicle_type_id":"4","last_reported":1687558027,"current_range_meters":9600,"station_id":"ce4bhp92rcd13ifvqhag","pricing_plan_id":"free"},{"bike_id":"d0061ac5-9742-4a0c-aaf3-7f03ef588c42","system_id":"levelo_inurba_marseille","lat":43.27591,"lon":5.39487,"is_reserved":false,"is_disabled":false,"rental_uris":{"android":"levelo://app?vid=d0061ac5-9742-4a0c-aaf3-7f03ef588c42","ios":"levelo://app?vid=d0061ac5-9742-4a0c-aaf3-7f03ef588c42"},"vehicle_type_id":"4","last_reported":1687558027,"current_range_meters":18000,"station_id":"","pricing_plan_id":"free"},{"bike_id":"01208fbe-9431-4ed6-ac1f-e90329c35bdb","system_id":"levelo_inurba_marseille","lat":43.26955,"lon":5.36633,"is_reserved":false,"is_disabled":false,"rental_uris":{"android":"levelo://app?vid=01208fbe-9431-4ed6-ac1f-e90329c35bdb","ios":"levelo://app?vid=01208fbe-9431-4ed6-ac1f-e90329c35bdb"},"vehicle_type_id":"4","last_reported":1687558027,"current_range_meters":6000,"station_id":"","pricing_plan_id":"free"},{"bike_id":"997300d5-35c3-4d84-8bda-934708bac9a5","system_id":"levelo_inurba_marseille","lat":43.273125,"lon":5.390731,"is_reserved":false,"is_disabled":false,"rental_uris":{"android":"levelo://app?vid=997300d5-35c3-4d84-8bda-934708bac9a5","ios":"levelo://app?vid=997300d5-35c3-4d84-8bda-934708bac9a5"},"vehicle_type_id":"4","last_reported":1687558027,"current_range_meters":0,"station_id":"ce4bhgp2rcd13ifvqfe0","pricing_plan_id":"free"},{"bike_id":"adadae3e-c085-43f7-bf29-8936d4e3a6b6","system_id":"levelo_inurba_marseille","lat":43.27423,"lon":5.39418,"is_reserved":false,"is_disabled":false,"rental_uris":{"android":"levelo://app?vid=adadae3e-c085-43f7-bf29-8936d4e3a6b6","ios":"levelo://app?vid=adadae3e-c085-43f7-bf29-8936d4e3a6b6"},"vehicle_type_id":"4","last_reported":1687558027,"current_range_meters":0,"station_id":"","pricing_plan_id":"free"},{"bike_id":"6ba32108-4f80-4e38-bb06-43c0ebb41505","system_id":"levelo_inurba_marseille","lat":43.295511,"lon":5.422926,"is_reserved":false,"is_disabled":false,"rental_uris":{"android":"levelo://app?vid=6ba32108-4f80-4e38-bb06-43c0ebb41505","ios":"levelo://app?vid=6ba32108-4f80-4e38-bb06-43c0ebb41505"},"vehicle_type_id":"4","last_reported":1687558027,"current_range_meters":31600,"station_id":"ce4bhph2rcd13ifvqhdg","pricing_plan_id":"free"},{"bike_id":"67e6acf1-44d5-4cc6-9f61-8a9e302842a4","system_id":"levelo_inurba_marseille","lat":43.295511,"lon":5.422926,"is_reserved":false,"is_disabled":false,"rental_uris":{"android":"levelo://app?vid=67e6acf1-44d5-4cc6-9f61-8a9e302842a4","ios":"levelo://app?vid=67e6acf1-44d5-4cc6-9f61-8a9e302842a4"},"vehicle_type_id":"4","last_reported":1687558027,"current_range_meters":19200,"station_id":"ce4bhph2rcd13ifvqhdg","pricing_plan_id":"free"},{"bike_id":"f2172cdf-46b2-407f-b934-da33580c2309","system_id":"levelo_inurba_marseille","lat":43.295511,"lon":5.422926,"is_reserved":false,"is_disabled":false,"rental_uris":{"android":"levelo://app?vid=f2172cdf-46b2-407f-b934-da33580c2309","ios":"levelo://app?vid=f2172cdf-46b2-407f-b934-da33580c2309"},