{"last_updated":1743977313,"ttl":60,"version":"2.2","data":{"bikes":[{"bike_id":"fb0d4993-67fa-4314-9525-ef2ba9197c72","system_id":"levelo_inurba_marseille","lat":43.30263,"lon":5.4063,"is_reserved":false,"is_disabled":false,"rental_uris":{"android":"levelo://app?vid=fb0d4993-67fa-4314-9525-ef2ba9197c72","ios":"levelo://app?vid=fb0d4993-67fa-4314-9525-ef2ba9197c72"},"vehicle_type_id":"4","last_reported":1743977313,"current_range_meters":2800,"station_id":"","pricing_plan_id":"cebpf4jnsgd1na2vs0mg"},{"bike_id":"7dc09892-0591-42d9-a386-b7b42a4a94aa","system_id":"levelo_inurba_marseille","lat":43.288754,"lon":5.387814,"is_reserved":false,"is_disabled":false,"rental_uris":{"android":"levelo://app?vid=7dc09892-0591-42d9-a386-b7b42a4a94aa","ios":"levelo://app?vid=7dc09892-0591-42d9-a386-b7b42a4a94aa"},"vehicle_type_id":"4","last_reported":1743977313,"current_range_meters":2800,"station_id":"ce4bh4p2rcd13ifvqe0g","pricing_plan_id":"cebpf4jnsgd1na2vs0mg"},{"bike_id":"0a598ec2-4c19-4da9-a8e1-9ebb6e8cb905","system_id":"levelo_inurba_marseille","lat":43.25775,"lon":5.41056,"is_reserved":false,"is_disabled":false,"rental_uris":{"android":"levelo://app?vid=0a598ec2-4c19-4da9-a8e1-9ebb6e8cb905","ios":"levelo://app?vid=0a598ec2-4c19-4da9-a8e1-9ebb6e8cb905"},"vehicle_type_id":"4","last_reported":1743977313,"current_range_meters":2800,"station_id":"ce4bhkp2rcd13ifvqgd0","pricing_plan_id":"cebpf4jnsgd1na2vs0mg"},{"bike_id":"628d7abb-db04-4f5f-a57c-7a9517f1d367","system_id":"levelo_inurba_marseille","lat":43.28144,"lon":5.42637,"is_reserved":false,"is_disabled":false,"rental_uris":{"android":"levelo://app?vid=628d7abb-db04-4f5f-a57c-7a9517f1d367","ios":"levelo://app?vid=628d7abb-db04-4f5f-a57c-7a9517f1d367"},"vehicle_type_id":"4","last_reported":1743977313,"current_range_meters":3200,"station_id":"ce4bhnh2rcd13ifvqgug","pricing_plan_id":"cebpf4jnsgd1na2vs0mg"},{"bike_id":"8739ea41-f2be-441b-82fb-ac6608ea96ab","system_id":"levelo_inurba_marseille","lat":43.27133,"lon":5.3895,"is_reserved":false,"is_disabled":false,"rental_uris":{"android":"levelo://app?vid=8739ea41-f2be-441b-82fb-ac6608ea96ab","ios":"levelo://app?vid=8739ea41-f2be-441b-82fb-ac6608ea96ab"},"vehicle_type_id":"4","last_reported":1743977313,"current_range_meters":3200,"station_id":"ce4bh612rcd13ifvqe6g","pricing_plan_id":"cebpf4jnsgd1na2vs0mg"},{"bike_id":"61212aa0-4eb8-4f36-a168-fd7904f9eea1","system_id":"levelo_inurba_marseille","lat":43.29283,"lon":5.40105,"is_reserved":false,"is_disabled":false,"rental_uris":{"android":"levelo://app?vid=61212aa0-4eb8-4f36-a168-fd7904f9eea1","ios":"levelo://app?vid=61212aa0-4eb8-4f36-a168-fd7904f9eea1"},"vehicle_type_id":"4","last_reported":1743977313,"current_range_meters":3600,"station_id":"ce4bh312rcd13ifvqdk0","pricing_plan_id":"cebpf4jnsgd1na2vs0mg"},{"bike_id":"de8c7673-f24b-4f83-97a2-f3b597943ac1","system_id":"levelo_inurba_marseille","lat":43.27072,"lon":5.42277,"is_reserved":false,"is_disabled":false,"rental_uris":{"android":"levelo://app?vid=de8c7673-f24b-4f83-97a2-f3b597943ac1","ios":"levelo://app?vid=de8c7673-f24b-4f83-97a2-f3b597943ac1"},"vehicle_type_id":"4","last_reported":1743977313,"current_range_meters":3600,"station_id":"ce4bhk92rcd13ifvqgb0","pricing_plan_id":"cebpf4jnsgd1na2vs0mg"},{"bike_id":"8e8105ce-63e2-4441-9ebe-d6a09a08a22e","system_id":"levelo_inurba_marseille","lat":43.29668,"lon":5.36204,"is_reserved":false,"is_disabled":false,"rental_uris":{"android":"levelo://app?vid=8e8105ce-63e2-4441-9ebe-d6a09a08a22e","ios":"levelo://app?vid=8e8105ce-63e2-4441-9ebe-d6a09a08a22e"},"vehicle_type_id":"4","last_reported":1743977313,"current_range_meters":4000,"station_id":"","pricing_plan_id":"cebpf4jnsgd1na2vs0mg"},{"bike_id":"6d70e492-394e-44f3-96aa-c37ef18b968b","system_id":"levelo_inurba_marseille","lat":43.25081,"lon":5.39508,"is_reserved":false,"is_disabled":false,"rental_uris":{"android":"levelo://app?vid=6d70e492-394e-44f3-96aa-c37ef18b968b","ios":"levelo://app?vid=6d70e492-394e-44f3-96aa-c37ef18b968b"},"vehicle_type_id":"4","last_reported":1743977313,"current_range_meters":4000,"station_id":"ce4bhm12rcd13ifvqgkg","pricing_plan_id":"cebpf4jnsgd1na2vs0mg"},{"bike_id":"eb79d1f9-7c91-4ea2-b5f8-796189743e1a","system_id":"levelo_inurba_marseille","lat":43.34266,"lon":5.38111,"is_reserved":false,"is_disabled":false,"rental_uris":{"android":"levelo://app?vid=eb79d1f9-7c91-4ea2-b5f8-796189743e1a","ios":"levelo://app?vid=eb79d1f9-7c91-4ea2-b5f8-796189743e1a"},"vehicle_type_id":"4","last_reported":1743977313,"current_range_meters":4400,"station_id":"","pricing_plan_id":"cebpf4jnsgd1na2vs0mg"},{"bike_id":"69f8a740-a0ff-4635-87ad-9b7d7d0db53e","system_id":"levelo_inurba_marseille","lat":43.246467,"lon":5.389099,"is_reserved":false,"is_disabled":true,"rental_uris":{"android":"levelo://app?vid=69f8a740-a0ff-4635-87ad-9b7d7d0db53e","ios":"levelo://app?vid=69f8a740-a0ff-4635-87ad-9b7d7d0db53e"},"vehicle_type_id":"4","last_reported":1743977313,"current_range_meters":4400,"station_id":"ce4bhg12rcd13ifvqf60","pricing_plan_id":"cebpf4jnsgd1na2vs0mg"},{"bike_id":"abf828e0-bebc-4654-bc93-1d92f449deee","system_id":"levelo_inurba_marseille","lat":43.32368,"lon":5.3677,"is_reserved":false,"is_disabled":true,"rental_uris":{"android":"levelo://app?vid=abf828e0-bebc-4654-bc93-1d92f449deee","ios":"levelo://app?vid=abf828e0-bebc-4654-bc93-1d92f449deee"},"vehicle_type_id":"4","last_reported":1743977313,"current_range_meters":4400,"station_id":"ce4bhsh2rcd13ifvqi2g","pricing_plan_id":"cebpf4jnsgd1na2vs0mg"},{"bike_id":"201f6afc-5298-4290-a1de-7a10d1cee8d1","system_id":"levelo_inurba_marseille","lat":43.308002,"lon":5.381495,"is_reserved":false,"is_disabled":false,"rental_uris":{"android":"levelo://app?vid=201f6afc-5298-4290-a1de-7a10d1cee8d1","ios":"levelo://app?vid=201f6afc-5298-4290-a1de-7a10d1cee8d1"},"vehicle_type_id":"4","last_reported":1743977313,"current_range_meters":4400,"station_id":"ce4bgt12rcd13ifvqce0","pricing_plan_id":"cebpf4jnsgd1na2vs0mg"},{"bike_id":"d5f50458-f9fb-403e-a7f2-d91d7d7dd8c7","system_id":"levelo_inurba_marseille","lat":43.25123,"lon":5.40333,"is_reserved":false,"is_disabled":false,"rental_uris":{"android":"levelo://app?vid=d5f50458-f9fb-403e-a7f2-d91d7d7dd8c7","ios":"levelo://app?vid=d5f50458-f9fb-403e-a7f2-d91d7d7dd8c7"},"vehicle_type_id":"4","last_reported":1743977313,"current_range_meters":4800,"station_id":"ce4bhlh2rcd13ifvqgig","pricing_plan_id":"cebpf4jnsgd1na2vs0mg"},{"bike_id":"14372806-dbaf-42a6-80e2-a045e7992d20","system_id":"levelo_inurba_marseille","lat":43.25004,"lon":5.38925,"is_reserved":false,"is_disabled":false,"rental_uris":{"android":"levelo://app?vid=14372806-dbaf-42a6-80e2-a045e7992d20","ios":"levelo://app?vid=14372806-dbaf-42a6-80e2-a045e7992d20"},"vehicle_type_id":"4","last_reported":1743977313,"current_range_meters":4800,"station_id":"ce4bhgp2rcd13ifvqfd0","pricing_plan_id":"cebpf4jnsgd1na2vs0mg"},{"bike_id":"85c333a3-b64e-4451-b497-3becb5c9ba77","system_id":"levelo_inurba_marseille","lat":43.28936,"lon":5.36637,"is_reserved":false,"is_disabled":false,"rental_uris":{"android":"levelo://app?vid=85c333a3-b64e-4451-b497-3becb5c9ba77","ios":"levelo://app?vid=85c333a3-b64e-4451-b497-3becb5c9ba77"},"vehicle_type_id":"4","last_reported":1743977313,"current_range_meters":5600,"station_id":"ce4bhap2rcd13ifvqek0","pricing_plan_id":"cebpf4jnsgd1na2vs0mg"},{"bike_id":"0e413919-8111-4681-a208-d8ca519ce3ab","system_id":"levelo_inurba_marseille","lat":43.28875,"lon":5.39304,"is_reserved":false,"is_disabled":false,"rental_uris":{"android":"levelo://app?vid=0e413919-8111-4681-a208-d8ca519ce3ab","ios":"levelo://app?vid=0e413919-8111-4681-a208-d8ca519ce3ab"},"vehicle_type_id":"4","last_reported":1743977313,"current_range_meters":5600,"station_id":"ce4bh2p2rcd13ifvqdi0","pricing_plan_id":"cebpf4jnsgd1na2vs0mg"},{"bike_id":"1f22c1c5-a872-4fb6-90d4-aa58d3fe3317","system_id":"levelo_inurba_marseille","lat":43.29796,"lon":5.40391,"is_reserved":false,"is_disabled":false,"rental_uris":{"android":"levelo://app?vid=1f22c1c5-a872-4fb6-90d4-aa58d3fe3317","ios":"levelo://app?vid=1f22c1c5-a872-4fb6-90d4-aa58d3fe3317"},"vehicle_type_id":"4","last_reported":1743977313,"current_range_meters":5600,"station_id":"ce4bh112rcd13ifvqd90","pricing_plan_id":"cebpf4jnsgd1na2vs0mg"},{"bike_id":"72114469-b8e1-4cdd-9a3b-a5c2d52c7772","system_id":"levelo_inurba_marseille","lat":43.28456,"lon":5.35879,"is_reserved":false,"is_disabled":false,"rental_uris":{"android":"levelo://app?vid=72114469-b8e1-4cdd-9a3b-a5c2d52c7772","ios":"levelo://app?vid=72114469-b8e1-4cdd-9a3b-a5c2d52c7772"},"vehicle_type_id":"4","last_reported":1743977313,"current_range_meters":5600,"station_id":"ce4bhah2rcd13ifvqei0","pricing_plan_id":"cebpf4jnsgd1na2vs0mg"},{"bike_id":"318c6a1c-93f5-4c3d-b8f2-7e47d47bf419","system_id":"levelo_inurba_marseille","lat":43.29636,"lon":5.40592,"is_reserved":false,"is_disabled":false,"rental_uris":{"android":"levelo://app?vid=318c6a1c-93f5-4c3d-b8f2-7e47d47bf419","ios":"levelo://app?vid=318c6a1c-93f5-4c3d-b8f2-7e47d47bf419"},"vehicle_type_id":"4","last_reported":1743977313,"current_range_meters":5600,"station_id":"ce4bh0h2rcd13ifvqd60","pricing_plan_id":"cebpf4jnsgd1na2vs0mg"},{"bike_id":"69f27ac7-c201-4d7b-a41a-066249700815","system_id":"levelo_inurba_marseille","lat":43.241683,"lon":5.363968,"is_reserved":false,"is_disabled":true,"rental_uris":{"android":"levelo://app?vid=69f27ac7-c201-4d7b-a41a-066249700815","ios":"levelo://app?vid=69f27ac7-c201-4d7b-a41a-066249700815"},"vehicle_type_id":"4","last_reported":1743977313,"current_range_meters":6000,"station_id":"ce4bh412rcd13ifvqdr0","pricing_plan_id":"cebpf4jnsgd1na2vs0mg"},{"bike_id":"dcac721a-9d8d-41b9-8ada-8ba2d59d4a35","system_id":"levelo_inurba_marseille","lat":43.28158,"lon":5.42644,"is_reserved":false,"is_disabled":false,"rental_uris":{"android":"levelo://app?vid=dcac721a-9d8d-41b9-8ada-8ba2d59d4a35","ios":"levelo://app?vid=dcac721a-9d8d-41b9-8ada-8ba2d59d4a35"},"vehicle_type_id":"4","last_reported":1743977313,"current_range_meters":5600,"station_id":"ce4bhnh2rcd13ifvqgug","pricing_plan_id":"cebpf4jnsgd1na2vs0mg"},{"bike_id":"e4b309fe-305e-4fa7-8291-fbce8f668a31","system_id":"levelo_inurba_marseille","lat":43.28044,"lon":5.36935,"is_reserved":false,"is_disabled":false,"rental_uris":{"android":"levelo://app?vid=e4b309fe-305e-4fa7-8291-fbce8f668a31","ios":"levelo://app?vid=e4b309fe-305e-4fa7-8291-fbce8f668a31"},"vehicle_type_id":"4","last_reported":1743977313,"current_range_meters":6000,"station_id":"ce4bha12rcd13ifvqef0","pricing_plan_id":"cebpf4jnsgd1na2vs0mg"},{"bike_id":"fe5a8fe2-2dca-4c58-ac7b-e61e0bced93c","system_id":"levelo_inurba_marseille","lat":43.281537,"lon":5.42653,"is_reserved":false,"is_disabled":false,"rental_uris":{"android":"levelo://app?vid=fe5a8fe2-2dca-4c58-ac7b-e61e0bced93c","ios":"levelo://app?vid=fe5a8fe2-2dca-4c58-ac7b-e61e0bced93c"},"vehicle_type_id":"4","last_reported":1743977313,"current_range_meters":6000,"station_id":"ce4bhnh2rcd13ifvqgug","pricing_plan_id":"cebpf4jnsgd1na2vs0mg"},{"bike_id":"28da97e0-65a4-47aa-8f0c-03516882906d","system_id":"levelo_inurba_marseille","lat":43.23196,"lon":5.39978,"is_reserved":false,"is_disabled":false,"rental_uris":{"android":"levelo://app?vid=28da97e0-65a4-47aa-8f0c-03516882906d","ios":"levelo://app?vid=28da97e0-65a4-47aa-8f0c-03516882906d"},"vehicle_type_id":"4","last_reported":1743977313,"current_range_meters":6000,"station_id":"ce4bhn12rcd13ifvqgqg","pricing_plan_id":"cebpf4jnsgd1na2vs0mg"},{"bike_id":"1c8f9443-fa95-4995-992b-86c893c09786","system_id":"levelo_inurba_marseille","lat":43.25094,"lon":5.39503,"is_reserved":false,"is_disabled":false,"rental_uris":{"android":"levelo://app?vid=1c8f9443-fa95-4995-992b-86c893c09786","ios":"levelo://app?vid=1c8f9443-fa95-4995-992b-86c893c09786"},"vehicle_type_id":"4","last_reported":1743977313,"current_range_meters":6400,"station_id":"ce4bhm12rcd13ifvqgkg","pricing_plan_id":"cebpf4jnsgd1na2vs0mg"},{"bike_id":"a80ef87b-031e-47c4-ac01-eaa8b898f027","system_id":"levelo_inurba_marseille","lat":43.28698,"lon":5.37406,"is_reserved":false,"is_disabled":false,"rental_uris":{"android":"levelo://app?vid=a80ef87b-031e-47c4-ac01-eaa8b898f027","ios":"levelo://app?vid=a80ef87b-031e-47c4-ac01-eaa8b898f027"},"vehicle_type_id":"4","last_reported":1743977313,"current_range_meters":6400,"station_id":"ce4bh3p2rcd13ifvqdq0","pricing_plan_id":"cebpf4jnsgd1na2vs0mg"},{"bike_id":"9378cab7-1ef7-47d6-af28-c6473192be1a","system_id":"levelo_inurba_marseille","lat":43.31181,"lon":5.40778,"is_reserved":false,"is_disabled":false,"rental_uris":{"android":"levelo://app?vid=9378cab7-1ef7-47d6-af28-c6473192be1a","ios":"levelo://app?vid=9378cab7-1ef7-47d6-af28-c6473192be1a"},"vehicle_type_id":"4","last_reported":1743977313,"current_range_meters":6400,"station_id":"","pricing_plan_id":"cebpf4jnsgd1na2vs0mg"},{"bike_id":"bc8d224d-9d48-4c6e-bddd-1db709d01d2b","system_id":"levelo_inurba_marseille","lat":43.29594,"lon":5.38105,"is_reserved":false,"is_disabled":false,"rental_uris":{"android":"levelo://app?vid=bc8d224d-9d48-4c6e-bddd-1db709d01d2b","ios":"levelo://app?vid=bc8d224d-9d48-4c6e-bddd-1db709d01d2b"},"vehicle_type_id":"4","last_reported":1743977313,"current_range_meters":6400,"station_id":"ce4bgl12rcd13ifvqbo0","pricing_plan_id":"cebpf4jnsgd1na2vs0mg"},{"bike_id":"e76f459b-2ecf-40ba-b9c6-470f869461a8","system_id":"levelo_inurba_marseille","lat":43.30192,"lon":5.39452,"is_reserved":false,"is_disabled":false,"rental_uris":{"android":"levelo://app?vid=e76f459b-2ecf-40ba-b9c6-470f869461a8","ios":"levelo://app?vid=e76f459b-2ecf-40ba-b9c6-470f869461a8"},"vehicle_type_id":"4","last_reported":1743977313,"current_range_meters":6400,"station_id":"ce4bh0p2rcd13ifvqd70","pricing_plan_id":"cebpf4jnsgd1na2vs0mg"},{"bike_id":"6023584e-870f-454d-88b0-bf3dc0e21fbe","system_id":"levelo_inurba_marseille","lat":43.24405,"lon":5.37062,"is_reserved":false,"is_disabled":true,"rental_uris":{"android":"levelo://app?vid=6023584e-870f-454d-88b0-bf3dc0e21fbe","ios":"levelo://app?vid=6023584e-870f-454d-88b0-bf3dc0e21fbe"},"vehicle_type_id":"4","last_reported":1743977313,"current_range_meters":6400,"station_id":"ce4bhhh2rcd13ifvqfk0","pricing_plan_id":"cebpf4jnsgd1na2vs0mg"},{"bike_id":"10e87617-4fdc-405e-9a34-19a9b8be05ea","system_id":"levelo_inurba_marseille","lat":43.30325,"lon":5.40434,"is_reserved":false,"is_disabled":false,"rental_uris":{"android":"levelo://app?vid=10e87617-4fdc-405e-9a34-19a9b8be05ea","ios":"levelo://app?vid=10e87617-4fdc-405e-9a34-19a9b8be05ea"},"vehicle_type_id":"4","last_reported":1743977313,"current_range_meters":6800,"station_id":"ce4bh012rcd13ifvqd10","pricing_plan_id":"cebpf4jnsgd1na2vs0mg"},{"bike_id":"e3c5f122-d61d-4b7a-b30e-709a3dbe5e46","system_id":"levelo_inurba_marseille","lat":43.324,"lon":5.39014,"is_reserved":false,"is_disabled":false,"rental_uris":{"android":"levelo://app?vid=e3c5f122-d61d-4b7a-b30e-709a3dbe5e46","ios":"levelo://app?vid=e3c5f122-d61d-4b7a-b30e-709a3dbe5e46"},"vehicle_type_id":"4","last_reported":1743977313,"current_range_meters":6800,"station_id":"","pricing_plan_id":"cebpf4jnsgd1na2vs0mg"},{"bike_id":"27821e84-165a-43a9-8081-fe8b179ef11c","system_id":"levelo_inurba_marseille","lat":43.28157,"lon":5.4264,"is_reserved":false,"is_disabled":false,"rental_uris":{"android":"levelo://app?vid=27821e84-165a-43a9-8081-fe8b179ef11c","ios":"levelo://app?vid=27821e84-165a-43a9-8081-fe8b179ef11c"},"vehicle_type_id":"4","last_reported":1743977313,"current_range_meters":6800,"station_id":"ce4bhnh2rcd13ifvqgug","pricing_plan_id":"cebpf4jnsgd1na2vs0mg"},{"bike_id":"81c96b84-65ab-4a6b-8613-1331b2def8c9","system_id":"levelo_inurba_marseille","lat":43.29028,"lon":5.38637,"is_reserved":false,"is_disabled":false,"rental_uris":{"android":"levelo://app?vid=81c96b84-65ab-4a6b-8613-1331b2def8c9","ios":"levelo://app?vid=81c96b84-65ab-4a6b-8613-1331b2def8c9"},"vehicle_type_id":"4","last_reported":1743977313,"current_range_meters":6800,"station_id":"ce4bh4p2rcd13ifvqe0g","pricing_plan_id":"cebpf4jnsgd1na2vs0mg"},{"bike_id":"1f079019-0e48-41f1-a95e-55d193284b22","system_id":"levelo_inurba_marseille","lat":43.25102,"lon":5.40334,"is_reserved":false,"is_disabled":false,"rental_uris":{"android":"levelo://app?vid=1f079019-0e48-41f1-a95e-55d193284b22","ios":"levelo://app?vid=1f079019-0e48-41f1-a95e-55d193284b22"},"vehicle_type_id":"4","last_reported":1743977313,"current_range_meters":6800,"station_id":"ce4bhlh2rcd13ifvqgig","pricing_plan_id":"cebpf4jnsgd1na2vs0mg"},{"bike_id":"37516906-aae4-4bd4-8bbb-398ddf528a84","system_id":"levelo_inurba_marseille","lat":43.29603,"lon":5.38108,"is_reserved":false,"is_disabled":false,"rental_uris":{"android":"levelo://app?vid=37516906-aae4-4bd4-8bbb-398ddf528a84","ios":"levelo://app?vid=37516906-aae4-4bd4-8bbb-398ddf528a84"},"vehicle_type_id":"4","last_reported":1743977313,"current_range_meters":6800,"station_id":"ce4bgl12rcd13ifvqbo0","pricing_plan_id":"cebpf4jnsgd1na2vs0mg"},{"bike_id":"71862d26-a6be-49f6-bece-28aa8b420bb9","system_id":"levelo_inurba_marseille","lat":43.28846,"lon":5.39324,"is_reserved":false,"is_disabled":false,"rental_uris":{"android":"levelo://app?vid=71862d26-a6be-49f6-bece-28aa8b420bb9","ios":"levelo://app?vid=71862d26-a6be-49f6-bece-28aa8b420bb9"},"vehicle_type_id":"4","last_reported":1743977313,"current_range_meters":6800,"station_id":"ce4bh2p2rcd13ifvqdi0","pricing_plan_id":"cebpf4jnsgd1na2vs0mg"},{"bike_id":"69f25506-685e-4847-9621-f4fa78a4dc47","system_id":"levelo_inurba_marseille","lat":43.24338,"lon":5.36906,"is_reserved":false,"is_disabled":false,"rental_uris":{"android":"levelo://app?vid=69f25506-685e-4847-9621-f4fa78a4dc47","ios":"levelo://app?vid=69f25506-685e-4847-9621-f4fa78a4dc47"},"vehicle_type_id":"4","last_reported":1743977313,"current_range_meters":6800,"station_id":"","pricing_plan_id":"cebpf4jnsgd1na2vs0mg"},{"bike_id":"46aaf249-f504-46ae-93ce-7245839b78b5","system_id":"levelo_inurba_marseille","lat":43.25745,"lon":5.38658,"is_reserved":false,"is_disabled":true,"rental_uris":{"android":"levelo://app?vid=46aaf249-f504-46ae-93ce-7245839b78b5","ios":"levelo://app?vid=46aaf249-f504-46ae-93ce-7245839b78b5"},"vehicle_type_id":"4","last_reported":1743977313,"current_range_meters":7200,"station_id":"","pricing_plan_id":"cebpf4jnsgd1na2vs0mg"},{"bike_id":"511b937d-5911-4748-81b9-88b453f6c8cd","system_id":"levelo_inurba_marseille","lat":43.25725,"lon":5.41103,"is_reserved":false,"is_disabled":false,"rental_uris":{"android":"levelo://app?vid=511b937d-5911-4748-81b9-88b453f6c8cd","ios":"levelo://app?vid=511b937d-5911-4748-81b9-88b453f6c8cd"},"vehicle_type_id":"4","last_reported":1743977313,"current_range_meters":7200,"station_id":"ce4bhkp2rcd13ifvqgd0","pricing_plan_id":"cebpf4jnsgd1na2vs0mg"},{"bike_id":"dfb58d92-0764-4b57-89cb-6d1565f14344","system_id":"levelo_inurba_marseille","lat":43.30928,"lon":5.40149,"is_reserved":false,"is_disabled":true,"rental_uris":{"android":"levelo://app?vid=dfb58d92-0764-4b57-89cb-6d1565f14344","ios":"levelo://app?vid=dfb58d92-0764-4b57-89cb-6d1565f14344"},"vehicle_type_id":"4","last_reported":1743977313,"current_range_meters":7200,"station_id":"ce4bgvp2rcd13ifvqct0","pricing_plan_id":"cebpf4jnsgd1na2vs0mg"},{"bike_id":"af939ae6-411e-4bce-8a94-56034b6e5e2e","system_id":"levelo_inurba_marseille","lat":43.25114,"lon":5.40323,"is_reserved":false,"is_disabled":false,"rental_uris":{"android":"levelo://app?vid=af939ae6-411e-4bce-8a94-56034b6e5e2e","ios":"levelo://app?vid=af939ae6-411e-4bce-8a94-56034b6e5e2e"},"vehicle_type_id":"4","last_reported":1743977313,"current_range_meters":7200,"station_id":"ce4bhlh2rcd13ifvqgig","pricing_plan_id":"cebpf4jnsgd1na2vs0mg"},{"bike_id":"6f674825-e642-4e93-88f5-61dce0bc013d","system_id":"levelo_inurba_marseille","lat":43.29877,"lon":5.39736,"is_reserved":false,"is_disabled":false,"rental_uris":{"android":"levelo://app?vid=6f674825-e642-4e93-88f5-61dce0bc013d","ios":"levelo://app?vid=6f674825-e642-4e93-88f5-61dce0bc013d"},"vehicle_type_id":"4","last_reported":1743977313,"current_range_meters":7200,"station_id":"ce4bh0h2rcd13ifvqd50","pricing_plan_id":"cebpf4jnsgd1na2vs0mg"},{"bike_id":"3b25346c-c38e-455c-9a4c-1b098a27efbd","system_id":"levelo_inurba_marseille","lat":43.26234,"lon":5.38955,"is_reserved":false,"is_disabled":false,"rental_uris":{"android":"levelo://app?vid=3b25346c-c38e-455c-9a4c-1b098a27efbd","ios":"levelo://app?vid=3b25346c-c38e-455c-9a4c-1b098a27efbd"},"vehicle_type_id":"4","last_reported":1743977313,"current_range_meters":8000,"station_id":"","pricing_plan_id":"cebpf4jnsgd1na2vs0mg"},{"bike_id":"09764cee-8724-44c1-b501-307abe5b537a","system_id":"levelo_inurba_marseille","lat":43.32102,"lon":5.36791,"is_reserved":false,"is_disabled":false,"rental_uris":{"android":"levelo://app?vid=09764cee-8724-44c1-b501-307abe5b537a","ios":"levelo://app?vid=09764cee-8724-44c1-b501-307abe5b537a"},"vehicle_type_id":"4","last_reported":1743977313,"current_range_meters":8000,"station_id":"ce4bhrh2rcd13ifvqhug","pricing_plan_id":"cebpf4jnsgd1na2vs0mg"},{"bike_id":"17f01dc5-126d-4aa0-a1d5-e1e7697bb6b1","system_id":"levelo_inurba_marseille","lat":43.29582,"lon":5.39983,"is_reserved":false,"is_disabled":false,"rental_uris":{"android":"levelo://app?vid=17f01dc5-126d-4aa0-a1d5-e1e7697bb6b1","ios":"levelo://app?vid=17f01dc5-126d-4aa0-a1d5-e1e7697bb6b1"},"vehicle_type_id":"4","last_reported":1743977313,"current_range_meters":8000,"station_id":"ce4bh312rcd13ifvqdj0","pricing_plan_id":"cebpf4jnsgd1na2vs0mg"},{"bike_id":"21b1f18d-a4a5-4bd1-a175-e258738e7bf3","system_id":"levelo_inurba_marseille","lat":43.29569,"lon":5.39986,"is_reserved":false,"is_disabled":false,"rental_uris":{"android":"levelo://app?vid=21b1f18d-a4a5-4bd1-a175-e258738e7bf3","ios":"levelo://app?vid=21b1f18d-a4a5-4bd1-a175-e258738e7bf3"},"vehicle_type_id":"4","last_reported":1743977313,"current_range_meters":7200,"station_id":"ce4bh312rcd13ifvqdj0","pricing_plan_id":"cebpf4jnsgd1na2vs0mg"},{"bike_id":"a682add7-90f6-4f21-a237-5c2e46b6894b","system_id":"levelo_inurba_marseille","lat":43.29746,"lon":5.37672,"is_reserved":false,"is_disabled":false,"rental_uris":{"android":"levelo://app?vid=a682add7-90f6-4f21-a237-5c2e46b6894b","ios":"levelo://app?vid=a682add7-90f6-4f21-a237-5c2e46b6894b"},"vehicle_type_id":"4","last_reported":1743977313,"current_range_meters":8000,"station_id":"ce4bgkh2rcd13ifvqbl0","pricing_plan_id":"cebpf4jnsgd1na2vs0mg"},{"bike_id":"b571988e-06c6-428e-b40b-1a7a62138118","system_id":"levelo_inurba_marseille","lat":43.28656,"lon":5.386754,"is_reserved":false,"is_disabled":false,"rental_uris":{"android":"levelo://app?vid=b571988e-06c6-428e-b40b-1a7a62138118","ios":"levelo://app?vid=b571988e-06c6-428e-b40b-1a7a62138118"},"vehicle_type_id":"4","last_reported":1743977313,"current_range_meters":8000,"station_id":"ce4bh292rcd13ifvqdf0","pricing_plan_id":"cebpf4jnsgd1na2vs0mg"},{"bike_id":"db171f88-7551-431c-b6b6-144e2672c137","system_id":"levelo_inurba_marseille","lat":43.28797,"lon":5.39279,"is_reserved":false,"is_disabled":false,"rental_uris":{"android":"levelo://app?vid=db171f88-7551-431c-b6b6-144e2672c137","ios":"levelo://app?vid=db171f88-7551-431c-b6b6-144e2672c137"},"vehicle_type_id":"4","last_reported":1743977313,"current_range_meters":8000,"station_id":"","pricing_plan_id":"cebpf4jnsgd1na2vs0mg"},{"bike_id":"8a2b7e90-b473-4636-883d-6ecc77c1926c","system_id":"levelo_inurba_marseille","lat":43.30312,"lon":5.36893,"is_reserved":false,"is_disabled":false,"rental_uris":{"android":"levelo://app?vid=8a2b7e90-b473-4636-883d-6ecc77c1926c","ios":"levelo://app?vid=8a2b7e90-b473-4636-883d-6ecc77c1926c"},"vehicle_type_id":"4","last_reported":1743977313,"current_range_meters":8000,"station_id":"ce4bgqh2rcd13ifvqc5g","pricing_plan_id":"cebpf4jnsgd1na2vs0mg"},{"bike_id":"9f29a6c0-c118-47c7-ac7b-18952a20af3f","system_id":"levelo_inurba_marseille","lat":43.30603,"lon":5.39352,"is_reserved":false,"is_disabled":false,"rental_uris":{"android":"levelo://app?vid=9f29a6c0-c118-47c7-ac7b-18952a20af3f","ios":"levelo://app?vid=9f29a6c0-c118-47c7-ac7b-18952a20af3f"},"vehicle_type_id":"4","last_reported":1743977313,"current_range_meters":8400,"station_id":"ce4bh0p2rcd13ifvqd80","pricing_plan_id":"cebpf4jnsgd1na2vs0mg"},{"bike_id":"5a0662c3-0853-4343-9435-be0c1f0d88b8","system_id":"levelo_inurba_marseille","lat":43.281642,"lon":5.42644,"is_reserved":false,"is_disabled":false,"rental_uris":{"android":"levelo://app?vid=5a0662c3-0853-4343-9435-be0c1f0d88b8","ios":"levelo://app?vid=5a0662c3-0853-4343-9435-be0c1f0d88b8"},"vehicle_type_id":"4","last_reported":1743977313,"current_range_meters":8400,"station_id":"ce4bhnh2rcd13ifvqgug","pricing_plan_id":"cebpf4jnsgd1na2vs0mg"},{"bike_id":"823e71e5-488a-42c8-b7df-9256c147647c","system_id":"levelo_inurba_marseille","lat":43.31272,"lon":5.40166,"is_reserved":false,"is_disabled":false,"rental_uris":{"android":"levelo://app?vid=823e71e5-488a-42c8-b7df-9256c147647c","ios":"levelo://app?vid=823e71e5-488a-42c8-b7df-9256c147647c"},"vehicle_type_id":"4","last_reported":1743977313,"current_range_meters":8400,"station_id":"ce4bh092rcd13ifvqd30","pricing_plan_id":"cebpf4jnsgd1na2vs0mg"},{"bike_id":"16a8d517-fb77-4c95-8f2a-da61b8112af7","system_id":"levelo_inurba_marseille","lat":43.3171,"lon":5.43704,"is_reserved":false,"is_disabled":false,"rental_uris":{"android":"levelo://app?vid=16a8d517-fb77-4c95-8f2a-da61b8112af7","ios":"levelo://app?vid=16a8d517-fb77-4c95-8f2a-da61b8112af7"},"vehicle_type_id":"4","last_reported":1743977313,"current_range_meters":8400,"station_id":"ce4bhp92rcd13ifvqhcg","pricing_plan_id":"cebpf4jnsgd1na2vs0mg"},{"bike_id":"c603aa72-bdd7-43f2-923e-48dc30824a41","system_id":"levelo_inurba_marseille","lat":43.29248,"lon":5.40909,"is_reserved":false,"is_disabled":false,"rental_uris":{"android":"levelo://app?vid=c603aa72-bdd7-43f2-923e-48dc30824a41","ios":"levelo://app?vid=c603aa72-bdd7-43f2-923e-48dc30824a41"},"vehicle_type_id":"4","last_reported":1743977313,"current_range_meters":8400,"station_id":"ce4bh192rcd13ifvqdc0","pricing_plan_id":"cebpf4jnsgd1na2vs0mg"},{"bike_id":"4071799e-3548-46e6-ae37-92a949eaa4bc","system_id":"levelo_inurba_marseille","lat":43.31754,"lon":5.39014,"is_reserved":false,"is_disabled":false,"rental_uris":{"android":"levelo://app?vid=4071799e-3548-46e6-ae37-92a949eaa4bc","ios":"levelo://app?vid=4071799e-3548-46e6-ae37-92a949eaa4bc"},"vehicle_type_id":"4","last_reported":1743977313,"current_range_meters":8400,"station_id":"ce4bhqp2rcd13ifvqhng","pricing_plan_id":"cebpf4jnsgd1na2vs0mg"},{"bike_id":"dcbfff60-67f1-4400-b0ab-412810075205","system_id":"levelo_inurba_marseille","lat":43.265593,"lon":5.372913,"is_reserved":false,"is_disabled":false,"rental_uris":{"android":"levelo://app?vid=dcbfff60-67f1-4400-b0ab-412810075205","ios":"levelo://app?vid=dcbfff60-67f1-4400-b0ab-412810075205"},"vehicle_type_id":"4","last_reported":1743977313,"current_range_meters":8400,"station_id":"ce4bhg12rcd13ifvqf70","pricing_plan_id":"cebpf4jnsgd1na2vs0mg"},{"bike_id":"607bc019-83aa-4c5f-9a00-7697e5e1f6b5","system_id":"levelo_inurba_marseille","lat":43.31278,"lon":5.40155,"is_reserved":false,"is_disabled":false,"rental_uris":{"android":"levelo://app?vid=607bc019-83aa-4c5f-9a00-7697e5e1f6b5","ios":"levelo://app?vid=607bc019-83aa-4c5f-9a00-7697e5e1f6b5"},"vehicle_type_id":"4","last_reported":1743977313,"current_range_meters":8400,"station_id":"ce4bh092rcd13ifvqd30","pricing_plan_id":"cebpf4jnsgd1na2vs0mg"},{"bike_id":"e2338ca7-448d-47f9-8823-72554d024c69","system_id":"levelo_inurba_marseille","lat":43.28932,"lon":5.36641,"is_reserved":false,"is_disabled":false,"rental_uris":{"android":"levelo://app?vid=e2338ca7-448d-47f9-8823-72554d024c69","ios":"levelo://app?vid=e2338ca7-448d-47f9-8823-72554d024c69"},"vehicle_type_id":"4","last_reported":1743977313,"current_range_meters":8400,"station_id":"ce4bhap2rcd13ifvqek0","pricing_plan_id":"cebpf4jnsgd1na2vs0mg"},{"bike_id":"084f6ccc-590d-4452-9786-d8e5edb81906","system_id":"levelo_inurba_marseille","lat":43.29799,"lon":5.40407,"is_reserved":false,"is_disabled":false,"rental_uris":{"android":"levelo://app?vid=084f6ccc-590d-4452-9786-d8e5edb81906","ios":"levelo://app?vid=084f6ccc-590d-4452-9786-d8e5edb81906"},"vehicle_type_id":"4","last_reported":1743977313,"current_range_meters":8400,"station_id":"ce4bh112rcd13ifvqd90","pricing_plan_id":"cebpf4jnsgd1na2vs0mg"},{"bike_id":"879c15b8-249d-4ac3-837b-467979be949e","system_id":"levelo_inurba_marseille","lat":43.23316,"lon":5.36161,"is_reserved":false,"is_disabled":false,"rental_uris":{"android":"levelo://app?vid=879c15b8-249d-4ac3-837b-467979be949e","ios":"levelo://app?vid=879c15b8-249d-4ac3-837b-467979be949e"},"vehicle_type_id":"4","last_reported":1743977313,"current_range_meters":8400,"station_id":"","pricing_plan_id":"cebpf4jnsgd1na2vs0mg"},{"bike_id":"dfe033e5-eb50-4610-85ee-430cd4939587","system_id":"levelo_inurba_marseille","lat":43.27606,"lon":5.36118,"is_reserved":false,"is_disabled":true,"rental_uris":{"android":"levelo://app?vid=dfe033e5-eb50-4610-85ee-430cd4939587","ios":"levelo://app?vid=dfe033e5-eb50-4610-85ee-430cd4939587"},"vehicle_type_id":"4","last_reported":1743977313,"current_range_meters":8400,"station_id":"ce4bgj92rcd13ifvqbe0","pricing_plan_id":"cebpf4jnsgd1na2vs0mg"},{"bike_id":"12e43439-f997-44cc-917b-b7441c453179","system_id":"levelo_inurba_marseille","lat":43.29557,"lon":5.42261,"is_reserved":false,"is_disabled":false,"rental_uris":{"android":"levelo://app?vid=12e43439-f997-44cc-917b-b7441c453179","ios":"levelo://app?vid=12e43439-f997-44cc-917b-b7441c453179"},"vehicle_type_id":"4","last_reported":1743977313,"current_range_meters":8400,"station_id":"ce4bhph2rcd13ifvqhdg","pricing_plan_id":"cebpf4jnsgd1na2vs0mg"},{"bike_id":"ef64b64b-ba45-4f74-b996-87395178230b","system_id":"levelo_inurba_marseille","lat":43.28104,"lon":5.37827,"is_reserved":false,"is_disabled":false,"rental_uris":{"android":"levelo://app?vid=ef64b64b-ba45-4f74-b996-87395178230b","ios":"levelo://app?vid=ef64b64b-ba45-4f74-b996-87395178230b"},"vehicle_type_id":"4","last_reported":1743977313,"current_range_meters":8400,"station_id":"ce4bha12rcd13ifvqee0","pricing_plan_id":"cebpf4jnsgd1na2vs0mg"},{"bike_id":"1d6f3057-f8f7-4009-89c3-a3edbfb45073","system_id":"levelo_inurba_marseille","lat":43.28146,"lon":5.4264,"is_reserved":false,"is_disabled":false,"rental_uris":{"android":"levelo://app?vid=1d6f3057-f8f7-4009-89c3-a3edbfb45073","ios":"levelo://app?vid=1d6f3057-f8f7-4009-89c3-a3edbfb45073"},"vehicle_type_id":"4","last_reported":1743977313,"current_range_meters":8800,"station_id":"ce4bhnh2rcd13ifvqgug","pricing_plan_id":"cebpf4jnsgd1na2vs0mg"},{"bike_id":"a3f88b92-3d02-4fed-8b12-0e7732d8ba6f","system_id":"levelo_inurba_marseille","lat":43.3031,"lon":5.36886,"is_reserved":false,"is_disabled":false,"rental_uris":{"android":"levelo://app?vid=a3f88b92-3d02-4fed-8b12-0e7732d8ba6f","ios":"levelo://app?vid=a3f88b92-3d02-4fed-8b12-0e7732d8ba6f"},"vehicle_type_id":"4","last_reported":1743977313,"current_range_meters":8800,"station_id":"ce4bgqh2rcd13ifvqc5g","pricing_plan_id":"cebpf4jnsgd1na2vs0mg"},{"bike_id":"00393ee2-317d-4e98-a30d-fd25773ef49f","system_id":"levelo_inurba_marseille","lat":43.35233,"lon":5.35796,"is_reserved":false,"is_disabled":false,"rental_uris":{"android":"levelo://app?vid=00393ee2-317d-4e98-a30d-fd25773ef49f","ios":"levelo://app?vid=00393ee2-317d-4e98-a30d-fd25773ef49f"},"vehicle_type_id":"4","last_reported":1743977313,"current_range_meters":8800,"station_id":"","pricing_plan_id":"cebpf4jnsgd1na2vs0mg"},{"bike_id":"5e96b480-0943-41ff-bc95-79d78b1301a2","system_id":"levelo_inurba_marseille","lat":43.27532,"lon":5.42419,"is_reserved":false,"is_disabled":false,"rental_uris":{"android":"levelo://app?vid=5e96b480-0943-41ff-bc95-79d78b1301a2","ios":"levelo://app?vid=5e96b480-0943-41ff-bc95-79d78b1301a2"},"vehicle_type_id":"4","last_reported":1743977313,"current_range_meters":8800,"station_id":"ce4bhn92rcd13ifvqgrg","pricing_plan_id":"cebpf4jnsgd1na2vs0mg"},{"bike_id":"7e998a0c-eed3-46de-aa53-8ecfbd4eddbb","system_id":"levelo_inurba_marseille","lat":43.23196,"lon":5.35552,"is_reserved":false,"is_disabled":true,"rental_uris":{"android":"levelo://app?vid=7e998a0c-eed3-46de-aa53-8ecfbd4eddbb","ios":"levelo://app?vid=7e998a0c-eed3-46de-aa53-8ecfbd4eddbb"},"vehicle_type_id":"4","last_reported":1743977313,"current_range_meters":8800,"station_id":"ce4bhu92rcd13ifvqi70","pricing_plan_id":"cebpf4jnsgd1na2vs0mg"},{"bike_id":"470e80a4-55ac-4bb8-b8f3-5c1ac2837550","system_id":"levelo_inurba_marseille","lat":43.29788,"lon":5.39342,"is_reserved":false,"is_disabled":false,"rental_uris":{"android":"levelo://app?vid=470e80a4-55ac-4bb8-b8f3-5c1ac2837550","ios":"levelo://app?vid=470e80a4-55ac-4bb8-b8f3-5c1ac2837550"},"vehicle_type_id":"4","last_reported":1743977313,"current_range_meters":8800,"station_id":"chh1huq6cuj3fo74tm60","pricing_plan_id":"cebpf4jnsgd1na2vs0mg"},{"bike_id":"d49bb994-e832-4d05-8891-377cbe7ecf37","system_id":"levelo_inurba_marseille","lat":43.30784,"lon":5.37656,"is_reserved":false,"is_disabled":false,"rental_uris":{"android":"levelo://app?vid=d49bb994-e832-4d05-8891-377cbe7ecf37","ios":"levelo://app?vid=d49bb994-e832-4d05-8891-377cbe7ecf37"},"vehicle_type_id":"4","last_reported":1743977313,"current_range_meters":8800,"station_id":"ce4bgv92rcd13ifvqcq0","pricing_plan_id":"cebpf4jnsgd1na2vs0mg"},{"bike_id":"4a6d215a-3aea-4db3-8e4e-53b4d21fc94f","system_id":"levelo_inurba_marseille","lat":43.299604,"lon":5.413126,"is_reserved":false,"is_disabled":true,"rental_uris":{"android":"levelo://app?vid=4a6d215a-3aea-4db3-8e4e-53b4d21fc94f","ios":"levelo://app?vid=4a6d215a-3aea-4db3-8e4e-53b4d21fc94f"},"vehicle_type_id":"4","last_reported":1743977313,"current_range_meters":8800,"station_id":"ce4bhp12rcd13ifvqh9g","pricing_plan_id":"cebpf4jnsgd1na2vs0mg"},{"bike_id":"eb01703b-72a2-48bb-9357-f6c722823679","system_id":"levelo_inurba_marseille","lat":43.29706,"lon":5.36609,"is_reserved":false,"is_disabled":false,"rental_uris":{"android":"levelo://app?vid=eb01703b-72a2-48bb-9357-f6c722823679","ios":"levelo://app?vid=eb01703b-72a2-48bb-9357-f6c722823679"},"vehicle_type_id":"4","last_reported":1743977313,"current_range_meters":8800,"station_id":"ce4bgn12rcd13ifvqbt0","pricing_plan_id":"cebpf4jnsgd1na2vs0mg"},{"bike_id":"63e6c75d-bf0d-423b-8ef8-45d8dde23055","system_id":"levelo_inurba_marseille","lat":43.28691,"lon":5.37389,"is_reserved":false,"is_disabled":false,"rental_uris":{"android":"levelo://app?vid=63e6c75d-bf0d-423b-8ef8-45d8dde23055","ios":"levelo://app?vid=63e6c75d-bf0d-423b-8ef8-45d8dde23055"},"vehicle_type_id":"4","last_reported":1743977313,"current_range_meters":8800,"station_id":"ce4bh3p2rcd13ifvqdq0","pricing_plan_id":"cebpf4jnsgd1na2vs0mg"},{"bike_id":"d408c9dd-eb34-4ee2-8457-e973282fef82","system_id":"levelo_inurba_marseille","lat":43.3093,"lon":5.40143,"is_reserved":false,"is_disabled":false,"rental_uris":{"android":"levelo://app?vid=d408c9dd-eb34-4ee2-8457-e973282fef82","ios":"levelo://app?vid=d408c9dd-eb34-4ee2-8457-e973282fef82"},"vehicle_type_id":"4","last_reported":1743977313,"current_range_meters":9200,"station_id":"ce4bgvp2rcd13ifvqct0","pricing_plan_id":"cebpf4jnsgd1na2vs0mg"},{"bike_id":"abde5d83-9b30-4b2f-8a88-f914ca452329","system_id":"levelo_inurba_marseille","lat":43.31232,"lon":5.38692,"is_reserved":false,"is_disabled":false,"rental_uris":{"android":"levelo://app?vid=abde5d83-9b30-4b2f-8a88-f914ca452329","ios":"levelo://app?vid=abde5d83-9b30-4b2f-8a88-f914ca452329"},"vehicle_type_id":"4","last_reported":1743977313,"current_range_meters":9200,"station_id":"","pricing_plan_id":"cebpf4jnsgd1na2vs0mg"},{"bike_id":"9856ab6d-0986-4c2b-8fe8-f60a49132fe9","system_id":"levelo_inurba_marseille","lat":43.24542,"lon":5.39524,"is_reserved":false,"is_disabled":false,"rental_uris":{"android":"levelo://app?vid=9856ab6d-0986-4c2b-8fe8-f60a49132fe9","ios":"levelo://app?vid=9856ab6d-0986-4c2b-8fe8-f60a49132fe9"},"vehicle_type_id":"4","last_reported":1743977313,"current_range_meters":9200,"station_id":"ce4bhlp2rcd13ifvqgjg","pricing_plan_id":"cebpf4jnsgd1na2vs0mg"},{"bike_id":"7e114504-c80e-42c2-8dfc-3f805a80c893","system_id":"levelo_inurba_marseille","lat":43.28945,"lon":5.36392,"is_reserved":false,"is_disabled":false,"rental_uris":{"android":"levelo://app?vid=7e114504-c80e-42c2-8dfc-3f805a80c893","ios":"levelo://app?vid=7e114504-c80e-42c2-8dfc-3f805a80c893"},"vehicle_type_id":"4","last_reported":1743977313,"current_range_meters":9200,"station_id":"ce4bhc92rcd13ifvqetg","pricing_plan_id":"cebpf4jnsgd1na2vs0mg"},{"bike_id":"660d99f1-cadb-413d-82ad-e49e35dc1993","system_id":"levelo_inurba_marseille","lat":43.30949,"lon":5.39035,"is_reserved":false,"is_disabled":false,"rental_uris":{"android":"levelo://app?vid=660d99f1-cadb-413d-82ad-e49e35dc1993","ios":"levelo://app?vid=660d99f1-cadb-413d-82ad-e49e35dc1993"},"vehicle_type_id":"4","last_reported":1743977313,"current_range_meters":9200,"station_id":"ce4bgup2rcd13ifvqco0","pricing_plan_id":"cebpf4jnsgd1na2vs0mg"},{"bike_id":"093019e0-55e5-42b1-9c23-9d41c3c990a6","system_id":"levelo_inurba_marseille","lat":43.32013,"lon":5.38132,"is_reserved":false,"is_disabled":false,"rental_uris":{"android":"levelo://app?vid=093019e0-55e5-42b1-9c23-9d41c3c990a6","ios":"levelo://app?vid=093019e0-55e5-42b1-9c23-9d41c3c990a6"},"vehicle_type_id":"4","last_reported":1743977313,"current_range_meters":9200,"station_id":"ce4bhr12rcd13ifvqhpg","pricing_plan_id":"cebpf4jnsgd1na2vs0mg"},{"bike_id":"f56fa8c2-6991-4db5-9b1b-225fe2c50caf","system_id":"levelo_inurba_marseille","lat":43.2816,"lon":5.42652,"is_reserved":false,"is_disabled":false,"rental_uris":{"android":"levelo://app?vid=f56fa8c2-6991-4db5-9b1b-225fe2c50caf","ios":"levelo://app?vid=f56fa8c2-6991-4db5-9b1b-225fe2c50caf"},"vehicle_type_id":"4","last_reported":1743977313,"current_range_meters":9200,"station_id":"ce4bhnh2rcd13ifvqgug","pricing_plan_id":"cebpf4jnsgd1na2vs0mg"},{"bike_id":"aa2c1d8e-94ab-4e7a-825c-945a570d060b","system_id":"levelo_inurba_marseille","lat":43.28664,"lon":5.36382,"is_reserved":false,"is_disabled":false,"rental_uris":{"android":"levelo://app?vid=aa2c1d8e-94ab-4e7a-825c-945a570d060b","ios":"levelo://app?vid=aa2c1d8e-94ab-4e7a-825c-945a570d060b"},"vehicle_type_id":"4","last_reported":1743977313,"current_range_meters":9200,"station_id":"ce4bhah2rcd13ifvqej0","pricing_plan_id":"cebpf4jnsgd1na2vs0mg"},{"bike_id":"6814c7bb-730a-4eed-b22d-55d5da79eaf7","system_id":"levelo_inurba_marseille","lat":43.29271,"lon":5.40125,"is_reserved":false,"is_disabled":false,"rental_uris":{"android":"levelo://app?vid=6814c7bb-730a-4eed-b22d-55d5da79eaf7","ios":"levelo://app?vid=6814c7bb-730a-4eed-b22d-55d5da79eaf7"},"vehicle_type_id":"4","last_reported":1743977313,"current_range_meters":9200,"station_id":"ce4bh312rcd13ifvqdk0","pricing_plan_id":"cebpf4jnsgd1na2vs0mg"},{"bike_id":"d66890eb-a849-4361-8afb-8574c3836f73","system_id":"levelo_inurba_marseille","lat":43.26106,"lon":5.38761,"is_reserved":false,"is_disabled":false,"rental_uris":{"android":"levelo://app?vid=d66890eb-a849-4361-8afb-8574c3836f73","ios":"levelo://app?vid=d66890eb-a849-4361-8afb-8574c3836f73"},"vehicle_type_id":"4","last_reported":1743977313,"current_range_meters":9200,"station_id":"","pricing_plan_id":"cebpf4jnsgd1na2vs0mg"},{"bike_id":"4815b711-7def-4ca4-828f-f82d5b3e3191","system_id":"levelo_inurba_marseille","lat":43.23133,"lon":5.43734,"is_reserved":false,"is_disabled":false,"rental_uris":{"android":"levelo://app?vid=4815b711-7def-4ca4-828f-f82d5b3e3191","ios":"levelo://app?vid=4815b711-7def-4ca4-828f-f82d5b3e3191"},"vehicle_type_id":"4","last_reported":1743977313,"current_range_meters":9200,"station_id":"ce4bhmp2rcd13ifvqgog","pricing_plan_id":"cebpf4jnsgd1na2vs0mg"},{"bike_id":"aa9b59b6-65cb-49e0-b211-3fb1aecd03a8","system_id":"levelo_inurba_marseille","lat":43.2923,"lon":5.36028,"is_reserved":false,"is_disabled":true,"rental_uris":{"android":"levelo://app?vid=aa9b59b6-65cb-49e0-b211-3fb1aecd03a8","ios":"levelo://app?vid=aa9b59b6-65cb-49e0-b211-3fb1aecd03a8"},"vehicle_type_id":"4","last_reported":1743977313,"current_range_meters":9200,"station_id":"ce4bhbh2rcd13ifvqeqg","pricing_plan_id":"cebpf4jnsgd1na2vs0mg"},{"bike_id":"6ec31311-75e1-4828-8a1f-61320d8b8482","system_id":"levelo_inurba_marseille","lat":43.28567,"lon":5.39493,"is_reserved":false,"is_disabled":false,"rental_uris":{"android":"levelo://app?vid=6ec31311-75e1-4828-8a1f-61320d8b8482","ios":"levelo://app?vid=6ec31311-75e1-4828-8a1f-61320d8b8482"},"vehicle_type_id":"4","last_reported":1743977313,"current_range_meters":9200,"station_id":"ce4bh292rcd13ifvqdg0","pricing_plan_id":"cebpf4jnsgd1na2vs0mg"},{"bike_id":"7fd0635d-68ad-4ce6-a52b-daef56987b4b","system_id":"levelo_inurba_marseille","lat":43.3087,"lon":5.38621,"is_reserved":false,"is_disabled":false,"rental_uris":{"android":"levelo://app?vid=7fd0635d-68ad-4ce6-a52b-daef56987b4b","ios":"levelo://app?vid=7fd0635d-68ad-4ce6-a52b-daef56987b4b"},"vehicle_type_id":"4","last_reported":1743977313,"current_range_meters":9200,"station_id":"","pricing_plan_id":"cebpf4jnsgd1na2vs0mg"},{"bike_id":"f471336e-682b-4088-8a45-f07100e98f3a","system_id":"levelo_inurba_marseille","lat":43.30806,"lon":5.38144,"is_reserved":false,"is_disabled":false,"rental_uris":{"android":"levelo://app?vid=f471336e-682b-4088-8a45-f07100e98f3a","ios":"levelo://app?vid=f471336e-682b-4088-8a45-f07100e98f3a"},"vehicle_type_id":"4","last_reported":1743977313,"current_range_meters":9200,"station_id":"ce4bgt12rcd13ifvqce0","pricing_plan_id":"cebpf4jnsgd1na2vs0mg"},{"bike_id":"24d30324-ff56-4dd2-97ae-b491ca16e81b","system_id":"levelo_inurba_marseille","lat":43.286905,"lon":5.37391,"is_reserved":false,"is_disabled":false,"rental_uris":{"android":"levelo://app?vid=24d30324-ff56-4dd2-97ae-b491ca16e81b","ios":"levelo://app?vid=24d30324-ff56-4dd2-97ae-b491ca16e81b"},"vehicle_type_id":"4","last_reported":1743977313,"current_range_meters":9200,"station_id":"ce4bh3p2rcd13ifvqdq0","pricing_plan_id":"cebpf4jnsgd1na2vs0mg"},{"bike_id":"136b6e45-ee21-453e-aa22-e07947db9071","system_id":"levelo_inurba_marseille","lat":43.23166,"lon":5.437,"is_reserved":false,"is_disabled":true,"rental_uris":{"android":"levelo://app?vid=136b6e45-ee21-453e-aa22-e07947db9071","ios":"levelo://app?vid=136b6e45-ee21-453e-aa22-e07947db9071"},"vehicle_type_id":"4","last_reported":1743977313,"current_range_meters":9200,"station_id":"ce4bhmp2rcd13ifvqgog","pricing_plan_id":"cebpf4jnsgd1na2vs0mg"},{"bike_id":"8d65df10-4ae1-48db-a81b-dbb1de62e9d7","system_id":"levelo_inurba_marseille","lat":43.2573,"lon":5.41127,"is_reserved":false,"is_disabled":false,"rental_uris":{"android":"levelo://app?vid=8d65df10-4ae1-48db-a81b-dbb1de62e9d7","ios":"levelo://app?vid=8d65df10-4ae1-48db-a81b-dbb1de62e9d7"},"vehicle_type_id":"4","last_reported":1743977313,"current_range_meters":9600,"station_id":"ce4bhkp2rcd13ifvqgd0","pricing_plan_id":"cebpf4jnsgd1na2vs0mg"},{"bike_id":"e1a3b99f-1191-4a8b-a2a6-2090c643760f","system_id":"levelo_inurba_marseille","lat":43.31263,"lon":5.40164,"is_reserved":false,"is_disabled":false,"rental_uris":{"android":"levelo://app?vid=e1a3b99f-1191-4a8b-a2a6-2090c643760f","ios":"levelo://app?vid=e1a3b99f-1191-4a8b-a2a6-2090c643760f"},"vehicle_type_id":"4","last_reported":1743977313,"current_range_meters":9600,"station_id":"ce4bh092rcd13ifvqd30","pricing_plan_id":"cebpf4jnsgd1na2vs0mg"},{"bike_id":"1266949c-9467-4ff8-bfa0-e172d7be7f64","system_id":"levelo_inurba_marseille","lat":43.31027,"lon":5.36685,"is_reserved":false,"is_disabled":true,"rental_uris":{"android":"levelo://app?vid=1266949c-9467-4ff8-bfa0-e172d7be7f64","ios":"levelo://app?vid=1266949c-9467-4ff8-bfa0-e172d7be7f64"},"vehicle_type_id":"4","last_reported":1743977313,"current_range_meters":9600,"station_id":"","pricing_plan_id":"cebpf4jnsgd1na2vs0mg"},{"bike_id":"590bd0e2-9f1d-4e6f-9e37-05bb0e5ae5dc","system_id":"levelo_inurba_marseille","lat":43.29912,"lon":5.36489,"is_reserved":false,"is_disabled":false,"rental_uris":{"android":"levelo://app?vid=590bd0e2-9f1d-4e6f-9e37-05bb0e5ae5dc","ios":"levelo://app?vid=590bd0e2-9f1d-4e6f-9e37-05bb0e5ae5dc"},"vehicle_type_id":"4","last_reported":1743977313,"current_range_meters":9600,"station_id":"","pricing_plan_id":"cebpf4jnsgd1na2vs0mg"},{"bike_id":"46c28730-414e-47a3-a8fc-36235e0b6fdd","system_id":"levelo_inurba_marseille","lat":43.25734,"lon":5.41109,"is_reserved":false,"is_disabled":false,"rental_uris":{"android":"levelo://app?vid=46c28730-414e-47a3-a8fc-36235e0b6fdd","ios":"levelo://app?vid=46c28730-414e-47a3-a8fc-36235e0b6fdd"},"vehicle_type_id":"4","last_reported":1743977313,"current_range_meters":9600,"station_id":"ce4bhkp2rcd13ifvqgd0","pricing_plan_id":"cebpf4jnsgd1na2vs0mg"},{"bike_id":"aba5e844-f429-4fca-8fbd-34616f5265a2","system_id":"levelo_inurba_marseille","lat":43.28177,"lon":5.42675,"is_reserved":false,"is_disabled":false,"rental_uris":{"android":"levelo://app?vid=aba5e844-f429-4fca-8fbd-34616f5265a2","ios":"levelo://app?vid=aba5e844-f429-4fca-8fbd-34616f5265a2"},"vehicle_type_id":"4","last_reported":1743977313,"current_range_meters":9600,"station_id":"ce4bhnh2rcd13ifvqgug","pricing_plan_id":"cebpf4jnsgd1na2vs0mg"},{"bike_id":"edaccf97-dc5b-4501-9f95-e0fff4b79492","system_id":"levelo_inurba_marseille","lat":43.27974,"lon":5.41644,"is_reserved":false,"is_disabled":false,"rental_uris":{"android":"levelo://app?vid=edaccf97-dc5b-4501-9f95-e0fff4b79492","ios":"levelo://app?vid=edaccf97-dc5b-4501-9f95-e0fff4b79492"},"vehicle_type_id":"4","last_reported":1743977313,"current_range_meters":9600,"station_id":"ce4bho12rcd13ifvqh1g","pricing_plan_id":"cebpf4jnsgd1na2vs0mg"},{"bike_id":"7cd7124c-f6f9-4747-8e0d-27da608c61f7","system_id":"levelo_inurba_marseille","lat":43.30924,"lon":5.40149,"is_reserved":false,"is_disabled":false,"rental_uris":{"android":"levelo://app?vid=7cd7124c-f6f9-4747-8e0d-27da608c61f7","ios":"levelo://app?vid=7cd7124c-f6f9-4747-8e0d-27da608c61f7"},"vehicle_type_id":"4","last_reported":1743977313,"current_range_meters":9600,"station_id":"ce4bgvp2rcd13ifvqct0","pricing_plan_id":"cebpf4jnsgd1na2vs0mg"},{"bike_id":"4e72b6cc-2f74-49e5-88e7-5f974f79cda9","system_id":"levelo_inurba_marseille","lat":43.30323,"lon":5.40442,"is_reserved":false,"is_disabled":false,"rental_uris":{"android":"levelo://app?vid=4e72b6cc-2f74-49e5-88e7-5f974f79cda9","ios":"levelo://app?vid=4e72b6cc-2f74-49e5-88e7-5f974f79cda9"},"vehicle_type_id":"4","last_reported":1743977313,"current_range_meters":9600,"station_id":"ce4bh012rcd13ifvqd10","pricing_plan_id":"cebpf4jnsgd1na2vs0mg"},{"bike_id":"b92a4272-ab89-4a8d-8965-1e0d78a2b47d","system_id":"levelo_inurba_marseille","lat":43.2928,"lon":5.40135,"is_reserved":false,"is_disabled":false,"rental_uris":{"android":"levelo://app?vid=b92a4272-ab89-4a8d-8965-1e0d78a2b47d","ios":"levelo://app?vid=b92a4272-ab89-4a8d-8965-1e0d78a2b47d"},"vehicle_type_id":"4","last_reported":1743977313,"current_range_meters":10000,"station_id":"ce4bh312rcd13ifvqdk0","pricing_plan_id":"cebpf4jnsgd1na2vs0mg"},{"bike_id":"72543552-8188-4373-8db0-bd2f24c14e7b","system_id":"levelo_inurba_marseille","lat":43.32279,"lon":5.37656,"is_reserved":false,"is_disabled":false,"rental_uris":{"android":"levelo://app?vid=72543552-8188-4373-8db0-bd2f24c14e7b","ios":"levelo://app?vid=72543552-8188-4373-8db0-bd2f24c14e7b"},"vehicle_type_id":"4","last_reported":1743977313,"current_range_meters":10000,"station_id":"","pricing_plan_id":"cebpf4jnsgd1na2vs0mg"},{"bike_id":"c3e6d442-6282-4c88-9f90-93d85aff9e76","system_id":"levelo_inurba_marseille","lat":43.28156,"lon":5.42631,"is_reserved":false,"is_disabled":false,"rental_uris":{"android":"levelo://app?vid=c3e6d442-6282-4c88-9f90-93d85aff9e76","ios":"levelo://app?vid=c3e6d442-6282-4c88-9f90-93d85aff9e76"},"vehicle_type_id":"4","last_reported":1743977313,"current_range_meters":10000,"station_id":"ce4bhnh2rcd13ifvqgug","pricing_plan_id":"cebpf4jnsgd1na2vs0mg"},{"bike_id":"2934e2cb-a24e-4858-b0c5-41a565edaee7","system_id":"levelo_inurba_marseille","lat":43.27941,"lon":5.40858,"is_reserved":false,"is_disabled":false,"rental_uris":{"android":"levelo://app?vid=2934e2cb-a24e-4858-b0c5-41a565edaee7","ios":"levelo://app?vid=2934e2cb-a24e-4858-b0c5-41a565edaee7"},"vehicle_type_id":"4","last_reported":1743977313,"current_range_meters":10000,"station_id":"","pricing_plan_id":"cebpf4jnsgd1na2vs0mg"},{"bike_id":"3e9a35d1-de44-4a45-84e7-a27ce0a23b8b","system_id":"levelo_inurba_marseille","lat":43.2799,"lon":5.41659,"is_reserved":false,"is_disabled":false,"rental_uris":{"android":"levelo://app?vid=3e9a35d1-de44-4a45-84e7-a27ce0a23b8b","ios":"levelo://app?vid=3e9a35d1-de44-4a45-84e7-a27ce0a23b8b"},"vehicle_type_id":"4","last_reported":1743977313,"current_range_meters":10000,"station_id":"ce4bho12rcd13ifvqh1g","pricing_plan_id":"cebpf4jnsgd1na2vs0mg"},{"bike_id":"606675f6-9cae-427a-83c9-8a064752327b","system_id":"levelo_inurba_marseille","lat":43.32333,"lon":5.36727,"is_reserved":false,"is_disabled":false,"rental_uris":{"android":"levelo://app?vid=606675f6-9cae-427a-83c9-8a064752327b","ios":"levelo://app?vid=606675f6-9cae-427a-83c9-8a064752327b"},"vehicle_type_id":"4","last_reported":1743977313,"current_range_meters":10000,"station_id":"ce4bhsh2rcd13ifvqi2g","pricing_plan_id":"cebpf4jnsgd1na2vs0mg"},{"bike_id":"19379d7b-b3b4-46ff-9af1-6370bf06ecc3","system_id":"levelo_inurba_marseille","lat":43.29005,"lon":5.3561,"is_reserved":false,"is_disabled":true,"rental_uris":{"android":"levelo://app?vid=19379d7b-b3b4-46ff-9af1-6370bf06ecc3","ios":"levelo://app?vid=19379d7b-b3b4-46ff-9af1-6370bf06ecc3"},"vehicle_type_id":"4","last_reported":1743977313,"current_range_meters":10000,"station_id":"ce4bhb92rcd13ifvqen0","pricing_plan_id":"cebpf4jnsgd1na2vs0mg"},{"bike_id":"d0151f2b-248d-414b-a0f1-5f5d41db74f7","system_id":"levelo_inurba_marseille","lat":43.29552,"lon":5.42276,"is_reserved":false,"is_disabled":false,"rental_uris":{"android":"levelo://app?vid=d0151f2b-248d-414b-a0f1-5f5d41db74f7","ios":"levelo://app?vid=d0151f2b-248d-414b-a0f1-5f5d41db74f7"},"vehicle_type_id":"4","last_reported":1743977313,"current_range_meters":10000,"station_id":"ce4bhph2rcd13ifvqhdg","pricing_plan_id":"cebpf4jnsgd1na2vs0mg"},{"bike_id":"8a38320c-a733-4cf5-8c8e-152497fe8f8f","system_id":"levelo_inurba_marseille","lat":43.28166,"lon":5.42629,"is_reserved":false,"is_disabled":false,"rental_uris":{"android":"levelo://app?vid=8a38320c-a733-4cf5-8c8e-152497fe8f8f","ios":"levelo://app?vid=8a38320c-a733-4cf5-8c8e-152497fe8f8f"},"vehicle_type_id":"4","last_reported":1743977313,"current_range_meters":10800,"station_id":"ce4bhnh2rcd13ifvqgug","pricing_plan_id":"cebpf4jnsgd1na2vs0mg"},{"bike_id":"1caa313b-bb8f-48c3-ad86-14dfa98d6a62","system_id":"levelo_inurba_marseille","lat":43.25581,"lon":5.38243,"is_reserved":false,"is_disabled":true,"rental_uris":{"android":"levelo://app?vid=1caa313b-bb8f-48c3-ad86-14dfa98d6a62","ios":"levelo://app?vid=1caa313b-bb8f-48c3-ad86-14dfa98d6a62"},"vehicle_type_id":"4","last_reported":1743977313,"current_range_meters":10800,"station_id":"ce4bhih2rcd13ifvqfs0","pricing_plan_id":"cebpf4jnsgd1na2vs0mg"},{"bike_id":"49d497d5-64c8-432d-b617-98adabd4b3e8","system_id":"levelo_inurba_marseille","lat":43.24647,"lon":5.38157,"is_reserved":false,"is_disabled":false,"rental_uris":{"android":"levelo://app?vid=49d497d5-64c8-432d-b617-98adabd4b3e8","ios":"levelo://app?vid=49d497d5-64c8-432d-b617-98adabd4b3e8"},"vehicle_type_id":"4","last_reported":1743977313,"current_range_meters":10800,"station_id":"ce4bhih2rcd13ifvqfr0","pricing_plan_id":"cebpf4jnsgd1na2vs0mg"},{"bike_id":"b6157195-912e-49c8-9251-05971a804456","system_id":"levelo_inurba_marseille","lat":43.24672,"lon":5.40124,"is_reserved":false,"is_disabled":false,"rental_uris":{"android":"levelo://app?vid=b6157195-912e-49c8-9251-05971a804456","ios":"levelo://app?vid=b6157195-912e-49c8-9251-05971a804456"},"vehicle_type_id":"4","last_reported":1743977313,"current_range_meters":10800,"station_id":"","pricing_plan_id":"cebpf4jnsgd1na2vs0mg"},{"bike_id":"0e5fb2b7-a7c3-435d-90dc-bb9cdaf6fd4c","system_id":"levelo_inurba_marseille","lat":43.2901,"lon":5.38147,"is_reserved":false,"is_disabled":false,"rental_uris":{"android":"levelo://app?vid=0e5fb2b7-a7c3-435d-90dc-bb9cdaf6fd4c","ios":"levelo://app?vid=0e5fb2b7-a7c3-435d-90dc-bb9cdaf6fd4c"},"vehicle_type_id":"4","last_reported":1743977313,"current_range_meters":10800,"station_id":"ce4bh4p2rcd13ifvqe1g","pricing_plan_id":"cebpf4jnsgd1na2vs0mg"},{"bike_id":"f29aecaa-ade0-467c-986a-b65b06d523f4","system_id":"levelo_inurba_marseille","lat":43.28878,"lon":5.39302,"is_reserved":false,"is_disabled":true,"rental_uris":{"android":"levelo://app?vid=f29aecaa-ade0-467c-986a-b65b06d523f4","ios":"levelo://app?vid=f29aecaa-ade0-467c-986a-b65b06d523f4"},"vehicle_type_id":"4","last_reported":1743977313,"current_range_meters":10800,"station_id":"ce4bh2p2rcd13ifvqdi0","pricing_plan_id":"cebpf4jnsgd1na2vs0mg"},{"bike_id":"63e1d95c-79be-4b82-a868-e312bf827ceb","system_id":"levelo_inurba_marseille","lat":43.29029,"lon":5.38646,"is_reserved":false,"is_disabled":true,"rental_uris":{"android":"levelo://app?vid=63e1d95c-79be-4b82-a868-e312bf827ceb","ios":"levelo://app?vid=63e1d95c-79be-4b82-a868-e312bf827ceb"},"vehicle_type_id":"4","last_reported":1743977313,"current_range_meters":10800,"station_id":"ce4bh4p2rcd13ifvqe0g","pricing_plan_id":"cebpf4jnsgd1na2vs0mg"},{"bike_id":"a1913776-e0d9-47a2-9906-ec745965407d","system_id":"levelo_inurba_marseille","lat":43.31289,"lon":5.40169,"is_reserved":false,"is_disabled":false,"rental_uris":{"android":"levelo://app?vid=a1913776-e0d9-47a2-9906-ec745965407d","ios":"levelo://app?vid=a1913776-e0d9-47a2-9906-ec745965407d"},"vehicle_type_id":"4","last_reported":1743977313,"current_range_meters":10800,"station_id":"ce4bh092rcd13ifvqd30","pricing_plan_id":"cebpf4jnsgd1na2vs0mg"},{"bike_id":"13bf8c16-c02c-4fba-8f49-42c0f87b2873","system_id":"levelo_inurba_marseille","lat":43.27064,"lon":5.42279,"is_reserved":false,"is_disabled":false,"rental_uris":{"android":"levelo://app?vid=13bf8c16-c02c-4fba-8f49-42c0f87b2873","ios":"levelo://app?vid=13bf8c16-c02c-4fba-8f49-42c0f87b2873"},"vehicle_type_id":"4","last_reported":1743977313,"current_range_meters":10800,"station_id":"ce4bhk92rcd13ifvqgb0","pricing_plan_id":"cebpf4jnsgd1na2vs0mg"},{"bike_id":"37566333-73c3-4404-ba7c-c72222dd323d","system_id":"levelo_inurba_marseille","lat":43.29021,"lon":5.38103,"is_reserved":false,"is_disabled":false,"rental_uris":{"android":"levelo://app?vid=37566333-73c3-4404-ba7c-c72222dd323d","ios":"levelo://app?vid=37566333-73c3-4404-ba7c-c72222dd323d"},"vehicle_type_id":"4","last_reported":1743977313,"current_range_meters":10800,"station_id":"ce4bh4p2rcd13ifvqe1g","pricing_plan_id":"cebpf4jnsgd1na2vs0mg"},{"bike_id":"351b921a-1463-4cf6-859d-ca5bd51a6e76","system_id":"levelo_inurba_marseille","lat":43.31967,"lon":5.37096,"is_reserved":false,"is_disabled":false,"rental_uris":{"android":"levelo://app?vid=351b921a-1463-4cf6-859d-ca5bd51a6e76","ios":"levelo://app?vid=351b921a-1463-4cf6-859d-ca5bd51a6e76"},"vehicle_type_id":"4","last_reported":1743977313,"current_range_meters":10800,"station_id":"","pricing_plan_id":"cebpf4jnsgd1na2vs0mg"},{"bike_id":"97872a21-1a99-4c02-91d9-bd084f9f2ebd","system_id":"levelo_inurba_marseille","lat":43.28144,"lon":5.42639,"is_reserved":false,"is_disabled":false,"rental_uris":{"android":"levelo://app?vid=97872a21-1a99-4c02-91d9-bd084f9f2ebd","ios":"levelo://app?vid=97872a21-1a99-4c02-91d9-bd084f9f2ebd"},"vehicle_type_id":"4","last_reported":1743977313,"current_range_meters":10800,"station_id":"ce4bhnh2rcd13ifvqgug","pricing_plan_id":"cebpf4jnsgd1na2vs0mg"},{"bike_id":"33448e42-2dee-4e4d-933a-57b94ec14f0c","system_id":"levelo_inurba_marseille","lat":43.29177,"lon":5.35567,"is_reserved":false,"is_disabled":true,"rental_uris":{"android":"levelo://app?vid=33448e42-2dee-4e4d-933a-57b94ec14f0c","ios":"levelo://app?vid=33448e42-2dee-4e4d-933a-57b94ec14f0c"},"vehicle_type_id":"4","last_reported":1743977313,"current_range_meters":10800,"station_id":"","pricing_plan_id":"cebpf4jnsgd1na2vs0mg"},{"bike_id":"0971d1a0-e3a6-4af8-b88d-ece3b09a0692","system_id":"levelo_inurba_marseille","lat":43.25832,"lon":5.39424,"is_reserved":false,"is_disabled":false,"rental_uris":{"android":"levelo://app?vid=0971d1a0-e3a6-4af8-b88d-ece3b09a0692","ios":"levelo://app?vid=0971d1a0-e3a6-4af8-b88d-ece3b09a0692"},"vehicle_type_id":"4","last_reported":1743977313,"current_range_meters":10800,"station_id":"ce4bhip2rcd13ifvqft0","pricing_plan_id":"cebpf4jnsgd1na2vs0mg"},{"bike_id":"c8e5ddb0-8b1b-4cb5-a295-c15f8e89323a","system_id":"levelo_inurba_marseille","lat":43.3081,"lon":5.38136,"is_reserved":false,"is_disabled":false,"rental_uris":{"android":"levelo://app?vid=c8e5ddb0-8b1b-4cb5-a295-c15f8e89323a","ios":"levelo://app?vid=c8e5ddb0-8b1b-4cb5-a295-c15f8e89323a"},"vehicle_type_id":"4","last_reported":1743977313,"current_range_meters":10800,"station_id":"ce4bgt12rcd13ifvqce0","pricing_plan_id":"cebpf4jnsgd1na2vs0mg"},{"bike_id":"8539495d-a8db-48e8-999c-a0eec7f95200","system_id":"levelo_inurba_marseille","lat":43.25489,"lon":5.37666,"is_reserved":false,"is_disabled":true,"rental_uris":{"android":"levelo://app?vid=8539495d-a8db-48e8-999c-a0eec7f95200","ios":"levelo://app?vid=8539495d-a8db-48e8-999c-a0eec7f95200"},"vehicle_type_id":"4","last_reported":1743977313,"current_range_meters":10800,"station_id":"ce4bhh12rcd13ifvqff0","pricing_plan_id":"cebpf4jnsgd1na2vs0mg"},{"bike_id":"bd433fb4-353c-480b-9e6d-a7fcfc2ca637","system_id":"levelo_inurba_marseille","lat":43.28108,"lon":5.37835,"is_reserved":false,"is_disabled":false,"rental_uris":{"android":"levelo://app?vid=bd433fb4-353c-480b-9e6d-a7fcfc2ca637","ios":"levelo://app?vid=bd433fb4-353c-480b-9e6d-a7fcfc2ca637"},"vehicle_type_id":"4","last_reported":1743977313,"current_range_meters":11200,"station_id":"ce4bha12rcd13ifvqee0","pricing_plan_id":"cebpf4jnsgd1na2vs0mg"},{"bike_id":"6ee85d75-9576-48a6-9ea1-92da0dac2d73","system_id":"levelo_inurba_marseille","lat":43.30806,"lon":5.43531,"is_reserved":false,"is_disabled":false,"rental_uris":{"android":"levelo://app?vid=6ee85d75-9576-48a6-9ea1-92da0dac2d73","ios":"levelo://app?vid=6ee85d75-9576-48a6-9ea1-92da0dac2d73"},"vehicle_type_id":"4","last_reported":1743977313,"current_range_meters":11200,"station_id":"ce4bhph2rcd13ifvqheg","pricing_plan_id":"cebpf4jnsgd1na2vs0mg"},{"bike_id":"a409c3f0-8991-4228-afb5-57b19bb06658","system_id":"levelo_inurba_marseille","lat":43.32401,"lon":5.38997,"is_reserved":false,"is_disabled":false,"rental_uris":{"android":"levelo://app?vid=a409c3f0-8991-4228-afb5-57b19bb06658","ios":"levelo://app?vid=a409c3f0-8991-4228-afb5-57b19bb06658"},"vehicle_type_id":"4","last_reported":1743977313,"current_range_meters":11200,"station_id":"","pricing_plan_id":"cebpf4jnsgd1na2vs0mg"},{"bike_id":"f72a0969-fb19-4d3a-90e9-19756f509dbb","system_id":"levelo_inurba_marseille","lat":43.31288,"lon":5.40163,"is_reserved":false,"is_disabled":false,"rental_uris":{"android":"levelo://app?vid=f72a0969-fb19-4d3a-90e9-19756f509dbb","ios":"levelo://app?vid=f72a0969-fb19-4d3a-90e9-19756f509dbb"},"vehicle_type_id":"4","last_reported":1743977313,"current_range_meters":11200,"station_id":"ce4bh092rcd13ifvqd30","pricing_plan_id":"cebpf4jnsgd1na2vs0mg"},{"bike_id":"e4d4dc7a-abcd-4c1d-8017-887f937d011f","system_id":"levelo_inurba_marseille","lat":43.29569,"lon":5.39978,"is_reserved":false,"is_disabled":true,"rental_uris":{"android":"levelo://app?vid=e4d4dc7a-abcd-4c1d-8017-887f937d011f","ios":"levelo://app?vid=e4d4dc7a-abcd-4c1d-8017-887f937d011f"},"vehicle_type_id":"4","last_reported":1743977313,"current_range_meters":11200,"station_id":"ce4bh312rcd13ifvqdj0","pricing_plan_id":"cebpf4jnsgd1na2vs0mg"},{"bike_id":"8f6f72ad-7fb5-49c2-9330-180a477888ea","system_id":"levelo_inurba_marseille","lat":43.303276,"lon":5.404335,"is_reserved":false,"is_disabled":false,"rental_uris":{"android":"levelo://app?vid=8f6f72ad-7fb5-49c2-9330-180a477888ea","ios":"levelo://app?vid=8f6f72ad-7fb5-49c2-9330-180a477888ea"},"vehicle_type_id":"4","last_reported":1743977313,"current_range_meters":11200,"station_id":"ce4bh012rcd13ifvqd10","pricing_plan_id":"cebpf4jnsgd1na2vs0mg"},{"bike_id":"fa689385-d43f-40d7-b516-aebeb21bd0aa","system_id":"levelo_inurba_marseille","lat":43.29532,"lon":5.39392,"is_reserved":false,"is_disabled":false,"rental_uris":{"android":"levelo://app?vid=fa689385-d43f-40d7-b516-aebeb21bd0aa","ios":"levelo://app?vid=fa689385-d43f-40d7-b516-aebeb21bd0aa"},"vehicle_type_id":"4","last_reported":1743977313,"current_range_meters":11600,"station_id":"ce4bh292rcd13ifvqdf0","pricing_plan_id":"cebpf4jnsgd1na2vs0mg"},{"bike_id":"34f62bea-f2eb-412e-8f55-bf9283ccb2a7","system_id":"levelo_inurba_marseille","lat":43.28354,"lon":5.38134,"is_reserved":false,"is_disabled":false,"rental_uris":{"android":"levelo://app?vid=34f62bea-f2eb-412e-8f55-bf9283ccb2a7","ios":"levelo://app?vid=34f62bea-f2eb-412e-8f55-bf9283ccb2a7"},"vehicle_type_id":"4","last_reported":1743977313,"current_range_meters":11600,"station_id":"ce4bh412rcd13ifvqdr0","pricing_plan_id":"cebpf4jnsgd1na2vs0mg"},{"bike_id":"3a131c82-d16e-4cb7-8973-9592b60ab886","system_id":"levelo_inurba_marseille","lat":43.25086,"lon":5.39507,"is_reserved":false,"is_disabled":false,"rental_uris":{"android":"levelo://app?vid=3a131c82-d16e-4cb7-8973-9592b60ab886","ios":"levelo://app?vid=3a131c82-d16e-4cb7-8973-9592b60ab886"},"vehicle_type_id":"4","last_reported":1743977313,"current_range_meters":11600,"station_id":"ce4bhm12rcd13ifvqgkg","pricing_plan_id":"cebpf4jnsgd1na2vs0mg"},{"bike_id":"a5bd5abf-e64b-49fb-9823-db9745ea97e7","system_id":"levelo_inurba_marseille","lat":43.289384,"lon":5.366308,"is_reserved":false,"is_disabled":true,"rental_uris":{"android":"levelo://app?vid=a5bd5abf-e64b-49fb-9823-db9745ea97e7","ios":"levelo://app?vid=a5bd5abf-e64b-49fb-9823-db9745ea97e7"},"vehicle_type_id":"4","last_reported":1743977313,"current_range_meters":11600,"station_id":"ce4bhap2rcd13ifvqek0","pricing_plan_id":"cebpf4jnsgd1na2vs0mg"},{"bike_id":"01a1c797-c37c-417f-b77f-42306edd9074","system_id":"levelo_inurba_marseille","lat":43.30604,"lon":5.39346,"is_reserved":false,"is_disabled":false,"rental_uris":{"android":"levelo://app?vid=01a1c797-c37c-417f-b77f-42306edd9074","ios":"levelo://app?vid=01a1c797-c37c-417f-b77f-42306edd9074"},"vehicle_type_id":"4","last_reported":1743977313,"current_range_meters":11600,"station_id":"ce4bh0p2rcd13ifvqd80","pricing_plan_id":"cebpf4jnsgd1na2vs0mg"},{"bike_id":"4630f4c9-4114-4fa0-9587-ced60e88be94","system_id":"levelo_inurba_marseille","lat":43.27987,"lon":5.4164,"is_reserved":false,"is_disabled":false,"rental_uris":{"android":"levelo://app?vid=4630f4c9-4114-4fa0-9587-ced60e88be94","ios":"levelo://app?vid=4630f4c9-4114-4fa0-9587-ced60e88be94"},"vehicle_type_id":"4","last_reported":1743977313,"current_range_meters":11600,"station_id":"ce4bho12rcd13ifvqh1g","pricing_plan_id":"cebpf4jnsgd1na2vs0mg"},{"bike_id":"6d294c26-8eb2-44df-a5d9-6681ca9b49d4","system_id":"levelo_inurba_marseille","lat":43.29021,"lon":5.38643,"is_reserved":false,"is_disabled":false,"rental_uris":{"android":"levelo://app?vid=6d294c26-8eb2-44df-a5d9-6681ca9b49d4","ios":"levelo://app?vid=6d294c26-8eb2-44df-a5d9-6681ca9b49d4"},"vehicle_type_id":"4","last_reported":1743977313,"current_range_meters":11600,"station_id":"ce4bh4p2rcd13ifvqe0g","pricing_plan_id":"cebpf4jnsgd1na2vs0mg"},{"bike_id":"90205e48-dc47-484e-9b19-84fe4bcb3fb7","system_id":"levelo_inurba_marseille","lat":43.25828,"lon":5.39439,"is_reserved":false,"is_disabled":false,"rental_uris":{"android":"levelo://app?vid=90205e48-dc47-484e-9b19-84fe4bcb3fb7","ios":"levelo://app?vid=90205e48-dc47-484e-9b19-84fe4bcb3fb7"},"vehicle_type_id":"4","last_reported":1743977313,"current_range_meters":12000,"station_id":"ce4bhip2rcd13ifvqft0","pricing_plan_id":"cebpf4jnsgd1na2vs0mg"},{"bike_id":"d6c3d7f4-760c-422c-8667-25e15a7934b3","system_id":"levelo_inurba_marseille","lat":43.307972,"lon":5.373947,"is_reserved":false,"is_disabled":false,"rental_uris":{"android":"levelo://app?vid=d6c3d7f4-760c-422c-8667-25e15a7934b3","ios":"levelo://app?vid=d6c3d7f4-760c-422c-8667-25e15a7934b3"},"vehicle_type_id":"4","last_reported":1743977313,"current_range_meters":12000,"station_id":"","pricing_plan_id":"cebpf4jnsgd1na2vs0mg"},{"bike_id":"acb65440-a02f-4919-a34d-f2603cac35f5","system_id":"levelo_inurba_marseille","lat":43.28035,"lon":5.36948,"is_reserved":false,"is_disabled":false,"rental_uris":{"android":"levelo://app?vid=acb65440-a02f-4919-a34d-f2603cac35f5","ios":"levelo://app?vid=acb65440-a02f-4919-a34d-f2603cac35f5"},"vehicle_type_id":"4","last_reported":1743977313,"current_range_meters":11600,"station_id":"ce4bha12rcd13ifvqef0","pricing_plan_id":"cebpf4jnsgd1na2vs0mg"},{"bike_id":"f99db77b-2291-4d9f-becd-b40e44ef5e82","system_id":"levelo_inurba_marseille","lat":43.27992,"lon":5.41665,"is_reserved":false,"is_disabled":false,"rental_uris":{"android":"levelo://app?vid=f99db77b-2291-4d9f-becd-b40e44ef5e82","ios":"levelo://app?vid=f99db77b-2291-4d9f-becd-b40e44ef5e82"},"vehicle_type_id":"4","last_reported":1743977313,"current_range_meters":12000,"station_id":"ce4bho12rcd13ifvqh1g","pricing_plan_id":"cebpf4jnsgd1na2vs0mg"},{"bike_id":"1e81c4d2-6637-42bf-8d6d-5d37c0fe2360","system_id":"levelo_inurba_marseille","lat":43.32109,"lon":5.36777,"is_reserved":false,"is_disabled":false,"rental_uris":{"android":"levelo://app?vid=1e81c4d2-6637-42bf-8d6d-5d37c0fe2360","ios":"levelo://app?vid=1e81c4d2-6637-42bf-8d6d-5d37c0fe2360"},"vehicle_type_id":"4","last_reported":1743977313,"current_range_meters":12000,"station_id":"ce4bhrh2rcd13ifvqhug","pricing_plan_id":"cebpf4jnsgd1na2vs0mg"},{"bike_id":"a959694d-18ce-4d80-917f-23c91ed81065","system_id":"levelo_inurba_marseille","lat":43.29901,"lon":5.43662,"is_reserved":false,"is_disabled":false,"rental_uris":{"android":"levelo://app?vid=a959694d-18ce-4d80-917f-23c91ed81065","ios":"levelo://app?vid=a959694d-18ce-4d80-917f-23c91ed81065"},"vehicle_type_id":"4","last_reported":1743977313,"current_range_meters":12000,"station_id":"ce4bhpp2rcd13ifvqhfg","pricing_plan_id":"cebpf4jnsgd1na2vs0mg"},{"bike_id":"b3955141-b4e4-46ef-9f72-2d6ddb89ac2c","system_id":"levelo_inurba_marseille","lat":43.23153,"lon":5.43717,"is_reserved":false,"is_disabled":false,"rental_uris":{"android":"levelo://app?vid=b3955141-b4e4-46ef-9f72-2d6ddb89ac2c","ios":"levelo://app?vid=b3955141-b4e4-46ef-9f72-2d6ddb89ac2c"},"vehicle_type_id":"4","last_reported":1743977313,"current_range_meters":12000,"station_id":"ce4bhmp2rcd13ifvqgog","pricing_plan_id":"cebpf4jnsgd1na2vs0mg"},{"bike_id":"5d657eb9-e157-44e8-ba6f-d742a3e73fce","system_id":"levelo_inurba_marseille","lat":43.27912,"lon":5.39578,"is_reserved":false,"is_disabled":false,"rental_uris":{"android":"levelo://app?vid=5d657eb9-e157-44e8-ba6f-d742a3e73fce","ios":"levelo://app?vid=5d657eb9-e157-44e8-ba6f-d742a3e73fce"},"vehicle_type_id":"4","last_reported":1743977313,"current_range_meters":12000,"station_id":"ce4bhf92rcd13ifvqf40","pricing_plan_id":"cebpf4jnsgd1na2vs0mg"},{"bike_id":"d64bfb16-ec3e-4208-86ee-e289c60bf7f5","system_id":"levelo_inurba_marseille","lat":43.3361,"lon":5.41033,"is_reserved":false,"is_disabled":false,"rental_uris":{"android":"levelo://app?vid=d64bfb16-ec3e-4208-86ee-e289c60bf7f5","ios":"levelo://app?vid=d64bfb16-ec3e-4208-86ee-e289c60bf7f5"},"vehicle_type_id":"4","last_reported":1743977313,"current_range_meters":12000,"station_id":"ce4bhqh2rcd13ifvqhmg","pricing_plan_id":"cebpf4jnsgd1na2vs0mg"},{"bike_id":"a9a04a88-3dd0-4538-9e7a-6a8fc3b64a05","system_id":"levelo_inurba_marseille","lat":43.30594,"lon":5.39357,"is_reserved":false,"is_disabled":false,"rental_uris":{"android":"levelo://app?vid=a9a04a88-3dd0-4538-9e7a-6a8fc3b64a05","ios":"levelo://app?vid=a9a04a88-3dd0-4538-9e7a-6a8fc3b64a05"},"vehicle_type_id":"4","last_reported":1743977313,"current_range_meters":12400,"station_id":"ce4bh0p2rcd13ifvqd80","pricing_plan_id":"cebpf4jnsgd1na2vs0mg"},{"bike_id":"beb79017-286c-4e11-a539-af1cb953b0ac","system_id":"levelo_inurba_marseille","lat":43.30305,"lon":5.40436,"is_reserved":false,"is_disabled":false,"rental_uris":{"android":"levelo://app?vid=beb79017-286c-4e11-a539-af1cb953b0ac","ios":"levelo://app?vid=beb79017-286c-4e11-a539-af1cb953b0ac"},"vehicle_type_id":"4","last_reported":1743977313,"current_range_meters":12400,"station_id":"ce4bh012rcd13ifvqd10","pricing_plan_id":"cebpf4jnsgd1na2vs0mg"},{"bike_id":"6989f78b-a739-4559-b96c-fc901fb6ba6e","system_id":"levelo_inurba_marseille","lat":43.30601,"lon":5.3935,"is_reserved":false,"is_disabled":false,"rental_uris":{"android":"levelo://app?vid=6989f78b-a739-4559-b96c-fc901fb6ba6e","ios":"levelo://app?vid=6989f78b-a739-4559-b96c-fc901fb6ba6e"},"vehicle_type_id":"4","last_reported":1743977313,"current_range_meters":12400,"station_id":"ce4bh0p2rcd13ifvqd80","pricing_plan_id":"cebpf4jnsgd1na2vs0mg"},{"bike_id":"d893a78a-9318-483a-996e-9bec91fd98dc","system_id":"levelo_inurba_marseille","lat":43.31667,"lon":5.4372,"is_reserved":false,"is_disabled":false,"rental_uris":{"android":"levelo://app?vid=d893a78a-9318-483a-996e-9bec91fd98dc","ios":"levelo://app?vid=d893a78a-9318-483a-996e-9bec91fd98dc"},"vehicle_type_id":"4","last_reported":1743977313,"current_range_meters":12400,"station_id":"","pricing_plan_id":"cebpf4jnsgd1na2vs0mg"},{"bike_id":"c8a9a45b-41eb-4284-8115-b162b6904d0b","system_id":"levelo_inurba_marseille","lat":43.29629,"lon":5.40606,"is_reserved":false,"is_disabled":false,"rental_uris":{"android":"levelo://app?vid=c8a9a45b-41eb-4284-8115-b162b6904d0b","ios":"levelo://app?vid=c8a9a45b-41eb-4284-8115-b162b6904d0b"},"vehicle_type_id":"4","last_reported":1743977313,"current_range_meters":12400,"station_id":"ce4bh0h2rcd13ifvqd60","pricing_plan_id":"cebpf4jnsgd1na2vs0mg"},{"bike_id":"891f1f09-6759-480b-9d4f-0756d59abf11","system_id":"levelo_inurba_marseille","lat":43.22504,"lon":5.34787,"is_reserved":false,"is_disabled":false,"rental_uris":{"android":"levelo://app?vid=891f1f09-6759-480b-9d4f-0756d59abf11","ios":"levelo://app?vid=891f1f09-6759-480b-9d4f-0756d59abf11"},"vehicle_type_id":"4","last_reported":1743977313,"current_range_meters":12400,"station_id":"ce4bh612rcd13ifvqe6g","pricing_plan_id":"cebpf4jnsgd1na2vs0mg"},{"bike_id":"935587bd-e327-433f-b68c-6a9a15057f6f","system_id":"levelo_inurba_marseille","lat":43.31437,"lon":5.40154,"is_reserved":false,"is_disabled":false,"rental_uris":{"android":"levelo://app?vid=935587bd-e327-433f-b68c-6a9a15057f6f","ios":"levelo://app?vid=935587bd-e327-433f-b68c-6a9a15057f6f"},"vehicle_type_id":"4","last_reported":1743977313,"current_range_meters":12800,"station_id":"","pricing_plan_id":"cebpf4jnsgd1na2vs0mg"},{"bike_id":"e53b9e9b-ac51-4f70-ad60-ed3149b8c178","system_id":"levelo_inurba_marseille","lat":43.31312,"lon":5.37349,"is_reserved":false,"is_disabled":false,"rental_uris":{"android":"levelo://app?vid=e53b9e9b-ac51-4f70-ad60-ed3149b8c178","ios":"levelo://app?vid=e53b9e9b-ac51-4f70-ad60-ed3149b8c178"},"vehicle_type_id":"4","last_reported":1743977313,"current_range_meters":12800,"station_id":"","pricing_plan_id":"cebpf4jnsgd1na2vs0mg"},{"bike_id":"21eeb2c4-e5a7-4d72-8f52-5fe6c613b2c8","system_id":"levelo_inurba_marseille","lat":43.30431,"lon":5.38894,"is_reserved":false,"is_disabled":false,"rental_uris":{"android":"levelo://app?vid=21eeb2c4-e5a7-4d72-8f52-5fe6c613b2c8","ios":"levelo://app?vid=21eeb2c4-e5a7-4d72-8f52-5fe6c613b2c8"},"vehicle_type_id":"4","last_reported":1743977313,"current_range_meters":12800,"station_id":"ce4bgk12rcd13ifvqbi0","pricing_plan_id":"cebpf4jnsgd1na2vs0mg"},{"bike_id":"ec1c722d-55d5-4d9d-9ba7-301e785b299a","system_id":"levelo_inurba_marseille","lat":43.29596,"lon":5.38091,"is_reserved":false,"is_disabled":false,"rental_uris":{"android":"levelo://app?vid=ec1c722d-55d5-4d9d-9ba7-301e785b299a","ios":"levelo://app?vid=ec1c722d-55d5-4d9d-9ba7-301e785b299a"},"vehicle_type_id":"4","last_reported":1743977313,"current_range_meters":12800,"station_id":"ce4bgl12rcd13ifvqbo0","pricing_plan_id":"cebpf4jnsgd1na2vs0mg"},{"bike_id":"cdf6e462-4f33-442e-b4e5-8123fd21a045","system_id":"levelo_inurba_marseille","lat":43.31079,"lon":5.38332,"is_reserved":false,"is_disabled":false,"rental_uris":{"android":"levelo://app?vid=cdf6e462-4f33-442e-b4e5-8123fd21a045","ios":"levelo://app?vid=cdf6e462-4f33-442e-b4e5-8123fd21a045"},"vehicle_type_id":"4","last_reported":1743977313,"current_range_meters":12800,"station_id":"ce4bgv92rcd13ifvqcr0","pricing_plan_id":"cebpf4jnsgd1na2vs0mg"},{"bike_id":"222e1e00-578b-4512-8bd3-f56c6fa61730","system_id":"levelo_inurba_marseille","lat":43.23953,"lon":5.3665,"is_reserved":false,"is_disabled":true,"rental_uris":{"android":"levelo://app?vid=222e1e00-578b-4512-8bd3-f56c6fa61730","ios":"levelo://app?vid=222e1e00-578b-4512-8bd3-f56c6fa61730"},"vehicle_type_id":"4","last_reported":1743977313,"current_range_meters":12800,"station_id":"ce4bhi12rcd13ifvqfp0","pricing_plan_id":"cebpf4jnsgd1na2vs0mg"},{"bike_id":"12bd0fac-ba83-4f3a-b0d7-2697a3d23f0e","system_id":"levelo_inurba_marseille","lat":43.28415,"lon":5.37528,"is_reserved":false,"is_disabled":false,"rental_uris":{"android":"levelo://app?vid=12bd0fac-ba83-4f3a-b0d7-2697a3d23f0e","ios":"levelo://app?vid=12bd0fac-ba83-4f3a-b0d7-2697a3d23f0e"},"vehicle_type_id":"4","last_reported":1743977313,"current_range_meters":12400,"station_id":"ce4bh412rcd13ifvqds0","pricing_plan_id":"cebpf4jnsgd1na2vs0mg"},{"bike_id":"e4dafd07-93ea-4f0f-9c9c-afdcdac8bed2","system_id":"levelo_inurba_marseille","lat":43.27064,"lon":5.42269,"is_reserved":false,"is_disabled":false,"rental_uris":{"android":"levelo://app?vid=e4dafd07-93ea-4f0f-9c9c-afdcdac8bed2","ios":"levelo://app?vid=e4dafd07-93ea-4f0f-9c9c-afdcdac8bed2"},"vehicle_type_id":"4","last_reported":1743977313,"current_range_meters":12800,"station_id":"ce4bhk92rcd13ifvqgb0","pricing_plan_id":"cebpf4jnsgd1na2vs0mg"},{"bike_id":"bc95c693-17f0-42a7-8c4f-5e36b7c48978","system_id":"levelo_inurba_marseille","lat":43.30787,"lon":5.37621,"is_reserved":false,"is_disabled":false,"rental_uris":{"android":"levelo://app?vid=bc95c693-17f0-42a7-8c4f-5e36b7c48978","ios":"levelo://app?vid=bc95c693-17f0-42a7-8c4f-5e36b7c48978"},"vehicle_type_id":"4","last_reported":1743977313,"current_range_meters":13600,"station_id":"ce4bgv92rcd13ifvqcq0","pricing_plan_id":"cebpf4jnsgd1na2vs0mg"},{"bike_id":"11b2e2b9-2f53-4b17-8b82-53b6d1f38706","system_id":"levelo_inurba_marseille","lat":43.31532,"lon":5.38045,"is_reserved":false,"is_disabled":false,"rental_uris":{"android":"levelo://app?vid=11b2e2b9-2f53-4b17-8b82-53b6d1f38706","ios":"levelo://app?vid=11b2e2b9-2f53-4b17-8b82-53b6d1f38706"},"vehicle_type_id":"4","last_reported":1743977313,"current_range_meters":13600,"station_id":"ce4bhsp2rcd13ifvqi50","pricing_plan_id":"cebpf4jnsgd1na2vs0mg"},{"bike_id":"b7636690-1082-4494-bfdc-52974e86e702","system_id":"levelo_inurba_marseille","lat":43.29037,"lon":5.38664,"is_reserved":false,"is_disabled":false,"rental_uris":{"android":"levelo://app?vid=b7636690-1082-4494-bfdc-52974e86e702","ios":"levelo://app?vid=b7636690-1082-4494-bfdc-52974e86e702"},"vehicle_type_id":"4","last_reported":1743977313,"current_range_meters":13600,"station_id":"ce4bh4p2rcd13ifvqe0g","pricing_plan_id":"cebpf4jnsgd1na2vs0mg"},{"bike_id":"69b7e58f-2968-4144-90d9-4ce3c56a3c55","system_id":"levelo_inurba_marseille","lat":43.28921,"lon":5.38389,"is_reserved":false,"is_disabled":false,"rental_uris":{"android":"levelo://app?vid=69b7e58f-2968-4144-90d9-4ce3c56a3c55","ios":"levelo://app?vid=69b7e58f-2968-4144-90d9-4ce3c56a3c55"},"vehicle_type_id":"4","last_reported":1743977313,"current_range_meters":13600,"station_id":"ce4bh612rcd13ifvqe6g","pricing_plan_id":"cebpf4jnsgd1na2vs0mg"},{"bike_id":"f8d1c41d-21fe-458c-9516-e1e92139d521","system_id":"levelo_inurba_marseille","lat":43.29281,"lon":5.37636,"is_reserved":false,"is_disabled":false,"rental_uris":{"android":"levelo://app?vid=f8d1c41d-21fe-458c-9516-e1e92139d521","ios":"levelo://app?vid=f8d1c41d-21fe-458c-9516-e1e92139d521"},"vehicle_type_id":"4","last_reported":1743977313,"current_range_meters":13600,"station_id":"ce4bgi12rcd13ifvqb80","pricing_plan_id":"cebpf4jnsgd1na2vs0mg"},{"bike_id":"d19affee-a7e5-482c-b631-ffb68f6b53b9","system_id":"levelo_inurba_marseille","lat":43.23185,"lon":5.3998,"is_reserved":false,"is_disabled":false,"rental_uris":{"android":"levelo://app?vid=d19affee-a7e5-482c-b631-ffb68f6b53b9","ios":"levelo://app?vid=d19affee-a7e5-482c-b631-ffb68f6b53b9"},"vehicle_type_id":"4","last_reported":1743977313,"current_range_meters":13600,"station_id":"ce4bhn12rcd13ifvqgqg","pricing_plan_id":"cebpf4jnsgd1na2vs0mg"},{"bike_id":"49c6b6b9-6c97-4b2b-86f3-572bfd37634c","system_id":"levelo_inurba_marseille","lat":43.29439,"lon":5.39752,"is_reserved":false,"is_disabled":false,"rental_uris":{"android":"levelo://app?vid=49c6b6b9-6c97-4b2b-86f3-572bfd37634c","ios":"levelo://app?vid=49c6b6b9-6c97-4b2b-86f3-572bfd37634c"},"vehicle_type_id":"4","last_reported":1743977313,"current_range_meters":13600,"station_id":"ce4bh3h2rcd13ifvqdo0","pricing_plan_id":"cebpf4jnsgd1na2vs0mg"},{"bike_id":"7a5d92fd-dde5-484c-8575-b3661f78a202","system_id":"levelo_inurba_marseille","lat":43.31262,"lon":5.401629,"is_reserved":false,"is_disabled":false,"rental_uris":{"android":"levelo://app?vid=7a5d92fd-dde5-484c-8575-b3661f78a202","ios":"levelo://app?vid=7a5d92fd-dde5-484c-8575-b3661f78a202"},"vehicle_type_id":"4","last_reported":1743977313,"current_range_meters":13600,"station_id":"ce4bh092rcd13ifvqd30","pricing_plan_id":"cebpf4jnsgd1na2vs0mg"},{"bike_id":"41a3e5ae-21d9-45ad-8d0e-6c145bf0865f","system_id":"levelo_inurba_marseille","lat":43.31481,"lon":5.37306,"is_reserved":false,"is_disabled":false,"rental_uris":{"android":"levelo://app?vid=41a3e5ae-21d9-45ad-8d0e-6c145bf0865f","ios":"levelo://app?vid=41a3e5ae-21d9-45ad-8d0e-6c145bf0865f"},"vehicle_type_id":"4","last_reported":1743977313,"current_range_meters":14000,"station_id":"ce4bgt12rcd13ifvqcd0","pricing_plan_id":"cebpf4jnsgd1na2vs0mg"},{"bike_id":"31b3c365-7e53-4647-aa23-eb0c62e9e0dc","system_id":"levelo_inurba_marseille","lat":43.30658,"lon":5.40074,"is_reserved":false,"is_disabled":false,"rental_uris":{"android":"levelo://app?vid=31b3c365-7e53-4647-aa23-eb0c62e9e0dc","ios":"levelo://app?vid=31b3c365-7e53-4647-aa23-eb0c62e9e0dc"},"vehicle_type_id":"4","last_reported":1743977313,"current_range_meters":14000,"station_id":"ce4bh112rcd13ifvqda0","pricing_plan_id":"cebpf4jnsgd1na2vs0mg"},{"bike_id":"3a6cf4dd-4a04-48a6-bbfb-6b1ea18759b5","system_id":"levelo_inurba_marseille","lat":43.32359,"lon":5.36715,"is_reserved":false,"is_disabled":false,"rental_uris":{"android":"levelo://app?vid=3a6cf4dd-4a04-48a6-bbfb-6b1ea18759b5","ios":"levelo://app?vid=3a6cf4dd-4a04-48a6-bbfb-6b1ea18759b5"},"vehicle_type_id":"4","last_reported":1743977313,"current_range_meters":14000,"station_id":"ce4bhsh2rcd13ifvqi2g","pricing_plan_id":"cebpf4jnsgd1na2vs0mg"},{"bike_id":"45cabc2e-9281-4d03-ac29-169743131c40","system_id":"levelo_inurba_marseille","lat":43.315247,"lon":5.380401,"is_reserved":false,"is_disabled":false,"rental_uris":{"android":"levelo://app?vid=45cabc2e-9281-4d03-ac29-169743131c40","ios":"levelo://app?vid=45cabc2e-9281-4d03-ac29-169743131c40"},"vehicle_type_id":"4","last_reported":1743977313,"current_range_meters":14000,"station_id":"ce4bhsp2rcd13ifvqi50","pricing_plan_id":"cebpf4jnsgd1na2vs0mg"},{"bike_id":"e926ae44-9c36-4909-aca0-768b34034fa9","system_id":"levelo_inurba_marseille","lat":43.31999,"lon":5.38152,"is_reserved":false,"is_disabled":true,"rental_uris":{"android":"levelo://app?vid=e926ae44-9c36-4909-aca0-768b34034fa9","ios":"levelo://app?vid=e926ae44-9c36-4909-aca0-768b34034fa9"},"vehicle_type_id":"4","last_reported":1743977313,"current_range_meters":14000,"station_id":"ce4bhr12rcd13ifvqhpg","pricing_plan_id":"cebpf4jnsgd1na2vs0mg"},{"bike_id":"ed8fc941-f91b-4ac4-b638-8ae395bbc5c7","system_id":"levelo_inurba_marseille","lat":43.29218,"lon":5.36068,"is_reserved":false,"is_disabled":true,"rental_uris":{"android":"levelo://app?vid=ed8fc941-f91b-4ac4-b638-8ae395bbc5c7","ios":"levelo://app?vid=ed8fc941-f91b-4ac4-b638-8ae395bbc5c7"},"vehicle_type_id":"4","last_reported":1743977313,"current_range_meters":14000,"station_id":"ce4bhbh2rcd13ifvqeqg","pricing_plan_id":"cebpf4jnsgd1na2vs0mg"},{"bike_id":"a7ed2b15-c9ec-4171-9c58-70b036ffc8d4","system_id":"levelo_inurba_marseille","lat":43.28687,"lon":5.37395,"is_reserved":false,"is_disabled":false,"rental_uris":{"android":"levelo://app?vid=a7ed2b15-c9ec-4171-9c58-70b036ffc8d4","ios":"levelo://app?vid=a7ed2b15-c9ec-4171-9c58-70b036ffc8d4"},"vehicle_type_id":"4","last_reported":1743977313,"current_range_meters":14000,"station_id":"ce4bh3p2rcd13ifvqdq0","pricing_plan_id":"cebpf4jnsgd1na2vs0mg"},{"bike_id":"543e8a52-25b8-474c-a2e7-31d0c99c8646","system_id":"levelo_inurba_marseille","lat":43.2418,"lon":5.39715,"is_reserved":false,"is_disabled":false,"rental_uris":{"android":"levelo://app?vid=543e8a52-25b8-474c-a2e7-31d0c99c8646","ios":"levelo://app?vid=543e8a52-25b8-474c-a2e7-31d0c99c8646"},"vehicle_type_id":"4","last_reported":1743977313,"current_range_meters":14000,"station_id":"ce4bhn12rcd13ifvqgpg","pricing_plan_id":"cebpf4jnsgd1na2vs0mg"},{"bike_id":"2a076765-54c7-499d-b1c1-16cd3d1a0541","system_id":"levelo_inurba_marseille","lat":43.31116,"lon":5.37761,"is_reserved":false,"is_disabled":false,"rental_uris":{"android":"levelo://app?vid=2a076765-54c7-499d-b1c1-16cd3d1a0541","ios":"levelo://app?vid=2a076765-54c7-499d-b1c1-16cd3d1a0541"},"vehicle_type_id":"4","last_reported":1743977313,"current_range_meters":14000,"station_id":"ce4bgt92rcd13ifvqcg0","pricing_plan_id":"cebpf4jnsgd1na2vs0mg"},{"bike_id":"d3398a9d-8182-4669-8042-b7dc0d8d1823","system_id":"levelo_inurba_marseille","lat":43.2989,"lon":5.43669,"is_reserved":false,"is_disabled":false,"rental_uris":{"android":"levelo://app?vid=d3398a9d-8182-4669-8042-b7dc0d8d1823","ios":"levelo://app?vid=d3398a9d-8182-4669-8042-b7dc0d8d1823"},"vehicle_type_id":"4","last_reported":1743977313,"current_range_meters":14400,"station_id":"ce4bhpp2rcd13ifvqhfg","pricing_plan_id":"cebpf4jnsgd1na2vs0mg"},{"bike_id":"0fd453bc-2d6e-4482-8ae4-2c4cd0a51bc1","system_id":"levelo_inurba_marseille","lat":43.30766,"lon":5.37974,"is_reserved":false,"is_disabled":false,"rental_uris":{"android":"levelo://app?vid=0fd453bc-2d6e-4482-8ae4-2c4cd0a51bc1","ios":"levelo://app?vid=0fd453bc-2d6e-4482-8ae4-2c4cd0a51bc1"},"vehicle_type_id":"4","last_reported":1743977313,"current_range_meters":14400,"station_id":"","pricing_plan_id":"cebpf4jnsgd1na2vs0mg"},{"bike_id":"750bc9c2-8244-4f27-a571-77c62d7d6b92","system_id":"levelo_inurba_marseille","lat":43.31271,"lon":5.3775,"is_reserved":false,"is_disabled":false,"rental_uris":{"android":"levelo://app?vid=750bc9c2-8244-4f27-a571-77c62d7d6b92","ios":"levelo://app?vid=750bc9c2-8244-4f27-a571-77c62d7d6b92"},"vehicle_type_id":"4","last_reported":1743977313,"current_range_meters":14400,"station_id":"","pricing_plan_id":"cebpf4jnsgd1na2vs0mg"},{"bike_id":"ad6919d4-656a-4054-b38c-a9d9c17fc334","system_id":"levelo_inurba_marseille","lat":43.28408,"lon":5.3753,"is_reserved":false,"is_disabled":false,"rental_uris":{"android":"levelo://app?vid=ad6919d4-656a-4054-b38c-a9d9c17fc334","ios":"levelo://app?vid=ad6919d4-656a-4054-b38c-a9d9c17fc334"},"vehicle_type_id":"4","last_reported":1743977313,"current_range_meters":14400,"station_id":"ce4bh412rcd13ifvqds0","pricing_plan_id":"cebpf4jnsgd1na2vs0mg"},{"bike_id":"e9747bb7-e880-415e-9b3f-996a32cf6231","system_id":"levelo_inurba_marseille","lat":43.30593,"lon":5.39359,"is_reserved":false,"is_disabled":false,"rental_uris":{"android":"levelo://app?vid=e9747bb7-e880-415e-9b3f-996a32cf6231","ios":"levelo://app?vid=e9747bb7-e880-415e-9b3f-996a32cf6231"},"vehicle_type_id":"4","last_reported":1743977313,"current_range_meters":14400,"station_id":"ce4bh0p2rcd13ifvqd80","pricing_plan_id":"cebpf4jnsgd1na2vs0mg"},{"bike_id":"7956d4b7-f9df-4616-bd52-832d0af74ae0","system_id":"levelo_inurba_marseille","lat":43.25703,"lon":5.41102,"is_reserved":false,"is_disabled":false,"rental_uris":{"android":"levelo://app?vid=7956d4b7-f9df-4616-bd52-832d0af74ae0","ios":"levelo://app?vid=7956d4b7-f9df-4616-bd52-832d0af74ae0"},"vehicle_type_id":"4","last_reported":1743977313,"current_range_meters":14400,"station_id":"ce4bhkp2rcd13ifvqgd0","pricing_plan_id":"cebpf4jnsgd1na2vs0mg"},{"bike_id":"f4832abd-f35c-481e-82f2-2bb40a89ba44","system_id":"levelo_inurba_marseille","lat":43.306,"lon":5.3935,"is_reserved":false,"is_disabled":false,"rental_uris":{"android":"levelo://app?vid=f4832abd-f35c-481e-82f2-2bb40a89ba44","ios":"levelo://app?vid=f4832abd-f35c-481e-82f2-2bb40a89ba44"},"vehicle_type_id":"4","last_reported":1743977313,"current_range_meters":14400,"station_id":"ce4bh0p2rcd13ifvqd80","pricing_plan_id":"cebpf4jnsgd1na2vs0mg"},{"bike_id":"d3940f6d-6c26-4ccb-aa36-1b12f0ca6ef4","system_id":"levelo_inurba_marseille","lat":43.32096,"lon":5.38524,"is_reserved":false,"is_disabled":false,"rental_uris":{"android":"levelo://app?vid=d3940f6d-6c26-4ccb-aa36-1b12f0ca6ef4","ios":"levelo://app?vid=d3940f6d-6c26-4ccb-aa36-1b12f0ca6ef4"},"vehicle_type_id":"4","last_reported":1743977313,"current_range_meters":14400,"station_id":"","pricing_plan_id":"cebpf4jnsgd1na2vs0mg"},{"bike_id":"8c0277e1-e4c4-40a5-98df-41fe842b8a42","system_id":"levelo_inurba_marseille","lat":43.25836,"lon":5.39418,"is_reserved":false,"is_disabled":true,"rental_uris":{"android":"levelo://app?vid=8c0277e1-e4c4-40a5-98df-41fe842b8a42","ios":"levelo://app?vid=8c0277e1-e4c4-40a5-98df-41fe842b8a42"},"vehicle_type_id":"4","last_reported":1743977313,"current_range_meters":14400,"station_id":"ce4bhip2rcd13ifvqft0","pricing_plan_id":"cebpf4jnsgd1na2vs0mg"},{"bike_id":"c6fa0727-0435-47be-b1ab-074787508819","system_id":"levelo_inurba_marseille","lat":43.28103,"lon":5.37837,"is_reserved":false,"is_disabled":false,"rental_uris":{"android":"levelo://app?vid=c6fa0727-0435-47be-b1ab-074787508819","ios":"levelo://app?vid=c6fa0727-0435-47be-b1ab-074787508819"},"vehicle_type_id":"4","last_reported":1743977313,"current_range_meters":14800,"station_id":"ce4bha12rcd13ifvqee0","pricing_plan_id":"cebpf4jnsgd1na2vs0mg"},{"bike_id":"f5a135ae-6da6-43f5-944c-2fcefb4a89ef","system_id":"levelo_inurba_marseille","lat":43.30932,"lon":5.40138,"is_reserved":false,"is_disabled":false,"rental_uris":{"android":"levelo://app?vid=f5a135ae-6da6-43f5-944c-2fcefb4a89ef","ios":"levelo://app?vid=f5a135ae-6da6-43f5-944c-2fcefb4a89ef"},"vehicle_type_id":"4","last_reported":1743977313,"current_range_meters":14800,"station_id":"ce4bgvp2rcd13ifvqct0","pricing_plan_id":"cebpf4jnsgd1na2vs0mg"},{"bike_id":"73272853-088e-4b39-8e6e-94fe10fc353c","system_id":"levelo_inurba_marseille","lat":43.33767,"lon":5.37485,"is_reserved":false,"is_disabled":false,"rental_uris":{"android":"levelo://app?vid=73272853-088e-4b39-8e6e-94fe10fc353c","ios":"levelo://app?vid=73272853-088e-4b39-8e6e-94fe10fc353c"},"vehicle_type_id":"4","last_reported":1743977313,"current_range_meters":14800,"station_id":"","pricing_plan_id":"cebpf4jnsgd1na2vs0mg"},{"bike_id":"b5f969de-f00c-4527-8db7-b0bfd727b190","system_id":"levelo_inurba_marseille","lat":43.280449,"lon":5.37825,"is_reserved":false,"is_disabled":false,"rental_uris":{"android":"levelo://app?vid=b5f969de-f00c-4527-8db7-b0bfd727b190","ios":"levelo://app?vid=b5f969de-f00c-4527-8db7-b0bfd727b190"},"vehicle_type_id":"4","last_reported":1743977313,"current_range_meters":14800,"station_id":"","pricing_plan_id":"cebpf4jnsgd1na2vs0mg"},{"bike_id":"9bd92e36-b69c-4953-8788-c372ba88380f","system_id":"levelo_inurba_marseille","lat":43.30087,"lon":5.39083,"is_reserved":false,"is_disabled":false,"rental_uris":{"android":"levelo://app?vid=9bd92e36-b69c-4953-8788-c372ba88380f","ios":"levelo://app?vid=9bd92e36-b69c-4953-8788-c372ba88380f"},"vehicle_type_id":"4","last_reported":1743977313,"current_range_meters":15200,"station_id":"ce4bh192rcd13ifvqdb0","pricing_plan_id":"cebpf4jnsgd1na2vs0mg"},{"bike_id":"5feafc98-4b26-49bb-ba50-02bc38f5506b","system_id":"levelo_inurba_marseille","lat":43.31338,"lon":5.39684,"is_reserved":false,"is_disabled":false,"rental_uris":{"android":"levelo://app?vid=5feafc98-4b26-49bb-ba50-02bc38f5506b","ios":"levelo://app?vid=5feafc98-4b26-49bb-ba50-02bc38f5506b"},"vehicle_type_id":"4","last_reported":1743977313,"current_range_meters":15200,"station_id":"ce4bgvp2rcd13ifvqcu0","pricing_plan_id":"cebpf4jnsgd1na2vs0mg"},{"bike_id":"75542a4d-9d76-4be2-bee4-c8f8a68f22e5","system_id":"levelo_inurba_marseille","lat":43.30208,"lon":5.39469,"is_reserved":false,"is_disabled":false,"rental_uris":{"android":"levelo://app?vid=75542a4d-9d76-4be2-bee4-c8f8a68f22e5","ios":"levelo://app?vid=75542a4d-9d76-4be2-bee4-c8f8a68f22e5"},"vehicle_type_id":"4","last_reported":1743977313,"current_range_meters":15200,"station_id":"ce4bh0p2rcd13ifvqd70","pricing_plan_id":"cebpf4jnsgd1na2vs0mg"},{"bike_id":"adb4ee41-a46b-4f37-a518-a2b370471489","system_id":"levelo_inurba_marseille","lat":43.27327,"lon":5.41147,"is_reserved":false,"is_disabled":false,"rental_uris":{"android":"levelo://app?vid=adb4ee41-a46b-4f37-a518-a2b370471489","ios":"levelo://app?vid=adb4ee41-a46b-4f37-a518-a2b370471489"},"vehicle_type_id":"4","last_reported":1743977313,"current_range_meters":15200,"station_id":"","pricing_plan_id":"cebpf4jnsgd1na2vs0mg"},{"bike_id":"8daa3e29-a6dc-495f-b0f9-540d9e71c557","system_id":"levelo_inurba_marseille","lat":43.262,"lon":5.3745,"is_reserved":false,"is_disabled":true,"rental_uris":{"android":"levelo://app?vid=8daa3e29-a6dc-495f-b0f9-540d9e71c557","ios":"levelo://app?vid=8daa3e29-a6dc-495f-b0f9-540d9e71c557"},"vehicle_type_id":"4","last_reported":1743977313,"current_range_meters":16000,"station_id":"ce4bhgp2rcd13ifvqfc0","pricing_plan_id":"cebpf4jnsgd1na2vs0mg"},{"bike_id":"03888cd5-4741-4687-b539-7d95c10e592b","system_id":"levelo_inurba_marseille","lat":43.25115,"lon":5.4033,"is_reserved":false,"is_disabled":false,"rental_uris":{"android":"levelo://app?vid=03888cd5-4741-4687-b539-7d95c10e592b","ios":"levelo://app?vid=03888cd5-4741-4687-b539-7d95c10e592b"},"vehicle_type_id":"4","last_reported":1743977313,"current_range_meters":16000,"station_id":"ce4bhlh2rcd13ifvqgig","pricing_plan_id":"cebpf4jnsgd1na2vs0mg"},{"bike_id":"9bff3d05-dfcf-4ab2-b275-d12236f645fd","system_id":"levelo_inurba_marseille","lat":43.284745,"lon":5.384177,"is_reserved":false,"is_disabled":false,"rental_uris":{"android":"levelo://app?vid=9bff3d05-dfcf-4ab2-b275-d12236f645fd","ios":"levelo://app?vid=9bff3d05-dfcf-4ab2-b275-d12236f645fd"},"vehicle_type_id":"4","last_reported":1743977313,"current_range_meters":16000,"station_id":"ce4bh512rcd13ifvqe3g","pricing_plan_id":"cebpf4jnsgd1na2vs0mg"},{"bike_id":"88728674-8bd3-4307-aaaa-234ba2ac57a2","system_id":"levelo_inurba_marseille","lat":43.25112,"lon":5.40321,"is_reserved":false,"is_disabled":false,"rental_uris":{"android":"levelo://app?vid=88728674-8bd3-4307-aaaa-234ba2ac57a2","ios":"levelo://app?vid=88728674-8bd3-4307-aaaa-234ba2ac57a2"},"vehicle_type_id":"4","last_reported":1743977313,"current_range_meters":16000,"station_id":"ce4bhlh2rcd13ifvqgig","pricing_plan_id":"cebpf4jnsgd1na2vs0mg"},{"bike_id":"3574d125-d41c-453d-b848-638c8baed259","system_id":"levelo_inurba_marseille","lat":43.33604,"lon":5.41027,"is_reserved":false,"is_disabled":false,"rental_uris":{"android":"levelo://app?vid=3574d125-d41c-453d-b848-638c8baed259","ios":"levelo://app?vid=3574d125-d41c-453d-b848-638c8baed259"},"vehicle_type_id":"4","last_reported":1743977313,"current_range_meters":16000,"station_id":"ce4bhqh2rcd13ifvqhmg","pricing_plan_id":"cebpf4jnsgd1na2vs0mg"},{"bike_id":"250c33e2-220e-4692-9a53-439d57fdbb7f","system_id":"levelo_inurba_marseille","lat":43.28945,"lon":5.36399,"is_reserved":false,"is_disabled":false,"rental_uris":{"android":"levelo://app?vid=250c33e2-220e-4692-9a53-439d57fdbb7f","ios":"levelo://app?vid=250c33e2-220e-4692-9a53-439d57fdbb7f"},"vehicle_type_id":"4","last_reported":1743977313,"current_range_meters":16000,"station_id":"ce4bhc92rcd13ifvqetg","pricing_plan_id":"cebpf4jnsgd1na2vs0mg"},{"bike_id":"8127a379-abcb-448e-b192-b2b588a12b57","system_id":"levelo_inurba_marseille","lat":43.25717,"lon":5.41093,"is_reserved":false,"is_disabled":false,"rental_uris":{"android":"levelo://app?vid=8127a379-abcb-448e-b192-b2b588a12b57","ios":"levelo://app?vid=8127a379-abcb-448e-b192-b2b588a12b57"},"vehicle_type_id":"4","last_reported":1743977313,"current_range_meters":16000,"station_id":"ce4bhkp2rcd13ifvqgd0","pricing_plan_id":"cebpf4jnsgd1na2vs0mg"},{"bike_id":"af69ddaf-3c35-451f-90e1-22db18d9f81c","system_id":"levelo_inurba_marseille","lat":43.30792,"lon":5.4353,"is_reserved":false,"is_disabled":false,"rental_uris":{"android":"levelo://app?vid=af69ddaf-3c35-451f-90e1-22db18d9f81c","ios":"levelo://app?vid=af69ddaf-3c35-451f-90e1-22db18d9f81c"},"vehicle_type_id":"4","last_reported":1743977313,"current_range_meters":16000,"station_id":"ce4bhph2rcd13ifvqheg","pricing_plan_id":"cebpf4jnsgd1na2vs0mg"},{"bike_id":"36bad958-5b66-40dd-af90-e706d63444a6","system_id":"levelo_inurba_marseille","lat":43.32009,"lon":5.38153,"is_reserved":false,"is_disabled":false,"rental_uris":{"android":"levelo://app?vid=36bad958-5b66-40dd-af90-e706d63444a6","ios":"levelo://app?vid=36bad958-5b66-40dd-af90-e706d63444a6"},"vehicle_type_id":"4","last_reported":1743977313,"current_range_meters":16000,"station_id":"ce4bhr12rcd13ifvqhpg","pricing_plan_id":"cebpf4jnsgd1na2vs0mg"},{"bike_id":"03459487-5609-45d6-8672-77ad1a4c94a5","system_id":"levelo_inurba_marseille","lat":43.2315,"lon":5.43717,"is_reserved":false,"is_disabled":false,"rental_uris":{"android":"levelo://app?vid=03459487-5609-45d6-8672-77ad1a4c94a5","ios":"levelo://app?vid=03459487-5609-45d6-8672-77ad1a4c94a5"},"vehicle_type_id":"4","last_reported":1743977313,"current_range_meters":16400,"station_id":"ce4bhmp2rcd13ifvqgog","pricing_plan_id":"cebpf4jnsgd1na2vs0mg"},{"bike_id":"940d416a-3d1a-45ff-8a21-cd1a7ca66435","system_id":"levelo_inurba_marseille","lat":43.24393,"lon":5.37064,"is_reserved":false,"is_disabled":true,"rental_uris":{"android":"levelo://app?vid=940d416a-3d1a-45ff-8a21-cd1a7ca66435","ios":"levelo://app?vid=940d416a-3d1a-45ff-8a21-cd1a7ca66435"},"vehicle_type_id":"4","last_reported":1743977313,"current_range_meters":16400,"station_id":"ce4bhhh2rcd13ifvqfk0","pricing_plan_id":"cebpf4jnsgd1na2vs0mg"},{"bike_id":"d2c0f1ed-7cb7-410c-aa2f-6defec26c88a","system_id":"levelo_inurba_marseille","lat":43.27998,"lon":5.4168,"is_reserved":false,"is_disabled":false,"rental_uris":{"android":"levelo://app?vid=d2c0f1ed-7cb7-410c-aa2f-6defec26c88a","ios":"levelo://app?vid=d2c0f1ed-7cb7-410c-aa2f-6defec26c88a"},"vehicle_type_id":"4","last_reported":1743977313,"current_range_meters":16400,"station_id":"ce4bho12rcd13ifvqh1g","pricing_plan_id":"cebpf4jnsgd1na2vs0mg"},{"bike_id":"672083c5-5262-4705-8ed2-1e985f3ea8bb","system_id":"levelo_inurba_marseille","lat":43.30449,"lon":5.39747,"is_reserved":false,"is_disabled":false,"rental_uris":{"android":"levelo://app?vid=672083c5-5262-4705-8ed2-1e985f3ea8bb","ios":"levelo://app?vid=672083c5-5262-4705-8ed2-1e985f3ea8bb"},"vehicle_type_id":"4","last_reported":1743977313,"current_range_meters":16400,"station_id":"ce4bh092rcd13ifvqd20","pricing_plan_id":"cebpf4jnsgd1na2vs0mg"},{"bike_id":"69958ff1-cb62-49e8-9b82-a1ed101a64a3","system_id":"levelo_inurba_marseille","lat":43.304273,"lon":5.388969,"is_reserved":false,"is_disabled":false,"rental_uris":{"android":"levelo://app?vid=69958ff1-cb62-49e8-9b82-a1ed101a64a3","ios":"levelo://app?vid=69958ff1-cb62-49e8-9b82-a1ed101a64a3"},"vehicle_type_id":"4","last_reported":1743977313,"current_range_meters":16400,"station_id":"ce4bgk12rcd13ifvqbi0","pricing_plan_id":"cebpf4jnsgd1na2vs0mg"},{"bike_id":"fe6a5d11-7a89-4f26-a5be-b6f80e5177e6","system_id":"levelo_inurba_marseille","lat":43.28265,"lon":5.35062,"is_reserved":false,"is_disabled":false,"rental_uris":{"android":"levelo://app?vid=fe6a5d11-7a89-4f26-a5be-b6f80e5177e6","ios":"levelo://app?vid=fe6a5d11-7a89-4f26-a5be-b6f80e5177e6"},"vehicle_type_id":"4","last_reported":1743977313,"current_range_meters":16400,"station_id":"ce4bhbp2rcd13ifvqerg","pricing_plan_id":"cebpf4jnsgd1na2vs0mg"},{"bike_id":"3038e27a-3c15-4e20-acfa-201ea6a731ec","system_id":"levelo_inurba_marseille","lat":43.25823,"lon":5.39432,"is_reserved":false,"is_disabled":false,"rental_uris":{"android":"levelo://app?vid=3038e27a-3c15-4e20-acfa-201ea6a731ec","ios":"levelo://app?vid=3038e27a-3c15-4e20-acfa-201ea6a731ec"},"vehicle_type_id":"4","last_reported":1743977313,"current_range_meters":16400,"station_id":"ce4bhip2rcd13ifvqft0","pricing_plan_id":"cebpf4jnsgd1na2vs0mg"},{"bike_id":"d59d94e9-9758-4e70-8f6d-f720ca0e403c","system_id":"levelo_inurba_marseille","lat":43.27595,"lon":5.36122,"is_reserved":false,"is_disabled":true,"rental_uris":{"android":"levelo://app?vid=d59d94e9-9758-4e70-8f6d-f720ca0e403c","ios":"levelo://app?vid=d59d94e9-9758-4e70-8f6d-f720ca0e403c"},"vehicle_type_id":"4","last_reported":1743977313,"current_range_meters":16400,"station_id":"ce4bgj92rcd13ifvqbe0","pricing_plan_id":"cebpf4jnsgd1na2vs0mg"},{"bike_id":"10a6fd1f-f62a-4eb6-9505-44bd29f8ace0","system_id":"levelo_inurba_marseille","lat":43.284,"lon":5.37523,"is_reserved":false,"is_disabled":false,"rental_uris":{"android":"levelo://app?vid=10a6fd1f-f62a-4eb6-9505-44bd29f8ace0","ios":"levelo://app?vid=10a6fd1f-f62a-4eb6-9505-44bd29f8ace0"},"vehicle_type_id":"4","last_reported":1743977313,"current_range_meters":16400,"station_id":"ce4bh412rcd13ifvqds0","pricing_plan_id":"cebpf4jnsgd1na2vs0mg"},{"bike_id":"d51ac8f6-9a9a-4e22-bd81-fdfbebe96c8e","system_id":"levelo_inurba_marseille","lat":43.28638,"lon":5.35086,"is_reserved":false,"is_disabled":false,"rental_uris":{"android":"levelo://app?vid=d51ac8f6-9a9a-4e22-bd81-fdfbebe96c8e","ios":"levelo://app?vid=d51ac8f6-9a9a-4e22-bd81-fdfbebe96c8e"},"vehicle_type_id":"4","last_reported":1743977313,"current_range_meters":16400,"station_id":"ce4bhch2rcd13ifvqeug","pricing_plan_id":"cebpf4jnsgd1na2vs0mg"},{"bike_id":"8ca8d5be-29df-4312-9381-63fe1db0a38b","system_id":"levelo_inurba_marseille","lat":43.31168,"lon":5.387,"is_reserved":false,"is_disabled":false,"rental_uris":{"android":"levelo://app?vid=8ca8d5be-29df-4312-9381-63fe1db0a38b","ios":"levelo://app?vid=8ca8d5be-29df-4312-9381-63fe1db0a38b"},"vehicle_type_id":"4","last_reported":1743977313,"current_range_meters":16800,"station_id":"ce4bgv12rcd13ifvqcp0","pricing_plan_id":"cebpf4jnsgd1na2vs0mg"},{"bike_id":"7e68812f-f97b-4e36-9c60-ea450212fc32","system_id":"levelo_inurba_marseille","lat":43.28165,"lon":5.42662,"is_reserved":false,"is_disabled":false,"rental_uris":{"android":"levelo://app?vid=7e68812f-f97b-4e36-9c60-ea450212fc32","ios":"levelo://app?vid=7e68812f-f97b-4e36-9c60-ea450212fc32"},"vehicle_type_id":"4","last_reported":1743977313,"current_range_meters":16800,"station_id":"ce4bhnh2rcd13ifvqgug","pricing_plan_id":"cebpf4jnsgd1na2vs0mg"},{"bike_id":"d08d492d-c862-4196-9547-6bb7b782dcc9","system_id":"levelo_inurba_marseille","lat":43.31266,"lon":5.40169,"is_reserved":false,"is_disabled":false,"rental_uris":{"android":"levelo://app?vid=d08d492d-c862-4196-9547-6bb7b782dcc9","ios":"levelo://app?vid=d08d492d-c862-4196-9547-6bb7b782dcc9"},"vehicle_type_id":"4","last_reported":1743977313,"current_range_meters":16800,"station_id":"ce4bh092rcd13ifvqd30","pricing_plan_id":"cebpf4jnsgd1na2vs0mg"},{"bike_id":"e5a70e4d-ec07-47ae-aa33-4850f85784ef","system_id":"levelo_inurba_marseille","lat":43.29726,"lon":5.36623,"is_reserved":false,"is_disabled":false,"rental_uris":{"android":"levelo://app?vid=e5a70e4d-ec07-47ae-aa33-4850f85784ef","ios":"levelo://app?vid=e5a70e4d-ec07-47ae-aa33-4850f85784ef"},"vehicle_type_id":"4","last_reported":1743977313,"current_range_meters":16800,"station_id":"ce4bgn12rcd13ifvqbt0","pricing_plan_id":"cebpf4jnsgd1na2vs0mg"},{"bike_id":"a43d4cf0-2e3b-43ff-8491-8e271e1de2a8","system_id":"levelo_inurba_marseille","lat":43.29166,"lon":5.37165,"is_reserved":false,"is_disabled":false,"rental_uris":{"android":"levelo://app?vid=a43d4cf0-2e3b-43ff-8491-8e271e1de2a8","ios":"levelo://app?vid=a43d4cf0-2e3b-43ff-8491-8e271e1de2a8"},"vehicle_type_id":"4","last_reported":1743977313,"current_range_meters":16800,"station_id":"ce4bha92rcd13ifvqeh0","pricing_plan_id":"cebpf4jnsgd1na2vs0mg"},